{"last_updated":1738732164,"ttl":60,"version":"2.2","data":{"bikes":[{"bike_id":"ac8e0c69-614c-4810-998e-91bcfe0db2c7","system_id":"levelo_inurba_marseille","lat":43.29197,"lon":5.39318,"is_reserved":false,"is_disabled":false,"rental_uris":{"android":"levelo://app?vid=ac8e0c69-614c-4810-998e-91bcfe0db2c7","ios":"levelo://app?vid=ac8e0c69-614c-4810-998e-91bcfe0db2c7"},"vehicle_type_id":"4","last_reported":1738732165,"current_range_meters":37600,"station_id":"ce4bh192rcd13ifvqdd0","pricing_plan_id":"cebpf4jnsgd1na2vs0mg"},{"bike_id":"84598151-c453-4c49-a4d4-90560262791b","system_id":"levelo_inurba_marseille","lat":43.25811,"lon":5.39405,"is_reserved":false,"is_disabled":false,"rental_uris":{"android":"levelo://app?vid=84598151-c453-4c49-a4d4-90560262791b","ios":"levelo://app?vid=84598151-c453-4c49-a4d4-90560262791b"},"vehicle_type_id":"4","last_reported":1738732165,"current_range_meters":38800,"station_id":"ce4bhip2rcd13ifvqft0","pricing_plan_id":"cebpf4jnsgd1na2vs0mg"},{"bike_id":"419c8c22-86a4-4ef5-91f4-a06b4c2e4bba","system_id":"levelo_inurba_marseille","lat":43.22905,"lon":5.3535,"is_reserved":false,"is_disabled":false,"rental_uris":{"android":"levelo://app?vid=419c8c22-86a4-4ef5-91f4-a06b4c2e4bba","ios":"levelo://app?vid=419c8c22-86a4-4ef5-91f4-a06b4c2e4bba"},"vehicle_type_id":"4","last_reported":1738732165,"current_range_meters":27600,"station_id":"cpo3532slgdg3j2ikp40","pricing_plan_id":"cebpf4jnsgd1na2vs0mg"},{"bike_id":"1635dc72-5712-4882-a85d-98d6e3eadc67","system_id":"levelo_inurba_marseille","lat":43.24076,"lon":5.37744,"is_reserved":false,"is_disabled":false,"rental_uris":{"android":"levelo://app?vid=1635dc72-5712-4882-a85d-98d6e3eadc67","ios":"levelo://app?vid=1635dc72-5712-4882-a85d-98d6e3eadc67"},"vehicle_type_id":"4","last_reported":1738732165,"current_range_meters":38000,"station_id":"ce4bhnp2rcd13ifvqgvg","pricing_plan_id":"cebpf4jnsgd1na2vs0mg"},{"bike_id":"5548050e-6a2e-41b8-a548-5dd1660d2b80","system_id":"levelo_inurba_marseille","lat":43.30891,"lon":5.39665,"is_reserved":false,"is_disabled":false,"rental_uris":{"android":"levelo://app?vid=5548050e-6a2e-41b8-a548-5dd1660d2b80","ios":"levelo://app?vid=5548050e-6a2e-41b8-a548-5dd1660d2b80"},"vehicle_type_id":"4","last_reported":1738732165,"current_range_meters":9200,"station_id":"ce4bh012rcd13ifvqcv0","pricing_plan_id":"cebpf4jnsgd1na2vs0mg"},{"bike_id":"26b8c6d0-0da6-44db-91e7-4de5ef76b7aa","system_id":"levelo_inurba_marseille","lat":43.28616,"lon":5.35099,"is_reserved":false,"is_disabled":false,"rental_uris":{"android":"levelo://app?vid=26b8c6d0-0da6-44db-91e7-4de5ef76b7aa","ios":"levelo://app?vid=26b8c6d0-0da6-44db-91e7-4de5ef76b7aa"},"vehicle_type_id":"4","last_reported":1738732165,"current_range_meters":37600,"station_id":"ce4bhch2rcd13ifvqeug","pricing_plan_id":"cebpf4jnsgd1na2vs0mg"},{"bike_id":"995e4103-7b0d-48dd-ab29-ddec983c4cb1","system_id":"levelo_inurba_marseille","lat":43.2512,"lon":5.4033,"is_reserved":false,"is_disabled":false,"rental_uris":{"android":"levelo://app?vid=995e4103-7b0d-48dd-ab29-ddec983c4cb1","ios":"levelo://app?vid=995e4103-7b0d-48dd-ab29-ddec983c4cb1"},"vehicle_type_id":"4","last_reported":1738732165,"current_range_meters":25600,"station_id":"ce4bhlh2rcd13ifvqgig","pricing_plan_id":"cebpf4jnsgd1na2vs0mg"},{"bike_id":"1834cdfa-55d9-40d2-aec4-1230af582f98","system_id":"levelo_inurba_marseille","lat":43.29192,"lon":5.35797,"is_reserved":false,"is_disabled":false,"rental_uris":{"android":"levelo://app?vid=1834cdfa-55d9-40d2-aec4-1230af582f98","ios":"levelo://app?vid=1834cdfa-55d9-40d2-aec4-1230af582f98"},"vehicle_type_id":"4","last_reported":1738732165,"current_range_meters":38800,"station_id":"ce4bhb12rcd13ifvqel0","pricing_plan_id":"cebpf4jnsgd1na2vs0mg"},{"bike_id":"02a904ec-0fc6-49cf-bf85-39b52a013347","system_id":"levelo_inurba_marseille","lat":43.28153,"lon":5.42662,"is_reserved":false,"is_disabled":false,"rental_uris":{"android":"levelo://app?vid=02a904ec-0fc6-49cf-bf85-39b52a013347","ios":"levelo://app?vid=02a904ec-0fc6-49cf-bf85-39b52a013347"},"vehicle_type_id":"4","last_reported":1738732165,"current_range_meters":38800,"station_id":"ce4bhnh2rcd13ifvqgug","pricing_plan_id":"cebpf4jnsgd1na2vs0mg"},{"bike_id":"caf558c3-a9ad-4fe3-92b6-038f06ef09fe","system_id":"levelo_inurba_marseille","lat":43.23182,"lon":5.35544,"is_reserved":false,"is_disabled":false,"rental_uris":{"android":"levelo://app?vid=caf558c3-a9ad-4fe3-92b6-038f06ef09fe","ios":"levelo://app?vid=caf558c3-a9ad-4fe3-92b6-038f06ef09fe"},"vehicle_type_id":"4","last_reported":1738732165,"current_range_meters":12800,"station_id":"ce4bhu92rcd13ifvqi70","pricing_plan_id":"cebpf4jnsgd1na2vs0mg"},{"bike_id":"aad8d0bd-741c-40f9-af42-ff8b24acf8ba","system_id":"levelo_inurba_marseille","lat":43.284165,"lon":5.375148,"is_reserved":false,"is_disabled":false,"rental_uris":{"android":"levelo://app?vid=aad8d0bd-741c-40f9-af42-ff8b24acf8ba","ios":"levelo://app?vid=aad8d0bd-741c-40f9-af42-ff8b24acf8ba"},"vehicle_type_id":"4","last_reported":1738732165,"current_range_meters":23200,"station_id":"ce4bh412rcd13ifvqds0","pricing_plan_id":"cebpf4jnsgd1na2vs0mg"},{"bike_id":"063214a5-99eb-4918-b0fe-a4120e0e58b0","system_id":"levelo_inurba_marseille","lat":43.313273,"lon":5.396938,"is_reserved":false,"is_disabled":false,"rental_uris":{"android":"levelo://app?vid=063214a5-99eb-4918-b0fe-a4120e0e58b0","ios":"levelo://app?vid=063214a5-99eb-4918-b0fe-a4120e0e58b0"},"vehicle_type_id":"4","last_reported":1738732165,"current_range_meters":28800,"station_id":"ce4bgvp2rcd13ifvqcu0","pricing_plan_id":"cebpf4jnsgd1na2vs0mg"},{"bike_id":"7e19e353-1331-446b-aa47-ecd228ac2406","system_id":"levelo_inurba_marseille","lat":43.30512,"lon":5.37912,"is_reserved":false,"is_disabled":false,"rental_uris":{"android":"levelo://app?vid=7e19e353-1331-446b-aa47-ecd228ac2406","ios":"levelo://app?vid=7e19e353-1331-446b-aa47-ecd228ac2406"},"vehicle_type_id":"4","last_reported":1738732165,"current_range_meters":38000,"station_id":"ce4bgup2rcd13ifvqcn0","pricing_plan_id":"cebpf4jnsgd1na2vs0mg"},{"bike_id":"a9bd79b5-1c90-4aba-b1e9-d7eabea49915","system_id":"levelo_inurba_marseille","lat":43.31724,"lon":5.42406,"is_reserved":false,"is_disabled":false,"rental_uris":{"android":"levelo://app?vid=a9bd79b5-1c90-4aba-b1e9-d7eabea49915","ios":"levelo://app?vid=a9bd79b5-1c90-4aba-b1e9-d7eabea49915"},"vehicle_type_id":"4","last_reported":1738732165,"current_range_meters":39200,"station_id":"ce4bhp92rcd13ifvqhbg","pricing_plan_id":"cebpf4jnsgd1na2vs0mg"},{"bike_id":"0db77ccd-018c-4148-a078-44d034315823","system_id":"levelo_inurba_marseille","lat":43.28422,"lon":5.3753,"is_reserved":false,"is_disabled":false,"rental_uris":{"android":"levelo://app?vid=0db77ccd-018c-4148-a078-44d034315823","ios":"levelo://app?vid=0db77ccd-018c-4148-a078-44d034315823"},"vehicle_type_id":"4","last_reported":1738732165,"current_range_meters":32000,"station_id":"ce4bh412rcd13ifvqds0","pricing_plan_id":"cebpf4jnsgd1na2vs0mg"},{"bike_id":"6a2d4ebb-73b9-49fe-a603-0cc2bbea31cd","system_id":"levelo_inurba_marseille","lat":43.30585,"lon":5.39355,"is_reserved":false,"is_disabled":false,"rental_uris":{"android":"levelo://app?vid=6a2d4ebb-73b9-49fe-a603-0cc2bbea31cd","ios":"levelo://app?vid=6a2d4ebb-73b9-49fe-a603-0cc2bbea31cd"},"vehicle_type_id":"4","last_reported":1738732165,"current_range_meters":18000,"station_id":"ce4bh0p2rcd13ifvqd80","pricing_plan_id":"cebpf4jnsgd1na2vs0mg"},{"bike_id":"1502bae1-4cda-4111-8ca7-1a392cb91b6c","system_id":"levelo_inurba_marseille","lat":43.29447,"lon":5.39747,"is_reserved":false,"is_disabled":false,"rental_uris":{"android":"levelo://app?vid=1502bae1-4cda-4111-8ca7-1a392cb91b6c","ios":"levelo://app?vid=1502bae1-4cda-4111-8ca7-1a392cb91b6c"},"vehicle_type_id":"4","last_reported":1738732165,"current_range_meters":38000,"station_id":"ce4bh3h2rcd13ifvqdo0","pricing_plan_id":"cebpf4jnsgd1na2vs0mg"},{"bike_id":"e348267a-1d36-48c2-b726-858237cd83df","system_id":"levelo_inurba_marseille","lat":43.29887,"lon":5.39705,"is_reserved":false,"is_disabled":false,"rental_uris":{"android":"levelo://app?vid=e348267a-1d36-48c2-b726-858237cd83df","ios":"levelo://app?vid=e348267a-1d36-48c2-b726-858237cd83df"},"vehicle_type_id":"4","last_reported":1738732165,"current_range_meters":38400,"station_id":"ce4bh0h2rcd13ifvqd50","pricing_plan_id":"cebpf4jnsgd1na2vs0mg"},{"bike_id":"f56185a9-012f-40f6-b178-338a8bf6ac85","system_id":"levelo_inurba_marseille","lat":43.30902,"lon":5.40171,"is_reserved":false,"is_disabled":false,"rental_uris":{"android":"levelo://app?vid=f56185a9-012f-40f6-b178-338a8bf6ac85","ios":"levelo://app?vid=f56185a9-012f-40f6-b178-338a8bf6ac85"},"vehicle_type_id":"4","last_reported":1738732165,"current_range_meters":34000,"station_id":"ce4bgvp2rcd13ifvqct0","pricing_plan_id":"cebpf4jnsgd1na2vs0mg"},{"bike_id":"6904e55f-4549-4822-ac5c-19ad74d96c5f","system_id":"levelo_inurba_marseille","lat":43.31137,"lon":5.38669,"is_reserved":false,"is_disabled":false,"rental_uris":{"android":"levelo://app?vid=6904e55f-4549-4822-ac5c-19ad74d96c5f","ios":"levelo://app?vid=6904e55f-4549-4822-ac5c-19ad74d96c5f"},"vehicle_type_id":"4","last_reported":1738732165,"current_range_meters":28800,"station_id":"ce4bgv12rcd13ifvqcp0","pricing_plan_id":"cebpf4jnsgd1na2vs0mg"},{"bike_id":"733e5fea-25dd-49bf-906f-98327c943ed7","system_id":"levelo_inurba_marseille","lat":43.30323,"lon":5.40427,"is_reserved":false,"is_disabled":false,"rental_uris":{"android":"levelo://app?vid=733e5fea-25dd-49bf-906f-98327c943ed7","ios":"levelo://app?vid=733e5fea-25dd-49bf-906f-98327c943ed7"},"vehicle_type_id":"4","last_reported":1738732165,"current_range_meters":35600,"station_id":"ce4bh012rcd13ifvqd10","pricing_plan_id":"cebpf4jnsgd1na2vs0mg"},{"bike_id":"2eccb31c-cea6-40f3-a52e-73d0d15522b6","system_id":"levelo_inurba_marseille","lat":43.308926,"lon":5.396476,"is_reserved":false,"is_disabled":false,"rental_uris":{"android":"levelo://app?vid=2eccb31c-cea6-40f3-a52e-73d0d15522b6","ios":"levelo://app?vid=2eccb31c-cea6-40f3-a52e-73d0d15522b6"},"vehicle_type_id":"4","last_reported":1738732165,"current_range_meters":38000,"station_id":"ce4bh012rcd13ifvqcv0","pricing_plan_id":"cebpf4jnsgd1na2vs0mg"},{"bike_id":"f88e9836-7d29-4bff-b116-30872ae8c64b","system_id":"levelo_inurba_marseille","lat":43.279976,"lon":5.416698,"is_reserved":false,"is_disabled":false,"rental_uris":{"android":"levelo://app?vid=f88e9836-7d29-4bff-b116-30872ae8c64b","ios":"levelo://app?vid=f88e9836-7d29-4bff-b116-30872ae8c64b"},"vehicle_type_id":"4","last_reported":1738732165,"current_range_meters":38000,"station_id":"ce4bho12rcd13ifvqh1g","pricing_plan_id":"cebpf4jnsgd1na2vs0mg"},{"bike_id":"585548c3-dfea-4775-b261-9cda396a75ed","system_id":"levelo_inurba_marseille","lat":43.30925,"lon":5.40148,"is_reserved":false,"is_disabled":true,"rental_uris":{"android":"levelo://app?vid=585548c3-dfea-4775-b261-9cda396a75ed","ios":"levelo://app?vid=585548c3-dfea-4775-b261-9cda396a75ed"},"vehicle_type_id":"4","last_reported":1738732165,"current_range_meters":38400,"station_id":"ce4bgvp2rcd13ifvqct0","pricing_plan_id":"cebpf4jnsgd1na2vs0mg"},{"bike_id":"7eaacd34-10f9-4246-8aa1-4a22e07a7c06","system_id":"levelo_inurba_marseille","lat":43.31642,"lon":5.37407,"is_reserved":false,"is_disabled":false,"rental_uris":{"android":"levelo://app?vid=7eaacd34-10f9-4246-8aa1-4a22e07a7c06","ios":"levelo://app?vid=7eaacd34-10f9-4246-8aa1-4a22e07a7c06"},"vehicle_type_id":"4","last_reported":1738732165,"current_range_meters":27600,"station_id":"","pricing_plan_id":"cebpf4jnsgd1na2vs0mg"},{"bike_id":"1572cbca-62ac-4b78-95e4-0e23353e4f06","system_id":"levelo_inurba_marseille","lat":43.29048,"lon":5.3591,"is_reserved":false,"is_disabled":false,"rental_uris":{"android":"levelo://app?vid=1572cbca-62ac-4b78-95e4-0e23353e4f06","ios":"levelo://app?vid=1572cbca-62ac-4b78-95e4-0e23353e4f06"},"vehicle_type_id":"4","last_reported":1738732165,"current_range_meters":11200,"station_id":"ce4bha92rcd13ifvqeg0","pricing_plan_id":"cebpf4jnsgd1na2vs0mg"},{"bike_id":"a8cfe157-3ba9-4ecb-8b89-61f956b868c4","system_id":"levelo_inurba_marseille","lat":43.322888,"lon":5.406354,"is_reserved":false,"is_disabled":false,"rental_uris":{"android":"levelo://app?vid=a8cfe157-3ba9-4ecb-8b89-61f956b868c4","ios":"levelo://app?vid=a8cfe157-3ba9-4ecb-8b89-61f956b868c4"},"vehicle_type_id":"4","last_reported":1738732165,"current_range_meters":27200,"station_id":"","pricing_plan_id":"cebpf4jnsgd1na2vs0mg"},{"bike_id":"e959c335-6e92-4b9b-855f-0db0ef28acdf","system_id":"levelo_inurba_marseille","lat":43.28252,"lon":5.35072,"is_reserved":false,"is_disabled":false,"rental_uris":{"android":"levelo://app?vid=e959c335-6e92-4b9b-855f-0db0ef28acdf","ios":"levelo://app?vid=e959c335-6e92-4b9b-855f-0db0ef28acdf"},"vehicle_type_id":"4","last_reported":1738732165,"current_range_meters":38800,"station_id":"ce4bhbp2rcd13ifvqerg","pricing_plan_id":"cebpf4jnsgd1na2vs0mg"},{"bike_id":"81232249-f73a-4ee8-8a83-c51d8a23ad51","system_id":"levelo_inurba_marseille","lat":43.25503,"lon":5.37664,"is_reserved":false,"is_disabled":false,"rental_uris":{"android":"levelo://app?vid=81232249-f73a-4ee8-8a83-c51d8a23ad51","ios":"levelo://app?vid=81232249-f73a-4ee8-8a83-c51d8a23ad51"},"vehicle_type_id":"4","last_reported":1738732165,"current_range_meters":39200,"station_id":"ce4bhh12rcd13ifvqff0","pricing_plan_id":"cebpf4jnsgd1na2vs0mg"},{"bike_id":"1a78f126-15bb-40e4-a379-1a33eae10b94","system_id":"levelo_inurba_marseille","lat":43.3211,"lon":5.36791,"is_reserved":false,"is_disabled":false,"rental_uris":{"android":"levelo://app?vid=1a78f126-15bb-40e4-a379-1a33eae10b94","ios":"levelo://app?vid=1a78f126-15bb-40e4-a379-1a33eae10b94"},"vehicle_type_id":"4","last_reported":1738732165,"current_range_meters":36800,"station_id":"ce4bhrh2rcd13ifvqhug","pricing_plan_id":"cebpf4jnsgd1na2vs0mg"},{"bike_id":"113a57da-01ae-462e-8598-43ef94186069","system_id":"levelo_inurba_marseille","lat":43.28859,"lon":5.39298,"is_reserved":false,"is_disabled":false,"rental_uris":{"android":"levelo://app?vid=113a57da-01ae-462e-8598-43ef94186069","ios":"levelo://app?vid=113a57da-01ae-462e-8598-43ef94186069"},"vehicle_type_id":"4","last_reported":1738732165,"current_range_meters":38800,"station_id":"ce4bh2p2rcd13ifvqdi0","pricing_plan_id":"cebpf4jnsgd1na2vs0mg"},{"bike_id":"a1b82c0a-bb26-4a65-9936-dea7c6beca90","system_id":"levelo_inurba_marseille","lat":43.27925,"lon":5.39593,"is_reserved":false,"is_disabled":false,"rental_uris":{"android":"levelo://app?vid=a1b82c0a-bb26-4a65-9936-dea7c6beca90","ios":"levelo://app?vid=a1b82c0a-bb26-4a65-9936-dea7c6beca90"},"vehicle_type_id":"4","last_reported":1738732165,"current_range_meters":33200,"station_id":"ce4bhf92rcd13ifvqf40","pricing_plan_id":"cebpf4jnsgd1na2vs0mg"},{"bike_id":"c92d27b3-011a-4b9b-85d3-c7a68cdf0054","system_id":"levelo_inurba_marseille","lat":43.324777,"lon":5.365669,"is_reserved":false,"is_disabled":true,"rental_uris":{"android":"levelo://app?vid=c92d27b3-011a-4b9b-85d3-c7a68cdf0054","ios":"levelo://app?vid=c92d27b3-011a-4b9b-85d3-c7a68cdf0054"},"vehicle_type_id":"4","last_reported":1738732165,"current_range_meters":14000,"station_id":"","pricing_plan_id":"cebpf4jnsgd1na2vs0mg"},{"bike_id":"f53cc797-2e23-4ec6-a462-85989923c05c","system_id":"levelo_inurba_marseille","lat":43.25001,"lon":5.38933,"is_reserved":false,"is_disabled":false,"rental_uris":{"android":"levelo://app?vid=f53cc797-2e23-4ec6-a462-85989923c05c","ios":"levelo://app?vid=f53cc797-2e23-4ec6-a462-85989923c05c"},"vehicle_type_id":"4","last_reported":1738732165,"current_range_meters":39200,"station_id":"ce4bhgp2rcd13ifvqfd0","pricing_plan_id":"cebpf4jnsgd1na2vs0mg"},{"bike_id":"a31da492-d404-42a4-a173-3e8c75aeef5d","system_id":"levelo_inurba_marseille","lat":43.24387,"lon":5.37056,"is_reserved":false,"is_disabled":false,"rental_uris":{"android":"levelo://app?vid=a31da492-d404-42a4-a173-3e8c75aeef5d","ios":"levelo://app?vid=a31da492-d404-42a4-a173-3e8c75aeef5d"},"vehicle_type_id":"4","last_reported":1738732165,"current_range_meters":30800,"station_id":"ce4bhhh2rcd13ifvqfk0","pricing_plan_id":"cebpf4jnsgd1na2vs0mg"},{"bike_id":"3cefc9f4-662a-490d-a7a9-f6d840f7ee85","system_id":"levelo_inurba_marseille","lat":43.25581,"lon":5.38237,"is_reserved":false,"is_disabled":false,"rental_uris":{"android":"levelo://app?vid=3cefc9f4-662a-490d-a7a9-f6d840f7ee85","ios":"levelo://app?vid=3cefc9f4-662a-490d-a7a9-f6d840f7ee85"},"vehicle_type_id":"4","last_reported":1738732165,"current_range_meters":18000,"station_id":"ce4bhih2rcd13ifvqfs0","pricing_plan_id":"cebpf4jnsgd1na2vs0mg"},{"bike_id":"a1a7079b-68b5-45ca-9af8-b6bc9f7cd559","system_id":"levelo_inurba_marseille","lat":43.22936,"lon":5.35374,"is_reserved":false,"is_disabled":false,"rental_uris":{"android":"levelo://app?vid=a1a7079b-68b5-45ca-9af8-b6bc9f7cd559","ios":"levelo://app?vid=a1a7079b-68b5-45ca-9af8-b6bc9f7cd559"},"vehicle_type_id":"4","last_reported":1738732165,"current_range_meters":38800,"station_id":"cpo3532slgdg3j2ikp40","pricing_plan_id":"cebpf4jnsgd1na2vs0mg"},{"bike_id":"4cff4c18-6936-40ba-b1b4-9d0ae4647e78","system_id":"levelo_inurba_marseille","lat":43.27556,"lon":5.384,"is_reserved":false,"is_disabled":false,"rental_uris":{"android":"levelo://app?vid=4cff4c18-6936-40ba-b1b4-9d0ae4647e78","ios":"levelo://app?vid=4cff4c18-6936-40ba-b1b4-9d0ae4647e78"},"vehicle_type_id":"4","last_reported":1738732165,"current_range_meters":30000,"station_id":"ce4bhh92rcd13ifvqfi0","pricing_plan_id":"cebpf4jnsgd1na2vs0mg"},{"bike_id":"b33c305b-93f2-4704-99fc-c1fc7dc94c00","system_id":"levelo_inurba_marseille","lat":43.311805,"lon":5.387129,"is_reserved":false,"is_disabled":false,"rental_uris":{"android":"levelo://app?vid=b33c305b-93f2-4704-99fc-c1fc7dc94c00","ios":"levelo://app?vid=b33c305b-93f2-4704-99fc-c1fc7dc94c00"},"vehicle_type_id":"4","last_reported":1738732165,"current_range_meters":38800,"station_id":"ce4bgv12rcd13ifvqcp0","pricing_plan_id":"cebpf4jnsgd1na2vs0mg"},{"bike_id":"b7406dda-3082-4224-bdff-a31932a4a7c1","system_id":"levelo_inurba_marseille","lat":43.28087,"lon":5.39655,"is_reserved":false,"is_disabled":false,"rental_uris":{"android":"levelo://app?vid=b7406dda-3082-4224-bdff-a31932a4a7c1","ios":"levelo://app?vid=b7406dda-3082-4224-bdff-a31932a4a7c1"},"vehicle_type_id":"4","last_reported":1738732165,"current_range_meters":28000,"station_id":"ce4bho12rcd13ifvqh2g","pricing_plan_id":"cebpf4jnsgd1na2vs0mg"},{"bike_id":"e900f4fe-f287-4f7a-a111-e62d22c31fb5","system_id":"levelo_inurba_marseille","lat":43.25577,"lon":5.38229,"is_reserved":false,"is_disabled":false,"rental_uris":{"android":"levelo://app?vid=e900f4fe-f287-4f7a-a111-e62d22c31fb5","ios":"levelo://app?vid=e900f4fe-f287-4f7a-a111-e62d22c31fb5"},"vehicle_type_id":"4","last_reported":1738732165,"current_range_meters":29600,"station_id":"ce4bhih2rcd13ifvqfs0","pricing_plan_id":"cebpf4jnsgd1na2vs0mg"},{"bike_id":"b4da0a36-b2a2-409b-8b71-70ab4e6718ab","system_id":"levelo_inurba_marseille","lat":43.25581,"lon":5.38248,"is_reserved":false,"is_disabled":false,"rental_uris":{"android":"levelo://app?vid=b4da0a36-b2a2-409b-8b71-70ab4e6718ab","ios":"levelo://app?vid=b4da0a36-b2a2-409b-8b71-70ab4e6718ab"},"vehicle_type_id":"4","last_reported":1738732165,"current_range_meters":17200,"station_id":"ce4bhih2rcd13ifvqfs0","pricing_plan_id":"cebpf4jnsgd1na2vs0mg"},{"bike_id":"3726dff5-00e4-45e5-9db7-c906f7e13ea9","system_id":"levelo_inurba_marseille","lat":43.27185,"lon":5.40979,"is_reserved":false,"is_disabled":false,"rental_uris":{"android":"levelo://app?vid=3726dff5-00e4-45e5-9db7-c906f7e13ea9","ios":"levelo://app?vid=3726dff5-00e4-45e5-9db7-c906f7e13ea9"},"vehicle_type_id":"4","last_reported":1738732165,"current_range_meters":30000,"station_id":"ce4bhl12rcd13ifvqgf0","pricing_plan_id":"cebpf4jnsgd1na2vs0mg"},{"bike_id":"38d9c123-c80e-4d99-abd9-1554da4e609f","system_id":"levelo_inurba_marseille","lat":43.24657,"lon":5.38885,"is_reserved":false,"is_disabled":false,"rental_uris":{"android":"levelo://app?vid=38d9c123-c80e-4d99-abd9-1554da4e609f","ios":"levelo://app?vid=38d9c123-c80e-4d99-abd9-1554da4e609f"},"vehicle_type_id":"4","last_reported":1738732165,"current_range_meters":27200,"station_id":"ce4bhg12rcd13ifvqf60","pricing_plan_id":"cebpf4jnsgd1na2vs0mg"},{"bike_id":"0d30f1f6-cb03-41c8-9ed3-2fe3b5a2ebb5","system_id":"levelo_inurba_marseille","lat":43.29875,"lon":5.38924,"is_reserved":false,"is_disabled":false,"rental_uris":{"android":"levelo://app?vid=0d30f1f6-cb03-41c8-9ed3-2fe3b5a2ebb5","ios":"levelo://app?vid=0d30f1f6-cb03-41c8-9ed3-2fe3b5a2ebb5"},"vehicle_type_id":"4","last_reported":1738732165,"current_range_meters":38800,"station_id":"ce4bh392rcd13ifvqdl0","pricing_plan_id":"cebpf4jnsgd1na2vs0mg"},{"bike_id":"ecfd8047-b75a-4e87-a298-ba28fe0083c2","system_id":"levelo_inurba_marseille","lat":43.29594,"lon":5.38107,"is_reserved":false,"is_disabled":true,"rental_uris":{"android":"levelo://app?vid=ecfd8047-b75a-4e87-a298-ba28fe0083c2","ios":"levelo://app?vid=ecfd8047-b75a-4e87-a298-ba28fe0083c2"},"vehicle_type_id":"4","last_reported":1738732165,"current_range_meters":0,"station_id":"ce4bgl12rcd13ifvqbo0","pricing_plan_id":"cebpf4jnsgd1na2vs0mg"},{"bike_id":"f819a6ee-335b-424a-96b3-4a63ec1d63e8","system_id":"levelo_inurba_marseille","lat":43.298656,"lon":5.397565,"is_reserved":false,"is_disabled":false,"rental_uris":{"android":"levelo://app?vid=f819a6ee-335b-424a-96b3-4a63ec1d63e8","ios":"levelo://app?vid=f819a6ee-335b-424a-96b3-4a63ec1d63e8"},"vehicle_type_id":"4","last_reported":1738732165,"current_range_meters":38400,"station_id":"ce4bh0h2rcd13ifvqd50","pricing_plan_id":"cebpf4jnsgd1na2vs0mg"},{"bike_id":"6b934ec5-7661-41f6-825f-dd4dddb4671e","system_id":"levelo_inurba_marseille","lat":43.286149,"lon":5.351077,"is_reserved":false,"is_disabled":false,"rental_uris":{"android":"levelo://app?vid=6b934ec5-7661-41f6-825f-dd4dddb4671e","ios":"levelo://app?vid=6b934ec5-7661-41f6-825f-dd4dddb4671e"},"vehicle_type_id":"4","last_reported":1738732165,"current_range_meters":20400,"station_id":"ce4bhch2rcd13ifvqeug","pricing_plan_id":"cebpf4jnsgd1na2vs0mg"},{"bike_id":"9a3d8afe-6430-4f53-aba8-27d653fab8bf","system_id":"levelo_inurba_marseille","lat":43.25005,"lon":5.38925,"is_reserved":false,"is_disabled":false,"rental_uris":{"android":"levelo://app?vid=9a3d8afe-6430-4f53-aba8-27d653fab8bf","ios":"levelo://app?vid=9a3d8afe-6430-4f53-aba8-27d653fab8bf"},"vehicle_type_id":"4","last_reported":1738732165,"current_range_meters":39200,"station_id":"ce4bhgp2rcd13ifvqfd0","pricing_plan_id":"cebpf4jnsgd1na2vs0mg"},{"bike_id":"272335b6-dc24-496f-b8c5-36817206bf50","system_id":"levelo_inurba_marseille","lat":43.29899,"lon":5.43673,"is_reserved":false,"is_disabled":false,"rental_uris":{"android":"levelo://app?vid=272335b6-dc24-496f-b8c5-36817206bf50","ios":"levelo://app?vid=272335b6-dc24-496f-b8c5-36817206bf50"},"vehicle_type_id":"4","last_reported":1738732165,"current_range_meters":38800,"station_id":"ce4bhpp2rcd13ifvqhfg","pricing_plan_id":"cebpf4jnsgd1na2vs0mg"},{"bike_id":"042816cb-ca77-4dab-b47f-0872a57e0a9e","system_id":"levelo_inurba_marseille","lat":43.301255,"lon":5.398785,"is_reserved":false,"is_disabled":false,"rental_uris":{"android":"levelo://app?vid=042816cb-ca77-4dab-b47f-0872a57e0a9e","ios":"levelo://app?vid=042816cb-ca77-4dab-b47f-0872a57e0a9e"},"vehicle_type_id":"4","last_reported":1738732165,"current_range_meters":38000,"station_id":"ce4bh0h2rcd13ifvqd40","pricing_plan_id":"cebpf4jnsgd1na2vs0mg"},{"bike_id":"a1849dca-a7ad-4ef7-bad3-c84d357203f3","system_id":"levelo_inurba_marseille","lat":43.310721,"lon":5.383539,"is_reserved":false,"is_disabled":false,"rental_uris":{"android":"levelo://app?vid=a1849dca-a7ad-4ef7-bad3-c84d357203f3","ios":"levelo://app?vid=a1849dca-a7ad-4ef7-bad3-c84d357203f3"},"vehicle_type_id":"4","last_reported":1738732165,"current_range_meters":27200,"station_id":"ce4bgv92rcd13ifvqcr0","pricing_plan_id":"cebpf4jnsgd1na2vs0mg"},{"bike_id":"a384deea-2d8f-475d-ac5e-75ec03d8c8b7","system_id":"levelo_inurba_marseille","lat":43.31113,"lon":5.37774,"is_reserved":false,"is_disabled":false,"rental_uris":{"android":"levelo://app?vid=a384deea-2d8f-475d-ac5e-75ec03d8c8b7","ios":"levelo://app?vid=a384deea-2d8f-475d-ac5e-75ec03d8c8b7"},"vehicle_type_id":"4","last_reported":1738732165,"current_range_meters":36000,"station_id":"ce4bgt92rcd13ifvqcg0","pricing_plan_id":"cebpf4jnsgd1na2vs0mg"},{"bike_id":"2db04894-45d8-4a2a-9f63-2b60c9d131f3","system_id":"levelo_inurba_marseille","lat":43.28686,"lon":5.3866,"is_reserved":false,"is_disabled":false,"rental_uris":{"android":"levelo://app?vid=2db04894-45d8-4a2a-9f63-2b60c9d131f3","ios":"levelo://app?vid=2db04894-45d8-4a2a-9f63-2b60c9d131f3"},"vehicle_type_id":"4","last_reported":1738732165,"current_range_meters":33200,"station_id":"ce4bh492rcd13ifvqdug","pricing_plan_id":"cebpf4jnsgd1na2vs0mg"},{"bike_id":"967cdb67-2f8e-4493-a026-a8ad4dd4b8dd","system_id":"levelo_inurba_marseille","lat":43.3015,"lon":5.38069,"is_reserved":false,"is_disabled":false,"rental_uris":{"android":"levelo://app?vid=967cdb67-2f8e-4493-a026-a8ad4dd4b8dd","ios":"levelo://app?vid=967cdb67-2f8e-4493-a026-a8ad4dd4b8dd"},"vehicle_type_id":"4","last_reported":1738732165,"current_range_meters":32400,"station_id":"ce4bgjp2rcd13ifvqbh0","pricing_plan_id":"cebpf4jnsgd1na2vs0mg"},{"bike_id":"cf0d534e-429a-4742-b2cb-4793faf704ac","system_id":"levelo_inurba_marseille","lat":43.24628,"lon":5.38901,"is_reserved":false,"is_disabled":false,"rental_uris":{"android":"levelo://app?vid=cf0d534e-429a-4742-b2cb-4793faf704ac","ios":"levelo://app?vid=cf0d534e-429a-4742-b2cb-4793faf704ac"},"vehicle_type_id":"4","last_reported":1738732165,"current_range_meters":39200,"station_id":"ce4bhg12rcd13ifvqf60","pricing_plan_id":"cebpf4jnsgd1na2vs0mg"},{"bike_id":"8990bf66-2391-44c0-90e1-98264103ad0b","system_id":"levelo_inurba_marseille","lat":43.31321,"lon":5.39694,"is_reserved":false,"is_disabled":false,"rental_uris":{"android":"levelo://app?vid=8990bf66-2391-44c0-90e1-98264103ad0b","ios":"levelo://app?vid=8990bf66-2391-44c0-90e1-98264103ad0b"},"vehicle_type_id":"4","last_reported":1738732165,"current_range_meters":38800,"station_id":"ce4bgvp2rcd13ifvqcu0","pricing_plan_id":"cebpf4jnsgd1na2vs0mg"},{"bike_id":"36e507af-56d1-4196-b839-78c6035b3e44","system_id":"levelo_inurba_marseille","lat":43.25866,"lon":5.39901,"is_reserved":false,"is_disabled":false,"rental_uris":{"android":"levelo://app?vid=36e507af-56d1-4196-b839-78c6035b3e44","ios":"levelo://app?vid=36e507af-56d1-4196-b839-78c6035b3e44"},"vehicle_type_id":"4","last_reported":1738732165,"current_range_meters":36800,"station_id":"ce4bhl92rcd13ifvqghg","pricing_plan_id":"cebpf4jnsgd1na2vs0mg"},{"bike_id":"3a5aa9c9-bc8f-448e-aeb5-c9e98d56970c","system_id":"levelo_inurba_marseille","lat":43.33585,"lon":5.40986,"is_reserved":false,"is_disabled":false,"rental_uris":{"android":"levelo://app?vid=3a5aa9c9-bc8f-448e-aeb5-c9e98d56970c","ios":"levelo://app?vid=3a5aa9c9-bc8f-448e-aeb5-c9e98d56970c"},"vehicle_type_id":"4","last_reported":1738732165,"current_range_meters":38800,"station_id":"ce4bhqh2rcd13ifvqhmg","pricing_plan_id":"cebpf4jnsgd1na2vs0mg"},{"bike_id":"933168f7-56a5-492e-a25c-5485ab107683","system_id":"levelo_inurba_marseille","lat":43.30538,"lon":5.3843,"is_reserved":false,"is_disabled":false,"rental_uris":{"android":"levelo://app?vid=933168f7-56a5-492e-a25c-5485ab107683","ios":"levelo://app?vid=933168f7-56a5-492e-a25c-5485ab107683"},"vehicle_type_id":"4","last_reported":1738732165,"current_range_meters":18800,"station_id":"ce4bgg92rcd13ifvqb30","pricing_plan_id":"cebpf4jnsgd1na2vs0mg"},{"bike_id":"d0f83c8b-7d8b-4405-b29d-b6f7f57a005e","system_id":"levelo_inurba_marseille","lat":43.33027,"lon":5.39009,"is_reserved":false,"is_disabled":false,"rental_uris":{"android":"levelo://app?vid=d0f83c8b-7d8b-4405-b29d-b6f7f57a005e","ios":"levelo://app?vid=d0f83c8b-7d8b-4405-b29d-b6f7f57a005e"},"vehicle_type_id":"4","last_reported":1738732165,"current_range_meters":38000,"station_id":"ce4bhr92rcd13ifvqhrg","pricing_plan_id":"cebpf4jnsgd1na2vs0mg"},{"bike_id":"30d68ac6-7ba6-4749-8154-bf914e372a6a","system_id":"levelo_inurba_marseille","lat":43.32364,"lon":5.38884,"is_reserved":false,"is_disabled":false,"rental_uris":{"android":"levelo://app?vid=30d68ac6-7ba6-4749-8154-bf914e372a6a","ios":"levelo://app?vid=30d68ac6-7ba6-4749-8154-bf914e372a6a"},"vehicle_type_id":"4","last_reported":1738732165,"current_range_meters":35600,"station_id":"ce4bhqp2rcd13ifvqhog","pricing_plan_id":"cebpf4jnsgd1na2vs0mg"},{"bike_id":"25291f48-3ef4-4a16-a90d-672c3bbe8a32","system_id":"levelo_inurba_marseille","lat":43.28101,"lon":5.37859,"is_reserved":false,"is_disabled":true,"rental_uris":{"android":"levelo://app?vid=25291f48-3ef4-4a16-a90d-672c3bbe8a32","ios":"levelo://app?vid=25291f48-3ef4-4a16-a90d-672c3bbe8a32"},"vehicle_type_id":"4","last_reported":1738732165,"current_range_meters":800,"station_id":"ce4bha12rcd13ifvqee0","pricing_plan_id":"cebpf4jnsgd1na2vs0mg"},{"bike_id":"312e32c3-6324-498b-b53b-8d30f4b3f2b5","system_id":"levelo_inurba_marseille","lat":43.308992,"lon":5.402174,"is_reserved":false,"is_disabled":false,"rental_uris":{"android":"levelo://app?vid=312e32c3-6324-498b-b53b-8d30f4b3f2b5","ios":"levelo://app?vid=312e32c3-6324-498b-b53b-8d30f4b3f2b5"},"vehicle_type_id":"4","last_reported":1738732165,"current_range_meters":37600,"station_id":"","pricing_plan_id":"cebpf4jnsgd1na2vs0mg"},{"bike_id":"4909a5aa-ea28-4e34-b5c4-fb228caf3264","system_id":"levelo_inurba_marseille","lat":43.29249,"lon":5.40908,"is_reserved":false,"is_disabled":false,"rental_uris":{"android":"levelo://app?vid=4909a5aa-ea28-4e34-b5c4-fb228caf3264","ios":"levelo://app?vid=4909a5aa-ea28-4e34-b5c4-fb228caf3264"},"vehicle_type_id":"4","last_reported":1738732165,"current_range_meters":38000,"station_id":"ce4bh192rcd13ifvqdc0","pricing_plan_id":"cebpf4jnsgd1na2vs0mg"},{"bike_id":"04a26837-c106-4ca5-8e8b-fd4f68a29241","system_id":"levelo_inurba_marseille","lat":43.30098,"lon":5.39093,"is_reserved":false,"is_disabled":false,"rental_uris":{"android":"levelo://app?vid=04a26837-c106-4ca5-8e8b-fd4f68a29241","ios":"levelo://app?vid=04a26837-c106-4ca5-8e8b-fd4f68a29241"},"vehicle_type_id":"4","last_reported":1738732165,"current_range_meters":20800,"station_id":"ce4bh192rcd13ifvqdb0","pricing_plan_id":"cebpf4jnsgd1na2vs0mg"},{"bike_id":"5012ce34-cb64-4d41-8f9c-62d48daa0237","system_id":"levelo_inurba_marseille","lat":43.27994,"lon":5.40014,"is_reserved":false,"is_disabled":false,"rental_uris":{"android":"levelo://app?vid=5012ce34-cb64-4d41-8f9c-62d48daa0237","ios":"levelo://app?vid=5012ce34-cb64-4d41-8f9c-62d48daa0237"},"vehicle_type_id":"4","last_reported":1738732165,"current_range_meters":16000,"station_id":"ce4bho92rcd13ifvqh4g","pricing_plan_id":"cebpf4jnsgd1na2vs0mg"},{"bike_id":"9e199b54-58c6-41fb-9ef5-8d4921a24bd4","system_id":"levelo_inurba_marseille","lat":43.26561,"lon":5.39009,"is_reserved":false,"is_disabled":false,"rental_uris":{"android":"levelo://app?vid=9e199b54-58c6-41fb-9ef5-8d4921a24bd4","ios":"levelo://app?vid=9e199b54-58c6-41fb-9ef5-8d4921a24bd4"},"vehicle_type_id":"4","last_reported":1738732165,"current_range_meters":10000,"station_id":"ce4bhe12rcd13ifvqf30","pricing_plan_id":"cebpf4jnsgd1na2vs0mg"},{"bike_id":"a8efc629-6ee5-44e6-a0cb-939c2002c464","system_id":"levelo_inurba_marseille","lat":43.3011,"lon":5.39097,"is_reserved":false,"is_disabled":false,"rental_uris":{"android":"levelo://app?vid=a8efc629-6ee5-44e6-a0cb-939c2002c464","ios":"levelo://app?vid=a8efc629-6ee5-44e6-a0cb-939c2002c464"},"vehicle_type_id":"4","last_reported":1738732165,"current_range_meters":38400,"station_id":"ce4bh192rcd13ifvqdb0","pricing_plan_id":"cebpf4jnsgd1na2vs0mg"},{"bike_id":"3f9cee96-5e5c-4c32-832c-aeb7c03f0cf2","system_id":"levelo_inurba_marseille","lat":43.29714,"lon":5.36595,"is_reserved":false,"is_disabled":false,"rental_uris":{"android":"levelo://app?vid=3f9cee96-5e5c-4c32-832c-aeb7c03f0cf2","ios":"levelo://app?vid=3f9cee96-5e5c-4c32-832c-aeb7c03f0cf2"},"vehicle_type_id":"4","last_reported":1738732165,"current_range_meters":38800,"station_id":"ce4bgn12rcd13ifvqbt0","pricing_plan_id":"cebpf4jnsgd1na2vs0mg"},{"bike_id":"6712f04b-f35d-4e3a-a70d-c89aec85d9b2","system_id":"levelo_inurba_marseille","lat":43.22924,"lon":5.35373,"is_reserved":false,"is_disabled":false,"rental_uris":{"android":"levelo://app?vid=6712f04b-f35d-4e3a-a70d-c89aec85d9b2","ios":"levelo://app?vid=6712f04b-f35d-4e3a-a70d-c89aec85d9b2"},"vehicle_type_id":"4","last_reported":1738732165,"current_range_meters":39200,"station_id":"cpo3532slgdg3j2ikp40","pricing_plan_id":"cebpf4jnsgd1na2vs0mg"},{"bike_id":"5044aa60-48d5-4442-a7ee-5bef833d2152","system_id":"levelo_inurba_marseille","lat":43.27916,"lon":5.39584,"is_reserved":false,"is_disabled":false,"rental_uris":{"android":"levelo://app?vid=5044aa60-48d5-4442-a7ee-5bef833d2152","ios":"levelo://app?vid=5044aa60-48d5-4442-a7ee-5bef833d2152"},"vehicle_type_id":"4","last_reported":1738732165,"current_range_meters":32400,"station_id":"ce4bhf92rcd13ifvqf40","pricing_plan_id":"cebpf4jnsgd1na2vs0mg"},{"bike_id":"e8580140-46e3-443b-9f96-b01ff3d24255","system_id":"levelo_inurba_marseille","lat":43.3108,"lon":5.42432,"is_reserved":false,"is_disabled":false,"rental_uris":{"android":"levelo://app?vid=e8580140-46e3-443b-9f96-b01ff3d24255","ios":"levelo://app?vid=e8580140-46e3-443b-9f96-b01ff3d24255"},"vehicle_type_id":"4","last_reported":1738732165,"current_range_meters":37600,"station_id":"ce4bhp92rcd13ifvqhag","pricing_plan_id":"cebpf4jnsgd1na2vs0mg"},{"bike_id":"8f51f7b4-db37-49a2-ac98-4da47d8beaee","system_id":"levelo_inurba_marseille","lat":43.280359,"lon":5.369442,"is_reserved":false,"is_disabled":false,"rental_uris":{"android":"levelo://app?vid=8f51f7b4-db37-49a2-ac98-4da47d8beaee","ios":"levelo://app?vid=8f51f7b4-db37-49a2-ac98-4da47d8beaee"},"vehicle_type_id":"4","last_reported":1738732165,"current_range_meters":38800,"station_id":"ce4bha12rcd13ifvqef0","pricing_plan_id":"cebpf4jnsgd1na2vs0mg"},{"bike_id":"326654a7-edf6-4ca5-96ff-623d3b2484a0","system_id":"levelo_inurba_marseille","lat":43.30194,"lon":5.38082,"is_reserved":false,"is_disabled":false,"rental_uris":{"android":"levelo://app?vid=326654a7-edf6-4ca5-96ff-623d3b2484a0","ios":"levelo://app?vid=326654a7-edf6-4ca5-96ff-623d3b2484a0"},"vehicle_type_id":"4","last_reported":1738732165,"current_range_meters":16000,"station_id":"ce4bgjp2rcd13ifvqbh0","pricing_plan_id":"cebpf4jnsgd1na2vs0mg"},{"bike_id":"545ec1cf-d4f4-4ead-b4de-b5e594e864b6","system_id":"levelo_inurba_marseille","lat":43.303002,"lon":5.392119,"is_reserved":false,"is_disabled":false,"rental_uris":{"android":"levelo://app?vid=545ec1cf-d4f4-4ead-b4de-b5e594e864b6","ios":"levelo://app?vid=545ec1cf-d4f4-4ead-b4de-b5e594e864b6"},"vehicle_type_id":"4","last_reported":1738732165,"current_range_meters":39200,"station_id":"ce4bgkh2rcd13ifvqbk0","pricing_plan_id":"cebpf4jnsgd1na2vs0mg"},{"bike_id":"827ca05f-17dc-47dd-b033-2d6f43b69e39","system_id":"levelo_inurba_marseille","lat":43.28104,"lon":5.37826,"is_reserved":false,"is_disabled":false,"rental_uris":{"android":"levelo://app?vid=827ca05f-17dc-47dd-b033-2d6f43b69e39","ios":"levelo://app?vid=827ca05f-17dc-47dd-b033-2d6f43b69e39"},"vehicle_type_id":"4","last_reported":1738732165,"current_range_meters":38000,"station_id":"ce4bha12rcd13ifvqee0","pricing_plan_id":"cebpf4jnsgd1na2vs0mg"},{"bike_id":"0888dc6c-9768-41f1-850c-939321da586f","system_id":"levelo_inurba_marseille","lat":43.29046,"lon":5.359,"is_reserved":false,"is_disabled":false,"rental_uris":{"android":"levelo://app?vid=0888dc6c-9768-41f1-850c-939321da586f","ios":"levelo://app?vid=0888dc6c-9768-41f1-850c-939321da586f"},"vehicle_type_id":"4","last_reported":1738732165,"current_range_meters":38800,"station_id":"ce4bha92rcd13ifvqeg0","pricing_plan_id":"cebpf4jnsgd1na2vs0mg"},{"bike_id":"4b51056f-c9bf-4d1d-a8ae-f2274992a55e","system_id":"levelo_inurba_marseille","lat":43.231925,"lon":5.399926,"is_reserved":false,"is_disabled":false,"rental_uris":{"android":"levelo://app?vid=4b51056f-c9bf-4d1d-a8ae-f2274992a55e","ios":"levelo://app?vid=4b51056f-c9bf-4d1d-a8ae-f2274992a55e"},"vehicle_type_id":"4","last_reported":1738732165,"current_range_meters":14800,"station_id":"ce4bhn12rcd13ifvqgqg","pricing_plan_id":"cebpf4jnsgd1na2vs0mg"},{"bike_id":"4f711729-11db-4481-a558-983b7b381ab1","system_id":"levelo_inurba_marseille","lat":43.33594,"lon":5.41032,"is_reserved":false,"is_disabled":false,"rental_uris":{"android":"levelo://app?vid=4f711729-11db-4481-a558-983b7b381ab1","ios":"levelo://app?vid=4f711729-11db-4481-a558-983b7b381ab1"},"vehicle_type_id":"4","last_reported":1738732165,"current_range_meters":32000,"station_id":"ce4bhqh2rcd13ifvqhmg","pricing_plan_id":"cebpf4jnsgd1na2vs0mg"},{"bike_id":"afbd3e10-bf6b-4e82-9905-5ed611a6f962","system_id":"levelo_inurba_marseille","lat":43.28409,"lon":5.3752,"is_reserved":false,"is_disabled":false,"rental_uris":{"android":"levelo://app?vid=afbd3e10-bf6b-4e82-9905-5ed611a6f962","ios":"levelo://app?vid=afbd3e10-bf6b-4e82-9905-5ed611a6f962"},"vehicle_type_id":"4","last_reported":1738732165,"current_range_meters":36400,"station_id":"ce4bh412rcd13ifvqds0","pricing_plan_id":"cebpf4jnsgd1na2vs0mg"},{"bike_id":"04c19c1f-0d97-41ab-9dd3-9530e3fdabef","system_id":"levelo_inurba_marseille","lat":43.287301,"lon":5.360821,"is_reserved":false,"is_disabled":false,"rental_uris":{"android":"levelo://app?vid=04c19c1f-0d97-41ab-9dd3-9530e3fdabef","ios":"levelo://app?vid=04c19c1f-0d97-41ab-9dd3-9530e3fdabef"},"vehicle_type_id":"4","last_reported":1738732165,"current_range_meters":39200,"station_id":"cki0cbj6b192h4jlfktg","pricing_plan_id":"cebpf4jnsgd1na2vs0mg"},{"bike_id":"9c4733e9-b388-4384-97a9-e3ac2fe2712f","system_id":"levelo_inurba_marseille","lat":43.27945,"lon":5.41047,"is_reserved":false,"is_disabled":false,"rental_uris":{"android":"levelo://app?vid=9c4733e9-b388-4384-97a9-e3ac2fe2712f","ios":"levelo://app?vid=9c4733e9-b388-4384-97a9-e3ac2fe2712f"},"vehicle_type_id":"4","last_reported":1738732165,"current_range_meters":23200,"station_id":"ce4bhnp2rcd13ifvqh0g","pricing_plan_id":"cebpf4jnsgd1na2vs0mg"},{"bike_id":"1a3714ed-2f47-45be-8a12-f8dffc386763","system_id":"levelo_inurba_marseille","lat":43.25572,"lon":5.38238,"is_reserved":false,"is_disabled":false,"rental_uris":{"android":"levelo://app?vid=1a3714ed-2f47-45be-8a12-f8dffc386763","ios":"levelo://app?vid=1a3714ed-2f47-45be-8a12-f8dffc386763"},"vehicle_type_id":"4","last_reported":1738732165,"current_range_meters":27200,"station_id":"ce4bhih2rcd13ifvqfs0","pricing_plan_id":"cebpf4jnsgd1na2vs0mg"},{"bike_id":"ea159ac7-52f6-4edc-89bb-91a2c239e1fd","system_id":"levelo_inurba_marseille","lat":43.25089,"lon":5.39522,"is_reserved":false,"is_disabled":false,"rental_uris":{"android":"levelo://app?vid=ea159ac7-52f6-4edc-89bb-91a2c239e1fd","ios":"levelo://app?vid=ea159ac7-52f6-4edc-89bb-91a2c239e1fd"},"vehicle_type_id":"4","last_reported":1738732165,"current_range_meters":38400,"station_id":"ce4bhm12rcd13ifvqgkg","pricing_plan_id":"cebpf4jnsgd1na2vs0mg"},{"bike_id":"278902b4-7b50-4f46-8ac1-6d0f29cc8638","system_id":"levelo_inurba_marseille","lat":43.24389,"lon":5.37042,"is_reserved":false,"is_disabled":false,"rental_uris":{"android":"levelo://app?vid=278902b4-7b50-4f46-8ac1-6d0f29cc8638","ios":"levelo://app?vid=278902b4-7b50-4f46-8ac1-6d0f29cc8638"},"vehicle_type_id":"4","last_reported":1738732165,"current_range_meters":38800,"station_id":"ce4bhhh2rcd13ifvqfk0","pricing_plan_id":"cebpf4jnsgd1na2vs0mg"},{"bike_id":"d6b0cf54-fa2e-4bc8-963e-74d7f8faf1fe","system_id":"levelo_inurba_marseille","lat":43.24664,"lon":5.38138,"is_reserved":false,"is_disabled":false,"rental_uris":{"android":"levelo://app?vid=d6b0cf54-fa2e-4bc8-963e-74d7f8faf1fe","ios":"levelo://app?vid=d6b0cf54-fa2e-4bc8-963e-74d7f8faf1fe"},"vehicle_type_id":"4","last_reported":1738732165,"current_range_meters":3200,"station_id":"ce4bhih2rcd13ifvqfr0","pricing_plan_id":"cebpf4jnsgd1na2vs0mg"},{"bike_id":"c9407657-c8c0-4e03-bc27-5727c3b47dd4","system_id":"levelo_inurba_marseille","lat":43.30809,"lon":5.38156,"is_reserved":false,"is_disabled":false,"rental_uris":{"android":"levelo://app?vid=c9407657-c8c0-4e03-bc27-5727c3b47dd4","ios":"levelo://app?vid=c9407657-c8c0-4e03-bc27-5727c3b47dd4"},"vehicle_type_id":"4","last_reported":1738732165,"current_range_meters":38800,"station_id":"ce4bgt12rcd13ifvqce0","pricing_plan_id":"cebpf4jnsgd1na2vs0mg"},{"bike_id":"96db26f3-6182-45b1-98ca-6576a1e2e797","system_id":"levelo_inurba_marseille","lat":43.25489,"lon":5.376577,"is_reserved":false,"is_disabled":false,"rental_uris":{"android":"levelo://app?vid=96db26f3-6182-45b1-98ca-6576a1e2e797","ios":"levelo://app?vid=96db26f3-6182-45b1-98ca-6576a1e2e797"},"vehicle_type_id":"4","last_reported":1738732165,"current_range_meters":19600,"station_id":"ce4bhh12rcd13ifvqff0","pricing_plan_id":"cebpf4jnsgd1na2vs0mg"},{"bike_id":"97a08849-0937-4210-b532-5a18ef38860c","system_id":"levelo_inurba_marseille","lat":43.295251,"lon":5.394031,"is_reserved":false,"is_disabled":false,"rental_uris":{"android":"levelo://app?vid=97a08849-0937-4210-b532-5a18ef38860c","ios":"levelo://app?vid=97a08849-0937-4210-b532-5a18ef38860c"},"vehicle_type_id":"4","last_reported":1738732165,"current_range_meters":10000,"station_id":"ce4bh292rcd13ifvqdf0","pricing_plan_id":"cebpf4jnsgd1na2vs0mg"},{"bike_id":"3ab0ceb6-cd89-477f-8038-1be761eb4bda","system_id":"levelo_inurba_marseille","lat":43.29526,"lon":5.37495,"is_reserved":false,"is_disabled":true,"rental_uris":{"android":"levelo://app?vid=3ab0ceb6-cd89-477f-8038-1be761eb4bda","ios":"levelo://app?vid=3ab0ceb6-cd89-477f-8038-1be761eb4bda"},"vehicle_type_id":"4","last_reported":1738732165,"current_range_meters":0,"station_id":"ce4bgkp2rcd13ifvqbmg","pricing_plan_id":"cebpf4jnsgd1na2vs0mg"},{"bike_id":"2b34222e-65d7-4275-82a3-4ec28c002700","system_id":"levelo_inurba_marseille","lat":43.24408,"lon":5.37057,"is_reserved":false,"is_disabled":false,"rental_uris":{"android":"levelo://app?vid=2b34222e-65d7-4275-82a3-4ec28c002700","ios":"levelo://app?vid=2b34222e-65d7-4275-82a3-4ec28c002700"},"vehicle_type_id":"4","last_reported":1738732165,"current_range_meters":29600,"station_id":"ce4bhhh2rcd13ifvqfk0","pricing_plan_id":"cebpf4jnsgd1na2vs0mg"},{"bike_id":"b2d6864b-5060-48af-bc3e-cc82b3d1573e","system_id":"levelo_inurba_marseille","lat":43.25727,"lon":5.41104,"is_reserved":false,"is_disabled":false,"rental_uris":{"android":"levelo://app?vid=b2d6864b-5060-48af-bc3e-cc82b3d1573e","ios":"levelo://app?vid=b2d6864b-5060-48af-bc3e-cc82b3d1573e"},"vehicle_type_id":"4","last_reported":1738732165,"current_range_meters":18800,"station_id":"ce4bhkp2rcd13ifvqgd0","pricing_plan_id":"cebpf4jnsgd1na2vs0mg"},{"bike_id":"c85a26e1-f53e-4ec1-b1ea-8b32d23f1f4d","system_id":"levelo_inurba_marseille","lat":43.2307,"lon":5.3549,"is_reserved":false,"is_disabled":false,"rental_uris":{"android":"levelo://app?vid=c85a26e1-f53e-4ec1-b1ea-8b32d23f1f4d","ios":"levelo://app?vid=c85a26e1-f53e-4ec1-b1ea-8b32d23f1f4d"},"vehicle_type_id":"4","last_reported":1738732165,"current_range_meters":24000,"station_id":"cpo3342slgdg3j2ifvpg","pricing_plan_id":"cebpf4jnsgd1na2vs0mg"},{"bike_id":"512a3a23-b079-4568-bc04-d9235c65b5d3","system_id":"levelo_inurba_marseille","lat":43.23962,"lon":5.36628,"is_reserved":false,"is_disabled":false,"rental_uris":{"android":"levelo://app?vid=512a3a23-b079-4568-bc04-d9235c65b5d3","ios":"levelo://app?vid=512a3a23-b079-4568-bc04-d9235c65b5d3"},"vehicle_type_id":"4","last_reported":1738732165,"current_range_meters":14400,"station_id":"ce4bhi12rcd13ifvqfp0","pricing_plan_id":"cebpf4jnsgd1na2vs0mg"},{"bike_id":"de448353-13a2-4302-a75e-76b063abe3f5","system_id":"levelo_inurba_marseille","lat":43.26047,"lon":5.39363,"is_reserved":false,"is_disabled":false,"rental_uris":{"android":"levelo://app?vid=de448353-13a2-4302-a75e-76b063abe3f5","ios":"levelo://app?vid=de448353-13a2-4302-a75e-76b063abe3f5"},"vehicle_type_id":"4","last_reported":1738732165,"current_range_meters":39200,"station_id":"ce4bhh92rcd13ifvqfj0","pricing_plan_id":"cebpf4jnsgd1na2vs0mg"},{"bike_id":"e3fa5aaf-a54f-49f1-9073-60a9cb58ace8","system_id":"levelo_inurba_marseille","lat":43.268346,"lon":5.406181,"is_reserved":false,"is_disabled":false,"rental_uris":{"android":"levelo://app?vid=e3fa5aaf-a54f-49f1-9073-60a9cb58ace8","ios":"levelo://app?vid=e3fa5aaf-a54f-49f1-9073-60a9cb58ace8"},"vehicle_type_id":"4","last_reported":1738732165,"current_range_meters":16800,"station_id":"","pricing_plan_id":"cebpf4jnsgd1na2vs0mg"},{"bike_id":"9aab8c51-883e-4307-84d7-8a46b60cb395","system_id":"levelo_inurba_marseille","lat":43.29784,"lon":5.37108,"is_reserved":false,"is_disabled":false,"rental_uris":{"android":"levelo://app?vid=9aab8c51-883e-4307-84d7-8a46b60cb395","ios":"levelo://app?vid=9aab8c51-883e-4307-84d7-8a46b60cb395"},"vehicle_type_id":"4","last_reported":1738732165,"current_range_meters":27600,"station_id":"ce4bgop2rcd13ifvqc1g","pricing_plan_id":"cebpf4jnsgd1na2vs0mg"},{"bike_id":"bbf069e1-2389-45ec-9dc7-09d6ab4877e1","system_id":"levelo_inurba_marseille","lat":43.30799,"lon":5.38159,"is_reserved":false,"is_disabled":false,"rental_uris":{"android":"levelo://app?vid=bbf069e1-2389-45ec-9dc7-09d6ab4877e1","ios":"levelo://app?vid=bbf069e1-2389-45ec-9dc7-09d6ab4877e1"},"vehicle_type_id":"4","last_reported":1738732165,"current_range_meters":36000,"station_id":"ce4bgt12rcd13ifvqce0","pricing_plan_id":"cebpf4jnsgd1na2vs0mg"},{"bike_id":"bde71a62-bff4-4461-9727-c19b8695639f","system_id":"levelo_inurba_marseille","lat":43.2587,"lon":5.39904,"is_reserved":false,"is_disabled":false,"rental_uris":{"android":"levelo://app?vid=bde71a62-bff4-4461-9727-c19b8695639f","ios":"levelo://app?vid=bde71a62-bff4-4461-9727-c19b8695639f"},"vehicle_type_id":"4","last_reported":1738732165,"current_range_meters":39200,"station_id":"ce4bhl92rcd13ifvqghg","pricing_plan_id":"cebpf4jnsgd1na2vs0mg"},{"bike_id":"70ca6425-69bb-48e4-83ae-0c8acb942786","system_id":"levelo_inurba_marseille","lat":43.279597,"lon":5.387129,"is_reserved":false,"is_disabled":false,"rental_uris":{"android":"levelo://app?vid=70ca6425-69bb-48e4-83ae-0c8acb942786","ios":"levelo://app?vid=70ca6425-69bb-48e4-83ae-0c8acb942786"},"vehicle_type_id":"4","last_reported":1738732165,"current_range_meters":37600,"station_id":"ce4bhg12rcd13ifvqf80","pricing_plan_id":"cebpf4jnsgd1na2vs0mg"},{"bike_id":"c11b7b30-e92b-44c5-9523-5e4c86fb9eb1","system_id":"levelo_inurba_marseille","lat":43.29524,"lon":5.39392,"is_reserved":false,"is_disabled":false,"rental_uris":{"android":"levelo://app?vid=c11b7b30-e92b-44c5-9523-5e4c86fb9eb1","ios":"levelo://app?vid=c11b7b30-e92b-44c5-9523-5e4c86fb9eb1"},"vehicle_type_id":"4","last_reported":1738732165,"current_range_meters":18800,"station_id":"ce4bh292rcd13ifvqdf0","pricing_plan_id":"cebpf4jnsgd1na2vs0mg"},{"bike_id":"3629209f-3515-4f8b-b40d-4bf795c68372","system_id":"levelo_inurba_marseille","lat":43.28421,"lon":5.37546,"is_reserved":false,"is_disabled":false,"rental_uris":{"android":"levelo://app?vid=3629209f-3515-4f8b-b40d-4bf795c68372","ios":"levelo://app?vid=3629209f-3515-4f8b-b40d-4bf795c68372"},"vehicle_type_id":"4","last_reported":1738732165,"current_range_meters":29600,"station_id":"ce4bh412rcd13ifvqds0","pricing_plan_id":"cebpf4jnsgd1na2vs0mg"},{"bike_id":"135e2dcf-9bce-4403-8ffe-46f6d3e0efbf","system_id":"levelo_inurba_marseille","lat":43.28692,"lon":5.38667,"is_reserved":false,"is_disabled":false,"rental_uris":{"android":"levelo://app?vid=135e2dcf-9bce-4403-8ffe-46f6d3e0efbf","ios":"levelo://app?vid=135e2dcf-9bce-4403-8ffe-46f6d3e0efbf"},"vehicle_type_id":"4","last_reported":1738732165,"current_range_meters":38400,"station_id":"ce4bh492rcd13ifvqdug","pricing_plan_id":"cebpf4jnsgd1na2vs0mg"},{"bike_id":"9e3907da-4014-4a63-a419-b206db263d3b","system_id":"levelo_inurba_marseille","lat":43.29942,"lon":5.36537,"is_reserved":false,"is_disabled":false,"rental_uris":{"android":"levelo://app?vid=9e3907da-4014-4a63-a419-b206db263d3b","ios":"levelo://app?vid=9e3907da-4014-4a63-a419-b206db263d3b"},"vehicle_type_id":"4","last_reported":1738732165,"current_range_meters":38800,"station_id":"ce4bgm92rcd13ifvqbr0","pricing_plan_id":"cebpf4jnsgd1na2vs0mg"},{"bike_id":"ddf8dd4e-86c9-4dee-a9b2-795002cb4627","system_id":"levelo_inurba_marseille","lat":43.23188,"lon":5.3556,"is_reserved":false,"is_disabled":false,"rental_uris":{"android":"levelo://app?vid=ddf8dd4e-86c9-4dee-a9b2-795002cb4627","ios":"levelo://app?vid=ddf8dd4e-86c9-4dee-a9b2-795002cb4627"},"vehicle_type_id":"4","last_reported":1738732165,"current_range_meters":21600,"station_id":"ce4bhu92rcd13ifvqi70","pricing_plan_id":"cebpf4jnsgd1na2vs0mg"},{"bike_id":"1ef98b06-35f8-42b6-b7b3-42b7ff981866","system_id":"levelo_inurba_marseille","lat":43.33019,"lon":5.390408,"is_reserved":false,"is_disabled":false,"rental_uris":{"android":"levelo://app?vid=1ef98b06-35f8-42b6-b7b3-42b7ff981866","ios":"levelo://app?vid=1ef98b06-35f8-42b6-b7b3-42b7ff981866"},"vehicle_type_id":"4","last_reported":1738732165,"current_range_meters":38800,"station_id":"ce4bhr92rcd13ifvqhrg","pricing_plan_id":"cebpf4jnsgd1na2vs0mg"},{"bike_id":"fe359fea-2e43-4bfb-9b08-89e9343d5342","system_id":"levelo_inurba_marseille","lat":43.278167,"lon":5.40715,"is_reserved":false,"is_disabled":false,"rental_uris":{"android":"levelo://app?vid=fe359fea-2e43-4bfb-9b08-89e9343d5342","ios":"levelo://app?vid=fe359fea-2e43-4bfb-9b08-89e9343d5342"},"vehicle_type_id":"4","last_reported":1738732165,"current_range_meters":25200,"station_id":"ce4bhnh2rcd13ifvqgtg","pricing_plan_id":"cebpf4jnsgd1na2vs0mg"},{"bike_id":"fad1c00d-4059-45de-a64c-5e70bc98c930","system_id":"levelo_inurba_marseille","lat":43.31702,"lon":5.40443,"is_reserved":false,"is_disabled":false,"rental_uris":{"android":"levelo://app?vid=fad1c00d-4059-45de-a64c-5e70bc98c930","ios":"levelo://app?vid=fad1c00d-4059-45de-a64c-5e70bc98c930"},"vehicle_type_id":"4","last_reported":1738732165,"current_range_meters":38800,"station_id":"ce4bh012rcd13ifvqd00","pricing_plan_id":"cebpf4jnsgd1na2vs0mg"},{"bike_id":"2e1fd84a-93c0-4e60-908d-3675bdd34c0e","system_id":"levelo_inurba_marseille","lat":43.22932,"lon":5.35382,"is_reserved":false,"is_disabled":false,"rental_uris":{"android":"levelo://app?vid=2e1fd84a-93c0-4e60-908d-3675bdd34c0e","ios":"levelo://app?vid=2e1fd84a-93c0-4e60-908d-3675bdd34c0e"},"vehicle_type_id":"4","last_reported":1738732165,"current_range_meters":6400,"station_id":"cpo3532slgdg3j2ikp40","pricing_plan_id":"cebpf4jnsgd1na2vs0mg"},{"bike_id":"0dc1ee62-45ea-49a1-844e-25d5f9bcd8a1","system_id":"levelo_inurba_marseille","lat":43.28464,"lon":5.35884,"is_reserved":false,"is_disabled":false,"rental_uris":{"android":"levelo://app?vid=0dc1ee62-45ea-49a1-844e-25d5f9bcd8a1","ios":"levelo://app?vid=0dc1ee62-45ea-49a1-844e-25d5f9bcd8a1"},"vehicle_type_id":"4","last_reported":1738732165,"current_range_meters":19200,"station_id":"ce4bhah2rcd13ifvqei0","pricing_plan_id":"cebpf4jnsgd1na2vs0mg"},{"bike_id":"c2bd934f-62f0-44c0-82bd-0dc4de43b191","system_id":"levelo_inurba_marseille","lat":43.29183,"lon":5.35805,"is_reserved":false,"is_disabled":false,"rental_uris":{"android":"levelo://app?vid=c2bd934f-62f0-44c0-82bd-0dc4de43b191","ios":"levelo://app?vid=c2bd934f-62f0-44c0-82bd-0dc4de43b191"},"vehicle_type_id":"4","last_reported":1738732165,"current_range_meters":38800,"station_id":"ce4bhb12rcd13ifvqel0","pricing_plan_id":"cebpf4jnsgd1na2vs0mg"},{"bike_id":"0a4e5f17-bcf4-4389-94ce-534bf413f02b","system_id":"levelo_inurba_marseille","lat":43.282679,"lon":5.350691,"is_reserved":false,"is_disabled":false,"rental_uris":{"android":"levelo://app?vid=0a4e5f17-bcf4-4389-94ce-534bf413f02b","ios":"levelo://app?vid=0a4e5f17-bcf4-4389-94ce-534bf413f02b"},"vehicle_type_id":"4","last_reported":1738732165,"current_range_meters":38800,"station_id":"ce4bhbp2rcd13ifvqerg","pricing_plan_id":"cebpf4jnsgd1na2vs0mg"},{"bike_id":"4fc66d99-c9d0-4a35-b987-a30bb0cdc55b","system_id":"levelo_inurba_marseille","lat":43.24068,"lon":5.37764,"is_reserved":false,"is_disabled":false,"rental_uris":{"android":"levelo://app?vid=4fc66d99-c9d0-4a35-b987-a30bb0cdc55b","ios":"levelo://app?vid=4fc66d99-c9d0-4a35-b987-a30bb0cdc55b"},"vehicle_type_id":"4","last_reported":1738732165,"current_range_meters":39200,"station_id":"ce4bhnp2rcd13ifvqgvg","pricing_plan_id":"cebpf4jnsgd1na2vs0mg"},{"bike_id":"d72d8f88-909a-4bb8-9a55-f24b1c6200ae","system_id":"levelo_inurba_marseille","lat":43.28025,"lon":5.36937,"is_reserved":false,"is_disabled":false,"rental_uris":{"android":"levelo://app?vid=d72d8f88-909a-4bb8-9a55-f24b1c6200ae","ios":"levelo://app?vid=d72d8f88-909a-4bb8-9a55-f24b1c6200ae"},"vehicle_type_id":"4","last_reported":1738732165,"current_range_meters":26000,"station_id":"ce4bha12rcd13ifvqef0","pricing_plan_id":"cebpf4jnsgd1na2vs0mg"},{"bike_id":"92d827f3-8471-4aa2-9f09-488bbb992f3b","system_id":"levelo_inurba_marseille","lat":43.29889,"lon":5.39751,"is_reserved":false,"is_disabled":false,"rental_uris":{"android":"levelo://app?vid=92d827f3-8471-4aa2-9f09-488bbb992f3b","ios":"levelo://app?vid=92d827f3-8471-4aa2-9f09-488bbb992f3b"},"vehicle_type_id":"4","last_reported":1738732165,"current_range_meters":38800,"station_id":"ce4bh0h2rcd13ifvqd50","pricing_plan_id":"cebpf4jnsgd1na2vs0mg"},{"bike_id":"24c81558-a4fc-41f0-ab38-d4fd715f211a","system_id":"levelo_inurba_marseille","lat":43.278131,"lon":5.40711,"is_reserved":false,"is_disabled":false,"rental_uris":{"android":"levelo://app?vid=24c81558-a4fc-41f0-ab38-d4fd715f211a","ios":"levelo://app?vid=24c81558-a4fc-41f0-ab38-d4fd715f211a"},"vehicle_type_id":"4","last_reported":1738732165,"current_range_meters":38000,"station_id":"ce4bhnh2rcd13ifvqgtg","pricing_plan_id":"cebpf4jnsgd1na2vs0mg"},{"bike_id":"fa837d46-4228-4408-bbc0-e67f09f6f389","system_id":"levelo_inurba_marseille","lat":43.29627,"lon":5.40586,"is_reserved":false,"is_disabled":false,"rental_uris":{"android":"levelo://app?vid=fa837d46-4228-4408-bbc0-e67f09f6f389","ios":"levelo://app?vid=fa837d46-4228-4408-bbc0-e67f09f6f389"},"vehicle_type_id":"4","last_reported":1738732165,"current_range_meters":39200,"station_id":"ce4bh0h2rcd13ifvqd60","pricing_plan_id":"cebpf4jnsgd1na2vs0mg"},{"bike_id":"4dd4d20b-ede5-47d0-948d-cc2515eca781","system_id":"levelo_inurba_marseille","lat":43.31764,"lon":5.39017,"is_reserved":false,"is_disabled":true,"rental_uris":{"android":"levelo://app?vid=4dd4d20b-ede5-47d0-948d-cc2515eca781","ios":"levelo://app?vid=4dd4d20b-ede5-47d0-948d-cc2515eca781"},"vehicle_type_id":"4","last_reported":1738732165,"current_range_meters":30000,"station_id":"ce4bhqp2rcd13ifvqhng","pricing_plan_id":"cebpf4jnsgd1na2vs0mg"},{"bike_id":"38d5197c-53e9-4ed5-8c6c-9f20d291f067","system_id":"levelo_inurba_marseille","lat":43.28839,"lon":5.35871,"is_reserved":false,"is_disabled":false,"rental_uris":{"android":"levelo://app?vid=38d5197c-53e9-4ed5-8c6c-9f20d291f067","ios":"levelo://app?vid=38d5197c-53e9-4ed5-8c6c-9f20d291f067"},"vehicle_type_id":"4","last_reported":1738732165,"current_range_meters":36800,"station_id":"ce4bhb12rcd13ifvqem0","pricing_plan_id":"cebpf4jnsgd1na2vs0mg"},{"bike_id":"e99e3457-c4b1-4f04-b415-bf64e17c5b09","system_id":"levelo_inurba_marseille","lat":43.2571,"lon":5.41101,"is_reserved":false,"is_disabled":false,"rental_uris":{"android":"levelo://app?vid=e99e3457-c4b1-4f04-b415-bf64e17c5b09","ios":"levelo://app?vid=e99e3457-c4b1-4f04-b415-bf64e17c5b09"},"vehicle_type_id":"4","last_reported":1738732165,"current_range_meters":38800,"station_id":"ce4bhkp2rcd13ifvqgd0","pricing_plan_id":"cebpf4jnsgd1na2vs0mg"},{"bike_id":"4a5efbac-36ac-4037-8212-35b8608b5ebd","system_id":"levelo_inurba_marseille","lat":43.292591,"lon":5.409096,"is_reserved":false,"is_disabled":false,"rental_uris":{"android":"levelo://app?vid=4a5efbac-36ac-4037-8212-35b8608b5ebd","ios":"levelo://app?vid=4a5efbac-36ac-4037-8212-35b8608b5ebd"},"vehicle_type_id":"4","last_reported":1738732165,"current_range_meters":38800,"station_id":"ce4bh192rcd13ifvqdc0","pricing_plan_id":"cebpf4jnsgd1na2vs0mg"},{"bike_id":"ec5dd5cc-14c8-4b95-86d9-c96d037a3a2f","system_id":"levelo_inurba_marseille","lat":43.28859,"lon":5.35853,"is_reserved":false,"is_disabled":false,"rental_uris":{"android":"levelo://app?vid=ec5dd5cc-14c8-4b95-86d9-c96d037a3a2f","ios":"levelo://app?vid=ec5dd5cc-14c8-4b95-86d9-c96d037a3a2f"},"vehicle_type_id":"4","last_reported":1738732165,"current_range_meters":24000,"station_id":"ce4bhb12rcd13ifvqem0","pricing_plan_id":"cebpf4jnsgd1na2vs0mg"},{"bike_id":"d0c4da18-2769-443b-b9f6-8d6062be8386","system_id":"levelo_inurba_marseille","lat":43.31264,"lon":5.40171,"is_reserved":false,"is_disabled":false,"rental_uris":{"android":"levelo://app?vid=d0c4da18-2769-443b-b9f6-8d6062be8386","ios":"levelo://app?vid=d0c4da18-2769-443b-b9f6-8d6062be8386"},"vehicle_type_id":"4","last_reported":1738732165,"current_range_meters":38800,"station_id":"ce4bh092rcd13ifvqd30","pricing_plan_id":"cebpf4jnsgd1na2vs0mg"},{"bike_id":"b96a991c-d3d3-40ca-a1c5-06fc4d42b0ae","system_id":"levelo_inurba_marseille","lat":43.308781,"lon":5.396414,"is_reserved":false,"is_disabled":false,"rental_uris":{"android":"levelo://app?vid=b96a991c-d3d3-40ca-a1c5-06fc4d42b0ae","ios":"levelo://app?vid=b96a991c-d3d3-40ca-a1c5-06fc4d42b0ae"},"vehicle_type_id":"4","last_reported":1738732165,"current_range_meters":38800,"station_id":"ce4bh012rcd13ifvqcv0","pricing_plan_id":"cebpf4jnsgd1na2vs0mg"},{"bike_id":"88f6ec14-1047-428a-bfc8-ed7564b679d3","system_id":"levelo_inurba_marseille","lat":43.24388,"lon":5.37067,"is_reserved":false,"is_disabled":false,"rental_uris":{"android":"levelo://app?vid=88f6ec14-1047-428a-bfc8-ed7564b679d3","ios":"levelo://app?vid=88f6ec14-1047-428a-bfc8-ed7564b679d3"},"vehicle_type_id":"4","last_reported":1738732165,"current_range_meters":37600,"station_id":"ce4bhhh2rcd13ifvqfk0","pricing_plan_id":"cebpf4jnsgd1na2vs0mg"},{"bike_id":"147f437d-7b8c-425d-a0f3-70832c2cd538","system_id":"levelo_inurba_marseille","lat":43.28945,"lon":5.36373,"is_reserved":false,"is_disabled":false,"rental_uris":{"android":"levelo://app?vid=147f437d-7b8c-425d-a0f3-70832c2cd538","ios":"levelo://app?vid=147f437d-7b8c-425d-a0f3-70832c2cd538"},"vehicle_type_id":"4","last_reported":1738732165,"current_range_meters":37600,"station_id":"ce4bhc92rcd13ifvqetg","pricing_plan_id":"cebpf4jnsgd1na2vs0mg"},{"bike_id":"3eb089a4-83c3-4e94-92de-84f6b7286420","system_id":"levelo_inurba_marseille","lat":43.2815,"lon":5.42643,"is_reserved":false,"is_disabled":false,"rental_uris":{"android":"levelo://app?vid=3eb089a4-83c3-4e94-92de-84f6b7286420","ios":"levelo://app?vid=3eb089a4-83c3-4e94-92de-84f6b7286420"},"vehicle_type_id":"4","last_reported":1738732165,"current_range_meters":11200,"station_id":"ce4bhnh2rcd13ifvqgug","pricing_plan_id":"cebpf4jnsgd1na2vs0mg"},{"bike_id":"3d554245-3f89-4df3-9e21-aeb1df3f6e2c","system_id":"levelo_inurba_marseille","lat":43.295547,"lon":5.422843,"is_reserved":false,"is_disabled":false,"rental_uris":{"android":"levelo://app?vid=3d554245-3f89-4df3-9e21-aeb1df3f6e2c","ios":"levelo://app?vid=3d554245-3f89-4df3-9e21-aeb1df3f6e2c"},"vehicle_type_id":"4","last_reported":1738732165,"current_range_meters":27600,"station_id":"ce4bhph2rcd13ifvqhdg","pricing_plan_id":"cebpf4jnsgd1na2vs0mg"},{"bike_id":"a13fcc7d-b39d-449d-923a-9303756f2dbd","system_id":"levelo_inurba_marseille","lat":43.30612,"lon":5.37229,"is_reserved":false,"is_disabled":false,"rental_uris":{"android":"levelo://app?vid=a13fcc7d-b39d-449d-923a-9303756f2dbd","ios":"levelo://app?vid=a13fcc7d-b39d-449d-923a-9303756f2dbd"},"vehicle_type_id":"4","last_reported":1738732165,"current_range_meters":37600,"station_id":"ce4bgqh2rcd13ifvqc4g","pricing_plan_id":"cebpf4jnsgd1na2vs0mg"},{"bike_id":"2b05073d-60e5-43e5-b13c-86d3deb4df57","system_id":"levelo_inurba_marseille","lat":43.32552,"lon":5.41469,"is_reserved":false,"is_disabled":false,"rental_uris":{"android":"levelo://app?vid=2b05073d-60e5-43e5-b13c-86d3deb4df57","ios":"levelo://app?vid=2b05073d-60e5-43e5-b13c-86d3deb4df57"},"vehicle_type_id":"4","last_reported":1738732165,"current_range_meters":38800,"station_id":"ce4bhq12rcd13ifvqhhg","pricing_plan_id":"cebpf4jnsgd1na2vs0mg"},{"bike_id":"dcdc0f89-424b-480b-860a-becd402a3900","system_id":"levelo_inurba_marseille","lat":43.23982,"lon":5.36603,"is_reserved":false,"is_disabled":false,"rental_uris":{"android":"levelo://app?vid=dcdc0f89-424b-480b-860a-becd402a3900","ios":"levelo://app?vid=dcdc0f89-424b-480b-860a-becd402a3900"},"vehicle_type_id":"4","last_reported":1738732165,"current_range_meters":37600,"station_id":"ce4bhi12rcd13ifvqfp0","pricing_plan_id":"cebpf4jnsgd1na2vs0mg"},{"bike_id":"341296e8-097b-4b69-bbad-cbace534ff74","system_id":"levelo_inurba_marseille","lat":43.30808,"lon":5.381528,"is_reserved":false,"is_disabled":false,"rental_uris":{"android":"levelo://app?vid=341296e8-097b-4b69-bbad-cbace534ff74","ios":"levelo://app?vid=341296e8-097b-4b69-bbad-cbace534ff74"},"vehicle_type_id":"4","last_reported":1738732165,"current_range_meters":38000,"station_id":"ce4bgt12rcd13ifvqce0","pricing_plan_id":"cebpf4jnsgd1na2vs0mg"},{"bike_id":"3894dca2-273b-40ed-8be2-d6f8dae96388","system_id":"levelo_inurba_marseille","lat":43.286188,"lon":5.351039,"is_reserved":false,"is_disabled":false,"rental_uris":{"android":"levelo://app?vid=3894dca2-273b-40ed-8be2-d6f8dae96388","ios":"levelo://app?vid=3894dca2-273b-40ed-8be2-d6f8dae96388"},"vehicle_type_id":"4","last_reported":1738732165,"current_range_meters":37600,"station_id":"ce4bhch2rcd13ifvqeug","pricing_plan_id":"cebpf4jnsgd1na2vs0mg"},{"bike_id":"03215b30-aa65-4b10-b451-ed50967ec88e","system_id":"levelo_inurba_marseille","lat":43.34418,"lon":5.35975,"is_reserved":false,"is_disabled":true,"rental_uris":{"android":"levelo://app?vid=03215b30-aa65-4b10-b451-ed50967ec88e","ios":"levelo://app?vid=03215b30-aa65-4b10-b451-ed50967ec88e"},"vehicle_type_id":"4","last_reported":1738732165,"current_range_meters":0,"station_id":"","pricing_plan_id":"cebpf4jnsgd1na2vs0mg"},{"bike_id":"92b36b43-547a-429b-8926-e74c330f69ba","system_id":"levelo_inurba_marseille","lat":43.28991,"lon":5.35591,"is_reserved":false,"is_disabled":false,"rental_uris":{"android":"levelo://app?vid=92b36b43-547a-429b-8926-e74c330f69ba","ios":"levelo://app?vid=92b36b43-547a-429b-8926-e74c330f69ba"},"vehicle_type_id":"4","last_reported":1738732165,"current_range_meters":38400,"station_id":"ce4bhb92rcd13ifvqen0","pricing_plan_id":"cebpf4jnsgd1na2vs0mg"},{"bike_id":"931c3b97-cce1-4ebe-a291-6c50a6f2810e","system_id":"levelo_inurba_marseille","lat":43.31797,"lon":5.37402,"is_reserved":false,"is_disabled":false,"rental_uris":{"android":"levelo://app?vid=931c3b97-cce1-4ebe-a291-6c50a6f2810e","ios":"levelo://app?vid=931c3b97-cce1-4ebe-a291-6c50a6f2810e"},"vehicle_type_id":"4","last_reported":1738732165,"current_range_meters":8000,"station_id":"","pricing_plan_id":"cebpf4jnsgd1na2vs0mg"},{"bike_id":"2a6c0041-41bf-49e9-aa9a-aa5ccb4a5aac","system_id":"levelo_inurba_marseille","lat":43.3127,"lon":5.40163,"is_reserved":false,"is_disabled":false,"rental_uris":{"android":"levelo://app?vid=2a6c0041-41bf-49e9-aa9a-aa5ccb4a5aac","ios":"levelo://app?vid=2a6c0041-41bf-49e9-aa9a-aa5ccb4a5aac"},"vehicle_type_id":"4","last_reported":1738732165,"current_range_meters":38000,"station_id":"ce4bh092rcd13ifvqd30","pricing_plan_id":"cebpf4jnsgd1na2vs0mg"},{"bike_id":"d1d51ec2-e1ab-4b92-9a4b-f935b04ef436","system_id":"levelo_inurba_marseille","lat":43.25,"lon":5.38922,"is_reserved":false,"is_disabled":false,"rental_uris":{"android":"levelo://app?vid=d1d51ec2-e1ab-4b92-9a4b-f935b04ef436","ios":"levelo://app?vid=d1d51ec2-e1ab-4b92-9a4b-f935b04ef436"},"vehicle_type_id":"4","last_reported":1738732165,"current_range_meters":20800,"station_id":"ce4bhgp2rcd13ifvqfd0","pricing_plan_id":"cebpf4jnsgd1na2vs0mg"},{"bike_id":"102b9f2d-4c9c-4720-8aef-3f4ab487e1a0","system_id":"levelo_inurba_marseille","lat":43.32349,"lon":5.3888,"is_reserved":false,"is_disabled":false,"rental_uris":{"android":"levelo://app?vid=102b9f2d-4c9c-4720-8aef-3f4ab487e1a0","ios":"levelo://app?vid=102b9f2d-4c9c-4720-8aef-3f4ab487e1a0"},"vehicle_type_id":"4","last_reported":1738732165,"current_range_meters":38800,"station_id":"ce4bhqp2rcd13ifvqhog","pricing_plan_id":"cebpf4jnsgd1na2vs0mg"},{"bike_id":"7a2080c9-d44a-471c-9acd-526428e8e5dc","system_id":"levelo_inurba_marseille","lat":43.22931,"lon":5.3538,"is_reserved":false,"is_disabled":false,"rental_uris":{"android":"levelo://app?vid=7a2080c9-d44a-471c-9acd-526428e8e5dc","ios":"levelo://app?vid=7a2080c9-d44a-471c-9acd-526428e8e5dc"},"vehicle_type_id":"4","last_reported":1738732165,"current_range_meters":39200,"station_id":"cpo3532slgdg3j2ikp40","pricing_plan_id":"cebpf4jnsgd1na2vs0mg"},{"bike_id":"3b08dcd9-90ec-40dc-8983-d80d130c1c97","system_id":"levelo_inurba_marseille","lat":43.31128,"lon":5.37768,"is_reserved":false,"is_disabled":false,"rental_uris":{"android":"levelo://app?vid=3b08dcd9-90ec-40dc-8983-d80d130c1c97","ios":"levelo://app?vid=3b08dcd9-90ec-40dc-8983-d80d130c1c97"},"vehicle_type_id":"4","last_reported":1738732165,"current_range_meters":34800,"station_id":"ce4bgt92rcd13ifvqcg0","pricing_plan_id":"cebpf4jnsgd1na2vs0mg"},{"bike_id":"3cffe561-5575-4d5f-9a3c-4ee740a5b122","system_id":"levelo_inurba_marseille","lat":43.27941,"lon":5.41047,"is_reserved":false,"is_disabled":false,"rental_uris":{"android":"levelo://app?vid=3cffe561-5575-4d5f-9a3c-4ee740a5b122","ios":"levelo://app?vid=3cffe561-5575-4d5f-9a3c-4ee740a5b122"},"vehicle_type_id":"4","last_reported":1738732165,"current_range_meters":25600,"station_id":"ce4bhnp2rcd13ifvqh0g","pricing_plan_id":"cebpf4jnsgd1na2vs0mg"},{"bike_id":"d500b762-3915-4dff-a06c-7c96151cfc0d","system_id":"levelo_inurba_marseille","lat":43.32535,"lon":5.41481,"is_reserved":false,"is_disabled":false,"rental_uris":{"android":"levelo://app?vid=d500b762-3915-4dff-a06c-7c96151cfc0d","ios":"levelo://app?vid=d500b762-3915-4dff-a06c-7c96151cfc0d"},"vehicle_type_id":"4","last_reported":1738732165,"current_range_meters":38800,"station_id":"ce4bhq12rcd13ifvqhhg","pricing_plan_id":"cebpf4jnsgd1na2vs0mg"},{"bike_id":"f307dfc9-492f-427c-886b-0aebd0c4a217","system_id":"levelo_inurba_marseille","lat":43.24153,"lon":5.36407,"is_reserved":false,"is_disabled":false,"rental_uris":{"android":"levelo://app?vid=f307dfc9-492f-427c-886b-0aebd0c4a217","ios":"levelo://app?vid=f307dfc9-492f-427c-886b-0aebd0c4a217"},"vehicle_type_id":"4","last_reported":1738732165,"current_range_meters":9600,"station_id":"cpo36qri1sfpv3e86is0","pricing_plan_id":"cebpf4jnsgd1na2vs0mg"},{"bike_id":"b2272a44-41b3-4706-bf06-4d1dc73506e4","system_id":"levelo_inurba_marseille","lat":43.2894,"lon":5.39629,"is_reserved":false,"is_disabled":false,"rental_uris":{"android":"levelo://app?vid=b2272a44-41b3-4706-bf06-4d1dc73506e4","ios":"levelo://app?vid=b2272a44-41b3-4706-bf06-4d1dc73506e4"},"vehicle_type_id":"4","last_reported":1738732165,"current_range_meters":38400,"station_id":"ce4bh3h2rcd13ifvqdn0","pricing_plan_id":"cebpf4jnsgd1na2vs0mg"},{"bike_id":"0831d8bb-7237-43f0-9b92-f90b2e362b16","system_id":"levelo_inurba_marseille","lat":43.27812,"lon":5.40681,"is_reserved":false,"is_disabled":false,"rental_uris":{"android":"levelo://app?vid=0831d8bb-7237-43f0-9b92-f90b2e362b16","ios":"levelo://app?vid=0831d8bb-7237-43f0-9b92-f90b2e362b16"},"vehicle_type_id":"4","last_reported":1738732165,"current_range_meters":25200,"station_id":"ce4bhnh2rcd13ifvqgtg","pricing_plan_id":"cebpf4jnsgd1na2vs0mg"},{"bike_id":"95953c81-cb3e-4015-9084-ff1e1a6bbfc7","system_id":"levelo_inurba_marseille","lat":43.29524,"lon":5.39044,"is_reserved":false,"is_disabled":false,"rental_uris":{"android":"levelo://app?vid=95953c81-cb3e-4015-9084-ff1e1a6bbfc7","ios":"levelo://app?vid=95953c81-cb3e-4015-9084-ff1e1a6bbfc7"},"vehicle_type_id":"4","last_reported":1738732165,"current_range_meters":38400,"station_id":"ce4bh3p2rcd13ifvqdp0","pricing_plan_id":"cebpf4jnsgd1na2vs0mg"},{"bike_id":"66bf59dd-dd17-4505-b43a-4bd47959ec7b","system_id":"levelo_inurba_marseille","lat":43.28664,"lon":5.36361,"is_reserved":false,"is_disabled":false,"rental_uris":{"android":"levelo://app?vid=66bf59dd-dd17-4505-b43a-4bd47959ec7b","ios":"levelo://app?vid=66bf59dd-dd17-4505-b43a-4bd47959ec7b"},"vehicle_type_id":"4","last_reported":1738732165,"current_range_meters":37600,"station_id":"ce4bhah2rcd13ifvqej0","pricing_plan_id":"cebpf4jnsgd1na2vs0mg"},{"bike_id":"43784456-3d29-412e-8227-794ace361614","system_id":"levelo_inurba_marseille","lat":43.31171,"lon":5.38706,"is_reserved":false,"is_disabled":false,"rental_uris":{"android":"levelo://app?vid=43784456-3d29-412e-8227-794ace361614","ios":"levelo://app?vid=43784456-3d29-412e-8227-794ace361614"},"vehicle_type_id":"4","last_reported":1738732165,"current_range_meters":18000,"station_id":"ce4bgv12rcd13ifvqcp0","pricing_plan_id":"cebpf4jnsgd1na2vs0mg"},{"bike_id":"6dfe34ee-89dc-4687-a40b-bb003e3c18c6","system_id":"levelo_inurba_marseille","lat":43.281041,"lon":5.378494,"is_reserved":false,"is_disabled":true,"rental_uris":{"android":"levelo://app?vid=6dfe34ee-89dc-4687-a40b-bb003e3c18c6","ios":"levelo://app?vid=6dfe34ee-89dc-4687-a40b-bb003e3c18c6"},"vehicle_type_id":"4","last_reported":1738732165,"current_range_meters":13600,"station_id":"ce4bha12rcd13ifvqee0","pricing_plan_id":"cebpf4jnsgd1na2vs0mg"},{"bike_id":"8e0a0553-d4ce-4a58-bdf9-cddf2b79af95","system_id":"levelo_inurba_marseille","lat":43.27984,"lon":5.40009,"is_reserved":false,"is_disabled":false,"rental_uris":{"android":"levelo://app?vid=8e0a0553-d4ce-4a58-bdf9-cddf2b79af95","ios":"levelo://app?vid=8e0a0553-d4ce-4a58-bdf9-cddf2b79af95"},"vehicle_type_id":"4","last_reported":1738732165,"current_range_meters":38800,"station_id":"ce4bho92rcd13ifvqh4g","pricing_plan_id":"cebpf4jnsgd1na2vs0mg"},{"bike_id":"e31f2bae-f24d-493c-af96-81e7fa36ed01","system_id":"levelo_inurba_marseille","lat":43.28485,"lon":5.38563,"is_reserved":false,"is_disabled":false,"rental_uris":{"android":"levelo://app?vid=e31f2bae-f24d-493c-af96-81e7fa36ed01","ios":"levelo://app?vid=e31f2bae-f24d-493c-af96-81e7fa36ed01"},"vehicle_type_id":"4","last_reported":1738732165,"current_range_meters":38000,"station_id":"ce4bh8p2rcd13ifvqeb0","pricing_plan_id":"cebpf4jnsgd1na2vs0mg"},{"bike_id":"4aab5f6d-fa51-4980-b027-491c58f7f391","system_id":"levelo_inurba_marseille","lat":43.28619,"lon":5.35107,"is_reserved":false,"is_disabled":false,"rental_uris":{"android":"levelo://app?vid=4aab5f6d-fa51-4980-b027-491c58f7f391","ios":"levelo://app?vid=4aab5f6d-fa51-4980-b027-491c58f7f391"},"vehicle_type_id":"4","last_reported":1738732165,"current_range_meters":37600,"station_id":"ce4bhch2rcd13ifvqeug","pricing_plan_id":"cebpf4jnsgd1na2vs0mg"},{"bike_id":"6d60913d-cc26-4ecc-b494-5bb2f9b2ea83","system_id":"levelo_inurba_marseille","lat":43.29894,"lon":5.43666,"is_reserved":false,"is_disabled":false,"rental_uris":{"android":"levelo://app?vid=6d60913d-cc26-4ecc-b494-5bb2f9b2ea83","ios":"levelo://app?vid=6d60913d-cc26-4ecc-b494-5bb2f9b2ea83"},"vehicle_type_id":"4","last_reported":1738732165,"current_range_meters":38400,"station_id":"ce4bhpp2rcd13ifvqhfg","pricing_plan_id":"cebpf4jnsgd1na2vs0mg"},{"bike_id":"2fed9ba3-3909-423b-8e60-69abd9978d73","system_id":"levelo_inurba_marseille","lat":43.26809,"lon":5.40277,"is_reserved":false,"is_disabled":false,"rental_uris":{"android":"levelo://app?vid=2fed9ba3-3909-423b-8e60-69abd9978d73","ios":"levelo://app?vid=2fed9ba3-3909-423b-8e60-69abd9978d73"},"vehicle_type_id":"4","last_reported":1738732165,"current_range_meters":37600,"station_id":"ce501612rcd8frsf0b60","pricing_plan_id":"cebpf4jnsgd1na2vs0mg"},{"bike_id":"bc4186b3-1073-492b-ab95-0326a7b12d0e","system_id":"levelo_inurba_marseille","lat":43.28419,"lon":5.35018,"is_reserved":false,"is_disabled":false,"rental_uris":{"android":"levelo://app?vid=bc4186b3-1073-492b-ab95-0326a7b12d0e","ios":"levelo://app?vid=bc4186b3-1073-492b-ab95-0326a7b12d0e"},"vehicle_type_id":"4","last_reported":1738732165,"current_range_meters":37600,"station_id":"ce4bhbh2rcd13ifvqepg","pricing_plan_id":"cebpf4jnsgd1na2vs0mg"},{"bike_id":"ec1f087d-8524-41e1-88a8-0cf40e606125","system_id":"levelo_inurba_marseille","lat":43.287012,"lon":5.399846,"is_reserved":false,"is_disabled":false,"rental_uris":{"android":"levelo://app?vid=ec1f087d-8524-41e1-88a8-0cf40e606125","ios":"levelo://app?vid=ec1f087d-8524-41e1-88a8-0cf40e606125"},"vehicle_type_id":"4","last_reported":1738732165,"current_range_meters":12400,"station_id":"ce4bho92rcd13ifvqh3g","pricing_plan_id":"cebpf4jnsgd1na2vs0mg"},{"bike_id":"fb1830e2-f6fc-4fde-afda-8615e8ed9c4a","system_id":"levelo_inurba_marseille","lat":43.261907,"lon":5.374563,"is_reserved":false,"is_disabled":false,"rental_uris":{"android":"levelo://app?vid=fb1830e2-f6fc-4fde-afda-8615e8ed9c4a","ios":"levelo://app?vid=fb1830e2-f6fc-4fde-afda-8615e8ed9c4a"},"vehicle_type_id":"4","last_reported":1738732165,"current_range_meters":6800,"station_id":"ce4bhgp2rcd13ifvqfc0","pricing_plan_id":"cebpf4jnsgd1na2vs0mg"},{"bike_id":"f1201402-3586-4fcd-8e00-037220c11ef8","system_id":"levelo_inurba_marseille","lat":43.31289,"lon":5.40174,"is_reserved":false,"is_disabled":false,"rental_uris":{"android":"levelo://app?vid=f1201402-3586-4fcd-8e00-037220c11ef8","ios":"levelo://app?vid=f1201402-3586-4fcd-8e00-037220c11ef8"},"vehicle_type_id":"4","last_reported":1738732165,"current_range_meters":37600,"station_id":"ce4bh092rcd13ifvqd30","pricing_plan_id":"cebpf4jnsgd1na2vs0mg"},{"bike_id":"32b0730a-f64d-4e71-9fea-c5533d71cda7","system_id":"levelo_inurba_marseille","lat":43.28609,"lon":5.35096,"is_reserved":false,"is_disabled":false,"rental_uris":{"android":"levelo://app?vid=32b0730a-f64d-4e71-9fea-c5533d71cda7","ios":"levelo://app?vid=32b0730a-f64d-4e71-9fea-c5533d71cda7"},"vehicle_type_id":"4","last_reported":1738732165,"current_range_meters":19200,"station_id":"ce4bhch2rcd13ifvqeug","pricing_plan_id":"cebpf4jnsgd1na2vs0mg"},{"bike_id":"6e7c1ac2-e791-43c7-8c36-9db37854d07d","system_id":"levelo_inurba_marseille","lat":43.28618,"lon":5.351,"is_reserved":false,"is_disabled":true,"rental_uris":{"android":"levelo://app?vid=6e7c1ac2-e791-43c7-8c36-9db37854d07d","ios":"levelo://app?vid=6e7c1ac2-e791-43c7-8c36-9db37854d07d"},"vehicle_type_id":"4","last_reported":1738732165,"current_range_meters":23200,"station_id":"ce4bhch2rcd13ifvqeug","pricing_plan_id":"cebpf4jnsgd1na2vs0mg"},{"bike_id":"2b52254f-933d-4903-ac07-21eb27a1e798","system_id":"levelo_inurba_marseille","lat":43.27184,"lon":5.4101,"is_reserved":false,"is_disabled":false,"rental_uris":{"android":"levelo://app?vid=2b52254f-933d-4903-ac07-21eb27a1e798","ios":"levelo://app?vid=2b52254f-933d-4903-ac07-21eb27a1e798"},"vehicle_type_id":"4","last_reported":1738732165,"current_range_meters":6800,"station_id":"ce4bhl12rcd13ifvqgf0","pricing_plan_id":"cebpf4jnsgd1na2vs0mg"},{"bike_id":"4234e7d0-cb25-4fa2-9b12-2c29c79cd165","system_id":"levelo_inurba_marseille","lat":43.25712,"lon":5.41117,"is_reserved":false,"is_disabled":false,"rental_uris":{"android":"levelo://app?vid=4234e7d0-cb25-4fa2-9b12-2c29c79cd165","ios":"levelo://app?vid=4234e7d0-cb25-4fa2-9b12-2c29c79cd165"},"vehicle_type_id":"4","last_reported":1738732165,"current_range_meters":24000,"station_id":"ce4bhkp2rcd13ifvqgd0","pricing_plan_id":"cebpf4jnsgd1na2vs0mg"},{"bike_id":"1418b524-1535-4478-a5d6-289886b7efa0","system_id":"levelo_inurba_marseille","lat":43.28153,"lon":5.42641,"is_reserved":false,"is_disabled":false,"rental_uris":{"android":"levelo://app?vid=1418b524-1535-4478-a5d6-289886b7efa0","ios":"levelo://app?vid=1418b524-1535-4478-a5d6-289886b7efa0"},"vehicle_type_id":"4","last_reported":1738732165,"current_range_meters":38400,"station_id":"ce4bhnh2rcd13ifvqgug","pricing_plan_id":"cebpf4jnsgd1na2vs0mg"},{"bike_id":"42b83219-1050-4c91-9690-f23f52370e75","system_id":"levelo_inurba_marseille","lat":43.31537,"lon":5.38047,"is_reserved":false,"is_disabled":false,"rental_uris":{"android":"levelo://app?vid=42b83219-1050-4c91-9690-f23f52370e75","ios":"levelo://app?vid=42b83219-1050-4c91-9690-f23f52370e75"},"vehicle_type_id":"4","last_reported":1738732165,"current_range_meters":38800,"station_id":"ce4bhsp2rcd13ifvqi50","pricing_plan_id":"cebpf4jnsgd1na2vs0mg"},{"bike_id":"9b71e329-f58f-4038-b3a1-ec2921912ecf","system_id":"levelo_inurba_marseille","lat":43.287253,"lon":5.360826,"is_reserved":false,"is_disabled":false,"rental_uris":{"android":"levelo://app?vid=9b71e329-f58f-4038-b3a1-ec2921912ecf","ios":"levelo://app?vid=9b71e329-f58f-4038-b3a1-ec2921912ecf"},"vehicle_type_id":"4","last_reported":1738732165,"current_range_meters":19600,"station_id":"cki0cbj6b192h4jlfktg","pricing_plan_id":"cebpf4jnsgd1na2vs0mg"},{"bike_id":"fef859c5-282a-46db-90e8-8b5f1c89ff40","system_id":"levelo_inurba_marseille","lat":43.298525,"lon":5.362883,"is_reserved":false,"is_disabled":false,"rental_uris":{"android":"levelo://app?vid=fef859c5-282a-46db-90e8-8b5f1c89ff40","ios":"levelo://app?vid=fef859c5-282a-46db-90e8-8b5f1c89ff40"},"vehicle_type_id":"4","last_reported":1738732165,"current_range_meters":36000,"station_id":"ce4bgpp2rcd13ifvqc3g","pricing_plan_id":"cebpf4jnsgd1na2vs0mg"},{"bike_id":"376bb105-0387-498b-acb6-67588782c225","system_id":"levelo_inurba_marseille","lat":43.30156,"lon":5.38075,"is_reserved":false,"is_disabled":false,"rental_uris":{"android":"levelo://app?vid=376bb105-0387-498b-acb6-67588782c225","ios":"levelo://app?vid=376bb105-0387-498b-acb6-67588782c225"},"vehicle_type_id":"4","last_reported":1738732165,"current_range_meters":37600,"station_id":"ce4bgjp2rcd13ifvqbh0","pricing_plan_id":"cebpf4jnsgd1na2vs0mg"},{"bike_id":"64ab4051-628c-4522-bffc-2252fa5fcc2f","system_id":"levelo_inurba_marseille","lat":43.29962,"lon":5.4131,"is_reserved":false,"is_disabled":false,"rental_uris":{"android":"levelo://app?vid=64ab4051-628c-4522-bffc-2252fa5fcc2f","ios":"levelo://app?vid=64ab4051-628c-4522-bffc-2252fa5fcc2f"},"vehicle_type_id":"4","last_reported":1738732165,"current_range_meters":37600,"station_id":"ce4bhp12rcd13ifvqh9g","pricing_plan_id":"cebpf4jnsgd1na2vs0mg"},{"bike_id":"ef921652-a254-4821-8779-ff39d8b70130","system_id":"levelo_inurba_marseille","lat":43.29966,"lon":5.4131,"is_reserved":false,"is_disabled":false,"rental_uris":{"android":"levelo://app?vid=ef921652-a254-4821-8779-ff39d8b70130","ios":"levelo://app?vid=ef921652-a254-4821-8779-ff39d8b70130"},"vehicle_type_id":"4","last_reported":1738732165,"current_range_meters":38000,"station_id":"ce4bhp12rcd13ifvqh9g","pricing_plan_id":"cebpf4jnsgd1na2vs0mg"},{"bike_id":"07e32d39-4f09-4a89-b23b-4cb5f70f8862","system_id":"levelo_inurba_marseille","lat":43.25114,"lon":5.40322,"is_reserved":false,"is_disabled":false,"rental_uris":{"android":"levelo://app?vid=07e32d39-4f09-4a89-b23b-4cb5f70f8862","ios":"levelo://app?vid=07e32d39-4f09-4a89-b23b-4cb5f70f8862"},"vehicle_type_id":"4","last_reported":1738732165,"current_range_meters":29600,"station_id":"ce4bhlh2rcd13ifvqgig","pricing_plan_id":"cebpf4jnsgd1na2vs0mg"},{"bike_id":"84675579-a8ec-4356-afb1-b1a911a2dc2d","system_id":"levelo_inurba_marseille","lat":43.27057,"lon":5.40262,"is_reserved":false,"is_disabled":false,"rental_uris":{"android":"levelo://app?vid=84675579-a8ec-4356-afb1-b1a911a2dc2d","ios":"levelo://app?vid=84675579-a8ec-4356-afb1-b1a911a2dc2d"},"vehicle_type_id":"4","last_reported":1738732165,"current_range_meters":34800,"station_id":"ce4bhk92rcd13ifvqgc0","pricing_plan_id":"cebpf4jnsgd1na2vs0mg"},{"bike_id":"4a45878b-7b66-4c07-bb6e-71c8f083ef43","system_id":"levelo_inurba_marseille","lat":43.30781,"lon":5.37659,"is_reserved":false,"is_disabled":false,"rental_uris":{"android":"levelo://app?vid=4a45878b-7b66-4c07-bb6e-71c8f083ef43","ios":"levelo://app?vid=4a45878b-7b66-4c07-bb6e-71c8f083ef43"},"vehicle_type_id":"4","last_reported":1738732165,"current_range_meters":35200,"station_id":"ce4bgv92rcd13ifvqcq0","pricing_plan_id":"cebpf4jnsgd1na2vs0mg"},{"bike_id":"94f4ad07-dbad-435e-9ed2-e15c436beef0","system_id":"levelo_inurba_marseille","lat":43.28714,"lon":5.37933,"is_reserved":false,"is_disabled":false,"rental_uris":{"android":"levelo://app?vid=94f4ad07-dbad-435e-9ed2-e15c436beef0","ios":"levelo://app?vid=94f4ad07-dbad-435e-9ed2-e15c436beef0"},"vehicle_type_id":"4","last_reported":1738732165,"current_range_meters":38800,"station_id":"ce4bh9p2rcd13ifvqec0","pricing_plan_id":"cebpf4jnsgd1na2vs0mg"},{"bike_id":"26d397a9-61ee-400d-a6b0-dc8b026ea3e4","system_id":"levelo_inurba_marseille","lat":43.29636,"lon":5.37132,"is_reserved":false,"is_disabled":false,"rental_uris":{"android":"levelo://app?vid=26d397a9-61ee-400d-a6b0-dc8b026ea3e4","ios":"levelo://app?vid=26d397a9-61ee-400d-a6b0-dc8b026ea3e4"},"vehicle_type_id":"4","last_reported":1738732165,"current_range_meters":32000,"station_id":"ce4bgnh2rcd13ifvqc0g","pricing_plan_id":"cebpf4jnsgd1na2vs0mg"},{"bike_id":"b8403442-0d67-4e20-befe-06c81ba961f5","system_id":"levelo_inurba_marseille","lat":43.31891,"lon":5.4073,"is_reserved":false,"is_disabled":false,"rental_uris":{"android":"levelo://app?vid=b8403442-0d67-4e20-befe-06c81ba961f5","ios":"levelo://app?vid=b8403442-0d67-4e20-befe-06c81ba961f5"},"vehicle_type_id":"4","last_reported":1738732165,"current_range_meters":36000,"station_id":"ce4bhq12rcd13ifvqhig","pricing_plan_id":"cebpf4jnsgd1na2vs0mg"},{"bike_id":"712d0a14-a917-44ba-b26a-1a57cb2bf711","system_id":"levelo_inurba_marseille","lat":43.27968,"lon":5.38742,"is_reserved":false,"is_disabled":false,"rental_uris":{"android":"levelo://app?vid=712d0a14-a917-44ba-b26a-1a57cb2bf711","ios":"levelo://app?vid=712d0a14-a917-44ba-b26a-1a57cb2bf711"},"vehicle_type_id":"4","last_reported":1738732165,"current_range_meters":38000,"station_id":"ce4bhg12rcd13ifvqf80","pricing_plan_id":"cebpf4jnsgd1na2vs0mg"},{"bike_id":"5fba90fb-e993-4d8f-99e0-53f38203668f","system_id":"levelo_inurba_marseille","lat":43.23186,"lon":5.39972,"is_reserved":false,"is_disabled":false,"rental_uris":{"android":"levelo://app?vid=5fba90fb-e993-4d8f-99e0-53f38203668f","ios":"levelo://app?vid=5fba90fb-e993-4d8f-99e0-53f38203668f"},"vehicle_type_id":"4","last_reported":1738732165,"current_range_meters":24400,"station_id":"ce4bhn12rcd13ifvqgqg","pricing_plan_id":"cebpf4jnsgd1na2vs0mg"},{"bike_id":"3370c680-24ff-40d1-b432-a6746eb5f9ee","system_id":"levelo_inurba_marseille","lat":43.28714,"lon":5.36073,"is_reserved":false,"is_disabled":false,"rental_uris":{"android":"levelo://app?vid=3370c680-24ff-40d1-b432-a6746eb5f9ee","ios":"levelo://app?vid=3370c680-24ff-40d1-b432-a6746eb5f9ee"},"vehicle_type_id":"4","last_reported":1738732165,"current_range_meters":36400,"station_id":"cki0cbj6b192h4jlfktg","pricing_plan_id":"cebpf4jnsgd1na2vs0mg"},{"bike_id":"a9ee38d0-21e8-4d99-8e3f-cc643e32473e","system_id":"levelo_inurba_marseille","lat":43.27824,"lon":5.40727,"is_reserved":false,"is_disabled":false,"rental_uris":{"android":"levelo://app?vid=a9ee38d0-21e8-4d99-8e3f-cc643e32473e","ios":"levelo://app?vid=a9ee38d0-21e8-4d99-8e3f-cc643e32473e"},"vehicle_type_id":"4","last_reported":1738732165,"current_range_meters":38400,"station_id":"ce4bhnh2rcd13ifvqgtg","pricing_plan_id":"cebpf4jnsgd1na2vs0mg"},{"bike_id":"ba40c892-4735-470f-b2ff-aa6277dd0300","system_id":"levelo_inurba_marseille","lat":43.26677,"lon":5.38258,"is_reserved":false,"is_disabled":false,"rental_uris":{"android":"levelo://app?vid=ba40c892-4735-470f-b2ff-aa6277dd0300","ios":"levelo://app?vid=ba40c892-4735-470f-b2ff-aa6277dd0300"},"vehicle_type_id":"4","last_reported":1738732165,"current_range_meters":37600,"station_id":"ce4bhg92rcd13ifvqf90","pricing_plan_id":"cebpf4jnsgd1na2vs0mg"},{"bike_id":"630dd466-e4dd-4ada-8a39-01e92abf0818","system_id":"levelo_inurba_marseille","lat":43.26194,"lon":5.37445,"is_reserved":false,"is_disabled":false,"rental_uris":{"android":"levelo://app?vid=630dd466-e4dd-4ada-8a39-01e92abf0818","ios":"levelo://app?vid=630dd466-e4dd-4ada-8a39-01e92abf0818"},"vehicle_type_id":"4","last_reported":1738732165,"current_range_meters":30400,"station_id":"ce4bhgp2rcd13ifvqfc0","pricing_plan_id":"cebpf4jnsgd1na2vs0mg"},{"bike_id":"148ebf1c-0c4a-4bca-80d0-096264c9b011","system_id":"levelo_inurba_marseille","lat":43.31195,"lon":5.36824,"is_reserved":false,"is_disabled":false,"rental_uris":{"android":"levelo://app?vid=148ebf1c-0c4a-4bca-80d0-096264c9b011","ios":"levelo://app?vid=148ebf1c-0c4a-4bca-80d0-096264c9b011"},"vehicle_type_id":"4","last_reported":1738732165,"current_range_meters":39200,"station_id":"ce4bgl92rcd13ifvqbq0","pricing_plan_id":"cebpf4jnsgd1na2vs0mg"},{"bike_id":"d855d5e3-8132-4057-9968-8240bfe391da","system_id":"levelo_inurba_marseille","lat":43.295176,"lon":5.39409,"is_reserved":false,"is_disabled":false,"rental_uris":{"android":"levelo://app?vid=d855d5e3-8132-4057-9968-8240bfe391da","ios":"levelo://app?vid=d855d5e3-8132-4057-9968-8240bfe391da"},"vehicle_type_id":"4","last_reported":1738732165,"current_range_meters":32400,"station_id":"ce4bh292rcd13ifvqdf0","pricing_plan_id":"cebpf4jnsgd1na2vs0mg"},{"bike_id":"49fbaf9e-467a-4836-bdd2-2c9e8277153b","system_id":"levelo_inurba_marseille","lat":43.304365,"lon":5.388795,"is_reserved":false,"is_disabled":false,"rental_uris":{"android":"levelo://app?vid=49fbaf9e-467a-4836-bdd2-2c9e8277153b","ios":"levelo://app?vid=49fbaf9e-467a-4836-bdd2-2c9e8277153b"},"vehicle_type_id":"4","last_reported":1738732165,"current_range_meters":38800,"station_id":"ce4bgk12rcd13ifvqbi0","pricing_plan_id":"cebpf4jnsgd1na2vs0mg"},{"bike_id":"3034d64e-f78e-468c-b4d6-2520a053438f","system_id":"levelo_inurba_marseille","lat":43.23197,"lon":5.40007,"is_reserved":false,"is_disabled":false,"rental_uris":{"android":"levelo://app?vid=3034d64e-f78e-468c-b4d6-2520a053438f","ios":"levelo://app?vid=3034d64e-f78e-468c-b4d6-2520a053438f"},"vehicle_type_id":"4","last_reported":1738732165,"current_range_meters":37600,"station_id":"ce4bhn12rcd13ifvqgqg","pricing_plan_id":"cebpf4jnsgd1na2vs0mg"},{"bike_id":"89c66f7b-44c1-45ea-9fd9-a928af4003a2","system_id":"levelo_inurba_marseille","lat":43.314963,"lon":5.372909,"is_reserved":false,"is_disabled":false,"rental_uris":{"android":"levelo://app?vid=89c66f7b-44c1-45ea-9fd9-a928af4003a2","ios":"levelo://app?vid=89c66f7b-44c1-45ea-9fd9-a928af4003a2"},"vehicle_type_id":"4","last_reported":1738732165,"current_range_meters":34800,"station_id":"ce4bgt12rcd13ifvqcd0","pricing_plan_id":"cebpf4jnsgd1na2vs0mg"},{"bike_id":"41ad3d36-51d8-4204-ae3d-d7c8884b6fab","system_id":"levelo_inurba_marseille","lat":43.25579,"lon":5.38234,"is_reserved":false,"is_disabled":false,"rental_uris":{"android":"levelo://app?vid=41ad3d36-51d8-4204-ae3d-d7c8884b6fab","ios":"levelo://app?vid=41ad3d36-51d8-4204-ae3d-d7c8884b6fab"},"vehicle_type_id":"4","last_reported":1738732165,"current_range_meters":36800,"station_id":"ce4bhih2rcd13ifvqfs0","pricing_plan_id":"cebpf4jnsgd1na2vs0mg"},{"bike_id":"0444d04a-5ddc-4adb-90fc-b1be829b71a2","system_id":"levelo_inurba_marseille","lat":43.31297,"lon":5.40152,"is_reserved":false,"is_disabled":false,"rental_uris":{"android":"levelo://app?vid=0444d04a-5ddc-4adb-90fc-b1be829b71a2","ios":"levelo://app?vid=0444d04a-5ddc-4adb-90fc-b1be829b71a2"},"vehicle_type_id":"4","last_reported":1738732165,"current_range_meters":39200,"station_id":"ce4bh092rcd13ifvqd30","pricing_plan_id":"cebpf4jnsgd1na2vs0mg"},{"bike_id":"70eec59f-8e5c-4c4a-8440-79555df8ea8f","system_id":"levelo_inurba_marseille","lat":43.29005,"lon":5.35608,"is_reserved":false,"is_disabled":true,"rental_uris":{"android":"levelo://app?vid=70eec59f-8e5c-4c4a-8440-79555df8ea8f","ios":"levelo://app?vid=70eec59f-8e5c-4c4a-8440-79555df8ea8f"},"vehicle_type_id":"4","last_reported":1738732165,"current_range_meters":11200,"station_id":"ce4bhb92rcd13ifvqen0","pricing_plan_id":"cebpf4jnsgd1na2vs0mg"},{"bike_id":"e1fd63af-2ded-46aa-b95c-acb582af5c06","system_id":"levelo_inurba_marseille","lat":43.28712,"lon":5.39987,"is_reserved":false,"is_disabled":true,"rental_uris":{"android":"levelo://app?vid=e1fd63af-2ded-46aa-b95c-acb582af5c06","ios":"levelo://app?vid=e1fd63af-2ded-46aa-b95c-acb582af5c06"},"vehicle_type_id":"4","last_reported":1738732165,"current_range_meters":0,"station_id":"ce4bho92rcd13ifvqh3g","pricing_plan_id":"cebpf4jnsgd1na2vs0mg"},{"bike_id":"0b557b94-8edf-49bc-8c24-edbb5993edd9","system_id":"levelo_inurba_marseille","lat":43.33533,"lon":5.40898,"is_reserved":false,"is_disabled":false,"rental_uris":{"android":"levelo://app?vid=0b557b94-8edf-49bc-8c24-edbb5993edd9","ios":"levelo://app?vid=0b557b94-8edf-49bc-8c24-edbb5993edd9"},"vehicle_type_id":"4","last_reported":1738732165,"current_range_meters":30000,"station_id":"ce4bhqh2rcd13ifvqhmg","pricing_plan_id":"cebpf4jnsgd1na2vs0mg"},{"bike_id":"b09ebd01-c975-4878-ac0b-8fd11b1739f7","system_id":"levelo_inurba_marseille","lat":43.28151,"lon":5.42669,"is_reserved":false,"is_disabled":false,"rental_uris":{"android":"levelo://app?vid=b09ebd01-c975-4878-ac0b-8fd11b1739f7","ios":"levelo://app?vid=b09ebd01-c975-4878-ac0b-8fd11b1739f7"},"vehicle_type_id":"4","last_reported":1738732165,"current_range_meters":12400,"station_id":"ce4bhnh2rcd13ifvqgug","pricing_plan_id":"cebpf4jnsgd1na2vs0mg"},{"bike_id":"8c802598-d30c-4f7f-a5d2-9d43932522c0","system_id":"levelo_inurba_marseille","lat":43.31529,"lon":5.38019,"is_reserved":false,"is_disabled":false,"rental_uris":{"android":"levelo://app?vid=8c802598-d30c-4f7f-a5d2-9d43932522c0","ios":"levelo://app?vid=8c802598-d30c-4f7f-a5d2-9d43932522c0"},"vehicle_type_id":"4","last_reported":1738732165,"current_range_meters":38800,"station_id":"ce4bhsp2rcd13ifvqi50","pricing_plan_id":"cebpf4jnsgd1na2vs0mg"},{"bike_id":"a66ff152-aaa1-48ab-8ff7-974294611fc7","system_id":"levelo_inurba_marseille","lat":43.29789,"lon":5.38101,"is_reserved":false,"is_disabled":false,"rental_uris":{"android":"levelo://app?vid=a66ff152-aaa1-48ab-8ff7-974294611fc7","ios":"levelo://app?vid=a66ff152-aaa1-48ab-8ff7-974294611fc7"},"vehicle_type_id":"4","last_reported":1738732165,"current_range_meters":38800,"station_id":"ce4bgip2rcd13ifvqbb0","pricing_plan_id":"cebpf4jnsgd1na2vs0mg"},{"bike_id":"a7dc0848-081a-4438-bce6-7e161a91f066","system_id":"levelo_inurba_marseille","lat":43.28147,"lon":5.42661,"is_reserved":false,"is_disabled":false,"rental_uris":{"android":"levelo://app?vid=a7dc0848-081a-4438-bce6-7e161a91f066","ios":"levelo://app?vid=a7dc0848-081a-4438-bce6-7e161a91f066"},"vehicle_type_id":"4","last_reported":1738732165,"current_range_meters":32000,"station_id":"ce4bhnh2rcd13ifvqgug","pricing_plan_id":"cebpf4jnsgd1na2vs0mg"},{"bike_id":"537d148d-4101-4c2e-81be-eedbb9188f59","system_id":"levelo_inurba_marseille","lat":43.261996,"lon":5.374488,"is_reserved":false,"is_disabled":false,"rental_uris":{"android":"levelo://app?vid=537d148d-4101-4c2e-81be-eedbb9188f59","ios":"levelo://app?vid=537d148d-4101-4c2e-81be-eedbb9188f59"},"vehicle_type_id":"4","last_reported":1738732165,"current_range_meters":30000,"station_id":"ce4bhgp2rcd13ifvqfc0","pricing_plan_id":"cebpf4jnsgd1na2vs0mg"},{"bike_id":"33966ba7-2986-475f-b533-c9f3ee646466","system_id":"levelo_inurba_marseille","lat":43.28706,"lon":5.39989,"is_reserved":false,"is_disabled":false,"rental_uris":{"android":"levelo://app?vid=33966ba7-2986-475f-b533-c9f3ee646466","ios":"levelo://app?vid=33966ba7-2986-475f-b533-c9f3ee646466"},"vehicle_type_id":"4","last_reported":1738732165,"current_range_meters":32400,"station_id":"ce4bho92rcd13ifvqh3g","pricing_plan_id":"cebpf4jnsgd1na2vs0mg"},{"bike_id":"9dc60976-d2bc-44c3-87bb-1d52fbe610c3","system_id":"levelo_inurba_marseille","lat":43.283475,"lon":5.380985,"is_reserved":false,"is_disabled":false,"rental_uris":{"android":"levelo://app?vid=9dc60976-d2bc-44c3-87bb-1d52fbe610c3","ios":"levelo://app?vid=9dc60976-d2bc-44c3-87bb-1d52fbe610c3"},"vehicle_type_id":"4","last_reported":1738732165,"current_range_meters":30000,"station_id":"ce4bh412rcd13ifvqdr0","pricing_plan_id":"cebpf4jnsgd1na2vs0mg"},{"bike_id":"2055a81d-8e5e-4bf5-b5e1-2fc40f396b7c","system_id":"levelo_inurba_marseille","lat":43.30542,"lon":5.38464,"is_reserved":false,"is_disabled":true,"rental_uris":{"android":"levelo://app?vid=2055a81d-8e5e-4bf5-b5e1-2fc40f396b7c","ios":"levelo://app?vid=2055a81d-8e5e-4bf5-b5e1-2fc40f396b7c"},"vehicle_type_id":"4","last_reported":1738732165,"current_range_meters":30000,"station_id":"ce4bgg92rcd13ifvqb30","pricing_plan_id":"cebpf4jnsgd1na2vs0mg"},{"bike_id":"60459898-4795-4acb-95dc-4e319e0a4d38","system_id":"levelo_inurba_marseille","lat":43.24651,"lon":5.38895,"is_reserved":false,"is_disabled":false,"rental_uris":{"android":"levelo://app?vid=60459898-4795-4acb-95dc-4e319e0a4d38","ios":"levelo://app?vid=60459898-4795-4acb-95dc-4e319e0a4d38"},"vehicle_type_id":"4","last_reported":1738732165,"current_range_meters":33600,"station_id":"ce4bhg12rcd13ifvqf60","pricing_plan_id":"cebpf4jnsgd1na2vs0mg"},{"bike_id":"84ed939f-9f09-4f60-a7e3-213d6b465b41","system_id":"levelo_inurba_marseille","lat":43.25496,"lon":5.37663,"is_reserved":false,"is_disabled":false,"rental_uris":{"android":"levelo://app?vid=84ed939f-9f09-4f60-a7e3-213d6b465b41","ios":"levelo://app?vid=84ed939f-9f09-4f60-a7e3-213d6b465b41"},"vehicle_type_id":"4","last_reported":1738732165,"current_range_meters":38400,"station_id":"ce4bhh12rcd13ifvqff0","pricing_plan_id":"cebpf4jnsgd1na2vs0mg"},{"bike_id":"722be818-6472-428d-8c9a-db48620784ac","system_id":"levelo_inurba_marseille","lat":43.28417,"lon":5.37544,"is_reserved":false,"is_disabled":false,"rental_uris":{"android":"levelo://app?vid=722be818-6472-428d-8c9a-db48620784ac","ios":"levelo://app?vid=722be818-6472-428d-8c9a-db48620784ac"},"vehicle_type_id":"4","last_reported":1738732165,"current_range_meters":19600,"station_id":"ce4bh412rcd13ifvqds0","pricing_plan_id":"cebpf4jnsgd1na2vs0mg"},{"bike_id":"a39c3dab-0b2f-42a1-b8f4-d6faef3fe546","system_id":"levelo_inurba_marseille","lat":43.31073,"lon":5.38355,"is_reserved":false,"is_disabled":false,"rental_uris":{"android":"levelo://app?vid=a39c3dab-0b2f-42a1-b8f4-d6faef3fe546","ios":"levelo://app?vid=a39c3dab-0b2f-42a1-b8f4-d6faef3fe546"},"vehicle_type_id":"4","last_reported":1738732165,"current_range_meters":38400,"station_id":"ce4bgv92rcd13ifvqcr0","pricing_plan_id":"cebpf4jnsgd1na2vs0mg"},{"bike_id":"bb846df9-2969-480a-aed6-edbcf9c326fb","system_id":"levelo_inurba_marseille","lat":43.24812,"lon":5.37455,"is_reserved":false,"is_disabled":false,"rental_uris":{"android":"levelo://app?vid=bb846df9-2969-480a-aed6-edbcf9c326fb","ios":"levelo://app?vid=bb846df9-2969-480a-aed6-edbcf9c326fb"},"vehicle_type_id":"4","last_reported":1738732165,"current_range_meters":22400,"station_id":"ce4bhgh2rcd13ifvqfb0","pricing_plan_id":"cebpf4jnsgd1na2vs0mg"},{"bike_id":"a33a1f02-de42-4d05-887b-933203e68017","system_id":"levelo_inurba_marseille","lat":43.29028,"lon":5.38647,"is_reserved":false,"is_disabled":true,"rental_uris":{"android":"levelo://app?vid=a33a1f02-de42-4d05-887b-933203e68017","ios":"levelo://app?vid=a33a1f02-de42-4d05-887b-933203e68017"},"vehicle_type_id":"4","last_reported":1738732165,"current_range_meters":37600,"station_id":"ce4bh4p2rcd13ifvqe0g","pricing_plan_id":"cebpf4jnsgd1na2vs0mg"},{"bike_id":"cd07e062-2af1-406e-bcb9-5f1ec4730937","system_id":"levelo_inurba_marseille","lat":43.230632,"lon":5.354961,"is_reserved":false,"is_disabled":false,"rental_uris":{"android":"levelo://app?vid=cd07e062-2af1-406e-bcb9-5f1ec4730937","ios":"levelo://app?vid=cd07e062-2af1-406e-bcb9-5f1ec4730937"},"vehicle_type_id":"4","last_reported":1738732165,"current_range_meters":6800,"station_id":"cpo3342slgdg3j2ifvpg","pricing_plan_id":"cebpf4jnsgd1na2vs0mg"},{"bike_id":"c3644d12-8427-4602-9945-9ef42c46feca","system_id":"levelo_inurba_marseille","lat":43.24164,"lon":5.364,"is_reserved":false,"is_disabled":false,"rental_uris":{"android":"levelo://app?vid=c3644d12-8427-4602-9945-9ef42c46feca","ios":"levelo://app?vid=c3644d12-8427-4602-9945-9ef42c46feca"},"vehicle_type_id":"4","last_reported":1738732165,"current_range_meters":10000,"station_id":"cpo36qri1sfpv3e86is0","pricing_plan_id":"cebpf4jnsgd1na2vs0mg"},{"bike_id":"2769350b-54f1-48e4-aedf-1324fffc26ba","system_id":"levelo_inurba_marseille","lat":43.23955,"lon":5.3663,"is_reserved":false,"is_disabled":false,"rental_uris":{"android":"levelo://app?vid=2769350b-54f1-48e4-aedf-1324fffc26ba","ios":"levelo://app?vid=2769350b-54f1-48e4-aedf-1324fffc26ba"},"vehicle_type_id":"4","last_reported":1738732165,"current_range_meters":4800,"station_id":"ce4bhi12rcd13ifvqfp0","pricing_plan_id":"cebpf4jnsgd1na2vs0mg"},{"bike_id":"cd89ed35-87d2-41a0-a461-2c97aa104998","system_id":"levelo_inurba_marseille","lat":43.28151,"lon":5.40761,"is_reserved":false,"is_disabled":false,"rental_uris":{"android":"levelo://app?vid=cd89ed35-87d2-41a0-a461-2c97aa104998","ios":"levelo://app?vid=cd89ed35-87d2-41a0-a461-2c97aa104998"},"vehicle_type_id":"4","last_reported":1738732165,"current_range_meters":22400,"station_id":"","pricing_plan_id":"cebpf4jnsgd1na2vs0mg"},{"bike_id":"1e7bde43-ab8f-4755-b59a-acd0a53ae759","system_id":"levelo_inurba_marseille","lat":43.31719,"lon":5.42414,"is_reserved":false,"is_disabled":true,"rental_uris":{"android":"levelo://app?vid=1e7bde43-ab8f-4755-b59a-acd0a53ae759","ios":"levelo://app?vid=1e7bde43-ab8f-4755-b59a-acd0a53ae759"},"vehicle_type_id":"4","last_reported":1738732165,"current_range_meters":0,"station_id":"ce4bhp92rcd13ifvqhbg","pricing_plan_id":"cebpf4jnsgd1na2vs0mg"},{"bike_id":"2c79a8e8-8702-49dd-9713-359e9e839a56","system_id":"levelo_inurba_marseille","lat":43.284229,"lon":5.375084,"is_reserved":false,"is_disabled":false,"rental_uris":{"android":"levelo://app?vid=2c79a8e8-8702-49dd-9713-359e9e839a56","ios":"levelo://app?vid=2c79a8e8-8702-49dd-9713-359e9e839a56"},"vehicle_type_id":"4","last_reported":1738732165,"current_range_meters":28400,"station_id":"ce4bh412rcd13ifvqds0","pricing_plan_id":"cebpf4jnsgd1na2vs0mg"},{"bike_id":"e40a7264-a928-4c13-aec0-8ad25395be3d","system_id":"levelo_inurba_marseille","lat":43.30927,"lon":5.40149,"is_reserved":false,"is_disabled":false,"rental_uris":{"android":"levelo://app?vid=e40a7264-a928-4c13-aec0-8ad25395be3d","ios":"levelo://app?vid=e40a7264-a928-4c13-aec0-8ad25395be3d"},"vehicle_type_id":"4","last_reported":1738732165,"current_range_meters":38800,"station_id":"ce4bgvp2rcd13ifvqct0","pricing_plan_id":"cebpf4jnsgd1na2vs0mg"},{"bike_id":"d4acc25e-826d-4a87-a9c3-ec1a35a614f2","system_id":"levelo_inurba_marseille","lat":43.28859,"lon":5.39314,"is_reserved":false,"is_disabled":true,"rental_uris":{"android":"levelo://app?vid=d4acc25e-826d-4a87-a9c3-ec1a35a614f2","ios":"levelo://app?vid=d4acc25e-826d-4a87-a9c3-ec1a35a614f2"},"vehicle_type_id":"4","last_reported":1738732165,"current_range_meters":1200,"station_id":"ce4bh2p2rcd13ifvqdi0","pricing_plan_id":"cebpf4jnsgd1na2vs0mg"},{"bike_id":"fc3d43a2-88f1-4d79-a8d8-9632f212d117","system_id":"levelo_inurba_marseille","lat":43.28463,"lon":5.35883,"is_reserved":false,"is_disabled":false,"rental_uris":{"android":"levelo://app?vid=fc3d43a2-88f1-4d79-a8d8-9632f212d117","ios":"levelo://app?vid=fc3d43a2-88f1-4d79-a8d8-9632f212d117"},"vehicle_type_id":"4","last_reported":1738732165,"current_range_meters":38800,"station_id":"ce4bhah2rcd13ifvqei0","pricing_plan_id":"cebpf4jnsgd1na2vs0mg"},{"bike_id":"b5c6e54a-5b03-4a84-aee1-4d3613050ebc","system_id":"levelo_inurba_marseille","lat":43.25869,"lon":5.39903,"is_reserved":false,"is_disabled":false,"rental_uris":{"android":"levelo://app?vid=b5c6e54a-5b03-4a84-aee1-4d3613050ebc","ios":"levelo://app?vid=b5c6e54a-5b03-4a84-aee1-4d3613050ebc"},"vehicle_type_id":"4","last_reported":1738732165,"current_range_meters":33200,"station_id":"ce4bhl92rcd13ifvqghg","pricing_plan_id":"cebpf4jnsgd1na2vs0mg"},{"bike_id":"2c2c852b-4448-4c57-85a3-f391a8a31697","system_id":"levelo_inurba_marseille","lat":43.30236,"lon":5.40042,"is_reserved":false,"is_disabled":false,"rental_uris":{"android":"levelo://app?vid=2c2c852b-4448-4c57-85a3-f391a8a31697","ios":"levelo://app?vid=2c2c852b-4448-4c57-85a3-f391a8a31697"},"vehicle_type_id":"4","last_reported":1738732165,"current_range_meters":8000,"station_id":"","pricing_plan_id":"cebpf4jnsgd1na2vs0mg"},{"bike_id":"45a7daa2-2a2e-4454-90c3-1009aaecc5bd","system_id":"levelo_inurba_marseille","lat":43.231973,"lon":5.35547,"is_reserved":false,"is_disabled":false,"rental_uris":{"android":"levelo://app?vid=45a7daa2-2a2e-4454-90c3-1009aaecc5bd","ios":"levelo://app?vid=45a7daa2-2a2e-4454-90c3-1009aaecc5bd"},"vehicle_type_id":"4","last_reported":1738732165,"current_range_meters":5600,"station_id":"ce4bhu92rcd13ifvqi70","pricing_plan_id":"cebpf4jnsgd1na2vs0mg"},