{"last_updated":1734807979,"ttl":60,"version":"2.2","data":{"bikes":[{"bike_id":"1c56ad58-60ae-43aa-9eda-6b9dd24e9e7d","system_id":"levelo_inurba_marseille","lat":43.29206,"lon":5.35786,"is_reserved":false,"is_disabled":false,"rental_uris":{"android":"levelo://app?vid=1c56ad58-60ae-43aa-9eda-6b9dd24e9e7d","ios":"levelo://app?vid=1c56ad58-60ae-43aa-9eda-6b9dd24e9e7d"},"vehicle_type_id":"4","last_reported":1734807980,"current_range_meters":38800,"station_id":"ce4bhb12rcd13ifvqel0","pricing_plan_id":"cebpf4jnsgd1na2vs0mg"},{"bike_id":"ce814045-3739-4d8e-b8c6-fa8acde4f483","system_id":"levelo_inurba_marseille","lat":43.29579,"lon":5.36746,"is_reserved":false,"is_disabled":false,"rental_uris":{"android":"levelo://app?vid=ce814045-3739-4d8e-b8c6-fa8acde4f483","ios":"levelo://app?vid=ce814045-3739-4d8e-b8c6-fa8acde4f483"},"vehicle_type_id":"4","last_reported":1734807980,"current_range_meters":7200,"station_id":"ce4bgph2rcd13ifvqc2g","pricing_plan_id":"cebpf4jnsgd1na2vs0mg"},{"bike_id":"1ee013c1-4c84-4b0f-9a90-8121a593b26d","system_id":"levelo_inurba_marseille","lat":43.295798,"lon":5.375093,"is_reserved":false,"is_disabled":false,"rental_uris":{"android":"levelo://app?vid=1ee013c1-4c84-4b0f-9a90-8121a593b26d","ios":"levelo://app?vid=1ee013c1-4c84-4b0f-9a90-8121a593b26d"},"vehicle_type_id":"4","last_reported":1734807980,"current_range_meters":20000,"station_id":"ce4bgh92rcd13ifvqb50","pricing_plan_id":"cebpf4jnsgd1na2vs0mg"},{"bike_id":"b5251cd0-66bc-4e10-9cd1-311b5de694fa","system_id":"levelo_inurba_marseille","lat":43.27617,"lon":5.3611,"is_reserved":false,"is_disabled":false,"rental_uris":{"android":"levelo://app?vid=b5251cd0-66bc-4e10-9cd1-311b5de694fa","ios":"levelo://app?vid=b5251cd0-66bc-4e10-9cd1-311b5de694fa"},"vehicle_type_id":"4","last_reported":1734807980,"current_range_meters":24800,"station_id":"ce4bgj92rcd13ifvqbe0","pricing_plan_id":"cebpf4jnsgd1na2vs0mg"},{"bike_id":"56ed354a-f7a3-45be-a584-68f46dbdfda3","system_id":"levelo_inurba_marseille","lat":43.29552,"lon":5.42282,"is_reserved":false,"is_disabled":false,"rental_uris":{"android":"levelo://app?vid=56ed354a-f7a3-45be-a584-68f46dbdfda3","ios":"levelo://app?vid=56ed354a-f7a3-45be-a584-68f46dbdfda3"},"vehicle_type_id":"4","last_reported":1734807980,"current_range_meters":20400,"station_id":"ce4bhph2rcd13ifvqhdg","pricing_plan_id":"cebpf4jnsgd1na2vs0mg"},{"bike_id":"e5f37ea9-8b48-4e69-947c-d271bf6228ec","system_id":"levelo_inurba_marseille","lat":43.29606,"lon":5.37731,"is_reserved":false,"is_disabled":false,"rental_uris":{"android":"levelo://app?vid=e5f37ea9-8b48-4e69-947c-d271bf6228ec","ios":"levelo://app?vid=e5f37ea9-8b48-4e69-947c-d271bf6228ec"},"vehicle_type_id":"4","last_reported":1734807980,"current_range_meters":37600,"station_id":"ce4bgi92rcd13ifvqb90","pricing_plan_id":"cebpf4jnsgd1na2vs0mg"},{"bike_id":"d20e4b84-abab-484f-8fd7-212bf10bc369","system_id":"levelo_inurba_marseille","lat":43.28036,"lon":5.36947,"is_reserved":false,"is_disabled":false,"rental_uris":{"android":"levelo://app?vid=d20e4b84-abab-484f-8fd7-212bf10bc369","ios":"levelo://app?vid=d20e4b84-abab-484f-8fd7-212bf10bc369"},"vehicle_type_id":"4","last_reported":1734807980,"current_range_meters":20000,"station_id":"ce4bha12rcd13ifvqef0","pricing_plan_id":"cebpf4jnsgd1na2vs0mg"},{"bike_id":"becac882-9ce7-4fc2-8f68-2518ac5fb383","system_id":"levelo_inurba_marseille","lat":43.2907,"lon":5.37166,"is_reserved":false,"is_disabled":false,"rental_uris":{"android":"levelo://app?vid=becac882-9ce7-4fc2-8f68-2518ac5fb383","ios":"levelo://app?vid=becac882-9ce7-4fc2-8f68-2518ac5fb383"},"vehicle_type_id":"4","last_reported":1734807980,"current_range_meters":29600,"station_id":"ce4bh5p2rcd13ifvqe4g","pricing_plan_id":"cebpf4jnsgd1na2vs0mg"},{"bike_id":"3233c14c-7c26-4cb2-86d2-a954c461fe42","system_id":"levelo_inurba_marseille","lat":43.28147,"lon":5.42635,"is_reserved":false,"is_disabled":false,"rental_uris":{"android":"levelo://app?vid=3233c14c-7c26-4cb2-86d2-a954c461fe42","ios":"levelo://app?vid=3233c14c-7c26-4cb2-86d2-a954c461fe42"},"vehicle_type_id":"4","last_reported":1734807980,"current_range_meters":39200,"station_id":"ce4bhnh2rcd13ifvqgug","pricing_plan_id":"cebpf4jnsgd1na2vs0mg"},{"bike_id":"8d9a03ac-6fc4-4d31-8014-38eb6927edba","system_id":"levelo_inurba_marseille","lat":43.29189,"lon":5.35803,"is_reserved":false,"is_disabled":false,"rental_uris":{"android":"levelo://app?vid=8d9a03ac-6fc4-4d31-8014-38eb6927edba","ios":"levelo://app?vid=8d9a03ac-6fc4-4d31-8014-38eb6927edba"},"vehicle_type_id":"4","last_reported":1734807980,"current_range_meters":28000,"station_id":"ce4bhb12rcd13ifvqel0","pricing_plan_id":"cebpf4jnsgd1na2vs0mg"},{"bike_id":"96f67906-c94f-4a78-ae6e-fdff28a17019","system_id":"levelo_inurba_marseille","lat":43.337444,"lon":5.374475,"is_reserved":false,"is_disabled":false,"rental_uris":{"android":"levelo://app?vid=96f67906-c94f-4a78-ae6e-fdff28a17019","ios":"levelo://app?vid=96f67906-c94f-4a78-ae6e-fdff28a17019"},"vehicle_type_id":"4","last_reported":1734807980,"current_range_meters":37600,"station_id":"","pricing_plan_id":"cebpf4jnsgd1na2vs0mg"},{"bike_id":"6d401513-66ba-4f40-af76-25e509695a78","system_id":"levelo_inurba_marseille","lat":43.29226,"lon":5.36067,"is_reserved":false,"is_disabled":false,"rental_uris":{"android":"levelo://app?vid=6d401513-66ba-4f40-af76-25e509695a78","ios":"levelo://app?vid=6d401513-66ba-4f40-af76-25e509695a78"},"vehicle_type_id":"4","last_reported":1734807980,"current_range_meters":22800,"station_id":"ce4bhbh2rcd13ifvqeqg","pricing_plan_id":"cebpf4jnsgd1na2vs0mg"},{"bike_id":"4cb96e9d-c9e6-4a5d-939f-8e9658309e35","system_id":"levelo_inurba_marseille","lat":43.2922,"lon":5.36058,"is_reserved":false,"is_disabled":false,"rental_uris":{"android":"levelo://app?vid=4cb96e9d-c9e6-4a5d-939f-8e9658309e35","ios":"levelo://app?vid=4cb96e9d-c9e6-4a5d-939f-8e9658309e35"},"vehicle_type_id":"4","last_reported":1734807980,"current_range_meters":34000,"station_id":"ce4bhbh2rcd13ifvqeqg","pricing_plan_id":"cebpf4jnsgd1na2vs0mg"},{"bike_id":"203c9dbf-9825-4feb-8d81-7a6cb4dc6935","system_id":"levelo_inurba_marseille","lat":43.29522,"lon":5.37499,"is_reserved":false,"is_disabled":false,"rental_uris":{"android":"levelo://app?vid=203c9dbf-9825-4feb-8d81-7a6cb4dc6935","ios":"levelo://app?vid=203c9dbf-9825-4feb-8d81-7a6cb4dc6935"},"vehicle_type_id":"4","last_reported":1734807980,"current_range_meters":19600,"station_id":"ce4bgkp2rcd13ifvqbmg","pricing_plan_id":"cebpf4jnsgd1na2vs0mg"},{"bike_id":"5481ebd9-b3a3-4db6-ba37-c92c821046b1","system_id":"levelo_inurba_marseille","lat":43.27616,"lon":5.36109,"is_reserved":false,"is_disabled":false,"rental_uris":{"android":"levelo://app?vid=5481ebd9-b3a3-4db6-ba37-c92c821046b1","ios":"levelo://app?vid=5481ebd9-b3a3-4db6-ba37-c92c821046b1"},"vehicle_type_id":"4","last_reported":1734807980,"current_range_meters":38800,"station_id":"ce4bgj92rcd13ifvqbe0","pricing_plan_id":"cebpf4jnsgd1na2vs0mg"},{"bike_id":"ac9ae62b-7f39-42e7-b9ec-75e7356640a3","system_id":"levelo_inurba_marseille","lat":43.32107,"lon":5.36775,"is_reserved":false,"is_disabled":false,"rental_uris":{"android":"levelo://app?vid=ac9ae62b-7f39-42e7-b9ec-75e7356640a3","ios":"levelo://app?vid=ac9ae62b-7f39-42e7-b9ec-75e7356640a3"},"vehicle_type_id":"4","last_reported":1734807980,"current_range_meters":27200,"station_id":"ce4bhrh2rcd13ifvqhug","pricing_plan_id":"cebpf4jnsgd1na2vs0mg"},{"bike_id":"d385172e-cc20-491b-a804-984cf09e4226","system_id":"levelo_inurba_marseille","lat":43.29617,"lon":5.37718,"is_reserved":false,"is_disabled":false,"rental_uris":{"android":"levelo://app?vid=d385172e-cc20-491b-a804-984cf09e4226","ios":"levelo://app?vid=d385172e-cc20-491b-a804-984cf09e4226"},"vehicle_type_id":"4","last_reported":1734807980,"current_range_meters":38000,"station_id":"ce4bgi92rcd13ifvqb90","pricing_plan_id":"cebpf4jnsgd1na2vs0mg"},{"bike_id":"b517dd1d-cb27-48ab-a7cd-839909e357f2","system_id":"levelo_inurba_marseille","lat":43.29572,"lon":5.37505,"is_reserved":false,"is_disabled":false,"rental_uris":{"android":"levelo://app?vid=b517dd1d-cb27-48ab-a7cd-839909e357f2","ios":"levelo://app?vid=b517dd1d-cb27-48ab-a7cd-839909e357f2"},"vehicle_type_id":"4","last_reported":1734807980,"current_range_meters":37600,"station_id":"ce4bgh92rcd13ifvqb50","pricing_plan_id":"cebpf4jnsgd1na2vs0mg"},{"bike_id":"843c6878-0e3f-4b01-b1b7-bbb9a0523c31","system_id":"levelo_inurba_marseille","lat":43.3266,"lon":5.40984,"is_reserved":false,"is_disabled":false,"rental_uris":{"android":"levelo://app?vid=843c6878-0e3f-4b01-b1b7-bbb9a0523c31","ios":"levelo://app?vid=843c6878-0e3f-4b01-b1b7-bbb9a0523c31"},"vehicle_type_id":"4","last_reported":1734807980,"current_range_meters":35600,"station_id":"ce4bhpp2rcd13ifvqhgg","pricing_plan_id":"cebpf4jnsgd1na2vs0mg"},{"bike_id":"9544274b-2a9a-446a-b640-0fb36aa69266","system_id":"levelo_inurba_marseille","lat":43.27999,"lon":5.40002,"is_reserved":false,"is_disabled":false,"rental_uris":{"android":"levelo://app?vid=9544274b-2a9a-446a-b640-0fb36aa69266","ios":"levelo://app?vid=9544274b-2a9a-446a-b640-0fb36aa69266"},"vehicle_type_id":"4","last_reported":1734807980,"current_range_meters":33600,"station_id":"ce4bho92rcd13ifvqh4g","pricing_plan_id":"cebpf4jnsgd1na2vs0mg"},{"bike_id":"db6d4cd6-324d-40d9-b2a7-d53d9856d610","system_id":"levelo_inurba_marseille","lat":43.2934,"lon":5.42826,"is_reserved":false,"is_disabled":false,"rental_uris":{"android":"levelo://app?vid=db6d4cd6-324d-40d9-b2a7-d53d9856d610","ios":"levelo://app?vid=db6d4cd6-324d-40d9-b2a7-d53d9856d610"},"vehicle_type_id":"4","last_reported":1734807980,"current_range_meters":3600,"station_id":"","pricing_plan_id":"cebpf4jnsgd1na2vs0mg"},{"bike_id":"61e8a040-6d89-43a0-9e98-054a047dd65e","system_id":"levelo_inurba_marseille","lat":43.28686,"lon":5.38658,"is_reserved":false,"is_disabled":false,"rental_uris":{"android":"levelo://app?vid=61e8a040-6d89-43a0-9e98-054a047dd65e","ios":"levelo://app?vid=61e8a040-6d89-43a0-9e98-054a047dd65e"},"vehicle_type_id":"4","last_reported":1734807980,"current_range_meters":25200,"station_id":"ce4bh492rcd13ifvqdug","pricing_plan_id":"cebpf4jnsgd1na2vs0mg"},{"bike_id":"4e2e6240-5440-4ed7-ace9-4c9e6bd778e5","system_id":"levelo_inurba_marseille","lat":43.24078,"lon":5.37768,"is_reserved":false,"is_disabled":false,"rental_uris":{"android":"levelo://app?vid=4e2e6240-5440-4ed7-ace9-4c9e6bd778e5","ios":"levelo://app?vid=4e2e6240-5440-4ed7-ace9-4c9e6bd778e5"},"vehicle_type_id":"4","last_reported":1734807980,"current_range_meters":36000,"station_id":"ce4bhnp2rcd13ifvqgvg","pricing_plan_id":"cebpf4jnsgd1na2vs0mg"},{"bike_id":"df357b14-4c6a-4905-8927-9863400f5dca","system_id":"levelo_inurba_marseille","lat":43.25856,"lon":5.39904,"is_reserved":false,"is_disabled":false,"rental_uris":{"android":"levelo://app?vid=df357b14-4c6a-4905-8927-9863400f5dca","ios":"levelo://app?vid=df357b14-4c6a-4905-8927-9863400f5dca"},"vehicle_type_id":"4","last_reported":1734807980,"current_range_meters":36400,"station_id":"ce4bhl92rcd13ifvqghg","pricing_plan_id":"cebpf4jnsgd1na2vs0mg"},{"bike_id":"710cbb4b-92a3-4fcb-a674-51cdb538a062","system_id":"levelo_inurba_marseille","lat":43.26042,"lon":5.39386,"is_reserved":false,"is_disabled":true,"rental_uris":{"android":"levelo://app?vid=710cbb4b-92a3-4fcb-a674-51cdb538a062","ios":"levelo://app?vid=710cbb4b-92a3-4fcb-a674-51cdb538a062"},"vehicle_type_id":"4","last_reported":1734807980,"current_range_meters":37600,"station_id":"ce4bhh92rcd13ifvqfj0","pricing_plan_id":"cebpf4jnsgd1na2vs0mg"},{"bike_id":"3df29660-546c-42a3-ba02-2f5ced7e58e3","system_id":"levelo_inurba_marseille","lat":43.27967,"lon":5.38749,"is_reserved":false,"is_disabled":false,"rental_uris":{"android":"levelo://app?vid=3df29660-546c-42a3-ba02-2f5ced7e58e3","ios":"levelo://app?vid=3df29660-546c-42a3-ba02-2f5ced7e58e3"},"vehicle_type_id":"4","last_reported":1734807980,"current_range_meters":10000,"station_id":"ce4bhg12rcd13ifvqf80","pricing_plan_id":"cebpf4jnsgd1na2vs0mg"},{"bike_id":"2314aaa2-86c8-4b02-8a62-1eee88d3b547","system_id":"levelo_inurba_marseille","lat":43.27837,"lon":5.39216,"is_reserved":false,"is_disabled":false,"rental_uris":{"android":"levelo://app?vid=2314aaa2-86c8-4b02-8a62-1eee88d3b547","ios":"levelo://app?vid=2314aaa2-86c8-4b02-8a62-1eee88d3b547"},"vehicle_type_id":"4","last_reported":1734807980,"current_range_meters":12400,"station_id":"ce4bhjp2rcd13ifvqga0","pricing_plan_id":"cebpf4jnsgd1na2vs0mg"},{"bike_id":"f810d843-5102-4b08-bab4-9f6abb0ec6c0","system_id":"levelo_inurba_marseille","lat":43.25486,"lon":5.37665,"is_reserved":false,"is_disabled":false,"rental_uris":{"android":"levelo://app?vid=f810d843-5102-4b08-bab4-9f6abb0ec6c0","ios":"levelo://app?vid=f810d843-5102-4b08-bab4-9f6abb0ec6c0"},"vehicle_type_id":"4","last_reported":1734807980,"current_range_meters":38800,"station_id":"ce4bhh12rcd13ifvqff0","pricing_plan_id":"cebpf4jnsgd1na2vs0mg"},{"bike_id":"dd52cea9-6fe3-460c-a4fc-255f18d6f38c","system_id":"levelo_inurba_marseille","lat":43.25,"lon":5.38925,"is_reserved":false,"is_disabled":false,"rental_uris":{"android":"levelo://app?vid=dd52cea9-6fe3-460c-a4fc-255f18d6f38c","ios":"levelo://app?vid=dd52cea9-6fe3-460c-a4fc-255f18d6f38c"},"vehicle_type_id":"4","last_reported":1734807980,"current_range_meters":24800,"station_id":"ce4bhgp2rcd13ifvqfd0","pricing_plan_id":"cebpf4jnsgd1na2vs0mg"},{"bike_id":"31b4b1d6-de26-42ca-8445-092da5a08b47","system_id":"levelo_inurba_marseille","lat":43.27302,"lon":5.39103,"is_reserved":false,"is_disabled":false,"rental_uris":{"android":"levelo://app?vid=31b4b1d6-de26-42ca-8445-092da5a08b47","ios":"levelo://app?vid=31b4b1d6-de26-42ca-8445-092da5a08b47"},"vehicle_type_id":"4","last_reported":1734807980,"current_range_meters":36800,"station_id":"ce4bhgp2rcd13ifvqfe0","pricing_plan_id":"cebpf4jnsgd1na2vs0mg"},{"bike_id":"e2093eaf-d010-461b-aa40-a85f704a9b1e","system_id":"levelo_inurba_marseille","lat":43.27372,"lon":5.36256,"is_reserved":false,"is_disabled":false,"rental_uris":{"android":"levelo://app?vid=e2093eaf-d010-461b-aa40-a85f704a9b1e","ios":"levelo://app?vid=e2093eaf-d010-461b-aa40-a85f704a9b1e"},"vehicle_type_id":"4","last_reported":1734807980,"current_range_meters":36800,"station_id":"ce4bhbh2rcd13ifvqeo0","pricing_plan_id":"cebpf4jnsgd1na2vs0mg"},{"bike_id":"923203be-81e9-4bac-baed-4fd99bc3f450","system_id":"levelo_inurba_marseille","lat":43.29565,"lon":5.37499,"is_reserved":false,"is_disabled":false,"rental_uris":{"android":"levelo://app?vid=923203be-81e9-4bac-baed-4fd99bc3f450","ios":"levelo://app?vid=923203be-81e9-4bac-baed-4fd99bc3f450"},"vehicle_type_id":"4","last_reported":1734807980,"current_range_meters":26000,"station_id":"ce4bgh92rcd13ifvqb50","pricing_plan_id":"cebpf4jnsgd1na2vs0mg"},{"bike_id":"a7cfd2b8-b9ad-4ad6-a840-d70d03c4d9f6","system_id":"levelo_inurba_marseille","lat":43.27995,"lon":5.41661,"is_reserved":false,"is_disabled":false,"rental_uris":{"android":"levelo://app?vid=a7cfd2b8-b9ad-4ad6-a840-d70d03c4d9f6","ios":"levelo://app?vid=a7cfd2b8-b9ad-4ad6-a840-d70d03c4d9f6"},"vehicle_type_id":"4","last_reported":1734807980,"current_range_meters":16800,"station_id":"ce4bho12rcd13ifvqh1g","pricing_plan_id":"cebpf4jnsgd1na2vs0mg"},{"bike_id":"04291d74-e783-4e53-acbe-2ca9b6cc2332","system_id":"levelo_inurba_marseille","lat":43.3056,"lon":5.36689,"is_reserved":false,"is_disabled":false,"rental_uris":{"android":"levelo://app?vid=04291d74-e783-4e53-acbe-2ca9b6cc2332","ios":"levelo://app?vid=04291d74-e783-4e53-acbe-2ca9b6cc2332"},"vehicle_type_id":"4","last_reported":1734807980,"current_range_meters":20800,"station_id":"ce4bgrp2rcd13ifvqc9g","pricing_plan_id":"cebpf4jnsgd1na2vs0mg"},{"bike_id":"41d0d9f5-bb31-41f6-8358-898df39bf21c","system_id":"levelo_inurba_marseille","lat":43.25863,"lon":5.39908,"is_reserved":false,"is_disabled":false,"rental_uris":{"android":"levelo://app?vid=41d0d9f5-bb31-41f6-8358-898df39bf21c","ios":"levelo://app?vid=41d0d9f5-bb31-41f6-8358-898df39bf21c"},"vehicle_type_id":"4","last_reported":1734807980,"current_range_meters":39200,"station_id":"ce4bhl92rcd13ifvqghg","pricing_plan_id":"cebpf4jnsgd1na2vs0mg"},{"bike_id":"b6c864b4-2d74-4843-a929-10118d9d48af","system_id":"levelo_inurba_marseille","lat":43.25497,"lon":5.37648,"is_reserved":false,"is_disabled":false,"rental_uris":{"android":"levelo://app?vid=b6c864b4-2d74-4843-a929-10118d9d48af","ios":"levelo://app?vid=b6c864b4-2d74-4843-a929-10118d9d48af"},"vehicle_type_id":"4","last_reported":1734807980,"current_range_meters":38800,"station_id":"ce4bhh12rcd13ifvqff0","pricing_plan_id":"cebpf4jnsgd1na2vs0mg"},{"bike_id":"e724f4e5-0922-4e36-91f4-8a4c9d514ff5","system_id":"levelo_inurba_marseille","lat":43.29844,"lon":5.36282,"is_reserved":false,"is_disabled":false,"rental_uris":{"android":"levelo://app?vid=e724f4e5-0922-4e36-91f4-8a4c9d514ff5","ios":"levelo://app?vid=e724f4e5-0922-4e36-91f4-8a4c9d514ff5"},"vehicle_type_id":"4","last_reported":1734807980,"current_range_meters":39200,"station_id":"ce4bgpp2rcd13ifvqc3g","pricing_plan_id":"cebpf4jnsgd1na2vs0mg"},{"bike_id":"abf860be-3d3d-4a76-b353-f7286e2856a9","system_id":"levelo_inurba_marseille","lat":43.27616,"lon":5.36115,"is_reserved":false,"is_disabled":false,"rental_uris":{"android":"levelo://app?vid=abf860be-3d3d-4a76-b353-f7286e2856a9","ios":"levelo://app?vid=abf860be-3d3d-4a76-b353-f7286e2856a9"},"vehicle_type_id":"4","last_reported":1734807980,"current_range_meters":22000,"station_id":"ce4bgj92rcd13ifvqbe0","pricing_plan_id":"cebpf4jnsgd1na2vs0mg"},{"bike_id":"7e577efa-ad7b-4159-aa14-2376d4395d6f","system_id":"levelo_inurba_marseille","lat":43.29602,"lon":5.37716,"is_reserved":false,"is_disabled":false,"rental_uris":{"android":"levelo://app?vid=7e577efa-ad7b-4159-aa14-2376d4395d6f","ios":"levelo://app?vid=7e577efa-ad7b-4159-aa14-2376d4395d6f"},"vehicle_type_id":"4","last_reported":1734807980,"current_range_meters":19200,"station_id":"ce4bgi92rcd13ifvqb90","pricing_plan_id":"cebpf4jnsgd1na2vs0mg"},{"bike_id":"d98f0b8a-1ef4-43b4-85a1-12b00b5f4de1","system_id":"levelo_inurba_marseille","lat":43.28424,"lon":5.34998,"is_reserved":false,"is_disabled":false,"rental_uris":{"android":"levelo://app?vid=d98f0b8a-1ef4-43b4-85a1-12b00b5f4de1","ios":"levelo://app?vid=d98f0b8a-1ef4-43b4-85a1-12b00b5f4de1"},"vehicle_type_id":"4","last_reported":1734807980,"current_range_meters":38400,"station_id":"ce4bhbh2rcd13ifvqepg","pricing_plan_id":"cebpf4jnsgd1na2vs0mg"},{"bike_id":"dfb361fe-f637-4041-b1c6-d571444472cc","system_id":"levelo_inurba_marseille","lat":43.33032,"lon":5.39042,"is_reserved":false,"is_disabled":false,"rental_uris":{"android":"levelo://app?vid=dfb361fe-f637-4041-b1c6-d571444472cc","ios":"levelo://app?vid=dfb361fe-f637-4041-b1c6-d571444472cc"},"vehicle_type_id":"4","last_reported":1734807980,"current_range_meters":35600,"station_id":"ce4bhr92rcd13ifvqhrg","pricing_plan_id":"cebpf4jnsgd1na2vs0mg"},{"bike_id":"cc537876-141c-4bb9-8752-7634b596c5a1","system_id":"levelo_inurba_marseille","lat":43.30301,"lon":5.39232,"is_reserved":false,"is_disabled":false,"rental_uris":{"android":"levelo://app?vid=cc537876-141c-4bb9-8752-7634b596c5a1","ios":"levelo://app?vid=cc537876-141c-4bb9-8752-7634b596c5a1"},"vehicle_type_id":"4","last_reported":1734807980,"current_range_meters":38400,"station_id":"ce4bgkh2rcd13ifvqbk0","pricing_plan_id":"cebpf4jnsgd1na2vs0mg"},{"bike_id":"71bbaaf0-30fa-412b-9088-f880a672af88","system_id":"levelo_inurba_marseille","lat":43.26026,"lon":5.37549,"is_reserved":false,"is_disabled":false,"rental_uris":{"android":"levelo://app?vid=71bbaaf0-30fa-412b-9088-f880a672af88","ios":"levelo://app?vid=71bbaaf0-30fa-412b-9088-f880a672af88"},"vehicle_type_id":"4","last_reported":1734807980,"current_range_meters":38800,"station_id":"ce4bhgh2rcd13ifvqfa0","pricing_plan_id":"cebpf4jnsgd1na2vs0mg"},{"bike_id":"5f61f4e2-f05e-438e-ba11-1e78b8af7d03","system_id":"levelo_inurba_marseille","lat":43.29363,"lon":5.37849,"is_reserved":false,"is_disabled":false,"rental_uris":{"android":"levelo://app?vid=5f61f4e2-f05e-438e-ba11-1e78b8af7d03","ios":"levelo://app?vid=5f61f4e2-f05e-438e-ba11-1e78b8af7d03"},"vehicle_type_id":"4","last_reported":1734807980,"current_range_meters":13600,"station_id":"ce4bgjh2rcd13ifvqbf0","pricing_plan_id":"cebpf4jnsgd1na2vs0mg"},{"bike_id":"7bf4e880-5e86-4466-9194-30e2f521d50d","system_id":"levelo_inurba_marseille","lat":43.31367,"lon":5.38502,"is_reserved":false,"is_disabled":false,"rental_uris":{"android":"levelo://app?vid=7bf4e880-5e86-4466-9194-30e2f521d50d","ios":"levelo://app?vid=7bf4e880-5e86-4466-9194-30e2f521d50d"},"vehicle_type_id":"4","last_reported":1734807980,"current_range_meters":16800,"station_id":"ce4bgt92rcd13ifvqcf0","pricing_plan_id":"cebpf4jnsgd1na2vs0mg"},{"bike_id":"7ec2e082-9a40-4719-bfaf-9cc7e2f0ff4c","system_id":"levelo_inurba_marseille","lat":43.27951,"lon":5.41026,"is_reserved":false,"is_disabled":false,"rental_uris":{"android":"levelo://app?vid=7ec2e082-9a40-4719-bfaf-9cc7e2f0ff4c","ios":"levelo://app?vid=7ec2e082-9a40-4719-bfaf-9cc7e2f0ff4c"},"vehicle_type_id":"4","last_reported":1734807980,"current_range_meters":6400,"station_id":"ce4bhnp2rcd13ifvqh0g","pricing_plan_id":"cebpf4jnsgd1na2vs0mg"},{"bike_id":"090f4404-cc70-4d61-9b90-6d9ba24bfb05","system_id":"levelo_inurba_marseille","lat":43.29527,"lon":5.39043,"is_reserved":false,"is_disabled":true,"rental_uris":{"android":"levelo://app?vid=090f4404-cc70-4d61-9b90-6d9ba24bfb05","ios":"levelo://app?vid=090f4404-cc70-4d61-9b90-6d9ba24bfb05"},"vehicle_type_id":"4","last_reported":1734807980,"current_range_meters":400,"station_id":"ce4bh3p2rcd13ifvqdp0","pricing_plan_id":"cebpf4jnsgd1na2vs0mg"},{"bike_id":"109ceac4-d494-4afa-8ba6-b586be001b45","system_id":"levelo_inurba_marseille","lat":43.31165,"lon":5.38727,"is_reserved":false,"is_disabled":false,"rental_uris":{"android":"levelo://app?vid=109ceac4-d494-4afa-8ba6-b586be001b45","ios":"levelo://app?vid=109ceac4-d494-4afa-8ba6-b586be001b45"},"vehicle_type_id":"4","last_reported":1734807980,"current_range_meters":27200,"station_id":"ce4bgv12rcd13ifvqcp0","pricing_plan_id":"cebpf4jnsgd1na2vs0mg"},{"bike_id":"df9e7f8c-f8aa-448d-af44-ccad61af8246","system_id":"levelo_inurba_marseille","lat":43.30139,"lon":5.38785,"is_reserved":false,"is_disabled":false,"rental_uris":{"android":"levelo://app?vid=df9e7f8c-f8aa-448d-af44-ccad61af8246","ios":"levelo://app?vid=df9e7f8c-f8aa-448d-af44-ccad61af8246"},"vehicle_type_id":"4","last_reported":1734807980,"current_range_meters":37600,"station_id":"ce4bhoh2rcd13ifvqh6g","pricing_plan_id":"cebpf4jnsgd1na2vs0mg"},{"bike_id":"574569a8-47af-4b5a-abbf-9be9948fc833","system_id":"levelo_inurba_marseille","lat":43.28934,"lon":5.39628,"is_reserved":false,"is_disabled":false,"rental_uris":{"android":"levelo://app?vid=574569a8-47af-4b5a-abbf-9be9948fc833","ios":"levelo://app?vid=574569a8-47af-4b5a-abbf-9be9948fc833"},"vehicle_type_id":"4","last_reported":1734807980,"current_range_meters":38800,"station_id":"ce4bh3h2rcd13ifvqdn0","pricing_plan_id":"cebpf4jnsgd1na2vs0mg"},{"bike_id":"83c14f40-cca4-4d48-ad34-9a2e9bca4863","system_id":"levelo_inurba_marseille","lat":43.29297,"lon":5.37453,"is_reserved":false,"is_disabled":false,"rental_uris":{"android":"levelo://app?vid=83c14f40-cca4-4d48-ad34-9a2e9bca4863","ios":"levelo://app?vid=83c14f40-cca4-4d48-ad34-9a2e9bca4863"},"vehicle_type_id":"4","last_reported":1734807980,"current_range_meters":38800,"station_id":"ce4bgi12rcd13ifvqb70","pricing_plan_id":"cebpf4jnsgd1na2vs0mg"},{"bike_id":"65ea5c1f-613a-43b8-9672-6e981544fe36","system_id":"levelo_inurba_marseille","lat":43.29682,"lon":5.3731,"is_reserved":false,"is_disabled":false,"rental_uris":{"android":"levelo://app?vid=65ea5c1f-613a-43b8-9672-6e981544fe36","ios":"levelo://app?vid=65ea5c1f-613a-43b8-9672-6e981544fe36"},"vehicle_type_id":"4","last_reported":1734807980,"current_range_meters":18800,"station_id":"ce4bgk12rcd13ifvqbj0","pricing_plan_id":"cebpf4jnsgd1na2vs0mg"},{"bike_id":"5de55ec3-b446-45b5-9e6a-b67b9996a2b3","system_id":"levelo_inurba_marseille","lat":43.27319,"lon":5.39096,"is_reserved":false,"is_disabled":true,"rental_uris":{"android":"levelo://app?vid=5de55ec3-b446-45b5-9e6a-b67b9996a2b3","ios":"levelo://app?vid=5de55ec3-b446-45b5-9e6a-b67b9996a2b3"},"vehicle_type_id":"4","last_reported":1734807980,"current_range_meters":36000,"station_id":"ce4bhgp2rcd13ifvqfe0","pricing_plan_id":"cebpf4jnsgd1na2vs0mg"},{"bike_id":"a08c8505-be45-439c-bb41-3c4c95b8f5a1","system_id":"levelo_inurba_marseille","lat":43.29324,"lon":5.368,"is_reserved":false,"is_disabled":false,"rental_uris":{"android":"levelo://app?vid=a08c8505-be45-439c-bb41-3c4c95b8f5a1","ios":"levelo://app?vid=a08c8505-be45-439c-bb41-3c4c95b8f5a1"},"vehicle_type_id":"4","last_reported":1734807980,"current_range_meters":37600,"station_id":"ce4bhbp2rcd13ifvqesg","pricing_plan_id":"cebpf4jnsgd1na2vs0mg"},{"bike_id":"9daa44e7-dbcd-4dc1-8b8c-d5b1cf6bc951","system_id":"levelo_inurba_marseille","lat":43.28941,"lon":5.36633,"is_reserved":false,"is_disabled":false,"rental_uris":{"android":"levelo://app?vid=9daa44e7-dbcd-4dc1-8b8c-d5b1cf6bc951","ios":"levelo://app?vid=9daa44e7-dbcd-4dc1-8b8c-d5b1cf6bc951"},"vehicle_type_id":"4","last_reported":1734807980,"current_range_meters":38000,"station_id":"ce4bhap2rcd13ifvqek0","pricing_plan_id":"cebpf4jnsgd1na2vs0mg"},{"bike_id":"38421ed3-da1a-48d2-b275-b430f417405f","system_id":"levelo_inurba_marseille","lat":43.30444,"lon":5.38899,"is_reserved":false,"is_disabled":false,"rental_uris":{"android":"levelo://app?vid=38421ed3-da1a-48d2-b275-b430f417405f","ios":"levelo://app?vid=38421ed3-da1a-48d2-b275-b430f417405f"},"vehicle_type_id":"4","last_reported":1734807980,"current_range_meters":22000,"station_id":"ce4bgk12rcd13ifvqbi0","pricing_plan_id":"cebpf4jnsgd1na2vs0mg"},{"bike_id":"85225762-d7ec-4912-87cf-30f56fc88559","system_id":"levelo_inurba_marseille","lat":43.2923,"lon":5.36067,"is_reserved":false,"is_disabled":false,"rental_uris":{"android":"levelo://app?vid=85225762-d7ec-4912-87cf-30f56fc88559","ios":"levelo://app?vid=85225762-d7ec-4912-87cf-30f56fc88559"},"vehicle_type_id":"4","last_reported":1734807980,"current_range_meters":16000,"station_id":"ce4bhbh2rcd13ifvqeqg","pricing_plan_id":"cebpf4jnsgd1na2vs0mg"},{"bike_id":"5bc40c22-a9ce-44f6-b16d-3abdeb72196c","system_id":"levelo_inurba_marseille","lat":43.26204,"lon":5.37919,"is_reserved":false,"is_disabled":false,"rental_uris":{"android":"levelo://app?vid=5bc40c22-a9ce-44f6-b16d-3abdeb72196c","ios":"levelo://app?vid=5bc40c22-a9ce-44f6-b16d-3abdeb72196c"},"vehicle_type_id":"4","last_reported":1734807980,"current_range_meters":36400,"station_id":"ce4bhjp2rcd13ifvqg90","pricing_plan_id":"cebpf4jnsgd1na2vs0mg"},{"bike_id":"756f4283-88fe-4922-bcb0-f3f00ca3bf2b","system_id":"levelo_inurba_marseille","lat":43.29603,"lon":5.38103,"is_reserved":false,"is_disabled":false,"rental_uris":{"android":"levelo://app?vid=756f4283-88fe-4922-bcb0-f3f00ca3bf2b","ios":"levelo://app?vid=756f4283-88fe-4922-bcb0-f3f00ca3bf2b"},"vehicle_type_id":"4","last_reported":1734807980,"current_range_meters":22800,"station_id":"ce4bgl12rcd13ifvqbo0","pricing_plan_id":"cebpf4jnsgd1na2vs0mg"},{"bike_id":"954f040c-9c68-484b-977a-d101cc152ccc","system_id":"levelo_inurba_marseille","lat":43.26685,"lon":5.38271,"is_reserved":false,"is_disabled":false,"rental_uris":{"android":"levelo://app?vid=954f040c-9c68-484b-977a-d101cc152ccc","ios":"levelo://app?vid=954f040c-9c68-484b-977a-d101cc152ccc"},"vehicle_type_id":"4","last_reported":1734807980,"current_range_meters":35600,"station_id":"ce4bhg92rcd13ifvqf90","pricing_plan_id":"cebpf4jnsgd1na2vs0mg"},{"bike_id":"76509946-7598-46fd-8066-14eea601d9c3","system_id":"levelo_inurba_marseille","lat":43.30156,"lon":5.38113,"is_reserved":false,"is_disabled":false,"rental_uris":{"android":"levelo://app?vid=76509946-7598-46fd-8066-14eea601d9c3","ios":"levelo://app?vid=76509946-7598-46fd-8066-14eea601d9c3"},"vehicle_type_id":"4","last_reported":1734807980,"current_range_meters":31200,"station_id":"ce4bgjp2rcd13ifvqbh0","pricing_plan_id":"cebpf4jnsgd1na2vs0mg"},{"bike_id":"0f768934-9cf9-4a98-93ec-3daaad5810d7","system_id":"levelo_inurba_marseille","lat":43.29571,"lon":5.37509,"is_reserved":false,"is_disabled":false,"rental_uris":{"android":"levelo://app?vid=0f768934-9cf9-4a98-93ec-3daaad5810d7","ios":"levelo://app?vid=0f768934-9cf9-4a98-93ec-3daaad5810d7"},"vehicle_type_id":"4","last_reported":1734807980,"current_range_meters":17200,"station_id":"ce4bgh92rcd13ifvqb50","pricing_plan_id":"cebpf4jnsgd1na2vs0mg"},{"bike_id":"b9d412a7-11b2-4c10-94d0-9e8455bd367f","system_id":"levelo_inurba_marseille","lat":43.30145,"lon":5.38079,"is_reserved":false,"is_disabled":false,"rental_uris":{"android":"levelo://app?vid=b9d412a7-11b2-4c10-94d0-9e8455bd367f","ios":"levelo://app?vid=b9d412a7-11b2-4c10-94d0-9e8455bd367f"},"vehicle_type_id":"4","last_reported":1734807980,"current_range_meters":25600,"station_id":"ce4bgjp2rcd13ifvqbh0","pricing_plan_id":"cebpf4jnsgd1na2vs0mg"},{"bike_id":"d8e8082b-d76a-4b6a-b93c-5ea180b1ca88","system_id":"levelo_inurba_marseille","lat":43.25858,"lon":5.39901,"is_reserved":false,"is_disabled":false,"rental_uris":{"android":"levelo://app?vid=d8e8082b-d76a-4b6a-b93c-5ea180b1ca88","ios":"levelo://app?vid=d8e8082b-d76a-4b6a-b93c-5ea180b1ca88"},"vehicle_type_id":"4","last_reported":1734807980,"current_range_meters":38800,"station_id":"ce4bhl92rcd13ifvqghg","pricing_plan_id":"cebpf4jnsgd1na2vs0mg"},{"bike_id":"25cda224-e20f-48bb-8055-20e24714c795","system_id":"levelo_inurba_marseille","lat":43.29575,"lon":5.37519,"is_reserved":false,"is_disabled":false,"rental_uris":{"android":"levelo://app?vid=25cda224-e20f-48bb-8055-20e24714c795","ios":"levelo://app?vid=25cda224-e20f-48bb-8055-20e24714c795"},"vehicle_type_id":"4","last_reported":1734807980,"current_range_meters":30400,"station_id":"ce4bgh92rcd13ifvqb50","pricing_plan_id":"cebpf4jnsgd1na2vs0mg"},{"bike_id":"c889bce7-ce58-4551-b1fe-fe2f91c10fbf","system_id":"levelo_inurba_marseille","lat":43.28938,"lon":5.39625,"is_reserved":false,"is_disabled":false,"rental_uris":{"android":"levelo://app?vid=c889bce7-ce58-4551-b1fe-fe2f91c10fbf","ios":"levelo://app?vid=c889bce7-ce58-4551-b1fe-fe2f91c10fbf"},"vehicle_type_id":"4","last_reported":1734807980,"current_range_meters":38800,"station_id":"ce4bh3h2rcd13ifvqdn0","pricing_plan_id":"cebpf4jnsgd1na2vs0mg"},{"bike_id":"2ecd7a5c-6b03-4906-a193-c1bc16b7668c","system_id":"levelo_inurba_marseille","lat":43.30228,"lon":5.40012,"is_reserved":false,"is_disabled":true,"rental_uris":{"android":"levelo://app?vid=2ecd7a5c-6b03-4906-a193-c1bc16b7668c","ios":"levelo://app?vid=2ecd7a5c-6b03-4906-a193-c1bc16b7668c"},"vehicle_type_id":"4","last_reported":1734807980,"current_range_meters":38800,"station_id":"","pricing_plan_id":"cebpf4jnsgd1na2vs0mg"},{"bike_id":"4bcb37c0-9249-499d-890c-0bbf93d29f8b","system_id":"levelo_inurba_marseille","lat":43.23192,"lon":5.35545,"is_reserved":false,"is_disabled":true,"rental_uris":{"android":"levelo://app?vid=4bcb37c0-9249-499d-890c-0bbf93d29f8b","ios":"levelo://app?vid=4bcb37c0-9249-499d-890c-0bbf93d29f8b"},"vehicle_type_id":"4","last_reported":1734807980,"current_range_meters":30000,"station_id":"ce4bhu92rcd13ifvqi70","pricing_plan_id":"cebpf4jnsgd1na2vs0mg"},{"bike_id":"91128e66-a3e2-45ad-a2fc-18a253892acb","system_id":"levelo_inurba_marseille","lat":43.25869,"lon":5.39897,"is_reserved":false,"is_disabled":false,"rental_uris":{"android":"levelo://app?vid=91128e66-a3e2-45ad-a2fc-18a253892acb","ios":"levelo://app?vid=91128e66-a3e2-45ad-a2fc-18a253892acb"},"vehicle_type_id":"4","last_reported":1734807980,"current_range_meters":22000,"station_id":"ce4bhl92rcd13ifvqghg","pricing_plan_id":"cebpf4jnsgd1na2vs0mg"},{"bike_id":"2cbad444-e829-455a-aa38-e3cb60d7fac6","system_id":"levelo_inurba_marseille","lat":43.29275,"lon":5.36844,"is_reserved":false,"is_disabled":false,"rental_uris":{"android":"levelo://app?vid=2cbad444-e829-455a-aa38-e3cb60d7fac6","ios":"levelo://app?vid=2cbad444-e829-455a-aa38-e3cb60d7fac6"},"vehicle_type_id":"4","last_reported":1734807980,"current_range_meters":27600,"station_id":"ce4bhbp2rcd13ifvqesg","pricing_plan_id":"cebpf4jnsgd1na2vs0mg"},{"bike_id":"f2fddecf-aacc-43b9-984c-e21269354d44","system_id":"levelo_inurba_marseille","lat":43.25498,"lon":5.37649,"is_reserved":false,"is_disabled":false,"rental_uris":{"android":"levelo://app?vid=f2fddecf-aacc-43b9-984c-e21269354d44","ios":"levelo://app?vid=f2fddecf-aacc-43b9-984c-e21269354d44"},"vehicle_type_id":"4","last_reported":1734807980,"current_range_meters":38800,"station_id":"ce4bhh12rcd13ifvqff0","pricing_plan_id":"cebpf4jnsgd1na2vs0mg"},{"bike_id":"7cf2f138-0c5b-4760-b998-e61626fa9d49","system_id":"levelo_inurba_marseille","lat":43.32333,"lon":5.40625,"is_reserved":false,"is_disabled":false,"rental_uris":{"android":"levelo://app?vid=7cf2f138-0c5b-4760-b998-e61626fa9d49","ios":"levelo://app?vid=7cf2f138-0c5b-4760-b998-e61626fa9d49"},"vehicle_type_id":"4","last_reported":1734807980,"current_range_meters":32400,"station_id":"ce4bhq92rcd13ifvqhjg","pricing_plan_id":"cebpf4jnsgd1na2vs0mg"},{"bike_id":"5ee26669-bb4c-43d4-aa0e-f6b8b6a84038","system_id":"levelo_inurba_marseille","lat":43.29232,"lon":5.36059,"is_reserved":false,"is_disabled":false,"rental_uris":{"android":"levelo://app?vid=5ee26669-bb4c-43d4-aa0e-f6b8b6a84038","ios":"levelo://app?vid=5ee26669-bb4c-43d4-aa0e-f6b8b6a84038"},"vehicle_type_id":"4","last_reported":1734807980,"current_range_meters":38400,"station_id":"ce4bhbh2rcd13ifvqeqg","pricing_plan_id":"cebpf4jnsgd1na2vs0mg"},{"bike_id":"e1920fba-17f0-490e-aece-e49a9fc6f2d9","system_id":"levelo_inurba_marseille","lat":43.29576,"lon":5.37527,"is_reserved":false,"is_disabled":false,"rental_uris":{"android":"levelo://app?vid=e1920fba-17f0-490e-aece-e49a9fc6f2d9","ios":"levelo://app?vid=e1920fba-17f0-490e-aece-e49a9fc6f2d9"},"vehicle_type_id":"4","last_reported":1734807980,"current_range_meters":16400,"station_id":"ce4bgh92rcd13ifvqb50","pricing_plan_id":"cebpf4jnsgd1na2vs0mg"},{"bike_id":"3216941d-b90f-4166-9789-4659f8e52f65","system_id":"levelo_inurba_marseille","lat":43.26552,"lon":5.37289,"is_reserved":false,"is_disabled":false,"rental_uris":{"android":"levelo://app?vid=3216941d-b90f-4166-9789-4659f8e52f65","ios":"levelo://app?vid=3216941d-b90f-4166-9789-4659f8e52f65"},"vehicle_type_id":"4","last_reported":1734807980,"current_range_meters":19200,"station_id":"ce4bhg12rcd13ifvqf70","pricing_plan_id":"cebpf4jnsgd1na2vs0mg"},{"bike_id":"dad6db58-f5bc-4da2-b0b4-3d5d1002166b","system_id":"levelo_inurba_marseille","lat":43.32109,"lon":5.36768,"is_reserved":false,"is_disabled":false,"rental_uris":{"android":"levelo://app?vid=dad6db58-f5bc-4da2-b0b4-3d5d1002166b","ios":"levelo://app?vid=dad6db58-f5bc-4da2-b0b4-3d5d1002166b"},"vehicle_type_id":"4","last_reported":1734807980,"current_range_meters":14400,"station_id":"ce4bhrh2rcd13ifvqhug","pricing_plan_id":"cebpf4jnsgd1na2vs0mg"},{"bike_id":"e1e55b34-0cc8-42c6-b9d9-a442d6ab0cd4","system_id":"levelo_inurba_marseille","lat":43.23187,"lon":5.39988,"is_reserved":false,"is_disabled":false,"rental_uris":{"android":"levelo://app?vid=e1e55b34-0cc8-42c6-b9d9-a442d6ab0cd4","ios":"levelo://app?vid=e1e55b34-0cc8-42c6-b9d9-a442d6ab0cd4"},"vehicle_type_id":"4","last_reported":1734807980,"current_range_meters":24800,"station_id":"ce4bhn12rcd13ifvqgqg","pricing_plan_id":"cebpf4jnsgd1na2vs0mg"},{"bike_id":"f6b5cdb6-736e-45b3-8b41-4918a9038182","system_id":"levelo_inurba_marseille","lat":43.23949,"lon":5.3666,"is_reserved":false,"is_disabled":false,"rental_uris":{"android":"levelo://app?vid=f6b5cdb6-736e-45b3-8b41-4918a9038182","ios":"levelo://app?vid=f6b5cdb6-736e-45b3-8b41-4918a9038182"},"vehicle_type_id":"4","last_reported":1734807980,"current_range_meters":36800,"station_id":"ce4bhi12rcd13ifvqfp0","pricing_plan_id":"cebpf4jnsgd1na2vs0mg"},{"bike_id":"f37ddc55-0dac-49ef-8e1e-aaff636a27ce","system_id":"levelo_inurba_marseille","lat":43.29614,"lon":5.37733,"is_reserved":false,"is_disabled":false,"rental_uris":{"android":"levelo://app?vid=f37ddc55-0dac-49ef-8e1e-aaff636a27ce","ios":"levelo://app?vid=f37ddc55-0dac-49ef-8e1e-aaff636a27ce"},"vehicle_type_id":"4","last_reported":1734807980,"current_range_meters":21600,"station_id":"ce4bgi92rcd13ifvqb90","pricing_plan_id":"cebpf4jnsgd1na2vs0mg"},{"bike_id":"d00c1037-4b17-4ecc-932d-45b07ac3b771","system_id":"levelo_inurba_marseille","lat":43.30948,"lon":5.39027,"is_reserved":false,"is_disabled":false,"rental_uris":{"android":"levelo://app?vid=d00c1037-4b17-4ecc-932d-45b07ac3b771","ios":"levelo://app?vid=d00c1037-4b17-4ecc-932d-45b07ac3b771"},"vehicle_type_id":"4","last_reported":1734807980,"current_range_meters":17200,"station_id":"ce4bgup2rcd13ifvqco0","pricing_plan_id":"cebpf4jnsgd1na2vs0mg"},{"bike_id":"6507bce1-e9b4-4aad-bbab-13ef4b5297a4","system_id":"levelo_inurba_marseille","lat":43.31725,"lon":5.42393,"is_reserved":false,"is_disabled":false,"rental_uris":{"android":"levelo://app?vid=6507bce1-e9b4-4aad-bbab-13ef4b5297a4","ios":"levelo://app?vid=6507bce1-e9b4-4aad-bbab-13ef4b5297a4"},"vehicle_type_id":"4","last_reported":1734807980,"current_range_meters":37600,"station_id":"ce4bhp92rcd13ifvqhbg","pricing_plan_id":"cebpf4jnsgd1na2vs0mg"},{"bike_id":"44127e4e-8e84-4a38-89f7-8f4efb63f7a5","system_id":"levelo_inurba_marseille","lat":43.31192,"lon":5.36743,"is_reserved":false,"is_disabled":true,"rental_uris":{"android":"levelo://app?vid=44127e4e-8e84-4a38-89f7-8f4efb63f7a5","ios":"levelo://app?vid=44127e4e-8e84-4a38-89f7-8f4efb63f7a5"},"vehicle_type_id":"4","last_reported":1734807980,"current_range_meters":0,"station_id":"","pricing_plan_id":"cebpf4jnsgd1na2vs0mg"},{"bike_id":"63ec5ad9-84d5-45e4-a4c5-2b22423a266f","system_id":"levelo_inurba_marseille","lat":43.28941,"lon":5.39631,"is_reserved":false,"is_disabled":false,"rental_uris":{"android":"levelo://app?vid=63ec5ad9-84d5-45e4-a4c5-2b22423a266f","ios":"levelo://app?vid=63ec5ad9-84d5-45e4-a4c5-2b22423a266f"},"vehicle_type_id":"4","last_reported":1734807980,"current_range_meters":28400,"station_id":"ce4bh3h2rcd13ifvqdn0","pricing_plan_id":"cebpf4jnsgd1na2vs0mg"},{"bike_id":"1eef5757-2a74-4727-868d-9821df78eaa2","system_id":"levelo_inurba_marseille","lat":43.25869,"lon":5.39908,"is_reserved":false,"is_disabled":false,"rental_uris":{"android":"levelo://app?vid=1eef5757-2a74-4727-868d-9821df78eaa2","ios":"levelo://app?vid=1eef5757-2a74-4727-868d-9821df78eaa2"},"vehicle_type_id":"4","last_reported":1734807980,"current_range_meters":39200,"station_id":"ce4bhl92rcd13ifvqghg","pricing_plan_id":"cebpf4jnsgd1na2vs0mg"},{"bike_id":"30a30341-01ba-408e-8fd4-6272ad4d1ef3","system_id":"levelo_inurba_marseille","lat":43.30375,"lon":5.41871,"is_reserved":false,"is_disabled":false,"rental_uris":{"android":"levelo://app?vid=30a30341-01ba-408e-8fd4-6272ad4d1ef3","ios":"levelo://app?vid=30a30341-01ba-408e-8fd4-6272ad4d1ef3"},"vehicle_type_id":"4","last_reported":1734807980,"current_range_meters":38000,"station_id":"ce4bhop2rcd13ifvqh7g","pricing_plan_id":"cebpf4jnsgd1na2vs0mg"},{"bike_id":"ee9930d1-4a33-4c2c-82c2-184216ec6de6","system_id":"levelo_inurba_marseille","lat":43.31529,"lon":5.38026,"is_reserved":false,"is_disabled":false,"rental_uris":{"android":"levelo://app?vid=ee9930d1-4a33-4c2c-82c2-184216ec6de6","ios":"levelo://app?vid=ee9930d1-4a33-4c2c-82c2-184216ec6de6"},"vehicle_type_id":"4","last_reported":1734807980,"current_range_meters":32800,"station_id":"ce4bhsp2rcd13ifvqi50","pricing_plan_id":"cebpf4jnsgd1na2vs0mg"},{"bike_id":"1b40fbad-4843-4158-8dbd-d0c96646eb90","system_id":"levelo_inurba_marseille","lat":43.28344,"lon":5.3811,"is_reserved":false,"is_disabled":false,"rental_uris":{"android":"levelo://app?vid=1b40fbad-4843-4158-8dbd-d0c96646eb90","ios":"levelo://app?vid=1b40fbad-4843-4158-8dbd-d0c96646eb90"},"vehicle_type_id":"4","last_reported":1734807980,"current_range_meters":34000,"station_id":"ce4bh412rcd13ifvqdr0","pricing_plan_id":"cebpf4jnsgd1na2vs0mg"},{"bike_id":"d69ead64-f352-48c3-b781-daf2cb8997a9","system_id":"levelo_inurba_marseille","lat":43.28106,"lon":5.37839,"is_reserved":false,"is_disabled":false,"rental_uris":{"android":"levelo://app?vid=d69ead64-f352-48c3-b781-daf2cb8997a9","ios":"levelo://app?vid=d69ead64-f352-48c3-b781-daf2cb8997a9"},"vehicle_type_id":"4","last_reported":1734807980,"current_range_meters":20800,"station_id":"ce4bha12rcd13ifvqee0","pricing_plan_id":"cebpf4jnsgd1na2vs0mg"},{"bike_id":"a198e248-41c4-4a27-af7b-34f7a7595000","system_id":"levelo_inurba_marseille","lat":43.299096,"lon":5.374671,"is_reserved":false,"is_disabled":false,"rental_uris":{"android":"levelo://app?vid=a198e248-41c4-4a27-af7b-34f7a7595000","ios":"levelo://app?vid=a198e248-41c4-4a27-af7b-34f7a7595000"},"vehicle_type_id":"4","last_reported":1734807980,"current_range_meters":38800,"station_id":"ce4bgjh2rcd13ifvqbg0","pricing_plan_id":"cebpf4jnsgd1na2vs0mg"},{"bike_id":"5fb4272e-94a1-46e9-95a2-461fdab448f5","system_id":"levelo_inurba_marseille","lat":43.30884,"lon":5.39663,"is_reserved":false,"is_disabled":false,"rental_uris":{"android":"levelo://app?vid=5fb4272e-94a1-46e9-95a2-461fdab448f5","ios":"levelo://app?vid=5fb4272e-94a1-46e9-95a2-461fdab448f5"},"vehicle_type_id":"4","last_reported":1734807980,"current_range_meters":8000,"station_id":"ce4bh012rcd13ifvqcv0","pricing_plan_id":"cebpf4jnsgd1na2vs0mg"},{"bike_id":"79392455-f7b2-4248-80a5-6969103efe0f","system_id":"levelo_inurba_marseille","lat":43.29525,"lon":5.39044,"is_reserved":false,"is_disabled":false,"rental_uris":{"android":"levelo://app?vid=79392455-f7b2-4248-80a5-6969103efe0f","ios":"levelo://app?vid=79392455-f7b2-4248-80a5-6969103efe0f"},"vehicle_type_id":"4","last_reported":1734807980,"current_range_meters":14000,"station_id":"ce4bh3p2rcd13ifvqdp0","pricing_plan_id":"cebpf4jnsgd1na2vs0mg"},{"bike_id":"a71a222d-b1db-42d9-8af5-724c2ad6fae7","system_id":"levelo_inurba_marseille","lat":43.29299,"lon":5.37445,"is_reserved":false,"is_disabled":false,"rental_uris":{"android":"levelo://app?vid=a71a222d-b1db-42d9-8af5-724c2ad6fae7","ios":"levelo://app?vid=a71a222d-b1db-42d9-8af5-724c2ad6fae7"},"vehicle_type_id":"4","last_reported":1734807980,"current_range_meters":8400,"station_id":"ce4bgi12rcd13ifvqb70","pricing_plan_id":"cebpf4jnsgd1na2vs0mg"},{"bike_id":"3c75b8e5-f3fb-4c6d-b981-9ddb64140124","system_id":"levelo_inurba_marseille","lat":43.29614,"lon":5.37699,"is_reserved":false,"is_disabled":false,"rental_uris":{"android":"levelo://app?vid=3c75b8e5-f3fb-4c6d-b981-9ddb64140124","ios":"levelo://app?vid=3c75b8e5-f3fb-4c6d-b981-9ddb64140124"},"vehicle_type_id":"4","last_reported":1734807980,"current_range_meters":27200,"station_id":"ce4bgi92rcd13ifvqb90","pricing_plan_id":"cebpf4jnsgd1na2vs0mg"},{"bike_id":"414bc440-3ed9-4228-9bb7-b9591fbab36e","system_id":"levelo_inurba_marseille","lat":43.29617,"lon":5.37708,"is_reserved":false,"is_disabled":false,"rental_uris":{"android":"levelo://app?vid=414bc440-3ed9-4228-9bb7-b9591fbab36e","ios":"levelo://app?vid=414bc440-3ed9-4228-9bb7-b9591fbab36e"},"vehicle_type_id":"4","last_reported":1734807980,"current_range_meters":36000,"station_id":"ce4bgi92rcd13ifvqb90","pricing_plan_id":"cebpf4jnsgd1na2vs0mg"},{"bike_id":"d77abc9d-2ff7-46b1-95d2-5a87a7d7b6fc","system_id":"levelo_inurba_marseille","lat":43.29604,"lon":5.37696,"is_reserved":false,"is_disabled":false,"rental_uris":{"android":"levelo://app?vid=d77abc9d-2ff7-46b1-95d2-5a87a7d7b6fc","ios":"levelo://app?vid=d77abc9d-2ff7-46b1-95d2-5a87a7d7b6fc"},"vehicle_type_id":"4","last_reported":1734807980,"current_range_meters":36800,"station_id":"ce4bgi92rcd13ifvqb90","pricing_plan_id":"cebpf4jnsgd1na2vs0mg"},{"bike_id":"6257ccfb-8f9d-4aa2-a2e1-87969757e849","system_id":"levelo_inurba_marseille","lat":43.27886,"lon":5.3875,"is_reserved":false,"is_disabled":false,"rental_uris":{"android":"levelo://app?vid=6257ccfb-8f9d-4aa2-a2e1-87969757e849","ios":"levelo://app?vid=6257ccfb-8f9d-4aa2-a2e1-87969757e849"},"vehicle_type_id":"4","last_reported":1734807980,"current_range_meters":20800,"station_id":"","pricing_plan_id":"cebpf4jnsgd1na2vs0mg"},{"bike_id":"2a2c0cfa-f9a8-4c73-a96c-db7e83d7bc8f","system_id":"levelo_inurba_marseille","lat":43.30532,"lon":5.38441,"is_reserved":false,"is_disabled":false,"rental_uris":{"android":"levelo://app?vid=2a2c0cfa-f9a8-4c73-a96c-db7e83d7bc8f","ios":"levelo://app?vid=2a2c0cfa-f9a8-4c73-a96c-db7e83d7bc8f"},"vehicle_type_id":"4","last_reported":1734807980,"current_range_meters":38000,"station_id":"ce4bgg92rcd13ifvqb30","pricing_plan_id":"cebpf4jnsgd1na2vs0mg"},{"bike_id":"11a271c9-fb9f-4cb8-bf2a-e8098ec9ded4","system_id":"levelo_inurba_marseille","lat":43.29381,"lon":5.3785,"is_reserved":false,"is_disabled":true,"rental_uris":{"android":"levelo://app?vid=11a271c9-fb9f-4cb8-bf2a-e8098ec9ded4","ios":"levelo://app?vid=11a271c9-fb9f-4cb8-bf2a-e8098ec9ded4"},"vehicle_type_id":"4","last_reported":1734807980,"current_range_meters":0,"station_id":"ce4bgjh2rcd13ifvqbf0","pricing_plan_id":"cebpf4jnsgd1na2vs0mg"},{"bike_id":"9a114ae6-5ec8-4d81-82ec-2483aa52c6bd","system_id":"levelo_inurba_marseille","lat":43.29584,"lon":5.36749,"is_reserved":false,"is_disabled":false,"rental_uris":{"android":"levelo://app?vid=9a114ae6-5ec8-4d81-82ec-2483aa52c6bd","ios":"levelo://app?vid=9a114ae6-5ec8-4d81-82ec-2483aa52c6bd"},"vehicle_type_id":"4","last_reported":1734807980,"current_range_meters":35600,"station_id":"","pricing_plan_id":"cebpf4jnsgd1na2vs0mg"},{"bike_id":"f1f7dc63-fd1f-43ab-831d-16b0e0489789","system_id":"levelo_inurba_marseille","lat":43.30605,"lon":5.37231,"is_reserved":false,"is_disabled":false,"rental_uris":{"android":"levelo://app?vid=f1f7dc63-fd1f-43ab-831d-16b0e0489789","ios":"levelo://app?vid=f1f7dc63-fd1f-43ab-831d-16b0e0489789"},"vehicle_type_id":"4","last_reported":1734807980,"current_range_meters":36800,"station_id":"ce4bgqh2rcd13ifvqc4g","pricing_plan_id":"cebpf4jnsgd1na2vs0mg"},{"bike_id":"641d39d1-88cc-4f20-9fcf-9a79e49a860c","system_id":"levelo_inurba_marseille","lat":43.28936,"lon":5.36636,"is_reserved":false,"is_disabled":false,"rental_uris":{"android":"levelo://app?vid=641d39d1-88cc-4f20-9fcf-9a79e49a860c","ios":"levelo://app?vid=641d39d1-88cc-4f20-9fcf-9a79e49a860c"},"vehicle_type_id":"4","last_reported":1734807980,"current_range_meters":39200,"station_id":"ce4bhap2rcd13ifvqek0","pricing_plan_id":"cebpf4jnsgd1na2vs0mg"},{"bike_id":"fa243830-dae3-4b4c-b3fe-5d56bbc62dc3","system_id":"levelo_inurba_marseille","lat":43.29228,"lon":5.3605,"is_reserved":false,"is_disabled":true,"rental_uris":{"android":"levelo://app?vid=fa243830-dae3-4b4c-b3fe-5d56bbc62dc3","ios":"levelo://app?vid=fa243830-dae3-4b4c-b3fe-5d56bbc62dc3"},"vehicle_type_id":"4","last_reported":1734807980,"current_range_meters":0,"station_id":"ce4bhbh2rcd13ifvqeqg","pricing_plan_id":"cebpf4jnsgd1na2vs0mg"},{"bike_id":"30b0833e-f412-41a7-8dc6-5ef57defa5e1","system_id":"levelo_inurba_marseille","lat":43.295905,"lon":5.374835,"is_reserved":false,"is_disabled":false,"rental_uris":{"android":"levelo://app?vid=30b0833e-f412-41a7-8dc6-5ef57defa5e1","ios":"levelo://app?vid=30b0833e-f412-41a7-8dc6-5ef57defa5e1"},"vehicle_type_id":"4","last_reported":1734807980,"current_range_meters":19200,"station_id":"ce4bgh92rcd13ifvqb50","pricing_plan_id":"cebpf4jnsgd1na2vs0mg"},{"bike_id":"528b08f5-0cf6-47af-914b-62ad82ae6354","system_id":"levelo_inurba_marseille","lat":43.25,"lon":5.38921,"is_reserved":false,"is_disabled":false,"rental_uris":{"android":"levelo://app?vid=528b08f5-0cf6-47af-914b-62ad82ae6354","ios":"levelo://app?vid=528b08f5-0cf6-47af-914b-62ad82ae6354"},"vehicle_type_id":"4","last_reported":1734807980,"current_range_meters":33600,"station_id":"ce4bhgp2rcd13ifvqfd0","pricing_plan_id":"cebpf4jnsgd1na2vs0mg"},{"bike_id":"1b6b8f38-823b-4fc2-beb4-34398eb51ec9","system_id":"levelo_inurba_marseille","lat":43.32469,"lon":5.36568,"is_reserved":false,"is_disabled":false,"rental_uris":{"android":"levelo://app?vid=1b6b8f38-823b-4fc2-beb4-34398eb51ec9","ios":"levelo://app?vid=1b6b8f38-823b-4fc2-beb4-34398eb51ec9"},"vehicle_type_id":"4","last_reported":1734807980,"current_range_meters":24400,"station_id":"ce4bhs12rcd13ifvqhvg","pricing_plan_id":"cebpf4jnsgd1na2vs0mg"},{"bike_id":"26480bcc-84a4-472d-aa07-a1871ae911e1","system_id":"levelo_inurba_marseille","lat":43.29963,"lon":5.38497,"is_reserved":false,"is_disabled":false,"rental_uris":{"android":"levelo://app?vid=26480bcc-84a4-472d-aa07-a1871ae911e1","ios":"levelo://app?vid=26480bcc-84a4-472d-aa07-a1871ae911e1"},"vehicle_type_id":"4","last_reported":1734807980,"current_range_meters":35600,"station_id":"ce4bgj92rcd13ifvqbd0","pricing_plan_id":"cebpf4jnsgd1na2vs0mg"},{"bike_id":"2c9f1b35-5914-4a8e-954b-6e48afaf36af","system_id":"levelo_inurba_marseille","lat":43.2397,"lon":5.36617,"is_reserved":false,"is_disabled":false,"rental_uris":{"android":"levelo://app?vid=2c9f1b35-5914-4a8e-954b-6e48afaf36af","ios":"levelo://app?vid=2c9f1b35-5914-4a8e-954b-6e48afaf36af"},"vehicle_type_id":"4","last_reported":1734807980,"current_range_meters":38800,"station_id":"ce4bhi12rcd13ifvqfp0","pricing_plan_id":"cebpf4jnsgd1na2vs0mg"},{"bike_id":"1de76731-29a8-4593-86fe-d9a23f6aa45a","system_id":"levelo_inurba_marseille","lat":43.29907,"lon":5.38145,"is_reserved":false,"is_disabled":false,"rental_uris":{"android":"levelo://app?vid=1de76731-29a8-4593-86fe-d9a23f6aa45a","ios":"levelo://app?vid=1de76731-29a8-4593-86fe-d9a23f6aa45a"},"vehicle_type_id":"4","last_reported":1734807980,"current_range_meters":38800,"station_id":"ce4bgj12rcd13ifvqbc0","pricing_plan_id":"cebpf4jnsgd1na2vs0mg"},{"bike_id":"d3f3fdae-ab70-46b2-a854-6926b1941b0c","system_id":"levelo_inurba_marseille","lat":43.23968,"lon":5.36597,"is_reserved":false,"is_disabled":false,"rental_uris":{"android":"levelo://app?vid=d3f3fdae-ab70-46b2-a854-6926b1941b0c","ios":"levelo://app?vid=d3f3fdae-ab70-46b2-a854-6926b1941b0c"},"vehicle_type_id":"4","last_reported":1734807980,"current_range_meters":35200,"station_id":"ce4bhi12rcd13ifvqfp0","pricing_plan_id":"cebpf4jnsgd1na2vs0mg"},{"bike_id":"862d6da1-ab7a-458c-901c-9c5491bc17ee","system_id":"levelo_inurba_marseille","lat":43.29621,"lon":5.37727,"is_reserved":false,"is_disabled":false,"rental_uris":{"android":"levelo://app?vid=862d6da1-ab7a-458c-901c-9c5491bc17ee","ios":"levelo://app?vid=862d6da1-ab7a-458c-901c-9c5491bc17ee"},"vehicle_type_id":"4","last_reported":1734807980,"current_range_meters":35200,"station_id":"ce4bgi92rcd13ifvqb90","pricing_plan_id":"cebpf4jnsgd1na2vs0mg"},{"bike_id":"25dff05e-7849-4254-93ff-36e5aa470527","system_id":"levelo_inurba_marseille","lat":43.287246,"lon":5.360818,"is_reserved":false,"is_disabled":false,"rental_uris":{"android":"levelo://app?vid=25dff05e-7849-4254-93ff-36e5aa470527","ios":"levelo://app?vid=25dff05e-7849-4254-93ff-36e5aa470527"},"vehicle_type_id":"4","last_reported":1734807980,"current_range_meters":35200,"station_id":"","pricing_plan_id":"cebpf4jnsgd1na2vs0mg"},{"bike_id":"c2eaf8bb-d8b5-4b03-8447-6c7cff04e9e1","system_id":"levelo_inurba_marseille","lat":43.286139,"lon":5.370407,"is_reserved":false,"is_disabled":false,"rental_uris":{"android":"levelo://app?vid=c2eaf8bb-d8b5-4b03-8447-6c7cff04e9e1","ios":"levelo://app?vid=c2eaf8bb-d8b5-4b03-8447-6c7cff04e9e1"},"vehicle_type_id":"4","last_reported":1734807980,"current_range_meters":23200,"station_id":"ce4bht12rcd13ifvqi60","pricing_plan_id":"cebpf4jnsgd1na2vs0mg"},{"bike_id":"55056ea2-a2f7-449a-af73-8ec2ec5b382c","system_id":"levelo_inurba_marseille","lat":43.29413,"lon":5.38631,"is_reserved":false,"is_disabled":false,"rental_uris":{"android":"levelo://app?vid=55056ea2-a2f7-449a-af73-8ec2ec5b382c","ios":"levelo://app?vid=55056ea2-a2f7-449a-af73-8ec2ec5b382c"},"vehicle_type_id":"4","last_reported":1734807980,"current_range_meters":24800,"station_id":"ce4bh2h2rcd13ifvqdh0","pricing_plan_id":"cebpf4jnsgd1na2vs0mg"},{"bike_id":"591e56d3-570f-4000-8104-235340497ab2","system_id":"levelo_inurba_marseille","lat":43.28035,"lon":5.36935,"is_reserved":false,"is_disabled":false,"rental_uris":{"android":"levelo://app?vid=591e56d3-570f-4000-8104-235340497ab2","ios":"levelo://app?vid=591e56d3-570f-4000-8104-235340497ab2"},"vehicle_type_id":"4","last_reported":1734807980,"current_range_meters":32800,"station_id":"ce4bha12rcd13ifvqef0","pricing_plan_id":"cebpf4jnsgd1na2vs0mg"},{"bike_id":"90fbf7b3-3e59-4761-9ba2-48103aa75f60","system_id":"levelo_inurba_marseille","lat":43.29893,"lon":5.43676,"is_reserved":false,"is_disabled":false,"rental_uris":{"android":"levelo://app?vid=90fbf7b3-3e59-4761-9ba2-48103aa75f60","ios":"levelo://app?vid=90fbf7b3-3e59-4761-9ba2-48103aa75f60"},"vehicle_type_id":"4","last_reported":1734807980,"current_range_meters":26000,"station_id":"ce4bhpp2rcd13ifvqhfg","pricing_plan_id":"cebpf4jnsgd1na2vs0mg"},{"bike_id":"458a0e2a-1db1-485c-89d9-801bddf02f55","system_id":"levelo_inurba_marseille","lat":43.29704,"lon":5.36613,"is_reserved":false,"is_disabled":false,"rental_uris":{"android":"levelo://app?vid=458a0e2a-1db1-485c-89d9-801bddf02f55","ios":"levelo://app?vid=458a0e2a-1db1-485c-89d9-801bddf02f55"},"vehicle_type_id":"4","last_reported":1734807980,"current_range_meters":38800,"station_id":"ce4bgn12rcd13ifvqbt0","pricing_plan_id":"cebpf4jnsgd1na2vs0mg"},{"bike_id":"6bda5f81-4461-449d-a260-822e9ee73f46","system_id":"levelo_inurba_marseille","lat":43.26199,"lon":5.37919,"is_reserved":false,"is_disabled":false,"rental_uris":{"android":"levelo://app?vid=6bda5f81-4461-449d-a260-822e9ee73f46","ios":"levelo://app?vid=6bda5f81-4461-449d-a260-822e9ee73f46"},"vehicle_type_id":"4","last_reported":1734807980,"current_range_meters":37600,"station_id":"ce4bhjp2rcd13ifvqg90","pricing_plan_id":"cebpf4jnsgd1na2vs0mg"},{"bike_id":"227b8709-a253-45c2-b4c3-fa7ef48a7c09","system_id":"levelo_inurba_marseille","lat":43.26942,"lon":5.38623,"is_reserved":false,"is_disabled":false,"rental_uris":{"android":"levelo://app?vid=227b8709-a253-45c2-b4c3-fa7ef48a7c09","ios":"levelo://app?vid=227b8709-a253-45c2-b4c3-fa7ef48a7c09"},"vehicle_type_id":"4","last_reported":1734807980,"current_range_meters":32000,"station_id":"ce4bhh92rcd13ifvqfh0","pricing_plan_id":"cebpf4jnsgd1na2vs0mg"},{"bike_id":"7646be54-ccce-4459-bfcd-5f70b1a12064","system_id":"levelo_inurba_marseille","lat":43.32288,"lon":5.38266,"is_reserved":false,"is_disabled":false,"rental_uris":{"android":"levelo://app?vid=7646be54-ccce-4459-bfcd-5f70b1a12064","ios":"levelo://app?vid=7646be54-ccce-4459-bfcd-5f70b1a12064"},"vehicle_type_id":"4","last_reported":1734807980,"current_range_meters":30800,"station_id":"ce4bhr12rcd13ifvqhqg","pricing_plan_id":"cebpf4jnsgd1na2vs0mg"},{"bike_id":"eb7f14b0-544a-46b7-9456-becb500e6ffa","system_id":"levelo_inurba_marseille","lat":43.28848,"lon":5.39316,"is_reserved":false,"is_disabled":false,"rental_uris":{"android":"levelo://app?vid=eb7f14b0-544a-46b7-9456-becb500e6ffa","ios":"levelo://app?vid=eb7f14b0-544a-46b7-9456-becb500e6ffa"},"vehicle_type_id":"4","last_reported":1734807980,"current_range_meters":39200,"station_id":"ce4bh2p2rcd13ifvqdi0","pricing_plan_id":"cebpf4jnsgd1na2vs0mg"},{"bike_id":"b9a2a5db-4e4f-4472-9221-981416be1b6c","system_id":"levelo_inurba_marseille","lat":43.30137,"lon":5.39889,"is_reserved":false,"is_disabled":true,"rental_uris":{"android":"levelo://app?vid=b9a2a5db-4e4f-4472-9221-981416be1b6c","ios":"levelo://app?vid=b9a2a5db-4e4f-4472-9221-981416be1b6c"},"vehicle_type_id":"4","last_reported":1734807980,"current_range_meters":36000,"station_id":"ce4bh0h2rcd13ifvqd40","pricing_plan_id":"cebpf4jnsgd1na2vs0mg"},{"bike_id":"7d36f5d4-41e9-448e-b8bd-130bdd9f3f18","system_id":"levelo_inurba_marseille","lat":43.25507,"lon":5.37639,"is_reserved":false,"is_disabled":false,"rental_uris":{"android":"levelo://app?vid=7d36f5d4-41e9-448e-b8bd-130bdd9f3f18","ios":"levelo://app?vid=7d36f5d4-41e9-448e-b8bd-130bdd9f3f18"},"vehicle_type_id":"4","last_reported":1734807980,"current_range_meters":37600,"station_id":"ce4bhh12rcd13ifvqff0","pricing_plan_id":"cebpf4jnsgd1na2vs0mg"},{"bike_id":"60dbf17a-9f43-4a54-950f-8e0a0de5ee58","system_id":"levelo_inurba_marseille","lat":43.2917,"lon":5.37161,"is_reserved":false,"is_disabled":false,"rental_uris":{"android":"levelo://app?vid=60dbf17a-9f43-4a54-950f-8e0a0de5ee58","ios":"levelo://app?vid=60dbf17a-9f43-4a54-950f-8e0a0de5ee58"},"vehicle_type_id":"4","last_reported":1734807980,"current_range_meters":39200,"station_id":"ce4bha92rcd13ifvqeh0","pricing_plan_id":"cebpf4jnsgd1na2vs0mg"},{"bike_id":"dabdb816-8280-4165-8f88-ae205fe0accb","system_id":"levelo_inurba_marseille","lat":43.23962,"lon":5.36637,"is_reserved":false,"is_disabled":false,"rental_uris":{"android":"levelo://app?vid=dabdb816-8280-4165-8f88-ae205fe0accb","ios":"levelo://app?vid=dabdb816-8280-4165-8f88-ae205fe0accb"},"vehicle_type_id":"4","last_reported":1734807980,"current_range_meters":35600,"station_id":"ce4bhi12rcd13ifvqfp0","pricing_plan_id":"cebpf4jnsgd1na2vs0mg"},{"bike_id":"4d78d0fb-0a53-44c5-a991-e85f3223e05c","system_id":"levelo_inurba_marseille","lat":43.29622,"lon":5.37716,"is_reserved":false,"is_disabled":false,"rental_uris":{"android":"levelo://app?vid=4d78d0fb-0a53-44c5-a991-e85f3223e05c","ios":"levelo://app?vid=4d78d0fb-0a53-44c5-a991-e85f3223e05c"},"vehicle_type_id":"4","last_reported":1734807980,"current_range_meters":32400,"station_id":"ce4bgi92rcd13ifvqb90","pricing_plan_id":"cebpf4jnsgd1na2vs0mg"},{"bike_id":"18bc712f-05f8-4bfe-a81a-9b0f3911a5b1","system_id":"levelo_inurba_marseille","lat":43.27508,"lon":5.38466,"is_reserved":false,"is_disabled":false,"rental_uris":{"android":"levelo://app?vid=18bc712f-05f8-4bfe-a81a-9b0f3911a5b1","ios":"levelo://app?vid=18bc712f-05f8-4bfe-a81a-9b0f3911a5b1"},"vehicle_type_id":"4","last_reported":1734807980,"current_range_meters":36400,"station_id":"ce4bhh92rcd13ifvqfi0","pricing_plan_id":"cebpf4jnsgd1na2vs0mg"},{"bike_id":"66570a8e-b5be-4659-a8b6-2eeef56cd841","system_id":"levelo_inurba_marseille","lat":43.29926,"lon":5.38153,"is_reserved":false,"is_disabled":false,"rental_uris":{"android":"levelo://app?vid=66570a8e-b5be-4659-a8b6-2eeef56cd841","ios":"levelo://app?vid=66570a8e-b5be-4659-a8b6-2eeef56cd841"},"vehicle_type_id":"4","last_reported":1734807980,"current_range_meters":37600,"station_id":"ce4bgj12rcd13ifvqbc0","pricing_plan_id":"cebpf4jnsgd1na2vs0mg"},{"bike_id":"b557e886-098e-4b0c-8db1-fd8f9dc0852d","system_id":"levelo_inurba_marseille","lat":43.27976,"lon":5.3874,"is_reserved":false,"is_disabled":false,"rental_uris":{"android":"levelo://app?vid=b557e886-098e-4b0c-8db1-fd8f9dc0852d","ios":"levelo://app?vid=b557e886-098e-4b0c-8db1-fd8f9dc0852d"},"vehicle_type_id":"4","last_reported":1734807980,"current_range_meters":37600,"station_id":"ce4bhg12rcd13ifvqf80","pricing_plan_id":"cebpf4jnsgd1na2vs0mg"},{"bike_id":"164afbb5-84f0-4dfc-ade4-6010e11937b4","system_id":"levelo_inurba_marseille","lat":43.29575,"lon":5.37529,"is_reserved":false,"is_disabled":false,"rental_uris":{"android":"levelo://app?vid=164afbb5-84f0-4dfc-ade4-6010e11937b4","ios":"levelo://app?vid=164afbb5-84f0-4dfc-ade4-6010e11937b4"},"vehicle_type_id":"4","last_reported":1734807980,"current_range_meters":31200,"station_id":"ce4bgh92rcd13ifvqb50","pricing_plan_id":"cebpf4jnsgd1na2vs0mg"},{"bike_id":"fc4ff347-ef4d-4a4d-ae09-babf618fedb6","system_id":"levelo_inurba_marseille","lat":43.24168,"lon":5.36387,"is_reserved":false,"is_disabled":false,"rental_uris":{"android":"levelo://app?vid=fc4ff347-ef4d-4a4d-ae09-babf618fedb6","ios":"levelo://app?vid=fc4ff347-ef4d-4a4d-ae09-babf618fedb6"},"vehicle_type_id":"4","last_reported":1734807980,"current_range_meters":33600,"station_id":"cpo36qri1sfpv3e86is0","pricing_plan_id":"cebpf4jnsgd1na2vs0mg"},{"bike_id":"b611f105-867d-4bad-86a7-81e8079c6ddb","system_id":"levelo_inurba_marseille","lat":43.30543,"lon":5.38409,"is_reserved":false,"is_disabled":false,"rental_uris":{"android":"levelo://app?vid=b611f105-867d-4bad-86a7-81e8079c6ddb","ios":"levelo://app?vid=b611f105-867d-4bad-86a7-81e8079c6ddb"},"vehicle_type_id":"4","last_reported":1734807980,"current_range_meters":36400,"station_id":"ce4bgg92rcd13ifvqb30","pricing_plan_id":"cebpf4jnsgd1na2vs0mg"},{"bike_id":"cbf1ec11-8d33-4f4b-86f9-f0323ee50e1a","system_id":"levelo_inurba_marseille","lat":43.23959,"lon":5.36644,"is_reserved":false,"is_disabled":false,"rental_uris":{"android":"levelo://app?vid=cbf1ec11-8d33-4f4b-86f9-f0323ee50e1a","ios":"levelo://app?vid=cbf1ec11-8d33-4f4b-86f9-f0323ee50e1a"},"vehicle_type_id":"4","last_reported":1734807980,"current_range_meters":38400,"station_id":"ce4bhi12rcd13ifvqfp0","pricing_plan_id":"cebpf4jnsgd1na2vs0mg"},{"bike_id":"81959691-8c9c-4637-9c02-e883aa087405","system_id":"levelo_inurba_marseille","lat":43.29301,"lon":5.37157,"is_reserved":false,"is_disabled":false,"rental_uris":{"android":"levelo://app?vid=81959691-8c9c-4637-9c02-e883aa087405","ios":"levelo://app?vid=81959691-8c9c-4637-9c02-e883aa087405"},"vehicle_type_id":"4","last_reported":1734807980,"current_range_meters":32800,"station_id":"ce4bgh92rcd13ifvqb40","pricing_plan_id":"cebpf4jnsgd1na2vs0mg"},{"bike_id":"e0a32ec0-1524-44f6-b48a-381c8e58ba62","system_id":"levelo_inurba_marseille","lat":43.32652,"lon":5.40991,"is_reserved":false,"is_disabled":false,"rental_uris":{"android":"levelo://app?vid=e0a32ec0-1524-44f6-b48a-381c8e58ba62","ios":"levelo://app?vid=e0a32ec0-1524-44f6-b48a-381c8e58ba62"},"vehicle_type_id":"4","last_reported":1734807980,"current_range_meters":14000,"station_id":"ce4bhpp2rcd13ifvqhgg","pricing_plan_id":"cebpf4jnsgd1na2vs0mg"},{"bike_id":"183b5972-72fe-43ac-931f-7a92916ecc83","system_id":"levelo_inurba_marseille","lat":43.29268,"lon":5.36848,"is_reserved":false,"is_disabled":false,"rental_uris":{"android":"levelo://app?vid=183b5972-72fe-43ac-931f-7a92916ecc83","ios":"levelo://app?vid=183b5972-72fe-43ac-931f-7a92916ecc83"},"vehicle_type_id":"4","last_reported":1734807980,"current_range_meters":19600,"station_id":"ce4bhbp2rcd13ifvqesg","pricing_plan_id":"cebpf4jnsgd1na2vs0mg"},{"bike_id":"1b0e9d34-71b5-4d2a-8c59-b2701c6566e6","system_id":"levelo_inurba_marseille","lat":43.25501,"lon":5.37664,"is_reserved":false,"is_disabled":false,"rental_uris":{"android":"levelo://app?vid=1b0e9d34-71b5-4d2a-8c59-b2701c6566e6","ios":"levelo://app?vid=1b0e9d34-71b5-4d2a-8c59-b2701c6566e6"},"vehicle_type_id":"4","last_reported":1734807980,"current_range_meters":39200,"station_id":"ce4bhh12rcd13ifvqff0","pricing_plan_id":"cebpf4jnsgd1na2vs0mg"},{"bike_id":"f43d8b3a-f16a-4068-9f38-b8cf5ec636d6","system_id":"levelo_inurba_marseille","lat":43.31121,"lon":5.37774,"is_reserved":false,"is_disabled":false,"rental_uris":{"android":"levelo://app?vid=f43d8b3a-f16a-4068-9f38-b8cf5ec636d6","ios":"levelo://app?vid=f43d8b3a-f16a-4068-9f38-b8cf5ec636d6"},"vehicle_type_id":"4","last_reported":1734807980,"current_range_meters":36400,"station_id":"ce4bgt92rcd13ifvqcg0","pricing_plan_id":"cebpf4jnsgd1na2vs0mg"},{"bike_id":"abbc8f9b-5577-4fcd-bbf9-457f2aa80ebe","system_id":"levelo_inurba_marseille","lat":43.27325,"lon":5.3911,"is_reserved":false,"is_disabled":false,"rental_uris":{"android":"levelo://app?vid=abbc8f9b-5577-4fcd-bbf9-457f2aa80ebe","ios":"levelo://app?vid=abbc8f9b-5577-4fcd-bbf9-457f2aa80ebe"},"vehicle_type_id":"4","last_reported":1734807980,"current_range_meters":24800,"station_id":"ce4bhgp2rcd13ifvqfe0","pricing_plan_id":"cebpf4jnsgd1na2vs0mg"},{"bike_id":"877fe626-a76a-4adb-b522-e8da1970693a","system_id":"levelo_inurba_marseille","lat":43.29587,"lon":5.381,"is_reserved":false,"is_disabled":false,"rental_uris":{"android":"levelo://app?vid=877fe626-a76a-4adb-b522-e8da1970693a","ios":"levelo://app?vid=877fe626-a76a-4adb-b522-e8da1970693a"},"vehicle_type_id":"4","last_reported":1734807980,"current_range_meters":23200,"station_id":"ce4bgl12rcd13ifvqbo0","pricing_plan_id":"cebpf4jnsgd1na2vs0mg"},{"bike_id":"5fcd1f2b-5eb4-41b0-a144-5af4dc5b482b","system_id":"levelo_inurba_marseille","lat":43.29224,"lon":5.3607,"is_reserved":false,"is_disabled":false,"rental_uris":{"android":"levelo://app?vid=5fcd1f2b-5eb4-41b0-a144-5af4dc5b482b","ios":"levelo://app?vid=5fcd1f2b-5eb4-41b0-a144-5af4dc5b482b"},"vehicle_type_id":"4","last_reported":1734807980,"current_range_meters":9600,"station_id":"ce4bhbh2rcd13ifvqeqg","pricing_plan_id":"cebpf4jnsgd1na2vs0mg"},{"bike_id":"630904bc-0cdc-4b2e-a876-7ca343b79da9","system_id":"levelo_inurba_marseille","lat":43.29687,"lon":5.372913,"is_reserved":false,"is_disabled":false,"rental_uris":{"android":"levelo://app?vid=630904bc-0cdc-4b2e-a876-7ca343b79da9","ios":"levelo://app?vid=630904bc-0cdc-4b2e-a876-7ca343b79da9"},"vehicle_type_id":"4","last_reported":1734807980,"current_range_meters":37600,"station_id":"ce4bgk12rcd13ifvqbj0","pricing_plan_id":"cebpf4jnsgd1na2vs0mg"},{"bike_id":"df10d42c-7cef-4a93-a5e4-b4068690c6e6","system_id":"levelo_inurba_marseille","lat":43.29619,"lon":5.37155,"is_reserved":false,"is_disabled":false,"rental_uris":{"android":"levelo://app?vid=df10d42c-7cef-4a93-a5e4-b4068690c6e6","ios":"levelo://app?vid=df10d42c-7cef-4a93-a5e4-b4068690c6e6"},"vehicle_type_id":"4","last_reported":1734807980,"current_range_meters":27600,"station_id":"ce4bgk12rcd13ifvqbj0","pricing_plan_id":"cebpf4jnsgd1na2vs0mg"},{"bike_id":"131be7d1-df81-4249-891d-541b91ed0ea5","system_id":"levelo_inurba_marseille","lat":43.31374,"lon":5.38504,"is_reserved":false,"is_disabled":true,"rental_uris":{"android":"levelo://app?vid=131be7d1-df81-4249-891d-541b91ed0ea5","ios":"levelo://app?vid=131be7d1-df81-4249-891d-541b91ed0ea5"},"vehicle_type_id":"4","last_reported":1734807980,"current_range_meters":400,"station_id":"ce4bgt92rcd13ifvqcf0","pricing_plan_id":"cebpf4jnsgd1na2vs0mg"},{"bike_id":"9f579424-e10d-4de2-8fab-c6f9a0aedcad","system_id":"levelo_inurba_marseille","lat":43.29717,"lon":5.37697,"is_reserved":false,"is_disabled":false,"rental_uris":{"android":"levelo://app?vid=9f579424-e10d-4de2-8fab-c6f9a0aedcad","ios":"levelo://app?vid=9f579424-e10d-4de2-8fab-c6f9a0aedcad"},"vehicle_type_id":"4","last_reported":1734807980,"current_range_meters":8000,"station_id":"ce4bgkh2rcd13ifvqbl0","pricing_plan_id":"cebpf4jnsgd1na2vs0mg"},{"bike_id":"de6ebabc-a12a-455f-8ac6-5811b92b2163","system_id":"levelo_inurba_marseille","lat":43.293,"lon":5.37455,"is_reserved":false,"is_disabled":true,"rental_uris":{"android":"levelo://app?vid=de6ebabc-a12a-455f-8ac6-5811b92b2163","ios":"levelo://app?vid=de6ebabc-a12a-455f-8ac6-5811b92b2163"},"vehicle_type_id":"4","last_reported":1734807980,"current_range_meters":400,"station_id":"ce4bgi12rcd13ifvqb70","pricing_plan_id":"cebpf4jnsgd1na2vs0mg"},{"bike_id":"070e483f-8929-43ba-9809-3a2f5443ce43","system_id":"levelo_inurba_marseille","lat":43.28071,"lon":5.39656,"is_reserved":false,"is_disabled":false,"rental_uris":{"android":"levelo://app?vid=070e483f-8929-43ba-9809-3a2f5443ce43","ios":"levelo://app?vid=070e483f-8929-43ba-9809-3a2f5443ce43"},"vehicle_type_id":"4","last_reported":1734807980,"current_range_meters":38800,"station_id":"ce4bho12rcd13ifvqh2g","pricing_plan_id":"cebpf4jnsgd1na2vs0mg"},{"bike_id":"02cf79c6-68fd-4030-9099-145da0f8d7ea","system_id":"levelo_inurba_marseille","lat":43.28725,"lon":5.36086,"is_reserved":false,"is_disabled":false,"rental_uris":{"android":"levelo://app?vid=02cf79c6-68fd-4030-9099-145da0f8d7ea","ios":"levelo://app?vid=02cf79c6-68fd-4030-9099-145da0f8d7ea"},"vehicle_type_id":"4","last_reported":1734807980,"current_range_meters":37600,"station_id":"cki0cbj6b192h4jlfktg","pricing_plan_id":"cebpf4jnsgd1na2vs0mg"},{"bike_id":"f40e7c61-8a43-4da7-a842-fa391ba2fc6e","system_id":"levelo_inurba_marseille","lat":43.26034,"lon":5.37543,"is_reserved":false,"is_disabled":false,"rental_uris":{"android":"levelo://app?vid=f40e7c61-8a43-4da7-a842-fa391ba2fc6e","ios":"levelo://app?vid=f40e7c61-8a43-4da7-a842-fa391ba2fc6e"},"vehicle_type_id":"4","last_reported":1734807980,"current_range_meters":38000,"station_id":"ce4bhgh2rcd13ifvqfa0","pricing_plan_id":"cebpf4jnsgd1na2vs0mg"},{"bike_id":"407718f5-a97b-4443-992d-88ce06cc0ae8","system_id":"levelo_inurba_marseille","lat":43.29297,"lon":5.37468,"is_reserved":false,"is_disabled":false,"rental_uris":{"android":"levelo://app?vid=407718f5-a97b-4443-992d-88ce06cc0ae8","ios":"levelo://app?vid=407718f5-a97b-4443-992d-88ce06cc0ae8"},"vehicle_type_id":"4","last_reported":1734807980,"current_range_meters":33200,"station_id":"ce4bgi12rcd13ifvqb70","pricing_plan_id":"cebpf4jnsgd1na2vs0mg"},{"bike_id":"f0bcbb45-555d-4c5b-8534-084b0fafc4e9","system_id":"levelo_inurba_marseille","lat":43.29168,"lon":5.37138,"is_reserved":false,"is_disabled":true,"rental_uris":{"android":"levelo://app?vid=f0bcbb45-555d-4c5b-8534-084b0fafc4e9","ios":"levelo://app?vid=f0bcbb45-555d-4c5b-8534-084b0fafc4e9"},"vehicle_type_id":"4","last_reported":1734807980,"current_range_meters":38400,"station_id":"ce4bha92rcd13ifvqeh0","pricing_plan_id":"cebpf4jnsgd1na2vs0mg"},{"bike_id":"53be3d88-2f89-4784-b9cc-4a3607593615","system_id":"levelo_inurba_marseille","lat":43.24077,"lon":5.37751,"is_reserved":false,"is_disabled":false,"rental_uris":{"android":"levelo://app?vid=53be3d88-2f89-4784-b9cc-4a3607593615","ios":"levelo://app?vid=53be3d88-2f89-4784-b9cc-4a3607593615"},"vehicle_type_id":"4","last_reported":1734807980,"current_range_meters":28400,"station_id":"ce4bhnp2rcd13ifvqgvg","pricing_plan_id":"cebpf4jnsgd1na2vs0mg"},{"bike_id":"b002d028-e42c-46e2-93ce-a18a7a90546e","system_id":"levelo_inurba_marseille","lat":43.32297,"lon":5.38284,"is_reserved":false,"is_disabled":false,"rental_uris":{"android":"levelo://app?vid=b002d028-e42c-46e2-93ce-a18a7a90546e","ios":"levelo://app?vid=b002d028-e42c-46e2-93ce-a18a7a90546e"},"vehicle_type_id":"4","last_reported":1734807980,"current_range_meters":22400,"station_id":"ce4bhr12rcd13ifvqhqg","pricing_plan_id":"cebpf4jnsgd1na2vs0mg"},{"bike_id":"4f6f11b5-605f-41e8-9429-90ffbf338d82","system_id":"levelo_inurba_marseille","lat":43.29572,"lon":5.37507,"is_reserved":false,"is_disabled":false,"rental_uris":{"android":"levelo://app?vid=4f6f11b5-605f-41e8-9429-90ffbf338d82","ios":"levelo://app?vid=4f6f11b5-605f-41e8-9429-90ffbf338d82"},"vehicle_type_id":"4","last_reported":1734807980,"current_range_meters":22800,"station_id":"ce4bgh92rcd13ifvqb50","pricing_plan_id":"cebpf4jnsgd1na2vs0mg"},{"bike_id":"725f2ba4-42ee-480b-a31f-097189b1c2cf","system_id":"levelo_inurba_marseille","lat":43.29176,"lon":5.35793,"is_reserved":false,"is_disabled":true,"rental_uris":{"android":"levelo://app?vid=725f2ba4-42ee-480b-a31f-097189b1c2cf","ios":"levelo://app?vid=725f2ba4-42ee-480b-a31f-097189b1c2cf"},"vehicle_type_id":"4","last_reported":1734807980,"current_range_meters":38800,"station_id":"ce4bhb12rcd13ifvqel0","pricing_plan_id":"cebpf4jnsgd1na2vs0mg"},{"bike_id":"279edc08-fe66-42d0-bd87-db295143fd16","system_id":"levelo_inurba_marseille","lat":43.298449,"lon":5.385344,"is_reserved":false,"is_disabled":false,"rental_uris":{"android":"levelo://app?vid=279edc08-fe66-42d0-bd87-db295143fd16","ios":"levelo://app?vid=279edc08-fe66-42d0-bd87-db295143fd16"},"vehicle_type_id":"4","last_reported":1734807980,"current_range_meters":11600,"station_id":"ce4bgih2rcd13ifvqba0","pricing_plan_id":"cebpf4jnsgd1na2vs0mg"},{"bike_id":"9402f944-2ab0-40ec-9775-0b04396b6114","system_id":"levelo_inurba_marseille","lat":43.23183,"lon":5.39978,"is_reserved":false,"is_disabled":false,"rental_uris":{"android":"levelo://app?vid=9402f944-2ab0-40ec-9775-0b04396b6114","ios":"levelo://app?vid=9402f944-2ab0-40ec-9775-0b04396b6114"},"vehicle_type_id":"4","last_reported":1734807980,"current_range_meters":32800,"station_id":"ce4bhn12rcd13ifvqgqg","pricing_plan_id":"cebpf4jnsgd1na2vs0mg"},{"bike_id":"fbcf101f-2c6c-4882-bc9b-ed0e80d7b92c","system_id":"levelo_inurba_marseille","lat":43.29606,"lon":5.37726,"is_reserved":false,"is_disabled":false,"rental_uris":{"android":"levelo://app?vid=fbcf101f-2c6c-4882-bc9b-ed0e80d7b92c","ios":"levelo://app?vid=fbcf101f-2c6c-4882-bc9b-ed0e80d7b92c"},"vehicle_type_id":"4","last_reported":1734807980,"current_range_meters":6800,"station_id":"ce4bgi92rcd13ifvqb90","pricing_plan_id":"cebpf4jnsgd1na2vs0mg"},{"bike_id":"28f15137-bb35-42e8-b98a-52b9c93706ac","system_id":"levelo_inurba_marseille","lat":43.29266,"lon":5.40155,"is_reserved":false,"is_disabled":true,"rental_uris":{"android":"levelo://app?vid=28f15137-bb35-42e8-b98a-52b9c93706ac","ios":"levelo://app?vid=28f15137-bb35-42e8-b98a-52b9c93706ac"},"vehicle_type_id":"4","last_reported":1734807980,"current_range_meters":800,"station_id":"ce4bh312rcd13ifvqdk0","pricing_plan_id":"cebpf4jnsgd1na2vs0mg"},{"bike_id":"4094ac40-fe97-4483-91f4-bc4b6a97b4f3","system_id":"levelo_inurba_marseille","lat":43.25832,"lon":5.39427,"is_reserved":false,"is_disabled":true,"rental_uris":{"android":"levelo://app?vid=4094ac40-fe97-4483-91f4-bc4b6a97b4f3","ios":"levelo://app?vid=4094ac40-fe97-4483-91f4-bc4b6a97b4f3"},"vehicle_type_id":"4","last_reported":1734807980,"current_range_meters":4000,"station_id":"ce4bhip2rcd13ifvqft0","pricing_plan_id":"cebpf4jnsgd1na2vs0mg"},{"bike_id":"ed495aba-f9b6-4311-b39c-649f2202b23f","system_id":"levelo_inurba_marseille","lat":43.27562,"lon":5.38427,"is_reserved":false,"is_disabled":false,"rental_uris":{"android":"levelo://app?vid=ed495aba-f9b6-4311-b39c-649f2202b23f","ios":"levelo://app?vid=ed495aba-f9b6-4311-b39c-649f2202b23f"},"vehicle_type_id":"4","last_reported":1734807980,"current_range_meters":37600,"station_id":"ce4bhh92rcd13ifvqfi0","pricing_plan_id":"cebpf4jnsgd1na2vs0mg"},{"bike_id":"f953c87c-4ea7-4e78-9490-68e955a0946d","system_id":"levelo_inurba_marseille","lat":43.2549,"lon":5.37647,"is_reserved":false,"is_disabled":true,"rental_uris":{"android":"levelo://app?vid=f953c87c-4ea7-4e78-9490-68e955a0946d","ios":"levelo://app?vid=f953c87c-4ea7-4e78-9490-68e955a0946d"},"vehicle_type_id":"4","last_reported":1734807980,"current_range_meters":18800,"station_id":"ce4bhh12rcd13ifvqff0","pricing_plan_id":"cebpf4jnsgd1na2vs0mg"},{"bike_id":"eddf6680-846f-4329-a45c-ae95db2c1ac9","system_id":"levelo_inurba_marseille","lat":43.26209,"lon":5.3744,"is_reserved":false,"is_disabled":false,"rental_uris":{"android":"levelo://app?vid=eddf6680-846f-4329-a45c-ae95db2c1ac9","ios":"levelo://app?vid=eddf6680-846f-4329-a45c-ae95db2c1ac9"},"vehicle_type_id":"4","last_reported":1734807980,"current_range_meters":9600,"station_id":"ce4bhgp2rcd13ifvqfc0","pricing_plan_id":"cebpf4jnsgd1na2vs0mg"},{"bike_id":"bffa53fc-fd24-43bb-914d-8fb43c7a35d6","system_id":"levelo_inurba_marseille","lat":43.26684,"lon":5.38274,"is_reserved":false,"is_disabled":false,"rental_uris":{"android":"levelo://app?vid=bffa53fc-fd24-43bb-914d-8fb43c7a35d6","ios":"levelo://app?vid=bffa53fc-fd24-43bb-914d-8fb43c7a35d6"},"vehicle_type_id":"4","last_reported":1734807980,"current_range_meters":30000,"station_id":"ce4bhg92rcd13ifvqf90","pricing_plan_id":"cebpf4jnsgd1na2vs0mg"},{"bike_id":"e97885cb-84c9-4eaa-accc-50441874dbff","system_id":"levelo_inurba_marseille","lat":43.28154,"lon":5.42642,"is_reserved":false,"is_disabled":false,"rental_uris":{"android":"levelo://app?vid=e97885cb-84c9-4eaa-accc-50441874dbff","ios":"levelo://app?vid=e97885cb-84c9-4eaa-accc-50441874dbff"},"vehicle_type_id":"4","last_reported":1734807980,"current_range_meters":9200,"station_id":"ce4bhnh2rcd13ifvqgug","pricing_plan_id":"cebpf4jnsgd1na2vs0mg"},{"bike_id":"b73b3cc8-26fa-4032-8e99-f74b6ff40c2a","system_id":"levelo_inurba_marseille","lat":43.27016,"lon":5.40211,"is_reserved":false,"is_disabled":false,"rental_uris":{"android":"levelo://app?vid=b73b3cc8-26fa-4032-8e99-f74b6ff40c2a","ios":"levelo://app?vid=b73b3cc8-26fa-4032-8e99-f74b6ff40c2a"},"vehicle_type_id":"4","last_reported":1734807980,"current_range_meters":18800,"station_id":"","pricing_plan_id":"cebpf4jnsgd1na2vs0mg"},{"bike_id":"0fa4fd6a-c920-470e-9628-342bc95af557","system_id":"levelo_inurba_marseille","lat":43.24675,"lon":5.38149,"is_reserved":false,"is_disabled":false,"rental_uris":{"android":"levelo://app?vid=0fa4fd6a-c920-470e-9628-342bc95af557","ios":"levelo://app?vid=0fa4fd6a-c920-470e-9628-342bc95af557"},"vehicle_type_id":"4","last_reported":1734807980,"current_range_meters":36800,"station_id":"ce4bhih2rcd13ifvqfr0","pricing_plan_id":"cebpf4jnsgd1na2vs0mg"},{"bike_id":"32ebf098-e002-4aa6-88f7-5b365ee05e11","system_id":"levelo_inurba_marseille","lat":43.24082,"lon":5.37734,"is_reserved":false,"is_disabled":true,"rental_uris":{"android":"levelo://app?vid=32ebf098-e002-4aa6-88f7-5b365ee05e11","ios":"levelo://app?vid=32ebf098-e002-4aa6-88f7-5b365ee05e11"},"vehicle_type_id":"4","last_reported":1734807980,"current_range_meters":400,"station_id":"ce4bhnp2rcd13ifvqgvg","pricing_plan_id":"cebpf4jnsgd1na2vs0mg"},{"bike_id":"4b7afde9-10fb-4c99-9992-7cd53645a008","system_id":"levelo_inurba_marseille","lat":43.29609,"lon":5.37714,"is_reserved":false,"is_disabled":false,"rental_uris":{"android":"levelo://app?vid=4b7afde9-10fb-4c99-9992-7cd53645a008","ios":"levelo://app?vid=4b7afde9-10fb-4c99-9992-7cd53645a008"},"vehicle_type_id":"4","last_reported":1734807980,"current_range_meters":38000,"station_id":"ce4bgi92rcd13ifvqb90","pricing_plan_id":"cebpf4jnsgd1na2vs0mg"},{"bike_id":"ae26c6f5-f7ff-47c2-94e3-1e3154b24029","system_id":"levelo_inurba_marseille","lat":43.29794,"lon":5.37101,"is_reserved":false,"is_disabled":false,"rental_uris":{"android":"levelo://app?vid=ae26c6f5-f7ff-47c2-94e3-1e3154b24029","ios":"levelo://app?vid=ae26c6f5-f7ff-47c2-94e3-1e3154b24029"},"vehicle_type_id":"4","last_reported":1734807980,"current_range_meters":35200,"station_id":"ce4bgop2rcd13ifvqc1g","pricing_plan_id":"cebpf4jnsgd1na2vs0mg"},{"bike_id":"945f0db7-c4d9-4e4e-90fd-fb3342944aa6","system_id":"levelo_inurba_marseille","lat":43.3095,"lon":5.39032,"is_reserved":false,"is_disabled":false,"rental_uris":{"android":"levelo://app?vid=945f0db7-c4d9-4e4e-90fd-fb3342944aa6","ios":"levelo://app?vid=945f0db7-c4d9-4e4e-90fd-fb3342944aa6"},"vehicle_type_id":"4","last_reported":1734807980,"current_range_meters":17200,"station_id":"ce4bgup2rcd13ifvqco0","pricing_plan_id":"cebpf4jnsgd1na2vs0mg"},{"bike_id":"f699f5c3-f77f-4892-b328-ccf456afa874","system_id":"levelo_inurba_marseille","lat":43.22929,"lon":5.35377,"is_reserved":false,"is_disabled":false,"rental_uris":{"android":"levelo://app?vid=f699f5c3-f77f-4892-b328-ccf456afa874","ios":"levelo://app?vid=f699f5c3-f77f-4892-b328-ccf456afa874"},"vehicle_type_id":"4","last_reported":1734807980,"current_range_meters":21600,"station_id":"cpo3532slgdg3j2ikp40","pricing_plan_id":"cebpf4jnsgd1na2vs0mg"},{"bike_id":"ba623d7f-de4d-43e6-9a39-be19938e75fb","system_id":"levelo_inurba_marseille","lat":43.29371,"lon":5.37867,"is_reserved":false,"is_disabled":true,"rental_uris":{"android":"levelo://app?vid=ba623d7f-de4d-43e6-9a39-be19938e75fb","ios":"levelo://app?vid=ba623d7f-de4d-43e6-9a39-be19938e75fb"},"vehicle_type_id":"4","last_reported":1734807980,"current_range_meters":38000,"station_id":"","pricing_plan_id":"cebpf4jnsgd1na2vs0mg"},{"bike_id":"33d82d88-d9f4-4ea2-a479-f47d2b9d8ae5","system_id":"levelo_inurba_marseille","lat":43.29028,"lon":5.38644,"is_reserved":false,"is_disabled":false,"rental_uris":{"android":"levelo://app?vid=33d82d88-d9f4-4ea2-a479-f47d2b9d8ae5","ios":"levelo://app?vid=33d82d88-d9f4-4ea2-a479-f47d2b9d8ae5"},"vehicle_type_id":"4","last_reported":1734807980,"current_range_meters":37600,"station_id":"ce4bh4p2rcd13ifvqe0g","pricing_plan_id":"cebpf4jnsgd1na2vs0mg"},{"bike_id":"cd974dea-b7fa-47cd-aa2d-e12062fb1b95","system_id":"levelo_inurba_marseille","lat":43.31077,"lon":5.42413,"is_reserved":false,"is_disabled":false,"rental_uris":{"android":"levelo://app?vid=cd974dea-b7fa-47cd-aa2d-e12062fb1b95","ios":"levelo://app?vid=cd974dea-b7fa-47cd-aa2d-e12062fb1b95"},"vehicle_type_id":"4","last_reported":1734807980,"current_range_meters":26000,"station_id":"ce4bhp92rcd13ifvqhag","pricing_plan_id":"cebpf4jnsgd1na2vs0mg"},{"bike_id":"c073fa6a-f94e-4fab-8a56-0f73febd329a","system_id":"levelo_inurba_marseille","lat":43.27939,"lon":5.41045,"is_reserved":false,"is_disabled":false,"rental_uris":{"android":"levelo://app?vid=c073fa6a-f94e-4fab-8a56-0f73febd329a","ios":"levelo://app?vid=c073fa6a-f94e-4fab-8a56-0f73febd329a"},"vehicle_type_id":"4","last_reported":1734807980,"current_range_meters":10800,"station_id":"ce4bhnp2rcd13ifvqh0g","pricing_plan_id":"cebpf4jnsgd1na2vs0mg"},{"bike_id":"4694b6bd-25d5-4b09-9a60-04b3b8c1b423","system_id":"levelo_inurba_marseille","lat":43.29718,"lon":5.377,"is_reserved":false,"is_disabled":false,"rental_uris":{"android":"levelo://app?vid=4694b6bd-25d5-4b09-9a60-04b3b8c1b423","ios":"levelo://app?vid=4694b6bd-25d5-4b09-9a60-04b3b8c1b423"},"vehicle_type_id":"4","last_reported":1734807980,"current_range_meters":36800,"station_id":"ce4bgkh2rcd13ifvqbl0","pricing_plan_id":"cebpf4jnsgd1na2vs0mg"},{"bike_id":"caa28317-677f-4684-8cc6-46932db162b9","system_id":"levelo_inurba_marseille","lat":43.27812,"lon":5.4072,"is_reserved":false,"is_disabled":false,"rental_uris":{"android":"levelo://app?vid=caa28317-677f-4684-8cc6-46932db162b9","ios":"levelo://app?vid=caa28317-677f-4684-8cc6-46932db162b9"},"vehicle_type_id":"4","last_reported":1734807980,"current_range_meters":16000,"station_id":"ce4bhnh2rcd13ifvqgtg","pricing_plan_id":"cebpf4jnsgd1na2vs0mg"},{"bike_id":"d7a9a039-2919-4498-94bc-85df69bbf9b4","system_id":"levelo_inurba_marseille","lat":43.251146,"lon":5.395142,"is_reserved":false,"is_disabled":true,"rental_uris":{"android":"levelo://app?vid=d7a9a039-2919-4498-94bc-85df69bbf9b4","ios":"levelo://app?vid=d7a9a039-2919-4498-94bc-85df69bbf9b4"},"vehicle_type_id":"4","last_reported":1734807980,"current_range_meters":0,"station_id":"ce4bhm12rcd13ifvqgkg","pricing_plan_id":"cebpf4jnsgd1na2vs0mg"},{"bike_id":"f6e00a83-cc1f-4aaf-83bb-77e9d3b9e809","system_id":"levelo_inurba_marseille","lat":43.337444,"lon":5.374475,"is_reserved":false,"is_disabled":false,"rental_uris":{"android":"levelo://app?vid=f6e00a83-cc1f-4aaf-83bb-77e9d3b9e809","ios":"levelo://app?vid=f6e00a83-cc1f-4aaf-83bb-77e9d3b9e809"},"vehicle_type_id":"4","last_reported":1734807980,"current_range_meters":27600,"station_id":"","pricing_plan_id":"cebpf4jnsgd1na2vs0mg"},{"bike_id":"4557c5fc-60ed-4c34-9596-70c70138f451","system_id":"levelo_inurba_marseille","lat":43.29621,"lon":5.37152,"is_reserved":false,"is_disabled":true,"rental_uris":{"android":"levelo://app?vid=4557c5fc-60ed-4c34-9596-70c70138f451","ios":"levelo://app?vid=4557c5fc-60ed-4c34-9596-70c70138f451"},"vehicle_type_id":"4","last_reported":1734807980,"current_range_meters":0,"station_id":"","pricing_plan_id":"cebpf4jnsgd1na2vs0mg"},{"bike_id":"dbcc2704-599a-4e4e-825b-c77985ec7e09","system_id":"levelo_inurba_marseille","lat":43.3014,"lon":5.37425,"is_reserved":false,"is_disabled":false,"rental_uris":{"android":"levelo://app?vid=dbcc2704-599a-4e4e-825b-c77985ec7e09","ios":"levelo://app?vid=dbcc2704-599a-4e4e-825b-c77985ec7e09"},"vehicle_type_id":"4","last_reported":1734807980,"current_range_meters":38800,"station_id":"ce4bgs92rcd13ifvqcc0","pricing_plan_id":"cebpf4jnsgd1na2vs0mg"},{"bike_id":"2daf6017-db0c-42c7-86d8-f89177a5712a","system_id":"levelo_inurba_marseille","lat":43.24073,"lon":5.37751,"is_reserved":false,"is_disabled":false,"rental_uris":{"android":"levelo://app?vid=2daf6017-db0c-42c7-86d8-f89177a5712a","ios":"levelo://app?vid=2daf6017-db0c-42c7-86d8-f89177a5712a"},"vehicle_type_id":"4","last_reported":1734807980,"current_range_meters":24800,"station_id":"ce4bhnp2rcd13ifvqgvg","pricing_plan_id":"cebpf4jnsgd1na2vs0mg"},{"bike_id":"397c7617-d765-46a5-ac2e-66d650e8ccda","system_id":"levelo_inurba_marseille","lat":43.29733,"lon":5.37681,"is_reserved":false,"is_disabled":false,"rental_uris":{"android":"levelo://app?vid=397c7617-d765-46a5-ac2e-66d650e8ccda","ios":"levelo://app?vid=397c7617-d765-46a5-ac2e-66d650e8ccda"},"vehicle_type_id":"4","last_reported":1734807980,"current_range_meters":3600,"station_id":"ce4bgkh2rcd13ifvqbl0","pricing_plan_id":"cebpf4jnsgd1na2vs0mg"},{"bike_id":"5a02cac6-8726-4733-81bd-85fdd2c33e8c","system_id":"levelo_inurba_marseille","lat":43.29517,"lon":5.39405,"is_reserved":false,"is_disabled":true,"rental_uris":{"android":"levelo://app?vid=5a02cac6-8726-4733-81bd-85fdd2c33e8c","ios":"levelo://app?vid=5a02cac6-8726-4733-81bd-85fdd2c33e8c"},"vehicle_type_id":"4","last_reported":1734807980,"current_range_meters":0,"station_id":"ce4bh292rcd13ifvqdf0","pricing_plan_id":"cebpf4jnsgd1na2vs0mg"},{"bike_id":"22424b01-5eb1-4608-aefb-499996d9fee3","system_id":"levelo_inurba_marseille","lat":43.28473,"lon":5.3841,"is_reserved":false,"is_disabled":false,"rental_uris":{"android":"levelo://app?vid=22424b01-5eb1-4608-aefb-499996d9fee3","ios":"levelo://app?vid=22424b01-5eb1-4608-aefb-499996d9fee3"},"vehicle_type_id":"4","last_reported":1734807980,"current_range_meters":38800,"station_id":"ce4bh512rcd13ifvqe3g","pricing_plan_id":"cebpf4jnsgd1na2vs0mg"},{"bike_id":"e63fb66b-2db4-4906-97a8-f2246f7821f8","system_id":"levelo_inurba_marseille","lat":43.29926,"lon":5.37471,"is_reserved":false,"is_disabled":false,"rental_uris":{"android":"levelo://app?vid=e63fb66b-2db4-4906-97a8-f2246f7821f8","ios":"levelo://app?vid=e63fb66b-2db4-4906-97a8-f2246f7821f8"},"vehicle_type_id":"4","last_reported":1734807980,"current_range_meters":37600,"station_id":"ce4bgjh2rcd13ifvqbg0","pricing_plan_id":"cebpf4jnsgd1na2vs0mg"},{"bike_id":"c27e893e-3b01-400f-b0ab-1cf7586df7e8","system_id":"levelo_inurba_marseille","lat":43.27055,"lon":5.40257,"is_reserved":false,"is_disabled":false,"rental_uris":{"android":"levelo://app?vid=c27e893e-3b01-400f-b0ab-1cf7586df7e8","ios":"levelo://app?vid=c27e893e-3b01-400f-b0ab-1cf7586df7e8"},"vehicle_type_id":"4","last_reported":1734807980,"current_range_meters":19200,"station_id":"ce4bhk92rcd13ifvqgc0","pricing_plan_id":"cebpf4jnsgd1na2vs0mg"},{"bike_id":"8d23ef1c-4d80-41f5-8856-02b6ab55c880","system_id":"levelo_inurba_marseille","lat":43.33727,"lon":5.39182,"is_reserved":false,"is_disabled":false,"rental_uris":{"android":"levelo://app?vid=8d23ef1c-4d80-41f5-8856-02b6ab55c880","ios":"levelo://app?vid=8d23ef1c-4d80-41f5-8856-02b6ab55c880"},"vehicle_type_id":"4","last_reported":1734807980,"current_range_meters":34800,"station_id":"ce4bhr92rcd13ifvqhsg","pricing_plan_id":"cebpf4jnsgd1na2vs0mg"},{"bike_id":"d60d8232-4a96-492d-9348-9c3d8bdfda03","system_id":"levelo_inurba_marseille","lat":43.29845,"lon":5.3627,"is_reserved":false,"is_disabled":false,"rental_uris":{"android":"levelo://app?vid=d60d8232-4a96-492d-9348-9c3d8bdfda03","ios":"levelo://app?vid=d60d8232-4a96-492d-9348-9c3d8bdfda03"},"vehicle_type_id":"4","last_reported":1734807980,"current_range_meters":38800,"station_id":"ce4bgpp2rcd13ifvqc3g","pricing_plan_id":"cebpf4jnsgd1na2vs0mg"},{"bike_id":"dac94ecf-3203-4c89-acc0-21c14e979588","system_id":"levelo_inurba_marseille","lat":43.26684,"lon":5.38277,"is_reserved":false,"is_disabled":false,"rental_uris":{"android":"levelo://app?vid=dac94ecf-3203-4c89-acc0-21c14e979588","ios":"levelo://app?vid=dac94ecf-3203-4c89-acc0-21c14e979588"},"vehicle_type_id":"4","last_reported":1734807980,"current_range_meters":30000,"station_id":"ce4bhg92rcd13ifvqf90","pricing_plan_id":"cebpf4jnsgd1na2vs0mg"},{"bike_id":"b8b52f00-22f9-4069-8f2d-d9185739ba40","system_id":"levelo_inurba_marseille","lat":43.29934,"lon":5.36538,"is_reserved":false,"is_disabled":false,"rental_uris":{"android":"levelo://app?vid=b8b52f00-22f9-4069-8f2d-d9185739ba40","ios":"levelo://app?vid=b8b52f00-22f9-4069-8f2d-d9185739ba40"},"vehicle_type_id":"4","last_reported":1734807980,"current_range_meters":38800,"station_id":"ce4bgm92rcd13ifvqbr0","pricing_plan_id":"cebpf4jnsgd1na2vs0mg"},{"bike_id":"befecbf9-7f20-4f63-b2b1-e37aa9e023c8","system_id":"levelo_inurba_marseille","lat":43.29682,"lon":5.37297,"is_reserved":false,"is_disabled":false,"rental_uris":{"android":"levelo://app?vid=befecbf9-7f20-4f63-b2b1-e37aa9e023c8","ios":"levelo://app?vid=befecbf9-7f20-4f63-b2b1-e37aa9e023c8"},"vehicle_type_id":"4","last_reported":1734807980,"current_range_meters":38800,"station_id":"ce4bgk12rcd13ifvqbj0","pricing_plan_id":"cebpf4jnsgd1na2vs0mg"},{"bike_id":"8df8e5b5-ce2c-40cc-8765-2009d244adb2","system_id":"levelo_inurba_marseille","lat":43.3116,"lon":5.38729,"is_reserved":false,"is_disabled":false,"rental_uris":{"android":"levelo://app?vid=8df8e5b5-ce2c-40cc-8765-2009d244adb2","ios":"levelo://app?vid=8df8e5b5-ce2c-40cc-8765-2009d244adb2"},"vehicle_type_id":"4","last_reported":1734807980,"current_range_meters":38800,"station_id":"ce4bgv12rcd13ifvqcp0","pricing_plan_id":"cebpf4jnsgd1na2vs0mg"},{"bike_id":"37b8164d-a6f7-4e6e-94f7-caef4fce1be4","system_id":"levelo_inurba_marseille","lat":43.28708,"lon":5.39976,"is_reserved":false,"is_disabled":false,"rental_uris":{"android":"levelo://app?vid=37b8164d-a6f7-4e6e-94f7-caef4fce1be4","ios":"levelo://app?vid=37b8164d-a6f7-4e6e-94f7-caef4fce1be4"},"vehicle_type_id":"4","last_reported":1734807980,"current_range_meters":24400,"station_id":"ce4bho92rcd13ifvqh3g","pricing_plan_id":"cebpf4jnsgd1na2vs0mg"},{"bike_id":"6c00c34f-21be-43a1-956d-ff6de67f8551","system_id":"levelo_inurba_marseille","lat":43.29232,"lon":5.36055,"is_reserved":false,"is_disabled":false,"rental_uris":{"android":"levelo://app?vid=6c00c34f-21be-43a1-956d-ff6de67f8551","ios":"levelo://app?vid=6c00c34f-21be-43a1-956d-ff6de67f8551"},"vehicle_type_id":"4","last_reported":1734807980,"current_range_meters":19600,"station_id":"ce4bhbh2rcd13ifvqeqg","pricing_plan_id":"cebpf4jnsgd1na2vs0mg"},{"bike_id":"630f2919-81d1-49d9-bff3-a03696f3982d","system_id":"levelo_inurba_marseille","lat":43.31357,"lon":5.36707,"is_reserved":false,"is_disabled":true,"rental_uris":{"android":"levelo://app?vid=630f2919-81d1-49d9-bff3-a03696f3982d","ios":"levelo://app?vid=630f2919-81d1-49d9-bff3-a03696f3982d"},"vehicle_type_id":"4","last_reported":1734807980,"current_range_meters":0,"station_id":"ce4bgr92rcd13ifvqc6g","pricing_plan_id":"cebpf4jnsgd1na2vs0mg"},{"bike_id":"3219f5f6-c70e-4376-887b-18c781692a6c","system_id":"levelo_inurba_marseille","lat":43.30419,"lon":5.41287,"is_reserved":false,"is_disabled":false,"rental_uris":{"android":"levelo://app?vid=3219f5f6-c70e-4376-887b-18c781692a6c","ios":"levelo://app?vid=3219f5f6-c70e-4376-887b-18c781692a6c"},"vehicle_type_id":"4","last_reported":1734807980,"current_range_meters":20400,"station_id":"ce4bhop2rcd13ifvqh8g","pricing_plan_id":"cebpf4jnsgd1na2vs0mg"},{"bike_id":"1adc4321-9b24-4815-ae37-ed20c94cfdb3","system_id":"levelo_inurba_marseille","lat":43.266869,"lon":5.382646,"is_reserved":false,"is_disabled":false,"rental_uris":{"android":"levelo://app?vid=1adc4321-9b24-4815-ae37-ed20c94cfdb3","ios":"levelo://app?vid=1adc4321-9b24-4815-ae37-ed20c94cfdb3"},"vehicle_type_id":"4","last_reported":1734807980,"current_range_meters":4000,"station_id":"ce4bhg92rcd13ifvqf90","pricing_plan_id":"cebpf4jnsgd1na2vs0mg"},{"bike_id":"87136c2a-3ad7-400e-a72d-2df10e11b167","system_id":"levelo_inurba_marseille","lat":43.2867,"lon":5.3866,"is_reserved":false,"is_disabled":false,"rental_uris":{"android":"levelo://app?vid=87136c2a-3ad7-400e-a72d-2df10e11b167","ios":"levelo://app?vid=87136c2a-3ad7-400e-a72d-2df10e11b167"},"vehicle_type_id":"4","last_reported":1734807980,"current_range_meters":38400,"station_id":"ce4bh492rcd13ifvqdug","pricing_plan_id":"cebpf4jnsgd1na2vs0mg"},{"bike_id":"a5131ac6-050c-4d7a-8118-815ba353ed04","system_id":"levelo_inurba_marseille","lat":43.28031,"lon":5.36943,"is_reserved":false,"is_disabled":false,"rental_uris":{"android":"levelo://app?vid=a5131ac6-050c-4d7a-8118-815ba353ed04","ios":"levelo://app?vid=a5131ac6-050c-4d7a-8118-815ba353ed04"},"vehicle_type_id":"4","last_reported":1734807980,"current_range_meters":22000,"station_id":"ce4bha12rcd13ifvqef0","pricing_plan_id":"cebpf4jnsgd1na2vs0mg"},{"bike_id":"e353d62c-c5ff-4f13-94a9-2d54b9fdbe08","system_id":"levelo_inurba_marseille","lat":43.288463,"lon":5.358413,"is_reserved":false,"is_disabled":true,"rental_uris":{"android":"levelo://app?vid=e353d62c-c5ff-4f13-94a9-2d54b9fdbe08","ios":"levelo://app?vid=e353d62c-c5ff-4f13-94a9-2d54b9fdbe08"},"vehicle_type_id":"4","last_reported":1734807980,"current_range_meters":0,"station_id":"ce4bhb12rcd13ifvqem0","pricing_plan_id":"cebpf4jnsgd1na2vs0mg"},{"bike_id":"88cfebe8-3088-46c4-b250-d1b75923a432","system_id":"levelo_inurba_marseille","lat":43.24661,"lon":5.38154,"is_reserved":false,"is_disabled":false,"rental_uris":{"android":"levelo://app?vid=88cfebe8-3088-46c4-b250-d1b75923a432","ios":"levelo://app?vid=88cfebe8-3088-46c4-b250-d1b75923a432"},"vehicle_type_id":"4","last_reported":1734807980,"current_range_meters":14000,"station_id":"ce4bhih2rcd13ifvqfr0","pricing_plan_id":"cebpf4jnsgd1na2vs0mg"},{"bike_id":"085f67b0-44f2-4732-999e-5d735b9a7008","system_id":"levelo_inurba_marseille","lat":43.27369,"lon":5.36244,"is_reserved":false,"is_disabled":false,"rental_uris":{"android":"levelo://app?vid=085f67b0-44f2-4732-999e-5d735b9a7008","ios":"levelo://app?vid=085f67b0-44f2-4732-999e-5d735b9a7008"},"vehicle_type_id":"4","last_reported":1734807980,"current_range_meters":38800,"station_id":"ce4bhbh2rcd13ifvqeo0","pricing_plan_id":"cebpf4jnsgd1na2vs0mg"},{"bike_id":"826f30f8-361a-44e5-9754-a7633a3dca76","system_id":"levelo_inurba_marseille","lat":43.26201,"lon":5.40278,"is_reserved":false,"is_disabled":false,"rental_uris":{"android":"levelo://app?vid=826f30f8-361a-44e5-9754-a7633a3dca76","ios":"levelo://app?vid=826f30f8-361a-44e5-9754-a7633a3dca76"},"vehicle_type_id":"4","last_reported":1734807980,"current_range_meters":37600,"station_id":"","pricing_plan_id":"cebpf4jnsgd1na2vs0mg"},{"bike_id":"3f1dece2-1c86-4b5c-a62f-e8679c1a811f","system_id":"levelo_inurba_marseille","lat":43.29933,"lon":5.3656,"is_reserved":false,"is_disabled":false,"rental_uris":{"android":"levelo://app?vid=3f1dece2-1c86-4b5c-a62f-e8679c1a811f","ios":"levelo://app?vid=3f1dece2-1c86-4b5c-a62f-e8679c1a811f"},"vehicle_type_id":"4","last_reported":1734807980,"current_range_meters":17600,"station_id":"ce4bgm92rcd13ifvqbr0","pricing_plan_id":"cebpf4jnsgd1na2vs0mg"},{"bike_id":"4f9010ce-04dc-4649-bf24-f8befebb7082","system_id":"levelo_inurba_marseille","lat":43.30135,"lon":5.37426,"is_reserved":false,"is_disabled":false,"rental_uris":{"android":"levelo://app?vid=4f9010ce-04dc-4649-bf24-f8befebb7082","ios":"levelo://app?vid=4f9010ce-04dc-4649-bf24-f8befebb7082"},"vehicle_type_id":"4","last_reported":1734807980,"current_range_meters":30800,"station_id":"ce4bgs92rcd13ifvqcc0","pricing_plan_id":"cebpf4jnsgd1na2vs0mg"},{"bike_id":"6ed68113-b7cc-442e-be24-e85bc2676f54","system_id":"levelo_inurba_marseille","lat":43.24543,"lon":5.39521,"is_reserved":false,"is_disabled":false,"rental_uris":{"android":"levelo://app?vid=6ed68113-b7cc-442e-be24-e85bc2676f54","ios":"levelo://app?vid=6ed68113-b7cc-442e-be24-e85bc2676f54"},"vehicle_type_id":"4","last_reported":1734807980,"current_range_meters":19200,"station_id":"ce4bhlp2rcd13ifvqgjg","pricing_plan_id":"cebpf4jnsgd1na2vs0mg"},{"bike_id":"a37c10b7-1da8-4cc6-b0f3-2a310cde69cc","system_id":"levelo_inurba_marseille","lat":43.29542,"lon":5.39024,"is_reserved":false,"is_disabled":true,"rental_uris":{"android":"levelo://app?vid=a37c10b7-1da8-4cc6-b0f3-2a310cde69cc","ios":"levelo://app?vid=a37c10b7-1da8-4cc6-b0f3-2a310cde69cc"},"vehicle_type_id":"4","last_reported":1734807980,"current_range_meters":30400,"station_id":"ce4bh3p2rcd13ifvqdp0","pricing_plan_id":"cebpf4jnsgd1na2vs0mg"},{"bike_id":"d1853d76-78cf-466d-9558-f0792250c702","system_id":"levelo_inurba_marseille","lat":43.33742,"lon":5.37449,"is_reserved":false,"is_disabled":false,"rental_uris":{"android":"levelo://app?vid=d1853d76-78cf-466d-9558-f0792250c702","ios":"levelo://app?vid=d1853d76-78cf-466d-9558-f0792250c702"},"vehicle_type_id":"4","last_reported":1734807980,"current_range_meters":28000,"station_id":"","pricing_plan_id":"cebpf4jnsgd1na2vs0mg"},{"bike_id":"95546b90-2fc2-4976-99a5-9b6a7d41750a","system_id":"levelo_inurba_marseille","lat":43.24683,"lon":5.38163,"is_reserved":false,"is_disabled":false,"rental_uris":{"android":"levelo://app?vid=95546b90-2fc2-4976-99a5-9b6a7d41750a","ios":"levelo://app?vid=95546b90-2fc2-4976-99a5-9b6a7d41750a"},"vehicle_type_id":"4","last_reported":1734807980,"current_range_meters":18800,"station_id":"ce4bhih2rcd13ifvqfr0","pricing_plan_id":"cebpf4jnsgd1na2vs0mg"},{"bike_id":"352c8945-0c5c-4cd8-888c-2bcb4917d8db","system_id":"levelo_inurba_marseille","lat":43.27987,"lon":5.41653,"is_reserved":false,"is_disabled":false,"rental_uris":{"android":"levelo://app?vid=352c8945-0c5c-4cd8-888c-2bcb4917d8db","ios":"levelo://app?vid=352c8945-0c5c-4cd8-888c-2bcb4917d8db"},"vehicle_type_id":"4","last_reported":1734807980,"current_range_meters":38400,"station_id":"ce4bho12rcd13ifvqh1g","pricing_plan_id":"cebpf4jnsgd1na2vs0mg"},{"bike_id":"8748b527-011a-44e2-b7fd-54ba8b4e0814","system_id":"levelo_inurba_marseille","lat":43.22927,"lon":5.3537,"is_reserved":false,"is_disabled":false,"rental_uris":{"android":"levelo://app?vid=8748b527-011a-44e2-b7fd-54ba8b4e0814","ios":"levelo://app?vid=8748b527-011a-44e2-b7fd-54ba8b4e0814"},"vehicle_type_id":"4","last_reported":1734807980,"current_range_meters":29600,"station_id":"cpo3532slgdg3j2ikp40","pricing_plan_id":"cebpf4jnsgd1na2vs0mg"},{"bike_id":"ed935952-8861-4168-ae4d-3460f4961b29","system_id":"levelo_inurba_marseille","lat":43.289355,"lon":5.366346,"is_reserved":false,"is_disabled":false,"rental_uris":{"android":"levelo://app?vid=ed935952-8861-4168-ae4d-3460f4961b29","ios":"levelo://app?vid=ed935952-8861-4168-ae4d-3460f4961b29"},"vehicle_type_id":"4","last_reported":1734807980,"current_range_meters":5600,"station_id":"ce4bhap2rcd13ifvqek0","pricing_plan_id":"cebpf4jnsgd1na2vs0mg"},{"bike_id":"e24ae762-d4b6-4ffe-a89f-ca47e0480477","system_id":"levelo_inurba_marseille","lat":43.29602,"lon":5.37709,"is_reserved":false,"is_disabled":true,"rental_uris":{"android":"levelo://app?vid=e24ae762-d4b6-4ffe-a89f-ca47e0480477","ios":"levelo://app?vid=e24ae762-d4b6-4ffe-a89f-ca47e0480477"},"vehicle_type_id":"4","last_reported":1734807980,"current_range_meters":25600,"station_id":"ce4bgi92rcd13ifvqb90","pricing_plan_id":"cebpf4jnsgd1na2vs0mg"},{"bike_id":"76f7298d-23db-43ba-97cb-ee0a1bca30fa","system_id":"levelo_inurba_marseille","lat":43.26932,"lon":5.40257,"is_reserved":false,"is_disabled":false,"rental_uris":{"android":"levelo://app?vid=76f7298d-23db-43ba-97cb-ee0a1bca30fa","ios":"levelo://app?vid=76f7298d-23db-43ba-97cb-ee0a1bca30fa"},"vehicle_type_id":"4","last_reported":1734807980,"current_range_meters":38800,"station_id":"cjm6bp8fraef2m0cb0m0","pricing_plan_id":"cebpf4jnsgd1na2vs0mg"},{"bike_id":"43075efb-2a5e-4f81-a0da-7e4ada6a0f12","system_id":"levelo_inurba_marseille","lat":43.29585,"lon":5.37745,"is_reserved":false,"is_disabled":false,"rental_uris":{"android":"levelo://app?vid=43075efb-2a5e-4f81-a0da-7e4ada6a0f12","ios":"levelo://app?vid=43075efb-2a5e-4f81-a0da-7e4ada6a0f12"},"vehicle_type_id":"4","last_reported":1734807980,"current_range_meters":29600,"station_id":"ce4bgi92rcd13ifvqb90","pricing_plan_id":"cebpf4jnsgd1na2vs0mg"},{"bike_id":"a2eba22b-b0ee-4005-9bf3-576bb458d391","system_id":"levelo_inurba_marseille","lat":43.279651,"lon":5.387544,"is_reserved":false,"is_disabled":true,"rental_uris":{"android":"levelo://app?vid=a2eba22b-b0ee-4005-9bf3-576bb458d391","ios":"levelo://app?vid=a2eba22b-b0ee-4005-9bf3-576bb458d391"},"vehicle_type_id":"4","last_reported":1734807980,"current_range_meters":0,"station_id":"","pricing_plan_id":"cebpf4jnsgd1na2vs0mg"},{"bike_id":"f6586cc2-c351-4247-a805-eba1d08274e2","system_id":"levelo_inurba_marseille","lat":43.29168,"lon":5.37177,"is_reserved":false,"is_disabled":false,"rental_uris":{"android":"levelo://app?vid=f6586cc2-c351-4247-a805-eba1d08274e2","ios":"levelo://app?vid=f6586cc2-c351-4247-a805-eba1d08274e2"},"vehicle_type_id":"4","last_reported":1734807980,"current_range_meters":38800,"station_id":"ce4bha92rcd13ifvqeh0","pricing_plan_id":"cebpf4jnsgd1na2vs0mg"},{"bike_id":"82eef777-9ac6-4ef8-9977-6485f65ca446","system_id":"levelo_inurba_marseille","lat":43.31272,"lon":5.40165,"is_reserved":false,"is_disabled":false,"rental_uris":{"android":"levelo://app?vid=82eef777-9ac6-4ef8-9977-6485f65ca446","ios":"levelo://app?vid=82eef777-9ac6-4ef8-9977-6485f65ca446"},"vehicle_type_id":"4","last_reported":1734807980,"current_range_meters":32400,"station_id":"ce4bh092rcd13ifvqd30","pricing_plan_id":"cebpf4jnsgd1na2vs0mg"},