{"last_updated":1728554986,"ttl":60,"version":"2.2","data":{"bikes":[{"bike_id":"ddb9679b-c37e-4bea-beb9-d80ba93eccb3","system_id":"levelo_inurba_marseille","lat":43.30178,"lon":5.36618,"is_reserved":false,"is_disabled":false,"rental_uris":{"android":"levelo://app?vid=ddb9679b-c37e-4bea-beb9-d80ba93eccb3","ios":"levelo://app?vid=ddb9679b-c37e-4bea-beb9-d80ba93eccb3"},"vehicle_type_id":"4","last_reported":1728554986,"current_range_meters":10000,"station_id":"ce4bgrh2rcd13ifvqc8g","pricing_plan_id":"cebpf4jnsgd1na2vs0mg"},{"bike_id":"a844b13d-b510-4a63-99eb-1b32722974a6","system_id":"levelo_inurba_marseille","lat":43.28615,"lon":5.35102,"is_reserved":false,"is_disabled":false,"rental_uris":{"android":"levelo://app?vid=a844b13d-b510-4a63-99eb-1b32722974a6","ios":"levelo://app?vid=a844b13d-b510-4a63-99eb-1b32722974a6"},"vehicle_type_id":"4","last_reported":1728554986,"current_range_meters":38800,"station_id":"ce4bhch2rcd13ifvqeug","pricing_plan_id":"cebpf4jnsgd1na2vs0mg"},{"bike_id":"ee334c57-a588-4370-9bc0-fe8b4a5c7de7","system_id":"levelo_inurba_marseille","lat":43.22931,"lon":5.35376,"is_reserved":false,"is_disabled":false,"rental_uris":{"android":"levelo://app?vid=ee334c57-a588-4370-9bc0-fe8b4a5c7de7","ios":"levelo://app?vid=ee334c57-a588-4370-9bc0-fe8b4a5c7de7"},"vehicle_type_id":"4","last_reported":1728554986,"current_range_meters":32800,"station_id":"cpo3532slgdg3j2ikp40","pricing_plan_id":"cebpf4jnsgd1na2vs0mg"},{"bike_id":"e71333af-3d95-40b1-befa-1ad7c590b6c3","system_id":"levelo_inurba_marseille","lat":43.31225,"lon":5.36866,"is_reserved":false,"is_disabled":false,"rental_uris":{"android":"levelo://app?vid=e71333af-3d95-40b1-befa-1ad7c590b6c3","ios":"levelo://app?vid=e71333af-3d95-40b1-befa-1ad7c590b6c3"},"vehicle_type_id":"4","last_reported":1728554986,"current_range_meters":18000,"station_id":"ce4bgl92rcd13ifvqbq0","pricing_plan_id":"cebpf4jnsgd1na2vs0mg"},{"bike_id":"69e77010-a535-4398-8159-24f48f4c7d15","system_id":"levelo_inurba_marseille","lat":43.23065,"lon":5.35489,"is_reserved":false,"is_disabled":false,"rental_uris":{"android":"levelo://app?vid=69e77010-a535-4398-8159-24f48f4c7d15","ios":"levelo://app?vid=69e77010-a535-4398-8159-24f48f4c7d15"},"vehicle_type_id":"4","last_reported":1728554986,"current_range_meters":3600,"station_id":"cpo3342slgdg3j2ifvpg","pricing_plan_id":"cebpf4jnsgd1na2vs0mg"},{"bike_id":"be2526ad-2142-4c6e-a006-66ddcec85d70","system_id":"levelo_inurba_marseille","lat":43.33618,"lon":5.41027,"is_reserved":false,"is_disabled":false,"rental_uris":{"android":"levelo://app?vid=be2526ad-2142-4c6e-a006-66ddcec85d70","ios":"levelo://app?vid=be2526ad-2142-4c6e-a006-66ddcec85d70"},"vehicle_type_id":"4","last_reported":1728554986,"current_range_meters":16800,"station_id":"ce4bhqh2rcd13ifvqhmg","pricing_plan_id":"cebpf4jnsgd1na2vs0mg"},{"bike_id":"90c97c18-8e5b-4867-afd5-a6e882e951f8","system_id":"levelo_inurba_marseille","lat":43.30538,"lon":5.36531,"is_reserved":false,"is_disabled":false,"rental_uris":{"android":"levelo://app?vid=90c97c18-8e5b-4867-afd5-a6e882e951f8","ios":"levelo://app?vid=90c97c18-8e5b-4867-afd5-a6e882e951f8"},"vehicle_type_id":"4","last_reported":1728554986,"current_range_meters":22800,"station_id":"ce4bgs12rcd13ifvqcag","pricing_plan_id":"cebpf4jnsgd1na2vs0mg"},{"bike_id":"fef204cd-3f7b-4866-b6e5-697771a3d001","system_id":"levelo_inurba_marseille","lat":43.30909,"lon":5.36857,"is_reserved":false,"is_disabled":false,"rental_uris":{"android":"levelo://app?vid=fef204cd-3f7b-4866-b6e5-697771a3d001","ios":"levelo://app?vid=fef204cd-3f7b-4866-b6e5-697771a3d001"},"vehicle_type_id":"4","last_reported":1728554986,"current_range_meters":39200,"station_id":"ce4bgn92rcd13ifvqbvg","pricing_plan_id":"cebpf4jnsgd1na2vs0mg"},{"bike_id":"dedc9363-75cf-4f92-b1bc-834176e4e8a1","system_id":"levelo_inurba_marseille","lat":43.304291,"lon":5.397453,"is_reserved":false,"is_disabled":false,"rental_uris":{"android":"levelo://app?vid=dedc9363-75cf-4f92-b1bc-834176e4e8a1","ios":"levelo://app?vid=dedc9363-75cf-4f92-b1bc-834176e4e8a1"},"vehicle_type_id":"4","last_reported":1728554986,"current_range_meters":32400,"station_id":"ce4bhi12rcd13ifvqfo0","pricing_plan_id":"cebpf4jnsgd1na2vs0mg"},{"bike_id":"c450f177-f1a9-4222-a407-0cd6acaa3389","system_id":"levelo_inurba_marseille","lat":43.2621,"lon":5.37447,"is_reserved":false,"is_disabled":false,"rental_uris":{"android":"levelo://app?vid=c450f177-f1a9-4222-a407-0cd6acaa3389","ios":"levelo://app?vid=c450f177-f1a9-4222-a407-0cd6acaa3389"},"vehicle_type_id":"4","last_reported":1728554986,"current_range_meters":19600,"station_id":"ce4bhgp2rcd13ifvqfc0","pricing_plan_id":"cebpf4jnsgd1na2vs0mg"},{"bike_id":"1859e0b5-fc42-416c-b379-db45a7a7efe4","system_id":"levelo_inurba_marseille","lat":43.3046,"lon":5.37888,"is_reserved":false,"is_disabled":false,"rental_uris":{"android":"levelo://app?vid=1859e0b5-fc42-416c-b379-db45a7a7efe4","ios":"levelo://app?vid=1859e0b5-fc42-416c-b379-db45a7a7efe4"},"vehicle_type_id":"4","last_reported":1728554986,"current_range_meters":29600,"station_id":"","pricing_plan_id":"cebpf4jnsgd1na2vs0mg"},{"bike_id":"cc48e78b-0de2-48fc-bd8c-835ef145dac9","system_id":"levelo_inurba_marseille","lat":43.28154,"lon":5.42652,"is_reserved":false,"is_disabled":false,"rental_uris":{"android":"levelo://app?vid=cc48e78b-0de2-48fc-bd8c-835ef145dac9","ios":"levelo://app?vid=cc48e78b-0de2-48fc-bd8c-835ef145dac9"},"vehicle_type_id":"4","last_reported":1728554986,"current_range_meters":26000,"station_id":"ce4bhnh2rcd13ifvqgug","pricing_plan_id":"cebpf4jnsgd1na2vs0mg"},{"bike_id":"b6238d41-ee15-425a-90f4-5765634a5d7f","system_id":"levelo_inurba_marseille","lat":43.23151,"lon":5.43711,"is_reserved":false,"is_disabled":false,"rental_uris":{"android":"levelo://app?vid=b6238d41-ee15-425a-90f4-5765634a5d7f","ios":"levelo://app?vid=b6238d41-ee15-425a-90f4-5765634a5d7f"},"vehicle_type_id":"4","last_reported":1728554986,"current_range_meters":39200,"station_id":"ce4bhmp2rcd13ifvqgog","pricing_plan_id":"cebpf4jnsgd1na2vs0mg"},{"bike_id":"91f9ac4e-26b4-4a3e-8d1b-584047d9b6a3","system_id":"levelo_inurba_marseille","lat":43.23145,"lon":5.43728,"is_reserved":false,"is_disabled":false,"rental_uris":{"android":"levelo://app?vid=91f9ac4e-26b4-4a3e-8d1b-584047d9b6a3","ios":"levelo://app?vid=91f9ac4e-26b4-4a3e-8d1b-584047d9b6a3"},"vehicle_type_id":"4","last_reported":1728554986,"current_range_meters":19600,"station_id":"ce4bhmp2rcd13ifvqgog","pricing_plan_id":"cebpf4jnsgd1na2vs0mg"},{"bike_id":"296d1880-4a03-4d23-a9cc-51df04a4af16","system_id":"levelo_inurba_marseille","lat":43.26197,"lon":5.37448,"is_reserved":false,"is_disabled":false,"rental_uris":{"android":"levelo://app?vid=296d1880-4a03-4d23-a9cc-51df04a4af16","ios":"levelo://app?vid=296d1880-4a03-4d23-a9cc-51df04a4af16"},"vehicle_type_id":"4","last_reported":1728554986,"current_range_meters":37600,"station_id":"ce4bhgp2rcd13ifvqfc0","pricing_plan_id":"cebpf4jnsgd1na2vs0mg"},{"bike_id":"dc13bd5e-086b-4047-ad25-fb195880a04a","system_id":"levelo_inurba_marseille","lat":43.24999,"lon":5.38925,"is_reserved":false,"is_disabled":false,"rental_uris":{"android":"levelo://app?vid=dc13bd5e-086b-4047-ad25-fb195880a04a","ios":"levelo://app?vid=dc13bd5e-086b-4047-ad25-fb195880a04a"},"vehicle_type_id":"4","last_reported":1728554986,"current_range_meters":39200,"station_id":"ce4bhgp2rcd13ifvqfd0","pricing_plan_id":"cebpf4jnsgd1na2vs0mg"},{"bike_id":"729d92a6-b5d4-421f-82bd-c3e31fbc602e","system_id":"levelo_inurba_marseille","lat":43.23146,"lon":5.43714,"is_reserved":false,"is_disabled":false,"rental_uris":{"android":"levelo://app?vid=729d92a6-b5d4-421f-82bd-c3e31fbc602e","ios":"levelo://app?vid=729d92a6-b5d4-421f-82bd-c3e31fbc602e"},"vehicle_type_id":"4","last_reported":1728554986,"current_range_meters":39200,"station_id":"ce4bhmp2rcd13ifvqgog","pricing_plan_id":"cebpf4jnsgd1na2vs0mg"},{"bike_id":"6cb2fd54-0aca-4f7d-aadb-bc057dc4fb59","system_id":"levelo_inurba_marseille","lat":43.23063,"lon":5.35492,"is_reserved":false,"is_disabled":false,"rental_uris":{"android":"levelo://app?vid=6cb2fd54-0aca-4f7d-aadb-bc057dc4fb59","ios":"levelo://app?vid=6cb2fd54-0aca-4f7d-aadb-bc057dc4fb59"},"vehicle_type_id":"4","last_reported":1728554986,"current_range_meters":34000,"station_id":"cpo3342slgdg3j2ifvpg","pricing_plan_id":"cebpf4jnsgd1na2vs0mg"},{"bike_id":"839e4633-1956-46e7-9a63-01fb1e088bd0","system_id":"levelo_inurba_marseille","lat":43.31872,"lon":5.40741,"is_reserved":false,"is_disabled":false,"rental_uris":{"android":"levelo://app?vid=839e4633-1956-46e7-9a63-01fb1e088bd0","ios":"levelo://app?vid=839e4633-1956-46e7-9a63-01fb1e088bd0"},"vehicle_type_id":"4","last_reported":1728554986,"current_range_meters":29600,"station_id":"ce4bhq12rcd13ifvqhig","pricing_plan_id":"cebpf4jnsgd1na2vs0mg"},{"bike_id":"886aa239-0ce6-4cc7-a1be-709bc947b872","system_id":"levelo_inurba_marseille","lat":43.28151,"lon":5.42652,"is_reserved":false,"is_disabled":false,"rental_uris":{"android":"levelo://app?vid=886aa239-0ce6-4cc7-a1be-709bc947b872","ios":"levelo://app?vid=886aa239-0ce6-4cc7-a1be-709bc947b872"},"vehicle_type_id":"4","last_reported":1728554986,"current_range_meters":7200,"station_id":"ce4bhnh2rcd13ifvqgug","pricing_plan_id":"cebpf4jnsgd1na2vs0mg"},{"bike_id":"6ac01319-5f01-43b5-b52d-79391e18b456","system_id":"levelo_inurba_marseille","lat":43.24171,"lon":5.39725,"is_reserved":false,"is_disabled":false,"rental_uris":{"android":"levelo://app?vid=6ac01319-5f01-43b5-b52d-79391e18b456","ios":"levelo://app?vid=6ac01319-5f01-43b5-b52d-79391e18b456"},"vehicle_type_id":"4","last_reported":1728554986,"current_range_meters":36800,"station_id":"ce4bhn12rcd13ifvqgpg","pricing_plan_id":"cebpf4jnsgd1na2vs0mg"},{"bike_id":"83bfa107-ac7b-48c6-8442-493896dc680b","system_id":"levelo_inurba_marseille","lat":43.30629,"lon":5.36666,"is_reserved":false,"is_disabled":false,"rental_uris":{"android":"levelo://app?vid=83bfa107-ac7b-48c6-8442-493896dc680b","ios":"levelo://app?vid=83bfa107-ac7b-48c6-8442-493896dc680b"},"vehicle_type_id":"4","last_reported":1728554986,"current_range_meters":38000,"station_id":"","pricing_plan_id":"cebpf4jnsgd1na2vs0mg"},{"bike_id":"96cb08de-30b2-404b-a5df-2565e238372c","system_id":"levelo_inurba_marseille","lat":43.24082,"lon":5.37749,"is_reserved":false,"is_disabled":false,"rental_uris":{"android":"levelo://app?vid=96cb08de-30b2-404b-a5df-2565e238372c","ios":"levelo://app?vid=96cb08de-30b2-404b-a5df-2565e238372c"},"vehicle_type_id":"4","last_reported":1728554986,"current_range_meters":28400,"station_id":"ce4bhnp2rcd13ifvqgvg","pricing_plan_id":"cebpf4jnsgd1na2vs0mg"},{"bike_id":"aced1d41-b218-4a90-9936-8ea7e6b72e24","system_id":"levelo_inurba_marseille","lat":43.31358,"lon":5.36714,"is_reserved":false,"is_disabled":false,"rental_uris":{"android":"levelo://app?vid=aced1d41-b218-4a90-9936-8ea7e6b72e24","ios":"levelo://app?vid=aced1d41-b218-4a90-9936-8ea7e6b72e24"},"vehicle_type_id":"4","last_reported":1728554986,"current_range_meters":27600,"station_id":"ce4bgr92rcd13ifvqc6g","pricing_plan_id":"cebpf4jnsgd1na2vs0mg"},{"bike_id":"f65a3e1c-4809-4733-97a4-087e18e792c9","system_id":"levelo_inurba_marseille","lat":43.26801,"lon":5.40272,"is_reserved":false,"is_disabled":false,"rental_uris":{"android":"levelo://app?vid=f65a3e1c-4809-4733-97a4-087e18e792c9","ios":"levelo://app?vid=f65a3e1c-4809-4733-97a4-087e18e792c9"},"vehicle_type_id":"4","last_reported":1728554986,"current_range_meters":17200,"station_id":"ce501612rcd8frsf0b60","pricing_plan_id":"cebpf4jnsgd1na2vs0mg"},{"bike_id":"b26e982e-c431-46b8-9381-a6ec048e3b0e","system_id":"levelo_inurba_marseille","lat":43.24661,"lon":5.3816,"is_reserved":false,"is_disabled":false,"rental_uris":{"android":"levelo://app?vid=b26e982e-c431-46b8-9381-a6ec048e3b0e","ios":"levelo://app?vid=b26e982e-c431-46b8-9381-a6ec048e3b0e"},"vehicle_type_id":"4","last_reported":1728554986,"current_range_meters":32000,"station_id":"ce4bhih2rcd13ifvqfr0","pricing_plan_id":"cebpf4jnsgd1na2vs0mg"},{"bike_id":"4ddd974a-014e-4da6-9be0-cb62fde16d6d","system_id":"levelo_inurba_marseille","lat":43.29845,"lon":5.36281,"is_reserved":false,"is_disabled":false,"rental_uris":{"android":"levelo://app?vid=4ddd974a-014e-4da6-9be0-cb62fde16d6d","ios":"levelo://app?vid=4ddd974a-014e-4da6-9be0-cb62fde16d6d"},"vehicle_type_id":"4","last_reported":1728554986,"current_range_meters":19600,"station_id":"ce4bgpp2rcd13ifvqc3g","pricing_plan_id":"cebpf4jnsgd1na2vs0mg"},{"bike_id":"e872fc30-3c57-4a83-b46e-c9748d4c279a","system_id":"levelo_inurba_marseille","lat":43.33722,"lon":5.39199,"is_reserved":false,"is_disabled":false,"rental_uris":{"android":"levelo://app?vid=e872fc30-3c57-4a83-b46e-c9748d4c279a","ios":"levelo://app?vid=e872fc30-3c57-4a83-b46e-c9748d4c279a"},"vehicle_type_id":"4","last_reported":1728554986,"current_range_meters":26800,"station_id":"ce4bhr92rcd13ifvqhsg","pricing_plan_id":"cebpf4jnsgd1na2vs0mg"},{"bike_id":"b8f48256-1e92-46c4-b43e-9b7c46245edd","system_id":"levelo_inurba_marseille","lat":43.26208,"lon":5.37447,"is_reserved":false,"is_disabled":false,"rental_uris":{"android":"levelo://app?vid=b8f48256-1e92-46c4-b43e-9b7c46245edd","ios":"levelo://app?vid=b8f48256-1e92-46c4-b43e-9b7c46245edd"},"vehicle_type_id":"4","last_reported":1728554986,"current_range_meters":26000,"station_id":"ce4bhgp2rcd13ifvqfc0","pricing_plan_id":"cebpf4jnsgd1na2vs0mg"},{"bike_id":"af28d066-a466-4ed7-bf62-08efa15ec1ce","system_id":"levelo_inurba_marseille","lat":43.24175,"lon":5.39714,"is_reserved":false,"is_disabled":false,"rental_uris":{"android":"levelo://app?vid=af28d066-a466-4ed7-bf62-08efa15ec1ce","ios":"levelo://app?vid=af28d066-a466-4ed7-bf62-08efa15ec1ce"},"vehicle_type_id":"4","last_reported":1728554986,"current_range_meters":36800,"station_id":"ce4bhn12rcd13ifvqgpg","pricing_plan_id":"cebpf4jnsgd1na2vs0mg"},{"bike_id":"608cac91-46ad-44b9-b9d0-f2c3d0b6ae87","system_id":"levelo_inurba_marseille","lat":43.26062,"lon":5.39396,"is_reserved":false,"is_disabled":false,"rental_uris":{"android":"levelo://app?vid=608cac91-46ad-44b9-b9d0-f2c3d0b6ae87","ios":"levelo://app?vid=608cac91-46ad-44b9-b9d0-f2c3d0b6ae87"},"vehicle_type_id":"4","last_reported":1728554986,"current_range_meters":34000,"station_id":"","pricing_plan_id":"cebpf4jnsgd1na2vs0mg"},{"bike_id":"7c830a7a-88a3-47c3-beae-d7986b2e3594","system_id":"levelo_inurba_marseille","lat":43.337576,"lon":5.374671,"is_reserved":false,"is_disabled":false,"rental_uris":{"android":"levelo://app?vid=7c830a7a-88a3-47c3-beae-d7986b2e3594","ios":"levelo://app?vid=7c830a7a-88a3-47c3-beae-d7986b2e3594"},"vehicle_type_id":"4","last_reported":1728554986,"current_range_meters":9200,"station_id":"ce4rr2p2rcd13i802rgg","pricing_plan_id":"cebpf4jnsgd1na2vs0mg"},{"bike_id":"1724a986-206e-44c4-acc6-99c3f365633c","system_id":"levelo_inurba_marseille","lat":43.23197,"lon":5.35562,"is_reserved":false,"is_disabled":false,"rental_uris":{"android":"levelo://app?vid=1724a986-206e-44c4-acc6-99c3f365633c","ios":"levelo://app?vid=1724a986-206e-44c4-acc6-99c3f365633c"},"vehicle_type_id":"4","last_reported":1728554986,"current_range_meters":19200,"station_id":"ce4bhu92rcd13ifvqi70","pricing_plan_id":"cebpf4jnsgd1na2vs0mg"},{"bike_id":"44af38fa-04a8-4eb9-98bf-fd96e42d4d2b","system_id":"levelo_inurba_marseille","lat":43.25118,"lon":5.40317,"is_reserved":false,"is_disabled":false,"rental_uris":{"android":"levelo://app?vid=44af38fa-04a8-4eb9-98bf-fd96e42d4d2b","ios":"levelo://app?vid=44af38fa-04a8-4eb9-98bf-fd96e42d4d2b"},"vehicle_type_id":"4","last_reported":1728554986,"current_range_meters":28000,"station_id":"ce4bhlh2rcd13ifvqgig","pricing_plan_id":"cebpf4jnsgd1na2vs0mg"},{"bike_id":"c9f14e7e-cd41-4306-8cc0-0536ea78d422","system_id":"levelo_inurba_marseille","lat":43.33748,"lon":5.37446,"is_reserved":false,"is_disabled":false,"rental_uris":{"android":"levelo://app?vid=c9f14e7e-cd41-4306-8cc0-0536ea78d422","ios":"levelo://app?vid=c9f14e7e-cd41-4306-8cc0-0536ea78d422"},"vehicle_type_id":"4","last_reported":1728554986,"current_range_meters":36400,"station_id":"","pricing_plan_id":"cebpf4jnsgd1na2vs0mg"},{"bike_id":"9fb561af-1165-43b4-ba74-81f5923c4f1c","system_id":"levelo_inurba_marseille","lat":43.33608,"lon":5.41027,"is_reserved":false,"is_disabled":false,"rental_uris":{"android":"levelo://app?vid=9fb561af-1165-43b4-ba74-81f5923c4f1c","ios":"levelo://app?vid=9fb561af-1165-43b4-ba74-81f5923c4f1c"},"vehicle_type_id":"4","last_reported":1728554986,"current_range_meters":38800,"station_id":"ce4bhqh2rcd13ifvqhmg","pricing_plan_id":"cebpf4jnsgd1na2vs0mg"},{"bike_id":"b2a0ba9c-2654-483d-8e77-9d4e87bb1868","system_id":"levelo_inurba_marseille","lat":43.27824,"lon":5.39225,"is_reserved":false,"is_disabled":false,"rental_uris":{"android":"levelo://app?vid=b2a0ba9c-2654-483d-8e77-9d4e87bb1868","ios":"levelo://app?vid=b2a0ba9c-2654-483d-8e77-9d4e87bb1868"},"vehicle_type_id":"4","last_reported":1728554986,"current_range_meters":13600,"station_id":"ce4bhjp2rcd13ifvqga0","pricing_plan_id":"cebpf4jnsgd1na2vs0mg"},{"bike_id":"3f55eb27-95f4-459c-9917-bb599846f772","system_id":"levelo_inurba_marseille","lat":43.30425,"lon":5.3974,"is_reserved":false,"is_disabled":false,"rental_uris":{"android":"levelo://app?vid=3f55eb27-95f4-459c-9917-bb599846f772","ios":"levelo://app?vid=3f55eb27-95f4-459c-9917-bb599846f772"},"vehicle_type_id":"4","last_reported":1728554986,"current_range_meters":28000,"station_id":"ce4bh092rcd13ifvqd20","pricing_plan_id":"cebpf4jnsgd1na2vs0mg"},{"bike_id":"6df4e8cb-a645-46ac-a66f-af665683483f","system_id":"levelo_inurba_marseille","lat":43.26802,"lon":5.40271,"is_reserved":false,"is_disabled":false,"rental_uris":{"android":"levelo://app?vid=6df4e8cb-a645-46ac-a66f-af665683483f","ios":"levelo://app?vid=6df4e8cb-a645-46ac-a66f-af665683483f"},"vehicle_type_id":"4","last_reported":1728554986,"current_range_meters":18000,"station_id":"ce501612rcd8frsf0b60","pricing_plan_id":"cebpf4jnsgd1na2vs0mg"},{"bike_id":"e29c53bb-67dd-42ab-a381-9fddad52da22","system_id":"levelo_inurba_marseille","lat":43.30954,"lon":5.39028,"is_reserved":false,"is_disabled":false,"rental_uris":{"android":"levelo://app?vid=e29c53bb-67dd-42ab-a381-9fddad52da22","ios":"levelo://app?vid=e29c53bb-67dd-42ab-a381-9fddad52da22"},"vehicle_type_id":"4","last_reported":1728554986,"current_range_meters":11600,"station_id":"ce4bgup2rcd13ifvqco0","pricing_plan_id":"cebpf4jnsgd1na2vs0mg"},{"bike_id":"f91047b0-7ed1-4200-b8c4-e8362d04039b","system_id":"levelo_inurba_marseille","lat":43.296782,"lon":5.372934,"is_reserved":false,"is_disabled":false,"rental_uris":{"android":"levelo://app?vid=f91047b0-7ed1-4200-b8c4-e8362d04039b","ios":"levelo://app?vid=f91047b0-7ed1-4200-b8c4-e8362d04039b"},"vehicle_type_id":"4","last_reported":1728554986,"current_range_meters":33200,"station_id":"ce4bgk12rcd13ifvqbj0","pricing_plan_id":"cebpf4jnsgd1na2vs0mg"},{"bike_id":"a283cbf4-3a4c-46de-ac3d-4d7c731b36e3","system_id":"levelo_inurba_marseille","lat":43.33607,"lon":5.41031,"is_reserved":false,"is_disabled":false,"rental_uris":{"android":"levelo://app?vid=a283cbf4-3a4c-46de-ac3d-4d7c731b36e3","ios":"levelo://app?vid=a283cbf4-3a4c-46de-ac3d-4d7c731b36e3"},"vehicle_type_id":"4","last_reported":1728554986,"current_range_meters":38800,"station_id":"ce4bhqh2rcd13ifvqhmg","pricing_plan_id":"cebpf4jnsgd1na2vs0mg"},{"bike_id":"c3200e60-97cc-480a-8414-5ba0ea1fd823","system_id":"levelo_inurba_marseille","lat":43.33768,"lon":5.37469,"is_reserved":false,"is_disabled":false,"rental_uris":{"android":"levelo://app?vid=c3200e60-97cc-480a-8414-5ba0ea1fd823","ios":"levelo://app?vid=c3200e60-97cc-480a-8414-5ba0ea1fd823"},"vehicle_type_id":"4","last_reported":1728554986,"current_range_meters":8800,"station_id":"ce4rr2p2rcd13i802rgg","pricing_plan_id":"cebpf4jnsgd1na2vs0mg"},{"bike_id":"47599fab-79da-461f-89fd-43d1d10b8a6d","system_id":"levelo_inurba_marseille","lat":43.23156,"lon":5.4371,"is_reserved":false,"is_disabled":false,"rental_uris":{"android":"levelo://app?vid=47599fab-79da-461f-89fd-43d1d10b8a6d","ios":"levelo://app?vid=47599fab-79da-461f-89fd-43d1d10b8a6d"},"vehicle_type_id":"4","last_reported":1728554986,"current_range_meters":39200,"station_id":"ce4bhmp2rcd13ifvqgog","pricing_plan_id":"cebpf4jnsgd1na2vs0mg"},{"bike_id":"cffce793-1dbe-4d0b-8799-7d818b935ff1","system_id":"levelo_inurba_marseille","lat":43.29583,"lon":5.36737,"is_reserved":false,"is_disabled":false,"rental_uris":{"android":"levelo://app?vid=cffce793-1dbe-4d0b-8799-7d818b935ff1","ios":"levelo://app?vid=cffce793-1dbe-4d0b-8799-7d818b935ff1"},"vehicle_type_id":"4","last_reported":1728554986,"current_range_meters":27600,"station_id":"ce4bgph2rcd13ifvqc2g","pricing_plan_id":"cebpf4jnsgd1na2vs0mg"},{"bike_id":"c2709d8c-182c-4c66-9678-32143d413767","system_id":"levelo_inurba_marseille","lat":43.22936,"lon":5.35378,"is_reserved":false,"is_disabled":false,"rental_uris":{"android":"levelo://app?vid=c2709d8c-182c-4c66-9678-32143d413767","ios":"levelo://app?vid=c2709d8c-182c-4c66-9678-32143d413767"},"vehicle_type_id":"4","last_reported":1728554986,"current_range_meters":36800,"station_id":"cpo3532slgdg3j2ikp40","pricing_plan_id":"cebpf4jnsgd1na2vs0mg"},{"bike_id":"45038d9b-f78b-4a02-bbf3-50729529ab4b","system_id":"levelo_inurba_marseille","lat":43.24804,"lon":5.37455,"is_reserved":false,"is_disabled":false,"rental_uris":{"android":"levelo://app?vid=45038d9b-f78b-4a02-bbf3-50729529ab4b","ios":"levelo://app?vid=45038d9b-f78b-4a02-bbf3-50729529ab4b"},"vehicle_type_id":"4","last_reported":1728554986,"current_range_meters":36800,"station_id":"ce4bhgh2rcd13ifvqfb0","pricing_plan_id":"cebpf4jnsgd1na2vs0mg"},{"bike_id":"c909d09a-ba9d-494d-99ae-367ad5ef8d1c","system_id":"levelo_inurba_marseille","lat":43.30549,"lon":5.36693,"is_reserved":false,"is_disabled":false,"rental_uris":{"android":"levelo://app?vid=c909d09a-ba9d-494d-99ae-367ad5ef8d1c","ios":"levelo://app?vid=c909d09a-ba9d-494d-99ae-367ad5ef8d1c"},"vehicle_type_id":"4","last_reported":1728554986,"current_range_meters":30000,"station_id":"ce4bgrp2rcd13ifvqc9g","pricing_plan_id":"cebpf4jnsgd1na2vs0mg"},{"bike_id":"58ac73f1-5f8c-4d04-912b-99ec51dd1adb","system_id":"levelo_inurba_marseille","lat":43.24664,"lon":5.38158,"is_reserved":false,"is_disabled":false,"rental_uris":{"android":"levelo://app?vid=58ac73f1-5f8c-4d04-912b-99ec51dd1adb","ios":"levelo://app?vid=58ac73f1-5f8c-4d04-912b-99ec51dd1adb"},"vehicle_type_id":"4","last_reported":1728554986,"current_range_meters":27600,"station_id":"ce4bhih2rcd13ifvqfr0","pricing_plan_id":"cebpf4jnsgd1na2vs0mg"},{"bike_id":"55c1e6d5-bf74-4d5a-aada-c3a3daf3d139","system_id":"levelo_inurba_marseille","lat":43.26682,"lon":5.3827,"is_reserved":false,"is_disabled":false,"rental_uris":{"android":"levelo://app?vid=55c1e6d5-bf74-4d5a-aada-c3a3daf3d139","ios":"levelo://app?vid=55c1e6d5-bf74-4d5a-aada-c3a3daf3d139"},"vehicle_type_id":"4","last_reported":1728554986,"current_range_meters":10800,"station_id":"ce4bhg92rcd13ifvqf90","pricing_plan_id":"cebpf4jnsgd1na2vs0mg"},{"bike_id":"469eda9c-277c-40dc-ae18-2c95f36d8deb","system_id":"levelo_inurba_marseille","lat":43.27054,"lon":5.4025,"is_reserved":false,"is_disabled":false,"rental_uris":{"android":"levelo://app?vid=469eda9c-277c-40dc-ae18-2c95f36d8deb","ios":"levelo://app?vid=469eda9c-277c-40dc-ae18-2c95f36d8deb"},"vehicle_type_id":"4","last_reported":1728554986,"current_range_meters":28800,"station_id":"ce4bhk92rcd13ifvqgc0","pricing_plan_id":"cebpf4jnsgd1na2vs0mg"},{"bike_id":"fb92f884-263b-49e5-beb4-714f1bc3984f","system_id":"levelo_inurba_marseille","lat":43.27662,"lon":5.3891,"is_reserved":false,"is_disabled":false,"rental_uris":{"android":"levelo://app?vid=fb92f884-263b-49e5-beb4-714f1bc3984f","ios":"levelo://app?vid=fb92f884-263b-49e5-beb4-714f1bc3984f"},"vehicle_type_id":"4","last_reported":1728554986,"current_range_meters":14800,"station_id":"ce4bhi12rcd13ifvqfo0","pricing_plan_id":"cebpf4jnsgd1na2vs0mg"},{"bike_id":"582885cb-aef9-4a8d-9e35-e0aceb81c79f","system_id":"levelo_inurba_marseille","lat":43.30162,"lon":5.38086,"is_reserved":false,"is_disabled":false,"rental_uris":{"android":"levelo://app?vid=582885cb-aef9-4a8d-9e35-e0aceb81c79f","ios":"levelo://app?vid=582885cb-aef9-4a8d-9e35-e0aceb81c79f"},"vehicle_type_id":"4","last_reported":1728554986,"current_range_meters":38800,"station_id":"ce4bgjp2rcd13ifvqbh0","pricing_plan_id":"cebpf4jnsgd1na2vs0mg"},{"bike_id":"f4d16d74-9f5d-4324-bee1-48b07e6d7978","system_id":"levelo_inurba_marseille","lat":43.32654,"lon":5.40998,"is_reserved":false,"is_disabled":false,"rental_uris":{"android":"levelo://app?vid=f4d16d74-9f5d-4324-bee1-48b07e6d7978","ios":"levelo://app?vid=f4d16d74-9f5d-4324-bee1-48b07e6d7978"},"vehicle_type_id":"4","last_reported":1728554986,"current_range_meters":37600,"station_id":"ce4bhpp2rcd13ifvqhgg","pricing_plan_id":"cebpf4jnsgd1na2vs0mg"},{"bike_id":"4918291f-19ab-4f46-a135-d61fa7a26c4f","system_id":"levelo_inurba_marseille","lat":43.32482,"lon":5.36563,"is_reserved":false,"is_disabled":false,"rental_uris":{"android":"levelo://app?vid=4918291f-19ab-4f46-a135-d61fa7a26c4f","ios":"levelo://app?vid=4918291f-19ab-4f46-a135-d61fa7a26c4f"},"vehicle_type_id":"4","last_reported":1728554986,"current_range_meters":28800,"station_id":"ce4bhs12rcd13ifvqhvg","pricing_plan_id":"cebpf4jnsgd1na2vs0mg"},{"bike_id":"191f894c-5ec4-4bb3-adfc-c821a49bd142","system_id":"levelo_inurba_marseille","lat":43.3248,"lon":5.36562,"is_reserved":false,"is_disabled":false,"rental_uris":{"android":"levelo://app?vid=191f894c-5ec4-4bb3-adfc-c821a49bd142","ios":"levelo://app?vid=191f894c-5ec4-4bb3-adfc-c821a49bd142"},"vehicle_type_id":"4","last_reported":1728554986,"current_range_meters":30800,"station_id":"ce4bhs12rcd13ifvqhvg","pricing_plan_id":"cebpf4jnsgd1na2vs0mg"},{"bike_id":"f92a9fb8-9f73-4cf9-bc9b-2bdf5b520248","system_id":"levelo_inurba_marseille","lat":43.32534,"lon":5.4146,"is_reserved":false,"is_disabled":false,"rental_uris":{"android":"levelo://app?vid=f92a9fb8-9f73-4cf9-bc9b-2bdf5b520248","ios":"levelo://app?vid=f92a9fb8-9f73-4cf9-bc9b-2bdf5b520248"},"vehicle_type_id":"4","last_reported":1728554986,"current_range_meters":38800,"station_id":"ce4bhq12rcd13ifvqhhg","pricing_plan_id":"cebpf4jnsgd1na2vs0mg"},{"bike_id":"4c57c060-1d66-4150-a400-d403f0d4484f","system_id":"levelo_inurba_marseille","lat":43.32658,"lon":5.4099,"is_reserved":false,"is_disabled":false,"rental_uris":{"android":"levelo://app?vid=4c57c060-1d66-4150-a400-d403f0d4484f","ios":"levelo://app?vid=4c57c060-1d66-4150-a400-d403f0d4484f"},"vehicle_type_id":"4","last_reported":1728554986,"current_range_meters":4400,"station_id":"ce4bhpp2rcd13ifvqhgg","pricing_plan_id":"cebpf4jnsgd1na2vs0mg"},{"bike_id":"252fdafd-d8bd-4445-933f-8c7cfafc9fac","system_id":"levelo_inurba_marseille","lat":43.24806,"lon":5.37456,"is_reserved":false,"is_disabled":false,"rental_uris":{"android":"levelo://app?vid=252fdafd-d8bd-4445-933f-8c7cfafc9fac","ios":"levelo://app?vid=252fdafd-d8bd-4445-933f-8c7cfafc9fac"},"vehicle_type_id":"4","last_reported":1728554986,"current_range_meters":38000,"station_id":"ce4bhgh2rcd13ifvqfb0","pricing_plan_id":"cebpf4jnsgd1na2vs0mg"},{"bike_id":"fc7c8d91-b1a0-4ad9-a4df-f62029c13000","system_id":"levelo_inurba_marseille","lat":43.31215,"lon":5.36874,"is_reserved":false,"is_disabled":false,"rental_uris":{"android":"levelo://app?vid=fc7c8d91-b1a0-4ad9-a4df-f62029c13000","ios":"levelo://app?vid=fc7c8d91-b1a0-4ad9-a4df-f62029c13000"},"vehicle_type_id":"4","last_reported":1728554986,"current_range_meters":38400,"station_id":"ce4bgl92rcd13ifvqbq0","pricing_plan_id":"cebpf4jnsgd1na2vs0mg"},{"bike_id":"e24b806e-8c42-4fed-ad44-5c32f30596ca","system_id":"levelo_inurba_marseille","lat":43.33754,"lon":5.37448,"is_reserved":false,"is_disabled":false,"rental_uris":{"android":"levelo://app?vid=e24b806e-8c42-4fed-ad44-5c32f30596ca","ios":"levelo://app?vid=e24b806e-8c42-4fed-ad44-5c32f30596ca"},"vehicle_type_id":"4","last_reported":1728554986,"current_range_meters":30000,"station_id":"","pricing_plan_id":"cebpf4jnsgd1na2vs0mg"},{"bike_id":"0877ae1d-c084-4d6e-a944-3f6b0d3c7f36","system_id":"levelo_inurba_marseille","lat":43.269531,"lon":5.386325,"is_reserved":false,"is_disabled":false,"rental_uris":{"android":"levelo://app?vid=0877ae1d-c084-4d6e-a944-3f6b0d3c7f36","ios":"levelo://app?vid=0877ae1d-c084-4d6e-a944-3f6b0d3c7f36"},"vehicle_type_id":"4","last_reported":1728554986,"current_range_meters":3200,"station_id":"ce4bh4p2rcd13ifvqe1g","pricing_plan_id":"cebpf4jnsgd1na2vs0mg"},{"bike_id":"50aa4af7-94b4-48c9-959d-eeec3eaec001","system_id":"levelo_inurba_marseille","lat":43.2319,"lon":5.35535,"is_reserved":false,"is_disabled":false,"rental_uris":{"android":"levelo://app?vid=50aa4af7-94b4-48c9-959d-eeec3eaec001","ios":"levelo://app?vid=50aa4af7-94b4-48c9-959d-eeec3eaec001"},"vehicle_type_id":"4","last_reported":1728554986,"current_range_meters":8000,"station_id":"ce4bhu92rcd13ifvqi70","pricing_plan_id":"cebpf4jnsgd1na2vs0mg"},{"bike_id":"7b084089-b050-4e0e-8a7e-a730735b4310","system_id":"levelo_inurba_marseille","lat":43.25094,"lon":5.39517,"is_reserved":false,"is_disabled":false,"rental_uris":{"android":"levelo://app?vid=7b084089-b050-4e0e-8a7e-a730735b4310","ios":"levelo://app?vid=7b084089-b050-4e0e-8a7e-a730735b4310"},"vehicle_type_id":"4","last_reported":1728554986,"current_range_meters":16400,"station_id":"ce4bhm12rcd13ifvqgkg","pricing_plan_id":"cebpf4jnsgd1na2vs0mg"},{"bike_id":"a89f5bab-19bb-41f0-8dc8-2346b619d99e","system_id":"levelo_inurba_marseille","lat":43.337444,"lon":5.374475,"is_reserved":false,"is_disabled":false,"rental_uris":{"android":"levelo://app?vid=a89f5bab-19bb-41f0-8dc8-2346b619d99e","ios":"levelo://app?vid=a89f5bab-19bb-41f0-8dc8-2346b619d99e"},"vehicle_type_id":"4","last_reported":1728554986,"current_range_meters":32800,"station_id":"","pricing_plan_id":"cebpf4jnsgd1na2vs0mg"},{"bike_id":"f54b7f36-3dfb-4655-a95c-8a2412555a1f","system_id":"levelo_inurba_marseille","lat":43.24811,"lon":5.37458,"is_reserved":false,"is_disabled":false,"rental_uris":{"android":"levelo://app?vid=f54b7f36-3dfb-4655-a95c-8a2412555a1f","ios":"levelo://app?vid=f54b7f36-3dfb-4655-a95c-8a2412555a1f"},"vehicle_type_id":"4","last_reported":1728554986,"current_range_meters":2800,"station_id":"ce4bhgh2rcd13ifvqfb0","pricing_plan_id":"cebpf4jnsgd1na2vs0mg"},{"bike_id":"48eacddf-68c2-479d-95fb-5ac38df97c75","system_id":"levelo_inurba_marseille","lat":43.29586,"lon":5.36739,"is_reserved":false,"is_disabled":false,"rental_uris":{"android":"levelo://app?vid=48eacddf-68c2-479d-95fb-5ac38df97c75","ios":"levelo://app?vid=48eacddf-68c2-479d-95fb-5ac38df97c75"},"vehicle_type_id":"4","last_reported":1728554986,"current_range_meters":39200,"station_id":"ce4bgph2rcd13ifvqc2g","pricing_plan_id":"cebpf4jnsgd1na2vs0mg"},{"bike_id":"5fcb97b9-d425-4a7f-9ed0-6de30a7d55a1","system_id":"levelo_inurba_marseille","lat":43.24804,"lon":5.37461,"is_reserved":false,"is_disabled":false,"rental_uris":{"android":"levelo://app?vid=5fcb97b9-d425-4a7f-9ed0-6de30a7d55a1","ios":"levelo://app?vid=5fcb97b9-d425-4a7f-9ed0-6de30a7d55a1"},"vehicle_type_id":"4","last_reported":1728554986,"current_range_meters":39200,"station_id":"ce4bhgh2rcd13ifvqfb0","pricing_plan_id":"cebpf4jnsgd1na2vs0mg"},{"bike_id":"064ddb34-c894-4fe9-990b-f4086029acad","system_id":"levelo_inurba_marseille","lat":43.23965,"lon":5.3663,"is_reserved":false,"is_disabled":false,"rental_uris":{"android":"levelo://app?vid=064ddb34-c894-4fe9-990b-f4086029acad","ios":"levelo://app?vid=064ddb34-c894-4fe9-990b-f4086029acad"},"vehicle_type_id":"4","last_reported":1728554986,"current_range_meters":28400,"station_id":"ce4bhi12rcd13ifvqfp0","pricing_plan_id":"cebpf4jnsgd1na2vs0mg"},{"bike_id":"df4443d2-11dd-4715-aec2-84c27a55e4dc","system_id":"levelo_inurba_marseille","lat":43.29918,"lon":5.37473,"is_reserved":false,"is_disabled":false,"rental_uris":{"android":"levelo://app?vid=df4443d2-11dd-4715-aec2-84c27a55e4dc","ios":"levelo://app?vid=df4443d2-11dd-4715-aec2-84c27a55e4dc"},"vehicle_type_id":"4","last_reported":1728554986,"current_range_meters":25200,"station_id":"ce4bgjh2rcd13ifvqbg0","pricing_plan_id":"cebpf4jnsgd1na2vs0mg"},{"bike_id":"b10b093b-7ee6-4d29-8c3c-c541489a488b","system_id":"levelo_inurba_marseille","lat":43.30146,"lon":5.37405,"is_reserved":false,"is_disabled":false,"rental_uris":{"android":"levelo://app?vid=b10b093b-7ee6-4d29-8c3c-c541489a488b","ios":"levelo://app?vid=b10b093b-7ee6-4d29-8c3c-c541489a488b"},"vehicle_type_id":"4","last_reported":1728554986,"current_range_meters":34800,"station_id":"ce4bgs92rcd13ifvqcc0","pricing_plan_id":"cebpf4jnsgd1na2vs0mg"},{"bike_id":"58d231fc-1999-4d04-ae90-63b07609aee8","system_id":"levelo_inurba_marseille","lat":43.288512,"lon":5.393019,"is_reserved":false,"is_disabled":false,"rental_uris":{"android":"levelo://app?vid=58d231fc-1999-4d04-ae90-63b07609aee8","ios":"levelo://app?vid=58d231fc-1999-4d04-ae90-63b07609aee8"},"vehicle_type_id":"4","last_reported":1728554986,"current_range_meters":6800,"station_id":"ce4bh2p2rcd13ifvqdi0","pricing_plan_id":"cebpf4jnsgd1na2vs0mg"},{"bike_id":"59b80e1c-ee01-4d86-911c-c2215c6be7a9","system_id":"levelo_inurba_marseille","lat":43.32537,"lon":5.41439,"is_reserved":false,"is_disabled":false,"rental_uris":{"android":"levelo://app?vid=59b80e1c-ee01-4d86-911c-c2215c6be7a9","ios":"levelo://app?vid=59b80e1c-ee01-4d86-911c-c2215c6be7a9"},"vehicle_type_id":"4","last_reported":1728554986,"current_range_meters":6800,"station_id":"ce4bhq12rcd13ifvqhhg","pricing_plan_id":"cebpf4jnsgd1na2vs0mg"},{"bike_id":"d122efbf-7ef5-4006-ac92-3fad7690143f","system_id":"levelo_inurba_marseille","lat":43.27305,"lon":5.39085,"is_reserved":false,"is_disabled":false,"rental_uris":{"android":"levelo://app?vid=d122efbf-7ef5-4006-ac92-3fad7690143f","ios":"levelo://app?vid=d122efbf-7ef5-4006-ac92-3fad7690143f"},"vehicle_type_id":"4","last_reported":1728554986,"current_range_meters":34800,"station_id":"ce4bhgp2rcd13ifvqfe0","pricing_plan_id":"cebpf4jnsgd1na2vs0mg"},{"bike_id":"6ab064a6-c2a8-4c7d-af56-00e99774ec30","system_id":"levelo_inurba_marseille","lat":43.293,"lon":5.37462,"is_reserved":false,"is_disabled":false,"rental_uris":{"android":"levelo://app?vid=6ab064a6-c2a8-4c7d-af56-00e99774ec30","ios":"levelo://app?vid=6ab064a6-c2a8-4c7d-af56-00e99774ec30"},"vehicle_type_id":"4","last_reported":1728554986,"current_range_meters":32000,"station_id":"ce4bgi12rcd13ifvqb70","pricing_plan_id":"cebpf4jnsgd1na2vs0mg"},{"bike_id":"31c47db1-79d8-4ba0-a9e5-7219963745a2","system_id":"levelo_inurba_marseille","lat":43.29565,"lon":5.37513,"is_reserved":false,"is_disabled":false,"rental_uris":{"android":"levelo://app?vid=31c47db1-79d8-4ba0-a9e5-7219963745a2","ios":"levelo://app?vid=31c47db1-79d8-4ba0-a9e5-7219963745a2"},"vehicle_type_id":"4","last_reported":1728554986,"current_range_meters":38800,"station_id":"ce4bgh92rcd13ifvqb50","pricing_plan_id":"cebpf4jnsgd1na2vs0mg"},{"bike_id":"c631f3a6-3b0c-49de-a943-826ab8b771bf","system_id":"levelo_inurba_marseille","lat":43.30422,"lon":5.3975,"is_reserved":false,"is_disabled":false,"rental_uris":{"android":"levelo://app?vid=c631f3a6-3b0c-49de-a943-826ab8b771bf","ios":"levelo://app?vid=c631f3a6-3b0c-49de-a943-826ab8b771bf"},"vehicle_type_id":"4","last_reported":1728554986,"current_range_meters":38800,"station_id":"ce4bh092rcd13ifvqd20","pricing_plan_id":"cebpf4jnsgd1na2vs0mg"},{"bike_id":"8cebe8a6-94f2-4ebc-ae47-968989fe8404","system_id":"levelo_inurba_marseille","lat":43.26783,"lon":5.39418,"is_reserved":false,"is_disabled":false,"rental_uris":{"android":"levelo://app?vid=8cebe8a6-94f2-4ebc-ae47-968989fe8404","ios":"levelo://app?vid=8cebe8a6-94f2-4ebc-ae47-968989fe8404"},"vehicle_type_id":"4","last_reported":1728554986,"current_range_meters":40000,"station_id":"ce4bhh12rcd13ifvqfg0","pricing_plan_id":"cebpf4jnsgd1na2vs0mg"},{"bike_id":"1bd983a0-6e10-4d0d-a3a5-43203a8fb7c8","system_id":"levelo_inurba_marseille","lat":43.23183,"lon":5.3999,"is_reserved":false,"is_disabled":false,"rental_uris":{"android":"levelo://app?vid=1bd983a0-6e10-4d0d-a3a5-43203a8fb7c8","ios":"levelo://app?vid=1bd983a0-6e10-4d0d-a3a5-43203a8fb7c8"},"vehicle_type_id":"4","last_reported":1728554986,"current_range_meters":38000,"station_id":"ce4bhn12rcd13ifvqgqg","pricing_plan_id":"cebpf4jnsgd1na2vs0mg"},{"bike_id":"ff68b789-7173-415f-860f-fb58c1b9d01d","system_id":"levelo_inurba_marseille","lat":43.22928,"lon":5.35376,"is_reserved":false,"is_disabled":false,"rental_uris":{"android":"levelo://app?vid=ff68b789-7173-415f-860f-fb58c1b9d01d","ios":"levelo://app?vid=ff68b789-7173-415f-860f-fb58c1b9d01d"},"vehicle_type_id":"4","last_reported":1728554986,"current_range_meters":36800,"station_id":"cpo3532slgdg3j2ikp40","pricing_plan_id":"cebpf4jnsgd1na2vs0mg"},{"bike_id":"7b755db8-d632-47b2-af2b-0913a00e7124","system_id":"levelo_inurba_marseille","lat":43.29585,"lon":5.36735,"is_reserved":false,"is_disabled":false,"rental_uris":{"android":"levelo://app?vid=7b755db8-d632-47b2-af2b-0913a00e7124","ios":"levelo://app?vid=7b755db8-d632-47b2-af2b-0913a00e7124"},"vehicle_type_id":"4","last_reported":1728554986,"current_range_meters":34800,"station_id":"ce4bgph2rcd13ifvqc2g","pricing_plan_id":"cebpf4jnsgd1na2vs0mg"},{"bike_id":"567ea70e-4e3e-4de3-8c98-ac409dc6caa0","system_id":"levelo_inurba_marseille","lat":43.27056,"lon":5.40261,"is_reserved":false,"is_disabled":false,"rental_uris":{"android":"levelo://app?vid=567ea70e-4e3e-4de3-8c98-ac409dc6caa0","ios":"levelo://app?vid=567ea70e-4e3e-4de3-8c98-ac409dc6caa0"},"vehicle_type_id":"4","last_reported":1728554986,"current_range_meters":24000,"station_id":"ce4bhk92rcd13ifvqgc0","pricing_plan_id":"cebpf4jnsgd1na2vs0mg"},{"bike_id":"69d8b390-41b0-463f-9bc1-a7cad808c550","system_id":"levelo_inurba_marseille","lat":43.31348,"lon":5.38497,"is_reserved":false,"is_disabled":false,"rental_uris":{"android":"levelo://app?vid=69d8b390-41b0-463f-9bc1-a7cad808c550","ios":"levelo://app?vid=69d8b390-41b0-463f-9bc1-a7cad808c550"},"vehicle_type_id":"4","last_reported":1728554986,"current_range_meters":25600,"station_id":"ce4bgt92rcd13ifvqcf0","pricing_plan_id":"cebpf4jnsgd1na2vs0mg"},{"bike_id":"652f344a-9f90-4719-a53c-08ab2b70ff26","system_id":"levelo_inurba_marseille","lat":43.23153,"lon":5.43722,"is_reserved":false,"is_disabled":false,"rental_uris":{"android":"levelo://app?vid=652f344a-9f90-4719-a53c-08ab2b70ff26","ios":"levelo://app?vid=652f344a-9f90-4719-a53c-08ab2b70ff26"},"vehicle_type_id":"4","last_reported":1728554986,"current_range_meters":15200,"station_id":"ce4bhmp2rcd13ifvqgog","pricing_plan_id":"cebpf4jnsgd1na2vs0mg"},{"bike_id":"fc34a4c2-5dda-43dc-8c76-0302a62a6427","system_id":"levelo_inurba_marseille","lat":43.23191,"lon":5.35558,"is_reserved":false,"is_disabled":false,"rental_uris":{"android":"levelo://app?vid=fc34a4c2-5dda-43dc-8c76-0302a62a6427","ios":"levelo://app?vid=fc34a4c2-5dda-43dc-8c76-0302a62a6427"},"vehicle_type_id":"4","last_reported":1728554986,"current_range_meters":36800,"station_id":"ce4bhu92rcd13ifvqi70","pricing_plan_id":"cebpf4jnsgd1na2vs0mg"},{"bike_id":"c0be0f35-8e9c-46ff-b4e5-e42e524bbcdb","system_id":"levelo_inurba_marseille","lat":43.30212,"lon":5.39471,"is_reserved":false,"is_disabled":false,"rental_uris":{"android":"levelo://app?vid=c0be0f35-8e9c-46ff-b4e5-e42e524bbcdb","ios":"levelo://app?vid=c0be0f35-8e9c-46ff-b4e5-e42e524bbcdb"},"vehicle_type_id":"4","last_reported":1728554986,"current_range_meters":28400,"station_id":"ce4bh0p2rcd13ifvqd70","pricing_plan_id":"cebpf4jnsgd1na2vs0mg"},{"bike_id":"e69e17e0-0ca8-4a95-b8f4-81597f014eb7","system_id":"levelo_inurba_marseille","lat":43.30161,"lon":5.38082,"is_reserved":false,"is_disabled":false,"rental_uris":{"android":"levelo://app?vid=e69e17e0-0ca8-4a95-b8f4-81597f014eb7","ios":"levelo://app?vid=e69e17e0-0ca8-4a95-b8f4-81597f014eb7"},"vehicle_type_id":"4","last_reported":1728554986,"current_range_meters":30800,"station_id":"ce4bgjp2rcd13ifvqbh0","pricing_plan_id":"cebpf4jnsgd1na2vs0mg"},{"bike_id":"09fec0a3-ef62-4624-a36c-06578bec0ceb","system_id":"levelo_inurba_marseille","lat":43.27177,"lon":5.40992,"is_reserved":false,"is_disabled":false,"rental_uris":{"android":"levelo://app?vid=09fec0a3-ef62-4624-a36c-06578bec0ceb","ios":"levelo://app?vid=09fec0a3-ef62-4624-a36c-06578bec0ceb"},"vehicle_type_id":"4","last_reported":1728554986,"current_range_meters":28400,"station_id":"ce4bhl12rcd13ifvqgf0","pricing_plan_id":"cebpf4jnsgd1na2vs0mg"},{"bike_id":"ebc2fcc9-0b14-4f83-b8f5-49099cccf34d","system_id":"levelo_inurba_marseille","lat":43.25496,"lon":5.37653,"is_reserved":false,"is_disabled":false,"rental_uris":{"android":"levelo://app?vid=ebc2fcc9-0b14-4f83-b8f5-49099cccf34d","ios":"levelo://app?vid=ebc2fcc9-0b14-4f83-b8f5-49099cccf34d"},"vehicle_type_id":"4","last_reported":1728554986,"current_range_meters":33600,"station_id":"ce4bhh12rcd13ifvqff0","pricing_plan_id":"cebpf4jnsgd1na2vs0mg"},{"bike_id":"2d8e5214-7919-4f12-9cdd-a5b6b451b738","system_id":"levelo_inurba_marseille","lat":43.26676,"lon":5.38266,"is_reserved":false,"is_disabled":false,"rental_uris":{"android":"levelo://app?vid=2d8e5214-7919-4f12-9cdd-a5b6b451b738","ios":"levelo://app?vid=2d8e5214-7919-4f12-9cdd-a5b6b451b738"},"vehicle_type_id":"4","last_reported":1728554986,"current_range_meters":7200,"station_id":"ce4bhg92rcd13ifvqf90","pricing_plan_id":"cebpf4jnsgd1na2vs0mg"},{"bike_id":"5b871ea3-f812-4fd2-b86c-33dcb301f033","system_id":"levelo_inurba_marseille","lat":43.31352,"lon":5.36708,"is_reserved":false,"is_disabled":false,"rental_uris":{"android":"levelo://app?vid=5b871ea3-f812-4fd2-b86c-33dcb301f033","ios":"levelo://app?vid=5b871ea3-f812-4fd2-b86c-33dcb301f033"},"vehicle_type_id":"4","last_reported":1728554986,"current_range_meters":30400,"station_id":"ce4bgr92rcd13ifvqc6g","pricing_plan_id":"cebpf4jnsgd1na2vs0mg"},{"bike_id":"4e4e7083-89bd-4f48-a4f6-01f4a7d2fcc0","system_id":"levelo_inurba_marseille","lat":43.34141,"lon":5.40913,"is_reserved":false,"is_disabled":false,"rental_uris":{"android":"levelo://app?vid=4e4e7083-89bd-4f48-a4f6-01f4a7d2fcc0","ios":"levelo://app?vid=4e4e7083-89bd-4f48-a4f6-01f4a7d2fcc0"},"vehicle_type_id":"4","last_reported":1728554986,"current_range_meters":38000,"station_id":"ce4bhqh2rcd13ifvqhlg","pricing_plan_id":"cebpf4jnsgd1na2vs0mg"},{"bike_id":"d0e4dafa-6abb-40f0-b38a-af2236655ba5","system_id":"levelo_inurba_marseille","lat":43.28609,"lon":5.37074,"is_reserved":false,"is_disabled":false,"rental_uris":{"android":"levelo://app?vid=d0e4dafa-6abb-40f0-b38a-af2236655ba5","ios":"levelo://app?vid=d0e4dafa-6abb-40f0-b38a-af2236655ba5"},"vehicle_type_id":"4","last_reported":1728554986,"current_range_meters":16000,"station_id":"ce4bht12rcd13ifvqi60","pricing_plan_id":"cebpf4jnsgd1na2vs0mg"},{"bike_id":"ff5582e2-687c-4df0-82f9-53d6cbdb114c","system_id":"levelo_inurba_marseille","lat":43.24391,"lon":5.37064,"is_reserved":false,"is_disabled":false,"rental_uris":{"android":"levelo://app?vid=ff5582e2-687c-4df0-82f9-53d6cbdb114c","ios":"levelo://app?vid=ff5582e2-687c-4df0-82f9-53d6cbdb114c"},"vehicle_type_id":"4","last_reported":1728554986,"current_range_meters":21600,"station_id":"ce4bhhh2rcd13ifvqfk0","pricing_plan_id":"cebpf4jnsgd1na2vs0mg"},{"bike_id":"cc313bdf-1ff5-491c-be28-4d2ded3a0783","system_id":"levelo_inurba_marseille","lat":43.30137,"lon":5.37413,"is_reserved":false,"is_disabled":false,"rental_uris":{"android":"levelo://app?vid=cc313bdf-1ff5-491c-be28-4d2ded3a0783","ios":"levelo://app?vid=cc313bdf-1ff5-491c-be28-4d2ded3a0783"},"vehicle_type_id":"4","last_reported":1728554986,"current_range_meters":25200,"station_id":"ce4bgs92rcd13ifvqcc0","pricing_plan_id":"cebpf4jnsgd1na2vs0mg"},{"bike_id":"46f3565b-c947-41b1-ac9c-41f46878b5bc","system_id":"levelo_inurba_marseille","lat":43.29852,"lon":5.36284,"is_reserved":false,"is_disabled":false,"rental_uris":{"android":"levelo://app?vid=46f3565b-c947-41b1-ac9c-41f46878b5bc","ios":"levelo://app?vid=46f3565b-c947-41b1-ac9c-41f46878b5bc"},"vehicle_type_id":"4","last_reported":1728554986,"current_range_meters":30400,"station_id":"ce4bgpp2rcd13ifvqc3g","pricing_plan_id":"cebpf4jnsgd1na2vs0mg"},{"bike_id":"02893b5b-0a93-438a-9734-9eff91df5c62","system_id":"levelo_inurba_marseille","lat":43.24391,"lon":5.37062,"is_reserved":false,"is_disabled":false,"rental_uris":{"android":"levelo://app?vid=02893b5b-0a93-438a-9734-9eff91df5c62","ios":"levelo://app?vid=02893b5b-0a93-438a-9734-9eff91df5c62"},"vehicle_type_id":"4","last_reported":1728554986,"current_range_meters":28800,"station_id":"ce4bhhh2rcd13ifvqfk0","pricing_plan_id":"cebpf4jnsgd1na2vs0mg"},{"bike_id":"f90ca49f-87e5-4ffa-83bf-89fbe4726d17","system_id":"levelo_inurba_marseille","lat":43.23194,"lon":5.35541,"is_reserved":false,"is_disabled":false,"rental_uris":{"android":"levelo://app?vid=f90ca49f-87e5-4ffa-83bf-89fbe4726d17","ios":"levelo://app?vid=f90ca49f-87e5-4ffa-83bf-89fbe4726d17"},"vehicle_type_id":"4","last_reported":1728554986,"current_range_meters":36400,"station_id":"ce4bhu92rcd13ifvqi70","pricing_plan_id":"cebpf4jnsgd1na2vs0mg"},{"bike_id":"3b1fa369-d0fc-402a-9458-9b4eb4954fef","system_id":"levelo_inurba_marseille","lat":43.32536,"lon":5.41449,"is_reserved":false,"is_disabled":false,"rental_uris":{"android":"levelo://app?vid=3b1fa369-d0fc-402a-9458-9b4eb4954fef","ios":"levelo://app?vid=3b1fa369-d0fc-402a-9458-9b4eb4954fef"},"vehicle_type_id":"4","last_reported":1728554986,"current_range_meters":35200,"station_id":"ce4bhq12rcd13ifvqhhg","pricing_plan_id":"cebpf4jnsgd1na2vs0mg"},{"bike_id":"7980552a-8eee-4325-8b1a-a5e2acdf441a","system_id":"levelo_inurba_marseille","lat":43.32657,"lon":5.40993,"is_reserved":false,"is_disabled":false,"rental_uris":{"android":"levelo://app?vid=7980552a-8eee-4325-8b1a-a5e2acdf441a","ios":"levelo://app?vid=7980552a-8eee-4325-8b1a-a5e2acdf441a"},"vehicle_type_id":"4","last_reported":1728554986,"current_range_meters":24800,"station_id":"ce4bhpp2rcd13ifvqhgg","pricing_plan_id":"cebpf4jnsgd1na2vs0mg"},{"bike_id":"6deaced1-e8a9-4a1f-be57-feaf442d417d","system_id":"levelo_inurba_marseille","lat":43.30081,"lon":5.39089,"is_reserved":false,"is_disabled":false,"rental_uris":{"android":"levelo://app?vid=6deaced1-e8a9-4a1f-be57-feaf442d417d","ios":"levelo://app?vid=6deaced1-e8a9-4a1f-be57-feaf442d417d"},"vehicle_type_id":"4","last_reported":1728554986,"current_range_meters":17200,"station_id":"ce4bh192rcd13ifvqdb0","pricing_plan_id":"cebpf4jnsgd1na2vs0mg"},{"bike_id":"27de09c7-c08d-4cbc-a733-1fe4495a40d4","system_id":"levelo_inurba_marseille","lat":43.249933,"lon":5.38934,"is_reserved":false,"is_disabled":false,"rental_uris":{"android":"levelo://app?vid=27de09c7-c08d-4cbc-a733-1fe4495a40d4","ios":"levelo://app?vid=27de09c7-c08d-4cbc-a733-1fe4495a40d4"},"vehicle_type_id":"4","last_reported":1728554986,"current_range_meters":3200,"station_id":"ce4bhgp2rcd13ifvqfd0","pricing_plan_id":"cebpf4jnsgd1na2vs0mg"},{"bike_id":"cae9a4d0-4c01-4d57-a44a-d9a73d03efc5","system_id":"levelo_inurba_marseille","lat":43.27998,"lon":5.41665,"is_reserved":false,"is_disabled":false,"rental_uris":{"android":"levelo://app?vid=cae9a4d0-4c01-4d57-a44a-d9a73d03efc5","ios":"levelo://app?vid=cae9a4d0-4c01-4d57-a44a-d9a73d03efc5"},"vehicle_type_id":"4","last_reported":1728554986,"current_range_meters":32000,"station_id":"ce4bho12rcd13ifvqh1g","pricing_plan_id":"cebpf4jnsgd1na2vs0mg"},{"bike_id":"370d860b-1aad-4212-aee0-9afc30ab452d","system_id":"levelo_inurba_marseille","lat":43.29516,"lon":5.39409,"is_reserved":false,"is_disabled":false,"rental_uris":{"android":"levelo://app?vid=370d860b-1aad-4212-aee0-9afc30ab452d","ios":"levelo://app?vid=370d860b-1aad-4212-aee0-9afc30ab452d"},"vehicle_type_id":"4","last_reported":1728554986,"current_range_meters":25200,"station_id":"ce4bh292rcd13ifvqdf0","pricing_plan_id":"cebpf4jnsgd1na2vs0mg"},{"bike_id":"ff9832db-0503-4d4b-b79e-ae16a0c68ddf","system_id":"levelo_inurba_marseille","lat":43.31211,"lon":5.36879,"is_reserved":false,"is_disabled":false,"rental_uris":{"android":"levelo://app?vid=ff9832db-0503-4d4b-b79e-ae16a0c68ddf","ios":"levelo://app?vid=ff9832db-0503-4d4b-b79e-ae16a0c68ddf"},"vehicle_type_id":"4","last_reported":1728554986,"current_range_meters":38400,"station_id":"ce4bgl92rcd13ifvqbq0","pricing_plan_id":"cebpf4jnsgd1na2vs0mg"},{"bike_id":"25dedc5a-499a-410f-9d0e-7d7be389050e","system_id":"levelo_inurba_marseille","lat":43.30358,"lon":5.41874,"is_reserved":false,"is_disabled":false,"rental_uris":{"android":"levelo://app?vid=25dedc5a-499a-410f-9d0e-7d7be389050e","ios":"levelo://app?vid=25dedc5a-499a-410f-9d0e-7d7be389050e"},"vehicle_type_id":"4","last_reported":1728554986,"current_range_meters":39200,"station_id":"ce4bhop2rcd13ifvqh7g","pricing_plan_id":"cebpf4jnsgd1na2vs0mg"},{"bike_id":"6c177a40-4704-434a-9cda-37a59fc669e7","system_id":"levelo_inurba_marseille","lat":43.23157,"lon":5.43708,"is_reserved":false,"is_disabled":false,"rental_uris":{"android":"levelo://app?vid=6c177a40-4704-434a-9cda-37a59fc669e7","ios":"levelo://app?vid=6c177a40-4704-434a-9cda-37a59fc669e7"},"vehicle_type_id":"4","last_reported":1728554986,"current_range_meters":33200,"station_id":"ce4bhmp2rcd13ifvqgog","pricing_plan_id":"cebpf4jnsgd1na2vs0mg"},{"bike_id":"dab4c5ab-b570-40ae-b0bd-c153b0ce778c","system_id":"levelo_inurba_marseille","lat":43.32037,"lon":5.41562,"is_reserved":false,"is_disabled":false,"rental_uris":{"android":"levelo://app?vid=dab4c5ab-b570-40ae-b0bd-c153b0ce778c","ios":"levelo://app?vid=dab4c5ab-b570-40ae-b0bd-c153b0ce778c"},"vehicle_type_id":"4","last_reported":1728554986,"current_range_meters":36000,"station_id":"ce4bhq92rcd13ifvqhkg","pricing_plan_id":"cebpf4jnsgd1na2vs0mg"},{"bike_id":"28ee9fdb-c2ce-4e5f-b3d3-c5b040c4664d","system_id":"levelo_inurba_marseille","lat":43.30163,"lon":5.38084,"is_reserved":false,"is_disabled":false,"rental_uris":{"android":"levelo://app?vid=28ee9fdb-c2ce-4e5f-b3d3-c5b040c4664d","ios":"levelo://app?vid=28ee9fdb-c2ce-4e5f-b3d3-c5b040c4664d"},"vehicle_type_id":"4","last_reported":1728554986,"current_range_meters":10000,"station_id":"ce4bgjp2rcd13ifvqbh0","pricing_plan_id":"cebpf4jnsgd1na2vs0mg"},{"bike_id":"44a653c4-9ab9-45f3-8db3-63d158b0ffee","system_id":"levelo_inurba_marseille","lat":43.32655,"lon":5.4099,"is_reserved":false,"is_disabled":false,"rental_uris":{"android":"levelo://app?vid=44a653c4-9ab9-45f3-8db3-63d158b0ffee","ios":"levelo://app?vid=44a653c4-9ab9-45f3-8db3-63d158b0ffee"},"vehicle_type_id":"4","last_reported":1728554986,"current_range_meters":39200,"station_id":"ce4bhpp2rcd13ifvqhgg","pricing_plan_id":"cebpf4jnsgd1na2vs0mg"},{"bike_id":"6621e1af-9ca0-463c-a3ad-f651030b0dd3","system_id":"levelo_inurba_marseille","lat":43.23193,"lon":5.35549,"is_reserved":false,"is_disabled":false,"rental_uris":{"android":"levelo://app?vid=6621e1af-9ca0-463c-a3ad-f651030b0dd3","ios":"levelo://app?vid=6621e1af-9ca0-463c-a3ad-f651030b0dd3"},"vehicle_type_id":"4","last_reported":1728554986,"current_range_meters":37600,"station_id":"ce4bhu92rcd13ifvqi70","pricing_plan_id":"cebpf4jnsgd1na2vs0mg"},{"bike_id":"9c5617f9-8544-4060-b19b-e293ad4a4740","system_id":"levelo_inurba_marseille","lat":43.3053,"lon":5.38433,"is_reserved":false,"is_disabled":false,"rental_uris":{"android":"levelo://app?vid=9c5617f9-8544-4060-b19b-e293ad4a4740","ios":"levelo://app?vid=9c5617f9-8544-4060-b19b-e293ad4a4740"},"vehicle_type_id":"4","last_reported":1728554986,"current_range_meters":20400,"station_id":"ce4bgg92rcd13ifvqb30","pricing_plan_id":"cebpf4jnsgd1na2vs0mg"},{"bike_id":"e5e6ef75-ea42-447b-ad4d-89959cbb3aa0","system_id":"levelo_inurba_marseille","lat":43.29622,"lon":5.37171,"is_reserved":false,"is_disabled":false,"rental_uris":{"android":"levelo://app?vid=e5e6ef75-ea42-447b-ad4d-89959cbb3aa0","ios":"levelo://app?vid=e5e6ef75-ea42-447b-ad4d-89959cbb3aa0"},"vehicle_type_id":"4","last_reported":1728554986,"current_range_meters":30800,"station_id":"ce4bgnh2rcd13ifvqc0g","pricing_plan_id":"cebpf4jnsgd1na2vs0mg"},{"bike_id":"4a3969f5-0253-4150-be33-7bda7f717962","system_id":"levelo_inurba_marseille","lat":43.25492,"lon":5.37649,"is_reserved":false,"is_disabled":false,"rental_uris":{"android":"levelo://app?vid=4a3969f5-0253-4150-be33-7bda7f717962","ios":"levelo://app?vid=4a3969f5-0253-4150-be33-7bda7f717962"},"vehicle_type_id":"4","last_reported":1728554986,"current_range_meters":33600,"station_id":"ce4bhh12rcd13ifvqff0","pricing_plan_id":"cebpf4jnsgd1na2vs0mg"},{"bike_id":"9119f974-ea12-4975-b484-8868e7a8c451","system_id":"levelo_inurba_marseille","lat":43.32537,"lon":5.41448,"is_reserved":false,"is_disabled":false,"rental_uris":{"android":"levelo://app?vid=9119f974-ea12-4975-b484-8868e7a8c451","ios":"levelo://app?vid=9119f974-ea12-4975-b484-8868e7a8c451"},"vehicle_type_id":"4","last_reported":1728554986,"current_range_meters":8000,"station_id":"ce4bhq12rcd13ifvqhhg","pricing_plan_id":"cebpf4jnsgd1na2vs0mg"},{"bike_id":"c7345d11-567b-4b84-ba71-1052989c0ad2","system_id":"levelo_inurba_marseille","lat":43.24993,"lon":5.38937,"is_reserved":false,"is_disabled":false,"rental_uris":{"android":"levelo://app?vid=c7345d11-567b-4b84-ba71-1052989c0ad2","ios":"levelo://app?vid=c7345d11-567b-4b84-ba71-1052989c0ad2"},"vehicle_type_id":"4","last_reported":1728554986,"current_range_meters":30800,"station_id":"ce4bhgp2rcd13ifvqfd0","pricing_plan_id":"cebpf4jnsgd1na2vs0mg"},{"bike_id":"19007b4b-c863-455e-8ceb-d899488ff32e","system_id":"levelo_inurba_marseille","lat":43.30089,"lon":5.39087,"is_reserved":false,"is_disabled":false,"rental_uris":{"android":"levelo://app?vid=19007b4b-c863-455e-8ceb-d899488ff32e","ios":"levelo://app?vid=19007b4b-c863-455e-8ceb-d899488ff32e"},"vehicle_type_id":"4","last_reported":1728554986,"current_range_meters":32400,"station_id":"ce4bh192rcd13ifvqdb0","pricing_plan_id":"cebpf4jnsgd1na2vs0mg"},{"bike_id":"821d9068-d0ff-46a6-a9ce-f2d27c98432a","system_id":"levelo_inurba_marseille","lat":43.27053,"lon":5.40255,"is_reserved":false,"is_disabled":false,"rental_uris":{"android":"levelo://app?vid=821d9068-d0ff-46a6-a9ce-f2d27c98432a","ios":"levelo://app?vid=821d9068-d0ff-46a6-a9ce-f2d27c98432a"},"vehicle_type_id":"4","last_reported":1728554986,"current_range_meters":33600,"station_id":"ce4bhk92rcd13ifvqgc0","pricing_plan_id":"cebpf4jnsgd1na2vs0mg"},{"bike_id":"910334d2-d108-4fc2-83c4-e16f3f792eec","system_id":"levelo_inurba_marseille","lat":43.30539,"lon":5.36545,"is_reserved":false,"is_disabled":false,"rental_uris":{"android":"levelo://app?vid=910334d2-d108-4fc2-83c4-e16f3f792eec","ios":"levelo://app?vid=910334d2-d108-4fc2-83c4-e16f3f792eec"},"vehicle_type_id":"4","last_reported":1728554986,"current_range_meters":34000,"station_id":"ce4bgs12rcd13ifvqcag","pricing_plan_id":"cebpf4jnsgd1na2vs0mg"},{"bike_id":"4e52f094-35e5-497c-b6a3-5866f375345b","system_id":"levelo_inurba_marseille","lat":43.24544,"lon":5.39524,"is_reserved":false,"is_disabled":false,"rental_uris":{"android":"levelo://app?vid=4e52f094-35e5-497c-b6a3-5866f375345b","ios":"levelo://app?vid=4e52f094-35e5-497c-b6a3-5866f375345b"},"vehicle_type_id":"4","last_reported":1728554986,"current_range_meters":39200,"station_id":"ce4bhlp2rcd13ifvqgjg","pricing_plan_id":"cebpf4jnsgd1na2vs0mg"},{"bike_id":"60a0ea67-4d30-4920-b0a5-c32c8ac8ba8a","system_id":"levelo_inurba_marseille","lat":43.29775,"lon":5.37115,"is_reserved":false,"is_disabled":false,"rental_uris":{"android":"levelo://app?vid=60a0ea67-4d30-4920-b0a5-c32c8ac8ba8a","ios":"levelo://app?vid=60a0ea67-4d30-4920-b0a5-c32c8ac8ba8a"},"vehicle_type_id":"4","last_reported":1728554986,"current_range_meters":36000,"station_id":"ce4bgop2rcd13ifvqc1g","pricing_plan_id":"cebpf4jnsgd1na2vs0mg"},{"bike_id":"adcc82ae-6dda-44f6-b37e-b65c980ab2ed","system_id":"levelo_inurba_marseille","lat":43.2929,"lon":5.37462,"is_reserved":false,"is_disabled":false,"rental_uris":{"android":"levelo://app?vid=adcc82ae-6dda-44f6-b37e-b65c980ab2ed","ios":"levelo://app?vid=adcc82ae-6dda-44f6-b37e-b65c980ab2ed"},"vehicle_type_id":"4","last_reported":1728554986,"current_range_meters":10000,"station_id":"ce4bgi12rcd13ifvqb70","pricing_plan_id":"cebpf4jnsgd1na2vs0mg"},{"bike_id":"6cd7d39b-2087-4d21-86bb-e2284a62aeb5","system_id":"levelo_inurba_marseille","lat":43.23189,"lon":5.35555,"is_reserved":false,"is_disabled":false,"rental_uris":{"android":"levelo://app?vid=6cd7d39b-2087-4d21-86bb-e2284a62aeb5","ios":"levelo://app?vid=6cd7d39b-2087-4d21-86bb-e2284a62aeb5"},"vehicle_type_id":"4","last_reported":1728554986,"current_range_meters":3200,"station_id":"ce4bhu92rcd13ifvqi70","pricing_plan_id":"cebpf4jnsgd1na2vs0mg"},{"bike_id":"b92e42e4-a9b2-4fa3-bc71-280d2c9d2f7c","system_id":"levelo_inurba_marseille","lat":43.31069,"lon":5.38359,"is_reserved":false,"is_disabled":false,"rental_uris":{"android":"levelo://app?vid=b92e42e4-a9b2-4fa3-bc71-280d2c9d2f7c","ios":"levelo://app?vid=b92e42e4-a9b2-4fa3-bc71-280d2c9d2f7c"},"vehicle_type_id":"4","last_reported":1728554986,"current_range_meters":4000,"station_id":"ce4bgv92rcd13ifvqcr0","pricing_plan_id":"cebpf4jnsgd1na2vs0mg"},{"bike_id":"1ec8b789-724c-419e-9d11-409c5f3b4e5b","system_id":"levelo_inurba_marseille","lat":43.30154,"lon":5.38091,"is_reserved":false,"is_disabled":false,"rental_uris":{"android":"levelo://app?vid=1ec8b789-724c-419e-9d11-409c5f3b4e5b","ios":"levelo://app?vid=1ec8b789-724c-419e-9d11-409c5f3b4e5b"},"vehicle_type_id":"4","last_reported":1728554986,"current_range_meters":38400,"station_id":"ce4bgjp2rcd13ifvqbh0","pricing_plan_id":"cebpf4jnsgd1na2vs0mg"},{"bike_id":"8084d1a6-5d36-4cb4-8bea-e2a975cc3d03","system_id":"levelo_inurba_marseille","lat":43.30543,"lon":5.36709,"is_reserved":false,"is_disabled":false,"rental_uris":{"android":"levelo://app?vid=8084d1a6-5d36-4cb4-8bea-e2a975cc3d03","ios":"levelo://app?vid=8084d1a6-5d36-4cb4-8bea-e2a975cc3d03"},"vehicle_type_id":"4","last_reported":1728554986,"current_range_meters":24000,"station_id":"ce4bgrp2rcd13ifvqc9g","pricing_plan_id":"cebpf4jnsgd1na2vs0mg"},{"bike_id":"0a914b9b-1fcc-4758-a91b-1f2a11f6cf7a","system_id":"levelo_inurba_marseille","lat":43.27183,"lon":5.40995,"is_reserved":false,"is_disabled":false,"rental_uris":{"android":"levelo://app?vid=0a914b9b-1fcc-4758-a91b-1f2a11f6cf7a","ios":"levelo://app?vid=0a914b9b-1fcc-4758-a91b-1f2a11f6cf7a"},"vehicle_type_id":"4","last_reported":1728554986,"current_range_meters":17200,"station_id":"ce4bhl12rcd13ifvqgf0","pricing_plan_id":"cebpf4jnsgd1na2vs0mg"},{"bike_id":"53e939d7-dbfd-4842-9344-966c1646639e","system_id":"levelo_inurba_marseille","lat":43.29806,"lon":5.381,"is_reserved":false,"is_disabled":false,"rental_uris":{"android":"levelo://app?vid=53e939d7-dbfd-4842-9344-966c1646639e","ios":"levelo://app?vid=53e939d7-dbfd-4842-9344-966c1646639e"},"vehicle_type_id":"4","last_reported":1728554986,"current_range_meters":37600,"station_id":"ce4bgip2rcd13ifvqbb0","pricing_plan_id":"cebpf4jnsgd1na2vs0mg"},{"bike_id":"d65db0a0-2fe8-42de-a50f-73a9d36e8924","system_id":"levelo_inurba_marseille","lat":43.33599,"lon":5.4103,"is_reserved":false,"is_disabled":false,"rental_uris":{"android":"levelo://app?vid=d65db0a0-2fe8-42de-a50f-73a9d36e8924","ios":"levelo://app?vid=d65db0a0-2fe8-42de-a50f-73a9d36e8924"},"vehicle_type_id":"4","last_reported":1728554986,"current_range_meters":39200,"station_id":"ce4bhqh2rcd13ifvqhmg","pricing_plan_id":"cebpf4jnsgd1na2vs0mg"},{"bike_id":"48158b6e-aa15-46fa-b108-be5bdb7a3a31","system_id":"levelo_inurba_marseille","lat":43.33767,"lon":5.37486,"is_reserved":false,"is_disabled":false,"rental_uris":{"android":"levelo://app?vid=48158b6e-aa15-46fa-b108-be5bdb7a3a31","ios":"levelo://app?vid=48158b6e-aa15-46fa-b108-be5bdb7a3a31"},"vehicle_type_id":"4","last_reported":1728554986,"current_range_meters":28400,"station_id":"ce4rr2p2rcd13i802rgg","pricing_plan_id":"cebpf4jnsgd1na2vs0mg"},{"bike_id":"9aba201e-5e38-49d5-8084-118549d2fe53","system_id":"levelo_inurba_marseille","lat":43.24804,"lon":5.3746,"is_reserved":false,"is_disabled":false,"rental_uris":{"android":"levelo://app?vid=9aba201e-5e38-49d5-8084-118549d2fe53","ios":"levelo://app?vid=9aba201e-5e38-49d5-8084-118549d2fe53"},"vehicle_type_id":"4","last_reported":1728554986,"current_range_meters":26000,"station_id":"ce4bhgh2rcd13ifvqfb0","pricing_plan_id":"cebpf4jnsgd1na2vs0mg"},{"bike_id":"e2dedf1c-7e55-45e6-8fb6-1039ae9ab85a","system_id":"levelo_inurba_marseille","lat":43.24394,"lon":5.37058,"is_reserved":false,"is_disabled":false,"rental_uris":{"android":"levelo://app?vid=e2dedf1c-7e55-45e6-8fb6-1039ae9ab85a","ios":"levelo://app?vid=e2dedf1c-7e55-45e6-8fb6-1039ae9ab85a"},"vehicle_type_id":"4","last_reported":1728554986,"current_range_meters":25200,"station_id":"ce4bhhh2rcd13ifvqfk0","pricing_plan_id":"cebpf4jnsgd1na2vs0mg"},{"bike_id":"b678530a-7ec0-44f1-96d0-1a9f7e47fbdc","system_id":"levelo_inurba_marseille","lat":43.2678,"lon":5.39425,"is_reserved":false,"is_disabled":false,"rental_uris":{"android":"levelo://app?vid=b678530a-7ec0-44f1-96d0-1a9f7e47fbdc","ios":"levelo://app?vid=b678530a-7ec0-44f1-96d0-1a9f7e47fbdc"},"vehicle_type_id":"4","last_reported":1728554986,"current_range_meters":22000,"station_id":"ce4bhh12rcd13ifvqfg0","pricing_plan_id":"cebpf4jnsgd1na2vs0mg"},{"bike_id":"5ae58f45-e849-4b3f-852a-7e18dbc65c56","system_id":"levelo_inurba_marseille","lat":43.32541,"lon":5.41447,"is_reserved":false,"is_disabled":false,"rental_uris":{"android":"levelo://app?vid=5ae58f45-e849-4b3f-852a-7e18dbc65c56","ios":"levelo://app?vid=5ae58f45-e849-4b3f-852a-7e18dbc65c56"},"vehicle_type_id":"4","last_reported":1728554986,"current_range_meters":27200,"station_id":"ce4bhq12rcd13ifvqhhg","pricing_plan_id":"cebpf4jnsgd1na2vs0mg"},{"bike_id":"ddd138b1-3f45-478c-8416-8261cd1056f8","system_id":"levelo_inurba_marseille","lat":43.29365,"lon":5.37863,"is_reserved":false,"is_disabled":false,"rental_uris":{"android":"levelo://app?vid=ddd138b1-3f45-478c-8416-8261cd1056f8","ios":"levelo://app?vid=ddd138b1-3f45-478c-8416-8261cd1056f8"},"vehicle_type_id":"4","last_reported":1728554986,"current_range_meters":38800,"station_id":"ce4bgjh2rcd13ifvqbf0","pricing_plan_id":"cebpf4jnsgd1na2vs0mg"},{"bike_id":"89bd24ad-0e44-4164-95d3-55749976d06a","system_id":"levelo_inurba_marseille","lat":43.3136,"lon":5.38502,"is_reserved":false,"is_disabled":false,"rental_uris":{"android":"levelo://app?vid=89bd24ad-0e44-4164-95d3-55749976d06a","ios":"levelo://app?vid=89bd24ad-0e44-4164-95d3-55749976d06a"},"vehicle_type_id":"4","last_reported":1728554986,"current_range_meters":22800,"station_id":"ce4bgt92rcd13ifvqcf0","pricing_plan_id":"cebpf4jnsgd1na2vs0mg"},{"bike_id":"c2e51e73-0bcd-44cc-8f9a-f57b10eab5f2","system_id":"levelo_inurba_marseille","lat":43.24084,"lon":5.3775,"is_reserved":false,"is_disabled":false,"rental_uris":{"android":"levelo://app?vid=c2e51e73-0bcd-44cc-8f9a-f57b10eab5f2","ios":"levelo://app?vid=c2e51e73-0bcd-44cc-8f9a-f57b10eab5f2"},"vehicle_type_id":"4","last_reported":1728554986,"current_range_meters":18800,"station_id":"ce4bhnp2rcd13ifvqgvg","pricing_plan_id":"cebpf4jnsgd1na2vs0mg"},{"bike_id":"62ccfddd-1382-446c-9bf2-416c2cb7471b","system_id":"levelo_inurba_marseille","lat":43.30556,"lon":5.36548,"is_reserved":false,"is_disabled":false,"rental_uris":{"android":"levelo://app?vid=62ccfddd-1382-446c-9bf2-416c2cb7471b","ios":"levelo://app?vid=62ccfddd-1382-446c-9bf2-416c2cb7471b"},"vehicle_type_id":"4","last_reported":1728554986,"current_range_meters":34000,"station_id":"ce4bgs12rcd13ifvqcag","pricing_plan_id":"cebpf4jnsgd1na2vs0mg"},{"bike_id":"fc3f0547-89f3-45ed-b216-20a87ce42cb7","system_id":"levelo_inurba_marseille","lat":43.2315,"lon":5.43725,"is_reserved":false,"is_disabled":false,"rental_uris":{"android":"levelo://app?vid=fc3f0547-89f3-45ed-b216-20a87ce42cb7","ios":"levelo://app?vid=fc3f0547-89f3-45ed-b216-20a87ce42cb7"},"vehicle_type_id":"4","last_reported":1728554986,"current_range_meters":24800,"station_id":"ce4bhmp2rcd13ifvqgog","pricing_plan_id":"cebpf4jnsgd1na2vs0mg"},{"bike_id":"1f11ec8e-1a06-41c2-8936-78b2cc691bd0","system_id":"levelo_inurba_marseille","lat":43.2717,"lon":5.40997,"is_reserved":false,"is_disabled":false,"rental_uris":{"android":"levelo://app?vid=1f11ec8e-1a06-41c2-8936-78b2cc691bd0","ios":"levelo://app?vid=1f11ec8e-1a06-41c2-8936-78b2cc691bd0"},"vehicle_type_id":"4","last_reported":1728554986,"current_range_meters":35200,"station_id":"ce4bhl12rcd13ifvqgf0","pricing_plan_id":"cebpf4jnsgd1na2vs0mg"},{"bike_id":"b7c73092-6656-4806-839f-ee59e4f57efa","system_id":"levelo_inurba_marseille","lat":43.31484,"lon":5.37307,"is_reserved":false,"is_disabled":false,"rental_uris":{"android":"levelo://app?vid=b7c73092-6656-4806-839f-ee59e4f57efa","ios":"levelo://app?vid=b7c73092-6656-4806-839f-ee59e4f57efa"},"vehicle_type_id":"4","last_reported":1728554986,"current_range_meters":39200,"station_id":"ce4bgt12rcd13ifvqcd0","pricing_plan_id":"cebpf4jnsgd1na2vs0mg"},{"bike_id":"a870a4fd-6f05-4af6-9cd5-843c78121403","system_id":"levelo_inurba_marseille","lat":43.32655,"lon":5.40989,"is_reserved":false,"is_disabled":false,"rental_uris":{"android":"levelo://app?vid=a870a4fd-6f05-4af6-9cd5-843c78121403","ios":"levelo://app?vid=a870a4fd-6f05-4af6-9cd5-843c78121403"},"vehicle_type_id":"4","last_reported":1728554986,"current_range_meters":6000,"station_id":"ce4bhpp2rcd13ifvqhgg","pricing_plan_id":"cebpf4jnsgd1na2vs0mg"},{"bike_id":"05352706-ffde-4c5f-832c-cbd3c2593f5f","system_id":"levelo_inurba_marseille","lat":43.31712,"lon":5.43712,"is_reserved":false,"is_disabled":false,"rental_uris":{"android":"levelo://app?vid=05352706-ffde-4c5f-832c-cbd3c2593f5f","ios":"levelo://app?vid=05352706-ffde-4c5f-832c-cbd3c2593f5f"},"vehicle_type_id":"4","last_reported":1728554986,"current_range_meters":8000,"station_id":"ce4bhp92rcd13ifvqhcg","pricing_plan_id":"cebpf4jnsgd1na2vs0mg"},{"bike_id":"aa75c41c-1391-4d5a-b0ad-fb29c317877d","system_id":"levelo_inurba_marseille","lat":43.23063,"lon":5.35498,"is_reserved":false,"is_disabled":false,"rental_uris":{"android":"levelo://app?vid=aa75c41c-1391-4d5a-b0ad-fb29c317877d","ios":"levelo://app?vid=aa75c41c-1391-4d5a-b0ad-fb29c317877d"},"vehicle_type_id":"4","last_reported":1728554986,"current_range_meters":12400,"station_id":"cpo3342slgdg3j2ifvpg","pricing_plan_id":"cebpf4jnsgd1na2vs0mg"},{"bike_id":"02c2e790-1df7-4c13-8f74-01a585b06eb8","system_id":"levelo_inurba_marseille","lat":43.33761,"lon":5.37472,"is_reserved":false,"is_disabled":false,"rental_uris":{"android":"levelo://app?vid=02c2e790-1df7-4c13-8f74-01a585b06eb8","ios":"levelo://app?vid=02c2e790-1df7-4c13-8f74-01a585b06eb8"},"vehicle_type_id":"4","last_reported":1728554986,"current_range_meters":26800,"station_id":"","pricing_plan_id":"cebpf4jnsgd1na2vs0mg"},{"bike_id":"3815e933-e20e-4440-bbdd-11c9132eb606","system_id":"levelo_inurba_marseille","lat":43.336,"lon":5.41027,"is_reserved":false,"is_disabled":false,"rental_uris":{"android":"levelo://app?vid=3815e933-e20e-4440-bbdd-11c9132eb606","ios":"levelo://app?vid=3815e933-e20e-4440-bbdd-11c9132eb606"},"vehicle_type_id":"4","last_reported":1728554986,"current_range_meters":39200,"station_id":"ce4bhqh2rcd13ifvqhmg","pricing_plan_id":"cebpf4jnsgd1na2vs0mg"},{"bike_id":"c16cf7f6-f1d1-4c55-99ff-06b0ddaf0455","system_id":"levelo_inurba_marseille","lat":43.24086,"lon":5.3775,"is_reserved":false,"is_disabled":false,"rental_uris":{"android":"levelo://app?vid=c16cf7f6-f1d1-4c55-99ff-06b0ddaf0455","ios":"levelo://app?vid=c16cf7f6-f1d1-4c55-99ff-06b0ddaf0455"},"vehicle_type_id":"4","last_reported":1728554986,"current_range_meters":28400,"station_id":"ce4bhnp2rcd13ifvqgvg","pricing_plan_id":"cebpf4jnsgd1na2vs0mg"},{"bike_id":"b7507c69-0bc0-4e9e-9023-7bda0a81f93b","system_id":"levelo_inurba_marseille","lat":43.30557,"lon":5.36547,"is_reserved":false,"is_disabled":false,"rental_uris":{"android":"levelo://app?vid=b7507c69-0bc0-4e9e-9023-7bda0a81f93b","ios":"levelo://app?vid=b7507c69-0bc0-4e9e-9023-7bda0a81f93b"},"vehicle_type_id":"4","last_reported":1728554986,"current_range_meters":38800,"station_id":"ce4bgs12rcd13ifvqcag","pricing_plan_id":"cebpf4jnsgd1na2vs0mg"},{"bike_id":"b3fbb7a4-58dd-4801-8cf1-92414f8ce594","system_id":"levelo_inurba_marseille","lat":43.279954,"lon":5.41665,"is_reserved":false,"is_disabled":false,"rental_uris":{"android":"levelo://app?vid=b3fbb7a4-58dd-4801-8cf1-92414f8ce594","ios":"levelo://app?vid=b3fbb7a4-58dd-4801-8cf1-92414f8ce594"},"vehicle_type_id":"4","last_reported":1728554986,"current_range_meters":24800,"station_id":"ce4bho12rcd13ifvqh1g","pricing_plan_id":"cebpf4jnsgd1na2vs0mg"},{"bike_id":"881297cb-de49-4147-8349-04f850dcfbe2","system_id":"levelo_inurba_marseille","lat":43.26803,"lon":5.40266,"is_reserved":false,"is_disabled":false,"rental_uris":{"android":"levelo://app?vid=881297cb-de49-4147-8349-04f850dcfbe2","ios":"levelo://app?vid=881297cb-de49-4147-8349-04f850dcfbe2"},"vehicle_type_id":"4","last_reported":1728554986,"current_range_meters":35200,"station_id":"ce501612rcd8frsf0b60","pricing_plan_id":"cebpf4jnsgd1na2vs0mg"},{"bike_id":"101d89f9-c6c1-46de-b9db-b649498f27b4","system_id":"levelo_inurba_marseille","lat":43.32535,"lon":5.41441,"is_reserved":false,"is_disabled":false,"rental_uris":{"android":"levelo://app?vid=101d89f9-c6c1-46de-b9db-b649498f27b4","ios":"levelo://app?vid=101d89f9-c6c1-46de-b9db-b649498f27b4"},"vehicle_type_id":"4","last_reported":1728554986,"current_range_meters":8400,"station_id":"ce4bhq12rcd13ifvqhhg","pricing_plan_id":"cebpf4jnsgd1na2vs0mg"},{"bike_id":"6e4917b6-0713-4d89-bcac-afb06c7b3fe1","system_id":"levelo_inurba_marseille","lat":43.309448,"lon":5.390307,"is_reserved":false,"is_disabled":false,"rental_uris":{"android":"levelo://app?vid=6e4917b6-0713-4d89-bcac-afb06c7b3fe1","ios":"levelo://app?vid=6e4917b6-0713-4d89-bcac-afb06c7b3fe1"},"vehicle_type_id":"4","last_reported":1728554986,"current_range_meters":3600,"station_id":"ce4bgup2rcd13ifvqco0","pricing_plan_id":"cebpf4jnsgd1na2vs0mg"},{"bike_id":"2d0cff65-c3d6-4e57-8155-8e335a28ac1d","system_id":"levelo_inurba_marseille","lat":43.29631,"lon":5.40596,"is_reserved":false,"is_disabled":false,"rental_uris":{"android":"levelo://app?vid=2d0cff65-c3d6-4e57-8155-8e335a28ac1d","ios":"levelo://app?vid=2d0cff65-c3d6-4e57-8155-8e335a28ac1d"},"vehicle_type_id":"4","last_reported":1728554986,"current_range_meters":28800,"station_id":"ce4bh0h2rcd13ifvqd60","pricing_plan_id":"cebpf4jnsgd1na2vs0mg"},{"bike_id":"c3e4bbc5-00c3-42ec-a92f-5a152a4ddf3c","system_id":"levelo_inurba_marseille","lat":43.27205,"lon":5.39183,"is_reserved":false,"is_disabled":false,"rental_uris":{"android":"levelo://app?vid=c3e4bbc5-00c3-42ec-a92f-5a152a4ddf3c","ios":"levelo://app?vid=c3e4bbc5-00c3-42ec-a92f-5a152a4ddf3c"},"vehicle_type_id":"4","last_reported":1728554986,"current_range_meters":37600,"station_id":"ce4bgip2rcd13ifvqbb0","pricing_plan_id":"cebpf4jnsgd1na2vs0mg"},{"bike_id":"b23acee4-5720-4575-91af-11c4e23edb2d","system_id":"levelo_inurba_marseille","lat":43.337444,"lon":5.374475,"is_reserved":false,"is_disabled":false,"rental_uris":{"android":"levelo://app?vid=b23acee4-5720-4575-91af-11c4e23edb2d","ios":"levelo://app?vid=b23acee4-5720-4575-91af-11c4e23edb2d"},"vehicle_type_id":"4","last_reported":1728554986,"current_range_meters":38000,"station_id":"ce4bhbh2rcd13ifvqepg","pricing_plan_id":"cebpf4jnsgd1na2vs0mg"},{"bike_id":"204d1ba1-bce7-4445-939d-ac9c79360922","system_id":"levelo_inurba_marseille","lat":43.30085,"lon":5.39087,"is_reserved":false,"is_disabled":false,"rental_uris":{"android":"levelo://app?vid=204d1ba1-bce7-4445-939d-ac9c79360922","ios":"levelo://app?vid=204d1ba1-bce7-4445-939d-ac9c79360922"},"vehicle_type_id":"4","last_reported":1728554986,"current_range_meters":38800,"station_id":"ce4bh192rcd13ifvqdb0","pricing_plan_id":"cebpf4jnsgd1na2vs0mg"},{"bike_id":"62f352ec-e233-4d7f-8753-6a5615214777","system_id":"levelo_inurba_marseille","lat":43.32286,"lon":5.38288,"is_reserved":false,"is_disabled":false,"rental_uris":{"android":"levelo://app?vid=62f352ec-e233-4d7f-8753-6a5615214777","ios":"levelo://app?vid=62f352ec-e233-4d7f-8753-6a5615214777"},"vehicle_type_id":"4","last_reported":1728554986,"current_range_meters":39200,"station_id":"ce4bhr12rcd13ifvqhqg","pricing_plan_id":"cebpf4jnsgd1na2vs0mg"},{"bike_id":"9f0b3c45-77b4-410d-9198-8d5b64a2df07","system_id":"levelo_inurba_marseille","lat":43.24806,"lon":5.37456,"is_reserved":false,"is_disabled":false,"rental_uris":{"android":"levelo://app?vid=9f0b3c45-77b4-410d-9198-8d5b64a2df07","ios":"levelo://app?vid=9f0b3c45-77b4-410d-9198-8d5b64a2df07"},"vehicle_type_id":"4","last_reported":1728554986,"current_range_meters":22800,"station_id":"ce4bhgh2rcd13ifvqfb0","pricing_plan_id":"cebpf4jnsgd1na2vs0mg"},{"bike_id":"55908d84-41ac-4c72-823f-86177b55b4c1","system_id":"levelo_inurba_marseille","lat":43.28938,"lon":5.364,"is_reserved":false,"is_disabled":false,"rental_uris":{"android":"levelo://app?vid=55908d84-41ac-4c72-823f-86177b55b4c1","ios":"levelo://app?vid=55908d84-41ac-4c72-823f-86177b55b4c1"},"vehicle_type_id":"4","last_reported":1728554986,"current_range_meters":36400,"station_id":"ce4bhc92rcd13ifvqetg","pricing_plan_id":"cebpf4jnsgd1na2vs0mg"},{"bike_id":"84d9530d-0955-41fa-9650-6420af27a76b","system_id":"levelo_inurba_marseille","lat":43.30062,"lon":5.36602,"is_reserved":false,"is_disabled":false,"rental_uris":{"android":"levelo://app?vid=84d9530d-0955-41fa-9650-6420af27a76b","ios":"levelo://app?vid=84d9530d-0955-41fa-9650-6420af27a76b"},"vehicle_type_id":"4","last_reported":1728554986,"current_range_meters":36400,"station_id":"","pricing_plan_id":"cebpf4jnsgd1na2vs0mg"},{"bike_id":"d04835cf-1083-46e3-aa5a-85b4902b74ab","system_id":"levelo_inurba_marseille","lat":43.29683,"lon":5.37302,"is_reserved":false,"is_disabled":false,"rental_uris":{"android":"levelo://app?vid=d04835cf-1083-46e3-aa5a-85b4902b74ab","ios":"levelo://app?vid=d04835cf-1083-46e3-aa5a-85b4902b74ab"},"vehicle_type_id":"4","last_reported":1728554986,"current_range_meters":11600,"station_id":"ce4bgk12rcd13ifvqbj0","pricing_plan_id":"cebpf4jnsgd1na2vs0mg"},{"bike_id":"033e3983-eccc-4920-a19e-04422bbd4a75","system_id":"levelo_inurba_marseille","lat":43.3028,"lon":5.37699,"is_reserved":false,"is_disabled":false,"rental_uris":{"android":"levelo://app?vid=033e3983-eccc-4920-a19e-04422bbd4a75","ios":"levelo://app?vid=033e3983-eccc-4920-a19e-04422bbd4a75"},"vehicle_type_id":"4","last_reported":1728554986,"current_range_meters":34800,"station_id":"ce4bguh2rcd13ifvqcj0","pricing_plan_id":"cebpf4jnsgd1na2vs0mg"},{"bike_id":"4ccb046f-2614-4044-8238-6e23561f19a6","system_id":"levelo_inurba_marseille","lat":43.30188,"lon":5.36622,"is_reserved":false,"is_disabled":false,"rental_uris":{"android":"levelo://app?vid=4ccb046f-2614-4044-8238-6e23561f19a6","ios":"levelo://app?vid=4ccb046f-2614-4044-8238-6e23561f19a6"},"vehicle_type_id":"4","last_reported":1728554986,"current_range_meters":18000,"station_id":"ce4bgrh2rcd13ifvqc8g","pricing_plan_id":"cebpf4jnsgd1na2vs0mg"},{"bike_id":"0e6f81c8-5b21-42d0-9d6b-b539dcb92fb9","system_id":"levelo_inurba_marseille","lat":43.33763,"lon":5.3748,"is_reserved":false,"is_disabled":false,"rental_uris":{"android":"levelo://app?vid=0e6f81c8-5b21-42d0-9d6b-b539dcb92fb9","ios":"levelo://app?vid=0e6f81c8-5b21-42d0-9d6b-b539dcb92fb9"},"vehicle_type_id":"4","last_reported":1728554986,"current_range_meters":28400,"station_id":"ce4rr2p2rcd13i802rgg","pricing_plan_id":"cebpf4jnsgd1na2vs0mg"},{"bike_id":"d8c91727-f08c-4b76-a0f8-1657903e62ce","system_id":"levelo_inurba_marseille","lat":43.27809,"lon":5.40708,"is_reserved":false,"is_disabled":false,"rental_uris":{"android":"levelo://app?vid=d8c91727-f08c-4b76-a0f8-1657903e62ce","ios":"levelo://app?vid=d8c91727-f08c-4b76-a0f8-1657903e62ce"},"vehicle_type_id":"4","last_reported":1728554986,"current_range_meters":24000,"station_id":"ce4bhnh2rcd13ifvqgtg","pricing_plan_id":"cebpf4jnsgd1na2vs0mg"},{"bike_id":"2dc1d4f2-bffe-419c-b07d-2f2347a2e109","system_id":"levelo_inurba_marseille","lat":43.23157,"lon":5.43704,"is_reserved":false,"is_disabled":false,"rental_uris":{"android":"levelo://app?vid=2dc1d4f2-bffe-419c-b07d-2f2347a2e109","ios":"levelo://app?vid=2dc1d4f2-bffe-419c-b07d-2f2347a2e109"},"vehicle_type_id":"4","last_reported":1728554986,"current_range_meters":19200,"station_id":"ce4bhmp2rcd13ifvqgog","pricing_plan_id":"cebpf4jnsgd1na2vs0mg"},{"bike_id":"28f14564-5a47-4bc5-a509-d99bcaace2f7","system_id":"levelo_inurba_marseille","lat":43.23157,"lon":5.43704,"is_reserved":false,"is_disabled":false,"rental_uris":{"android":"levelo://app?vid=28f14564-5a47-4bc5-a509-d99bcaace2f7","ios":"levelo://app?vid=28f14564-5a47-4bc5-a509-d99bcaace2f7"},"vehicle_type_id":"4","last_reported":1728554986,"current_range_meters":11600,"station_id":"ce4bhmp2rcd13ifvqgog","pricing_plan_id":"cebpf4jnsgd1na2vs0mg"},{"bike_id":"d9ef6618-a011-4881-9bfd-0b6f43f195ca","system_id":"levelo_inurba_marseille","lat":43.25003,"lon":5.38929,"is_reserved":false,"is_disabled":false,"rental_uris":{"android":"levelo://app?vid=d9ef6618-a011-4881-9bfd-0b6f43f195ca","ios":"levelo://app?vid=d9ef6618-a011-4881-9bfd-0b6f43f195ca"},"vehicle_type_id":"4","last_reported":1728554986,"current_range_meters":30400,"station_id":"ce4bhgp2rcd13ifvqfd0","pricing_plan_id":"cebpf4jnsgd1na2vs0mg"},{"bike_id":"2959adcb-eb5c-489c-b1d4-e001dbc3e8c4","system_id":"levelo_inurba_marseille","lat":43.24391,"lon":5.37057,"is_reserved":false,"is_disabled":false,"rental_uris":{"android":"levelo://app?vid=2959adcb-eb5c-489c-b1d4-e001dbc3e8c4","ios":"levelo://app?vid=2959adcb-eb5c-489c-b1d4-e001dbc3e8c4"},"vehicle_type_id":"4","last_reported":1728554986,"current_range_meters":38800,"station_id":"ce4bhhh2rcd13ifvqfk0","pricing_plan_id":"cebpf4jnsgd1na2vs0mg"},{"bike_id":"5ea8d378-7378-4eb9-a086-ab7a41d69b7b","system_id":"levelo_inurba_marseille","lat":43.26946,"lon":5.40244,"is_reserved":false,"is_disabled":false,"rental_uris":{"android":"levelo://app?vid=5ea8d378-7378-4eb9-a086-ab7a41d69b7b","ios":"levelo://app?vid=5ea8d378-7378-4eb9-a086-ab7a41d69b7b"},"vehicle_type_id":"4","last_reported":1728554986,"current_range_meters":37600,"station_id":"cjm6bp8fraef2m0cb0m0","pricing_plan_id":"cebpf4jnsgd1na2vs0mg"},{"bike_id":"63ab1eaf-0517-4493-89e9-04df94c8d74b","system_id":"levelo_inurba_marseille","lat":43.29579,"lon":5.36739,"is_reserved":false,"is_disabled":false,"rental_uris":{"android":"levelo://app?vid=63ab1eaf-0517-4493-89e9-04df94c8d74b","ios":"levelo://app?vid=63ab1eaf-0517-4493-89e9-04df94c8d74b"},"vehicle_type_id":"4","last_reported":1728554986,"current_range_meters":38400,"station_id":"ce4bgph2rcd13ifvqc2g","pricing_plan_id":"cebpf4jnsgd1na2vs0mg"},{"bike_id":"0979c204-70e9-4c35-9b92-1ef29f47c39c","system_id":"levelo_inurba_marseille","lat":43.32367,"lon":5.38885,"is_reserved":false,"is_disabled":false,"rental_uris":{"android":"levelo://app?vid=0979c204-70e9-4c35-9b92-1ef29f47c39c","ios":"levelo://app?vid=0979c204-70e9-4c35-9b92-1ef29f47c39c"},"vehicle_type_id":"4","last_reported":1728554986,"current_range_meters":19600,"station_id":"ce4bhqp2rcd13ifvqhog","pricing_plan_id":"cebpf4jnsgd1na2vs0mg"},{"bike_id":"f9140b0e-1885-4add-b6d4-9f8709588af9","system_id":"levelo_inurba_marseille","lat":43.30182,"lon":5.36628,"is_reserved":false,"is_disabled":false,"rental_uris":{"android":"levelo://app?vid=f9140b0e-1885-4add-b6d4-9f8709588af9","ios":"levelo://app?vid=f9140b0e-1885-4add-b6d4-9f8709588af9"},"vehicle_type_id":"4","last_reported":1728554986,"current_range_meters":26000,"station_id":"ce4bgrh2rcd13ifvqc8g","pricing_plan_id":"cebpf4jnsgd1na2vs0mg"},{"bike_id":"8ae8bbf4-7502-4e26-9a9b-508af29fc57f","system_id":"levelo_inurba_marseille","lat":43.3016,"lon":5.38084,"is_reserved":false,"is_disabled":false,"rental_uris":{"android":"levelo://app?vid=8ae8bbf4-7502-4e26-9a9b-508af29fc57f","ios":"levelo://app?vid=8ae8bbf4-7502-4e26-9a9b-508af29fc57f"},"vehicle_type_id":"4","last_reported":1728554986,"current_range_meters":28800,"station_id":"ce4bgjp2rcd13ifvqbh0","pricing_plan_id":"cebpf4jnsgd1na2vs0mg"},{"bike_id":"a4d9193f-992e-4cd0-8a97-afb4e0659ba3","system_id":"levelo_inurba_marseille","lat":43.32656,"lon":5.40989,"is_reserved":false,"is_disabled":false,"rental_uris":{"android":"levelo://app?vid=a4d9193f-992e-4cd0-8a97-afb4e0659ba3","ios":"levelo://app?vid=a4d9193f-992e-4cd0-8a97-afb4e0659ba3"},"vehicle_type_id":"4","last_reported":1728554986,"current_range_meters":39200,"station_id":"ce4bhpp2rcd13ifvqhgg","pricing_plan_id":"cebpf4jnsgd1na2vs0mg"},{"bike_id":"ed1572ba-6b07-4be6-bf65-a07a2cf31738","system_id":"levelo_inurba_marseille","lat":43.24806,"lon":5.37457,"is_reserved":false,"is_disabled":false,"rental_uris":{"android":"levelo://app?vid=ed1572ba-6b07-4be6-bf65-a07a2cf31738","ios":"levelo://app?vid=ed1572ba-6b07-4be6-bf65-a07a2cf31738"},"vehicle_type_id":"4","last_reported":1728554986,"current_range_meters":39200,"station_id":"ce4bhgh2rcd13ifvqfb0","pricing_plan_id":"cebpf4jnsgd1na2vs0mg"},{"bike_id":"fc29a7d1-799c-4ab2-a47a-3433496ca6b8","system_id":"levelo_inurba_marseille","lat":43.30415,"lon":5.3976,"is_reserved":false,"is_disabled":false,"rental_uris":{"android":"levelo://app?vid=fc29a7d1-799c-4ab2-a47a-3433496ca6b8","ios":"levelo://app?vid=fc29a7d1-799c-4ab2-a47a-3433496ca6b8"},"vehicle_type_id":"4","last_reported":1728554986,"current_range_meters":11200,"station_id":"ce4bh092rcd13ifvqd20","pricing_plan_id":"cebpf4jnsgd1na2vs0mg"},{"bike_id":"dc569d61-91e8-4004-b3f3-c501f498504a","system_id":"levelo_inurba_marseille","lat":43.23154,"lon":5.43716,"is_reserved":false,"is_disabled":false,"rental_uris":{"android":"levelo://app?vid=dc569d61-91e8-4004-b3f3-c501f498504a","ios":"levelo://app?vid=dc569d61-91e8-4004-b3f3-c501f498504a"},"vehicle_type_id":"4","last_reported":1728554986,"current_range_meters":20400,"station_id":"ce4bhmp2rcd13ifvqgog","pricing_plan_id":"cebpf4jnsgd1na2vs0mg"},{"bike_id":"977d9e0e-fa68-4eae-9557-565a02e21571","system_id":"levelo_inurba_marseille","lat":43.30546,"lon":5.36538,"is_reserved":false,"is_disabled":false,"rental_uris":{"android":"levelo://app?vid=977d9e0e-fa68-4eae-9557-565a02e21571","ios":"levelo://app?vid=977d9e0e-fa68-4eae-9557-565a02e21571"},"vehicle_type_id":"4","last_reported":1728554986,"current_range_meters":24800,"station_id":"ce4bgs12rcd13ifvqcag","pricing_plan_id":"cebpf4jnsgd1na2vs0mg"},{"bike_id":"99d66301-10cb-48d7-8f69-dbf04f54b39e","system_id":"levelo_inurba_marseille","lat":43.23065,"lon":5.35493,"is_reserved":false,"is_disabled":false,"rental_uris":{"android":"levelo://app?vid=99d66301-10cb-48d7-8f69-dbf04f54b39e","ios":"levelo://app?vid=99d66301-10cb-48d7-8f69-dbf04f54b39e"},"vehicle_type_id":"4","last_reported":1728554986,"current_range_meters":25600,"station_id":"cpo3342slgdg3j2ifvpg","pricing_plan_id":"cebpf4jnsgd1na2vs0mg"},{"bike_id":"625f172c-9389-49cb-ba12-3231563527bc","system_id":"levelo_inurba_marseille","lat":43.33751,"lon":5.37457,"is_reserved":false,"is_disabled":false,"rental_uris":{"android":"levelo://app?vid=625f172c-9389-49cb-ba12-3231563527bc","ios":"levelo://app?vid=625f172c-9389-49cb-ba12-3231563527bc"},"vehicle_type_id":"4","last_reported":1728554986,"current_range_meters":24800,"station_id":"ce4rr2p2rcd13i802rgg","pricing_plan_id":"cebpf4jnsgd1na2vs0mg"},{"bike_id":"030f919c-4c25-4d8a-9126-2951e33661ba","system_id":"levelo_inurba_marseille","lat":43.30555,"lon":5.36541,"is_reserved":false,"is_disabled":false,"rental_uris":{"android":"levelo://app?vid=030f919c-4c25-4d8a-9126-2951e33661ba","ios":"levelo://app?vid=030f919c-4c25-4d8a-9126-2951e33661ba"},"vehicle_type_id":"4","last_reported":1728554986,"current_range_meters":36800,"station_id":"ce4bgs12rcd13ifvqcag","pricing_plan_id":"cebpf4jnsgd1na2vs0mg"},{"bike_id":"66f49b7b-9c9e-44d7-bf46-af58424a6566","system_id":"levelo_inurba_marseille","lat":43.32538,"lon":5.4144,"is_reserved":false,"is_disabled":false,"rental_uris":{"android":"levelo://app?vid=66f49b7b-9c9e-44d7-bf46-af58424a6566","ios":"levelo://app?vid=66f49b7b-9c9e-44d7-bf46-af58424a6566"},"vehicle_type_id":"4","last_reported":1728554986,"current_range_meters":27600,"station_id":"ce4bhq12rcd13ifvqhhg","pricing_plan_id":"cebpf4jnsgd1na2vs0mg"},{"bike_id":"f5008604-d2ad-4a58-b394-54586b88486d","system_id":"levelo_inurba_marseille","lat":43.3089,"lon":5.37198,"is_reserved":false,"is_disabled":false,"rental_uris":{"android":"levelo://app?vid=f5008604-d2ad-4a58-b394-54586b88486d","ios":"levelo://app?vid=f5008604-d2ad-4a58-b394-54586b88486d"},"vehicle_type_id":"4","last_reported":1728554986,"current_range_meters":19200,"station_id":"ce4bguh2rcd13ifvqckg","pricing_plan_id":"cebpf4jnsgd1na2vs0mg"},{"bike_id":"a9791209-a902-4c51-a677-a20ef860c053","system_id":"levelo_inurba_marseille","lat":43.25577,"lon":5.38241,"is_reserved":false,"is_disabled":false,"rental_uris":{"android":"levelo://app?vid=a9791209-a902-4c51-a677-a20ef860c053","ios":"levelo://app?vid=a9791209-a902-4c51-a677-a20ef860c053"},"vehicle_type_id":"4","last_reported":1728554986,"current_range_meters":4400,"station_id":"ce4bhih2rcd13ifvqfs0","pricing_plan_id":"cebpf4jnsgd1na2vs0mg"},{"bike_id":"0ffbdbd8-5971-4b7e-9c40-3f2a96416cf9","system_id":"levelo_inurba_marseille","lat":43.31216,"lon":5.36866,"is_reserved":false,"is_disabled":false,"rental_uris":{"android":"levelo://app?vid=0ffbdbd8-5971-4b7e-9c40-3f2a96416cf9","ios":"levelo://app?vid=0ffbdbd8-5971-4b7e-9c40-3f2a96416cf9"},"vehicle_type_id":"4","last_reported":1728554986,"current_range_meters":40000,"station_id":"ce4bgl92rcd13ifvqbq0","pricing_plan_id":"cebpf4jnsgd1na2vs0mg"},{"bike_id":"4b2f4fea-06b2-477f-9883-12a546ad6d80","system_id":"levelo_inurba_marseille","lat":43.33605,"lon":5.41035,"is_reserved":false,"is_disabled":false,"rental_uris":{"android":"levelo://app?vid=4b2f4fea-06b2-477f-9883-12a546ad6d80","ios":"levelo://app?vid=4b2f4fea-06b2-477f-9883-12a546ad6d80"},"vehicle_type_id":"4","last_reported":1728554986,"current_range_meters":30000,"station_id":"ce4bhqh2rcd13ifvqhmg","pricing_plan_id":"cebpf4jnsgd1na2vs0mg"},{"bike_id":"0d616978-f5e6-49ce-94a5-19c6c56a53ac","system_id":"levelo_inurba_marseille","lat":43.34139,"lon":5.40912,"is_reserved":false,"is_disabled":false,"rental_uris":{"android":"levelo://app?vid=0d616978-f5e6-49ce-94a5-19c6c56a53ac","ios":"levelo://app?vid=0d616978-f5e6-49ce-94a5-19c6c56a53ac"},"vehicle_type_id":"4","last_reported":1728554986,"current_range_meters":8400,"station_id":"ce4bhqh2rcd13ifvqhlg","pricing_plan_id":"cebpf4jnsgd1na2vs0mg"},{"bike_id":"9026eb07-bdd2-448c-8a78-8610adf51f5f","system_id":"levelo_inurba_marseille","lat":43.29369,"lon":5.37844,"is_reserved":false,"is_disabled":false,"rental_uris":{"android":"levelo://app?vid=9026eb07-bdd2-448c-8a78-8610adf51f5f","ios":"levelo://app?vid=9026eb07-bdd2-448c-8a78-8610adf51f5f"},"vehicle_type_id":"4","last_reported":1728554986,"current_range_meters":37600,"station_id":"ce4bgjh2rcd13ifvqbf0","pricing_plan_id":"cebpf4jnsgd1na2vs0mg"},{"bike_id":"7851dbc0-fe97-4d6c-8383-46784bdbec44","system_id":"levelo_inurba_marseille","lat":43.25001,"lon":5.38933,"is_reserved":false,"is_disabled":false,"rental_uris":{"android":"levelo://app?vid=7851dbc0-fe97-4d6c-8383-46784bdbec44","ios":"levelo://app?vid=7851dbc0-fe97-4d6c-8383-46784bdbec44"},"vehicle_type_id":"4","last_reported":1728554986,"current_range_meters":20400,"station_id":"ce4bhgp2rcd13ifvqfd0","pricing_plan_id":"cebpf4jnsgd1na2vs0mg"},{"bike_id":"ea1fcf41-e930-45fb-b7b7-36d0347329c6","system_id":"levelo_inurba_marseille","lat":43.32069,"lon":5.41566,"is_reserved":false,"is_disabled":false,"rental_uris":{"android":"levelo://app?vid=ea1fcf41-e930-45fb-b7b7-36d0347329c6","ios":"levelo://app?vid=ea1fcf41-e930-45fb-b7b7-36d0347329c6"},"vehicle_type_id":"4","last_reported":1728554986,"current_range_meters":25200,"station_id":"ce4bhq92rcd13ifvqhkg","pricing_plan_id":"cebpf4jnsgd1na2vs0mg"},{"bike_id":"bf54dd77-41e0-46cb-947b-7b4680e51563","system_id":"levelo_inurba_marseille","lat":43.27207,"lon":5.39185,"is_reserved":false,"is_disabled":false,"rental_uris":{"android":"levelo://app?vid=bf54dd77-41e0-46cb-947b-7b4680e51563","ios":"levelo://app?vid=bf54dd77-41e0-46cb-947b-7b4680e51563"},"vehicle_type_id":"4","last_reported":1728554986,"current_range_meters":7200,"station_id":"ce4bhhp2rcd13ifvqfm0","pricing_plan_id":"cebpf4jnsgd1na2vs0mg"},{"bike_id":"7a335578-5573-461a-941f-7b06be180346","system_id":"levelo_inurba_marseille","lat":43.30159,"lon":5.38081,"is_reserved":false,"is_disabled":false,"rental_uris":{"android":"levelo://app?vid=7a335578-5573-461a-941f-7b06be180346","ios":"levelo://app?vid=7a335578-5573-461a-941f-7b06be180346"},"vehicle_type_id":"4","last_reported":1728554986,"current_range_meters":18000,"station_id":"ce4bgjp2rcd13ifvqbh0","pricing_plan_id":"cebpf4jnsgd1na2vs0mg"},{"bike_id":"f07e026e-697d-417a-a6be-a1f469b5ff98","system_id":"levelo_inurba_marseille","lat":43.30896,"lon":5.36859,"is_reserved":false,"is_disabled":false,"rental_uris":{"android":"levelo://app?vid=f07e026e-697d-417a-a6be-a1f469b5ff98","ios":"levelo://app?vid=f07e026e-697d-417a-a6be-a1f469b5ff98"},"vehicle_type_id":"4","last_reported":1728554986,"current_range_meters":24000,"station_id":"ce4bgn92rcd13ifvqbvg","pricing_plan_id":"cebpf4jnsgd1na2vs0mg"},{"bike_id":"28859396-acf0-4362-9ee1-274f3ecbdd4d","system_id":"levelo_inurba_marseille","lat":43.324755,"lon":5.365656,"is_reserved":false,"is_disabled":false,"rental_uris":{"android":"levelo://app?vid=28859396-acf0-4362-9ee1-274f3ecbdd4d","ios":"levelo://app?vid=28859396-acf0-4362-9ee1-274f3ecbdd4d"},"vehicle_type_id":"4","last_reported":1728554986,"current_range_meters":29600,"station_id":"ce4bhs12rcd13ifvqhvg","pricing_plan_id":"cebpf4jnsgd1na2vs0mg"},{"bike_id":"20dab75d-2e6a-4c11-980c-54c451fa1ed2","system_id":"levelo_inurba_marseille","lat":43.31067,"lon":5.38338,"is_reserved":false,"is_disabled":false,"rental_uris":{"android":"levelo://app?vid=20dab75d-2e6a-4c11-980c-54c451fa1ed2","ios":"levelo://app?vid=20dab75d-2e6a-4c11-980c-54c451fa1ed2"},"vehicle_type_id":"4","last_reported":1728554986,"current_range_meters":9600,"station_id":"ce4bgv92rcd13ifvqcr0","pricing_plan_id":"cebpf4jnsgd1na2vs0mg"},{"bike_id":"3e0239ec-8641-4cba-9a37-136cdc5e1907","system_id":"levelo_inurba_marseille","lat":43.27184,"lon":5.40985,"is_reserved":false,"is_disabled":false,"rental_uris":{"android":"levelo://app?vid=3e0239ec-8641-4cba-9a37-136cdc5e1907","ios":"levelo://app?vid=3e0239ec-8641-4cba-9a37-136cdc5e1907"},"vehicle_type_id":"4","last_reported":1728554986,"current_range_meters":35600,"station_id":"ce4bhl12rcd13ifvqgf0","pricing_plan_id":"cebpf4jnsgd1na2vs0mg"},{"bike_id":"9b512d83-fdf1-471d-ab71-b959e85963f9","system_id":"levelo_inurba_marseille","lat":43.24807,"lon":5.3746,"is_reserved":false,"is_disabled":false,"rental_uris":{"android":"levelo://app?vid=9b512d83-fdf1-471d-ab71-b959e85963f9","ios":"levelo://app?vid=9b512d83-fdf1-471d-ab71-b959e85963f9"},"vehicle_type_id":"4","last_reported":1728554986,"current_range_meters":22000,"station_id":"ce4bhgh2rcd13ifvqfb0","pricing_plan_id":"cebpf4jnsgd1na2vs0mg"},{"bike_id":"befbc766-8bff-4945-b5de-aacee66a0dbc","system_id":"levelo_inurba_marseille","lat":43.33763,"lon":5.37474,"is_reserved":false,"is_disabled":false,"rental_uris":{"android":"levelo://app?vid=befbc766-8bff-4945-b5de-aacee66a0dbc","ios":"levelo://app?vid=befbc766-8bff-4945-b5de-aacee66a0dbc"},"vehicle_type_id":"4","last_reported":1728554986,"current_range_meters":36800,"station_id":"ce4rr2p2rcd13i802rgg","pricing_plan_id":"cebpf4jnsgd1na2vs0mg"},{"bike_id":"70757a86-81dc-40f2-8de6-fedb4f170c66","system_id":"levelo_inurba_marseille","lat":43.2981,"lon":5.38104,"is_reserved":false,"is_disabled":false,"rental_uris":{"android":"levelo://app?vid=70757a86-81dc-40f2-8de6-fedb4f170c66","ios":"levelo://app?vid=70757a86-81dc-40f2-8de6-fedb4f170c66"},"vehicle_type_id":"4","last_reported":1728554986,"current_range_meters":39200,"station_id":"ce4bgip2rcd13ifvqbb0","pricing_plan_id":"cebpf4jnsgd1na2vs0mg"},{"bike_id":"3b1f9623-1129-4ada-9f1c-7dd0f98ff646","system_id":"levelo_inurba_marseille","lat":43.29615,"lon":5.37707,"is_reserved":false,"is_disabled":false,"rental_uris":{"android":"levelo://app?vid=3b1f9623-1129-4ada-9f1c-7dd0f98ff646","ios":"levelo://app?vid=3b1f9623-1129-4ada-9f1c-7dd0f98ff646"},"vehicle_type_id":"4","last_reported":1728554986,"current_range_meters":36800,"station_id":"ce4bgi92rcd13ifvqb90","pricing_plan_id":"cebpf4jnsgd1na2vs0mg"},{"bike_id":"cb84bb11-d2a2-4d66-a472-775301d0f470","system_id":"levelo_inurba_marseille","lat":43.29262,"lon":5.38453,"is_reserved":false,"is_disabled":false,"rental_uris":{"android":"levelo://app?vid=cb84bb11-d2a2-4d66-a472-775301d0f470","ios":"levelo://app?vid=cb84bb11-d2a2-4d66-a472-775301d0f470"},"vehicle_type_id":"4","last_reported":1728554986,"current_range_meters":38800,"station_id":"ce4bh692rcd13ifvqea0","pricing_plan_id":"cebpf4jnsgd1na2vs0mg"},{"bike_id":"85dad328-0ede-4b43-b07e-ee98e0e84411","system_id":"levelo_inurba_marseille","lat":43.30551,"lon":5.36555,"is_reserved":false,"is_disabled":false,"rental_uris":{"android":"levelo://app?vid=85dad328-0ede-4b43-b07e-ee98e0e84411","ios":"levelo://app?vid=85dad328-0ede-4b43-b07e-ee98e0e84411"},"vehicle_type_id":"4","last_reported":1728554986,"current_range_meters":7200,"station_id":"ce4bgs12rcd13ifvqcag","pricing_plan_id":"cebpf4jnsgd1na2vs0mg"},{"bike_id":"e8290b1f-0997-4047-92c2-94a9e1e0a521","system_id":"levelo_inurba_marseille","lat":43.28154,"lon":5.4265,"is_reserved":false,"is_disabled":false,"rental_uris":{"android":"levelo://app?vid=e8290b1f-0997-4047-92c2-94a9e1e0a521","ios":"levelo://app?vid=e8290b1f-0997-4047-92c2-94a9e1e0a521"},"vehicle_type_id":"4","last_reported":1728554986,"current_range_meters":8400,"station_id":"ce4bhnh2rcd13ifvqgug","pricing_plan_id":"cebpf4jnsgd1na2vs0mg"},{"bike_id":"9d32010d-2215-42fd-bdda-47e1e1afd1ea","system_id":"levelo_inurba_marseille","lat":43.26939,"lon":5.40247,"is_reserved":false,"is_disabled":false,"rental_uris":{"android":"levelo://app?vid=9d32010d-2215-42fd-bdda-47e1e1afd1ea","ios":"levelo://app?vid=9d32010d-2215-42fd-bdda-47e1e1afd1ea"},"vehicle_type_id":"4","last_reported":1728554986,"current_range_meters":35200,"station_id":"cjm6bp8fraef2m0cb0m0","pricing_plan_id":"cebpf4jnsgd1na2vs0mg"},{"bike_id":"677d7c65-d527-4a9d-bebf-6686e9a9f0ac","system_id":"levelo_inurba_marseille","lat":43.27055,"lon":5.40258,"is_reserved":false,"is_disabled":false,"rental_uris":{"android":"levelo://app?vid=677d7c65-d527-4a9d-bebf-6686e9a9f0ac","ios":"levelo://app?vid=677d7c65-d527-4a9d-bebf-6686e9a9f0ac"},"vehicle_type_id":"4","last_reported":1728554986,"current_range_meters":23200,"station_id":"ce4bhk92rcd13ifvqgc0","pricing_plan_id":"cebpf4jnsgd1na2vs0mg"},{"bike_id":"454a6600-3821-42b3-8ef8-01eb44601883","system_id":"levelo_inurba_marseille","lat":43.31162,"lon":5.38712,"is_reserved":false,"is_disabled":false,"rental_uris":{"android":"levelo://app?vid=454a6600-3821-42b3-8ef8-01eb44601883","ios":"levelo://app?vid=454a6600-3821-42b3-8ef8-01eb44601883"},"vehicle_type_id":"4","last_reported":1728554986,"current_range_meters":38800,"station_id":"ce4bgv12rcd13ifvqcp0","pricing_plan_id":"cebpf4jnsgd1na2vs0mg"},{"bike_id":"b43fba30-bfe3-415c-9447-eec18e7dbe6e","system_id":"levelo_inurba_marseille","lat":43.30944,"lon":5.39044,"is_reserved":false,"is_disabled":false,"rental_uris":{"android":"levelo://app?vid=b43fba30-bfe3-415c-9447-eec18e7dbe6e","ios":"levelo://app?vid=b43fba30-bfe3-415c-9447-eec18e7dbe6e"},"vehicle_type_id":"4","last_reported":1728554986,"current_range_meters":22000,"station_id":"ce4bgup2rcd13ifvqco0","pricing_plan_id":"cebpf4jnsgd1na2vs0mg"},{"bike_id":"b78117f6-ce1f-4266-8afc-843d8ded0de0","system_id":"levelo_inurba_marseille","lat":43.23194,"lon":5.35551,"is_reserved":false,"is_disabled":false,"rental_uris":{"android":"levelo://app?vid=b78117f6-ce1f-4266-8afc-843d8ded0de0","ios":"levelo://app?vid=b78117f6-ce1f-4266-8afc-843d8ded0de0"},"vehicle_type_id":"4","last_reported":1728554986,"current_range_meters":26800,"station_id":"ce4bhu92rcd13ifvqi70","pricing_plan_id":"cebpf4jnsgd1na2vs0mg"},{"bike_id":"a6951866-dd34-4812-8a24-4a7c121cfa8d","system_id":"levelo_inurba_marseille","lat":43.32287,"lon":5.38263,"is_reserved":false,"is_disabled":false,"rental_uris":{"android":"levelo://app?vid=a6951866-dd34-4812-8a24-4a7c121cfa8d","ios":"levelo://app?vid=a6951866-dd34-4812-8a24-4a7c121cfa8d"},"vehicle_type_id":"4","last_reported":1728554986,"current_range_meters":38800,"station_id":"ce4bhr12rcd13ifvqhqg","pricing_plan_id":"cebpf4jnsgd1na2vs0mg"},{"bike_id":"2d6e6edd-d67b-4333-8d58-b7b976f74f1a","system_id":"levelo_inurba_marseille","lat":43.28615,"lon":5.35102,"is_reserved":false,"is_disabled":false,"rental_uris":{"android":"levelo://app?vid=2d6e6edd-d67b-4333-8d58-b7b976f74f1a","ios":"levelo://app?vid=2d6e6edd-d67b-4333-8d58-b7b976f74f1a"},"vehicle_type_id":"4","last_reported":1728554986,"current_range_meters":36000,"station_id":"ce4bhch2rcd13ifvqeug","pricing_plan_id":"cebpf4jnsgd1na2vs0mg"},{"bike_id":"347fe0f0-68a4-4d6d-8051-3f0bf0bea8d7","system_id":"levelo_inurba_marseille","lat":43.30544,"lon":5.36543,"is_reserved":false,"is_disabled":false,"rental_uris":{"android":"levelo://app?vid=347fe0f0-68a4-4d6d-8051-3f0bf0bea8d7","ios":"levelo://app?vid=347fe0f0-68a4-4d6d-8051-3f0bf0bea8d7"},"vehicle_type_id":"4","last_reported":1728554986,"current_range_meters":18000,"station_id":"ce4bgs12rcd13ifvqcag","pricing_plan_id":"cebpf4jnsgd1na2vs0mg"},{"bike_id":"5db5b298-2a9b-458e-9ba2-55e8a26ef404","system_id":"levelo_inurba_marseille","lat":43.33613,"lon":5.41029,"is_reserved":false,"is_disabled":false,"rental_uris":{"android":"levelo://app?vid=5db5b298-2a9b-458e-9ba2-55e8a26ef404","ios":"levelo://app?vid=5db5b298-2a9b-458e-9ba2-55e8a26ef404"},"vehicle_type_id":"4","last_reported":1728554986,"current_range_meters":12800,"station_id":"ce4bhqh2rcd13ifvqhmg","pricing_plan_id":"cebpf4jnsgd1na2vs0mg"},{"bike_id":"c7a602cc-a075-4abd-9782-4fac3f11624d","system_id":"levelo_inurba_marseille","lat":43.29294,"lon":5.37436,"is_reserved":false,"is_disabled":false,"rental_uris":{"android":"levelo://app?vid=c7a602cc-a075-4abd-9782-4fac3f11624d","ios":"levelo://app?vid=c7a602cc-a075-4abd-9782-4fac3f11624d"},"vehicle_type_id":"4","last_reported":1728554986,"current_range_meters":25600,"station_id":"ce4bgi12rcd13ifvqb70","pricing_plan_id":"cebpf4jnsgd1na2vs0mg"},{"bike_id":"690893ad-4455-48b5-b703-cacfe26596e2","system_id":"levelo_inurba_marseille","lat":43.26688,"lon":5.38276,"is_reserved":false,"is_disabled":false,"rental_uris":{"android":"levelo://app?vid=690893ad-4455-48b5-b703-cacfe26596e2","ios":"levelo://app?vid=690893ad-4455-48b5-b703-cacfe26596e2"},"vehicle_type_id":"4","last_reported":1728554986,"current_range_meters":5600,"station_id":"ce4bhg92rcd13ifvqf90","pricing_plan_id":"cebpf4jnsgd1na2vs0mg"},{"bike_id":"ca1c81b8-6194-4216-a8df-6dbdf17d310e","system_id":"levelo_inurba_marseille","lat":43.32529,"lon":5.41446,"is_reserved":false,"is_disabled":false,"rental_uris":{"android":"levelo://app?vid=ca1c81b8-6194-4216-a8df-6dbdf17d310e","ios":"levelo://app?vid=ca1c81b8-6194-4216-a8df-6dbdf17d310e"},"vehicle_type_id":"4","last_reported":1728554986,"current_range_meters":13600,"station_id":"ce4bhq12rcd13ifvqhhg","pricing_plan_id":"cebpf4jnsgd1na2vs0mg"},{"bike_id":"bd5904f0-9457-4f87-875a-929598ead2a2","system_id":"levelo_inurba_marseille","lat":43.23153,"lon":5.43713,"is_reserved":false,"is_disabled":false,"rental_uris":{"android":"levelo://app?vid=bd5904f0-9457-4f87-875a-929598ead2a2","ios":"levelo://app?vid=bd5904f0-9457-4f87-875a-929598ead2a2"},"vehicle_type_id":"4","last_reported":1728554986,"current_range_meters":3200,"station_id":"ce4bhmp2rcd13ifvqgog","pricing_plan_id":"cebpf4jnsgd1na2vs0mg"},{"bike_id":"5386e7d2-2452-47c0-b9f4-aaf97877355e","system_id":"levelo_inurba_marseille","lat":43.32533,"lon":5.41439,"is_reserved":false,"is_disabled":false,"rental_uris":{"android":"levelo://app?vid=5386e7d2-2452-47c0-b9f4-aaf97877355e","ios":"levelo://app?vid=5386e7d2-2452-47c0-b9f4-aaf97877355e"},"vehicle_type_id":"4","last_reported":1728554986,"current_range_meters":31200,"station_id":"ce4bhq12rcd13ifvqhhg","pricing_plan_id":"cebpf4jnsgd1na2vs0mg"},{"bike_id":"d71fdbf3-86ef-4e9e-8511-a61b0b456ead","system_id":"levelo_inurba_marseille","lat":43.32055,"lon":5.41556,"is_reserved":false,"is_disabled":false,"rental_uris":{"android":"levelo://app?vid=d71fdbf3-86ef-4e9e-8511-a61b0b456ead","ios":"levelo://app?vid=d71fdbf3-86ef-4e9e-8511-a61b0b456ead"},"vehicle_type_id":"4","last_reported":1728554986,"current_range_meters":9600,"station_id":"ce4bhq92rcd13ifvqhkg","pricing_plan_id":"cebpf4jnsgd1na2vs0mg"},