{"last_updated":1748725727,"ttl":60,"version":"2.2","data":{"bikes":[{"bike_id":"4863231a-168d-40bd-bf20-34b38f82b34f","system_id":"levelo_inurba_marseille","lat":43.30529,"lon":5.38422,"is_reserved":false,"is_disabled":false,"rental_uris":{"android":"levelo://app?vid=4863231a-168d-40bd-bf20-34b38f82b34f","ios":"levelo://app?vid=4863231a-168d-40bd-bf20-34b38f82b34f"},"vehicle_type_id":"4","last_reported":1748725727,"current_range_meters":2800,"station_id":"ce4bgg92rcd13ifvqb30","pricing_plan_id":"cebpf4jnsgd1na2vs0mg"},{"bike_id":"a8611f9d-1966-4e62-a468-19cbb346249e","system_id":"levelo_inurba_marseille","lat":43.30366,"lon":5.39287,"is_reserved":false,"is_disabled":false,"rental_uris":{"android":"levelo://app?vid=a8611f9d-1966-4e62-a468-19cbb346249e","ios":"levelo://app?vid=a8611f9d-1966-4e62-a468-19cbb346249e"},"vehicle_type_id":"4","last_reported":1748725727,"current_range_meters":3200,"station_id":"","pricing_plan_id":"cebpf4jnsgd1na2vs0mg"},{"bike_id":"82a000fa-d7e4-4038-b31a-e8ae4589483e","system_id":"levelo_inurba_marseille","lat":43.30548,"lon":5.36545,"is_reserved":false,"is_disabled":false,"rental_uris":{"android":"levelo://app?vid=82a000fa-d7e4-4038-b31a-e8ae4589483e","ios":"levelo://app?vid=82a000fa-d7e4-4038-b31a-e8ae4589483e"},"vehicle_type_id":"4","last_reported":1748725727,"current_range_meters":3200,"station_id":"ce4bgs12rcd13ifvqcag","pricing_plan_id":"cebpf4jnsgd1na2vs0mg"},{"bike_id":"eecc3cfa-8891-4836-ae24-ca2ff93d8930","system_id":"levelo_inurba_marseille","lat":43.29256,"lon":5.38436,"is_reserved":false,"is_disabled":false,"rental_uris":{"android":"levelo://app?vid=eecc3cfa-8891-4836-ae24-ca2ff93d8930","ios":"levelo://app?vid=eecc3cfa-8891-4836-ae24-ca2ff93d8930"},"vehicle_type_id":"4","last_reported":1748725727,"current_range_meters":3200,"station_id":"ce4bh692rcd13ifvqea0","pricing_plan_id":"cebpf4jnsgd1na2vs0mg"},{"bike_id":"10e320e4-7117-42fa-a1c8-4d8c3ac0f470","system_id":"levelo_inurba_marseille","lat":43.26554,"lon":5.37283,"is_reserved":false,"is_disabled":false,"rental_uris":{"android":"levelo://app?vid=10e320e4-7117-42fa-a1c8-4d8c3ac0f470","ios":"levelo://app?vid=10e320e4-7117-42fa-a1c8-4d8c3ac0f470"},"vehicle_type_id":"4","last_reported":1748725727,"current_range_meters":3200,"station_id":"ce4bhg12rcd13ifvqf70","pricing_plan_id":"cebpf4jnsgd1na2vs0mg"},{"bike_id":"8c49a001-b704-47c2-b24b-491779d2f218","system_id":"levelo_inurba_marseille","lat":43.298,"lon":5.40401,"is_reserved":false,"is_disabled":false,"rental_uris":{"android":"levelo://app?vid=8c49a001-b704-47c2-b24b-491779d2f218","ios":"levelo://app?vid=8c49a001-b704-47c2-b24b-491779d2f218"},"vehicle_type_id":"4","last_reported":1748725727,"current_range_meters":3200,"station_id":"ce4bh112rcd13ifvqd90","pricing_plan_id":"cebpf4jnsgd1na2vs0mg"},{"bike_id":"9b6e2007-c9b4-4121-bb2c-ce0d76155e47","system_id":"levelo_inurba_marseille","lat":43.28104,"lon":5.37841,"is_reserved":false,"is_disabled":false,"rental_uris":{"android":"levelo://app?vid=9b6e2007-c9b4-4121-bb2c-ce0d76155e47","ios":"levelo://app?vid=9b6e2007-c9b4-4121-bb2c-ce0d76155e47"},"vehicle_type_id":"4","last_reported":1748725727,"current_range_meters":3600,"station_id":"ce4bha12rcd13ifvqee0","pricing_plan_id":"cebpf4jnsgd1na2vs0mg"},{"bike_id":"d28aeaad-f5f2-4c4f-a0cd-6b7231965959","system_id":"levelo_inurba_marseille","lat":43.32995,"lon":5.3927,"is_reserved":false,"is_disabled":true,"rental_uris":{"android":"levelo://app?vid=d28aeaad-f5f2-4c4f-a0cd-6b7231965959","ios":"levelo://app?vid=d28aeaad-f5f2-4c4f-a0cd-6b7231965959"},"vehicle_type_id":"4","last_reported":1748725727,"current_range_meters":3600,"station_id":"","pricing_plan_id":"cebpf4jnsgd1na2vs0mg"},{"bike_id":"57dddae9-4ffa-4ba9-a0d7-218e0635242f","system_id":"levelo_inurba_marseille","lat":43.27536,"lon":5.38408,"is_reserved":false,"is_disabled":false,"rental_uris":{"android":"levelo://app?vid=57dddae9-4ffa-4ba9-a0d7-218e0635242f","ios":"levelo://app?vid=57dddae9-4ffa-4ba9-a0d7-218e0635242f"},"vehicle_type_id":"4","last_reported":1748725727,"current_range_meters":3600,"station_id":"ce4bhh92rcd13ifvqfi0","pricing_plan_id":"cebpf4jnsgd1na2vs0mg"},{"bike_id":"4b024560-b7b5-4113-936e-a3e0deb88ccf","system_id":"levelo_inurba_marseille","lat":43.28166,"lon":5.42623,"is_reserved":false,"is_disabled":false,"rental_uris":{"android":"levelo://app?vid=4b024560-b7b5-4113-936e-a3e0deb88ccf","ios":"levelo://app?vid=4b024560-b7b5-4113-936e-a3e0deb88ccf"},"vehicle_type_id":"4","last_reported":1748725727,"current_range_meters":3600,"station_id":"ce4bhnh2rcd13ifvqgug","pricing_plan_id":"cebpf4jnsgd1na2vs0mg"},{"bike_id":"4ea9999a-521a-421b-8382-43785c8666dd","system_id":"levelo_inurba_marseille","lat":43.2656,"lon":5.4031,"is_reserved":false,"is_disabled":false,"rental_uris":{"android":"levelo://app?vid=4ea9999a-521a-421b-8382-43785c8666dd","ios":"levelo://app?vid=4ea9999a-521a-421b-8382-43785c8666dd"},"vehicle_type_id":"4","last_reported":1748725727,"current_range_meters":3600,"station_id":"","pricing_plan_id":"cebpf4jnsgd1na2vs0mg"},{"bike_id":"b93910d5-cd6d-4c14-99fe-db2d91cc9351","system_id":"levelo_inurba_marseille","lat":43.31073,"lon":5.38345,"is_reserved":false,"is_disabled":false,"rental_uris":{"android":"levelo://app?vid=b93910d5-cd6d-4c14-99fe-db2d91cc9351","ios":"levelo://app?vid=b93910d5-cd6d-4c14-99fe-db2d91cc9351"},"vehicle_type_id":"4","last_reported":1748725727,"current_range_meters":4000,"station_id":"ce4bgv92rcd13ifvqcr0","pricing_plan_id":"cebpf4jnsgd1na2vs0mg"},{"bike_id":"70a29137-3ba1-4ff4-84bb-3a7f964a05e8","system_id":"levelo_inurba_marseille","lat":43.30032,"lon":5.36372,"is_reserved":false,"is_disabled":false,"rental_uris":{"android":"levelo://app?vid=70a29137-3ba1-4ff4-84bb-3a7f964a05e8","ios":"levelo://app?vid=70a29137-3ba1-4ff4-84bb-3a7f964a05e8"},"vehicle_type_id":"4","last_reported":1748725727,"current_range_meters":4400,"station_id":"","pricing_plan_id":"cebpf4jnsgd1na2vs0mg"},{"bike_id":"33fe8c32-4b15-472a-9bf7-124687146537","system_id":"levelo_inurba_marseille","lat":43.32859,"lon":5.40569,"is_reserved":false,"is_disabled":false,"rental_uris":{"android":"levelo://app?vid=33fe8c32-4b15-472a-9bf7-124687146537","ios":"levelo://app?vid=33fe8c32-4b15-472a-9bf7-124687146537"},"vehicle_type_id":"4","last_reported":1748725727,"current_range_meters":5600,"station_id":"","pricing_plan_id":"cebpf4jnsgd1na2vs0mg"},{"bike_id":"5aebd65e-355c-4620-9f97-4f00cfd3a233","system_id":"levelo_inurba_marseille","lat":43.3079,"lon":5.38166,"is_reserved":false,"is_disabled":false,"rental_uris":{"android":"levelo://app?vid=5aebd65e-355c-4620-9f97-4f00cfd3a233","ios":"levelo://app?vid=5aebd65e-355c-4620-9f97-4f00cfd3a233"},"vehicle_type_id":"4","last_reported":1748725727,"current_range_meters":4800,"station_id":"ce4bgt12rcd13ifvqce0","pricing_plan_id":"cebpf4jnsgd1na2vs0mg"},{"bike_id":"e08641d7-f032-4280-be4e-a580e06d508e","system_id":"levelo_inurba_marseille","lat":43.2594,"lon":5.40903,"is_reserved":false,"is_disabled":false,"rental_uris":{"android":"levelo://app?vid=e08641d7-f032-4280-be4e-a580e06d508e","ios":"levelo://app?vid=e08641d7-f032-4280-be4e-a580e06d508e"},"vehicle_type_id":"4","last_reported":1748725727,"current_range_meters":5600,"station_id":"ce4bhm92rcd13ifvqglg","pricing_plan_id":"cebpf4jnsgd1na2vs0mg"},{"bike_id":"c285d9b4-ea52-40e4-b58c-5b14f7910b11","system_id":"levelo_inurba_marseille","lat":43.26223,"lon":5.4045,"is_reserved":false,"is_disabled":false,"rental_uris":{"android":"levelo://app?vid=c285d9b4-ea52-40e4-b58c-5b14f7910b11","ios":"levelo://app?vid=c285d9b4-ea52-40e4-b58c-5b14f7910b11"},"vehicle_type_id":"4","last_reported":1748725727,"current_range_meters":5600,"station_id":"ce4bhmh2rcd13ifvqgmg","pricing_plan_id":"cebpf4jnsgd1na2vs0mg"},{"bike_id":"c4531434-2831-4c97-85ef-68ec19799398","system_id":"levelo_inurba_marseille","lat":43.24367,"lon":5.41162,"is_reserved":false,"is_disabled":false,"rental_uris":{"android":"levelo://app?vid=c4531434-2831-4c97-85ef-68ec19799398","ios":"levelo://app?vid=c4531434-2831-4c97-85ef-68ec19799398"},"vehicle_type_id":"4","last_reported":1748725727,"current_range_meters":5600,"station_id":"","pricing_plan_id":"cebpf4jnsgd1na2vs0mg"},{"bike_id":"a92e05e1-4b38-44a3-b6b4-eb562920f482","system_id":"levelo_inurba_marseille","lat":43.21484,"lon":5.34806,"is_reserved":false,"is_disabled":false,"rental_uris":{"android":"levelo://app?vid=a92e05e1-4b38-44a3-b6b4-eb562920f482","ios":"levelo://app?vid=a92e05e1-4b38-44a3-b6b4-eb562920f482"},"vehicle_type_id":"4","last_reported":1748725727,"current_range_meters":6000,"station_id":"","pricing_plan_id":"cebpf4jnsgd1na2vs0mg"},{"bike_id":"5a114716-e84d-4644-8a56-b3ff2013194b","system_id":"levelo_inurba_marseille","lat":43.24805,"lon":5.37455,"is_reserved":false,"is_disabled":false,"rental_uris":{"android":"levelo://app?vid=5a114716-e84d-4644-8a56-b3ff2013194b","ios":"levelo://app?vid=5a114716-e84d-4644-8a56-b3ff2013194b"},"vehicle_type_id":"4","last_reported":1748725727,"current_range_meters":6000,"station_id":"ce4bhgh2rcd13ifvqfb0","pricing_plan_id":"cebpf4jnsgd1na2vs0mg"},{"bike_id":"dddf88cd-a72d-402c-9e8d-62f196f0fea7","system_id":"levelo_inurba_marseille","lat":43.24983,"lon":5.38891,"is_reserved":false,"is_disabled":false,"rental_uris":{"android":"levelo://app?vid=dddf88cd-a72d-402c-9e8d-62f196f0fea7","ios":"levelo://app?vid=dddf88cd-a72d-402c-9e8d-62f196f0fea7"},"vehicle_type_id":"4","last_reported":1748725727,"current_range_meters":6000,"station_id":"ce4bhgp2rcd13ifvqfd0","pricing_plan_id":"cebpf4jnsgd1na2vs0mg"},{"bike_id":"3feffd94-b1f8-4904-a4cf-e5629abe4092","system_id":"levelo_inurba_marseille","lat":43.259313,"lon":5.409017,"is_reserved":false,"is_disabled":false,"rental_uris":{"android":"levelo://app?vid=3feffd94-b1f8-4904-a4cf-e5629abe4092","ios":"levelo://app?vid=3feffd94-b1f8-4904-a4cf-e5629abe4092"},"vehicle_type_id":"4","last_reported":1748725727,"current_range_meters":6000,"station_id":"ce4bhm92rcd13ifvqglg","pricing_plan_id":"cebpf4jnsgd1na2vs0mg"},{"bike_id":"7e151399-dced-422e-ba26-919dbcc3f5b0","system_id":"levelo_inurba_marseille","lat":43.24807,"lon":5.37458,"is_reserved":false,"is_disabled":false,"rental_uris":{"android":"levelo://app?vid=7e151399-dced-422e-ba26-919dbcc3f5b0","ios":"levelo://app?vid=7e151399-dced-422e-ba26-919dbcc3f5b0"},"vehicle_type_id":"4","last_reported":1748725727,"current_range_meters":6000,"station_id":"ce4bhgh2rcd13ifvqfb0","pricing_plan_id":"cebpf4jnsgd1na2vs0mg"},{"bike_id":"c5c23804-9662-4ffa-97a4-e36edea5f171","system_id":"levelo_inurba_marseille","lat":43.27996,"lon":5.41664,"is_reserved":false,"is_disabled":false,"rental_uris":{"android":"levelo://app?vid=c5c23804-9662-4ffa-97a4-e36edea5f171","ios":"levelo://app?vid=c5c23804-9662-4ffa-97a4-e36edea5f171"},"vehicle_type_id":"4","last_reported":1748725727,"current_range_meters":6000,"station_id":"ce4bho12rcd13ifvqh1g","pricing_plan_id":"cebpf4jnsgd1na2vs0mg"},{"bike_id":"7243d7c8-02f5-4392-89cf-8c360e846d55","system_id":"levelo_inurba_marseille","lat":43.25288,"lon":5.37821,"is_reserved":false,"is_disabled":false,"rental_uris":{"android":"levelo://app?vid=7243d7c8-02f5-4392-89cf-8c360e846d55","ios":"levelo://app?vid=7243d7c8-02f5-4392-89cf-8c360e846d55"},"vehicle_type_id":"4","last_reported":1748725727,"current_range_meters":6400,"station_id":"","pricing_plan_id":"cebpf4jnsgd1na2vs0mg"},{"bike_id":"f2067b9e-009d-4530-a0df-9659f5cc9cc7","system_id":"levelo_inurba_marseille","lat":43.28688,"lon":5.39974,"is_reserved":false,"is_disabled":false,"rental_uris":{"android":"levelo://app?vid=f2067b9e-009d-4530-a0df-9659f5cc9cc7","ios":"levelo://app?vid=f2067b9e-009d-4530-a0df-9659f5cc9cc7"},"vehicle_type_id":"4","last_reported":1748725727,"current_range_meters":6400,"station_id":"ce4bho92rcd13ifvqh3g","pricing_plan_id":"cebpf4jnsgd1na2vs0mg"},{"bike_id":"b33c7bdb-0ed1-478c-9987-528c22fedbe9","system_id":"levelo_inurba_marseille","lat":43.24055,"lon":5.37723,"is_reserved":false,"is_disabled":false,"rental_uris":{"android":"levelo://app?vid=b33c7bdb-0ed1-478c-9987-528c22fedbe9","ios":"levelo://app?vid=b33c7bdb-0ed1-478c-9987-528c22fedbe9"},"vehicle_type_id":"4","last_reported":1748725727,"current_range_meters":6400,"station_id":"ce4bhnp2rcd13ifvqgvg","pricing_plan_id":"cebpf4jnsgd1na2vs0mg"},{"bike_id":"c93b5984-b0e3-4b98-96f5-57b53eec00c7","system_id":"levelo_inurba_marseille","lat":43.23174,"lon":5.39991,"is_reserved":false,"is_disabled":false,"rental_uris":{"android":"levelo://app?vid=c93b5984-b0e3-4b98-96f5-57b53eec00c7","ios":"levelo://app?vid=c93b5984-b0e3-4b98-96f5-57b53eec00c7"},"vehicle_type_id":"4","last_reported":1748725727,"current_range_meters":6800,"station_id":"ce4bhn12rcd13ifvqgqg","pricing_plan_id":"cebpf4jnsgd1na2vs0mg"},{"bike_id":"3f7e2c8c-4046-42da-9470-1c720872b0e1","system_id":"levelo_inurba_marseille","lat":43.26223,"lon":5.40457,"is_reserved":false,"is_disabled":false,"rental_uris":{"android":"levelo://app?vid=3f7e2c8c-4046-42da-9470-1c720872b0e1","ios":"levelo://app?vid=3f7e2c8c-4046-42da-9470-1c720872b0e1"},"vehicle_type_id":"4","last_reported":1748725727,"current_range_meters":6800,"station_id":"ce4bhmh2rcd13ifvqgmg","pricing_plan_id":"cebpf4jnsgd1na2vs0mg"},{"bike_id":"2e5d65dc-7b75-4e49-9e17-db185fe11321","system_id":"levelo_inurba_marseille","lat":43.31193,"lon":5.36828,"is_reserved":false,"is_disabled":true,"rental_uris":{"android":"levelo://app?vid=2e5d65dc-7b75-4e49-9e17-db185fe11321","ios":"levelo://app?vid=2e5d65dc-7b75-4e49-9e17-db185fe11321"},"vehicle_type_id":"4","last_reported":1748725727,"current_range_meters":6800,"station_id":"ce4bgl92rcd13ifvqbq0","pricing_plan_id":"cebpf4jnsgd1na2vs0mg"},{"bike_id":"be72a181-dc54-492f-a4e2-ae9564bc8217","system_id":"levelo_inurba_marseille","lat":43.30884,"lon":5.37185,"is_reserved":false,"is_disabled":false,"rental_uris":{"android":"levelo://app?vid=be72a181-dc54-492f-a4e2-ae9564bc8217","ios":"levelo://app?vid=be72a181-dc54-492f-a4e2-ae9564bc8217"},"vehicle_type_id":"4","last_reported":1748725727,"current_range_meters":6800,"station_id":"ce4bguh2rcd13ifvqckg","pricing_plan_id":"cebpf4jnsgd1na2vs0mg"},{"bike_id":"2a3251b9-f92b-44cb-9281-bfa58e538996","system_id":"levelo_inurba_marseille","lat":43.31484,"lon":5.37307,"is_reserved":false,"is_disabled":false,"rental_uris":{"android":"levelo://app?vid=2a3251b9-f92b-44cb-9281-bfa58e538996","ios":"levelo://app?vid=2a3251b9-f92b-44cb-9281-bfa58e538996"},"vehicle_type_id":"4","last_reported":1748725727,"current_range_meters":6800,"station_id":"ce4bgt12rcd13ifvqcd0","pricing_plan_id":"cebpf4jnsgd1na2vs0mg"},{"bike_id":"381f1f40-406f-4c66-9b5c-2d132a2aab7f","system_id":"levelo_inurba_marseille","lat":43.23159,"lon":5.43703,"is_reserved":false,"is_disabled":false,"rental_uris":{"android":"levelo://app?vid=381f1f40-406f-4c66-9b5c-2d132a2aab7f","ios":"levelo://app?vid=381f1f40-406f-4c66-9b5c-2d132a2aab7f"},"vehicle_type_id":"4","last_reported":1748725727,"current_range_meters":6800,"station_id":"ce4bhmp2rcd13ifvqgog","pricing_plan_id":"cebpf4jnsgd1na2vs0mg"},{"bike_id":"82ce820a-c4c6-4ac7-9b7f-30fa70c9c3f3","system_id":"levelo_inurba_marseille","lat":43.278211,"lon":5.407123,"is_reserved":false,"is_disabled":false,"rental_uris":{"android":"levelo://app?vid=82ce820a-c4c6-4ac7-9b7f-30fa70c9c3f3","ios":"levelo://app?vid=82ce820a-c4c6-4ac7-9b7f-30fa70c9c3f3"},"vehicle_type_id":"4","last_reported":1748725727,"current_range_meters":6800,"station_id":"ce4bhnh2rcd13ifvqgtg","pricing_plan_id":"cebpf4jnsgd1na2vs0mg"},{"bike_id":"7744b0bc-9255-402e-8dd0-6b3090927fb9","system_id":"levelo_inurba_marseille","lat":43.26957,"lon":5.4033,"is_reserved":false,"is_disabled":true,"rental_uris":{"android":"levelo://app?vid=7744b0bc-9255-402e-8dd0-6b3090927fb9","ios":"levelo://app?vid=7744b0bc-9255-402e-8dd0-6b3090927fb9"},"vehicle_type_id":"4","last_reported":1748725727,"current_range_meters":7200,"station_id":"cjm6bp8fraef2m0cb0m0","pricing_plan_id":"cebpf4jnsgd1na2vs0mg"},{"bike_id":"414f50f9-4176-475f-adf2-0466f70c8059","system_id":"levelo_inurba_marseille","lat":43.25952,"lon":5.40896,"is_reserved":false,"is_disabled":false,"rental_uris":{"android":"levelo://app?vid=414f50f9-4176-475f-adf2-0466f70c8059","ios":"levelo://app?vid=414f50f9-4176-475f-adf2-0466f70c8059"},"vehicle_type_id":"4","last_reported":1748725727,"current_range_meters":7200,"station_id":"ce4bhm92rcd13ifvqglg","pricing_plan_id":"cebpf4jnsgd1na2vs0mg"},{"bike_id":"391f01da-bda5-42cb-847e-5bd541a160b5","system_id":"levelo_inurba_marseille","lat":43.2738,"lon":5.36256,"is_reserved":false,"is_disabled":true,"rental_uris":{"android":"levelo://app?vid=391f01da-bda5-42cb-847e-5bd541a160b5","ios":"levelo://app?vid=391f01da-bda5-42cb-847e-5bd541a160b5"},"vehicle_type_id":"4","last_reported":1748725727,"current_range_meters":7200,"station_id":"ce4bhbh2rcd13ifvqeo0","pricing_plan_id":"cebpf4jnsgd1na2vs0mg"},{"bike_id":"f6c18757-42cd-40e6-82c2-99bf51f27297","system_id":"levelo_inurba_marseille","lat":43.2176,"lon":5.34571,"is_reserved":false,"is_disabled":true,"rental_uris":{"android":"levelo://app?vid=f6c18757-42cd-40e6-82c2-99bf51f27297","ios":"levelo://app?vid=f6c18757-42cd-40e6-82c2-99bf51f27297"},"vehicle_type_id":"4","last_reported":1748725727,"current_range_meters":7200,"station_id":"st_cvj6r9ubvosntc0bgbag","pricing_plan_id":"cebpf4jnsgd1na2vs0mg"},{"bike_id":"e372cd62-3f54-4399-8b54-ee30195f8351","system_id":"levelo_inurba_marseille","lat":43.26252,"lon":5.40428,"is_reserved":false,"is_disabled":false,"rental_uris":{"android":"levelo://app?vid=e372cd62-3f54-4399-8b54-ee30195f8351","ios":"levelo://app?vid=e372cd62-3f54-4399-8b54-ee30195f8351"},"vehicle_type_id":"4","last_reported":1748725727,"current_range_meters":7200,"station_id":"ce4bhmh2rcd13ifvqgmg","pricing_plan_id":"cebpf4jnsgd1na2vs0mg"},{"bike_id":"09108291-f746-43a0-9cbc-59f042c58243","system_id":"levelo_inurba_marseille","lat":43.29818,"lon":5.37781,"is_reserved":false,"is_disabled":false,"rental_uris":{"android":"levelo://app?vid=09108291-f746-43a0-9cbc-59f042c58243","ios":"levelo://app?vid=09108291-f746-43a0-9cbc-59f042c58243"},"vehicle_type_id":"4","last_reported":1748725727,"current_range_meters":7200,"station_id":"","pricing_plan_id":"cebpf4jnsgd1na2vs0mg"},{"bike_id":"91c737c9-942a-40b1-8073-cc1be40e313b","system_id":"levelo_inurba_marseille","lat":43.24181,"lon":5.39728,"is_reserved":false,"is_disabled":false,"rental_uris":{"android":"levelo://app?vid=91c737c9-942a-40b1-8073-cc1be40e313b","ios":"levelo://app?vid=91c737c9-942a-40b1-8073-cc1be40e313b"},"vehicle_type_id":"4","last_reported":1748725727,"current_range_meters":7200,"station_id":"ce4bhn12rcd13ifvqgpg","pricing_plan_id":"cebpf4jnsgd1na2vs0mg"},{"bike_id":"00987835-e34f-4a21-badc-2584b024fa5f","system_id":"levelo_inurba_marseille","lat":43.27375,"lon":5.36254,"is_reserved":false,"is_disabled":false,"rental_uris":{"android":"levelo://app?vid=00987835-e34f-4a21-badc-2584b024fa5f","ios":"levelo://app?vid=00987835-e34f-4a21-badc-2584b024fa5f"},"vehicle_type_id":"4","last_reported":1748725727,"current_range_meters":7200,"station_id":"ce4bhbh2rcd13ifvqeo0","pricing_plan_id":"cebpf4jnsgd1na2vs0mg"},{"bike_id":"ea1f019a-11dc-43d8-9095-9a5b356bf87d","system_id":"levelo_inurba_marseille","lat":43.26213,"lon":5.40415,"is_reserved":false,"is_disabled":false,"rental_uris":{"android":"levelo://app?vid=ea1f019a-11dc-43d8-9095-9a5b356bf87d","ios":"levelo://app?vid=ea1f019a-11dc-43d8-9095-9a5b356bf87d"},"vehicle_type_id":"4","last_reported":1748725727,"current_range_meters":7200,"station_id":"ce4bhmh2rcd13ifvqgmg","pricing_plan_id":"cebpf4jnsgd1na2vs0mg"},{"bike_id":"f2a9d16c-47c0-4612-8bf1-88597c5b6853","system_id":"levelo_inurba_marseille","lat":43.29911,"lon":5.37508,"is_reserved":false,"is_disabled":false,"rental_uris":{"android":"levelo://app?vid=f2a9d16c-47c0-4612-8bf1-88597c5b6853","ios":"levelo://app?vid=f2a9d16c-47c0-4612-8bf1-88597c5b6853"},"vehicle_type_id":"4","last_reported":1748725727,"current_range_meters":7200,"station_id":"ce4bgjh2rcd13ifvqbg0","pricing_plan_id":"cebpf4jnsgd1na2vs0mg"},{"bike_id":"9168ac46-1f3f-45e4-9e71-903951ed25c3","system_id":"levelo_inurba_marseille","lat":43.28104,"lon":5.378297,"is_reserved":false,"is_disabled":false,"rental_uris":{"android":"levelo://app?vid=9168ac46-1f3f-45e4-9e71-903951ed25c3","ios":"levelo://app?vid=9168ac46-1f3f-45e4-9e71-903951ed25c3"},"vehicle_type_id":"4","last_reported":1748725727,"current_range_meters":8000,"station_id":"ce4bha12rcd13ifvqee0","pricing_plan_id":"cebpf4jnsgd1na2vs0mg"},{"bike_id":"49ce517c-2286-46c6-b508-a8c4890ce82d","system_id":"levelo_inurba_marseille","lat":43.27678,"lon":5.38867,"is_reserved":false,"is_disabled":false,"rental_uris":{"android":"levelo://app?vid=49ce517c-2286-46c6-b508-a8c4890ce82d","ios":"levelo://app?vid=49ce517c-2286-46c6-b508-a8c4890ce82d"},"vehicle_type_id":"4","last_reported":1748725727,"current_range_meters":8000,"station_id":"ce4bhi12rcd13ifvqfo0","pricing_plan_id":"cebpf4jnsgd1na2vs0mg"},{"bike_id":"4587c898-1014-4728-ba58-926f5211c4f4","system_id":"levelo_inurba_marseille","lat":43.27938,"lon":5.41036,"is_reserved":false,"is_disabled":false,"rental_uris":{"android":"levelo://app?vid=4587c898-1014-4728-ba58-926f5211c4f4","ios":"levelo://app?vid=4587c898-1014-4728-ba58-926f5211c4f4"},"vehicle_type_id":"4","last_reported":1748725727,"current_range_meters":8000,"station_id":"ce4bhnp2rcd13ifvqh0g","pricing_plan_id":"cebpf4jnsgd1na2vs0mg"},{"bike_id":"70f70429-b3a4-4bd4-900e-7624fcef71b2","system_id":"levelo_inurba_marseille","lat":43.31501,"lon":5.38872,"is_reserved":false,"is_disabled":false,"rental_uris":{"android":"levelo://app?vid=70f70429-b3a4-4bd4-900e-7624fcef71b2","ios":"levelo://app?vid=70f70429-b3a4-4bd4-900e-7624fcef71b2"},"vehicle_type_id":"4","last_reported":1748725727,"current_range_meters":8400,"station_id":"","pricing_plan_id":"cebpf4jnsgd1na2vs0mg"},{"bike_id":"742ea022-7ec3-403b-ab76-b027020c7592","system_id":"levelo_inurba_marseille","lat":43.32298,"lon":5.38267,"is_reserved":false,"is_disabled":false,"rental_uris":{"android":"levelo://app?vid=742ea022-7ec3-403b-ab76-b027020c7592","ios":"levelo://app?vid=742ea022-7ec3-403b-ab76-b027020c7592"},"vehicle_type_id":"4","last_reported":1748725727,"current_range_meters":8400,"station_id":"ce4bhr12rcd13ifvqhqg","pricing_plan_id":"cebpf4jnsgd1na2vs0mg"},{"bike_id":"323f9c2d-efe6-489c-9ffb-9983af554ea0","system_id":"levelo_inurba_marseille","lat":43.30101,"lon":5.39073,"is_reserved":false,"is_disabled":false,"rental_uris":{"android":"levelo://app?vid=323f9c2d-efe6-489c-9ffb-9983af554ea0","ios":"levelo://app?vid=323f9c2d-efe6-489c-9ffb-9983af554ea0"},"vehicle_type_id":"4","last_reported":1748725727,"current_range_meters":8400,"station_id":"ce4bh192rcd13ifvqdb0","pricing_plan_id":"cebpf4jnsgd1na2vs0mg"},{"bike_id":"2b201de7-06ee-44b6-9c85-dda11376754f","system_id":"levelo_inurba_marseille","lat":43.2439,"lon":5.38029,"is_reserved":false,"is_disabled":false,"rental_uris":{"android":"levelo://app?vid=2b201de7-06ee-44b6-9c85-dda11376754f","ios":"levelo://app?vid=2b201de7-06ee-44b6-9c85-dda11376754f"},"vehicle_type_id":"4","last_reported":1748725727,"current_range_meters":8400,"station_id":"","pricing_plan_id":"cebpf4jnsgd1na2vs0mg"},{"bike_id":"c2f614f3-a1d8-4053-918c-d3522e674379","system_id":"levelo_inurba_marseille","lat":43.25102,"lon":5.40323,"is_reserved":false,"is_disabled":false,"rental_uris":{"android":"levelo://app?vid=c2f614f3-a1d8-4053-918c-d3522e674379","ios":"levelo://app?vid=c2f614f3-a1d8-4053-918c-d3522e674379"},"vehicle_type_id":"4","last_reported":1748725727,"current_range_meters":8400,"station_id":"ce4bhlh2rcd13ifvqgig","pricing_plan_id":"cebpf4jnsgd1na2vs0mg"},{"bike_id":"e99ea3d5-96a1-4347-9674-aefebc542848","system_id":"levelo_inurba_marseille","lat":43.29362,"lon":5.37842,"is_reserved":false,"is_disabled":false,"rental_uris":{"android":"levelo://app?vid=e99ea3d5-96a1-4347-9674-aefebc542848","ios":"levelo://app?vid=e99ea3d5-96a1-4347-9674-aefebc542848"},"vehicle_type_id":"4","last_reported":1748725727,"current_range_meters":8400,"station_id":"ce4bgjh2rcd13ifvqbf0","pricing_plan_id":"cebpf4jnsgd1na2vs0mg"},{"bike_id":"8b9b6455-f705-477c-b3bc-36b00650ea20","system_id":"levelo_inurba_marseille","lat":43.25126,"lon":5.40327,"is_reserved":false,"is_disabled":false,"rental_uris":{"android":"levelo://app?vid=8b9b6455-f705-477c-b3bc-36b00650ea20","ios":"levelo://app?vid=8b9b6455-f705-477c-b3bc-36b00650ea20"},"vehicle_type_id":"4","last_reported":1748725727,"current_range_meters":8400,"station_id":"ce4bhlh2rcd13ifvqgig","pricing_plan_id":"cebpf4jnsgd1na2vs0mg"},{"bike_id":"db87d1b4-ac7d-46d1-a4eb-5bbc1e4c44bd","system_id":"levelo_inurba_marseille","lat":43.28125,"lon":5.44207,"is_reserved":false,"is_disabled":false,"rental_uris":{"android":"levelo://app?vid=db87d1b4-ac7d-46d1-a4eb-5bbc1e4c44bd","ios":"levelo://app?vid=db87d1b4-ac7d-46d1-a4eb-5bbc1e4c44bd"},"vehicle_type_id":"4","last_reported":1748725727,"current_range_meters":8800,"station_id":"","pricing_plan_id":"cebpf4jnsgd1na2vs0mg"},{"bike_id":"8d48119e-760e-4c00-b401-59af0a322afa","system_id":"levelo_inurba_marseille","lat":43.256607,"lon":5.408639,"is_reserved":false,"is_disabled":false,"rental_uris":{"android":"levelo://app?vid=8d48119e-760e-4c00-b401-59af0a322afa","ios":"levelo://app?vid=8d48119e-760e-4c00-b401-59af0a322afa"},"vehicle_type_id":"4","last_reported":1748725727,"current_range_meters":8800,"station_id":"","pricing_plan_id":"cebpf4jnsgd1na2vs0mg"},{"bike_id":"147ed557-2332-4582-82e4-01f26aae65d3","system_id":"levelo_inurba_marseille","lat":43.26202,"lon":5.37446,"is_reserved":false,"is_disabled":false,"rental_uris":{"android":"levelo://app?vid=147ed557-2332-4582-82e4-01f26aae65d3","ios":"levelo://app?vid=147ed557-2332-4582-82e4-01f26aae65d3"},"vehicle_type_id":"4","last_reported":1748725727,"current_range_meters":8800,"station_id":"ce4bhgp2rcd13ifvqfc0","pricing_plan_id":"cebpf4jnsgd1na2vs0mg"},{"bike_id":"2535efab-6a29-436e-bfc9-17963e2cb58d","system_id":"levelo_inurba_marseille","lat":43.25088,"lon":5.39523,"is_reserved":false,"is_disabled":false,"rental_uris":{"android":"levelo://app?vid=2535efab-6a29-436e-bfc9-17963e2cb58d","ios":"levelo://app?vid=2535efab-6a29-436e-bfc9-17963e2cb58d"},"vehicle_type_id":"4","last_reported":1748725727,"current_range_meters":8800,"station_id":"ce4bhm12rcd13ifvqgkg","pricing_plan_id":"cebpf4jnsgd1na2vs0mg"},{"bike_id":"e62a208c-23d3-4f22-bdab-aa660ac5353a","system_id":"levelo_inurba_marseille","lat":43.262071,"lon":5.379198,"is_reserved":false,"is_disabled":false,"rental_uris":{"android":"levelo://app?vid=e62a208c-23d3-4f22-bdab-aa660ac5353a","ios":"levelo://app?vid=e62a208c-23d3-4f22-bdab-aa660ac5353a"},"vehicle_type_id":"4","last_reported":1748725727,"current_range_meters":8800,"station_id":"ce4bhjp2rcd13ifvqg90","pricing_plan_id":"cebpf4jnsgd1na2vs0mg"},{"bike_id":"a14d8e40-c994-4f1c-b643-8a3b58a2eb79","system_id":"levelo_inurba_marseille","lat":43.29273,"lon":5.38198,"is_reserved":false,"is_disabled":false,"rental_uris":{"android":"levelo://app?vid=a14d8e40-c994-4f1c-b643-8a3b58a2eb79","ios":"levelo://app?vid=a14d8e40-c994-4f1c-b643-8a3b58a2eb79"},"vehicle_type_id":"4","last_reported":1748725727,"current_range_meters":8800,"station_id":"","pricing_plan_id":"cebpf4jnsgd1na2vs0mg"},{"bike_id":"c3eafc8a-e92a-4041-883e-6ae81451ec71","system_id":"levelo_inurba_marseille","lat":43.27799,"lon":5.40667,"is_reserved":false,"is_disabled":false,"rental_uris":{"android":"levelo://app?vid=c3eafc8a-e92a-4041-883e-6ae81451ec71","ios":"levelo://app?vid=c3eafc8a-e92a-4041-883e-6ae81451ec71"},"vehicle_type_id":"4","last_reported":1748725727,"current_range_meters":8800,"station_id":"ce4bhnh2rcd13ifvqgtg","pricing_plan_id":"cebpf4jnsgd1na2vs0mg"},{"bike_id":"e9a44dd0-c997-4af8-a020-41ac51f2f092","system_id":"levelo_inurba_marseille","lat":43.28928,"lon":5.36641,"is_reserved":false,"is_disabled":false,"rental_uris":{"android":"levelo://app?vid=e9a44dd0-c997-4af8-a020-41ac51f2f092","ios":"levelo://app?vid=e9a44dd0-c997-4af8-a020-41ac51f2f092"},"vehicle_type_id":"4","last_reported":1748725727,"current_range_meters":8800,"station_id":"ce4bhap2rcd13ifvqek0","pricing_plan_id":"cebpf4jnsgd1na2vs0mg"},{"bike_id":"2b7da06d-5aff-445c-8fb3-58df85eb7f0b","system_id":"levelo_inurba_marseille","lat":43.2894,"lon":5.39637,"is_reserved":false,"is_disabled":false,"rental_uris":{"android":"levelo://app?vid=2b7da06d-5aff-445c-8fb3-58df85eb7f0b","ios":"levelo://app?vid=2b7da06d-5aff-445c-8fb3-58df85eb7f0b"},"vehicle_type_id":"4","last_reported":1748725727,"current_range_meters":8800,"station_id":"ce4bh3h2rcd13ifvqdn0","pricing_plan_id":"cebpf4jnsgd1na2vs0mg"},{"bike_id":"5f3bda68-84fc-4d7e-bc5f-1436594c8068","system_id":"levelo_inurba_marseille","lat":43.240757,"lon":5.37758,"is_reserved":false,"is_disabled":false,"rental_uris":{"android":"levelo://app?vid=5f3bda68-84fc-4d7e-bc5f-1436594c8068","ios":"levelo://app?vid=5f3bda68-84fc-4d7e-bc5f-1436594c8068"},"vehicle_type_id":"4","last_reported":1748725727,"current_range_meters":9200,"station_id":"ce4bhnp2rcd13ifvqgvg","pricing_plan_id":"cebpf4jnsgd1na2vs0mg"},{"bike_id":"4b135618-3d37-4c3b-99a9-8ae08d5df65d","system_id":"levelo_inurba_marseille","lat":43.30187,"lon":5.36616,"is_reserved":false,"is_disabled":false,"rental_uris":{"android":"levelo://app?vid=4b135618-3d37-4c3b-99a9-8ae08d5df65d","ios":"levelo://app?vid=4b135618-3d37-4c3b-99a9-8ae08d5df65d"},"vehicle_type_id":"4","last_reported":1748725727,"current_range_meters":9200,"station_id":"ce4bgrh2rcd13ifvqc8g","pricing_plan_id":"cebpf4jnsgd1na2vs0mg"},{"bike_id":"23a8f3c4-21a6-46df-a7da-136674bed0a1","system_id":"levelo_inurba_marseille","lat":43.27818,"lon":5.40694,"is_reserved":false,"is_disabled":false,"rental_uris":{"android":"levelo://app?vid=23a8f3c4-21a6-46df-a7da-136674bed0a1","ios":"levelo://app?vid=23a8f3c4-21a6-46df-a7da-136674bed0a1"},"vehicle_type_id":"4","last_reported":1748725727,"current_range_meters":9200,"station_id":"ce4bhnh2rcd13ifvqgtg","pricing_plan_id":"cebpf4jnsgd1na2vs0mg"},{"bike_id":"4d03b0cc-339f-4848-b1df-32216ae8e461","system_id":"levelo_inurba_marseille","lat":43.31484,"lon":5.37311,"is_reserved":false,"is_disabled":false,"rental_uris":{"android":"levelo://app?vid=4d03b0cc-339f-4848-b1df-32216ae8e461","ios":"levelo://app?vid=4d03b0cc-339f-4848-b1df-32216ae8e461"},"vehicle_type_id":"4","last_reported":1748725727,"current_range_meters":9200,"station_id":"ce4bgt12rcd13ifvqcd0","pricing_plan_id":"cebpf4jnsgd1na2vs0mg"},{"bike_id":"39c30834-140a-4375-850c-22aefa03482a","system_id":"levelo_inurba_marseille","lat":43.25115,"lon":5.40306,"is_reserved":false,"is_disabled":false,"rental_uris":{"android":"levelo://app?vid=39c30834-140a-4375-850c-22aefa03482a","ios":"levelo://app?vid=39c30834-140a-4375-850c-22aefa03482a"},"vehicle_type_id":"4","last_reported":1748725727,"current_range_meters":9200,"station_id":"ce4bhlh2rcd13ifvqgig","pricing_plan_id":"cebpf4jnsgd1na2vs0mg"},{"bike_id":"9eac2fb8-8a74-4e50-ba3d-a5ab8e4d48f1","system_id":"levelo_inurba_marseille","lat":43.30934,"lon":5.40144,"is_reserved":false,"is_disabled":false,"rental_uris":{"android":"levelo://app?vid=9eac2fb8-8a74-4e50-ba3d-a5ab8e4d48f1","ios":"levelo://app?vid=9eac2fb8-8a74-4e50-ba3d-a5ab8e4d48f1"},"vehicle_type_id":"4","last_reported":1748725727,"current_range_meters":9600,"station_id":"ce4bgvp2rcd13ifvqct0","pricing_plan_id":"cebpf4jnsgd1na2vs0mg"},{"bike_id":"f4e49996-ce0c-42e7-9a15-35b5f4497b3e","system_id":"levelo_inurba_marseille","lat":43.322879,"lon":5.382755,"is_reserved":false,"is_disabled":false,"rental_uris":{"android":"levelo://app?vid=f4e49996-ce0c-42e7-9a15-35b5f4497b3e","ios":"levelo://app?vid=f4e49996-ce0c-42e7-9a15-35b5f4497b3e"},"vehicle_type_id":"4","last_reported":1748725727,"current_range_meters":9600,"station_id":"ce4bhr12rcd13ifvqhqg","pricing_plan_id":"cebpf4jnsgd1na2vs0mg"},{"bike_id":"6dbec55b-fee0-4a3a-9ed2-723f9ae1c783","system_id":"levelo_inurba_marseille","lat":43.299131,"lon":5.436526,"is_reserved":false,"is_disabled":true,"rental_uris":{"android":"levelo://app?vid=6dbec55b-fee0-4a3a-9ed2-723f9ae1c783","ios":"levelo://app?vid=6dbec55b-fee0-4a3a-9ed2-723f9ae1c783"},"vehicle_type_id":"4","last_reported":1748725727,"current_range_meters":9600,"station_id":"ce4bhpp2rcd13ifvqhfg","pricing_plan_id":"cebpf4jnsgd1na2vs0mg"},{"bike_id":"01e4ed6b-e9a5-4944-8ecd-6edf8a5120d9","system_id":"levelo_inurba_marseille","lat":43.31067,"lon":5.38355,"is_reserved":false,"is_disabled":false,"rental_uris":{"android":"levelo://app?vid=01e4ed6b-e9a5-4944-8ecd-6edf8a5120d9","ios":"levelo://app?vid=01e4ed6b-e9a5-4944-8ecd-6edf8a5120d9"},"vehicle_type_id":"4","last_reported":1748725727,"current_range_meters":9600,"station_id":"ce4bgv92rcd13ifvqcr0","pricing_plan_id":"cebpf4jnsgd1na2vs0mg"},{"bike_id":"bb96b353-ff63-44a5-bfce-69d7060ce09e","system_id":"levelo_inurba_marseille","lat":43.30156,"lon":5.38065,"is_reserved":false,"is_disabled":false,"rental_uris":{"android":"levelo://app?vid=bb96b353-ff63-44a5-bfce-69d7060ce09e","ios":"levelo://app?vid=bb96b353-ff63-44a5-bfce-69d7060ce09e"},"vehicle_type_id":"4","last_reported":1748725727,"current_range_meters":9600,"station_id":"ce4bgjp2rcd13ifvqbh0","pricing_plan_id":"cebpf4jnsgd1na2vs0mg"},{"bike_id":"ffcf4a1d-39b8-42f4-ae2c-20b438bad2f3","system_id":"levelo_inurba_marseille","lat":43.29533,"lon":5.38536,"is_reserved":false,"is_disabled":false,"rental_uris":{"android":"levelo://app?vid=ffcf4a1d-39b8-42f4-ae2c-20b438bad2f3","ios":"levelo://app?vid=ffcf4a1d-39b8-42f4-ae2c-20b438bad2f3"},"vehicle_type_id":"4","last_reported":1748725727,"current_range_meters":9600,"station_id":"ce4bgih2rcd13ifvqba0","pricing_plan_id":"cebpf4jnsgd1na2vs0mg"},{"bike_id":"c9ba1849-3db3-4065-98d8-5f0119655c61","system_id":"levelo_inurba_marseille","lat":43.2897,"lon":5.37855,"is_reserved":false,"is_disabled":false,"rental_uris":{"android":"levelo://app?vid=c9ba1849-3db3-4065-98d8-5f0119655c61","ios":"levelo://app?vid=c9ba1849-3db3-4065-98d8-5f0119655c61"},"vehicle_type_id":"4","last_reported":1748725727,"current_range_meters":9600,"station_id":"ce4bh9p2rcd13ifvqed0","pricing_plan_id":"cebpf4jnsgd1na2vs0mg"},{"bike_id":"0d3bab2f-26cf-41f1-82dd-bb5db963b288","system_id":"levelo_inurba_marseille","lat":43.32542,"lon":5.36483,"is_reserved":false,"is_disabled":true,"rental_uris":{"android":"levelo://app?vid=0d3bab2f-26cf-41f1-82dd-bb5db963b288","ios":"levelo://app?vid=0d3bab2f-26cf-41f1-82dd-bb5db963b288"},"vehicle_type_id":"4","last_reported":1748725727,"current_range_meters":9600,"station_id":"","pricing_plan_id":"cebpf4jnsgd1na2vs0mg"},{"bike_id":"79a5f6b8-3eb7-4888-b9a1-76e848c5f305","system_id":"levelo_inurba_marseille","lat":43.29514,"lon":5.39403,"is_reserved":false,"is_disabled":true,"rental_uris":{"android":"levelo://app?vid=79a5f6b8-3eb7-4888-b9a1-76e848c5f305","ios":"levelo://app?vid=79a5f6b8-3eb7-4888-b9a1-76e848c5f305"},"vehicle_type_id":"4","last_reported":1748725727,"current_range_meters":9600,"station_id":"ce4bh292rcd13ifvqdf0","pricing_plan_id":"cebpf4jnsgd1na2vs0mg"},{"bike_id":"22949bde-52c0-42f8-aed6-0536d4296339","system_id":"levelo_inurba_marseille","lat":43.29576,"lon":5.3749,"is_reserved":false,"is_disabled":true,"rental_uris":{"android":"levelo://app?vid=22949bde-52c0-42f8-aed6-0536d4296339","ios":"levelo://app?vid=22949bde-52c0-42f8-aed6-0536d4296339"},"vehicle_type_id":"4","last_reported":1748725727,"current_range_meters":9600,"station_id":"ce4bgh92rcd13ifvqb50","pricing_plan_id":"cebpf4jnsgd1na2vs0mg"},{"bike_id":"3ac07f5e-7063-4806-95dc-abbb4c9f9e33","system_id":"levelo_inurba_marseille","lat":43.31536,"lon":5.38025,"is_reserved":false,"is_disabled":false,"rental_uris":{"android":"levelo://app?vid=3ac07f5e-7063-4806-95dc-abbb4c9f9e33","ios":"levelo://app?vid=3ac07f5e-7063-4806-95dc-abbb4c9f9e33"},"vehicle_type_id":"4","last_reported":1748725727,"current_range_meters":10000,"station_id":"ce4bhsp2rcd13ifvqi50","pricing_plan_id":"cebpf4jnsgd1na2vs0mg"},{"bike_id":"435e1490-37aa-481c-b02e-a5b47ead2ac7","system_id":"levelo_inurba_marseille","lat":43.29266,"lon":5.38444,"is_reserved":false,"is_disabled":false,"rental_uris":{"android":"levelo://app?vid=435e1490-37aa-481c-b02e-a5b47ead2ac7","ios":"levelo://app?vid=435e1490-37aa-481c-b02e-a5b47ead2ac7"},"vehicle_type_id":"4","last_reported":1748725727,"current_range_meters":10000,"station_id":"ce4bh692rcd13ifvqea0","pricing_plan_id":"cebpf4jnsgd1na2vs0mg"},{"bike_id":"439e79d7-2eb0-4e2d-8c8c-411626bd87c2","system_id":"levelo_inurba_marseille","lat":43.29419,"lon":5.38618,"is_reserved":false,"is_disabled":false,"rental_uris":{"android":"levelo://app?vid=439e79d7-2eb0-4e2d-8c8c-411626bd87c2","ios":"levelo://app?vid=439e79d7-2eb0-4e2d-8c8c-411626bd87c2"},"vehicle_type_id":"4","last_reported":1748725727,"current_range_meters":10000,"station_id":"ce4bh2h2rcd13ifvqdh0","pricing_plan_id":"cebpf4jnsgd1na2vs0mg"},{"bike_id":"9854e2a4-f9c6-4c61-9386-aa9bad1e97ae","system_id":"levelo_inurba_marseille","lat":43.24662,"lon":5.38877,"is_reserved":false,"is_disabled":false,"rental_uris":{"android":"levelo://app?vid=9854e2a4-f9c6-4c61-9386-aa9bad1e97ae","ios":"levelo://app?vid=9854e2a4-f9c6-4c61-9386-aa9bad1e97ae"},"vehicle_type_id":"4","last_reported":1748725727,"current_range_meters":10000,"station_id":"ce4bhg12rcd13ifvqf60","pricing_plan_id":"cebpf4jnsgd1na2vs0mg"},{"bike_id":"76a945ba-9ba8-414f-963a-73e1a106e0fc","system_id":"levelo_inurba_marseille","lat":43.26165,"lon":5.40335,"is_reserved":false,"is_disabled":false,"rental_uris":{"android":"levelo://app?vid=76a945ba-9ba8-414f-963a-73e1a106e0fc","ios":"levelo://app?vid=76a945ba-9ba8-414f-963a-73e1a106e0fc"},"vehicle_type_id":"4","last_reported":1748725727,"current_range_meters":10000,"station_id":"","pricing_plan_id":"cebpf4jnsgd1na2vs0mg"},{"bike_id":"b9dbee2c-5ddf-4684-981c-617fd4b5d81b","system_id":"levelo_inurba_marseille","lat":43.313,"lon":5.38491,"is_reserved":false,"is_disabled":false,"rental_uris":{"android":"levelo://app?vid=b9dbee2c-5ddf-4684-981c-617fd4b5d81b","ios":"levelo://app?vid=b9dbee2c-5ddf-4684-981c-617fd4b5d81b"},"vehicle_type_id":"4","last_reported":1748725727,"current_range_meters":10000,"station_id":"","pricing_plan_id":"cebpf4jnsgd1na2vs0mg"},{"bike_id":"f1d1de03-45f8-4842-8dff-06539dec42d6","system_id":"levelo_inurba_marseille","lat":43.26569,"lon":5.4032,"is_reserved":false,"is_disabled":false,"rental_uris":{"android":"levelo://app?vid=f1d1de03-45f8-4842-8dff-06539dec42d6","ios":"levelo://app?vid=f1d1de03-45f8-4842-8dff-06539dec42d6"},"vehicle_type_id":"4","last_reported":1748725727,"current_range_meters":10000,"station_id":"","pricing_plan_id":"cebpf4jnsgd1na2vs0mg"},{"bike_id":"16956ecc-ed47-44a5-bf64-7ac7c0de85fa","system_id":"levelo_inurba_marseille","lat":43.315697,"lon":5.36905,"is_reserved":false,"is_disabled":false,"rental_uris":{"android":"levelo://app?vid=16956ecc-ed47-44a5-bf64-7ac7c0de85fa","ios":"levelo://app?vid=16956ecc-ed47-44a5-bf64-7ac7c0de85fa"},"vehicle_type_id":"4","last_reported":1748725727,"current_range_meters":10000,"station_id":"","pricing_plan_id":"cebpf4jnsgd1na2vs0mg"},{"bike_id":"46950156-2911-4ef2-8225-00a2c367410a","system_id":"levelo_inurba_marseille","lat":43.29914,"lon":5.37457,"is_reserved":false,"is_disabled":false,"rental_uris":{"android":"levelo://app?vid=46950156-2911-4ef2-8225-00a2c367410a","ios":"levelo://app?vid=46950156-2911-4ef2-8225-00a2c367410a"},"vehicle_type_id":"4","last_reported":1748725727,"current_range_meters":10800,"station_id":"ce4bgjh2rcd13ifvqbg0","pricing_plan_id":"cebpf4jnsgd1na2vs0mg"},{"bike_id":"3cadf7c2-2609-40e5-8ba3-4c5823d0c8c3","system_id":"levelo_inurba_marseille","lat":43.246587,"lon":5.381668,"is_reserved":false,"is_disabled":false,"rental_uris":{"android":"levelo://app?vid=3cadf7c2-2609-40e5-8ba3-4c5823d0c8c3","ios":"levelo://app?vid=3cadf7c2-2609-40e5-8ba3-4c5823d0c8c3"},"vehicle_type_id":"4","last_reported":1748725727,"current_range_meters":10800,"station_id":"ce4bhih2rcd13ifvqfr0","pricing_plan_id":"cebpf4jnsgd1na2vs0mg"},{"bike_id":"de9ef9f7-970f-4522-bbf1-82e38daacf67","system_id":"levelo_inurba_marseille","lat":43.29535,"lon":5.38535,"is_reserved":false,"is_disabled":false,"rental_uris":{"android":"levelo://app?vid=de9ef9f7-970f-4522-bbf1-82e38daacf67","ios":"levelo://app?vid=de9ef9f7-970f-4522-bbf1-82e38daacf67"},"vehicle_type_id":"4","last_reported":1748725727,"current_range_meters":10800,"station_id":"ce4bgih2rcd13ifvqba0","pricing_plan_id":"cebpf4jnsgd1na2vs0mg"},{"bike_id":"9c2062b4-17ec-4dd6-81c2-7f8bc2de9f3a","system_id":"levelo_inurba_marseille","lat":43.27372,"lon":5.36241,"is_reserved":false,"is_disabled":false,"rental_uris":{"android":"levelo://app?vid=9c2062b4-17ec-4dd6-81c2-7f8bc2de9f3a","ios":"levelo://app?vid=9c2062b4-17ec-4dd6-81c2-7f8bc2de9f3a"},"vehicle_type_id":"4","last_reported":1748725727,"current_range_meters":10800,"station_id":"ce4bhbh2rcd13ifvqeo0","pricing_plan_id":"cebpf4jnsgd1na2vs0mg"},{"bike_id":"7eb28592-a79b-4021-9915-1ce11332a178","system_id":"levelo_inurba_marseille","lat":43.248,"lon":5.37455,"is_reserved":false,"is_disabled":false,"rental_uris":{"android":"levelo://app?vid=7eb28592-a79b-4021-9915-1ce11332a178","ios":"levelo://app?vid=7eb28592-a79b-4021-9915-1ce11332a178"},"vehicle_type_id":"4","last_reported":1748725727,"current_range_meters":12800,"station_id":"ce4bhgh2rcd13ifvqfb0","pricing_plan_id":"cebpf4jnsgd1na2vs0mg"},{"bike_id":"ec864dde-b65e-4158-bd35-75127cf90271","system_id":"levelo_inurba_marseille","lat":43.21766,"lon":5.34609,"is_reserved":false,"is_disabled":true,"rental_uris":{"android":"levelo://app?vid=ec864dde-b65e-4158-bd35-75127cf90271","ios":"levelo://app?vid=ec864dde-b65e-4158-bd35-75127cf90271"},"vehicle_type_id":"4","last_reported":1748725727,"current_range_meters":10800,"station_id":"st_cvj6r9ubvosntc0bgbag","pricing_plan_id":"cebpf4jnsgd1na2vs0mg"},{"bike_id":"9e318352-4e56-4f09-ba65-96288c348817","system_id":"levelo_inurba_marseille","lat":43.3111,"lon":5.37771,"is_reserved":false,"is_disabled":false,"rental_uris":{"android":"levelo://app?vid=9e318352-4e56-4f09-ba65-96288c348817","ios":"levelo://app?vid=9e318352-4e56-4f09-ba65-96288c348817"},"vehicle_type_id":"4","last_reported":1748725727,"current_range_meters":9600,"station_id":"ce4bgt92rcd13ifvqcg0","pricing_plan_id":"cebpf4jnsgd1na2vs0mg"},{"bike_id":"424abc49-7098-476e-9563-b7acdbab96ad","system_id":"levelo_inurba_marseille","lat":43.25113,"lon":5.40307,"is_reserved":false,"is_disabled":false,"rental_uris":{"android":"levelo://app?vid=424abc49-7098-476e-9563-b7acdbab96ad","ios":"levelo://app?vid=424abc49-7098-476e-9563-b7acdbab96ad"},"vehicle_type_id":"4","last_reported":1748725727,"current_range_meters":11200,"station_id":"ce4bhlh2rcd13ifvqgig","pricing_plan_id":"cebpf4jnsgd1na2vs0mg"},{"bike_id":"ad6f47cd-8c88-4407-9927-40e17b78d68e","system_id":"levelo_inurba_marseille","lat":43.25103,"lon":5.403035,"is_reserved":false,"is_disabled":false,"rental_uris":{"android":"levelo://app?vid=ad6f47cd-8c88-4407-9927-40e17b78d68e","ios":"levelo://app?vid=ad6f47cd-8c88-4407-9927-40e17b78d68e"},"vehicle_type_id":"4","last_reported":1748725727,"current_range_meters":11200,"station_id":"ce4bhlh2rcd13ifvqgig","pricing_plan_id":"cebpf4jnsgd1na2vs0mg"},{"bike_id":"acfbab2f-8c03-44c7-8a2f-cb74efcc20a6","system_id":"levelo_inurba_marseille","lat":43.30274,"lon":5.37306,"is_reserved":false,"is_disabled":false,"rental_uris":{"android":"levelo://app?vid=acfbab2f-8c03-44c7-8a2f-cb74efcc20a6","ios":"levelo://app?vid=acfbab2f-8c03-44c7-8a2f-cb74efcc20a6"},"vehicle_type_id":"4","last_reported":1748725727,"current_range_meters":11200,"station_id":"","pricing_plan_id":"cebpf4jnsgd1na2vs0mg"},{"bike_id":"7d4d6a45-dbe9-4a2d-b2fc-b0110d93bdc9","system_id":"levelo_inurba_marseille","lat":43.26024,"lon":5.37533,"is_reserved":false,"is_disabled":false,"rental_uris":{"android":"levelo://app?vid=7d4d6a45-dbe9-4a2d-b2fc-b0110d93bdc9","ios":"levelo://app?vid=7d4d6a45-dbe9-4a2d-b2fc-b0110d93bdc9"},"vehicle_type_id":"4","last_reported":1748725727,"current_range_meters":11200,"station_id":"ce4bhgh2rcd13ifvqfa0","pricing_plan_id":"cebpf4jnsgd1na2vs0mg"},{"bike_id":"7d94d141-85b7-459f-8145-ecf7ff558aa4","system_id":"levelo_inurba_marseille","lat":43.294427,"lon":5.386687,"is_reserved":false,"is_disabled":false,"rental_uris":{"android":"levelo://app?vid=7d94d141-85b7-459f-8145-ecf7ff558aa4","ios":"levelo://app?vid=7d94d141-85b7-459f-8145-ecf7ff558aa4"},"vehicle_type_id":"4","last_reported":1748725727,"current_range_meters":11200,"station_id":"ce4bh2h2rcd13ifvqdh0","pricing_plan_id":"cebpf4jnsgd1na2vs0mg"},{"bike_id":"013d5b28-9801-4dd4-86f5-01671ed7089d","system_id":"levelo_inurba_marseille","lat":43.29447,"lon":5.39749,"is_reserved":false,"is_disabled":false,"rental_uris":{"android":"levelo://app?vid=013d5b28-9801-4dd4-86f5-01671ed7089d","ios":"levelo://app?vid=013d5b28-9801-4dd4-86f5-01671ed7089d"},"vehicle_type_id":"4","last_reported":1748725727,"current_range_meters":11200,"station_id":"ce4bh3h2rcd13ifvqdo0","pricing_plan_id":"cebpf4jnsgd1na2vs0mg"},{"bike_id":"7f08a69a-2d5b-48e6-8e97-32333e7c1f12","system_id":"levelo_inurba_marseille","lat":43.25463,"lon":5.3754,"is_reserved":false,"is_disabled":false,"rental_uris":{"android":"levelo://app?vid=7f08a69a-2d5b-48e6-8e97-32333e7c1f12","ios":"levelo://app?vid=7f08a69a-2d5b-48e6-8e97-32333e7c1f12"},"vehicle_type_id":"4","last_reported":1748725727,"current_range_meters":11600,"station_id":"","pricing_plan_id":"cebpf4jnsgd1na2vs0mg"},{"bike_id":"7fff8cf9-ce40-478f-b5a6-e2d40df87fa7","system_id":"levelo_inurba_marseille","lat":43.29068,"lon":5.36946,"is_reserved":false,"is_disabled":false,"rental_uris":{"android":"levelo://app?vid=7fff8cf9-ce40-478f-b5a6-e2d40df87fa7","ios":"levelo://app?vid=7fff8cf9-ce40-478f-b5a6-e2d40df87fa7"},"vehicle_type_id":"4","last_reported":1748725727,"current_range_meters":11600,"station_id":"","pricing_plan_id":"cebpf4jnsgd1na2vs0mg"},{"bike_id":"b4a389d7-474d-4a9d-8dec-223a88612b5c","system_id":"levelo_inurba_marseille","lat":43.24999,"lon":5.37938,"is_reserved":false,"is_disabled":false,"rental_uris":{"android":"levelo://app?vid=b4a389d7-474d-4a9d-8dec-223a88612b5c","ios":"levelo://app?vid=b4a389d7-474d-4a9d-8dec-223a88612b5c"},"vehicle_type_id":"4","last_reported":1748725727,"current_range_meters":11600,"station_id":"","pricing_plan_id":"cebpf4jnsgd1na2vs0mg"},{"bike_id":"e6bf0c37-d2a0-4cf7-bda5-bdec7e2a1f23","system_id":"levelo_inurba_marseille","lat":43.322943,"lon":5.382709,"is_reserved":false,"is_disabled":false,"rental_uris":{"android":"levelo://app?vid=e6bf0c37-d2a0-4cf7-bda5-bdec7e2a1f23","ios":"levelo://app?vid=e6bf0c37-d2a0-4cf7-bda5-bdec7e2a1f23"},"vehicle_type_id":"4","last_reported":1748725727,"current_range_meters":11600,"station_id":"ce4bhr12rcd13ifvqhqg","pricing_plan_id":"cebpf4jnsgd1na2vs0mg"},{"bike_id":"8f0300e4-899f-4e13-b8a7-90f137ab1640","system_id":"levelo_inurba_marseille","lat":43.27056,"lon":5.39288,"is_reserved":false,"is_disabled":false,"rental_uris":{"android":"levelo://app?vid=8f0300e4-899f-4e13-b8a7-90f137ab1640","ios":"levelo://app?vid=8f0300e4-899f-4e13-b8a7-90f137ab1640"},"vehicle_type_id":"4","last_reported":1748725727,"current_range_meters":11600,"station_id":"","pricing_plan_id":"cebpf4jnsgd1na2vs0mg"},{"bike_id":"395725b1-48e3-44c2-879e-2f9d260a4d1a","system_id":"levelo_inurba_marseille","lat":43.312263,"lon":5.36855,"is_reserved":false,"is_disabled":false,"rental_uris":{"android":"levelo://app?vid=395725b1-48e3-44c2-879e-2f9d260a4d1a","ios":"levelo://app?vid=395725b1-48e3-44c2-879e-2f9d260a4d1a"},"vehicle_type_id":"4","last_reported":1748725727,"current_range_meters":11600,"station_id":"ce4bgl92rcd13ifvqbq0","pricing_plan_id":"cebpf4jnsgd1na2vs0mg"},{"bike_id":"f2d24b18-d214-4b88-99a9-26c99e5fd23c","system_id":"levelo_inurba_marseille","lat":43.246,"lon":5.39322,"is_reserved":false,"is_disabled":false,"rental_uris":{"android":"levelo://app?vid=f2d24b18-d214-4b88-99a9-26c99e5fd23c","ios":"levelo://app?vid=f2d24b18-d214-4b88-99a9-26c99e5fd23c"},"vehicle_type_id":"4","last_reported":1748725727,"current_range_meters":11600,"station_id":"","pricing_plan_id":"cebpf4jnsgd1na2vs0mg"},{"bike_id":"93c0cfbc-771a-4e72-a955-69eb70ad0346","system_id":"levelo_inurba_marseille","lat":43.27376,"lon":5.36256,"is_reserved":false,"is_disabled":false,"rental_uris":{"android":"levelo://app?vid=93c0cfbc-771a-4e72-a955-69eb70ad0346","ios":"levelo://app?vid=93c0cfbc-771a-4e72-a955-69eb70ad0346"},"vehicle_type_id":"4","last_reported":1748725727,"current_range_meters":11600,"station_id":"ce4bhbh2rcd13ifvqeo0","pricing_plan_id":"cebpf4jnsgd1na2vs0mg"},{"bike_id":"ae2c918a-d2e2-439b-aa6f-16e6722edd86","system_id":"levelo_inurba_marseille","lat":43.243337,"lon":5.38022,"is_reserved":false,"is_disabled":false,"rental_uris":{"android":"levelo://app?vid=ae2c918a-d2e2-439b-aa6f-16e6722edd86","ios":"levelo://app?vid=ae2c918a-d2e2-439b-aa6f-16e6722edd86"},"vehicle_type_id":"4","last_reported":1748725727,"current_range_meters":12000,"station_id":"","pricing_plan_id":"cebpf4jnsgd1na2vs0mg"},{"bike_id":"47d3c585-5a75-4788-92ad-52a1af86f4e5","system_id":"levelo_inurba_marseille","lat":43.294108,"lon":5.386261,"is_reserved":false,"is_disabled":false,"rental_uris":{"android":"levelo://app?vid=47d3c585-5a75-4788-92ad-52a1af86f4e5","ios":"levelo://app?vid=47d3c585-5a75-4788-92ad-52a1af86f4e5"},"vehicle_type_id":"4","last_reported":1748725727,"current_range_meters":12000,"station_id":"ce4bh2h2rcd13ifvqdh0","pricing_plan_id":"cebpf4jnsgd1na2vs0mg"},{"bike_id":"e15f79e2-17f0-4aa5-9935-d525b8d081e1","system_id":"levelo_inurba_marseille","lat":43.28942,"lon":5.36381,"is_reserved":false,"is_disabled":false,"rental_uris":{"android":"levelo://app?vid=e15f79e2-17f0-4aa5-9935-d525b8d081e1","ios":"levelo://app?vid=e15f79e2-17f0-4aa5-9935-d525b8d081e1"},"vehicle_type_id":"4","last_reported":1748725727,"current_range_meters":12000,"station_id":"ce4bhc92rcd13ifvqetg","pricing_plan_id":"cebpf4jnsgd1na2vs0mg"},{"bike_id":"a53e91f2-c462-4470-879d-60073a7f31df","system_id":"levelo_inurba_marseille","lat":43.29531,"lon":5.38549,"is_reserved":false,"is_disabled":false,"rental_uris":{"android":"levelo://app?vid=a53e91f2-c462-4470-879d-60073a7f31df","ios":"levelo://app?vid=a53e91f2-c462-4470-879d-60073a7f31df"},"vehicle_type_id":"4","last_reported":1748725727,"current_range_meters":12000,"station_id":"ce4bgih2rcd13ifvqba0","pricing_plan_id":"cebpf4jnsgd1na2vs0mg"},{"bike_id":"1cbc3454-ff5d-4ea4-b25c-b28e2bf616a9","system_id":"levelo_inurba_marseille","lat":43.25101,"lon":5.40306,"is_reserved":false,"is_disabled":false,"rental_uris":{"android":"levelo://app?vid=1cbc3454-ff5d-4ea4-b25c-b28e2bf616a9","ios":"levelo://app?vid=1cbc3454-ff5d-4ea4-b25c-b28e2bf616a9"},"vehicle_type_id":"4","last_reported":1748725727,"current_range_meters":12000,"station_id":"ce4bhlh2rcd13ifvqgig","pricing_plan_id":"cebpf4jnsgd1na2vs0mg"},{"bike_id":"14036455-f919-44f7-8d5e-0b2e84f48674","system_id":"levelo_inurba_marseille","lat":43.30935,"lon":5.40339,"is_reserved":false,"is_disabled":false,"rental_uris":{"android":"levelo://app?vid=14036455-f919-44f7-8d5e-0b2e84f48674","ios":"levelo://app?vid=14036455-f919-44f7-8d5e-0b2e84f48674"},"vehicle_type_id":"4","last_reported":1748725727,"current_range_meters":12000,"station_id":"","pricing_plan_id":"cebpf4jnsgd1na2vs0mg"},{"bike_id":"5ef067e7-b281-4ef9-ad2a-1c6b02a54c04","system_id":"levelo_inurba_marseille","lat":43.31905,"lon":5.44044,"is_reserved":false,"is_disabled":false,"rental_uris":{"android":"levelo://app?vid=5ef067e7-b281-4ef9-ad2a-1c6b02a54c04","ios":"levelo://app?vid=5ef067e7-b281-4ef9-ad2a-1c6b02a54c04"},"vehicle_type_id":"4","last_reported":1748725727,"current_range_meters":12000,"station_id":"","pricing_plan_id":"cebpf4jnsgd1na2vs0mg"},{"bike_id":"97c2bc50-b253-470d-bf7a-d78dda94dee2","system_id":"levelo_inurba_marseille","lat":43.292651,"lon":5.384388,"is_reserved":false,"is_disabled":false,"rental_uris":{"android":"levelo://app?vid=97c2bc50-b253-470d-bf7a-d78dda94dee2","ios":"levelo://app?vid=97c2bc50-b253-470d-bf7a-d78dda94dee2"},"vehicle_type_id":"4","last_reported":1748725727,"current_range_meters":12000,"station_id":"ce4bh692rcd13ifvqea0","pricing_plan_id":"cebpf4jnsgd1na2vs0mg"},{"bike_id":"b1508551-24e0-44ad-9e06-2cda34f5678f","system_id":"levelo_inurba_marseille","lat":43.3038,"lon":5.42491,"is_reserved":false,"is_disabled":false,"rental_uris":{"android":"levelo://app?vid=b1508551-24e0-44ad-9e06-2cda34f5678f","ios":"levelo://app?vid=b1508551-24e0-44ad-9e06-2cda34f5678f"},"vehicle_type_id":"4","last_reported":1748725727,"current_range_meters":12400,"station_id":"ce4bhoh2rcd13ifvqh6g","pricing_plan_id":"cebpf4jnsgd1na2vs0mg"},{"bike_id":"5e4233f6-597f-458a-b45b-2a540108b49b","system_id":"levelo_inurba_marseille","lat":43.29432,"lon":5.38634,"is_reserved":false,"is_disabled":false,"rental_uris":{"android":"levelo://app?vid=5e4233f6-597f-458a-b45b-2a540108b49b","ios":"levelo://app?vid=5e4233f6-597f-458a-b45b-2a540108b49b"},"vehicle_type_id":"4","last_reported":1748725727,"current_range_meters":12400,"station_id":"ce4bh2h2rcd13ifvqdh0","pricing_plan_id":"cebpf4jnsgd1na2vs0mg"},{"bike_id":"823a2611-9e4e-4938-83e1-63bacff8634d","system_id":"levelo_inurba_marseille","lat":43.32371,"lon":5.38873,"is_reserved":false,"is_disabled":false,"rental_uris":{"android":"levelo://app?vid=823a2611-9e4e-4938-83e1-63bacff8634d","ios":"levelo://app?vid=823a2611-9e4e-4938-83e1-63bacff8634d"},"vehicle_type_id":"4","last_reported":1748725727,"current_range_meters":12400,"station_id":"ce4bhqp2rcd13ifvqhog","pricing_plan_id":"cebpf4jnsgd1na2vs0mg"},{"bike_id":"fe0ac1d1-8e4d-4194-9328-5de1ad727941","system_id":"levelo_inurba_marseille","lat":43.28928,"lon":5.36623,"is_reserved":false,"is_disabled":false,"rental_uris":{"android":"levelo://app?vid=fe0ac1d1-8e4d-4194-9328-5de1ad727941","ios":"levelo://app?vid=fe0ac1d1-8e4d-4194-9328-5de1ad727941"},"vehicle_type_id":"4","last_reported":1748725727,"current_range_meters":12400,"station_id":"ce4bhap2rcd13ifvqek0","pricing_plan_id":"cebpf4jnsgd1na2vs0mg"},{"bike_id":"751ce626-aa32-43db-ba81-3e9ada50f2c5","system_id":"levelo_inurba_marseille","lat":43.29314,"lon":5.37474,"is_reserved":false,"is_disabled":false,"rental_uris":{"android":"levelo://app?vid=751ce626-aa32-43db-ba81-3e9ada50f2c5","ios":"levelo://app?vid=751ce626-aa32-43db-ba81-3e9ada50f2c5"},"vehicle_type_id":"4","last_reported":1748725727,"current_range_meters":12400,"station_id":"ce4bgi12rcd13ifvqb70","pricing_plan_id":"cebpf4jnsgd1na2vs0mg"},{"bike_id":"63226803-31c6-4bba-8fb5-6056cb981b44","system_id":"levelo_inurba_marseille","lat":43.217759,"lon":5.345894,"is_reserved":false,"is_disabled":true,"rental_uris":{"android":"levelo://app?vid=63226803-31c6-4bba-8fb5-6056cb981b44","ios":"levelo://app?vid=63226803-31c6-4bba-8fb5-6056cb981b44"},"vehicle_type_id":"4","last_reported":1748725727,"current_range_meters":12400,"station_id":"st_cvj6r9ubvosntc0bgbag","pricing_plan_id":"cebpf4jnsgd1na2vs0mg"},{"bike_id":"3718f31c-fedb-4a32-9054-edf0dc01c55f","system_id":"levelo_inurba_marseille","lat":43.246819,"lon":5.381654,"is_reserved":false,"is_disabled":false,"rental_uris":{"android":"levelo://app?vid=3718f31c-fedb-4a32-9054-edf0dc01c55f","ios":"levelo://app?vid=3718f31c-fedb-4a32-9054-edf0dc01c55f"},"vehicle_type_id":"4","last_reported":1748725727,"current_range_meters":12400,"station_id":"ce4bhih2rcd13ifvqfr0","pricing_plan_id":"cebpf4jnsgd1na2vs0mg"},{"bike_id":"119764e2-92bc-4549-bddb-1b94a9efaa8b","system_id":"levelo_inurba_marseille","lat":43.24048,"lon":5.37726,"is_reserved":false,"is_disabled":false,"rental_uris":{"android":"levelo://app?vid=119764e2-92bc-4549-bddb-1b94a9efaa8b","ios":"levelo://app?vid=119764e2-92bc-4549-bddb-1b94a9efaa8b"},"vehicle_type_id":"4","last_reported":1748725727,"current_range_meters":12000,"station_id":"ce4bhnp2rcd13ifvqgvg","pricing_plan_id":"cebpf4jnsgd1na2vs0mg"},{"bike_id":"c213034b-f9a3-48e8-9a07-6d97a3c51b73","system_id":"levelo_inurba_marseille","lat":43.25117,"lon":5.40294,"is_reserved":false,"is_disabled":false,"rental_uris":{"android":"levelo://app?vid=c213034b-f9a3-48e8-9a07-6d97a3c51b73","ios":"levelo://app?vid=c213034b-f9a3-48e8-9a07-6d97a3c51b73"},"vehicle_type_id":"4","last_reported":1748725727,"current_range_meters":12400,"station_id":"ce4bhlh2rcd13ifvqgig","pricing_plan_id":"cebpf4jnsgd1na2vs0mg"},{"bike_id":"349439e1-2c68-44dc-8fd8-49da1877e3ca","system_id":"levelo_inurba_marseille","lat":43.29965,"lon":5.38496,"is_reserved":false,"is_disabled":false,"rental_uris":{"android":"levelo://app?vid=349439e1-2c68-44dc-8fd8-49da1877e3ca","ios":"levelo://app?vid=349439e1-2c68-44dc-8fd8-49da1877e3ca"},"vehicle_type_id":"4","last_reported":1748725727,"current_range_meters":12400,"station_id":"ce4bgj92rcd13ifvqbd0","pricing_plan_id":"cebpf4jnsgd1na2vs0mg"},{"bike_id":"9b03c3f1-a97d-4170-ab8e-5b6ce67f019f","system_id":"levelo_inurba_marseille","lat":43.31543,"lon":5.3801,"is_reserved":false,"is_disabled":false,"rental_uris":{"android":"levelo://app?vid=9b03c3f1-a97d-4170-ab8e-5b6ce67f019f","ios":"levelo://app?vid=9b03c3f1-a97d-4170-ab8e-5b6ce67f019f"},"vehicle_type_id":"4","last_reported":1748725727,"current_range_meters":12800,"station_id":"ce4bhsp2rcd13ifvqi50","pricing_plan_id":"cebpf4jnsgd1na2vs0mg"},{"bike_id":"adea266a-1798-4cf0-b023-54bff17111a1","system_id":"levelo_inurba_marseille","lat":43.2926,"lon":5.38436,"is_reserved":false,"is_disabled":false,"rental_uris":{"android":"levelo://app?vid=adea266a-1798-4cf0-b023-54bff17111a1","ios":"levelo://app?vid=adea266a-1798-4cf0-b023-54bff17111a1"},"vehicle_type_id":"4","last_reported":1748725727,"current_range_meters":12800,"station_id":"ce4bh692rcd13ifvqea0","pricing_plan_id":"cebpf4jnsgd1na2vs0mg"},{"bike_id":"289348b1-f496-48d7-9095-5593c941cd7a","system_id":"levelo_inurba_marseille","lat":43.29541,"lon":5.37472,"is_reserved":false,"is_disabled":true,"rental_uris":{"android":"levelo://app?vid=289348b1-f496-48d7-9095-5593c941cd7a","ios":"levelo://app?vid=289348b1-f496-48d7-9095-5593c941cd7a"},"vehicle_type_id":"4","last_reported":1748725727,"current_range_meters":12800,"station_id":"ce4bgkp2rcd13ifvqbmg","pricing_plan_id":"cebpf4jnsgd1na2vs0mg"},{"bike_id":"40c9773a-3c4e-413b-9c9b-040251f3fffe","system_id":"levelo_inurba_marseille","lat":43.30136,"lon":5.38765,"is_reserved":false,"is_disabled":false,"rental_uris":{"android":"levelo://app?vid=40c9773a-3c4e-413b-9c9b-040251f3fffe","ios":"levelo://app?vid=40c9773a-3c4e-413b-9c9b-040251f3fffe"},"vehicle_type_id":"4","last_reported":1748725727,"current_range_meters":12400,"station_id":"ce4bghh2rcd13ifvqb60","pricing_plan_id":"cebpf4jnsgd1na2vs0mg"},{"bike_id":"bac7235f-d44b-4e43-a3e5-710e5194bcdc","system_id":"levelo_inurba_marseille","lat":43.30588,"lon":5.39347,"is_reserved":false,"is_disabled":false,"rental_uris":{"android":"levelo://app?vid=bac7235f-d44b-4e43-a3e5-710e5194bcdc","ios":"levelo://app?vid=bac7235f-d44b-4e43-a3e5-710e5194bcdc"},"vehicle_type_id":"4","last_reported":1748725727,"current_range_meters":13600,"station_id":"ce4bh0p2rcd13ifvqd80","pricing_plan_id":"cebpf4jnsgd1na2vs0mg"},{"bike_id":"365fafc0-5391-4421-a233-afc121c492c4","system_id":"levelo_inurba_marseille","lat":43.304335,"lon":5.393227,"is_reserved":false,"is_disabled":false,"rental_uris":{"android":"levelo://app?vid=365fafc0-5391-4421-a233-afc121c492c4","ios":"levelo://app?vid=365fafc0-5391-4421-a233-afc121c492c4"},"vehicle_type_id":"4","last_reported":1748725727,"current_range_meters":12800,"station_id":"","pricing_plan_id":"cebpf4jnsgd1na2vs0mg"},{"bike_id":"62b9fb40-b3b6-4001-a515-0c87ced39043","system_id":"levelo_inurba_marseille","lat":43.23962,"lon":5.36616,"is_reserved":false,"is_disabled":true,"rental_uris":{"android":"levelo://app?vid=62b9fb40-b3b6-4001-a515-0c87ced39043","ios":"levelo://app?vid=62b9fb40-b3b6-4001-a515-0c87ced39043"},"vehicle_type_id":"4","last_reported":1748725727,"current_range_meters":13600,"station_id":"ce4bhi12rcd13ifvqfp0","pricing_plan_id":"cebpf4jnsgd1na2vs0mg"},{"bike_id":"f9b6111d-297f-42b0-b622-4a4d069f2689","system_id":"levelo_inurba_marseille","lat":43.29413,"lon":5.38613,"is_reserved":false,"is_disabled":false,"rental_uris":{"android":"levelo://app?vid=f9b6111d-297f-42b0-b622-4a4d069f2689","ios":"levelo://app?vid=f9b6111d-297f-42b0-b622-4a4d069f2689"},"vehicle_type_id":"4","last_reported":1748725727,"current_range_meters":13600,"station_id":"ce4bh2h2rcd13ifvqdh0","pricing_plan_id":"cebpf4jnsgd1na2vs0mg"},{"bike_id":"ff941e69-8cee-4130-9154-37ec9c999c26","system_id":"levelo_inurba_marseille","lat":43.28215,"lon":5.39012,"is_reserved":false,"is_disabled":false,"rental_uris":{"android":"levelo://app?vid=ff941e69-8cee-4130-9154-37ec9c999c26","ios":"levelo://app?vid=ff941e69-8cee-4130-9154-37ec9c999c26"},"vehicle_type_id":"4","last_reported":1748725727,"current_range_meters":13600,"station_id":"ce4bhh92rcd13ifvqfh0","pricing_plan_id":"cebpf4jnsgd1na2vs0mg"},{"bike_id":"33ce954c-3291-4895-bc8c-28f4fec81a57","system_id":"levelo_inurba_marseille","lat":43.29546,"lon":5.38541,"is_reserved":false,"is_disabled":false,"rental_uris":{"android":"levelo://app?vid=33ce954c-3291-4895-bc8c-28f4fec81a57","ios":"levelo://app?vid=33ce954c-3291-4895-bc8c-28f4fec81a57"},"vehicle_type_id":"4","last_reported":1748725727,"current_range_meters":14000,"station_id":"ce4bgih2rcd13ifvqba0","pricing_plan_id":"cebpf4jnsgd1na2vs0mg"},{"bike_id":"7119348e-f17e-4e4e-9b71-376c057421b6","system_id":"levelo_inurba_marseille","lat":43.29097,"lon":5.3815,"is_reserved":false,"is_disabled":false,"rental_uris":{"android":"levelo://app?vid=7119348e-f17e-4e4e-9b71-376c057421b6","ios":"levelo://app?vid=7119348e-f17e-4e4e-9b71-376c057421b6"},"vehicle_type_id":"4","last_reported":1748725727,"current_range_meters":12800,"station_id":"ce4bh512rcd13ifvqe2g","pricing_plan_id":"cebpf4jnsgd1na2vs0mg"},{"bike_id":"c9bee563-4d5a-4c32-bfa6-ab1188565cf6","system_id":"levelo_inurba_marseille","lat":43.30932,"lon":5.40138,"is_reserved":false,"is_disabled":false,"rental_uris":{"android":"levelo://app?vid=c9bee563-4d5a-4c32-bfa6-ab1188565cf6","ios":"levelo://app?vid=c9bee563-4d5a-4c32-bfa6-ab1188565cf6"},"vehicle_type_id":"4","last_reported":1748725727,"current_range_meters":13600,"station_id":"ce4bgvp2rcd13ifvqct0","pricing_plan_id":"cebpf4jnsgd1na2vs0mg"},{"bike_id":"a14a13b8-cd50-45a4-b7d5-2147074687c8","system_id":"levelo_inurba_marseille","lat":43.313575,"lon":5.384915,"is_reserved":false,"is_disabled":false,"rental_uris":{"android":"levelo://app?vid=a14a13b8-cd50-45a4-b7d5-2147074687c8","ios":"levelo://app?vid=a14a13b8-cd50-45a4-b7d5-2147074687c8"},"vehicle_type_id":"4","last_reported":1748725727,"current_range_meters":16000,"station_id":"ce4bgt92rcd13ifvqcf0","pricing_plan_id":"cebpf4jnsgd1na2vs0mg"},{"bike_id":"4545aeae-7ddc-4375-9cb8-5bd4bc1d7e43","system_id":"levelo_inurba_marseille","lat":43.248932,"lon":5.374983,"is_reserved":false,"is_disabled":false,"rental_uris":{"android":"levelo://app?vid=4545aeae-7ddc-4375-9cb8-5bd4bc1d7e43","ios":"levelo://app?vid=4545aeae-7ddc-4375-9cb8-5bd4bc1d7e43"},"vehicle_type_id":"4","last_reported":1748725727,"current_range_meters":13600,"station_id":"ce4bhgh2rcd13ifvqfb0","pricing_plan_id":"cebpf4jnsgd1na2vs0mg"},{"bike_id":"c2f4feb8-42b5-42b5-9ed4-3cf882559179","system_id":"levelo_inurba_marseille","lat":43.29816,"lon":5.37385,"is_reserved":false,"is_disabled":false,"rental_uris":{"android":"levelo://app?vid=c2f4feb8-42b5-42b5-9ed4-3cf882559179","ios":"levelo://app?vid=c2f4feb8-42b5-42b5-9ed4-3cf882559179"},"vehicle_type_id":"4","last_reported":1748725727,"current_range_meters":14000,"station_id":"","pricing_plan_id":"cebpf4jnsgd1na2vs0mg"},{"bike_id":"5df05316-524d-4046-90a8-d4f2dfb87ecf","system_id":"levelo_inurba_marseille","lat":43.24322,"lon":5.38018,"is_reserved":false,"is_disabled":false,"rental_uris":{"android":"levelo://app?vid=5df05316-524d-4046-90a8-d4f2dfb87ecf","ios":"levelo://app?vid=5df05316-524d-4046-90a8-d4f2dfb87ecf"},"vehicle_type_id":"4","last_reported":1748725727,"current_range_meters":14000,"station_id":"","pricing_plan_id":"cebpf4jnsgd1na2vs0mg"},{"bike_id":"d95a8927-9413-4ee6-b8dd-9b96d5af8d5e","system_id":"levelo_inurba_marseille","lat":43.283502,"lon":5.35035,"is_reserved":false,"is_disabled":false,"rental_uris":{"android":"levelo://app?vid=d95a8927-9413-4ee6-b8dd-9b96d5af8d5e","ios":"levelo://app?vid=d95a8927-9413-4ee6-b8dd-9b96d5af8d5e"},"vehicle_type_id":"4","last_reported":1748725727,"current_range_meters":14000,"station_id":"","pricing_plan_id":"cebpf4jnsgd1na2vs0mg"},{"bike_id":"fbdff89c-6eb2-4bb4-adff-92e23d969f91","system_id":"levelo_inurba_marseille","lat":43.29028,"lon":5.38613,"is_reserved":false,"is_disabled":false,"rental_uris":{"android":"levelo://app?vid=fbdff89c-6eb2-4bb4-adff-92e23d969f91","ios":"levelo://app?vid=fbdff89c-6eb2-4bb4-adff-92e23d969f91"},"vehicle_type_id":"4","last_reported":1748725727,"current_range_meters":14000,"station_id":"ce4bh4p2rcd13ifvqe0g","pricing_plan_id":"cebpf4jnsgd1na2vs0mg"},{"bike_id":"e210be7e-07b8-44d3-ae09-6702f28e2ae8","system_id":"levelo_inurba_marseille","lat":43.251318,"lon":5.393554,"is_reserved":false,"is_disabled":false,"rental_uris":{"android":"levelo://app?vid=e210be7e-07b8-44d3-ae09-6702f28e2ae8","ios":"levelo://app?vid=e210be7e-07b8-44d3-ae09-6702f28e2ae8"},"vehicle_type_id":"4","last_reported":1748725727,"current_range_meters":14000,"station_id":"","pricing_plan_id":"cebpf4jnsgd1na2vs0mg"},{"bike_id":"13e10e62-dd60-4cfa-b0d8-d05722a25748","system_id":"levelo_inurba_marseille","lat":43.30883,"lon":5.39659,"is_reserved":false,"is_disabled":false,"rental_uris":{"android":"levelo://app?vid=13e10e62-dd60-4cfa-b0d8-d05722a25748","ios":"levelo://app?vid=13e10e62-dd60-4cfa-b0d8-d05722a25748"},"vehicle_type_id":"4","last_reported":1748725727,"current_range_meters":14000,"station_id":"ce4bh012rcd13ifvqcv0","pricing_plan_id":"cebpf4jnsgd1na2vs0mg"},{"bike_id":"01c8f810-64a3-4d11-b53a-94eb401de79e","system_id":"levelo_inurba_marseille","lat":43.31358,"lon":5.3849,"is_reserved":false,"is_disabled":false,"rental_uris":{"android":"levelo://app?vid=01c8f810-64a3-4d11-b53a-94eb401de79e","ios":"levelo://app?vid=01c8f810-64a3-4d11-b53a-94eb401de79e"},"vehicle_type_id":"4","last_reported":1748725727,"current_range_meters":14400,"station_id":"ce4bgt92rcd13ifvqcf0","pricing_plan_id":"cebpf4jnsgd1na2vs0mg"},{"bike_id":"435f712e-8e5b-494a-9ab4-36835f10e96d","system_id":"levelo_inurba_marseille","lat":43.294147,"lon":5.386407,"is_reserved":false,"is_disabled":false,"rental_uris":{"android":"levelo://app?vid=435f712e-8e5b-494a-9ab4-36835f10e96d","ios":"levelo://app?vid=435f712e-8e5b-494a-9ab4-36835f10e96d"},"vehicle_type_id":"4","last_reported":1748725727,"current_range_meters":14400,"station_id":"ce4bh2h2rcd13ifvqdh0","pricing_plan_id":"cebpf4jnsgd1na2vs0mg"},{"bike_id":"c025f62a-c743-4830-a36c-d79c81668bc9","system_id":"levelo_inurba_marseille","lat":43.28111,"lon":5.3784,"is_reserved":false,"is_disabled":false,"rental_uris":{"android":"levelo://app?vid=c025f62a-c743-4830-a36c-d79c81668bc9","ios":"levelo://app?vid=c025f62a-c743-4830-a36c-d79c81668bc9"},"vehicle_type_id":"4","last_reported":1748725727,"current_range_meters":14400,"station_id":"ce4bha12rcd13ifvqee0","pricing_plan_id":"cebpf4jnsgd1na2vs0mg"},{"bike_id":"58f86fb9-0412-4428-a01e-7f0e9bc533df","system_id":"levelo_inurba_marseille","lat":43.30131,"lon":5.38779,"is_reserved":false,"is_disabled":false,"rental_uris":{"android":"levelo://app?vid=58f86fb9-0412-4428-a01e-7f0e9bc533df","ios":"levelo://app?vid=58f86fb9-0412-4428-a01e-7f0e9bc533df"},"vehicle_type_id":"4","last_reported":1748725727,"current_range_meters":14400,"station_id":"ce4bghh2rcd13ifvqb60","pricing_plan_id":"cebpf4jnsgd1na2vs0mg"},{"bike_id":"f7a0ebb1-f093-449e-b425-9052af247924","system_id":"levelo_inurba_marseille","lat":43.3171,"lon":5.43706,"is_reserved":false,"is_disabled":false,"rental_uris":{"android":"levelo://app?vid=f7a0ebb1-f093-449e-b425-9052af247924","ios":"levelo://app?vid=f7a0ebb1-f093-449e-b425-9052af247924"},"vehicle_type_id":"4","last_reported":1748725727,"current_range_meters":14800,"station_id":"ce4bhp92rcd13ifvqhcg","pricing_plan_id":"cebpf4jnsgd1na2vs0mg"},{"bike_id":"9a189ee8-27ed-444b-b171-f705371af28f","system_id":"levelo_inurba_marseille","lat":43.28251,"lon":5.34903,"is_reserved":false,"is_disabled":false,"rental_uris":{"android":"levelo://app?vid=9a189ee8-27ed-444b-b171-f705371af28f","ios":"levelo://app?vid=9a189ee8-27ed-444b-b171-f705371af28f"},"vehicle_type_id":"4","last_reported":1748725727,"current_range_meters":14800,"station_id":"","pricing_plan_id":"cebpf4jnsgd1na2vs0mg"},{"bike_id":"4020df04-632b-4ee7-9c6c-7254b0c7be04","system_id":"levelo_inurba_marseille","lat":43.3235,"lon":5.4061,"is_reserved":false,"is_disabled":false,"rental_uris":{"android":"levelo://app?vid=4020df04-632b-4ee7-9c6c-7254b0c7be04","ios":"levelo://app?vid=4020df04-632b-4ee7-9c6c-7254b0c7be04"},"vehicle_type_id":"4","last_reported":1748725727,"current_range_meters":14800,"station_id":"ce4bhq92rcd13ifvqhjg","pricing_plan_id":"cebpf4jnsgd1na2vs0mg"},{"bike_id":"4501ed9c-aff3-48ba-8f2e-a075a0f013ef","system_id":"levelo_inurba_marseille","lat":43.2669,"lon":5.38264,"is_reserved":false,"is_disabled":false,"rental_uris":{"android":"levelo://app?vid=4501ed9c-aff3-48ba-8f2e-a075a0f013ef","ios":"levelo://app?vid=4501ed9c-aff3-48ba-8f2e-a075a0f013ef"},"vehicle_type_id":"4","last_reported":1748725727,"current_range_meters":14800,"station_id":"ce4bhg92rcd13ifvqf90","pricing_plan_id":"cebpf4jnsgd1na2vs0mg"},{"bike_id":"19acb86c-d41f-4c99-95c0-a1f69c0413f6","system_id":"levelo_inurba_marseille","lat":43.25082,"lon":5.40305,"is_reserved":false,"is_disabled":false,"rental_uris":{"android":"levelo://app?vid=19acb86c-d41f-4c99-95c0-a1f69c0413f6","ios":"levelo://app?vid=19acb86c-d41f-4c99-95c0-a1f69c0413f6"},"vehicle_type_id":"4","last_reported":1748725727,"current_range_meters":14800,"station_id":"ce4bhlh2rcd13ifvqgig","pricing_plan_id":"cebpf4jnsgd1na2vs0mg"},{"bike_id":"dc1b77bb-0c5c-438e-b937-ebd825529e8d","system_id":"levelo_inurba_marseille","lat":43.25134,"lon":5.40319,"is_reserved":false,"is_disabled":false,"rental_uris":{"android":"levelo://app?vid=dc1b77bb-0c5c-438e-b937-ebd825529e8d","ios":"levelo://app?vid=dc1b77bb-0c5c-438e-b937-ebd825529e8d"},"vehicle_type_id":"4","last_reported":1748725727,"current_range_meters":14800,"station_id":"ce4bhlh2rcd13ifvqgig","pricing_plan_id":"cebpf4jnsgd1na2vs0mg"},{"bike_id":"ac485955-7960-4e2a-81e1-3336ba26d4dc","system_id":"levelo_inurba_marseille","lat":43.301408,"lon":5.387857,"is_reserved":false,"is_disabled":false,"rental_uris":{"android":"levelo://app?vid=ac485955-7960-4e2a-81e1-3336ba26d4dc","ios":"levelo://app?vid=ac485955-7960-4e2a-81e1-3336ba26d4dc"},"vehicle_type_id":"4","last_reported":1748725727,"current_range_meters":14800,"station_id":"ce4bghh2rcd13ifvqb60","pricing_plan_id":"cebpf4jnsgd1na2vs0mg"},{"bike_id":"3a52e2dc-4c9f-4ef7-8687-d7208ae191d4","system_id":"levelo_inurba_marseille","lat":43.29537,"lon":5.39028,"is_reserved":false,"is_disabled":false,"rental_uris":{"android":"levelo://app?vid=3a52e2dc-4c9f-4ef7-8687-d7208ae191d4","ios":"levelo://app?vid=3a52e2dc-4c9f-4ef7-8687-d7208ae191d4"},"vehicle_type_id":"4","last_reported":1748725727,"current_range_meters":14800,"station_id":"ce4bh3p2rcd13ifvqdp0","pricing_plan_id":"cebpf4jnsgd1na2vs0mg"},{"bike_id":"15a10a3c-dc02-40ac-84d2-d5651d2bf65f","system_id":"levelo_inurba_marseille","lat":43.29619,"lon":5.37703,"is_reserved":false,"is_disabled":false,"rental_uris":{"android":"levelo://app?vid=15a10a3c-dc02-40ac-84d2-d5651d2bf65f","ios":"levelo://app?vid=15a10a3c-dc02-40ac-84d2-d5651d2bf65f"},"vehicle_type_id":"4","last_reported":1748725727,"current_range_meters":15200,"station_id":"ce4bgi92rcd13ifvqb90","pricing_plan_id":"cebpf4jnsgd1na2vs0mg"},{"bike_id":"32503fa7-7208-4269-b40f-34ba3dae0f9e","system_id":"levelo_inurba_marseille","lat":43.308716,"lon":5.403708,"is_reserved":false,"is_disabled":false,"rental_uris":{"android":"levelo://app?vid=32503fa7-7208-4269-b40f-34ba3dae0f9e","ios":"levelo://app?vid=32503fa7-7208-4269-b40f-34ba3dae0f9e"},"vehicle_type_id":"4","last_reported":1748725727,"current_range_meters":15200,"station_id":"","pricing_plan_id":"cebpf4jnsgd1na2vs0mg"},{"bike_id":"32407856-ed5d-44c1-bf56-2797534505b3","system_id":"levelo_inurba_marseille","lat":43.29981,"lon":5.3849,"is_reserved":false,"is_disabled":false,"rental_uris":{"android":"levelo://app?vid=32407856-ed5d-44c1-bf56-2797534505b3","ios":"levelo://app?vid=32407856-ed5d-44c1-bf56-2797534505b3"},"vehicle_type_id":"4","last_reported":1748725727,"current_range_meters":15200,"station_id":"ce4bgj92rcd13ifvqbd0","pricing_plan_id":"cebpf4jnsgd1na2vs0mg"},{"bike_id":"b6b6b9c9-179a-4330-b774-cbea546a5069","system_id":"levelo_inurba_marseille","lat":43.31073,"lon":5.38357,"is_reserved":false,"is_disabled":false,"rental_uris":{"android":"levelo://app?vid=b6b6b9c9-179a-4330-b774-cbea546a5069","ios":"levelo://app?vid=b6b6b9c9-179a-4330-b774-cbea546a5069"},"vehicle_type_id":"4","last_reported":1748725727,"current_range_meters":15200,"station_id":"ce4bgv92rcd13ifvqcr0","pricing_plan_id":"cebpf4jnsgd1na2vs0mg"},{"bike_id":"84e94b65-0704-41b9-b45c-33b81545a7c4","system_id":"levelo_inurba_marseille","lat":43.3031,"lon":5.36909,"is_reserved":false,"is_disabled":true,"rental_uris":{"android":"levelo://app?vid=84e94b65-0704-41b9-b45c-33b81545a7c4","ios":"levelo://app?vid=84e94b65-0704-41b9-b45c-33b81545a7c4"},"vehicle_type_id":"4","last_reported":1748725727,"current_range_meters":15200,"station_id":"ce4bgqh2rcd13ifvqc5g","pricing_plan_id":"cebpf4jnsgd1na2vs0mg"},{"bike_id":"be63f056-0208-4b3b-9aaa-8c32067366f8","system_id":"levelo_inurba_marseille","lat":43.28368,"lon":5.38618,"is_reserved":false,"is_disabled":false,"rental_uris":{"android":"levelo://app?vid=be63f056-0208-4b3b-9aaa-8c32067366f8","ios":"levelo://app?vid=be63f056-0208-4b3b-9aaa-8c32067366f8"},"vehicle_type_id":"4","last_reported":1748725727,"current_range_meters":15200,"station_id":"ce4bh492rcd13ifvqdvg","pricing_plan_id":"cebpf4jnsgd1na2vs0mg"},{"bike_id":"5344a6f7-f2b1-43fb-956c-32a014cd9682","system_id":"levelo_inurba_marseille","lat":43.29414,"lon":5.38616,"is_reserved":false,"is_disabled":true,"rental_uris":{"android":"levelo://app?vid=5344a6f7-f2b1-43fb-956c-32a014cd9682","ios":"levelo://app?vid=5344a6f7-f2b1-43fb-956c-32a014cd9682"},"vehicle_type_id":"4","last_reported":1748725727,"current_range_meters":15200,"station_id":"ce4bh2h2rcd13ifvqdh0","pricing_plan_id":"cebpf4jnsgd1na2vs0mg"},{"bike_id":"c6edadbb-ce75-49f3-947c-84f86659aae4","system_id":"levelo_inurba_marseille","lat":43.29265,"lon":5.38428,"is_reserved":false,"is_disabled":false,"rental_uris":{"android":"levelo://app?vid=c6edadbb-ce75-49f3-947c-84f86659aae4","ios":"levelo://app?vid=c6edadbb-ce75-49f3-947c-84f86659aae4"},"vehicle_type_id":"4","last_reported":1748725727,"current_range_meters":16000,"station_id":"ce4bh692rcd13ifvqea0","pricing_plan_id":"cebpf4jnsgd1na2vs0mg"},{"bike_id":"778091e6-c30d-4d1f-a9f9-db074d2c2515","system_id":"levelo_inurba_marseille","lat":43.318815,"lon":5.407726,"is_reserved":false,"is_disabled":false,"rental_uris":{"android":"levelo://app?vid=778091e6-c30d-4d1f-a9f9-db074d2c2515","ios":"levelo://app?vid=778091e6-c30d-4d1f-a9f9-db074d2c2515"},"vehicle_type_id":"4","last_reported":1748725727,"current_range_meters":16000,"station_id":"","pricing_plan_id":"cebpf4jnsgd1na2vs0mg"},{"bike_id":"f5a90625-b7e8-48a8-90c6-777efe255a32","system_id":"levelo_inurba_marseille","lat":43.25105,"lon":5.40969,"is_reserved":false,"is_disabled":false,"rental_uris":{"android":"levelo://app?vid=f5a90625-b7e8-48a8-90c6-777efe255a32","ios":"levelo://app?vid=f5a90625-b7e8-48a8-90c6-777efe255a32"},"vehicle_type_id":"4","last_reported":1748725727,"current_range_meters":16000,"station_id":"","pricing_plan_id":"cebpf4jnsgd1na2vs0mg"},{"bike_id":"96317ca0-e235-4892-8034-bcea25bba125","system_id":"levelo_inurba_marseille","lat":43.29413,"lon":5.38634,"is_reserved":false,"is_disabled":false,"rental_uris":{"android":"levelo://app?vid=96317ca0-e235-4892-8034-bcea25bba125","ios":"levelo://app?vid=96317ca0-e235-4892-8034-bcea25bba125"},"vehicle_type_id":"4","last_reported":1748725727,"current_range_meters":16000,"station_id":"ce4bh2h2rcd13ifvqdh0","pricing_plan_id":"cebpf4jnsgd1na2vs0mg"},{"bike_id":"8986060d-5686-44a4-9fac-71d1e4aa9b87","system_id":"levelo_inurba_marseille","lat":43.2929,"lon":5.37161,"is_reserved":false,"is_disabled":false,"rental_uris":{"android":"levelo://app?vid=8986060d-5686-44a4-9fac-71d1e4aa9b87","ios":"levelo://app?vid=8986060d-5686-44a4-9fac-71d1e4aa9b87"},"vehicle_type_id":"4","last_reported":1748725727,"current_range_meters":16000,"station_id":"ce4bgh92rcd13ifvqb40","pricing_plan_id":"cebpf4jnsgd1na2vs0mg"},{"bike_id":"54c3128d-720d-47ff-b7ac-bc29f1f74f4f","system_id":"levelo_inurba_marseille","lat":43.31488,"lon":5.37309,"is_reserved":false,"is_disabled":false,"rental_uris":{"android":"levelo://app?vid=54c3128d-720d-47ff-b7ac-bc29f1f74f4f","ios":"levelo://app?vid=54c3128d-720d-47ff-b7ac-bc29f1f74f4f"},"vehicle_type_id":"4","last_reported":1748725727,"current_range_meters":16000,"station_id":"ce4bgt12rcd13ifvqcd0","pricing_plan_id":"cebpf4jnsgd1na2vs0mg"},{"bike_id":"47ab6b9a-37d9-44c8-99e6-f9aa81276c0b","system_id":"levelo_inurba_marseille","lat":43.3122,"lon":5.36856,"is_reserved":false,"is_disabled":false,"rental_uris":{"android":"levelo://app?vid=47ab6b9a-37d9-44c8-99e6-f9aa81276c0b","ios":"levelo://app?vid=47ab6b9a-37d9-44c8-99e6-f9aa81276c0b"},"vehicle_type_id":"4","last_reported":1748725727,"current_range_meters":16000,"station_id":"ce4bgl92rcd13ifvqbq0","pricing_plan_id":"cebpf4jnsgd1na2vs0mg"},{"bike_id":"e5125a75-6225-4186-b496-b2776e97957c","system_id":"levelo_inurba_marseille","lat":43.29265,"lon":5.3844,"is_reserved":false,"is_disabled":false,"rental_uris":{"android":"levelo://app?vid=e5125a75-6225-4186-b496-b2776e97957c","ios":"levelo://app?vid=e5125a75-6225-4186-b496-b2776e97957c"},"vehicle_type_id":"4","last_reported":1748725727,"current_range_meters":16000,"station_id":"ce4bh692rcd13ifvqea0","pricing_plan_id":"cebpf4jnsgd1na2vs0mg"},{"bike_id":"20c90af0-80d9-42dc-a6b2-41677e15867c","system_id":"levelo_inurba_marseille","lat":43.295333,"lon":5.390718,"is_reserved":false,"is_disabled":false,"rental_uris":{"android":"levelo://app?vid=20c90af0-80d9-42dc-a6b2-41677e15867c","ios":"levelo://app?vid=20c90af0-80d9-42dc-a6b2-41677e15867c"},"vehicle_type_id":"4","last_reported":1748725727,"current_range_meters":16000,"station_id":"ce4bh3p2rcd13ifvqdp0","pricing_plan_id":"cebpf4jnsgd1na2vs0mg"},{"bike_id":"bfc6dce9-77ca-4235-96b6-63b5fbc4d6e2","system_id":"levelo_inurba_marseille","lat":43.3366,"lon":5.38559,"is_reserved":false,"is_disabled":false,"rental_uris":{"android":"levelo://app?vid=bfc6dce9-77ca-4235-96b6-63b5fbc4d6e2","ios":"levelo://app?vid=bfc6dce9-77ca-4235-96b6-63b5fbc4d6e2"},"vehicle_type_id":"4","last_reported":1748725727,"current_range_meters":16400,"station_id":"","pricing_plan_id":"cebpf4jnsgd1na2vs0mg"},{"bike_id":"ab190bdb-6089-4f53-90e7-51e8e66b0c87","system_id":"levelo_inurba_marseille","lat":43.31326,"lon":5.36729,"is_reserved":false,"is_disabled":false,"rental_uris":{"android":"levelo://app?vid=ab190bdb-6089-4f53-90e7-51e8e66b0c87","ios":"levelo://app?vid=ab190bdb-6089-4f53-90e7-51e8e66b0c87"},"vehicle_type_id":"4","last_reported":1748725727,"current_range_meters":6400,"station_id":"ce4bgr92rcd13ifvqc6g","pricing_plan_id":"cebpf4jnsgd1na2vs0mg"},{"bike_id":"e74ebf15-3f21-436b-8539-5c3607ed04fb","system_id":"levelo_inurba_marseille","lat":43.29251,"lon":5.3846,"is_reserved":false,"is_disabled":false,"rental_uris":{"android":"levelo://app?vid=e74ebf15-3f21-436b-8539-5c3607ed04fb","ios":"levelo://app?vid=e74ebf15-3f21-436b-8539-5c3607ed04fb"},"vehicle_type_id":"4","last_reported":1748725727,"current_range_meters":16400,"station_id":"ce4bh692rcd13ifvqea0","pricing_plan_id":"cebpf4jnsgd1na2vs0mg"},{"bike_id":"981593b8-f6c4-4878-a9b4-7f3e1d95eb9f","system_id":"levelo_inurba_marseille","lat":43.28083,"lon":5.3965,"is_reserved":false,"is_disabled":false,"rental_uris":{"android":"levelo://app?vid=981593b8-f6c4-4878-a9b4-7f3e1d95eb9f","ios":"levelo://app?vid=981593b8-f6c4-4878-a9b4-7f3e1d95eb9f"},"vehicle_type_id":"4","last_reported":1748725727,"current_range_meters":16400,"station_id":"ce4bho12rcd13ifvqh2g","pricing_plan_id":"cebpf4jnsgd1na2vs0mg"},{"bike_id":"77520d45-03bf-4b26-9f9b-8ac6c162ce6b","system_id":"levelo_inurba_marseille","lat":43.24364,"lon":5.411576,"is_reserved":false,"is_disabled":false,"rental_uris":{"android":"levelo://app?vid=77520d45-03bf-4b26-9f9b-8ac6c162ce6b","ios":"levelo://app?vid=77520d45-03bf-4b26-9f9b-8ac6c162ce6b"},"vehicle_type_id":"4","last_reported":1748725727,"current_range_meters":16400,"station_id":"","pricing_plan_id":"cebpf4jnsgd1na2vs0mg"},{"bike_id":"b4e37ba1-6d68-4b26-95f1-da182f892736","system_id":"levelo_inurba_marseille","lat":43.295258,"lon":5.38533,"is_reserved":false,"is_disabled":false,"rental_uris":{"android":"levelo://app?vid=b4e37ba1-6d68-4b26-95f1-da182f892736","ios":"levelo://app?vid=b4e37ba1-6d68-4b26-95f1-da182f892736"},"vehicle_type_id":"4","last_reported":1748725727,"current_range_meters":16400,"station_id":"ce4bgih2rcd13ifvqba0","pricing_plan_id":"cebpf4jnsgd1na2vs0mg"},{"bike_id":"b674032e-31b7-4568-90cf-4be0db57e0e5","system_id":"levelo_inurba_marseille","lat":43.3112,"lon":5.37767,"is_reserved":false,"is_disabled":false,"rental_uris":{"android":"levelo://app?vid=b674032e-31b7-4568-90cf-4be0db57e0e5","ios":"levelo://app?vid=b674032e-31b7-4568-90cf-4be0db57e0e5"},"vehicle_type_id":"4","last_reported":1748725727,"current_range_meters":16400,"station_id":"ce4bgt92rcd13ifvqcg0","pricing_plan_id":"cebpf4jnsgd1na2vs0mg"},{"bike_id":"edf637b9-92fd-46c7-9477-825412856041","system_id":"levelo_inurba_marseille","lat":43.28411,"lon":5.37504,"is_reserved":false,"is_disabled":false,"rental_uris":{"android":"levelo://app?vid=edf637b9-92fd-46c7-9477-825412856041","ios":"levelo://app?vid=edf637b9-92fd-46c7-9477-825412856041"},"vehicle_type_id":"4","last_reported":1748725727,"current_range_meters":16400,"station_id":"ce4bh412rcd13ifvqds0","pricing_plan_id":"cebpf4jnsgd1na2vs0mg"},{"bike_id":"46e9e1e7-2fa7-40d1-a64b-c59e31c5c036","system_id":"levelo_inurba_marseille","lat":43.2926,"lon":5.38439,"is_reserved":false,"is_disabled":false,"rental_uris":{"android":"levelo://app?vid=46e9e1e7-2fa7-40d1-a64b-c59e31c5c036","ios":"levelo://app?vid=46e9e1e7-2fa7-40d1-a64b-c59e31c5c036"},"vehicle_type_id":"4","last_reported":1748725727,"current_range_meters":16400,"station_id":"ce4bh692rcd13ifvqea0","pricing_plan_id":"cebpf4jnsgd1na2vs0mg"},{"bike_id":"52138315-f13b-4871-ab78-9e5155a1008c","system_id":"levelo_inurba_marseille","lat":43.32281,"lon":5.38255,"is_reserved":false,"is_disabled":false,"rental_uris":{"android":"levelo://app?vid=52138315-f13b-4871-ab78-9e5155a1008c","ios":"levelo://app?vid=52138315-f13b-4871-ab78-9e5155a1008c"},"vehicle_type_id":"4","last_reported":1748725727,"current_range_meters":16400,"station_id":"ce4bhr12rcd13ifvqhqg","pricing_plan_id":"cebpf4jnsgd1na2vs0mg"},{"bike_id":"b75b9d56-d7a5-491d-bc71-6dce15b90684","system_id":"levelo_inurba_marseille","lat":43.307836,"lon":5.376592,"is_reserved":false,"is_disabled":false,"rental_uris":{"android":"levelo://app?vid=b75b9d56-d7a5-491d-bc71-6dce15b90684","ios":"levelo://app?vid=b75b9d56-d7a5-491d-bc71-6dce15b90684"},"vehicle_type_id":"4","last_reported":1748725727,"current_range_meters":16400,"station_id":"ce4bgv92rcd13ifvqcq0","pricing_plan_id":"cebpf4jnsgd1na2vs0mg"},{"bike_id":"76f771a0-d27e-462d-a1fe-7bd311768559","system_id":"levelo_inurba_marseille","lat":43.28411,"lon":5.34998,"is_reserved":false,"is_disabled":true,"rental_uris":{"android":"levelo://app?vid=76f771a0-d27e-462d-a1fe-7bd311768559","ios":"levelo://app?vid=76f771a0-d27e-462d-a1fe-7bd311768559"},"vehicle_type_id":"4","last_reported":1748725727,"current_range_meters":16400,"station_id":"ce4bhbh2rcd13ifvqepg","pricing_plan_id":"cebpf4jnsgd1na2vs0mg"},{"bike_id":"5fd552c5-fa26-4bb2-bc74-1e9dd8e3f325","system_id":"levelo_inurba_marseille","lat":43.31363,"lon":5.38494,"is_reserved":false,"is_disabled":false,"rental_uris":{"android":"levelo://app?vid=5fd552c5-fa26-4bb2-bc74-1e9dd8e3f325","ios":"levelo://app?vid=5fd552c5-fa26-4bb2-bc74-1e9dd8e3f325"},"vehicle_type_id":"4","last_reported":1748725727,"current_range_meters":16400,"station_id":"ce4bgt92rcd13ifvqcf0","pricing_plan_id":"cebpf4jnsgd1na2vs0mg"},{"bike_id":"d787cfdb-50c2-451d-8448-0eff07939f1e","system_id":"levelo_inurba_marseille","lat":43.231534,"lon":5.437025,"is_reserved":false,"is_disabled":true,"rental_uris":{"android":"levelo://app?vid=d787cfdb-50c2-451d-8448-0eff07939f1e","ios":"levelo://app?vid=d787cfdb-50c2-451d-8448-0eff07939f1e"},"vehicle_type_id":"4","last_reported":1748725727,"current_range_meters":16800,"station_id":"ce4bhmp2rcd13ifvqgog","pricing_plan_id":"cebpf4jnsgd1na2vs0mg"},{"bike_id":"5eefbdd1-9f53-452d-9830-9fdb2b29353d","system_id":"levelo_inurba_marseille","lat":43.30211,"lon":5.3947,"is_reserved":false,"is_disabled":false,"rental_uris":{"android":"levelo://app?vid=5eefbdd1-9f53-452d-9830-9fdb2b29353d","ios":"levelo://app?vid=5eefbdd1-9f53-452d-9830-9fdb2b29353d"},"vehicle_type_id":"4","last_reported":1748725727,"current_range_meters":16800,"station_id":"ce4bh0p2rcd13ifvqd70","pricing_plan_id":"cebpf4jnsgd1na2vs0mg"},{"bike_id":"c0b307e2-f759-4feb-a351-9c4251bc7010","system_id":"levelo_inurba_marseille","lat":43.31314,"lon":5.39703,"is_reserved":false,"is_disabled":false,"rental_uris":{"android":"levelo://app?vid=c0b307e2-f759-4feb-a351-9c4251bc7010","ios":"levelo://app?vid=c0b307e2-f759-4feb-a351-9c4251bc7010"},"vehicle_type_id":"4","last_reported":1748725727,"current_range_meters":16800,"station_id":"ce4bgvp2rcd13ifvqcu0","pricing_plan_id":"cebpf4jnsgd1na2vs0mg"},{"bike_id":"367ec8d5-f0bd-4c6a-8131-c34de362d7ae","system_id":"levelo_inurba_marseille","lat":43.25116,"lon":5.40342,"is_reserved":false,"is_disabled":false,"rental_uris":{"android":"levelo://app?vid=367ec8d5-f0bd-4c6a-8131-c34de362d7ae","ios":"levelo://app?vid=367ec8d5-f0bd-4c6a-8131-c34de362d7ae"},"vehicle_type_id":"4","last_reported":1748725727,"current_range_meters":16800,"station_id":"ce4bhlh2rcd13ifvqgig","pricing_plan_id":"cebpf4jnsgd1na2vs0mg"},{"bike_id":"68894236-7bd9-4073-91e1-152beaa06d42","system_id":"levelo_inurba_marseille","lat":43.29272,"lon":5.38426,"is_reserved":false,"is_disabled":false,"rental_uris":{"android":"levelo://app?vid=68894236-7bd9-4073-91e1-152beaa06d42","ios":"levelo://app?vid=68894236-7bd9-4073-91e1-152beaa06d42"},"vehicle_type_id":"4","last_reported":1748725727,"current_range_meters":16800,"station_id":"ce4bh692rcd13ifvqea0","pricing_plan_id":"cebpf4jnsgd1na2vs0mg"},{"bike_id":"b4e59959-119d-4671-8ac6-5cf6af8158fe","system_id":"levelo_inurba_marseille","lat":43.29513,"lon":5.39396,"is_reserved":false,"is_disabled":false,"rental_uris":{"android":"levelo://app?vid=b4e59959-119d-4671-8ac6-5cf6af8158fe","ios":"levelo://app?vid=b4e59959-119d-4671-8ac6-5cf6af8158fe"},"vehicle_type_id":"4","last_reported":1748725727,"current_range_meters":17200,"station_id":"ce4bh292rcd13ifvqdf0","pricing_plan_id":"cebpf4jnsgd1na2vs0mg"},{"bike_id":"5235f953-dd85-4cff-a974-1bb0a1f88a2d","system_id":"levelo_inurba_marseille","lat":43.29254,"lon":5.3843,"is_reserved":false,"is_disabled":false,"rental_uris":{"android":"levelo://app?vid=5235f953-dd85-4cff-a974-1bb0a1f88a2d","ios":"levelo://app?vid=5235f953-dd85-4cff-a974-1bb0a1f88a2d"},"vehicle_type_id":"4","last_reported":1748725727,"current_range_meters":16800,"station_id":"ce4bh692rcd13ifvqea0","pricing_plan_id":"cebpf4jnsgd1na2vs0mg"},{"bike_id":"542502f4-f239-4a10-a780-fcd2a372a574","system_id":"levelo_inurba_marseille","lat":43.29432,"lon":5.38585,"is_reserved":false,"is_disabled":false,"rental_uris":{"android":"levelo://app?vid=542502f4-f239-4a10-a780-fcd2a372a574","ios":"levelo://app?vid=542502f4-f239-4a10-a780-fcd2a372a574"},"vehicle_type_id":"4","last_reported":1748725727,"current_range_meters":16800,"station_id":"ce4bh2h2rcd13ifvqdh0","pricing_plan_id":"cebpf4jnsgd1na2vs0mg"},{"bike_id":"14eb70df-2302-402f-85ec-7e17c956a4e5","system_id":"levelo_inurba_marseille","lat":43.2943,"lon":5.3862,"is_reserved":false,"is_disabled":false,"rental_uris":{"android":"levelo://app?vid=14eb70df-2302-402f-85ec-7e17c956a4e5","ios":"levelo://app?vid=14eb70df-2302-402f-85ec-7e17c956a4e5"},"vehicle_type_id":"4","last_reported":1748725727,"current_range_meters":16800,"station_id":"ce4bh2h2rcd13ifvqdh0","pricing_plan_id":"cebpf4jnsgd1na2vs0mg"},{"bike_id":"419c9ea0-63c1-4b53-91d9-e124ff5c9b08","system_id":"levelo_inurba_marseille","lat":43.26549,"lon":5.3728,"is_reserved":false,"is_disabled":false,"rental_uris":{"android":"levelo://app?vid=419c9ea0-63c1-4b53-91d9-e124ff5c9b08","ios":"levelo://app?vid=419c9ea0-63c1-4b53-91d9-e124ff5c9b08"},"vehicle_type_id":"4","last_reported":1748725727,"current_range_meters":16800,"station_id":"ce4bhg12rcd13ifvqf70","pricing_plan_id":"cebpf4jnsgd1na2vs0mg"},{"bike_id":"87c516fe-5719-4861-ba40-10dc3020c4b9","system_id":"levelo_inurba_marseille","lat":43.3107,"lon":5.38352,"is_reserved":false,"is_disabled":false,"rental_uris":{"android":"levelo://app?vid=87c516fe-5719-4861-ba40-10dc3020c4b9","ios":"levelo://app?vid=87c516fe-5719-4861-ba40-10dc3020c4b9"},"vehicle_type_id":"4","last_reported":1748725727,"current_range_meters":17200,"station_id":"ce4bgv92rcd13ifvqcr0","pricing_plan_id":"cebpf4jnsgd1na2vs0mg"},{"bike_id":"bd6645f7-a516-4ceb-9eb8-5a4884936f5b","system_id":"levelo_inurba_marseille","lat":43.29268,"lon":5.38427,"is_reserved":false,"is_disabled":false,"rental_uris":{"android":"levelo://app?vid=bd6645f7-a516-4ceb-9eb8-5a4884936f5b","ios":"levelo://app?vid=bd6645f7-a516-4ceb-9eb8-5a4884936f5b"},"vehicle_type_id":"4","last_reported":1748725727,"current_range_meters":17200,"station_id":"ce4bh692rcd13ifvqea0","pricing_plan_id":"cebpf4jnsgd1na2vs0mg"},{"bike_id":"ee5ffabc-72dc-45f6-83d9-998f2f2fa084","system_id":"levelo_inurba_marseille","lat":43.29589,"lon":5.38631,"is_reserved":false,"is_disabled":false,"rental_uris":{"android":"levelo://app?vid=ee5ffabc-72dc-45f6-83d9-998f2f2fa084","ios":"levelo://app?vid=ee5ffabc-72dc-45f6-83d9-998f2f2fa084"},"vehicle_type_id":"4","last_reported":1748725727,"current_range_meters":17200,"station_id":"","pricing_plan_id":"cebpf4jnsgd1na2vs0mg"},{"bike_id":"227be650-9377-43d2-bd5f-67e8a79cfbb7","system_id":"levelo_inurba_marseille","lat":43.29199,"lon":5.39315,"is_reserved":false,"is_disabled":false,"rental_uris":{"android":"levelo://app?vid=227be650-9377-43d2-bd5f-67e8a79cfbb7","ios":"levelo://app?vid=227be650-9377-43d2-bd5f-67e8a79cfbb7"},"vehicle_type_id":"4","last_reported":1748725727,"current_range_meters":17200,"station_id":"ce4bh192rcd13ifvqdd0","pricing_plan_id":"cebpf4jnsgd1na2vs0mg"},{"bike_id":"3f2c0d00-ee40-42b4-a66d-443443279b4a","system_id":"levelo_inurba_marseille","lat":43.2619,"lon":5.37452,"is_reserved":false,"is_disabled":false,"rental_uris":{"android":"levelo://app?vid=3f2c0d00-ee40-42b4-a66d-443443279b4a","ios":"levelo://app?vid=3f2c0d00-ee40-42b4-a66d-443443279b4a"},"vehicle_type_id":"4","last_reported":1748725727,"current_range_meters":17200,"station_id":"ce4bhgp2rcd13ifvqfc0","pricing_plan_id":"cebpf4jnsgd1na2vs0mg"},{"bike_id":"06d84860-65e0-4134-b6ad-1e0fe5ddc0d6","system_id":"levelo_inurba_marseille","lat":43.25701,"lon":5.37657,"is_reserved":false,"is_disabled":false,"rental_uris":{"android":"levelo://app?vid=06d84860-65e0-4134-b6ad-1e0fe5ddc0d6","ios":"levelo://app?vid=06d84860-65e0-4134-b6ad-1e0fe5ddc0d6"},"vehicle_type_id":"4","last_reported":1748725727,"current_range_meters":17200,"station_id":"","pricing_plan_id":"cebpf4jnsgd1na2vs0mg"},{"bike_id":"49be7336-be2c-43ca-98e2-fea580b53299","system_id":"levelo_inurba_marseille","lat":43.2513,"lon":5.40339,"is_reserved":false,"is_disabled":false,"rental_uris":{"android":"levelo://app?vid=49be7336-be2c-43ca-98e2-fea580b53299","ios":"levelo://app?vid=49be7336-be2c-43ca-98e2-fea580b53299"},"vehicle_type_id":"4","last_reported":1748725727,"current_range_meters":17200,"station_id":"ce4bhlh2rcd13ifvqgig","pricing_plan_id":"cebpf4jnsgd1na2vs0mg"},{"bike_id":"a9e9e79b-95a0-4026-b3bf-3b6930656520","system_id":"levelo_inurba_marseille","lat":43.3055,"lon":5.36543,"is_reserved":false,"is_disabled":false,"rental_uris":{"android":"levelo://app?vid=a9e9e79b-95a0-4026-b3bf-3b6930656520","ios":"levelo://app?vid=a9e9e79b-95a0-4026-b3bf-3b6930656520"},"vehicle_type_id":"4","last_reported":1748725727,"current_range_meters":17600,"station_id":"ce4bgs12rcd13ifvqcag","pricing_plan_id":"cebpf4jnsgd1na2vs0mg"},{"bike_id":"04941f08-5d18-45a6-9ffb-f9bf998bc84b","system_id":"levelo_inurba_marseille","lat":43.29264,"lon":5.38444,"is_reserved":false,"is_disabled":false,"rental_uris":{"android":"levelo://app?vid=04941f08-5d18-45a6-9ffb-f9bf998bc84b","ios":"levelo://app?vid=04941f08-5d18-45a6-9ffb-f9bf998bc84b"},"vehicle_type_id":"4","last_reported":1748725727,"current_range_meters":17600,"station_id":"ce4bh692rcd13ifvqea0","pricing_plan_id":"cebpf4jnsgd1na2vs0mg"},{"bike_id":"d4b1747a-32c1-4785-8647-495495f2634b","system_id":"levelo_inurba_marseille","lat":43.30142,"lon":5.38785,"is_reserved":false,"is_disabled":false,"rental_uris":{"android":"levelo://app?vid=d4b1747a-32c1-4785-8647-495495f2634b","ios":"levelo://app?vid=d4b1747a-32c1-4785-8647-495495f2634b"},"vehicle_type_id":"4","last_reported":1748725727,"current_range_meters":17600,"station_id":"ce4bghh2rcd13ifvqb60","pricing_plan_id":"cebpf4jnsgd1na2vs0mg"},{"bike_id":"ab7efb87-14c4-44fe-a4e6-72b289abd789","system_id":"levelo_inurba_marseille","lat":43.2928,"lon":5.38419,"is_reserved":false,"is_disabled":false,"rental_uris":{"android":"levelo://app?vid=ab7efb87-14c4-44fe-a4e6-72b289abd789","ios":"levelo://app?vid=ab7efb87-14c4-44fe-a4e6-72b289abd789"},"vehicle_type_id":"4","last_reported":1748725727,"current_range_meters":17600,"station_id":"ce4bh692rcd13ifvqea0","pricing_plan_id":"cebpf4jnsgd1na2vs0mg"},{"bike_id":"9f79f261-ab1b-4db0-a513-8d06945d3b0c","system_id":"levelo_inurba_marseille","lat":43.29539,"lon":5.38529,"is_reserved":false,"is_disabled":false,"rental_uris":{"android":"levelo://app?vid=9f79f261-ab1b-4db0-a513-8d06945d3b0c","ios":"levelo://app?vid=9f79f261-ab1b-4db0-a513-8d06945d3b0c"},"vehicle_type_id":"4","last_reported":1748725727,"current_range_meters":17600,"station_id":"ce4bgih2rcd13ifvqba0","pricing_plan_id":"cebpf4jnsgd1na2vs0mg"},{"bike_id":"854a8873-d019-4b8c-b91a-c226f4301a09","system_id":"levelo_inurba_marseille","lat":43.310724,"lon":5.383453,"is_reserved":false,"is_disabled":false,"rental_uris":{"android":"levelo://app?vid=854a8873-d019-4b8c-b91a-c226f4301a09","ios":"levelo://app?vid=854a8873-d019-4b8c-b91a-c226f4301a09"},"vehicle_type_id":"4","last_reported":1748725727,"current_range_meters":17600,"station_id":"ce4bgv92rcd13ifvqcr0","pricing_plan_id":"cebpf4jnsgd1na2vs0mg"},{"bike_id":"f163affb-cf7e-4e76-a942-05585264d31f","system_id":"levelo_inurba_marseille","lat":43.30787,"lon":5.37644,"is_reserved":false,"is_disabled":false,"rental_uris":{"android":"levelo://app?vid=f163affb-cf7e-4e76-a942-05585264d31f","ios":"levelo://app?vid=f163affb-cf7e-4e76-a942-05585264d31f"},"vehicle_type_id":"4","last_reported":1748725727,"current_range_meters":17600,"station_id":"ce4bgv92rcd13ifvqcq0","pricing_plan_id":"cebpf4jnsgd1na2vs0mg"},{"bike_id":"c2429b28-c4ab-4c5a-952b-4656120c21b2","system_id":"levelo_inurba_marseille","lat":43.31687,"lon":5.404751,"is_reserved":false,"is_disabled":false,"rental_uris":{"android":"levelo://app?vid=c2429b28-c4ab-4c5a-952b-4656120c21b2","ios":"levelo://app?vid=c2429b28-c4ab-4c5a-952b-4656120c21b2"},"vehicle_type_id":"4","last_reported":1748725727,"current_range_meters":17600,"station_id":"ce4bh012rcd13ifvqd00","pricing_plan_id":"cebpf4jnsgd1na2vs0mg"},{"bike_id":"56a82e03-2118-4920-8b59-3795928c0c5d","system_id":"levelo_inurba_marseille","lat":43.27834,"lon":5.40707,"is_reserved":false,"is_disabled":false,"rental_uris":{"android":"levelo://app?vid=56a82e03-2118-4920-8b59-3795928c0c5d","ios":"levelo://app?vid=56a82e03-2118-4920-8b59-3795928c0c5d"},"vehicle_type_id":"4","last_reported":1748725727,"current_range_meters":17600,"station_id":"ce4bhnh2rcd13ifvqgtg","pricing_plan_id":"cebpf4jnsgd1na2vs0mg"},{"bike_id":"b5806e8c-065c-41e5-8415-4e8c05eadebe","system_id":"levelo_inurba_marseille","lat":43.29235,"lon":5.36041,"is_reserved":false,"is_disabled":true,"rental_uris":{"android":"levelo://app?vid=b5806e8c-065c-41e5-8415-4e8c05eadebe","ios":"levelo://app?vid=b5806e8c-065c-41e5-8415-4e8c05eadebe"},"vehicle_type_id":"4","last_reported":1748725727,"current_range_meters":17600,"station_id":"ce4bhbh2rcd13ifvqeqg","pricing_plan_id":"cebpf4jnsgd1na2vs0mg"},{"bike_id":"44f815de-6353-4c0e-8907-c6cb0c5a7a1d","system_id":"levelo_inurba_marseille","lat":43.29299,"lon":5.37141,"is_reserved":false,"is_disabled":false,"rental_uris":{"android":"levelo://app?vid=44f815de-6353-4c0e-8907-c6cb0c5a7a1d","ios":"levelo://app?vid=44f815de-6353-4c0e-8907-c6cb0c5a7a1d"},"vehicle_type_id":"4","last_reported":1748725727,"current_range_meters":18000,"station_id":"ce4bgh92rcd13ifvqb40","pricing_plan_id":"cebpf4jnsgd1na2vs0mg"},{"bike_id":"9b817c1a-589a-4b28-bf0d-fb0b5947e91d","system_id":"levelo_inurba_marseille","lat":43.29416,"lon":5.38624,"is_reserved":false,"is_disabled":false,"rental_uris":{"android":"levelo://app?vid=9b817c1a-589a-4b28-bf0d-fb0b5947e91d","ios":"levelo://app?vid=9b817c1a-589a-4b28-bf0d-fb0b5947e91d"},"vehicle_type_id":"4","last_reported":1748725727,"current_range_meters":18000,"station_id":"ce4bh2h2rcd13ifvqdh0","pricing_plan_id":"cebpf4jnsgd1na2vs0mg"},{"bike_id":"bf000f23-dac8-4fba-b070-1c91434e340d","system_id":"levelo_inurba_marseille","lat":43.27564,"lon":5.38411,"is_reserved":false,"is_disabled":false,"rental_uris":{"android":"levelo://app?vid=bf000f23-dac8-4fba-b070-1c91434e340d","ios":"levelo://app?vid=bf000f23-dac8-4fba-b070-1c91434e340d"},"vehicle_type_id":"4","last_reported":1748725727,"current_range_meters":18000,"station_id":"ce4bhh92rcd13ifvqfi0","pricing_plan_id":"cebpf4jnsgd1na2vs0mg"},{"bike_id":"289091de-6aca-4e76-b8cb-02d4842ac8ce","system_id":"levelo_inurba_marseille","lat":43.32056,"lon":5.41556,"is_reserved":false,"is_disabled":false,"rental_uris":{"android":"levelo://app?vid=289091de-6aca-4e76-b8cb-02d4842ac8ce","ios":"levelo://app?vid=289091de-6aca-4e76-b8cb-02d4842ac8ce"},"vehicle_type_id":"4","last_reported":1748725727,"current_range_meters":18000,"station_id":"ce4bhq92rcd13ifvqhkg","pricing_plan_id":"cebpf4jnsgd1na2vs0mg"},{"bike_id":"97a58472-f76b-47e3-a716-281b120ccffa","system_id":"levelo_inurba_marseille","lat":43.27928,"lon":5.39573,"is_reserved":false,"is_disabled":true,"rental_uris":{"android":"levelo://app?vid=97a58472-f76b-47e3-a716-281b120ccffa","ios":"levelo://app?vid=97a58472-f76b-47e3-a716-281b120ccffa"},"vehicle_type_id":"4","last_reported":1748725727,"current_range_meters":18000,"station_id":"ce4bhf92rcd13ifvqf40","pricing_plan_id":"cebpf4jnsgd1na2vs0mg"},{"bike_id":"f6de2a97-b532-4ef7-aded-87c2addc6336","system_id":"levelo_inurba_marseille","lat":43.30937,"lon":5.40143,"is_reserved":false,"is_disabled":false,"rental_uris":{"android":"levelo://app?vid=f6de2a97-b532-4ef7-aded-87c2addc6336","ios":"levelo://app?vid=f6de2a97-b532-4ef7-aded-87c2addc6336"},"vehicle_type_id":"4","last_reported":1748725727,"current_range_meters":18000,"station_id":"ce4bgvp2rcd13ifvqct0","pricing_plan_id":"cebpf4jnsgd1na2vs0mg"},{"bike_id":"46ccfea9-11c0-44ae-b461-4801866f27c0","system_id":"levelo_inurba_marseille","lat":43.25012,"lon":5.38925,"is_reserved":false,"is_disabled":false,"rental_uris":{"android":"levelo://app?vid=46ccfea9-11c0-44ae-b461-4801866f27c0","ios":"levelo://app?vid=46ccfea9-11c0-44ae-b461-4801866f27c0"},"vehicle_type_id":"4","last_reported":1748725727,"current_range_meters":18000,"station_id":"ce4bhgp2rcd13ifvqfd0","pricing_plan_id":"cebpf4jnsgd1na2vs0mg"},