{"last_updated":1758042510,"ttl":60,"version":"2.2","data":{"bikes":[{"bike_id":"c8d5f0d0-5570-4913-94d4-34f6965517c4","system_id":"levelo_inurba_marseille","lat":43.29251,"lon":5.40931,"is_reserved":false,"is_disabled":false,"rental_uris":{"android":"levelo://app?vid=c8d5f0d0-5570-4913-94d4-34f6965517c4","ios":"levelo://app?vid=c8d5f0d0-5570-4913-94d4-34f6965517c4"},"vehicle_type_id":"4","last_reported":1758042510,"current_range_meters":2800,"station_id":"ce4bh192rcd13ifvqdc0","pricing_plan_id":"cebpf4jnsgd1na2vs0mg"},{"bike_id":"4934c298-e58d-4b7f-938a-9b712a8091c6","system_id":"levelo_inurba_marseille","lat":43.29232,"lon":5.36073,"is_reserved":false,"is_disabled":false,"rental_uris":{"android":"levelo://app?vid=4934c298-e58d-4b7f-938a-9b712a8091c6","ios":"levelo://app?vid=4934c298-e58d-4b7f-938a-9b712a8091c6"},"vehicle_type_id":"4","last_reported":1758042510,"current_range_meters":2800,"station_id":"ce4bhbh2rcd13ifvqeqg","pricing_plan_id":"cebpf4jnsgd1na2vs0mg"},{"bike_id":"43c220dd-17fc-43a1-b834-b84545815fa5","system_id":"levelo_inurba_marseille","lat":43.29532,"lon":5.38542,"is_reserved":false,"is_disabled":false,"rental_uris":{"android":"levelo://app?vid=43c220dd-17fc-43a1-b834-b84545815fa5","ios":"levelo://app?vid=43c220dd-17fc-43a1-b834-b84545815fa5"},"vehicle_type_id":"4","last_reported":1758042510,"current_range_meters":2800,"station_id":"ce4bgih2rcd13ifvqba0","pricing_plan_id":"cebpf4jnsgd1na2vs0mg"},{"bike_id":"51408778-8464-4029-9945-aa9f31708c8a","system_id":"levelo_inurba_marseille","lat":43.29189,"lon":5.36025,"is_reserved":false,"is_disabled":false,"rental_uris":{"android":"levelo://app?vid=51408778-8464-4029-9945-aa9f31708c8a","ios":"levelo://app?vid=51408778-8464-4029-9945-aa9f31708c8a"},"vehicle_type_id":"4","last_reported":1758042510,"current_range_meters":2800,"station_id":"","pricing_plan_id":"cebpf4jnsgd1na2vs0mg"},{"bike_id":"da8e30ea-aa07-44a1-9ee8-e3de749a527b","system_id":"levelo_inurba_marseille","lat":43.29799,"lon":5.38093,"is_reserved":false,"is_disabled":false,"rental_uris":{"android":"levelo://app?vid=da8e30ea-aa07-44a1-9ee8-e3de749a527b","ios":"levelo://app?vid=da8e30ea-aa07-44a1-9ee8-e3de749a527b"},"vehicle_type_id":"4","last_reported":1758042510,"current_range_meters":2800,"station_id":"ce4bgip2rcd13ifvqbb0","pricing_plan_id":"cebpf4jnsgd1na2vs0mg"},{"bike_id":"c37933c6-f301-4e72-ae28-b86236887c46","system_id":"levelo_inurba_marseille","lat":43.225329,"lon":5.348362,"is_reserved":false,"is_disabled":false,"rental_uris":{"android":"levelo://app?vid=c37933c6-f301-4e72-ae28-b86236887c46","ios":"levelo://app?vid=c37933c6-f301-4e72-ae28-b86236887c46"},"vehicle_type_id":"4","last_reported":1758042510,"current_range_meters":2800,"station_id":"","pricing_plan_id":"cebpf4jnsgd1na2vs0mg"},{"bike_id":"4ec115f7-70e2-44a0-950b-cc56db458600","system_id":"levelo_inurba_marseille","lat":43.21733,"lon":5.34609,"is_reserved":false,"is_disabled":true,"rental_uris":{"android":"levelo://app?vid=4ec115f7-70e2-44a0-950b-cc56db458600","ios":"levelo://app?vid=4ec115f7-70e2-44a0-950b-cc56db458600"},"vehicle_type_id":"4","last_reported":1758042510,"current_range_meters":2800,"station_id":"st_cvj6r9ubvosntc0bgbag","pricing_plan_id":"cebpf4jnsgd1na2vs0mg"},{"bike_id":"33aa6e90-a80c-4f36-ad6a-91d9d9571fec","system_id":"levelo_inurba_marseille","lat":43.30465,"lon":5.3791,"is_reserved":false,"is_disabled":false,"rental_uris":{"android":"levelo://app?vid=33aa6e90-a80c-4f36-ad6a-91d9d9571fec","ios":"levelo://app?vid=33aa6e90-a80c-4f36-ad6a-91d9d9571fec"},"vehicle_type_id":"4","last_reported":1758042510,"current_range_meters":2000,"station_id":"ce4bgup2rcd13ifvqcn0","pricing_plan_id":"cebpf4jnsgd1na2vs0mg"},{"bike_id":"6b5b3c8e-1efc-443e-8d65-f1b5bb18a3da","system_id":"levelo_inurba_marseille","lat":43.26847,"lon":5.39591,"is_reserved":false,"is_disabled":false,"rental_uris":{"android":"levelo://app?vid=6b5b3c8e-1efc-443e-8d65-f1b5bb18a3da","ios":"levelo://app?vid=6b5b3c8e-1efc-443e-8d65-f1b5bb18a3da"},"vehicle_type_id":"4","last_reported":1758042510,"current_range_meters":2800,"station_id":"","pricing_plan_id":"cebpf4jnsgd1na2vs0mg"},{"bike_id":"d2c2f1d0-8b01-4e08-9dff-706d88363fef","system_id":"levelo_inurba_marseille","lat":43.29043,"lon":5.37616,"is_reserved":false,"is_disabled":false,"rental_uris":{"android":"levelo://app?vid=d2c2f1d0-8b01-4e08-9dff-706d88363fef","ios":"levelo://app?vid=d2c2f1d0-8b01-4e08-9dff-706d88363fef"},"vehicle_type_id":"4","last_reported":1758042510,"current_range_meters":2800,"station_id":"ce4bh692rcd13ifvqe90","pricing_plan_id":"cebpf4jnsgd1na2vs0mg"},{"bike_id":"a2146f8c-a573-42d9-a9ef-dce92b070940","system_id":"levelo_inurba_marseille","lat":43.24633,"lon":5.43139,"is_reserved":false,"is_disabled":false,"rental_uris":{"android":"levelo://app?vid=a2146f8c-a573-42d9-a9ef-dce92b070940","ios":"levelo://app?vid=a2146f8c-a573-42d9-a9ef-dce92b070940"},"vehicle_type_id":"4","last_reported":1758042510,"current_range_meters":2800,"station_id":"st_d2m6c4gdas8pm72e190g","pricing_plan_id":"cebpf4jnsgd1na2vs0mg"},{"bike_id":"03809294-3a3e-4efa-afda-0ac11dcf72fc","system_id":"levelo_inurba_marseille","lat":43.33748,"lon":5.37457,"is_reserved":false,"is_disabled":false,"rental_uris":{"android":"levelo://app?vid=03809294-3a3e-4efa-afda-0ac11dcf72fc","ios":"levelo://app?vid=03809294-3a3e-4efa-afda-0ac11dcf72fc"},"vehicle_type_id":"4","last_reported":1758042510,"current_range_meters":2800,"station_id":"","pricing_plan_id":"cebpf4jnsgd1na2vs0mg"},{"bike_id":"572a6e04-4a83-4847-9d94-75ecb7c11d04","system_id":"levelo_inurba_marseille","lat":43.29047,"lon":5.35928,"is_reserved":false,"is_disabled":false,"rental_uris":{"android":"levelo://app?vid=572a6e04-4a83-4847-9d94-75ecb7c11d04","ios":"levelo://app?vid=572a6e04-4a83-4847-9d94-75ecb7c11d04"},"vehicle_type_id":"4","last_reported":1758042510,"current_range_meters":3200,"station_id":"ce4bha92rcd13ifvqeg0","pricing_plan_id":"cebpf4jnsgd1na2vs0mg"},{"bike_id":"63c2bec2-56ae-42d4-a965-91defc1f04e9","system_id":"levelo_inurba_marseille","lat":43.29697,"lon":5.38016,"is_reserved":false,"is_disabled":false,"rental_uris":{"android":"levelo://app?vid=63c2bec2-56ae-42d4-a965-91defc1f04e9","ios":"levelo://app?vid=63c2bec2-56ae-42d4-a965-91defc1f04e9"},"vehicle_type_id":"4","last_reported":1758042510,"current_range_meters":3200,"station_id":"","pricing_plan_id":"cebpf4jnsgd1na2vs0mg"},{"bike_id":"71b6a6d7-551f-43e8-8ecd-d67e92e8e264","system_id":"levelo_inurba_marseille","lat":43.28715,"lon":5.37947,"is_reserved":false,"is_disabled":false,"rental_uris":{"android":"levelo://app?vid=71b6a6d7-551f-43e8-8ecd-d67e92e8e264","ios":"levelo://app?vid=71b6a6d7-551f-43e8-8ecd-d67e92e8e264"},"vehicle_type_id":"4","last_reported":1758042510,"current_range_meters":3200,"station_id":"ce4bh9p2rcd13ifvqec0","pricing_plan_id":"cebpf4jnsgd1na2vs0mg"},{"bike_id":"d765e876-dc94-417e-ad8c-0ac49bf5261a","system_id":"levelo_inurba_marseille","lat":43.33792,"lon":5.3625,"is_reserved":false,"is_disabled":false,"rental_uris":{"android":"levelo://app?vid=d765e876-dc94-417e-ad8c-0ac49bf5261a","ios":"levelo://app?vid=d765e876-dc94-417e-ad8c-0ac49bf5261a"},"vehicle_type_id":"4","last_reported":1758042510,"current_range_meters":3200,"station_id":"","pricing_plan_id":"cebpf4jnsgd1na2vs0mg"},{"bike_id":"009ac0a5-0eea-4a4b-8c17-60e875bc8c04","system_id":"levelo_inurba_marseille","lat":43.28624,"lon":5.35104,"is_reserved":false,"is_disabled":false,"rental_uris":{"android":"levelo://app?vid=009ac0a5-0eea-4a4b-8c17-60e875bc8c04","ios":"levelo://app?vid=009ac0a5-0eea-4a4b-8c17-60e875bc8c04"},"vehicle_type_id":"4","last_reported":1758042510,"current_range_meters":3200,"station_id":"ce4bhch2rcd13ifvqeug","pricing_plan_id":"cebpf4jnsgd1na2vs0mg"},{"bike_id":"8674e59d-298b-4e84-8e70-9a2bef958ca3","system_id":"levelo_inurba_marseille","lat":43.29022,"lon":5.37196,"is_reserved":false,"is_disabled":false,"rental_uris":{"android":"levelo://app?vid=8674e59d-298b-4e84-8e70-9a2bef958ca3","ios":"levelo://app?vid=8674e59d-298b-4e84-8e70-9a2bef958ca3"},"vehicle_type_id":"4","last_reported":1758042510,"current_range_meters":3600,"station_id":"","pricing_plan_id":"cebpf4jnsgd1na2vs0mg"},{"bike_id":"cfd764ac-9987-4ecd-b6e0-951114042581","system_id":"levelo_inurba_marseille","lat":43.31056,"lon":5.38368,"is_reserved":false,"is_disabled":false,"rental_uris":{"android":"levelo://app?vid=cfd764ac-9987-4ecd-b6e0-951114042581","ios":"levelo://app?vid=cfd764ac-9987-4ecd-b6e0-951114042581"},"vehicle_type_id":"4","last_reported":1758042510,"current_range_meters":3600,"station_id":"ce4bgv92rcd13ifvqcr0","pricing_plan_id":"cebpf4jnsgd1na2vs0mg"},{"bike_id":"73c2e3bc-7f77-4880-ba8e-9cf224b8e031","system_id":"levelo_inurba_marseille","lat":43.297763,"lon":5.371346,"is_reserved":false,"is_disabled":false,"rental_uris":{"android":"levelo://app?vid=73c2e3bc-7f77-4880-ba8e-9cf224b8e031","ios":"levelo://app?vid=73c2e3bc-7f77-4880-ba8e-9cf224b8e031"},"vehicle_type_id":"4","last_reported":1758042510,"current_range_meters":3600,"station_id":"ce4bgop2rcd13ifvqc1g","pricing_plan_id":"cebpf4jnsgd1na2vs0mg"},{"bike_id":"33bb1785-d459-4f3b-9518-672a188c6a87","system_id":"levelo_inurba_marseille","lat":43.337444,"lon":5.374475,"is_reserved":false,"is_disabled":false,"rental_uris":{"android":"levelo://app?vid=33bb1785-d459-4f3b-9518-672a188c6a87","ios":"levelo://app?vid=33bb1785-d459-4f3b-9518-672a188c6a87"},"vehicle_type_id":"4","last_reported":1758042510,"current_range_meters":3600,"station_id":"","pricing_plan_id":"cebpf4jnsgd1na2vs0mg"},{"bike_id":"e8fd5cd5-c9f1-42ae-a40a-c3e25d4366d2","system_id":"levelo_inurba_marseille","lat":43.28841,"lon":5.35858,"is_reserved":false,"is_disabled":true,"rental_uris":{"android":"levelo://app?vid=e8fd5cd5-c9f1-42ae-a40a-c3e25d4366d2","ios":"levelo://app?vid=e8fd5cd5-c9f1-42ae-a40a-c3e25d4366d2"},"vehicle_type_id":"4","last_reported":1758042510,"current_range_meters":3600,"station_id":"ce4bhb12rcd13ifvqem0","pricing_plan_id":"cebpf4jnsgd1na2vs0mg"},{"bike_id":"4160d1f6-d25c-4f39-876f-5856be473d8c","system_id":"levelo_inurba_marseille","lat":43.28715,"lon":5.37947,"is_reserved":false,"is_disabled":false,"rental_uris":{"android":"levelo://app?vid=4160d1f6-d25c-4f39-876f-5856be473d8c","ios":"levelo://app?vid=4160d1f6-d25c-4f39-876f-5856be473d8c"},"vehicle_type_id":"4","last_reported":1758042510,"current_range_meters":3600,"station_id":"ce4bh9p2rcd13ifvqec0","pricing_plan_id":"cebpf4jnsgd1na2vs0mg"},{"bike_id":"e0316a20-4f50-4651-a6d8-281780f26fa4","system_id":"levelo_inurba_marseille","lat":43.30596,"lon":5.3723,"is_reserved":false,"is_disabled":false,"rental_uris":{"android":"levelo://app?vid=e0316a20-4f50-4651-a6d8-281780f26fa4","ios":"levelo://app?vid=e0316a20-4f50-4651-a6d8-281780f26fa4"},"vehicle_type_id":"4","last_reported":1758042510,"current_range_meters":3600,"station_id":"ce4bgqh2rcd13ifvqc4g","pricing_plan_id":"cebpf4jnsgd1na2vs0mg"},{"bike_id":"ff4827b1-88b6-4a4f-90b5-928da75a93c8","system_id":"levelo_inurba_marseille","lat":43.29931,"lon":5.36568,"is_reserved":false,"is_disabled":false,"rental_uris":{"android":"levelo://app?vid=ff4827b1-88b6-4a4f-90b5-928da75a93c8","ios":"levelo://app?vid=ff4827b1-88b6-4a4f-90b5-928da75a93c8"},"vehicle_type_id":"4","last_reported":1758042510,"current_range_meters":4000,"station_id":"ce4bgm92rcd13ifvqbr0","pricing_plan_id":"cebpf4jnsgd1na2vs0mg"},{"bike_id":"df42d55a-2d86-44e3-a18c-76d60b521d24","system_id":"levelo_inurba_marseille","lat":43.29303,"lon":5.37184,"is_reserved":false,"is_disabled":false,"rental_uris":{"android":"levelo://app?vid=df42d55a-2d86-44e3-a18c-76d60b521d24","ios":"levelo://app?vid=df42d55a-2d86-44e3-a18c-76d60b521d24"},"vehicle_type_id":"4","last_reported":1758042510,"current_range_meters":4000,"station_id":"ce4bgh92rcd13ifvqb40","pricing_plan_id":"cebpf4jnsgd1na2vs0mg"},{"bike_id":"2828e058-9171-4ab9-9e16-ce6b889ec301","system_id":"levelo_inurba_marseille","lat":43.21202,"lon":5.35085,"is_reserved":false,"is_disabled":false,"rental_uris":{"android":"levelo://app?vid=2828e058-9171-4ab9-9e16-ce6b889ec301","ios":"levelo://app?vid=2828e058-9171-4ab9-9e16-ce6b889ec301"},"vehicle_type_id":"4","last_reported":1758042510,"current_range_meters":4000,"station_id":"st_cvj6sg6p6f1abm77japg","pricing_plan_id":"cebpf4jnsgd1na2vs0mg"},{"bike_id":"252820da-1931-42f7-9c61-74e9fee236bd","system_id":"levelo_inurba_marseille","lat":43.29574,"lon":5.39971,"is_reserved":false,"is_disabled":false,"rental_uris":{"android":"levelo://app?vid=252820da-1931-42f7-9c61-74e9fee236bd","ios":"levelo://app?vid=252820da-1931-42f7-9c61-74e9fee236bd"},"vehicle_type_id":"4","last_reported":1758042510,"current_range_meters":4000,"station_id":"ce4bh312rcd13ifvqdj0","pricing_plan_id":"cebpf4jnsgd1na2vs0mg"},{"bike_id":"df21a0d7-45f7-45b6-a422-9d3af9d10d2f","system_id":"levelo_inurba_marseille","lat":43.251249,"lon":5.403045,"is_reserved":false,"is_disabled":true,"rental_uris":{"android":"levelo://app?vid=df21a0d7-45f7-45b6-a422-9d3af9d10d2f","ios":"levelo://app?vid=df21a0d7-45f7-45b6-a422-9d3af9d10d2f"},"vehicle_type_id":"4","last_reported":1758042510,"current_range_meters":4000,"station_id":"","pricing_plan_id":"cebpf4jnsgd1na2vs0mg"},{"bike_id":"8b21f498-55a4-4ba3-a611-36bd83d39a54","system_id":"levelo_inurba_marseille","lat":43.2533,"lon":5.42174,"is_reserved":false,"is_disabled":false,"rental_uris":{"android":"levelo://app?vid=8b21f498-55a4-4ba3-a611-36bd83d39a54","ios":"levelo://app?vid=8b21f498-55a4-4ba3-a611-36bd83d39a54"},"vehicle_type_id":"4","last_reported":1758042510,"current_range_meters":4000,"station_id":"st_d2m65c5bi1j21697t3ng","pricing_plan_id":"cebpf4jnsgd1na2vs0mg"},{"bike_id":"f7ac85a9-20be-4d2a-881e-cf6f9829206c","system_id":"levelo_inurba_marseille","lat":43.28949,"lon":5.35681,"is_reserved":false,"is_disabled":false,"rental_uris":{"android":"levelo://app?vid=f7ac85a9-20be-4d2a-881e-cf6f9829206c","ios":"levelo://app?vid=f7ac85a9-20be-4d2a-881e-cf6f9829206c"},"vehicle_type_id":"4","last_reported":1758042510,"current_range_meters":4000,"station_id":"","pricing_plan_id":"cebpf4jnsgd1na2vs0mg"},{"bike_id":"33bd8b56-2351-4cea-b56e-fb0cb9ba02b8","system_id":"levelo_inurba_marseille","lat":43.286735,"lon":5.386801,"is_reserved":false,"is_disabled":false,"rental_uris":{"android":"levelo://app?vid=33bd8b56-2351-4cea-b56e-fb0cb9ba02b8","ios":"levelo://app?vid=33bd8b56-2351-4cea-b56e-fb0cb9ba02b8"},"vehicle_type_id":"4","last_reported":1758042510,"current_range_meters":4000,"station_id":"","pricing_plan_id":"cebpf4jnsgd1na2vs0mg"},{"bike_id":"e2aa76b4-8077-482a-8bd9-bc1a91b2e9e6","system_id":"levelo_inurba_marseille","lat":43.28615,"lon":5.3513,"is_reserved":false,"is_disabled":false,"rental_uris":{"android":"levelo://app?vid=e2aa76b4-8077-482a-8bd9-bc1a91b2e9e6","ios":"levelo://app?vid=e2aa76b4-8077-482a-8bd9-bc1a91b2e9e6"},"vehicle_type_id":"4","last_reported":1758042510,"current_range_meters":4000,"station_id":"ce4bhch2rcd13ifvqeug","pricing_plan_id":"cebpf4jnsgd1na2vs0mg"},{"bike_id":"a234c8d6-1e23-409a-95bc-672a869cb12e","system_id":"levelo_inurba_marseille","lat":43.32641,"lon":5.40347,"is_reserved":false,"is_disabled":false,"rental_uris":{"android":"levelo://app?vid=a234c8d6-1e23-409a-95bc-672a869cb12e","ios":"levelo://app?vid=a234c8d6-1e23-409a-95bc-672a869cb12e"},"vehicle_type_id":"4","last_reported":1758042510,"current_range_meters":4000,"station_id":"","pricing_plan_id":"cebpf4jnsgd1na2vs0mg"},{"bike_id":"a92fd7a8-cab4-4792-8ccd-7588eb5f547e","system_id":"levelo_inurba_marseille","lat":43.28261,"lon":5.35066,"is_reserved":false,"is_disabled":false,"rental_uris":{"android":"levelo://app?vid=a92fd7a8-cab4-4792-8ccd-7588eb5f547e","ios":"levelo://app?vid=a92fd7a8-cab4-4792-8ccd-7588eb5f547e"},"vehicle_type_id":"4","last_reported":1758042510,"current_range_meters":4400,"station_id":"ce4bhbp2rcd13ifvqerg","pricing_plan_id":"cebpf4jnsgd1na2vs0mg"},{"bike_id":"efefccc6-d853-45c2-88de-0d1ac51c3caf","system_id":"levelo_inurba_marseille","lat":43.28465,"lon":5.38415,"is_reserved":false,"is_disabled":false,"rental_uris":{"android":"levelo://app?vid=efefccc6-d853-45c2-88de-0d1ac51c3caf","ios":"levelo://app?vid=efefccc6-d853-45c2-88de-0d1ac51c3caf"},"vehicle_type_id":"4","last_reported":1758042510,"current_range_meters":4400,"station_id":"ce4bh512rcd13ifvqe3g","pricing_plan_id":"cebpf4jnsgd1na2vs0mg"},{"bike_id":"973e0129-cfc0-4217-a6c3-f7fdd9026a09","system_id":"levelo_inurba_marseille","lat":43.28612,"lon":5.35108,"is_reserved":false,"is_disabled":false,"rental_uris":{"android":"levelo://app?vid=973e0129-cfc0-4217-a6c3-f7fdd9026a09","ios":"levelo://app?vid=973e0129-cfc0-4217-a6c3-f7fdd9026a09"},"vehicle_type_id":"4","last_reported":1758042510,"current_range_meters":4400,"station_id":"ce4bhch2rcd13ifvqeug","pricing_plan_id":"cebpf4jnsgd1na2vs0mg"},{"bike_id":"1bdc3acf-d9f5-4280-9825-710bee8f8c62","system_id":"levelo_inurba_marseille","lat":43.23193,"lon":5.39974,"is_reserved":false,"is_disabled":false,"rental_uris":{"android":"levelo://app?vid=1bdc3acf-d9f5-4280-9825-710bee8f8c62","ios":"levelo://app?vid=1bdc3acf-d9f5-4280-9825-710bee8f8c62"},"vehicle_type_id":"4","last_reported":1758042510,"current_range_meters":4400,"station_id":"ce4bhn12rcd13ifvqgqg","pricing_plan_id":"cebpf4jnsgd1na2vs0mg"},{"bike_id":"06b21540-b12c-4f8e-909f-c9f009d3bffb","system_id":"levelo_inurba_marseille","lat":43.29794,"lon":5.40401,"is_reserved":false,"is_disabled":false,"rental_uris":{"android":"levelo://app?vid=06b21540-b12c-4f8e-909f-c9f009d3bffb","ios":"levelo://app?vid=06b21540-b12c-4f8e-909f-c9f009d3bffb"},"vehicle_type_id":"4","last_reported":1758042510,"current_range_meters":4400,"station_id":"ce4bh112rcd13ifvqd90","pricing_plan_id":"cebpf4jnsgd1na2vs0mg"},{"bike_id":"dd32f779-e928-424d-999f-b730cf475fa7","system_id":"levelo_inurba_marseille","lat":43.22399,"lon":5.34657,"is_reserved":false,"is_disabled":false,"rental_uris":{"android":"levelo://app?vid=dd32f779-e928-424d-999f-b730cf475fa7","ios":"levelo://app?vid=dd32f779-e928-424d-999f-b730cf475fa7"},"vehicle_type_id":"4","last_reported":1758042510,"current_range_meters":4800,"station_id":"","pricing_plan_id":"cebpf4jnsgd1na2vs0mg"},{"bike_id":"ae83ee92-7853-454e-b879-c5e6df24ab36","system_id":"levelo_inurba_marseille","lat":43.32042,"lon":5.41547,"is_reserved":false,"is_disabled":false,"rental_uris":{"android":"levelo://app?vid=ae83ee92-7853-454e-b879-c5e6df24ab36","ios":"levelo://app?vid=ae83ee92-7853-454e-b879-c5e6df24ab36"},"vehicle_type_id":"4","last_reported":1758042510,"current_range_meters":4800,"station_id":"ce4bhq92rcd13ifvqhkg","pricing_plan_id":"cebpf4jnsgd1na2vs0mg"},{"bike_id":"6f8b4426-0700-45ab-9fd0-d1c8f4c56c84","system_id":"levelo_inurba_marseille","lat":43.29184,"lon":5.35796,"is_reserved":false,"is_disabled":false,"rental_uris":{"android":"levelo://app?vid=6f8b4426-0700-45ab-9fd0-d1c8f4c56c84","ios":"levelo://app?vid=6f8b4426-0700-45ab-9fd0-d1c8f4c56c84"},"vehicle_type_id":"4","last_reported":1758042510,"current_range_meters":4800,"station_id":"ce4bhb12rcd13ifvqel0","pricing_plan_id":"cebpf4jnsgd1na2vs0mg"},{"bike_id":"cf8ec856-ac13-4210-a5bb-3ee91f4bd4f0","system_id":"levelo_inurba_marseille","lat":43.32325,"lon":5.40637,"is_reserved":false,"is_disabled":false,"rental_uris":{"android":"levelo://app?vid=cf8ec856-ac13-4210-a5bb-3ee91f4bd4f0","ios":"levelo://app?vid=cf8ec856-ac13-4210-a5bb-3ee91f4bd4f0"},"vehicle_type_id":"4","last_reported":1758042510,"current_range_meters":4800,"station_id":"ce4bhq92rcd13ifvqhjg","pricing_plan_id":"cebpf4jnsgd1na2vs0mg"},{"bike_id":"f8e2a70e-a493-4a87-a7e0-9a1efab9c834","system_id":"levelo_inurba_marseille","lat":43.25088,"lon":5.39522,"is_reserved":false,"is_disabled":false,"rental_uris":{"android":"levelo://app?vid=f8e2a70e-a493-4a87-a7e0-9a1efab9c834","ios":"levelo://app?vid=f8e2a70e-a493-4a87-a7e0-9a1efab9c834"},"vehicle_type_id":"4","last_reported":1758042510,"current_range_meters":4800,"station_id":"ce4bhm12rcd13ifvqgkg","pricing_plan_id":"cebpf4jnsgd1na2vs0mg"},{"bike_id":"cdcb21e1-08a8-481d-aaa4-8ce01932b395","system_id":"levelo_inurba_marseille","lat":43.295203,"lon":5.394058,"is_reserved":false,"is_disabled":false,"rental_uris":{"android":"levelo://app?vid=cdcb21e1-08a8-481d-aaa4-8ce01932b395","ios":"levelo://app?vid=cdcb21e1-08a8-481d-aaa4-8ce01932b395"},"vehicle_type_id":"4","last_reported":1758042510,"current_range_meters":4800,"station_id":"ce4bh292rcd13ifvqdf0","pricing_plan_id":"cebpf4jnsgd1na2vs0mg"},{"bike_id":"a36f7d8b-865a-495b-a8bd-cb5831bcd30d","system_id":"levelo_inurba_marseille","lat":43.28612,"lon":5.35104,"is_reserved":false,"is_disabled":false,"rental_uris":{"android":"levelo://app?vid=a36f7d8b-865a-495b-a8bd-cb5831bcd30d","ios":"levelo://app?vid=a36f7d8b-865a-495b-a8bd-cb5831bcd30d"},"vehicle_type_id":"4","last_reported":1758042510,"current_range_meters":4800,"station_id":"ce4bhch2rcd13ifvqeug","pricing_plan_id":"cebpf4jnsgd1na2vs0mg"},{"bike_id":"3d79eb90-2f49-42bb-afcb-81c6be8633d1","system_id":"levelo_inurba_marseille","lat":43.29964,"lon":5.38495,"is_reserved":false,"is_disabled":false,"rental_uris":{"android":"levelo://app?vid=3d79eb90-2f49-42bb-afcb-81c6be8633d1","ios":"levelo://app?vid=3d79eb90-2f49-42bb-afcb-81c6be8633d1"},"vehicle_type_id":"4","last_reported":1758042510,"current_range_meters":4800,"station_id":"ce4bgj92rcd13ifvqbd0","pricing_plan_id":"cebpf4jnsgd1na2vs0mg"},{"bike_id":"b730d490-f412-4f2f-ae17-e34de8277bad","system_id":"levelo_inurba_marseille","lat":43.2846,"lon":5.35886,"is_reserved":false,"is_disabled":false,"rental_uris":{"android":"levelo://app?vid=b730d490-f412-4f2f-ae17-e34de8277bad","ios":"levelo://app?vid=b730d490-f412-4f2f-ae17-e34de8277bad"},"vehicle_type_id":"4","last_reported":1758042510,"current_range_meters":4800,"station_id":"ce4bhah2rcd13ifvqei0","pricing_plan_id":"cebpf4jnsgd1na2vs0mg"},{"bike_id":"ce110a43-ae96-4103-885f-6fe764446279","system_id":"levelo_inurba_marseille","lat":43.29783,"lon":5.39346,"is_reserved":false,"is_disabled":false,"rental_uris":{"android":"levelo://app?vid=ce110a43-ae96-4103-885f-6fe764446279","ios":"levelo://app?vid=ce110a43-ae96-4103-885f-6fe764446279"},"vehicle_type_id":"4","last_reported":1758042510,"current_range_meters":5600,"station_id":"chh1huq6cuj3fo74tm60","pricing_plan_id":"cebpf4jnsgd1na2vs0mg"},{"bike_id":"7094ee2e-3718-415d-a139-b0b4bd4c3ad7","system_id":"levelo_inurba_marseille","lat":43.297083,"lon":5.377057,"is_reserved":false,"is_disabled":false,"rental_uris":{"android":"levelo://app?vid=7094ee2e-3718-415d-a139-b0b4bd4c3ad7","ios":"levelo://app?vid=7094ee2e-3718-415d-a139-b0b4bd4c3ad7"},"vehicle_type_id":"4","last_reported":1758042510,"current_range_meters":5600,"station_id":"ce4bgkh2rcd13ifvqbl0","pricing_plan_id":"cebpf4jnsgd1na2vs0mg"},{"bike_id":"c2b985b3-b9f6-4640-ae63-93518f5c148b","system_id":"levelo_inurba_marseille","lat":43.27903,"lon":5.38016,"is_reserved":false,"is_disabled":false,"rental_uris":{"android":"levelo://app?vid=c2b985b3-b9f6-4640-ae63-93518f5c148b","ios":"levelo://app?vid=c2b985b3-b9f6-4640-ae63-93518f5c148b"},"vehicle_type_id":"4","last_reported":1758042510,"current_range_meters":5600,"station_id":"ce4bhf92rcd13ifvqf50","pricing_plan_id":"cebpf4jnsgd1na2vs0mg"},{"bike_id":"3cfdac92-c365-4d18-b082-7b6d4cbabbb0","system_id":"levelo_inurba_marseille","lat":43.28569,"lon":5.39494,"is_reserved":false,"is_disabled":false,"rental_uris":{"android":"levelo://app?vid=3cfdac92-c365-4d18-b082-7b6d4cbabbb0","ios":"levelo://app?vid=3cfdac92-c365-4d18-b082-7b6d4cbabbb0"},"vehicle_type_id":"4","last_reported":1758042510,"current_range_meters":6000,"station_id":"ce4bh292rcd13ifvqdg0","pricing_plan_id":"cebpf4jnsgd1na2vs0mg"},{"bike_id":"9c0182d0-2ce4-4b78-be4f-edd6cfd49328","system_id":"levelo_inurba_marseille","lat":43.29554,"lon":5.42295,"is_reserved":false,"is_disabled":false,"rental_uris":{"android":"levelo://app?vid=9c0182d0-2ce4-4b78-be4f-edd6cfd49328","ios":"levelo://app?vid=9c0182d0-2ce4-4b78-be4f-edd6cfd49328"},"vehicle_type_id":"4","last_reported":1758042510,"current_range_meters":6000,"station_id":"ce4bhph2rcd13ifvqhdg","pricing_plan_id":"cebpf4jnsgd1na2vs0mg"},{"bike_id":"8ccd6214-010f-443c-b13d-28b19c2eff59","system_id":"levelo_inurba_marseille","lat":43.29872,"lon":5.39741,"is_reserved":false,"is_disabled":false,"rental_uris":{"android":"levelo://app?vid=8ccd6214-010f-443c-b13d-28b19c2eff59","ios":"levelo://app?vid=8ccd6214-010f-443c-b13d-28b19c2eff59"},"vehicle_type_id":"4","last_reported":1758042510,"current_range_meters":6000,"station_id":"ce4bh0h2rcd13ifvqd50","pricing_plan_id":"cebpf4jnsgd1na2vs0mg"},{"bike_id":"6f286cdc-c66b-4190-967a-863398c2409d","system_id":"levelo_inurba_marseille","lat":43.29455,"lon":5.39745,"is_reserved":false,"is_disabled":false,"rental_uris":{"android":"levelo://app?vid=6f286cdc-c66b-4190-967a-863398c2409d","ios":"levelo://app?vid=6f286cdc-c66b-4190-967a-863398c2409d"},"vehicle_type_id":"4","last_reported":1758042510,"current_range_meters":6000,"station_id":"ce4bh3h2rcd13ifvqdo0","pricing_plan_id":"cebpf4jnsgd1na2vs0mg"},{"bike_id":"d4aa8136-2771-49f0-ac2a-1ab73ad8e18b","system_id":"levelo_inurba_marseille","lat":43.26028,"lon":5.37547,"is_reserved":false,"is_disabled":false,"rental_uris":{"android":"levelo://app?vid=d4aa8136-2771-49f0-ac2a-1ab73ad8e18b","ios":"levelo://app?vid=d4aa8136-2771-49f0-ac2a-1ab73ad8e18b"},"vehicle_type_id":"4","last_reported":1758042510,"current_range_meters":6000,"station_id":"ce4bhgh2rcd13ifvqfa0","pricing_plan_id":"cebpf4jnsgd1na2vs0mg"},{"bike_id":"f43ab4d4-8a36-4b97-8221-0c5f42c36023","system_id":"levelo_inurba_marseille","lat":43.240779,"lon":5.377473,"is_reserved":false,"is_disabled":true,"rental_uris":{"android":"levelo://app?vid=f43ab4d4-8a36-4b97-8221-0c5f42c36023","ios":"levelo://app?vid=f43ab4d4-8a36-4b97-8221-0c5f42c36023"},"vehicle_type_id":"4","last_reported":1758042510,"current_range_meters":6000,"station_id":"","pricing_plan_id":"cebpf4jnsgd1na2vs0mg"},{"bike_id":"27bc6b0c-c22e-494b-ab92-4e390584592b","system_id":"levelo_inurba_marseille","lat":43.33739,"lon":5.37471,"is_reserved":false,"is_disabled":false,"rental_uris":{"android":"levelo://app?vid=27bc6b0c-c22e-494b-ab92-4e390584592b","ios":"levelo://app?vid=27bc6b0c-c22e-494b-ab92-4e390584592b"},"vehicle_type_id":"4","last_reported":1758042510,"current_range_meters":6000,"station_id":"","pricing_plan_id":"cebpf4jnsgd1na2vs0mg"},{"bike_id":"ac6ecda9-adb7-40ef-a7a0-0a7dd56065df","system_id":"levelo_inurba_marseille","lat":43.28434,"lon":5.39197,"is_reserved":false,"is_disabled":false,"rental_uris":{"android":"levelo://app?vid=ac6ecda9-adb7-40ef-a7a0-0a7dd56065df","ios":"levelo://app?vid=ac6ecda9-adb7-40ef-a7a0-0a7dd56065df"},"vehicle_type_id":"4","last_reported":1758042510,"current_range_meters":6400,"station_id":"ce4bhoh2rcd13ifvqh5g","pricing_plan_id":"cebpf4jnsgd1na2vs0mg"},{"bike_id":"d48ef734-4304-4989-8007-218073d11481","system_id":"levelo_inurba_marseille","lat":43.29531,"lon":5.38543,"is_reserved":false,"is_disabled":false,"rental_uris":{"android":"levelo://app?vid=d48ef734-4304-4989-8007-218073d11481","ios":"levelo://app?vid=d48ef734-4304-4989-8007-218073d11481"},"vehicle_type_id":"4","last_reported":1758042510,"current_range_meters":6400,"station_id":"ce4bgih2rcd13ifvqba0","pricing_plan_id":"cebpf4jnsgd1na2vs0mg"},{"bike_id":"35a06957-b6a9-4764-b07a-71973807c136","system_id":"levelo_inurba_marseille","lat":43.28438,"lon":5.37528,"is_reserved":false,"is_disabled":false,"rental_uris":{"android":"levelo://app?vid=35a06957-b6a9-4764-b07a-71973807c136","ios":"levelo://app?vid=35a06957-b6a9-4764-b07a-71973807c136"},"vehicle_type_id":"4","last_reported":1758042510,"current_range_meters":6400,"station_id":"ce4bh412rcd13ifvqds0","pricing_plan_id":"cebpf4jnsgd1na2vs0mg"},{"bike_id":"57127154-7e15-4346-89ed-ab9d76ef9c2c","system_id":"levelo_inurba_marseille","lat":43.28838,"lon":5.36326,"is_reserved":false,"is_disabled":false,"rental_uris":{"android":"levelo://app?vid=57127154-7e15-4346-89ed-ab9d76ef9c2c","ios":"levelo://app?vid=57127154-7e15-4346-89ed-ab9d76ef9c2c"},"vehicle_type_id":"4","last_reported":1758042510,"current_range_meters":6400,"station_id":"","pricing_plan_id":"cebpf4jnsgd1na2vs0mg"},{"bike_id":"854237ab-8b5b-4522-8dfa-e50340e0cb55","system_id":"levelo_inurba_marseille","lat":43.2978,"lon":5.37091,"is_reserved":false,"is_disabled":false,"rental_uris":{"android":"levelo://app?vid=854237ab-8b5b-4522-8dfa-e50340e0cb55","ios":"levelo://app?vid=854237ab-8b5b-4522-8dfa-e50340e0cb55"},"vehicle_type_id":"4","last_reported":1758042510,"current_range_meters":6800,"station_id":"ce4bgop2rcd13ifvqc1g","pricing_plan_id":"cebpf4jnsgd1na2vs0mg"},{"bike_id":"49f6f96e-8b5b-4b6c-8f6d-e760bf7fa7b4","system_id":"levelo_inurba_marseille","lat":43.2813,"lon":5.42651,"is_reserved":false,"is_disabled":false,"rental_uris":{"android":"levelo://app?vid=49f6f96e-8b5b-4b6c-8f6d-e760bf7fa7b4","ios":"levelo://app?vid=49f6f96e-8b5b-4b6c-8f6d-e760bf7fa7b4"},"vehicle_type_id":"4","last_reported":1758042510,"current_range_meters":6800,"station_id":"ce4bhnh2rcd13ifvqgug","pricing_plan_id":"cebpf4jnsgd1na2vs0mg"},{"bike_id":"ac4223a6-10e8-406f-a618-f510cf79b04b","system_id":"levelo_inurba_marseille","lat":43.29277,"lon":5.36849,"is_reserved":false,"is_disabled":false,"rental_uris":{"android":"levelo://app?vid=ac4223a6-10e8-406f-a618-f510cf79b04b","ios":"levelo://app?vid=ac4223a6-10e8-406f-a618-f510cf79b04b"},"vehicle_type_id":"4","last_reported":1758042510,"current_range_meters":6800,"station_id":"ce4bhbp2rcd13ifvqesg","pricing_plan_id":"cebpf4jnsgd1na2vs0mg"},{"bike_id":"f12e25f4-a048-44c2-b6db-101e6b0b6760","system_id":"levelo_inurba_marseille","lat":43.28486,"lon":5.38421,"is_reserved":false,"is_disabled":false,"rental_uris":{"android":"levelo://app?vid=f12e25f4-a048-44c2-b6db-101e6b0b6760","ios":"levelo://app?vid=f12e25f4-a048-44c2-b6db-101e6b0b6760"},"vehicle_type_id":"4","last_reported":1758042510,"current_range_meters":6800,"station_id":"ce4bh512rcd13ifvqe3g","pricing_plan_id":"cebpf4jnsgd1na2vs0mg"},{"bike_id":"e7a329bd-ed66-4ac7-aaba-63f2810ddd86","system_id":"levelo_inurba_marseille","lat":43.31859,"lon":5.37206,"is_reserved":false,"is_disabled":false,"rental_uris":{"android":"levelo://app?vid=e7a329bd-ed66-4ac7-aaba-63f2810ddd86","ios":"levelo://app?vid=e7a329bd-ed66-4ac7-aaba-63f2810ddd86"},"vehicle_type_id":"4","last_reported":1758042510,"current_range_meters":6800,"station_id":"","pricing_plan_id":"cebpf4jnsgd1na2vs0mg"},{"bike_id":"32b86c3c-80e2-4293-887d-eb8a88145d90","system_id":"levelo_inurba_marseille","lat":43.229298,"lon":5.353782,"is_reserved":false,"is_disabled":false,"rental_uris":{"android":"levelo://app?vid=32b86c3c-80e2-4293-887d-eb8a88145d90","ios":"levelo://app?vid=32b86c3c-80e2-4293-887d-eb8a88145d90"},"vehicle_type_id":"4","last_reported":1758042510,"current_range_meters":6800,"station_id":"cpo3532slgdg3j2ikp40","pricing_plan_id":"cebpf4jnsgd1na2vs0mg"},{"bike_id":"5014881f-56b2-4dbc-965e-3bd258011b45","system_id":"levelo_inurba_marseille","lat":43.21739,"lon":5.34607,"is_reserved":false,"is_disabled":true,"rental_uris":{"android":"levelo://app?vid=5014881f-56b2-4dbc-965e-3bd258011b45","ios":"levelo://app?vid=5014881f-56b2-4dbc-965e-3bd258011b45"},"vehicle_type_id":"4","last_reported":1758042510,"current_range_meters":6800,"station_id":"st_cvj6r9ubvosntc0bgbag","pricing_plan_id":"cebpf4jnsgd1na2vs0mg"},{"bike_id":"3497e7a2-d1ac-45c8-b73f-5afe1dfc9c24","system_id":"levelo_inurba_marseille","lat":43.28596,"lon":5.37096,"is_reserved":false,"is_disabled":false,"rental_uris":{"android":"levelo://app?vid=3497e7a2-d1ac-45c8-b73f-5afe1dfc9c24","ios":"levelo://app?vid=3497e7a2-d1ac-45c8-b73f-5afe1dfc9c24"},"vehicle_type_id":"4","last_reported":1758042510,"current_range_meters":6800,"station_id":"ce4bht12rcd13ifvqi60","pricing_plan_id":"cebpf4jnsgd1na2vs0mg"},{"bike_id":"13d32666-d94f-41f6-83eb-f3a1e138579e","system_id":"levelo_inurba_marseille","lat":43.28132,"lon":5.35029,"is_reserved":false,"is_disabled":false,"rental_uris":{"android":"levelo://app?vid=13d32666-d94f-41f6-83eb-f3a1e138579e","ios":"levelo://app?vid=13d32666-d94f-41f6-83eb-f3a1e138579e"},"vehicle_type_id":"4","last_reported":1758042510,"current_range_meters":6800,"station_id":"","pricing_plan_id":"cebpf4jnsgd1na2vs0mg"},{"bike_id":"e9d42c5b-2eeb-4956-bf69-1565cbf09cc0","system_id":"levelo_inurba_marseille","lat":43.28692,"lon":5.37393,"is_reserved":false,"is_disabled":true,"rental_uris":{"android":"levelo://app?vid=e9d42c5b-2eeb-4956-bf69-1565cbf09cc0","ios":"levelo://app?vid=e9d42c5b-2eeb-4956-bf69-1565cbf09cc0"},"vehicle_type_id":"4","last_reported":1758042510,"current_range_meters":6800,"station_id":"ce4bh3p2rcd13ifvqdq0","pricing_plan_id":"cebpf4jnsgd1na2vs0mg"},{"bike_id":"a30845fa-6053-42fb-8949-31b7ae960ffc","system_id":"levelo_inurba_marseille","lat":43.29701,"lon":5.36608,"is_reserved":false,"is_disabled":false,"rental_uris":{"android":"levelo://app?vid=a30845fa-6053-42fb-8949-31b7ae960ffc","ios":"levelo://app?vid=a30845fa-6053-42fb-8949-31b7ae960ffc"},"vehicle_type_id":"4","last_reported":1758042510,"current_range_meters":7200,"station_id":"ce4bgn12rcd13ifvqbt0","pricing_plan_id":"cebpf4jnsgd1na2vs0mg"},{"bike_id":"f7825ce6-de89-45bf-831f-3599d0d91c3c","system_id":"levelo_inurba_marseille","lat":43.31299,"lon":5.36849,"is_reserved":false,"is_disabled":false,"rental_uris":{"android":"levelo://app?vid=f7825ce6-de89-45bf-831f-3599d0d91c3c","ios":"levelo://app?vid=f7825ce6-de89-45bf-831f-3599d0d91c3c"},"vehicle_type_id":"4","last_reported":1758042510,"current_range_meters":7200,"station_id":"","pricing_plan_id":"cebpf4jnsgd1na2vs0mg"},{"bike_id":"089afe74-6108-4472-85bf-a979fca8c37e","system_id":"levelo_inurba_marseille","lat":43.2841,"lon":5.37513,"is_reserved":false,"is_disabled":false,"rental_uris":{"android":"levelo://app?vid=089afe74-6108-4472-85bf-a979fca8c37e","ios":"levelo://app?vid=089afe74-6108-4472-85bf-a979fca8c37e"},"vehicle_type_id":"4","last_reported":1758042510,"current_range_meters":7200,"station_id":"ce4bh412rcd13ifvqds0","pricing_plan_id":"cebpf4jnsgd1na2vs0mg"},{"bike_id":"01dc0fe7-2aa6-4bdc-8ade-24dc39350be6","system_id":"levelo_inurba_marseille","lat":43.29575,"lon":5.39971,"is_reserved":false,"is_disabled":false,"rental_uris":{"android":"levelo://app?vid=01dc0fe7-2aa6-4bdc-8ade-24dc39350be6","ios":"levelo://app?vid=01dc0fe7-2aa6-4bdc-8ade-24dc39350be6"},"vehicle_type_id":"4","last_reported":1758042510,"current_range_meters":7200,"station_id":"ce4bh312rcd13ifvqdj0","pricing_plan_id":"cebpf4jnsgd1na2vs0mg"},{"bike_id":"cad91ad8-0e60-46dd-bd95-c74b9ea8a6ad","system_id":"levelo_inurba_marseille","lat":43.292525,"lon":5.384251,"is_reserved":false,"is_disabled":false,"rental_uris":{"android":"levelo://app?vid=cad91ad8-0e60-46dd-bd95-c74b9ea8a6ad","ios":"levelo://app?vid=cad91ad8-0e60-46dd-bd95-c74b9ea8a6ad"},"vehicle_type_id":"4","last_reported":1758042510,"current_range_meters":7200,"station_id":"ce4bh692rcd13ifvqea0","pricing_plan_id":"cebpf4jnsgd1na2vs0mg"},{"bike_id":"8e8089f6-a97e-46c3-b7c0-3b7c4482a2cb","system_id":"levelo_inurba_marseille","lat":43.29782,"lon":5.39365,"is_reserved":false,"is_disabled":true,"rental_uris":{"android":"levelo://app?vid=8e8089f6-a97e-46c3-b7c0-3b7c4482a2cb","ios":"levelo://app?vid=8e8089f6-a97e-46c3-b7c0-3b7c4482a2cb"},"vehicle_type_id":"4","last_reported":1758042510,"current_range_meters":8000,"station_id":"chh1huq6cuj3fo74tm60","pricing_plan_id":"cebpf4jnsgd1na2vs0mg"},{"bike_id":"40344a7c-3353-41d0-8493-2bab328aab55","system_id":"levelo_inurba_marseille","lat":43.30143,"lon":5.41722,"is_reserved":false,"is_disabled":false,"rental_uris":{"android":"levelo://app?vid=40344a7c-3353-41d0-8493-2bab328aab55","ios":"levelo://app?vid=40344a7c-3353-41d0-8493-2bab328aab55"},"vehicle_type_id":"4","last_reported":1758042510,"current_range_meters":8000,"station_id":"","pricing_plan_id":"cebpf4jnsgd1na2vs0mg"},{"bike_id":"f4b8350d-3409-4242-9848-6eb1325f3e93","system_id":"levelo_inurba_marseille","lat":43.28699,"lon":5.3999,"is_reserved":false,"is_disabled":false,"rental_uris":{"android":"levelo://app?vid=f4b8350d-3409-4242-9848-6eb1325f3e93","ios":"levelo://app?vid=f4b8350d-3409-4242-9848-6eb1325f3e93"},"vehicle_type_id":"4","last_reported":1758042510,"current_range_meters":8000,"station_id":"ce4bho92rcd13ifvqh3g","pricing_plan_id":"cebpf4jnsgd1na2vs0mg"},{"bike_id":"322c1f5a-85db-4ef6-bcd4-1b5c417c8ee0","system_id":"levelo_inurba_marseille","lat":43.3377,"lon":5.37488,"is_reserved":false,"is_disabled":false,"rental_uris":{"android":"levelo://app?vid=322c1f5a-85db-4ef6-bcd4-1b5c417c8ee0","ios":"levelo://app?vid=322c1f5a-85db-4ef6-bcd4-1b5c417c8ee0"},"vehicle_type_id":"4","last_reported":1758042510,"current_range_meters":8000,"station_id":"","pricing_plan_id":"cebpf4jnsgd1na2vs0mg"},{"bike_id":"1be42516-5a45-4e97-bb9e-f8dd04961ed8","system_id":"levelo_inurba_marseille","lat":43.23151,"lon":5.43718,"is_reserved":false,"is_disabled":false,"rental_uris":{"android":"levelo://app?vid=1be42516-5a45-4e97-bb9e-f8dd04961ed8","ios":"levelo://app?vid=1be42516-5a45-4e97-bb9e-f8dd04961ed8"},"vehicle_type_id":"4","last_reported":1758042510,"current_range_meters":8000,"station_id":"ce4bhmp2rcd13ifvqgog","pricing_plan_id":"cebpf4jnsgd1na2vs0mg"},{"bike_id":"86ca7a08-3263-463e-a277-3ac09ffb6702","system_id":"levelo_inurba_marseille","lat":43.31882,"lon":5.40747,"is_reserved":false,"is_disabled":false,"rental_uris":{"android":"levelo://app?vid=86ca7a08-3263-463e-a277-3ac09ffb6702","ios":"levelo://app?vid=86ca7a08-3263-463e-a277-3ac09ffb6702"},"vehicle_type_id":"4","last_reported":1758042510,"current_range_meters":8000,"station_id":"ce4bhq12rcd13ifvqhig","pricing_plan_id":"cebpf4jnsgd1na2vs0mg"},{"bike_id":"21071bfa-b255-49e5-a4f8-26c93c826653","system_id":"levelo_inurba_marseille","lat":43.29966,"lon":5.38487,"is_reserved":false,"is_disabled":false,"rental_uris":{"android":"levelo://app?vid=21071bfa-b255-49e5-a4f8-26c93c826653","ios":"levelo://app?vid=21071bfa-b255-49e5-a4f8-26c93c826653"},"vehicle_type_id":"4","last_reported":1758042510,"current_range_meters":8000,"station_id":"ce4bgj92rcd13ifvqbd0","pricing_plan_id":"cebpf4jnsgd1na2vs0mg"},{"bike_id":"2fc6780e-7c53-4103-901f-d3fe693009c1","system_id":"levelo_inurba_marseille","lat":43.28567,"lon":5.39502,"is_reserved":false,"is_disabled":false,"rental_uris":{"android":"levelo://app?vid=2fc6780e-7c53-4103-901f-d3fe693009c1","ios":"levelo://app?vid=2fc6780e-7c53-4103-901f-d3fe693009c1"},"vehicle_type_id":"4","last_reported":1758042510,"current_range_meters":8400,"station_id":"ce4bh292rcd13ifvqdg0","pricing_plan_id":"cebpf4jnsgd1na2vs0mg"},{"bike_id":"6a96653f-84ef-4a41-a634-49703507b847","system_id":"levelo_inurba_marseille","lat":43.29872,"lon":5.39728,"is_reserved":false,"is_disabled":false,"rental_uris":{"android":"levelo://app?vid=6a96653f-84ef-4a41-a634-49703507b847","ios":"levelo://app?vid=6a96653f-84ef-4a41-a634-49703507b847"},"vehicle_type_id":"4","last_reported":1758042510,"current_range_meters":8400,"station_id":"ce4bh0h2rcd13ifvqd50","pricing_plan_id":"cebpf4jnsgd1na2vs0mg"},{"bike_id":"e1a3b8dd-63fa-4788-a233-aef38c1e70d6","system_id":"levelo_inurba_marseille","lat":43.24053,"lon":5.37773,"is_reserved":false,"is_disabled":false,"rental_uris":{"android":"levelo://app?vid=e1a3b8dd-63fa-4788-a233-aef38c1e70d6","ios":"levelo://app?vid=e1a3b8dd-63fa-4788-a233-aef38c1e70d6"},"vehicle_type_id":"4","last_reported":1758042510,"current_range_meters":8400,"station_id":"ce4bhnp2rcd13ifvqgvg","pricing_plan_id":"cebpf4jnsgd1na2vs0mg"},{"bike_id":"cecc4f5a-a7bc-4ce7-ad6e-2cb473701a93","system_id":"levelo_inurba_marseille","lat":43.28611,"lon":5.35111,"is_reserved":false,"is_disabled":false,"rental_uris":{"android":"levelo://app?vid=cecc4f5a-a7bc-4ce7-ad6e-2cb473701a93","ios":"levelo://app?vid=cecc4f5a-a7bc-4ce7-ad6e-2cb473701a93"},"vehicle_type_id":"4","last_reported":1758042510,"current_range_meters":8400,"station_id":"ce4bhch2rcd13ifvqeug","pricing_plan_id":"cebpf4jnsgd1na2vs0mg"},{"bike_id":"58a4ef95-62ea-4e1f-afef-eda9f3cc38c3","system_id":"levelo_inurba_marseille","lat":43.29543,"lon":5.38547,"is_reserved":false,"is_disabled":false,"rental_uris":{"android":"levelo://app?vid=58a4ef95-62ea-4e1f-afef-eda9f3cc38c3","ios":"levelo://app?vid=58a4ef95-62ea-4e1f-afef-eda9f3cc38c3"},"vehicle_type_id":"4","last_reported":1758042510,"current_range_meters":8400,"station_id":"ce4bgih2rcd13ifvqba0","pricing_plan_id":"cebpf4jnsgd1na2vs0mg"},{"bike_id":"bd237340-fcfe-437c-875d-b9da8a1cd20f","system_id":"levelo_inurba_marseille","lat":43.26685,"lon":5.38266,"is_reserved":false,"is_disabled":false,"rental_uris":{"android":"levelo://app?vid=bd237340-fcfe-437c-875d-b9da8a1cd20f","ios":"levelo://app?vid=bd237340-fcfe-437c-875d-b9da8a1cd20f"},"vehicle_type_id":"4","last_reported":1758042510,"current_range_meters":8400,"station_id":"ce4bhg92rcd13ifvqf90","pricing_plan_id":"cebpf4jnsgd1na2vs0mg"},{"bike_id":"d818ffce-d6c4-4f39-ae87-10e02446a46c","system_id":"levelo_inurba_marseille","lat":43.24063,"lon":5.37744,"is_reserved":false,"is_disabled":true,"rental_uris":{"android":"levelo://app?vid=d818ffce-d6c4-4f39-ae87-10e02446a46c","ios":"levelo://app?vid=d818ffce-d6c4-4f39-ae87-10e02446a46c"},"vehicle_type_id":"4","last_reported":1758042510,"current_range_meters":8400,"station_id":"ce4bhnp2rcd13ifvqgvg","pricing_plan_id":"cebpf4jnsgd1na2vs0mg"},{"bike_id":"09cb948d-b458-45a7-97c6-4823ac4daebd","system_id":"levelo_inurba_marseille","lat":43.27172,"lon":5.40976,"is_reserved":false,"is_disabled":false,"rental_uris":{"android":"levelo://app?vid=09cb948d-b458-45a7-97c6-4823ac4daebd","ios":"levelo://app?vid=09cb948d-b458-45a7-97c6-4823ac4daebd"},"vehicle_type_id":"4","last_reported":1758042510,"current_range_meters":8400,"station_id":"ce4bhl12rcd13ifvqgf0","pricing_plan_id":"cebpf4jnsgd1na2vs0mg"},{"bike_id":"adc33a85-8132-4d30-be6b-f0b95f7bda1d","system_id":"levelo_inurba_marseille","lat":43.2993,"lon":5.36546,"is_reserved":false,"is_disabled":false,"rental_uris":{"android":"levelo://app?vid=adc33a85-8132-4d30-be6b-f0b95f7bda1d","ios":"levelo://app?vid=adc33a85-8132-4d30-be6b-f0b95f7bda1d"},"vehicle_type_id":"4","last_reported":1758042510,"current_range_meters":8800,"station_id":"ce4bgm92rcd13ifvqbr0","pricing_plan_id":"cebpf4jnsgd1na2vs0mg"},{"bike_id":"5d5cddce-c450-45f9-b9c4-e9df08e9fce8","system_id":"levelo_inurba_marseille","lat":43.2988,"lon":5.38899,"is_reserved":false,"is_disabled":false,"rental_uris":{"android":"levelo://app?vid=5d5cddce-c450-45f9-b9c4-e9df08e9fce8","ios":"levelo://app?vid=5d5cddce-c450-45f9-b9c4-e9df08e9fce8"},"vehicle_type_id":"4","last_reported":1758042510,"current_range_meters":8800,"station_id":"ce4bh392rcd13ifvqdl0","pricing_plan_id":"cebpf4jnsgd1na2vs0mg"},{"bike_id":"9bb68ebb-d983-4b18-ad65-2df3c4912827","system_id":"levelo_inurba_marseille","lat":43.24069,"lon":5.37765,"is_reserved":false,"is_disabled":false,"rental_uris":{"android":"levelo://app?vid=9bb68ebb-d983-4b18-ad65-2df3c4912827","ios":"levelo://app?vid=9bb68ebb-d983-4b18-ad65-2df3c4912827"},"vehicle_type_id":"4","last_reported":1758042510,"current_range_meters":8800,"station_id":"ce4bhnp2rcd13ifvqgvg","pricing_plan_id":"cebpf4jnsgd1na2vs0mg"},{"bike_id":"34539d66-9bce-4d1c-8b94-78e2e11c6e1a","system_id":"levelo_inurba_marseille","lat":43.28853,"lon":5.42509,"is_reserved":false,"is_disabled":false,"rental_uris":{"android":"levelo://app?vid=34539d66-9bce-4d1c-8b94-78e2e11c6e1a","ios":"levelo://app?vid=34539d66-9bce-4d1c-8b94-78e2e11c6e1a"},"vehicle_type_id":"4","last_reported":1758042510,"current_range_meters":8800,"station_id":"","pricing_plan_id":"cebpf4jnsgd1na2vs0mg"},{"bike_id":"24134c4f-7420-49cc-a4b9-fce39e8b3a82","system_id":"levelo_inurba_marseille","lat":43.27064,"lon":5.40265,"is_reserved":false,"is_disabled":true,"rental_uris":{"android":"levelo://app?vid=24134c4f-7420-49cc-a4b9-fce39e8b3a82","ios":"levelo://app?vid=24134c4f-7420-49cc-a4b9-fce39e8b3a82"},"vehicle_type_id":"4","last_reported":1758042510,"current_range_meters":8800,"station_id":"ce4bhk92rcd13ifvqgc0","pricing_plan_id":"cebpf4jnsgd1na2vs0mg"},{"bike_id":"3bf23a6d-a661-4b75-9700-933c056e84ad","system_id":"levelo_inurba_marseille","lat":43.28718,"lon":5.37945,"is_reserved":false,"is_disabled":false,"rental_uris":{"android":"levelo://app?vid=3bf23a6d-a661-4b75-9700-933c056e84ad","ios":"levelo://app?vid=3bf23a6d-a661-4b75-9700-933c056e84ad"},"vehicle_type_id":"4","last_reported":1758042510,"current_range_meters":8800,"station_id":"ce4bh9p2rcd13ifvqec0","pricing_plan_id":"cebpf4jnsgd1na2vs0mg"},{"bike_id":"86729533-93f3-4c7e-8df1-2b3bb20a6999","system_id":"levelo_inurba_marseille","lat":43.28238,"lon":5.35211,"is_reserved":false,"is_disabled":true,"rental_uris":{"android":"levelo://app?vid=86729533-93f3-4c7e-8df1-2b3bb20a6999","ios":"levelo://app?vid=86729533-93f3-4c7e-8df1-2b3bb20a6999"},"vehicle_type_id":"4","last_reported":1758042510,"current_range_meters":8800,"station_id":"","pricing_plan_id":"cebpf4jnsgd1na2vs0mg"},{"bike_id":"3cacb3b3-fc36-4105-b500-bac393cc978b","system_id":"levelo_inurba_marseille","lat":43.292206,"lon":5.360568,"is_reserved":false,"is_disabled":false,"rental_uris":{"android":"levelo://app?vid=3cacb3b3-fc36-4105-b500-bac393cc978b","ios":"levelo://app?vid=3cacb3b3-fc36-4105-b500-bac393cc978b"},"vehicle_type_id":"4","last_reported":1758042510,"current_range_meters":8800,"station_id":"ce4bhbh2rcd13ifvqeqg","pricing_plan_id":"cebpf4jnsgd1na2vs0mg"},{"bike_id":"49aec189-cbd5-45fa-b5a0-a78a82088c01","system_id":"levelo_inurba_marseille","lat":43.23965,"lon":5.36631,"is_reserved":false,"is_disabled":false,"rental_uris":{"android":"levelo://app?vid=49aec189-cbd5-45fa-b5a0-a78a82088c01","ios":"levelo://app?vid=49aec189-cbd5-45fa-b5a0-a78a82088c01"},"vehicle_type_id":"4","last_reported":1758042510,"current_range_meters":9200,"station_id":"ce4bhi12rcd13ifvqfp0","pricing_plan_id":"cebpf4jnsgd1na2vs0mg"},{"bike_id":"a155e67d-bec0-4326-ae57-c035ef5e1c81","system_id":"levelo_inurba_marseille","lat":43.29883,"lon":5.43691,"is_reserved":false,"is_disabled":false,"rental_uris":{"android":"levelo://app?vid=a155e67d-bec0-4326-ae57-c035ef5e1c81","ios":"levelo://app?vid=a155e67d-bec0-4326-ae57-c035ef5e1c81"},"vehicle_type_id":"4","last_reported":1758042510,"current_range_meters":9200,"station_id":"ce4bhpp2rcd13ifvqhfg","pricing_plan_id":"cebpf4jnsgd1na2vs0mg"},{"bike_id":"3f31a35f-aac4-41ef-9e0e-acd3c3fdd234","system_id":"levelo_inurba_marseille","lat":43.28706,"lon":5.38822,"is_reserved":false,"is_disabled":false,"rental_uris":{"android":"levelo://app?vid=3f31a35f-aac4-41ef-9e0e-acd3c3fdd234","ios":"levelo://app?vid=3f31a35f-aac4-41ef-9e0e-acd3c3fdd234"},"vehicle_type_id":"4","last_reported":1758042510,"current_range_meters":9200,"station_id":"","pricing_plan_id":"cebpf4jnsgd1na2vs0mg"},{"bike_id":"e32534e2-2d70-4904-b678-855c7320e6c0","system_id":"levelo_inurba_marseille","lat":43.28864,"lon":5.42519,"is_reserved":false,"is_disabled":false,"rental_uris":{"android":"levelo://app?vid=e32534e2-2d70-4904-b678-855c7320e6c0","ios":"levelo://app?vid=e32534e2-2d70-4904-b678-855c7320e6c0"},"vehicle_type_id":"4","last_reported":1758042510,"current_range_meters":9200,"station_id":"","pricing_plan_id":"cebpf4jnsgd1na2vs0mg"},{"bike_id":"4a5027ab-14ed-4ee9-832c-38861610e5cc","system_id":"levelo_inurba_marseille","lat":43.270706,"lon":5.422829,"is_reserved":false,"is_disabled":false,"rental_uris":{"android":"levelo://app?vid=4a5027ab-14ed-4ee9-832c-38861610e5cc","ios":"levelo://app?vid=4a5027ab-14ed-4ee9-832c-38861610e5cc"},"vehicle_type_id":"4","last_reported":1758042510,"current_range_meters":9200,"station_id":"ce4bhk92rcd13ifvqgb0","pricing_plan_id":"cebpf4jnsgd1na2vs0mg"},{"bike_id":"0bcdc4bd-dd34-4612-ada2-160e83854c19","system_id":"levelo_inurba_marseille","lat":43.29051,"lon":5.35942,"is_reserved":false,"is_disabled":false,"rental_uris":{"android":"levelo://app?vid=0bcdc4bd-dd34-4612-ada2-160e83854c19","ios":"levelo://app?vid=0bcdc4bd-dd34-4612-ada2-160e83854c19"},"vehicle_type_id":"4","last_reported":1758042510,"current_range_meters":9200,"station_id":"ce4bha92rcd13ifvqeg0","pricing_plan_id":"cebpf4jnsgd1na2vs0mg"},{"bike_id":"31178404-204d-4cd1-9af0-feac4f74e3ba","system_id":"levelo_inurba_marseille","lat":43.26498,"lon":5.3954,"is_reserved":false,"is_disabled":false,"rental_uris":{"android":"levelo://app?vid=31178404-204d-4cd1-9af0-feac4f74e3ba","ios":"levelo://app?vid=31178404-204d-4cd1-9af0-feac4f74e3ba"},"vehicle_type_id":"4","last_reported":1758042510,"current_range_meters":9200,"station_id":"ce4bhi12rcd13ifvqfq0","pricing_plan_id":"cebpf4jnsgd1na2vs0mg"},{"bike_id":"b6114565-395d-464d-931e-e653bacf6664","system_id":"levelo_inurba_marseille","lat":43.29191,"lon":5.39321,"is_reserved":false,"is_disabled":false,"rental_uris":{"android":"levelo://app?vid=b6114565-395d-464d-931e-e653bacf6664","ios":"levelo://app?vid=b6114565-395d-464d-931e-e653bacf6664"},"vehicle_type_id":"4","last_reported":1758042510,"current_range_meters":9200,"station_id":"ce4bh192rcd13ifvqdd0","pricing_plan_id":"cebpf4jnsgd1na2vs0mg"},{"bike_id":"c07e7a2d-d8a6-4efd-8723-e965be4d1a74","system_id":"levelo_inurba_marseille","lat":43.22533,"lon":5.348367,"is_reserved":false,"is_disabled":false,"rental_uris":{"android":"levelo://app?vid=c07e7a2d-d8a6-4efd-8723-e965be4d1a74","ios":"levelo://app?vid=c07e7a2d-d8a6-4efd-8723-e965be4d1a74"},"vehicle_type_id":"4","last_reported":1758042510,"current_range_meters":9200,"station_id":"","pricing_plan_id":"cebpf4jnsgd1na2vs0mg"},{"bike_id":"aeb1505d-7f8d-460b-b8d6-4b8da942ea90","system_id":"levelo_inurba_marseille","lat":43.28612,"lon":5.35101,"is_reserved":false,"is_disabled":false,"rental_uris":{"android":"levelo://app?vid=aeb1505d-7f8d-460b-b8d6-4b8da942ea90","ios":"levelo://app?vid=aeb1505d-7f8d-460b-b8d6-4b8da942ea90"},"vehicle_type_id":"4","last_reported":1758042510,"current_range_meters":9200,"station_id":"ce4bhch2rcd13ifvqeug","pricing_plan_id":"cebpf4jnsgd1na2vs0mg"},{"bike_id":"29aafb08-6b43-40db-a38a-b5dbd4f477ad","system_id":"levelo_inurba_marseille","lat":43.297037,"lon":5.366116,"is_reserved":false,"is_disabled":false,"rental_uris":{"android":"levelo://app?vid=29aafb08-6b43-40db-a38a-b5dbd4f477ad","ios":"levelo://app?vid=29aafb08-6b43-40db-a38a-b5dbd4f477ad"},"vehicle_type_id":"4","last_reported":1758042510,"current_range_meters":8800,"station_id":"ce4bgn12rcd13ifvqbt0","pricing_plan_id":"cebpf4jnsgd1na2vs0mg"},{"bike_id":"4f5bb362-3b6d-4aac-b3a8-2351c7cf5fb1","system_id":"levelo_inurba_marseille","lat":43.29233,"lon":5.36071,"is_reserved":false,"is_disabled":false,"rental_uris":{"android":"levelo://app?vid=4f5bb362-3b6d-4aac-b3a8-2351c7cf5fb1","ios":"levelo://app?vid=4f5bb362-3b6d-4aac-b3a8-2351c7cf5fb1"},"vehicle_type_id":"4","last_reported":1758042510,"current_range_meters":9600,"station_id":"ce4bhbh2rcd13ifvqeqg","pricing_plan_id":"cebpf4jnsgd1na2vs0mg"},{"bike_id":"cd02c080-8936-4e2b-af4d-301cbe8eb8f1","system_id":"levelo_inurba_marseille","lat":43.300646,"lon":5.403477,"is_reserved":false,"is_disabled":false,"rental_uris":{"android":"levelo://app?vid=cd02c080-8936-4e2b-af4d-301cbe8eb8f1","ios":"levelo://app?vid=cd02c080-8936-4e2b-af4d-301cbe8eb8f1"},"vehicle_type_id":"4","last_reported":1758042510,"current_range_meters":9600,"station_id":"","pricing_plan_id":"cebpf4jnsgd1na2vs0mg"},{"bike_id":"467117d4-4d61-4a17-aae8-4787957597a4","system_id":"levelo_inurba_marseille","lat":43.260272,"lon":5.375539,"is_reserved":false,"is_disabled":false,"rental_uris":{"android":"levelo://app?vid=467117d4-4d61-4a17-aae8-4787957597a4","ios":"levelo://app?vid=467117d4-4d61-4a17-aae8-4787957597a4"},"vehicle_type_id":"4","last_reported":1758042510,"current_range_meters":9600,"station_id":"ce4bhgh2rcd13ifvqfa0","pricing_plan_id":"cebpf4jnsgd1na2vs0mg"},{"bike_id":"a07675bb-7ca1-4a8b-a54e-56c18dc48b0c","system_id":"levelo_inurba_marseille","lat":43.299728,"lon":5.384876,"is_reserved":false,"is_disabled":false,"rental_uris":{"android":"levelo://app?vid=a07675bb-7ca1-4a8b-a54e-56c18dc48b0c","ios":"levelo://app?vid=a07675bb-7ca1-4a8b-a54e-56c18dc48b0c"},"vehicle_type_id":"4","last_reported":1758042510,"current_range_meters":9600,"station_id":"ce4bgj92rcd13ifvqbd0","pricing_plan_id":"cebpf4jnsgd1na2vs0mg"},{"bike_id":"a9f13996-cedb-42ef-8189-8cba3aa4b434","system_id":"levelo_inurba_marseille","lat":43.21185,"lon":5.35077,"is_reserved":false,"is_disabled":false,"rental_uris":{"android":"levelo://app?vid=a9f13996-cedb-42ef-8189-8cba3aa4b434","ios":"levelo://app?vid=a9f13996-cedb-42ef-8189-8cba3aa4b434"},"vehicle_type_id":"4","last_reported":1758042510,"current_range_meters":9600,"station_id":"st_cvj6sg6p6f1abm77japg","pricing_plan_id":"cebpf4jnsgd1na2vs0mg"},{"bike_id":"436fd886-b9ef-4ef9-a8aa-120ae4e64163","system_id":"levelo_inurba_marseille","lat":43.3148,"lon":5.3731,"is_reserved":false,"is_disabled":false,"rental_uris":{"android":"levelo://app?vid=436fd886-b9ef-4ef9-a8aa-120ae4e64163","ios":"levelo://app?vid=436fd886-b9ef-4ef9-a8aa-120ae4e64163"},"vehicle_type_id":"4","last_reported":1758042510,"current_range_meters":9600,"station_id":"ce4bgt12rcd13ifvqcd0","pricing_plan_id":"cebpf4jnsgd1na2vs0mg"},{"bike_id":"603c3cc4-a717-4d3d-9ae8-88ec4a924ef8","system_id":"levelo_inurba_marseille","lat":43.27938,"lon":5.41048,"is_reserved":false,"is_disabled":false,"rental_uris":{"android":"levelo://app?vid=603c3cc4-a717-4d3d-9ae8-88ec4a924ef8","ios":"levelo://app?vid=603c3cc4-a717-4d3d-9ae8-88ec4a924ef8"},"vehicle_type_id":"4","last_reported":1758042510,"current_range_meters":9600,"station_id":"ce4bhnp2rcd13ifvqh0g","pricing_plan_id":"cebpf4jnsgd1na2vs0mg"},{"bike_id":"c85898a9-4bd7-4bda-b34f-17d780b095f1","system_id":"levelo_inurba_marseille","lat":43.2119,"lon":5.35094,"is_reserved":false,"is_disabled":false,"rental_uris":{"android":"levelo://app?vid=c85898a9-4bd7-4bda-b34f-17d780b095f1","ios":"levelo://app?vid=c85898a9-4bd7-4bda-b34f-17d780b095f1"},"vehicle_type_id":"4","last_reported":1758042510,"current_range_meters":9600,"station_id":"st_cvj6sg6p6f1abm77japg","pricing_plan_id":"cebpf4jnsgd1na2vs0mg"},{"bike_id":"0ac58e47-62dc-46f2-a61e-093a5af32ffe","system_id":"levelo_inurba_marseille","lat":43.29576,"lon":5.39967,"is_reserved":false,"is_disabled":false,"rental_uris":{"android":"levelo://app?vid=0ac58e47-62dc-46f2-a61e-093a5af32ffe","ios":"levelo://app?vid=0ac58e47-62dc-46f2-a61e-093a5af32ffe"},"vehicle_type_id":"4","last_reported":1758042510,"current_range_meters":9600,"station_id":"ce4bh312rcd13ifvqdj0","pricing_plan_id":"cebpf4jnsgd1na2vs0mg"},{"bike_id":"7c7b083a-c82f-4c56-85bd-bd5b68cdaf3a","system_id":"levelo_inurba_marseille","lat":43.250161,"lon":5.395996,"is_reserved":false,"is_disabled":false,"rental_uris":{"android":"levelo://app?vid=7c7b083a-c82f-4c56-85bd-bd5b68cdaf3a","ios":"levelo://app?vid=7c7b083a-c82f-4c56-85bd-bd5b68cdaf3a"},"vehicle_type_id":"4","last_reported":1758042510,"current_range_meters":9200,"station_id":"ce4bhm12rcd13ifvqgkg","pricing_plan_id":"cebpf4jnsgd1na2vs0mg"},{"bike_id":"e4d91310-6a6d-4f08-aefc-005cbc5b9509","system_id":"levelo_inurba_marseille","lat":43.29556,"lon":5.399719,"is_reserved":false,"is_disabled":false,"rental_uris":{"android":"levelo://app?vid=e4d91310-6a6d-4f08-aefc-005cbc5b9509","ios":"levelo://app?vid=e4d91310-6a6d-4f08-aefc-005cbc5b9509"},"vehicle_type_id":"4","last_reported":1758042510,"current_range_meters":9600,"station_id":"ce4bh312rcd13ifvqdj0","pricing_plan_id":"cebpf4jnsgd1na2vs0mg"},{"bike_id":"e5c0f9fa-aa79-401b-ac6b-a846850c5345","system_id":"levelo_inurba_marseille","lat":43.27844,"lon":5.38522,"is_reserved":false,"is_disabled":false,"rental_uris":{"android":"levelo://app?vid=e5c0f9fa-aa79-401b-ac6b-a846850c5345","ios":"levelo://app?vid=e5c0f9fa-aa79-401b-ac6b-a846850c5345"},"vehicle_type_id":"4","last_reported":1758042510,"current_range_meters":9600,"station_id":"","pricing_plan_id":"cebpf4jnsgd1na2vs0mg"},{"bike_id":"e824d254-16a6-4ae4-983a-05af083f4c81","system_id":"levelo_inurba_marseille","lat":43.21753,"lon":5.34607,"is_reserved":false,"is_disabled":false,"rental_uris":{"android":"levelo://app?vid=e824d254-16a6-4ae4-983a-05af083f4c81","ios":"levelo://app?vid=e824d254-16a6-4ae4-983a-05af083f4c81"},"vehicle_type_id":"4","last_reported":1758042510,"current_range_meters":10000,"station_id":"","pricing_plan_id":"cebpf4jnsgd1na2vs0mg"},{"bike_id":"8ef8bf7d-8a91-4724-8c2e-ddeef723e28a","system_id":"levelo_inurba_marseille","lat":43.27032,"lon":5.37954,"is_reserved":false,"is_disabled":false,"rental_uris":{"android":"levelo://app?vid=8ef8bf7d-8a91-4724-8c2e-ddeef723e28a","ios":"levelo://app?vid=8ef8bf7d-8a91-4724-8c2e-ddeef723e28a"},"vehicle_type_id":"4","last_reported":1758042510,"current_range_meters":10000,"station_id":"","pricing_plan_id":"cebpf4jnsgd1na2vs0mg"},{"bike_id":"336c74d9-d9c9-46d7-a94b-134b36ad023a","system_id":"levelo_inurba_marseille","lat":43.29843,"lon":5.37834,"is_reserved":false,"is_disabled":false,"rental_uris":{"android":"levelo://app?vid=336c74d9-d9c9-46d7-a94b-134b36ad023a","ios":"levelo://app?vid=336c74d9-d9c9-46d7-a94b-134b36ad023a"},"vehicle_type_id":"4","last_reported":1758042510,"current_range_meters":10000,"station_id":"","pricing_plan_id":"cebpf4jnsgd1na2vs0mg"},{"bike_id":"923509a1-ea52-4079-ab95-1d17062eae34","system_id":"levelo_inurba_marseille","lat":43.311693,"lon":5.387177,"is_reserved":false,"is_disabled":false,"rental_uris":{"android":"levelo://app?vid=923509a1-ea52-4079-ab95-1d17062eae34","ios":"levelo://app?vid=923509a1-ea52-4079-ab95-1d17062eae34"},"vehicle_type_id":"4","last_reported":1758042510,"current_range_meters":10000,"station_id":"ce4bgv12rcd13ifvqcp0","pricing_plan_id":"cebpf4jnsgd1na2vs0mg"},{"bike_id":"77246e06-46b3-406d-9b69-b9b3e2cbdee1","system_id":"levelo_inurba_marseille","lat":43.2805,"lon":5.38637,"is_reserved":false,"is_disabled":false,"rental_uris":{"android":"levelo://app?vid=77246e06-46b3-406d-9b69-b9b3e2cbdee1","ios":"levelo://app?vid=77246e06-46b3-406d-9b69-b9b3e2cbdee1"},"vehicle_type_id":"4","last_reported":1758042510,"current_range_meters":10000,"station_id":"","pricing_plan_id":"cebpf4jnsgd1na2vs0mg"},{"bike_id":"daddc218-7852-443d-909a-ca2e05d5c4bc","system_id":"levelo_inurba_marseille","lat":43.29777,"lon":5.37097,"is_reserved":false,"is_disabled":false,"rental_uris":{"android":"levelo://app?vid=daddc218-7852-443d-909a-ca2e05d5c4bc","ios":"levelo://app?vid=daddc218-7852-443d-909a-ca2e05d5c4bc"},"vehicle_type_id":"4","last_reported":1758042510,"current_range_meters":10800,"station_id":"ce4bgop2rcd13ifvqc1g","pricing_plan_id":"cebpf4jnsgd1na2vs0mg"},{"bike_id":"d7b053ab-2912-4f16-abf7-c47be8c4e15a","system_id":"levelo_inurba_marseille","lat":43.26549,"lon":5.37271,"is_reserved":false,"is_disabled":true,"rental_uris":{"android":"levelo://app?vid=d7b053ab-2912-4f16-abf7-c47be8c4e15a","ios":"levelo://app?vid=d7b053ab-2912-4f16-abf7-c47be8c4e15a"},"vehicle_type_id":"4","last_reported":1758042510,"current_range_meters":10800,"station_id":"ce4bhg12rcd13ifvqf70","pricing_plan_id":"cebpf4jnsgd1na2vs0mg"},{"bike_id":"e031047f-df31-458e-ae81-c74827c4bfdb","system_id":"levelo_inurba_marseille","lat":43.29551,"lon":5.42288,"is_reserved":false,"is_disabled":false,"rental_uris":{"android":"levelo://app?vid=e031047f-df31-458e-ae81-c74827c4bfdb","ios":"levelo://app?vid=e031047f-df31-458e-ae81-c74827c4bfdb"},"vehicle_type_id":"4","last_reported":1758042510,"current_range_meters":10800,"station_id":"ce4bhph2rcd13ifvqhdg","pricing_plan_id":"cebpf4jnsgd1na2vs0mg"},{"bike_id":"00995c6a-cc8a-4f05-aa7c-8fa7efcaa7ad","system_id":"levelo_inurba_marseille","lat":43.255799,"lon":5.382343,"is_reserved":false,"is_disabled":false,"rental_uris":{"android":"levelo://app?vid=00995c6a-cc8a-4f05-aa7c-8fa7efcaa7ad","ios":"levelo://app?vid=00995c6a-cc8a-4f05-aa7c-8fa7efcaa7ad"},"vehicle_type_id":"4","last_reported":1758042510,"current_range_meters":10800,"station_id":"ce4bhih2rcd13ifvqfs0","pricing_plan_id":"cebpf4jnsgd1na2vs0mg"},{"bike_id":"6f72d356-e129-4f52-afac-9317d8b585e2","system_id":"levelo_inurba_marseille","lat":43.28661,"lon":5.36353,"is_reserved":false,"is_disabled":false,"rental_uris":{"android":"levelo://app?vid=6f72d356-e129-4f52-afac-9317d8b585e2","ios":"levelo://app?vid=6f72d356-e129-4f52-afac-9317d8b585e2"},"vehicle_type_id":"4","last_reported":1758042510,"current_range_meters":10800,"station_id":"ce4bhah2rcd13ifvqej0","pricing_plan_id":"cebpf4jnsgd1na2vs0mg"},{"bike_id":"c794b7ef-c610-46f5-bc61-03eafa0d7ed3","system_id":"levelo_inurba_marseille","lat":43.28459,"lon":5.35888,"is_reserved":false,"is_disabled":false,"rental_uris":{"android":"levelo://app?vid=c794b7ef-c610-46f5-bc61-03eafa0d7ed3","ios":"levelo://app?vid=c794b7ef-c610-46f5-bc61-03eafa0d7ed3"},"vehicle_type_id":"4","last_reported":1758042510,"current_range_meters":10800,"station_id":"ce4bhah2rcd13ifvqei0","pricing_plan_id":"cebpf4jnsgd1na2vs0mg"},{"bike_id":"52547c74-c0e9-4d6f-b224-92201979afe3","system_id":"levelo_inurba_marseille","lat":43.321,"lon":5.36774,"is_reserved":false,"is_disabled":false,"rental_uris":{"android":"levelo://app?vid=52547c74-c0e9-4d6f-b224-92201979afe3","ios":"levelo://app?vid=52547c74-c0e9-4d6f-b224-92201979afe3"},"vehicle_type_id":"4","last_reported":1758042510,"current_range_meters":10800,"station_id":"ce4bhrh2rcd13ifvqhug","pricing_plan_id":"cebpf4jnsgd1na2vs0mg"},{"bike_id":"218e7b60-7be3-4aac-ab36-cb29ae058f20","system_id":"levelo_inurba_marseille","lat":43.295431,"lon":5.394046,"is_reserved":false,"is_disabled":false,"rental_uris":{"android":"levelo://app?vid=218e7b60-7be3-4aac-ab36-cb29ae058f20","ios":"levelo://app?vid=218e7b60-7be3-4aac-ab36-cb29ae058f20"},"vehicle_type_id":"4","last_reported":1758042510,"current_range_meters":10800,"station_id":"ce4bh292rcd13ifvqdf0","pricing_plan_id":"cebpf4jnsgd1na2vs0mg"},{"bike_id":"b58e9363-b2a2-4c00-8d0f-2a232e061fec","system_id":"levelo_inurba_marseille","lat":43.2944,"lon":5.39745,"is_reserved":false,"is_disabled":false,"rental_uris":{"android":"levelo://app?vid=b58e9363-b2a2-4c00-8d0f-2a232e061fec","ios":"levelo://app?vid=b58e9363-b2a2-4c00-8d0f-2a232e061fec"},"vehicle_type_id":"4","last_reported":1758042510,"current_range_meters":11200,"station_id":"ce4bh3h2rcd13ifvqdo0","pricing_plan_id":"cebpf4jnsgd1na2vs0mg"},{"bike_id":"2b404e7f-ca74-4b9d-bc49-17d79becd0dc","system_id":"levelo_inurba_marseille","lat":43.288477,"lon":5.358673,"is_reserved":false,"is_disabled":false,"rental_uris":{"android":"levelo://app?vid=2b404e7f-ca74-4b9d-bc49-17d79becd0dc","ios":"levelo://app?vid=2b404e7f-ca74-4b9d-bc49-17d79becd0dc"},"vehicle_type_id":"4","last_reported":1758042510,"current_range_meters":11200,"station_id":"ce4bhb12rcd13ifvqem0","pricing_plan_id":"cebpf4jnsgd1na2vs0mg"},{"bike_id":"41f3a318-6080-4fe3-a777-488259f94d2e","system_id":"levelo_inurba_marseille","lat":43.30665,"lon":5.3663,"is_reserved":false,"is_disabled":false,"rental_uris":{"android":"levelo://app?vid=41f3a318-6080-4fe3-a777-488259f94d2e","ios":"levelo://app?vid=41f3a318-6080-4fe3-a777-488259f94d2e"},"vehicle_type_id":"4","last_reported":1758042510,"current_range_meters":11200,"station_id":"","pricing_plan_id":"cebpf4jnsgd1na2vs0mg"},{"bike_id":"2cb748ae-12e4-4256-beae-5253c728617f","system_id":"levelo_inurba_marseille","lat":43.28411,"lon":5.34979,"is_reserved":false,"is_disabled":false,"rental_uris":{"android":"levelo://app?vid=2cb748ae-12e4-4256-beae-5253c728617f","ios":"levelo://app?vid=2cb748ae-12e4-4256-beae-5253c728617f"},"vehicle_type_id":"4","last_reported":1758042510,"current_range_meters":11200,"station_id":"ce4bhbh2rcd13ifvqepg","pricing_plan_id":"cebpf4jnsgd1na2vs0mg"},{"bike_id":"d874f75e-ff98-4cc8-8c10-45f46b3f1817","system_id":"levelo_inurba_marseille","lat":43.30383,"lon":5.4291,"is_reserved":false,"is_disabled":false,"rental_uris":{"android":"levelo://app?vid=d874f75e-ff98-4cc8-8c10-45f46b3f1817","ios":"levelo://app?vid=d874f75e-ff98-4cc8-8c10-45f46b3f1817"},"vehicle_type_id":"4","last_reported":1758042510,"current_range_meters":11200,"station_id":"","pricing_plan_id":"cebpf4jnsgd1na2vs0mg"},{"bike_id":"19108bf4-5436-4fb1-a028-641a68af4200","system_id":"levelo_inurba_marseille","lat":43.27049,"lon":5.4026,"is_reserved":false,"is_disabled":false,"rental_uris":{"android":"levelo://app?vid=19108bf4-5436-4fb1-a028-641a68af4200","ios":"levelo://app?vid=19108bf4-5436-4fb1-a028-641a68af4200"},"vehicle_type_id":"4","last_reported":1758042510,"current_range_meters":11600,"station_id":"ce4bhk92rcd13ifvqgc0","pricing_plan_id":"cebpf4jnsgd1na2vs0mg"},{"bike_id":"a05fdb49-e038-4a84-8ea1-52f3eaaf07b1","system_id":"levelo_inurba_marseille","lat":43.22562,"lon":5.41634,"is_reserved":false,"is_disabled":false,"rental_uris":{"android":"levelo://app?vid=a05fdb49-e038-4a84-8ea1-52f3eaaf07b1","ios":"levelo://app?vid=a05fdb49-e038-4a84-8ea1-52f3eaaf07b1"},"vehicle_type_id":"4","last_reported":1758042510,"current_range_meters":11600,"station_id":"st_d2o4gvlbi1j2169b742g","pricing_plan_id":"cebpf4jnsgd1na2vs0mg"},{"bike_id":"02571a3e-54f9-42cb-b8cb-766e222d1f23","system_id":"levelo_inurba_marseille","lat":43.29987,"lon":5.385,"is_reserved":false,"is_disabled":false,"rental_uris":{"android":"levelo://app?vid=02571a3e-54f9-42cb-b8cb-766e222d1f23","ios":"levelo://app?vid=02571a3e-54f9-42cb-b8cb-766e222d1f23"},"vehicle_type_id":"4","last_reported":1758042510,"current_range_meters":11600,"station_id":"ce4bgj92rcd13ifvqbd0","pricing_plan_id":"cebpf4jnsgd1na2vs0mg"},{"bike_id":"1eadefc3-8ab5-4da8-83a0-89c5ea920a9a","system_id":"levelo_inurba_marseille","lat":43.31997,"lon":5.38166,"is_reserved":false,"is_disabled":false,"rental_uris":{"android":"levelo://app?vid=1eadefc3-8ab5-4da8-83a0-89c5ea920a9a","ios":"levelo://app?vid=1eadefc3-8ab5-4da8-83a0-89c5ea920a9a"},"vehicle_type_id":"4","last_reported":1758042510,"current_range_meters":11600,"station_id":"ce4bhr12rcd13ifvqhpg","pricing_plan_id":"cebpf4jnsgd1na2vs0mg"},{"bike_id":"de0a099b-fc16-4bcc-ab3e-0e943822da5f","system_id":"levelo_inurba_marseille","lat":43.24671,"lon":5.38153,"is_reserved":false,"is_disabled":false,"rental_uris":{"android":"levelo://app?vid=de0a099b-fc16-4bcc-ab3e-0e943822da5f","ios":"levelo://app?vid=de0a099b-fc16-4bcc-ab3e-0e943822da5f"},"vehicle_type_id":"4","last_reported":1758042510,"current_range_meters":11600,"station_id":"ce4bhih2rcd13ifvqfr0","pricing_plan_id":"cebpf4jnsgd1na2vs0mg"},{"bike_id":"0ed3e49d-ab65-4a6c-b755-acb33bebe13e","system_id":"levelo_inurba_marseille","lat":43.29002,"lon":5.3561,"is_reserved":false,"is_disabled":false,"rental_uris":{"android":"levelo://app?vid=0ed3e49d-ab65-4a6c-b755-acb33bebe13e","ios":"levelo://app?vid=0ed3e49d-ab65-4a6c-b755-acb33bebe13e"},"vehicle_type_id":"4","last_reported":1758042510,"current_range_meters":11600,"station_id":"ce4bhb92rcd13ifvqen0","pricing_plan_id":"cebpf4jnsgd1na2vs0mg"},{"bike_id":"2bed0138-9ac3-4164-90ee-5bfaf418733f","system_id":"levelo_inurba_marseille","lat":43.28919,"lon":5.38405,"is_reserved":false,"is_disabled":true,"rental_uris":{"android":"levelo://app?vid=2bed0138-9ac3-4164-90ee-5bfaf418733f","ios":"levelo://app?vid=2bed0138-9ac3-4164-90ee-5bfaf418733f"},"vehicle_type_id":"4","last_reported":1758042510,"current_range_meters":11600,"station_id":"ce4bh612rcd13ifvqe6g","pricing_plan_id":"cebpf4jnsgd1na2vs0mg"},{"bike_id":"7d4b3b2f-4b18-4b41-81c4-c1eec8d758d8","system_id":"levelo_inurba_marseille","lat":43.2681,"lon":5.40267,"is_reserved":false,"is_disabled":false,"rental_uris":{"android":"levelo://app?vid=7d4b3b2f-4b18-4b41-81c4-c1eec8d758d8","ios":"levelo://app?vid=7d4b3b2f-4b18-4b41-81c4-c1eec8d758d8"},"vehicle_type_id":"4","last_reported":1758042510,"current_range_meters":11600,"station_id":"ce501612rcd8frsf0b60","pricing_plan_id":"cebpf4jnsgd1na2vs0mg"},{"bike_id":"5e581981-a604-4d42-a1e8-06842c48e707","system_id":"levelo_inurba_marseille","lat":43.241695,"lon":5.363978,"is_reserved":false,"is_disabled":false,"rental_uris":{"android":"levelo://app?vid=5e581981-a604-4d42-a1e8-06842c48e707","ios":"levelo://app?vid=5e581981-a604-4d42-a1e8-06842c48e707"},"vehicle_type_id":"4","last_reported":1758042510,"current_range_meters":11600,"station_id":"cpo36qri1sfpv3e86is0","pricing_plan_id":"cebpf4jnsgd1na2vs0mg"},{"bike_id":"3d35b95d-a076-4932-a843-1952c985f2b1","system_id":"levelo_inurba_marseille","lat":43.26787,"lon":5.39412,"is_reserved":false,"is_disabled":false,"rental_uris":{"android":"levelo://app?vid=3d35b95d-a076-4932-a843-1952c985f2b1","ios":"levelo://app?vid=3d35b95d-a076-4932-a843-1952c985f2b1"},"vehicle_type_id":"4","last_reported":1758042510,"current_range_meters":12000,"station_id":"ce4bhh12rcd13ifvqfg0","pricing_plan_id":"cebpf4jnsgd1na2vs0mg"},{"bike_id":"541e3733-8661-4b26-8b6c-e3aced74f2ec","system_id":"levelo_inurba_marseille","lat":43.30884,"lon":5.3719,"is_reserved":false,"is_disabled":false,"rental_uris":{"android":"levelo://app?vid=541e3733-8661-4b26-8b6c-e3aced74f2ec","ios":"levelo://app?vid=541e3733-8661-4b26-8b6c-e3aced74f2ec"},"vehicle_type_id":"4","last_reported":1758042510,"current_range_meters":12000,"station_id":"ce4bguh2rcd13ifvqckg","pricing_plan_id":"cebpf4jnsgd1na2vs0mg"},{"bike_id":"f065e66f-b25d-4d9e-82ed-40c27690ca22","system_id":"levelo_inurba_marseille","lat":43.2738,"lon":5.36256,"is_reserved":false,"is_disabled":false,"rental_uris":{"android":"levelo://app?vid=f065e66f-b25d-4d9e-82ed-40c27690ca22","ios":"levelo://app?vid=f065e66f-b25d-4d9e-82ed-40c27690ca22"},"vehicle_type_id":"4","last_reported":1758042510,"current_range_meters":12000,"station_id":"ce4bhbh2rcd13ifvqeo0","pricing_plan_id":"cebpf4jnsgd1na2vs0mg"},{"bike_id":"9156b3e9-6a8e-4859-87d7-eac70607edc4","system_id":"levelo_inurba_marseille","lat":43.296229,"lon":5.376965,"is_reserved":false,"is_disabled":false,"rental_uris":{"android":"levelo://app?vid=9156b3e9-6a8e-4859-87d7-eac70607edc4","ios":"levelo://app?vid=9156b3e9-6a8e-4859-87d7-eac70607edc4"},"vehicle_type_id":"4","last_reported":1758042510,"current_range_meters":12000,"station_id":"ce4bgi92rcd13ifvqb90","pricing_plan_id":"cebpf4jnsgd1na2vs0mg"},{"bike_id":"51c63be9-3425-497f-a825-73ae8b3a6c16","system_id":"levelo_inurba_marseille","lat":43.29581,"lon":5.38186,"is_reserved":false,"is_disabled":false,"rental_uris":{"android":"levelo://app?vid=51c63be9-3425-497f-a825-73ae8b3a6c16","ios":"levelo://app?vid=51c63be9-3425-497f-a825-73ae8b3a6c16"},"vehicle_type_id":"4","last_reported":1758042510,"current_range_meters":12000,"station_id":"ce4bgl12rcd13ifvqbo0","pricing_plan_id":"cebpf4jnsgd1na2vs0mg"},{"bike_id":"63818e6a-a36e-40b8-98c6-0c1efad93488","system_id":"levelo_inurba_marseille","lat":43.239597,"lon":5.366171,"is_reserved":false,"is_disabled":false,"rental_uris":{"android":"levelo://app?vid=63818e6a-a36e-40b8-98c6-0c1efad93488","ios":"levelo://app?vid=63818e6a-a36e-40b8-98c6-0c1efad93488"},"vehicle_type_id":"4","last_reported":1758042510,"current_range_meters":12000,"station_id":"ce4bhi12rcd13ifvqfp0","pricing_plan_id":"cebpf4jnsgd1na2vs0mg"},{"bike_id":"218a3b01-2802-4a90-9359-7a3da360539c","system_id":"levelo_inurba_marseille","lat":43.28573,"lon":5.395,"is_reserved":false,"is_disabled":false,"rental_uris":{"android":"levelo://app?vid=218a3b01-2802-4a90-9359-7a3da360539c","ios":"levelo://app?vid=218a3b01-2802-4a90-9359-7a3da360539c"},"vehicle_type_id":"4","last_reported":1758042510,"current_range_meters":12000,"station_id":"ce4bh292rcd13ifvqdg0","pricing_plan_id":"cebpf4jnsgd1na2vs0mg"},{"bike_id":"474e182c-f19a-4ee9-85a9-9b45c806a91f","system_id":"levelo_inurba_marseille","lat":43.29867,"lon":5.39742,"is_reserved":false,"is_disabled":false,"rental_uris":{"android":"levelo://app?vid=474e182c-f19a-4ee9-85a9-9b45c806a91f","ios":"levelo://app?vid=474e182c-f19a-4ee9-85a9-9b45c806a91f"},"vehicle_type_id":"4","last_reported":1758042510,"current_range_meters":12000,"station_id":"ce4bh0h2rcd13ifvqd50","pricing_plan_id":"cebpf4jnsgd1na2vs0mg"},{"bike_id":"63cfbd6b-9e54-4252-b5fb-c4da9e7a64dc","system_id":"levelo_inurba_marseille","lat":43.28569,"lon":5.39499,"is_reserved":false,"is_disabled":false,"rental_uris":{"android":"levelo://app?vid=63cfbd6b-9e54-4252-b5fb-c4da9e7a64dc","ios":"levelo://app?vid=63cfbd6b-9e54-4252-b5fb-c4da9e7a64dc"},"vehicle_type_id":"4","last_reported":1758042510,"current_range_meters":11600,"station_id":"ce4bh292rcd13ifvqdg0","pricing_plan_id":"cebpf4jnsgd1na2vs0mg"},{"bike_id":"aa0faef8-bb69-468b-8b8b-fe8f48c00711","system_id":"levelo_inurba_marseille","lat":43.29253,"lon":5.4091,"is_reserved":false,"is_disabled":true,"rental_uris":{"android":"levelo://app?vid=aa0faef8-bb69-468b-8b8b-fe8f48c00711","ios":"levelo://app?vid=aa0faef8-bb69-468b-8b8b-fe8f48c00711"},"vehicle_type_id":"4","last_reported":1758042510,"current_range_meters":12400,"station_id":"ce4bh192rcd13ifvqdc0","pricing_plan_id":"cebpf4jnsgd1na2vs0mg"},{"bike_id":"5404a574-c18c-466b-bf42-8f3238c0c146","system_id":"levelo_inurba_marseille","lat":43.29537,"lon":5.38542,"is_reserved":false,"is_disabled":false,"rental_uris":{"android":"levelo://app?vid=5404a574-c18c-466b-bf42-8f3238c0c146","ios":"levelo://app?vid=5404a574-c18c-466b-bf42-8f3238c0c146"},"vehicle_type_id":"4","last_reported":1758042510,"current_range_meters":12400,"station_id":"ce4bgih2rcd13ifvqba0","pricing_plan_id":"cebpf4jnsgd1na2vs0mg"},{"bike_id":"95649a70-b617-49f9-aed5-156f8e0e9bd8","system_id":"levelo_inurba_marseille","lat":43.29265,"lon":5.38467,"is_reserved":false,"is_disabled":false,"rental_uris":{"android":"levelo://app?vid=95649a70-b617-49f9-aed5-156f8e0e9bd8","ios":"levelo://app?vid=95649a70-b617-49f9-aed5-156f8e0e9bd8"},"vehicle_type_id":"4","last_reported":1758042510,"current_range_meters":12400,"station_id":"ce4bh692rcd13ifvqea0","pricing_plan_id":"cebpf4jnsgd1na2vs0mg"},{"bike_id":"3b26aa0d-3679-4b4c-9b55-1096f6d08a9d","system_id":"levelo_inurba_marseille","lat":43.31298,"lon":5.39391,"is_reserved":false,"is_disabled":false,"rental_uris":{"android":"levelo://app?vid=3b26aa0d-3679-4b4c-9b55-1096f6d08a9d","ios":"levelo://app?vid=3b26aa0d-3679-4b4c-9b55-1096f6d08a9d"},"vehicle_type_id":"4","last_reported":1758042510,"current_range_meters":12400,"station_id":"","pricing_plan_id":"cebpf4jnsgd1na2vs0mg"},{"bike_id":"0b530ca0-5abe-456a-80f2-061626fcc9b1","system_id":"levelo_inurba_marseille","lat":43.29972,"lon":5.38223,"is_reserved":false,"is_disabled":false,"rental_uris":{"android":"levelo://app?vid=0b530ca0-5abe-456a-80f2-061626fcc9b1","ios":"levelo://app?vid=0b530ca0-5abe-456a-80f2-061626fcc9b1"},"vehicle_type_id":"4","last_reported":1758042510,"current_range_meters":12400,"station_id":"","pricing_plan_id":"cebpf4jnsgd1na2vs0mg"},{"bike_id":"2ba6d751-735d-4f3f-b471-7e3f5bc5e1b1","system_id":"levelo_inurba_marseille","lat":43.32108,"lon":5.36779,"is_reserved":false,"is_disabled":false,"rental_uris":{"android":"levelo://app?vid=2ba6d751-735d-4f3f-b471-7e3f5bc5e1b1","ios":"levelo://app?vid=2ba6d751-735d-4f3f-b471-7e3f5bc5e1b1"},"vehicle_type_id":"4","last_reported":1758042510,"current_range_meters":12400,"station_id":"ce4bhrh2rcd13ifvqhug","pricing_plan_id":"cebpf4jnsgd1na2vs0mg"},{"bike_id":"531100ba-5a25-4733-9813-ff7b6dfceda7","system_id":"levelo_inurba_marseille","lat":43.29532,"lon":5.38541,"is_reserved":false,"is_disabled":false,"rental_uris":{"android":"levelo://app?vid=531100ba-5a25-4733-9813-ff7b6dfceda7","ios":"levelo://app?vid=531100ba-5a25-4733-9813-ff7b6dfceda7"},"vehicle_type_id":"4","last_reported":1758042510,"current_range_meters":12000,"station_id":"ce4bgih2rcd13ifvqba0","pricing_plan_id":"cebpf4jnsgd1na2vs0mg"},{"bike_id":"5a4f29f6-633a-4a18-bfb9-5f6615eb6a82","system_id":"levelo_inurba_marseille","lat":43.295364,"lon":5.385471,"is_reserved":false,"is_disabled":false,"rental_uris":{"android":"levelo://app?vid=5a4f29f6-633a-4a18-bfb9-5f6615eb6a82","ios":"levelo://app?vid=5a4f29f6-633a-4a18-bfb9-5f6615eb6a82"},"vehicle_type_id":"4","last_reported":1758042510,"current_range_meters":12400,"station_id":"ce4bgih2rcd13ifvqba0","pricing_plan_id":"cebpf4jnsgd1na2vs0mg"},{"bike_id":"d62440eb-a625-4538-83c6-8c5b04dc58f0","system_id":"levelo_inurba_marseille","lat":43.24634,"lon":5.43147,"is_reserved":false,"is_disabled":false,"rental_uris":{"android":"levelo://app?vid=d62440eb-a625-4538-83c6-8c5b04dc58f0","ios":"levelo://app?vid=d62440eb-a625-4538-83c6-8c5b04dc58f0"},"vehicle_type_id":"4","last_reported":1758042510,"current_range_meters":12800,"station_id":"st_d2m6c4gdas8pm72e190g","pricing_plan_id":"cebpf4jnsgd1na2vs0mg"},{"bike_id":"6676ddf0-1780-45c0-b2ea-b4c2e86efc21","system_id":"levelo_inurba_marseille","lat":43.291868,"lon":5.372628,"is_reserved":false,"is_disabled":false,"rental_uris":{"android":"levelo://app?vid=6676ddf0-1780-45c0-b2ea-b4c2e86efc21","ios":"levelo://app?vid=6676ddf0-1780-45c0-b2ea-b4c2e86efc21"},"vehicle_type_id":"4","last_reported":1758042510,"current_range_meters":12800,"station_id":"ce4bha92rcd13ifvqeh0","pricing_plan_id":"cebpf4jnsgd1na2vs0mg"},{"bike_id":"3964c813-137b-4c61-8683-1eafc76ca52f","system_id":"levelo_inurba_marseille","lat":43.31115,"lon":5.37774,"is_reserved":false,"is_disabled":false,"rental_uris":{"android":"levelo://app?vid=3964c813-137b-4c61-8683-1eafc76ca52f","ios":"levelo://app?vid=3964c813-137b-4c61-8683-1eafc76ca52f"},"vehicle_type_id":"4","last_reported":1758042510,"current_range_meters":12800,"station_id":"ce4bgt92rcd13ifvqcg0","pricing_plan_id":"cebpf4jnsgd1na2vs0mg"},{"bike_id":"034ffc90-630a-49f2-982c-234e27cedb9e","system_id":"levelo_inurba_marseille","lat":43.29532,"lon":5.38544,"is_reserved":false,"is_disabled":false,"rental_uris":{"android":"levelo://app?vid=034ffc90-630a-49f2-982c-234e27cedb9e","ios":"levelo://app?vid=034ffc90-630a-49f2-982c-234e27cedb9e"},"vehicle_type_id":"4","last_reported":1758042510,"current_range_meters":12800,"station_id":"ce4bgih2rcd13ifvqba0","pricing_plan_id":"cebpf4jnsgd1na2vs0mg"},{"bike_id":"7401f904-c7a5-4420-9a38-b32c76084c39","system_id":"levelo_inurba_marseille","lat":43.28275,"lon":5.35055,"is_reserved":false,"is_disabled":false,"rental_uris":{"android":"levelo://app?vid=7401f904-c7a5-4420-9a38-b32c76084c39","ios":"levelo://app?vid=7401f904-c7a5-4420-9a38-b32c76084c39"},"vehicle_type_id":"4","last_reported":1758042510,"current_range_meters":12800,"station_id":"ce4bhbp2rcd13ifvqerg","pricing_plan_id":"cebpf4jnsgd1na2vs0mg"},{"bike_id":"6482465d-371b-4c58-90ca-6fe53977a473","system_id":"levelo_inurba_marseille","lat":43.28848,"lon":5.39307,"is_reserved":false,"is_disabled":false,"rental_uris":{"android":"levelo://app?vid=6482465d-371b-4c58-90ca-6fe53977a473","ios":"levelo://app?vid=6482465d-371b-4c58-90ca-6fe53977a473"},"vehicle_type_id":"4","last_reported":1758042510,"current_range_meters":12800,"station_id":"ce4bh2p2rcd13ifvqdi0","pricing_plan_id":"cebpf4jnsgd1na2vs0mg"},{"bike_id":"0ede21be-37d9-4495-b672-80274a6292be","system_id":"levelo_inurba_marseille","lat":43.35046,"lon":5.34089,"is_reserved":false,"is_disabled":false,"rental_uris":{"android":"levelo://app?vid=0ede21be-37d9-4495-b672-80274a6292be","ios":"levelo://app?vid=0ede21be-37d9-4495-b672-80274a6292be"},"vehicle_type_id":"4","last_reported":1758042510,"current_range_meters":12800,"station_id":"","pricing_plan_id":"cebpf4jnsgd1na2vs0mg"},{"bike_id":"ece07351-e21d-4c48-bd8e-d6076d0d6379","system_id":"levelo_inurba_marseille","lat":43.28479,"lon":5.37501,"is_reserved":false,"is_disabled":false,"rental_uris":{"android":"levelo://app?vid=ece07351-e21d-4c48-bd8e-d6076d0d6379","ios":"levelo://app?vid=ece07351-e21d-4c48-bd8e-d6076d0d6379"},"vehicle_type_id":"4","last_reported":1758042510,"current_range_meters":13600,"station_id":"","pricing_plan_id":"cebpf4jnsgd1na2vs0mg"},{"bike_id":"72e98967-fbb1-446e-8cf8-cf9d6c32bf96","system_id":"levelo_inurba_marseille","lat":43.24947,"lon":5.40504,"is_reserved":false,"is_disabled":false,"rental_uris":{"android":"levelo://app?vid=72e98967-fbb1-446e-8cf8-cf9d6c32bf96","ios":"levelo://app?vid=72e98967-fbb1-446e-8cf8-cf9d6c32bf96"},"vehicle_type_id":"4","last_reported":1758042510,"current_range_meters":13600,"station_id":"st_d2ngiaodas8pm72gd1h0","pricing_plan_id":"cebpf4jnsgd1na2vs0mg"},{"bike_id":"8ac2e1f6-22ed-4947-a860-50981bd32294","system_id":"levelo_inurba_marseille","lat":43.285414,"lon":5.350451,"is_reserved":false,"is_disabled":false,"rental_uris":{"android":"levelo://app?vid=8ac2e1f6-22ed-4947-a860-50981bd32294","ios":"levelo://app?vid=8ac2e1f6-22ed-4947-a860-50981bd32294"},"vehicle_type_id":"4","last_reported":1758042510,"current_range_meters":13600,"station_id":"ce4bhb12rcd13ifvqel0","pricing_plan_id":"cebpf4jnsgd1na2vs0mg"},{"bike_id":"a677a305-b439-4871-98c9-d30ace339d4a","system_id":"levelo_inurba_marseille","lat":43.292657,"lon":5.384364,"is_reserved":false,"is_disabled":false,"rental_uris":{"android":"levelo://app?vid=a677a305-b439-4871-98c9-d30ace339d4a","ios":"levelo://app?vid=a677a305-b439-4871-98c9-d30ace339d4a"},"vehicle_type_id":"4","last_reported":1758042510,"current_range_meters":13600,"station_id":"ce4bh692rcd13ifvqea0","pricing_plan_id":"cebpf4jnsgd1na2vs0mg"},{"bike_id":"5dee0a7a-b4df-4659-ae88-516d164277af","system_id":"levelo_inurba_marseille","lat":43.28846,"lon":5.39313,"is_reserved":false,"is_disabled":false,"rental_uris":{"android":"levelo://app?vid=5dee0a7a-b4df-4659-ae88-516d164277af","ios":"levelo://app?vid=5dee0a7a-b4df-4659-ae88-516d164277af"},"vehicle_type_id":"4","last_reported":1758042510,"current_range_meters":13600,"station_id":"ce4bh2p2rcd13ifvqdi0","pricing_plan_id":"cebpf4jnsgd1na2vs0mg"},{"bike_id":"05b5978d-7ac4-4465-bb1c-49f38049ea3c","system_id":"levelo_inurba_marseille","lat":43.30127,"lon":5.38794,"is_reserved":false,"is_disabled":false,"rental_uris":{"android":"levelo://app?vid=05b5978d-7ac4-4465-bb1c-49f38049ea3c","ios":"levelo://app?vid=05b5978d-7ac4-4465-bb1c-49f38049ea3c"},"vehicle_type_id":"4","last_reported":1758042510,"current_range_meters":13600,"station_id":"ce4bghh2rcd13ifvqb60","pricing_plan_id":"cebpf4jnsgd1na2vs0mg"},{"bike_id":"6b3a2f0c-ea56-4816-819a-4c7b24644fa1","system_id":"levelo_inurba_marseille","lat":43.2318,"lon":5.39987,"is_reserved":false,"is_disabled":false,"rental_uris":{"android":"levelo://app?vid=6b3a2f0c-ea56-4816-819a-4c7b24644fa1","ios":"levelo://app?vid=6b3a2f0c-ea56-4816-819a-4c7b24644fa1"},"vehicle_type_id":"4","last_reported":1758042510,"current_range_meters":13600,"station_id":"","pricing_plan_id":"cebpf4jnsgd1na2vs0mg"},{"bike_id":"d0d1d627-8e73-416f-8cc9-688d462f03cb","system_id":"levelo_inurba_marseille","lat":43.24384,"lon":5.37052,"is_reserved":false,"is_disabled":false,"rental_uris":{"android":"levelo://app?vid=d0d1d627-8e73-416f-8cc9-688d462f03cb","ios":"levelo://app?vid=d0d1d627-8e73-416f-8cc9-688d462f03cb"},"vehicle_type_id":"4","last_reported":1758042510,"current_range_meters":14000,"station_id":"ce4bhhh2rcd13ifvqfk0","pricing_plan_id":"cebpf4jnsgd1na2vs0mg"},{"bike_id":"23e1572e-7ccb-4eea-8020-599035749c9e","system_id":"levelo_inurba_marseille","lat":43.23842,"lon":5.3654,"is_reserved":false,"is_disabled":false,"rental_uris":{"android":"levelo://app?vid=23e1572e-7ccb-4eea-8020-599035749c9e","ios":"levelo://app?vid=23e1572e-7ccb-4eea-8020-599035749c9e"},"vehicle_type_id":"4","last_reported":1758042510,"current_range_meters":14000,"station_id":"","pricing_plan_id":"cebpf4jnsgd1na2vs0mg"},{"bike_id":"dfb0c952-99ca-4e8b-bfbb-e55ae0420ce5","system_id":"levelo_inurba_marseille","lat":43.28075,"lon":5.39659,"is_reserved":false,"is_disabled":false,"rental_uris":{"android":"levelo://app?vid=dfb0c952-99ca-4e8b-bfbb-e55ae0420ce5","ios":"levelo://app?vid=dfb0c952-99ca-4e8b-bfbb-e55ae0420ce5"},"vehicle_type_id":"4","last_reported":1758042510,"current_range_meters":14000,"station_id":"","pricing_plan_id":"cebpf4jnsgd1na2vs0mg"},{"bike_id":"8bad72d5-673d-40b2-865e-a2d7a166c52c","system_id":"levelo_inurba_marseille","lat":43.28556,"lon":5.39486,"is_reserved":false,"is_disabled":false,"rental_uris":{"android":"levelo://app?vid=8bad72d5-673d-40b2-865e-a2d7a166c52c","ios":"levelo://app?vid=8bad72d5-673d-40b2-865e-a2d7a166c52c"},"vehicle_type_id":"4","last_reported":1758042510,"current_range_meters":14000,"station_id":"ce4bh292rcd13ifvqdg0","pricing_plan_id":"cebpf4jnsgd1na2vs0mg"},{"bike_id":"33402864-f5e0-47e4-8687-c925adfc3d24","system_id":"levelo_inurba_marseille","lat":43.24174,"lon":5.36414,"is_reserved":false,"is_disabled":false,"rental_uris":{"android":"levelo://app?vid=33402864-f5e0-47e4-8687-c925adfc3d24","ios":"levelo://app?vid=33402864-f5e0-47e4-8687-c925adfc3d24"},"vehicle_type_id":"4","last_reported":1758042510,"current_range_meters":14000,"station_id":"cpo36qri1sfpv3e86is0","pricing_plan_id":"cebpf4jnsgd1na2vs0mg"},{"bike_id":"ad0a0d80-159e-4b9d-8ab9-99d6d6fb9fd3","system_id":"levelo_inurba_marseille","lat":43.29617,"lon":5.36732,"is_reserved":false,"is_disabled":false,"rental_uris":{"android":"levelo://app?vid=ad0a0d80-159e-4b9d-8ab9-99d6d6fb9fd3","ios":"levelo://app?vid=ad0a0d80-159e-4b9d-8ab9-99d6d6fb9fd3"},"vehicle_type_id":"4","last_reported":1758042510,"current_range_meters":14400,"station_id":"ce4bgph2rcd13ifvqc2g","pricing_plan_id":"cebpf4jnsgd1na2vs0mg"},{"bike_id":"99b1f494-78e2-48ab-b861-45d187280170","system_id":"levelo_inurba_marseille","lat":43.23188,"lon":5.3998,"is_reserved":false,"is_disabled":false,"rental_uris":{"android":"levelo://app?vid=99b1f494-78e2-48ab-b861-45d187280170","ios":"levelo://app?vid=99b1f494-78e2-48ab-b861-45d187280170"},"vehicle_type_id":"4","last_reported":1758042510,"current_range_meters":14400,"station_id":"ce4bhn12rcd13ifvqgqg","pricing_plan_id":"cebpf4jnsgd1na2vs0mg"},{"bike_id":"a09e952d-2e99-4748-95f2-64dd0b321432","system_id":"levelo_inurba_marseille","lat":43.286111,"lon":5.351064,"is_reserved":false,"is_disabled":false,"rental_uris":{"android":"levelo://app?vid=a09e952d-2e99-4748-95f2-64dd0b321432","ios":"levelo://app?vid=a09e952d-2e99-4748-95f2-64dd0b321432"},"vehicle_type_id":"4","last_reported":1758042510,"current_range_meters":14400,"station_id":"ce4bhch2rcd13ifvqeug","pricing_plan_id":"cebpf4jnsgd1na2vs0mg"},{"bike_id":"11555ead-152a-4e2f-ac3e-7aaa852c50e5","system_id":"levelo_inurba_marseille","lat":43.225326,"lon":5.348358,"is_reserved":false,"is_disabled":false,"rental_uris":{"android":"levelo://app?vid=11555ead-152a-4e2f-ac3e-7aaa852c50e5","ios":"levelo://app?vid=11555ead-152a-4e2f-ac3e-7aaa852c50e5"},"vehicle_type_id":"4","last_reported":1758042510,"current_range_meters":14400,"station_id":"","pricing_plan_id":"cebpf4jnsgd1na2vs0mg"},{"bike_id":"b84b6f2a-f749-435c-81cf-b02f509ed529","system_id":"levelo_inurba_marseille","lat":43.273118,"lon":5.391101,"is_reserved":false,"is_disabled":false,"rental_uris":{"android":"levelo://app?vid=b84b6f2a-f749-435c-81cf-b02f509ed529","ios":"levelo://app?vid=b84b6f2a-f749-435c-81cf-b02f509ed529"},"vehicle_type_id":"4","last_reported":1758042510,"current_range_meters":14400,"station_id":"","pricing_plan_id":"cebpf4jnsgd1na2vs0mg"},{"bike_id":"2b2c274f-1447-469f-9251-cdbfb1ccc2bb","system_id":"levelo_inurba_marseille","lat":43.314848,"lon":5.372982,"is_reserved":false,"is_disabled":false,"rental_uris":{"android":"levelo://app?vid=2b2c274f-1447-469f-9251-cdbfb1ccc2bb","ios":"levelo://app?vid=2b2c274f-1447-469f-9251-cdbfb1ccc2bb"},"vehicle_type_id":"4","last_reported":1758042510,"current_range_meters":14400,"station_id":"ce4bgt12rcd13ifvqcd0","pricing_plan_id":"cebpf4jnsgd1na2vs0mg"},{"bike_id":"fa21e73d-c8aa-4f36-8ba1-a3558c27b218","system_id":"levelo_inurba_marseille","lat":43.28415,"lon":5.37524,"is_reserved":false,"is_disabled":false,"rental_uris":{"android":"levelo://app?vid=fa21e73d-c8aa-4f36-8ba1-a3558c27b218","ios":"levelo://app?vid=fa21e73d-c8aa-4f36-8ba1-a3558c27b218"},"vehicle_type_id":"4","last_reported":1758042510,"current_range_meters":14400,"station_id":"ce4bh412rcd13ifvqds0","pricing_plan_id":"cebpf4jnsgd1na2vs0mg"},{"bike_id":"8bf0756c-ca3e-4761-a8d6-b82109d5ab48","system_id":"levelo_inurba_marseille","lat":43.30666,"lon":5.3929,"is_reserved":false,"is_disabled":false,"rental_uris":{"android":"levelo://app?vid=8bf0756c-ca3e-4761-a8d6-b82109d5ab48","ios":"levelo://app?vid=8bf0756c-ca3e-4761-a8d6-b82109d5ab48"},"vehicle_type_id":"4","last_reported":1758042510,"current_range_meters":14400,"station_id":"ce4bh292rcd13ifvqdg0","pricing_plan_id":"cebpf4jnsgd1na2vs0mg"},{"bike_id":"738e9474-7fa1-477d-95be-2b35ede9d3f0","system_id":"levelo_inurba_marseille","lat":43.22563,"lon":5.41643,"is_reserved":false,"is_disabled":false,"rental_uris":{"android":"levelo://app?vid=738e9474-7fa1-477d-95be-2b35ede9d3f0","ios":"levelo://app?vid=738e9474-7fa1-477d-95be-2b35ede9d3f0"},"vehicle_type_id":"4","last_reported":1758042510,"current_range_meters":14400,"station_id":"st_d2o4gvlbi1j2169b742g","pricing_plan_id":"cebpf4jnsgd1na2vs0mg"},{"bike_id":"677731c2-d6e7-40df-a9a8-183ced6437f6","system_id":"levelo_inurba_marseille","lat":43.27946,"lon":5.41047,"is_reserved":false,"is_disabled":false,"rental_uris":{"android":"levelo://app?vid=677731c2-d6e7-40df-a9a8-183ced6437f6","ios":"levelo://app?vid=677731c2-d6e7-40df-a9a8-183ced6437f6"},"vehicle_type_id":"4","last_reported":1758042510,"current_range_meters":14400,"station_id":"ce4bhnp2rcd13ifvqh0g","pricing_plan_id":"cebpf4jnsgd1na2vs0mg"},{"bike_id":"268592ca-6392-45bf-a316-627dc689814a","system_id":"levelo_inurba_marseille","lat":43.31484,"lon":5.37313,"is_reserved":false,"is_disabled":false,"rental_uris":{"android":"levelo://app?vid=268592ca-6392-45bf-a316-627dc689814a","ios":"levelo://app?vid=268592ca-6392-45bf-a316-627dc689814a"},"vehicle_type_id":"4","last_reported":1758042510,"current_range_meters":14400,"station_id":"ce4bgt12rcd13ifvqcd0","pricing_plan_id":"cebpf4jnsgd1na2vs0mg"},{"bike_id":"0a873816-60ae-4894-bd71-f22301798078","system_id":"levelo_inurba_marseille","lat":43.296204,"lon":5.371656,"is_reserved":false,"is_disabled":false,"rental_uris":{"android":"levelo://app?vid=0a873816-60ae-4894-bd71-f22301798078","ios":"levelo://app?vid=0a873816-60ae-4894-bd71-f22301798078"},"vehicle_type_id":"4","last_reported":1758042510,"current_range_meters":14000,"station_id":"ce4bgnh2rcd13ifvqc0g","pricing_plan_id":"cebpf4jnsgd1na2vs0mg"},{"bike_id":"5c0b2341-c41a-4f62-9e5f-92e6a593fad9","system_id":"levelo_inurba_marseille","lat":43.33806,"lon":5.37468,"is_reserved":false,"is_disabled":false,"rental_uris":{"android":"levelo://app?vid=5c0b2341-c41a-4f62-9e5f-92e6a593fad9","ios":"levelo://app?vid=5c0b2341-c41a-4f62-9e5f-92e6a593fad9"},"vehicle_type_id":"4","last_reported":1758042510,"current_range_meters":14800,"station_id":"","pricing_plan_id":"cebpf4jnsgd1na2vs0mg"},{"bike_id":"005ec55b-d09a-4c30-9c00-f576649b40ea","system_id":"levelo_inurba_marseille","lat":43.29011,"lon":5.35927,"is_reserved":false,"is_disabled":false,"rental_uris":{"android":"levelo://app?vid=005ec55b-d09a-4c30-9c00-f576649b40ea","ios":"levelo://app?vid=005ec55b-d09a-4c30-9c00-f576649b40ea"},"vehicle_type_id":"4","last_reported":1758042510,"current_range_meters":14400,"station_id":"ce4bha92rcd13ifvqeg0","pricing_plan_id":"cebpf4jnsgd1na2vs0mg"},{"bike_id":"88a8a850-d513-47ec-8870-e7210ef51b52","system_id":"levelo_inurba_marseille","lat":43.29929,"lon":5.38523,"is_reserved":false,"is_disabled":false,"rental_uris":{"android":"levelo://app?vid=88a8a850-d513-47ec-8870-e7210ef51b52","ios":"levelo://app?vid=88a8a850-d513-47ec-8870-e7210ef51b52"},"vehicle_type_id":"4","last_reported":1758042510,"current_range_meters":14800,"station_id":"","pricing_plan_id":"cebpf4jnsgd1na2vs0mg"},{"bike_id":"14debadb-7e1e-4275-a3de-829f1bd2403f","system_id":"levelo_inurba_marseille","lat":43.31065,"lon":5.3835,"is_reserved":false,"is_disabled":true,"rental_uris":{"android":"levelo://app?vid=14debadb-7e1e-4275-a3de-829f1bd2403f","ios":"levelo://app?vid=14debadb-7e1e-4275-a3de-829f1bd2403f"},"vehicle_type_id":"4","last_reported":1758042510,"current_range_meters":14800,"station_id":"ce4bgv92rcd13ifvqcr0","pricing_plan_id":"cebpf4jnsgd1na2vs0mg"},{"bike_id":"82e0bfcc-bba2-4c2c-9484-d3ca3b13a18b","system_id":"levelo_inurba_marseille","lat":43.29443,"lon":5.37559,"is_reserved":false,"is_disabled":false,"rental_uris":{"android":"levelo://app?vid=82e0bfcc-bba2-4c2c-9484-d3ca3b13a18b","ios":"levelo://app?vid=82e0bfcc-bba2-4c2c-9484-d3ca3b13a18b"},"vehicle_type_id":"4","last_reported":1758042510,"current_range_meters":14800,"station_id":"","pricing_plan_id":"cebpf4jnsgd1na2vs0mg"},{"bike_id":"1b8daad9-3829-40f8-98e4-16772fa3fc49","system_id":"levelo_inurba_marseille","lat":43.29524,"lon":5.3857,"is_reserved":false,"is_disabled":false,"rental_uris":{"android":"levelo://app?vid=1b8daad9-3829-40f8-98e4-16772fa3fc49","ios":"levelo://app?vid=1b8daad9-3829-40f8-98e4-16772fa3fc49"},"vehicle_type_id":"4","last_reported":1758042510,"current_range_meters":14800,"station_id":"ce4bgih2rcd13ifvqba0","pricing_plan_id":"cebpf4jnsgd1na2vs0mg"},{"bike_id":"40495e59-b743-486e-987c-cb0c3ab2f191","system_id":"levelo_inurba_marseille","lat":43.34028,"lon":5.41015,"is_reserved":false,"is_disabled":false,"rental_uris":{"android":"levelo://app?vid=40495e59-b743-486e-987c-cb0c3ab2f191","ios":"levelo://app?vid=40495e59-b743-486e-987c-cb0c3ab2f191"},"vehicle_type_id":"4","last_reported":1758042510,"current_range_meters":14800,"station_id":"","pricing_plan_id":"cebpf4jnsgd1na2vs0mg"},{"bike_id":"76e349fa-bc9b-47a4-9c39-43f8ccd1efae","system_id":"levelo_inurba_marseille","lat":43.28034,"lon":5.36922,"is_reserved":false,"is_disabled":true,"rental_uris":{"android":"levelo://app?vid=76e349fa-bc9b-47a4-9c39-43f8ccd1efae","ios":"levelo://app?vid=76e349fa-bc9b-47a4-9c39-43f8ccd1efae"},"vehicle_type_id":"4","last_reported":1758042510,"current_range_meters":14800,"station_id":"ce4bha12rcd13ifvqef0","pricing_plan_id":"cebpf4jnsgd1na2vs0mg"},{"bike_id":"96644ae3-2807-4f95-a981-fef4ac2b0e69","system_id":"levelo_inurba_marseille","lat":43.225329,"lon":5.34835,"is_reserved":false,"is_disabled":false,"rental_uris":{"android":"levelo://app?vid=96644ae3-2807-4f95-a981-fef4ac2b0e69","ios":"levelo://app?vid=96644ae3-2807-4f95-a981-fef4ac2b0e69"},"vehicle_type_id":"4","last_reported":1758042510,"current_range_meters":15200,"station_id":"","pricing_plan_id":"cebpf4jnsgd1na2vs0mg"},{"bike_id":"fd3b4146-0073-4a79-82a9-bfaee63ff612","system_id":"levelo_inurba_marseille","lat":43.29426,"lon":5.38632,"is_reserved":false,"is_disabled":false,"rental_uris":{"android":"levelo://app?vid=fd3b4146-0073-4a79-82a9-bfaee63ff612","ios":"levelo://app?vid=fd3b4146-0073-4a79-82a9-bfaee63ff612"},"vehicle_type_id":"4","last_reported":1758042510,"current_range_meters":15200,"station_id":"","pricing_plan_id":"cebpf4jnsgd1na2vs0mg"},{"bike_id":"5f38aac2-d906-4b4a-beb0-81d077e9bdf8","system_id":"levelo_inurba_marseille","lat":43.27923,"lon":5.39592,"is_reserved":false,"is_disabled":false,"rental_uris":{"android":"levelo://app?vid=5f38aac2-d906-4b4a-beb0-81d077e9bdf8","ios":"levelo://app?vid=5f38aac2-d906-4b4a-beb0-81d077e9bdf8"},"vehicle_type_id":"4","last_reported":1758042510,"current_range_meters":15200,"station_id":"ce4bhf92rcd13ifvqf40","pricing_plan_id":"cebpf4jnsgd1na2vs0mg"},{"bike_id":"99df04aa-7b62-4a6a-bf79-eae90486f5cc","system_id":"levelo_inurba_marseille","lat":43.29303,"lon":5.3716,"is_reserved":false,"is_disabled":false,"rental_uris":{"android":"levelo://app?vid=99df04aa-7b62-4a6a-bf79-eae90486f5cc","ios":"levelo://app?vid=99df04aa-7b62-4a6a-bf79-eae90486f5cc"},"vehicle_type_id":"4","last_reported":1758042510,"current_range_meters":15200,"station_id":"ce4bgh92rcd13ifvqb40","pricing_plan_id":"cebpf4jnsgd1na2vs0mg"},{"bike_id":"a15a9622-b85a-4ea9-93f5-1f2a90a626c6","system_id":"levelo_inurba_marseille","lat":43.30809,"lon":5.43511,"is_reserved":false,"is_disabled":false,"rental_uris":{"android":"levelo://app?vid=a15a9622-b85a-4ea9-93f5-1f2a90a626c6","ios":"levelo://app?vid=a15a9622-b85a-4ea9-93f5-1f2a90a626c6"},"vehicle_type_id":"4","last_reported":1758042510,"current_range_meters":15200,"station_id":"ce4bhph2rcd13ifvqheg","pricing_plan_id":"cebpf4jnsgd1na2vs0mg"},{"bike_id":"003515e8-8117-44bb-979d-5f47e8d50fda","system_id":"levelo_inurba_marseille","lat":43.30623,"lon":5.37598,"is_reserved":false,"is_disabled":false,"rental_uris":{"android":"levelo://app?vid=003515e8-8117-44bb-979d-5f47e8d50fda","ios":"levelo://app?vid=003515e8-8117-44bb-979d-5f47e8d50fda"},"vehicle_type_id":"4","last_reported":1758042510,"current_range_meters":16000,"station_id":"","pricing_plan_id":"cebpf4jnsgd1na2vs0mg"},{"bike_id":"cf5e3d81-c753-482b-aff8-8d271112c5d6","system_id":"levelo_inurba_marseille","lat":43.32345,"lon":5.40602,"is_reserved":false,"is_disabled":false,"rental_uris":{"android":"levelo://app?vid=cf5e3d81-c753-482b-aff8-8d271112c5d6","ios":"levelo://app?vid=cf5e3d81-c753-482b-aff8-8d271112c5d6"},"vehicle_type_id":"4","last_reported":1758042510,"current_range_meters":16000,"station_id":"ce4bhq92rcd13ifvqhjg","pricing_plan_id":"cebpf4jnsgd1na2vs0mg"},{"bike_id":"1476ad9a-16d7-4e8a-85e7-88f3e068649f","system_id":"levelo_inurba_marseille","lat":43.295166,"lon":5.385845,"is_reserved":false,"is_disabled":false,"rental_uris":{"android":"levelo://app?vid=1476ad9a-16d7-4e8a-85e7-88f3e068649f","ios":"levelo://app?vid=1476ad9a-16d7-4e8a-85e7-88f3e068649f"},"vehicle_type_id":"4","last_reported":1758042510,"current_range_meters":16000,"station_id":"ce4bh3p2rcd13ifvqdp0","pricing_plan_id":"cebpf4jnsgd1na2vs0mg"},{"bike_id":"e8881755-3d55-441c-890e-f946cecf9b9a","system_id":"levelo_inurba_marseille","lat":43.277472,"lon":5.383521,"is_reserved":false,"is_disabled":false,"rental_uris":{"android":"levelo://app?vid=e8881755-3d55-441c-890e-f946cecf9b9a","ios":"levelo://app?vid=e8881755-3d55-441c-890e-f946cecf9b9a"},"vehicle_type_id":"4","last_reported":1758042510,"current_range_meters":16000,"station_id":"ce4bhh92rcd13ifvqfi0","pricing_plan_id":"cebpf4jnsgd1na2vs0mg"},{"bike_id":"d1407bd7-1860-4fd4-a944-b5002c53ead6","system_id":"levelo_inurba_marseille","lat":43.2952,"lon":5.394,"is_reserved":false,"is_disabled":false,"rental_uris":{"android":"levelo://app?vid=d1407bd7-1860-4fd4-a944-b5002c53ead6","ios":"levelo://app?vid=d1407bd7-1860-4fd4-a944-b5002c53ead6"},"vehicle_type_id":"4","last_reported":1758042510,"current_range_meters":16000,"station_id":"ce4bh292rcd13ifvqdf0","pricing_plan_id":"cebpf4jnsgd1na2vs0mg"},{"bike_id":"ca5a1340-d41e-49f3-95f8-599734e0a36c","system_id":"levelo_inurba_marseille","lat":43.225336,"lon":5.348339,"is_reserved":false,"is_disabled":false,"rental_uris":{"android":"levelo://app?vid=ca5a1340-d41e-49f3-95f8-599734e0a36c","ios":"levelo://app?vid=ca5a1340-d41e-49f3-95f8-599734e0a36c"},"vehicle_type_id":"4","last_reported":1758042510,"current_range_meters":16000,"station_id":"","pricing_plan_id":"cebpf4jnsgd1na2vs0mg"},{"bike_id":"8371b5fc-3e41-4dd0-a0e0-0d00bf368ec2","system_id":"levelo_inurba_marseille","lat":43.246595,"lon":5.381588,"is_reserved":false,"is_disabled":false,"rental_uris":{"android":"levelo://app?vid=8371b5fc-3e41-4dd0-a0e0-0d00bf368ec2","ios":"levelo://app?vid=8371b5fc-3e41-4dd0-a0e0-0d00bf368ec2"},"vehicle_type_id":"4","last_reported":1758042510,"current_range_meters":16000,"station_id":"ce4bhih2rcd13ifvqfr0","pricing_plan_id":"cebpf4jnsgd1na2vs0mg"},{"bike_id":"036bf4fc-a594-4633-b647-590cb6c9de92","system_id":"levelo_inurba_marseille","lat":43.325375,"lon":5.414214,"is_reserved":false,"is_disabled":false,"rental_uris":{"android":"levelo://app?vid=036bf4fc-a594-4633-b647-590cb6c9de92","ios":"levelo://app?vid=036bf4fc-a594-4633-b647-590cb6c9de92"},"vehicle_type_id":"4","last_reported":1758042510,"current_range_meters":16000,"station_id":"ce4bhq12rcd13ifvqhhg","pricing_plan_id":"cebpf4jnsgd1na2vs0mg"},{"bike_id":"f4cb6326-e4ab-4833-b4e0-a511b29333e8","system_id":"levelo_inurba_marseille","lat":43.26678,"lon":5.3827,"is_reserved":false,"is_disabled":false,"rental_uris":{"android":"levelo://app?vid=f4cb6326-e4ab-4833-b4e0-a511b29333e8","ios":"levelo://app?vid=f4cb6326-e4ab-4833-b4e0-a511b29333e8"},"vehicle_type_id":"4","last_reported":1758042510,"current_range_meters":16000,"station_id":"ce4bhg92rcd13ifvqf90","pricing_plan_id":"cebpf4jnsgd1na2vs0mg"},{"bike_id":"64b1deee-ef02-45e9-a66a-3e5e20b8d612","system_id":"levelo_inurba_marseille","lat":43.299284,"lon":5.385203,"is_reserved":false,"is_disabled":false,"rental_uris":{"android":"levelo://app?vid=64b1deee-ef02-45e9-a66a-3e5e20b8d612","ios":"levelo://app?vid=64b1deee-ef02-45e9-a66a-3e5e20b8d612"},"vehicle_type_id":"4","last_reported":1758042510,"current_range_meters":16000,"station_id":"ce4bgop2rcd13ifvqc1g","pricing_plan_id":"cebpf4jnsgd1na2vs0mg"},