{"last_updated":1701421661,"ttl":30,"version":"2.2","data":{"bikes":[{"bike_id":"d31a2eec-0c51-4bec-a643-2d0d690a9642","system_id":"levelo_inurba_marseille","lat":43.31341,"lon":5.367098,"is_reserved":false,"is_disabled":false,"rental_uris":{"android":"levelo://app?vid=d31a2eec-0c51-4bec-a643-2d0d690a9642","ios":"levelo://app?vid=d31a2eec-0c51-4bec-a643-2d0d690a9642"},"vehicle_type_id":"4","last_reported":1701421661,"current_range_meters":18400,"station_id":"ce4bgr92rcd13ifvqc6g","pricing_plan_id":"free"},{"bike_id":"b251a47d-5e15-4d8b-bc37-fa99487a2a7a","system_id":"levelo_inurba_marseille","lat":43.313391,"lon":5.36706,"is_reserved":false,"is_disabled":false,"rental_uris":{"android":"levelo://app?vid=b251a47d-5e15-4d8b-bc37-fa99487a2a7a","ios":"levelo://app?vid=b251a47d-5e15-4d8b-bc37-fa99487a2a7a"},"vehicle_type_id":"4","last_reported":1701421661,"current_range_meters":10400,"station_id":"ce4bgr92rcd13ifvqc6g","pricing_plan_id":"free"},{"bike_id":"edcccf5a-9912-4a81-954a-48a819d3434c","system_id":"levelo_inurba_marseille","lat":43.313391,"lon":5.36706,"is_reserved":false,"is_disabled":false,"rental_uris":{"android":"levelo://app?vid=edcccf5a-9912-4a81-954a-48a819d3434c","ios":"levelo://app?vid=edcccf5a-9912-4a81-954a-48a819d3434c"},"vehicle_type_id":"4","last_reported":1701421661,"current_range_meters":23600,"station_id":"ce4bgr92rcd13ifvqc6g","pricing_plan_id":"free"},{"bike_id":"1a76aa3d-1a6d-4927-9799-d53f46ab134d","system_id":"levelo_inurba_marseille","lat":43.31341,"lon":5.367098,"is_reserved":false,"is_disabled":false,"rental_uris":{"android":"levelo://app?vid=1a76aa3d-1a6d-4927-9799-d53f46ab134d","ios":"levelo://app?vid=1a76aa3d-1a6d-4927-9799-d53f46ab134d"},"vehicle_type_id":"4","last_reported":1701421661,"current_range_meters":1200,"station_id":"ce4bgr92rcd13ifvqc6g","pricing_plan_id":"free"},{"bike_id":"850b513c-e180-463d-933e-e187c3a0d6b3","system_id":"levelo_inurba_marseille","lat":43.31341,"lon":5.367098,"is_reserved":false,"is_disabled":false,"rental_uris":{"android":"levelo://app?vid=850b513c-e180-463d-933e-e187c3a0d6b3","ios":"levelo://app?vid=850b513c-e180-463d-933e-e187c3a0d6b3"},"vehicle_type_id":"4","last_reported":1701421661,"current_range_meters":18000,"station_id":"ce4bgr92rcd13ifvqc6g","pricing_plan_id":"free"},{"bike_id":"98052f90-fd8a-4055-aa05-7fd8f142eeed","system_id":"levelo_inurba_marseille","lat":43.309076,"lon":5.368465,"is_reserved":false,"is_disabled":false,"rental_uris":{"android":"levelo://app?vid=98052f90-fd8a-4055-aa05-7fd8f142eeed","ios":"levelo://app?vid=98052f90-fd8a-4055-aa05-7fd8f142eeed"},"vehicle_type_id":"4","last_reported":1701421661,"current_range_meters":31200,"station_id":"ce4bgn92rcd13ifvqbvg","pricing_plan_id":"free"},{"bike_id":"8f16ac6f-a8d7-4472-8174-fdf1a7e66d17","system_id":"levelo_inurba_marseille","lat":43.309076,"lon":5.368465,"is_reserved":false,"is_disabled":false,"rental_uris":{"android":"levelo://app?vid=8f16ac6f-a8d7-4472-8174-fdf1a7e66d17","ios":"levelo://app?vid=8f16ac6f-a8d7-4472-8174-fdf1a7e66d17"},"vehicle_type_id":"4","last_reported":1701421661,"current_range_meters":31200,"station_id":"ce4bgn92rcd13ifvqbvg","pricing_plan_id":"free"},{"bike_id":"748c29bb-d2e3-4519-b63a-4c8242bea451","system_id":"levelo_inurba_marseille","lat":43.30909,"lon":5.36842,"is_reserved":false,"is_disabled":false,"rental_uris":{"android":"levelo://app?vid=748c29bb-d2e3-4519-b63a-4c8242bea451","ios":"levelo://app?vid=748c29bb-d2e3-4519-b63a-4c8242bea451"},"vehicle_type_id":"4","last_reported":1701421661,"current_range_meters":22800,"station_id":"ce4bgn92rcd13ifvqbvg","pricing_plan_id":"free"},{"bike_id":"7c0f5ca9-b27f-4b66-b1d4-a0204ffbb399","system_id":"levelo_inurba_marseille","lat":43.309076,"lon":5.368465,"is_reserved":false,"is_disabled":false,"rental_uris":{"android":"levelo://app?vid=7c0f5ca9-b27f-4b66-b1d4-a0204ffbb399","ios":"levelo://app?vid=7c0f5ca9-b27f-4b66-b1d4-a0204ffbb399"},"vehicle_type_id":"4","last_reported":1701421661,"current_range_meters":30000,"station_id":"ce4bgn92rcd13ifvqbvg","pricing_plan_id":"free"},{"bike_id":"85ebfaaa-3017-45f3-906e-a6c2319c069c","system_id":"levelo_inurba_marseille","lat":43.30873,"lon":5.36861,"is_reserved":false,"is_disabled":false,"rental_uris":{"android":"levelo://app?vid=85ebfaaa-3017-45f3-906e-a6c2319c069c","ios":"levelo://app?vid=85ebfaaa-3017-45f3-906e-a6c2319c069c"},"vehicle_type_id":"4","last_reported":1701421661,"current_range_meters":11200,"station_id":"ce4bgn92rcd13ifvqbvg","pricing_plan_id":"free"},{"bike_id":"1d139042-1941-4d0f-bc0f-0a38f8cd266d","system_id":"levelo_inurba_marseille","lat":43.305712,"lon":5.365641,"is_reserved":false,"is_disabled":false,"rental_uris":{"android":"levelo://app?vid=1d139042-1941-4d0f-bc0f-0a38f8cd266d","ios":"levelo://app?vid=1d139042-1941-4d0f-bc0f-0a38f8cd266d"},"vehicle_type_id":"4","last_reported":1701421661,"current_range_meters":18000,"station_id":"ce4bgs12rcd13ifvqcag","pricing_plan_id":"free"},{"bike_id":"ed386124-7dd8-4fe0-b29b-5b2784f2bfcc","system_id":"levelo_inurba_marseille","lat":43.305712,"lon":5.365641,"is_reserved":false,"is_disabled":false,"rental_uris":{"android":"levelo://app?vid=ed386124-7dd8-4fe0-b29b-5b2784f2bfcc","ios":"levelo://app?vid=ed386124-7dd8-4fe0-b29b-5b2784f2bfcc"},"vehicle_type_id":"4","last_reported":1701421661,"current_range_meters":6000,"station_id":"ce4bgs12rcd13ifvqcag","pricing_plan_id":"free"},{"bike_id":"652bdf15-0322-4e94-9c8d-7cd42baef8a6","system_id":"levelo_inurba_marseille","lat":43.305714,"lon":5.365633,"is_reserved":false,"is_disabled":false,"rental_uris":{"android":"levelo://app?vid=652bdf15-0322-4e94-9c8d-7cd42baef8a6","ios":"levelo://app?vid=652bdf15-0322-4e94-9c8d-7cd42baef8a6"},"vehicle_type_id":"4","last_reported":1701421661,"current_range_meters":18000,"station_id":"ce4bgs12rcd13ifvqcag","pricing_plan_id":"free"},{"bike_id":"e8610a3e-8f46-49f3-82a1-c01c20430d0c","system_id":"levelo_inurba_marseille","lat":43.305714,"lon":5.365633,"is_reserved":false,"is_disabled":false,"rental_uris":{"android":"levelo://app?vid=e8610a3e-8f46-49f3-82a1-c01c20430d0c","ios":"levelo://app?vid=e8610a3e-8f46-49f3-82a1-c01c20430d0c"},"vehicle_type_id":"4","last_reported":1701421661,"current_range_meters":19600,"station_id":"ce4bgs12rcd13ifvqcag","pricing_plan_id":"free"},{"bike_id":"3ed42a43-d2b2-4453-8681-8ff3b266458f","system_id":"levelo_inurba_marseille","lat":43.305714,"lon":5.365633,"is_reserved":false,"is_disabled":false,"rental_uris":{"android":"levelo://app?vid=3ed42a43-d2b2-4453-8681-8ff3b266458f","ios":"levelo://app?vid=3ed42a43-d2b2-4453-8681-8ff3b266458f"},"vehicle_type_id":"4","last_reported":1701421661,"current_range_meters":21200,"station_id":"ce4bgs12rcd13ifvqcag","pricing_plan_id":"free"},{"bike_id":"0d95668a-92f3-4148-bb80-591db9de0e00","system_id":"levelo_inurba_marseille","lat":43.305714,"lon":5.365633,"is_reserved":false,"is_disabled":false,"rental_uris":{"android":"levelo://app?vid=0d95668a-92f3-4148-bb80-591db9de0e00","ios":"levelo://app?vid=0d95668a-92f3-4148-bb80-591db9de0e00"},"vehicle_type_id":"4","last_reported":1701421661,"current_range_meters":23200,"station_id":"ce4bgs12rcd13ifvqcag","pricing_plan_id":"free"},{"bike_id":"3b24f21f-f1f7-4d99-afea-2fa584e3d664","system_id":"levelo_inurba_marseille","lat":43.305706,"lon":5.365654,"is_reserved":false,"is_disabled":false,"rental_uris":{"android":"levelo://app?vid=3b24f21f-f1f7-4d99-afea-2fa584e3d664","ios":"levelo://app?vid=3b24f21f-f1f7-4d99-afea-2fa584e3d664"},"vehicle_type_id":"4","last_reported":1701421661,"current_range_meters":30800,"station_id":"ce4bgs12rcd13ifvqcag","pricing_plan_id":"free"},{"bike_id":"081fc797-391d-4f24-9d91-ced3a512d87e","system_id":"levelo_inurba_marseille","lat":43.305706,"lon":5.365654,"is_reserved":false,"is_disabled":false,"rental_uris":{"android":"levelo://app?vid=081fc797-391d-4f24-9d91-ced3a512d87e","ios":"levelo://app?vid=081fc797-391d-4f24-9d91-ced3a512d87e"},"vehicle_type_id":"4","last_reported":1701421661,"current_range_meters":29200,"station_id":"ce4bgs12rcd13ifvqcag","pricing_plan_id":"free"},{"bike_id":"9204e4e9-9259-4b00-af32-cf1621761ebb","system_id":"levelo_inurba_marseille","lat":43.305706,"lon":5.365654,"is_reserved":false,"is_disabled":false,"rental_uris":{"android":"levelo://app?vid=9204e4e9-9259-4b00-af32-cf1621761ebb","ios":"levelo://app?vid=9204e4e9-9259-4b00-af32-cf1621761ebb"},"vehicle_type_id":"4","last_reported":1701421661,"current_range_meters":30400,"station_id":"ce4bgs12rcd13ifvqcag","pricing_plan_id":"free"},{"bike_id":"7e183eb7-5d38-485e-89b1-0571194ec53c","system_id":"levelo_inurba_marseille","lat":43.305989,"lon":5.37225,"is_reserved":false,"is_disabled":false,"rental_uris":{"android":"levelo://app?vid=7e183eb7-5d38-485e-89b1-0571194ec53c","ios":"levelo://app?vid=7e183eb7-5d38-485e-89b1-0571194ec53c"},"vehicle_type_id":"4","last_reported":1701421661,"current_range_meters":12400,"station_id":"ce4bgqh2rcd13ifvqc4g","pricing_plan_id":"free"},{"bike_id":"7bdbcfe9-924e-49e5-849f-fb7276f261aa","system_id":"levelo_inurba_marseille","lat":43.310527,"lon":5.377467,"is_reserved":false,"is_disabled":false,"rental_uris":{"android":"levelo://app?vid=7bdbcfe9-924e-49e5-849f-fb7276f261aa","ios":"levelo://app?vid=7bdbcfe9-924e-49e5-849f-fb7276f261aa"},"vehicle_type_id":"4","last_reported":1701421661,"current_range_meters":11600,"station_id":"","pricing_plan_id":"free"},{"bike_id":"727d231a-d425-4d8f-ad3f-99b5a47572e8","system_id":"levelo_inurba_marseille","lat":43.30439,"lon":5.36753,"is_reserved":false,"is_disabled":false,"rental_uris":{"android":"levelo://app?vid=727d231a-d425-4d8f-ad3f-99b5a47572e8","ios":"levelo://app?vid=727d231a-d425-4d8f-ad3f-99b5a47572e8"},"vehicle_type_id":"4","last_reported":1701421661,"current_range_meters":28800,"station_id":"","pricing_plan_id":"free"},{"bike_id":"f427a2c3-6e4a-446b-ae2f-9be8aa7f4122","system_id":"levelo_inurba_marseille","lat":43.31719,"lon":5.376813,"is_reserved":false,"is_disabled":false,"rental_uris":{"android":"levelo://app?vid=f427a2c3-6e4a-446b-ae2f-9be8aa7f4122","ios":"levelo://app?vid=f427a2c3-6e4a-446b-ae2f-9be8aa7f4122"},"vehicle_type_id":"4","last_reported":1701421661,"current_range_meters":2400,"station_id":"","pricing_plan_id":"free"},{"bike_id":"313b4b36-a520-4431-9fd4-cfd1a75e632d","system_id":"levelo_inurba_marseille","lat":43.307945,"lon":5.376487,"is_reserved":false,"is_disabled":false,"rental_uris":{"android":"levelo://app?vid=313b4b36-a520-4431-9fd4-cfd1a75e632d","ios":"levelo://app?vid=313b4b36-a520-4431-9fd4-cfd1a75e632d"},"vehicle_type_id":"4","last_reported":1701421661,"current_range_meters":16800,"station_id":"ce4bgv92rcd13ifvqcq0","pricing_plan_id":"free"},{"bike_id":"81e00612-d784-41f6-b75c-a6db07e72e2a","system_id":"levelo_inurba_marseille","lat":43.307945,"lon":5.376487,"is_reserved":false,"is_disabled":false,"rental_uris":{"android":"levelo://app?vid=81e00612-d784-41f6-b75c-a6db07e72e2a","ios":"levelo://app?vid=81e00612-d784-41f6-b75c-a6db07e72e2a"},"vehicle_type_id":"4","last_reported":1701421661,"current_range_meters":26000,"station_id":"ce4bgv92rcd13ifvqcq0","pricing_plan_id":"free"},{"bike_id":"e913f328-1e31-4c22-bd87-f809ea246de4","system_id":"levelo_inurba_marseille","lat":43.317168,"lon":5.376883,"is_reserved":false,"is_disabled":false,"rental_uris":{"android":"levelo://app?vid=e913f328-1e31-4c22-bd87-f809ea246de4","ios":"levelo://app?vid=e913f328-1e31-4c22-bd87-f809ea246de4"},"vehicle_type_id":"4","last_reported":1701421661,"current_range_meters":4800,"station_id":"","pricing_plan_id":"free"},{"bike_id":"ec9c93c2-13ee-4495-9d4d-4ccc05c2e8a3","system_id":"levelo_inurba_marseille","lat":43.31525,"lon":5.38034,"is_reserved":false,"is_disabled":false,"rental_uris":{"android":"levelo://app?vid=ec9c93c2-13ee-4495-9d4d-4ccc05c2e8a3","ios":"levelo://app?vid=ec9c93c2-13ee-4495-9d4d-4ccc05c2e8a3"},"vehicle_type_id":"4","last_reported":1701421661,"current_range_meters":22800,"station_id":"ce4bhsp2rcd13ifvqi50","pricing_plan_id":"free"},{"bike_id":"a353da53-2844-47b1-b7b8-563a86bb4f14","system_id":"levelo_inurba_marseille","lat":43.315293,"lon":5.380349,"is_reserved":false,"is_disabled":false,"rental_uris":{"android":"levelo://app?vid=a353da53-2844-47b1-b7b8-563a86bb4f14","ios":"levelo://app?vid=a353da53-2844-47b1-b7b8-563a86bb4f14"},"vehicle_type_id":"4","last_reported":1701421661,"current_range_meters":21200,"station_id":"ce4bhsp2rcd13ifvqi50","pricing_plan_id":"free"},{"bike_id":"53406de0-5969-4d6c-9f4e-6d08cd6ae579","system_id":"levelo_inurba_marseille","lat":43.301939,"lon":5.366286,"is_reserved":false,"is_disabled":false,"rental_uris":{"android":"levelo://app?vid=53406de0-5969-4d6c-9f4e-6d08cd6ae579","ios":"levelo://app?vid=53406de0-5969-4d6c-9f4e-6d08cd6ae579"},"vehicle_type_id":"4","last_reported":1701421661,"current_range_meters":26000,"station_id":"ce4bgrh2rcd13ifvqc8g","pricing_plan_id":"free"},{"bike_id":"0a4eef0b-11db-4a2a-b6a4-eb378cea2054","system_id":"levelo_inurba_marseille","lat":43.308012,"lon":5.381511,"is_reserved":false,"is_disabled":false,"rental_uris":{"android":"levelo://app?vid=0a4eef0b-11db-4a2a-b6a4-eb378cea2054","ios":"levelo://app?vid=0a4eef0b-11db-4a2a-b6a4-eb378cea2054"},"vehicle_type_id":"4","last_reported":1701421661,"current_range_meters":12400,"station_id":"ce4bgt12rcd13ifvqce0","pricing_plan_id":"free"},{"bike_id":"2071466f-0994-47bd-b9b3-be682dce6650","system_id":"levelo_inurba_marseille","lat":43.308012,"lon":5.381511,"is_reserved":false,"is_disabled":false,"rental_uris":{"android":"levelo://app?vid=2071466f-0994-47bd-b9b3-be682dce6650","ios":"levelo://app?vid=2071466f-0994-47bd-b9b3-be682dce6650"},"vehicle_type_id":"4","last_reported":1701421661,"current_range_meters":18000,"station_id":"ce4bgt12rcd13ifvqce0","pricing_plan_id":"free"},{"bike_id":"1932ab06-fb6e-47f1-aa56-3cea82223447","system_id":"levelo_inurba_marseille","lat":43.308012,"lon":5.381511,"is_reserved":false,"is_disabled":false,"rental_uris":{"android":"levelo://app?vid=1932ab06-fb6e-47f1-aa56-3cea82223447","ios":"levelo://app?vid=1932ab06-fb6e-47f1-aa56-3cea82223447"},"vehicle_type_id":"4","last_reported":1701421661,"current_range_meters":28400,"station_id":"ce4bgt12rcd13ifvqce0","pricing_plan_id":"free"},{"bike_id":"c59fb6ba-ac4c-46c5-8aac-5287d4ca04d6","system_id":"levelo_inurba_marseille","lat":43.304606,"lon":5.379026,"is_reserved":false,"is_disabled":false,"rental_uris":{"android":"levelo://app?vid=c59fb6ba-ac4c-46c5-8aac-5287d4ca04d6","ios":"levelo://app?vid=c59fb6ba-ac4c-46c5-8aac-5287d4ca04d6"},"vehicle_type_id":"4","last_reported":1701421661,"current_range_meters":14800,"station_id":"ce4bgup2rcd13ifvqcn0","pricing_plan_id":"free"},{"bike_id":"496ee3c2-cd99-4d3c-8c3a-2223c718429a","system_id":"levelo_inurba_marseille","lat":43.304606,"lon":5.379026,"is_reserved":false,"is_disabled":false,"rental_uris":{"android":"levelo://app?vid=496ee3c2-cd99-4d3c-8c3a-2223c718429a","ios":"levelo://app?vid=496ee3c2-cd99-4d3c-8c3a-2223c718429a"},"vehicle_type_id":"4","last_reported":1701421661,"current_range_meters":19200,"station_id":"ce4bgup2rcd13ifvqcn0","pricing_plan_id":"free"},{"bike_id":"6a0a0bc5-e1c9-46f4-81b5-1f2922e8b642","system_id":"levelo_inurba_marseille","lat":43.304606,"lon":5.379026,"is_reserved":false,"is_disabled":false,"rental_uris":{"android":"levelo://app?vid=6a0a0bc5-e1c9-46f4-81b5-1f2922e8b642","ios":"levelo://app?vid=6a0a0bc5-e1c9-46f4-81b5-1f2922e8b642"},"vehicle_type_id":"4","last_reported":1701421661,"current_range_meters":8000,"station_id":"ce4bgup2rcd13ifvqcn0","pricing_plan_id":"free"},{"bike_id":"09e01f44-f909-4852-ba39-6eedd97688e1","system_id":"levelo_inurba_marseille","lat":43.301429,"lon":5.37413,"is_reserved":false,"is_disabled":false,"rental_uris":{"android":"levelo://app?vid=09e01f44-f909-4852-ba39-6eedd97688e1","ios":"levelo://app?vid=09e01f44-f909-4852-ba39-6eedd97688e1"},"vehicle_type_id":"4","last_reported":1701421661,"current_range_meters":21600,"station_id":"ce4bgs92rcd13ifvqcc0","pricing_plan_id":"free"},{"bike_id":"0007c01c-a7cf-47cc-b942-ed6a1818dd46","system_id":"levelo_inurba_marseille","lat":43.301429,"lon":5.37413,"is_reserved":false,"is_disabled":false,"rental_uris":{"android":"levelo://app?vid=0007c01c-a7cf-47cc-b942-ed6a1818dd46","ios":"levelo://app?vid=0007c01c-a7cf-47cc-b942-ed6a1818dd46"},"vehicle_type_id":"4","last_reported":1701421661,"current_range_meters":26400,"station_id":"ce4bgs92rcd13ifvqcc0","pricing_plan_id":"free"},{"bike_id":"2275aca5-3158-4c2c-8022-ca5d2714bc86","system_id":"levelo_inurba_marseille","lat":43.319997,"lon":5.381594,"is_reserved":false,"is_disabled":false,"rental_uris":{"android":"levelo://app?vid=2275aca5-3158-4c2c-8022-ca5d2714bc86","ios":"levelo://app?vid=2275aca5-3158-4c2c-8022-ca5d2714bc86"},"vehicle_type_id":"4","last_reported":1701421661,"current_range_meters":19600,"station_id":"ce4bhr12rcd13ifvqhpg","pricing_plan_id":"free"},{"bike_id":"748d12ab-8e09-4ecd-b2d2-cbe0ea9624f6","system_id":"levelo_inurba_marseille","lat":43.29851,"lon":5.36759,"is_reserved":false,"is_disabled":false,"rental_uris":{"android":"levelo://app?vid=748d12ab-8e09-4ecd-b2d2-cbe0ea9624f6","ios":"levelo://app?vid=748d12ab-8e09-4ecd-b2d2-cbe0ea9624f6"},"vehicle_type_id":"4","last_reported":1701421661,"current_range_meters":11600,"station_id":"","pricing_plan_id":"free"},{"bike_id":"4630c308-79d1-4a34-9681-6085cd478ee0","system_id":"levelo_inurba_marseille","lat":43.305364,"lon":5.384119,"is_reserved":false,"is_disabled":false,"rental_uris":{"android":"levelo://app?vid=4630c308-79d1-4a34-9681-6085cd478ee0","ios":"levelo://app?vid=4630c308-79d1-4a34-9681-6085cd478ee0"},"vehicle_type_id":"4","last_reported":1701421661,"current_range_meters":17200,"station_id":"ce4bgg92rcd13ifvqb30","pricing_plan_id":"free"},{"bike_id":"563e0b30-3b22-4c22-bac9-311f949b4d19","system_id":"levelo_inurba_marseille","lat":43.298433,"lon":5.362774,"is_reserved":false,"is_disabled":false,"rental_uris":{"android":"levelo://app?vid=563e0b30-3b22-4c22-bac9-311f949b4d19","ios":"levelo://app?vid=563e0b30-3b22-4c22-bac9-311f949b4d19"},"vehicle_type_id":"4","last_reported":1701421661,"current_range_meters":28000,"station_id":"ce4bgpp2rcd13ifvqc3g","pricing_plan_id":"free"},{"bike_id":"560a76f9-f8fd-41e8-a90a-b159fdbd95d5","system_id":"levelo_inurba_marseille","lat":43.298433,"lon":5.362774,"is_reserved":false,"is_disabled":false,"rental_uris":{"android":"levelo://app?vid=560a76f9-f8fd-41e8-a90a-b159fdbd95d5","ios":"levelo://app?vid=560a76f9-f8fd-41e8-a90a-b159fdbd95d5"},"vehicle_type_id":"4","last_reported":1701421661,"current_range_meters":27600,"station_id":"ce4bgpp2rcd13ifvqc3g","pricing_plan_id":"free"},{"bike_id":"d2abccd0-3a2e-4cdd-b882-c28549dd88fc","system_id":"levelo_inurba_marseille","lat":43.298433,"lon":5.362774,"is_reserved":false,"is_disabled":false,"rental_uris":{"android":"levelo://app?vid=d2abccd0-3a2e-4cdd-b882-c28549dd88fc","ios":"levelo://app?vid=d2abccd0-3a2e-4cdd-b882-c28549dd88fc"},"vehicle_type_id":"4","last_reported":1701421661,"current_range_meters":30000,"station_id":"ce4bgpp2rcd13ifvqc3g","pricing_plan_id":"free"},{"bike_id":"4c06f9be-7b97-4bdb-a530-fa10b066c687","system_id":"levelo_inurba_marseille","lat":43.298433,"lon":5.362774,"is_reserved":false,"is_disabled":false,"rental_uris":{"android":"levelo://app?vid=4c06f9be-7b97-4bdb-a530-fa10b066c687","ios":"levelo://app?vid=4c06f9be-7b97-4bdb-a530-fa10b066c687"},"vehicle_type_id":"4","last_reported":1701421661,"current_range_meters":27600,"station_id":"ce4bgpp2rcd13ifvqc3g","pricing_plan_id":"free"},{"bike_id":"d5e556ee-06fc-43e1-a28b-8bf38f81733e","system_id":"levelo_inurba_marseille","lat":43.311722,"lon":5.387247,"is_reserved":false,"is_disabled":false,"rental_uris":{"android":"levelo://app?vid=d5e556ee-06fc-43e1-a28b-8bf38f81733e","ios":"levelo://app?vid=d5e556ee-06fc-43e1-a28b-8bf38f81733e"},"vehicle_type_id":"4","last_reported":1701421661,"current_range_meters":30000,"station_id":"ce4bgv12rcd13ifvqcp0","pricing_plan_id":"free"},{"bike_id":"099bd819-dd49-4ee1-bc8b-53dae12992de","system_id":"levelo_inurba_marseille","lat":43.299243,"lon":5.37481,"is_reserved":false,"is_disabled":false,"rental_uris":{"android":"levelo://app?vid=099bd819-dd49-4ee1-bc8b-53dae12992de","ios":"levelo://app?vid=099bd819-dd49-4ee1-bc8b-53dae12992de"},"vehicle_type_id":"4","last_reported":1701421661,"current_range_meters":7600,"station_id":"ce4bgjh2rcd13ifvqbg0","pricing_plan_id":"free"},{"bike_id":"aebb5f1f-3a1e-4323-a4f0-ae83e0b78d14","system_id":"levelo_inurba_marseille","lat":43.327603,"lon":5.36705,"is_reserved":false,"is_disabled":false,"rental_uris":{"android":"levelo://app?vid=aebb5f1f-3a1e-4323-a4f0-ae83e0b78d14","ios":"levelo://app?vid=aebb5f1f-3a1e-4323-a4f0-ae83e0b78d14"},"vehicle_type_id":"4","last_reported":1701421661,"current_range_meters":21200,"station_id":"","pricing_plan_id":"free"},{"bike_id":"c4d76982-39c2-41bf-95d5-494400c210ce","system_id":"levelo_inurba_marseille","lat":43.322872,"lon":5.382756,"is_reserved":false,"is_disabled":false,"rental_uris":{"android":"levelo://app?vid=c4d76982-39c2-41bf-95d5-494400c210ce","ios":"levelo://app?vid=c4d76982-39c2-41bf-95d5-494400c210ce"},"vehicle_type_id":"4","last_reported":1701421661,"current_range_meters":13600,"station_id":"ce4bhr12rcd13ifvqhqg","pricing_plan_id":"free"},{"bike_id":"2484d89c-f06b-463b-bfb4-4415361ed078","system_id":"levelo_inurba_marseille","lat":43.328371,"lon":5.366909,"is_reserved":false,"is_disabled":false,"rental_uris":{"android":"levelo://app?vid=2484d89c-f06b-463b-bfb4-4415361ed078","ios":"levelo://app?vid=2484d89c-f06b-463b-bfb4-4415361ed078"},"vehicle_type_id":"4","last_reported":1701421661,"current_range_meters":20400,"station_id":"ce4bhs92rcd13ifvqi0g","pricing_plan_id":"free"},{"bike_id":"5d8be921-49e4-458f-9d05-565e78cd0448","system_id":"levelo_inurba_marseille","lat":43.297163,"lon":5.365866,"is_reserved":false,"is_disabled":false,"rental_uris":{"android":"levelo://app?vid=5d8be921-49e4-458f-9d05-565e78cd0448","ios":"levelo://app?vid=5d8be921-49e4-458f-9d05-565e78cd0448"},"vehicle_type_id":"4","last_reported":1701421661,"current_range_meters":6800,"station_id":"ce4bgn12rcd13ifvqbt0","pricing_plan_id":"free"},{"bike_id":"0e259d32-c123-4b0f-8020-5b3edf795cde","system_id":"levelo_inurba_marseille","lat":43.297163,"lon":5.365866,"is_reserved":false,"is_disabled":false,"rental_uris":{"android":"levelo://app?vid=0e259d32-c123-4b0f-8020-5b3edf795cde","ios":"levelo://app?vid=0e259d32-c123-4b0f-8020-5b3edf795cde"},"vehicle_type_id":"4","last_reported":1701421661,"current_range_meters":24800,"station_id":"ce4bgn12rcd13ifvqbt0","pricing_plan_id":"free"},{"bike_id":"189a0943-83c4-4d4e-a324-3b5a36ac2944","system_id":"levelo_inurba_marseille","lat":43.29712,"lon":5.36618,"is_reserved":false,"is_disabled":false,"rental_uris":{"android":"levelo://app?vid=189a0943-83c4-4d4e-a324-3b5a36ac2944","ios":"levelo://app?vid=189a0943-83c4-4d4e-a324-3b5a36ac2944"},"vehicle_type_id":"4","last_reported":1701421661,"current_range_meters":17600,"station_id":"ce4bgn12rcd13ifvqbt0","pricing_plan_id":"free"},{"bike_id":"5983625d-69f5-485f-a399-daec2999c965","system_id":"levelo_inurba_marseille","lat":43.321542,"lon":5.385716,"is_reserved":false,"is_disabled":false,"rental_uris":{"android":"levelo://app?vid=5983625d-69f5-485f-a399-daec2999c965","ios":"levelo://app?vid=5983625d-69f5-485f-a399-daec2999c965"},"vehicle_type_id":"4","last_reported":1701421661,"current_range_meters":7200,"station_id":"","pricing_plan_id":"free"},{"bike_id":"76b6d16b-b40d-4238-9bcd-d112ec59c279","system_id":"levelo_inurba_marseille","lat":43.2968,"lon":5.37291,"is_reserved":false,"is_disabled":false,"rental_uris":{"android":"levelo://app?vid=76b6d16b-b40d-4238-9bcd-d112ec59c279","ios":"levelo://app?vid=76b6d16b-b40d-4238-9bcd-d112ec59c279"},"vehicle_type_id":"4","last_reported":1701421661,"current_range_meters":28800,"station_id":"ce4bgk12rcd13ifvqbj0","pricing_plan_id":"free"},{"bike_id":"d068864e-3768-4cb7-8f2c-e01febcf4d60","system_id":"levelo_inurba_marseille","lat":43.29615,"lon":5.36513,"is_reserved":false,"is_disabled":false,"rental_uris":{"android":"levelo://app?vid=d068864e-3768-4cb7-8f2c-e01febcf4d60","ios":"levelo://app?vid=d068864e-3768-4cb7-8f2c-e01febcf4d60"},"vehicle_type_id":"4","last_reported":1701421661,"current_range_meters":8400,"station_id":"","pricing_plan_id":"free"},{"bike_id":"26cf3758-299b-48bb-98fa-485d3585e351","system_id":"levelo_inurba_marseille","lat":43.296129,"lon":5.370777,"is_reserved":false,"is_disabled":false,"rental_uris":{"android":"levelo://app?vid=26cf3758-299b-48bb-98fa-485d3585e351","ios":"levelo://app?vid=26cf3758-299b-48bb-98fa-485d3585e351"},"vehicle_type_id":"4","last_reported":1701421661,"current_range_meters":20400,"station_id":"ce4bgnh2rcd13ifvqc0g","pricing_plan_id":"free"},{"bike_id":"94c23c3e-b7d5-41a4-aaec-c62b482de63c","system_id":"levelo_inurba_marseille","lat":43.299028,"lon":5.381509,"is_reserved":false,"is_disabled":false,"rental_uris":{"android":"levelo://app?vid=94c23c3e-b7d5-41a4-aaec-c62b482de63c","ios":"levelo://app?vid=94c23c3e-b7d5-41a4-aaec-c62b482de63c"},"vehicle_type_id":"4","last_reported":1701421661,"current_range_meters":18400,"station_id":"ce4bgj12rcd13ifvqbc0","pricing_plan_id":"free"},{"bike_id":"139c4a6f-ce9e-41fb-b619-c4a618220f34","system_id":"levelo_inurba_marseille","lat":43.309589,"lon":5.390258,"is_reserved":false,"is_disabled":false,"rental_uris":{"android":"levelo://app?vid=139c4a6f-ce9e-41fb-b619-c4a618220f34","ios":"levelo://app?vid=139c4a6f-ce9e-41fb-b619-c4a618220f34"},"vehicle_type_id":"4","last_reported":1701421661,"current_range_meters":13200,"station_id":"ce4bgup2rcd13ifvqco0","pricing_plan_id":"free"},{"bike_id":"705e488e-5376-4523-adc1-94f214a47040","system_id":"levelo_inurba_marseille","lat":43.298037,"lon":5.381066,"is_reserved":false,"is_disabled":false,"rental_uris":{"android":"levelo://app?vid=705e488e-5376-4523-adc1-94f214a47040","ios":"levelo://app?vid=705e488e-5376-4523-adc1-94f214a47040"},"vehicle_type_id":"4","last_reported":1701421661,"current_range_meters":15200,"station_id":"ce4bgip2rcd13ifvqbb0","pricing_plan_id":"free"},{"bike_id":"85d2122c-6070-4518-bc7d-f6fce52fa983","system_id":"levelo_inurba_marseille","lat":43.29571,"lon":5.375295,"is_reserved":false,"is_disabled":false,"rental_uris":{"android":"levelo://app?vid=85d2122c-6070-4518-bc7d-f6fce52fa983","ios":"levelo://app?vid=85d2122c-6070-4518-bc7d-f6fce52fa983"},"vehicle_type_id":"4","last_reported":1701421661,"current_range_meters":1200,"station_id":"ce4bgk12rcd13ifvqbi0","pricing_plan_id":"free"},{"bike_id":"947de92a-194b-42b6-8ef6-6b15bd481f80","system_id":"levelo_inurba_marseille","lat":43.298037,"lon":5.381066,"is_reserved":false,"is_disabled":false,"rental_uris":{"android":"levelo://app?vid=947de92a-194b-42b6-8ef6-6b15bd481f80","ios":"levelo://app?vid=947de92a-194b-42b6-8ef6-6b15bd481f80"},"vehicle_type_id":"4","last_reported":1701421661,"current_range_meters":21600,"station_id":"ce4bgip2rcd13ifvqbb0","pricing_plan_id":"free"},{"bike_id":"6c8f3ebf-5561-432f-a04e-3826d7080cd2","system_id":"levelo_inurba_marseille","lat":43.298037,"lon":5.381066,"is_reserved":false,"is_disabled":false,"rental_uris":{"android":"levelo://app?vid=6c8f3ebf-5561-432f-a04e-3826d7080cd2","ios":"levelo://app?vid=6c8f3ebf-5561-432f-a04e-3826d7080cd2"},"vehicle_type_id":"4","last_reported":1701421661,"current_range_meters":15600,"station_id":"ce4bgip2rcd13ifvqbb0","pricing_plan_id":"free"},{"bike_id":"df951581-166c-4bb3-9cc3-e82086d0ece2","system_id":"levelo_inurba_marseille","lat":43.299717,"lon":5.384845,"is_reserved":false,"is_disabled":false,"rental_uris":{"android":"levelo://app?vid=df951581-166c-4bb3-9cc3-e82086d0ece2","ios":"levelo://app?vid=df951581-166c-4bb3-9cc3-e82086d0ece2"},"vehicle_type_id":"4","last_reported":1701421661,"current_range_meters":20800,"station_id":"ce4bgj92rcd13ifvqbd0","pricing_plan_id":"free"},{"bike_id":"eaa0e7e7-2390-47fa-909b-7b240952cbef","system_id":"levelo_inurba_marseille","lat":43.319472,"lon":5.392167,"is_reserved":false,"is_disabled":false,"rental_uris":{"android":"levelo://app?vid=eaa0e7e7-2390-47fa-909b-7b240952cbef","ios":"levelo://app?vid=eaa0e7e7-2390-47fa-909b-7b240952cbef"},"vehicle_type_id":"4","last_reported":1701421661,"current_range_meters":18800,"station_id":"","pricing_plan_id":"free"},{"bike_id":"d7c26972-4d89-4c0d-a8dc-2d353f1f86c4","system_id":"levelo_inurba_marseille","lat":43.292749,"lon":5.368402,"is_reserved":false,"is_disabled":false,"rental_uris":{"android":"levelo://app?vid=d7c26972-4d89-4c0d-a8dc-2d353f1f86c4","ios":"levelo://app?vid=d7c26972-4d89-4c0d-a8dc-2d353f1f86c4"},"vehicle_type_id":"4","last_reported":1701421661,"current_range_meters":20000,"station_id":"ce4bhbp2rcd13ifvqesg","pricing_plan_id":"free"},{"bike_id":"d780de7c-66ef-4e70-8164-66f3bddecfc8","system_id":"levelo_inurba_marseille","lat":43.29307,"lon":5.37178,"is_reserved":false,"is_disabled":false,"rental_uris":{"android":"levelo://app?vid=d780de7c-66ef-4e70-8164-66f3bddecfc8","ios":"levelo://app?vid=d780de7c-66ef-4e70-8164-66f3bddecfc8"},"vehicle_type_id":"4","last_reported":1701421661,"current_range_meters":24400,"station_id":"ce4bgh92rcd13ifvqb40","pricing_plan_id":"free"},{"bike_id":"c33e73c5-cb5c-4600-8ad0-5a6a8e53a908","system_id":"levelo_inurba_marseille","lat":43.293009,"lon":5.374584,"is_reserved":false,"is_disabled":false,"rental_uris":{"android":"levelo://app?vid=c33e73c5-cb5c-4600-8ad0-5a6a8e53a908","ios":"levelo://app?vid=c33e73c5-cb5c-4600-8ad0-5a6a8e53a908"},"vehicle_type_id":"4","last_reported":1701421661,"current_range_meters":12800,"station_id":"ce4bgi12rcd13ifvqb70","pricing_plan_id":"free"},{"bike_id":"8612176b-996b-4bad-bc8b-e2c943b6326d","system_id":"levelo_inurba_marseille","lat":43.302992,"lon":5.392136,"is_reserved":false,"is_disabled":false,"rental_uris":{"android":"levelo://app?vid=8612176b-996b-4bad-bc8b-e2c943b6326d","ios":"levelo://app?vid=8612176b-996b-4bad-bc8b-e2c943b6326d"},"vehicle_type_id":"4","last_reported":1701421661,"current_range_meters":20800,"station_id":"ce4bgkh2rcd13ifvqbk0","pricing_plan_id":"free"},{"bike_id":"cbc924af-d88a-4903-a9fc-7cee38299880","system_id":"levelo_inurba_marseille","lat":43.2936,"lon":5.37835,"is_reserved":false,"is_disabled":false,"rental_uris":{"android":"levelo://app?vid=cbc924af-d88a-4903-a9fc-7cee38299880","ios":"levelo://app?vid=cbc924af-d88a-4903-a9fc-7cee38299880"},"vehicle_type_id":"4","last_reported":1701421661,"current_range_meters":27600,"station_id":"ce4bgjh2rcd13ifvqbf0","pricing_plan_id":"free"},{"bike_id":"ec4fbd8c-6315-4a80-b8f7-79a4e57820d9","system_id":"levelo_inurba_marseille","lat":43.2936,"lon":5.37835,"is_reserved":false,"is_disabled":false,"rental_uris":{"android":"levelo://app?vid=ec4fbd8c-6315-4a80-b8f7-79a4e57820d9","ios":"levelo://app?vid=ec4fbd8c-6315-4a80-b8f7-79a4e57820d9"},"vehicle_type_id":"4","last_reported":1701421661,"current_range_meters":13600,"station_id":"ce4bgjh2rcd13ifvqbf0","pricing_plan_id":"free"},{"bike_id":"f76aeba3-034d-460f-828b-68b91803406a","system_id":"levelo_inurba_marseille","lat":43.2936,"lon":5.37835,"is_reserved":false,"is_disabled":false,"rental_uris":{"android":"levelo://app?vid=f76aeba3-034d-460f-828b-68b91803406a","ios":"levelo://app?vid=f76aeba3-034d-460f-828b-68b91803406a"},"vehicle_type_id":"4","last_reported":1701421661,"current_range_meters":12400,"station_id":"ce4bgjh2rcd13ifvqbf0","pricing_plan_id":"free"},{"bike_id":"2e1c658b-a19e-4489-a827-896923bb10d9","system_id":"levelo_inurba_marseille","lat":43.292663,"lon":5.376394,"is_reserved":false,"is_disabled":false,"rental_uris":{"android":"levelo://app?vid=2e1c658b-a19e-4489-a827-896923bb10d9","ios":"levelo://app?vid=2e1c658b-a19e-4489-a827-896923bb10d9"},"vehicle_type_id":"4","last_reported":1701421661,"current_range_meters":27200,"station_id":"ce4bgi12rcd13ifvqb80","pricing_plan_id":"free"},{"bike_id":"bd73e8fd-d6f5-4744-9d85-195d675bc3d3","system_id":"levelo_inurba_marseille","lat":43.292663,"lon":5.376394,"is_reserved":false,"is_disabled":false,"rental_uris":{"android":"levelo://app?vid=bd73e8fd-d6f5-4744-9d85-195d675bc3d3","ios":"levelo://app?vid=bd73e8fd-d6f5-4744-9d85-195d675bc3d3"},"vehicle_type_id":"4","last_reported":1701421661,"current_range_meters":23600,"station_id":"ce4bgi12rcd13ifvqb80","pricing_plan_id":"free"},{"bike_id":"a8758ea3-9e7f-485b-bd36-c800844a1686","system_id":"levelo_inurba_marseille","lat":43.309047,"lon":5.396551,"is_reserved":false,"is_disabled":false,"rental_uris":{"android":"levelo://app?vid=a8758ea3-9e7f-485b-bd36-c800844a1686","ios":"levelo://app?vid=a8758ea3-9e7f-485b-bd36-c800844a1686"},"vehicle_type_id":"4","last_reported":1701421661,"current_range_meters":31600,"station_id":"ce4bh012rcd13ifvqcv0","pricing_plan_id":"free"},{"bike_id":"529033c8-18eb-4c41-a940-a15e09cae347","system_id":"levelo_inurba_marseille","lat":43.309038,"lon":5.396546,"is_reserved":false,"is_disabled":false,"rental_uris":{"android":"levelo://app?vid=529033c8-18eb-4c41-a940-a15e09cae347","ios":"levelo://app?vid=529033c8-18eb-4c41-a940-a15e09cae347"},"vehicle_type_id":"4","last_reported":1701421661,"current_range_meters":28800,"station_id":"ce4bh012rcd13ifvqcv0","pricing_plan_id":"free"},{"bike_id":"e117ec44-e551-4e66-a9e4-015359b21872","system_id":"levelo_inurba_marseille","lat":43.290327,"lon":5.375711,"is_reserved":false,"is_disabled":false,"rental_uris":{"android":"levelo://app?vid=e117ec44-e551-4e66-a9e4-015359b21872","ios":"levelo://app?vid=e117ec44-e551-4e66-a9e4-015359b21872"},"vehicle_type_id":"4","last_reported":1701421661,"current_range_meters":31600,"station_id":"ce4bh692rcd13ifvqe90","pricing_plan_id":"free"},{"bike_id":"ee3f1949-6fe5-47ee-aa1d-1444ada4d483","system_id":"levelo_inurba_marseille","lat":43.290327,"lon":5.375711,"is_reserved":false,"is_disabled":false,"rental_uris":{"android":"levelo://app?vid=ee3f1949-6fe5-47ee-aa1d-1444ada4d483","ios":"levelo://app?vid=ee3f1949-6fe5-47ee-aa1d-1444ada4d483"},"vehicle_type_id":"4","last_reported":1701421661,"current_range_meters":24000,"station_id":"ce4bh692rcd13ifvqe90","pricing_plan_id":"free"},{"bike_id":"3ae39e67-a55d-4fcf-a339-287ef7901132","system_id":"levelo_inurba_marseille","lat":43.294114,"lon":5.386185,"is_reserved":false,"is_disabled":false,"rental_uris":{"android":"levelo://app?vid=3ae39e67-a55d-4fcf-a339-287ef7901132","ios":"levelo://app?vid=3ae39e67-a55d-4fcf-a339-287ef7901132"},"vehicle_type_id":"4","last_reported":1701421661,"current_range_meters":18000,"station_id":"","pricing_plan_id":"free"},{"bike_id":"08683fc0-830a-4388-86c9-41575c9df980","system_id":"levelo_inurba_marseille","lat":43.294162,"lon":5.386292,"is_reserved":false,"is_disabled":false,"rental_uris":{"android":"levelo://app?vid=08683fc0-830a-4388-86c9-41575c9df980","ios":"levelo://app?vid=08683fc0-830a-4388-86c9-41575c9df980"},"vehicle_type_id":"4","last_reported":1701421661,"current_range_meters":20000,"station_id":"ce4bh2h2rcd13ifvqdh0","pricing_plan_id":"free"},{"bike_id":"da52637d-af1b-4e56-b9b4-240667f66155","system_id":"levelo_inurba_marseille","lat":43.292642,"lon":5.384254,"is_reserved":false,"is_disabled":false,"rental_uris":{"android":"levelo://app?vid=da52637d-af1b-4e56-b9b4-240667f66155","ios":"levelo://app?vid=da52637d-af1b-4e56-b9b4-240667f66155"},"vehicle_type_id":"4","last_reported":1701421661,"current_range_meters":0,"station_id":"ce4bh692rcd13ifvqea0","pricing_plan_id":"free"},{"bike_id":"853e939c-3f1f-4cd5-8aac-541078a774ef","system_id":"levelo_inurba_marseille","lat":43.290995,"lon":5.381361,"is_reserved":false,"is_disabled":false,"rental_uris":{"android":"levelo://app?vid=853e939c-3f1f-4cd5-8aac-541078a774ef","ios":"levelo://app?vid=853e939c-3f1f-4cd5-8aac-541078a774ef"},"vehicle_type_id":"4","last_reported":1701421661,"current_range_meters":28400,"station_id":"ce4bh512rcd13ifvqe2g","pricing_plan_id":"free"},{"bike_id":"fdc2fc9e-2f29-4c49-bcea-7a560d4446be","system_id":"levelo_inurba_marseille","lat":43.33044,"lon":5.38915,"is_reserved":false,"is_disabled":false,"rental_uris":{"android":"levelo://app?vid=fdc2fc9e-2f29-4c49-bcea-7a560d4446be","ios":"levelo://app?vid=fdc2fc9e-2f29-4c49-bcea-7a560d4446be"},"vehicle_type_id":"4","last_reported":1701421661,"current_range_meters":14000,"station_id":"ce4bhr92rcd13ifvqhrg","pricing_plan_id":"free"},{"bike_id":"f71bec80-1512-44cd-95d2-3d7fdee5df30","system_id":"levelo_inurba_marseille","lat":43.33045,"lon":5.38919,"is_reserved":false,"is_disabled":false,"rental_uris":{"android":"levelo://app?vid=f71bec80-1512-44cd-95d2-3d7fdee5df30","ios":"levelo://app?vid=f71bec80-1512-44cd-95d2-3d7fdee5df30"},"vehicle_type_id":"4","last_reported":1701421661,"current_range_meters":16800,"station_id":"ce4bhr92rcd13ifvqhrg","pricing_plan_id":"free"},{"bike_id":"778e09b3-de38-4557-87f6-235916ddfa72","system_id":"levelo_inurba_marseille","lat":43.290995,"lon":5.381361,"is_reserved":false,"is_disabled":false,"rental_uris":{"android":"levelo://app?vid=778e09b3-de38-4557-87f6-235916ddfa72","ios":"levelo://app?vid=778e09b3-de38-4557-87f6-235916ddfa72"},"vehicle_type_id":"4","last_reported":1701421661,"current_range_meters":28000,"station_id":"ce4bh512rcd13ifvqe2g","pricing_plan_id":"free"},{"bike_id":"433c11ae-8306-4bbf-850d-086e9b9b8b2e","system_id":"levelo_inurba_marseille","lat":43.2909,"lon":5.381212,"is_reserved":false,"is_disabled":false,"rental_uris":{"android":"levelo://app?vid=433c11ae-8306-4bbf-850d-086e9b9b8b2e","ios":"levelo://app?vid=433c11ae-8306-4bbf-850d-086e9b9b8b2e"},"vehicle_type_id":"4","last_reported":1701421661,"current_range_meters":15200,"station_id":"ce4bh512rcd13ifvqe2g","pricing_plan_id":"free"},{"bike_id":"a2c112a6-58e1-4e8b-8be8-80d2c9d8d3d7","system_id":"levelo_inurba_marseille","lat":43.31265,"lon":5.401699,"is_reserved":false,"is_disabled":false,"rental_uris":{"android":"levelo://app?vid=a2c112a6-58e1-4e8b-8be8-80d2c9d8d3d7","ios":"levelo://app?vid=a2c112a6-58e1-4e8b-8be8-80d2c9d8d3d7"},"vehicle_type_id":"4","last_reported":1701421661,"current_range_meters":15200,"station_id":"","pricing_plan_id":"free"},{"bike_id":"0429a8b4-4992-4b4b-bc60-2432fb5e2535","system_id":"levelo_inurba_marseille","lat":43.302759,"lon":5.400793,"is_reserved":false,"is_disabled":false,"rental_uris":{"android":"levelo://app?vid=0429a8b4-4992-4b4b-bc60-2432fb5e2535","ios":"levelo://app?vid=0429a8b4-4992-4b4b-bc60-2432fb5e2535"},"vehicle_type_id":"4","last_reported":1701421661,"current_range_meters":400,"station_id":"ce4bgvh2rcd13ifvqcs0","pricing_plan_id":"free"},{"bike_id":"51e80092-f709-463a-96a2-8b25587b914d","system_id":"levelo_inurba_marseille","lat":43.286039,"lon":5.370681,"is_reserved":false,"is_disabled":false,"rental_uris":{"android":"levelo://app?vid=51e80092-f709-463a-96a2-8b25587b914d","ios":"levelo://app?vid=51e80092-f709-463a-96a2-8b25587b914d"},"vehicle_type_id":"4","last_reported":1701421661,"current_range_meters":2800,"station_id":"ce4bht12rcd13ifvqi60","pricing_plan_id":"free"},{"bike_id":"8457e993-7f39-4295-87dc-b4ec2b763f1b","system_id":"levelo_inurba_marseille","lat":43.31643,"lon":5.40433,"is_reserved":false,"is_disabled":false,"rental_uris":{"android":"levelo://app?vid=8457e993-7f39-4295-87dc-b4ec2b763f1b","ios":"levelo://app?vid=8457e993-7f39-4295-87dc-b4ec2b763f1b"},"vehicle_type_id":"4","last_reported":1701421661,"current_range_meters":0,"station_id":"ce4bh012rcd13ifvqd00","pricing_plan_id":"free"},{"bike_id":"90fa112b-4943-49ea-a832-a05861edd008","system_id":"levelo_inurba_marseille","lat":43.291994,"lon":5.392907,"is_reserved":false,"is_disabled":false,"rental_uris":{"android":"levelo://app?vid=90fa112b-4943-49ea-a832-a05861edd008","ios":"levelo://app?vid=90fa112b-4943-49ea-a832-a05861edd008"},"vehicle_type_id":"4","last_reported":1701421661,"current_range_meters":28400,"station_id":"ce4bh192rcd13ifvqdd0","pricing_plan_id":"free"},{"bike_id":"c64abbd9-83e6-40f7-a16e-72e1c40f00d7","system_id":"levelo_inurba_marseille","lat":43.319179,"lon":5.407725,"is_reserved":false,"is_disabled":false,"rental_uris":{"android":"levelo://app?vid=c64abbd9-83e6-40f7-a16e-72e1c40f00d7","ios":"levelo://app?vid=c64abbd9-83e6-40f7-a16e-72e1c40f00d7"},"vehicle_type_id":"4","last_reported":1701421661,"current_range_meters":26400,"station_id":"ce4bhq12rcd13ifvqhig","pricing_plan_id":"free"},{"bike_id":"43bb5c95-d7b8-44b8-9497-8e6e36e38438","system_id":"levelo_inurba_marseille","lat":43.319179,"lon":5.407725,"is_reserved":false,"is_disabled":false,"rental_uris":{"android":"levelo://app?vid=43bb5c95-d7b8-44b8-9497-8e6e36e38438","ios":"levelo://app?vid=43bb5c95-d7b8-44b8-9497-8e6e36e38438"},"vehicle_type_id":"4","last_reported":1701421661,"current_range_meters":30000,"station_id":"ce4bhq12rcd13ifvqhig","pricing_plan_id":"free"},{"bike_id":"09b7180a-4e0b-4ca0-b87a-2a680a6ff47d","system_id":"levelo_inurba_marseille","lat":43.33717,"lon":5.391857,"is_reserved":false,"is_disabled":false,"rental_uris":{"android":"levelo://app?vid=09b7180a-4e0b-4ca0-b87a-2a680a6ff47d","ios":"levelo://app?vid=09b7180a-4e0b-4ca0-b87a-2a680a6ff47d"},"vehicle_type_id":"4","last_reported":1701421661,"current_range_meters":13200,"station_id":"ce4bhr92rcd13ifvqhsg","pricing_plan_id":"free"},{"bike_id":"dc021086-a114-401b-a9ad-5d833e71037d","system_id":"levelo_inurba_marseille","lat":43.288501,"lon":5.393087,"is_reserved":false,"is_disabled":false,"rental_uris":{"android":"levelo://app?vid=dc021086-a114-401b-a9ad-5d833e71037d","ios":"levelo://app?vid=dc021086-a114-401b-a9ad-5d833e71037d"},"vehicle_type_id":"4","last_reported":1701421661,"current_range_meters":12400,"station_id":"ce4bh2p2rcd13ifvqdi0","pricing_plan_id":"free"},{"bike_id":"1f2078d4-b724-4c66-9b44-ef163602baf5","system_id":"levelo_inurba_marseille","lat":43.283494,"lon":5.380945,"is_reserved":false,"is_disabled":false,"rental_uris":{"android":"levelo://app?vid=1f2078d4-b724-4c66-9b44-ef163602baf5","ios":"levelo://app?vid=1f2078d4-b724-4c66-9b44-ef163602baf5"},"vehicle_type_id":"4","last_reported":1701421661,"current_range_meters":28400,"station_id":"ce4bh412rcd13ifvqdr0","pricing_plan_id":"free"},{"bike_id":"f23e9207-903d-4c94-8799-a0cba2728897","system_id":"levelo_inurba_marseille","lat":43.284219,"lon":5.3497,"is_reserved":false,"is_disabled":false,"rental_uris":{"android":"levelo://app?vid=f23e9207-903d-4c94-8799-a0cba2728897","ios":"levelo://app?vid=f23e9207-903d-4c94-8799-a0cba2728897"},"vehicle_type_id":"4","last_reported":1701421661,"current_range_meters":27200,"station_id":"ce4bhbh2rcd13ifvqepg","pricing_plan_id":"free"},{"bike_id":"8135aee1-f3c8-4b5e-84fc-632162d44fa8","system_id":"levelo_inurba_marseille","lat":43.292724,"lon":5.401131,"is_reserved":false,"is_disabled":false,"rental_uris":{"android":"levelo://app?vid=8135aee1-f3c8-4b5e-84fc-632162d44fa8","ios":"levelo://app?vid=8135aee1-f3c8-4b5e-84fc-632162d44fa8"},"vehicle_type_id":"4","last_reported":1701421661,"current_range_meters":26000,"station_id":"ce4bh312rcd13ifvqdk0","pricing_plan_id":"free"},{"bike_id":"d010a31e-d4aa-4a71-b9d7-ff0563d6bc6f","system_id":"levelo_inurba_marseille","lat":43.292724,"lon":5.401131,"is_reserved":false,"is_disabled":false,"rental_uris":{"android":"levelo://app?vid=d010a31e-d4aa-4a71-b9d7-ff0563d6bc6f","ios":"levelo://app?vid=d010a31e-d4aa-4a71-b9d7-ff0563d6bc6f"},"vehicle_type_id":"4","last_reported":1701421661,"current_range_meters":14800,"station_id":"ce4bh312rcd13ifvqdk0","pricing_plan_id":"free"},{"bike_id":"e48a9e33-c86d-44f0-a21a-3480efe1a900","system_id":"levelo_inurba_marseille","lat":43.282754,"lon":5.350519,"is_reserved":false,"is_disabled":false,"rental_uris":{"android":"levelo://app?vid=e48a9e33-c86d-44f0-a21a-3480efe1a900","ios":"levelo://app?vid=e48a9e33-c86d-44f0-a21a-3480efe1a900"},"vehicle_type_id":"4","last_reported":1701421661,"current_range_meters":13200,"station_id":"ce4bhbp2rcd13ifvqerg","pricing_plan_id":"free"},{"bike_id":"eb77643f-48ce-495b-a37f-5b82a6208af2","system_id":"levelo_inurba_marseille","lat":43.283502,"lon":5.386471,"is_reserved":false,"is_disabled":false,"rental_uris":{"android":"levelo://app?vid=eb77643f-48ce-495b-a37f-5b82a6208af2","ios":"levelo://app?vid=eb77643f-48ce-495b-a37f-5b82a6208af2"},"vehicle_type_id":"4","last_reported":1701421661,"current_range_meters":29600,"station_id":"ce4bh492rcd13ifvqdvg","pricing_plan_id":"free"},{"bike_id":"caa93850-b2f2-42a5-a48d-c46044ef2f6d","system_id":"levelo_inurba_marseille","lat":43.283502,"lon":5.386471,"is_reserved":false,"is_disabled":false,"rental_uris":{"android":"levelo://app?vid=caa93850-b2f2-42a5-a48d-c46044ef2f6d","ios":"levelo://app?vid=caa93850-b2f2-42a5-a48d-c46044ef2f6d"},"vehicle_type_id":"4","last_reported":1701421661,"current_range_meters":26400,"station_id":"ce4bh492rcd13ifvqdvg","pricing_plan_id":"free"},{"bike_id":"9af9528c-2380-42e4-b517-23238cfecb6f","system_id":"levelo_inurba_marseille","lat":43.28039,"lon":5.369297,"is_reserved":false,"is_disabled":false,"rental_uris":{"android":"levelo://app?vid=9af9528c-2380-42e4-b517-23238cfecb6f","ios":"levelo://app?vid=9af9528c-2380-42e4-b517-23238cfecb6f"},"vehicle_type_id":"4","last_reported":1701421661,"current_range_meters":26400,"station_id":"ce4bha12rcd13ifvqef0","pricing_plan_id":"free"},{"bike_id":"9b15ef46-30df-42fe-824d-23282580e785","system_id":"levelo_inurba_marseille","lat":43.28039,"lon":5.369297,"is_reserved":false,"is_disabled":false,"rental_uris":{"android":"levelo://app?vid=9b15ef46-30df-42fe-824d-23282580e785","ios":"levelo://app?vid=9b15ef46-30df-42fe-824d-23282580e785"},"vehicle_type_id":"4","last_reported":1701421661,"current_range_meters":31600,"station_id":"ce4bha12rcd13ifvqef0","pricing_plan_id":"free"},{"bike_id":"b6d8bf4c-7256-4c4a-b54d-7ebdd80e5af6","system_id":"levelo_inurba_marseille","lat":43.29041,"lon":5.399634,"is_reserved":false,"is_disabled":false,"rental_uris":{"android":"levelo://app?vid=b6d8bf4c-7256-4c4a-b54d-7ebdd80e5af6","ios":"levelo://app?vid=b6d8bf4c-7256-4c4a-b54d-7ebdd80e5af6"},"vehicle_type_id":"4","last_reported":1701421661,"current_range_meters":18800,"station_id":"ce4bh392rcd13ifvqdm0","pricing_plan_id":"free"},{"bike_id":"5360c6db-998c-42df-94c2-01e04a73fa18","system_id":"levelo_inurba_marseille","lat":43.29041,"lon":5.399634,"is_reserved":false,"is_disabled":false,"rental_uris":{"android":"levelo://app?vid=5360c6db-998c-42df-94c2-01e04a73fa18","ios":"levelo://app?vid=5360c6db-998c-42df-94c2-01e04a73fa18"},"vehicle_type_id":"4","last_reported":1701421661,"current_range_meters":24400,"station_id":"ce4bh392rcd13ifvqdm0","pricing_plan_id":"free"},{"bike_id":"4b5df17a-ea63-46c6-9745-01946fcabdbb","system_id":"levelo_inurba_marseille","lat":43.284317,"lon":5.391844,"is_reserved":false,"is_disabled":false,"rental_uris":{"android":"levelo://app?vid=4b5df17a-ea63-46c6-9745-01946fcabdbb","ios":"levelo://app?vid=4b5df17a-ea63-46c6-9745-01946fcabdbb"},"vehicle_type_id":"4","last_reported":1701421661,"current_range_meters":400,"station_id":"ce4bhoh2rcd13ifvqh5g","pricing_plan_id":"free"},{"bike_id":"edccd163-f6e1-4e7d-bc68-768d7ebe881c","system_id":"levelo_inurba_marseille","lat":43.32655,"lon":5.41038,"is_reserved":false,"is_disabled":false,"rental_uris":{"android":"levelo://app?vid=edccd163-f6e1-4e7d-bc68-768d7ebe881c","ios":"levelo://app?vid=edccd163-f6e1-4e7d-bc68-768d7ebe881c"},"vehicle_type_id":"4","last_reported":1701421661,"current_range_meters":26800,"station_id":"ce4bhpp2rcd13ifvqhgg","pricing_plan_id":"free"},{"bike_id":"03d2df21-0c2f-42ca-bb86-64758484e55c","system_id":"levelo_inurba_marseille","lat":43.320045,"lon":5.415048,"is_reserved":false,"is_disabled":false,"rental_uris":{"android":"levelo://app?vid=03d2df21-0c2f-42ca-bb86-64758484e55c","ios":"levelo://app?vid=03d2df21-0c2f-42ca-bb86-64758484e55c"},"vehicle_type_id":"4","last_reported":1701421661,"current_range_meters":11200,"station_id":"ce4bhq92rcd13ifvqhkg","pricing_plan_id":"free"},{"bike_id":"a44f6b2b-cf03-479d-b779-f440f2a4143d","system_id":"levelo_inurba_marseille","lat":43.320045,"lon":5.415046,"is_reserved":false,"is_disabled":false,"rental_uris":{"android":"levelo://app?vid=a44f6b2b-cf03-479d-b779-f440f2a4143d","ios":"levelo://app?vid=a44f6b2b-cf03-479d-b779-f440f2a4143d"},"vehicle_type_id":"4","last_reported":1701421661,"current_range_meters":19200,"station_id":"ce4bhq92rcd13ifvqhkg","pricing_plan_id":"free"},{"bike_id":"457a193f-5ade-4f42-8ec7-9812c83160b4","system_id":"levelo_inurba_marseille","lat":43.279742,"lon":5.38744,"is_reserved":false,"is_disabled":false,"rental_uris":{"android":"levelo://app?vid=457a193f-5ade-4f42-8ec7-9812c83160b4","ios":"levelo://app?vid=457a193f-5ade-4f42-8ec7-9812c83160b4"},"vehicle_type_id":"4","last_reported":1701421661,"current_range_meters":16000,"station_id":"ce4bhg12rcd13ifvqf80","pricing_plan_id":"free"},{"bike_id":"4a5aba63-c01c-4815-bb8c-2dcaeefa3378","system_id":"levelo_inurba_marseille","lat":43.325233,"lon":5.414318,"is_reserved":false,"is_disabled":false,"rental_uris":{"android":"levelo://app?vid=4a5aba63-c01c-4815-bb8c-2dcaeefa3378","ios":"levelo://app?vid=4a5aba63-c01c-4815-bb8c-2dcaeefa3378"},"vehicle_type_id":"4","last_reported":1701421661,"current_range_meters":16400,"station_id":"ce4bhq12rcd13ifvqhhg","pricing_plan_id":"free"},{"bike_id":"ce731c0a-a769-41a0-af12-a21b87ce2ef8","system_id":"levelo_inurba_marseille","lat":43.325243,"lon":5.414326,"is_reserved":false,"is_disabled":false,"rental_uris":{"android":"levelo://app?vid=ce731c0a-a769-41a0-af12-a21b87ce2ef8","ios":"levelo://app?vid=ce731c0a-a769-41a0-af12-a21b87ce2ef8"},"vehicle_type_id":"4","last_reported":1701421661,"current_range_meters":30400,"station_id":"ce4bhq12rcd13ifvqhhg","pricing_plan_id":"free"},{"bike_id":"b733fb37-a63f-44e3-a557-fb3456feeea0","system_id":"levelo_inurba_marseille","lat":43.325233,"lon":5.414318,"is_reserved":false,"is_disabled":false,"rental_uris":{"android":"levelo://app?vid=b733fb37-a63f-44e3-a557-fb3456feeea0","ios":"levelo://app?vid=b733fb37-a63f-44e3-a557-fb3456feeea0"},"vehicle_type_id":"4","last_reported":1701421661,"current_range_meters":13600,"station_id":"ce4bhq12rcd13ifvqhhg","pricing_plan_id":"free"},{"bike_id":"71b5aa77-bdf2-4fe2-8789-e9b35e5a1207","system_id":"levelo_inurba_marseille","lat":43.275625,"lon":5.384392,"is_reserved":false,"is_disabled":false,"rental_uris":{"android":"levelo://app?vid=71b5aa77-bdf2-4fe2-8789-e9b35e5a1207","ios":"levelo://app?vid=71b5aa77-bdf2-4fe2-8789-e9b35e5a1207"},"vehicle_type_id":"4","last_reported":1701421661,"current_range_meters":23200,"station_id":"ce4bhh92rcd13ifvqfi0","pricing_plan_id":"free"},{"bike_id":"a0ba15a3-d12e-4ea4-b1d7-15f758773042","system_id":"levelo_inurba_marseille","lat":43.27379,"lon":5.36251,"is_reserved":false,"is_disabled":false,"rental_uris":{"android":"levelo://app?vid=a0ba15a3-d12e-4ea4-b1d7-15f758773042","ios":"levelo://app?vid=a0ba15a3-d12e-4ea4-b1d7-15f758773042"},"vehicle_type_id":"4","last_reported":1701421661,"current_range_meters":20000,"station_id":"ce4bhbh2rcd13ifvqeo0","pricing_plan_id":"free"},{"bike_id":"7a8bc633-5cb7-4cb8-aa03-1d1b4da3af70","system_id":"levelo_inurba_marseille","lat":43.27371,"lon":5.36266,"is_reserved":false,"is_disabled":false,"rental_uris":{"android":"levelo://app?vid=7a8bc633-5cb7-4cb8-aa03-1d1b4da3af70","ios":"levelo://app?vid=7a8bc633-5cb7-4cb8-aa03-1d1b4da3af70"},"vehicle_type_id":"4","last_reported":1701421661,"current_range_meters":16000,"station_id":"","pricing_plan_id":"free"},{"bike_id":"3b7ad617-9de1-440c-8fa4-b798ffccca6f","system_id":"levelo_inurba_marseille","lat":43.33612,"lon":5.410321,"is_reserved":false,"is_disabled":false,"rental_uris":{"android":"levelo://app?vid=3b7ad617-9de1-440c-8fa4-b798ffccca6f","ios":"levelo://app?vid=3b7ad617-9de1-440c-8fa4-b798ffccca6f"},"vehicle_type_id":"4","last_reported":1701421661,"current_range_meters":19600,"station_id":"ce4bhqh2rcd13ifvqhmg","pricing_plan_id":"free"},{"bike_id":"4105c0c2-28ef-4989-8112-480de19fb62f","system_id":"levelo_inurba_marseille","lat":43.336121,"lon":5.410216,"is_reserved":false,"is_disabled":false,"rental_uris":{"android":"levelo://app?vid=4105c0c2-28ef-4989-8112-480de19fb62f","ios":"levelo://app?vid=4105c0c2-28ef-4989-8112-480de19fb62f"},"vehicle_type_id":"4","last_reported":1701421661,"current_range_meters":0,"station_id":"ce4bhqh2rcd13ifvqhmg","pricing_plan_id":"free"},{"bike_id":"a5c82b3a-3117-47e7-ba39-d7984f4fa4e1","system_id":"levelo_inurba_marseille","lat":43.27667,"lon":5.38897,"is_reserved":false,"is_disabled":false,"rental_uris":{"android":"levelo://app?vid=a5c82b3a-3117-47e7-ba39-d7984f4fa4e1","ios":"levelo://app?vid=a5c82b3a-3117-47e7-ba39-d7984f4fa4e1"},"vehicle_type_id":"4","last_reported":1701421661,"current_range_meters":13600,"station_id":"ce4bhi12rcd13ifvqfo0","pricing_plan_id":"free"},{"bike_id":"9dc16fa2-eebc-47fb-b528-f9f861ddda62","system_id":"levelo_inurba_marseille","lat":43.279952,"lon":5.400085,"is_reserved":false,"is_disabled":false,"rental_uris":{"android":"levelo://app?vid=9dc16fa2-eebc-47fb-b528-f9f861ddda62","ios":"levelo://app?vid=9dc16fa2-eebc-47fb-b528-f9f861ddda62"},"vehicle_type_id":"4","last_reported":1701421661,"current_range_meters":26000,"station_id":"ce4bho92rcd13ifvqh4g","pricing_plan_id":"free"},{"bike_id":"a862f8d3-9c65-4e03-8387-7b9d5fb1832b","system_id":"levelo_inurba_marseille","lat":43.310785,"lon":5.424305,"is_reserved":false,"is_disabled":false,"rental_uris":{"android":"levelo://app?vid=a862f8d3-9c65-4e03-8387-7b9d5fb1832b","ios":"levelo://app?vid=a862f8d3-9c65-4e03-8387-7b9d5fb1832b"},"vehicle_type_id":"4","last_reported":1701421661,"current_range_meters":31600,"station_id":"ce4bhp92rcd13ifvqhag","pricing_plan_id":"free"},{"bike_id":"717e71d4-a423-4e33-ac89-92ec18fed671","system_id":"levelo_inurba_marseille","lat":43.310785,"lon":5.424305,"is_reserved":false,"is_disabled":false,"rental_uris":{"android":"levelo://app?vid=717e71d4-a423-4e33-ac89-92ec18fed671","ios":"levelo://app?vid=717e71d4-a423-4e33-ac89-92ec18fed671"},"vehicle_type_id":"4","last_reported":1701421661,"current_range_meters":26400,"station_id":"ce4bhp92rcd13ifvqhag","pricing_plan_id":"free"},{"bike_id":"2f711f01-b9ab-4fa4-b7ee-42fd5a353234","system_id":"levelo_inurba_marseille","lat":43.310785,"lon":5.424305,"is_reserved":false,"is_disabled":false,"rental_uris":{"android":"levelo://app?vid=2f711f01-b9ab-4fa4-b7ee-42fd5a353234","ios":"levelo://app?vid=2f711f01-b9ab-4fa4-b7ee-42fd5a353234"},"vehicle_type_id":"4","last_reported":1701421661,"current_range_meters":31600,"station_id":"ce4bhp92rcd13ifvqhag","pricing_plan_id":"free"},{"bike_id":"d6cd08ef-c934-44a0-a330-510b886d15f8","system_id":"levelo_inurba_marseille","lat":43.310785,"lon":5.424305,"is_reserved":false,"is_disabled":false,"rental_uris":{"android":"levelo://app?vid=d6cd08ef-c934-44a0-a330-510b886d15f8","ios":"levelo://app?vid=d6cd08ef-c934-44a0-a330-510b886d15f8"},"vehicle_type_id":"4","last_reported":1701421661,"current_range_meters":32000,"station_id":"ce4bhp92rcd13ifvqhag","pricing_plan_id":"free"},{"bike_id":"4df30396-a8c7-4bed-868d-929ea235f52c","system_id":"levelo_inurba_marseille","lat":43.310785,"lon":5.424305,"is_reserved":false,"is_disabled":false,"rental_uris":{"android":"levelo://app?vid=4df30396-a8c7-4bed-868d-929ea235f52c","ios":"levelo://app?vid=4df30396-a8c7-4bed-868d-929ea235f52c"},"vehicle_type_id":"4","last_reported":1701421661,"current_range_meters":13200,"station_id":"ce4bhp92rcd13ifvqhag","pricing_plan_id":"free"},{"bike_id":"d4026725-dd25-4c54-b587-ef51a846128e","system_id":"levelo_inurba_marseille","lat":43.340804,"lon":5.410219,"is_reserved":false,"is_disabled":false,"rental_uris":{"android":"levelo://app?vid=d4026725-dd25-4c54-b587-ef51a846128e","ios":"levelo://app?vid=d4026725-dd25-4c54-b587-ef51a846128e"},"vehicle_type_id":"4","last_reported":1701421661,"current_range_meters":31600,"station_id":"ce4bhqh2rcd13ifvqhlg","pricing_plan_id":"free"},{"bike_id":"de3e8642-1450-4df2-80c0-78076ea97a99","system_id":"levelo_inurba_marseille","lat":43.340804,"lon":5.410219,"is_reserved":false,"is_disabled":false,"rental_uris":{"android":"levelo://app?vid=de3e8642-1450-4df2-80c0-78076ea97a99","ios":"levelo://app?vid=de3e8642-1450-4df2-80c0-78076ea97a99"},"vehicle_type_id":"4","last_reported":1701421661,"current_range_meters":28400,"station_id":"ce4bhqh2rcd13ifvqhlg","pricing_plan_id":"free"},{"bike_id":"86719305-f7f3-4319-9d78-57f0031ff8dc","system_id":"levelo_inurba_marseille","lat":43.340804,"lon":5.410219,"is_reserved":false,"is_disabled":false,"rental_uris":{"android":"levelo://app?vid=86719305-f7f3-4319-9d78-57f0031ff8dc","ios":"levelo://app?vid=86719305-f7f3-4319-9d78-57f0031ff8dc"},"vehicle_type_id":"4","last_reported":1701421661,"current_range_meters":26800,"station_id":"ce4bhqh2rcd13ifvqhlg","pricing_plan_id":"free"},{"bike_id":"f20db6c3-195c-42dd-9124-356ddcc60d6f","system_id":"levelo_inurba_marseille","lat":43.340804,"lon":5.410219,"is_reserved":false,"is_disabled":false,"rental_uris":{"android":"levelo://app?vid=f20db6c3-195c-42dd-9124-356ddcc60d6f","ios":"levelo://app?vid=f20db6c3-195c-42dd-9124-356ddcc60d6f"},"vehicle_type_id":"4","last_reported":1701421661,"current_range_meters":24000,"station_id":"ce4bhqh2rcd13ifvqhlg","pricing_plan_id":"free"},{"bike_id":"05c44749-814b-4016-8217-6a54a529baa4","system_id":"levelo_inurba_marseille","lat":43.26681,"lon":5.382694,"is_reserved":false,"is_disabled":false,"rental_uris":{"android":"levelo://app?vid=05c44749-814b-4016-8217-6a54a529baa4","ios":"levelo://app?vid=05c44749-814b-4016-8217-6a54a529baa4"},"vehicle_type_id":"4","last_reported":1701421661,"current_range_meters":19600,"station_id":"ce4bhg92rcd13ifvqf90","pricing_plan_id":"free"},{"bike_id":"eff3e467-b6de-457a-b6cd-4671a56a96b0","system_id":"levelo_inurba_marseille","lat":43.295511,"lon":5.422926,"is_reserved":false,"is_disabled":false,"rental_uris":{"android":"levelo://app?vid=eff3e467-b6de-457a-b6cd-4671a56a96b0","ios":"levelo://app?vid=eff3e467-b6de-457a-b6cd-4671a56a96b0"},"vehicle_type_id":"4","last_reported":1701421661,"current_range_meters":24000,"station_id":"ce4bhph2rcd13ifvqhdg","pricing_plan_id":"free"},{"bike_id":"ad319ad3-5072-496b-979f-e5645940bdaf","system_id":"levelo_inurba_marseille","lat":43.29548,"lon":5.42297,"is_reserved":false,"is_disabled":false,"rental_uris":{"android":"levelo://app?vid=ad319ad3-5072-496b-979f-e5645940bdaf","ios":"levelo://app?vid=ad319ad3-5072-496b-979f-e5645940bdaf"},"vehicle_type_id":"4","last_reported":1701421661,"current_range_meters":22400,"station_id":"ce4bhph2rcd13ifvqhdg","pricing_plan_id":"free"},{"bike_id":"b9eb8be7-7bda-48a7-86b9-0631fb094831","system_id":"levelo_inurba_marseille","lat":43.278128,"lon":5.407195,"is_reserved":false,"is_disabled":false,"rental_uris":{"android":"levelo://app?vid=b9eb8be7-7bda-48a7-86b9-0631fb094831","ios":"levelo://app?vid=b9eb8be7-7bda-48a7-86b9-0631fb094831"},"vehicle_type_id":"4","last_reported":1701421661,"current_range_meters":28800,"station_id":"ce4bhnh2rcd13ifvqgtg","pricing_plan_id":"free"},{"bike_id":"5b6343e8-86d5-410c-97f8-bb820dc75554","system_id":"levelo_inurba_marseille","lat":43.269467,"lon":5.386439,"is_reserved":false,"is_disabled":false,"rental_uris":{"android":"levelo://app?vid=5b6343e8-86d5-410c-97f8-bb820dc75554","ios":"levelo://app?vid=5b6343e8-86d5-410c-97f8-bb820dc75554"},"vehicle_type_id":"4","last_reported":1701421661,"current_range_meters":31600,"station_id":"ce4bhh92rcd13ifvqfh0","pricing_plan_id":"free"},{"bike_id":"57663f31-c9e1-4628-9b99-e25b8f4658df","system_id":"levelo_inurba_marseille","lat":43.269467,"lon":5.386439,"is_reserved":false,"is_disabled":false,"rental_uris":{"android":"levelo://app?vid=57663f31-c9e1-4628-9b99-e25b8f4658df","ios":"levelo://app?vid=57663f31-c9e1-4628-9b99-e25b8f4658df"},"vehicle_type_id":"4","last_reported":1701421661,"current_range_meters":14800,"station_id":"ce4bhh92rcd13ifvqfh0","pricing_plan_id":"free"},{"bike_id":"f008a1a1-d71b-4e90-9a8e-e9814ce1b31a","system_id":"levelo_inurba_marseille","lat":43.269467,"lon":5.386439,"is_reserved":false,"is_disabled":false,"rental_uris":{"android":"levelo://app?vid=f008a1a1-d71b-4e90-9a8e-e9814ce1b31a","ios":"levelo://app?vid=f008a1a1-d71b-4e90-9a8e-e9814ce1b31a"},"vehicle_type_id":"4","last_reported":1701421661,"current_range_meters":5200,"station_id":"ce4bhh92rcd13ifvqfh0","pricing_plan_id":"free"},{"bike_id":"71e75069-75f9-4d66-a55b-5d348e4613fb","system_id":"levelo_inurba_marseille","lat":43.269467,"lon":5.386439,"is_reserved":false,"is_disabled":false,"rental_uris":{"android":"levelo://app?vid=71e75069-75f9-4d66-a55b-5d348e4613fb","ios":"levelo://app?vid=71e75069-75f9-4d66-a55b-5d348e4613fb"},"vehicle_type_id":"4","last_reported":1701421661,"current_range_meters":20000,"station_id":"ce4bhh92rcd13ifvqfh0","pricing_plan_id":"free"},{"bike_id":"e5a2a039-f160-4a23-9ea1-d4944ad00f6b","system_id":"levelo_inurba_marseille","lat":43.279465,"lon":5.410561,"is_reserved":false,"is_disabled":false,"rental_uris":{"android":"levelo://app?vid=e5a2a039-f160-4a23-9ea1-d4944ad00f6b","ios":"levelo://app?vid=e5a2a039-f160-4a23-9ea1-d4944ad00f6b"},"vehicle_type_id":"4","last_reported":1701421661,"current_range_meters":26000,"station_id":"ce4bhnp2rcd13ifvqh0g","pricing_plan_id":"free"},{"bike_id":"62b579b1-b710-40d1-93c0-0a9fb777bc87","system_id":"levelo_inurba_marseille","lat":43.26681,"lon":5.382694,"is_reserved":false,"is_disabled":false,"rental_uris":{"android":"levelo://app?vid=62b579b1-b710-40d1-93c0-0a9fb777bc87","ios":"levelo://app?vid=62b579b1-b710-40d1-93c0-0a9fb777bc87"},"vehicle_type_id":"4","last_reported":1701421661,"current_range_meters":11200,"station_id":"ce4bhg92rcd13ifvqf90","pricing_plan_id":"free"},{"bike_id":"1ca85fb9-0671-49ef-bfab-c205e4334a98","system_id":"levelo_inurba_marseille","lat":43.26681,"lon":5.382694,"is_reserved":false,"is_disabled":false,"rental_uris":{"android":"levelo://app?vid=1ca85fb9-0671-49ef-bfab-c205e4334a98","ios":"levelo://app?vid=1ca85fb9-0671-49ef-bfab-c205e4334a98"},"vehicle_type_id":"4","last_reported":1701421661,"current_range_meters":20400,"station_id":"ce4bhg92rcd13ifvqf90","pricing_plan_id":"free"},{"bike_id":"0a22af23-c25d-475b-966f-cad84d1c4a89","system_id":"levelo_inurba_marseille","lat":43.26681,"lon":5.382694,"is_reserved":false,"is_disabled":false,"rental_uris":{"android":"levelo://app?vid=0a22af23-c25d-475b-966f-cad84d1c4a89","ios":"levelo://app?vid=0a22af23-c25d-475b-966f-cad84d1c4a89"},"vehicle_type_id":"4","last_reported":1701421661,"current_range_meters":24400,"station_id":"ce4bhg92rcd13ifvqf90","pricing_plan_id":"free"},{"bike_id":"32755a4f-fc5c-4036-affd-002a1d512c5c","system_id":"levelo_inurba_marseille","lat":43.26681,"lon":5.382694,"is_reserved":false,"is_disabled":false,"rental_uris":{"android":"levelo://app?vid=32755a4f-fc5c-4036-affd-002a1d512c5c","ios":"levelo://app?vid=32755a4f-fc5c-4036-affd-002a1d512c5c"},"vehicle_type_id":"4","last_reported":1701421661,"current_range_meters":23200,"station_id":"ce4bhg92rcd13ifvqf90","pricing_plan_id":"free"},{"bike_id":"70e785fb-a7de-44b8-a8c4-01afa0c2577c","system_id":"levelo_inurba_marseille","lat":43.26681,"lon":5.382694,"is_reserved":false,"is_disabled":false,"rental_uris":{"android":"levelo://app?vid=70e785fb-a7de-44b8-a8c4-01afa0c2577c","ios":"levelo://app?vid=70e785fb-a7de-44b8-a8c4-01afa0c2577c"},"vehicle_type_id":"4","last_reported":1701421661,"current_range_meters":20400,"station_id":"ce4bhg92rcd13ifvqf90","pricing_plan_id":"free"},{"bike_id":"3e4fb47e-33e8-4ee2-bfc1-1bd948cfa529","system_id":"levelo_inurba_marseille","lat":43.281548,"lon":5.42643,"is_reserved":false,"is_disabled":false,"rental_uris":{"android":"levelo://app?vid=3e4fb47e-33e8-4ee2-bfc1-1bd948cfa529","ios":"levelo://app?vid=3e4fb47e-33e8-4ee2-bfc1-1bd948cfa529"},"vehicle_type_id":"4","last_reported":1701421661,"current_range_meters":31600,"station_id":"ce4bhnh2rcd13ifvqgug","pricing_plan_id":"free"},{"bike_id":"a265f57d-2203-4406-8278-bc194922c399","system_id":"levelo_inurba_marseille","lat":43.28151,"lon":5.42639,"is_reserved":false,"is_disabled":false,"rental_uris":{"android":"levelo://app?vid=a265f57d-2203-4406-8278-bc194922c399","ios":"levelo://app?vid=a265f57d-2203-4406-8278-bc194922c399"},"vehicle_type_id":"4","last_reported":1701421661,"current_range_meters":31200,"station_id":"ce4bhnh2rcd13ifvqgug","pricing_plan_id":"free"},{"bike_id":"cb609a7b-f9ee-4981-a18f-2f84ebe6425d","system_id":"levelo_inurba_marseille","lat":43.281548,"lon":5.42643,"is_reserved":false,"is_disabled":false,"rental_uris":{"android":"levelo://app?vid=cb609a7b-f9ee-4981-a18f-2f84ebe6425d","ios":"levelo://app?vid=cb609a7b-f9ee-4981-a18f-2f84ebe6425d"},"vehicle_type_id":"4","last_reported":1701421661,"current_range_meters":30000,"station_id":"ce4bhnh2rcd13ifvqgug","pricing_plan_id":"free"},{"bike_id":"08ee9831-e27a-4de6-b434-68bc147048ef","system_id":"levelo_inurba_marseille","lat":43.281548,"lon":5.42643,"is_reserved":false,"is_disabled":false,"rental_uris":{"android":"levelo://app?vid=08ee9831-e27a-4de6-b434-68bc147048ef","ios":"levelo://app?vid=08ee9831-e27a-4de6-b434-68bc147048ef"},"vehicle_type_id":"4","last_reported":1701421661,"current_range_meters":31600,"station_id":"ce4bhnh2rcd13ifvqgug","pricing_plan_id":"free"},{"bike_id":"3532a786-7312-4db1-88be-2e5e8a274941","system_id":"levelo_inurba_marseille","lat":43.281548,"lon":5.42643,"is_reserved":false,"is_disabled":false,"rental_uris":{"android":"levelo://app?vid=3532a786-7312-4db1-88be-2e5e8a274941","ios":"levelo://app?vid=3532a786-7312-4db1-88be-2e5e8a274941"},"vehicle_type_id":"4","last_reported":1701421661,"current_range_meters":26800,"station_id":"ce4bhnh2rcd13ifvqgug","pricing_plan_id":"free"},{"bike_id":"dca79939-1fcc-4cca-b9ca-db4256f08f40","system_id":"levelo_inurba_marseille","lat":43.2607,"lon":5.393983,"is_reserved":false,"is_disabled":false,"rental_uris":{"android":"levelo://app?vid=dca79939-1fcc-4cca-b9ca-db4256f08f40","ios":"levelo://app?vid=dca79939-1fcc-4cca-b9ca-db4256f08f40"},"vehicle_type_id":"4","last_reported":1701421661,"current_range_meters":30000,"station_id":"ce4bhh92rcd13ifvqfj0","pricing_plan_id":"free"},{"bike_id":"9b5847ca-84cb-4670-910a-c75e9863bb92","system_id":"levelo_inurba_marseille","lat":43.2607,"lon":5.393983,"is_reserved":false,"is_disabled":false,"rental_uris":{"android":"levelo://app?vid=9b5847ca-84cb-4670-910a-c75e9863bb92","ios":"levelo://app?vid=9b5847ca-84cb-4670-910a-c75e9863bb92"},"vehicle_type_id":"4","last_reported":1701421661,"current_range_meters":7200,"station_id":"ce4bhh92rcd13ifvqfj0","pricing_plan_id":"free"},{"bike_id":"816fffb3-bc00-4aaa-b22a-5b406defe073","system_id":"levelo_inurba_marseille","lat":43.275028,"lon":5.424534,"is_reserved":false,"is_disabled":false,"rental_uris":{"android":"levelo://app?vid=816fffb3-bc00-4aaa-b22a-5b406defe073","ios":"levelo://app?vid=816fffb3-bc00-4aaa-b22a-5b406defe073"},"vehicle_type_id":"4","last_reported":1701421661,"current_range_meters":19600,"station_id":"ce4bhn92rcd13ifvqgrg","pricing_plan_id":"free"},{"bike_id":"c0542724-5adc-45ab-85e0-291da76b61a2","system_id":"levelo_inurba_marseille","lat":43.27497,"lon":5.42444,"is_reserved":false,"is_disabled":false,"rental_uris":{"android":"levelo://app?vid=c0542724-5adc-45ab-85e0-291da76b61a2","ios":"levelo://app?vid=c0542724-5adc-45ab-85e0-291da76b61a2"},"vehicle_type_id":"4","last_reported":1701421661,"current_range_meters":18000,"station_id":"ce4bhn92rcd13ifvqgrg","pricing_plan_id":"free"},{"bike_id":"5275b2c7-f1b0-4393-bb76-e3a85b467510","system_id":"levelo_inurba_marseille","lat":43.26096,"lon":5.39758,"is_reserved":false,"is_disabled":false,"rental_uris":{"android":"levelo://app?vid=5275b2c7-f1b0-4393-bb76-e3a85b467510","ios":"levelo://app?vid=5275b2c7-f1b0-4393-bb76-e3a85b467510"},"vehicle_type_id":"4","last_reported":1701421661,"current_range_meters":21200,"station_id":"","pricing_plan_id":"free"},{"bike_id":"f94c20d4-3562-46b8-8195-f928c37ce2ee","system_id":"levelo_inurba_marseille","lat":43.27497,"lon":5.42445,"is_reserved":false,"is_disabled":false,"rental_uris":{"android":"levelo://app?vid=f94c20d4-3562-46b8-8195-f928c37ce2ee","ios":"levelo://app?vid=f94c20d4-3562-46b8-8195-f928c37ce2ee"},"vehicle_type_id":"4","last_reported":1701421661,"current_range_meters":17600,"station_id":"ce4bhn92rcd13ifvqgrg","pricing_plan_id":"free"},{"bike_id":"9a9f4e80-13a8-404b-a799-b8a8ed1cc6b2","system_id":"levelo_inurba_marseille","lat":43.275028,"lon":5.424534,"is_reserved":false,"is_disabled":false,"rental_uris":{"android":"levelo://app?vid=9a9f4e80-13a8-404b-a799-b8a8ed1cc6b2","ios":"levelo://app?vid=9a9f4e80-13a8-404b-a799-b8a8ed1cc6b2"},"vehicle_type_id":"4","last_reported":1701421661,"current_range_meters":22400,"station_id":"ce4bhn92rcd13ifvqgrg","pricing_plan_id":"free"},{"bike_id":"579932ca-569d-4d57-a678-cf2e4425dbc7","system_id":"levelo_inurba_marseille","lat":43.27495,"lon":5.42449,"is_reserved":false,"is_disabled":false,"rental_uris":{"android":"levelo://app?vid=579932ca-569d-4d57-a678-cf2e4425dbc7","ios":"levelo://app?vid=579932ca-569d-4d57-a678-cf2e4425dbc7"},"vehicle_type_id":"4","last_reported":1701421661,"current_range_meters":8000,"station_id":"ce4bhn92rcd13ifvqgrg","pricing_plan_id":"free"},{"bike_id":"85fb527f-e2f8-4f30-b4cd-aae1e0869d40","system_id":"levelo_inurba_marseille","lat":43.275028,"lon":5.424534,"is_reserved":false,"is_disabled":false,"rental_uris":{"android":"levelo://app?vid=85fb527f-e2f8-4f30-b4cd-aae1e0869d40","ios":"levelo://app?vid=85fb527f-e2f8-4f30-b4cd-aae1e0869d40"},"vehicle_type_id":"4","last_reported":1701421661,"current_range_meters":30000,"station_id":"ce4bhn92rcd13ifvqgrg","pricing_plan_id":"free"},{"bike_id":"55bc0b4c-b739-4b9a-98b9-45a37739fa3c","system_id":"levelo_inurba_marseille","lat":43.27497,"lon":5.42453,"is_reserved":false,"is_disabled":false,"rental_uris":{"android":"levelo://app?vid=55bc0b4c-b739-4b9a-98b9-45a37739fa3c","ios":"levelo://app?vid=55bc0b4c-b739-4b9a-98b9-45a37739fa3c"},"vehicle_type_id":"4","last_reported":1701421661,"current_range_meters":20400,"station_id":"ce4bhn92rcd13ifvqgrg","pricing_plan_id":"free"},{"bike_id":"bf392b75-7a44-49b1-8423-0f4e1810e42e","system_id":"levelo_inurba_marseille","lat":43.275028,"lon":5.424534,"is_reserved":false,"is_disabled":false,"rental_uris":{"android":"levelo://app?vid=bf392b75-7a44-49b1-8423-0f4e1810e42e","ios":"levelo://app?vid=bf392b75-7a44-49b1-8423-0f4e1810e42e"},"vehicle_type_id":"4","last_reported":1701421661,"current_range_meters":25200,"station_id":"ce4bhn92rcd13ifvqgrg","pricing_plan_id":"free"},{"bike_id":"6bbcacf2-a6d1-4158-9d19-4d2d8f33555b","system_id":"levelo_inurba_marseille","lat":43.27496,"lon":5.42455,"is_reserved":false,"is_disabled":false,"rental_uris":{"android":"levelo://app?vid=6bbcacf2-a6d1-4158-9d19-4d2d8f33555b","ios":"levelo://app?vid=6bbcacf2-a6d1-4158-9d19-4d2d8f33555b"},"vehicle_type_id":"4","last_reported":1701421661,"current_range_meters":11200,"station_id":"ce4bhn92rcd13ifvqgrg","pricing_plan_id":"free"},{"bike_id":"1b56fd32-6c89-4f42-9b80-098e6a285020","system_id":"levelo_inurba_marseille","lat":43.27495,"lon":5.42454,"is_reserved":false,"is_disabled":false,"rental_uris":{"android":"levelo://app?vid=1b56fd32-6c89-4f42-9b80-098e6a285020","ios":"levelo://app?vid=1b56fd32-6c89-4f42-9b80-098e6a285020"},"vehicle_type_id":"4","last_reported":1701421661,"current_range_meters":23200,"station_id":"ce4bhn92rcd13ifvqgrg","pricing_plan_id":"free"},{"bike_id":"19334c9e-7103-42c2-a7d4-13dba60e41f8","system_id":"levelo_inurba_marseille","lat":43.275,"lon":5.42467,"is_reserved":false,"is_disabled":false,"rental_uris":{"android":"levelo://app?vid=19334c9e-7103-42c2-a7d4-13dba60e41f8","ios":"levelo://app?vid=19334c9e-7103-42c2-a7d4-13dba60e41f8"},"vehicle_type_id":"4","last_reported":1701421661,"current_range_meters":13600,"station_id":"ce4bhn92rcd13ifvqgrg","pricing_plan_id":"free"},{"bike_id":"734644d5-0062-4efe-8db0-deadaab0b372","system_id":"levelo_inurba_marseille","lat":43.27489,"lon":5.42455,"is_reserved":false,"is_disabled":false,"rental_uris":{"android":"levelo://app?vid=734644d5-0062-4efe-8db0-deadaab0b372","ios":"levelo://app?vid=734644d5-0062-4efe-8db0-deadaab0b372"},"vehicle_type_id":"4","last_reported":1701421661,"current_range_meters":17200,"station_id":"ce4bhn92rcd13ifvqgrg","pricing_plan_id":"free"},{"bike_id":"3239c9df-4933-4bb8-82ad-ec0f8b9c511d","system_id":"levelo_inurba_marseille","lat":43.2558,"lon":5.38229,"is_reserved":false,"is_disabled":false,"rental_uris":{"android":"levelo://app?vid=3239c9df-4933-4bb8-82ad-ec0f8b9c511d","ios":"levelo://app?vid=3239c9df-4933-4bb8-82ad-ec0f8b9c511d"},"vehicle_type_id":"4","last_reported":1701421661,"current_range_meters":24000,"station_id":"ce4bhih2rcd13ifvqfs0","pricing_plan_id":"free"},{"bike_id":"7b5a692f-8620-4269-b938-b35847cae01d","system_id":"levelo_inurba_marseille","lat":43.258224,"lon":5.394369,"is_reserved":false,"is_disabled":false,"rental_uris":{"android":"levelo://app?vid=7b5a692f-8620-4269-b938-b35847cae01d","ios":"levelo://app?vid=7b5a692f-8620-4269-b938-b35847cae01d"},"vehicle_type_id":"4","last_reported":1701421661,"current_range_meters":30400,"station_id":"ce4bhip2rcd13ifvqft0","pricing_plan_id":"free"},{"bike_id":"4b6cd26e-9f31-4ae2-97cb-a20cc5c3fe7e","system_id":"levelo_inurba_marseille","lat":43.27073,"lon":5.42279,"is_reserved":false,"is_disabled":false,"rental_uris":{"android":"levelo://app?vid=4b6cd26e-9f31-4ae2-97cb-a20cc5c3fe7e","ios":"levelo://app?vid=4b6cd26e-9f31-4ae2-97cb-a20cc5c3fe7e"},"vehicle_type_id":"4","last_reported":1701421661,"current_range_meters":15200,"station_id":"ce4bhk92rcd13ifvqgb0","pricing_plan_id":"free"},{"bike_id":"fac0e422-c37f-421d-8e1b-a25ffb37ce17","system_id":"levelo_inurba_marseille","lat":43.27072,"lon":5.42281,"is_reserved":false,"is_disabled":false,"rental_uris":{"android":"levelo://app?vid=fac0e422-c37f-421d-8e1b-a25ffb37ce17","ios":"levelo://app?vid=fac0e422-c37f-421d-8e1b-a25ffb37ce17"},"vehicle_type_id":"4","last_reported":1701421661,"current_range_meters":29600,"station_id":"ce4bhk92rcd13ifvqgb0","pricing_plan_id":"free"},{"bike_id":"39a41fc6-fb12-4304-b9bd-c12fd73ba948","system_id":"levelo_inurba_marseille","lat":43.27067,"lon":5.42277,"is_reserved":false,"is_disabled":false,"rental_uris":{"android":"levelo://app?vid=39a41fc6-fb12-4304-b9bd-c12fd73ba948","ios":"levelo://app?vid=39a41fc6-fb12-4304-b9bd-c12fd73ba948"},"vehicle_type_id":"4","last_reported":1701421661,"current_range_meters":31200,"station_id":"ce4bhk92rcd13ifvqgb0","pricing_plan_id":"free"},{"bike_id":"d28c2101-138c-4829-a4d2-de1aa91912ed","system_id":"levelo_inurba_marseille","lat":43.27068,"lon":5.4228,"is_reserved":false,"is_disabled":false,"rental_uris":{"android":"levelo://app?vid=d28c2101-138c-4829-a4d2-de1aa91912ed","ios":"levelo://app?vid=d28c2101-138c-4829-a4d2-de1aa91912ed"},"vehicle_type_id":"4","last_reported":1701421661,"current_range_meters":10400,"station_id":"ce4bhk92rcd13ifvqgb0","pricing_plan_id":"free"},{"bike_id":"2d275456-922d-48cc-a778-73646606cbed","system_id":"levelo_inurba_marseille","lat":43.258658,"lon":5.398935,"is_reserved":false,"is_disabled":false,"rental_uris":{"android":"levelo://app?vid=2d275456-922d-48cc-a778-73646606cbed","ios":"levelo://app?vid=2d275456-922d-48cc-a778-73646606cbed"},"vehicle_type_id":"4","last_reported":1701421661,"current_range_meters":28000,"station_id":"ce4bhl92rcd13ifvqghg","pricing_plan_id":"free"},{"bike_id":"2e8cc1f5-1e9a-4211-8d71-225cdc6b3eb9","system_id":"levelo_inurba_marseille","lat":43.250023,"lon":5.38919,"is_reserved":false,"is_disabled":false,"rental_uris":{"android":"levelo://app?vid=2e8cc1f5-1e9a-4211-8d71-225cdc6b3eb9","ios":"levelo://app?vid=2e8cc1f5-1e9a-4211-8d71-225cdc6b3eb9"},"vehicle_type_id":"4","last_reported":1701421661,"current_range_meters":9600,"station_id":"ce4bhgp2rcd13ifvqfd0","pricing_plan_id":"free"},{"bike_id":"be30aff5-fbcc-4b18-b536-1b1e3fd71369","system_id":"levelo_inurba_marseille","lat":43.250023,"lon":5.38919,"is_reserved":false,"is_disabled":false,"rental_uris":{"android":"levelo://app?vid=be30aff5-fbcc-4b18-b536-1b1e3fd71369","ios":"levelo://app?vid=be30aff5-fbcc-4b18-b536-1b1e3fd71369"},"vehicle_type_id":"4","last_reported":1701421661,"current_range_meters":30000,"station_id":"ce4bhgp2rcd13ifvqfd0","pricing_plan_id":"free"},{"bike_id":"732665e2-c9f6-46bb-8f74-6cb0802c01f7","system_id":"levelo_inurba_marseille","lat":43.24693,"lon":5.382096,"is_reserved":false,"is_disabled":false,"rental_uris":{"android":"levelo://app?vid=732665e2-c9f6-46bb-8f74-6cb0802c01f7","ios":"levelo://app?vid=732665e2-c9f6-46bb-8f74-6cb0802c01f7"},"vehicle_type_id":"4","last_reported":1701421661,"current_range_meters":0,"station_id":"ce4bhih2rcd13ifvqfr0","pricing_plan_id":"free"},{"bike_id":"cd6f6f59-1ad5-4c86-9a4b-0af010b4da11","system_id":"levelo_inurba_marseille","lat":43.25102,"lon":5.403214,"is_reserved":false,"is_disabled":false,"rental_uris":{"android":"levelo://app?vid=cd6f6f59-1ad5-4c86-9a4b-0af010b4da11","ios":"levelo://app?vid=cd6f6f59-1ad5-4c86-9a4b-0af010b4da11"},"vehicle_type_id":"4","last_reported":1701421661,"current_range_meters":800,"station_id":"ce4bhlh2rcd13ifvqgig","pricing_plan_id":"free"},{"bike_id":"b1796bba-fd7a-4ae8-bb1b-aab06800ce0a","system_id":"levelo_inurba_marseille","lat":43.243883,"lon":5.370578,"is_reserved":false,"is_disabled":false,"rental_uris":{"android":"levelo://app?vid=b1796bba-fd7a-4ae8-bb1b-aab06800ce0a","ios":"levelo://app?vid=b1796bba-fd7a-4ae8-bb1b-aab06800ce0a"},"vehicle_type_id":"4","last_reported":1701421661,"current_range_meters":27200,"station_id":"ce4bhnp2rcd13ifvqgvg","pricing_plan_id":"free"},{"bike_id":"617c2135-7e00-4ffc-8c72-4702fa3c52ad","system_id":"levelo_inurba_marseille","lat":43.24077,"lon":5.3776,"is_reserved":false,"is_disabled":false,"rental_uris":{"android":"levelo://app?vid=617c2135-7e00-4ffc-8c72-4702fa3c52ad","ios":"levelo://app?vid=617c2135-7e00-4ffc-8c72-4702fa3c52ad"},"vehicle_type_id":"4","last_reported":1701421661,"current_range_meters":21600,"station_id":"ce4bhnp2rcd13ifvqgvg","pricing_plan_id":"free"},{"bike_id":"ae5f639a-05f1-4fb3-b63d-63646b9331ef","system_id":"levelo_inurba_marseille","lat":43.24076,"lon":5.37755,"is_reserved":false,"is_disabled":false,"rental_uris":{"android":"levelo://app?vid=ae5f639a-05f1-4fb3-b63d-63646b9331ef","ios":"levelo://app?vid=ae5f639a-05f1-4fb3-b63d-63646b9331ef"},"vehicle_type_id":"4","last_reported":1701421661,"current_range_meters":6000,"station_id":"ce4bhnp2rcd13ifvqgvg","pricing_plan_id":"free"},{"bike_id":"da2c7a8c-76d4-4d96-9cc0-dd7ac3cc02c3","system_id":"levelo_inurba_marseille","lat":43.24076,"lon":5.3776,"is_reserved":false,"is_disabled":false,"rental_uris":{"android":"levelo://app?vid=da2c7a8c-76d4-4d96-9cc0-dd7ac3cc02c3","ios":"levelo://app?vid=da2c7a8c-76d4-4d96-9cc0-dd7ac3cc02c3"},"vehicle_type_id":"4","last_reported":1701421661,"current_range_meters":10800,"station_id":"ce4bhnp2rcd13ifvqgvg","pricing_plan_id":"free"},{"bike_id":"22af8a33-5d19-4f58-a48b-393cf5164aa7","system_id":"levelo_inurba_marseille","lat":43.24075,"lon":5.37756,"is_reserved":false,"is_disabled":false,"rental_uris":{"android":"levelo://app?vid=22af8a33-5d19-4f58-a48b-393cf5164aa7","ios":"levelo://app?vid=22af8a33-5d19-4f58-a48b-393cf5164aa7"},"vehicle_type_id":"4","last_reported":1701421661,"current_range_meters":30400,"station_id":"ce4bhnp2rcd13ifvqgvg","pricing_plan_id":"free"},{"bike_id":"168c9a65-5caf-4575-a261-728005b57a26","system_id":"levelo_inurba_marseille","lat":43.24075,"lon":5.3776,"is_reserved":false,"is_disabled":false,"rental_uris":{"android":"levelo://app?vid=168c9a65-5caf-4575-a261-728005b57a26","ios":"levelo://app?vid=168c9a65-5caf-4575-a261-728005b57a26"},"vehicle_type_id":"4","last_reported":1701421661,"current_range_meters":17600,"station_id":"ce4bhnp2rcd13ifvqgvg","pricing_plan_id":"free"},{"bike_id":"ccc95f14-5660-4983-a8bb-1ed35dfa6071","system_id":"levelo_inurba_marseille","lat":43.24075,"lon":5.3776,"is_reserved":false,"is_disabled":false,"rental_uris":{"android":"levelo://app?vid=ccc95f14-5660-4983-a8bb-1ed35dfa6071","ios":"levelo://app?vid=ccc95f14-5660-4983-a8bb-1ed35dfa6071"},"vehicle_type_id":"4","last_reported":1701421661,"current_range_meters":13200,"station_id":"ce4bhnp2rcd13ifvqgvg","pricing_plan_id":"free"},{"bike_id":"397cfeeb-d1ee-48f7-a8de-062693bea79f","system_id":"levelo_inurba_marseille","lat":43.24075,"lon":5.37763,"is_reserved":false,"is_disabled":false,"rental_uris":{"android":"levelo://app?vid=397cfeeb-d1ee-48f7-a8de-062693bea79f","ios":"levelo://app?vid=397cfeeb-d1ee-48f7-a8de-062693bea79f"},"vehicle_type_id":"4","last_reported":1701421661,"current_range_meters":27200,"station_id":"ce4bhnp2rcd13ifvqgvg","pricing_plan_id":"free"},{"bike_id":"1ff49f5f-c774-4946-b848-51862abc125d","system_id":"levelo_inurba_marseille","lat":43.24075,"lon":5.37763,"is_reserved":false,"is_disabled":false,"rental_uris":{"android":"levelo://app?vid=1ff49f5f-c774-4946-b848-51862abc125d","ios":"levelo://app?vid=1ff49f5f-c774-4946-b848-51862abc125d"},"vehicle_type_id":"4","last_reported":1701421661,"current_range_meters":26800,"station_id":"ce4bhnp2rcd13ifvqgvg","pricing_plan_id":"free"},{"bike_id":"973b3db1-6e56-41e5-aa86-9a576de460be","system_id":"levelo_inurba_marseille","lat":43.24074,"lon":5.37756,"is_reserved":false,"is_disabled":false,"rental_uris":{"android":"levelo://app?vid=973b3db1-6e56-41e5-aa86-9a576de460be","ios":"levelo://app?vid=973b3db1-6e56-41e5-aa86-9a576de460be"},"vehicle_type_id":"4","last_reported":1701421661,"current_range_meters":18000,"station_id":"ce4bhnp2rcd13ifvqgvg","pricing_plan_id":"free"},{"bike_id":"3d27939c-c0b8-496e-adbb-2f99216c2220","system_id":"levelo_inurba_marseille","lat":43.24074,"lon":5.37759,"is_reserved":false,"is_disabled":false,"rental_uris":{"android":"levelo://app?vid=3d27939c-c0b8-496e-adbb-2f99216c2220","ios":"levelo://app?vid=3d27939c-c0b8-496e-adbb-2f99216c2220"},"vehicle_type_id":"4","last_reported":1701421661,"current_range_meters":27600,"station_id":"ce4bhnp2rcd13ifvqgvg","pricing_plan_id":"free"},{"bike_id":"f1464391-aa4c-4383-be86-daa5a1d1f34d","system_id":"levelo_inurba_marseille","lat":43.24074,"lon":5.3776,"is_reserved":false,"is_disabled":false,"rental_uris":{"android":"levelo://app?vid=f1464391-aa4c-4383-be86-daa5a1d1f34d","ios":"levelo://app?vid=f1464391-aa4c-4383-be86-daa5a1d1f34d"},"vehicle_type_id":"4","last_reported":1701421661,"current_range_meters":31200,"station_id":"ce4bhnp2rcd13ifvqgvg","pricing_plan_id":"free"},{"bike_id":"99fe24b8-9eff-45db-a967-9c89872d3c9a","system_id":"levelo_inurba_marseille","lat":43.24074,"lon":5.37762,"is_reserved":false,"is_disabled":false,"rental_uris":{"android":"levelo://app?vid=99fe24b8-9eff-45db-a967-9c89872d3c9a","ios":"levelo://app?vid=99fe24b8-9eff-45db-a967-9c89872d3c9a"},"vehicle_type_id":"4","last_reported":1701421661,"current_range_meters":27600,"station_id":"ce4bhnp2rcd13ifvqgvg","pricing_plan_id":"free"},{"bike_id":"e3c78006-5ac2-4c7b-9373-b1a04f04badf","system_id":"levelo_inurba_marseille","lat":43.24073,"lon":5.37756,"is_reserved":false,"is_disabled":false,"rental_uris":{"android":"levelo://app?vid=e3c78006-5ac2-4c7b-9373-b1a04f04badf","ios":"levelo://app?vid=e3c78006-5ac2-4c7b-9373-b1a04f04badf"},"vehicle_type_id":"4","last_reported":1701421661,"current_range_meters":6800,"station_id":"ce4bhnp2rcd13ifvqgvg","pricing_plan_id":"free"},{"bike_id":"55b3cd81-3102-42ac-9a78-9cee9df53b8f","system_id":"levelo_inurba_marseille","lat":43.24073,"lon":5.37761,"is_reserved":false,"is_disabled":false,"rental_uris":{"android":"levelo://app?vid=55b3cd81-3102-42ac-9a78-9cee9df53b8f","ios":"levelo://app?vid=55b3cd81-3102-42ac-9a78-9cee9df53b8f"},"vehicle_type_id":"4","last_reported":1701421661,"current_range_meters":28800,"station_id":"ce4bhnp2rcd13ifvqgvg","pricing_plan_id":"free"},{"bike_id":"93f73566-622c-4ec8-9b11-ebca7fafe29d","system_id":"levelo_inurba_marseille","lat":43.24072,"lon":5.37749,"is_reserved":false,"is_disabled":false,"rental_uris":{"android":"levelo://app?vid=93f73566-622c-4ec8-9b11-ebca7fafe29d","ios":"levelo://app?vid=93f73566-622c-4ec8-9b11-ebca7fafe29d"},"vehicle_type_id":"4","last_reported":1701421661,"current_range_meters":14000,"station_id":"ce4bhnp2rcd13ifvqgvg","pricing_plan_id":"free"},{"bike_id":"a517b7b3-e439-4e17-9498-8c7862bdde7e","system_id":"levelo_inurba_marseille","lat":43.24073,"lon":5.37762,"is_reserved":false,"is_disabled":false,"rental_uris":{"android":"levelo://app?vid=a517b7b3-e439-4e17-9498-8c7862bdde7e","ios":"levelo://app?vid=a517b7b3-e439-4e17-9498-8c7862bdde7e"},"vehicle_type_id":"4","last_reported":1701421661,"current_range_meters":29600,"station_id":"ce4bhnp2rcd13ifvqgvg","pricing_plan_id":"free"},{"bike_id":"c7a4e119-a725-4d8e-b2b5-b0b67991847d","system_id":"levelo_inurba_marseille","lat":43.24072,"lon":5.3776,"is_reserved":false,"is_disabled":false,"rental_uris":{"android":"levelo://app?vid=c7a4e119-a725-4d8e-b2b5-b0b67991847d","ios":"levelo://app?vid=c7a4e119-a725-4d8e-b2b5-b0b67991847d"},"vehicle_type_id":"4","last_reported":1701421661,"current_range_meters":17600,"station_id":"ce4bhnp2rcd13ifvqgvg","pricing_plan_id":"free"},{"bike_id":"aeccdc95-2abc-4c4c-84cc-de036b1e6846","system_id":"levelo_inurba_marseille","lat":43.24071,"lon":5.37763,"is_reserved":false,"is_disabled":false,"rental_uris":{"android":"levelo://app?vid=aeccdc95-2abc-4c4c-84cc-de036b1e6846","ios":"levelo://app?vid=aeccdc95-2abc-4c4c-84cc-de036b1e6846"},"vehicle_type_id":"4","last_reported":1701421661,"current_range_meters":17200,"station_id":"ce4bhnp2rcd13ifvqgvg","pricing_plan_id":"free"},{"bike_id":"3d54e59c-bc47-4924-ac20-98760540093b","system_id":"levelo_inurba_marseille","lat":43.24071,"lon":5.37764,"is_reserved":false,"is_disabled":false,"rental_uris":{"android":"levelo://app?vid=3d54e59c-bc47-4924-ac20-98760540093b","ios":"levelo://app?vid=3d54e59c-bc47-4924-ac20-98760540093b"},"vehicle_type_id":"4","last_reported":1701421661,"current_range_meters":14400,"station_id":"ce4bhnp2rcd13ifvqgvg","pricing_plan_id":"free"},{"bike_id":"e7762de2-56c9-4a88-a831-b1e9d9255480","system_id":"levelo_inurba_marseille","lat":43.2407,"lon":5.37754,"is_reserved":false,"is_disabled":false,"rental_uris":{"android":"levelo://app?vid=e7762de2-56c9-4a88-a831-b1e9d9255480","ios":"levelo://app?vid=e7762de2-56c9-4a88-a831-b1e9d9255480"},"vehicle_type_id":"4","last_reported":1701421661,"current_range_meters":22000,"station_id":"ce4bhnp2rcd13ifvqgvg","pricing_plan_id":"free"},{"bike_id":"c4294243-9247-480c-8ace-6895488fd199","system_id":"levelo_inurba_marseille","lat":43.240623,"lon":5.377642,"is_reserved":false,"is_disabled":false,"rental_uris":{"android":"levelo://app?vid=c4294243-9247-480c-8ace-6895488fd199","ios":"levelo://app?vid=c4294243-9247-480c-8ace-6895488fd199"},"vehicle_type_id":"4","last_reported":1701421661,"current_range_meters":12800,"station_id":"ce4bhnp2rcd13ifvqgvg","pricing_plan_id":"free"},{"bike_id":"c0d1ff7b-8424-4190-b143-8989c86900e5","system_id":"levelo_inurba_marseille","lat":43.2407,"lon":5.3777,"is_reserved":false,"is_disabled":false,"rental_uris":{"android":"levelo://app?vid=c0d1ff7b-8424-4190-b143-8989c86900e5","ios":"levelo://app?vid=c0d1ff7b-8424-4190-b143-8989c86900e5"},"vehicle_type_id":"4","last_reported":1701421661,"current_range_meters":20000,"station_id":"ce4bhnp2rcd13ifvqgvg","pricing_plan_id":"free"},{"bike_id":"cfbbe273-a2fc-4fa7-ad22-d2160c539044","system_id":"levelo_inurba_marseille","lat":43.24069,"lon":5.37766,"is_reserved":false,"is_disabled":false,"rental_uris":{"android":"levelo://app?vid=cfbbe273-a2fc-4fa7-ad22-d2160c539044","ios":"levelo://app?vid=cfbbe273-a2fc-4fa7-ad22-d2160c539044"},"vehicle_type_id":"4","last_reported":1701421661,"current_range_meters":28400,"station_id":"ce4bhnp2rcd13ifvqgvg","pricing_plan_id":"free"},{"bike_id":"f7fd60b8-713a-4f69-9a5a-dd4fe5e71815","system_id":"levelo_inurba_marseille","lat":43.240623,"lon":5.377642,"is_reserved":false,"is_disabled":false,"rental_uris":{"android":"levelo://app?vid=f7fd60b8-713a-4f69-9a5a-dd4fe5e71815","ios":"levelo://app?vid=f7fd60b8-713a-4f69-9a5a-dd4fe5e71815"},"vehicle_type_id":"4","last_reported":1701421661,"current_range_meters":30400,"station_id":"ce4bhnp2rcd13ifvqgvg","pricing_plan_id":"free"},{"bike_id":"e47d7064-1951-4979-b605-3fd7f7608f13","system_id":"levelo_inurba_marseille","lat":43.240623,"lon":5.377642,"is_reserved":false,"is_disabled":false,"rental_uris":{"android":"levelo://app?vid=e47d7064-1951-4979-b605-3fd7f7608f13","ios":"levelo://app?vid=e47d7064-1951-4979-b605-3fd7f7608f13"},"vehicle_type_id":"4","last_reported":1701421661,"current_range_meters":28400,"station_id":"ce4bhnp2rcd13ifvqgvg","pricing_plan_id":"free"},{"bike_id":"e6c87bb9-749c-4183-a309-7aedddc29015","system_id":"levelo_inurba_marseille","lat":43.24067,"lon":5.37766,"is_reserved":false,"is_disabled":false,"rental_uris":{"android":"levelo://app?vid=e6c87bb9-749c-4183-a309-7aedddc29015","ios":"levelo://app?vid=e6c87bb9-749c-4183-a309-7aedddc29015"},"vehicle_type_id":"4","last_reported":1701421661,"current_range_meters":28800,"station_id":"ce4bhnp2rcd13ifvqgvg","pricing_plan_id":"free"},{"bike_id":"45f87a80-0787-4ece-99c5-480ea800c2a1","system_id":"levelo_inurba_marseille","lat":43.241782,"lon":5.397261,"is_reserved":false,"is_disabled":false,"rental_uris":{"android":"levelo://app?vid=45f87a80-0787-4ece-99c5-480ea800c2a1","ios":"levelo://app?vid=45f87a80-0787-4ece-99c5-480ea800c2a1"},"vehicle_type_id":"4","last_reported":1701421661,"current_range_meters":15200,"station_id":"ce4bhn12rcd13ifvqgpg","pricing_plan_id":"free"},{"bike_id":"d01409a0-2320-406c-90b1-4e4da8a40d17","system_id":"levelo_inurba_marseille","lat":43.241782,"lon":5.397264,"is_reserved":false,"is_disabled":false,"rental_uris":{"android":"levelo://app?vid=d01409a0-2320-406c-90b1-4e4da8a40d17","ios":"levelo://app?vid=d01409a0-2320-406c-90b1-4e4da8a40d17"},"vehicle_type_id":"4","last_reported":1701421661,"current_range_meters":12400,"station_id":"ce4bhn12rcd13ifvqgpg","pricing_plan_id":"free"},{"bike_id":"460ff11d-43d6-4fa0-9381-c598ad26d49a","system_id":"levelo_inurba_marseille","lat":43.24179,"lon":5.39732,"is_reserved":false,"is_disabled":false,"rental_uris":{"android":"levelo://app?vid=460ff11d-43d6-4fa0-9381-c598ad26d49a","ios":"levelo://app?vid=460ff11d-43d6-4fa0-9381-c598ad26d49a"},"vehicle_type_id":"4","last_reported":1701421661,"current_range_meters":22400,"station_id":"ce4bhn12rcd13ifvqgpg","pricing_plan_id":"free"},{"bike_id":"8b5a9e96-b412-406d-b5d0-2555e0d1eb4e","system_id":"levelo_inurba_marseille","lat":43.241782,"lon":5.397261,"is_reserved":false,"is_disabled":false,"rental_uris":{"android":"levelo://app?vid=8b5a9e96-b412-406d-b5d0-2555e0d1eb4e","ios":"levelo://app?vid=8b5a9e96-b412-406d-b5d0-2555e0d1eb4e"},"vehicle_type_id":"4","last_reported":1701421661,"current_range_meters":23600,"station_id":"ce4bhn12rcd13ifvqgpg","pricing_plan_id":"free"},{"bike_id":"8fcd3957-57da-4704-960c-aeae958283c0","system_id":"levelo_inurba_marseille","lat":43.241782,"lon":5.397261,"is_reserved":false,"is_disabled":false,"rental_uris":{"android":"levelo://app?vid=8fcd3957-57da-4704-960c-aeae958283c0","ios":"levelo://app?vid=8fcd3957-57da-4704-960c-aeae958283c0"},"vehicle_type_id":"4","last_reported":1701421661,"current_range_meters":17600,"station_id":"ce4bhn12rcd13ifvqgpg","pricing_plan_id":"free"},{"bike_id":"3ecf9bd9-273b-44cb-bcf5-e6a8b3379dfc","system_id":"levelo_inurba_marseille","lat":43.24172,"lon":5.39722,"is_reserved":false,"is_disabled":false,"rental_uris":{"android":"levelo://app?vid=3ecf9bd9-273b-44cb-bcf5-e6a8b3379dfc","ios":"levelo://app?vid=3ecf9bd9-273b-44cb-bcf5-e6a8b3379dfc"},"vehicle_type_id":"4","last_reported":1701421661,"current_range_meters":22000,"station_id":"ce4bhn12rcd13ifvqgpg","pricing_plan_id":"free"},{"bike_id":"e24daac6-4c93-40f9-8f65-68e5542d6c98","system_id":"levelo_inurba_marseille","lat":43.231923,"lon":5.355545,"is_reserved":false,"is_disabled":false,"rental_uris":{"android":"levelo://app?vid=e24daac6-4c93-40f9-8f65-68e5542d6c98","ios":"levelo://app?vid=e24daac6-4c93-40f9-8f65-68e5542d6c98"},"vehicle_type_id":"4","last_reported":1701421661,"current_range_meters":20000,"station_id":"ce4bhu92rcd13ifvqi70","pricing_plan_id":"free"},{"bike_id":"d9b0fc6f-97ab-463f-ab41-2da2d28b189d","system_id":"levelo_inurba_marseille","lat":43.231919,"lon":5.355532,"is_reserved":false,"is_disabled":false,"rental_uris":{"android":"levelo://app?vid=d9b0fc6f-97ab-463f-ab41-2da2d28b189d","ios":"levelo://app?vid=d9b0fc6f-97ab-463f-ab41-2da2d28b189d"},"vehicle_type_id":"4","last_reported":1701421661,"current_range_meters":17200,"station_id":"ce4bhu92rcd13ifvqi70","pricing_plan_id":"free"},{"bike_id":"4995d4c7-eb2f-4c35-8e6a-5f7a74c6b523","system_id":"levelo_inurba_marseille","lat":43.231923,"lon":5.355545,"is_reserved":false,"is_disabled":false,"rental_uris":{"android":"levelo://app?vid=4995d4c7-eb2f-4c35-8e6a-5f7a74c6b523","ios":"levelo://app?vid=4995d4c7-eb2f-4c35-8e6a-5f7a74c6b523"},"vehicle_type_id":"4","last_reported":1701421661,"current_range_meters":11600,"station_id":"ce4bhu92rcd13ifvqi70","pricing_plan_id":"free"},{"bike_id":"6382809b-45d0-4ad2-8be7-697249f82077","system_id":"levelo_inurba_marseille","lat":43.231919,"lon":5.355532,"is_reserved":false,"is_disabled":false,"rental_uris":{"android":"levelo://app?vid=6382809b-45d0-4ad2-8be7-697249f82077","ios":"levelo://app?vid=6382809b-45d0-4ad2-8be7-697249f82077"},"vehicle_type_id":"4","last_reported":1701421661,"current_range_meters":31600,"station_id":"ce4bhu92rcd13ifvqi70","pricing_plan_id":"free"},{"bike_id":"d1703505-b125-4a98-a807-11024241bc04","system_id":"levelo_inurba_marseille","lat":43.231923,"lon":5.355545,"is_reserved":false,"is_disabled":false,"rental_uris":{"android":"levelo://app?vid=d1703505-b125-4a98-a807-11024241bc04","ios":"levelo://app?vid=d1703505-b125-4a98-a807-11024241bc04"},"vehicle_type_id":"4","last_reported":1701421661,"current_range_meters":31600,"station_id":"ce4bhu92rcd13ifvqi70","pricing_plan_id":"free"},{"bike_id":"d1dfe326-9244-4159-86ca-6dcc5e36ada8","system_id":"levelo_inurba_marseille","lat":43.231923,"lon":5.355545,"is_reserved":false,"is_disabled":false,"rental_uris":{"android":"levelo://app?vid=d1dfe326-9244-4159-86ca-6dcc5e36ada8","ios":"levelo://app?vid=d1dfe326-9244-4159-86ca-6dcc5e36ada8"},"vehicle_type_id":"4","last_reported":1701421661,"current_range_meters":10400,"station_id":"ce4bhu92rcd13ifvqi70","pricing_plan_id":"free"},{"bike_id":"cf3102c4-88e0-4a41-86b7-69a76932d3e6","system_id":"levelo_inurba_marseille","lat":43.231923,"lon":5.355545,"is_reserved":false,"is_disabled":false,"rental_uris":{"android":"levelo://app?vid=cf3102c4-88e0-4a41-86b7-69a76932d3e6","ios":"levelo://app?vid=cf3102c4-88e0-4a41-86b7-69a76932d3e6"},"vehicle_type_id":"4","last_reported":1701421661,"current_range_meters":31600,"station_id":"ce4bhu92rcd13ifvqi70","pricing_plan_id":"free"},{"bike_id":"cdfcf9d8-5b42-40a1-9c86-605bac4b94e5","system_id":"levelo_inurba_marseille","lat":43.23189,"lon":5.39987,"is_reserved":false,"is_disabled":false,"rental_uris":{"android":"levelo://app?vid=cdfcf9d8-5b42-40a1-9c86-605bac4b94e5","ios":"levelo://app?vid=cdfcf9d8-5b42-40a1-9c86-605bac4b94e5"},"vehicle_type_id":"4","last_reported":1701421661,"current_range_meters":18000,"station_id":"ce4bhn12rcd13ifvqgqg","pricing_plan_id":"free"},{"bike_id":"0877e5b2-e6cf-4fa4-a987-f057e3aebebf","system_id":"levelo_inurba_marseille","lat":43.23189,"lon":5.399958,"is_reserved":false,"is_disabled":false,"rental_uris":{"android":"levelo://app?vid=0877e5b2-e6cf-4fa4-a987-f057e3aebebf","ios":"levelo://app?vid=0877e5b2-e6cf-4fa4-a987-f057e3aebebf"},"vehicle_type_id":"4","last_reported":1701421661,"current_range_meters":29600,"station_id":"ce4bhn12rcd13ifvqgqg","pricing_plan_id":"free"},{"bike_id":"1eeab9a5-d341-4bc8-8d21-ee151ff9d9b2","system_id":"levelo_inurba_marseille","lat":43.231859,"lon":5.399859,"is_reserved":false,"is_disabled":false,"rental_uris":{"android":"levelo://app?vid=1eeab9a5-d341-4bc8-8d21-ee151ff9d9b2","ios":"levelo://app?vid=1eeab9a5-d341-4bc8-8d21-ee151ff9d9b2"},"vehicle_type_id":"4","last_reported":1701421661,"current_range_meters":24800,"station_id":"ce4bhn12rcd13ifvqgqg","pricing_plan_id":"free"},{"bike_id":"8eb0ca37-48be-46c0-a9a9-f5b046dc44f1","system_id":"levelo_inurba_marseille","lat":43.231794,"lon":5.400052,"is_reserved":false,"is_disabled":false,"rental_uris":{"android":"levelo://app?vid=8eb0ca37-48be-46c0-a9a9-f5b046dc44f1","ios":"levelo://app?vid=8eb0ca37-48be-46c0-a9a9-f5b046dc44f1"},"vehicle_type_id":"4","last_reported":1701421661,"current_range_meters":31200,"station_id":"ce4bhn12rcd13ifvqgqg","pricing_plan_id":"free"},{"bike_id":"6328460b-f25d-447a-9163-7305c5a26e54","system_id":"levelo_inurba_marseille","lat":43.23155,"lon":5.43699,"is_reserved":false,"is_disabled":false,"rental_uris":{"android":"levelo://app?vid=6328460b-f25d-447a-9163-7305c5a26e54","ios":"levelo://app?vid=6328460b-f25d-447a-9163-7305c5a26e54"},"vehicle_type_id":"4","last_reported":1701421661,"current_range_meters":23600,"station_id":"","pricing_plan_id":"free"},{"bike_id":"383114a7-e4f1-409e-9d6b-2c253e0d1c0b","system_id":"levelo_inurba_marseille","lat":43.231562,"lon":5.436933,"is_reserved":false,"is_disabled":false,"rental_uris":{"android":"levelo://app?vid=383114a7-e4f1-409e-9d6b-2c253e0d1c0b","ios":"levelo://app?vid=383114a7-e4f1-409e-9d6b-2c253e0d1c0b"},"vehicle_type_id":"4","last_reported":1701421661,"current_range_meters":22800,"station_id":"ce4bhmp2rcd13ifvqgog","pricing_plan_id":"free"},{"bike_id":"ecde097c-f986-4c04-a866-00f9064837ab","system_id":"levelo_inurba_marseille","lat":43.231562,"lon":5.436933,"is_reserved":false,"is_disabled":false,"rental_uris":{"android":"levelo://app?vid=ecde097c-f986-4c04-a866-00f9064837ab","ios":"levelo://app?vid=ecde097c-f986-4c04-a866-00f9064837ab"},"vehicle_type_id":"4","last_reported":1701421661,"current_range_meters":29600,"station_id":"ce4bhmp2rcd13ifvqgog","pricing_plan_id":"free"},{"bike_id":"f28cfabb-59d3-49b1-a4ac-bf53d4ac67aa","system_id":"levelo_inurba_marseille","lat":43.23155,"lon":5.43714,"is_reserved":false,"is_disabled":false,"rental_uris":{"android":"levelo://app?vid=f28cfabb-59d3-49b1-a4ac-bf53d4ac67aa","ios":"levelo://app?vid=f28cfabb-59d3-49b1-a4ac-bf53d4ac67aa"},"vehicle_type_id":"4","last_reported":1701421661,"current_range_meters":16000,"station_id":"ce4bhmp2rcd13ifvqgog","pricing_plan_id":"free"},{"bike_id":"148b4f22-a405-4cb9-8089-ea7264a000b4","system_id":"levelo_inurba_marseille","lat":43.231562,"lon":5.436933,"is_reserved":false,"is_disabled":false,"rental_uris":{"android":"levelo://app?vid=148b4f22-a405-4cb9-8089-ea7264a000b4","ios":"levelo://app?vid=148b4f22-a405-4cb9-8089-ea7264a000b4"},"vehicle_type_id":"4","last_reported":1701421661,"current_range_meters":8800,"station_id":"ce4bhmp2rcd13ifvqgog","pricing_plan_id":"free"},{"bike_id":"e0e24483-9bcf-45d9-bbfa-46e4151a6b36","system_id":"levelo_inurba_marseille","lat":43.23149,"lon":5.43703,"is_reserved":false,"is_disabled":false,"rental_uris":{"android":"levelo://app?vid=e0e24483-9bcf-45d9-bbfa-46e4151a6b36","ios":"levelo://app?vid=e0e24483-9bcf-45d9-bbfa-46e4151a6b36"},"vehicle_type_id":"4","last_reported":1701421661,"current_range_meters":30800,"station_id":"","pricing_plan_id":"free"},{"bike_id":"edc0e680-2548-4339-8fb5-1532d40e4393","system_id":"levelo_inurba_marseille","lat":43.231562,"lon":5.436933,"is_reserved":false,"is_disabled":false,"rental_uris":{"android":"levelo://app?vid=edc0e680-2548-4339-8fb5-1532d40e4393","ios":"levelo://app?vid=edc0e680-2548-4339-8fb5-1532d40e4393"},"vehicle_type_id":"4","last_reported":1701421661,"current_range_meters":4400,"station_id":"ce4bhmp2rcd13ifvqgog","pricing_plan_id":"free"},{"bike_id":"20cf5f87-1e3a-455f-b7ab-bd7bbc1d0cda","system_id":"levelo_inurba_marseille","lat":43.23155,"lon":5.43717,"is_reserved":false,"is_disabled":false,"rental_uris":{"android":"levelo://app?vid=20cf5f87-1e3a-455f-b7ab-bd7bbc1d0cda","ios":"levelo://app?vid=20cf5f87-1e3a-455f-b7ab-bd7bbc1d0cda"},"vehicle_type_id":"4","last_reported":1701421661,"current_range_meters":13200,"station_id":"ce4bhmp2rcd13ifvqgog","pricing_plan_id":"free"},{"bike_id":"3da38adb-17bb-47a1-b2b1-5ea50dcafb3d","system_id":"levelo_inurba_marseille","lat":43.23152,"lon":5.43712,"is_reserved":false,"is_disabled":false,"rental_uris":{"android":"levelo://app?vid=3da38adb-17bb-47a1-b2b1-5ea50dcafb3d","ios":"levelo://app?vid=3da38adb-17bb-47a1-b2b1-5ea50dcafb3d"},