{"last_updated":1761214281,"ttl":60,"version":"2.2","data":{"bikes":[{"bike_id":"66bec76d-d7e9-4a1e-a715-39e56334bf96","system_id":"levelo_inurba_marseille","lat":43.28296,"lon":5.39635,"is_reserved":false,"is_disabled":false,"rental_uris":{"android":"levelo://app?vid=66bec76d-d7e9-4a1e-a715-39e56334bf96","ios":"levelo://app?vid=66bec76d-d7e9-4a1e-a715-39e56334bf96"},"vehicle_type_id":"4","last_reported":1761214281,"current_range_meters":2800,"station_id":"","pricing_plan_id":"cebpf4jnsgd1na2vs0mg"},{"bike_id":"449ad382-b3d8-4842-b336-765340ac591e","system_id":"levelo_inurba_marseille","lat":43.2902,"lon":5.38153,"is_reserved":false,"is_disabled":false,"rental_uris":{"android":"levelo://app?vid=449ad382-b3d8-4842-b336-765340ac591e","ios":"levelo://app?vid=449ad382-b3d8-4842-b336-765340ac591e"},"vehicle_type_id":"4","last_reported":1761214281,"current_range_meters":2800,"station_id":"ce4bh4p2rcd13ifvqe1g","pricing_plan_id":"cebpf4jnsgd1na2vs0mg"},{"bike_id":"3d068a7d-8c2c-4f97-8d7d-54140fa95800","system_id":"levelo_inurba_marseille","lat":43.27263,"lon":5.39964,"is_reserved":false,"is_disabled":false,"rental_uris":{"android":"levelo://app?vid=3d068a7d-8c2c-4f97-8d7d-54140fa95800","ios":"levelo://app?vid=3d068a7d-8c2c-4f97-8d7d-54140fa95800"},"vehicle_type_id":"4","last_reported":1761214281,"current_range_meters":2800,"station_id":"","pricing_plan_id":"cebpf4jnsgd1na2vs0mg"},{"bike_id":"158efa80-12ab-4b7d-8a51-8d3a468fcc07","system_id":"levelo_inurba_marseille","lat":43.21194,"lon":5.35071,"is_reserved":false,"is_disabled":true,"rental_uris":{"android":"levelo://app?vid=158efa80-12ab-4b7d-8a51-8d3a468fcc07","ios":"levelo://app?vid=158efa80-12ab-4b7d-8a51-8d3a468fcc07"},"vehicle_type_id":"4","last_reported":1761214281,"current_range_meters":2800,"station_id":"","pricing_plan_id":"cebpf4jnsgd1na2vs0mg"},{"bike_id":"563add41-42b5-4a40-a2f4-2f753e2062a9","system_id":"levelo_inurba_marseille","lat":43.28787,"lon":5.36383,"is_reserved":false,"is_disabled":false,"rental_uris":{"android":"levelo://app?vid=563add41-42b5-4a40-a2f4-2f753e2062a9","ios":"levelo://app?vid=563add41-42b5-4a40-a2f4-2f753e2062a9"},"vehicle_type_id":"4","last_reported":1761214281,"current_range_meters":3200,"station_id":"","pricing_plan_id":"cebpf4jnsgd1na2vs0mg"},{"bike_id":"53336af0-49f4-4140-b876-5765131ed644","system_id":"levelo_inurba_marseille","lat":43.29751,"lon":5.37685,"is_reserved":false,"is_disabled":false,"rental_uris":{"android":"levelo://app?vid=53336af0-49f4-4140-b876-5765131ed644","ios":"levelo://app?vid=53336af0-49f4-4140-b876-5765131ed644"},"vehicle_type_id":"4","last_reported":1761214281,"current_range_meters":3200,"station_id":"ce4bgkh2rcd13ifvqbl0","pricing_plan_id":"cebpf4jnsgd1na2vs0mg"},{"bike_id":"e2d1f61d-79b2-48f7-b736-3c7c9a2ed41b","system_id":"levelo_inurba_marseille","lat":43.31875,"lon":5.40729,"is_reserved":false,"is_disabled":false,"rental_uris":{"android":"levelo://app?vid=e2d1f61d-79b2-48f7-b736-3c7c9a2ed41b","ios":"levelo://app?vid=e2d1f61d-79b2-48f7-b736-3c7c9a2ed41b"},"vehicle_type_id":"4","last_reported":1761214281,"current_range_meters":3600,"station_id":"ce4bhq12rcd13ifvqhig","pricing_plan_id":"cebpf4jnsgd1na2vs0mg"},{"bike_id":"3201e625-69d5-420e-838c-f4c3f44666ef","system_id":"levelo_inurba_marseille","lat":43.33789,"lon":5.37423,"is_reserved":false,"is_disabled":false,"rental_uris":{"android":"levelo://app?vid=3201e625-69d5-420e-838c-f4c3f44666ef","ios":"levelo://app?vid=3201e625-69d5-420e-838c-f4c3f44666ef"},"vehicle_type_id":"4","last_reported":1761214281,"current_range_meters":3600,"station_id":"","pricing_plan_id":"cebpf4jnsgd1na2vs0mg"},{"bike_id":"da3c5d5d-639d-4a11-88e1-f7b9c2ad220a","system_id":"levelo_inurba_marseille","lat":43.31676,"lon":5.37765,"is_reserved":false,"is_disabled":true,"rental_uris":{"android":"levelo://app?vid=da3c5d5d-639d-4a11-88e1-f7b9c2ad220a","ios":"levelo://app?vid=da3c5d5d-639d-4a11-88e1-f7b9c2ad220a"},"vehicle_type_id":"4","last_reported":1761214281,"current_range_meters":4000,"station_id":"ce4bgth2rcd13ifvqch0","pricing_plan_id":"cebpf4jnsgd1na2vs0mg"},{"bike_id":"80f6aae4-96df-4213-90fb-f7479cd34156","system_id":"levelo_inurba_marseille","lat":43.295663,"lon":5.37523,"is_reserved":false,"is_disabled":false,"rental_uris":{"android":"levelo://app?vid=80f6aae4-96df-4213-90fb-f7479cd34156","ios":"levelo://app?vid=80f6aae4-96df-4213-90fb-f7479cd34156"},"vehicle_type_id":"4","last_reported":1761214281,"current_range_meters":4000,"station_id":"ce4bh292rcd13ifvqdf0","pricing_plan_id":"cebpf4jnsgd1na2vs0mg"},{"bike_id":"b97873dd-ee49-413e-8c98-ef845403d0a5","system_id":"levelo_inurba_marseille","lat":43.28691,"lon":5.38669,"is_reserved":false,"is_disabled":false,"rental_uris":{"android":"levelo://app?vid=b97873dd-ee49-413e-8c98-ef845403d0a5","ios":"levelo://app?vid=b97873dd-ee49-413e-8c98-ef845403d0a5"},"vehicle_type_id":"4","last_reported":1761214281,"current_range_meters":4400,"station_id":"ce4bh492rcd13ifvqdug","pricing_plan_id":"cebpf4jnsgd1na2vs0mg"},{"bike_id":"6feaa0bb-318a-4fd2-b7c8-442963e3325a","system_id":"levelo_inurba_marseille","lat":43.31363,"lon":5.38485,"is_reserved":false,"is_disabled":false,"rental_uris":{"android":"levelo://app?vid=6feaa0bb-318a-4fd2-b7c8-442963e3325a","ios":"levelo://app?vid=6feaa0bb-318a-4fd2-b7c8-442963e3325a"},"vehicle_type_id":"4","last_reported":1761214281,"current_range_meters":4400,"station_id":"ce4bgt92rcd13ifvqcf0","pricing_plan_id":"cebpf4jnsgd1na2vs0mg"},{"bike_id":"b7e41c34-cad5-468c-aadc-3ef8a1845b5a","system_id":"levelo_inurba_marseille","lat":43.28161,"lon":5.36121,"is_reserved":false,"is_disabled":false,"rental_uris":{"android":"levelo://app?vid=b7e41c34-cad5-468c-aadc-3ef8a1845b5a","ios":"levelo://app?vid=b7e41c34-cad5-468c-aadc-3ef8a1845b5a"},"vehicle_type_id":"4","last_reported":1761214281,"current_range_meters":5600,"station_id":"","pricing_plan_id":"cebpf4jnsgd1na2vs0mg"},{"bike_id":"c66d0692-4af8-41c5-a5a2-bdf54467a2f8","system_id":"levelo_inurba_marseille","lat":43.27375,"lon":5.36253,"is_reserved":false,"is_disabled":false,"rental_uris":{"android":"levelo://app?vid=c66d0692-4af8-41c5-a5a2-bdf54467a2f8","ios":"levelo://app?vid=c66d0692-4af8-41c5-a5a2-bdf54467a2f8"},"vehicle_type_id":"4","last_reported":1761214281,"current_range_meters":5600,"station_id":"ce4bhbh2rcd13ifvqeo0","pricing_plan_id":"cebpf4jnsgd1na2vs0mg"},{"bike_id":"37505258-1093-41de-8a20-3e36ecdaebef","system_id":"levelo_inurba_marseille","lat":43.29283,"lon":5.3684,"is_reserved":false,"is_disabled":false,"rental_uris":{"android":"levelo://app?vid=37505258-1093-41de-8a20-3e36ecdaebef","ios":"levelo://app?vid=37505258-1093-41de-8a20-3e36ecdaebef"},"vehicle_type_id":"4","last_reported":1761214281,"current_range_meters":6000,"station_id":"ce4bhbp2rcd13ifvqesg","pricing_plan_id":"cebpf4jnsgd1na2vs0mg"},{"bike_id":"7b8526e4-b992-44dd-9558-b711107ee6cd","system_id":"levelo_inurba_marseille","lat":43.28123,"lon":5.37846,"is_reserved":false,"is_disabled":false,"rental_uris":{"android":"levelo://app?vid=7b8526e4-b992-44dd-9558-b711107ee6cd","ios":"levelo://app?vid=7b8526e4-b992-44dd-9558-b711107ee6cd"},"vehicle_type_id":"4","last_reported":1761214281,"current_range_meters":6000,"station_id":"ce4bha12rcd13ifvqee0","pricing_plan_id":"cebpf4jnsgd1na2vs0mg"},{"bike_id":"ac1df8dc-41e5-4954-977f-6f21ed12d11a","system_id":"levelo_inurba_marseille","lat":43.21745,"lon":5.34599,"is_reserved":false,"is_disabled":false,"rental_uris":{"android":"levelo://app?vid=ac1df8dc-41e5-4954-977f-6f21ed12d11a","ios":"levelo://app?vid=ac1df8dc-41e5-4954-977f-6f21ed12d11a"},"vehicle_type_id":"4","last_reported":1761214281,"current_range_meters":6400,"station_id":"st_cvj6r9ubvosntc0bgbag","pricing_plan_id":"cebpf4jnsgd1na2vs0mg"},{"bike_id":"3de35322-0741-470d-b565-7d8eb37ff45d","system_id":"levelo_inurba_marseille","lat":43.22554,"lon":5.41633,"is_reserved":false,"is_disabled":false,"rental_uris":{"android":"levelo://app?vid=3de35322-0741-470d-b565-7d8eb37ff45d","ios":"levelo://app?vid=3de35322-0741-470d-b565-7d8eb37ff45d"},"vehicle_type_id":"4","last_reported":1761214281,"current_range_meters":6400,"station_id":"st_d2o4gvlbi1j2169b742g","pricing_plan_id":"cebpf4jnsgd1na2vs0mg"},{"bike_id":"ce8262b4-3d9a-4baf-8f65-916f4d8db503","system_id":"levelo_inurba_marseille","lat":43.30376,"lon":5.42481,"is_reserved":false,"is_disabled":false,"rental_uris":{"android":"levelo://app?vid=ce8262b4-3d9a-4baf-8f65-916f4d8db503","ios":"levelo://app?vid=ce8262b4-3d9a-4baf-8f65-916f4d8db503"},"vehicle_type_id":"4","last_reported":1761214281,"current_range_meters":6400,"station_id":"ce4bhoh2rcd13ifvqh6g","pricing_plan_id":"cebpf4jnsgd1na2vs0mg"},{"bike_id":"d52b33f3-93ed-4399-9a09-6c56a6bef075","system_id":"levelo_inurba_marseille","lat":43.3107,"lon":5.38358,"is_reserved":false,"is_disabled":false,"rental_uris":{"android":"levelo://app?vid=d52b33f3-93ed-4399-9a09-6c56a6bef075","ios":"levelo://app?vid=d52b33f3-93ed-4399-9a09-6c56a6bef075"},"vehicle_type_id":"4","last_reported":1761214281,"current_range_meters":6800,"station_id":"ce4bgv92rcd13ifvqcr0","pricing_plan_id":"cebpf4jnsgd1na2vs0mg"},{"bike_id":"bda9897e-3eb3-45a3-9c08-84c9ad4030d3","system_id":"levelo_inurba_marseille","lat":43.2417,"lon":5.36397,"is_reserved":false,"is_disabled":false,"rental_uris":{"android":"levelo://app?vid=bda9897e-3eb3-45a3-9c08-84c9ad4030d3","ios":"levelo://app?vid=bda9897e-3eb3-45a3-9c08-84c9ad4030d3"},"vehicle_type_id":"4","last_reported":1761214281,"current_range_meters":6800,"station_id":"cpo36qri1sfpv3e86is0","pricing_plan_id":"cebpf4jnsgd1na2vs0mg"},{"bike_id":"02f7835e-8895-43db-bc46-dc0659a292d5","system_id":"levelo_inurba_marseille","lat":43.29331,"lon":5.3707,"is_reserved":false,"is_disabled":false,"rental_uris":{"android":"levelo://app?vid=02f7835e-8895-43db-bc46-dc0659a292d5","ios":"levelo://app?vid=02f7835e-8895-43db-bc46-dc0659a292d5"},"vehicle_type_id":"4","last_reported":1761214281,"current_range_meters":6800,"station_id":"","pricing_plan_id":"cebpf4jnsgd1na2vs0mg"},{"bike_id":"add1f2b8-affe-4bf7-8ba9-8ce23bc1cdd6","system_id":"levelo_inurba_marseille","lat":43.309109,"lon":5.368432,"is_reserved":false,"is_disabled":false,"rental_uris":{"android":"levelo://app?vid=add1f2b8-affe-4bf7-8ba9-8ce23bc1cdd6","ios":"levelo://app?vid=add1f2b8-affe-4bf7-8ba9-8ce23bc1cdd6"},"vehicle_type_id":"4","last_reported":1761214281,"current_range_meters":7200,"station_id":"","pricing_plan_id":"cebpf4jnsgd1na2vs0mg"},{"bike_id":"b84a3bf6-1814-4e42-8908-6a87c3d4644c","system_id":"levelo_inurba_marseille","lat":43.317257,"lon":5.423929,"is_reserved":false,"is_disabled":false,"rental_uris":{"android":"levelo://app?vid=b84a3bf6-1814-4e42-8908-6a87c3d4644c","ios":"levelo://app?vid=b84a3bf6-1814-4e42-8908-6a87c3d4644c"},"vehicle_type_id":"4","last_reported":1761214281,"current_range_meters":7200,"station_id":"ce4bhp92rcd13ifvqhbg","pricing_plan_id":"cebpf4jnsgd1na2vs0mg"},{"bike_id":"e09861c7-99fd-4cae-86d5-f06785981b88","system_id":"levelo_inurba_marseille","lat":43.27613,"lon":5.36109,"is_reserved":false,"is_disabled":false,"rental_uris":{"android":"levelo://app?vid=e09861c7-99fd-4cae-86d5-f06785981b88","ios":"levelo://app?vid=e09861c7-99fd-4cae-86d5-f06785981b88"},"vehicle_type_id":"4","last_reported":1761214281,"current_range_meters":7200,"station_id":"ce4bgj92rcd13ifvqbe0","pricing_plan_id":"cebpf4jnsgd1na2vs0mg"},{"bike_id":"c4432b73-0adb-475d-83b3-18f6e7bba483","system_id":"levelo_inurba_marseille","lat":43.32118,"lon":5.40815,"is_reserved":false,"is_disabled":false,"rental_uris":{"android":"levelo://app?vid=c4432b73-0adb-475d-83b3-18f6e7bba483","ios":"levelo://app?vid=c4432b73-0adb-475d-83b3-18f6e7bba483"},"vehicle_type_id":"4","last_reported":1761214281,"current_range_meters":7200,"station_id":"","pricing_plan_id":"cebpf4jnsgd1na2vs0mg"},{"bike_id":"44b1ad6b-1a98-4e37-a182-f58df3beccce","system_id":"levelo_inurba_marseille","lat":43.21209,"lon":5.35071,"is_reserved":false,"is_disabled":false,"rental_uris":{"android":"levelo://app?vid=44b1ad6b-1a98-4e37-a182-f58df3beccce","ios":"levelo://app?vid=44b1ad6b-1a98-4e37-a182-f58df3beccce"},"vehicle_type_id":"4","last_reported":1761214281,"current_range_meters":8000,"station_id":"","pricing_plan_id":"cebpf4jnsgd1na2vs0mg"},{"bike_id":"3e1fbb52-9d7c-457a-a18c-113cbc58722a","system_id":"levelo_inurba_marseille","lat":43.31607,"lon":5.3817,"is_reserved":false,"is_disabled":false,"rental_uris":{"android":"levelo://app?vid=3e1fbb52-9d7c-457a-a18c-113cbc58722a","ios":"levelo://app?vid=3e1fbb52-9d7c-457a-a18c-113cbc58722a"},"vehicle_type_id":"4","last_reported":1761214281,"current_range_meters":8000,"station_id":"","pricing_plan_id":"cebpf4jnsgd1na2vs0mg"},{"bike_id":"82576c51-8b9b-43eb-aa43-fc4a18c9ea5b","system_id":"levelo_inurba_marseille","lat":43.21749,"lon":5.34596,"is_reserved":false,"is_disabled":false,"rental_uris":{"android":"levelo://app?vid=82576c51-8b9b-43eb-aa43-fc4a18c9ea5b","ios":"levelo://app?vid=82576c51-8b9b-43eb-aa43-fc4a18c9ea5b"},"vehicle_type_id":"4","last_reported":1761214281,"current_range_meters":8400,"station_id":"st_cvj6r9ubvosntc0bgbag","pricing_plan_id":"cebpf4jnsgd1na2vs0mg"},{"bike_id":"fe5786a2-3cbd-4e30-8ddf-18df8db18ee6","system_id":"levelo_inurba_marseille","lat":43.29996,"lon":5.37189,"is_reserved":false,"is_disabled":false,"rental_uris":{"android":"levelo://app?vid=fe5786a2-3cbd-4e30-8ddf-18df8db18ee6","ios":"levelo://app?vid=fe5786a2-3cbd-4e30-8ddf-18df8db18ee6"},"vehicle_type_id":"4","last_reported":1761214281,"current_range_meters":8400,"station_id":"ce4bgr92rcd13ifvqc7g","pricing_plan_id":"cebpf4jnsgd1na2vs0mg"},{"bike_id":"ff3ba630-dc04-489c-b422-8721b9ddc862","system_id":"levelo_inurba_marseille","lat":43.29827,"lon":5.37774,"is_reserved":false,"is_disabled":false,"rental_uris":{"android":"levelo://app?vid=ff3ba630-dc04-489c-b422-8721b9ddc862","ios":"levelo://app?vid=ff3ba630-dc04-489c-b422-8721b9ddc862"},"vehicle_type_id":"4","last_reported":1761214281,"current_range_meters":8400,"station_id":"","pricing_plan_id":"cebpf4jnsgd1na2vs0mg"},{"bike_id":"83e49a6b-1e4a-4d42-8038-76add0439f72","system_id":"levelo_inurba_marseille","lat":43.27309,"lon":5.39072,"is_reserved":false,"is_disabled":false,"rental_uris":{"android":"levelo://app?vid=83e49a6b-1e4a-4d42-8038-76add0439f72","ios":"levelo://app?vid=83e49a6b-1e4a-4d42-8038-76add0439f72"},"vehicle_type_id":"4","last_reported":1761214281,"current_range_meters":8400,"station_id":"ce4bhgp2rcd13ifvqfe0","pricing_plan_id":"cebpf4jnsgd1na2vs0mg"},{"bike_id":"43f66d0b-b766-4af5-8bb8-f40b62baf807","system_id":"levelo_inurba_marseille","lat":43.25587,"lon":5.3825,"is_reserved":false,"is_disabled":true,"rental_uris":{"android":"levelo://app?vid=43f66d0b-b766-4af5-8bb8-f40b62baf807","ios":"levelo://app?vid=43f66d0b-b766-4af5-8bb8-f40b62baf807"},"vehicle_type_id":"4","last_reported":1761214281,"current_range_meters":8800,"station_id":"ce4bhih2rcd13ifvqfs0","pricing_plan_id":"cebpf4jnsgd1na2vs0mg"},{"bike_id":"003db9b9-c4d5-45c4-90c5-058ef9d1e11f","system_id":"levelo_inurba_marseille","lat":43.30387,"lon":5.42469,"is_reserved":false,"is_disabled":false,"rental_uris":{"android":"levelo://app?vid=003db9b9-c4d5-45c4-90c5-058ef9d1e11f","ios":"levelo://app?vid=003db9b9-c4d5-45c4-90c5-058ef9d1e11f"},"vehicle_type_id":"4","last_reported":1761214281,"current_range_meters":8800,"station_id":"ce4bhoh2rcd13ifvqh6g","pricing_plan_id":"cebpf4jnsgd1na2vs0mg"},{"bike_id":"396aaa55-c35f-41fc-8337-93bac25c9dde","system_id":"levelo_inurba_marseille","lat":43.292402,"lon":5.355712,"is_reserved":false,"is_disabled":false,"rental_uris":{"android":"levelo://app?vid=396aaa55-c35f-41fc-8337-93bac25c9dde","ios":"levelo://app?vid=396aaa55-c35f-41fc-8337-93bac25c9dde"},"vehicle_type_id":"4","last_reported":1761214281,"current_range_meters":8800,"station_id":"","pricing_plan_id":"cebpf4jnsgd1na2vs0mg"},{"bike_id":"6f4dc2c9-b9e5-4695-9e3c-dbf904c8fa13","system_id":"levelo_inurba_marseille","lat":43.21192,"lon":5.3507,"is_reserved":false,"is_disabled":false,"rental_uris":{"android":"levelo://app?vid=6f4dc2c9-b9e5-4695-9e3c-dbf904c8fa13","ios":"levelo://app?vid=6f4dc2c9-b9e5-4695-9e3c-dbf904c8fa13"},"vehicle_type_id":"4","last_reported":1761214281,"current_range_meters":8800,"station_id":"st_cvj6sg6p6f1abm77japg","pricing_plan_id":"cebpf4jnsgd1na2vs0mg"},{"bike_id":"6acf2ae9-136b-4104-8a69-7d816eedd218","system_id":"levelo_inurba_marseille","lat":43.280642,"lon":5.352788,"is_reserved":false,"is_disabled":false,"rental_uris":{"android":"levelo://app?vid=6acf2ae9-136b-4104-8a69-7d816eedd218","ios":"levelo://app?vid=6acf2ae9-136b-4104-8a69-7d816eedd218"},"vehicle_type_id":"4","last_reported":1761214281,"current_range_meters":8800,"station_id":"","pricing_plan_id":"cebpf4jnsgd1na2vs0mg"},{"bike_id":"5e26481f-1a7e-43b6-9911-f5dae69a0aed","system_id":"levelo_inurba_marseille","lat":43.23186,"lon":5.39995,"is_reserved":false,"is_disabled":true,"rental_uris":{"android":"levelo://app?vid=5e26481f-1a7e-43b6-9911-f5dae69a0aed","ios":"levelo://app?vid=5e26481f-1a7e-43b6-9911-f5dae69a0aed"},"vehicle_type_id":"4","last_reported":1761214281,"current_range_meters":9200,"station_id":"ce4bhn12rcd13ifvqgqg","pricing_plan_id":"cebpf4jnsgd1na2vs0mg"},{"bike_id":"32fc3f41-f70c-4fc5-abb4-76cb909516d6","system_id":"levelo_inurba_marseille","lat":43.28605,"lon":5.37062,"is_reserved":false,"is_disabled":false,"rental_uris":{"android":"levelo://app?vid=32fc3f41-f70c-4fc5-abb4-76cb909516d6","ios":"levelo://app?vid=32fc3f41-f70c-4fc5-abb4-76cb909516d6"},"vehicle_type_id":"4","last_reported":1761214281,"current_range_meters":9200,"station_id":"ce4bht12rcd13ifvqi60","pricing_plan_id":"cebpf4jnsgd1na2vs0mg"},{"bike_id":"6cedbdd4-d4fa-45a0-a47a-6925bf95118c","system_id":"levelo_inurba_marseille","lat":43.22924,"lon":5.35372,"is_reserved":false,"is_disabled":false,"rental_uris":{"android":"levelo://app?vid=6cedbdd4-d4fa-45a0-a47a-6925bf95118c","ios":"levelo://app?vid=6cedbdd4-d4fa-45a0-a47a-6925bf95118c"},"vehicle_type_id":"4","last_reported":1761214281,"current_range_meters":9200,"station_id":"cpo3532slgdg3j2ikp40","pricing_plan_id":"cebpf4jnsgd1na2vs0mg"},{"bike_id":"02a0f214-3900-4b59-b027-5f773652155c","system_id":"levelo_inurba_marseille","lat":43.25116,"lon":5.40319,"is_reserved":false,"is_disabled":false,"rental_uris":{"android":"levelo://app?vid=02a0f214-3900-4b59-b027-5f773652155c","ios":"levelo://app?vid=02a0f214-3900-4b59-b027-5f773652155c"},"vehicle_type_id":"4","last_reported":1761214281,"current_range_meters":9200,"station_id":"ce4bhlh2rcd13ifvqgig","pricing_plan_id":"cebpf4jnsgd1na2vs0mg"},{"bike_id":"37d01fc8-4b4d-4652-a489-1254eb9d4c80","system_id":"levelo_inurba_marseille","lat":43.34076,"lon":5.40411,"is_reserved":false,"is_disabled":false,"rental_uris":{"android":"levelo://app?vid=37d01fc8-4b4d-4652-a489-1254eb9d4c80","ios":"levelo://app?vid=37d01fc8-4b4d-4652-a489-1254eb9d4c80"},"vehicle_type_id":"4","last_reported":1761214281,"current_range_meters":9200,"station_id":"","pricing_plan_id":"cebpf4jnsgd1na2vs0mg"},{"bike_id":"9880e93c-d19c-40b1-b34a-e56695334737","system_id":"levelo_inurba_marseille","lat":43.30734,"lon":5.42438,"is_reserved":false,"is_disabled":false,"rental_uris":{"android":"levelo://app?vid=9880e93c-d19c-40b1-b34a-e56695334737","ios":"levelo://app?vid=9880e93c-d19c-40b1-b34a-e56695334737"},"vehicle_type_id":"4","last_reported":1761214281,"current_range_meters":9200,"station_id":"st_cvj6ca6bvosntc0bfgr0","pricing_plan_id":"cebpf4jnsgd1na2vs0mg"},{"bike_id":"3dce220e-fa6e-43fd-974b-21338031ff3a","system_id":"levelo_inurba_marseille","lat":43.29268,"lon":5.4015,"is_reserved":false,"is_disabled":false,"rental_uris":{"android":"levelo://app?vid=3dce220e-fa6e-43fd-974b-21338031ff3a","ios":"levelo://app?vid=3dce220e-fa6e-43fd-974b-21338031ff3a"},"vehicle_type_id":"4","last_reported":1761214281,"current_range_meters":9600,"station_id":"ce4bh312rcd13ifvqdk0","pricing_plan_id":"cebpf4jnsgd1na2vs0mg"},{"bike_id":"3aa8c3e6-230d-4538-ac39-2b944611f536","system_id":"levelo_inurba_marseille","lat":43.31321,"lon":5.36739,"is_reserved":false,"is_disabled":true,"rental_uris":{"android":"levelo://app?vid=3aa8c3e6-230d-4538-ac39-2b944611f536","ios":"levelo://app?vid=3aa8c3e6-230d-4538-ac39-2b944611f536"},"vehicle_type_id":"4","last_reported":1761214281,"current_range_meters":9600,"station_id":"ce4bgr92rcd13ifvqc6g","pricing_plan_id":"cebpf4jnsgd1na2vs0mg"},{"bike_id":"c1a5bfc1-f698-44fe-b27c-8014f491a533","system_id":"levelo_inurba_marseille","lat":43.29092,"lon":5.38136,"is_reserved":false,"is_disabled":false,"rental_uris":{"android":"levelo://app?vid=c1a5bfc1-f698-44fe-b27c-8014f491a533","ios":"levelo://app?vid=c1a5bfc1-f698-44fe-b27c-8014f491a533"},"vehicle_type_id":"4","last_reported":1761214281,"current_range_meters":9600,"station_id":"ce4bh512rcd13ifvqe2g","pricing_plan_id":"cebpf4jnsgd1na2vs0mg"},{"bike_id":"f11297b4-b982-48a7-bc40-b4e5242b1d8d","system_id":"levelo_inurba_marseille","lat":43.23145,"lon":5.4372,"is_reserved":false,"is_disabled":false,"rental_uris":{"android":"levelo://app?vid=f11297b4-b982-48a7-bc40-b4e5242b1d8d","ios":"levelo://app?vid=f11297b4-b982-48a7-bc40-b4e5242b1d8d"},"vehicle_type_id":"4","last_reported":1761214281,"current_range_meters":10000,"station_id":"ce4bhmp2rcd13ifvqgog","pricing_plan_id":"cebpf4jnsgd1na2vs0mg"},{"bike_id":"526f7b2e-bd40-4ecf-abc3-0b9bde82a732","system_id":"levelo_inurba_marseille","lat":43.29003,"lon":5.35613,"is_reserved":false,"is_disabled":false,"rental_uris":{"android":"levelo://app?vid=526f7b2e-bd40-4ecf-abc3-0b9bde82a732","ios":"levelo://app?vid=526f7b2e-bd40-4ecf-abc3-0b9bde82a732"},"vehicle_type_id":"4","last_reported":1761214281,"current_range_meters":10000,"station_id":"ce4bhb92rcd13ifvqen0","pricing_plan_id":"cebpf4jnsgd1na2vs0mg"},{"bike_id":"4bef2cd1-89e6-44bd-b9ec-2793b40c06ca","system_id":"levelo_inurba_marseille","lat":43.28613,"lon":5.37059,"is_reserved":false,"is_disabled":false,"rental_uris":{"android":"levelo://app?vid=4bef2cd1-89e6-44bd-b9ec-2793b40c06ca","ios":"levelo://app?vid=4bef2cd1-89e6-44bd-b9ec-2793b40c06ca"},"vehicle_type_id":"4","last_reported":1761214281,"current_range_meters":10000,"station_id":"ce4bht12rcd13ifvqi60","pricing_plan_id":"cebpf4jnsgd1na2vs0mg"},{"bike_id":"214d4cfe-f3d8-429a-b328-214db61207a7","system_id":"levelo_inurba_marseille","lat":43.25584,"lon":5.38219,"is_reserved":false,"is_disabled":false,"rental_uris":{"android":"levelo://app?vid=214d4cfe-f3d8-429a-b328-214db61207a7","ios":"levelo://app?vid=214d4cfe-f3d8-429a-b328-214db61207a7"},"vehicle_type_id":"4","last_reported":1761214281,"current_range_meters":10000,"station_id":"ce4bhih2rcd13ifvqfs0","pricing_plan_id":"cebpf4jnsgd1na2vs0mg"},{"bike_id":"334edc03-c2b4-49e6-a41a-39943ce2050b","system_id":"levelo_inurba_marseille","lat":43.273199,"lon":5.390677,"is_reserved":false,"is_disabled":false,"rental_uris":{"android":"levelo://app?vid=334edc03-c2b4-49e6-a41a-39943ce2050b","ios":"levelo://app?vid=334edc03-c2b4-49e6-a41a-39943ce2050b"},"vehicle_type_id":"4","last_reported":1761214281,"current_range_meters":10000,"station_id":"ce4bhgp2rcd13ifvqfe0","pricing_plan_id":"cebpf4jnsgd1na2vs0mg"},{"bike_id":"ac4f7d3c-5af7-44ad-8c8b-463d26f4b847","system_id":"levelo_inurba_marseille","lat":43.274451,"lon":5.390878,"is_reserved":false,"is_disabled":false,"rental_uris":{"android":"levelo://app?vid=ac4f7d3c-5af7-44ad-8c8b-463d26f4b847","ios":"levelo://app?vid=ac4f7d3c-5af7-44ad-8c8b-463d26f4b847"},"vehicle_type_id":"4","last_reported":1761214281,"current_range_meters":10000,"station_id":"ce4bhg12rcd13ifvqf80","pricing_plan_id":"cebpf4jnsgd1na2vs0mg"},{"bike_id":"15c9329a-af2a-4ecf-b071-7a979425a162","system_id":"levelo_inurba_marseille","lat":43.30548,"lon":5.36514,"is_reserved":false,"is_disabled":false,"rental_uris":{"android":"levelo://app?vid=15c9329a-af2a-4ecf-b071-7a979425a162","ios":"levelo://app?vid=15c9329a-af2a-4ecf-b071-7a979425a162"},"vehicle_type_id":"4","last_reported":1761214281,"current_range_meters":10000,"station_id":"ce4bgs12rcd13ifvqcag","pricing_plan_id":"cebpf4jnsgd1na2vs0mg"},{"bike_id":"1656396b-ce0e-470e-9f40-d432e00c8827","system_id":"levelo_inurba_marseille","lat":43.29606,"lon":5.40493,"is_reserved":false,"is_disabled":false,"rental_uris":{"android":"levelo://app?vid=1656396b-ce0e-470e-9f40-d432e00c8827","ios":"levelo://app?vid=1656396b-ce0e-470e-9f40-d432e00c8827"},"vehicle_type_id":"4","last_reported":1761214281,"current_range_meters":10800,"station_id":"","pricing_plan_id":"cebpf4jnsgd1na2vs0mg"},{"bike_id":"9870a68d-ae62-4bec-82c3-a7443a850bdc","system_id":"levelo_inurba_marseille","lat":43.312793,"lon":5.377706,"is_reserved":false,"is_disabled":false,"rental_uris":{"android":"levelo://app?vid=9870a68d-ae62-4bec-82c3-a7443a850bdc","ios":"levelo://app?vid=9870a68d-ae62-4bec-82c3-a7443a850bdc"},"vehicle_type_id":"4","last_reported":1761214281,"current_range_meters":10800,"station_id":"","pricing_plan_id":"cebpf4jnsgd1na2vs0mg"},{"bike_id":"2f86c0e7-791d-40d3-86dc-3a2c4a57947d","system_id":"levelo_inurba_marseille","lat":43.31079,"lon":5.42425,"is_reserved":false,"is_disabled":false,"rental_uris":{"android":"levelo://app?vid=2f86c0e7-791d-40d3-86dc-3a2c4a57947d","ios":"levelo://app?vid=2f86c0e7-791d-40d3-86dc-3a2c4a57947d"},"vehicle_type_id":"4","last_reported":1761214281,"current_range_meters":10800,"station_id":"ce4bhp92rcd13ifvqhag","pricing_plan_id":"cebpf4jnsgd1na2vs0mg"},{"bike_id":"38bca028-e5de-46b0-a35b-1b38957c02bc","system_id":"levelo_inurba_marseille","lat":43.30129,"lon":5.39856,"is_reserved":false,"is_disabled":false,"rental_uris":{"android":"levelo://app?vid=38bca028-e5de-46b0-a35b-1b38957c02bc","ios":"levelo://app?vid=38bca028-e5de-46b0-a35b-1b38957c02bc"},"vehicle_type_id":"4","last_reported":1761214281,"current_range_meters":10800,"station_id":"ce4bh0h2rcd13ifvqd40","pricing_plan_id":"cebpf4jnsgd1na2vs0mg"},{"bike_id":"07e992db-48e1-481b-a50e-3b491cfc1455","system_id":"levelo_inurba_marseille","lat":43.31991,"lon":5.41291,"is_reserved":false,"is_disabled":false,"rental_uris":{"android":"levelo://app?vid=07e992db-48e1-481b-a50e-3b491cfc1455","ios":"levelo://app?vid=07e992db-48e1-481b-a50e-3b491cfc1455"},"vehicle_type_id":"4","last_reported":1761214281,"current_range_meters":10800,"station_id":"","pricing_plan_id":"cebpf4jnsgd1na2vs0mg"},{"bike_id":"4eae2ec4-8862-466e-a3d9-395cca4276d0","system_id":"levelo_inurba_marseille","lat":43.30374,"lon":5.37585,"is_reserved":false,"is_disabled":false,"rental_uris":{"android":"levelo://app?vid=4eae2ec4-8862-466e-a3d9-395cca4276d0","ios":"levelo://app?vid=4eae2ec4-8862-466e-a3d9-395cca4276d0"},"vehicle_type_id":"4","last_reported":1761214281,"current_range_meters":10800,"station_id":"","pricing_plan_id":"cebpf4jnsgd1na2vs0mg"},{"bike_id":"f7b67f9a-ce10-4c5c-bac2-7e5464f16364","system_id":"levelo_inurba_marseille","lat":43.27306,"lon":5.40828,"is_reserved":false,"is_disabled":false,"rental_uris":{"android":"levelo://app?vid=f7b67f9a-ce10-4c5c-bac2-7e5464f16364","ios":"levelo://app?vid=f7b67f9a-ce10-4c5c-bac2-7e5464f16364"},"vehicle_type_id":"4","last_reported":1761214281,"current_range_meters":11200,"station_id":"","pricing_plan_id":"cebpf4jnsgd1na2vs0mg"},{"bike_id":"7dc3a787-7b14-4505-8e32-0b28349ba8b9","system_id":"levelo_inurba_marseille","lat":43.287063,"lon":5.362525,"is_reserved":false,"is_disabled":false,"rental_uris":{"android":"levelo://app?vid=7dc3a787-7b14-4505-8e32-0b28349ba8b9","ios":"levelo://app?vid=7dc3a787-7b14-4505-8e32-0b28349ba8b9"},"vehicle_type_id":"4","last_reported":1761214281,"current_range_meters":11200,"station_id":"","pricing_plan_id":"cebpf4jnsgd1na2vs0mg"},{"bike_id":"53dcb04d-ea80-4e91-83f2-d70f098d1669","system_id":"levelo_inurba_marseille","lat":43.29535,"lon":5.37501,"is_reserved":false,"is_disabled":false,"rental_uris":{"android":"levelo://app?vid=53dcb04d-ea80-4e91-83f2-d70f098d1669","ios":"levelo://app?vid=53dcb04d-ea80-4e91-83f2-d70f098d1669"},"vehicle_type_id":"4","last_reported":1761214281,"current_range_meters":11200,"station_id":"ce4bgkp2rcd13ifvqbmg","pricing_plan_id":"cebpf4jnsgd1na2vs0mg"},{"bike_id":"2d24ac31-78f9-481b-9d5c-ea0a58464439","system_id":"levelo_inurba_marseille","lat":43.29183,"lon":5.42277,"is_reserved":false,"is_disabled":false,"rental_uris":{"android":"levelo://app?vid=2d24ac31-78f9-481b-9d5c-ea0a58464439","ios":"levelo://app?vid=2d24ac31-78f9-481b-9d5c-ea0a58464439"},"vehicle_type_id":"4","last_reported":1761214281,"current_range_meters":11200,"station_id":"","pricing_plan_id":"cebpf4jnsgd1na2vs0mg"},{"bike_id":"31b5e7a1-7a36-4bfd-a362-da8c8cc03001","system_id":"levelo_inurba_marseille","lat":43.30138,"lon":5.37426,"is_reserved":false,"is_disabled":false,"rental_uris":{"android":"levelo://app?vid=31b5e7a1-7a36-4bfd-a362-da8c8cc03001","ios":"levelo://app?vid=31b5e7a1-7a36-4bfd-a362-da8c8cc03001"},"vehicle_type_id":"4","last_reported":1761214281,"current_range_meters":11600,"station_id":"ce4bgs92rcd13ifvqcc0","pricing_plan_id":"cebpf4jnsgd1na2vs0mg"},{"bike_id":"618a9c44-e479-45b6-b144-58d3228e3132","system_id":"levelo_inurba_marseille","lat":43.246253,"lon":5.389002,"is_reserved":false,"is_disabled":false,"rental_uris":{"android":"levelo://app?vid=618a9c44-e479-45b6-b144-58d3228e3132","ios":"levelo://app?vid=618a9c44-e479-45b6-b144-58d3228e3132"},"vehicle_type_id":"4","last_reported":1761214281,"current_range_meters":11600,"station_id":"ce4bhg12rcd13ifvqf60","pricing_plan_id":"cebpf4jnsgd1na2vs0mg"},{"bike_id":"c775e1ea-9a62-4435-8d4f-004bf2c26047","system_id":"levelo_inurba_marseille","lat":43.29814,"lon":5.44054,"is_reserved":false,"is_disabled":false,"rental_uris":{"android":"levelo://app?vid=c775e1ea-9a62-4435-8d4f-004bf2c26047","ios":"levelo://app?vid=c775e1ea-9a62-4435-8d4f-004bf2c26047"},"vehicle_type_id":"4","last_reported":1761214281,"current_range_meters":12000,"station_id":"st_d3jp68qikq2c7381ktn0","pricing_plan_id":"cebpf4jnsgd1na2vs0mg"},{"bike_id":"c8c0fa58-a519-4343-9887-b0c694f93aef","system_id":"levelo_inurba_marseille","lat":43.28861,"lon":5.42511,"is_reserved":false,"is_disabled":false,"rental_uris":{"android":"levelo://app?vid=c8c0fa58-a519-4343-9887-b0c694f93aef","ios":"levelo://app?vid=c8c0fa58-a519-4343-9887-b0c694f93aef"},"vehicle_type_id":"4","last_reported":1761214281,"current_range_meters":12000,"station_id":"st_d3b462108ojc7389ooeg","pricing_plan_id":"cebpf4jnsgd1na2vs0mg"},{"bike_id":"a8c54fc0-fa67-4a1f-a261-d4ae32b66c04","system_id":"levelo_inurba_marseille","lat":43.31301,"lon":5.40427,"is_reserved":false,"is_disabled":false,"rental_uris":{"android":"levelo://app?vid=a8c54fc0-fa67-4a1f-a261-d4ae32b66c04","ios":"levelo://app?vid=a8c54fc0-fa67-4a1f-a261-d4ae32b66c04"},"vehicle_type_id":"4","last_reported":1761214281,"current_range_meters":12000,"station_id":"","pricing_plan_id":"cebpf4jnsgd1na2vs0mg"},{"bike_id":"f3c7669b-d664-4185-b0f6-596f65443390","system_id":"levelo_inurba_marseille","lat":43.30456,"lon":5.37913,"is_reserved":false,"is_disabled":false,"rental_uris":{"android":"levelo://app?vid=f3c7669b-d664-4185-b0f6-596f65443390","ios":"levelo://app?vid=f3c7669b-d664-4185-b0f6-596f65443390"},"vehicle_type_id":"4","last_reported":1761214281,"current_range_meters":12000,"station_id":"ce4bgup2rcd13ifvqcn0","pricing_plan_id":"cebpf4jnsgd1na2vs0mg"},{"bike_id":"7fd06a60-e1b2-4b57-bdab-d6691e071cd2","system_id":"levelo_inurba_marseille","lat":43.31178,"lon":5.38722,"is_reserved":false,"is_disabled":false,"rental_uris":{"android":"levelo://app?vid=7fd06a60-e1b2-4b57-bdab-d6691e071cd2","ios":"levelo://app?vid=7fd06a60-e1b2-4b57-bdab-d6691e071cd2"},"vehicle_type_id":"4","last_reported":1761214281,"current_range_meters":12000,"station_id":"ce4bgv12rcd13ifvqcp0","pricing_plan_id":"cebpf4jnsgd1na2vs0mg"},{"bike_id":"2dada79b-25f6-423e-a95d-d3683fbc359a","system_id":"levelo_inurba_marseille","lat":43.33602,"lon":5.41015,"is_reserved":false,"is_disabled":false,"rental_uris":{"android":"levelo://app?vid=2dada79b-25f6-423e-a95d-d3683fbc359a","ios":"levelo://app?vid=2dada79b-25f6-423e-a95d-d3683fbc359a"},"vehicle_type_id":"4","last_reported":1761214281,"current_range_meters":12400,"station_id":"ce4bhqh2rcd13ifvqhmg","pricing_plan_id":"cebpf4jnsgd1na2vs0mg"},{"bike_id":"61525fe3-26d4-4c5c-a075-e59599c296c4","system_id":"levelo_inurba_marseille","lat":43.314421,"lon":5.392923,"is_reserved":false,"is_disabled":false,"rental_uris":{"android":"levelo://app?vid=61525fe3-26d4-4c5c-a075-e59599c296c4","ios":"levelo://app?vid=61525fe3-26d4-4c5c-a075-e59599c296c4"},"vehicle_type_id":"4","last_reported":1761214281,"current_range_meters":12400,"station_id":"","pricing_plan_id":"cebpf4jnsgd1na2vs0mg"},{"bike_id":"5d2f6870-34a6-48de-a296-30b1c06ac057","system_id":"levelo_inurba_marseille","lat":43.24181,"lon":5.39721,"is_reserved":false,"is_disabled":false,"rental_uris":{"android":"levelo://app?vid=5d2f6870-34a6-48de-a296-30b1c06ac057","ios":"levelo://app?vid=5d2f6870-34a6-48de-a296-30b1c06ac057"},"vehicle_type_id":"4","last_reported":1761214281,"current_range_meters":12400,"station_id":"ce4bhn12rcd13ifvqgpg","pricing_plan_id":"cebpf4jnsgd1na2vs0mg"},{"bike_id":"8dac63b5-a0c8-4bb9-b2e2-d96c874efeee","system_id":"levelo_inurba_marseille","lat":43.33609,"lon":5.41034,"is_reserved":false,"is_disabled":false,"rental_uris":{"android":"levelo://app?vid=8dac63b5-a0c8-4bb9-b2e2-d96c874efeee","ios":"levelo://app?vid=8dac63b5-a0c8-4bb9-b2e2-d96c874efeee"},"vehicle_type_id":"4","last_reported":1761214281,"current_range_meters":12400,"station_id":"ce4bhqh2rcd13ifvqhmg","pricing_plan_id":"cebpf4jnsgd1na2vs0mg"},{"bike_id":"82b423aa-fe77-47d7-b459-64d42da93e91","system_id":"levelo_inurba_marseille","lat":43.23784,"lon":5.36639,"is_reserved":false,"is_disabled":false,"rental_uris":{"android":"levelo://app?vid=82b423aa-fe77-47d7-b459-64d42da93e91","ios":"levelo://app?vid=82b423aa-fe77-47d7-b459-64d42da93e91"},"vehicle_type_id":"4","last_reported":1761214281,"current_range_meters":12800,"station_id":"st_d3nk18o9ro0c73en2l3g","pricing_plan_id":"cebpf4jnsgd1na2vs0mg"},{"bike_id":"c6ef9690-1953-4501-a610-df1667de2195","system_id":"levelo_inurba_marseille","lat":43.30427,"lon":5.38877,"is_reserved":false,"is_disabled":false,"rental_uris":{"android":"levelo://app?vid=c6ef9690-1953-4501-a610-df1667de2195","ios":"levelo://app?vid=c6ef9690-1953-4501-a610-df1667de2195"},"vehicle_type_id":"4","last_reported":1761214281,"current_range_meters":12800,"station_id":"ce4bgk12rcd13ifvqbi0","pricing_plan_id":"cebpf4jnsgd1na2vs0mg"},{"bike_id":"32e7919e-26d8-4f7d-b229-086147816fa4","system_id":"levelo_inurba_marseille","lat":43.301286,"lon":5.38775,"is_reserved":false,"is_disabled":false,"rental_uris":{"android":"levelo://app?vid=32e7919e-26d8-4f7d-b229-086147816fa4","ios":"levelo://app?vid=32e7919e-26d8-4f7d-b229-086147816fa4"},"vehicle_type_id":"4","last_reported":1761214281,"current_range_meters":12800,"station_id":"","pricing_plan_id":"cebpf4jnsgd1na2vs0mg"},{"bike_id":"b47656b5-24c6-4cdc-ad67-1d843e8edbeb","system_id":"levelo_inurba_marseille","lat":43.30727,"lon":5.42431,"is_reserved":false,"is_disabled":false,"rental_uris":{"android":"levelo://app?vid=b47656b5-24c6-4cdc-ad67-1d843e8edbeb","ios":"levelo://app?vid=b47656b5-24c6-4cdc-ad67-1d843e8edbeb"},"vehicle_type_id":"4","last_reported":1761214281,"current_range_meters":12800,"station_id":"st_cvj6ca6bvosntc0bfgr0","pricing_plan_id":"cebpf4jnsgd1na2vs0mg"},{"bike_id":"d9247930-f477-4727-872b-24c5b02f6614","system_id":"levelo_inurba_marseille","lat":43.271818,"lon":5.409915,"is_reserved":false,"is_disabled":false,"rental_uris":{"android":"levelo://app?vid=d9247930-f477-4727-872b-24c5b02f6614","ios":"levelo://app?vid=d9247930-f477-4727-872b-24c5b02f6614"},"vehicle_type_id":"4","last_reported":1761214281,"current_range_meters":12800,"station_id":"ce4bhl12rcd13ifvqgf0","pricing_plan_id":"cebpf4jnsgd1na2vs0mg"},{"bike_id":"737b6502-b2d8-4ff2-afe9-c292d5158bef","system_id":"levelo_inurba_marseille","lat":43.292574,"lon":5.384373,"is_reserved":false,"is_disabled":false,"rental_uris":{"android":"levelo://app?vid=737b6502-b2d8-4ff2-afe9-c292d5158bef","ios":"levelo://app?vid=737b6502-b2d8-4ff2-afe9-c292d5158bef"},"vehicle_type_id":"4","last_reported":1761214281,"current_range_meters":13600,"station_id":"ce4bgip2rcd13ifvqbb0","pricing_plan_id":"cebpf4jnsgd1na2vs0mg"},{"bike_id":"421fa416-437e-4c41-a4d8-bc5f181972fe","system_id":"levelo_inurba_marseille","lat":43.31303,"lon":5.36796,"is_reserved":false,"is_disabled":false,"rental_uris":{"android":"levelo://app?vid=421fa416-437e-4c41-a4d8-bc5f181972fe","ios":"levelo://app?vid=421fa416-437e-4c41-a4d8-bc5f181972fe"},"vehicle_type_id":"4","last_reported":1761214281,"current_range_meters":13600,"station_id":"","pricing_plan_id":"cebpf4jnsgd1na2vs0mg"},{"bike_id":"22556366-5b35-4879-b6f5-b944bfc8418c","system_id":"levelo_inurba_marseille","lat":43.30156,"lon":5.381,"is_reserved":false,"is_disabled":true,"rental_uris":{"android":"levelo://app?vid=22556366-5b35-4879-b6f5-b944bfc8418c","ios":"levelo://app?vid=22556366-5b35-4879-b6f5-b944bfc8418c"},"vehicle_type_id":"4","last_reported":1761214281,"current_range_meters":13600,"station_id":"ce4bgjp2rcd13ifvqbh0","pricing_plan_id":"cebpf4jnsgd1na2vs0mg"},{"bike_id":"56880329-4c76-4c4e-84a7-3c605e225585","system_id":"levelo_inurba_marseille","lat":43.33727,"lon":5.39179,"is_reserved":false,"is_disabled":false,"rental_uris":{"android":"levelo://app?vid=56880329-4c76-4c4e-84a7-3c605e225585","ios":"levelo://app?vid=56880329-4c76-4c4e-84a7-3c605e225585"},"vehicle_type_id":"4","last_reported":1761214281,"current_range_meters":13600,"station_id":"ce4bhr92rcd13ifvqhsg","pricing_plan_id":"cebpf4jnsgd1na2vs0mg"},{"bike_id":"55c89a62-3c46-4a12-8013-c48006e4bafb","system_id":"levelo_inurba_marseille","lat":43.24945,"lon":5.40487,"is_reserved":false,"is_disabled":false,"rental_uris":{"android":"levelo://app?vid=55c89a62-3c46-4a12-8013-c48006e4bafb","ios":"levelo://app?vid=55c89a62-3c46-4a12-8013-c48006e4bafb"},"vehicle_type_id":"4","last_reported":1761214281,"current_range_meters":13600,"station_id":"st_d2ngiaodas8pm72gd1h0","pricing_plan_id":"cebpf4jnsgd1na2vs0mg"},{"bike_id":"1aaa028d-93d8-4a20-8355-7a4b17d8620a","system_id":"levelo_inurba_marseille","lat":43.27633,"lon":5.39217,"is_reserved":false,"is_disabled":false,"rental_uris":{"android":"levelo://app?vid=1aaa028d-93d8-4a20-8355-7a4b17d8620a","ios":"levelo://app?vid=1aaa028d-93d8-4a20-8355-7a4b17d8620a"},"vehicle_type_id":"4","last_reported":1761214281,"current_range_meters":13600,"station_id":"","pricing_plan_id":"cebpf4jnsgd1na2vs0mg"},{"bike_id":"a43df4c7-330a-48d4-890f-5d1e302ce2ae","system_id":"levelo_inurba_marseille","lat":43.28779,"lon":5.38687,"is_reserved":false,"is_disabled":true,"rental_uris":{"android":"levelo://app?vid=a43df4c7-330a-48d4-890f-5d1e302ce2ae","ios":"levelo://app?vid=a43df4c7-330a-48d4-890f-5d1e302ce2ae"},"vehicle_type_id":"4","last_reported":1761214281,"current_range_meters":13600,"station_id":"","pricing_plan_id":"cebpf4jnsgd1na2vs0mg"},{"bike_id":"958d52bc-e1a2-4648-8f11-6f03bc0d48c0","system_id":"levelo_inurba_marseille","lat":43.30158,"lon":5.38082,"is_reserved":false,"is_disabled":false,"rental_uris":{"android":"levelo://app?vid=958d52bc-e1a2-4648-8f11-6f03bc0d48c0","ios":"levelo://app?vid=958d52bc-e1a2-4648-8f11-6f03bc0d48c0"},"vehicle_type_id":"4","last_reported":1761214281,"current_range_meters":14000,"station_id":"ce4bgjp2rcd13ifvqbh0","pricing_plan_id":"cebpf4jnsgd1na2vs0mg"},{"bike_id":"15efa738-ef60-4964-84a1-177d132a0166","system_id":"levelo_inurba_marseille","lat":43.30461,"lon":5.37897,"is_reserved":false,"is_disabled":false,"rental_uris":{"android":"levelo://app?vid=15efa738-ef60-4964-84a1-177d132a0166","ios":"levelo://app?vid=15efa738-ef60-4964-84a1-177d132a0166"},"vehicle_type_id":"4","last_reported":1761214281,"current_range_meters":14000,"station_id":"ce4bgup2rcd13ifvqcn0","pricing_plan_id":"cebpf4jnsgd1na2vs0mg"},{"bike_id":"0198280f-05b0-401c-b9f2-7586dff77353","system_id":"levelo_inurba_marseille","lat":43.288956,"lon":5.377977,"is_reserved":false,"is_disabled":false,"rental_uris":{"android":"levelo://app?vid=0198280f-05b0-401c-b9f2-7586dff77353","ios":"levelo://app?vid=0198280f-05b0-401c-b9f2-7586dff77353"},"vehicle_type_id":"4","last_reported":1761214281,"current_range_meters":14000,"station_id":"","pricing_plan_id":"cebpf4jnsgd1na2vs0mg"},{"bike_id":"2a22829e-2bd6-41ec-a3e5-ef826e7425d3","system_id":"levelo_inurba_marseille","lat":43.321117,"lon":5.367659,"is_reserved":false,"is_disabled":false,"rental_uris":{"android":"levelo://app?vid=2a22829e-2bd6-41ec-a3e5-ef826e7425d3","ios":"levelo://app?vid=2a22829e-2bd6-41ec-a3e5-ef826e7425d3"},"vehicle_type_id":"4","last_reported":1761214281,"current_range_meters":14000,"station_id":"ce4bhrh2rcd13ifvqhug","pricing_plan_id":"cebpf4jnsgd1na2vs0mg"},{"bike_id":"bda3ed1a-3199-4eb8-8229-577855d09dbb","system_id":"levelo_inurba_marseille","lat":43.3163,"lon":5.37876,"is_reserved":false,"is_disabled":false,"rental_uris":{"android":"levelo://app?vid=bda3ed1a-3199-4eb8-8229-577855d09dbb","ios":"levelo://app?vid=bda3ed1a-3199-4eb8-8229-577855d09dbb"},"vehicle_type_id":"4","last_reported":1761214281,"current_range_meters":14000,"station_id":"","pricing_plan_id":"cebpf4jnsgd1na2vs0mg"},{"bike_id":"f94a4280-f8c7-41b5-ad82-d7c0b081ac51","system_id":"levelo_inurba_marseille","lat":43.31253,"lon":5.36859,"is_reserved":false,"is_disabled":false,"rental_uris":{"android":"levelo://app?vid=f94a4280-f8c7-41b5-ad82-d7c0b081ac51","ios":"levelo://app?vid=f94a4280-f8c7-41b5-ad82-d7c0b081ac51"},"vehicle_type_id":"4","last_reported":1761214281,"current_range_meters":14000,"station_id":"ce4bgl92rcd13ifvqbq0","pricing_plan_id":"cebpf4jnsgd1na2vs0mg"},{"bike_id":"0322ca22-3727-41b5-86cb-6682292c28c8","system_id":"levelo_inurba_marseille","lat":43.30557,"lon":5.36685,"is_reserved":false,"is_disabled":false,"rental_uris":{"android":"levelo://app?vid=0322ca22-3727-41b5-86cb-6682292c28c8","ios":"levelo://app?vid=0322ca22-3727-41b5-86cb-6682292c28c8"},"vehicle_type_id":"4","last_reported":1761214281,"current_range_meters":14400,"station_id":"ce4bgrp2rcd13ifvqc9g","pricing_plan_id":"cebpf4jnsgd1na2vs0mg"},{"bike_id":"4b1dc27e-158e-4387-ac73-0bce646bc1a6","system_id":"levelo_inurba_marseille","lat":43.30943,"lon":5.39028,"is_reserved":false,"is_disabled":false,"rental_uris":{"android":"levelo://app?vid=4b1dc27e-158e-4387-ac73-0bce646bc1a6","ios":"levelo://app?vid=4b1dc27e-158e-4387-ac73-0bce646bc1a6"},"vehicle_type_id":"4","last_reported":1761214281,"current_range_meters":14400,"station_id":"ce4bgup2rcd13ifvqco0","pricing_plan_id":"cebpf4jnsgd1na2vs0mg"},{"bike_id":"ea886e01-8738-4e9f-8316-33a3ef2f4c84","system_id":"levelo_inurba_marseille","lat":43.2679,"lon":5.39416,"is_reserved":false,"is_disabled":false,"rental_uris":{"android":"levelo://app?vid=ea886e01-8738-4e9f-8316-33a3ef2f4c84","ios":"levelo://app?vid=ea886e01-8738-4e9f-8316-33a3ef2f4c84"},"vehicle_type_id":"4","last_reported":1761214281,"current_range_meters":14400,"station_id":"ce4bhh12rcd13ifvqfg0","pricing_plan_id":"cebpf4jnsgd1na2vs0mg"},{"bike_id":"7388bde5-6b0d-473b-be6f-0cf1d74fbdce","system_id":"levelo_inurba_marseille","lat":43.24167,"lon":5.363957,"is_reserved":false,"is_disabled":false,"rental_uris":{"android":"levelo://app?vid=7388bde5-6b0d-473b-be6f-0cf1d74fbdce","ios":"levelo://app?vid=7388bde5-6b0d-473b-be6f-0cf1d74fbdce"},"vehicle_type_id":"4","last_reported":1761214281,"current_range_meters":14400,"station_id":"","pricing_plan_id":"cebpf4jnsgd1na2vs0mg"},{"bike_id":"12336fbe-8f6a-4938-8ad0-ecffb440032a","system_id":"levelo_inurba_marseille","lat":43.25932,"lon":5.40903,"is_reserved":false,"is_disabled":false,"rental_uris":{"android":"levelo://app?vid=12336fbe-8f6a-4938-8ad0-ecffb440032a","ios":"levelo://app?vid=12336fbe-8f6a-4938-8ad0-ecffb440032a"},"vehicle_type_id":"4","last_reported":1761214281,"current_range_meters":14400,"station_id":"ce4bhm92rcd13ifvqglg","pricing_plan_id":"cebpf4jnsgd1na2vs0mg"},{"bike_id":"c48d2fcc-258a-409b-b69a-c521aec51e37","system_id":"levelo_inurba_marseille","lat":43.2916,"lon":5.37162,"is_reserved":false,"is_disabled":false,"rental_uris":{"android":"levelo://app?vid=c48d2fcc-258a-409b-b69a-c521aec51e37","ios":"levelo://app?vid=c48d2fcc-258a-409b-b69a-c521aec51e37"},"vehicle_type_id":"4","last_reported":1761214281,"current_range_meters":14400,"station_id":"ce4bha92rcd13ifvqeh0","pricing_plan_id":"cebpf4jnsgd1na2vs0mg"},{"bike_id":"7f67c9a6-c64c-4be4-afde-014de736f22b","system_id":"levelo_inurba_marseille","lat":43.28262,"lon":5.35061,"is_reserved":false,"is_disabled":false,"rental_uris":{"android":"levelo://app?vid=7f67c9a6-c64c-4be4-afde-014de736f22b","ios":"levelo://app?vid=7f67c9a6-c64c-4be4-afde-014de736f22b"},"vehicle_type_id":"4","last_reported":1761214281,"current_range_meters":14800,"station_id":"ce4bhbp2rcd13ifvqerg","pricing_plan_id":"cebpf4jnsgd1na2vs0mg"},{"bike_id":"b563bde9-cf14-4d0c-a26b-332f8917cfa1","system_id":"levelo_inurba_marseille","lat":43.29614,"lon":5.38103,"is_reserved":false,"is_disabled":false,"rental_uris":{"android":"levelo://app?vid=b563bde9-cf14-4d0c-a26b-332f8917cfa1","ios":"levelo://app?vid=b563bde9-cf14-4d0c-a26b-332f8917cfa1"},"vehicle_type_id":"4","last_reported":1761214281,"current_range_meters":14800,"station_id":"ce4bgl12rcd13ifvqbo0","pricing_plan_id":"cebpf4jnsgd1na2vs0mg"},{"bike_id":"2a6e49f6-4e9c-468c-ad7b-cdbe88b409dc","system_id":"levelo_inurba_marseille","lat":43.29225,"lon":5.36081,"is_reserved":false,"is_disabled":false,"rental_uris":{"android":"levelo://app?vid=2a6e49f6-4e9c-468c-ad7b-cdbe88b409dc","ios":"levelo://app?vid=2a6e49f6-4e9c-468c-ad7b-cdbe88b409dc"},"vehicle_type_id":"4","last_reported":1761214281,"current_range_meters":14800,"station_id":"ce4bhbh2rcd13ifvqeqg","pricing_plan_id":"cebpf4jnsgd1na2vs0mg"},{"bike_id":"f30d474c-592d-470d-816b-bf7526dcf767","system_id":"levelo_inurba_marseille","lat":43.30824,"lon":5.38112,"is_reserved":false,"is_disabled":false,"rental_uris":{"android":"levelo://app?vid=f30d474c-592d-470d-816b-bf7526dcf767","ios":"levelo://app?vid=f30d474c-592d-470d-816b-bf7526dcf767"},"vehicle_type_id":"4","last_reported":1761214281,"current_range_meters":14800,"station_id":"ce4bgt12rcd13ifvqce0","pricing_plan_id":"cebpf4jnsgd1na2vs0mg"},{"bike_id":"13ffca06-ecc4-46ee-aa82-6818647126c8","system_id":"levelo_inurba_marseille","lat":43.29897,"lon":5.43642,"is_reserved":false,"is_disabled":false,"rental_uris":{"android":"levelo://app?vid=13ffca06-ecc4-46ee-aa82-6818647126c8","ios":"levelo://app?vid=13ffca06-ecc4-46ee-aa82-6818647126c8"},"vehicle_type_id":"4","last_reported":1761214281,"current_range_meters":14800,"station_id":"ce4bhpp2rcd13ifvqhfg","pricing_plan_id":"cebpf4jnsgd1na2vs0mg"},{"bike_id":"63c5dd34-8807-41c3-b2b2-083d8e9d2dc4","system_id":"levelo_inurba_marseille","lat":43.295417,"lon":5.406745,"is_reserved":false,"is_disabled":false,"rental_uris":{"android":"levelo://app?vid=63c5dd34-8807-41c3-b2b2-083d8e9d2dc4","ios":"levelo://app?vid=63c5dd34-8807-41c3-b2b2-083d8e9d2dc4"},"vehicle_type_id":"4","last_reported":1761214281,"current_range_meters":14800,"station_id":"ce4bh0h2rcd13ifvqd60","pricing_plan_id":"cebpf4jnsgd1na2vs0mg"},{"bike_id":"12f3f073-c041-4658-a7f4-1022f577aab2","system_id":"levelo_inurba_marseille","lat":43.305406,"lon":5.367065,"is_reserved":false,"is_disabled":false,"rental_uris":{"android":"levelo://app?vid=12f3f073-c041-4658-a7f4-1022f577aab2","ios":"levelo://app?vid=12f3f073-c041-4658-a7f4-1022f577aab2"},"vehicle_type_id":"4","last_reported":1761214281,"current_range_meters":15200,"station_id":"ce4bh3h2rcd13ifvqdn0","pricing_plan_id":"cebpf4jnsgd1na2vs0mg"},{"bike_id":"839d7b08-fb63-4eb6-ba26-d9f64061b900","system_id":"levelo_inurba_marseille","lat":43.29223,"lon":5.36059,"is_reserved":false,"is_disabled":false,"rental_uris":{"android":"levelo://app?vid=839d7b08-fb63-4eb6-ba26-d9f64061b900","ios":"levelo://app?vid=839d7b08-fb63-4eb6-ba26-d9f64061b900"},"vehicle_type_id":"4","last_reported":1761214281,"current_range_meters":15200,"station_id":"ce4bhbh2rcd13ifvqeqg","pricing_plan_id":"cebpf4jnsgd1na2vs0mg"},{"bike_id":"0a89e311-8bb0-401b-a8c0-0113dfca60b4","system_id":"levelo_inurba_marseille","lat":43.25497,"lon":5.37647,"is_reserved":false,"is_disabled":false,"rental_uris":{"android":"levelo://app?vid=0a89e311-8bb0-401b-a8c0-0113dfca60b4","ios":"levelo://app?vid=0a89e311-8bb0-401b-a8c0-0113dfca60b4"},"vehicle_type_id":"4","last_reported":1761214281,"current_range_meters":16000,"station_id":"ce4bhh12rcd13ifvqff0","pricing_plan_id":"cebpf4jnsgd1na2vs0mg"},{"bike_id":"9c023054-f387-47db-bf1d-2774b5d6d642","system_id":"levelo_inurba_marseille","lat":43.31751,"lon":5.38147,"is_reserved":false,"is_disabled":false,"rental_uris":{"android":"levelo://app?vid=9c023054-f387-47db-bf1d-2774b5d6d642","ios":"levelo://app?vid=9c023054-f387-47db-bf1d-2774b5d6d642"},"vehicle_type_id":"4","last_reported":1761214281,"current_range_meters":16000,"station_id":"","pricing_plan_id":"cebpf4jnsgd1na2vs0mg"},{"bike_id":"b284a5b8-145b-4b18-970a-f541b5c0ebef","system_id":"levelo_inurba_marseille","lat":43.285533,"lon":5.394302,"is_reserved":false,"is_disabled":false,"rental_uris":{"android":"levelo://app?vid=b284a5b8-145b-4b18-970a-f541b5c0ebef","ios":"levelo://app?vid=b284a5b8-145b-4b18-970a-f541b5c0ebef"},"vehicle_type_id":"4","last_reported":1761214281,"current_range_meters":16000,"station_id":"","pricing_plan_id":"cebpf4jnsgd1na2vs0mg"},{"bike_id":"206ce9bb-93f8-4a08-b561-f32d594a1852","system_id":"levelo_inurba_marseille","lat":43.29836,"lon":5.44066,"is_reserved":false,"is_disabled":false,"rental_uris":{"android":"levelo://app?vid=206ce9bb-93f8-4a08-b561-f32d594a1852","ios":"levelo://app?vid=206ce9bb-93f8-4a08-b561-f32d594a1852"},"vehicle_type_id":"4","last_reported":1761214281,"current_range_meters":16400,"station_id":"st_d3jp68qikq2c7381ktn0","pricing_plan_id":"cebpf4jnsgd1na2vs0mg"},{"bike_id":"e769906a-6115-425c-84a0-aab1fda48d3f","system_id":"levelo_inurba_marseille","lat":43.29648,"lon":5.37569,"is_reserved":false,"is_disabled":false,"rental_uris":{"android":"levelo://app?vid=e769906a-6115-425c-84a0-aab1fda48d3f","ios":"levelo://app?vid=e769906a-6115-425c-84a0-aab1fda48d3f"},"vehicle_type_id":"4","last_reported":1761214281,"current_range_meters":16400,"station_id":"","pricing_plan_id":"cebpf4jnsgd1na2vs0mg"},{"bike_id":"48f81bc6-14ce-4085-a23c-e8908f44acab","system_id":"levelo_inurba_marseille","lat":43.24653,"lon":5.39642,"is_reserved":false,"is_disabled":true,"rental_uris":{"android":"levelo://app?vid=48f81bc6-14ce-4085-a23c-e8908f44acab","ios":"levelo://app?vid=48f81bc6-14ce-4085-a23c-e8908f44acab"},"vehicle_type_id":"4","last_reported":1761214281,"current_range_meters":16400,"station_id":"","pricing_plan_id":"cebpf4jnsgd1na2vs0mg"},{"bike_id":"6b37a1b8-5eb3-475e-b683-fd0eb1dbf02a","system_id":"levelo_inurba_marseille","lat":43.24806,"lon":5.37448,"is_reserved":false,"is_disabled":false,"rental_uris":{"android":"levelo://app?vid=6b37a1b8-5eb3-475e-b683-fd0eb1dbf02a","ios":"levelo://app?vid=6b37a1b8-5eb3-475e-b683-fd0eb1dbf02a"},"vehicle_type_id":"4","last_reported":1761214281,"current_range_meters":16400,"station_id":"ce4bhgh2rcd13ifvqfb0","pricing_plan_id":"cebpf4jnsgd1na2vs0mg"},{"bike_id":"b9764ed2-f91a-421e-b54e-d7527bd8af22","system_id":"levelo_inurba_marseille","lat":43.29811,"lon":5.36588,"is_reserved":false,"is_disabled":false,"rental_uris":{"android":"levelo://app?vid=b9764ed2-f91a-421e-b54e-d7527bd8af22","ios":"levelo://app?vid=b9764ed2-f91a-421e-b54e-d7527bd8af22"},"vehicle_type_id":"4","last_reported":1761214281,"current_range_meters":16400,"station_id":"","pricing_plan_id":"cebpf4jnsgd1na2vs0mg"},{"bike_id":"32fca576-7bbd-43c5-9ee3-418ca028c84f","system_id":"levelo_inurba_marseille","lat":43.30547,"lon":5.36683,"is_reserved":false,"is_disabled":false,"rental_uris":{"android":"levelo://app?vid=32fca576-7bbd-43c5-9ee3-418ca028c84f","ios":"levelo://app?vid=32fca576-7bbd-43c5-9ee3-418ca028c84f"},"vehicle_type_id":"4","last_reported":1761214281,"current_range_meters":16400,"station_id":"ce4bgrp2rcd13ifvqc9g","pricing_plan_id":"cebpf4jnsgd1na2vs0mg"},{"bike_id":"f35113ad-3bc2-482a-82e3-c110a5af2643","system_id":"levelo_inurba_marseille","lat":43.30904,"lon":5.36849,"is_reserved":false,"is_disabled":false,"rental_uris":{"android":"levelo://app?vid=f35113ad-3bc2-482a-82e3-c110a5af2643","ios":"levelo://app?vid=f35113ad-3bc2-482a-82e3-c110a5af2643"},"vehicle_type_id":"4","last_reported":1761214281,"current_range_meters":16400,"station_id":"ce4bgn92rcd13ifvqbvg","pricing_plan_id":"cebpf4jnsgd1na2vs0mg"},{"bike_id":"8bcacd78-80de-4026-af75-b37ebe3030fe","system_id":"levelo_inurba_marseille","lat":43.334756,"lon":5.404255,"is_reserved":false,"is_disabled":false,"rental_uris":{"android":"levelo://app?vid=8bcacd78-80de-4026-af75-b37ebe3030fe","ios":"levelo://app?vid=8bcacd78-80de-4026-af75-b37ebe3030fe"},"vehicle_type_id":"4","last_reported":1761214281,"current_range_meters":16400,"station_id":"","pricing_plan_id":"cebpf4jnsgd1na2vs0mg"},{"bike_id":"6e053c2e-e78b-48d4-a738-3681f83b0589","system_id":"levelo_inurba_marseille","lat":43.30547,"lon":5.38421,"is_reserved":false,"is_disabled":false,"rental_uris":{"android":"levelo://app?vid=6e053c2e-e78b-48d4-a738-3681f83b0589","ios":"levelo://app?vid=6e053c2e-e78b-48d4-a738-3681f83b0589"},"vehicle_type_id":"4","last_reported":1761214281,"current_range_meters":16400,"station_id":"ce4bgg92rcd13ifvqb30","pricing_plan_id":"cebpf4jnsgd1na2vs0mg"},{"bike_id":"f4b2367a-12ef-4353-b463-a7e26fc0cfa2","system_id":"levelo_inurba_marseille","lat":43.29028,"lon":5.38138,"is_reserved":false,"is_disabled":false,"rental_uris":{"android":"levelo://app?vid=f4b2367a-12ef-4353-b463-a7e26fc0cfa2","ios":"levelo://app?vid=f4b2367a-12ef-4353-b463-a7e26fc0cfa2"},"vehicle_type_id":"4","last_reported":1761214281,"current_range_meters":16800,"station_id":"ce4bh4p2rcd13ifvqe1g","pricing_plan_id":"cebpf4jnsgd1na2vs0mg"},{"bike_id":"3ccbea60-dcc8-4616-af6f-10202f7d15c9","system_id":"levelo_inurba_marseille","lat":43.27998,"lon":5.38768,"is_reserved":false,"is_disabled":false,"rental_uris":{"android":"levelo://app?vid=3ccbea60-dcc8-4616-af6f-10202f7d15c9","ios":"levelo://app?vid=3ccbea60-dcc8-4616-af6f-10202f7d15c9"},"vehicle_type_id":"4","last_reported":1761214281,"current_range_meters":16800,"station_id":"ce4bhg12rcd13ifvqf80","pricing_plan_id":"cebpf4jnsgd1na2vs0mg"},{"bike_id":"bb16e8de-3648-4771-990e-2ed2243a25d9","system_id":"levelo_inurba_marseille","lat":43.31529,"lon":5.3803,"is_reserved":false,"is_disabled":false,"rental_uris":{"android":"levelo://app?vid=bb16e8de-3648-4771-990e-2ed2243a25d9","ios":"levelo://app?vid=bb16e8de-3648-4771-990e-2ed2243a25d9"},"vehicle_type_id":"4","last_reported":1761214281,"current_range_meters":16800,"station_id":"ce4bhsp2rcd13ifvqi50","pricing_plan_id":"cebpf4jnsgd1na2vs0mg"},{"bike_id":"78553153-3cdb-4f5d-8361-78e780c4e41f","system_id":"levelo_inurba_marseille","lat":43.30959,"lon":5.39062,"is_reserved":false,"is_disabled":false,"rental_uris":{"android":"levelo://app?vid=78553153-3cdb-4f5d-8361-78e780c4e41f","ios":"levelo://app?vid=78553153-3cdb-4f5d-8361-78e780c4e41f"},"vehicle_type_id":"4","last_reported":1761214281,"current_range_meters":16800,"station_id":"ce4bgup2rcd13ifvqco0","pricing_plan_id":"cebpf4jnsgd1na2vs0mg"},{"bike_id":"3c473905-25d9-4b81-b6e9-f094d3554e55","system_id":"levelo_inurba_marseille","lat":43.22939,"lon":5.35379,"is_reserved":false,"is_disabled":false,"rental_uris":{"android":"levelo://app?vid=3c473905-25d9-4b81-b6e9-f094d3554e55","ios":"levelo://app?vid=3c473905-25d9-4b81-b6e9-f094d3554e55"},"vehicle_type_id":"4","last_reported":1761214281,"current_range_meters":16800,"station_id":"cpo3532slgdg3j2ikp40","pricing_plan_id":"cebpf4jnsgd1na2vs0mg"},{"bike_id":"03df46fe-b480-4cf0-8b45-478d98bd01a9","system_id":"levelo_inurba_marseille","lat":43.3046,"lon":5.37903,"is_reserved":false,"is_disabled":false,"rental_uris":{"android":"levelo://app?vid=03df46fe-b480-4cf0-8b45-478d98bd01a9","ios":"levelo://app?vid=03df46fe-b480-4cf0-8b45-478d98bd01a9"},"vehicle_type_id":"4","last_reported":1761214281,"current_range_meters":16800,"station_id":"ce4bgup2rcd13ifvqcn0","pricing_plan_id":"cebpf4jnsgd1na2vs0mg"},{"bike_id":"ab142d5b-a631-4b39-9d0a-6a841897b389","system_id":"levelo_inurba_marseille","lat":43.26783,"lon":5.394195,"is_reserved":false,"is_disabled":false,"rental_uris":{"android":"levelo://app?vid=ab142d5b-a631-4b39-9d0a-6a841897b389","ios":"levelo://app?vid=ab142d5b-a631-4b39-9d0a-6a841897b389"},"vehicle_type_id":"4","last_reported":1761214281,"current_range_meters":17200,"station_id":"ce4bhh12rcd13ifvqfg0","pricing_plan_id":"cebpf4jnsgd1na2vs0mg"},{"bike_id":"96939117-35ce-41f0-9af0-fcff4726b36a","system_id":"levelo_inurba_marseille","lat":43.30368,"lon":5.42476,"is_reserved":false,"is_disabled":false,"rental_uris":{"android":"levelo://app?vid=96939117-35ce-41f0-9af0-fcff4726b36a","ios":"levelo://app?vid=96939117-35ce-41f0-9af0-fcff4726b36a"},"vehicle_type_id":"4","last_reported":1761214281,"current_range_meters":17200,"station_id":"ce4bhoh2rcd13ifvqh6g","pricing_plan_id":"cebpf4jnsgd1na2vs0mg"},{"bike_id":"2172ef7f-240b-4c72-bf8d-26c79cc1f73d","system_id":"levelo_inurba_marseille","lat":43.29888,"lon":5.43666,"is_reserved":false,"is_disabled":false,"rental_uris":{"android":"levelo://app?vid=2172ef7f-240b-4c72-bf8d-26c79cc1f73d","ios":"levelo://app?vid=2172ef7f-240b-4c72-bf8d-26c79cc1f73d"},"vehicle_type_id":"4","last_reported":1761214281,"current_range_meters":17200,"station_id":"ce4bhpp2rcd13ifvqhfg","pricing_plan_id":"cebpf4jnsgd1na2vs0mg"},{"bike_id":"41b03bf9-c714-4de2-bf29-32c1890bbb75","system_id":"levelo_inurba_marseille","lat":43.28831,"lon":5.39318,"is_reserved":false,"is_disabled":false,"rental_uris":{"android":"levelo://app?vid=41b03bf9-c714-4de2-bf29-32c1890bbb75","ios":"levelo://app?vid=41b03bf9-c714-4de2-bf29-32c1890bbb75"},"vehicle_type_id":"4","last_reported":1761214281,"current_range_meters":17200,"station_id":"ce4bh2p2rcd13ifvqdi0","pricing_plan_id":"cebpf4jnsgd1na2vs0mg"},{"bike_id":"d1229fdb-df7c-411f-b79e-7b9f1523d47b","system_id":"levelo_inurba_marseille","lat":43.3046,"lon":5.37923,"is_reserved":false,"is_disabled":false,"rental_uris":{"android":"levelo://app?vid=d1229fdb-df7c-411f-b79e-7b9f1523d47b","ios":"levelo://app?vid=d1229fdb-df7c-411f-b79e-7b9f1523d47b"},"vehicle_type_id":"4","last_reported":1761214281,"current_range_meters":17200,"station_id":"ce4bgup2rcd13ifvqcn0","pricing_plan_id":"cebpf4jnsgd1na2vs0mg"},{"bike_id":"a5e10cb3-d280-4b4c-8176-279276f1fb2a","system_id":"levelo_inurba_marseille","lat":43.25115,"lon":5.40343,"is_reserved":false,"is_disabled":false,"rental_uris":{"android":"levelo://app?vid=a5e10cb3-d280-4b4c-8176-279276f1fb2a","ios":"levelo://app?vid=a5e10cb3-d280-4b4c-8176-279276f1fb2a"},"vehicle_type_id":"4","last_reported":1761214281,"current_range_meters":17200,"station_id":"ce4bhlh2rcd13ifvqgig","pricing_plan_id":"cebpf4jnsgd1na2vs0mg"},{"bike_id":"ff3fcf70-c183-4046-b310-5c316a40bd51","system_id":"levelo_inurba_marseille","lat":43.30744,"lon":5.42442,"is_reserved":false,"is_disabled":false,"rental_uris":{"android":"levelo://app?vid=ff3fcf70-c183-4046-b310-5c316a40bd51","ios":"levelo://app?vid=ff3fcf70-c183-4046-b310-5c316a40bd51"},"vehicle_type_id":"4","last_reported":1761214281,"current_range_meters":17200,"station_id":"st_cvj6ca6bvosntc0bfgr0","pricing_plan_id":"cebpf4jnsgd1na2vs0mg"},{"bike_id":"76eec8c2-d0b2-4272-92ec-c6c5a3348de6","system_id":"levelo_inurba_marseille","lat":43.29691,"lon":5.37285,"is_reserved":false,"is_disabled":false,"rental_uris":{"android":"levelo://app?vid=76eec8c2-d0b2-4272-92ec-c6c5a3348de6","ios":"levelo://app?vid=76eec8c2-d0b2-4272-92ec-c6c5a3348de6"},"vehicle_type_id":"4","last_reported":1761214281,"current_range_meters":17200,"station_id":"ce4bgk12rcd13ifvqbj0","pricing_plan_id":"cebpf4jnsgd1na2vs0mg"},{"bike_id":"0e693f24-b475-4e05-8789-fe144bc148e8","system_id":"levelo_inurba_marseille","lat":43.28866,"lon":5.42533,"is_reserved":false,"is_disabled":false,"rental_uris":{"android":"levelo://app?vid=0e693f24-b475-4e05-8789-fe144bc148e8","ios":"levelo://app?vid=0e693f24-b475-4e05-8789-fe144bc148e8"},"vehicle_type_id":"4","last_reported":1761214281,"current_range_meters":17200,"station_id":"st_d3b462108ojc7389ooeg","pricing_plan_id":"cebpf4jnsgd1na2vs0mg"},{"bike_id":"7b113150-9a3e-408d-be60-f73dcbe6efbf","system_id":"levelo_inurba_marseille","lat":43.24811,"lon":5.37458,"is_reserved":false,"is_disabled":false,"rental_uris":{"android":"levelo://app?vid=7b113150-9a3e-408d-be60-f73dcbe6efbf","ios":"levelo://app?vid=7b113150-9a3e-408d-be60-f73dcbe6efbf"},"vehicle_type_id":"4","last_reported":1761214281,"current_range_meters":17200,"station_id":"ce4bhgh2rcd13ifvqfb0","pricing_plan_id":"cebpf4jnsgd1na2vs0mg"},{"bike_id":"3e4783b6-28d8-4737-a4ef-6a1b0da02476","system_id":"levelo_inurba_marseille","lat":43.29443,"lon":5.40739,"is_reserved":false,"is_disabled":false,"rental_uris":{"android":"levelo://app?vid=3e4783b6-28d8-4737-a4ef-6a1b0da02476","ios":"levelo://app?vid=3e4783b6-28d8-4737-a4ef-6a1b0da02476"},"vehicle_type_id":"4","last_reported":1761214281,"current_range_meters":17600,"station_id":"","pricing_plan_id":"cebpf4jnsgd1na2vs0mg"},{"bike_id":"e986eb56-ca00-4dbf-ada0-578bc3d8f529","system_id":"levelo_inurba_marseille","lat":43.27312,"lon":5.41415,"is_reserved":false,"is_disabled":false,"rental_uris":{"android":"levelo://app?vid=e986eb56-ca00-4dbf-ada0-578bc3d8f529","ios":"levelo://app?vid=e986eb56-ca00-4dbf-ada0-578bc3d8f529"},"vehicle_type_id":"4","last_reported":1761214281,"current_range_meters":17600,"station_id":"","pricing_plan_id":"cebpf4jnsgd1na2vs0mg"},{"bike_id":"75eebb0f-2447-4bf8-b846-45b5b359059b","system_id":"levelo_inurba_marseille","lat":43.33762,"lon":5.37487,"is_reserved":false,"is_disabled":false,"rental_uris":{"android":"levelo://app?vid=75eebb0f-2447-4bf8-b846-45b5b359059b","ios":"levelo://app?vid=75eebb0f-2447-4bf8-b846-45b5b359059b"},"vehicle_type_id":"4","last_reported":1761214281,"current_range_meters":17600,"station_id":"","pricing_plan_id":"cebpf4jnsgd1na2vs0mg"},{"bike_id":"d3b10ae9-425a-4c24-b6a0-d1efb7d643c2","system_id":"levelo_inurba_marseille","lat":43.293,"lon":5.37454,"is_reserved":false,"is_disabled":false,"rental_uris":{"android":"levelo://app?vid=d3b10ae9-425a-4c24-b6a0-d1efb7d643c2","ios":"levelo://app?vid=d3b10ae9-425a-4c24-b6a0-d1efb7d643c2"},"vehicle_type_id":"4","last_reported":1761214281,"current_range_meters":17600,"station_id":"ce4bgi12rcd13ifvqb70","pricing_plan_id":"cebpf4jnsgd1na2vs0mg"},{"bike_id":"de6614d3-f5d0-4631-a6ac-aad439cfe511","system_id":"levelo_inurba_marseille","lat":43.24545,"lon":5.39531,"is_reserved":false,"is_disabled":true,"rental_uris":{"android":"levelo://app?vid=de6614d3-f5d0-4631-a6ac-aad439cfe511","ios":"levelo://app?vid=de6614d3-f5d0-4631-a6ac-aad439cfe511"},"vehicle_type_id":"4","last_reported":1761214281,"current_range_meters":17600,"station_id":"ce4bhlp2rcd13ifvqgjg","pricing_plan_id":"cebpf4jnsgd1na2vs0mg"},{"bike_id":"c47f284c-87bd-431f-ae84-fe0df6acf8b6","system_id":"levelo_inurba_marseille","lat":43.29286,"lon":5.40124,"is_reserved":false,"is_disabled":false,"rental_uris":{"android":"levelo://app?vid=c47f284c-87bd-431f-ae84-fe0df6acf8b6","ios":"levelo://app?vid=c47f284c-87bd-431f-ae84-fe0df6acf8b6"},"vehicle_type_id":"4","last_reported":1761214281,"current_range_meters":17600,"station_id":"ce4bh312rcd13ifvqdk0","pricing_plan_id":"cebpf4jnsgd1na2vs0mg"},{"bike_id":"181d2c2e-cbb2-406f-989e-7e5f165a71d6","system_id":"levelo_inurba_marseille","lat":43.31375,"lon":5.36686,"is_reserved":false,"is_disabled":false,"rental_uris":{"android":"levelo://app?vid=181d2c2e-cbb2-406f-989e-7e5f165a71d6","ios":"levelo://app?vid=181d2c2e-cbb2-406f-989e-7e5f165a71d6"},"vehicle_type_id":"4","last_reported":1761214281,"current_range_meters":17600,"station_id":"ce4bgr92rcd13ifvqc6g","pricing_plan_id":"cebpf4jnsgd1na2vs0mg"},{"bike_id":"b21b6ff6-0929-4acd-a3b0-3f248e63c66d","system_id":"levelo_inurba_marseille","lat":43.3211,"lon":5.36771,"is_reserved":false,"is_disabled":false,"rental_uris":{"android":"levelo://app?vid=b21b6ff6-0929-4acd-a3b0-3f248e63c66d","ios":"levelo://app?vid=b21b6ff6-0929-4acd-a3b0-3f248e63c66d"},"vehicle_type_id":"4","last_reported":1761214281,"current_range_meters":18000,"station_id":"ce4bhrh2rcd13ifvqhug","pricing_plan_id":"cebpf4jnsgd1na2vs0mg"},{"bike_id":"ac9b5b0f-8735-4757-8bf2-f97e3f542d3a","system_id":"levelo_inurba_marseille","lat":43.30525,"lon":5.36536,"is_reserved":false,"is_disabled":false,"rental_uris":{"android":"levelo://app?vid=ac9b5b0f-8735-4757-8bf2-f97e3f542d3a","ios":"levelo://app?vid=ac9b5b0f-8735-4757-8bf2-f97e3f542d3a"},"vehicle_type_id":"4","last_reported":1761214281,"current_range_meters":18000,"station_id":"ce4bgs12rcd13ifvqcag","pricing_plan_id":"cebpf4jnsgd1na2vs0mg"},{"bike_id":"bee9ad2f-aaea-4607-9ffa-be6bd0213b89","system_id":"levelo_inurba_marseille","lat":43.33707,"lon":5.39197,"is_reserved":false,"is_disabled":true,"rental_uris":{"android":"levelo://app?vid=bee9ad2f-aaea-4607-9ffa-be6bd0213b89","ios":"levelo://app?vid=bee9ad2f-aaea-4607-9ffa-be6bd0213b89"},"vehicle_type_id":"4","last_reported":1761214281,"current_range_meters":18000,"station_id":"ce4bhr92rcd13ifvqhsg","pricing_plan_id":"cebpf4jnsgd1na2vs0mg"},{"bike_id":"700ba852-502b-4548-93e2-c530c2b9889c","system_id":"levelo_inurba_marseille","lat":43.305435,"lon":5.365576,"is_reserved":false,"is_disabled":false,"rental_uris":{"android":"levelo://app?vid=700ba852-502b-4548-93e2-c530c2b9889c","ios":"levelo://app?vid=700ba852-502b-4548-93e2-c530c2b9889c"},"vehicle_type_id":"4","last_reported":1761214281,"current_range_meters":18000,"station_id":"ce4bgs12rcd13ifvqcag","pricing_plan_id":"cebpf4jnsgd1na2vs0mg"},{"bike_id":"7877ff7b-2c57-444b-afd5-738313840c1f","system_id":"levelo_inurba_marseille","lat":43.30138,"lon":5.37409,"is_reserved":false,"is_disabled":false,"rental_uris":{"android":"levelo://app?vid=7877ff7b-2c57-444b-afd5-738313840c1f","ios":"levelo://app?vid=7877ff7b-2c57-444b-afd5-738313840c1f"},"vehicle_type_id":"4","last_reported":1761214281,"current_range_meters":18000,"station_id":"ce4bgs92rcd13ifvqcc0","pricing_plan_id":"cebpf4jnsgd1na2vs0mg"},{"bike_id":"d2357778-68e1-4241-9805-2ef8b4081018","system_id":"levelo_inurba_marseille","lat":43.30954,"lon":5.39055,"is_reserved":false,"is_disabled":false,"rental_uris":{"android":"levelo://app?vid=d2357778-68e1-4241-9805-2ef8b4081018","ios":"levelo://app?vid=d2357778-68e1-4241-9805-2ef8b4081018"},"vehicle_type_id":"4","last_reported":1761214281,"current_range_meters":18000,"station_id":"ce4bgup2rcd13ifvqco0","pricing_plan_id":"cebpf4jnsgd1na2vs0mg"},{"bike_id":"d9ecb998-ceaa-4a39-8aba-9f0e44069447","system_id":"levelo_inurba_marseille","lat":43.32147,"lon":5.38731,"is_reserved":false,"is_disabled":false,"rental_uris":{"android":"levelo://app?vid=d9ecb998-ceaa-4a39-8aba-9f0e44069447","ios":"levelo://app?vid=d9ecb998-ceaa-4a39-8aba-9f0e44069447"},"vehicle_type_id":"4","last_reported":1761214281,"current_range_meters":18000,"station_id":"","pricing_plan_id":"cebpf4jnsgd1na2vs0mg"},{"bike_id":"d5b9355c-98f8-46de-b81f-a45c67073856","system_id":"levelo_inurba_marseille","lat":43.29606,"lon":5.38103,"is_reserved":false,"is_disabled":false,"rental_uris":{"android":"levelo://app?vid=d5b9355c-98f8-46de-b81f-a45c67073856","ios":"levelo://app?vid=d5b9355c-98f8-46de-b81f-a45c67073856"},"vehicle_type_id":"4","last_reported":1761214281,"current_range_meters":18000,"station_id":"ce4bgl12rcd13ifvqbo0","pricing_plan_id":"cebpf4jnsgd1na2vs0mg"},{"bike_id":"0a4d81c6-2647-4e67-bde2-b7adbc7ef2ba","system_id":"levelo_inurba_marseille","lat":43.28527,"lon":5.44086,"is_reserved":false,"is_disabled":true,"rental_uris":{"android":"levelo://app?vid=0a4d81c6-2647-4e67-bde2-b7adbc7ef2ba","ios":"levelo://app?vid=0a4d81c6-2647-4e67-bde2-b7adbc7ef2ba"},"vehicle_type_id":"4","last_reported":1761214281,"current_range_meters":18800,"station_id":"st_d3j3df2ikq2c7380ej80","pricing_plan_id":"cebpf4jnsgd1na2vs0mg"},{"bike_id":"6250ac27-ee37-41d1-bc0f-a615c7912f4a","system_id":"levelo_inurba_marseille","lat":43.3236,"lon":5.36752,"is_reserved":false,"is_disabled":false,"rental_uris":{"android":"levelo://app?vid=6250ac27-ee37-41d1-bc0f-a615c7912f4a","ios":"levelo://app?vid=6250ac27-ee37-41d1-bc0f-a615c7912f4a"},"vehicle_type_id":"4","last_reported":1761214281,"current_range_meters":18800,"station_id":"ce4bhsh2rcd13ifvqi2g","pricing_plan_id":"cebpf4jnsgd1na2vs0mg"},{"bike_id":"6552118e-9997-496d-8ae3-3aae82824535","system_id":"levelo_inurba_marseille","lat":43.32246,"lon":5.38357,"is_reserved":false,"is_disabled":false,"rental_uris":{"android":"levelo://app?vid=6552118e-9997-496d-8ae3-3aae82824535","ios":"levelo://app?vid=6552118e-9997-496d-8ae3-3aae82824535"},"vehicle_type_id":"4","last_reported":1761214281,"current_range_meters":18800,"station_id":"","pricing_plan_id":"cebpf4jnsgd1na2vs0mg"},{"bike_id":"b5cbee6e-024a-4e35-b20c-bff433fca7cc","system_id":"levelo_inurba_marseille","lat":43.22564,"lon":5.41622,"is_reserved":false,"is_disabled":false,"rental_uris":{"android":"levelo://app?vid=b5cbee6e-024a-4e35-b20c-bff433fca7cc","ios":"levelo://app?vid=b5cbee6e-024a-4e35-b20c-bff433fca7cc"},"vehicle_type_id":"4","last_reported":1761214281,"current_range_meters":18800,"station_id":"st_d2o4gvlbi1j2169b742g","pricing_plan_id":"cebpf4jnsgd1na2vs0mg"},{"bike_id":"5db0d44d-18b4-422a-9766-a3218057e91c","system_id":"levelo_inurba_marseille","lat":43.22926,"lon":5.35387,"is_reserved":false,"is_disabled":false,"rental_uris":{"android":"levelo://app?vid=5db0d44d-18b4-422a-9766-a3218057e91c","ios":"levelo://app?vid=5db0d44d-18b4-422a-9766-a3218057e91c"},"vehicle_type_id":"4","last_reported":1761214281,"current_range_meters":18800,"station_id":"cpo3532slgdg3j2ikp40","pricing_plan_id":"cebpf4jnsgd1na2vs0mg"},{"bike_id":"080346b1-2d63-4194-8377-30405352eca2","system_id":"levelo_inurba_marseille","lat":43.30305,"lon":5.39211,"is_reserved":false,"is_disabled":false,"rental_uris":{"android":"levelo://app?vid=080346b1-2d63-4194-8377-30405352eca2","ios":"levelo://app?vid=080346b1-2d63-4194-8377-30405352eca2"},"vehicle_type_id":"4","last_reported":1761214281,"current_range_meters":18800,"station_id":"ce4bgkh2rcd13ifvqbk0","pricing_plan_id":"cebpf4jnsgd1na2vs0mg"},{"bike_id":"f8c755d7-1bb8-4fcd-bb3f-74aeb49951cc","system_id":"levelo_inurba_marseille","lat":43.31374,"lon":5.37904,"is_reserved":false,"is_disabled":false,"rental_uris":{"android":"levelo://app?vid=f8c755d7-1bb8-4fcd-bb3f-74aeb49951cc","ios":"levelo://app?vid=f8c755d7-1bb8-4fcd-bb3f-74aeb49951cc"},"vehicle_type_id":"4","last_reported":1761214281,"current_range_meters":19200,"station_id":"","pricing_plan_id":"cebpf4jnsgd1na2vs0mg"},{"bike_id":"d217877a-f518-46e1-af73-d33d50b5109d","system_id":"levelo_inurba_marseille","lat":43.269497,"lon":5.386381,"is_reserved":false,"is_disabled":false,"rental_uris":{"android":"levelo://app?vid=d217877a-f518-46e1-af73-d33d50b5109d","ios":"levelo://app?vid=d217877a-f518-46e1-af73-d33d50b5109d"},"vehicle_type_id":"4","last_reported":1761214281,"current_range_meters":19200,"station_id":"ce4bhh92rcd13ifvqfh0","pricing_plan_id":"cebpf4jnsgd1na2vs0mg"},{"bike_id":"27d2104d-1b8f-4689-8074-7a744a934c06","system_id":"levelo_inurba_marseille","lat":43.241802,"lon":5.397222,"is_reserved":false,"is_disabled":false,"rental_uris":{"android":"levelo://app?vid=27d2104d-1b8f-4689-8074-7a744a934c06","ios":"levelo://app?vid=27d2104d-1b8f-4689-8074-7a744a934c06"},"vehicle_type_id":"4","last_reported":1761214281,"current_range_meters":19200,"station_id":"ce4bhn12rcd13ifvqgpg","pricing_plan_id":"cebpf4jnsgd1na2vs0mg"},{"bike_id":"aba9a550-3851-4684-b07d-5266d742b3b7","system_id":"levelo_inurba_marseille","lat":43.23159,"lon":5.4371,"is_reserved":false,"is_disabled":false,"rental_uris":{"android":"levelo://app?vid=aba9a550-3851-4684-b07d-5266d742b3b7","ios":"levelo://app?vid=aba9a550-3851-4684-b07d-5266d742b3b7"},"vehicle_type_id":"4","last_reported":1761214281,"current_range_meters":19200,"station_id":"ce4bhmp2rcd13ifvqgog","pricing_plan_id":"cebpf4jnsgd1na2vs0mg"},{"bike_id":"27198d01-2bf0-42c0-96db-617acb50ac1b","system_id":"levelo_inurba_marseille","lat":43.28267,"lon":5.3508,"is_reserved":false,"is_disabled":false,"rental_uris":{"android":"levelo://app?vid=27198d01-2bf0-42c0-96db-617acb50ac1b","ios":"levelo://app?vid=27198d01-2bf0-42c0-96db-617acb50ac1b"},"vehicle_type_id":"4","last_reported":1761214281,"current_range_meters":19600,"station_id":"ce4bhbp2rcd13ifvqerg","pricing_plan_id":"cebpf4jnsgd1na2vs0mg"},{"bike_id":"62f0a2f8-d352-4580-a096-e8ce56ffccdb","system_id":"levelo_inurba_marseille","lat":43.32093,"lon":5.36759,"is_reserved":false,"is_disabled":false,"rental_uris":{"android":"levelo://app?vid=62f0a2f8-d352-4580-a096-e8ce56ffccdb","ios":"levelo://app?vid=62f0a2f8-d352-4580-a096-e8ce56ffccdb"},"vehicle_type_id":"4","last_reported":1761214281,"current_range_meters":19600,"station_id":"ce4bhrh2rcd13ifvqhug","pricing_plan_id":"cebpf4jnsgd1na2vs0mg"},{"bike_id":"75552eb5-38a2-43ca-9291-cacb859b6f73","system_id":"levelo_inurba_marseille","lat":43.284215,"lon":5.349847,"is_reserved":false,"is_disabled":false,"rental_uris":{"android":"levelo://app?vid=75552eb5-38a2-43ca-9291-cacb859b6f73","ios":"levelo://app?vid=75552eb5-38a2-43ca-9291-cacb859b6f73"},"vehicle_type_id":"4","last_reported":1761214281,"current_range_meters":19600,"station_id":"","pricing_plan_id":"cebpf4jnsgd1na2vs0mg"},{"bike_id":"7e3f0c29-c7cf-4648-8c63-90f647962dab","system_id":"levelo_inurba_marseille","lat":43.29904,"lon":5.43684,"is_reserved":false,"is_disabled":false,"rental_uris":{"android":"levelo://app?vid=7e3f0c29-c7cf-4648-8c63-90f647962dab","ios":"levelo://app?vid=7e3f0c29-c7cf-4648-8c63-90f647962dab"},"vehicle_type_id":"4","last_reported":1761214281,"current_range_meters":19600,"station_id":"ce4bhpp2rcd13ifvqhfg","pricing_plan_id":"cebpf4jnsgd1na2vs0mg"},{"bike_id":"52a04b7c-586f-491c-aded-7c538741c912","system_id":"levelo_inurba_marseille","lat":43.30319,"lon":5.36895,"is_reserved":false,"is_disabled":false,"rental_uris":{"android":"levelo://app?vid=52a04b7c-586f-491c-aded-7c538741c912","ios":"levelo://app?vid=52a04b7c-586f-491c-aded-7c538741c912"},"vehicle_type_id":"4","last_reported":1761214281,"current_range_meters":19600,"station_id":"ce4bgqh2rcd13ifvqc5g","pricing_plan_id":"cebpf4jnsgd1na2vs0mg"},{"bike_id":"692a999f-f646-43fe-b949-d58fd32447f4","system_id":"levelo_inurba_marseille","lat":43.32254,"lon":5.3944,"is_reserved":false,"is_disabled":false,"rental_uris":{"android":"levelo://app?vid=692a999f-f646-43fe-b949-d58fd32447f4","ios":"levelo://app?vid=692a999f-f646-43fe-b949-d58fd32447f4"},"vehicle_type_id":"4","last_reported":1761214281,"current_range_meters":19600,"station_id":"","pricing_plan_id":"cebpf4jnsgd1na2vs0mg"},{"bike_id":"99e4cfd7-2c1f-414f-ae2a-72fe809b0c7f","system_id":"levelo_inurba_marseille","lat":43.304037,"lon":5.36513,"is_reserved":false,"is_disabled":false,"rental_uris":{"android":"levelo://app?vid=99e4cfd7-2c1f-414f-ae2a-72fe809b0c7f","ios":"levelo://app?vid=99e4cfd7-2c1f-414f-ae2a-72fe809b0c7f"},"vehicle_type_id":"4","last_reported":1761214281,"current_range_meters":19600,"station_id":"","pricing_plan_id":"cebpf4jnsgd1na2vs0mg"},{"bike_id":"279ca38d-dc52-48a5-9495-b3771074cced","system_id":"levelo_inurba_marseille","lat":43.30314,"lon":5.36894,"is_reserved":false,"is_disabled":false,"rental_uris":{"android":"levelo://app?vid=279ca38d-dc52-48a5-9495-b3771074cced","ios":"levelo://app?vid=279ca38d-dc52-48a5-9495-b3771074cced"},"vehicle_type_id":"4","last_reported":1761214281,"current_range_meters":20000,"station_id":"ce4bgqh2rcd13ifvqc5g","pricing_plan_id":"cebpf4jnsgd1na2vs0mg"},{"bike_id":"6db8ef95-2e7c-4eaa-865b-bf19cbffa797","system_id":"levelo_inurba_marseille","lat":43.23136,"lon":5.43723,"is_reserved":false,"is_disabled":false,"rental_uris":{"android":"levelo://app?vid=6db8ef95-2e7c-4eaa-865b-bf19cbffa797","ios":"levelo://app?vid=6db8ef95-2e7c-4eaa-865b-bf19cbffa797"},"vehicle_type_id":"4","last_reported":1761214281,"current_range_meters":20000,"station_id":"ce4bhmp2rcd13ifvqgog","pricing_plan_id":"cebpf4jnsgd1na2vs0mg"},{"bike_id":"ea2ca8c6-659a-424c-af60-77200c913dab","system_id":"levelo_inurba_marseille","lat":43.28603,"lon":5.37056,"is_reserved":false,"is_disabled":false,"rental_uris":{"android":"levelo://app?vid=ea2ca8c6-659a-424c-af60-77200c913dab","ios":"levelo://app?vid=ea2ca8c6-659a-424c-af60-77200c913dab"},"vehicle_type_id":"4","last_reported":1761214281,"current_range_meters":20000,"station_id":"ce4bht12rcd13ifvqi60","pricing_plan_id":"cebpf4jnsgd1na2vs0mg"},{"bike_id":"c66a37e4-5a4d-4b5e-9547-b1f341f1bc04","system_id":"levelo_inurba_marseille","lat":43.286835,"lon":5.399833,"is_reserved":false,"is_disabled":false,"rental_uris":{"android":"levelo://app?vid=c66a37e4-5a4d-4b5e-9547-b1f341f1bc04","ios":"levelo://app?vid=c66a37e4-5a4d-4b5e-9547-b1f341f1bc04"},"vehicle_type_id":"4","last_reported":1761214281,"current_range_meters":20000,"station_id":"ce4bho92rcd13ifvqh3g","pricing_plan_id":"cebpf4jnsgd1na2vs0mg"},{"bike_id":"47f09c0c-92a9-44eb-a23c-69934b3ff134","system_id":"levelo_inurba_marseille","lat":43.30125,"lon":5.43116,"is_reserved":false,"is_disabled":false,"rental_uris":{"android":"levelo://app?vid=47f09c0c-92a9-44eb-a23c-69934b3ff134","ios":"levelo://app?vid=47f09c0c-92a9-44eb-a23c-69934b3ff134"},"vehicle_type_id":"4","last_reported":1761214281,"current_range_meters":20000,"station_id":"st_d3js3co5814s73ftftug","pricing_plan_id":"cebpf4jnsgd1na2vs0mg"},{"bike_id":"77124793-d73a-43ea-8840-1a1b5476fa23","system_id":"levelo_inurba_marseille","lat":43.3105,"lon":5.38078,"is_reserved":false,"is_disabled":false,"rental_uris":{"android":"levelo://app?vid=77124793-d73a-43ea-8840-1a1b5476fa23","ios":"levelo://app?vid=77124793-d73a-43ea-8840-1a1b5476fa23"},"vehicle_type_id":"4","last_reported":1761214281,"current_range_meters":20000,"station_id":"","pricing_plan_id":"cebpf4jnsgd1na2vs0mg"},{"bike_id":"7449c88d-86df-4c58-951f-1e7602552c48","system_id":"levelo_inurba_marseille","lat":43.30461,"lon":5.37895,"is_reserved":false,"is_disabled":false,"rental_uris":{"android":"levelo://app?vid=7449c88d-86df-4c58-951f-1e7602552c48","ios":"levelo://app?vid=7449c88d-86df-4c58-951f-1e7602552c48"},"vehicle_type_id":"4","last_reported":1761214281,"current_range_meters":20400,"station_id":"","pricing_plan_id":"cebpf4jnsgd1na2vs0mg"},{"bike_id":"1316ae57-eb56-4e6b-a70d-c7eecf200875","system_id":"levelo_inurba_marseille","lat":43.296017,"lon":5.380827,"is_reserved":false,"is_disabled":true,"rental_uris":{"android":"levelo://app?vid=1316ae57-eb56-4e6b-a70d-c7eecf200875","ios":"levelo://app?vid=1316ae57-eb56-4e6b-a70d-c7eecf200875"},"vehicle_type_id":"4","last_reported":1761214281,"current_range_meters":20400,"station_id":"ce4bgl12rcd13ifvqbo0","pricing_plan_id":"cebpf4jnsgd1na2vs0mg"},{"bike_id":"6e413169-4f07-48f8-9049-c5a7da660ded","system_id":"levelo_inurba_marseille","lat":43.28284,"lon":5.35071,"is_reserved":false,"is_disabled":false,"rental_uris":{"android":"levelo://app?vid=6e413169-4f07-48f8-9049-c5a7da660ded","ios":"levelo://app?vid=6e413169-4f07-48f8-9049-c5a7da660ded"},"vehicle_type_id":"4","last_reported":1761214281,"current_range_meters":20400,"station_id":"ce4bhnh2rcd13ifvqgug","pricing_plan_id":"cebpf4jnsgd1na2vs0mg"},{"bike_id":"c5cc6de2-a736-497c-9dc2-a2058e50021f","system_id":"levelo_inurba_marseille","lat":43.29631,"lon":5.40591,"is_reserved":false,"is_disabled":false,"rental_uris":{"android":"levelo://app?vid=c5cc6de2-a736-497c-9dc2-a2058e50021f","ios":"levelo://app?vid=c5cc6de2-a736-497c-9dc2-a2058e50021f"},"vehicle_type_id":"4","last_reported":1761214281,"current_range_meters":20800,"station_id":"ce4bh0h2rcd13ifvqd60","pricing_plan_id":"cebpf4jnsgd1na2vs0mg"},{"bike_id":"ab171d44-ffe0-4682-a6d8-294c814d4a10","system_id":"levelo_inurba_marseille","lat":43.27208,"lon":5.3918,"is_reserved":false,"is_disabled":false,"rental_uris":{"android":"levelo://app?vid=ab171d44-ffe0-4682-a6d8-294c814d4a10","ios":"levelo://app?vid=ab171d44-ffe0-4682-a6d8-294c814d4a10"},"vehicle_type_id":"4","last_reported":1761214281,"current_range_meters":20800,"station_id":"ce4bhhp2rcd13ifvqfm0","pricing_plan_id":"cebpf4jnsgd1na2vs0mg"},{"bike_id":"32841f0b-020d-491f-82c2-10fa75296456","system_id":"levelo_inurba_marseille","lat":43.26932,"lon":5.38904,"is_reserved":false,"is_disabled":false,"rental_uris":{"android":"levelo://app?vid=32841f0b-020d-491f-82c2-10fa75296456","ios":"levelo://app?vid=32841f0b-020d-491f-82c2-10fa75296456"},"vehicle_type_id":"4","last_reported":1761214281,"current_range_meters":20800,"station_id":"ce4bhhh2rcd13ifvqfl0","pricing_plan_id":"cebpf4jnsgd1na2vs0mg"},{"bike_id":"40a9bdd8-a421-4033-86fc-ecc3b377cc6b","system_id":"levelo_inurba_marseille","lat":43.31329,"lon":5.39692,"is_reserved":false,"is_disabled":false,"rental_uris":{"android":"levelo://app?vid=40a9bdd8-a421-4033-86fc-ecc3b377cc6b","ios":"levelo://app?vid=40a9bdd8-a421-4033-86fc-ecc3b377cc6b"},"vehicle_type_id":"4","last_reported":1761214281,"current_range_meters":20800,"station_id":"ce4bgvp2rcd13ifvqcu0","pricing_plan_id":"cebpf4jnsgd1na2vs0mg"},{"bike_id":"ebd13387-5d7b-4cae-a0fc-14085b73b88b","system_id":"levelo_inurba_marseille","lat":43.30302,"lon":5.37691,"is_reserved":false,"is_disabled":false,"rental_uris":{"android":"levelo://app?vid=ebd13387-5d7b-4cae-a0fc-14085b73b88b","ios":"levelo://app?vid=ebd13387-5d7b-4cae-a0fc-14085b73b88b"},"vehicle_type_id":"4","last_reported":1761214281,"current_range_meters":20800,"station_id":"ce4bguh2rcd13ifvqcj0","pricing_plan_id":"cebpf4jnsgd1na2vs0mg"},{"bike_id":"ace3309e-9a2e-46b8-802d-e7cc0a911f9d","system_id":"levelo_inurba_marseille","lat":43.32355,"lon":5.36754,"is_reserved":false,"is_disabled":false,"rental_uris":{"android":"levelo://app?vid=ace3309e-9a2e-46b8-802d-e7cc0a911f9d","ios":"levelo://app?vid=ace3309e-9a2e-46b8-802d-e7cc0a911f9d"},"vehicle_type_id":"4","last_reported":1761214281,"current_range_meters":20800,"station_id":"ce4bhsh2rcd13ifvqi2g","pricing_plan_id":"cebpf4jnsgd1na2vs0mg"},{"bike_id":"0d3eec90-02bb-4c37-9a6e-7c8ccd139a05","system_id":"levelo_inurba_marseille","lat":43.31252,"lon":5.36879,"is_reserved":false,"is_disabled":false,"rental_uris":{"android":"levelo://app?vid=0d3eec90-02bb-4c37-9a6e-7c8ccd139a05","ios":"levelo://app?vid=0d3eec90-02bb-4c37-9a6e-7c8ccd139a05"},"vehicle_type_id":"4","last_reported":1761214281,"current_range_meters":21600,"station_id":"ce4bgl92rcd13ifvqbq0","pricing_plan_id":"cebpf4jnsgd1na2vs0mg"},{"bike_id":"3c897e7a-ca67-4c02-b1ad-be4bdeb2680f","system_id":"levelo_inurba_marseille","lat":43.23152,"lon":5.43717,"is_reserved":false,"is_disabled":false,"rental_uris":{"android":"levelo://app?vid=3c897e7a-ca67-4c02-b1ad-be4bdeb2680f","ios":"levelo://app?vid=3c897e7a-ca67-4c02-b1ad-be4bdeb2680f"},"vehicle_type_id":"4","last_reported":1761214281,"current_range_meters":21600,"station_id":"ce4bhmp2rcd13ifvqgog","pricing_plan_id":"cebpf4jnsgd1na2vs0mg"},{"bike_id":"18639f94-2e90-4394-abfb-ade632d59406","system_id":"levelo_inurba_marseille","lat":43.25946,"lon":5.40888,"is_reserved":false,"is_disabled":false,"rental_uris":{"android":"levelo://app?vid=18639f94-2e90-4394-abfb-ade632d59406","ios":"levelo://app?vid=18639f94-2e90-4394-abfb-ade632d59406"},"vehicle_type_id":"4","last_reported":1761214281,"current_range_meters":21600,"station_id":"ce4bhm92rcd13ifvqglg","pricing_plan_id":"cebpf4jnsgd1na2vs0mg"},{"bike_id":"567c1a66-b7b4-4cd4-a342-c5ee3c5788a0","system_id":"levelo_inurba_marseille","lat":43.29202,"lon":5.39302,"is_reserved":false,"is_disabled":false,"rental_uris":{"android":"levelo://app?vid=567c1a66-b7b4-4cd4-a342-c5ee3c5788a0","ios":"levelo://app?vid=567c1a66-b7b4-4cd4-a342-c5ee3c5788a0"},"vehicle_type_id":"4","last_reported":1761214281,"current_range_meters":21600,"station_id":"ce4bh192rcd13ifvqdd0","pricing_plan_id":"cebpf4jnsgd1na2vs0mg"},{"bike_id":"ed7ed02d-d57c-4224-9075-7d0ce7819fa0","system_id":"levelo_inurba_marseille","lat":43.30138,"lon":5.37421,"is_reserved":false,"is_disabled":false,"rental_uris":{"android":"levelo://app?vid=ed7ed02d-d57c-4224-9075-7d0ce7819fa0","ios":"levelo://app?vid=ed7ed02d-d57c-4224-9075-7d0ce7819fa0"},"vehicle_type_id":"4","last_reported":1761214281,"current_range_meters":21600,"station_id":"ce4bgs92rcd13ifvqcc0","pricing_plan_id":"cebpf4jnsgd1na2vs0mg"},{"bike_id":"dc568a15-4de4-4cc4-a5ad-f205d87f2e00","system_id":"levelo_inurba_marseille","lat":43.31232,"lon":5.36864,"is_reserved":false,"is_disabled":false,"rental_uris":{"android":"levelo://app?vid=dc568a15-4de4-4cc4-a5ad-f205d87f2e00","ios":"levelo://app?vid=dc568a15-4de4-4cc4-a5ad-f205d87f2e00"},"vehicle_type_id":"4","last_reported":1761214281,"current_range_meters":21600,"station_id":"ce4bgl92rcd13ifvqbq0","pricing_plan_id":"cebpf4jnsgd1na2vs0mg"},{"bike_id":"3b22550e-05c3-472a-9a98-652dcfc2fc42","system_id":"levelo_inurba_marseille","lat":43.3013,"lon":5.37424,"is_reserved":false,"is_disabled":false,"rental_uris":{"android":"levelo://app?vid=3b22550e-05c3-472a-9a98-652dcfc2fc42","ios":"levelo://app?vid=3b22550e-05c3-472a-9a98-652dcfc2fc42"},"vehicle_type_id":"4","last_reported":1761214281,"current_range_meters":21600,"station_id":"ce4bgs92rcd13ifvqcc0","pricing_plan_id":"cebpf4jnsgd1na2vs0mg"},{"bike_id":"32bb4d75-ed98-4c0b-90e7-eb8dc590aff8","system_id":"levelo_inurba_marseille","lat":43.30358,"lon":5.40758,"is_reserved":false,"is_disabled":false,"rental_uris":{"android":"levelo://app?vid=32bb4d75-ed98-4c0b-90e7-eb8dc590aff8","ios":"levelo://app?vid=32bb4d75-ed98-4c0b-90e7-eb8dc590aff8"},"vehicle_type_id":"4","last_reported":1761214281,"current_range_meters":21600,"station_id":"","pricing_plan_id":"cebpf4jnsgd1na2vs0mg"},{"bike_id":"4c43eb30-4eb5-4c38-af70-7de4bb36ec15","system_id":"levelo_inurba_marseille","lat":43.296753,"lon":5.377494,"is_reserved":false,"is_disabled":false,"rental_uris":{"android":"levelo://app?vid=4c43eb30-4eb5-4c38-af70-7de4bb36ec15","ios":"levelo://app?vid=4c43eb30-4eb5-4c38-af70-7de4bb36ec15"},"vehicle_type_id":"4","last_reported":1761214281,"current_range_meters":21600,"station_id":"ce4bgkh2rcd13ifvqbl0","pricing_plan_id":"cebpf4jnsgd1na2vs0mg"},{"bike_id":"e4d9d28d-de5d-4eba-b45f-0315c6967297","system_id":"levelo_inurba_marseille","lat":43.25084,"lon":5.39517,"is_reserved":false,"is_disabled":false,"rental_uris":{"android":"levelo://app?vid=e4d9d28d-de5d-4eba-b45f-0315c6967297","ios":"levelo://app?vid=e4d9d28d-de5d-4eba-b45f-0315c6967297"},"vehicle_type_id":"4","last_reported":1761214281,"current_range_meters":21600,"station_id":"ce4bhm12rcd13ifvqgkg","pricing_plan_id":"cebpf4jnsgd1na2vs0mg"},{"bike_id":"d216f701-d039-416d-8464-d2169e2c53fe","system_id":"levelo_inurba_marseille","lat":43.22945,"lon":5.35376,"is_reserved":false,"is_disabled":false,"rental_uris":{"android":"levelo://app?vid=d216f701-d039-416d-8464-d2169e2c53fe","ios":"levelo://app?vid=d216f701-d039-416d-8464-d2169e2c53fe"},"vehicle_type_id":"4","last_reported":1761214281,"current_range_meters":21600,"station_id":"cpo3532slgdg3j2ikp40","pricing_plan_id":"cebpf4jnsgd1na2vs0mg"},{"bike_id":"e8d601b0-a167-46e8-bdbe-6cab2d1d99e2","system_id":"levelo_inurba_marseille","lat":43.30133,"lon":5.37425,"is_reserved":false,"is_disabled":false,"rental_uris":{"android":"levelo://app?vid=e8d601b0-a167-46e8-bdbe-6cab2d1d99e2","ios":"levelo://app?vid=e8d601b0-a167-46e8-bdbe-6cab2d1d99e2"},"vehicle_type_id":"4","last_reported":1761214281,"current_range_meters":21600,"station_id":"ce4bgs92rcd13ifvqcc0","pricing_plan_id":"cebpf4jnsgd1na2vs0mg"},{"bike_id":"58965090-9c49-4622-900b-2537a598e432","system_id":"levelo_inurba_marseille","lat":43.24183,"lon":5.39717,"is_reserved":false,"is_disabled":false,"rental_uris":{"android":"levelo://app?vid=58965090-9c49-4622-900b-2537a598e432","ios":"levelo://app?vid=58965090-9c49-4622-900b-2537a598e432"},"vehicle_type_id":"4","last_reported":1761214281,"current_range_meters":21600,"station_id":"ce4bhn12rcd13ifvqgpg","pricing_plan_id":"cebpf4jnsgd1na2vs0mg"},{"bike_id":"5cf4395e-c249-4a7a-8170-3ad8e56ce424","system_id":"levelo_inurba_marseille","lat":43.30312,"lon":5.369,"is_reserved":false,"is_disabled":false,"rental_uris":{"android":"levelo://app?vid=5cf4395e-c249-4a7a-8170-3ad8e56ce424","ios":"levelo://app?vid=5cf4395e-c249-4a7a-8170-3ad8e56ce424"},"vehicle_type_id":"4","last_reported":1761214281,"current_range_meters":22000,"station_id":"ce4bgqh2rcd13ifvqc5g","pricing_plan_id":"cebpf4jnsgd1na2vs0mg"},{"bike_id":"9f342bfe-280d-4a8d-bb77-7a005df6628c","system_id":"levelo_inurba_marseille","lat":43.28872,"lon":5.42507,"is_reserved":false,"is_disabled":false,"rental_uris":{"android":"levelo://app?vid=9f342bfe-280d-4a8d-bb77-7a005df6628c","ios":"levelo://app?vid=9f342bfe-280d-4a8d-bb77-7a005df6628c"},"vehicle_type_id":"4","last_reported":1761214281,"current_range_meters":22000,"station_id":"st_d3b462108ojc7389ooeg","pricing_plan_id":"cebpf4jnsgd1na2vs0mg"},{"bike_id":"68331855-b34a-4cd3-8007-514c7b2f284b","system_id":"levelo_inurba_marseille","lat":43.2695,"lon":5.38632,"is_reserved":false,"is_disabled":false,"rental_uris":{"android":"levelo://app?vid=68331855-b34a-4cd3-8007-514c7b2f284b","ios":"levelo://app?vid=68331855-b34a-4cd3-8007-514c7b2f284b"},"vehicle_type_id":"4","last_reported":1761214281,"current_range_meters":22000,"station_id":"ce4bhh92rcd13ifvqfh0","pricing_plan_id":"cebpf4jnsgd1na2vs0mg"},{"bike_id":"6f700445-a5c0-4855-8606-c0aefec9b9fe","system_id":"levelo_inurba_marseille","lat":43.309433,"lon":5.390283,"is_reserved":false,"is_disabled":false,"rental_uris":{"android":"levelo://app?vid=6f700445-a5c0-4855-8606-c0aefec9b9fe","ios":"levelo://app?vid=6f700445-a5c0-4855-8606-c0aefec9b9fe"},"vehicle_type_id":"4","last_reported":1761214281,"current_range_meters":22000,"station_id":"ce4bgup2rcd13ifvqco0","pricing_plan_id":"cebpf4jnsgd1na2vs0mg"},{"bike_id":"913259d6-7dd1-4533-bf1c-6002e33758ab","system_id":"levelo_inurba_marseille","lat":43.30261,"lon":5.37724,"is_reserved":false,"is_disabled":false,"rental_uris":{"android":"levelo://app?vid=913259d6-7dd1-4533-bf1c-6002e33758ab","ios":"levelo://app?vid=913259d6-7dd1-4533-bf1c-6002e33758ab"},"vehicle_type_id":"4","last_reported":1761214281,"current_range_meters":22000,"station_id":"ce4bguh2rcd13ifvqcj0","pricing_plan_id":"cebpf4jnsgd1na2vs0mg"},{"bike_id":"4f5c5045-2f2c-4ab7-ad8b-eeba1d52fe66","system_id":"levelo_inurba_marseille","lat":43.31837,"lon":5.37907,"is_reserved":false,"is_disabled":false,"rental_uris":{"android":"levelo://app?vid=4f5c5045-2f2c-4ab7-ad8b-eeba1d52fe66","ios":"levelo://app?vid=4f5c5045-2f2c-4ab7-ad8b-eeba1d52fe66"},"vehicle_type_id":"4","last_reported":1761214281,"current_range_meters":22000,"station_id":"","pricing_plan_id":"cebpf4jnsgd1na2vs0mg"},{"bike_id":"17585014-36d0-4d96-ab97-1812e8c7fbe7","system_id":"levelo_inurba_marseille","lat":43.31667,"lon":5.38241,"is_reserved":false,"is_disabled":false,"rental_uris":{"android":"levelo://app?vid=17585014-36d0-4d96-ab97-1812e8c7fbe7","ios":"levelo://app?vid=17585014-36d0-4d96-ab97-1812e8c7fbe7"},"vehicle_type_id":"4","last_reported":1761214281,"current_range_meters":22000,"station_id":"","pricing_plan_id":"cebpf4jnsgd1na2vs0mg"},{"bike_id":"b5641329-6254-484b-8916-95ed843300da","system_id":"levelo_inurba_marseille","lat":43.33599,"lon":5.41033,"is_reserved":false,"is_disabled":false,"rental_uris":{"android":"levelo://app?vid=b5641329-6254-484b-8916-95ed843300da","ios":"levelo://app?vid=b5641329-6254-484b-8916-95ed843300da"},"vehicle_type_id":"4","last_reported":1761214281,"current_range_meters":22000,"station_id":"ce4bhqh2rcd13ifvqhmg","pricing_plan_id":"cebpf4jnsgd1na2vs0mg"},{"bike_id":"6472cc6c-ef1e-48f0-9140-df1522769ca9","system_id":"levelo_inurba_marseille","lat":43.30638,"lon":5.4007,"is_reserved":false,"is_disabled":false,"rental_uris":{"android":"levelo://app?vid=6472cc6c-ef1e-48f0-9140-df1522769ca9","ios":"levelo://app?vid=6472cc6c-ef1e-48f0-9140-df1522769ca9"},"vehicle_type_id":"4","last_reported":1761214281,"current_range_meters":22000,"station_id":"ce4bh112rcd13ifvqda0","pricing_plan_id":"cebpf4jnsgd1na2vs0mg"},{"bike_id":"9249026c-9f1a-4658-a325-698877187f79","system_id":"levelo_inurba_marseille","lat":43.30168,"lon":5.38088,"is_reserved":false,"is_disabled":false,"rental_uris":{"android":"levelo://app?vid=9249026c-9f1a-4658-a325-698877187f79","ios":"levelo://app?vid=9249026c-9f1a-4658-a325-698877187f79"},"vehicle_type_id":"4","last_reported":1761214281,"current_range_meters":22000,"station_id":"ce4bgjp2rcd13ifvqbh0","pricing_plan_id":"cebpf4jnsgd1na2vs0mg"},{"bike_id":"c4574ecd-db56-4d9d-965f-9b92dc7d5835","system_id":"levelo_inurba_marseille","lat":43.23947,"lon":5.36649,"is_reserved":false,"is_disabled":false,"rental_uris":{"android":"levelo://app?vid=c4574ecd-db56-4d9d-965f-9b92dc7d5835","ios":"levelo://app?vid=c4574ecd-db56-4d9d-965f-9b92dc7d5835"},"vehicle_type_id":"4","last_reported":1761214281,"current_range_meters":22400,"station_id":"ce4bhi12rcd13ifvqfp0","pricing_plan_id":"cebpf4jnsgd1na2vs0mg"},{"bike_id":"0a723358-d01f-42dc-bbe2-392220ef61e2","system_id":"levelo_inurba_marseille","lat":43.301266,"lon":5.380514,"is_reserved":false,"is_disabled":false,"rental_uris":{"android":"levelo://app?vid=0a723358-d01f-42dc-bbe2-392220ef61e2","ios":"levelo://app?vid=0a723358-d01f-42dc-bbe2-392220ef61e2"},"vehicle_type_id":"4","last_reported":1761214281,"current_range_meters":22400,"station_id":"ce4bgup2rcd13ifvqco0","pricing_plan_id":"cebpf4jnsgd1na2vs0mg"},{"bike_id":"41b38381-46a8-4be3-b68d-7af582a927d9","system_id":"levelo_inurba_marseille","lat":43.30492,"lon":5.37948,"is_reserved":false,"is_disabled":false,"rental_uris":{"android":"levelo://app?vid=41b38381-46a8-4be3-b68d-7af582a927d9","ios":"levelo://app?vid=41b38381-46a8-4be3-b68d-7af582a927d9"},"vehicle_type_id":"4","last_reported":1761214281,"current_range_meters":22400,"station_id":"","pricing_plan_id":"cebpf4jnsgd1na2vs0mg"},{"bike_id":"2bfe86be-a718-4651-a8e7-9a2bc3634288","system_id":"levelo_inurba_marseille","lat":43.23959,"lon":5.36631,"is_reserved":false,"is_disabled":false,"rental_uris":{"android":"levelo://app?vid=2bfe86be-a718-4651-a8e7-9a2bc3634288","ios":"levelo://app?vid=2bfe86be-a718-4651-a8e7-9a2bc3634288"},"vehicle_type_id":"4","last_reported":1761214281,"current_range_meters":22400,"station_id":"ce4bhi12rcd13ifvqfp0","pricing_plan_id":"cebpf4jnsgd1na2vs0mg"},{"bike_id":"6ab25e12-fb68-4d95-aae9-cb59840fb562","system_id":"levelo_inurba_marseille","lat":43.305127,"lon":5.38138,"is_reserved":false,"is_disabled":false,"rental_uris":{"android":"levelo://app?vid=6ab25e12-fb68-4d95-aae9-cb59840fb562","ios":"levelo://app?vid=6ab25e12-fb68-4d95-aae9-cb59840fb562"},"vehicle_type_id":"4","last_reported":1761214281,"current_range_meters":22400,"station_id":"","pricing_plan_id":"cebpf4jnsgd1na2vs0mg"},{"bike_id":"9d964ec4-c537-4f1d-b21c-451d3f46b1bf","system_id":"levelo_inurba_marseille","lat":43.299103,"lon":5.378544,"is_reserved":false,"is_disabled":false,"rental_uris":{"android":"levelo://app?vid=9d964ec4-c537-4f1d-b21c-451d3f46b1bf","ios":"levelo://app?vid=9d964ec4-c537-4f1d-b21c-451d3f46b1bf"},"vehicle_type_id":"4","last_reported":1761214281,"current_range_meters":22400,"station_id":"","pricing_plan_id":"cebpf4jnsgd1na2vs0mg"},{"bike_id":"e3d803e0-3210-4ba5-8648-69d8e3fe6298","system_id":"levelo_inurba_marseille","lat":43.28672,"lon":5.36353,"is_reserved":false,"is_disabled":false,"rental_uris":{"android":"levelo://app?vid=e3d803e0-3210-4ba5-8648-69d8e3fe6298","ios":"levelo://app?vid=e3d803e0-3210-4ba5-8648-69d8e3fe6298"},"vehicle_type_id":"4","last_reported":1761214281,"current_range_meters":22400,"station_id":"ce4bhah2rcd13ifvqej0","pricing_plan_id":"cebpf4jnsgd1na2vs0mg"},{"bike_id":"ac1e97c4-1a0f-4420-ace3-a5edbbc94490","system_id":"levelo_inurba_marseille","lat":43.246663,"lon":5.381645,"is_reserved":false,"is_disabled":false,"rental_uris":{"android":"levelo://app?vid=ac1e97c4-1a0f-4420-ace3-a5edbbc94490","ios":"levelo://app?vid=ac1e97c4-1a0f-4420-ace3-a5edbbc94490"},"vehicle_type_id":"4","last_reported":1761214281,"current_range_meters":22800,"station_id":"ce4bhih2rcd13ifvqfr0","pricing_plan_id":"cebpf4jnsgd1na2vs0mg"},{"bike_id":"f2e02df1-d0d6-4e71-a245-a7604e3f9858","system_id":"levelo_inurba_marseille","lat":43.28126,"lon":5.37842,"is_reserved":false,"is_disabled":false,"rental_uris":{"android":"levelo://app?vid=f2e02df1-d0d6-4e71-a245-a7604e3f9858","ios":"levelo://app?vid=f2e02df1-d0d6-4e71-a245-a7604e3f9858"},"vehicle_type_id":"4","last_reported":1761214281,"current_range_meters":22800,"station_id":"ce4bha12rcd13ifvqee0","pricing_plan_id":"cebpf4jnsgd1na2vs0mg"},{"bike_id":"bdd952fc-87ca-42aa-b93b-8460cf0bb4a1","system_id":"levelo_inurba_marseille","lat":43.281509,"lon":5.426372,"is_reserved":false,"is_disabled":false,"rental_uris":{"android":"levelo://app?vid=bdd952fc-87ca-42aa-b93b-8460cf0bb4a1","ios":"levelo://app?vid=bdd952fc-87ca-42aa-b93b-8460cf0bb4a1"},"vehicle_type_id":"4","last_reported":1761214281,"current_range_meters":22800,"station_id":"ce4bhnh2rcd13ifvqgug","pricing_plan_id":"cebpf4jnsgd1na2vs0mg"},{"bike_id":"9acc6c34-f87a-4f01-a5ed-e3e69b4f44a3","system_id":"levelo_inurba_marseille","lat":43.23146,"lon":5.43718,"is_reserved":false,"is_disabled":false,"rental_uris":{"android":"levelo://app?vid=9acc6c34-f87a-4f01-a5ed-e3e69b4f44a3","ios":"levelo://app?vid=9acc6c34-f87a-4f01-a5ed-e3e69b4f44a3"},"vehicle_type_id":"4","last_reported":1761214281,"current_range_meters":22800,"station_id":"ce4bhmp2rcd13ifvqgog","pricing_plan_id":"cebpf4jnsgd1na2vs0mg"},{"bike_id":"361742dd-7762-4723-9008-fcfc1728f0bb","system_id":"levelo_inurba_marseille","lat":43.336093,"lon":5.410349,"is_reserved":false,"is_disabled":false,"rental_uris":{"android":"levelo://app?vid=361742dd-7762-4723-9008-fcfc1728f0bb","ios":"levelo://app?vid=361742dd-7762-4723-9008-fcfc1728f0bb"},"vehicle_type_id":"4","last_reported":1761214281,"current_range_meters":22800,"station_id":"ce4bhqh2rcd13ifvqhmg","pricing_plan_id":"cebpf4jnsgd1na2vs0mg"},{"bike_id":"6e88993d-e0d4-4d32-baf3-656352ec7434","system_id":"levelo_inurba_marseille","lat":43.28569,"lon":5.39494,"is_reserved":false,"is_disabled":false,"rental_uris":{"android":"levelo://app?vid=6e88993d-e0d4-4d32-baf3-656352ec7434","ios":"levelo://app?vid=6e88993d-e0d4-4d32-baf3-656352ec7434"},"vehicle_type_id":"4","last_reported":1761214281,"current_range_meters":22800,"station_id":"ce4bh292rcd13ifvqdg0","pricing_plan_id":"cebpf4jnsgd1na2vs0mg"},{"bike_id":"97e637c6-3110-4735-8fcb-80436f8837ee","system_id":"levelo_inurba_marseille","lat":43.28367,"lon":5.38097,"is_reserved":false,"is_disabled":false,"rental_uris":{"android":"levelo://app?vid=97e637c6-3110-4735-8fcb-80436f8837ee","ios":"levelo://app?vid=97e637c6-3110-4735-8fcb-80436f8837ee"},"vehicle_type_id":"4","last_reported":1761214281,"current_range_meters":22800,"station_id":"ce4bh412rcd13ifvqdr0","pricing_plan_id":"cebpf4jnsgd1na2vs0mg"},{"bike_id":"a110f409-6256-4589-be2a-6a94b605b585","system_id":"levelo_inurba_marseille","lat":43.270478,"lon":5.401975,"is_reserved":false,"is_disabled":false,"rental_uris":{"android":"levelo://app?vid=a110f409-6256-4589-be2a-6a94b605b585","ios":"levelo://app?vid=a110f409-6256-4589-be2a-6a94b605b585"},"vehicle_type_id":"4","last_reported":1761214281,"current_range_meters":23200,"station_id":"ce4bhk92rcd13ifvqgc0","pricing_plan_id":"cebpf4jnsgd1na2vs0mg"},{"bike_id":"2e6e24ee-b7c8-4ea8-8e7f-d83c64cb9e2b","system_id":"levelo_inurba_marseille","lat":43.30146,"lon":5.37418,"is_reserved":false,"is_disabled":false,"rental_uris":{"android":"levelo://app?vid=2e6e24ee-b7c8-4ea8-8e7f-d83c64cb9e2b","ios":"levelo://app?vid=2e6e24ee-b7c8-4ea8-8e7f-d83c64cb9e2b"},"vehicle_type_id":"4","last_reported":1761214281,"current_range_meters":23200,"station_id":"ce4bgs92rcd13ifvqcc0","pricing_plan_id":"cebpf4jnsgd1na2vs0mg"},{"bike_id":"d5352b28-e991-46e5-886a-0714bdb8f488","system_id":"levelo_inurba_marseille","lat":43.230564,"lon":5.354903,"is_reserved":false,"is_disabled":false,"rental_uris":{"android":"levelo://app?vid=d5352b28-e991-46e5-886a-0714bdb8f488","ios":"levelo://app?vid=d5352b28-e991-46e5-886a-0714bdb8f488"},