{"last_updated":1730124548,"ttl":60,"version":"2.2","data":{"bikes":[{"bike_id":"576f2be9-bf40-42aa-9145-f7ad6f641be6","system_id":"levelo_inurba_marseille","lat":43.28351,"lon":5.3811,"is_reserved":false,"is_disabled":false,"rental_uris":{"android":"levelo://app?vid=576f2be9-bf40-42aa-9145-f7ad6f641be6","ios":"levelo://app?vid=576f2be9-bf40-42aa-9145-f7ad6f641be6"},"vehicle_type_id":"4","last_reported":1730124549,"current_range_meters":35600,"station_id":"ce4bh412rcd13ifvqdr0","pricing_plan_id":"cebpf4jnsgd1na2vs0mg"},{"bike_id":"aaf1c17c-0d6c-47da-a188-f7ef018d9a32","system_id":"levelo_inurba_marseille","lat":43.30611,"lon":5.37226,"is_reserved":false,"is_disabled":false,"rental_uris":{"android":"levelo://app?vid=aaf1c17c-0d6c-47da-a188-f7ef018d9a32","ios":"levelo://app?vid=aaf1c17c-0d6c-47da-a188-f7ef018d9a32"},"vehicle_type_id":"4","last_reported":1730124549,"current_range_meters":39200,"station_id":"ce4bgqh2rcd13ifvqc4g","pricing_plan_id":"cebpf4jnsgd1na2vs0mg"},{"bike_id":"7501dbaf-a35e-4bd2-9151-59352e5a8638","system_id":"levelo_inurba_marseille","lat":43.23152,"lon":5.43701,"is_reserved":false,"is_disabled":false,"rental_uris":{"android":"levelo://app?vid=7501dbaf-a35e-4bd2-9151-59352e5a8638","ios":"levelo://app?vid=7501dbaf-a35e-4bd2-9151-59352e5a8638"},"vehicle_type_id":"4","last_reported":1730124549,"current_range_meters":9200,"station_id":"ce4bhmp2rcd13ifvqgog","pricing_plan_id":"cebpf4jnsgd1na2vs0mg"},{"bike_id":"b96e36f9-a2ab-4e95-9482-3d6b77bc518c","system_id":"levelo_inurba_marseille","lat":43.309591,"lon":5.390281,"is_reserved":false,"is_disabled":false,"rental_uris":{"android":"levelo://app?vid=b96e36f9-a2ab-4e95-9482-3d6b77bc518c","ios":"levelo://app?vid=b96e36f9-a2ab-4e95-9482-3d6b77bc518c"},"vehicle_type_id":"4","last_reported":1730124549,"current_range_meters":38800,"station_id":"ce4bgup2rcd13ifvqco0","pricing_plan_id":"cebpf4jnsgd1na2vs0mg"},{"bike_id":"a8652586-bac3-4066-8349-87b461f05426","system_id":"levelo_inurba_marseille","lat":43.30314,"lon":5.3691,"is_reserved":false,"is_disabled":false,"rental_uris":{"android":"levelo://app?vid=a8652586-bac3-4066-8349-87b461f05426","ios":"levelo://app?vid=a8652586-bac3-4066-8349-87b461f05426"},"vehicle_type_id":"4","last_reported":1730124549,"current_range_meters":32800,"station_id":"ce4bgqh2rcd13ifvqc5g","pricing_plan_id":"cebpf4jnsgd1na2vs0mg"},{"bike_id":"bdad3495-554f-4212-bfee-6d09865ad08a","system_id":"levelo_inurba_marseille","lat":43.2985,"lon":5.36282,"is_reserved":false,"is_disabled":false,"rental_uris":{"android":"levelo://app?vid=bdad3495-554f-4212-bfee-6d09865ad08a","ios":"levelo://app?vid=bdad3495-554f-4212-bfee-6d09865ad08a"},"vehicle_type_id":"4","last_reported":1730124549,"current_range_meters":27200,"station_id":"ce4bgpp2rcd13ifvqc3g","pricing_plan_id":"cebpf4jnsgd1na2vs0mg"},{"bike_id":"eba87e6a-5452-43c0-80fb-8051d1b2f293","system_id":"levelo_inurba_marseille","lat":43.27379,"lon":5.36261,"is_reserved":false,"is_disabled":false,"rental_uris":{"android":"levelo://app?vid=eba87e6a-5452-43c0-80fb-8051d1b2f293","ios":"levelo://app?vid=eba87e6a-5452-43c0-80fb-8051d1b2f293"},"vehicle_type_id":"4","last_reported":1730124549,"current_range_meters":7200,"station_id":"ce4bhbh2rcd13ifvqeo0","pricing_plan_id":"cebpf4jnsgd1na2vs0mg"},{"bike_id":"d66f4387-7840-4572-b3d6-981ce73f04e5","system_id":"levelo_inurba_marseille","lat":43.27948,"lon":5.4105,"is_reserved":false,"is_disabled":false,"rental_uris":{"android":"levelo://app?vid=d66f4387-7840-4572-b3d6-981ce73f04e5","ios":"levelo://app?vid=d66f4387-7840-4572-b3d6-981ce73f04e5"},"vehicle_type_id":"4","last_reported":1730124549,"current_range_meters":3600,"station_id":"ce4bhnp2rcd13ifvqh0g","pricing_plan_id":"cebpf4jnsgd1na2vs0mg"},{"bike_id":"c8fdd4fd-9773-4891-9caf-90f82e9deaa9","system_id":"levelo_inurba_marseille","lat":43.32482,"lon":5.36555,"is_reserved":false,"is_disabled":false,"rental_uris":{"android":"levelo://app?vid=c8fdd4fd-9773-4891-9caf-90f82e9deaa9","ios":"levelo://app?vid=c8fdd4fd-9773-4891-9caf-90f82e9deaa9"},"vehicle_type_id":"4","last_reported":1730124549,"current_range_meters":19200,"station_id":"ce4bhs12rcd13ifvqhvg","pricing_plan_id":"cebpf4jnsgd1na2vs0mg"},{"bike_id":"3c26b955-fee4-4847-9c50-b0452b73fb3c","system_id":"levelo_inurba_marseille","lat":43.31121,"lon":5.37771,"is_reserved":false,"is_disabled":false,"rental_uris":{"android":"levelo://app?vid=3c26b955-fee4-4847-9c50-b0452b73fb3c","ios":"levelo://app?vid=3c26b955-fee4-4847-9c50-b0452b73fb3c"},"vehicle_type_id":"4","last_reported":1730124549,"current_range_meters":32000,"station_id":"ce4bgt92rcd13ifvqcg0","pricing_plan_id":"cebpf4jnsgd1na2vs0mg"},{"bike_id":"4dd97587-4097-4933-9e32-b14a232f12c9","system_id":"levelo_inurba_marseille","lat":43.29633,"lon":5.37721,"is_reserved":false,"is_disabled":false,"rental_uris":{"android":"levelo://app?vid=4dd97587-4097-4933-9e32-b14a232f12c9","ios":"levelo://app?vid=4dd97587-4097-4933-9e32-b14a232f12c9"},"vehicle_type_id":"4","last_reported":1730124549,"current_range_meters":6000,"station_id":"ce4bgi92rcd13ifvqb90","pricing_plan_id":"cebpf4jnsgd1na2vs0mg"},{"bike_id":"78f164ef-1e49-41b9-a4fd-92b2feb18648","system_id":"levelo_inurba_marseille","lat":43.29902,"lon":5.43663,"is_reserved":false,"is_disabled":false,"rental_uris":{"android":"levelo://app?vid=78f164ef-1e49-41b9-a4fd-92b2feb18648","ios":"levelo://app?vid=78f164ef-1e49-41b9-a4fd-92b2feb18648"},"vehicle_type_id":"4","last_reported":1730124549,"current_range_meters":8400,"station_id":"ce4bhpp2rcd13ifvqhfg","pricing_plan_id":"cebpf4jnsgd1na2vs0mg"},{"bike_id":"76b746bf-8b83-4c50-815a-95322572ce76","system_id":"levelo_inurba_marseille","lat":43.29937,"lon":5.36542,"is_reserved":false,"is_disabled":false,"rental_uris":{"android":"levelo://app?vid=76b746bf-8b83-4c50-815a-95322572ce76","ios":"levelo://app?vid=76b746bf-8b83-4c50-815a-95322572ce76"},"vehicle_type_id":"4","last_reported":1730124549,"current_range_meters":35600,"station_id":"ce4bgm92rcd13ifvqbr0","pricing_plan_id":"cebpf4jnsgd1na2vs0mg"},{"bike_id":"d07a79e4-d9b8-4518-9b5c-a0c1da15355f","system_id":"levelo_inurba_marseille","lat":43.27318,"lon":5.39091,"is_reserved":false,"is_disabled":false,"rental_uris":{"android":"levelo://app?vid=d07a79e4-d9b8-4518-9b5c-a0c1da15355f","ios":"levelo://app?vid=d07a79e4-d9b8-4518-9b5c-a0c1da15355f"},"vehicle_type_id":"4","last_reported":1730124549,"current_range_meters":25200,"station_id":"ce4bhgp2rcd13ifvqfe0","pricing_plan_id":"cebpf4jnsgd1na2vs0mg"},{"bike_id":"6c5c9a15-b9a7-4dcd-8d30-fdff1037db5c","system_id":"levelo_inurba_marseille","lat":43.2962,"lon":5.37722,"is_reserved":false,"is_disabled":false,"rental_uris":{"android":"levelo://app?vid=6c5c9a15-b9a7-4dcd-8d30-fdff1037db5c","ios":"levelo://app?vid=6c5c9a15-b9a7-4dcd-8d30-fdff1037db5c"},"vehicle_type_id":"4","last_reported":1730124549,"current_range_meters":12800,"station_id":"ce4bgi92rcd13ifvqb90","pricing_plan_id":"cebpf4jnsgd1na2vs0mg"},{"bike_id":"e3a0d9af-c063-4600-8a9a-88d7f3b9c22f","system_id":"levelo_inurba_marseille","lat":43.30896,"lon":5.37196,"is_reserved":false,"is_disabled":false,"rental_uris":{"android":"levelo://app?vid=e3a0d9af-c063-4600-8a9a-88d7f3b9c22f","ios":"levelo://app?vid=e3a0d9af-c063-4600-8a9a-88d7f3b9c22f"},"vehicle_type_id":"4","last_reported":1730124549,"current_range_meters":31200,"station_id":"ce4bguh2rcd13ifvqckg","pricing_plan_id":"cebpf4jnsgd1na2vs0mg"},{"bike_id":"43cbe5b6-ac69-40aa-94f9-42140f39a6dd","system_id":"levelo_inurba_marseille","lat":43.30291,"lon":5.37702,"is_reserved":false,"is_disabled":false,"rental_uris":{"android":"levelo://app?vid=43cbe5b6-ac69-40aa-94f9-42140f39a6dd","ios":"levelo://app?vid=43cbe5b6-ac69-40aa-94f9-42140f39a6dd"},"vehicle_type_id":"4","last_reported":1730124549,"current_range_meters":37600,"station_id":"ce4bguh2rcd13ifvqcj0","pricing_plan_id":"cebpf4jnsgd1na2vs0mg"},{"bike_id":"64936cd0-316a-44fa-ae6d-80f1adc7257d","system_id":"levelo_inurba_marseille","lat":43.27319,"lon":5.39101,"is_reserved":false,"is_disabled":false,"rental_uris":{"android":"levelo://app?vid=64936cd0-316a-44fa-ae6d-80f1adc7257d","ios":"levelo://app?vid=64936cd0-316a-44fa-ae6d-80f1adc7257d"},"vehicle_type_id":"4","last_reported":1730124549,"current_range_meters":39200,"station_id":"ce4bhgp2rcd13ifvqfe0","pricing_plan_id":"cebpf4jnsgd1na2vs0mg"},{"bike_id":"f525bb94-7c75-4207-a793-5a460ab07668","system_id":"levelo_inurba_marseille","lat":43.29519,"lon":5.37502,"is_reserved":false,"is_disabled":false,"rental_uris":{"android":"levelo://app?vid=f525bb94-7c75-4207-a793-5a460ab07668","ios":"levelo://app?vid=f525bb94-7c75-4207-a793-5a460ab07668"},"vehicle_type_id":"4","last_reported":1730124549,"current_range_meters":22800,"station_id":"ce4bgkp2rcd13ifvqbmg","pricing_plan_id":"cebpf4jnsgd1na2vs0mg"},{"bike_id":"745bbd7d-68b0-4107-ba40-b867ca0cb0a0","system_id":"levelo_inurba_marseille","lat":43.25002,"lon":5.38929,"is_reserved":false,"is_disabled":false,"rental_uris":{"android":"levelo://app?vid=745bbd7d-68b0-4107-ba40-b867ca0cb0a0","ios":"levelo://app?vid=745bbd7d-68b0-4107-ba40-b867ca0cb0a0"},"vehicle_type_id":"4","last_reported":1730124549,"current_range_meters":38800,"station_id":"ce4bhgp2rcd13ifvqfd0","pricing_plan_id":"cebpf4jnsgd1na2vs0mg"},{"bike_id":"bb4819ba-1064-4174-8396-d3afdb43e46e","system_id":"levelo_inurba_marseille","lat":43.30458,"lon":5.37897,"is_reserved":false,"is_disabled":false,"rental_uris":{"android":"levelo://app?vid=bb4819ba-1064-4174-8396-d3afdb43e46e","ios":"levelo://app?vid=bb4819ba-1064-4174-8396-d3afdb43e46e"},"vehicle_type_id":"4","last_reported":1730124549,"current_range_meters":19200,"station_id":"ce4bgup2rcd13ifvqcn0","pricing_plan_id":"cebpf4jnsgd1na2vs0mg"},{"bike_id":"d3e21c44-4db6-404b-be1b-bdfed76092f4","system_id":"levelo_inurba_marseille","lat":43.27376,"lon":5.36254,"is_reserved":false,"is_disabled":false,"rental_uris":{"android":"levelo://app?vid=d3e21c44-4db6-404b-be1b-bdfed76092f4","ios":"levelo://app?vid=d3e21c44-4db6-404b-be1b-bdfed76092f4"},"vehicle_type_id":"4","last_reported":1730124549,"current_range_meters":11200,"station_id":"ce4bhbh2rcd13ifvqeo0","pricing_plan_id":"cebpf4jnsgd1na2vs0mg"},{"bike_id":"2ab6a876-b383-42be-8174-3b09d00c2764","system_id":"levelo_inurba_marseille","lat":43.22929,"lon":5.35373,"is_reserved":false,"is_disabled":false,"rental_uris":{"android":"levelo://app?vid=2ab6a876-b383-42be-8174-3b09d00c2764","ios":"levelo://app?vid=2ab6a876-b383-42be-8174-3b09d00c2764"},"vehicle_type_id":"4","last_reported":1730124549,"current_range_meters":36800,"station_id":"cpo3532slgdg3j2ikp40","pricing_plan_id":"cebpf4jnsgd1na2vs0mg"},{"bike_id":"61da5b52-ac74-461a-95d5-143a6b50af3a","system_id":"levelo_inurba_marseille","lat":43.28431,"lon":5.34984,"is_reserved":false,"is_disabled":false,"rental_uris":{"android":"levelo://app?vid=61da5b52-ac74-461a-95d5-143a6b50af3a","ios":"levelo://app?vid=61da5b52-ac74-461a-95d5-143a6b50af3a"},"vehicle_type_id":"4","last_reported":1730124549,"current_range_meters":38800,"station_id":"ce4bhbh2rcd13ifvqepg","pricing_plan_id":"cebpf4jnsgd1na2vs0mg"},{"bike_id":"519b2158-c3f7-49fc-bab1-8c0a4c76fea8","system_id":"levelo_inurba_marseille","lat":43.29915,"lon":5.37484,"is_reserved":false,"is_disabled":false,"rental_uris":{"android":"levelo://app?vid=519b2158-c3f7-49fc-bab1-8c0a4c76fea8","ios":"levelo://app?vid=519b2158-c3f7-49fc-bab1-8c0a4c76fea8"},"vehicle_type_id":"4","last_reported":1730124549,"current_range_meters":8400,"station_id":"ce4bgjh2rcd13ifvqbg0","pricing_plan_id":"cebpf4jnsgd1na2vs0mg"},{"bike_id":"e9d2627b-0323-4f6a-bb61-f8fed2e2d6e2","system_id":"levelo_inurba_marseille","lat":43.24181,"lon":5.39719,"is_reserved":false,"is_disabled":false,"rental_uris":{"android":"levelo://app?vid=e9d2627b-0323-4f6a-bb61-f8fed2e2d6e2","ios":"levelo://app?vid=e9d2627b-0323-4f6a-bb61-f8fed2e2d6e2"},"vehicle_type_id":"4","last_reported":1730124549,"current_range_meters":8800,"station_id":"ce4bhn12rcd13ifvqgpg","pricing_plan_id":"cebpf4jnsgd1na2vs0mg"},{"bike_id":"1b979396-0a85-4d53-91f3-11d9b649f7f5","system_id":"levelo_inurba_marseille","lat":43.30606,"lon":5.37229,"is_reserved":false,"is_disabled":false,"rental_uris":{"android":"levelo://app?vid=1b979396-0a85-4d53-91f3-11d9b649f7f5","ios":"levelo://app?vid=1b979396-0a85-4d53-91f3-11d9b649f7f5"},"vehicle_type_id":"4","last_reported":1730124549,"current_range_meters":15200,"station_id":"ce4bgqh2rcd13ifvqc4g","pricing_plan_id":"cebpf4jnsgd1na2vs0mg"},{"bike_id":"d1dacee6-8f47-4ca5-823b-a2ea6c3413e8","system_id":"levelo_inurba_marseille","lat":43.23195,"lon":5.35559,"is_reserved":false,"is_disabled":false,"rental_uris":{"android":"levelo://app?vid=d1dacee6-8f47-4ca5-823b-a2ea6c3413e8","ios":"levelo://app?vid=d1dacee6-8f47-4ca5-823b-a2ea6c3413e8"},"vehicle_type_id":"4","last_reported":1730124549,"current_range_meters":38800,"station_id":"ce4bhu92rcd13ifvqi70","pricing_plan_id":"cebpf4jnsgd1na2vs0mg"},{"bike_id":"ca1e893f-71bf-4c00-b224-b9bae1b4db01","system_id":"levelo_inurba_marseille","lat":43.29797,"lon":5.37114,"is_reserved":false,"is_disabled":false,"rental_uris":{"android":"levelo://app?vid=ca1e893f-71bf-4c00-b224-b9bae1b4db01","ios":"levelo://app?vid=ca1e893f-71bf-4c00-b224-b9bae1b4db01"},"vehicle_type_id":"4","last_reported":1730124549,"current_range_meters":35600,"station_id":"ce4bgop2rcd13ifvqc1g","pricing_plan_id":"cebpf4jnsgd1na2vs0mg"},{"bike_id":"198f7b84-08ca-4301-9c51-ad5c9d01dc4c","system_id":"levelo_inurba_marseille","lat":43.23154,"lon":5.43696,"is_reserved":false,"is_disabled":false,"rental_uris":{"android":"levelo://app?vid=198f7b84-08ca-4301-9c51-ad5c9d01dc4c","ios":"levelo://app?vid=198f7b84-08ca-4301-9c51-ad5c9d01dc4c"},"vehicle_type_id":"4","last_reported":1730124549,"current_range_meters":22800,"station_id":"ce4bhmp2rcd13ifvqgog","pricing_plan_id":"cebpf4jnsgd1na2vs0mg"},{"bike_id":"9f85ca18-0860-43a5-8b51-6713a6514068","system_id":"levelo_inurba_marseille","lat":43.32284,"lon":5.38269,"is_reserved":false,"is_disabled":false,"rental_uris":{"android":"levelo://app?vid=9f85ca18-0860-43a5-8b51-6713a6514068","ios":"levelo://app?vid=9f85ca18-0860-43a5-8b51-6713a6514068"},"vehicle_type_id":"4","last_reported":1730124549,"current_range_meters":32800,"station_id":"ce4bhr12rcd13ifvqhqg","pricing_plan_id":"cebpf4jnsgd1na2vs0mg"},{"bike_id":"aeeeefa4-b45a-4eba-8674-e04b939886e4","system_id":"levelo_inurba_marseille","lat":43.30348,"lon":5.41888,"is_reserved":false,"is_disabled":false,"rental_uris":{"android":"levelo://app?vid=aeeeefa4-b45a-4eba-8674-e04b939886e4","ios":"levelo://app?vid=aeeeefa4-b45a-4eba-8674-e04b939886e4"},"vehicle_type_id":"4","last_reported":1730124549,"current_range_meters":10800,"station_id":"ce4bhop2rcd13ifvqh7g","pricing_plan_id":"cebpf4jnsgd1na2vs0mg"},{"bike_id":"f166fcae-cd80-4a8e-9519-64e16d8dd52c","system_id":"levelo_inurba_marseille","lat":43.30915,"lon":5.36852,"is_reserved":false,"is_disabled":false,"rental_uris":{"android":"levelo://app?vid=f166fcae-cd80-4a8e-9519-64e16d8dd52c","ios":"levelo://app?vid=f166fcae-cd80-4a8e-9519-64e16d8dd52c"},"vehicle_type_id":"4","last_reported":1730124549,"current_range_meters":28000,"station_id":"ce4bgn92rcd13ifvqbvg","pricing_plan_id":"cebpf4jnsgd1na2vs0mg"},{"bike_id":"a1bce33d-5de0-4413-9dcf-904d34427281","system_id":"levelo_inurba_marseille","lat":43.29226,"lon":5.36066,"is_reserved":false,"is_disabled":false,"rental_uris":{"android":"levelo://app?vid=a1bce33d-5de0-4413-9dcf-904d34427281","ios":"levelo://app?vid=a1bce33d-5de0-4413-9dcf-904d34427281"},"vehicle_type_id":"4","last_reported":1730124549,"current_range_meters":31200,"station_id":"ce4bhbh2rcd13ifvqeqg","pricing_plan_id":"cebpf4jnsgd1na2vs0mg"},{"bike_id":"b6ef4bc7-f999-4de3-9703-fa413b44d39d","system_id":"levelo_inurba_marseille","lat":43.28107,"lon":5.3784,"is_reserved":false,"is_disabled":false,"rental_uris":{"android":"levelo://app?vid=b6ef4bc7-f999-4de3-9703-fa413b44d39d","ios":"levelo://app?vid=b6ef4bc7-f999-4de3-9703-fa413b44d39d"},"vehicle_type_id":"4","last_reported":1730124549,"current_range_meters":20400,"station_id":"ce4bha12rcd13ifvqee0","pricing_plan_id":"cebpf4jnsgd1na2vs0mg"},{"bike_id":"6875a1a6-32b9-4783-93f5-84a3a0c85f67","system_id":"levelo_inurba_marseille","lat":43.23066,"lon":5.35491,"is_reserved":false,"is_disabled":false,"rental_uris":{"android":"levelo://app?vid=6875a1a6-32b9-4783-93f5-84a3a0c85f67","ios":"levelo://app?vid=6875a1a6-32b9-4783-93f5-84a3a0c85f67"},"vehicle_type_id":"4","last_reported":1730124549,"current_range_meters":19200,"station_id":"cpo3342slgdg3j2ifvpg","pricing_plan_id":"cebpf4jnsgd1na2vs0mg"},{"bike_id":"fe312e77-2654-4444-82cc-827de589f896","system_id":"levelo_inurba_marseille","lat":43.23062,"lon":5.35484,"is_reserved":false,"is_disabled":false,"rental_uris":{"android":"levelo://app?vid=fe312e77-2654-4444-82cc-827de589f896","ios":"levelo://app?vid=fe312e77-2654-4444-82cc-827de589f896"},"vehicle_type_id":"4","last_reported":1730124549,"current_range_meters":24800,"station_id":"cpo3342slgdg3j2ifvpg","pricing_plan_id":"cebpf4jnsgd1na2vs0mg"},{"bike_id":"e89036ab-06cb-459b-91f1-830ff3435de6","system_id":"levelo_inurba_marseille","lat":43.23197,"lon":5.35549,"is_reserved":false,"is_disabled":false,"rental_uris":{"android":"levelo://app?vid=e89036ab-06cb-459b-91f1-830ff3435de6","ios":"levelo://app?vid=e89036ab-06cb-459b-91f1-830ff3435de6"},"vehicle_type_id":"4","last_reported":1730124549,"current_range_meters":36800,"station_id":"ce4bhu92rcd13ifvqi70","pricing_plan_id":"cebpf4jnsgd1na2vs0mg"},{"bike_id":"1e9c6d74-0c0c-49af-9594-2e87c37feece","system_id":"levelo_inurba_marseille","lat":43.28873,"lon":5.35848,"is_reserved":false,"is_disabled":false,"rental_uris":{"android":"levelo://app?vid=1e9c6d74-0c0c-49af-9594-2e87c37feece","ios":"levelo://app?vid=1e9c6d74-0c0c-49af-9594-2e87c37feece"},"vehicle_type_id":"4","last_reported":1730124549,"current_range_meters":38800,"station_id":"ce4bhb12rcd13ifvqem0","pricing_plan_id":"cebpf4jnsgd1na2vs0mg"},{"bike_id":"9690a53a-7f33-454a-ba0d-ed2b1eb45d2c","system_id":"levelo_inurba_marseille","lat":43.29029,"lon":5.38143,"is_reserved":false,"is_disabled":false,"rental_uris":{"android":"levelo://app?vid=9690a53a-7f33-454a-ba0d-ed2b1eb45d2c","ios":"levelo://app?vid=9690a53a-7f33-454a-ba0d-ed2b1eb45d2c"},"vehicle_type_id":"4","last_reported":1730124549,"current_range_meters":38800,"station_id":"ce4bh4p2rcd13ifvqe1g","pricing_plan_id":"cebpf4jnsgd1na2vs0mg"},{"bike_id":"5d013205-968f-46f0-8cb2-f55d13ad5ff4","system_id":"levelo_inurba_marseille","lat":43.32483,"lon":5.36567,"is_reserved":false,"is_disabled":false,"rental_uris":{"android":"levelo://app?vid=5d013205-968f-46f0-8cb2-f55d13ad5ff4","ios":"levelo://app?vid=5d013205-968f-46f0-8cb2-f55d13ad5ff4"},"vehicle_type_id":"4","last_reported":1730124549,"current_range_meters":36800,"station_id":"ce4bhs12rcd13ifvqhvg","pricing_plan_id":"cebpf4jnsgd1na2vs0mg"},{"bike_id":"d27b705b-74d8-4d3a-8224-09965c117aa2","system_id":"levelo_inurba_marseille","lat":43.33716,"lon":5.39177,"is_reserved":false,"is_disabled":false,"rental_uris":{"android":"levelo://app?vid=d27b705b-74d8-4d3a-8224-09965c117aa2","ios":"levelo://app?vid=d27b705b-74d8-4d3a-8224-09965c117aa2"},"vehicle_type_id":"4","last_reported":1730124549,"current_range_meters":39200,"station_id":"ce4bhr92rcd13ifvqhsg","pricing_plan_id":"cebpf4jnsgd1na2vs0mg"},{"bike_id":"4aee1b18-b4c8-4ec8-a58f-6833accd77f8","system_id":"levelo_inurba_marseille","lat":43.2418,"lon":5.39717,"is_reserved":false,"is_disabled":false,"rental_uris":{"android":"levelo://app?vid=4aee1b18-b4c8-4ec8-a58f-6833accd77f8","ios":"levelo://app?vid=4aee1b18-b4c8-4ec8-a58f-6833accd77f8"},"vehicle_type_id":"4","last_reported":1730124549,"current_range_meters":17200,"station_id":"ce4bhn12rcd13ifvqgpg","pricing_plan_id":"cebpf4jnsgd1na2vs0mg"},{"bike_id":"2f921f60-1890-404a-898c-6dae28d2ff64","system_id":"levelo_inurba_marseille","lat":43.32114,"lon":5.36783,"is_reserved":false,"is_disabled":false,"rental_uris":{"android":"levelo://app?vid=2f921f60-1890-404a-898c-6dae28d2ff64","ios":"levelo://app?vid=2f921f60-1890-404a-898c-6dae28d2ff64"},"vehicle_type_id":"4","last_reported":1730124549,"current_range_meters":38800,"station_id":"ce4bhrh2rcd13ifvqhug","pricing_plan_id":"cebpf4jnsgd1na2vs0mg"},{"bike_id":"133988f1-6f73-4e20-907b-af9f23cfa899","system_id":"levelo_inurba_marseille","lat":43.24167,"lon":5.36396,"is_reserved":false,"is_disabled":false,"rental_uris":{"android":"levelo://app?vid=133988f1-6f73-4e20-907b-af9f23cfa899","ios":"levelo://app?vid=133988f1-6f73-4e20-907b-af9f23cfa899"},"vehicle_type_id":"4","last_reported":1730124549,"current_range_meters":16400,"station_id":"cpo36qri1sfpv3e86is0","pricing_plan_id":"cebpf4jnsgd1na2vs0mg"},{"bike_id":"c9f299e7-44b3-4adc-a93d-769d4eadb8bd","system_id":"levelo_inurba_marseille","lat":43.23155,"lon":5.43719,"is_reserved":false,"is_disabled":false,"rental_uris":{"android":"levelo://app?vid=c9f299e7-44b3-4adc-a93d-769d4eadb8bd","ios":"levelo://app?vid=c9f299e7-44b3-4adc-a93d-769d4eadb8bd"},"vehicle_type_id":"4","last_reported":1730124549,"current_range_meters":33600,"station_id":"ce4bhmp2rcd13ifvqgog","pricing_plan_id":"cebpf4jnsgd1na2vs0mg"},{"bike_id":"e9aff484-452d-4180-a1c0-1483db35bf11","system_id":"levelo_inurba_marseille","lat":43.25872,"lon":5.39893,"is_reserved":false,"is_disabled":false,"rental_uris":{"android":"levelo://app?vid=e9aff484-452d-4180-a1c0-1483db35bf11","ios":"levelo://app?vid=e9aff484-452d-4180-a1c0-1483db35bf11"},"vehicle_type_id":"4","last_reported":1730124549,"current_range_meters":10000,"station_id":"ce4bhl92rcd13ifvqghg","pricing_plan_id":"cebpf4jnsgd1na2vs0mg"},{"bike_id":"8b1435f2-e9dd-44c1-a5f6-f4cfccf31c9f","system_id":"levelo_inurba_marseille","lat":43.33111,"lon":5.38213,"is_reserved":false,"is_disabled":false,"rental_uris":{"android":"levelo://app?vid=8b1435f2-e9dd-44c1-a5f6-f4cfccf31c9f","ios":"levelo://app?vid=8b1435f2-e9dd-44c1-a5f6-f4cfccf31c9f"},"vehicle_type_id":"4","last_reported":1730124549,"current_range_meters":29600,"station_id":"","pricing_plan_id":"cebpf4jnsgd1na2vs0mg"},{"bike_id":"1959dbd9-0ee0-478d-a3dc-b3a0dfb37df2","system_id":"levelo_inurba_marseille","lat":43.30544,"lon":5.36537,"is_reserved":false,"is_disabled":false,"rental_uris":{"android":"levelo://app?vid=1959dbd9-0ee0-478d-a3dc-b3a0dfb37df2","ios":"levelo://app?vid=1959dbd9-0ee0-478d-a3dc-b3a0dfb37df2"},"vehicle_type_id":"4","last_reported":1730124549,"current_range_meters":35200,"station_id":"ce4bgs12rcd13ifvqcag","pricing_plan_id":"cebpf4jnsgd1na2vs0mg"},{"bike_id":"4c59ee98-4d15-4af7-80ab-178e9eac8fae","system_id":"levelo_inurba_marseille","lat":43.23154,"lon":5.43703,"is_reserved":false,"is_disabled":false,"rental_uris":{"android":"levelo://app?vid=4c59ee98-4d15-4af7-80ab-178e9eac8fae","ios":"levelo://app?vid=4c59ee98-4d15-4af7-80ab-178e9eac8fae"},"vehicle_type_id":"4","last_reported":1730124549,"current_range_meters":3200,"station_id":"ce4bhmp2rcd13ifvqgog","pricing_plan_id":"cebpf4jnsgd1na2vs0mg"},{"bike_id":"d0439c85-2589-49f8-85ca-2ad01fbe3bbc","system_id":"levelo_inurba_marseille","lat":43.32294,"lon":5.38263,"is_reserved":false,"is_disabled":false,"rental_uris":{"android":"levelo://app?vid=d0439c85-2589-49f8-85ca-2ad01fbe3bbc","ios":"levelo://app?vid=d0439c85-2589-49f8-85ca-2ad01fbe3bbc"},"vehicle_type_id":"4","last_reported":1730124549,"current_range_meters":38800,"station_id":"ce4bhr12rcd13ifvqhqg","pricing_plan_id":"cebpf4jnsgd1na2vs0mg"},{"bike_id":"6e4158cd-dbb8-468e-827a-350a592e6481","system_id":"levelo_inurba_marseille","lat":43.30148,"lon":5.37421,"is_reserved":false,"is_disabled":false,"rental_uris":{"android":"levelo://app?vid=6e4158cd-dbb8-468e-827a-350a592e6481","ios":"levelo://app?vid=6e4158cd-dbb8-468e-827a-350a592e6481"},"vehicle_type_id":"4","last_reported":1730124549,"current_range_meters":23200,"station_id":"ce4bgs92rcd13ifvqcc0","pricing_plan_id":"cebpf4jnsgd1na2vs0mg"},{"bike_id":"cd8988cf-34e0-4cd8-92c1-67d3cd8c964e","system_id":"levelo_inurba_marseille","lat":43.23961,"lon":5.36628,"is_reserved":false,"is_disabled":false,"rental_uris":{"android":"levelo://app?vid=cd8988cf-34e0-4cd8-92c1-67d3cd8c964e","ios":"levelo://app?vid=cd8988cf-34e0-4cd8-92c1-67d3cd8c964e"},"vehicle_type_id":"4","last_reported":1730124549,"current_range_meters":10000,"station_id":"ce4bhi12rcd13ifvqfp0","pricing_plan_id":"cebpf4jnsgd1na2vs0mg"},{"bike_id":"9b2fab07-735c-4bce-b752-b2fe347202ff","system_id":"levelo_inurba_marseille","lat":43.28496,"lon":5.38554,"is_reserved":false,"is_disabled":false,"rental_uris":{"android":"levelo://app?vid=9b2fab07-735c-4bce-b752-b2fe347202ff","ios":"levelo://app?vid=9b2fab07-735c-4bce-b752-b2fe347202ff"},"vehicle_type_id":"4","last_reported":1730124549,"current_range_meters":25200,"station_id":"ce4bh8p2rcd13ifvqeb0","pricing_plan_id":"cebpf4jnsgd1na2vs0mg"},{"bike_id":"88936c7a-6bdb-445f-8821-63729c3d25eb","system_id":"levelo_inurba_marseille","lat":43.3044,"lon":5.38888,"is_reserved":false,"is_disabled":false,"rental_uris":{"android":"levelo://app?vid=88936c7a-6bdb-445f-8821-63729c3d25eb","ios":"levelo://app?vid=88936c7a-6bdb-445f-8821-63729c3d25eb"},"vehicle_type_id":"4","last_reported":1730124549,"current_range_meters":30400,"station_id":"ce4bgk12rcd13ifvqbi0","pricing_plan_id":"cebpf4jnsgd1na2vs0mg"},{"bike_id":"e202ab6b-975e-4604-8349-4fe165acf0c8","system_id":"levelo_inurba_marseille","lat":43.29308,"lon":5.37175,"is_reserved":false,"is_disabled":false,"rental_uris":{"android":"levelo://app?vid=e202ab6b-975e-4604-8349-4fe165acf0c8","ios":"levelo://app?vid=e202ab6b-975e-4604-8349-4fe165acf0c8"},"vehicle_type_id":"4","last_reported":1730124549,"current_range_meters":38000,"station_id":"ce4bgh92rcd13ifvqb40","pricing_plan_id":"cebpf4jnsgd1na2vs0mg"},{"bike_id":"58d71a62-e404-4a9f-b49c-a8d046c60c70","system_id":"levelo_inurba_marseille","lat":43.25589,"lon":5.38244,"is_reserved":false,"is_disabled":false,"rental_uris":{"android":"levelo://app?vid=58d71a62-e404-4a9f-b49c-a8d046c60c70","ios":"levelo://app?vid=58d71a62-e404-4a9f-b49c-a8d046c60c70"},"vehicle_type_id":"4","last_reported":1730124549,"current_range_meters":6400,"station_id":"ce4bhih2rcd13ifvqfs0","pricing_plan_id":"cebpf4jnsgd1na2vs0mg"},{"bike_id":"beedd073-4cf3-453d-b215-0a922cffa6f4","system_id":"levelo_inurba_marseille","lat":43.29713,"lon":5.36612,"is_reserved":false,"is_disabled":false,"rental_uris":{"android":"levelo://app?vid=beedd073-4cf3-453d-b215-0a922cffa6f4","ios":"levelo://app?vid=beedd073-4cf3-453d-b215-0a922cffa6f4"},"vehicle_type_id":"4","last_reported":1730124549,"current_range_meters":38800,"station_id":"ce4bgn12rcd13ifvqbt0","pricing_plan_id":"cebpf4jnsgd1na2vs0mg"},{"bike_id":"bea43885-0856-455e-ac3f-50e3c52f4d9e","system_id":"levelo_inurba_marseille","lat":43.25106,"lon":5.40318,"is_reserved":false,"is_disabled":false,"rental_uris":{"android":"levelo://app?vid=bea43885-0856-455e-ac3f-50e3c52f4d9e","ios":"levelo://app?vid=bea43885-0856-455e-ac3f-50e3c52f4d9e"},"vehicle_type_id":"4","last_reported":1730124549,"current_range_meters":36000,"station_id":"ce4bhlh2rcd13ifvqgig","pricing_plan_id":"cebpf4jnsgd1na2vs0mg"},{"bike_id":"d67dd696-0057-41ec-8639-b5968dc788cd","system_id":"levelo_inurba_marseille","lat":43.32338,"lon":5.40622,"is_reserved":false,"is_disabled":false,"rental_uris":{"android":"levelo://app?vid=d67dd696-0057-41ec-8639-b5968dc788cd","ios":"levelo://app?vid=d67dd696-0057-41ec-8639-b5968dc788cd"},"vehicle_type_id":"4","last_reported":1730124549,"current_range_meters":13600,"station_id":"ce4bhq92rcd13ifvqhjg","pricing_plan_id":"cebpf4jnsgd1na2vs0mg"},{"bike_id":"8778b84f-6ef8-421b-978e-8a2e5da33f5e","system_id":"levelo_inurba_marseille","lat":43.28277,"lon":5.35063,"is_reserved":false,"is_disabled":false,"rental_uris":{"android":"levelo://app?vid=8778b84f-6ef8-421b-978e-8a2e5da33f5e","ios":"levelo://app?vid=8778b84f-6ef8-421b-978e-8a2e5da33f5e"},"vehicle_type_id":"4","last_reported":1730124549,"current_range_meters":22000,"station_id":"ce4bhbp2rcd13ifvqerg","pricing_plan_id":"cebpf4jnsgd1na2vs0mg"},{"bike_id":"aacb3cb6-ebb2-4c9a-9d59-1efc9a1b694e","system_id":"levelo_inurba_marseille","lat":43.25109,"lon":5.40327,"is_reserved":false,"is_disabled":false,"rental_uris":{"android":"levelo://app?vid=aacb3cb6-ebb2-4c9a-9d59-1efc9a1b694e","ios":"levelo://app?vid=aacb3cb6-ebb2-4c9a-9d59-1efc9a1b694e"},"vehicle_type_id":"4","last_reported":1730124549,"current_range_meters":8400,"station_id":"ce4bhlh2rcd13ifvqgig","pricing_plan_id":"cebpf4jnsgd1na2vs0mg"},{"bike_id":"1d1d734f-6f4b-4cfd-948f-c330c5317913","system_id":"levelo_inurba_marseille","lat":43.28987,"lon":5.37845,"is_reserved":false,"is_disabled":false,"rental_uris":{"android":"levelo://app?vid=1d1d734f-6f4b-4cfd-948f-c330c5317913","ios":"levelo://app?vid=1d1d734f-6f4b-4cfd-948f-c330c5317913"},"vehicle_type_id":"4","last_reported":1730124549,"current_range_meters":19600,"station_id":"ce4bh9p2rcd13ifvqed0","pricing_plan_id":"cebpf4jnsgd1na2vs0mg"},{"bike_id":"fe0f4ad9-8221-48ed-be5d-c64547a2f47a","system_id":"levelo_inurba_marseille","lat":43.28627,"lon":5.38346,"is_reserved":false,"is_disabled":false,"rental_uris":{"android":"levelo://app?vid=fe0f4ad9-8221-48ed-be5d-c64547a2f47a","ios":"levelo://app?vid=fe0f4ad9-8221-48ed-be5d-c64547a2f47a"},"vehicle_type_id":"4","last_reported":1730124549,"current_range_meters":22000,"station_id":"ce4bh4p2rcd13ifvqe1g","pricing_plan_id":"cebpf4jnsgd1na2vs0mg"},{"bike_id":"0fb979e6-d05f-4169-9583-adb386439c81","system_id":"levelo_inurba_marseille","lat":43.28422,"lon":5.34985,"is_reserved":false,"is_disabled":false,"rental_uris":{"android":"levelo://app?vid=0fb979e6-d05f-4169-9583-adb386439c81","ios":"levelo://app?vid=0fb979e6-d05f-4169-9583-adb386439c81"},"vehicle_type_id":"4","last_reported":1730124549,"current_range_meters":32400,"station_id":"ce4bhbh2rcd13ifvqepg","pricing_plan_id":"cebpf4jnsgd1na2vs0mg"},{"bike_id":"e7270c7e-4c6d-453b-b21c-d3d3fea6d439","system_id":"levelo_inurba_marseille","lat":43.27177,"lon":5.41007,"is_reserved":false,"is_disabled":false,"rental_uris":{"android":"levelo://app?vid=e7270c7e-4c6d-453b-b21c-d3d3fea6d439","ios":"levelo://app?vid=e7270c7e-4c6d-453b-b21c-d3d3fea6d439"},"vehicle_type_id":"4","last_reported":1730124549,"current_range_meters":3200,"station_id":"ce4bhl12rcd13ifvqgf0","pricing_plan_id":"cebpf4jnsgd1na2vs0mg"},{"bike_id":"8d66ba2e-e771-4c67-99ad-ef2d113002e3","system_id":"levelo_inurba_marseille","lat":43.25091,"lon":5.3952,"is_reserved":false,"is_disabled":false,"rental_uris":{"android":"levelo://app?vid=8d66ba2e-e771-4c67-99ad-ef2d113002e3","ios":"levelo://app?vid=8d66ba2e-e771-4c67-99ad-ef2d113002e3"},"vehicle_type_id":"4","last_reported":1730124549,"current_range_meters":39200,"station_id":"ce4bhm12rcd13ifvqgkg","pricing_plan_id":"cebpf4jnsgd1na2vs0mg"},{"bike_id":"3ed7a980-bf4a-420f-befb-838fea8329f7","system_id":"levelo_inurba_marseille","lat":43.29267,"lon":5.40909,"is_reserved":false,"is_disabled":false,"rental_uris":{"android":"levelo://app?vid=3ed7a980-bf4a-420f-befb-838fea8329f7","ios":"levelo://app?vid=3ed7a980-bf4a-420f-befb-838fea8329f7"},"vehicle_type_id":"4","last_reported":1730124549,"current_range_meters":38800,"station_id":"ce4bh192rcd13ifvqdc0","pricing_plan_id":"cebpf4jnsgd1na2vs0mg"},{"bike_id":"4150537b-fe9b-45bd-9be8-05c29a43ab71","system_id":"levelo_inurba_marseille","lat":43.29552,"lon":5.42287,"is_reserved":false,"is_disabled":false,"rental_uris":{"android":"levelo://app?vid=4150537b-fe9b-45bd-9be8-05c29a43ab71","ios":"levelo://app?vid=4150537b-fe9b-45bd-9be8-05c29a43ab71"},"vehicle_type_id":"4","last_reported":1730124549,"current_range_meters":38800,"station_id":"ce4bhph2rcd13ifvqhdg","pricing_plan_id":"cebpf4jnsgd1na2vs0mg"},{"bike_id":"b35b3316-ab00-4d2d-8733-251ece845bcc","system_id":"levelo_inurba_marseille","lat":43.29764,"lon":5.37107,"is_reserved":false,"is_disabled":false,"rental_uris":{"android":"levelo://app?vid=b35b3316-ab00-4d2d-8733-251ece845bcc","ios":"levelo://app?vid=b35b3316-ab00-4d2d-8733-251ece845bcc"},"vehicle_type_id":"4","last_reported":1730124549,"current_range_meters":29600,"station_id":"ce4bgop2rcd13ifvqc1g","pricing_plan_id":"cebpf4jnsgd1na2vs0mg"},{"bike_id":"2187d057-0598-4b59-91d0-195d0a9512fb","system_id":"levelo_inurba_marseille","lat":43.28266,"lon":5.35075,"is_reserved":false,"is_disabled":false,"rental_uris":{"android":"levelo://app?vid=2187d057-0598-4b59-91d0-195d0a9512fb","ios":"levelo://app?vid=2187d057-0598-4b59-91d0-195d0a9512fb"},"vehicle_type_id":"4","last_reported":1730124549,"current_range_meters":36800,"station_id":"ce4bhbp2rcd13ifvqerg","pricing_plan_id":"cebpf4jnsgd1na2vs0mg"},{"bike_id":"7294e48a-4dba-46cb-8218-4e4ba1cdcc29","system_id":"levelo_inurba_marseille","lat":43.27175,"lon":5.4098,"is_reserved":false,"is_disabled":false,"rental_uris":{"android":"levelo://app?vid=7294e48a-4dba-46cb-8218-4e4ba1cdcc29","ios":"levelo://app?vid=7294e48a-4dba-46cb-8218-4e4ba1cdcc29"},"vehicle_type_id":"4","last_reported":1730124549,"current_range_meters":36400,"station_id":"ce4bhl12rcd13ifvqgf0","pricing_plan_id":"cebpf4jnsgd1na2vs0mg"},{"bike_id":"6b6a994b-dd1b-4c47-bb79-285b7ce84777","system_id":"levelo_inurba_marseille","lat":43.32109,"lon":5.3677,"is_reserved":false,"is_disabled":false,"rental_uris":{"android":"levelo://app?vid=6b6a994b-dd1b-4c47-bb79-285b7ce84777","ios":"levelo://app?vid=6b6a994b-dd1b-4c47-bb79-285b7ce84777"},"vehicle_type_id":"4","last_reported":1730124549,"current_range_meters":38800,"station_id":"ce4bhrh2rcd13ifvqhug","pricing_plan_id":"cebpf4jnsgd1na2vs0mg"},{"bike_id":"b1ec7505-5541-4ad4-91a0-af2e2f4f44a3","system_id":"levelo_inurba_marseille","lat":43.30605,"lon":5.37228,"is_reserved":false,"is_disabled":false,"rental_uris":{"android":"levelo://app?vid=b1ec7505-5541-4ad4-91a0-af2e2f4f44a3","ios":"levelo://app?vid=b1ec7505-5541-4ad4-91a0-af2e2f4f44a3"},"vehicle_type_id":"4","last_reported":1730124549,"current_range_meters":38800,"station_id":"ce4bgqh2rcd13ifvqc4g","pricing_plan_id":"cebpf4jnsgd1na2vs0mg"},{"bike_id":"3309e1ce-bca1-496e-8a98-591eb949df2a","system_id":"levelo_inurba_marseille","lat":43.29421,"lon":5.38642,"is_reserved":false,"is_disabled":false,"rental_uris":{"android":"levelo://app?vid=3309e1ce-bca1-496e-8a98-591eb949df2a","ios":"levelo://app?vid=3309e1ce-bca1-496e-8a98-591eb949df2a"},"vehicle_type_id":"4","last_reported":1730124549,"current_range_meters":38800,"station_id":"ce4bh2h2rcd13ifvqdh0","pricing_plan_id":"cebpf4jnsgd1na2vs0mg"},{"bike_id":"e113f747-4daa-44f7-a218-9e030daa2565","system_id":"levelo_inurba_marseille","lat":43.32113,"lon":5.36774,"is_reserved":false,"is_disabled":false,"rental_uris":{"android":"levelo://app?vid=e113f747-4daa-44f7-a218-9e030daa2565","ios":"levelo://app?vid=e113f747-4daa-44f7-a218-9e030daa2565"},"vehicle_type_id":"4","last_reported":1730124549,"current_range_meters":20400,"station_id":"ce4bhrh2rcd13ifvqhug","pricing_plan_id":"cebpf4jnsgd1na2vs0mg"},{"bike_id":"48ba46aa-3a9e-498e-973d-fdc042d3ef83","system_id":"levelo_inurba_marseille","lat":43.337444,"lon":5.374475,"is_reserved":false,"is_disabled":false,"rental_uris":{"android":"levelo://app?vid=48ba46aa-3a9e-498e-973d-fdc042d3ef83","ios":"levelo://app?vid=48ba46aa-3a9e-498e-973d-fdc042d3ef83"},"vehicle_type_id":"4","last_reported":1730124549,"current_range_meters":26000,"station_id":"ce4bh392rcd13ifvqdl0","pricing_plan_id":"cebpf4jnsgd1na2vs0mg"},{"bike_id":"c83bf92a-895e-4031-90cc-0a4806604b3f","system_id":"levelo_inurba_marseille","lat":43.23054,"lon":5.35491,"is_reserved":false,"is_disabled":false,"rental_uris":{"android":"levelo://app?vid=c83bf92a-895e-4031-90cc-0a4806604b3f","ios":"levelo://app?vid=c83bf92a-895e-4031-90cc-0a4806604b3f"},"vehicle_type_id":"4","last_reported":1730124549,"current_range_meters":36800,"station_id":"cpo3342slgdg3j2ifvpg","pricing_plan_id":"cebpf4jnsgd1na2vs0mg"},{"bike_id":"8369c906-d97f-47a6-9399-b6cd9d8c7358","system_id":"levelo_inurba_marseille","lat":43.30886,"lon":5.37186,"is_reserved":false,"is_disabled":false,"rental_uris":{"android":"levelo://app?vid=8369c906-d97f-47a6-9399-b6cd9d8c7358","ios":"levelo://app?vid=8369c906-d97f-47a6-9399-b6cd9d8c7358"},"vehicle_type_id":"4","last_reported":1730124549,"current_range_meters":28400,"station_id":"ce4bguh2rcd13ifvqckg","pricing_plan_id":"cebpf4jnsgd1na2vs0mg"},{"bike_id":"da8df9e9-67b1-4368-a89e-c4b501575d78","system_id":"levelo_inurba_marseille","lat":43.29257,"lon":5.38435,"is_reserved":false,"is_disabled":false,"rental_uris":{"android":"levelo://app?vid=da8df9e9-67b1-4368-a89e-c4b501575d78","ios":"levelo://app?vid=da8df9e9-67b1-4368-a89e-c4b501575d78"},"vehicle_type_id":"4","last_reported":1730124549,"current_range_meters":27600,"station_id":"ce4bh692rcd13ifvqea0","pricing_plan_id":"cebpf4jnsgd1na2vs0mg"},{"bike_id":"9fd56fad-5f3d-42b4-b491-7b57b76bc0cf","system_id":"levelo_inurba_marseille","lat":43.27815,"lon":5.40714,"is_reserved":false,"is_disabled":false,"rental_uris":{"android":"levelo://app?vid=9fd56fad-5f3d-42b4-b491-7b57b76bc0cf","ios":"levelo://app?vid=9fd56fad-5f3d-42b4-b491-7b57b76bc0cf"},"vehicle_type_id":"4","last_reported":1730124549,"current_range_meters":16800,"station_id":"ce4bhnh2rcd13ifvqgtg","pricing_plan_id":"cebpf4jnsgd1na2vs0mg"},{"bike_id":"263c3a26-a124-4663-abb1-4c08951a90e3","system_id":"levelo_inurba_marseille","lat":43.31232,"lon":5.36842,"is_reserved":false,"is_disabled":false,"rental_uris":{"android":"levelo://app?vid=263c3a26-a124-4663-abb1-4c08951a90e3","ios":"levelo://app?vid=263c3a26-a124-4663-abb1-4c08951a90e3"},"vehicle_type_id":"4","last_reported":1730124549,"current_range_meters":28400,"station_id":"ce4bgl92rcd13ifvqbq0","pricing_plan_id":"cebpf4jnsgd1na2vs0mg"},{"bike_id":"4a60a4b3-3d7b-4747-ae32-7ad4aff1372b","system_id":"levelo_inurba_marseille","lat":43.28431,"lon":5.34997,"is_reserved":false,"is_disabled":false,"rental_uris":{"android":"levelo://app?vid=4a60a4b3-3d7b-4747-ae32-7ad4aff1372b","ios":"levelo://app?vid=4a60a4b3-3d7b-4747-ae32-7ad4aff1372b"},"vehicle_type_id":"4","last_reported":1730124549,"current_range_meters":36400,"station_id":"ce4bhbh2rcd13ifvqepg","pricing_plan_id":"cebpf4jnsgd1na2vs0mg"},{"bike_id":"cf81b8aa-ceff-4b15-8225-02825f6af1ac","system_id":"levelo_inurba_marseille","lat":43.2828,"lon":5.35068,"is_reserved":false,"is_disabled":false,"rental_uris":{"android":"levelo://app?vid=cf81b8aa-ceff-4b15-8225-02825f6af1ac","ios":"levelo://app?vid=cf81b8aa-ceff-4b15-8225-02825f6af1ac"},"vehicle_type_id":"4","last_reported":1730124549,"current_range_meters":38800,"station_id":"ce4bhbp2rcd13ifvqerg","pricing_plan_id":"cebpf4jnsgd1na2vs0mg"},{"bike_id":"41752ed9-af86-4bed-a8f5-36e268c58f61","system_id":"levelo_inurba_marseille","lat":43.29267,"lon":5.36851,"is_reserved":false,"is_disabled":false,"rental_uris":{"android":"levelo://app?vid=41752ed9-af86-4bed-a8f5-36e268c58f61","ios":"levelo://app?vid=41752ed9-af86-4bed-a8f5-36e268c58f61"},"vehicle_type_id":"4","last_reported":1730124549,"current_range_meters":20400,"station_id":"ce4bhbp2rcd13ifvqesg","pricing_plan_id":"cebpf4jnsgd1na2vs0mg"},{"bike_id":"4800d54c-4ebf-4c4e-8c47-ad5fa87a3ac6","system_id":"levelo_inurba_marseille","lat":43.282004,"lon":5.385873,"is_reserved":false,"is_disabled":false,"rental_uris":{"android":"levelo://app?vid=4800d54c-4ebf-4c4e-8c47-ad5fa87a3ac6","ios":"levelo://app?vid=4800d54c-4ebf-4c4e-8c47-ad5fa87a3ac6"},"vehicle_type_id":"4","last_reported":1730124549,"current_range_meters":16400,"station_id":"ce4bhh12rcd13ifvqff0","pricing_plan_id":"cebpf4jnsgd1na2vs0mg"},{"bike_id":"6b0cca3d-43ec-4701-ba89-527e185294d2","system_id":"levelo_inurba_marseille","lat":43.28617,"lon":5.35103,"is_reserved":false,"is_disabled":false,"rental_uris":{"android":"levelo://app?vid=6b0cca3d-43ec-4701-ba89-527e185294d2","ios":"levelo://app?vid=6b0cca3d-43ec-4701-ba89-527e185294d2"},"vehicle_type_id":"4","last_reported":1730124549,"current_range_meters":26000,"station_id":"ce4bhch2rcd13ifvqeug","pricing_plan_id":"cebpf4jnsgd1na2vs0mg"},{"bike_id":"e93f42e4-ca27-4ae1-ade5-80b77e2287bc","system_id":"levelo_inurba_marseille","lat":43.26208,"lon":5.37923,"is_reserved":false,"is_disabled":false,"rental_uris":{"android":"levelo://app?vid=e93f42e4-ca27-4ae1-ade5-80b77e2287bc","ios":"levelo://app?vid=e93f42e4-ca27-4ae1-ade5-80b77e2287bc"},"vehicle_type_id":"4","last_reported":1730124549,"current_range_meters":32400,"station_id":"ce4bhjp2rcd13ifvqg90","pricing_plan_id":"cebpf4jnsgd1na2vs0mg"},{"bike_id":"01a2d95e-4f3e-4a42-84b4-1a4ffd101ced","system_id":"levelo_inurba_marseille","lat":43.28154,"lon":5.42645,"is_reserved":false,"is_disabled":false,"rental_uris":{"android":"levelo://app?vid=01a2d95e-4f3e-4a42-84b4-1a4ffd101ced","ios":"levelo://app?vid=01a2d95e-4f3e-4a42-84b4-1a4ffd101ced"},"vehicle_type_id":"4","last_reported":1730124549,"current_range_meters":6800,"station_id":"ce4bhnh2rcd13ifvqgug","pricing_plan_id":"cebpf4jnsgd1na2vs0mg"},{"bike_id":"47f0b2fb-3ac3-49c2-9e6a-17696e0ea9e3","system_id":"levelo_inurba_marseille","lat":43.27844,"lon":5.39208,"is_reserved":false,"is_disabled":false,"rental_uris":{"android":"levelo://app?vid=47f0b2fb-3ac3-49c2-9e6a-17696e0ea9e3","ios":"levelo://app?vid=47f0b2fb-3ac3-49c2-9e6a-17696e0ea9e3"},"vehicle_type_id":"4","last_reported":1730124549,"current_range_meters":18800,"station_id":"ce4bhjp2rcd13ifvqga0","pricing_plan_id":"cebpf4jnsgd1na2vs0mg"},{"bike_id":"2c053df8-239c-4642-af9a-a9ae04a15aee","system_id":"levelo_inurba_marseille","lat":43.29698,"lon":5.37293,"is_reserved":false,"is_disabled":false,"rental_uris":{"android":"levelo://app?vid=2c053df8-239c-4642-af9a-a9ae04a15aee","ios":"levelo://app?vid=2c053df8-239c-4642-af9a-a9ae04a15aee"},"vehicle_type_id":"4","last_reported":1730124549,"current_range_meters":26800,"station_id":"ce4bgk12rcd13ifvqbj0","pricing_plan_id":"cebpf4jnsgd1na2vs0mg"},{"bike_id":"939ef23a-8e9f-47e0-ba95-784e8e1c14b8","system_id":"levelo_inurba_marseille","lat":43.23059,"lon":5.35491,"is_reserved":false,"is_disabled":false,"rental_uris":{"android":"levelo://app?vid=939ef23a-8e9f-47e0-ba95-784e8e1c14b8","ios":"levelo://app?vid=939ef23a-8e9f-47e0-ba95-784e8e1c14b8"},"vehicle_type_id":"4","last_reported":1730124549,"current_range_meters":16400,"station_id":"cpo3342slgdg3j2ifvpg","pricing_plan_id":"cebpf4jnsgd1na2vs0mg"},{"bike_id":"89c096d5-da09-40eb-8271-0be42ba55676","system_id":"levelo_inurba_marseille","lat":43.30901,"lon":5.37199,"is_reserved":false,"is_disabled":false,"rental_uris":{"android":"levelo://app?vid=89c096d5-da09-40eb-8271-0be42ba55676","ios":"levelo://app?vid=89c096d5-da09-40eb-8271-0be42ba55676"},"vehicle_type_id":"4","last_reported":1730124549,"current_range_meters":10800,"station_id":"ce4bguh2rcd13ifvqckg","pricing_plan_id":"cebpf4jnsgd1na2vs0mg"},{"bike_id":"ba7ff12b-4fb3-47ea-b304-85ab8fca1364","system_id":"levelo_inurba_marseille","lat":43.32294,"lon":5.38266,"is_reserved":false,"is_disabled":false,"rental_uris":{"android":"levelo://app?vid=ba7ff12b-4fb3-47ea-b304-85ab8fca1364","ios":"levelo://app?vid=ba7ff12b-4fb3-47ea-b304-85ab8fca1364"},"vehicle_type_id":"4","last_reported":1730124549,"current_range_meters":38800,"station_id":"ce4bhr12rcd13ifvqhqg","pricing_plan_id":"cebpf4jnsgd1na2vs0mg"},{"bike_id":"fbcb7d59-6bdf-4fff-a25a-38e7773d8d4e","system_id":"levelo_inurba_marseille","lat":43.2992,"lon":5.37481,"is_reserved":false,"is_disabled":false,"rental_uris":{"android":"levelo://app?vid=fbcb7d59-6bdf-4fff-a25a-38e7773d8d4e","ios":"levelo://app?vid=fbcb7d59-6bdf-4fff-a25a-38e7773d8d4e"},"vehicle_type_id":"4","last_reported":1730124549,"current_range_meters":9200,"station_id":"ce4bgjh2rcd13ifvqbg0","pricing_plan_id":"cebpf4jnsgd1na2vs0mg"},{"bike_id":"6760aa4b-596b-46f5-be1e-6e80794bef9d","system_id":"levelo_inurba_marseille","lat":43.30541,"lon":5.36708,"is_reserved":false,"is_disabled":false,"rental_uris":{"android":"levelo://app?vid=6760aa4b-596b-46f5-be1e-6e80794bef9d","ios":"levelo://app?vid=6760aa4b-596b-46f5-be1e-6e80794bef9d"},"vehicle_type_id":"4","last_reported":1730124549,"current_range_meters":27600,"station_id":"ce4bgrp2rcd13ifvqc9g","pricing_plan_id":"cebpf4jnsgd1na2vs0mg"},{"bike_id":"c961fd7b-f573-497e-9359-316403b45187","system_id":"levelo_inurba_marseille","lat":43.301,"lon":5.39082,"is_reserved":false,"is_disabled":false,"rental_uris":{"android":"levelo://app?vid=c961fd7b-f573-497e-9359-316403b45187","ios":"levelo://app?vid=c961fd7b-f573-497e-9359-316403b45187"},"vehicle_type_id":"4","last_reported":1730124549,"current_range_meters":38800,"station_id":"ce4bh192rcd13ifvqdb0","pricing_plan_id":"cebpf4jnsgd1na2vs0mg"},{"bike_id":"5dc0c8cb-a897-49f0-91a0-1c9ab72781a3","system_id":"levelo_inurba_marseille","lat":43.30604,"lon":5.37225,"is_reserved":false,"is_disabled":false,"rental_uris":{"android":"levelo://app?vid=5dc0c8cb-a897-49f0-91a0-1c9ab72781a3","ios":"levelo://app?vid=5dc0c8cb-a897-49f0-91a0-1c9ab72781a3"},"vehicle_type_id":"4","last_reported":1730124549,"current_range_meters":14800,"station_id":"ce4bgqh2rcd13ifvqc4g","pricing_plan_id":"cebpf4jnsgd1na2vs0mg"},{"bike_id":"45957955-dd08-4565-babe-32d38dc5a423","system_id":"levelo_inurba_marseille","lat":43.28275,"lon":5.3506,"is_reserved":false,"is_disabled":false,"rental_uris":{"android":"levelo://app?vid=45957955-dd08-4565-babe-32d38dc5a423","ios":"levelo://app?vid=45957955-dd08-4565-babe-32d38dc5a423"},"vehicle_type_id":"4","last_reported":1730124549,"current_range_meters":32400,"station_id":"ce4bhbp2rcd13ifvqerg","pricing_plan_id":"cebpf4jnsgd1na2vs0mg"},{"bike_id":"f7a50275-88a4-4be4-ac33-5cce1242cfaa","system_id":"levelo_inurba_marseille","lat":43.31657,"lon":5.37687,"is_reserved":false,"is_disabled":false,"rental_uris":{"android":"levelo://app?vid=f7a50275-88a4-4be4-ac33-5cce1242cfaa","ios":"levelo://app?vid=f7a50275-88a4-4be4-ac33-5cce1242cfaa"},"vehicle_type_id":"4","last_reported":1730124549,"current_range_meters":38800,"station_id":"","pricing_plan_id":"cebpf4jnsgd1na2vs0mg"},{"bike_id":"d575e78f-b31f-47bc-b802-6c1b583d7a56","system_id":"levelo_inurba_marseille","lat":43.29631,"lon":5.40601,"is_reserved":false,"is_disabled":false,"rental_uris":{"android":"levelo://app?vid=d575e78f-b31f-47bc-b802-6c1b583d7a56","ios":"levelo://app?vid=d575e78f-b31f-47bc-b802-6c1b583d7a56"},"vehicle_type_id":"4","last_reported":1730124549,"current_range_meters":15200,"station_id":"ce4bh0h2rcd13ifvqd60","pricing_plan_id":"cebpf4jnsgd1na2vs0mg"},{"bike_id":"52fabb93-4981-49c5-9f92-2a6c5d285c73","system_id":"levelo_inurba_marseille","lat":43.304705,"lon":5.37898,"is_reserved":false,"is_disabled":false,"rental_uris":{"android":"levelo://app?vid=52fabb93-4981-49c5-9f92-2a6c5d285c73","ios":"levelo://app?vid=52fabb93-4981-49c5-9f92-2a6c5d285c73"},"vehicle_type_id":"4","last_reported":1730124549,"current_range_meters":38800,"station_id":"ce4bgup2rcd13ifvqcn0","pricing_plan_id":"cebpf4jnsgd1na2vs0mg"},{"bike_id":"86de51d7-7689-4b34-9eeb-07ffaec36dca","system_id":"levelo_inurba_marseille","lat":43.27431,"lon":5.39414,"is_reserved":false,"is_disabled":false,"rental_uris":{"android":"levelo://app?vid=86de51d7-7689-4b34-9eeb-07ffaec36dca","ios":"levelo://app?vid=86de51d7-7689-4b34-9eeb-07ffaec36dca"},"vehicle_type_id":"4","last_reported":1730124549,"current_range_meters":39200,"station_id":"ce4bhdp2rcd13ifvqf20","pricing_plan_id":"cebpf4jnsgd1na2vs0mg"},{"bike_id":"7ca56edd-ab0f-42b5-b290-aff4cb25cb72","system_id":"levelo_inurba_marseille","lat":43.24386,"lon":5.37053,"is_reserved":false,"is_disabled":false,"rental_uris":{"android":"levelo://app?vid=7ca56edd-ab0f-42b5-b290-aff4cb25cb72","ios":"levelo://app?vid=7ca56edd-ab0f-42b5-b290-aff4cb25cb72"},"vehicle_type_id":"4","last_reported":1730124549,"current_range_meters":29600,"station_id":"ce4bhhh2rcd13ifvqfk0","pricing_plan_id":"cebpf4jnsgd1na2vs0mg"},{"bike_id":"24c3453c-534c-45c3-af57-87b77df17206","system_id":"levelo_inurba_marseille","lat":43.337675,"lon":5.374638,"is_reserved":false,"is_disabled":false,"rental_uris":{"android":"levelo://app?vid=24c3453c-534c-45c3-af57-87b77df17206","ios":"levelo://app?vid=24c3453c-534c-45c3-af57-87b77df17206"},"vehicle_type_id":"4","last_reported":1730124549,"current_range_meters":38400,"station_id":"","pricing_plan_id":"cebpf4jnsgd1na2vs0mg"},{"bike_id":"4cf016cf-222a-4af0-b71c-5001d7c7e17d","system_id":"levelo_inurba_marseille","lat":43.25089,"lon":5.39516,"is_reserved":false,"is_disabled":false,"rental_uris":{"android":"levelo://app?vid=4cf016cf-222a-4af0-b71c-5001d7c7e17d","ios":"levelo://app?vid=4cf016cf-222a-4af0-b71c-5001d7c7e17d"},"vehicle_type_id":"4","last_reported":1730124549,"current_range_meters":39200,"station_id":"ce4bhm12rcd13ifvqgkg","pricing_plan_id":"cebpf4jnsgd1na2vs0mg"},{"bike_id":"6ab00db5-f473-4316-b995-2c38a1f114b1","system_id":"levelo_inurba_marseille","lat":43.29932,"lon":5.37482,"is_reserved":false,"is_disabled":false,"rental_uris":{"android":"levelo://app?vid=6ab00db5-f473-4316-b995-2c38a1f114b1","ios":"levelo://app?vid=6ab00db5-f473-4316-b995-2c38a1f114b1"},"vehicle_type_id":"4","last_reported":1730124549,"current_range_meters":26000,"station_id":"ce4bgjh2rcd13ifvqbg0","pricing_plan_id":"cebpf4jnsgd1na2vs0mg"},{"bike_id":"426c10fa-6ac3-46d5-b82d-ffe5493c7a76","system_id":"levelo_inurba_marseille","lat":43.23057,"lon":5.35487,"is_reserved":false,"is_disabled":false,"rental_uris":{"android":"levelo://app?vid=426c10fa-6ac3-46d5-b82d-ffe5493c7a76","ios":"levelo://app?vid=426c10fa-6ac3-46d5-b82d-ffe5493c7a76"},"vehicle_type_id":"4","last_reported":1730124549,"current_range_meters":8000,"station_id":"cpo3342slgdg3j2ifvpg","pricing_plan_id":"cebpf4jnsgd1na2vs0mg"},{"bike_id":"416cfd0c-99fa-4179-a951-93c910c2b63a","system_id":"levelo_inurba_marseille","lat":43.31191,"lon":5.40261,"is_reserved":false,"is_disabled":false,"rental_uris":{"android":"levelo://app?vid=416cfd0c-99fa-4179-a951-93c910c2b63a","ios":"levelo://app?vid=416cfd0c-99fa-4179-a951-93c910c2b63a"},"vehicle_type_id":"4","last_reported":1730124549,"current_range_meters":30400,"station_id":"ce4bh092rcd13ifvqd30","pricing_plan_id":"cebpf4jnsgd1na2vs0mg"},{"bike_id":"1c7f26ee-b0d1-4c55-b487-ce810cec61b4","system_id":"levelo_inurba_marseille","lat":43.25088,"lon":5.39517,"is_reserved":false,"is_disabled":false,"rental_uris":{"android":"levelo://app?vid=1c7f26ee-b0d1-4c55-b487-ce810cec61b4","ios":"levelo://app?vid=1c7f26ee-b0d1-4c55-b487-ce810cec61b4"},"vehicle_type_id":"4","last_reported":1730124549,"current_range_meters":28800,"station_id":"ce4bhm12rcd13ifvqgkg","pricing_plan_id":"cebpf4jnsgd1na2vs0mg"},{"bike_id":"9befed88-9f8c-464c-b07b-093bd97066bb","system_id":"levelo_inurba_marseille","lat":43.29805,"lon":5.37136,"is_reserved":false,"is_disabled":false,"rental_uris":{"android":"levelo://app?vid=9befed88-9f8c-464c-b07b-093bd97066bb","ios":"levelo://app?vid=9befed88-9f8c-464c-b07b-093bd97066bb"},"vehicle_type_id":"4","last_reported":1730124549,"current_range_meters":14800,"station_id":"","pricing_plan_id":"cebpf4jnsgd1na2vs0mg"},{"bike_id":"f37e3b02-a49c-4c4e-b112-f9c8c24edf90","system_id":"levelo_inurba_marseille","lat":43.23396,"lon":5.35979,"is_reserved":false,"is_disabled":false,"rental_uris":{"android":"levelo://app?vid=f37e3b02-a49c-4c4e-b112-f9c8c24edf90","ios":"levelo://app?vid=f37e3b02-a49c-4c4e-b112-f9c8c24edf90"},"vehicle_type_id":"4","last_reported":1730124549,"current_range_meters":5600,"station_id":"ce4bhu92rcd13ifvqi70","pricing_plan_id":"cebpf4jnsgd1na2vs0mg"},{"bike_id":"24918ab6-78ae-4758-ae63-5c1a22dd7cb3","system_id":"levelo_inurba_marseille","lat":43.2455,"lon":5.3952,"is_reserved":false,"is_disabled":false,"rental_uris":{"android":"levelo://app?vid=24918ab6-78ae-4758-ae63-5c1a22dd7cb3","ios":"levelo://app?vid=24918ab6-78ae-4758-ae63-5c1a22dd7cb3"},"vehicle_type_id":"4","last_reported":1730124549,"current_range_meters":20000,"station_id":"ce4bhlp2rcd13ifvqgjg","pricing_plan_id":"cebpf4jnsgd1na2vs0mg"},{"bike_id":"98ccba86-a02d-4bfd-9cb4-d849d3f9f575","system_id":"levelo_inurba_marseille","lat":43.25082,"lon":5.39515,"is_reserved":false,"is_disabled":false,"rental_uris":{"android":"levelo://app?vid=98ccba86-a02d-4bfd-9cb4-d849d3f9f575","ios":"levelo://app?vid=98ccba86-a02d-4bfd-9cb4-d849d3f9f575"},"vehicle_type_id":"4","last_reported":1730124549,"current_range_meters":39200,"station_id":"ce4bhm12rcd13ifvqgkg","pricing_plan_id":"cebpf4jnsgd1na2vs0mg"},{"bike_id":"e4ff751b-e8b3-4d9b-acfb-2d0cd8b9181a","system_id":"levelo_inurba_marseille","lat":43.26205,"lon":5.37931,"is_reserved":false,"is_disabled":false,"rental_uris":{"android":"levelo://app?vid=e4ff751b-e8b3-4d9b-acfb-2d0cd8b9181a","ios":"levelo://app?vid=e4ff751b-e8b3-4d9b-acfb-2d0cd8b9181a"},"vehicle_type_id":"4","last_reported":1730124549,"current_range_meters":29600,"station_id":"ce4bhjp2rcd13ifvqg90","pricing_plan_id":"cebpf4jnsgd1na2vs0mg"},{"bike_id":"869cd782-8a6b-410b-a09b-821ee59f0f59","system_id":"levelo_inurba_marseille","lat":43.306213,"lon":5.409894,"is_reserved":false,"is_disabled":false,"rental_uris":{"android":"levelo://app?vid=869cd782-8a6b-410b-a09b-821ee59f0f59","ios":"levelo://app?vid=869cd782-8a6b-410b-a09b-821ee59f0f59"},"vehicle_type_id":"4","last_reported":1730124549,"current_range_meters":34000,"station_id":"ce4bhop2rcd13ifvqh8g","pricing_plan_id":"cebpf4jnsgd1na2vs0mg"},{"bike_id":"6aa20116-4805-46ad-93c9-99a636b2d52a","system_id":"levelo_inurba_marseille","lat":43.31696,"lon":5.37753,"is_reserved":false,"is_disabled":false,"rental_uris":{"android":"levelo://app?vid=6aa20116-4805-46ad-93c9-99a636b2d52a","ios":"levelo://app?vid=6aa20116-4805-46ad-93c9-99a636b2d52a"},"vehicle_type_id":"4","last_reported":1730124549,"current_range_meters":27600,"station_id":"ce4bhr12rcd13ifvqhpg","pricing_plan_id":"cebpf4jnsgd1na2vs0mg"},{"bike_id":"0fc35ec4-d69e-455a-854d-9256f0d5a7e6","system_id":"levelo_inurba_marseille","lat":43.24067,"lon":5.37758,"is_reserved":false,"is_disabled":false,"rental_uris":{"android":"levelo://app?vid=0fc35ec4-d69e-455a-854d-9256f0d5a7e6","ios":"levelo://app?vid=0fc35ec4-d69e-455a-854d-9256f0d5a7e6"},"vehicle_type_id":"4","last_reported":1730124549,"current_range_meters":22800,"station_id":"ce4bhnp2rcd13ifvqgvg","pricing_plan_id":"cebpf4jnsgd1na2vs0mg"},{"bike_id":"13a18f88-a30d-4e8a-b89f-599244ee23b1","system_id":"levelo_inurba_marseille","lat":43.2963,"lon":5.37717,"is_reserved":false,"is_disabled":false,"rental_uris":{"android":"levelo://app?vid=13a18f88-a30d-4e8a-b89f-599244ee23b1","ios":"levelo://app?vid=13a18f88-a30d-4e8a-b89f-599244ee23b1"},"vehicle_type_id":"4","last_reported":1730124549,"current_range_meters":4000,"station_id":"ce4bgi92rcd13ifvqb90","pricing_plan_id":"cebpf4jnsgd1na2vs0mg"},{"bike_id":"1d514d7d-1d50-42e5-8fde-77f6e41cc28b","system_id":"levelo_inurba_marseille","lat":43.30546,"lon":5.36538,"is_reserved":false,"is_disabled":false,"rental_uris":{"android":"levelo://app?vid=1d514d7d-1d50-42e5-8fde-77f6e41cc28b","ios":"levelo://app?vid=1d514d7d-1d50-42e5-8fde-77f6e41cc28b"},"vehicle_type_id":"4","last_reported":1730124549,"current_range_meters":26000,"station_id":"ce4bgs12rcd13ifvqcag","pricing_plan_id":"cebpf4jnsgd1na2vs0mg"},{"bike_id":"9f501856-31bd-489e-8c68-79174caf584a","system_id":"levelo_inurba_marseille","lat":43.27503,"lon":5.42457,"is_reserved":false,"is_disabled":false,"rental_uris":{"android":"levelo://app?vid=9f501856-31bd-489e-8c68-79174caf584a","ios":"levelo://app?vid=9f501856-31bd-489e-8c68-79174caf584a"},"vehicle_type_id":"4","last_reported":1730124549,"current_range_meters":37600,"station_id":"ce4bhn92rcd13ifvqgrg","pricing_plan_id":"cebpf4jnsgd1na2vs0mg"},{"bike_id":"e39645c5-87ac-4e87-90ca-e4c6f3ff67ce","system_id":"levelo_inurba_marseille","lat":43.2994,"lon":5.36533,"is_reserved":false,"is_disabled":false,"rental_uris":{"android":"levelo://app?vid=e39645c5-87ac-4e87-90ca-e4c6f3ff67ce","ios":"levelo://app?vid=e39645c5-87ac-4e87-90ca-e4c6f3ff67ce"},"vehicle_type_id":"4","last_reported":1730124549,"current_range_meters":30000,"station_id":"ce4bgm92rcd13ifvqbr0","pricing_plan_id":"cebpf4jnsgd1na2vs0mg"},{"bike_id":"dd0f0659-0fae-4bb0-80c0-fd3b98409d8f","system_id":"levelo_inurba_marseille","lat":43.26207,"lon":5.37932,"is_reserved":false,"is_disabled":false,"rental_uris":{"android":"levelo://app?vid=dd0f0659-0fae-4bb0-80c0-fd3b98409d8f","ios":"levelo://app?vid=dd0f0659-0fae-4bb0-80c0-fd3b98409d8f"},"vehicle_type_id":"4","last_reported":1730124549,"current_range_meters":30000,"station_id":"ce4bhjp2rcd13ifvqg90","pricing_plan_id":"cebpf4jnsgd1na2vs0mg"},{"bike_id":"7d335b67-cff6-4629-a9d1-3f769f32929b","system_id":"levelo_inurba_marseille","lat":43.290693,"lon":5.371703,"is_reserved":false,"is_disabled":false,"rental_uris":{"android":"levelo://app?vid=7d335b67-cff6-4629-a9d1-3f769f32929b","ios":"levelo://app?vid=7d335b67-cff6-4629-a9d1-3f769f32929b"},"vehicle_type_id":"4","last_reported":1730124549,"current_range_meters":31200,"station_id":"ce4bh5p2rcd13ifvqe4g","pricing_plan_id":"cebpf4jnsgd1na2vs0mg"},{"bike_id":"def66fbe-9129-4b94-9aa6-f0a9941a832b","system_id":"levelo_inurba_marseille","lat":43.29181,"lon":5.36904,"is_reserved":false,"is_disabled":false,"rental_uris":{"android":"levelo://app?vid=def66fbe-9129-4b94-9aa6-f0a9941a832b","ios":"levelo://app?vid=def66fbe-9129-4b94-9aa6-f0a9941a832b"},"vehicle_type_id":"4","last_reported":1730124549,"current_range_meters":11200,"station_id":"","pricing_plan_id":"cebpf4jnsgd1na2vs0mg"},{"bike_id":"a62f1a01-07e5-4163-b48e-b8dbe4ed6bc0","system_id":"levelo_inurba_marseille","lat":43.29684,"lon":5.36348,"is_reserved":false,"is_disabled":false,"rental_uris":{"android":"levelo://app?vid=a62f1a01-07e5-4163-b48e-b8dbe4ed6bc0","ios":"levelo://app?vid=a62f1a01-07e5-4163-b48e-b8dbe4ed6bc0"},"vehicle_type_id":"4","last_reported":1730124549,"current_range_meters":10000,"station_id":"ce4bgkp2rcd13ifvqbmg","pricing_plan_id":"cebpf4jnsgd1na2vs0mg"},{"bike_id":"e0ccd745-35ad-4057-bc75-ee9fb8ef0805","system_id":"levelo_inurba_marseille","lat":43.30152,"lon":5.37417,"is_reserved":false,"is_disabled":false,"rental_uris":{"android":"levelo://app?vid=e0ccd745-35ad-4057-bc75-ee9fb8ef0805","ios":"levelo://app?vid=e0ccd745-35ad-4057-bc75-ee9fb8ef0805"},"vehicle_type_id":"4","last_reported":1730124549,"current_range_meters":37600,"station_id":"ce4bgs92rcd13ifvqcc0","pricing_plan_id":"cebpf4jnsgd1na2vs0mg"},{"bike_id":"e5630466-0af0-4d76-a58b-254eeaf8085b","system_id":"levelo_inurba_marseille","lat":43.29582,"lon":5.36733,"is_reserved":false,"is_disabled":false,"rental_uris":{"android":"levelo://app?vid=e5630466-0af0-4d76-a58b-254eeaf8085b","ios":"levelo://app?vid=e5630466-0af0-4d76-a58b-254eeaf8085b"},"vehicle_type_id":"4","last_reported":1730124549,"current_range_meters":38800,"station_id":"ce4bgph2rcd13ifvqc2g","pricing_plan_id":"cebpf4jnsgd1na2vs0mg"},{"bike_id":"a08296db-b3f4-4d7c-b368-674ac3a21b1e","system_id":"levelo_inurba_marseille","lat":43.23058,"lon":5.35493,"is_reserved":false,"is_disabled":false,"rental_uris":{"android":"levelo://app?vid=a08296db-b3f4-4d7c-b368-674ac3a21b1e","ios":"levelo://app?vid=a08296db-b3f4-4d7c-b368-674ac3a21b1e"},"vehicle_type_id":"4","last_reported":1730124549,"current_range_meters":36400,"station_id":"cpo3342slgdg3j2ifvpg","pricing_plan_id":"cebpf4jnsgd1na2vs0mg"},{"bike_id":"973f754c-ca27-4080-b2bd-0b5a4f1a0d62","system_id":"levelo_inurba_marseille","lat":43.33743,"lon":5.37456,"is_reserved":false,"is_disabled":false,"rental_uris":{"android":"levelo://app?vid=973f754c-ca27-4080-b2bd-0b5a4f1a0d62","ios":"levelo://app?vid=973f754c-ca27-4080-b2bd-0b5a4f1a0d62"},"vehicle_type_id":"4","last_reported":1730124549,"current_range_meters":37600,"station_id":"","pricing_plan_id":"cebpf4jnsgd1na2vs0mg"},{"bike_id":"e8b1d499-1fb8-48d9-9f2a-60b4b9923777","system_id":"levelo_inurba_marseille","lat":43.3053,"lon":5.36699,"is_reserved":false,"is_disabled":false,"rental_uris":{"android":"levelo://app?vid=e8b1d499-1fb8-48d9-9f2a-60b4b9923777","ios":"levelo://app?vid=e8b1d499-1fb8-48d9-9f2a-60b4b9923777"},"vehicle_type_id":"4","last_reported":1730124549,"current_range_meters":39200,"station_id":"ce4bgrp2rcd13ifvqc9g","pricing_plan_id":"cebpf4jnsgd1na2vs0mg"},{"bike_id":"e69b86be-0727-4961-ad18-cf6cc7bb2d2a","system_id":"levelo_inurba_marseille","lat":43.2837,"lon":5.40036,"is_reserved":false,"is_disabled":false,"rental_uris":{"android":"levelo://app?vid=e69b86be-0727-4961-ad18-cf6cc7bb2d2a","ios":"levelo://app?vid=e69b86be-0727-4961-ad18-cf6cc7bb2d2a"},"vehicle_type_id":"4","last_reported":1730124549,"current_range_meters":29600,"station_id":"","pricing_plan_id":"cebpf4jnsgd1na2vs0mg"},{"bike_id":"c829618b-2d4f-451e-a62d-faf60d9046ba","system_id":"levelo_inurba_marseille","lat":43.27497,"lon":5.42449,"is_reserved":false,"is_disabled":false,"rental_uris":{"android":"levelo://app?vid=c829618b-2d4f-451e-a62d-faf60d9046ba","ios":"levelo://app?vid=c829618b-2d4f-451e-a62d-faf60d9046ba"},"vehicle_type_id":"4","last_reported":1730124549,"current_range_meters":4000,"station_id":"ce4bhn92rcd13ifvqgrg","pricing_plan_id":"cebpf4jnsgd1na2vs0mg"},{"bike_id":"0e01ac24-2784-4039-a876-30b14394ea65","system_id":"levelo_inurba_marseille","lat":43.28268,"lon":5.35093,"is_reserved":false,"is_disabled":false,"rental_uris":{"android":"levelo://app?vid=0e01ac24-2784-4039-a876-30b14394ea65","ios":"levelo://app?vid=0e01ac24-2784-4039-a876-30b14394ea65"},"vehicle_type_id":"4","last_reported":1730124549,"current_range_meters":38800,"station_id":"ce4bhbp2rcd13ifvqerg","pricing_plan_id":"cebpf4jnsgd1na2vs0mg"},{"bike_id":"a256906a-d9c1-4e85-af57-16e148ab78da","system_id":"levelo_inurba_marseille","lat":43.3014,"lon":5.38783,"is_reserved":false,"is_disabled":false,"rental_uris":{"android":"levelo://app?vid=a256906a-d9c1-4e85-af57-16e148ab78da","ios":"levelo://app?vid=a256906a-d9c1-4e85-af57-16e148ab78da"},"vehicle_type_id":"4","last_reported":1730124549,"current_range_meters":16400,"station_id":"ce4bgg92rcd13ifvqb30","pricing_plan_id":"cebpf4jnsgd1na2vs0mg"},{"bike_id":"a2ebc3ec-bc3a-4f57-8809-f7e7352d75e8","system_id":"levelo_inurba_marseille","lat":43.29725,"lon":5.3769,"is_reserved":false,"is_disabled":false,"rental_uris":{"android":"levelo://app?vid=a2ebc3ec-bc3a-4f57-8809-f7e7352d75e8","ios":"levelo://app?vid=a2ebc3ec-bc3a-4f57-8809-f7e7352d75e8"},"vehicle_type_id":"4","last_reported":1730124549,"current_range_meters":18000,"station_id":"ce4bgkh2rcd13ifvqbl0","pricing_plan_id":"cebpf4jnsgd1na2vs0mg"},{"bike_id":"2a6848c1-d22b-44f2-a324-89f4967e1c2c","system_id":"levelo_inurba_marseille","lat":43.30133,"lon":5.37415,"is_reserved":false,"is_disabled":false,"rental_uris":{"android":"levelo://app?vid=2a6848c1-d22b-44f2-a324-89f4967e1c2c","ios":"levelo://app?vid=2a6848c1-d22b-44f2-a324-89f4967e1c2c"},"vehicle_type_id":"4","last_reported":1730124549,"current_range_meters":27600,"station_id":"ce4bgs92rcd13ifvqcc0","pricing_plan_id":"cebpf4jnsgd1na2vs0mg"},{"bike_id":"ef785b4d-abeb-4561-9bfa-6c9ace06ace3","system_id":"levelo_inurba_marseille","lat":43.32291,"lon":5.38276,"is_reserved":false,"is_disabled":false,"rental_uris":{"android":"levelo://app?vid=ef785b4d-abeb-4561-9bfa-6c9ace06ace3","ios":"levelo://app?vid=ef785b4d-abeb-4561-9bfa-6c9ace06ace3"},"vehicle_type_id":"4","last_reported":1730124549,"current_range_meters":38800,"station_id":"ce4bhr12rcd13ifvqhqg","pricing_plan_id":"cebpf4jnsgd1na2vs0mg"},{"bike_id":"8365ae7d-b072-4734-9306-a366f4b5c63c","system_id":"levelo_inurba_marseille","lat":43.27352,"lon":5.36253,"is_reserved":false,"is_disabled":false,"rental_uris":{"android":"levelo://app?vid=8365ae7d-b072-4734-9306-a366f4b5c63c","ios":"levelo://app?vid=8365ae7d-b072-4734-9306-a366f4b5c63c"},"vehicle_type_id":"4","last_reported":1730124549,"current_range_meters":38800,"station_id":"ce4bhbh2rcd13ifvqeo0","pricing_plan_id":"cebpf4jnsgd1na2vs0mg"},{"bike_id":"d42cd8f1-be9f-4587-96dc-fd9d11f4d1a0","system_id":"levelo_inurba_marseille","lat":43.25115,"lon":5.40323,"is_reserved":false,"is_disabled":false,"rental_uris":{"android":"levelo://app?vid=d42cd8f1-be9f-4587-96dc-fd9d11f4d1a0","ios":"levelo://app?vid=d42cd8f1-be9f-4587-96dc-fd9d11f4d1a0"},"vehicle_type_id":"4","last_reported":1730124549,"current_range_meters":20400,"station_id":"ce4bhlh2rcd13ifvqgig","pricing_plan_id":"cebpf4jnsgd1na2vs0mg"},{"bike_id":"2e10531e-9386-411b-ab90-247ac4a58043","system_id":"levelo_inurba_marseille","lat":43.23963,"lon":5.366353,"is_reserved":false,"is_disabled":false,"rental_uris":{"android":"levelo://app?vid=2e10531e-9386-411b-ab90-247ac4a58043","ios":"levelo://app?vid=2e10531e-9386-411b-ab90-247ac4a58043"},"vehicle_type_id":"4","last_reported":1730124549,"current_range_meters":39200,"station_id":"ce4bhi12rcd13ifvqfp0","pricing_plan_id":"cebpf4jnsgd1na2vs0mg"},{"bike_id":"2b4bfc9a-6cf9-4fc2-9d32-3a543571383c","system_id":"levelo_inurba_marseille","lat":43.29575,"lon":5.36744,"is_reserved":false,"is_disabled":false,"rental_uris":{"android":"levelo://app?vid=2b4bfc9a-6cf9-4fc2-9d32-3a543571383c","ios":"levelo://app?vid=2b4bfc9a-6cf9-4fc2-9d32-3a543571383c"},"vehicle_type_id":"4","last_reported":1730124549,"current_range_meters":24000,"station_id":"ce4bgph2rcd13ifvqc2g","pricing_plan_id":"cebpf4jnsgd1na2vs0mg"},{"bike_id":"182b6bcf-4cb0-4a0a-b043-3cb94628b8a5","system_id":"levelo_inurba_marseille","lat":43.28154,"lon":5.42641,"is_reserved":false,"is_disabled":false,"rental_uris":{"android":"levelo://app?vid=182b6bcf-4cb0-4a0a-b043-3cb94628b8a5","ios":"levelo://app?vid=182b6bcf-4cb0-4a0a-b043-3cb94628b8a5"},"vehicle_type_id":"4","last_reported":1730124549,"current_range_meters":32800,"station_id":"ce4bhnh2rcd13ifvqgug","pricing_plan_id":"cebpf4jnsgd1na2vs0mg"},{"bike_id":"6850edbb-0ea0-492a-bcd4-3d24a79dae3f","system_id":"levelo_inurba_marseille","lat":43.23153,"lon":5.43723,"is_reserved":false,"is_disabled":false,"rental_uris":{"android":"levelo://app?vid=6850edbb-0ea0-492a-bcd4-3d24a79dae3f","ios":"levelo://app?vid=6850edbb-0ea0-492a-bcd4-3d24a79dae3f"},"vehicle_type_id":"4","last_reported":1730124549,"current_range_meters":15200,"station_id":"ce4bhmp2rcd13ifvqgog","pricing_plan_id":"cebpf4jnsgd1na2vs0mg"},{"bike_id":"a2ea2797-ae2a-4d35-8b0b-0c47931da0c1","system_id":"levelo_inurba_marseille","lat":43.26501,"lon":5.39541,"is_reserved":false,"is_disabled":false,"rental_uris":{"android":"levelo://app?vid=a2ea2797-ae2a-4d35-8b0b-0c47931da0c1","ios":"levelo://app?vid=a2ea2797-ae2a-4d35-8b0b-0c47931da0c1"},"vehicle_type_id":"4","last_reported":1730124549,"current_range_meters":38800,"station_id":"ce4bhi12rcd13ifvqfq0","pricing_plan_id":"cebpf4jnsgd1na2vs0mg"},{"bike_id":"5663243a-9a55-4e5c-a585-7990338a8b0c","system_id":"levelo_inurba_marseille","lat":43.29604,"lon":5.38096,"is_reserved":false,"is_disabled":false,"rental_uris":{"android":"levelo://app?vid=5663243a-9a55-4e5c-a585-7990338a8b0c","ios":"levelo://app?vid=5663243a-9a55-4e5c-a585-7990338a8b0c"},"vehicle_type_id":"4","last_reported":1730124549,"current_range_meters":28400,"station_id":"ce4bgl12rcd13ifvqbo0","pricing_plan_id":"cebpf4jnsgd1na2vs0mg"},{"bike_id":"3ab969d4-6e01-41d0-a757-9fa45a838830","system_id":"levelo_inurba_marseille","lat":43.27995,"lon":5.40007,"is_reserved":false,"is_disabled":false,"rental_uris":{"android":"levelo://app?vid=3ab969d4-6e01-41d0-a757-9fa45a838830","ios":"levelo://app?vid=3ab969d4-6e01-41d0-a757-9fa45a838830"},"vehicle_type_id":"4","last_reported":1730124549,"current_range_meters":16800,"station_id":"ce4bho92rcd13ifvqh4g","pricing_plan_id":"cebpf4jnsgd1na2vs0mg"},{"bike_id":"efb90eb5-b74a-4229-93cc-8c45be093ff2","system_id":"levelo_inurba_marseille","lat":43.29592,"lon":5.38102,"is_reserved":false,"is_disabled":false,"rental_uris":{"android":"levelo://app?vid=efb90eb5-b74a-4229-93cc-8c45be093ff2","ios":"levelo://app?vid=efb90eb5-b74a-4229-93cc-8c45be093ff2"},"vehicle_type_id":"4","last_reported":1730124549,"current_range_meters":36400,"station_id":"ce4bgl12rcd13ifvqbo0","pricing_plan_id":"cebpf4jnsgd1na2vs0mg"},{"bike_id":"8fd2c452-c509-4305-af04-45654c2722b8","system_id":"levelo_inurba_marseille","lat":43.29281,"lon":5.4013,"is_reserved":false,"is_disabled":false,"rental_uris":{"android":"levelo://app?vid=8fd2c452-c509-4305-af04-45654c2722b8","ios":"levelo://app?vid=8fd2c452-c509-4305-af04-45654c2722b8"},"vehicle_type_id":"4","last_reported":1730124549,"current_range_meters":33600,"station_id":"ce4bh312rcd13ifvqdk0","pricing_plan_id":"cebpf4jnsgd1na2vs0mg"},{"bike_id":"e1ce656c-8fc9-447a-aa92-f8220e909acb","system_id":"levelo_inurba_marseille","lat":43.279746,"lon":5.387432,"is_reserved":false,"is_disabled":false,"rental_uris":{"android":"levelo://app?vid=e1ce656c-8fc9-447a-aa92-f8220e909acb","ios":"levelo://app?vid=e1ce656c-8fc9-447a-aa92-f8220e909acb"},"vehicle_type_id":"4","last_reported":1730124549,"current_range_meters":20000,"station_id":"ce4bhg12rcd13ifvqf80","pricing_plan_id":"cebpf4jnsgd1na2vs0mg"},{"bike_id":"a147686b-52f6-4e6c-ae60-242f1ebd23cd","system_id":"levelo_inurba_marseille","lat":43.28428,"lon":5.34978,"is_reserved":false,"is_disabled":false,"rental_uris":{"android":"levelo://app?vid=a147686b-52f6-4e6c-ae60-242f1ebd23cd","ios":"levelo://app?vid=a147686b-52f6-4e6c-ae60-242f1ebd23cd"},"vehicle_type_id":"4","last_reported":1730124549,"current_range_meters":35200,"station_id":"ce4bhbh2rcd13ifvqepg","pricing_plan_id":"cebpf4jnsgd1na2vs0mg"},{"bike_id":"83951415-bd72-4fd4-82c4-ca875a9c879e","system_id":"levelo_inurba_marseille","lat":43.30537,"lon":5.36523,"is_reserved":false,"is_disabled":false,"rental_uris":{"android":"levelo://app?vid=83951415-bd72-4fd4-82c4-ca875a9c879e","ios":"levelo://app?vid=83951415-bd72-4fd4-82c4-ca875a9c879e"},"vehicle_type_id":"4","last_reported":1730124549,"current_range_meters":36000,"station_id":"ce4bgs12rcd13ifvqcag","pricing_plan_id":"cebpf4jnsgd1na2vs0mg"},{"bike_id":"a8b23155-2836-4790-800f-c3a0a114d0d3","system_id":"levelo_inurba_marseille","lat":43.22929,"lon":5.35374,"is_reserved":false,"is_disabled":false,"rental_uris":{"android":"levelo://app?vid=a8b23155-2836-4790-800f-c3a0a114d0d3","ios":"levelo://app?vid=a8b23155-2836-4790-800f-c3a0a114d0d3"},"vehicle_type_id":"4","last_reported":1730124549,"current_range_meters":26800,"station_id":"cpo3532slgdg3j2ikp40","pricing_plan_id":"cebpf4jnsgd1na2vs0mg"},{"bike_id":"4cd62867-fcb2-4724-b8c6-ec9bc5fd6603","system_id":"levelo_inurba_marseille","lat":43.23192,"lon":5.35547,"is_reserved":false,"is_disabled":false,"rental_uris":{"android":"levelo://app?vid=4cd62867-fcb2-4724-b8c6-ec9bc5fd6603","ios":"levelo://app?vid=4cd62867-fcb2-4724-b8c6-ec9bc5fd6603"},"vehicle_type_id":"4","last_reported":1730124549,"current_range_meters":29600,"station_id":"ce4bhu92rcd13ifvqi70","pricing_plan_id":"cebpf4jnsgd1na2vs0mg"},{"bike_id":"f3c660e9-6fbc-487b-a646-b4cf64fb9d49","system_id":"levelo_inurba_marseille","lat":43.23188,"lon":5.39993,"is_reserved":false,"is_disabled":false,"rental_uris":{"android":"levelo://app?vid=f3c660e9-6fbc-487b-a646-b4cf64fb9d49","ios":"levelo://app?vid=f3c660e9-6fbc-487b-a646-b4cf64fb9d49"},"vehicle_type_id":"4","last_reported":1730124549,"current_range_meters":33200,"station_id":"ce4bhn12rcd13ifvqgqg","pricing_plan_id":"cebpf4jnsgd1na2vs0mg"},{"bike_id":"f55dcfa5-fad0-4f00-aac0-bfc52a6f26a1","system_id":"levelo_inurba_marseille","lat":43.29171,"lon":5.37156,"is_reserved":false,"is_disabled":false,"rental_uris":{"android":"levelo://app?vid=f55dcfa5-fad0-4f00-aac0-bfc52a6f26a1","ios":"levelo://app?vid=f55dcfa5-fad0-4f00-aac0-bfc52a6f26a1"},"vehicle_type_id":"4","last_reported":1730124549,"current_range_meters":38800,"station_id":"ce4bha92rcd13ifvqeh0","pricing_plan_id":"cebpf4jnsgd1na2vs0mg"},{"bike_id":"ee818375-3bfb-4079-a178-b72c52f241b3","system_id":"levelo_inurba_marseille","lat":43.27377,"lon":5.36257,"is_reserved":false,"is_disabled":false,"rental_uris":{"android":"levelo://app?vid=ee818375-3bfb-4079-a178-b72c52f241b3","ios":"levelo://app?vid=ee818375-3bfb-4079-a178-b72c52f241b3"},"vehicle_type_id":"4","last_reported":1730124549,"current_range_meters":12400,"station_id":"ce4bhbh2rcd13ifvqeo0","pricing_plan_id":"cebpf4jnsgd1na2vs0mg"},{"bike_id":"5d820ce0-2d55-46e5-b74d-cc75a18e2e27","system_id":"levelo_inurba_marseille","lat":43.270015,"lon":5.392427,"is_reserved":false,"is_disabled":false,"rental_uris":{"android":"levelo://app?vid=5d820ce0-2d55-46e5-b74d-cc75a18e2e27","ios":"levelo://app?vid=5d820ce0-2d55-46e5-b74d-cc75a18e2e27"},"vehicle_type_id":"4","last_reported":1730124549,"current_range_meters":31200,"station_id":"ce4bgh92rcd13ifvqb40","pricing_plan_id":"cebpf4jnsgd1na2vs0mg"},{"bike_id":"40b039ad-0769-4a0e-8ad8-e16a05aa5fd5","system_id":"levelo_inurba_marseille","lat":43.27941,"lon":5.41044,"is_reserved":false,"is_disabled":false,"rental_uris":{"android":"levelo://app?vid=40b039ad-0769-4a0e-8ad8-e16a05aa5fd5","ios":"levelo://app?vid=40b039ad-0769-4a0e-8ad8-e16a05aa5fd5"},"vehicle_type_id":"4","last_reported":1730124549,"current_range_meters":36800,"station_id":"ce4bhnp2rcd13ifvqh0g","pricing_plan_id":"cebpf4jnsgd1na2vs0mg"},{"bike_id":"55433e48-d44e-4b78-92c7-ee7cf1d8fd02","system_id":"levelo_inurba_marseille","lat":43.30901,"lon":5.37194,"is_reserved":false,"is_disabled":false,"rental_uris":{"android":"levelo://app?vid=55433e48-d44e-4b78-92c7-ee7cf1d8fd02","ios":"levelo://app?vid=55433e48-d44e-4b78-92c7-ee7cf1d8fd02"},"vehicle_type_id":"4","last_reported":1730124549,"current_range_meters":38800,"station_id":"ce4bguh2rcd13ifvqckg","pricing_plan_id":"cebpf4jnsgd1na2vs0mg"},{"bike_id":"1f1fe223-786d-4964-83ba-a60817fd78f2","system_id":"levelo_inurba_marseille","lat":43.28619,"lon":5.35105,"is_reserved":false,"is_disabled":false,"rental_uris":{"android":"levelo://app?vid=1f1fe223-786d-4964-83ba-a60817fd78f2","ios":"levelo://app?vid=1f1fe223-786d-4964-83ba-a60817fd78f2"},"vehicle_type_id":"4","last_reported":1730124549,"current_range_meters":37600,"station_id":"ce4bhch2rcd13ifvqeug","pricing_plan_id":"cebpf4jnsgd1na2vs0mg"},{"bike_id":"df18a4d4-051a-4a60-ad8e-e275c817d3a2","system_id":"levelo_inurba_marseille","lat":43.30531,"lon":5.36526,"is_reserved":false,"is_disabled":false,"rental_uris":{"android":"levelo://app?vid=df18a4d4-051a-4a60-ad8e-e275c817d3a2","ios":"levelo://app?vid=df18a4d4-051a-4a60-ad8e-e275c817d3a2"},"vehicle_type_id":"4","last_reported":1730124549,"current_range_meters":33600,"station_id":"ce4bgs12rcd13ifvqcag","pricing_plan_id":"cebpf4jnsgd1na2vs0mg"},{"bike_id":"db63f058-fdad-4057-bb90-e81b78c31449","system_id":"levelo_inurba_marseille","lat":43.27622,"lon":5.36105,"is_reserved":false,"is_disabled":false,"rental_uris":{"android":"levelo://app?vid=db63f058-fdad-4057-bb90-e81b78c31449","ios":"levelo://app?vid=db63f058-fdad-4057-bb90-e81b78c31449"},"vehicle_type_id":"4","last_reported":1730124549,"current_range_meters":36800,"station_id":"ce4bgj92rcd13ifvqbe0","pricing_plan_id":"cebpf4jnsgd1na2vs0mg"},{"bike_id":"bf0c3388-f83f-480f-a3b7-858163d754b2","system_id":"levelo_inurba_marseille","lat":43.26557,"lon":5.37283,"is_reserved":false,"is_disabled":false,"rental_uris":{"android":"levelo://app?vid=bf0c3388-f83f-480f-a3b7-858163d754b2","ios":"levelo://app?vid=bf0c3388-f83f-480f-a3b7-858163d754b2"},"vehicle_type_id":"4","last_reported":1730124549,"current_range_meters":26800,"station_id":"ce4bhg12rcd13ifvqf70","pricing_plan_id":"cebpf4jnsgd1na2vs0mg"},{"bike_id":"35645f2d-69ad-41ca-b778-4e8e31250b8e","system_id":"levelo_inurba_marseille","lat":43.30086,"lon":5.39079,"is_reserved":false,"is_disabled":false,"rental_uris":{"android":"levelo://app?vid=35645f2d-69ad-41ca-b778-4e8e31250b8e","ios":"levelo://app?vid=35645f2d-69ad-41ca-b778-4e8e31250b8e"},"vehicle_type_id":"4","last_reported":1730124549,"current_range_meters":38800,"station_id":"ce4bh192rcd13ifvqdb0","pricing_plan_id":"cebpf4jnsgd1na2vs0mg"},{"bike_id":"3aa5a7d1-05de-4423-aba7-76bd9884b83b","system_id":"levelo_inurba_marseille","lat":43.30536,"lon":5.36722,"is_reserved":false,"is_disabled":false,"rental_uris":{"android":"levelo://app?vid=3aa5a7d1-05de-4423-aba7-76bd9884b83b","ios":"levelo://app?vid=3aa5a7d1-05de-4423-aba7-76bd9884b83b"},"vehicle_type_id":"4","last_reported":1730124549,"current_range_meters":24400,"station_id":"ce4bgrp2rcd13ifvqc9g","pricing_plan_id":"cebpf4jnsgd1na2vs0mg"},{"bike_id":"5e8add12-0a2f-4ee0-a948-b3005ed38fe3","system_id":"levelo_inurba_marseille","lat":43.32484,"lon":5.36559,"is_reserved":false,"is_disabled":false,"rental_uris":{"android":"levelo://app?vid=5e8add12-0a2f-4ee0-a948-b3005ed38fe3","ios":"levelo://app?vid=5e8add12-0a2f-4ee0-a948-b3005ed38fe3"},"vehicle_type_id":"4","last_reported":1730124549,"current_range_meters":38800,"station_id":"ce4bhs12rcd13ifvqhvg","pricing_plan_id":"cebpf4jnsgd1na2vs0mg"},{"bike_id":"d407e42b-247c-4afe-969f-673c39b9b5ca","system_id":"levelo_inurba_marseille","lat":43.30866,"lon":5.372041,"is_reserved":false,"is_disabled":false,"rental_uris":{"android":"levelo://app?vid=d407e42b-247c-4afe-969f-673c39b9b5ca","ios":"levelo://app?vid=d407e42b-247c-4afe-969f-673c39b9b5ca"},"vehicle_type_id":"4","last_reported":1730124549,"current_range_meters":25600,"station_id":"ce4bguh2rcd13ifvqckg","pricing_plan_id":"cebpf4jnsgd1na2vs0mg"},{"bike_id":"58c29938-9a66-4cb0-80d8-96474a8212ec","system_id":"levelo_inurba_marseille","lat":43.23154,"lon":5.4372,"is_reserved":false,"is_disabled":false,"rental_uris":{"android":"levelo://app?vid=58c29938-9a66-4cb0-80d8-96474a8212ec","ios":"levelo://app?vid=58c29938-9a66-4cb0-80d8-96474a8212ec"},"vehicle_type_id":"4","last_reported":1730124549,"current_range_meters":21600,"station_id":"ce4bhmp2rcd13ifvqgog","pricing_plan_id":"cebpf4jnsgd1na2vs0mg"},{"bike_id":"1582fcb8-910f-49dd-a0cc-6ef293daf156","system_id":"levelo_inurba_marseille","lat":43.29725,"lon":5.37694,"is_reserved":false,"is_disabled":false,"rental_uris":{"android":"levelo://app?vid=1582fcb8-910f-49dd-a0cc-6ef293daf156","ios":"levelo://app?vid=1582fcb8-910f-49dd-a0cc-6ef293daf156"},"vehicle_type_id":"4","last_reported":1730124549,"current_range_meters":29600,"station_id":"ce4bgkh2rcd13ifvqbl0","pricing_plan_id":"cebpf4jnsgd1na2vs0mg"},{"bike_id":"9ba3ad4f-788a-474d-a0db-7d2caea42a61","system_id":"levelo_inurba_marseille","lat":43.29225,"lon":5.3607,"is_reserved":false,"is_disabled":false,"rental_uris":{"android":"levelo://app?vid=9ba3ad4f-788a-474d-a0db-7d2caea42a61","ios":"levelo://app?vid=9ba3ad4f-788a-474d-a0db-7d2caea42a61"},"vehicle_type_id":"4","last_reported":1730124549,"current_range_meters":36400,"station_id":"ce4bhbh2rcd13ifvqeqg","pricing_plan_id":"cebpf4jnsgd1na2vs0mg"},{"bike_id":"1c8f1a32-ed9e-4048-9033-d948007cea25","system_id":"levelo_inurba_marseille","lat":43.28725,"lon":5.37947,"is_reserved":false,"is_disabled":false,"rental_uris":{"android":"levelo://app?vid=1c8f1a32-ed9e-4048-9033-d948007cea25","ios":"levelo://app?vid=1c8f1a32-ed9e-4048-9033-d948007cea25"},"vehicle_type_id":"4","last_reported":1730124549,"current_range_meters":11600,"station_id":"ce4bh9p2rcd13ifvqec0","pricing_plan_id":"cebpf4jnsgd1na2vs0mg"},{"bike_id":"9b81ae17-1a3d-466c-8b8b-ae3da13cf8b3","system_id":"levelo_inurba_marseille","lat":43.296227,"lon":5.377103,"is_reserved":false,"is_disabled":false,"rental_uris":{"android":"levelo://app?vid=9b81ae17-1a3d-466c-8b8b-ae3da13cf8b3","ios":"levelo://app?vid=9b81ae17-1a3d-466c-8b8b-ae3da13cf8b3"},"vehicle_type_id":"4","last_reported":1730124549,"current_range_meters":16800,"station_id":"ce4bhg92rcd13ifvqf90","pricing_plan_id":"cebpf4jnsgd1na2vs0mg"},{"bike_id":"751813df-b810-43ef-b82b-dde242135af5","system_id":"levelo_inurba_marseille","lat":43.29521,"lon":5.39403,"is_reserved":false,"is_disabled":false,"rental_uris":{"android":"levelo://app?vid=751813df-b810-43ef-b82b-dde242135af5","ios":"levelo://app?vid=751813df-b810-43ef-b82b-dde242135af5"},"vehicle_type_id":"4","last_reported":1730124549,"current_range_meters":33200,"station_id":"ce4bh292rcd13ifvqdf0","pricing_plan_id":"cebpf4jnsgd1na2vs0mg"},{"bike_id":"bca1c95d-88ea-42d2-88ef-f9232ab56cf0","system_id":"levelo_inurba_marseille","lat":43.27378,"lon":5.36265,"is_reserved":false,"is_disabled":false,"rental_uris":{"android":"levelo://app?vid=bca1c95d-88ea-42d2-88ef-f9232ab56cf0","ios":"levelo://app?vid=bca1c95d-88ea-42d2-88ef-f9232ab56cf0"},"vehicle_type_id":"4","last_reported":1730124549,"current_range_meters":28800,"station_id":"ce4bhbh2rcd13ifvqeo0","pricing_plan_id":"cebpf4jnsgd1na2vs0mg"},{"bike_id":"fb3ed379-5f38-461e-96da-109f39de05b6","system_id":"levelo_inurba_marseille","lat":43.27077,"lon":5.42278,"is_reserved":false,"is_disabled":false,"rental_uris":{"android":"levelo://app?vid=fb3ed379-5f38-461e-96da-109f39de05b6","ios":"levelo://app?vid=fb3ed379-5f38-461e-96da-109f39de05b6"},"vehicle_type_id":"4","last_reported":1730124549,"current_range_meters":39200,"station_id":"ce4bhk92rcd13ifvqgb0","pricing_plan_id":"cebpf4jnsgd1na2vs0mg"},{"bike_id":"c97ffe62-e376-4aca-bbe8-85854d1fb9cc","system_id":"levelo_inurba_marseille","lat":43.29042,"lon":5.39975,"is_reserved":false,"is_disabled":false,"rental_uris":{"android":"levelo://app?vid=c97ffe62-e376-4aca-bbe8-85854d1fb9cc","ios":"levelo://app?vid=c97ffe62-e376-4aca-bbe8-85854d1fb9cc"},"vehicle_type_id":"4","last_reported":1730124549,"current_range_meters":6400,"station_id":"ce4bh392rcd13ifvqdm0","pricing_plan_id":"cebpf4jnsgd1na2vs0mg"},{"bike_id":"a44edfcc-14db-4264-9323-23d69fdf4003","system_id":"levelo_inurba_marseille","lat":43.27321,"lon":5.39087,"is_reserved":false,"is_disabled":false,"rental_uris":{"android":"levelo://app?vid=a44edfcc-14db-4264-9323-23d69fdf4003","ios":"levelo://app?vid=a44edfcc-14db-4264-9323-23d69fdf4003"},"vehicle_type_id":"4","last_reported":1730124549,"current_range_meters":30000,"station_id":"ce4bhgp2rcd13ifvqfe0","pricing_plan_id":"cebpf4jnsgd1na2vs0mg"},{"bike_id":"050c0c20-964b-484a-929f-60394f3b7e2a","system_id":"levelo_inurba_marseille","lat":43.28427,"lon":5.34986,"is_reserved":false,"is_disabled":false,"rental_uris":{"android":"levelo://app?vid=050c0c20-964b-484a-929f-60394f3b7e2a","ios":"levelo://app?vid=050c0c20-964b-484a-929f-60394f3b7e2a"},"vehicle_type_id":"4","last_reported":1730124549,"current_range_meters":24000,"station_id":"ce4bhbh2rcd13ifvqepg","pricing_plan_id":"cebpf4jnsgd1na2vs0mg"},{"bike_id":"676c1e6b-8b0b-4e87-ab39-73b0ea34db80","system_id":"levelo_inurba_marseille","lat":43.30919,"lon":5.36848,"is_reserved":false,"is_disabled":false,"rental_uris":{"android":"levelo://app?vid=676c1e6b-8b0b-4e87-ab39-73b0ea34db80","ios":"levelo://app?vid=676c1e6b-8b0b-4e87-ab39-73b0ea34db80"},"vehicle_type_id":"4","last_reported":1730124549,"current_range_meters":29600,"station_id":"ce4bgn92rcd13ifvqbvg","pricing_plan_id":"cebpf4jnsgd1na2vs0mg"},{"bike_id":"366d2516-3e37-43e8-97fa-e0c164097a4e","system_id":"levelo_inurba_marseille","lat":43.2885,"lon":5.39295,"is_reserved":false,"is_disabled":false,"rental_uris":{"android":"levelo://app?vid=366d2516-3e37-43e8-97fa-e0c164097a4e","ios":"levelo://app?vid=366d2516-3e37-43e8-97fa-e0c164097a4e"},"vehicle_type_id":"4","last_reported":1730124549,"current_range_meters":17200,"station_id":"ce4bh2p2rcd13ifvqdi0","pricing_plan_id":"cebpf4jnsgd1na2vs0mg"},{"bike_id":"f76b0837-cad4-4ca1-a090-0d7c5e5e0789","system_id":"levelo_inurba_marseille","lat":43.284547,"lon":5.358858,"is_reserved":false,"is_disabled":false,"rental_uris":{"android":"levelo://app?vid=f76b0837-cad4-4ca1-a090-0d7c5e5e0789","ios":"levelo://app?vid=f76b0837-cad4-4ca1-a090-0d7c5e5e0789"},"vehicle_type_id":"4","last_reported":1730124549,"current_range_meters":36000,"station_id":"ce4bhah2rcd13ifvqei0","pricing_plan_id":"cebpf4jnsgd1na2vs0mg"},{"bike_id":"870759aa-b4f1-410f-8dd7-8cce75f5dcfb","system_id":"levelo_inurba_marseille","lat":43.23149,"lon":5.4372,"is_reserved":false,"is_disabled":false,"rental_uris":{"android":"levelo://app?vid=870759aa-b4f1-410f-8dd7-8cce75f5dcfb","ios":"levelo://app?vid=870759aa-b4f1-410f-8dd7-8cce75f5dcfb"},"vehicle_type_id":"4","last_reported":1730124549,"current_range_meters":38800,"station_id":"ce4bhmp2rcd13ifvqgog","pricing_plan_id":"cebpf4jnsgd1na2vs0mg"},{"bike_id":"d8711267-9f9c-41b2-8f28-d59b2554e9c8","system_id":"levelo_inurba_marseille","lat":43.28113,"lon":5.37834,"is_reserved":false,"is_disabled":false,"rental_uris":{"android":"levelo://app?vid=d8711267-9f9c-41b2-8f28-d59b2554e9c8","ios":"levelo://app?vid=d8711267-9f9c-41b2-8f28-d59b2554e9c8"},"vehicle_type_id":"4","last_reported":1730124549,"current_range_meters":16000,"station_id":"ce4bha12rcd13ifvqee0","pricing_plan_id":"cebpf4jnsgd1na2vs0mg"},{"bike_id":"826eb7f4-7b2c-4960-b8f0-1ad2d382103e","system_id":"levelo_inurba_marseille","lat":43.27489,"lon":5.42453,"is_reserved":false,"is_disabled":false,"rental_uris":{"android":"levelo://app?vid=826eb7f4-7b2c-4960-b8f0-1ad2d382103e","ios":"levelo://app?vid=826eb7f4-7b2c-4960-b8f0-1ad2d382103e"},"vehicle_type_id":"4","last_reported":1730124549,"current_range_meters":37600,"station_id":"ce4bhn92rcd13ifvqgrg","pricing_plan_id":"cebpf4jnsgd1na2vs0mg"},{"bike_id":"7d4b1172-a098-46f1-a708-e75f61c3bf78","system_id":"levelo_inurba_marseille","lat":43.22933,"lon":5.35378,"is_reserved":false,"is_disabled":false,"rental_uris":{"android":"levelo://app?vid=7d4b1172-a098-46f1-a708-e75f61c3bf78","ios":"levelo://app?vid=7d4b1172-a098-46f1-a708-e75f61c3bf78"},"vehicle_type_id":"4","last_reported":1730124549,"current_range_meters":14400,"station_id":"cpo3532slgdg3j2ikp40","pricing_plan_id":"cebpf4jnsgd1na2vs0mg"},{"bike_id":"5790618d-de32-4a58-898a-bfa124a2426f","system_id":"levelo_inurba_marseille","lat":43.24178,"lon":5.39725,"is_reserved":false,"is_disabled":false,"rental_uris":{"android":"levelo://app?vid=5790618d-de32-4a58-898a-bfa124a2426f","ios":"levelo://app?vid=5790618d-de32-4a58-898a-bfa124a2426f"},"vehicle_type_id":"4","last_reported":1730124549,"current_range_meters":28400,"station_id":"ce4bhn12rcd13ifvqgpg","pricing_plan_id":"cebpf4jnsgd1na2vs0mg"},{"bike_id":"089c37ba-3c44-437d-be3a-8dcc8e4e5629","system_id":"levelo_inurba_marseille","lat":43.30553,"lon":5.36535,"is_reserved":false,"is_disabled":false,"rental_uris":{"android":"levelo://app?vid=089c37ba-3c44-437d-be3a-8dcc8e4e5629","ios":"levelo://app?vid=089c37ba-3c44-437d-be3a-8dcc8e4e5629"},"vehicle_type_id":"4","last_reported":1730124549,"current_range_meters":39200,"station_id":"ce4bgs12rcd13ifvqcag","pricing_plan_id":"cebpf4jnsgd1na2vs0mg"},{"bike_id":"8efee818-e28b-4264-a305-f732d1f65e91","system_id":"levelo_inurba_marseille","lat":43.29279,"lon":5.40121,"is_reserved":false,"is_disabled":false,"rental_uris":{"android":"levelo://app?vid=8efee818-e28b-4264-a305-f732d1f65e91","ios":"levelo://app?vid=8efee818-e28b-4264-a305-f732d1f65e91"},"vehicle_type_id":"4","last_reported":1730124549,"current_range_meters":39200,"station_id":"ce4bh312rcd13ifvqdk0","pricing_plan_id":"cebpf4jnsgd1na2vs0mg"},{"bike_id":"322e91e7-2437-4943-96f4-3bbddcacb574","system_id":"levelo_inurba_marseille","lat":43.27378,"lon":5.36255,"is_reserved":false,"is_disabled":false,"rental_uris":{"android":"levelo://app?vid=322e91e7-2437-4943-96f4-3bbddcacb574","ios":"levelo://app?vid=322e91e7-2437-4943-96f4-3bbddcacb574"},"vehicle_type_id":"4","last_reported":1730124549,"current_range_meters":22400,"station_id":"ce4bhbh2rcd13ifvqeo0","pricing_plan_id":"cebpf4jnsgd1na2vs0mg"},{"bike_id":"dafdc3cc-c5e0-4edc-a17f-d5ea777c784f","system_id":"levelo_inurba_marseille","lat":43.28464,"lon":5.35899,"is_reserved":false,"is_disabled":false,"rental_uris":{"android":"levelo://app?vid=dafdc3cc-c5e0-4edc-a17f-d5ea777c784f","ios":"levelo://app?vid=dafdc3cc-c5e0-4edc-a17f-d5ea777c784f"},"vehicle_type_id":"4","last_reported":1730124549,"current_range_meters":27200,"station_id":"ce4bhah2rcd13ifvqei0","pricing_plan_id":"cebpf4jnsgd1na2vs0mg"},{"bike_id":"91870cc2-668f-4717-93d3-5f58465d5cdd","system_id":"levelo_inurba_marseille","lat":43.23184,"lon":5.39993,"is_reserved":false,"is_disabled":false,"rental_uris":{"android":"levelo://app?vid=91870cc2-668f-4717-93d3-5f58465d5cdd","ios":"levelo://app?vid=91870cc2-668f-4717-93d3-5f58465d5cdd"},"vehicle_type_id":"4","last_reported":1730124549,"current_range_meters":26800,"station_id":"ce4bhn12rcd13ifvqgqg","pricing_plan_id":"cebpf4jnsgd1na2vs0mg"},{"bike_id":"cd5289ce-9e66-4976-9552-3aa1b0da909c","system_id":"levelo_inurba_marseille","lat":43.32484,"lon":5.36559,"is_reserved":false,"is_disabled":false,"rental_uris":{"android":"levelo://app?vid=cd5289ce-9e66-4976-9552-3aa1b0da909c","ios":"levelo://app?vid=cd5289ce-9e66-4976-9552-3aa1b0da909c"},"vehicle_type_id":"4","last_reported":1730124549,"current_range_meters":38800,"station_id":"ce4bhs12rcd13ifvqhvg","pricing_plan_id":"cebpf4jnsgd1na2vs0mg"},{"bike_id":"d1b7ae0f-4ec9-44a8-ab0a-8dbeb793ff7a","system_id":"levelo_inurba_marseille","lat":43.29226,"lon":5.3606,"is_reserved":false,"is_disabled":false,"rental_uris":{"android":"levelo://app?vid=d1b7ae0f-4ec9-44a8-ab0a-8dbeb793ff7a","ios":"levelo://app?vid=d1b7ae0f-4ec9-44a8-ab0a-8dbeb793ff7a"},"vehicle_type_id":"4","last_reported":1730124549,"current_range_meters":13600,"station_id":"ce4bhbh2rcd13ifvqeqg","pricing_plan_id":"cebpf4jnsgd1na2vs0mg"},{"bike_id":"d2cfb8e2-b4f5-493e-9190-4fd91f5e908d","system_id":"levelo_inurba_marseille","lat":43.33768,"lon":5.374576,"is_reserved":false,"is_disabled":false,"rental_uris":{"android":"levelo://app?vid=d2cfb8e2-b4f5-493e-9190-4fd91f5e908d","ios":"levelo://app?vid=d2cfb8e2-b4f5-493e-9190-4fd91f5e908d"},"vehicle_type_id":"4","last_reported":1730124549,"current_range_meters":34800,"station_id":"","pricing_plan_id":"cebpf4jnsgd1na2vs0mg"},{"bike_id":"a4efd330-436a-4cd4-b3d4-c25be44f7daa","system_id":"levelo_inurba_marseille","lat":43.28279,"lon":5.35057,"is_reserved":false,"is_disabled":false,"rental_uris":{"android":"levelo://app?vid=a4efd330-436a-4cd4-b3d4-c25be44f7daa","ios":"levelo://app?vid=a4efd330-436a-4cd4-b3d4-c25be44f7daa"},"vehicle_type_id":"4","last_reported":1730124549,"current_range_meters":36400,"station_id":"ce4bhbp2rcd13ifvqerg","pricing_plan_id":"cebpf4jnsgd1na2vs0mg"},{"bike_id":"2c9cd697-74f8-4a74-a83b-515ce4f148d8","system_id":"levelo_inurba_marseille","lat":43.3014,"lon":5.37422,"is_reserved":false,"is_disabled":false,"rental_uris":{"android":"levelo://app?vid=2c9cd697-74f8-4a74-a83b-515ce4f148d8","ios":"levelo://app?vid=2c9cd697-74f8-4a74-a83b-515ce4f148d8"},"vehicle_type_id":"4","last_reported":1730124549,"current_range_meters":37600,"station_id":"ce4bgs92rcd13ifvqcc0","pricing_plan_id":"cebpf4jnsgd1na2vs0mg"},{"bike_id":"6aefc397-3a15-43c7-8983-6715de7bdab5","system_id":"levelo_inurba_marseille","lat":43.308807,"lon":5.396536,"is_reserved":false,"is_disabled":false,"rental_uris":{"android":"levelo://app?vid=6aefc397-3a15-43c7-8983-6715de7bdab5","ios":"levelo://app?vid=6aefc397-3a15-43c7-8983-6715de7bdab5"},"vehicle_type_id":"4","last_reported":1730124549,"current_range_meters":16000,"station_id":"ce4bhb92rcd13ifvqen0","pricing_plan_id":"cebpf4jnsgd1na2vs0mg"},{"bike_id":"e3b4a056-8568-4cea-bef3-aee38648b932","system_id":"levelo_inurba_marseille","lat":43.29529,"lon":5.37507,"is_reserved":false,"is_disabled":false,"rental_uris":{"android":"levelo://app?vid=e3b4a056-8568-4cea-bef3-aee38648b932","ios":"levelo://app?vid=e3b4a056-8568-4cea-bef3-aee38648b932"},"vehicle_type_id":"4","last_reported":1730124549,"current_range_meters":28800,"station_id":"ce4bgkp2rcd13ifvqbmg","pricing_plan_id":"cebpf4jnsgd1na2vs0mg"},{"bike_id":"27b25d53-0d43-45f7-b36c-a08ae52b240c","system_id":"levelo_inurba_marseille","lat":43.23185,"lon":5.39987,"is_reserved":false,"is_disabled":false,"rental_uris":{"android":"levelo://app?vid=27b25d53-0d43-45f7-b36c-a08ae52b240c","ios":"levelo://app?vid=27b25d53-0d43-45f7-b36c-a08ae52b240c"},"vehicle_type_id":"4","last_reported":1730124549,"current_range_meters":38800,"station_id":"ce4bhn12rcd13ifvqgqg","pricing_plan_id":"cebpf4jnsgd1na2vs0mg"},{"bike_id":"7afc5a33-d565-4f9d-ad40-cf4345a0f4f2","system_id":"levelo_inurba_marseille","lat":43.309775,"lon":5.382502,"is_reserved":false,"is_disabled":false,"rental_uris":{"android":"levelo://app?vid=7afc5a33-d565-4f9d-ad40-cf4345a0f4f2","ios":"levelo://app?vid=7afc5a33-d565-4f9d-ad40-cf4345a0f4f2"},"vehicle_type_id":"4","last_reported":1730124549,"current_range_meters":8000,"station_id":"","pricing_plan_id":"cebpf4jnsgd1na2vs0mg"},{"bike_id":"cd5ac976-a627-4311-878d-a5e529de3f63","system_id":"levelo_inurba_marseille","lat":43.27988,"lon":5.40012,"is_reserved":false,"is_disabled":false,"rental_uris":{"android":"levelo://app?vid=cd5ac976-a627-4311-878d-a5e529de3f63","ios":"levelo://app?vid=cd5ac976-a627-4311-878d-a5e529de3f63"},"vehicle_type_id":"4","last_reported":1730124549,"current_range_meters":22000,"station_id":"ce4bho92rcd13ifvqh4g","pricing_plan_id":"cebpf4jnsgd1na2vs0mg"},{"bike_id":"9cdb2f86-e276-493d-9aac-9fa2e27d4f36","system_id":"levelo_inurba_marseille","lat":43.28558,"lon":5.39489,"is_reserved":false,"is_disabled":false,"rental_uris":{"android":"levelo://app?vid=9cdb2f86-e276-493d-9aac-9fa2e27d4f36","ios":"levelo://app?vid=9cdb2f86-e276-493d-9aac-9fa2e27d4f36"},"vehicle_type_id":"4","last_reported":1730124549,"current_range_meters":22400,"station_id":"ce4bh292rcd13ifvqdg0","pricing_plan_id":"cebpf4jnsgd1na2vs0mg"},{"bike_id":"09dababe-2eab-4007-aef4-5dc434d3949d","system_id":"levelo_inurba_marseille","lat":43.296082,"lon":5.376795,"is_reserved":false,"is_disabled":false,"rental_uris":{"android":"levelo://app?vid=09dababe-2eab-4007-aef4-5dc434d3949d","ios":"levelo://app?vid=09dababe-2eab-4007-aef4-5dc434d3949d"},"vehicle_type_id":"4","last_reported":1730124549,"current_range_meters":38400,"station_id":"ce4bgi92rcd13ifvqb90","pricing_plan_id":"cebpf4jnsgd1na2vs0mg"},{"bike_id":"929ad56f-7d2d-4ab0-9662-7cb162423c9c","system_id":"levelo_inurba_marseille","lat":43.26792,"lon":5.39421,"is_reserved":false,"is_disabled":false,"rental_uris":{"android":"levelo://app?vid=929ad56f-7d2d-4ab0-9662-7cb162423c9c","ios":"levelo://app?vid=929ad56f-7d2d-4ab0-9662-7cb162423c9c"},"vehicle_type_id":"4","last_reported":1730124549,"current_range_meters":33600,"station_id":"ce4bhh12rcd13ifvqfg0","pricing_plan_id":"cebpf4jnsgd1na2vs0mg"},{"bike_id":"65d34050-1c18-4611-afa7-c2c037b3b82c","system_id":"levelo_inurba_marseille","lat":43.30138,"lon":5.37424,"is_reserved":false,"is_disabled":false,"rental_uris":{"android":"levelo://app?vid=65d34050-1c18-4611-afa7-c2c037b3b82c","ios":"levelo://app?vid=65d34050-1c18-4611-afa7-c2c037b3b82c"},"vehicle_type_id":"4","last_reported":1730124549,"current_range_meters":38800,"station_id":"ce4bgs92rcd13ifvqcc0","pricing_plan_id":"cebpf4jnsgd1na2vs0mg"},{"bike_id":"ae3d8287-85cd-4416-80d4-5ee81f9c75d4","system_id":"levelo_inurba_marseille","lat":43.32297,"lon":5.38266,"is_reserved":false,"is_disabled":false,"rental_uris":{"android":"levelo://app?vid=ae3d8287-85cd-4416-80d4-5ee81f9c75d4","ios":"levelo://app?vid=ae3d8287-85cd-4416-80d4-5ee81f9c75d4"},"vehicle_type_id":"4","last_reported":1730124549,"current_range_meters":27600,"station_id":"ce4bhr12rcd13ifvqhqg","pricing_plan_id":"cebpf4jnsgd1na2vs0mg"},{"bike_id":"40fecb57-875e-4cec-a03e-77869c548771","system_id":"levelo_inurba_marseille","lat":43.29028,"lon":5.38136,"is_reserved":false,"is_disabled":false,"rental_uris":{"android":"levelo://app?vid=40fecb57-875e-4cec-a03e-77869c548771","ios":"levelo://app?vid=40fecb57-875e-4cec-a03e-77869c548771"},"vehicle_type_id":"4","last_reported":1730124549,"current_range_meters":31200,"station_id":"ce4bh4p2rcd13ifvqe1g","pricing_plan_id":"cebpf4jnsgd1na2vs0mg"},{"bike_id":"e30545c0-a68b-47eb-a9ed-d8f623fdc517","system_id":"levelo_inurba_marseille","lat":43.27222,"lon":5.39171,"is_reserved":false,"is_disabled":false,"rental_uris":{"android":"levelo://app?vid=e30545c0-a68b-47eb-a9ed-d8f623fdc517","ios":"levelo://app?vid=e30545c0-a68b-47eb-a9ed-d8f623fdc517"},"vehicle_type_id":"4","last_reported":1730124549,"current_range_meters":27200,"station_id":"ce4bhhp2rcd13ifvqfm0","pricing_plan_id":"cebpf4jnsgd1na2vs0mg"},{"bike_id":"7ae92c2a-9fab-479c-9dfd-185c63b63225","system_id":"levelo_inurba_marseille","lat":43.2909,"lon":5.38126,"is_reserved":false,"is_disabled":false,"rental_uris":{"android":"levelo://app?vid=7ae92c2a-9fab-479c-9dfd-185c63b63225","ios":"levelo://app?vid=7ae92c2a-9fab-479c-9dfd-185c63b63225"},"vehicle_type_id":"4","last_reported":1730124549,"current_range_meters":4400,"station_id":"ce4bh512rcd13ifvqe2g","pricing_plan_id":"cebpf4jnsgd1na2vs0mg"},{"bike_id":"7ba3d478-84b5-40d0-ace9-812601ffd74e","system_id":"levelo_inurba_marseille","lat":43.31499,"lon":5.37295,"is_reserved":false,"is_disabled":false,"rental_uris":{"android":"levelo://app?vid=7ba3d478-84b5-40d0-ace9-812601ffd74e","ios":"levelo://app?vid=7ba3d478-84b5-40d0-ace9-812601ffd74e"},"vehicle_type_id":"4","last_reported":1730124549,"current_range_meters":12000,"station_id":"ce4bgt12rcd13ifvqcd0","pricing_plan_id":"cebpf4jnsgd1na2vs0mg"},{"bike_id":"1458cbb6-f748-4b8d-a665-d8780d0eb1dd","system_id":"levelo_inurba_marseille","lat":43.293518,"lon":5.3716,"is_reserved":false,"is_disabled":false,"rental_uris":{"android":"levelo://app?vid=1458cbb6-f748-4b8d-a665-d8780d0eb1dd","ios":"levelo://app?vid=1458cbb6-f748-4b8d-a665-d8780d0eb1dd"},"vehicle_type_id":"4","last_reported":1730124549,"current_range_meters":12400,"station_id":"ce4bhb92rcd13ifvqen0","pricing_plan_id":"cebpf4jnsgd1na2vs0mg"},{"bike_id":"8c715a93-36cb-4a15-9c2d-9e088d5a163d","system_id":"levelo_inurba_marseille","lat":43.29355,"lon":5.37439,"is_reserved":false,"is_disabled":false,"rental_uris":{"android":"levelo://app?vid=8c715a93-36cb-4a15-9c2d-9e088d5a163d","ios":"levelo://app?vid=8c715a93-36cb-4a15-9c2d-9e088d5a163d"},"vehicle_type_id":"4","last_reported":1730124549,"current_range_meters":38800,"station_id":"","pricing_plan_id":"cebpf4jnsgd1na2vs0mg"},{"bike_id":"227938b9-5f76-4cb3-b33b-f281515da800","system_id":"levelo_inurba_marseille","lat":43.30647,"lon":5.40115,"is_reserved":false,"is_disabled":false,"rental_uris":{"android":"levelo://app?vid=227938b9-5f76-4cb3-b33b-f281515da800","ios":"levelo://app?vid=227938b9-5f76-4cb3-b33b-f281515da800"},"vehicle_type_id":"4","last_reported":1730124549,"current_range_meters":30400,"station_id":"ce4bgkp2rcd13ifvqbmg","pricing_plan_id":"cebpf4jnsgd1na2vs0mg"},{"bike_id":"f16460dc-69aa-4447-812d-6cde0ab94e4b","system_id":"levelo_inurba_marseille","lat":43.25111,"lon":5.40327,"is_reserved":false,"is_disabled":false,"rental_uris":{"android":"levelo://app?vid=f16460dc-69aa-4447-812d-6cde0ab94e4b","ios":"levelo://app?vid=f16460dc-69aa-4447-812d-6cde0ab94e4b"},"vehicle_type_id":"4","last_reported":1730124549,"current_range_meters":11200,"station_id":"ce4bhlh2rcd13ifvqgig","pricing_plan_id":"cebpf4jnsgd1na2vs0mg"},{"bike_id":"b55e0104-612e-47db-87f7-333309a69e4e","system_id":"levelo_inurba_marseille","lat":43.2738,"lon":5.36263,"is_reserved":false,"is_disabled":false,"rental_uris":{"android":"levelo://app?vid=b55e0104-612e-47db-87f7-333309a69e4e","ios":"levelo://app?vid=b55e0104-612e-47db-87f7-333309a69e4e"},"vehicle_type_id":"4","last_reported":1730124549,"current_range_meters":18000,"station_id":"ce4bhbh2rcd13ifvqeo0","pricing_plan_id":"cebpf4jnsgd1na2vs0mg"},{"bike_id":"a7f5f251-20df-4bb7-a9db-59d150b81b51","system_id":"levelo_inurba_marseille","lat":43.292255,"lon":5.360715,"is_reserved":false,"is_disabled":false,"rental_uris":{"android":"levelo://app?vid=a7f5f251-20df-4bb7-a9db-59d150b81b51","ios":"levelo://app?vid=a7f5f251-20df-4bb7-a9db-59d150b81b51"},"vehicle_type_id":"4","last_reported":1730124549,"current_range_meters":38800,"station_id":"ce4bhbh2rcd13ifvqeqg","pricing_plan_id":"cebpf4jnsgd1na2vs0mg"},{"bike_id":"72a9bd45-1191-4625-8800-9f85fd938b73","system_id":"levelo_inurba_marseille","lat":43.30599,"lon":5.37218,"is_reserved":false,"is_disabled":false,"rental_uris":{"android":"levelo://app?vid=72a9bd45-1191-4625-8800-9f85fd938b73","ios":"levelo://app?vid=72a9bd45-1191-4625-8800-9f85fd938b73"},"vehicle_type_id":"4","last_reported":1730124549,"current_range_meters":38400,"station_id":"ce4bgqh2rcd13ifvqc4g","pricing_plan_id":"cebpf4jnsgd1na2vs0mg"},{"bike_id":"19bea8bd-d50c-4e26-a758-db05e896facf","system_id":"levelo_inurba_marseille","lat":43.30554,"lon":5.36549,"is_reserved":false,"is_disabled":false,"rental_uris":{"android":"levelo://app?vid=19bea8bd-d50c-4e26-a758-db05e896facf","ios":"levelo://app?vid=19bea8bd-d50c-4e26-a758-db05e896facf"},"vehicle_type_id":"4","last_reported":1730124549,"current_range_meters":24000,"station_id":"ce4bgs12rcd13ifvqcag","pricing_plan_id":"cebpf4jnsgd1na2vs0mg"},