{"last_updated":1743858926,"ttl":60,"version":"2.2","data":{"bikes":[{"bike_id":"54413eb5-0241-4fb1-ab53-9bb731225068","system_id":"levelo_inurba_marseille","lat":43.29864,"lon":5.362672,"is_reserved":false,"is_disabled":false,"rental_uris":{"android":"levelo://app?vid=54413eb5-0241-4fb1-ab53-9bb731225068","ios":"levelo://app?vid=54413eb5-0241-4fb1-ab53-9bb731225068"},"vehicle_type_id":"4","last_reported":1743858926,"current_range_meters":2800,"station_id":"ce4bgpp2rcd13ifvqc3g","pricing_plan_id":"cebpf4jnsgd1na2vs0mg"},{"bike_id":"4ca26cec-0d0b-4d38-b77d-a3fd212e5d2b","system_id":"levelo_inurba_marseille","lat":43.2993,"lon":5.36551,"is_reserved":false,"is_disabled":false,"rental_uris":{"android":"levelo://app?vid=4ca26cec-0d0b-4d38-b77d-a3fd212e5d2b","ios":"levelo://app?vid=4ca26cec-0d0b-4d38-b77d-a3fd212e5d2b"},"vehicle_type_id":"4","last_reported":1743858926,"current_range_meters":2800,"station_id":"ce4bgm92rcd13ifvqbr0","pricing_plan_id":"cebpf4jnsgd1na2vs0mg"},{"bike_id":"0e88f134-2423-4b08-bc3c-5f7a38937552","system_id":"levelo_inurba_marseille","lat":43.23192,"lon":5.3998,"is_reserved":false,"is_disabled":false,"rental_uris":{"android":"levelo://app?vid=0e88f134-2423-4b08-bc3c-5f7a38937552","ios":"levelo://app?vid=0e88f134-2423-4b08-bc3c-5f7a38937552"},"vehicle_type_id":"4","last_reported":1743858926,"current_range_meters":2800,"station_id":"ce4bhn12rcd13ifvqgqg","pricing_plan_id":"cebpf4jnsgd1na2vs0mg"},{"bike_id":"b7f7098b-d672-4e1d-9043-751c52dda260","system_id":"levelo_inurba_marseille","lat":43.2175,"lon":5.3461,"is_reserved":false,"is_disabled":false,"rental_uris":{"android":"levelo://app?vid=b7f7098b-d672-4e1d-9043-751c52dda260","ios":"levelo://app?vid=b7f7098b-d672-4e1d-9043-751c52dda260"},"vehicle_type_id":"4","last_reported":1743858926,"current_range_meters":2800,"station_id":"","pricing_plan_id":"cebpf4jnsgd1na2vs0mg"},{"bike_id":"8c6d08ff-8040-47c9-aafa-a03cd027068d","system_id":"levelo_inurba_marseille","lat":43.27971,"lon":5.38742,"is_reserved":false,"is_disabled":false,"rental_uris":{"android":"levelo://app?vid=8c6d08ff-8040-47c9-aafa-a03cd027068d","ios":"levelo://app?vid=8c6d08ff-8040-47c9-aafa-a03cd027068d"},"vehicle_type_id":"4","last_reported":1743858926,"current_range_meters":2800,"station_id":"ce4bhg12rcd13ifvqf80","pricing_plan_id":"cebpf4jnsgd1na2vs0mg"},{"bike_id":"7015708c-465e-4d48-b955-c1c765ed4164","system_id":"levelo_inurba_marseille","lat":43.255,"lon":5.37653,"is_reserved":false,"is_disabled":false,"rental_uris":{"android":"levelo://app?vid=7015708c-465e-4d48-b955-c1c765ed4164","ios":"levelo://app?vid=7015708c-465e-4d48-b955-c1c765ed4164"},"vehicle_type_id":"4","last_reported":1743858926,"current_range_meters":3200,"station_id":"ce4bhh12rcd13ifvqff0","pricing_plan_id":"cebpf4jnsgd1na2vs0mg"},{"bike_id":"973441b7-8ad6-4982-8aad-ce5943fb3a2b","system_id":"levelo_inurba_marseille","lat":43.29278,"lon":5.36851,"is_reserved":false,"is_disabled":false,"rental_uris":{"android":"levelo://app?vid=973441b7-8ad6-4982-8aad-ce5943fb3a2b","ios":"levelo://app?vid=973441b7-8ad6-4982-8aad-ce5943fb3a2b"},"vehicle_type_id":"4","last_reported":1743858926,"current_range_meters":3200,"station_id":"ce4bhbp2rcd13ifvqesg","pricing_plan_id":"cebpf4jnsgd1na2vs0mg"},{"bike_id":"dc63fabf-8ce8-44e4-8a18-22cd8bbb3819","system_id":"levelo_inurba_marseille","lat":43.31724,"lon":5.42405,"is_reserved":false,"is_disabled":false,"rental_uris":{"android":"levelo://app?vid=dc63fabf-8ce8-44e4-8a18-22cd8bbb3819","ios":"levelo://app?vid=dc63fabf-8ce8-44e4-8a18-22cd8bbb3819"},"vehicle_type_id":"4","last_reported":1743858926,"current_range_meters":3200,"station_id":"ce4bhp92rcd13ifvqhbg","pricing_plan_id":"cebpf4jnsgd1na2vs0mg"},{"bike_id":"cf34c6cb-0878-4746-baf7-ecf4f78c9482","system_id":"levelo_inurba_marseille","lat":43.29086,"lon":5.38143,"is_reserved":false,"is_disabled":false,"rental_uris":{"android":"levelo://app?vid=cf34c6cb-0878-4746-baf7-ecf4f78c9482","ios":"levelo://app?vid=cf34c6cb-0878-4746-baf7-ecf4f78c9482"},"vehicle_type_id":"4","last_reported":1743858926,"current_range_meters":2800,"station_id":"ce4bh512rcd13ifvqe2g","pricing_plan_id":"cebpf4jnsgd1na2vs0mg"},{"bike_id":"6e7e8bd0-971a-4bf5-a521-0d1053f36753","system_id":"levelo_inurba_marseille","lat":43.31074,"lon":5.42443,"is_reserved":false,"is_disabled":true,"rental_uris":{"android":"levelo://app?vid=6e7e8bd0-971a-4bf5-a521-0d1053f36753","ios":"levelo://app?vid=6e7e8bd0-971a-4bf5-a521-0d1053f36753"},"vehicle_type_id":"4","last_reported":1743858926,"current_range_meters":3200,"station_id":"ce4bhp92rcd13ifvqhag","pricing_plan_id":"cebpf4jnsgd1na2vs0mg"},{"bike_id":"11a32b33-303c-4930-8812-9562abcfb65e","system_id":"levelo_inurba_marseille","lat":43.28443,"lon":5.39178,"is_reserved":false,"is_disabled":false,"rental_uris":{"android":"levelo://app?vid=11a32b33-303c-4930-8812-9562abcfb65e","ios":"levelo://app?vid=11a32b33-303c-4930-8812-9562abcfb65e"},"vehicle_type_id":"4","last_reported":1743858926,"current_range_meters":3600,"station_id":"ce4bhoh2rcd13ifvqh5g","pricing_plan_id":"cebpf4jnsgd1na2vs0mg"},{"bike_id":"012431e6-b505-4622-8b67-2b3817bc6939","system_id":"levelo_inurba_marseille","lat":43.23144,"lon":5.43718,"is_reserved":false,"is_disabled":false,"rental_uris":{"android":"levelo://app?vid=012431e6-b505-4622-8b67-2b3817bc6939","ios":"levelo://app?vid=012431e6-b505-4622-8b67-2b3817bc6939"},"vehicle_type_id":"4","last_reported":1743858926,"current_range_meters":3600,"station_id":"ce4bhmp2rcd13ifvqgog","pricing_plan_id":"cebpf4jnsgd1na2vs0mg"},{"bike_id":"487f0c28-5722-49b7-9066-0644bb2c7943","system_id":"levelo_inurba_marseille","lat":43.2417,"lon":5.36399,"is_reserved":false,"is_disabled":false,"rental_uris":{"android":"levelo://app?vid=487f0c28-5722-49b7-9066-0644bb2c7943","ios":"levelo://app?vid=487f0c28-5722-49b7-9066-0644bb2c7943"},"vehicle_type_id":"4","last_reported":1743858926,"current_range_meters":3600,"station_id":"cpo36qri1sfpv3e86is0","pricing_plan_id":"cebpf4jnsgd1na2vs0mg"},{"bike_id":"236cdeee-12da-416d-b789-cf80f5556c29","system_id":"levelo_inurba_marseille","lat":43.21756,"lon":5.34611,"is_reserved":false,"is_disabled":false,"rental_uris":{"android":"levelo://app?vid=236cdeee-12da-416d-b789-cf80f5556c29","ios":"levelo://app?vid=236cdeee-12da-416d-b789-cf80f5556c29"},"vehicle_type_id":"4","last_reported":1743858926,"current_range_meters":4000,"station_id":"st_cvj6r9ubvosntc0bgbag","pricing_plan_id":"cebpf4jnsgd1na2vs0mg"},{"bike_id":"c4919043-bd97-47ce-a9fd-a5dccb059283","system_id":"levelo_inurba_marseille","lat":43.286098,"lon":5.370689,"is_reserved":false,"is_disabled":false,"rental_uris":{"android":"levelo://app?vid=c4919043-bd97-47ce-a9fd-a5dccb059283","ios":"levelo://app?vid=c4919043-bd97-47ce-a9fd-a5dccb059283"},"vehicle_type_id":"4","last_reported":1743858926,"current_range_meters":4000,"station_id":"ce4bhbh2rcd13ifvqeo0","pricing_plan_id":"cebpf4jnsgd1na2vs0mg"},{"bike_id":"048c7bb0-9cf7-45ce-a729-3997832dc14f","system_id":"levelo_inurba_marseille","lat":43.2439,"lon":5.37059,"is_reserved":false,"is_disabled":false,"rental_uris":{"android":"levelo://app?vid=048c7bb0-9cf7-45ce-a729-3997832dc14f","ios":"levelo://app?vid=048c7bb0-9cf7-45ce-a729-3997832dc14f"},"vehicle_type_id":"4","last_reported":1743858926,"current_range_meters":4000,"station_id":"ce4bhhh2rcd13ifvqfk0","pricing_plan_id":"cebpf4jnsgd1na2vs0mg"},{"bike_id":"af275c4a-446c-4e76-882c-ba9548fce27f","system_id":"levelo_inurba_marseille","lat":43.31119,"lon":5.37768,"is_reserved":false,"is_disabled":false,"rental_uris":{"android":"levelo://app?vid=af275c4a-446c-4e76-882c-ba9548fce27f","ios":"levelo://app?vid=af275c4a-446c-4e76-882c-ba9548fce27f"},"vehicle_type_id":"4","last_reported":1743858926,"current_range_meters":4000,"station_id":"ce4bgt92rcd13ifvqcg0","pricing_plan_id":"cebpf4jnsgd1na2vs0mg"},{"bike_id":"4421fa9b-e90e-4c56-9544-a47059c6a7b6","system_id":"levelo_inurba_marseille","lat":43.31487,"lon":5.3731,"is_reserved":false,"is_disabled":false,"rental_uris":{"android":"levelo://app?vid=4421fa9b-e90e-4c56-9544-a47059c6a7b6","ios":"levelo://app?vid=4421fa9b-e90e-4c56-9544-a47059c6a7b6"},"vehicle_type_id":"4","last_reported":1743858926,"current_range_meters":4000,"station_id":"ce4bgt12rcd13ifvqcd0","pricing_plan_id":"cebpf4jnsgd1na2vs0mg"},{"bike_id":"9e7e25b2-a9b2-469c-a691-1c3deb34a9e9","system_id":"levelo_inurba_marseille","lat":43.21189,"lon":5.35072,"is_reserved":false,"is_disabled":false,"rental_uris":{"android":"levelo://app?vid=9e7e25b2-a9b2-469c-a691-1c3deb34a9e9","ios":"levelo://app?vid=9e7e25b2-a9b2-469c-a691-1c3deb34a9e9"},"vehicle_type_id":"4","last_reported":1743858926,"current_range_meters":4400,"station_id":"st_cvj6sg6p6f1abm77japg","pricing_plan_id":"cebpf4jnsgd1na2vs0mg"},{"bike_id":"7435567f-b5c3-4ede-ab20-5915249ece85","system_id":"levelo_inurba_marseille","lat":43.28099,"lon":5.37853,"is_reserved":false,"is_disabled":false,"rental_uris":{"android":"levelo://app?vid=7435567f-b5c3-4ede-ab20-5915249ece85","ios":"levelo://app?vid=7435567f-b5c3-4ede-ab20-5915249ece85"},"vehicle_type_id":"4","last_reported":1743858926,"current_range_meters":4400,"station_id":"ce4bha12rcd13ifvqee0","pricing_plan_id":"cebpf4jnsgd1na2vs0mg"},{"bike_id":"7654dfdb-2d49-4899-b1c4-60867904088e","system_id":"levelo_inurba_marseille","lat":43.24395,"lon":5.37064,"is_reserved":false,"is_disabled":false,"rental_uris":{"android":"levelo://app?vid=7654dfdb-2d49-4899-b1c4-60867904088e","ios":"levelo://app?vid=7654dfdb-2d49-4899-b1c4-60867904088e"},"vehicle_type_id":"4","last_reported":1743858926,"current_range_meters":4400,"station_id":"ce4bhhh2rcd13ifvqfk0","pricing_plan_id":"cebpf4jnsgd1na2vs0mg"},{"bike_id":"0d4d6691-b3a3-49d8-8eac-677370bcc341","system_id":"levelo_inurba_marseille","lat":43.28163,"lon":5.4262,"is_reserved":false,"is_disabled":false,"rental_uris":{"android":"levelo://app?vid=0d4d6691-b3a3-49d8-8eac-677370bcc341","ios":"levelo://app?vid=0d4d6691-b3a3-49d8-8eac-677370bcc341"},"vehicle_type_id":"4","last_reported":1743858926,"current_range_meters":4400,"station_id":"ce4bhnh2rcd13ifvqgug","pricing_plan_id":"cebpf4jnsgd1na2vs0mg"},{"bike_id":"5809aa2a-6e8b-4396-909a-e4f6a1a76cf5","system_id":"levelo_inurba_marseille","lat":43.23965,"lon":5.36615,"is_reserved":false,"is_disabled":false,"rental_uris":{"android":"levelo://app?vid=5809aa2a-6e8b-4396-909a-e4f6a1a76cf5","ios":"levelo://app?vid=5809aa2a-6e8b-4396-909a-e4f6a1a76cf5"},"vehicle_type_id":"4","last_reported":1743858926,"current_range_meters":4400,"station_id":"ce4bhi12rcd13ifvqfp0","pricing_plan_id":"cebpf4jnsgd1na2vs0mg"},{"bike_id":"fac02520-3a22-4df3-8b57-0fb2bef19867","system_id":"levelo_inurba_marseille","lat":43.21743,"lon":5.34609,"is_reserved":false,"is_disabled":false,"rental_uris":{"android":"levelo://app?vid=fac02520-3a22-4df3-8b57-0fb2bef19867","ios":"levelo://app?vid=fac02520-3a22-4df3-8b57-0fb2bef19867"},"vehicle_type_id":"4","last_reported":1743858926,"current_range_meters":4400,"station_id":"st_cvj6r9ubvosntc0bgbag","pricing_plan_id":"cebpf4jnsgd1na2vs0mg"},{"bike_id":"86c58718-be5a-4586-8d34-fe5f408f4234","system_id":"levelo_inurba_marseille","lat":43.29364,"lon":5.37841,"is_reserved":false,"is_disabled":false,"rental_uris":{"android":"levelo://app?vid=86c58718-be5a-4586-8d34-fe5f408f4234","ios":"levelo://app?vid=86c58718-be5a-4586-8d34-fe5f408f4234"},"vehicle_type_id":"4","last_reported":1743858926,"current_range_meters":4400,"station_id":"ce4bgjh2rcd13ifvqbf0","pricing_plan_id":"cebpf4jnsgd1na2vs0mg"},{"bike_id":"fc23420b-dce1-4463-b823-0eaa9df918ba","system_id":"levelo_inurba_marseille","lat":43.2319,"lon":5.3556,"is_reserved":false,"is_disabled":false,"rental_uris":{"android":"levelo://app?vid=fc23420b-dce1-4463-b823-0eaa9df918ba","ios":"levelo://app?vid=fc23420b-dce1-4463-b823-0eaa9df918ba"},"vehicle_type_id":"4","last_reported":1743858926,"current_range_meters":4400,"station_id":"ce4bhu92rcd13ifvqi70","pricing_plan_id":"cebpf4jnsgd1na2vs0mg"},{"bike_id":"6e87c809-e7f7-4476-9e05-9a388885d167","system_id":"levelo_inurba_marseille","lat":43.29366,"lon":5.37859,"is_reserved":false,"is_disabled":false,"rental_uris":{"android":"levelo://app?vid=6e87c809-e7f7-4476-9e05-9a388885d167","ios":"levelo://app?vid=6e87c809-e7f7-4476-9e05-9a388885d167"},"vehicle_type_id":"4","last_reported":1743858926,"current_range_meters":4800,"station_id":"ce4bgjh2rcd13ifvqbf0","pricing_plan_id":"cebpf4jnsgd1na2vs0mg"},{"bike_id":"07993867-b0c3-417d-b4fe-1444b5fd236c","system_id":"levelo_inurba_marseille","lat":43.28267,"lon":5.35062,"is_reserved":false,"is_disabled":false,"rental_uris":{"android":"levelo://app?vid=07993867-b0c3-417d-b4fe-1444b5fd236c","ios":"levelo://app?vid=07993867-b0c3-417d-b4fe-1444b5fd236c"},"vehicle_type_id":"4","last_reported":1743858926,"current_range_meters":4800,"station_id":"ce4bhbp2rcd13ifvqerg","pricing_plan_id":"cebpf4jnsgd1na2vs0mg"},{"bike_id":"fed25cf4-7be8-408e-848d-a778b08cb7e9","system_id":"levelo_inurba_marseille","lat":43.29893,"lon":5.43673,"is_reserved":false,"is_disabled":false,"rental_uris":{"android":"levelo://app?vid=fed25cf4-7be8-408e-848d-a778b08cb7e9","ios":"levelo://app?vid=fed25cf4-7be8-408e-848d-a778b08cb7e9"},"vehicle_type_id":"4","last_reported":1743858926,"current_range_meters":4800,"station_id":"ce4bhpp2rcd13ifvqhfg","pricing_plan_id":"cebpf4jnsgd1na2vs0mg"},{"bike_id":"5874ff94-7902-4792-805c-de69458b323e","system_id":"levelo_inurba_marseille","lat":43.25497,"lon":5.37641,"is_reserved":false,"is_disabled":false,"rental_uris":{"android":"levelo://app?vid=5874ff94-7902-4792-805c-de69458b323e","ios":"levelo://app?vid=5874ff94-7902-4792-805c-de69458b323e"},"vehicle_type_id":"4","last_reported":1743858926,"current_range_meters":4800,"station_id":"ce4bhh12rcd13ifvqff0","pricing_plan_id":"cebpf4jnsgd1na2vs0mg"},{"bike_id":"5d2ab57d-6f8e-4878-bbe5-3ba6ce7c591c","system_id":"levelo_inurba_marseille","lat":43.25579,"lon":5.38244,"is_reserved":false,"is_disabled":false,"rental_uris":{"android":"levelo://app?vid=5d2ab57d-6f8e-4878-bbe5-3ba6ce7c591c","ios":"levelo://app?vid=5d2ab57d-6f8e-4878-bbe5-3ba6ce7c591c"},"vehicle_type_id":"4","last_reported":1743858926,"current_range_meters":6000,"station_id":"ce4bhih2rcd13ifvqfs0","pricing_plan_id":"cebpf4jnsgd1na2vs0mg"},{"bike_id":"3472bbba-11ac-4918-843b-97b8b52368c4","system_id":"levelo_inurba_marseille","lat":43.279938,"lon":5.400196,"is_reserved":false,"is_disabled":false,"rental_uris":{"android":"levelo://app?vid=3472bbba-11ac-4918-843b-97b8b52368c4","ios":"levelo://app?vid=3472bbba-11ac-4918-843b-97b8b52368c4"},"vehicle_type_id":"4","last_reported":1743858926,"current_range_meters":6000,"station_id":"ce4bho92rcd13ifvqh4g","pricing_plan_id":"cebpf4jnsgd1na2vs0mg"},{"bike_id":"9187d45d-e736-4aff-8915-88d5ba2fdf0d","system_id":"levelo_inurba_marseille","lat":43.26499,"lon":5.39549,"is_reserved":false,"is_disabled":false,"rental_uris":{"android":"levelo://app?vid=9187d45d-e736-4aff-8915-88d5ba2fdf0d","ios":"levelo://app?vid=9187d45d-e736-4aff-8915-88d5ba2fdf0d"},"vehicle_type_id":"4","last_reported":1743858926,"current_range_meters":6000,"station_id":"ce4bhi12rcd13ifvqfq0","pricing_plan_id":"cebpf4jnsgd1na2vs0mg"},{"bike_id":"9385f8df-bb97-46f2-b682-8a9f601ba622","system_id":"levelo_inurba_marseille","lat":43.30942,"lon":5.39034,"is_reserved":false,"is_disabled":false,"rental_uris":{"android":"levelo://app?vid=9385f8df-bb97-46f2-b682-8a9f601ba622","ios":"levelo://app?vid=9385f8df-bb97-46f2-b682-8a9f601ba622"},"vehicle_type_id":"4","last_reported":1743858926,"current_range_meters":6000,"station_id":"ce4bgup2rcd13ifvqco0","pricing_plan_id":"cebpf4jnsgd1na2vs0mg"},{"bike_id":"2b829cb4-e166-4fe2-b281-85746037f1ad","system_id":"levelo_inurba_marseille","lat":43.30374,"lon":5.42492,"is_reserved":false,"is_disabled":false,"rental_uris":{"android":"levelo://app?vid=2b829cb4-e166-4fe2-b281-85746037f1ad","ios":"levelo://app?vid=2b829cb4-e166-4fe2-b281-85746037f1ad"},"vehicle_type_id":"4","last_reported":1743858926,"current_range_meters":6400,"station_id":"ce4bhoh2rcd13ifvqh6g","pricing_plan_id":"cebpf4jnsgd1na2vs0mg"},{"bike_id":"b6e73fff-ccbc-4536-93d2-185678c34449","system_id":"levelo_inurba_marseille","lat":43.21189,"lon":5.35079,"is_reserved":false,"is_disabled":false,"rental_uris":{"android":"levelo://app?vid=b6e73fff-ccbc-4536-93d2-185678c34449","ios":"levelo://app?vid=b6e73fff-ccbc-4536-93d2-185678c34449"},"vehicle_type_id":"4","last_reported":1743858926,"current_range_meters":6400,"station_id":"st_cvj6sg6p6f1abm77japg","pricing_plan_id":"cebpf4jnsgd1na2vs0mg"},{"bike_id":"467e897b-8771-4fc2-ba15-2b1eecd4aa33","system_id":"levelo_inurba_marseille","lat":43.29853,"lon":5.36275,"is_reserved":false,"is_disabled":false,"rental_uris":{"android":"levelo://app?vid=467e897b-8771-4fc2-ba15-2b1eecd4aa33","ios":"levelo://app?vid=467e897b-8771-4fc2-ba15-2b1eecd4aa33"},"vehicle_type_id":"4","last_reported":1743858926,"current_range_meters":6400,"station_id":"ce4bgpp2rcd13ifvqc3g","pricing_plan_id":"cebpf4jnsgd1na2vs0mg"},{"bike_id":"47164e5b-e70d-4765-ba38-0959d8d54ad5","system_id":"levelo_inurba_marseille","lat":43.26026,"lon":5.37553,"is_reserved":false,"is_disabled":false,"rental_uris":{"android":"levelo://app?vid=47164e5b-e70d-4765-ba38-0959d8d54ad5","ios":"levelo://app?vid=47164e5b-e70d-4765-ba38-0959d8d54ad5"},"vehicle_type_id":"4","last_reported":1743858926,"current_range_meters":6400,"station_id":"ce4bhgh2rcd13ifvqfa0","pricing_plan_id":"cebpf4jnsgd1na2vs0mg"},{"bike_id":"97d202c2-9cff-41c6-89c4-4dafb0f1f874","system_id":"levelo_inurba_marseille","lat":43.284119,"lon":5.349781,"is_reserved":false,"is_disabled":false,"rental_uris":{"android":"levelo://app?vid=97d202c2-9cff-41c6-89c4-4dafb0f1f874","ios":"levelo://app?vid=97d202c2-9cff-41c6-89c4-4dafb0f1f874"},"vehicle_type_id":"4","last_reported":1743858926,"current_range_meters":6000,"station_id":"ce4bhbh2rcd13ifvqepg","pricing_plan_id":"cebpf4jnsgd1na2vs0mg"},{"bike_id":"f81cd157-3d14-4bed-baa9-9885f3f9f9b4","system_id":"levelo_inurba_marseille","lat":43.281545,"lon":5.42642,"is_reserved":false,"is_disabled":false,"rental_uris":{"android":"levelo://app?vid=f81cd157-3d14-4bed-baa9-9885f3f9f9b4","ios":"levelo://app?vid=f81cd157-3d14-4bed-baa9-9885f3f9f9b4"},"vehicle_type_id":"4","last_reported":1743858926,"current_range_meters":6400,"station_id":"ce4bhnh2rcd13ifvqgug","pricing_plan_id":"cebpf4jnsgd1na2vs0mg"},{"bike_id":"672d1812-d793-4d5a-b8a2-a6032bcff278","system_id":"levelo_inurba_marseille","lat":43.2827,"lon":5.35078,"is_reserved":false,"is_disabled":false,"rental_uris":{"android":"levelo://app?vid=672d1812-d793-4d5a-b8a2-a6032bcff278","ios":"levelo://app?vid=672d1812-d793-4d5a-b8a2-a6032bcff278"},"vehicle_type_id":"4","last_reported":1743858926,"current_range_meters":6800,"station_id":"ce4bhbp2rcd13ifvqerg","pricing_plan_id":"cebpf4jnsgd1na2vs0mg"},{"bike_id":"263a9c05-622f-47a5-b753-3b4374503a15","system_id":"levelo_inurba_marseille","lat":43.28273,"lon":5.35066,"is_reserved":false,"is_disabled":false,"rental_uris":{"android":"levelo://app?vid=263a9c05-622f-47a5-b753-3b4374503a15","ios":"levelo://app?vid=263a9c05-622f-47a5-b753-3b4374503a15"},"vehicle_type_id":"4","last_reported":1743858926,"current_range_meters":6800,"station_id":"ce4bhbp2rcd13ifvqerg","pricing_plan_id":"cebpf4jnsgd1na2vs0mg"},{"bike_id":"89382623-7b7f-40e8-a15b-8193cd59c918","system_id":"levelo_inurba_marseille","lat":43.23202,"lon":5.3555,"is_reserved":false,"is_disabled":false,"rental_uris":{"android":"levelo://app?vid=89382623-7b7f-40e8-a15b-8193cd59c918","ios":"levelo://app?vid=89382623-7b7f-40e8-a15b-8193cd59c918"},"vehicle_type_id":"4","last_reported":1743858926,"current_range_meters":6800,"station_id":"ce4bhu92rcd13ifvqi70","pricing_plan_id":"cebpf4jnsgd1na2vs0mg"},{"bike_id":"85569c5e-792a-4809-8948-6b3410ae7c98","system_id":"levelo_inurba_marseille","lat":43.24697,"lon":5.41196,"is_reserved":false,"is_disabled":false,"rental_uris":{"android":"levelo://app?vid=85569c5e-792a-4809-8948-6b3410ae7c98","ios":"levelo://app?vid=85569c5e-792a-4809-8948-6b3410ae7c98"},"vehicle_type_id":"4","last_reported":1743858926,"current_range_meters":6800,"station_id":"","pricing_plan_id":"cebpf4jnsgd1na2vs0mg"},{"bike_id":"0ac2c4ba-c840-4d70-97c0-cd2bea57af08","system_id":"levelo_inurba_marseille","lat":43.24398,"lon":5.37075,"is_reserved":false,"is_disabled":false,"rental_uris":{"android":"levelo://app?vid=0ac2c4ba-c840-4d70-97c0-cd2bea57af08","ios":"levelo://app?vid=0ac2c4ba-c840-4d70-97c0-cd2bea57af08"},"vehicle_type_id":"4","last_reported":1743858926,"current_range_meters":6800,"station_id":"ce4bhhh2rcd13ifvqfk0","pricing_plan_id":"cebpf4jnsgd1na2vs0mg"},{"bike_id":"00bc9a3e-81a6-48a1-a63d-e40981713366","system_id":"levelo_inurba_marseille","lat":43.28417,"lon":5.34986,"is_reserved":false,"is_disabled":false,"rental_uris":{"android":"levelo://app?vid=00bc9a3e-81a6-48a1-a63d-e40981713366","ios":"levelo://app?vid=00bc9a3e-81a6-48a1-a63d-e40981713366"},"vehicle_type_id":"4","last_reported":1743858926,"current_range_meters":6800,"station_id":"ce4bhbh2rcd13ifvqepg","pricing_plan_id":"cebpf4jnsgd1na2vs0mg"},{"bike_id":"82cfa9f6-cbaf-4f93-a9f4-488eade71681","system_id":"levelo_inurba_marseille","lat":43.21184,"lon":5.35081,"is_reserved":false,"is_disabled":false,"rental_uris":{"android":"levelo://app?vid=82cfa9f6-cbaf-4f93-a9f4-488eade71681","ios":"levelo://app?vid=82cfa9f6-cbaf-4f93-a9f4-488eade71681"},"vehicle_type_id":"4","last_reported":1743858926,"current_range_meters":6800,"station_id":"st_cvj6sg6p6f1abm77japg","pricing_plan_id":"cebpf4jnsgd1na2vs0mg"},{"bike_id":"50297066-959d-45c5-a71e-b062cc3724ec","system_id":"levelo_inurba_marseille","lat":43.30798,"lon":5.37318,"is_reserved":false,"is_disabled":false,"rental_uris":{"android":"levelo://app?vid=50297066-959d-45c5-a71e-b062cc3724ec","ios":"levelo://app?vid=50297066-959d-45c5-a71e-b062cc3724ec"},"vehicle_type_id":"4","last_reported":1743858926,"current_range_meters":6800,"station_id":"","pricing_plan_id":"cebpf4jnsgd1na2vs0mg"},{"bike_id":"c53abc9a-5ddb-41dc-82c4-52c3c013e12b","system_id":"levelo_inurba_marseille","lat":43.29009,"lon":5.3561,"is_reserved":false,"is_disabled":false,"rental_uris":{"android":"levelo://app?vid=c53abc9a-5ddb-41dc-82c4-52c3c013e12b","ios":"levelo://app?vid=c53abc9a-5ddb-41dc-82c4-52c3c013e12b"},"vehicle_type_id":"4","last_reported":1743858926,"current_range_meters":6800,"station_id":"ce4bhb92rcd13ifvqen0","pricing_plan_id":"cebpf4jnsgd1na2vs0mg"},{"bike_id":"8ddb5c1a-cfc3-48a1-a076-a2f2eeb905d1","system_id":"levelo_inurba_marseille","lat":43.239657,"lon":5.366353,"is_reserved":false,"is_disabled":false,"rental_uris":{"android":"levelo://app?vid=8ddb5c1a-cfc3-48a1-a076-a2f2eeb905d1","ios":"levelo://app?vid=8ddb5c1a-cfc3-48a1-a076-a2f2eeb905d1"},"vehicle_type_id":"4","last_reported":1743858926,"current_range_meters":6800,"station_id":"ce4bhi12rcd13ifvqfp0","pricing_plan_id":"cebpf4jnsgd1na2vs0mg"},{"bike_id":"4e6bbb71-9a05-4305-8651-eabdb0ee6733","system_id":"levelo_inurba_marseille","lat":43.23188,"lon":5.39977,"is_reserved":false,"is_disabled":false,"rental_uris":{"android":"levelo://app?vid=4e6bbb71-9a05-4305-8651-eabdb0ee6733","ios":"levelo://app?vid=4e6bbb71-9a05-4305-8651-eabdb0ee6733"},"vehicle_type_id":"4","last_reported":1743858926,"current_range_meters":7200,"station_id":"ce4bhn12rcd13ifvqgqg","pricing_plan_id":"cebpf4jnsgd1na2vs0mg"},{"bike_id":"8e23a90b-326c-47f6-b79f-2ed829e7976f","system_id":"levelo_inurba_marseille","lat":43.33027,"lon":5.39042,"is_reserved":false,"is_disabled":false,"rental_uris":{"android":"levelo://app?vid=8e23a90b-326c-47f6-b79f-2ed829e7976f","ios":"levelo://app?vid=8e23a90b-326c-47f6-b79f-2ed829e7976f"},"vehicle_type_id":"4","last_reported":1743858926,"current_range_meters":7200,"station_id":"ce4bhr92rcd13ifvqhrg","pricing_plan_id":"cebpf4jnsgd1na2vs0mg"},{"bike_id":"2300e608-9f49-4219-a239-0a93902d8d11","system_id":"levelo_inurba_marseille","lat":43.30734,"lon":5.42463,"is_reserved":false,"is_disabled":false,"rental_uris":{"android":"levelo://app?vid=2300e608-9f49-4219-a239-0a93902d8d11","ios":"levelo://app?vid=2300e608-9f49-4219-a239-0a93902d8d11"},"vehicle_type_id":"4","last_reported":1743858926,"current_range_meters":7200,"station_id":"st_cvj6ca6bvosntc0bfgr0","pricing_plan_id":"cebpf4jnsgd1na2vs0mg"},{"bike_id":"3a673a01-13fc-4ed6-b9b1-08a0faf2fd75","system_id":"levelo_inurba_marseille","lat":43.2319,"lon":5.39979,"is_reserved":false,"is_disabled":false,"rental_uris":{"android":"levelo://app?vid=3a673a01-13fc-4ed6-b9b1-08a0faf2fd75","ios":"levelo://app?vid=3a673a01-13fc-4ed6-b9b1-08a0faf2fd75"},"vehicle_type_id":"4","last_reported":1743858926,"current_range_meters":7200,"station_id":"ce4bhn12rcd13ifvqgqg","pricing_plan_id":"cebpf4jnsgd1na2vs0mg"},{"bike_id":"30baa1a4-bb8c-40c1-891d-2899782738ce","system_id":"levelo_inurba_marseille","lat":43.2903,"lon":5.38654,"is_reserved":false,"is_disabled":false,"rental_uris":{"android":"levelo://app?vid=30baa1a4-bb8c-40c1-891d-2899782738ce","ios":"levelo://app?vid=30baa1a4-bb8c-40c1-891d-2899782738ce"},"vehicle_type_id":"4","last_reported":1743858926,"current_range_meters":7200,"station_id":"ce4bh4p2rcd13ifvqe0g","pricing_plan_id":"cebpf4jnsgd1na2vs0mg"},{"bike_id":"e7b956ce-2ab2-4301-8fd3-6312d753e8f6","system_id":"levelo_inurba_marseille","lat":43.24647,"lon":5.38171,"is_reserved":false,"is_disabled":true,"rental_uris":{"android":"levelo://app?vid=e7b956ce-2ab2-4301-8fd3-6312d753e8f6","ios":"levelo://app?vid=e7b956ce-2ab2-4301-8fd3-6312d753e8f6"},"vehicle_type_id":"4","last_reported":1743858926,"current_range_meters":8000,"station_id":"ce4bhih2rcd13ifvqfr0","pricing_plan_id":"cebpf4jnsgd1na2vs0mg"},{"bike_id":"908c0033-ebf3-400a-acb3-0a621b83539f","system_id":"levelo_inurba_marseille","lat":43.23193,"lon":5.39979,"is_reserved":false,"is_disabled":false,"rental_uris":{"android":"levelo://app?vid=908c0033-ebf3-400a-acb3-0a621b83539f","ios":"levelo://app?vid=908c0033-ebf3-400a-acb3-0a621b83539f"},"vehicle_type_id":"4","last_reported":1743858926,"current_range_meters":8000,"station_id":"ce4bhn12rcd13ifvqgqg","pricing_plan_id":"cebpf4jnsgd1na2vs0mg"},{"bike_id":"a958996a-92ae-439a-8bce-ddd89168f07a","system_id":"levelo_inurba_marseille","lat":43.25007,"lon":5.38914,"is_reserved":false,"is_disabled":false,"rental_uris":{"android":"levelo://app?vid=a958996a-92ae-439a-8bce-ddd89168f07a","ios":"levelo://app?vid=a958996a-92ae-439a-8bce-ddd89168f07a"},"vehicle_type_id":"4","last_reported":1743858926,"current_range_meters":8000,"station_id":"ce4bhgp2rcd13ifvqfd0","pricing_plan_id":"cebpf4jnsgd1na2vs0mg"},{"bike_id":"041288f2-458b-44d3-8738-08d4e61d1b1e","system_id":"levelo_inurba_marseille","lat":43.23152,"lon":5.43706,"is_reserved":false,"is_disabled":false,"rental_uris":{"android":"levelo://app?vid=041288f2-458b-44d3-8738-08d4e61d1b1e","ios":"levelo://app?vid=041288f2-458b-44d3-8738-08d4e61d1b1e"},"vehicle_type_id":"4","last_reported":1743858926,"current_range_meters":8400,"station_id":"ce4bhmp2rcd13ifvqgog","pricing_plan_id":"cebpf4jnsgd1na2vs0mg"},{"bike_id":"be5a522b-8e23-4fa1-8d3a-143cb411156b","system_id":"levelo_inurba_marseille","lat":43.21196,"lon":5.35081,"is_reserved":false,"is_disabled":false,"rental_uris":{"android":"levelo://app?vid=be5a522b-8e23-4fa1-8d3a-143cb411156b","ios":"levelo://app?vid=be5a522b-8e23-4fa1-8d3a-143cb411156b"},"vehicle_type_id":"4","last_reported":1743858926,"current_range_meters":8400,"station_id":"st_cvj6sg6p6f1abm77japg","pricing_plan_id":"cebpf4jnsgd1na2vs0mg"},{"bike_id":"2cd7bf6a-fb9d-4a9c-93c8-2cabd0f9f43e","system_id":"levelo_inurba_marseille","lat":43.28614,"lon":5.3511,"is_reserved":false,"is_disabled":false,"rental_uris":{"android":"levelo://app?vid=2cd7bf6a-fb9d-4a9c-93c8-2cabd0f9f43e","ios":"levelo://app?vid=2cd7bf6a-fb9d-4a9c-93c8-2cabd0f9f43e"},"vehicle_type_id":"4","last_reported":1743858926,"current_range_meters":8400,"station_id":"ce4bhch2rcd13ifvqeug","pricing_plan_id":"cebpf4jnsgd1na2vs0mg"},{"bike_id":"783ef245-163c-4c81-b038-df23059b7c57","system_id":"levelo_inurba_marseille","lat":43.310755,"lon":5.383546,"is_reserved":false,"is_disabled":false,"rental_uris":{"android":"levelo://app?vid=783ef245-163c-4c81-b038-df23059b7c57","ios":"levelo://app?vid=783ef245-163c-4c81-b038-df23059b7c57"},"vehicle_type_id":"4","last_reported":1743858926,"current_range_meters":8400,"station_id":"","pricing_plan_id":"cebpf4jnsgd1na2vs0mg"},{"bike_id":"a1cc8429-7f5d-4c98-838c-0dbc6d7c247e","system_id":"levelo_inurba_marseille","lat":43.28145,"lon":5.42637,"is_reserved":false,"is_disabled":false,"rental_uris":{"android":"levelo://app?vid=a1cc8429-7f5d-4c98-838c-0dbc6d7c247e","ios":"levelo://app?vid=a1cc8429-7f5d-4c98-838c-0dbc6d7c247e"},"vehicle_type_id":"4","last_reported":1743858926,"current_range_meters":8400,"station_id":"ce4bhnh2rcd13ifvqgug","pricing_plan_id":"cebpf4jnsgd1na2vs0mg"},{"bike_id":"0300ed36-144c-47d9-a922-f93668338414","system_id":"levelo_inurba_marseille","lat":43.23955,"lon":5.36639,"is_reserved":false,"is_disabled":false,"rental_uris":{"android":"levelo://app?vid=0300ed36-144c-47d9-a922-f93668338414","ios":"levelo://app?vid=0300ed36-144c-47d9-a922-f93668338414"},"vehicle_type_id":"4","last_reported":1743858926,"current_range_meters":8400,"station_id":"ce4bhi12rcd13ifvqfp0","pricing_plan_id":"cebpf4jnsgd1na2vs0mg"},{"bike_id":"ae85a7a4-7c38-4e25-9e50-a9a925b58789","system_id":"levelo_inurba_marseille","lat":43.31082,"lon":5.42439,"is_reserved":false,"is_disabled":false,"rental_uris":{"android":"levelo://app?vid=ae85a7a4-7c38-4e25-9e50-a9a925b58789","ios":"levelo://app?vid=ae85a7a4-7c38-4e25-9e50-a9a925b58789"},"vehicle_type_id":"4","last_reported":1743858926,"current_range_meters":8400,"station_id":"ce4bhp92rcd13ifvqhag","pricing_plan_id":"cebpf4jnsgd1na2vs0mg"},{"bike_id":"e0fc34f6-0214-440a-9ed4-af39ae5d38dd","system_id":"levelo_inurba_marseille","lat":43.22502,"lon":5.34785,"is_reserved":false,"is_disabled":false,"rental_uris":{"android":"levelo://app?vid=e0fc34f6-0214-440a-9ed4-af39ae5d38dd","ios":"levelo://app?vid=e0fc34f6-0214-440a-9ed4-af39ae5d38dd"},"vehicle_type_id":"4","last_reported":1743858926,"current_range_meters":8800,"station_id":"","pricing_plan_id":"cebpf4jnsgd1na2vs0mg"},{"bike_id":"36b40002-a941-4025-8496-6f64ad8c3f60","system_id":"levelo_inurba_marseille","lat":43.23181,"lon":5.39993,"is_reserved":false,"is_disabled":false,"rental_uris":{"android":"levelo://app?vid=36b40002-a941-4025-8496-6f64ad8c3f60","ios":"levelo://app?vid=36b40002-a941-4025-8496-6f64ad8c3f60"},"vehicle_type_id":"4","last_reported":1743858926,"current_range_meters":8800,"station_id":"ce4bhn12rcd13ifvqgqg","pricing_plan_id":"cebpf4jnsgd1na2vs0mg"},{"bike_id":"32b35258-d759-4548-af10-fc0ce8dffa66","system_id":"levelo_inurba_marseille","lat":43.24164,"lon":5.36442,"is_reserved":false,"is_disabled":false,"rental_uris":{"android":"levelo://app?vid=32b35258-d759-4548-af10-fc0ce8dffa66","ios":"levelo://app?vid=32b35258-d759-4548-af10-fc0ce8dffa66"},"vehicle_type_id":"4","last_reported":1743858926,"current_range_meters":8800,"station_id":"cpo36qri1sfpv3e86is0","pricing_plan_id":"cebpf4jnsgd1na2vs0mg"},{"bike_id":"53b9ee61-bd08-4a49-b664-054245c9649c","system_id":"levelo_inurba_marseille","lat":43.29628,"lon":5.40611,"is_reserved":false,"is_disabled":false,"rental_uris":{"android":"levelo://app?vid=53b9ee61-bd08-4a49-b664-054245c9649c","ios":"levelo://app?vid=53b9ee61-bd08-4a49-b664-054245c9649c"},"vehicle_type_id":"4","last_reported":1743858926,"current_range_meters":8800,"station_id":"ce4bh0h2rcd13ifvqd60","pricing_plan_id":"cebpf4jnsgd1na2vs0mg"},{"bike_id":"69acbb04-6095-42f4-867f-ebae90632411","system_id":"levelo_inurba_marseille","lat":43.29607,"lon":5.38116,"is_reserved":false,"is_disabled":false,"rental_uris":{"android":"levelo://app?vid=69acbb04-6095-42f4-867f-ebae90632411","ios":"levelo://app?vid=69acbb04-6095-42f4-867f-ebae90632411"},"vehicle_type_id":"4","last_reported":1743858926,"current_range_meters":8800,"station_id":"ce4bgl12rcd13ifvqbo0","pricing_plan_id":"cebpf4jnsgd1na2vs0mg"},{"bike_id":"f2fcd142-dde4-4f14-95ea-309420061285","system_id":"levelo_inurba_marseille","lat":43.31087,"lon":5.42427,"is_reserved":false,"is_disabled":false,"rental_uris":{"android":"levelo://app?vid=f2fcd142-dde4-4f14-95ea-309420061285","ios":"levelo://app?vid=f2fcd142-dde4-4f14-95ea-309420061285"},"vehicle_type_id":"4","last_reported":1743858926,"current_range_meters":8800,"station_id":"ce4bhp92rcd13ifvqhag","pricing_plan_id":"cebpf4jnsgd1na2vs0mg"},{"bike_id":"ae98aa3a-c429-4cd7-ab95-401398ed607b","system_id":"levelo_inurba_marseille","lat":43.30929,"lon":5.40155,"is_reserved":false,"is_disabled":false,"rental_uris":{"android":"levelo://app?vid=ae98aa3a-c429-4cd7-ab95-401398ed607b","ios":"levelo://app?vid=ae98aa3a-c429-4cd7-ab95-401398ed607b"},"vehicle_type_id":"4","last_reported":1743858926,"current_range_meters":9200,"station_id":"ce4bgvp2rcd13ifvqct0","pricing_plan_id":"cebpf4jnsgd1na2vs0mg"},{"bike_id":"8980209c-4b8c-4f30-a818-89a0aaa71deb","system_id":"levelo_inurba_marseille","lat":43.24386,"lon":5.37064,"is_reserved":false,"is_disabled":false,"rental_uris":{"android":"levelo://app?vid=8980209c-4b8c-4f30-a818-89a0aaa71deb","ios":"levelo://app?vid=8980209c-4b8c-4f30-a818-89a0aaa71deb"},"vehicle_type_id":"4","last_reported":1743858926,"current_range_meters":9200,"station_id":"ce4bhhh2rcd13ifvqfk0","pricing_plan_id":"cebpf4jnsgd1na2vs0mg"},{"bike_id":"bfc07d3c-bf14-4862-ad1a-2d95c0a1bd92","system_id":"levelo_inurba_marseille","lat":43.29712,"lon":5.36582,"is_reserved":false,"is_disabled":false,"rental_uris":{"android":"levelo://app?vid=bfc07d3c-bf14-4862-ad1a-2d95c0a1bd92","ios":"levelo://app?vid=bfc07d3c-bf14-4862-ad1a-2d95c0a1bd92"},"vehicle_type_id":"4","last_reported":1743858926,"current_range_meters":9200,"station_id":"ce4bgn12rcd13ifvqbt0","pricing_plan_id":"cebpf4jnsgd1na2vs0mg"},{"bike_id":"3b4ad8c6-6244-4378-90d7-dac703d1508d","system_id":"levelo_inurba_marseille","lat":43.23204,"lon":5.35529,"is_reserved":false,"is_disabled":false,"rental_uris":{"android":"levelo://app?vid=3b4ad8c6-6244-4378-90d7-dac703d1508d","ios":"levelo://app?vid=3b4ad8c6-6244-4378-90d7-dac703d1508d"},"vehicle_type_id":"4","last_reported":1743858926,"current_range_meters":9200,"station_id":"ce4bhu92rcd13ifvqi70","pricing_plan_id":"cebpf4jnsgd1na2vs0mg"},{"bike_id":"203176fb-52f7-45ec-88b4-caa4115f7b7b","system_id":"levelo_inurba_marseille","lat":43.29623,"lon":5.40046,"is_reserved":false,"is_disabled":false,"rental_uris":{"android":"levelo://app?vid=203176fb-52f7-45ec-88b4-caa4115f7b7b","ios":"levelo://app?vid=203176fb-52f7-45ec-88b4-caa4115f7b7b"},"vehicle_type_id":"4","last_reported":1743858926,"current_range_meters":9200,"station_id":"","pricing_plan_id":"cebpf4jnsgd1na2vs0mg"},{"bike_id":"6b8df6c6-e69f-416d-869f-6c58b572d426","system_id":"levelo_inurba_marseille","lat":43.23193,"lon":5.39987,"is_reserved":false,"is_disabled":false,"rental_uris":{"android":"levelo://app?vid=6b8df6c6-e69f-416d-869f-6c58b572d426","ios":"levelo://app?vid=6b8df6c6-e69f-416d-869f-6c58b572d426"},"vehicle_type_id":"4","last_reported":1743858926,"current_range_meters":9200,"station_id":"ce4bhn12rcd13ifvqgqg","pricing_plan_id":"cebpf4jnsgd1na2vs0mg"},{"bike_id":"9a055327-5ba2-482f-b223-d78608155b28","system_id":"levelo_inurba_marseille","lat":43.28415,"lon":5.3499,"is_reserved":false,"is_disabled":false,"rental_uris":{"android":"levelo://app?vid=9a055327-5ba2-482f-b223-d78608155b28","ios":"levelo://app?vid=9a055327-5ba2-482f-b223-d78608155b28"},"vehicle_type_id":"4","last_reported":1743858926,"current_range_meters":9200,"station_id":"ce4bhbh2rcd13ifvqepg","pricing_plan_id":"cebpf4jnsgd1na2vs0mg"},{"bike_id":"fb0d4993-67fa-4314-9525-ef2ba9197c72","system_id":"levelo_inurba_marseille","lat":43.30321,"lon":5.4059,"is_reserved":false,"is_disabled":false,"rental_uris":{"android":"levelo://app?vid=fb0d4993-67fa-4314-9525-ef2ba9197c72","ios":"levelo://app?vid=fb0d4993-67fa-4314-9525-ef2ba9197c72"},"vehicle_type_id":"4","last_reported":1743858926,"current_range_meters":9200,"station_id":"","pricing_plan_id":"cebpf4jnsgd1na2vs0mg"},{"bike_id":"d363f99f-52fc-48fb-b35c-3e57b3d9f0b8","system_id":"levelo_inurba_marseille","lat":43.30313,"lon":5.36902,"is_reserved":false,"is_disabled":false,"rental_uris":{"android":"levelo://app?vid=d363f99f-52fc-48fb-b35c-3e57b3d9f0b8","ios":"levelo://app?vid=d363f99f-52fc-48fb-b35c-3e57b3d9f0b8"},"vehicle_type_id":"4","last_reported":1743858926,"current_range_meters":9200,"station_id":"ce4bgqh2rcd13ifvqc5g","pricing_plan_id":"cebpf4jnsgd1na2vs0mg"},{"bike_id":"ac7a85da-6a1d-42f4-b3e0-decaec458451","system_id":"levelo_inurba_marseille","lat":43.22933,"lon":5.3538,"is_reserved":false,"is_disabled":true,"rental_uris":{"android":"levelo://app?vid=ac7a85da-6a1d-42f4-b3e0-decaec458451","ios":"levelo://app?vid=ac7a85da-6a1d-42f4-b3e0-decaec458451"},"vehicle_type_id":"4","last_reported":1743858926,"current_range_meters":9200,"station_id":"cpo3532slgdg3j2ikp40","pricing_plan_id":"cebpf4jnsgd1na2vs0mg"},{"bike_id":"380de7d2-07ee-41a8-bbc6-48d87c059bdb","system_id":"levelo_inurba_marseille","lat":43.28414,"lon":5.34986,"is_reserved":false,"is_disabled":false,"rental_uris":{"android":"levelo://app?vid=380de7d2-07ee-41a8-bbc6-48d87c059bdb","ios":"levelo://app?vid=380de7d2-07ee-41a8-bbc6-48d87c059bdb"},"vehicle_type_id":"4","last_reported":1743858926,"current_range_meters":9200,"station_id":"ce4bhbh2rcd13ifvqepg","pricing_plan_id":"cebpf4jnsgd1na2vs0mg"},{"bike_id":"5e775c96-3d62-4360-9d2e-43c148b9f271","system_id":"levelo_inurba_marseille","lat":43.29213,"lon":5.3609,"is_reserved":false,"is_disabled":false,"rental_uris":{"android":"levelo://app?vid=5e775c96-3d62-4360-9d2e-43c148b9f271","ios":"levelo://app?vid=5e775c96-3d62-4360-9d2e-43c148b9f271"},"vehicle_type_id":"4","last_reported":1743858926,"current_range_meters":9200,"station_id":"ce4bhbh2rcd13ifvqeqg","pricing_plan_id":"cebpf4jnsgd1na2vs0mg"},{"bike_id":"d68bb49e-ae67-46b9-9113-2f1b9eefff70","system_id":"levelo_inurba_marseille","lat":43.31986,"lon":5.38155,"is_reserved":false,"is_disabled":false,"rental_uris":{"android":"levelo://app?vid=d68bb49e-ae67-46b9-9113-2f1b9eefff70","ios":"levelo://app?vid=d68bb49e-ae67-46b9-9113-2f1b9eefff70"},"vehicle_type_id":"4","last_reported":1743858926,"current_range_meters":9200,"station_id":"ce4bhr12rcd13ifvqhpg","pricing_plan_id":"cebpf4jnsgd1na2vs0mg"},{"bike_id":"eb79d1f9-7c91-4ea2-b5f8-796189743e1a","system_id":"levelo_inurba_marseille","lat":43.33731,"lon":5.39187,"is_reserved":false,"is_disabled":false,"rental_uris":{"android":"levelo://app?vid=eb79d1f9-7c91-4ea2-b5f8-796189743e1a","ios":"levelo://app?vid=eb79d1f9-7c91-4ea2-b5f8-796189743e1a"},"vehicle_type_id":"4","last_reported":1743858926,"current_range_meters":9600,"station_id":"ce4bhr92rcd13ifvqhsg","pricing_plan_id":"cebpf4jnsgd1na2vs0mg"},{"bike_id":"561f7321-889f-45bf-a220-6e9864823b09","system_id":"levelo_inurba_marseille","lat":43.262094,"lon":5.374448,"is_reserved":false,"is_disabled":false,"rental_uris":{"android":"levelo://app?vid=561f7321-889f-45bf-a220-6e9864823b09","ios":"levelo://app?vid=561f7321-889f-45bf-a220-6e9864823b09"},"vehicle_type_id":"4","last_reported":1743858926,"current_range_meters":9600,"station_id":"ce4bhgp2rcd13ifvqfc0","pricing_plan_id":"cebpf4jnsgd1na2vs0mg"},{"bike_id":"4f87fde7-c456-4c01-b0cb-cde455827412","system_id":"levelo_inurba_marseille","lat":43.2417,"lon":5.36435,"is_reserved":false,"is_disabled":false,"rental_uris":{"android":"levelo://app?vid=4f87fde7-c456-4c01-b0cb-cde455827412","ios":"levelo://app?vid=4f87fde7-c456-4c01-b0cb-cde455827412"},"vehicle_type_id":"4","last_reported":1743858926,"current_range_meters":9600,"station_id":"cpo36qri1sfpv3e86is0","pricing_plan_id":"cebpf4jnsgd1na2vs0mg"},{"bike_id":"d89bb348-a2b2-475f-b66f-22fe74c882fd","system_id":"levelo_inurba_marseille","lat":43.23192,"lon":5.39987,"is_reserved":false,"is_disabled":false,"rental_uris":{"android":"levelo://app?vid=d89bb348-a2b2-475f-b66f-22fe74c882fd","ios":"levelo://app?vid=d89bb348-a2b2-475f-b66f-22fe74c882fd"},"vehicle_type_id":"4","last_reported":1743858926,"current_range_meters":9600,"station_id":"ce4bhn12rcd13ifvqgqg","pricing_plan_id":"cebpf4jnsgd1na2vs0mg"},{"bike_id":"9444e92d-22b8-4140-882d-645730b9468f","system_id":"levelo_inurba_marseille","lat":43.23191,"lon":5.35552,"is_reserved":false,"is_disabled":false,"rental_uris":{"android":"levelo://app?vid=9444e92d-22b8-4140-882d-645730b9468f","ios":"levelo://app?vid=9444e92d-22b8-4140-882d-645730b9468f"},"vehicle_type_id":"4","last_reported":1743858926,"current_range_meters":9600,"station_id":"ce4bhu92rcd13ifvqi70","pricing_plan_id":"cebpf4jnsgd1na2vs0mg"},{"bike_id":"fdad6e5e-1467-4616-9d72-68b29d343e00","system_id":"levelo_inurba_marseille","lat":43.32285,"lon":5.38273,"is_reserved":false,"is_disabled":false,"rental_uris":{"android":"levelo://app?vid=fdad6e5e-1467-4616-9d72-68b29d343e00","ios":"levelo://app?vid=fdad6e5e-1467-4616-9d72-68b29d343e00"},"vehicle_type_id":"4","last_reported":1743858926,"current_range_meters":9600,"station_id":"ce4bhr12rcd13ifvqhqg","pricing_plan_id":"cebpf4jnsgd1na2vs0mg"},{"bike_id":"1f8b4897-14cc-4c51-b8d4-40c8ef4fa64b","system_id":"levelo_inurba_marseille","lat":43.31168,"lon":5.38721,"is_reserved":false,"is_disabled":false,"rental_uris":{"android":"levelo://app?vid=1f8b4897-14cc-4c51-b8d4-40c8ef4fa64b","ios":"levelo://app?vid=1f8b4897-14cc-4c51-b8d4-40c8ef4fa64b"},"vehicle_type_id":"4","last_reported":1743858926,"current_range_meters":9200,"station_id":"ce4bgv12rcd13ifvqcp0","pricing_plan_id":"cebpf4jnsgd1na2vs0mg"},{"bike_id":"d96fbcef-72c1-4e94-9ff1-b6a71d6f2005","system_id":"levelo_inurba_marseille","lat":43.2315,"lon":5.43726,"is_reserved":false,"is_disabled":false,"rental_uris":{"android":"levelo://app?vid=d96fbcef-72c1-4e94-9ff1-b6a71d6f2005","ios":"levelo://app?vid=d96fbcef-72c1-4e94-9ff1-b6a71d6f2005"},"vehicle_type_id":"4","last_reported":1743858926,"current_range_meters":9600,"station_id":"ce4bhmp2rcd13ifvqgog","pricing_plan_id":"cebpf4jnsgd1na2vs0mg"},{"bike_id":"8e8105ce-63e2-4441-9ebe-d6a09a08a22e","system_id":"levelo_inurba_marseille","lat":43.29646,"lon":5.36209,"is_reserved":false,"is_disabled":false,"rental_uris":{"android":"levelo://app?vid=8e8105ce-63e2-4441-9ebe-d6a09a08a22e","ios":"levelo://app?vid=8e8105ce-63e2-4441-9ebe-d6a09a08a22e"},"vehicle_type_id":"4","last_reported":1743858926,"current_range_meters":9600,"station_id":"","pricing_plan_id":"cebpf4jnsgd1na2vs0mg"},{"bike_id":"a62576c3-672f-4827-97d4-dcd20a3acf3d","system_id":"levelo_inurba_marseille","lat":43.29016,"lon":5.38133,"is_reserved":false,"is_disabled":false,"rental_uris":{"android":"levelo://app?vid=a62576c3-672f-4827-97d4-dcd20a3acf3d","ios":"levelo://app?vid=a62576c3-672f-4827-97d4-dcd20a3acf3d"},"vehicle_type_id":"4","last_reported":1743858926,"current_range_meters":10000,"station_id":"ce4bh4p2rcd13ifvqe1g","pricing_plan_id":"cebpf4jnsgd1na2vs0mg"},{"bike_id":"17cb4c94-d00c-4a8d-8660-ec832ad3c074","system_id":"levelo_inurba_marseille","lat":43.23198,"lon":5.35553,"is_reserved":false,"is_disabled":false,"rental_uris":{"android":"levelo://app?vid=17cb4c94-d00c-4a8d-8660-ec832ad3c074","ios":"levelo://app?vid=17cb4c94-d00c-4a8d-8660-ec832ad3c074"},"vehicle_type_id":"4","last_reported":1743858926,"current_range_meters":10000,"station_id":"ce4bhu92rcd13ifvqi70","pricing_plan_id":"cebpf4jnsgd1na2vs0mg"},{"bike_id":"a2050f5c-6ce2-4b23-9c72-96c988965edd","system_id":"levelo_inurba_marseille","lat":43.31495,"lon":5.37312,"is_reserved":false,"is_disabled":false,"rental_uris":{"android":"levelo://app?vid=a2050f5c-6ce2-4b23-9c72-96c988965edd","ios":"levelo://app?vid=a2050f5c-6ce2-4b23-9c72-96c988965edd"},"vehicle_type_id":"4","last_reported":1743858926,"current_range_meters":9600,"station_id":"ce4bgt12rcd13ifvqcd0","pricing_plan_id":"cebpf4jnsgd1na2vs0mg"},{"bike_id":"aecd6db3-bfd0-4f56-bdfc-31c4a713e16f","system_id":"levelo_inurba_marseille","lat":43.28273,"lon":5.35052,"is_reserved":false,"is_disabled":false,"rental_uris":{"android":"levelo://app?vid=aecd6db3-bfd0-4f56-bdfc-31c4a713e16f","ios":"levelo://app?vid=aecd6db3-bfd0-4f56-bdfc-31c4a713e16f"},"vehicle_type_id":"4","last_reported":1743858926,"current_range_meters":10000,"station_id":"ce4bhbp2rcd13ifvqerg","pricing_plan_id":"cebpf4jnsgd1na2vs0mg"},{"bike_id":"ec1d3458-0a90-4120-8a34-a42a38cc7495","system_id":"levelo_inurba_marseille","lat":43.28425,"lon":5.34987,"is_reserved":false,"is_disabled":false,"rental_uris":{"android":"levelo://app?vid=ec1d3458-0a90-4120-8a34-a42a38cc7495","ios":"levelo://app?vid=ec1d3458-0a90-4120-8a34-a42a38cc7495"},"vehicle_type_id":"4","last_reported":1743858926,"current_range_meters":10000,"station_id":"ce4bhbh2rcd13ifvqepg","pricing_plan_id":"cebpf4jnsgd1na2vs0mg"},{"bike_id":"80f08235-b306-4bd0-916b-91213dcec3f4","system_id":"levelo_inurba_marseille","lat":43.24164,"lon":5.364,"is_reserved":false,"is_disabled":false,"rental_uris":{"android":"levelo://app?vid=80f08235-b306-4bd0-916b-91213dcec3f4","ios":"levelo://app?vid=80f08235-b306-4bd0-916b-91213dcec3f4"},"vehicle_type_id":"4","last_reported":1743858926,"current_range_meters":10000,"station_id":"cpo36qri1sfpv3e86is0","pricing_plan_id":"cebpf4jnsgd1na2vs0mg"},{"bike_id":"408eddf9-1b95-40fb-b4b4-4776ee414768","system_id":"levelo_inurba_marseille","lat":43.29264,"lon":5.37632,"is_reserved":false,"is_disabled":false,"rental_uris":{"android":"levelo://app?vid=408eddf9-1b95-40fb-b4b4-4776ee414768","ios":"levelo://app?vid=408eddf9-1b95-40fb-b4b4-4776ee414768"},"vehicle_type_id":"4","last_reported":1743858926,"current_range_meters":10000,"station_id":"ce4bgi12rcd13ifvqb80","pricing_plan_id":"cebpf4jnsgd1na2vs0mg"},{"bike_id":"76a6865d-df28-46e6-aac0-60dd7e34089f","system_id":"levelo_inurba_marseille","lat":43.28264,"lon":5.35063,"is_reserved":false,"is_disabled":false,"rental_uris":{"android":"levelo://app?vid=76a6865d-df28-46e6-aac0-60dd7e34089f","ios":"levelo://app?vid=76a6865d-df28-46e6-aac0-60dd7e34089f"},"vehicle_type_id":"4","last_reported":1743858926,"current_range_meters":10800,"station_id":"ce4bhbp2rcd13ifvqerg","pricing_plan_id":"cebpf4jnsgd1na2vs0mg"},{"bike_id":"c6d94627-e65d-4df8-bc3b-131e91ba4071","system_id":"levelo_inurba_marseille","lat":43.21193,"lon":5.35073,"is_reserved":false,"is_disabled":false,"rental_uris":{"android":"levelo://app?vid=c6d94627-e65d-4df8-bc3b-131e91ba4071","ios":"levelo://app?vid=c6d94627-e65d-4df8-bc3b-131e91ba4071"},"vehicle_type_id":"4","last_reported":1743858926,"current_range_meters":10800,"station_id":"st_cvj6sg6p6f1abm77japg","pricing_plan_id":"cebpf4jnsgd1na2vs0mg"},{"bike_id":"81c282f2-cc8c-4e99-9dcd-36f8c04466c2","system_id":"levelo_inurba_marseille","lat":43.30558,"lon":5.36763,"is_reserved":false,"is_disabled":false,"rental_uris":{"android":"levelo://app?vid=81c282f2-cc8c-4e99-9dcd-36f8c04466c2","ios":"levelo://app?vid=81c282f2-cc8c-4e99-9dcd-36f8c04466c2"},"vehicle_type_id":"4","last_reported":1743858926,"current_range_meters":10800,"station_id":"ce4bgrp2rcd13ifvqc9g","pricing_plan_id":"cebpf4jnsgd1na2vs0mg"},{"bike_id":"cb2bde41-669d-4ed3-8eeb-39245dfc04ec","system_id":"levelo_inurba_marseille","lat":43.24806,"lon":5.37451,"is_reserved":false,"is_disabled":false,"rental_uris":{"android":"levelo://app?vid=cb2bde41-669d-4ed3-8eeb-39245dfc04ec","ios":"levelo://app?vid=cb2bde41-669d-4ed3-8eeb-39245dfc04ec"},"vehicle_type_id":"4","last_reported":1743858926,"current_range_meters":10800,"station_id":"ce4bhgh2rcd13ifvqfb0","pricing_plan_id":"cebpf4jnsgd1na2vs0mg"},{"bike_id":"ac2ab547-c1fd-4abe-b352-d4ded3160820","system_id":"levelo_inurba_marseille","lat":43.28422,"lon":5.34985,"is_reserved":false,"is_disabled":false,"rental_uris":{"android":"levelo://app?vid=ac2ab547-c1fd-4abe-b352-d4ded3160820","ios":"levelo://app?vid=ac2ab547-c1fd-4abe-b352-d4ded3160820"},"vehicle_type_id":"4","last_reported":1743858926,"current_range_meters":10800,"station_id":"ce4bhbh2rcd13ifvqepg","pricing_plan_id":"cebpf4jnsgd1na2vs0mg"},{"bike_id":"ca6e4e32-2e48-4736-820c-44a3a466280b","system_id":"levelo_inurba_marseille","lat":43.30154,"lon":5.38074,"is_reserved":false,"is_disabled":false,"rental_uris":{"android":"levelo://app?vid=ca6e4e32-2e48-4736-820c-44a3a466280b","ios":"levelo://app?vid=ca6e4e32-2e48-4736-820c-44a3a466280b"},"vehicle_type_id":"4","last_reported":1743858926,"current_range_meters":10800,"station_id":"ce4bgjp2rcd13ifvqbh0","pricing_plan_id":"cebpf4jnsgd1na2vs0mg"},{"bike_id":"413c940e-ff76-4db0-a471-947bf3414836","system_id":"levelo_inurba_marseille","lat":43.21746,"lon":5.34609,"is_reserved":false,"is_disabled":false,"rental_uris":{"android":"levelo://app?vid=413c940e-ff76-4db0-a471-947bf3414836","ios":"levelo://app?vid=413c940e-ff76-4db0-a471-947bf3414836"},"vehicle_type_id":"4","last_reported":1743858926,"current_range_meters":11200,"station_id":"st_cvj6r9ubvosntc0bgbag","pricing_plan_id":"cebpf4jnsgd1na2vs0mg"},{"bike_id":"d5e984d3-343e-4e16-bd54-bc3ebbd48639","system_id":"levelo_inurba_marseille","lat":43.301334,"lon":5.387802,"is_reserved":false,"is_disabled":true,"rental_uris":{"android":"levelo://app?vid=d5e984d3-343e-4e16-bd54-bc3ebbd48639","ios":"levelo://app?vid=d5e984d3-343e-4e16-bd54-bc3ebbd48639"},"vehicle_type_id":"4","last_reported":1743858926,"current_range_meters":11200,"station_id":"ce4bghh2rcd13ifvqb60","pricing_plan_id":"cebpf4jnsgd1na2vs0mg"},{"bike_id":"1116ce94-8909-4053-b6e7-c0fc35b4ce72","system_id":"levelo_inurba_marseille","lat":43.28262,"lon":5.350613,"is_reserved":false,"is_disabled":false,"rental_uris":{"android":"levelo://app?vid=1116ce94-8909-4053-b6e7-c0fc35b4ce72","ios":"levelo://app?vid=1116ce94-8909-4053-b6e7-c0fc35b4ce72"},"vehicle_type_id":"4","last_reported":1743858926,"current_range_meters":11200,"station_id":"ce4bhbp2rcd13ifvqerg","pricing_plan_id":"cebpf4jnsgd1na2vs0mg"},{"bike_id":"65fedcd0-2c58-4547-b564-9cfbe64a7a74","system_id":"levelo_inurba_marseille","lat":43.231899,"lon":5.400206,"is_reserved":false,"is_disabled":false,"rental_uris":{"android":"levelo://app?vid=65fedcd0-2c58-4547-b564-9cfbe64a7a74","ios":"levelo://app?vid=65fedcd0-2c58-4547-b564-9cfbe64a7a74"},"vehicle_type_id":"4","last_reported":1743858926,"current_range_meters":11200,"station_id":"ce4bhmp2rcd13ifvqgog","pricing_plan_id":"cebpf4jnsgd1na2vs0mg"},{"bike_id":"0e89560c-db55-46d9-a6b9-8bd9c5d154e1","system_id":"levelo_inurba_marseille","lat":43.225067,"lon":5.347812,"is_reserved":false,"is_disabled":false,"rental_uris":{"android":"levelo://app?vid=0e89560c-db55-46d9-a6b9-8bd9c5d154e1","ios":"levelo://app?vid=0e89560c-db55-46d9-a6b9-8bd9c5d154e1"},"vehicle_type_id":"4","last_reported":1743858926,"current_range_meters":11200,"station_id":"st_cvj5dfep6f1abm77gieg","pricing_plan_id":"cebpf4jnsgd1na2vs0mg"},{"bike_id":"d6d5d1a0-829e-489a-bb93-0758e4f020c0","system_id":"levelo_inurba_marseille","lat":43.241837,"lon":5.397359,"is_reserved":false,"is_disabled":false,"rental_uris":{"android":"levelo://app?vid=d6d5d1a0-829e-489a-bb93-0758e4f020c0","ios":"levelo://app?vid=d6d5d1a0-829e-489a-bb93-0758e4f020c0"},"vehicle_type_id":"4","last_reported":1743858926,"current_range_meters":16400,"station_id":"ce4bh692rcd13ifvqe90","pricing_plan_id":"cebpf4jnsgd1na2vs0mg"},{"bike_id":"30b57730-cb66-4122-bd93-7dabcaba84e7","system_id":"levelo_inurba_marseille","lat":43.24907,"lon":5.40676,"is_reserved":false,"is_disabled":false,"rental_uris":{"android":"levelo://app?vid=30b57730-cb66-4122-bd93-7dabcaba84e7","ios":"levelo://app?vid=30b57730-cb66-4122-bd93-7dabcaba84e7"},"vehicle_type_id":"4","last_reported":1743858926,"current_range_meters":11200,"station_id":"","pricing_plan_id":"cebpf4jnsgd1na2vs0mg"},{"bike_id":"db29433a-c7f6-40d6-b0e1-3a1f0abf15ab","system_id":"levelo_inurba_marseille","lat":43.241712,"lon":5.364041,"is_reserved":false,"is_disabled":true,"rental_uris":{"android":"levelo://app?vid=db29433a-c7f6-40d6-b0e1-3a1f0abf15ab","ios":"levelo://app?vid=db29433a-c7f6-40d6-b0e1-3a1f0abf15ab"},"vehicle_type_id":"4","last_reported":1743858926,"current_range_meters":11600,"station_id":"ce4bh412rcd13ifvqdr0","pricing_plan_id":"cebpf4jnsgd1na2vs0mg"},{"bike_id":"660124bc-045b-4581-80f6-72a5f61dfe7e","system_id":"levelo_inurba_marseille","lat":43.25005,"lon":5.38927,"is_reserved":false,"is_disabled":false,"rental_uris":{"android":"levelo://app?vid=660124bc-045b-4581-80f6-72a5f61dfe7e","ios":"levelo://app?vid=660124bc-045b-4581-80f6-72a5f61dfe7e"},"vehicle_type_id":"4","last_reported":1743858926,"current_range_meters":11600,"station_id":"ce4bhgp2rcd13ifvqfd0","pricing_plan_id":"cebpf4jnsgd1na2vs0mg"},{"bike_id":"4de59fa9-d633-4533-9fce-dff890560a88","system_id":"levelo_inurba_marseille","lat":43.2841,"lon":5.3498,"is_reserved":false,"is_disabled":false,"rental_uris":{"android":"levelo://app?vid=4de59fa9-d633-4533-9fce-dff890560a88","ios":"levelo://app?vid=4de59fa9-d633-4533-9fce-dff890560a88"},"vehicle_type_id":"4","last_reported":1743858926,"current_range_meters":11600,"station_id":"ce4bhbh2rcd13ifvqepg","pricing_plan_id":"cebpf4jnsgd1na2vs0mg"},{"bike_id":"c7643979-9ece-4372-b68c-2d9a4e876f66","system_id":"levelo_inurba_marseille","lat":43.2251,"lon":5.34801,"is_reserved":false,"is_disabled":false,"rental_uris":{"android":"levelo://app?vid=c7643979-9ece-4372-b68c-2d9a4e876f66","ios":"levelo://app?vid=c7643979-9ece-4372-b68c-2d9a4e876f66"},"vehicle_type_id":"4","last_reported":1743858926,"current_range_meters":11600,"station_id":"st_cvj5dfep6f1abm77gieg","pricing_plan_id":"cebpf4jnsgd1na2vs0mg"},{"bike_id":"e5f3fbc9-b150-47ab-a73e-d0d46cf57656","system_id":"levelo_inurba_marseille","lat":43.30307,"lon":5.36902,"is_reserved":false,"is_disabled":false,"rental_uris":{"android":"levelo://app?vid=e5f3fbc9-b150-47ab-a73e-d0d46cf57656","ios":"levelo://app?vid=e5f3fbc9-b150-47ab-a73e-d0d46cf57656"},"vehicle_type_id":"4","last_reported":1743858926,"current_range_meters":12000,"station_id":"ce4bgqh2rcd13ifvqc5g","pricing_plan_id":"cebpf4jnsgd1na2vs0mg"},{"bike_id":"49893cc6-000c-4e13-94e0-be7f519d7d21","system_id":"levelo_inurba_marseille","lat":43.24165,"lon":5.36406,"is_reserved":false,"is_disabled":false,"rental_uris":{"android":"levelo://app?vid=49893cc6-000c-4e13-94e0-be7f519d7d21","ios":"levelo://app?vid=49893cc6-000c-4e13-94e0-be7f519d7d21"},"vehicle_type_id":"4","last_reported":1743858926,"current_range_meters":12000,"station_id":"cpo36qri1sfpv3e86is0","pricing_plan_id":"cebpf4jnsgd1na2vs0mg"},{"bike_id":"00e58e09-e3a6-4fe8-b4df-8181166e4cf3","system_id":"levelo_inurba_marseille","lat":43.211913,"lon":5.35084,"is_reserved":false,"is_disabled":true,"rental_uris":{"android":"levelo://app?vid=00e58e09-e3a6-4fe8-b4df-8181166e4cf3","ios":"levelo://app?vid=00e58e09-e3a6-4fe8-b4df-8181166e4cf3"},"vehicle_type_id":"4","last_reported":1743858926,"current_range_meters":12000,"station_id":"st_cvj6sg6p6f1abm77japg","pricing_plan_id":"cebpf4jnsgd1na2vs0mg"},{"bike_id":"00251f22-1b98-475e-968b-b3ed81a2303c","system_id":"levelo_inurba_marseille","lat":43.24185,"lon":5.36446,"is_reserved":false,"is_disabled":false,"rental_uris":{"android":"levelo://app?vid=00251f22-1b98-475e-968b-b3ed81a2303c","ios":"levelo://app?vid=00251f22-1b98-475e-968b-b3ed81a2303c"},"vehicle_type_id":"4","last_reported":1743858926,"current_range_meters":12000,"station_id":"cpo36qri1sfpv3e86is0","pricing_plan_id":"cebpf4jnsgd1na2vs0mg"},{"bike_id":"3a4ddc82-3be1-4056-8cce-a5d400df90fd","system_id":"levelo_inurba_marseille","lat":43.28617,"lon":5.35102,"is_reserved":false,"is_disabled":false,"rental_uris":{"android":"levelo://app?vid=3a4ddc82-3be1-4056-8cce-a5d400df90fd","ios":"levelo://app?vid=3a4ddc82-3be1-4056-8cce-a5d400df90fd"},"vehicle_type_id":"4","last_reported":1743858926,"current_range_meters":12000,"station_id":"ce4bhch2rcd13ifvqeug","pricing_plan_id":"cebpf4jnsgd1na2vs0mg"},{"bike_id":"a015a109-062f-430e-a4ca-825fdd5d11cf","system_id":"levelo_inurba_marseille","lat":43.24153,"lon":5.36422,"is_reserved":false,"is_disabled":false,"rental_uris":{"android":"levelo://app?vid=a015a109-062f-430e-a4ca-825fdd5d11cf","ios":"levelo://app?vid=a015a109-062f-430e-a4ca-825fdd5d11cf"},"vehicle_type_id":"4","last_reported":1743858926,"current_range_meters":12000,"station_id":"cpo36qri1sfpv3e86is0","pricing_plan_id":"cebpf4jnsgd1na2vs0mg"},{"bike_id":"b296343d-1344-4450-ad03-be305080f55c","system_id":"levelo_inurba_marseille","lat":43.27373,"lon":5.36256,"is_reserved":false,"is_disabled":false,"rental_uris":{"android":"levelo://app?vid=b296343d-1344-4450-ad03-be305080f55c","ios":"levelo://app?vid=b296343d-1344-4450-ad03-be305080f55c"},"vehicle_type_id":"4","last_reported":1743858926,"current_range_meters":12400,"station_id":"ce4bhbh2rcd13ifvqeo0","pricing_plan_id":"cebpf4jnsgd1na2vs0mg"},{"bike_id":"f87a95c9-2ce4-4d47-8869-52787964079c","system_id":"levelo_inurba_marseille","lat":43.21739,"lon":5.34609,"is_reserved":false,"is_disabled":false,"rental_uris":{"android":"levelo://app?vid=f87a95c9-2ce4-4d47-8869-52787964079c","ios":"levelo://app?vid=f87a95c9-2ce4-4d47-8869-52787964079c"},"vehicle_type_id":"4","last_reported":1743858926,"current_range_meters":12400,"station_id":"st_cvj6r9ubvosntc0bgbag","pricing_plan_id":"cebpf4jnsgd1na2vs0mg"},{"bike_id":"e9bf83b3-fd6b-451e-a1da-9cbb23ee6d6f","system_id":"levelo_inurba_marseille","lat":43.30895,"lon":5.37209,"is_reserved":false,"is_disabled":false,"rental_uris":{"android":"levelo://app?vid=e9bf83b3-fd6b-451e-a1da-9cbb23ee6d6f","ios":"levelo://app?vid=e9bf83b3-fd6b-451e-a1da-9cbb23ee6d6f"},"vehicle_type_id":"4","last_reported":1743858926,"current_range_meters":12400,"station_id":"ce4bguh2rcd13ifvqckg","pricing_plan_id":"cebpf4jnsgd1na2vs0mg"},{"bike_id":"a9239851-a971-49ea-a493-57b1737479d8","system_id":"levelo_inurba_marseille","lat":43.2827,"lon":5.35079,"is_reserved":false,"is_disabled":false,"rental_uris":{"android":"levelo://app?vid=a9239851-a971-49ea-a493-57b1737479d8","ios":"levelo://app?vid=a9239851-a971-49ea-a493-57b1737479d8"},"vehicle_type_id":"4","last_reported":1743858926,"current_range_meters":12400,"station_id":"ce4bhbp2rcd13ifvqerg","pricing_plan_id":"cebpf4jnsgd1na2vs0mg"},{"bike_id":"594ecc65-44ac-44ba-b726-69bd13ae580f","system_id":"levelo_inurba_marseille","lat":43.29005,"lon":5.35613,"is_reserved":false,"is_disabled":false,"rental_uris":{"android":"levelo://app?vid=594ecc65-44ac-44ba-b726-69bd13ae580f","ios":"levelo://app?vid=594ecc65-44ac-44ba-b726-69bd13ae580f"},"vehicle_type_id":"4","last_reported":1743858926,"current_range_meters":12400,"station_id":"ce4bhb92rcd13ifvqen0","pricing_plan_id":"cebpf4jnsgd1na2vs0mg"},{"bike_id":"a56438ac-790f-407e-b9d2-21f02535c80b","system_id":"levelo_inurba_marseille","lat":43.28271,"lon":5.35076,"is_reserved":false,"is_disabled":false,"rental_uris":{"android":"levelo://app?vid=a56438ac-790f-407e-b9d2-21f02535c80b","ios":"levelo://app?vid=a56438ac-790f-407e-b9d2-21f02535c80b"},"vehicle_type_id":"4","last_reported":1743858926,"current_range_meters":12800,"station_id":"ce4bhbp2rcd13ifvqerg","pricing_plan_id":"cebpf4jnsgd1na2vs0mg"},{"bike_id":"7912ca41-370e-46ab-922b-f63622eea5cd","system_id":"levelo_inurba_marseille","lat":43.22509,"lon":5.34797,"is_reserved":false,"is_disabled":false,"rental_uris":{"android":"levelo://app?vid=7912ca41-370e-46ab-922b-f63622eea5cd","ios":"levelo://app?vid=7912ca41-370e-46ab-922b-f63622eea5cd"},"vehicle_type_id":"4","last_reported":1743858926,"current_range_meters":12800,"station_id":"st_cvj5dfep6f1abm77gieg","pricing_plan_id":"cebpf4jnsgd1na2vs0mg"},{"bike_id":"d9484391-9485-4c17-b90b-1448a827c8a8","system_id":"levelo_inurba_marseille","lat":43.29589,"lon":5.36748,"is_reserved":false,"is_disabled":false,"rental_uris":{"android":"levelo://app?vid=d9484391-9485-4c17-b90b-1448a827c8a8","ios":"levelo://app?vid=d9484391-9485-4c17-b90b-1448a827c8a8"},"vehicle_type_id":"4","last_reported":1743858926,"current_range_meters":12800,"station_id":"ce4bgph2rcd13ifvqc2g","pricing_plan_id":"cebpf4jnsgd1na2vs0mg"},{"bike_id":"d47db081-df89-44ab-8e43-50d4a3db5cce","system_id":"levelo_inurba_marseille","lat":43.28854,"lon":5.39302,"is_reserved":false,"is_disabled":false,"rental_uris":{"android":"levelo://app?vid=d47db081-df89-44ab-8e43-50d4a3db5cce","ios":"levelo://app?vid=d47db081-df89-44ab-8e43-50d4a3db5cce"},"vehicle_type_id":"4","last_reported":1743858926,"current_range_meters":12800,"station_id":"ce4bh2p2rcd13ifvqdi0","pricing_plan_id":"cebpf4jnsgd1na2vs0mg"},{"bike_id":"5dbb7ca7-e61b-4fdb-8384-0a36cc85a03a","system_id":"levelo_inurba_marseille","lat":43.2397,"lon":5.36645,"is_reserved":false,"is_disabled":false,"rental_uris":{"android":"levelo://app?vid=5dbb7ca7-e61b-4fdb-8384-0a36cc85a03a","ios":"levelo://app?vid=5dbb7ca7-e61b-4fdb-8384-0a36cc85a03a"},"vehicle_type_id":"4","last_reported":1743858926,"current_range_meters":12800,"station_id":"ce4bhi12rcd13ifvqfp0","pricing_plan_id":"cebpf4jnsgd1na2vs0mg"},{"bike_id":"7cc8d9ad-2bff-4b20-aa70-58e00c93bbb6","system_id":"levelo_inurba_marseille","lat":43.29916,"lon":5.37459,"is_reserved":false,"is_disabled":false,"rental_uris":{"android":"levelo://app?vid=7cc8d9ad-2bff-4b20-aa70-58e00c93bbb6","ios":"levelo://app?vid=7cc8d9ad-2bff-4b20-aa70-58e00c93bbb6"},"vehicle_type_id":"4","last_reported":1743858926,"current_range_meters":12800,"station_id":"ce4bgjh2rcd13ifvqbg0","pricing_plan_id":"cebpf4jnsgd1na2vs0mg"},{"bike_id":"8ee8a071-ee3c-4e6e-b1b2-0e8120beb7f4","system_id":"levelo_inurba_marseille","lat":43.25953,"lon":5.40903,"is_reserved":false,"is_disabled":false,"rental_uris":{"android":"levelo://app?vid=8ee8a071-ee3c-4e6e-b1b2-0e8120beb7f4","ios":"levelo://app?vid=8ee8a071-ee3c-4e6e-b1b2-0e8120beb7f4"},"vehicle_type_id":"4","last_reported":1743858926,"current_range_meters":13600,"station_id":"ce4bhm92rcd13ifvqglg","pricing_plan_id":"cebpf4jnsgd1na2vs0mg"},{"bike_id":"601c97bb-98ba-40dc-aee9-73555ddc6ddf","system_id":"levelo_inurba_marseille","lat":43.24664,"lon":5.38159,"is_reserved":false,"is_disabled":false,"rental_uris":{"android":"levelo://app?vid=601c97bb-98ba-40dc-aee9-73555ddc6ddf","ios":"levelo://app?vid=601c97bb-98ba-40dc-aee9-73555ddc6ddf"},"vehicle_type_id":"4","last_reported":1743858926,"current_range_meters":13600,"station_id":"ce4bhih2rcd13ifvqfr0","pricing_plan_id":"cebpf4jnsgd1na2vs0mg"},{"bike_id":"9883ee7a-050d-4daa-b4d8-32745b994838","system_id":"levelo_inurba_marseille","lat":43.23192,"lon":5.3998,"is_reserved":false,"is_disabled":false,"rental_uris":{"android":"levelo://app?vid=9883ee7a-050d-4daa-b4d8-32745b994838","ios":"levelo://app?vid=9883ee7a-050d-4daa-b4d8-32745b994838"},"vehicle_type_id":"4","last_reported":1743858926,"current_range_meters":13600,"station_id":"ce4bhn12rcd13ifvqgqg","pricing_plan_id":"cebpf4jnsgd1na2vs0mg"},{"bike_id":"ddc7cc87-e9a1-43ae-b23f-569f6b4eae15","system_id":"levelo_inurba_marseille","lat":43.29637,"lon":5.40615,"is_reserved":false,"is_disabled":false,"rental_uris":{"android":"levelo://app?vid=ddc7cc87-e9a1-43ae-b23f-569f6b4eae15","ios":"levelo://app?vid=ddc7cc87-e9a1-43ae-b23f-569f6b4eae15"},"vehicle_type_id":"4","last_reported":1743858926,"current_range_meters":13600,"station_id":"ce4bh0h2rcd13ifvqd60","pricing_plan_id":"cebpf4jnsgd1na2vs0mg"},{"bike_id":"d3cdb696-0072-45aa-9575-a0f4de86acd0","system_id":"levelo_inurba_marseille","lat":43.309282,"lon":5.401404,"is_reserved":false,"is_disabled":true,"rental_uris":{"android":"levelo://app?vid=d3cdb696-0072-45aa-9575-a0f4de86acd0","ios":"levelo://app?vid=d3cdb696-0072-45aa-9575-a0f4de86acd0"},"vehicle_type_id":"4","last_reported":1743858926,"current_range_meters":13600,"station_id":"ce4bgvp2rcd13ifvqct0","pricing_plan_id":"cebpf4jnsgd1na2vs0mg"},{"bike_id":"a6303451-5b45-435c-bf0e-748f94cc010d","system_id":"levelo_inurba_marseille","lat":43.231905,"lon":5.355494,"is_reserved":false,"is_disabled":false,"rental_uris":{"android":"levelo://app?vid=a6303451-5b45-435c-bf0e-748f94cc010d","ios":"levelo://app?vid=a6303451-5b45-435c-bf0e-748f94cc010d"},"vehicle_type_id":"4","last_reported":1743858926,"current_range_meters":13600,"station_id":"ce4bhu92rcd13ifvqi70","pricing_plan_id":"cebpf4jnsgd1na2vs0mg"},{"bike_id":"12dcea59-580f-4ee0-93f1-05ad68e65de0","system_id":"levelo_inurba_marseille","lat":43.27835,"lon":5.39207,"is_reserved":false,"is_disabled":false,"rental_uris":{"android":"levelo://app?vid=12dcea59-580f-4ee0-93f1-05ad68e65de0","ios":"levelo://app?vid=12dcea59-580f-4ee0-93f1-05ad68e65de0"},"vehicle_type_id":"4","last_reported":1743858926,"current_range_meters":13600,"station_id":"ce4bhjp2rcd13ifvqga0","pricing_plan_id":"cebpf4jnsgd1na2vs0mg"},{"bike_id":"e1ab711e-1d7a-4afe-af67-1bdc40727ecc","system_id":"levelo_inurba_marseille","lat":43.28267,"lon":5.35078,"is_reserved":false,"is_disabled":false,"rental_uris":{"android":"levelo://app?vid=e1ab711e-1d7a-4afe-af67-1bdc40727ecc","ios":"levelo://app?vid=e1ab711e-1d7a-4afe-af67-1bdc40727ecc"},"vehicle_type_id":"4","last_reported":1743858926,"current_range_meters":13600,"station_id":"ce4bhbp2rcd13ifvqerg","pricing_plan_id":"cebpf4jnsgd1na2vs0mg"},{"bike_id":"b0fa9d7a-9bb1-4db4-93c2-b8e1c4194c57","system_id":"levelo_inurba_marseille","lat":43.27997,"lon":5.4002,"is_reserved":false,"is_disabled":false,"rental_uris":{"android":"levelo://app?vid=b0fa9d7a-9bb1-4db4-93c2-b8e1c4194c57","ios":"levelo://app?vid=b0fa9d7a-9bb1-4db4-93c2-b8e1c4194c57"},"vehicle_type_id":"4","last_reported":1743858926,"current_range_meters":13600,"station_id":"ce4bho92rcd13ifvqh4g","pricing_plan_id":"cebpf4jnsgd1na2vs0mg"},{"bike_id":"a6e85a14-7bef-4d48-b863-5de39c6e58c2","system_id":"levelo_inurba_marseille","lat":43.26195,"lon":5.37456,"is_reserved":false,"is_disabled":false,"rental_uris":{"android":"levelo://app?vid=a6e85a14-7bef-4d48-b863-5de39c6e58c2","ios":"levelo://app?vid=a6e85a14-7bef-4d48-b863-5de39c6e58c2"},"vehicle_type_id":"4","last_reported":1743858926,"current_range_meters":13600,"station_id":"ce4bhgp2rcd13ifvqfc0","pricing_plan_id":"cebpf4jnsgd1na2vs0mg"},{"bike_id":"6f8cda1c-a2c7-4882-8c14-e054e059e642","system_id":"levelo_inurba_marseille","lat":43.27171,"lon":5.40994,"is_reserved":false,"is_disabled":false,"rental_uris":{"android":"levelo://app?vid=6f8cda1c-a2c7-4882-8c14-e054e059e642","ios":"levelo://app?vid=6f8cda1c-a2c7-4882-8c14-e054e059e642"},"vehicle_type_id":"4","last_reported":1743858926,"current_range_meters":14000,"station_id":"ce4bhl12rcd13ifvqgf0","pricing_plan_id":"cebpf4jnsgd1na2vs0mg"},{"bike_id":"aea507a2-8bd3-46e8-a4e5-9e9767cdfbc3","system_id":"levelo_inurba_marseille","lat":43.27496,"lon":5.42451,"is_reserved":false,"is_disabled":false,"rental_uris":{"android":"levelo://app?vid=aea507a2-8bd3-46e8-a4e5-9e9767cdfbc3","ios":"levelo://app?vid=aea507a2-8bd3-46e8-a4e5-9e9767cdfbc3"},"vehicle_type_id":"4","last_reported":1743858926,"current_range_meters":14000,"station_id":"ce4bhn92rcd13ifvqgrg","pricing_plan_id":"cebpf4jnsgd1na2vs0mg"},{"bike_id":"de603971-ad9b-4430-951e-0e4f9937ea0a","system_id":"levelo_inurba_marseille","lat":43.2417,"lon":5.36391,"is_reserved":false,"is_disabled":false,"rental_uris":{"android":"levelo://app?vid=de603971-ad9b-4430-951e-0e4f9937ea0a","ios":"levelo://app?vid=de603971-ad9b-4430-951e-0e4f9937ea0a"},"vehicle_type_id":"4","last_reported":1743858926,"current_range_meters":14000,"station_id":"cpo36qri1sfpv3e86is0","pricing_plan_id":"cebpf4jnsgd1na2vs0mg"},{"bike_id":"7f629204-10a7-406e-bde3-ca21953db091","system_id":"levelo_inurba_marseille","lat":43.26584,"lon":5.373,"is_reserved":false,"is_disabled":false,"rental_uris":{"android":"levelo://app?vid=7f629204-10a7-406e-bde3-ca21953db091","ios":"levelo://app?vid=7f629204-10a7-406e-bde3-ca21953db091"},"vehicle_type_id":"4","last_reported":1743858926,"current_range_meters":14000,"station_id":"ce4bhg12rcd13ifvqf70","pricing_plan_id":"cebpf4jnsgd1na2vs0mg"},{"bike_id":"e0f32add-8763-4dca-9317-dffe2b61b1b8","system_id":"levelo_inurba_marseille","lat":43.24174,"lon":5.36404,"is_reserved":false,"is_disabled":false,"rental_uris":{"android":"levelo://app?vid=e0f32add-8763-4dca-9317-dffe2b61b1b8","ios":"levelo://app?vid=e0f32add-8763-4dca-9317-dffe2b61b1b8"},"vehicle_type_id":"4","last_reported":1743858926,"current_range_meters":14000,"station_id":"cpo36qri1sfpv3e86is0","pricing_plan_id":"cebpf4jnsgd1na2vs0mg"},{"bike_id":"8ef57e67-6845-461d-8a32-4f51ccf10fcf","system_id":"levelo_inurba_marseille","lat":43.255003,"lon":5.376493,"is_reserved":false,"is_disabled":false,"rental_uris":{"android":"levelo://app?vid=8ef57e67-6845-461d-8a32-4f51ccf10fcf","ios":"levelo://app?vid=8ef57e67-6845-461d-8a32-4f51ccf10fcf"},"vehicle_type_id":"4","last_reported":1743858926,"current_range_meters":14400,"station_id":"ce4bhh12rcd13ifvqff0","pricing_plan_id":"cebpf4jnsgd1na2vs0mg"},{"bike_id":"30634964-f53a-4b2b-a15a-2feea5bdbeb8","system_id":"levelo_inurba_marseille","lat":43.24082,"lon":5.37763,"is_reserved":false,"is_disabled":false,"rental_uris":{"android":"levelo://app?vid=30634964-f53a-4b2b-a15a-2feea5bdbeb8","ios":"levelo://app?vid=30634964-f53a-4b2b-a15a-2feea5bdbeb8"},"vehicle_type_id":"4","last_reported":1743858926,"current_range_meters":14400,"station_id":"ce4bhnp2rcd13ifvqgvg","pricing_plan_id":"cebpf4jnsgd1na2vs0mg"},{"bike_id":"78f5eb49-2986-4e89-a47d-f9f24b792d02","system_id":"levelo_inurba_marseille","lat":43.28421,"lon":5.34986,"is_reserved":false,"is_disabled":false,"rental_uris":{"android":"levelo://app?vid=78f5eb49-2986-4e89-a47d-f9f24b792d02","ios":"levelo://app?vid=78f5eb49-2986-4e89-a47d-f9f24b792d02"},"vehicle_type_id":"4","last_reported":1743858926,"current_range_meters":14400,"station_id":"ce4bhbh2rcd13ifvqepg","pricing_plan_id":"cebpf4jnsgd1na2vs0mg"},{"bike_id":"97d77224-5748-4443-848a-6ab951c45d6d","system_id":"levelo_inurba_marseille","lat":43.32269,"lon":5.38297,"is_reserved":false,"is_disabled":false,"rental_uris":{"android":"levelo://app?vid=97d77224-5748-4443-848a-6ab951c45d6d","ios":"levelo://app?vid=97d77224-5748-4443-848a-6ab951c45d6d"},"vehicle_type_id":"4","last_reported":1743858926,"current_range_meters":14400,"station_id":"ce4bhr12rcd13ifvqhqg","pricing_plan_id":"cebpf4jnsgd1na2vs0mg"},{"bike_id":"4ab5b3bb-6669-4971-bfce-54f3172d036e","system_id":"levelo_inurba_marseille","lat":43.26213,"lon":5.37442,"is_reserved":false,"is_disabled":false,"rental_uris":{"android":"levelo://app?vid=4ab5b3bb-6669-4971-bfce-54f3172d036e","ios":"levelo://app?vid=4ab5b3bb-6669-4971-bfce-54f3172d036e"},"vehicle_type_id":"4","last_reported":1743858926,"current_range_meters":14400,"station_id":"ce4bhgp2rcd13ifvqfc0","pricing_plan_id":"cebpf4jnsgd1na2vs0mg"},{"bike_id":"f7c0f77e-f09a-4cce-be93-0aaf14784a24","system_id":"levelo_inurba_marseille","lat":43.23154,"lon":5.43714,"is_reserved":false,"is_disabled":false,"rental_uris":{"android":"levelo://app?vid=f7c0f77e-f09a-4cce-be93-0aaf14784a24","ios":"levelo://app?vid=f7c0f77e-f09a-4cce-be93-0aaf14784a24"},"vehicle_type_id":"4","last_reported":1743858926,"current_range_meters":14400,"station_id":"ce4bhmp2rcd13ifvqgog","pricing_plan_id":"cebpf4jnsgd1na2vs0mg"},{"bike_id":"a5ee3e06-ae72-48d0-9bae-5aead6340ce6","system_id":"levelo_inurba_marseille","lat":43.28411,"lon":5.34983,"is_reserved":false,"is_disabled":false,"rental_uris":{"android":"levelo://app?vid=a5ee3e06-ae72-48d0-9bae-5aead6340ce6","ios":"levelo://app?vid=a5ee3e06-ae72-48d0-9bae-5aead6340ce6"},"vehicle_type_id":"4","last_reported":1743858926,"current_range_meters":14400,"station_id":"ce4bhbh2rcd13ifvqepg","pricing_plan_id":"cebpf4jnsgd1na2vs0mg"},{"bike_id":"73272853-088e-4b39-8e6e-94fe10fc353c","system_id":"levelo_inurba_marseille","lat":43.3376,"lon":5.37491,"is_reserved":false,"is_disabled":false,"rental_uris":{"android":"levelo://app?vid=73272853-088e-4b39-8e6e-94fe10fc353c","ios":"levelo://app?vid=73272853-088e-4b39-8e6e-94fe10fc353c"},"vehicle_type_id":"4","last_reported":1743858926,"current_range_meters":14400,"station_id":"","pricing_plan_id":"cebpf4jnsgd1na2vs0mg"},{"bike_id":"be7560ab-9ae2-41b2-bd03-13666b09f5ab","system_id":"levelo_inurba_marseille","lat":43.2397,"lon":5.36631,"is_reserved":false,"is_disabled":false,"rental_uris":{"android":"levelo://app?vid=be7560ab-9ae2-41b2-bd03-13666b09f5ab","ios":"levelo://app?vid=be7560ab-9ae2-41b2-bd03-13666b09f5ab"},"vehicle_type_id":"4","last_reported":1743858926,"current_range_meters":14400,"station_id":"ce4bhi12rcd13ifvqfp0","pricing_plan_id":"cebpf4jnsgd1na2vs0mg"},{"bike_id":"d9d6694b-f86f-4536-831e-f893d955c678","system_id":"levelo_inurba_marseille","lat":43.21756,"lon":5.34614,"is_reserved":false,"is_disabled":false,"rental_uris":{"android":"levelo://app?vid=d9d6694b-f86f-4536-831e-f893d955c678","ios":"levelo://app?vid=d9d6694b-f86f-4536-831e-f893d955c678"},"vehicle_type_id":"4","last_reported":1743858926,"current_range_meters":14400,"station_id":"st_cvj6r9ubvosntc0bgbag","pricing_plan_id":"cebpf4jnsgd1na2vs0mg"},{"bike_id":"32aac71e-4e3a-4f46-b92e-5c59aecf1709","system_id":"levelo_inurba_marseille","lat":43.231802,"lon":5.399917,"is_reserved":false,"is_disabled":false,"rental_uris":{"android":"levelo://app?vid=32aac71e-4e3a-4f46-b92e-5c59aecf1709","ios":"levelo://app?vid=32aac71e-4e3a-4f46-b92e-5c59aecf1709"},"vehicle_type_id":"4","last_reported":1743858926,"current_range_meters":14800,"station_id":"ce4bhn12rcd13ifvqgqg","pricing_plan_id":"cebpf4jnsgd1na2vs0mg"},{"bike_id":"c23772a6-53c1-430f-8570-284ba0642d08","system_id":"levelo_inurba_marseille","lat":43.28619,"lon":5.35102,"is_reserved":false,"is_disabled":false,"rental_uris":{"android":"levelo://app?vid=c23772a6-53c1-430f-8570-284ba0642d08","ios":"levelo://app?vid=c23772a6-53c1-430f-8570-284ba0642d08"},"vehicle_type_id":"4","last_reported":1743858926,"current_range_meters":14800,"station_id":"ce4bhch2rcd13ifvqeug","pricing_plan_id":"cebpf4jnsgd1na2vs0mg"},{"bike_id":"652d1757-8080-4e48-ad35-5e64267d4cee","system_id":"levelo_inurba_marseille","lat":43.22506,"lon":5.34783,"is_reserved":false,"is_disabled":false,"rental_uris":{"android":"levelo://app?vid=652d1757-8080-4e48-ad35-5e64267d4cee","ios":"levelo://app?vid=652d1757-8080-4e48-ad35-5e64267d4cee"},"vehicle_type_id":"4","last_reported":1743858926,"current_range_meters":14800,"station_id":"st_cvj5dfep6f1abm77gieg","pricing_plan_id":"cebpf4jnsgd1na2vs0mg"},{"bike_id":"04bad98f-e935-4a18-b805-fa19e1eb232e","system_id":"levelo_inurba_marseille","lat":43.27369,"lon":5.36258,"is_reserved":false,"is_disabled":false,"rental_uris":{"android":"levelo://app?vid=04bad98f-e935-4a18-b805-fa19e1eb232e","ios":"levelo://app?vid=04bad98f-e935-4a18-b805-fa19e1eb232e"},"vehicle_type_id":"4","last_reported":1743858926,"current_range_meters":14800,"station_id":"ce4bhbh2rcd13ifvqeo0","pricing_plan_id":"cebpf4jnsgd1na2vs0mg"},{"bike_id":"957cf1c7-1209-4aef-b3ff-c1be532a39c3","system_id":"levelo_inurba_marseille","lat":43.29929,"lon":5.36544,"is_reserved":false,"is_disabled":false,"rental_uris":{"android":"levelo://app?vid=957cf1c7-1209-4aef-b3ff-c1be532a39c3","ios":"levelo://app?vid=957cf1c7-1209-4aef-b3ff-c1be532a39c3"},"vehicle_type_id":"4","last_reported":1743858926,"current_range_meters":14800,"station_id":"ce4bgm92rcd13ifvqbr0","pricing_plan_id":"cebpf4jnsgd1na2vs0mg"},{"bike_id":"8b6642d1-b201-452f-97e9-5874bf77cc0b","system_id":"levelo_inurba_marseille","lat":43.28265,"lon":5.3507,"is_reserved":false,"is_disabled":false,"rental_uris":{"android":"levelo://app?vid=8b6642d1-b201-452f-97e9-5874bf77cc0b","ios":"levelo://app?vid=8b6642d1-b201-452f-97e9-5874bf77cc0b"},"vehicle_type_id":"4","last_reported":1743858926,"current_range_meters":14800,"station_id":"ce4bhbp2rcd13ifvqerg","pricing_plan_id":"cebpf4jnsgd1na2vs0mg"},{"bike_id":"1a903f1a-fcf1-4dc3-aa7b-777417dd0fe2","system_id":"levelo_inurba_marseille","lat":43.23184,"lon":5.39991,"is_reserved":false,"is_disabled":false,"rental_uris":{"android":"levelo://app?vid=1a903f1a-fcf1-4dc3-aa7b-777417dd0fe2","ios":"levelo://app?vid=1a903f1a-fcf1-4dc3-aa7b-777417dd0fe2"},"vehicle_type_id":"4","last_reported":1743858926,"current_range_meters":14800,"station_id":"ce4bhn12rcd13ifvqgqg","pricing_plan_id":"cebpf4jnsgd1na2vs0mg"},{"bike_id":"33bdc25c-426d-4542-8bd7-aea233210dc2","system_id":"levelo_inurba_marseille","lat":43.28418,"lon":5.34991,"is_reserved":false,"is_disabled":false,"rental_uris":{"android":"levelo://app?vid=33bdc25c-426d-4542-8bd7-aea233210dc2","ios":"levelo://app?vid=33bdc25c-426d-4542-8bd7-aea233210dc2"},"vehicle_type_id":"4","last_reported":1743858926,"current_range_meters":14800,"station_id":"ce4bhbh2rcd13ifvqepg","pricing_plan_id":"cebpf4jnsgd1na2vs0mg"},{"bike_id":"abf63916-c200-4e53-b23d-2ef1e1b43e8c","system_id":"levelo_inurba_marseille","lat":43.262054,"lon":5.374493,"is_reserved":false,"is_disabled":false,"rental_uris":{"android":"levelo://app?vid=abf63916-c200-4e53-b23d-2ef1e1b43e8c","ios":"levelo://app?vid=abf63916-c200-4e53-b23d-2ef1e1b43e8c"},"vehicle_type_id":"4","last_reported":1743858926,"current_range_meters":14800,"station_id":"ce4bhgp2rcd13ifvqfc0","pricing_plan_id":"cebpf4jnsgd1na2vs0mg"},{"bike_id":"c50edd2b-88dd-434e-b794-36692e2c1f27","system_id":"levelo_inurba_marseille","lat":43.2842,"lon":5.34982,"is_reserved":false,"is_disabled":false,"rental_uris":{"android":"levelo://app?vid=c50edd2b-88dd-434e-b794-36692e2c1f27","ios":"levelo://app?vid=c50edd2b-88dd-434e-b794-36692e2c1f27"},"vehicle_type_id":"4","last_reported":1743858926,"current_range_meters":14800,"station_id":"ce4bhbh2rcd13ifvqepg","pricing_plan_id":"cebpf4jnsgd1na2vs0mg"},{"bike_id":"0b519c50-d0ad-4835-9334-c715bf173a43","system_id":"levelo_inurba_marseille","lat":43.21747,"lon":5.34607,"is_reserved":false,"is_disabled":false,"rental_uris":{"android":"levelo://app?vid=0b519c50-d0ad-4835-9334-c715bf173a43","ios":"levelo://app?vid=0b519c50-d0ad-4835-9334-c715bf173a43"},"vehicle_type_id":"4","last_reported":1743858926,"current_range_meters":14800,"station_id":"st_cvj6r9ubvosntc0bgbag","pricing_plan_id":"cebpf4jnsgd1na2vs0mg"},{"bike_id":"0536dffa-ff78-43fe-98d9-935f05b51581","system_id":"levelo_inurba_marseille","lat":43.26214,"lon":5.37442,"is_reserved":false,"is_disabled":false,"rental_uris":{"android":"levelo://app?vid=0536dffa-ff78-43fe-98d9-935f05b51581","ios":"levelo://app?vid=0536dffa-ff78-43fe-98d9-935f05b51581"},"vehicle_type_id":"4","last_reported":1743858926,"current_range_meters":14800,"station_id":"ce4bhgp2rcd13ifvqfc0","pricing_plan_id":"cebpf4jnsgd1na2vs0mg"},{"bike_id":"c3037f17-1228-4abb-884c-9b668a0828f0","system_id":"levelo_inurba_marseille","lat":43.28846,"lon":5.39311,"is_reserved":false,"is_disabled":false,"rental_uris":{"android":"levelo://app?vid=c3037f17-1228-4abb-884c-9b668a0828f0","ios":"levelo://app?vid=c3037f17-1228-4abb-884c-9b668a0828f0"},"vehicle_type_id":"4","last_reported":1743858926,"current_range_meters":14800,"station_id":"ce4bh2p2rcd13ifvqdi0","pricing_plan_id":"cebpf4jnsgd1na2vs0mg"},{"bike_id":"37c6f2c1-df94-40c7-8ad1-5e3bfea38d66","system_id":"levelo_inurba_marseille","lat":43.28269,"lon":5.35075,"is_reserved":false,"is_disabled":false,"rental_uris":{"android":"levelo://app?vid=37c6f2c1-df94-40c7-8ad1-5e3bfea38d66","ios":"levelo://app?vid=37c6f2c1-df94-40c7-8ad1-5e3bfea38d66"},"vehicle_type_id":"4","last_reported":1743858926,"current_range_meters":15200,"station_id":"ce4bhbp2rcd13ifvqerg","pricing_plan_id":"cebpf4jnsgd1na2vs0mg"},{"bike_id":"6082a6d8-29f3-4441-bd82-d0f95ead75d7","system_id":"levelo_inurba_marseille","lat":43.23192,"lon":5.35553,"is_reserved":false,"is_disabled":false,"rental_uris":{"android":"levelo://app?vid=6082a6d8-29f3-4441-bd82-d0f95ead75d7","ios":"levelo://app?vid=6082a6d8-29f3-4441-bd82-d0f95ead75d7"},"vehicle_type_id":"4","last_reported":1743858926,"current_range_meters":15200,"station_id":"ce4bhu92rcd13ifvqi70","pricing_plan_id":"cebpf4jnsgd1na2vs0mg"},{"bike_id":"e2d58a24-315b-42dc-a67d-01e4c0d633e8","system_id":"levelo_inurba_marseille","lat":43.30542,"lon":5.36548,"is_reserved":false,"is_disabled":false,"rental_uris":{"android":"levelo://app?vid=e2d58a24-315b-42dc-a67d-01e4c0d633e8","ios":"levelo://app?vid=e2d58a24-315b-42dc-a67d-01e4c0d633e8"},"vehicle_type_id":"4","last_reported":1743858926,"current_range_meters":15200,"station_id":"ce4bgs12rcd13ifvqcag","pricing_plan_id":"cebpf4jnsgd1na2vs0mg"},{"bike_id":"5668444a-f62f-4659-b62f-6c7ed996d3c0","system_id":"levelo_inurba_marseille","lat":43.27917,"lon":5.39586,"is_reserved":false,"is_disabled":false,"rental_uris":{"android":"levelo://app?vid=5668444a-f62f-4659-b62f-6c7ed996d3c0","ios":"levelo://app?vid=5668444a-f62f-4659-b62f-6c7ed996d3c0"},"vehicle_type_id":"4","last_reported":1743858926,"current_range_meters":15200,"station_id":"ce4bhf92rcd13ifvqf40","pricing_plan_id":"cebpf4jnsgd1na2vs0mg"},{"bike_id":"9e9f2d4d-19de-4690-9c87-762fb37b6da4","system_id":"levelo_inurba_marseille","lat":43.24071,"lon":5.37763,"is_reserved":false,"is_disabled":false,"rental_uris":{"android":"levelo://app?vid=9e9f2d4d-19de-4690-9c87-762fb37b6da4","ios":"levelo://app?vid=9e9f2d4d-19de-4690-9c87-762fb37b6da4"},"vehicle_type_id":"4","last_reported":1743858926,"current_range_meters":15200,"station_id":"ce4bhnp2rcd13ifvqgvg","pricing_plan_id":"cebpf4jnsgd1na2vs0mg"},{"bike_id":"6318df25-e619-488e-8e5a-ffa050963103","system_id":"levelo_inurba_marseille","lat":43.217513,"lon":5.346018,"is_reserved":false,"is_disabled":false,"rental_uris":{"android":"levelo://app?vid=6318df25-e619-488e-8e5a-ffa050963103","ios":"levelo://app?vid=6318df25-e619-488e-8e5a-ffa050963103"},"vehicle_type_id":"4","last_reported":1743858926,"current_range_meters":15200,"station_id":"st_cvj6r9ubvosntc0bgbag","pricing_plan_id":"cebpf4jnsgd1na2vs0mg"},{"bike_id":"b83514b8-a568-4c6b-b395-6e3e9c44250d","system_id":"levelo_inurba_marseille","lat":43.30135,"lon":5.38786,"is_reserved":false,"is_disabled":false,"rental_uris":{"android":"levelo://app?vid=b83514b8-a568-4c6b-b395-6e3e9c44250d","ios":"levelo://app?vid=b83514b8-a568-4c6b-b395-6e3e9c44250d"},"vehicle_type_id":"4","last_reported":1743858926,"current_range_meters":15200,"station_id":"ce4bghh2rcd13ifvqb60","pricing_plan_id":"cebpf4jnsgd1na2vs0mg"},{"bike_id":"0e25daf2-8e9f-4c88-ae5a-c9ccbcf9f949","system_id":"levelo_inurba_marseille","lat":43.26648,"lon":5.395162,"is_reserved":false,"is_disabled":false,"rental_uris":{"android":"levelo://app?vid=0e25daf2-8e9f-4c88-ae5a-c9ccbcf9f949","ios":"levelo://app?vid=0e25daf2-8e9f-4c88-ae5a-c9ccbcf9f949"},"vehicle_type_id":"4","last_reported":1743858926,"current_range_meters":16000,"station_id":"ce4bhi12rcd13ifvqfq0","pricing_plan_id":"cebpf4jnsgd1na2vs0mg"},{"bike_id":"4fa6013b-300a-4281-880a-49944fb6c67a","system_id":"levelo_inurba_marseille","lat":43.29933,"lon":5.36546,"is_reserved":false,"is_disabled":false,"rental_uris":{"android":"levelo://app?vid=4fa6013b-300a-4281-880a-49944fb6c67a","ios":"levelo://app?vid=4fa6013b-300a-4281-880a-49944fb6c67a"},"vehicle_type_id":"4","last_reported":1743858926,"current_range_meters":16000,"station_id":"ce4bgm92rcd13ifvqbr0","pricing_plan_id":"cebpf4jnsgd1na2vs0mg"},{"bike_id":"87908f94-d8aa-4a33-8565-205213af20b1","system_id":"levelo_inurba_marseille","lat":43.32099,"lon":5.36791,"is_reserved":false,"is_disabled":false,"rental_uris":{"android":"levelo://app?vid=87908f94-d8aa-4a33-8565-205213af20b1","ios":"levelo://app?vid=87908f94-d8aa-4a33-8565-205213af20b1"},"vehicle_type_id":"4","last_reported":1743858926,"current_range_meters":16000,"station_id":"ce4bhrh2rcd13ifvqhug","pricing_plan_id":"cebpf4jnsgd1na2vs0mg"},{"bike_id":"dadd32c1-4050-4eb9-93db-8270acd70983","system_id":"levelo_inurba_marseille","lat":43.23154,"lon":5.43696,"is_reserved":false,"is_disabled":false,"rental_uris":{"android":"levelo://app?vid=dadd32c1-4050-4eb9-93db-8270acd70983","ios":"levelo://app?vid=dadd32c1-4050-4eb9-93db-8270acd70983"},"vehicle_type_id":"4","last_reported":1743858926,"current_range_meters":16000,"station_id":"ce4bhmp2rcd13ifvqgog","pricing_plan_id":"cebpf4jnsgd1na2vs0mg"},{"bike_id":"5149550d-1331-441a-adf6-355e0957a2ea","system_id":"levelo_inurba_marseille","lat":43.25501,"lon":5.37655,"is_reserved":false,"is_disabled":false,"rental_uris":{"android":"levelo://app?vid=5149550d-1331-441a-adf6-355e0957a2ea","ios":"levelo://app?vid=5149550d-1331-441a-adf6-355e0957a2ea"},"vehicle_type_id":"4","last_reported":1743858926,"current_range_meters":16000,"station_id":"ce4bhh12rcd13ifvqff0","pricing_plan_id":"cebpf4jnsgd1na2vs0mg"},{"bike_id":"5b8d1103-1921-4c53-912e-93d122cd3cdc","system_id":"levelo_inurba_marseille","lat":43.24386,"lon":5.37065,"is_reserved":false,"is_disabled":false,"rental_uris":{"android":"levelo://app?vid=5b8d1103-1921-4c53-912e-93d122cd3cdc","ios":"levelo://app?vid=5b8d1103-1921-4c53-912e-93d122cd3cdc"},"vehicle_type_id":"4","last_reported":1743858926,"current_range_meters":16000,"station_id":"ce4bhhh2rcd13ifvqfk0","pricing_plan_id":"cebpf4jnsgd1na2vs0mg"},{"bike_id":"b8b84d73-b0d4-44f5-b3b1-b4291b1ceb03","system_id":"levelo_inurba_marseille","lat":43.26214,"lon":5.37442,"is_reserved":false,"is_disabled":false,"rental_uris":{"android":"levelo://app?vid=b8b84d73-b0d4-44f5-b3b1-b4291b1ceb03","ios":"levelo://app?vid=b8b84d73-b0d4-44f5-b3b1-b4291b1ceb03"},"vehicle_type_id":"4","last_reported":1743858926,"current_range_meters":16400,"station_id":"ce4bhgp2rcd13ifvqfc0","pricing_plan_id":"cebpf4jnsgd1na2vs0mg"},{"bike_id":"8c07b64a-8b9b-4d19-8454-60e1851caea9","system_id":"levelo_inurba_marseille","lat":43.28268,"lon":5.35072,"is_reserved":false,"is_disabled":false,"rental_uris":{"android":"levelo://app?vid=8c07b64a-8b9b-4d19-8454-60e1851caea9","ios":"levelo://app?vid=8c07b64a-8b9b-4d19-8454-60e1851caea9"},"vehicle_type_id":"4","last_reported":1743858926,"current_range_meters":16400,"station_id":"ce4bhbp2rcd13ifvqerg","pricing_plan_id":"cebpf4jnsgd1na2vs0mg"},{"bike_id":"48f34db2-aab2-4981-a580-0410c97a4408","system_id":"levelo_inurba_marseille","lat":43.21749,"lon":5.34603,"is_reserved":false,"is_disabled":false,"rental_uris":{"android":"levelo://app?vid=48f34db2-aab2-4981-a580-0410c97a4408","ios":"levelo://app?vid=48f34db2-aab2-4981-a580-0410c97a4408"},"vehicle_type_id":"4","last_reported":1743858926,"current_range_meters":16400,"station_id":"st_cvj6r9ubvosntc0bgbag","pricing_plan_id":"cebpf4jnsgd1na2vs0mg"},{"bike_id":"ceba594e-ff69-4140-828e-f8a961103e51","system_id":"levelo_inurba_marseille","lat":43.24167,"lon":5.36396,"is_reserved":false,"is_disabled":false,"rental_uris":{"android":"levelo://app?vid=ceba594e-ff69-4140-828e-f8a961103e51","ios":"levelo://app?vid=ceba594e-ff69-4140-828e-f8a961103e51"},"vehicle_type_id":"4","last_reported":1743858926,"current_range_meters":16400,"station_id":"cpo36qri1sfpv3e86is0","pricing_plan_id":"cebpf4jnsgd1na2vs0mg"},{"bike_id":"7fd0635d-68ad-4ce6-a52b-daef56987b4b","system_id":"levelo_inurba_marseille","lat":43.30859,"lon":5.3859,"is_reserved":false,"is_disabled":false,"rental_uris":{"android":"levelo://app?vid=7fd0635d-68ad-4ce6-a52b-daef56987b4b","ios":"levelo://app?vid=7fd0635d-68ad-4ce6-a52b-daef56987b4b"},"vehicle_type_id":"4","last_reported":1743858926,"current_range_meters":16400,"station_id":"","pricing_plan_id":"cebpf4jnsgd1na2vs0mg"},{"bike_id":"10b2ca20-4666-4dd3-98ec-5db3d1bd8298","system_id":"levelo_inurba_marseille","lat":43.23145,"lon":5.43733,"is_reserved":false,"is_disabled":false,"rental_uris":{"android":"levelo://app?vid=10b2ca20-4666-4dd3-98ec-5db3d1bd8298","ios":"levelo://app?vid=10b2ca20-4666-4dd3-98ec-5db3d1bd8298"},"vehicle_type_id":"4","last_reported":1743858926,"current_range_meters":16400,"station_id":"ce4bhmp2rcd13ifvqgog","pricing_plan_id":"cebpf4jnsgd1na2vs0mg"},{"bike_id":"136b6e45-ee21-453e-aa22-e07947db9071","system_id":"levelo_inurba_marseille","lat":43.231476,"lon":5.437074,"is_reserved":false,"is_disabled":true,"rental_uris":{"android":"levelo://app?vid=136b6e45-ee21-453e-aa22-e07947db9071","ios":"levelo://app?vid=136b6e45-ee21-453e-aa22-e07947db9071"},"vehicle_type_id":"4","last_reported":1743858926,"current_range_meters":16400,"station_id":"ce4bhmp2rcd13ifvqgog","pricing_plan_id":"cebpf4jnsgd1na2vs0mg"},{"bike_id":"64723ed1-d23d-4a0d-a2d0-b3af72b7c6d2","system_id":"levelo_inurba_marseille","lat":43.281588,"lon":5.426453,"is_reserved":false,"is_disabled":false,"rental_uris":{"android":"levelo://app?vid=64723ed1-d23d-4a0d-a2d0-b3af72b7c6d2","ios":"levelo://app?vid=64723ed1-d23d-4a0d-a2d0-b3af72b7c6d2"},"vehicle_type_id":"4","last_reported":1743858926,"current_range_meters":16800,"station_id":"ce4bhnh2rcd13ifvqgug","pricing_plan_id":"cebpf4jnsgd1na2vs0mg"},{"bike_id":"20682287-de1b-43a1-b632-cac564c6dcb0","system_id":"levelo_inurba_marseille","lat":43.23209,"lon":5.35552,"is_reserved":false,"is_disabled":false,"rental_uris":{"android":"levelo://app?vid=20682287-de1b-43a1-b632-cac564c6dcb0","ios":"levelo://app?vid=20682287-de1b-43a1-b632-cac564c6dcb0"},"vehicle_type_id":"4","last_reported":1743858926,"current_range_meters":16800,"station_id":"ce4bhu92rcd13ifvqi70","pricing_plan_id":"cebpf4jnsgd1na2vs0mg"},{"bike_id":"84b8e111-4467-4f57-b6f7-41adfeccf68b","system_id":"levelo_inurba_marseille","lat":43.23068,"lon":5.35493,"is_reserved":false,"is_disabled":false,"rental_uris":{"android":"levelo://app?vid=84b8e111-4467-4f57-b6f7-41adfeccf68b","ios":"levelo://app?vid=84b8e111-4467-4f57-b6f7-41adfeccf68b"},"vehicle_type_id":"4","last_reported":1743858926,"current_range_meters":16800,"station_id":"cpo3342slgdg3j2ifvpg","pricing_plan_id":"cebpf4jnsgd1na2vs0mg"},{"bike_id":"52a1be53-7cbb-4f24-8173-f93b3b178b5d","system_id":"levelo_inurba_marseille","lat":43.29845,"lon":5.36275,"is_reserved":false,"is_disabled":false,"rental_uris":{"android":"levelo://app?vid=52a1be53-7cbb-4f24-8173-f93b3b178b5d","ios":"levelo://app?vid=52a1be53-7cbb-4f24-8173-f93b3b178b5d"},"vehicle_type_id":"4","last_reported":1743858926,"current_range_meters":16800,"station_id":"ce4bgpp2rcd13ifvqc3g","pricing_plan_id":"cebpf4jnsgd1na2vs0mg"},{"bike_id":"dda92d08-f9d4-4bec-a376-de4646008ab2","system_id":"levelo_inurba_marseille","lat":43.23194,"lon":5.35557,"is_reserved":false,"is_disabled":false,"rental_uris":{"android":"levelo://app?vid=dda92d08-f9d4-4bec-a376-de4646008ab2","ios":"levelo://app?vid=dda92d08-f9d4-4bec-a376-de4646008ab2"},"vehicle_type_id":"4","last_reported":1743858926,"current_range_meters":16800,"station_id":"ce4bhu92rcd13ifvqi70","pricing_plan_id":"cebpf4jnsgd1na2vs0mg"},{"bike_id":"090f269a-9ab8-45d6-b63d-88f73359bb00","system_id":"levelo_inurba_marseille","lat":43.29683,"lon":5.37299,"is_reserved":false,"is_disabled":false,"rental_uris":{"android":"levelo://app?vid=090f269a-9ab8-45d6-b63d-88f73359bb00","ios":"levelo://app?vid=090f269a-9ab8-45d6-b63d-88f73359bb00"},"vehicle_type_id":"4","last_reported":1743858926,"current_range_meters":17200,"station_id":"ce4bgk12rcd13ifvqbj0","pricing_plan_id":"cebpf4jnsgd1na2vs0mg"},{"bike_id":"a409c3f0-8991-4228-afb5-57b19bb06658","system_id":"levelo_inurba_marseille","lat":43.323707,"lon":5.388933,"is_reserved":false,"is_disabled":false,"rental_uris":{"android":"levelo://app?vid=a409c3f0-8991-4228-afb5-57b19bb06658","ios":"levelo://app?vid=a409c3f0-8991-4228-afb5-57b19bb06658"},"vehicle_type_id":"4","last_reported":1743858926,"current_range_meters":17200,"station_id":"ce4bhqp2rcd13ifvqhog","pricing_plan_id":"cebpf4jnsgd1na2vs0mg"},{"bike_id":"8f2b15fd-7b43-4128-a2f6-d3bbd734a3eb","system_id":"levelo_inurba_marseille","lat":43.286138,"lon":5.351117,"is_reserved":false,"is_disabled":false,"rental_uris":{"android":"levelo://app?vid=8f2b15fd-7b43-4128-a2f6-d3bbd734a3eb","ios":"levelo://app?vid=8f2b15fd-7b43-4128-a2f6-d3bbd734a3eb"},"vehicle_type_id":"4","last_reported":1743858926,"current_range_meters":17200,"station_id":"ce4bhch2rcd13ifvqeug","pricing_plan_id":"cebpf4jnsgd1na2vs0mg"},{"bike_id":"7acd0ca5-fa5f-40a0-bb91-77e29f09bb1d","system_id":"levelo_inurba_marseille","lat":43.30257,"lon":5.40061,"is_reserved":false,"is_disabled":false,"rental_uris":{"android":"levelo://app?vid=7acd0ca5-fa5f-40a0-bb91-77e29f09bb1d","ios":"levelo://app?vid=7acd0ca5-fa5f-40a0-bb91-77e29f09bb1d"},"vehicle_type_id":"4","last_reported":1743858926,"current_range_meters":17200,"station_id":"ce4bgvh2rcd13ifvqcs0","pricing_plan_id":"cebpf4jnsgd1na2vs0mg"},{"bike_id":"ee152e16-e797-47ec-973d-6c4480181e97","system_id":"levelo_inurba_marseille","lat":43.296243,"lon":5.370728,"is_reserved":false,"is_disabled":false,"rental_uris":{"android":"levelo://app?vid=ee152e16-e797-47ec-973d-6c4480181e97","ios":"levelo://app?vid=ee152e16-e797-47ec-973d-6c4480181e97"},"vehicle_type_id":"4","last_reported":1743858926,"current_range_meters":17200,"station_id":"ce4bgn12rcd13ifvqbt0","pricing_plan_id":"cebpf4jnsgd1na2vs0mg"},{"bike_id":"36f6fa25-615d-4e6f-b8bf-9bb620854e1b","system_id":"levelo_inurba_marseille","lat":43.31729,"lon":5.42395,"is_reserved":false,"is_disabled":false,"rental_uris":{"android":"levelo://app?vid=36f6fa25-615d-4e6f-b8bf-9bb620854e1b","ios":"levelo://app?vid=36f6fa25-615d-4e6f-b8bf-9bb620854e1b"},"vehicle_type_id":"4","last_reported":1743858926,"current_range_meters":17200,"station_id":"ce4bhp92rcd13ifvqhbg","pricing_plan_id":"cebpf4jnsgd1na2vs0mg"},{"bike_id":"0ca18096-6bf5-4144-b076-726733af49f8","system_id":"levelo_inurba_marseille","lat":43.22526,"lon":5.34795,"is_reserved":false,"is_disabled":false,"rental_uris":{"android":"levelo://app?vid=0ca18096-6bf5-4144-b076-726733af49f8","ios":"levelo://app?vid=0ca18096-6bf5-4144-b076-726733af49f8"},"vehicle_type_id":"4","last_reported":1743858926,"current_range_meters":17200,"station_id":"st_cvj5dfep6f1abm77gieg","pricing_plan_id":"cebpf4jnsgd1na2vs0mg"},{"bike_id":"edd1af41-2e34-41f2-a30e-bba77e91ec4d","system_id":"levelo_inurba_marseille","lat":43.28604,"lon":5.35107,"is_reserved":false,"is_disabled":false,"rental_uris":{"android":"levelo://app?vid=edd1af41-2e34-41f2-a30e-bba77e91ec4d","ios":"levelo://app?vid=edd1af41-2e34-41f2-a30e-bba77e91ec4d"},"vehicle_type_id":"4","last_reported":1743858926,"current_range_meters":17200,"station_id":"ce4bhch2rcd13ifvqeug","pricing_plan_id":"cebpf4jnsgd1na2vs0mg"},{"bike_id":"6bf0d690-a3f2-4ea0-b4d5-e4fa7f134a82","system_id":"levelo_inurba_marseille","lat":43.29013,"lon":5.35607,"is_reserved":false,"is_disabled":false,"rental_uris":{"android":"levelo://app?vid=6bf0d690-a3f2-4ea0-b4d5-e4fa7f134a82","ios":"levelo://app?vid=6bf0d690-a3f2-4ea0-b4d5-e4fa7f134a82"},"vehicle_type_id":"4","last_reported":1743858926,"current_range_meters":17200,"station_id":"ce4bhb92rcd13ifvqen0","pricing_plan_id":"cebpf4jnsgd1na2vs0mg"},{"bike_id":"3cf59243-d828-4f53-8773-10bd382da547","system_id":"levelo_inurba_marseille","lat":43.267966,"lon":5.402665,"is_reserved":false,"is_disabled":false,"rental_uris":{"android":"levelo://app?vid=3cf59243-d828-4f53-8773-10bd382da547","ios":"levelo://app?vid=3cf59243-d828-4f53-8773-10bd382da547"},"vehicle_type_id":"4","last_reported":1743858926,"current_range_meters":17200,"station_id":"ce501612rcd8frsf0b60","pricing_plan_id":"cebpf4jnsgd1na2vs0mg"},{"bike_id":"c77a0321-04bf-4a2e-8f43-bfe45d7654d8","system_id":"levelo_inurba_marseille","lat":43.276146,"lon":5.361091,"is_reserved":false,"is_disabled":false,"rental_uris":{"android":"levelo://app?vid=c77a0321-04bf-4a2e-8f43-bfe45d7654d8","ios":"levelo://app?vid=c77a0321-04bf-4a2e-8f43-bfe45d7654d8"},"vehicle_type_id":"4","last_reported":1743858926,"current_range_meters":17200,"station_id":"ce4bgj92rcd13ifvqbe0","pricing_plan_id":"cebpf4jnsgd1na2vs0mg"},{"bike_id":"8531f5d2-ec8c-49ba-9296-c719d99df2cd","system_id":"levelo_inurba_marseille","lat":43.22929,"lon":5.35372,"is_reserved":false,"is_disabled":false,"rental_uris":{"android":"levelo://app?vid=8531f5d2-ec8c-49ba-9296-c719d99df2cd","ios":"levelo://app?vid=8531f5d2-ec8c-49ba-9296-c719d99df2cd"},"vehicle_type_id":"4","last_reported":1743858926,"current_range_meters":17600,"station_id":"cpo3532slgdg3j2ikp40","pricing_plan_id":"cebpf4jnsgd1na2vs0mg"},{"bike_id":"b01f2b6c-7fe9-48f0-afe1-7f525943b944","system_id":"levelo_inurba_marseille","lat":43.26207,"lon":5.3793,"is_reserved":false,"is_disabled":false,"rental_uris":{"android":"levelo://app?vid=b01f2b6c-7fe9-48f0-afe1-7f525943b944","ios":"levelo://app?vid=b01f2b6c-7fe9-48f0-afe1-7f525943b944"},"vehicle_type_id":"4","last_reported":1743858926,"current_range_meters":17600,"station_id":"ce4bhjp2rcd13ifvqg90","pricing_plan_id":"cebpf4jnsgd1na2vs0mg"},{"bike_id":"a329e9f4-d2a6-4a62-978d-b25ffb56a940","system_id":"levelo_inurba_marseille","lat":43.30381,"lon":5.42482,"is_reserved":false,"is_disabled":false,"rental_uris":{"android":"levelo://app?vid=a329e9f4-d2a6-4a62-978d-b25ffb56a940","ios":"levelo://app?vid=a329e9f4-d2a6-4a62-978d-b25ffb56a940"},"vehicle_type_id":"4","last_reported":1743858926,"current_range_meters":17600,"station_id":"ce4bhoh2rcd13ifvqh6g","pricing_plan_id":"cebpf4jnsgd1na2vs0mg"},{"bike_id":"40a621c0-90fc-49e7-b4b6-60f8184e982f","system_id":"levelo_inurba_marseille","lat":43.32284,"lon":5.38297,"is_reserved":false,"is_disabled":false,"rental_uris":{"android":"levelo://app?vid=40a621c0-90fc-49e7-b4b6-60f8184e982f","ios":"levelo://app?vid=40a621c0-90fc-49e7-b4b6-60f8184e982f"},"vehicle_type_id":"4","last_reported":1743858926,"current_range_meters":17600,"station_id":"ce4bhr12rcd13ifvqhqg","pricing_plan_id":"cebpf4jnsgd1na2vs0mg"},{"bike_id":"c6b76f88-12a0-4f85-9d7f-afefcca3170b","system_id":"levelo_inurba_marseille","lat":43.21748,"lon":5.34609,"is_reserved":false,"is_disabled":false,"rental_uris":{"android":"levelo://app?vid=c6b76f88-12a0-4f85-9d7f-afefcca3170b","ios":"levelo://app?vid=c6b76f88-12a0-4f85-9d7f-afefcca3170b"},"vehicle_type_id":"4","last_reported":1743858926,"current_range_meters":17600,"station_id":"st_cvj6r9ubvosntc0bgbag","pricing_plan_id":"cebpf4jnsgd1na2vs0mg"},{"bike_id":"39f686d1-f6e1-424a-b4fa-e188b9c4f1e4","system_id":"levelo_inurba_marseille","lat":43.23055,"lon":5.35482,"is_reserved":false,"is_disabled":false,"rental_uris":{"android":"levelo://app?vid=39f686d1-f6e1-424a-b4fa-e188b9c4f1e4","ios":"levelo://app?vid=39f686d1-f6e1-424a-b4fa-e188b9c4f1e4"},"vehicle_type_id":"4","last_reported":1743858926,"current_range_meters":17600,"station_id":"cpo3342slgdg3j2ifvpg","pricing_plan_id":"cebpf4jnsgd1na2vs0mg"},{"bike_id":"0d430d29-3938-4749-83ce-da7208aeaf03","system_id":"levelo_inurba_marseille","lat":43.297211,"lon":5.377407,"is_reserved":false,"is_disabled":false,"rental_uris":{"android":"levelo://app?vid=0d430d29-3938-4749-83ce-da7208aeaf03","ios":"levelo://app?vid=0d430d29-3938-4749-83ce-da7208aeaf03"},"vehicle_type_id":"4","last_reported":1743858926,"current_range_meters":17600,"station_id":"ce4bgkh2rcd13ifvqbl0","pricing_plan_id":"cebpf4jnsgd1na2vs0mg"},{"bike_id":"f7e3b8fa-9062-4469-bcee-58c5aa5cfb6e","system_id":"levelo_inurba_marseille","lat":43.29536,"lon":5.38544,"is_reserved":false,"is_disabled":true,"rental_uris":{"android":"levelo://app?vid=f7e3b8fa-9062-4469-bcee-58c5aa5cfb6e","ios":"levelo://app?vid=f7e3b8fa-9062-4469-bcee-58c5aa5cfb6e"},"vehicle_type_id":"4","last_reported":1743858926,"current_range_meters":17600,"station_id":"ce4bgih2rcd13ifvqba0","pricing_plan_id":"cebpf4jnsgd1na2vs0mg"},{"bike_id":"20c5f95b-4cfd-47e2-a44d-6abb83d2326f","system_id":"levelo_inurba_marseille","lat":43.30532,"lon":5.3653,"is_reserved":false,"is_disabled":false,"rental_uris":{"android":"levelo://app?vid=20c5f95b-4cfd-47e2-a44d-6abb83d2326f","ios":"levelo://app?vid=20c5f95b-4cfd-47e2-a44d-6abb83d2326f"},"vehicle_type_id":"4","last_reported":1743858926,"current_range_meters":17600,"station_id":"ce4bgs12rcd13ifvqcag","pricing_plan_id":"cebpf4jnsgd1na2vs0mg"},{"bike_id":"859dd519-23f7-4fa4-be78-c592169babc6","system_id":"levelo_inurba_marseille","lat":43.28155,"lon":5.42654,"is_reserved":false,"is_disabled":false,"rental_uris":{"android":"levelo://app?vid=859dd519-23f7-4fa4-be78-c592169babc6","ios":"levelo://app?vid=859dd519-23f7-4fa4-be78-c592169babc6"},"vehicle_type_id":"4","last_reported":1743858926,"current_range_meters":17600,"station_id":"ce4bhnh2rcd13ifvqgug","pricing_plan_id":"cebpf4jnsgd1na2vs0mg"},{"bike_id":"421aec66-a6de-45d0-a843-821deb1ad01b","system_id":"levelo_inurba_marseille","lat":43.31756,"lon":5.39017,"is_reserved":false,"is_disabled":false,"rental_uris":{"android":"levelo://app?vid=421aec66-a6de-45d0-a843-821deb1ad01b","ios":"levelo://app?vid=421aec66-a6de-45d0-a843-821deb1ad01b"},"vehicle_type_id":"4","last_reported":1743858926,"current_range_meters":17600,"station_id":"ce4bhqp2rcd13ifvqhng","pricing_plan_id":"cebpf4jnsgd1na2vs0mg"},