{"last_updated":1758143276,"ttl":60,"version":"2.2","data":{"bikes":[{"bike_id":"322c1f5a-85db-4ef6-bcd4-1b5c417c8ee0","system_id":"levelo_inurba_marseille","lat":43.3377,"lon":5.37488,"is_reserved":false,"is_disabled":false,"rental_uris":{"android":"levelo://app?vid=322c1f5a-85db-4ef6-bcd4-1b5c417c8ee0","ios":"levelo://app?vid=322c1f5a-85db-4ef6-bcd4-1b5c417c8ee0"},"vehicle_type_id":"4","last_reported":1758143276,"current_range_meters":2800,"station_id":"","pricing_plan_id":"cebpf4jnsgd1na2vs0mg"},{"bike_id":"c4e35617-9855-4c70-8d8e-0f14fdd7f639","system_id":"levelo_inurba_marseille","lat":43.31306,"lon":5.38304,"is_reserved":false,"is_disabled":false,"rental_uris":{"android":"levelo://app?vid=c4e35617-9855-4c70-8d8e-0f14fdd7f639","ios":"levelo://app?vid=c4e35617-9855-4c70-8d8e-0f14fdd7f639"},"vehicle_type_id":"4","last_reported":1758143276,"current_range_meters":2800,"station_id":"","pricing_plan_id":"cebpf4jnsgd1na2vs0mg"},{"bike_id":"a288ee11-20da-4354-b5b0-83a3653d6a00","system_id":"levelo_inurba_marseille","lat":43.22488,"lon":5.34802,"is_reserved":false,"is_disabled":false,"rental_uris":{"android":"levelo://app?vid=a288ee11-20da-4354-b5b0-83a3653d6a00","ios":"levelo://app?vid=a288ee11-20da-4354-b5b0-83a3653d6a00"},"vehicle_type_id":"4","last_reported":1758143276,"current_range_meters":2800,"station_id":"","pricing_plan_id":"cebpf4jnsgd1na2vs0mg"},{"bike_id":"41274e6b-3616-4b32-94b2-946001c250ad","system_id":"levelo_inurba_marseille","lat":43.29209,"lon":5.39323,"is_reserved":false,"is_disabled":false,"rental_uris":{"android":"levelo://app?vid=41274e6b-3616-4b32-94b2-946001c250ad","ios":"levelo://app?vid=41274e6b-3616-4b32-94b2-946001c250ad"},"vehicle_type_id":"4","last_reported":1758143276,"current_range_meters":2800,"station_id":"ce4bh192rcd13ifvqdd0","pricing_plan_id":"cebpf4jnsgd1na2vs0mg"},{"bike_id":"979ff122-7c9e-4b0a-b11f-87ce9ea6569b","system_id":"levelo_inurba_marseille","lat":43.31658,"lon":5.3995,"is_reserved":false,"is_disabled":false,"rental_uris":{"android":"levelo://app?vid=979ff122-7c9e-4b0a-b11f-87ce9ea6569b","ios":"levelo://app?vid=979ff122-7c9e-4b0a-b11f-87ce9ea6569b"},"vehicle_type_id":"4","last_reported":1758143276,"current_range_meters":2800,"station_id":"","pricing_plan_id":"cebpf4jnsgd1na2vs0mg"},{"bike_id":"690b2ad9-2bc6-4024-95d1-95b998ee6573","system_id":"levelo_inurba_marseille","lat":43.3173,"lon":5.42404,"is_reserved":false,"is_disabled":false,"rental_uris":{"android":"levelo://app?vid=690b2ad9-2bc6-4024-95d1-95b998ee6573","ios":"levelo://app?vid=690b2ad9-2bc6-4024-95d1-95b998ee6573"},"vehicle_type_id":"4","last_reported":1758143276,"current_range_meters":3200,"station_id":"ce4bhp92rcd13ifvqhbg","pricing_plan_id":"cebpf4jnsgd1na2vs0mg"},{"bike_id":"c3ad4594-4e4a-42f9-93e2-c25c45a735b2","system_id":"levelo_inurba_marseille","lat":43.28864,"lon":5.4252,"is_reserved":false,"is_disabled":false,"rental_uris":{"android":"levelo://app?vid=c3ad4594-4e4a-42f9-93e2-c25c45a735b2","ios":"levelo://app?vid=c3ad4594-4e4a-42f9-93e2-c25c45a735b2"},"vehicle_type_id":"4","last_reported":1758143276,"current_range_meters":3600,"station_id":"","pricing_plan_id":"cebpf4jnsgd1na2vs0mg"},{"bike_id":"d8743062-bb39-48ba-85c3-0ff17148df7f","system_id":"levelo_inurba_marseille","lat":43.27179,"lon":5.41009,"is_reserved":false,"is_disabled":false,"rental_uris":{"android":"levelo://app?vid=d8743062-bb39-48ba-85c3-0ff17148df7f","ios":"levelo://app?vid=d8743062-bb39-48ba-85c3-0ff17148df7f"},"vehicle_type_id":"4","last_reported":1758143276,"current_range_meters":3600,"station_id":"ce4bhl12rcd13ifvqgf0","pricing_plan_id":"cebpf4jnsgd1na2vs0mg"},{"bike_id":"44d62bea-247a-4d20-b695-221ddbfa98a5","system_id":"levelo_inurba_marseille","lat":43.27988,"lon":5.41653,"is_reserved":false,"is_disabled":false,"rental_uris":{"android":"levelo://app?vid=44d62bea-247a-4d20-b695-221ddbfa98a5","ios":"levelo://app?vid=44d62bea-247a-4d20-b695-221ddbfa98a5"},"vehicle_type_id":"4","last_reported":1758143276,"current_range_meters":3600,"station_id":"ce4bho12rcd13ifvqh1g","pricing_plan_id":"cebpf4jnsgd1na2vs0mg"},{"bike_id":"939b5a4b-86b1-46cb-87b8-177bd29ba70d","system_id":"levelo_inurba_marseille","lat":43.31994,"lon":5.38149,"is_reserved":false,"is_disabled":true,"rental_uris":{"android":"levelo://app?vid=939b5a4b-86b1-46cb-87b8-177bd29ba70d","ios":"levelo://app?vid=939b5a4b-86b1-46cb-87b8-177bd29ba70d"},"vehicle_type_id":"4","last_reported":1758143276,"current_range_meters":4000,"station_id":"ce4bhr12rcd13ifvqhpg","pricing_plan_id":"cebpf4jnsgd1na2vs0mg"},{"bike_id":"c07e7a2d-d8a6-4efd-8723-e965be4d1a74","system_id":"levelo_inurba_marseille","lat":43.22533,"lon":5.348367,"is_reserved":false,"is_disabled":false,"rental_uris":{"android":"levelo://app?vid=c07e7a2d-d8a6-4efd-8723-e965be4d1a74","ios":"levelo://app?vid=c07e7a2d-d8a6-4efd-8723-e965be4d1a74"},"vehicle_type_id":"4","last_reported":1758143276,"current_range_meters":4000,"station_id":"","pricing_plan_id":"cebpf4jnsgd1na2vs0mg"},{"bike_id":"b1a1c4fa-2423-4d9f-9d80-d2c17675f92b","system_id":"levelo_inurba_marseille","lat":43.31089,"lon":5.42431,"is_reserved":false,"is_disabled":false,"rental_uris":{"android":"levelo://app?vid=b1a1c4fa-2423-4d9f-9d80-d2c17675f92b","ios":"levelo://app?vid=b1a1c4fa-2423-4d9f-9d80-d2c17675f92b"},"vehicle_type_id":"4","last_reported":1758143276,"current_range_meters":4000,"station_id":"ce4bhp92rcd13ifvqhag","pricing_plan_id":"cebpf4jnsgd1na2vs0mg"},{"bike_id":"2362df67-f7db-49db-92b0-5d4328d4b407","system_id":"levelo_inurba_marseille","lat":43.25104,"lon":5.40324,"is_reserved":false,"is_disabled":true,"rental_uris":{"android":"levelo://app?vid=2362df67-f7db-49db-92b0-5d4328d4b407","ios":"levelo://app?vid=2362df67-f7db-49db-92b0-5d4328d4b407"},"vehicle_type_id":"4","last_reported":1758143276,"current_range_meters":4400,"station_id":"ce4bhlh2rcd13ifvqgig","pricing_plan_id":"cebpf4jnsgd1na2vs0mg"},{"bike_id":"c66d3dd1-1578-4247-9e49-0453f866002d","system_id":"levelo_inurba_marseille","lat":43.30936,"lon":5.40142,"is_reserved":false,"is_disabled":false,"rental_uris":{"android":"levelo://app?vid=c66d3dd1-1578-4247-9e49-0453f866002d","ios":"levelo://app?vid=c66d3dd1-1578-4247-9e49-0453f866002d"},"vehicle_type_id":"4","last_reported":1758143276,"current_range_meters":4800,"station_id":"ce4bgvp2rcd13ifvqct0","pricing_plan_id":"cebpf4jnsgd1na2vs0mg"},{"bike_id":"e3e204f2-1779-4d30-9819-eb9e619b80fc","system_id":"levelo_inurba_marseille","lat":43.289246,"lon":5.384008,"is_reserved":false,"is_disabled":false,"rental_uris":{"android":"levelo://app?vid=e3e204f2-1779-4d30-9819-eb9e619b80fc","ios":"levelo://app?vid=e3e204f2-1779-4d30-9819-eb9e619b80fc"},"vehicle_type_id":"4","last_reported":1758143276,"current_range_meters":4800,"station_id":"ce4bh612rcd13ifvqe6g","pricing_plan_id":"cebpf4jnsgd1na2vs0mg"},{"bike_id":"95921934-0a3c-4866-a2b3-2f37de1ec8a5","system_id":"levelo_inurba_marseille","lat":43.29425,"lon":5.43354,"is_reserved":false,"is_disabled":false,"rental_uris":{"android":"levelo://app?vid=95921934-0a3c-4866-a2b3-2f37de1ec8a5","ios":"levelo://app?vid=95921934-0a3c-4866-a2b3-2f37de1ec8a5"},"vehicle_type_id":"4","last_reported":1758143276,"current_range_meters":4800,"station_id":"","pricing_plan_id":"cebpf4jnsgd1na2vs0mg"},{"bike_id":"174c2186-41a2-4f31-bb52-ea618397c227","system_id":"levelo_inurba_marseille","lat":43.28144,"lon":5.43914,"is_reserved":false,"is_disabled":false,"rental_uris":{"android":"levelo://app?vid=174c2186-41a2-4f31-bb52-ea618397c227","ios":"levelo://app?vid=174c2186-41a2-4f31-bb52-ea618397c227"},"vehicle_type_id":"4","last_reported":1758143276,"current_range_meters":5600,"station_id":"","pricing_plan_id":"cebpf4jnsgd1na2vs0mg"},{"bike_id":"f4763a02-ab1a-47dc-a398-08558d8ddf99","system_id":"levelo_inurba_marseille","lat":43.31766,"lon":5.39017,"is_reserved":false,"is_disabled":false,"rental_uris":{"android":"levelo://app?vid=f4763a02-ab1a-47dc-a398-08558d8ddf99","ios":"levelo://app?vid=f4763a02-ab1a-47dc-a398-08558d8ddf99"},"vehicle_type_id":"4","last_reported":1758143276,"current_range_meters":5600,"station_id":"ce4bhqp2rcd13ifvqhng","pricing_plan_id":"cebpf4jnsgd1na2vs0mg"},{"bike_id":"39dd4ed5-c6ab-4c0b-afd7-7c9b2c31f6f1","system_id":"levelo_inurba_marseille","lat":43.3019,"lon":5.36621,"is_reserved":false,"is_disabled":false,"rental_uris":{"android":"levelo://app?vid=39dd4ed5-c6ab-4c0b-afd7-7c9b2c31f6f1","ios":"levelo://app?vid=39dd4ed5-c6ab-4c0b-afd7-7c9b2c31f6f1"},"vehicle_type_id":"4","last_reported":1758143276,"current_range_meters":6000,"station_id":"ce4bgrh2rcd13ifvqc8g","pricing_plan_id":"cebpf4jnsgd1na2vs0mg"},{"bike_id":"32ca9d94-8781-4edc-b80f-cdc9cf1fb9fc","system_id":"levelo_inurba_marseille","lat":43.21751,"lon":5.34596,"is_reserved":false,"is_disabled":true,"rental_uris":{"android":"levelo://app?vid=32ca9d94-8781-4edc-b80f-cdc9cf1fb9fc","ios":"levelo://app?vid=32ca9d94-8781-4edc-b80f-cdc9cf1fb9fc"},"vehicle_type_id":"4","last_reported":1758143276,"current_range_meters":6000,"station_id":"st_cvj6r9ubvosntc0bgbag","pricing_plan_id":"cebpf4jnsgd1na2vs0mg"},{"bike_id":"13d4eea8-9844-42fe-8267-eaf155e127a2","system_id":"levelo_inurba_marseille","lat":43.29984,"lon":5.37191,"is_reserved":false,"is_disabled":true,"rental_uris":{"android":"levelo://app?vid=13d4eea8-9844-42fe-8267-eaf155e127a2","ios":"levelo://app?vid=13d4eea8-9844-42fe-8267-eaf155e127a2"},"vehicle_type_id":"4","last_reported":1758143276,"current_range_meters":6000,"station_id":"","pricing_plan_id":"cebpf4jnsgd1na2vs0mg"},{"bike_id":"a285c5ca-8031-4794-8def-0f1702201082","system_id":"levelo_inurba_marseille","lat":43.29872,"lon":5.39738,"is_reserved":false,"is_disabled":true,"rental_uris":{"android":"levelo://app?vid=a285c5ca-8031-4794-8def-0f1702201082","ios":"levelo://app?vid=a285c5ca-8031-4794-8def-0f1702201082"},"vehicle_type_id":"4","last_reported":1758143276,"current_range_meters":6400,"station_id":"ce4bh0h2rcd13ifvqd50","pricing_plan_id":"cebpf4jnsgd1na2vs0mg"},{"bike_id":"ef53f610-c93c-49ba-8ed2-c76476a26ba3","system_id":"levelo_inurba_marseille","lat":43.29796,"lon":5.40397,"is_reserved":false,"is_disabled":false,"rental_uris":{"android":"levelo://app?vid=ef53f610-c93c-49ba-8ed2-c76476a26ba3","ios":"levelo://app?vid=ef53f610-c93c-49ba-8ed2-c76476a26ba3"},"vehicle_type_id":"4","last_reported":1758143276,"current_range_meters":6400,"station_id":"ce4bh112rcd13ifvqd90","pricing_plan_id":"cebpf4jnsgd1na2vs0mg"},{"bike_id":"168fba12-ec23-443f-8311-d69782388c5f","system_id":"levelo_inurba_marseille","lat":43.27809,"lon":5.40712,"is_reserved":false,"is_disabled":false,"rental_uris":{"android":"levelo://app?vid=168fba12-ec23-443f-8311-d69782388c5f","ios":"levelo://app?vid=168fba12-ec23-443f-8311-d69782388c5f"},"vehicle_type_id":"4","last_reported":1758143276,"current_range_meters":6800,"station_id":"ce4bhnh2rcd13ifvqgtg","pricing_plan_id":"cebpf4jnsgd1na2vs0mg"},{"bike_id":"f895eb90-d970-4448-b096-5a166a903f92","system_id":"levelo_inurba_marseille","lat":43.26554,"lon":5.37297,"is_reserved":false,"is_disabled":true,"rental_uris":{"android":"levelo://app?vid=f895eb90-d970-4448-b096-5a166a903f92","ios":"levelo://app?vid=f895eb90-d970-4448-b096-5a166a903f92"},"vehicle_type_id":"4","last_reported":1758143276,"current_range_meters":7200,"station_id":"ce4bhg12rcd13ifvqf70","pricing_plan_id":"cebpf4jnsgd1na2vs0mg"},{"bike_id":"7ffc8ccb-8435-4796-adf1-e126c74d8349","system_id":"levelo_inurba_marseille","lat":43.30375,"lon":5.42477,"is_reserved":false,"is_disabled":false,"rental_uris":{"android":"levelo://app?vid=7ffc8ccb-8435-4796-adf1-e126c74d8349","ios":"levelo://app?vid=7ffc8ccb-8435-4796-adf1-e126c74d8349"},"vehicle_type_id":"4","last_reported":1758143276,"current_range_meters":7200,"station_id":"ce4bhoh2rcd13ifvqh6g","pricing_plan_id":"cebpf4jnsgd1na2vs0mg"},{"bike_id":"b8ff3a2d-3aaa-4430-b2d1-0c87a6780eed","system_id":"levelo_inurba_marseille","lat":43.303,"lon":5.37713,"is_reserved":false,"is_disabled":false,"rental_uris":{"android":"levelo://app?vid=b8ff3a2d-3aaa-4430-b2d1-0c87a6780eed","ios":"levelo://app?vid=b8ff3a2d-3aaa-4430-b2d1-0c87a6780eed"},"vehicle_type_id":"4","last_reported":1758143276,"current_range_meters":8000,"station_id":"ce4bguh2rcd13ifvqcj0","pricing_plan_id":"cebpf4jnsgd1na2vs0mg"},{"bike_id":"3b26aa0d-3679-4b4c-9b55-1096f6d08a9d","system_id":"levelo_inurba_marseille","lat":43.31294,"lon":5.39373,"is_reserved":false,"is_disabled":false,"rental_uris":{"android":"levelo://app?vid=3b26aa0d-3679-4b4c-9b55-1096f6d08a9d","ios":"levelo://app?vid=3b26aa0d-3679-4b4c-9b55-1096f6d08a9d"},"vehicle_type_id":"4","last_reported":1758143276,"current_range_meters":8000,"station_id":"","pricing_plan_id":"cebpf4jnsgd1na2vs0mg"},{"bike_id":"9023d84f-8ef9-4749-9cb8-a2ef6b71e57a","system_id":"levelo_inurba_marseille","lat":43.27948,"lon":5.41046,"is_reserved":false,"is_disabled":true,"rental_uris":{"android":"levelo://app?vid=9023d84f-8ef9-4749-9cb8-a2ef6b71e57a","ios":"levelo://app?vid=9023d84f-8ef9-4749-9cb8-a2ef6b71e57a"},"vehicle_type_id":"4","last_reported":1758143276,"current_range_meters":8000,"station_id":"ce4bhnp2rcd13ifvqh0g","pricing_plan_id":"cebpf4jnsgd1na2vs0mg"},{"bike_id":"27fdbdf0-380d-4d55-aa85-d6ea9f5c174d","system_id":"levelo_inurba_marseille","lat":43.315351,"lon":5.380334,"is_reserved":false,"is_disabled":false,"rental_uris":{"android":"levelo://app?vid=27fdbdf0-380d-4d55-aa85-d6ea9f5c174d","ios":"levelo://app?vid=27fdbdf0-380d-4d55-aa85-d6ea9f5c174d"},"vehicle_type_id":"4","last_reported":1758143276,"current_range_meters":8000,"station_id":"ce4bhsp2rcd13ifvqi50","pricing_plan_id":"cebpf4jnsgd1na2vs0mg"},{"bike_id":"b878969e-0167-4bb0-b49f-f2c086c9b3d9","system_id":"levelo_inurba_marseille","lat":43.26864,"lon":5.40684,"is_reserved":false,"is_disabled":false,"rental_uris":{"android":"levelo://app?vid=b878969e-0167-4bb0-b49f-f2c086c9b3d9","ios":"levelo://app?vid=b878969e-0167-4bb0-b49f-f2c086c9b3d9"},"vehicle_type_id":"4","last_reported":1758143276,"current_range_meters":8000,"station_id":"","pricing_plan_id":"cebpf4jnsgd1na2vs0mg"},{"bike_id":"ad22d8b4-d2ba-4c51-ab41-144859f2318a","system_id":"levelo_inurba_marseille","lat":43.30732,"lon":5.4245,"is_reserved":false,"is_disabled":false,"rental_uris":{"android":"levelo://app?vid=ad22d8b4-d2ba-4c51-ab41-144859f2318a","ios":"levelo://app?vid=ad22d8b4-d2ba-4c51-ab41-144859f2318a"},"vehicle_type_id":"4","last_reported":1758143276,"current_range_meters":8400,"station_id":"st_cvj6ca6bvosntc0bfgr0","pricing_plan_id":"cebpf4jnsgd1na2vs0mg"},{"bike_id":"c33a66a3-1bf6-4439-a7ba-5d098a6034f6","system_id":"levelo_inurba_marseille","lat":43.28354,"lon":5.38126,"is_reserved":false,"is_disabled":false,"rental_uris":{"android":"levelo://app?vid=c33a66a3-1bf6-4439-a7ba-5d098a6034f6","ios":"levelo://app?vid=c33a66a3-1bf6-4439-a7ba-5d098a6034f6"},"vehicle_type_id":"4","last_reported":1758143276,"current_range_meters":8000,"station_id":"ce4bh412rcd13ifvqdr0","pricing_plan_id":"cebpf4jnsgd1na2vs0mg"},{"bike_id":"690d219e-dd1d-4a9a-8f1e-e8ac0be5a39e","system_id":"levelo_inurba_marseille","lat":43.274133,"lon":5.393657,"is_reserved":false,"is_disabled":false,"rental_uris":{"android":"levelo://app?vid=690d219e-dd1d-4a9a-8f1e-e8ac0be5a39e","ios":"levelo://app?vid=690d219e-dd1d-4a9a-8f1e-e8ac0be5a39e"},"vehicle_type_id":"4","last_reported":1758143276,"current_range_meters":8000,"station_id":"ce4bhhh2rcd13ifvqfl0","pricing_plan_id":"cebpf4jnsgd1na2vs0mg"},{"bike_id":"d7c76e3a-65f3-46fc-a71c-8c8a4164ec91","system_id":"levelo_inurba_marseille","lat":43.28718,"lon":5.3794,"is_reserved":false,"is_disabled":false,"rental_uris":{"android":"levelo://app?vid=d7c76e3a-65f3-46fc-a71c-8c8a4164ec91","ios":"levelo://app?vid=d7c76e3a-65f3-46fc-a71c-8c8a4164ec91"},"vehicle_type_id":"4","last_reported":1758143276,"current_range_meters":8400,"station_id":"ce4bh9p2rcd13ifvqec0","pricing_plan_id":"cebpf4jnsgd1na2vs0mg"},{"bike_id":"0ede21be-37d9-4495-b672-80274a6292be","system_id":"levelo_inurba_marseille","lat":43.35054,"lon":5.34102,"is_reserved":false,"is_disabled":false,"rental_uris":{"android":"levelo://app?vid=0ede21be-37d9-4495-b672-80274a6292be","ios":"levelo://app?vid=0ede21be-37d9-4495-b672-80274a6292be"},"vehicle_type_id":"4","last_reported":1758143276,"current_range_meters":8400,"station_id":"","pricing_plan_id":"cebpf4jnsgd1na2vs0mg"},{"bike_id":"33230291-31ce-440d-8708-4f36a87b8bf8","system_id":"levelo_inurba_marseille","lat":43.27915,"lon":5.3958,"is_reserved":false,"is_disabled":false,"rental_uris":{"android":"levelo://app?vid=33230291-31ce-440d-8708-4f36a87b8bf8","ios":"levelo://app?vid=33230291-31ce-440d-8708-4f36a87b8bf8"},"vehicle_type_id":"4","last_reported":1758143276,"current_range_meters":8400,"station_id":"ce4bhf92rcd13ifvqf40","pricing_plan_id":"cebpf4jnsgd1na2vs0mg"},{"bike_id":"50df05c5-9e78-4a32-8c15-ea1e068d3278","system_id":"levelo_inurba_marseille","lat":43.26944,"lon":5.3864,"is_reserved":false,"is_disabled":true,"rental_uris":{"android":"levelo://app?vid=50df05c5-9e78-4a32-8c15-ea1e068d3278","ios":"levelo://app?vid=50df05c5-9e78-4a32-8c15-ea1e068d3278"},"vehicle_type_id":"4","last_reported":1758143276,"current_range_meters":9200,"station_id":"ce4bhh92rcd13ifvqfh0","pricing_plan_id":"cebpf4jnsgd1na2vs0mg"},{"bike_id":"5bd30648-a701-40b1-a872-a3b64690a3d1","system_id":"levelo_inurba_marseille","lat":43.29577,"lon":5.37525,"is_reserved":false,"is_disabled":false,"rental_uris":{"android":"levelo://app?vid=5bd30648-a701-40b1-a872-a3b64690a3d1","ios":"levelo://app?vid=5bd30648-a701-40b1-a872-a3b64690a3d1"},"vehicle_type_id":"4","last_reported":1758143276,"current_range_meters":8800,"station_id":"","pricing_plan_id":"cebpf4jnsgd1na2vs0mg"},{"bike_id":"336c74d9-d9c9-46d7-a94b-134b36ad023a","system_id":"levelo_inurba_marseille","lat":43.29822,"lon":5.37837,"is_reserved":false,"is_disabled":false,"rental_uris":{"android":"levelo://app?vid=336c74d9-d9c9-46d7-a94b-134b36ad023a","ios":"levelo://app?vid=336c74d9-d9c9-46d7-a94b-134b36ad023a"},"vehicle_type_id":"4","last_reported":1758143276,"current_range_meters":8800,"station_id":"","pricing_plan_id":"cebpf4jnsgd1na2vs0mg"},{"bike_id":"0f1e4082-8b2b-4ff5-9de9-ed99b97454ab","system_id":"levelo_inurba_marseille","lat":43.305752,"lon":5.39359,"is_reserved":false,"is_disabled":false,"rental_uris":{"android":"levelo://app?vid=0f1e4082-8b2b-4ff5-9de9-ed99b97454ab","ios":"levelo://app?vid=0f1e4082-8b2b-4ff5-9de9-ed99b97454ab"},"vehicle_type_id":"4","last_reported":1758143276,"current_range_meters":8800,"station_id":"ce4bh0p2rcd13ifvqd80","pricing_plan_id":"cebpf4jnsgd1na2vs0mg"},{"bike_id":"94fda26d-47e3-4d9d-97a5-a4f6ce7a1b30","system_id":"levelo_inurba_marseille","lat":43.29925,"lon":5.37476,"is_reserved":false,"is_disabled":false,"rental_uris":{"android":"levelo://app?vid=94fda26d-47e3-4d9d-97a5-a4f6ce7a1b30","ios":"levelo://app?vid=94fda26d-47e3-4d9d-97a5-a4f6ce7a1b30"},"vehicle_type_id":"4","last_reported":1758143276,"current_range_meters":8800,"station_id":"ce4bgjh2rcd13ifvqbg0","pricing_plan_id":"cebpf4jnsgd1na2vs0mg"},{"bike_id":"003515e8-8117-44bb-979d-5f47e8d50fda","system_id":"levelo_inurba_marseille","lat":43.30625,"lon":5.37566,"is_reserved":false,"is_disabled":false,"rental_uris":{"android":"levelo://app?vid=003515e8-8117-44bb-979d-5f47e8d50fda","ios":"levelo://app?vid=003515e8-8117-44bb-979d-5f47e8d50fda"},"vehicle_type_id":"4","last_reported":1758143276,"current_range_meters":9200,"station_id":"","pricing_plan_id":"cebpf4jnsgd1na2vs0mg"},{"bike_id":"aeb2da0f-1ba2-4461-9448-c5aa6f09fb41","system_id":"levelo_inurba_marseille","lat":43.29536,"lon":5.39029,"is_reserved":false,"is_disabled":false,"rental_uris":{"android":"levelo://app?vid=aeb2da0f-1ba2-4461-9448-c5aa6f09fb41","ios":"levelo://app?vid=aeb2da0f-1ba2-4461-9448-c5aa6f09fb41"},"vehicle_type_id":"4","last_reported":1758143276,"current_range_meters":9200,"station_id":"ce4bh3p2rcd13ifvqdp0","pricing_plan_id":"cebpf4jnsgd1na2vs0mg"},{"bike_id":"775af279-8ac9-4585-9121-809be9b13265","system_id":"levelo_inurba_marseille","lat":43.33797,"lon":5.37452,"is_reserved":false,"is_disabled":false,"rental_uris":{"android":"levelo://app?vid=775af279-8ac9-4585-9121-809be9b13265","ios":"levelo://app?vid=775af279-8ac9-4585-9121-809be9b13265"},"vehicle_type_id":"4","last_reported":1758143276,"current_range_meters":9200,"station_id":"","pricing_plan_id":"cebpf4jnsgd1na2vs0mg"},{"bike_id":"05eeda8d-199a-458b-89bc-f4007da7d881","system_id":"levelo_inurba_marseille","lat":43.29342,"lon":5.37178,"is_reserved":false,"is_disabled":false,"rental_uris":{"android":"levelo://app?vid=05eeda8d-199a-458b-89bc-f4007da7d881","ios":"levelo://app?vid=05eeda8d-199a-458b-89bc-f4007da7d881"},"vehicle_type_id":"4","last_reported":1758143276,"current_range_meters":9600,"station_id":"ce4bgh92rcd13ifvqb40","pricing_plan_id":"cebpf4jnsgd1na2vs0mg"},{"bike_id":"dc056a5f-dd0c-437c-bb54-187cc2a010ce","system_id":"levelo_inurba_marseille","lat":43.297844,"lon":5.393597,"is_reserved":false,"is_disabled":true,"rental_uris":{"android":"levelo://app?vid=dc056a5f-dd0c-437c-bb54-187cc2a010ce","ios":"levelo://app?vid=dc056a5f-dd0c-437c-bb54-187cc2a010ce"},"vehicle_type_id":"4","last_reported":1758143276,"current_range_meters":9600,"station_id":"chh1huq6cuj3fo74tm60","pricing_plan_id":"cebpf4jnsgd1na2vs0mg"},{"bike_id":"71a2ca06-43e0-422b-a0b6-9580a40eb8e5","system_id":"levelo_inurba_marseille","lat":43.27922,"lon":5.3959,"is_reserved":false,"is_disabled":false,"rental_uris":{"android":"levelo://app?vid=71a2ca06-43e0-422b-a0b6-9580a40eb8e5","ios":"levelo://app?vid=71a2ca06-43e0-422b-a0b6-9580a40eb8e5"},"vehicle_type_id":"4","last_reported":1758143276,"current_range_meters":9600,"station_id":"ce4bhf92rcd13ifvqf40","pricing_plan_id":"cebpf4jnsgd1na2vs0mg"},{"bike_id":"53bf1967-cb18-4ea9-89c6-f7e3cf22a440","system_id":"levelo_inurba_marseille","lat":43.28371,"lon":5.38633,"is_reserved":false,"is_disabled":false,"rental_uris":{"android":"levelo://app?vid=53bf1967-cb18-4ea9-89c6-f7e3cf22a440","ios":"levelo://app?vid=53bf1967-cb18-4ea9-89c6-f7e3cf22a440"},"vehicle_type_id":"4","last_reported":1758143276,"current_range_meters":9200,"station_id":"ce4bh492rcd13ifvqdvg","pricing_plan_id":"cebpf4jnsgd1na2vs0mg"},{"bike_id":"a226b02b-2c60-498a-be00-b8114c72fc49","system_id":"levelo_inurba_marseille","lat":43.279483,"lon":5.410457,"is_reserved":false,"is_disabled":false,"rental_uris":{"android":"levelo://app?vid=a226b02b-2c60-498a-be00-b8114c72fc49","ios":"levelo://app?vid=a226b02b-2c60-498a-be00-b8114c72fc49"},"vehicle_type_id":"4","last_reported":1758143276,"current_range_meters":9600,"station_id":"ce4bhnp2rcd13ifvqh0g","pricing_plan_id":"cebpf4jnsgd1na2vs0mg"},{"bike_id":"4743ed7d-8447-4914-bce7-2b85051576a6","system_id":"levelo_inurba_marseille","lat":43.30589,"lon":5.3935,"is_reserved":false,"is_disabled":false,"rental_uris":{"android":"levelo://app?vid=4743ed7d-8447-4914-bce7-2b85051576a6","ios":"levelo://app?vid=4743ed7d-8447-4914-bce7-2b85051576a6"},"vehicle_type_id":"4","last_reported":1758143276,"current_range_meters":10000,"station_id":"ce4bh0p2rcd13ifvqd80","pricing_plan_id":"cebpf4jnsgd1na2vs0mg"},{"bike_id":"5cebaa99-7be9-4a3f-9cc0-5cdfdaef03f0","system_id":"levelo_inurba_marseille","lat":43.225319,"lon":5.348348,"is_reserved":false,"is_disabled":false,"rental_uris":{"android":"levelo://app?vid=5cebaa99-7be9-4a3f-9cc0-5cdfdaef03f0","ios":"levelo://app?vid=5cebaa99-7be9-4a3f-9cc0-5cdfdaef03f0"},"vehicle_type_id":"4","last_reported":1758143276,"current_range_meters":10000,"station_id":"","pricing_plan_id":"cebpf4jnsgd1na2vs0mg"},{"bike_id":"ca5a1340-d41e-49f3-95f8-599734e0a36c","system_id":"levelo_inurba_marseille","lat":43.225336,"lon":5.348339,"is_reserved":false,"is_disabled":false,"rental_uris":{"android":"levelo://app?vid=ca5a1340-d41e-49f3-95f8-599734e0a36c","ios":"levelo://app?vid=ca5a1340-d41e-49f3-95f8-599734e0a36c"},"vehicle_type_id":"4","last_reported":1758143276,"current_range_meters":10800,"station_id":"","pricing_plan_id":"cebpf4jnsgd1na2vs0mg"},{"bike_id":"d2d21405-7d84-46d6-9542-57aa659023fa","system_id":"levelo_inurba_marseille","lat":43.33122,"lon":5.37878,"is_reserved":false,"is_disabled":false,"rental_uris":{"android":"levelo://app?vid=d2d21405-7d84-46d6-9542-57aa659023fa","ios":"levelo://app?vid=d2d21405-7d84-46d6-9542-57aa659023fa"},"vehicle_type_id":"4","last_reported":1758143276,"current_range_meters":10800,"station_id":"","pricing_plan_id":"cebpf4jnsgd1na2vs0mg"},{"bike_id":"426ba9b8-e709-4394-a698-823d81921829","system_id":"levelo_inurba_marseille","lat":43.30937,"lon":5.40142,"is_reserved":false,"is_disabled":false,"rental_uris":{"android":"levelo://app?vid=426ba9b8-e709-4394-a698-823d81921829","ios":"levelo://app?vid=426ba9b8-e709-4394-a698-823d81921829"},"vehicle_type_id":"4","last_reported":1758143276,"current_range_meters":10800,"station_id":"ce4bgvp2rcd13ifvqct0","pricing_plan_id":"cebpf4jnsgd1na2vs0mg"},{"bike_id":"821a9228-0849-4261-a011-0f758c81169c","system_id":"levelo_inurba_marseille","lat":43.31327,"lon":5.39694,"is_reserved":false,"is_disabled":false,"rental_uris":{"android":"levelo://app?vid=821a9228-0849-4261-a011-0f758c81169c","ios":"levelo://app?vid=821a9228-0849-4261-a011-0f758c81169c"},"vehicle_type_id":"4","last_reported":1758143276,"current_range_meters":10800,"station_id":"ce4bgvp2rcd13ifvqcu0","pricing_plan_id":"cebpf4jnsgd1na2vs0mg"},{"bike_id":"97fac187-45a1-4e8f-be9b-a5c24559a733","system_id":"levelo_inurba_marseille","lat":43.21749,"lon":5.3461,"is_reserved":false,"is_disabled":false,"rental_uris":{"android":"levelo://app?vid=97fac187-45a1-4e8f-be9b-a5c24559a733","ios":"levelo://app?vid=97fac187-45a1-4e8f-be9b-a5c24559a733"},"vehicle_type_id":"4","last_reported":1758143276,"current_range_meters":11200,"station_id":"st_cvj6r9ubvosntc0bgbag","pricing_plan_id":"cebpf4jnsgd1na2vs0mg"},{"bike_id":"2a5e641a-ca90-4f3a-9350-63bb94d9cebf","system_id":"levelo_inurba_marseille","lat":43.25552,"lon":5.39161,"is_reserved":false,"is_disabled":false,"rental_uris":{"android":"levelo://app?vid=2a5e641a-ca90-4f3a-9350-63bb94d9cebf","ios":"levelo://app?vid=2a5e641a-ca90-4f3a-9350-63bb94d9cebf"},"vehicle_type_id":"4","last_reported":1758143276,"current_range_meters":11200,"station_id":"","pricing_plan_id":"cebpf4jnsgd1na2vs0mg"},{"bike_id":"682a29b6-8ebd-417c-b52a-d7e063d43d13","system_id":"levelo_inurba_marseille","lat":43.27562,"lon":5.38414,"is_reserved":false,"is_disabled":false,"rental_uris":{"android":"levelo://app?vid=682a29b6-8ebd-417c-b52a-d7e063d43d13","ios":"levelo://app?vid=682a29b6-8ebd-417c-b52a-d7e063d43d13"},"vehicle_type_id":"4","last_reported":1758143276,"current_range_meters":11200,"station_id":"ce4bhh92rcd13ifvqfi0","pricing_plan_id":"cebpf4jnsgd1na2vs0mg"},{"bike_id":"43a21b63-0c50-4291-a8c9-aa4d0d4e2150","system_id":"levelo_inurba_marseille","lat":43.28684,"lon":5.37398,"is_reserved":false,"is_disabled":false,"rental_uris":{"android":"levelo://app?vid=43a21b63-0c50-4291-a8c9-aa4d0d4e2150","ios":"levelo://app?vid=43a21b63-0c50-4291-a8c9-aa4d0d4e2150"},"vehicle_type_id":"4","last_reported":1758143276,"current_range_meters":11200,"station_id":"ce4bh3p2rcd13ifvqdq0","pricing_plan_id":"cebpf4jnsgd1na2vs0mg"},{"bike_id":"ea2b8cb5-3aaa-4102-9089-ab6f9d168c5a","system_id":"levelo_inurba_marseille","lat":43.29037,"lon":5.3755,"is_reserved":false,"is_disabled":false,"rental_uris":{"android":"levelo://app?vid=ea2b8cb5-3aaa-4102-9089-ab6f9d168c5a","ios":"levelo://app?vid=ea2b8cb5-3aaa-4102-9089-ab6f9d168c5a"},"vehicle_type_id":"4","last_reported":1758143276,"current_range_meters":11600,"station_id":"ce4bh692rcd13ifvqe90","pricing_plan_id":"cebpf4jnsgd1na2vs0mg"},{"bike_id":"09734f56-1274-4913-8cd9-7e86f641ab44","system_id":"levelo_inurba_marseille","lat":43.29537,"lon":5.38539,"is_reserved":false,"is_disabled":true,"rental_uris":{"android":"levelo://app?vid=09734f56-1274-4913-8cd9-7e86f641ab44","ios":"levelo://app?vid=09734f56-1274-4913-8cd9-7e86f641ab44"},"vehicle_type_id":"4","last_reported":1758143276,"current_range_meters":11600,"station_id":"ce4bgih2rcd13ifvqba0","pricing_plan_id":"cebpf4jnsgd1na2vs0mg"},{"bike_id":"be7e6a52-5f32-4f5d-ab19-09bbc34d35a2","system_id":"levelo_inurba_marseille","lat":43.21178,"lon":5.35058,"is_reserved":false,"is_disabled":false,"rental_uris":{"android":"levelo://app?vid=be7e6a52-5f32-4f5d-ab19-09bbc34d35a2","ios":"levelo://app?vid=be7e6a52-5f32-4f5d-ab19-09bbc34d35a2"},"vehicle_type_id":"4","last_reported":1758143276,"current_range_meters":11600,"station_id":"st_cvj6sg6p6f1abm77japg","pricing_plan_id":"cebpf4jnsgd1na2vs0mg"},{"bike_id":"0a2e2756-8bf6-4279-a120-8478c237834b","system_id":"levelo_inurba_marseille","lat":43.26482,"lon":5.39563,"is_reserved":false,"is_disabled":true,"rental_uris":{"android":"levelo://app?vid=0a2e2756-8bf6-4279-a120-8478c237834b","ios":"levelo://app?vid=0a2e2756-8bf6-4279-a120-8478c237834b"},"vehicle_type_id":"4","last_reported":1758143276,"current_range_meters":11600,"station_id":"ce4bhi12rcd13ifvqfq0","pricing_plan_id":"cebpf4jnsgd1na2vs0mg"},{"bike_id":"62ad0034-2f00-484d-b4a7-d0313ae59052","system_id":"levelo_inurba_marseille","lat":43.28153,"lon":5.42639,"is_reserved":false,"is_disabled":false,"rental_uris":{"android":"levelo://app?vid=62ad0034-2f00-484d-b4a7-d0313ae59052","ios":"levelo://app?vid=62ad0034-2f00-484d-b4a7-d0313ae59052"},"vehicle_type_id":"4","last_reported":1758143276,"current_range_meters":12000,"station_id":"ce4bhnh2rcd13ifvqgug","pricing_plan_id":"cebpf4jnsgd1na2vs0mg"},{"bike_id":"b7a9be1c-6745-4e91-a42a-7e1c96585cec","system_id":"levelo_inurba_marseille","lat":43.29296,"lon":5.3716,"is_reserved":false,"is_disabled":false,"rental_uris":{"android":"levelo://app?vid=b7a9be1c-6745-4e91-a42a-7e1c96585cec","ios":"levelo://app?vid=b7a9be1c-6745-4e91-a42a-7e1c96585cec"},"vehicle_type_id":"4","last_reported":1758143276,"current_range_meters":12000,"station_id":"","pricing_plan_id":"cebpf4jnsgd1na2vs0mg"},{"bike_id":"5701fe9c-3e98-4b9f-a910-5eb395d4e5d3","system_id":"levelo_inurba_marseille","lat":43.305389,"lon":5.384223,"is_reserved":false,"is_disabled":false,"rental_uris":{"android":"levelo://app?vid=5701fe9c-3e98-4b9f-a910-5eb395d4e5d3","ios":"levelo://app?vid=5701fe9c-3e98-4b9f-a910-5eb395d4e5d3"},"vehicle_type_id":"4","last_reported":1758143276,"current_range_meters":12000,"station_id":"ce4bgg92rcd13ifvqb30","pricing_plan_id":"cebpf4jnsgd1na2vs0mg"},{"bike_id":"2ca76fff-2ff2-4c2c-8c39-5b938c6f0051","system_id":"levelo_inurba_marseille","lat":43.280011,"lon":5.400107,"is_reserved":false,"is_disabled":false,"rental_uris":{"android":"levelo://app?vid=2ca76fff-2ff2-4c2c-8c39-5b938c6f0051","ios":"levelo://app?vid=2ca76fff-2ff2-4c2c-8c39-5b938c6f0051"},"vehicle_type_id":"4","last_reported":1758143276,"current_range_meters":12000,"station_id":"ce4bho92rcd13ifvqh4g","pricing_plan_id":"cebpf4jnsgd1na2vs0mg"},{"bike_id":"e51d0a08-ed72-438f-87cb-8f9f8f6dcd31","system_id":"levelo_inurba_marseille","lat":43.25075,"lon":5.39532,"is_reserved":false,"is_disabled":false,"rental_uris":{"android":"levelo://app?vid=e51d0a08-ed72-438f-87cb-8f9f8f6dcd31","ios":"levelo://app?vid=e51d0a08-ed72-438f-87cb-8f9f8f6dcd31"},"vehicle_type_id":"4","last_reported":1758143276,"current_range_meters":12400,"station_id":"ce4bhm12rcd13ifvqgkg","pricing_plan_id":"cebpf4jnsgd1na2vs0mg"},{"bike_id":"a2cc1c2f-1d11-48db-982e-b4e7fb30e192","system_id":"levelo_inurba_marseille","lat":43.32499,"lon":5.36563,"is_reserved":false,"is_disabled":false,"rental_uris":{"android":"levelo://app?vid=a2cc1c2f-1d11-48db-982e-b4e7fb30e192","ios":"levelo://app?vid=a2cc1c2f-1d11-48db-982e-b4e7fb30e192"},"vehicle_type_id":"4","last_reported":1758143276,"current_range_meters":12400,"station_id":"ce4bhs12rcd13ifvqhvg","pricing_plan_id":"cebpf4jnsgd1na2vs0mg"},{"bike_id":"762dff63-3a3e-4f15-924d-d01d35ebccce","system_id":"levelo_inurba_marseille","lat":43.30285,"lon":5.37688,"is_reserved":false,"is_disabled":false,"rental_uris":{"android":"levelo://app?vid=762dff63-3a3e-4f15-924d-d01d35ebccce","ios":"levelo://app?vid=762dff63-3a3e-4f15-924d-d01d35ebccce"},"vehicle_type_id":"4","last_reported":1758143276,"current_range_meters":12400,"station_id":"ce4bguh2rcd13ifvqcj0","pricing_plan_id":"cebpf4jnsgd1na2vs0mg"},{"bike_id":"12b9e703-561e-4ddc-9f62-18e7a69ec9cb","system_id":"levelo_inurba_marseille","lat":43.31704,"lon":5.40429,"is_reserved":false,"is_disabled":false,"rental_uris":{"android":"levelo://app?vid=12b9e703-561e-4ddc-9f62-18e7a69ec9cb","ios":"levelo://app?vid=12b9e703-561e-4ddc-9f62-18e7a69ec9cb"},"vehicle_type_id":"4","last_reported":1758143276,"current_range_meters":12400,"station_id":"ce4bh012rcd13ifvqd00","pricing_plan_id":"cebpf4jnsgd1na2vs0mg"},{"bike_id":"7c53e1e0-9efc-4c15-9c29-668d4dac4c59","system_id":"levelo_inurba_marseille","lat":43.22511,"lon":5.34848,"is_reserved":false,"is_disabled":false,"rental_uris":{"android":"levelo://app?vid=7c53e1e0-9efc-4c15-9c29-668d4dac4c59","ios":"levelo://app?vid=7c53e1e0-9efc-4c15-9c29-668d4dac4c59"},"vehicle_type_id":"4","last_reported":1758143276,"current_range_meters":12400,"station_id":"","pricing_plan_id":"cebpf4jnsgd1na2vs0mg"},{"bike_id":"53923efc-dde2-4b83-9b67-8acec49fce5b","system_id":"levelo_inurba_marseille","lat":43.29526,"lon":5.39034,"is_reserved":false,"is_disabled":false,"rental_uris":{"android":"levelo://app?vid=53923efc-dde2-4b83-9b67-8acec49fce5b","ios":"levelo://app?vid=53923efc-dde2-4b83-9b67-8acec49fce5b"},"vehicle_type_id":"4","last_reported":1758143276,"current_range_meters":12400,"station_id":"ce4bh3p2rcd13ifvqdp0","pricing_plan_id":"cebpf4jnsgd1na2vs0mg"},{"bike_id":"d87a2287-81e9-47af-9ec2-cc0db426763b","system_id":"levelo_inurba_marseille","lat":43.30332,"lon":5.36903,"is_reserved":false,"is_disabled":false,"rental_uris":{"android":"levelo://app?vid=d87a2287-81e9-47af-9ec2-cc0db426763b","ios":"levelo://app?vid=d87a2287-81e9-47af-9ec2-cc0db426763b"},"vehicle_type_id":"4","last_reported":1758143276,"current_range_meters":12800,"station_id":"","pricing_plan_id":"cebpf4jnsgd1na2vs0mg"},{"bike_id":"65854fe7-484f-4538-8c9b-93eeb0063f0f","system_id":"levelo_inurba_marseille","lat":43.25342,"lon":5.42178,"is_reserved":false,"is_disabled":false,"rental_uris":{"android":"levelo://app?vid=65854fe7-484f-4538-8c9b-93eeb0063f0f","ios":"levelo://app?vid=65854fe7-484f-4538-8c9b-93eeb0063f0f"},"vehicle_type_id":"4","last_reported":1758143276,"current_range_meters":12800,"station_id":"st_d2m65c5bi1j21697t3ng","pricing_plan_id":"cebpf4jnsgd1na2vs0mg"},{"bike_id":"2cb40913-0575-47ae-a31e-5936e0178a59","system_id":"levelo_inurba_marseille","lat":43.29035,"lon":5.37573,"is_reserved":false,"is_disabled":false,"rental_uris":{"android":"levelo://app?vid=2cb40913-0575-47ae-a31e-5936e0178a59","ios":"levelo://app?vid=2cb40913-0575-47ae-a31e-5936e0178a59"},"vehicle_type_id":"4","last_reported":1758143276,"current_range_meters":12800,"station_id":"ce4bh692rcd13ifvqe90","pricing_plan_id":"cebpf4jnsgd1na2vs0mg"},{"bike_id":"046ba709-b940-4fa3-9690-1d81db536e4b","system_id":"levelo_inurba_marseille","lat":43.22566,"lon":5.41632,"is_reserved":false,"is_disabled":false,"rental_uris":{"android":"levelo://app?vid=046ba709-b940-4fa3-9690-1d81db536e4b","ios":"levelo://app?vid=046ba709-b940-4fa3-9690-1d81db536e4b"},"vehicle_type_id":"4","last_reported":1758143276,"current_range_meters":12800,"station_id":"st_d2o4gvlbi1j2169b742g","pricing_plan_id":"cebpf4jnsgd1na2vs0mg"},{"bike_id":"9dc1ad3d-9aca-44e3-bb5b-6a16e27707c8","system_id":"levelo_inurba_marseille","lat":43.29207,"lon":5.3933,"is_reserved":false,"is_disabled":false,"rental_uris":{"android":"levelo://app?vid=9dc1ad3d-9aca-44e3-bb5b-6a16e27707c8","ios":"levelo://app?vid=9dc1ad3d-9aca-44e3-bb5b-6a16e27707c8"},"vehicle_type_id":"4","last_reported":1758143276,"current_range_meters":12800,"station_id":"ce4bh192rcd13ifvqdd0","pricing_plan_id":"cebpf4jnsgd1na2vs0mg"},{"bike_id":"99ea5b04-a1d4-49cf-ad67-e58228257d32","system_id":"levelo_inurba_marseille","lat":43.31733,"lon":5.43687,"is_reserved":false,"is_disabled":false,"rental_uris":{"android":"levelo://app?vid=99ea5b04-a1d4-49cf-ad67-e58228257d32","ios":"levelo://app?vid=99ea5b04-a1d4-49cf-ad67-e58228257d32"},"vehicle_type_id":"4","last_reported":1758143276,"current_range_meters":13600,"station_id":"ce4bhp92rcd13ifvqhcg","pricing_plan_id":"cebpf4jnsgd1na2vs0mg"},{"bike_id":"1a2dbc4f-8ab4-4857-9f78-b00248376939","system_id":"levelo_inurba_marseille","lat":43.30914,"lon":5.36842,"is_reserved":false,"is_disabled":false,"rental_uris":{"android":"levelo://app?vid=1a2dbc4f-8ab4-4857-9f78-b00248376939","ios":"levelo://app?vid=1a2dbc4f-8ab4-4857-9f78-b00248376939"},"vehicle_type_id":"4","last_reported":1758143276,"current_range_meters":12800,"station_id":"ce4bgn92rcd13ifvqbvg","pricing_plan_id":"cebpf4jnsgd1na2vs0mg"},{"bike_id":"335f12e9-618b-4092-bce8-c94e434d846c","system_id":"levelo_inurba_marseille","lat":43.25344,"lon":5.42172,"is_reserved":false,"is_disabled":false,"rental_uris":{"android":"levelo://app?vid=335f12e9-618b-4092-bce8-c94e434d846c","ios":"levelo://app?vid=335f12e9-618b-4092-bce8-c94e434d846c"},"vehicle_type_id":"4","last_reported":1758143276,"current_range_meters":13600,"station_id":"st_d2m65c5bi1j21697t3ng","pricing_plan_id":"cebpf4jnsgd1na2vs0mg"},{"bike_id":"c99b6713-7403-4fdf-8afe-2c146097a93c","system_id":"levelo_inurba_marseille","lat":43.29298,"lon":5.37155,"is_reserved":false,"is_disabled":false,"rental_uris":{"android":"levelo://app?vid=c99b6713-7403-4fdf-8afe-2c146097a93c","ios":"levelo://app?vid=c99b6713-7403-4fdf-8afe-2c146097a93c"},"vehicle_type_id":"4","last_reported":1758143276,"current_range_meters":13600,"station_id":"","pricing_plan_id":"cebpf4jnsgd1na2vs0mg"},{"bike_id":"68840a36-617d-4159-ae65-169d53886d42","system_id":"levelo_inurba_marseille","lat":43.31494,"lon":5.3731,"is_reserved":false,"is_disabled":false,"rental_uris":{"android":"levelo://app?vid=68840a36-617d-4159-ae65-169d53886d42","ios":"levelo://app?vid=68840a36-617d-4159-ae65-169d53886d42"},"vehicle_type_id":"4","last_reported":1758143276,"current_range_meters":13600,"station_id":"ce4bgt12rcd13ifvqcd0","pricing_plan_id":"cebpf4jnsgd1na2vs0mg"},{"bike_id":"dc87237e-bb10-4f17-be98-ba5eae548f2e","system_id":"levelo_inurba_marseille","lat":43.32299,"lon":5.38959,"is_reserved":false,"is_disabled":false,"rental_uris":{"android":"levelo://app?vid=dc87237e-bb10-4f17-be98-ba5eae548f2e","ios":"levelo://app?vid=dc87237e-bb10-4f17-be98-ba5eae548f2e"},"vehicle_type_id":"4","last_reported":1758143276,"current_range_meters":13600,"station_id":"ce4bhqp2rcd13ifvqhog","pricing_plan_id":"cebpf4jnsgd1na2vs0mg"},{"bike_id":"f7254990-f51d-45fe-83e3-57aceffccbc4","system_id":"levelo_inurba_marseille","lat":43.22572,"lon":5.41631,"is_reserved":false,"is_disabled":false,"rental_uris":{"android":"levelo://app?vid=f7254990-f51d-45fe-83e3-57aceffccbc4","ios":"levelo://app?vid=f7254990-f51d-45fe-83e3-57aceffccbc4"},"vehicle_type_id":"4","last_reported":1758143276,"current_range_meters":14000,"station_id":"st_d2o4gvlbi1j2169b742g","pricing_plan_id":"cebpf4jnsgd1na2vs0mg"},{"bike_id":"0a714f01-7287-46f8-bbb6-81d9c8aaefe2","system_id":"levelo_inurba_marseille","lat":43.29708,"lon":5.39152,"is_reserved":false,"is_disabled":false,"rental_uris":{"android":"levelo://app?vid=0a714f01-7287-46f8-bbb6-81d9c8aaefe2","ios":"levelo://app?vid=0a714f01-7287-46f8-bbb6-81d9c8aaefe2"},"vehicle_type_id":"4","last_reported":1758143276,"current_range_meters":14000,"station_id":"","pricing_plan_id":"cebpf4jnsgd1na2vs0mg"},{"bike_id":"55dfb17a-dc13-4669-82ac-2c676d600c2d","system_id":"levelo_inurba_marseille","lat":43.31351,"lon":5.37936,"is_reserved":false,"is_disabled":false,"rental_uris":{"android":"levelo://app?vid=55dfb17a-dc13-4669-82ac-2c676d600c2d","ios":"levelo://app?vid=55dfb17a-dc13-4669-82ac-2c676d600c2d"},"vehicle_type_id":"4","last_reported":1758143276,"current_range_meters":14000,"station_id":"","pricing_plan_id":"cebpf4jnsgd1na2vs0mg"},{"bike_id":"49230824-e0b0-4942-b254-aed72b06d282","system_id":"levelo_inurba_marseille","lat":43.26917,"lon":5.40557,"is_reserved":false,"is_disabled":false,"rental_uris":{"android":"levelo://app?vid=49230824-e0b0-4942-b254-aed72b06d282","ios":"levelo://app?vid=49230824-e0b0-4942-b254-aed72b06d282"},"vehicle_type_id":"4","last_reported":1758143276,"current_range_meters":14400,"station_id":"","pricing_plan_id":"cebpf4jnsgd1na2vs0mg"},{"bike_id":"199888cf-ce1a-497f-8b2b-90e8ed205e42","system_id":"levelo_inurba_marseille","lat":43.287012,"lon":5.373822,"is_reserved":false,"is_disabled":false,"rental_uris":{"android":"levelo://app?vid=199888cf-ce1a-497f-8b2b-90e8ed205e42","ios":"levelo://app?vid=199888cf-ce1a-497f-8b2b-90e8ed205e42"},"vehicle_type_id":"4","last_reported":1758143276,"current_range_meters":14400,"station_id":"ce4bh3p2rcd13ifvqdq0","pricing_plan_id":"cebpf4jnsgd1na2vs0mg"},{"bike_id":"2fcc52b3-83bc-4b17-ac5c-0695077c4514","system_id":"levelo_inurba_marseille","lat":43.29627,"lon":5.37707,"is_reserved":false,"is_disabled":false,"rental_uris":{"android":"levelo://app?vid=2fcc52b3-83bc-4b17-ac5c-0695077c4514","ios":"levelo://app?vid=2fcc52b3-83bc-4b17-ac5c-0695077c4514"},"vehicle_type_id":"4","last_reported":1758143276,"current_range_meters":14400,"station_id":"","pricing_plan_id":"cebpf4jnsgd1na2vs0mg"},{"bike_id":"b6feba11-f67b-4a27-a4b3-3c45e9680808","system_id":"levelo_inurba_marseille","lat":43.29282,"lon":5.40115,"is_reserved":false,"is_disabled":false,"rental_uris":{"android":"levelo://app?vid=b6feba11-f67b-4a27-a4b3-3c45e9680808","ios":"levelo://app?vid=b6feba11-f67b-4a27-a4b3-3c45e9680808"},"vehicle_type_id":"4","last_reported":1758143276,"current_range_meters":14400,"station_id":"ce4bh312rcd13ifvqdk0","pricing_plan_id":"cebpf4jnsgd1na2vs0mg"},{"bike_id":"4a9f1525-bb38-489e-be29-d6e9a5dc713e","system_id":"levelo_inurba_marseille","lat":43.27491,"lon":5.42453,"is_reserved":false,"is_disabled":false,"rental_uris":{"android":"levelo://app?vid=4a9f1525-bb38-489e-be29-d6e9a5dc713e","ios":"levelo://app?vid=4a9f1525-bb38-489e-be29-d6e9a5dc713e"},"vehicle_type_id":"4","last_reported":1758143276,"current_range_meters":14400,"station_id":"ce4bhn92rcd13ifvqgrg","pricing_plan_id":"cebpf4jnsgd1na2vs0mg"},{"bike_id":"df2c6ce1-3df7-4976-bcc8-22b068fb0f46","system_id":"levelo_inurba_marseille","lat":43.293056,"lon":5.371751,"is_reserved":false,"is_disabled":false,"rental_uris":{"android":"levelo://app?vid=df2c6ce1-3df7-4976-bcc8-22b068fb0f46","ios":"levelo://app?vid=df2c6ce1-3df7-4976-bcc8-22b068fb0f46"},"vehicle_type_id":"4","last_reported":1758143276,"current_range_meters":14400,"station_id":"","pricing_plan_id":"cebpf4jnsgd1na2vs0mg"},{"bike_id":"f686b32f-0a3c-4732-a2f2-3df8c0c22d86","system_id":"levelo_inurba_marseille","lat":43.2467,"lon":5.38168,"is_reserved":false,"is_disabled":false,"rental_uris":{"android":"levelo://app?vid=f686b32f-0a3c-4732-a2f2-3df8c0c22d86","ios":"levelo://app?vid=f686b32f-0a3c-4732-a2f2-3df8c0c22d86"},"vehicle_type_id":"4","last_reported":1758143276,"current_range_meters":14400,"station_id":"ce4bhih2rcd13ifvqfr0","pricing_plan_id":"cebpf4jnsgd1na2vs0mg"},{"bike_id":"963eafaf-b355-4d34-83c6-b1fe8d990f92","system_id":"levelo_inurba_marseille","lat":43.319304,"lon":5.408054,"is_reserved":false,"is_disabled":false,"rental_uris":{"android":"levelo://app?vid=963eafaf-b355-4d34-83c6-b1fe8d990f92","ios":"levelo://app?vid=963eafaf-b355-4d34-83c6-b1fe8d990f92"},"vehicle_type_id":"4","last_reported":1758143276,"current_range_meters":14400,"station_id":"ce4bhq12rcd13ifvqhig","pricing_plan_id":"cebpf4jnsgd1na2vs0mg"},{"bike_id":"8896123d-fa58-4a8c-8e0c-938af8d18587","system_id":"levelo_inurba_marseille","lat":43.27534,"lon":5.42443,"is_reserved":false,"is_disabled":false,"rental_uris":{"android":"levelo://app?vid=8896123d-fa58-4a8c-8e0c-938af8d18587","ios":"levelo://app?vid=8896123d-fa58-4a8c-8e0c-938af8d18587"},"vehicle_type_id":"4","last_reported":1758143276,"current_range_meters":14800,"station_id":"ce4bhn92rcd13ifvqgrg","pricing_plan_id":"cebpf4jnsgd1na2vs0mg"},{"bike_id":"67e391bd-c9ee-4557-a108-56f7f6b7084d","system_id":"levelo_inurba_marseille","lat":43.29603,"lon":5.38123,"is_reserved":false,"is_disabled":false,"rental_uris":{"android":"levelo://app?vid=67e391bd-c9ee-4557-a108-56f7f6b7084d","ios":"levelo://app?vid=67e391bd-c9ee-4557-a108-56f7f6b7084d"},"vehicle_type_id":"4","last_reported":1758143276,"current_range_meters":14800,"station_id":"","pricing_plan_id":"cebpf4jnsgd1na2vs0mg"},{"bike_id":"bf002080-0dff-4bc3-8efd-6cf3f0f58d55","system_id":"levelo_inurba_marseille","lat":43.27921,"lon":5.38015,"is_reserved":false,"is_disabled":false,"rental_uris":{"android":"levelo://app?vid=bf002080-0dff-4bc3-8efd-6cf3f0f58d55","ios":"levelo://app?vid=bf002080-0dff-4bc3-8efd-6cf3f0f58d55"},"vehicle_type_id":"4","last_reported":1758143276,"current_range_meters":14400,"station_id":"ce4bhf92rcd13ifvqf50","pricing_plan_id":"cebpf4jnsgd1na2vs0mg"},{"bike_id":"22f0687d-25d3-4094-9c4a-293a61e189a6","system_id":"levelo_inurba_marseille","lat":43.24711,"lon":5.3977,"is_reserved":false,"is_disabled":false,"rental_uris":{"android":"levelo://app?vid=22f0687d-25d3-4094-9c4a-293a61e189a6","ios":"levelo://app?vid=22f0687d-25d3-4094-9c4a-293a61e189a6"},"vehicle_type_id":"4","last_reported":1758143276,"current_range_meters":14800,"station_id":"","pricing_plan_id":"cebpf4jnsgd1na2vs0mg"},{"bike_id":"3d158815-0ba1-449f-90dd-2b69cf190d13","system_id":"levelo_inurba_marseille","lat":43.32958,"lon":5.39273,"is_reserved":false,"is_disabled":false,"rental_uris":{"android":"levelo://app?vid=3d158815-0ba1-449f-90dd-2b69cf190d13","ios":"levelo://app?vid=3d158815-0ba1-449f-90dd-2b69cf190d13"},"vehicle_type_id":"4","last_reported":1758143276,"current_range_meters":15200,"station_id":"","pricing_plan_id":"cebpf4jnsgd1na2vs0mg"},{"bike_id":"c1209bc8-9bd8-4920-a22d-adfbf3ce134c","system_id":"levelo_inurba_marseille","lat":43.29262,"lon":5.4091,"is_reserved":false,"is_disabled":false,"rental_uris":{"android":"levelo://app?vid=c1209bc8-9bd8-4920-a22d-adfbf3ce134c","ios":"levelo://app?vid=c1209bc8-9bd8-4920-a22d-adfbf3ce134c"},"vehicle_type_id":"4","last_reported":1758143276,"current_range_meters":15200,"station_id":"ce4bh192rcd13ifvqdc0","pricing_plan_id":"cebpf4jnsgd1na2vs0mg"},{"bike_id":"d1788760-0706-4b90-8999-db00a9e42210","system_id":"levelo_inurba_marseille","lat":43.32797,"lon":5.41011,"is_reserved":false,"is_disabled":false,"rental_uris":{"android":"levelo://app?vid=d1788760-0706-4b90-8999-db00a9e42210","ios":"levelo://app?vid=d1788760-0706-4b90-8999-db00a9e42210"},"vehicle_type_id":"4","last_reported":1758143276,"current_range_meters":16000,"station_id":"","pricing_plan_id":"cebpf4jnsgd1na2vs0mg"},{"bike_id":"2ed0296a-0b53-4da9-9ae7-01aa1e30049e","system_id":"levelo_inurba_marseille","lat":43.24669,"lon":5.38164,"is_reserved":false,"is_disabled":false,"rental_uris":{"android":"levelo://app?vid=2ed0296a-0b53-4da9-9ae7-01aa1e30049e","ios":"levelo://app?vid=2ed0296a-0b53-4da9-9ae7-01aa1e30049e"},"vehicle_type_id":"4","last_reported":1758143276,"current_range_meters":16000,"station_id":"ce4bhih2rcd13ifvqfr0","pricing_plan_id":"cebpf4jnsgd1na2vs0mg"},{"bike_id":"152b725d-6f61-44b0-bc66-f31437aa6fe9","system_id":"levelo_inurba_marseille","lat":43.22558,"lon":5.41619,"is_reserved":false,"is_disabled":false,"rental_uris":{"android":"levelo://app?vid=152b725d-6f61-44b0-bc66-f31437aa6fe9","ios":"levelo://app?vid=152b725d-6f61-44b0-bc66-f31437aa6fe9"},"vehicle_type_id":"4","last_reported":1758143276,"current_range_meters":16000,"station_id":"st_d2o4gvlbi1j2169b742g","pricing_plan_id":"cebpf4jnsgd1na2vs0mg"},{"bike_id":"387c8295-5c1a-4e62-91c6-560b703e4279","system_id":"levelo_inurba_marseille","lat":43.32438,"lon":5.42688,"is_reserved":false,"is_disabled":false,"rental_uris":{"android":"levelo://app?vid=387c8295-5c1a-4e62-91c6-560b703e4279","ios":"levelo://app?vid=387c8295-5c1a-4e62-91c6-560b703e4279"},"vehicle_type_id":"4","last_reported":1758143276,"current_range_meters":16000,"station_id":"","pricing_plan_id":"cebpf4jnsgd1na2vs0mg"},{"bike_id":"80332322-52bb-49f4-b738-0ea587c53538","system_id":"levelo_inurba_marseille","lat":43.225357,"lon":5.34837,"is_reserved":false,"is_disabled":false,"rental_uris":{"android":"levelo://app?vid=80332322-52bb-49f4-b738-0ea587c53538","ios":"levelo://app?vid=80332322-52bb-49f4-b738-0ea587c53538"},"vehicle_type_id":"4","last_reported":1758143276,"current_range_meters":16000,"station_id":"","pricing_plan_id":"cebpf4jnsgd1na2vs0mg"},{"bike_id":"9d181f5a-58ca-49a0-bbcc-8286d3ed3228","system_id":"levelo_inurba_marseille","lat":43.3136,"lon":5.38366,"is_reserved":false,"is_disabled":false,"rental_uris":{"android":"levelo://app?vid=9d181f5a-58ca-49a0-bbcc-8286d3ed3228","ios":"levelo://app?vid=9d181f5a-58ca-49a0-bbcc-8286d3ed3228"},"vehicle_type_id":"4","last_reported":1758143276,"current_range_meters":16000,"station_id":"","pricing_plan_id":"cebpf4jnsgd1na2vs0mg"},{"bike_id":"30365912-7779-4a70-9afc-f32986e831b1","system_id":"levelo_inurba_marseille","lat":43.31885,"lon":5.40733,"is_reserved":false,"is_disabled":false,"rental_uris":{"android":"levelo://app?vid=30365912-7779-4a70-9afc-f32986e831b1","ios":"levelo://app?vid=30365912-7779-4a70-9afc-f32986e831b1"},"vehicle_type_id":"4","last_reported":1758143276,"current_range_meters":16000,"station_id":"ce4bhq12rcd13ifvqhig","pricing_plan_id":"cebpf4jnsgd1na2vs0mg"},{"bike_id":"9c1647ec-e4cd-446d-93e8-f200456b2ca0","system_id":"levelo_inurba_marseille","lat":43.31022,"lon":5.38786,"is_reserved":false,"is_disabled":false,"rental_uris":{"android":"levelo://app?vid=9c1647ec-e4cd-446d-93e8-f200456b2ca0","ios":"levelo://app?vid=9c1647ec-e4cd-446d-93e8-f200456b2ca0"},"vehicle_type_id":"4","last_reported":1758143276,"current_range_meters":16000,"station_id":"","pricing_plan_id":"cebpf4jnsgd1na2vs0mg"},{"bike_id":"2dae5327-390a-481f-ba9f-5b26d663f259","system_id":"levelo_inurba_marseille","lat":43.27944,"lon":5.41046,"is_reserved":false,"is_disabled":false,"rental_uris":{"android":"levelo://app?vid=2dae5327-390a-481f-ba9f-5b26d663f259","ios":"levelo://app?vid=2dae5327-390a-481f-ba9f-5b26d663f259"},"vehicle_type_id":"4","last_reported":1758143276,"current_range_meters":16400,"station_id":"ce4bhnp2rcd13ifvqh0g","pricing_plan_id":"cebpf4jnsgd1na2vs0mg"},{"bike_id":"5a08afc6-e248-4f35-ab95-79a67e40c1d5","system_id":"levelo_inurba_marseille","lat":43.29206,"lon":5.39335,"is_reserved":false,"is_disabled":false,"rental_uris":{"android":"levelo://app?vid=5a08afc6-e248-4f35-ab95-79a67e40c1d5","ios":"levelo://app?vid=5a08afc6-e248-4f35-ab95-79a67e40c1d5"},"vehicle_type_id":"4","last_reported":1758143276,"current_range_meters":16400,"station_id":"ce4bh192rcd13ifvqdd0","pricing_plan_id":"cebpf4jnsgd1na2vs0mg"},{"bike_id":"3a5880cd-3aaa-45e3-acd9-2ccd914d29dd","system_id":"levelo_inurba_marseille","lat":43.24061,"lon":5.37757,"is_reserved":false,"is_disabled":false,"rental_uris":{"android":"levelo://app?vid=3a5880cd-3aaa-45e3-acd9-2ccd914d29dd","ios":"levelo://app?vid=3a5880cd-3aaa-45e3-acd9-2ccd914d29dd"},"vehicle_type_id":"4","last_reported":1758143276,"current_range_meters":16400,"station_id":"ce4bhnp2rcd13ifvqgvg","pricing_plan_id":"cebpf4jnsgd1na2vs0mg"},{"bike_id":"08128352-d0a0-4f5f-a684-879e4974aa4c","system_id":"levelo_inurba_marseille","lat":43.22569,"lon":5.41646,"is_reserved":false,"is_disabled":false,"rental_uris":{"android":"levelo://app?vid=08128352-d0a0-4f5f-a684-879e4974aa4c","ios":"levelo://app?vid=08128352-d0a0-4f5f-a684-879e4974aa4c"},"vehicle_type_id":"4","last_reported":1758143276,"current_range_meters":16400,"station_id":"st_d2o4gvlbi1j2169b742g","pricing_plan_id":"cebpf4jnsgd1na2vs0mg"},{"bike_id":"d9330b5d-34b3-4a04-9720-b86e38f03280","system_id":"levelo_inurba_marseille","lat":43.243065,"lon":5.375261,"is_reserved":false,"is_disabled":false,"rental_uris":{"android":"levelo://app?vid=d9330b5d-34b3-4a04-9720-b86e38f03280","ios":"levelo://app?vid=d9330b5d-34b3-4a04-9720-b86e38f03280"},"vehicle_type_id":"4","last_reported":1758143276,"current_range_meters":16400,"station_id":"","pricing_plan_id":"cebpf4jnsgd1na2vs0mg"},{"bike_id":"94cdd737-de47-4d10-bc54-37ab9254dd4d","system_id":"levelo_inurba_marseille","lat":43.31533,"lon":5.38034,"is_reserved":false,"is_disabled":false,"rental_uris":{"android":"levelo://app?vid=94cdd737-de47-4d10-bc54-37ab9254dd4d","ios":"levelo://app?vid=94cdd737-de47-4d10-bc54-37ab9254dd4d"},"vehicle_type_id":"4","last_reported":1758143276,"current_range_meters":16400,"station_id":"ce4bhsp2rcd13ifvqi50","pricing_plan_id":"cebpf4jnsgd1na2vs0mg"},{"bike_id":"dde2e91e-5084-4b39-b78f-82b1ce36a209","system_id":"levelo_inurba_marseille","lat":43.21195,"lon":5.35073,"is_reserved":false,"is_disabled":false,"rental_uris":{"android":"levelo://app?vid=dde2e91e-5084-4b39-b78f-82b1ce36a209","ios":"levelo://app?vid=dde2e91e-5084-4b39-b78f-82b1ce36a209"},"vehicle_type_id":"4","last_reported":1758143276,"current_range_meters":16400,"station_id":"","pricing_plan_id":"cebpf4jnsgd1na2vs0mg"},{"bike_id":"162dbf71-41d9-4795-a794-84df6b34b338","system_id":"levelo_inurba_marseille","lat":43.30801,"lon":5.43521,"is_reserved":false,"is_disabled":false,"rental_uris":{"android":"levelo://app?vid=162dbf71-41d9-4795-a794-84df6b34b338","ios":"levelo://app?vid=162dbf71-41d9-4795-a794-84df6b34b338"},"vehicle_type_id":"4","last_reported":1758143276,"current_range_meters":16800,"station_id":"ce4bhph2rcd13ifvqheg","pricing_plan_id":"cebpf4jnsgd1na2vs0mg"},{"bike_id":"b2c799b6-987a-4afd-98ce-a4bfccab9b02","system_id":"levelo_inurba_marseille","lat":43.31879,"lon":5.4074,"is_reserved":false,"is_disabled":false,"rental_uris":{"android":"levelo://app?vid=b2c799b6-987a-4afd-98ce-a4bfccab9b02","ios":"levelo://app?vid=b2c799b6-987a-4afd-98ce-a4bfccab9b02"},"vehicle_type_id":"4","last_reported":1758143276,"current_range_meters":16800,"station_id":"ce4bhq12rcd13ifvqhig","pricing_plan_id":"cebpf4jnsgd1na2vs0mg"},{"bike_id":"7479f757-089d-48d5-ab30-c2d59311d4b4","system_id":"levelo_inurba_marseille","lat":43.3033,"lon":5.36889,"is_reserved":false,"is_disabled":true,"rental_uris":{"android":"levelo://app?vid=7479f757-089d-48d5-ab30-c2d59311d4b4","ios":"levelo://app?vid=7479f757-089d-48d5-ab30-c2d59311d4b4"},"vehicle_type_id":"4","last_reported":1758143276,"current_range_meters":17200,"station_id":"","pricing_plan_id":"cebpf4jnsgd1na2vs0mg"},{"bike_id":"8b911268-c055-48aa-a297-584fd3a9cf6e","system_id":"levelo_inurba_marseille","lat":43.28428,"lon":5.34969,"is_reserved":false,"is_disabled":true,"rental_uris":{"android":"levelo://app?vid=8b911268-c055-48aa-a297-584fd3a9cf6e","ios":"levelo://app?vid=8b911268-c055-48aa-a297-584fd3a9cf6e"},"vehicle_type_id":"4","last_reported":1758143276,"current_range_meters":17200,"station_id":"ce4bhbh2rcd13ifvqepg","pricing_plan_id":"cebpf4jnsgd1na2vs0mg"},{"bike_id":"8b507b77-0a6b-4d93-aff3-e49b59b880cd","system_id":"levelo_inurba_marseille","lat":43.23978,"lon":5.36632,"is_reserved":false,"is_disabled":false,"rental_uris":{"android":"levelo://app?vid=8b507b77-0a6b-4d93-aff3-e49b59b880cd","ios":"levelo://app?vid=8b507b77-0a6b-4d93-aff3-e49b59b880cd"},"vehicle_type_id":"4","last_reported":1758143276,"current_range_meters":16800,"station_id":"ce4bhi12rcd13ifvqfp0","pricing_plan_id":"cebpf4jnsgd1na2vs0mg"},{"bike_id":"bcd6c9be-0506-49a6-a9e4-308b9d314b85","system_id":"levelo_inurba_marseille","lat":43.29609,"lon":5.38086,"is_reserved":false,"is_disabled":false,"rental_uris":{"android":"levelo://app?vid=bcd6c9be-0506-49a6-a9e4-308b9d314b85","ios":"levelo://app?vid=bcd6c9be-0506-49a6-a9e4-308b9d314b85"},"vehicle_type_id":"4","last_reported":1758143276,"current_range_meters":17200,"station_id":"","pricing_plan_id":"cebpf4jnsgd1na2vs0mg"},{"bike_id":"a1143759-cff7-4b60-845a-0624c236e0e2","system_id":"levelo_inurba_marseille","lat":43.253348,"lon":5.421782,"is_reserved":false,"is_disabled":false,"rental_uris":{"android":"levelo://app?vid=a1143759-cff7-4b60-845a-0624c236e0e2","ios":"levelo://app?vid=a1143759-cff7-4b60-845a-0624c236e0e2"},"vehicle_type_id":"4","last_reported":1758143276,"current_range_meters":17200,"station_id":"st_d2m65c5bi1j21697t3ng","pricing_plan_id":"cebpf4jnsgd1na2vs0mg"},{"bike_id":"cf66592a-d8fa-4c6c-9927-5d7a9fef5026","system_id":"levelo_inurba_marseille","lat":43.2629,"lon":5.39848,"is_reserved":false,"is_disabled":false,"rental_uris":{"android":"levelo://app?vid=cf66592a-d8fa-4c6c-9927-5d7a9fef5026","ios":"levelo://app?vid=cf66592a-d8fa-4c6c-9927-5d7a9fef5026"},"vehicle_type_id":"4","last_reported":1758143276,"current_range_meters":17200,"station_id":"","pricing_plan_id":"cebpf4jnsgd1na2vs0mg"},{"bike_id":"40495e59-b743-486e-987c-cb0c3ab2f191","system_id":"levelo_inurba_marseille","lat":43.332,"lon":5.41075,"is_reserved":false,"is_disabled":false,"rental_uris":{"android":"levelo://app?vid=40495e59-b743-486e-987c-cb0c3ab2f191","ios":"levelo://app?vid=40495e59-b743-486e-987c-cb0c3ab2f191"},"vehicle_type_id":"4","last_reported":1758143276,"current_range_meters":17200,"station_id":"","pricing_plan_id":"cebpf4jnsgd1na2vs0mg"},{"bike_id":"88254472-5dcf-422a-bafd-1dd31a4f452f","system_id":"levelo_inurba_marseille","lat":43.2496,"lon":5.40477,"is_reserved":false,"is_disabled":false,"rental_uris":{"android":"levelo://app?vid=88254472-5dcf-422a-bafd-1dd31a4f452f","ios":"levelo://app?vid=88254472-5dcf-422a-bafd-1dd31a4f452f"},"vehicle_type_id":"4","last_reported":1758143276,"current_range_meters":17200,"station_id":"st_d2ngiaodas8pm72gd1h0","pricing_plan_id":"cebpf4jnsgd1na2vs0mg"},{"bike_id":"be9ee84b-9ec1-497c-800c-5907ad1418ae","system_id":"levelo_inurba_marseille","lat":43.22565,"lon":5.41628,"is_reserved":false,"is_disabled":false,"rental_uris":{"android":"levelo://app?vid=be9ee84b-9ec1-497c-800c-5907ad1418ae","ios":"levelo://app?vid=be9ee84b-9ec1-497c-800c-5907ad1418ae"},"vehicle_type_id":"4","last_reported":1758143276,"current_range_meters":17200,"station_id":"st_d2o4gvlbi1j2169b742g","pricing_plan_id":"cebpf4jnsgd1na2vs0mg"},{"bike_id":"2df53390-f30d-4dd5-bf90-f9f633826418","system_id":"levelo_inurba_marseille","lat":43.29521,"lon":5.39049,"is_reserved":false,"is_disabled":false,"rental_uris":{"android":"levelo://app?vid=2df53390-f30d-4dd5-bf90-f9f633826418","ios":"levelo://app?vid=2df53390-f30d-4dd5-bf90-f9f633826418"},"vehicle_type_id":"4","last_reported":1758143276,"current_range_meters":17200,"station_id":"ce4bh3p2rcd13ifvqdp0","pricing_plan_id":"cebpf4jnsgd1na2vs0mg"},{"bike_id":"7b48fe56-d8f6-4bb4-babf-2c24152427a2","system_id":"levelo_inurba_marseille","lat":43.27975,"lon":5.4166,"is_reserved":false,"is_disabled":false,"rental_uris":{"android":"levelo://app?vid=7b48fe56-d8f6-4bb4-babf-2c24152427a2","ios":"levelo://app?vid=7b48fe56-d8f6-4bb4-babf-2c24152427a2"},"vehicle_type_id":"4","last_reported":1758143276,"current_range_meters":17200,"station_id":"ce4bho12rcd13ifvqh1g","pricing_plan_id":"cebpf4jnsgd1na2vs0mg"},{"bike_id":"a66b8944-6cea-4817-8024-8e532f57f1cc","system_id":"levelo_inurba_marseille","lat":43.27983,"lon":5.41665,"is_reserved":false,"is_disabled":false,"rental_uris":{"android":"levelo://app?vid=a66b8944-6cea-4817-8024-8e532f57f1cc","ios":"levelo://app?vid=a66b8944-6cea-4817-8024-8e532f57f1cc"},"vehicle_type_id":"4","last_reported":1758143276,"current_range_meters":17600,"station_id":"ce4bho12rcd13ifvqh1g","pricing_plan_id":"cebpf4jnsgd1na2vs0mg"},{"bike_id":"80a9a218-f77f-42ce-8136-b0dceb9fc366","system_id":"levelo_inurba_marseille","lat":43.267867,"lon":5.394102,"is_reserved":false,"is_disabled":true,"rental_uris":{"android":"levelo://app?vid=80a9a218-f77f-42ce-8136-b0dceb9fc366","ios":"levelo://app?vid=80a9a218-f77f-42ce-8136-b0dceb9fc366"},"vehicle_type_id":"4","last_reported":1758143276,"current_range_meters":17600,"station_id":"ce4bhh12rcd13ifvqfg0","pricing_plan_id":"cebpf4jnsgd1na2vs0mg"},{"bike_id":"629e0471-618f-471b-940a-455e6d8e15db","system_id":"levelo_inurba_marseille","lat":43.31753,"lon":5.39024,"is_reserved":false,"is_disabled":false,"rental_uris":{"android":"levelo://app?vid=629e0471-618f-471b-940a-455e6d8e15db","ios":"levelo://app?vid=629e0471-618f-471b-940a-455e6d8e15db"},"vehicle_type_id":"4","last_reported":1758143276,"current_range_meters":17600,"station_id":"ce4bhqp2rcd13ifvqhng","pricing_plan_id":"cebpf4jnsgd1na2vs0mg"},{"bike_id":"a4faa1fd-62ee-404a-aff8-b79ea6b6b5d2","system_id":"levelo_inurba_marseille","lat":43.32986,"lon":5.39245,"is_reserved":false,"is_disabled":false,"rental_uris":{"android":"levelo://app?vid=a4faa1fd-62ee-404a-aff8-b79ea6b6b5d2","ios":"levelo://app?vid=a4faa1fd-62ee-404a-aff8-b79ea6b6b5d2"},"vehicle_type_id":"4","last_reported":1758143276,"current_range_meters":17600,"station_id":"","pricing_plan_id":"cebpf4jnsgd1na2vs0mg"},{"bike_id":"d9f0ae84-d732-44f5-b420-064e325a0d60","system_id":"levelo_inurba_marseille","lat":43.320183,"lon":5.381343,"is_reserved":false,"is_disabled":false,"rental_uris":{"android":"levelo://app?vid=d9f0ae84-d732-44f5-b420-064e325a0d60","ios":"levelo://app?vid=d9f0ae84-d732-44f5-b420-064e325a0d60"},"vehicle_type_id":"4","last_reported":1758143276,"current_range_meters":17600,"station_id":"","pricing_plan_id":"cebpf4jnsgd1na2vs0mg"},{"bike_id":"1977b5c6-dba9-4a16-b32b-37129b48ac88","system_id":"levelo_inurba_marseille","lat":43.29513,"lon":5.3904,"is_reserved":false,"is_disabled":false,"rental_uris":{"android":"levelo://app?vid=1977b5c6-dba9-4a16-b32b-37129b48ac88","ios":"levelo://app?vid=1977b5c6-dba9-4a16-b32b-37129b48ac88"},"vehicle_type_id":"4","last_reported":1758143276,"current_range_meters":17600,"station_id":"ce4bh3p2rcd13ifvqdp0","pricing_plan_id":"cebpf4jnsgd1na2vs0mg"},{"bike_id":"fa0847a4-8d8b-47a2-9c0d-c16fe7a48c9b","system_id":"levelo_inurba_marseille","lat":43.330285,"lon":5.390556,"is_reserved":false,"is_disabled":false,"rental_uris":{"android":"levelo://app?vid=fa0847a4-8d8b-47a2-9c0d-c16fe7a48c9b","ios":"levelo://app?vid=fa0847a4-8d8b-47a2-9c0d-c16fe7a48c9b"},"vehicle_type_id":"4","last_reported":1758143276,"current_range_meters":17600,"station_id":"","pricing_plan_id":"cebpf4jnsgd1na2vs0mg"},{"bike_id":"42323a1a-489c-43cb-90ae-c675b27444d5","system_id":"levelo_inurba_marseille","lat":43.21635,"lon":5.34372,"is_reserved":false,"is_disabled":false,"rental_uris":{"android":"levelo://app?vid=42323a1a-489c-43cb-90ae-c675b27444d5","ios":"levelo://app?vid=42323a1a-489c-43cb-90ae-c675b27444d5"},"vehicle_type_id":"4","last_reported":1758143276,"current_range_meters":17600,"station_id":"","pricing_plan_id":"cebpf4jnsgd1na2vs0mg"},{"bike_id":"c9e40109-3dfe-4aad-b491-bd93fd00d81a","system_id":"levelo_inurba_marseille","lat":43.29186,"lon":5.39334,"is_reserved":false,"is_disabled":false,"rental_uris":{"android":"levelo://app?vid=c9e40109-3dfe-4aad-b491-bd93fd00d81a","ios":"levelo://app?vid=c9e40109-3dfe-4aad-b491-bd93fd00d81a"},"vehicle_type_id":"4","last_reported":1758143276,"current_range_meters":17600,"station_id":"ce4bh192rcd13ifvqdd0","pricing_plan_id":"cebpf4jnsgd1na2vs0mg"},{"bike_id":"adf19941-6925-49e3-b023-4f911ffc887f","system_id":"levelo_inurba_marseille","lat":43.32368,"lon":5.36722,"is_reserved":false,"is_disabled":true,"rental_uris":{"android":"levelo://app?vid=adf19941-6925-49e3-b023-4f911ffc887f","ios":"levelo://app?vid=adf19941-6925-49e3-b023-4f911ffc887f"},"vehicle_type_id":"4","last_reported":1758143276,"current_range_meters":17600,"station_id":"ce4bhsh2rcd13ifvqi2g","pricing_plan_id":"cebpf4jnsgd1na2vs0mg"},{"bike_id":"1da37b3a-d772-478a-a85c-fb719c8bc7a9","system_id":"levelo_inurba_marseille","lat":43.2656,"lon":5.39641,"is_reserved":false,"is_disabled":false,"rental_uris":{"android":"levelo://app?vid=1da37b3a-d772-478a-a85c-fb719c8bc7a9","ios":"levelo://app?vid=1da37b3a-d772-478a-a85c-fb719c8bc7a9"},"vehicle_type_id":"4","last_reported":1758143276,"current_range_meters":17600,"station_id":"","pricing_plan_id":"cebpf4jnsgd1na2vs0mg"},{"bike_id":"0a68362e-f5d3-40c2-8eb6-58b476c1e495","system_id":"levelo_inurba_marseille","lat":43.27774,"lon":5.41007,"is_reserved":false,"is_disabled":false,"rental_uris":{"android":"levelo://app?vid=0a68362e-f5d3-40c2-8eb6-58b476c1e495","ios":"levelo://app?vid=0a68362e-f5d3-40c2-8eb6-58b476c1e495"},"vehicle_type_id":"4","last_reported":1758143276,"current_range_meters":18000,"station_id":"","pricing_plan_id":"cebpf4jnsgd1na2vs0mg"},{"bike_id":"dc2aaeef-9171-40f7-bf54-f62d256a3558","system_id":"levelo_inurba_marseille","lat":43.30897,"lon":5.37199,"is_reserved":false,"is_disabled":false,"rental_uris":{"android":"levelo://app?vid=dc2aaeef-9171-40f7-bf54-f62d256a3558","ios":"levelo://app?vid=dc2aaeef-9171-40f7-bf54-f62d256a3558"},"vehicle_type_id":"4","last_reported":1758143276,"current_range_meters":18000,"station_id":"ce4bguh2rcd13ifvqckg","pricing_plan_id":"cebpf4jnsgd1na2vs0mg"},{"bike_id":"17e32bd2-1c59-42b3-819b-651708de8579","system_id":"levelo_inurba_marseille","lat":43.28336,"lon":5.38115,"is_reserved":false,"is_disabled":true,"rental_uris":{"android":"levelo://app?vid=17e32bd2-1c59-42b3-819b-651708de8579","ios":"levelo://app?vid=17e32bd2-1c59-42b3-819b-651708de8579"},"vehicle_type_id":"4","last_reported":1758143276,"current_range_meters":18000,"station_id":"ce4bh412rcd13ifvqdr0","pricing_plan_id":"cebpf4jnsgd1na2vs0mg"},{"bike_id":"d93f6aec-282b-42a6-9be0-fe23bad38a2b","system_id":"levelo_inurba_marseille","lat":43.24647,"lon":5.43145,"is_reserved":false,"is_disabled":true,"rental_uris":{"android":"levelo://app?vid=d93f6aec-282b-42a6-9be0-fe23bad38a2b","ios":"levelo://app?vid=d93f6aec-282b-42a6-9be0-fe23bad38a2b"},"vehicle_type_id":"4","last_reported":1758143276,"current_range_meters":18000,"station_id":"st_d2m6c4gdas8pm72e190g","pricing_plan_id":"cebpf4jnsgd1na2vs0mg"},{"bike_id":"2e2ae28d-dee5-4d7d-94ef-359eeb19688f","system_id":"levelo_inurba_marseille","lat":43.31995,"lon":5.38157,"is_reserved":false,"is_disabled":false,"rental_uris":{"android":"levelo://app?vid=2e2ae28d-dee5-4d7d-94ef-359eeb19688f","ios":"levelo://app?vid=2e2ae28d-dee5-4d7d-94ef-359eeb19688f"},"vehicle_type_id":"4","last_reported":1758143276,"current_range_meters":18000,"station_id":"ce4bhr12rcd13ifvqhpg","pricing_plan_id":"cebpf4jnsgd1na2vs0mg"},{"bike_id":"6499745b-7b8b-4d81-afa4-ba9c05652a7b","system_id":"levelo_inurba_marseille","lat":43.28565,"lon":5.37771,"is_reserved":false,"is_disabled":false,"rental_uris":{"android":"levelo://app?vid=6499745b-7b8b-4d81-afa4-ba9c05652a7b","ios":"levelo://app?vid=6499745b-7b8b-4d81-afa4-ba9c05652a7b"},"vehicle_type_id":"4","last_reported":1758143276,"current_range_meters":18000,"station_id":"","pricing_plan_id":"cebpf4jnsgd1na2vs0mg"},{"bike_id":"e1f51025-1404-4cca-96b7-273119670d5f","system_id":"levelo_inurba_marseille","lat":43.25296,"lon":5.42836,"is_reserved":false,"is_disabled":false,"rental_uris":{"android":"levelo://app?vid=e1f51025-1404-4cca-96b7-273119670d5f","ios":"levelo://app?vid=e1f51025-1404-4cca-96b7-273119670d5f"},"vehicle_type_id":"4","last_reported":1758143276,"current_range_meters":18000,"station_id":"","pricing_plan_id":"cebpf4jnsgd1na2vs0mg"},{"bike_id":"e2097b36-2ffa-4810-a4c4-63f5b804f1eb","system_id":"levelo_inurba_marseille","lat":43.29513,"lon":5.39034,"is_reserved":false,"is_disabled":false,"rental_uris":{"android":"levelo://app?vid=e2097b36-2ffa-4810-a4c4-63f5b804f1eb","ios":"levelo://app?vid=e2097b36-2ffa-4810-a4c4-63f5b804f1eb"},"vehicle_type_id":"4","last_reported":1758143276,"current_range_meters":18000,"station_id":"ce4bh3p2rcd13ifvqdp0","pricing_plan_id":"cebpf4jnsgd1na2vs0mg"},{"bike_id":"acfec73f-5435-48eb-a869-eeb3dc5252c8","system_id":"levelo_inurba_marseille","lat":43.31297,"lon":5.37867,"is_reserved":false,"is_disabled":false,"rental_uris":{"android":"levelo://app?vid=acfec73f-5435-48eb-a869-eeb3dc5252c8","ios":"levelo://app?vid=acfec73f-5435-48eb-a869-eeb3dc5252c8"},"vehicle_type_id":"4","last_reported":1758143276,"current_range_meters":18000,"station_id":"","pricing_plan_id":"cebpf4jnsgd1na2vs0mg"},{"bike_id":"a4a116ca-a949-44d9-8cc7-2ef81c6df9c4","system_id":"levelo_inurba_marseille","lat":43.308884,"lon":5.371875,"is_reserved":false,"is_disabled":false,"rental_uris":{"android":"levelo://app?vid=a4a116ca-a949-44d9-8cc7-2ef81c6df9c4","ios":"levelo://app?vid=a4a116ca-a949-44d9-8cc7-2ef81c6df9c4"},"vehicle_type_id":"4","last_reported":1758143276,"current_range_meters":18800,"station_id":"ce4bguh2rcd13ifvqckg","pricing_plan_id":"cebpf4jnsgd1na2vs0mg"},{"bike_id":"4a8b44a6-0286-4f42-ad43-bdc818baa503","system_id":"levelo_inurba_marseille","lat":43.2792,"lon":5.39569,"is_reserved":false,"is_disabled":false,"rental_uris":{"android":"levelo://app?vid=4a8b44a6-0286-4f42-ad43-bdc818baa503","ios":"levelo://app?vid=4a8b44a6-0286-4f42-ad43-bdc818baa503"},"vehicle_type_id":"4","last_reported":1758143276,"current_range_meters":18800,"station_id":"ce4bhf92rcd13ifvqf40","pricing_plan_id":"cebpf4jnsgd1na2vs0mg"},{"bike_id":"ba58613a-9255-41ff-936d-c7269e6271b4","system_id":"levelo_inurba_marseille","lat":43.280024,"lon":5.416654,"is_reserved":false,"is_disabled":false,"rental_uris":{"android":"levelo://app?vid=ba58613a-9255-41ff-936d-c7269e6271b4","ios":"levelo://app?vid=ba58613a-9255-41ff-936d-c7269e6271b4"},"vehicle_type_id":"4","last_reported":1758143276,"current_range_meters":18800,"station_id":"ce4bho12rcd13ifvqh1g","pricing_plan_id":"cebpf4jnsgd1na2vs0mg"},{"bike_id":"a836d837-954f-4036-aa47-6b49dd4271fb","system_id":"levelo_inurba_marseille","lat":43.30638,"lon":5.4007,"is_reserved":false,"is_disabled":false,"rental_uris":{"android":"levelo://app?vid=a836d837-954f-4036-aa47-6b49dd4271fb","ios":"levelo://app?vid=a836d837-954f-4036-aa47-6b49dd4271fb"},"vehicle_type_id":"4","last_reported":1758143276,"current_range_meters":17200,"station_id":"ce4bh112rcd13ifvqda0","pricing_plan_id":"cebpf4jnsgd1na2vs0mg"},{"bike_id":"902489c0-2ee6-4b49-b73d-070a1308cb4f","system_id":"levelo_inurba_marseille","lat":43.29029,"lon":5.39959,"is_reserved":false,"is_disabled":false,"rental_uris":{"android":"levelo://app?vid=902489c0-2ee6-4b49-b73d-070a1308cb4f","ios":"levelo://app?vid=902489c0-2ee6-4b49-b73d-070a1308cb4f"},"vehicle_type_id":"4","last_reported":1758143276,"current_range_meters":18800,"station_id":"ce4bh392rcd13ifvqdm0","pricing_plan_id":"cebpf4jnsgd1na2vs0mg"},{"bike_id":"2629186d-091d-4262-b45e-1bc42bdd62e9","system_id":"levelo_inurba_marseille","lat":43.290946,"lon":5.381634,"is_reserved":false,"is_disabled":true,"rental_uris":{"android":"levelo://app?vid=2629186d-091d-4262-b45e-1bc42bdd62e9","ios":"levelo://app?vid=2629186d-091d-4262-b45e-1bc42bdd62e9"},"vehicle_type_id":"4","last_reported":1758143276,"current_range_meters":18800,"station_id":"ce4bh512rcd13ifvqe2g","pricing_plan_id":"cebpf4jnsgd1na2vs0mg"},{"bike_id":"8c28d726-40ee-44cb-871f-c030e17382ee","system_id":"levelo_inurba_marseille","lat":43.29312,"lon":5.37138,"is_reserved":false,"is_disabled":false,"rental_uris":{"android":"levelo://app?vid=8c28d726-40ee-44cb-871f-c030e17382ee","ios":"levelo://app?vid=8c28d726-40ee-44cb-871f-c030e17382ee"},"vehicle_type_id":"4","last_reported":1758143276,"current_range_meters":18800,"station_id":"","pricing_plan_id":"cebpf4jnsgd1na2vs0mg"},{"bike_id":"bd185fbb-729f-4221-8aa9-562ca885c1f5","system_id":"levelo_inurba_marseille","lat":43.22565,"lon":5.41624,"is_reserved":false,"is_disabled":false,"rental_uris":{"android":"levelo://app?vid=bd185fbb-729f-4221-8aa9-562ca885c1f5","ios":"levelo://app?vid=bd185fbb-729f-4221-8aa9-562ca885c1f5"},"vehicle_type_id":"4","last_reported":1758143276,"current_range_meters":18800,"station_id":"st_d2o4gvlbi1j2169b742g","pricing_plan_id":"cebpf4jnsgd1na2vs0mg"},{"bike_id":"45f6ceba-3123-4bb2-a6a1-083f1e953c55","system_id":"levelo_inurba_marseille","lat":43.30801,"lon":5.43521,"is_reserved":false,"is_disabled":false,"rental_uris":{"android":"levelo://app?vid=45f6ceba-3123-4bb2-a6a1-083f1e953c55","ios":"levelo://app?vid=45f6ceba-3123-4bb2-a6a1-083f1e953c55"},"vehicle_type_id":"4","last_reported":1758143276,"current_range_meters":19200,"station_id":"ce4bhph2rcd13ifvqheg","pricing_plan_id":"cebpf4jnsgd1na2vs0mg"},{"bike_id":"5880fc04-edaf-4225-8172-f18bac58e733","system_id":"levelo_inurba_marseille","lat":43.24547,"lon":5.39523,"is_reserved":false,"is_disabled":false,"rental_uris":{"android":"levelo://app?vid=5880fc04-edaf-4225-8172-f18bac58e733","ios":"levelo://app?vid=5880fc04-edaf-4225-8172-f18bac58e733"},"vehicle_type_id":"4","last_reported":1758143276,"current_range_meters":19200,"station_id":"ce4bhlp2rcd13ifvqgjg","pricing_plan_id":"cebpf4jnsgd1na2vs0mg"},{"bike_id":"c0b70d5c-1485-4e2d-ae49-83cb24677991","system_id":"levelo_inurba_marseille","lat":43.29965,"lon":5.38499,"is_reserved":false,"is_disabled":false,"rental_uris":{"android":"levelo://app?vid=c0b70d5c-1485-4e2d-ae49-83cb24677991","ios":"levelo://app?vid=c0b70d5c-1485-4e2d-ae49-83cb24677991"},"vehicle_type_id":"4","last_reported":1758143276,"current_range_meters":19200,"station_id":"ce4bgj92rcd13ifvqbd0","pricing_plan_id":"cebpf4jnsgd1na2vs0mg"},{"bike_id":"57e289c7-b50c-4dbb-abb4-66e65570bc71","system_id":"levelo_inurba_marseille","lat":43.30265,"lon":5.40081,"is_reserved":false,"is_disabled":false,"rental_uris":{"android":"levelo://app?vid=57e289c7-b50c-4dbb-abb4-66e65570bc71","ios":"levelo://app?vid=57e289c7-b50c-4dbb-abb4-66e65570bc71"},"vehicle_type_id":"4","last_reported":1758143276,"current_range_meters":18800,"station_id":"ce4bgvh2rcd13ifvqcs0","pricing_plan_id":"cebpf4jnsgd1na2vs0mg"},{"bike_id":"bb0d0efa-d3e1-4082-9cce-5548c09ec57c","system_id":"levelo_inurba_marseille","lat":43.27945,"lon":5.41044,"is_reserved":false,"is_disabled":false,"rental_uris":{"android":"levelo://app?vid=bb0d0efa-d3e1-4082-9cce-5548c09ec57c","ios":"levelo://app?vid=bb0d0efa-d3e1-4082-9cce-5548c09ec57c"},"vehicle_type_id":"4","last_reported":1758143276,"current_range_meters":19200,"station_id":"ce4bhnp2rcd13ifvqh0g","pricing_plan_id":"cebpf4jnsgd1na2vs0mg"},{"bike_id":"f9418cc9-c64d-43d9-9060-3aeedd69cdee","system_id":"levelo_inurba_marseille","lat":43.33078,"lon":5.37841,"is_reserved":false,"is_disabled":false,"rental_uris":{"android":"levelo://app?vid=f9418cc9-c64d-43d9-9060-3aeedd69cdee","ios":"levelo://app?vid=f9418cc9-c64d-43d9-9060-3aeedd69cdee"},"vehicle_type_id":"4","last_reported":1758143276,"current_range_meters":19200,"station_id":"","pricing_plan_id":"cebpf4jnsgd1na2vs0mg"},{"bike_id":"46ea44a3-16d5-484f-bb22-ccdade8c2fea","system_id":"levelo_inurba_marseille","lat":43.28419,"lon":5.37523,"is_reserved":false,"is_disabled":false,"rental_uris":{"android":"levelo://app?vid=46ea44a3-16d5-484f-bb22-ccdade8c2fea","ios":"levelo://app?vid=46ea44a3-16d5-484f-bb22-ccdade8c2fea"},"vehicle_type_id":"4","last_reported":1758143276,"current_range_meters":19600,"station_id":"ce4bh412rcd13ifvqds0","pricing_plan_id":"cebpf4jnsgd1na2vs0mg"},{"bike_id":"fb78ea42-e26f-45b3-a617-d3474b811b72","system_id":"levelo_inurba_marseille","lat":43.29866,"lon":5.37945,"is_reserved":false,"is_disabled":false,"rental_uris":{"android":"levelo://app?vid=fb78ea42-e26f-45b3-a617-d3474b811b72","ios":"levelo://app?vid=fb78ea42-e26f-45b3-a617-d3474b811b72"},"vehicle_type_id":"4","last_reported":1758143276,"current_range_meters":19600,"station_id":"","pricing_plan_id":"cebpf4jnsgd1na2vs0mg"},{"bike_id":"e942f984-8fe7-48d1-8f04-3806656b9996","system_id":"levelo_inurba_marseille","lat":43.33595,"lon":5.37916,"is_reserved":false,"is_disabled":false,"rental_uris":{"android":"levelo://app?vid=e942f984-8fe7-48d1-8f04-3806656b9996","ios":"levelo://app?vid=e942f984-8fe7-48d1-8f04-3806656b9996"},"vehicle_type_id":"4","last_reported":1758143276,"current_range_meters":19600,"station_id":"","pricing_plan_id":"cebpf4jnsgd1na2vs0mg"},{"bike_id":"7eed94c4-182d-4460-826b-78b4ef60c719","system_id":"levelo_inurba_marseille","lat":43.295859,"lon":5.375163,"is_reserved":false,"is_disabled":false,"rental_uris":{"android":"levelo://app?vid=7eed94c4-182d-4460-826b-78b4ef60c719","ios":"levelo://app?vid=7eed94c4-182d-4460-826b-78b4ef60c719"},"vehicle_type_id":"4","last_reported":1758143276,"current_range_meters":19600,"station_id":"","pricing_plan_id":"cebpf4jnsgd1na2vs0mg"},{"bike_id":"9d8b4944-013e-4958-9415-40d7b5ee9701","system_id":"levelo_inurba_marseille","lat":43.31609,"lon":5.38175,"is_reserved":false,"is_disabled":false,"rental_uris":{"android":"levelo://app?vid=9d8b4944-013e-4958-9415-40d7b5ee9701","ios":"levelo://app?vid=9d8b4944-013e-4958-9415-40d7b5ee9701"},"vehicle_type_id":"4","last_reported":1758143276,"current_range_meters":19600,"station_id":"","pricing_plan_id":"cebpf4jnsgd1na2vs0mg"},{"bike_id":"50f9be0f-c638-4a01-a8a7-0fcc049bd740","system_id":"levelo_inurba_marseille","lat":43.30891,"lon":5.3965,"is_reserved":false,"is_disabled":false,"rental_uris":{"android":"levelo://app?vid=50f9be0f-c638-4a01-a8a7-0fcc049bd740","ios":"levelo://app?vid=50f9be0f-c638-4a01-a8a7-0fcc049bd740"},"vehicle_type_id":"4","last_reported":1758143276,"current_range_meters":19600,"station_id":"ce4bh012rcd13ifvqcv0","pricing_plan_id":"cebpf4jnsgd1na2vs0mg"},{"bike_id":"52ba5ac1-d21e-4b4d-a4d7-e5c224991b26","system_id":"levelo_inurba_marseille","lat":43.3093,"lon":5.40144,"is_reserved":false,"is_disabled":false,"rental_uris":{"android":"levelo://app?vid=52ba5ac1-d21e-4b4d-a4d7-e5c224991b26","ios":"levelo://app?vid=52ba5ac1-d21e-4b4d-a4d7-e5c224991b26"},"vehicle_type_id":"4","last_reported":1758143276,"current_range_meters":19600,"station_id":"ce4bgvp2rcd13ifvqct0","pricing_plan_id":"cebpf4jnsgd1na2vs0mg"},{"bike_id":"9eb299ab-884d-4337-958f-ed252a8feab1","system_id":"levelo_inurba_marseille","lat":43.292566,"lon":5.409059,"is_reserved":false,"is_disabled":false,"rental_uris":{"android":"levelo://app?vid=9eb299ab-884d-4337-958f-ed252a8feab1","ios":"levelo://app?vid=9eb299ab-884d-4337-958f-ed252a8feab1"},"vehicle_type_id":"4","last_reported":1758143276,"current_range_meters":16800,"station_id":"ce4bh192rcd13ifvqdc0","pricing_plan_id":"cebpf4jnsgd1na2vs0mg"},{"bike_id":"c5f67484-bb34-45a9-af44-433760a4ded7","system_id":"levelo_inurba_marseille","lat":43.31356,"lon":5.38504,"is_reserved":false,"is_disabled":false,"rental_uris":{"android":"levelo://app?vid=c5f67484-bb34-45a9-af44-433760a4ded7","ios":"levelo://app?vid=c5f67484-bb34-45a9-af44-433760a4ded7"},"vehicle_type_id":"4","last_reported":1758143276,"current_range_meters":19600,"station_id":"ce4bgt92rcd13ifvqcf0","pricing_plan_id":"cebpf4jnsgd1na2vs0mg"},{"bike_id":"59ce8e26-07b6-4206-9d29-b70919079f5e","system_id":"levelo_inurba_marseille","lat":43.29268,"lon":5.40902,"is_reserved":false,"is_disabled":false,"rental_uris":{"android":"levelo://app?vid=59ce8e26-07b6-4206-9d29-b70919079f5e","ios":"levelo://app?vid=59ce8e26-07b6-4206-9d29-b70919079f5e"},"vehicle_type_id":"4","last_reported":1758143276,"current_range_meters":19600,"station_id":"ce4bh192rcd13ifvqdc0","pricing_plan_id":"cebpf4jnsgd1na2vs0mg"},{"bike_id":"fc407023-5868-46e8-85cf-edd69ce1aa39","system_id":"levelo_inurba_marseille","lat":43.273105,"lon":5.390725,"is_reserved":false,"is_disabled":true,"rental_uris":{"android":"levelo://app?vid=fc407023-5868-46e8-85cf-edd69ce1aa39","ios":"levelo://app?vid=fc407023-5868-46e8-85cf-edd69ce1aa39"},"vehicle_type_id":"4","last_reported":1758143276,"current_range_meters":20000,"station_id":"","pricing_plan_id":"cebpf4jnsgd1na2vs0mg"},{"bike_id":"7e953d71-85a0-4660-a5cc-5b2c44a247b9","system_id":"levelo_inurba_marseille","lat":43.258198,"lon":5.39441,"is_reserved":false,"is_disabled":false,"rental_uris":{"android":"levelo://app?vid=7e953d71-85a0-4660-a5cc-5b2c44a247b9","ios":"levelo://app?vid=7e953d71-85a0-4660-a5cc-5b2c44a247b9"},"vehicle_type_id":"4","last_reported":1758143276,"current_range_meters":20000,"station_id":"","pricing_plan_id":"cebpf4jnsgd1na2vs0mg"},{"bike_id":"03a31ce9-befb-4f08-aaa5-15f365488712","system_id":"levelo_inurba_marseille","lat":43.28436,"lon":5.37513,"is_reserved":false,"is_disabled":false,"rental_uris":{"android":"levelo://app?vid=03a31ce9-befb-4f08-aaa5-15f365488712","ios":"levelo://app?vid=03a31ce9-befb-4f08-aaa5-15f365488712"},"vehicle_type_id":"4","last_reported":1758143276,"current_range_meters":20000,"station_id":"ce4bh412rcd13ifvqds0","pricing_plan_id":"cebpf4jnsgd1na2vs0mg"},{"bike_id":"7d93c50b-8bd8-4ec9-9a21-c18c486e2224","system_id":"levelo_inurba_marseille","lat":43.286641,"lon":5.386873,"is_reserved":false,"is_disabled":false,"rental_uris":{"android":"levelo://app?vid=7d93c50b-8bd8-4ec9-9a21-c18c486e2224","ios":"levelo://app?vid=7d93c50b-8bd8-4ec9-9a21-c18c486e2224"},"vehicle_type_id":"4","last_reported":1758143276,"current_range_meters":20000,"station_id":"ce4bh492rcd13ifvqdug","pricing_plan_id":"cebpf4jnsgd1na2vs0mg"},{"bike_id":"728e8b35-ed77-4d0b-b49d-2a4aa933d302","system_id":"levelo_inurba_marseille","lat":43.25105,"lon":5.40327,"is_reserved":false,"is_disabled":false,"rental_uris":{"android":"levelo://app?vid=728e8b35-ed77-4d0b-b49d-2a4aa933d302","ios":"levelo://app?vid=728e8b35-ed77-4d0b-b49d-2a4aa933d302"},"vehicle_type_id":"4","last_reported":1758143276,"current_range_meters":20000,"station_id":"","pricing_plan_id":"cebpf4jnsgd1na2vs0mg"},{"bike_id":"a03e72c8-e2ea-44f1-a517-f3432b773d64","system_id":"levelo_inurba_marseille","lat":43.290995,"lon":5.381435,"is_reserved":false,"is_disabled":false,"rental_uris":{"android":"levelo://app?vid=a03e72c8-e2ea-44f1-a517-f3432b773d64","ios":"levelo://app?vid=a03e72c8-e2ea-44f1-a517-f3432b773d64"},"vehicle_type_id":"4","last_reported":1758143276,"current_range_meters":20000,"station_id":"","pricing_plan_id":"cebpf4jnsgd1na2vs0mg"},{"bike_id":"55e53740-a593-4f55-867a-1a8307c31064","system_id":"levelo_inurba_marseille","lat":43.30929,"lon":5.40141,"is_reserved":false,"is_disabled":false,"rental_uris":{"android":"levelo://app?vid=55e53740-a593-4f55-867a-1a8307c31064","ios":"levelo://app?vid=55e53740-a593-4f55-867a-1a8307c31064"},"vehicle_type_id":"4","last_reported":1758143276,"current_range_meters":20000,"station_id":"ce4bgvp2rcd13ifvqct0","pricing_plan_id":"cebpf4jnsgd1na2vs0mg"},{"bike_id":"b69333fb-c85e-41fc-b0d7-837153896f4b","system_id":"levelo_inurba_marseille","lat":43.239612,"lon":5.366193,"is_reserved":false,"is_disabled":false,"rental_uris":{"android":"levelo://app?vid=b69333fb-c85e-41fc-b0d7-837153896f4b","ios":"levelo://app?vid=b69333fb-c85e-41fc-b0d7-837153896f4b"},"vehicle_type_id":"4","last_reported":1758143276,"current_range_meters":20000,"station_id":"ce4bhi12rcd13ifvqfp0","pricing_plan_id":"cebpf4jnsgd1na2vs0mg"},{"bike_id":"3d64e5b3-77ca-4595-a533-a7846cbe1d1e","system_id":"levelo_inurba_marseille","lat":43.29762,"lon":5.38139,"is_reserved":false,"is_disabled":false,"rental_uris":{"android":"levelo://app?vid=3d64e5b3-77ca-4595-a533-a7846cbe1d1e","ios":"levelo://app?vid=3d64e5b3-77ca-4595-a533-a7846cbe1d1e"},"vehicle_type_id":"4","last_reported":1758143276,"current_range_meters":20400,"station_id":"","pricing_plan_id":"cebpf4jnsgd1na2vs0mg"},{"bike_id":"4dbf073f-caba-498b-8564-1b76bd22d1f9","system_id":"levelo_inurba_marseille","lat":43.29576,"lon":5.39979,"is_reserved":false,"is_disabled":false,"rental_uris":{"android":"levelo://app?vid=4dbf073f-caba-498b-8564-1b76bd22d1f9","ios":"levelo://app?vid=4dbf073f-caba-498b-8564-1b76bd22d1f9"},"vehicle_type_id":"4","last_reported":1758143276,"current_range_meters":19600,"station_id":"ce4bh312rcd13ifvqdj0","pricing_plan_id":"cebpf4jnsgd1na2vs0mg"},{"bike_id":"672c7880-b730-4690-a272-390d6b5fa3f8","system_id":"levelo_inurba_marseille","lat":43.29011,"lon":5.37549,"is_reserved":false,"is_disabled":true,"rental_uris":{"android":"levelo://app?vid=672c7880-b730-4690-a272-390d6b5fa3f8","ios":"levelo://app?vid=672c7880-b730-4690-a272-390d6b5fa3f8"},"vehicle_type_id":"4","last_reported":1758143276,"current_range_meters":20400,"station_id":"ce4bh692rcd13ifvqe90","pricing_plan_id":"cebpf4jnsgd1na2vs0mg"},{"bike_id":"553f8368-9fc7-4fab-ab6b-4ab64407d3bf","system_id":"levelo_inurba_marseille","lat":43.28913,"lon":5.42521,"is_reserved":false,"is_disabled":false,"rental_uris":{"android":"levelo://app?vid=553f8368-9fc7-4fab-ab6b-4ab64407d3bf","ios":"levelo://app?vid=553f8368-9fc7-4fab-ab6b-4ab64407d3bf"},"vehicle_type_id":"4","last_reported":1758143276,"current_range_meters":20000,"station_id":"ce4bhg12rcd13ifvqf80","pricing_plan_id":"cebpf4jnsgd1na2vs0mg"},{"bike_id":"6b116da7-dc15-4b7b-92c7-5c84b524f72b","system_id":"levelo_inurba_marseille","lat":43.2811,"lon":5.37836,"is_reserved":false,"is_disabled":true,"rental_uris":{"android":"levelo://app?vid=6b116da7-dc15-4b7b-92c7-5c84b524f72b","ios":"levelo://app?vid=6b116da7-dc15-4b7b-92c7-5c84b524f72b"},"vehicle_type_id":"4","last_reported":1758143276,"current_range_meters":20000,"station_id":"ce4bha12rcd13ifvqee0","pricing_plan_id":"cebpf4jnsgd1na2vs0mg"},{"bike_id":"19272925-0643-4789-bebe-8d389d0f1d20","system_id":"levelo_inurba_marseille","lat":43.29304,"lon":5.37185,"is_reserved":false,"is_disabled":false,"rental_uris":{"android":"levelo://app?vid=19272925-0643-4789-bebe-8d389d0f1d20","ios":"levelo://app?vid=19272925-0643-4789-bebe-8d389d0f1d20"},"vehicle_type_id":"4","last_reported":1758143276,"current_range_meters":20400,"station_id":"","pricing_plan_id":"cebpf4jnsgd1na2vs0mg"},{"bike_id":"2c734c36-442f-468e-ab47-e34ad5183e32","system_id":"levelo_inurba_marseille","lat":43.27256,"lon":5.38008,"is_reserved":false,"is_disabled":false,"rental_uris":{"android":"levelo://app?vid=2c734c36-442f-468e-ab47-e34ad5183e32","ios":"levelo://app?vid=2c734c36-442f-468e-ab47-e34ad5183e32"},"vehicle_type_id":"4","last_reported":1758143276,"current_range_meters":20400,"station_id":"","pricing_plan_id":"cebpf4jnsgd1na2vs0mg"},{"bike_id":"673144ea-23fd-4794-937a-d87bf833eac2","system_id":"levelo_inurba_marseille","lat":43.29316,"lon":5.37158,"is_reserved":false,"is_disabled":false,"rental_uris":{"android":"levelo://app?vid=673144ea-23fd-4794-937a-d87bf833eac2","ios":"levelo://app?vid=673144ea-23fd-4794-937a-d87bf833eac2"},"vehicle_type_id":"4","last_reported":1758143276,"current_range_meters":20400,"station_id":"","pricing_plan_id":"cebpf4jnsgd1na2vs0mg"},{"bike_id":"bf6e6d27-c09e-4725-9fbc-20073fd5a515","system_id":"levelo_inurba_marseille","lat":43.289376,"lon":5.396214,"is_reserved":false,"is_disabled":false,"rental_uris":{"android":"levelo://app?vid=bf6e6d27-c09e-4725-9fbc-20073fd5a515","ios":"levelo://app?vid=bf6e6d27-c09e-4725-9fbc-20073fd5a515"},"vehicle_type_id":"4","last_reported":1758143276,"current_range_meters":20400,"station_id":"","pricing_plan_id":"cebpf4jnsgd1na2vs0mg"},{"bike_id":"0960e3dd-c358-4474-bd10-8223758e1f6b","system_id":"levelo_inurba_marseille","lat":43.296996,"lon":5.376855,"is_reserved":false,"is_disabled":false,"rental_uris":{"android":"levelo://app?vid=0960e3dd-c358-4474-bd10-8223758e1f6b","ios":"levelo://app?vid=0960e3dd-c358-4474-bd10-8223758e1f6b"},"vehicle_type_id":"4","last_reported":1758143276,"current_range_meters":20400,"station_id":"","pricing_plan_id":"cebpf4jnsgd1na2vs0mg"},{"bike_id":"4dc90b56-c825-4ba9-af7f-576295158065","system_id":"levelo_inurba_marseille","lat":43.28415,"lon":5.37523,"is_reserved":false,"is_disabled":false,"rental_uris":{"android":"levelo://app?vid=4dc90b56-c825-4ba9-af7f-576295158065","ios":"levelo://app?vid=4dc90b56-c825-4ba9-af7f-576295158065"},"vehicle_type_id":"4","last_reported":1758143276,"current_range_meters":20800,"station_id":"ce4bh412rcd13ifvqds0","pricing_plan_id":"cebpf4jnsgd1na2vs0mg"},{"bike_id":"304c5a88-1568-4de5-9f46-397eec06f801","system_id":"levelo_inurba_marseille","lat":43.28657,"lon":5.36353,"is_reserved":false,"is_disabled":false,"rental_uris":{"android":"levelo://app?vid=304c5a88-1568-4de5-9f46-397eec06f801","ios":"levelo://app?vid=304c5a88-1568-4de5-9f46-397eec06f801"},"vehicle_type_id":"4","last_reported":1758143276,"current_range_meters":20800,"station_id":"ce4bhah2rcd13ifvqej0","pricing_plan_id":"cebpf4jnsgd1na2vs0mg"},{"bike_id":"03778afd-f9d6-46d3-b4b5-3a82ca073e7a","system_id":"levelo_inurba_marseille","lat":43.26211,"lon":5.40483,"is_reserved":false,"is_disabled":false,"rental_uris":{"android":"levelo://app?vid=03778afd-f9d6-46d3-b4b5-3a82ca073e7a","ios":"levelo://app?vid=03778afd-f9d6-46d3-b4b5-3a82ca073e7a"},"vehicle_type_id":"4","last_reported":1758143276,"current_range_meters":20800,"station_id":"ce4bhmh2rcd13ifvqgmg","pricing_plan_id":"cebpf4jnsgd1na2vs0mg"},{"bike_id":"47a98e22-c1d4-4476-ace0-3c1d2af66031","system_id":"levelo_inurba_marseille","lat":43.28154,"lon":5.42648,"is_reserved":false,"is_disabled":false,"rental_uris":{"android":"levelo://app?vid=47a98e22-c1d4-4476-ace0-3c1d2af66031","ios":"levelo://app?vid=47a98e22-c1d4-4476-ace0-3c1d2af66031"},"vehicle_type_id":"4","last_reported":1758143276,"current_range_meters":20800,"station_id":"ce4bhnh2rcd13ifvqgug","pricing_plan_id":"cebpf4jnsgd1na2vs0mg"},{"bike_id":"bb5418dd-b7cf-480b-b140-df3c2fab3330","system_id":"levelo_inurba_marseille","lat":43.3079,"lon":5.38174,"is_reserved":false,"is_disabled":false,"rental_uris":{"android":"levelo://app?vid=bb5418dd-b7cf-480b-b140-df3c2fab3330","ios":"levelo://app?vid=bb5418dd-b7cf-480b-b140-df3c2fab3330"},"vehicle_type_id":"4","last_reported":1758143276,"current_range_meters":20400,"station_id":"ce4bgt12rcd13ifvqce0","pricing_plan_id":"cebpf4jnsgd1na2vs0mg"},{"bike_id":"5ae8198b-0701-40a4-9083-0a43c75d986b","system_id":"levelo_inurba_marseille","lat":43.29225,"lon":5.37643,"is_reserved":false,"is_disabled":true,"rental_uris":{"android":"levelo://app?vid=5ae8198b-0701-40a4-9083-0a43c75d986b","ios":"levelo://app?vid=5ae8198b-0701-40a4-9083-0a43c75d986b"},"vehicle_type_id":"4","last_reported":1758143276,"current_range_meters":20800,"station_id":"ce4bgi12rcd13ifvqb80","pricing_plan_id":"cebpf4jnsgd1na2vs0mg"},{"bike_id":"7617e3ba-453f-4a44-be41-7dfc5fc946b4","system_id":"levelo_inurba_marseille","lat":43.31595,"lon":5.3724,"is_reserved":false,"is_disabled":false,"rental_uris":{"android":"levelo://app?vid=7617e3ba-453f-4a44-be41-7dfc5fc946b4","ios":"levelo://app?vid=7617e3ba-453f-4a44-be41-7dfc5fc946b4"},"vehicle_type_id":"4","last_reported":1758143276,"current_range_meters":20800,"station_id":"ce4bgt12rcd13ifvqcd0","pricing_plan_id":"cebpf4jnsgd1na2vs0mg"},{"bike_id":"80b14801-cd20-4aad-ae1e-aa49c0ef7803","system_id":"levelo_inurba_marseille","lat":43.32063,"lon":5.41539,"is_reserved":false,"is_disabled":false,"rental_uris":{"android":"levelo://app?vid=80b14801-cd20-4aad-ae1e-aa49c0ef7803","ios":"levelo://app?vid=80b14801-cd20-4aad-ae1e-aa49c0ef7803"},"vehicle_type_id":"4","last_reported":1758143276,"current_range_meters":21600,"station_id":"ce4bhq92rcd13ifvqhkg","pricing_plan_id":"cebpf4jnsgd1na2vs0mg"},{"bike_id":"d0d60b2a-f21a-4989-ac8b-da205849e759","system_id":"levelo_inurba_marseille","lat":43.29318,"lon":5.37154,"is_reserved":false,"is_disabled":false,"rental_uris":{"android":"levelo://app?vid=d0d60b2a-f21a-4989-ac8b-da205849e759","ios":"levelo://app?vid=d0d60b2a-f21a-4989-ac8b-da205849e759"},"vehicle_type_id":"4","last_reported":1758143276,"current_range_meters":21600,"station_id":"","pricing_plan_id":"cebpf4jnsgd1na2vs0mg"},{"bike_id":"4cb6774a-f732-4788-b580-425b07f14d7e","system_id":"levelo_inurba_marseille","lat":43.292335,"lon":5.360615,"is_reserved":false,"is_disabled":false,"rental_uris":{"android":"levelo://app?vid=4cb6774a-f732-4788-b580-425b07f14d7e","ios":"levelo://app?vid=4cb6774a-f732-4788-b580-425b07f14d7e"},"vehicle_type_id":"4","last_reported":1758143276,"current_range_meters":21600,"station_id":"","pricing_plan_id":"cebpf4jnsgd1na2vs0mg"},{"bike_id":"6c041fd8-c79d-4610-ad95-c003c7c3f921","system_id":"levelo_inurba_marseille","lat":43.32953,"lon":5.39265,"is_reserved":false,"is_disabled":true,"rental_uris":{"android":"levelo://app?vid=6c041fd8-c79d-4610-ad95-c003c7c3f921","ios":"levelo://app?vid=6c041fd8-c79d-4610-ad95-c003c7c3f921"},"vehicle_type_id":"4","last_reported":1758143276,"current_range_meters":21600,"station_id":"","pricing_plan_id":"cebpf4jnsgd1na2vs0mg"},{"bike_id":"435ff4e0-8d24-4c74-8dc1-b1d8f315f71c","system_id":"levelo_inurba_marseille","lat":43.27491,"lon":5.42458,"is_reserved":false,"is_disabled":true,"rental_uris":{"android":"levelo://app?vid=435ff4e0-8d24-4c74-8dc1-b1d8f315f71c","ios":"levelo://app?vid=435ff4e0-8d24-4c74-8dc1-b1d8f315f71c"},"vehicle_type_id":"4","last_reported":1758143276,"current_range_meters":21600,"station_id":"ce4bhn92rcd13ifvqgrg","pricing_plan_id":"cebpf4jnsgd1na2vs0mg"},{"bike_id":"94d27002-54fc-4779-bfc3-eeeacd6238e9","system_id":"levelo_inurba_marseille","lat":43.26555,"lon":5.37282,"is_reserved":false,"is_disabled":false,"rental_uris":{"android":"levelo://app?vid=94d27002-54fc-4779-bfc3-eeeacd6238e9","ios":"levelo://app?vid=94d27002-54fc-4779-bfc3-eeeacd6238e9"},"vehicle_type_id":"4","last_reported":1758143276,"current_range_meters":21600,"station_id":"ce4bhg12rcd13ifvqf70","pricing_plan_id":"cebpf4jnsgd1na2vs0mg"},{"bike_id":"32bad0a0-410f-4bd9-a9f8-4140049937bd","system_id":"levelo_inurba_marseille","lat":43.28132,"lon":5.43214,"is_reserved":false,"is_disabled":false,"rental_uris":{"android":"levelo://app?vid=32bad0a0-410f-4bd9-a9f8-4140049937bd","ios":"levelo://app?vid=32bad0a0-410f-4bd9-a9f8-4140049937bd"},"vehicle_type_id":"4","last_reported":1758143276,"current_range_meters":21600,"station_id":"","pricing_plan_id":"cebpf4jnsgd1na2vs0mg"},{"bike_id":"9b77757b-a8f2-4c93-a14e-e6083861628a","system_id":"levelo_inurba_marseille","lat":43.21764,"lon":5.34603,"is_reserved":false,"is_disabled":false,"rental_uris":{"android":"levelo://app?vid=9b77757b-a8f2-4c93-a14e-e6083861628a","ios":"levelo://app?vid=9b77757b-a8f2-4c93-a14e-e6083861628a"},"vehicle_type_id":"4","last_reported":1758143276,"current_range_meters":21600,"station_id":"st_cvj6r9ubvosntc0bgbag","pricing_plan_id":"cebpf4jnsgd1na2vs0mg"},{"bike_id":"955f3838-1ddf-420c-8698-964707ba9ca8","system_id":"levelo_inurba_marseille","lat":43.30794,"lon":5.38152,"is_reserved":false,"is_disabled":false,"rental_uris":{"android":"levelo://app?vid=955f3838-1ddf-420c-8698-964707ba9ca8","ios":"levelo://app?vid=955f3838-1ddf-420c-8698-964707ba9ca8"},"vehicle_type_id":"4","last_reported":1758143276,"current_range_meters":22000,"station_id":"ce4bgt12rcd13ifvqce0","pricing_plan_id":"cebpf4jnsgd1na2vs0mg"},{"bike_id":"830b9b55-b582-49a9-8acf-457ace5fb670","system_id":"levelo_inurba_marseille","lat":43.22562,"lon":5.41631,"is_reserved":false,"is_disabled":false,"rental_uris":{"android":"levelo://app?vid=830b9b55-b582-49a9-8acf-457ace5fb670","ios":"levelo://app?vid=830b9b55-b582-49a9-8acf-457ace5fb670"},"vehicle_type_id":"4","last_reported":1758143276,"current_range_meters":22000,"station_id":"st_d2o4gvlbi1j2169b742g","pricing_plan_id":"cebpf4jnsgd1na2vs0mg"},{"bike_id":"dcaaa0ec-887d-4060-b024-c8b9b379394f","system_id":"levelo_inurba_marseille","lat":43.295188,"lon":5.390328,"is_reserved":false,"is_disabled":false,"rental_uris":{"android":"levelo://app?vid=dcaaa0ec-887d-4060-b024-c8b9b379394f","ios":"levelo://app?vid=dcaaa0ec-887d-4060-b024-c8b9b379394f"},"vehicle_type_id":"4","last_reported":1758143276,"current_range_meters":22000,"station_id":"ce4bh3p2rcd13ifvqdp0","pricing_plan_id":"cebpf4jnsgd1na2vs0mg"},{"bike_id":"32e6bba6-aa5f-4513-8c2e-b1eba1cd806a","system_id":"levelo_inurba_marseille","lat":43.23173,"lon":5.39996,"is_reserved":false,"is_disabled":false,"rental_uris":{"android":"levelo://app?vid=32e6bba6-aa5f-4513-8c2e-b1eba1cd806a","ios":"levelo://app?vid=32e6bba6-aa5f-4513-8c2e-b1eba1cd806a"},"vehicle_type_id":"4","last_reported":1758143276,"current_range_meters":22000,"station_id":"ce4bhn12rcd13ifvqgqg","pricing_plan_id":"cebpf4jnsgd1na2vs0mg"},{"bike_id":"119669c3-a57a-4f90-8f58-b83bbdd4bbfa","system_id":"levelo_inurba_marseille","lat":43.27172,"lon":5.40995,"is_reserved":false,"is_disabled":false,"rental_uris":{"android":"levelo://app?vid=119669c3-a57a-4f90-8f58-b83bbdd4bbfa","ios":"levelo://app?vid=119669c3-a57a-4f90-8f58-b83bbdd4bbfa"},"vehicle_type_id":"4","last_reported":1758143276,"current_range_meters":22000,"station_id":"ce4bhl12rcd13ifvqgf0","pricing_plan_id":"cebpf4jnsgd1na2vs0mg"},{"bike_id":"9647f679-3c25-4a00-b307-f1c10f94eb96","system_id":"levelo_inurba_marseille","lat":43.22557,"lon":5.41626,"is_reserved":false,"is_disabled":false,"rental_uris":{"android":"levelo://app?vid=9647f679-3c25-4a00-b307-f1c10f94eb96","ios":"levelo://app?vid=9647f679-3c25-4a00-b307-f1c10f94eb96"},"vehicle_type_id":"4","last_reported":1758143276,"current_range_meters":22400,"station_id":"st_d2o4gvlbi1j2169b742g","pricing_plan_id":"cebpf4jnsgd1na2vs0mg"},{"bike_id":"cb78efc4-7264-4f45-a063-f609b64ceaf2","system_id":"levelo_inurba_marseille","lat":43.28845,"lon":5.35867,"is_reserved":false,"is_disabled":false,"rental_uris":{"android":"levelo://app?vid=cb78efc4-7264-4f45-a063-f609b64ceaf2","ios":"levelo://app?vid=cb78efc4-7264-4f45-a063-f609b64ceaf2"},"vehicle_type_id":"4","last_reported":1758143276,"current_range_meters":22400,"station_id":"ce4bhb12rcd13ifvqem0","pricing_plan_id":"cebpf4jnsgd1na2vs0mg"},{"bike_id":"9927f406-6c47-4699-991d-29c22195ebce","system_id":"levelo_inurba_marseille","lat":43.292,"lon":5.39324,"is_reserved":false,"is_disabled":false,"rental_uris":{"android":"levelo://app?vid=9927f406-6c47-4699-991d-29c22195ebce","ios":"levelo://app?vid=9927f406-6c47-4699-991d-29c22195ebce"},"vehicle_type_id":"4","last_reported":1758143276,"current_range_meters":22400,"station_id":"ce4bh192rcd13ifvqdd0","pricing_plan_id":"cebpf4jnsgd1na2vs0mg"},{"bike_id":"415f1da2-da0d-498a-9edc-1550913c98ee","system_id":"levelo_inurba_marseille","lat":43.283,"lon":5.35083,"is_reserved":false,"is_disabled":true,"rental_uris":{"android":"levelo://app?vid=415f1da2-da0d-498a-9edc-1550913c98ee","ios":"levelo://app?vid=415f1da2-da0d-498a-9edc-1550913c98ee"},"vehicle_type_id":"4","last_reported":1758143276,"current_range_meters":22400,"station_id":"ce4bhbp2rcd13ifvqerg","pricing_plan_id":"cebpf4jnsgd1na2vs0mg"},{"bike_id":"133ab78f-1a02-4dcd-a782-21de73841da9","system_id":"levelo_inurba_marseille","lat":43.30887,"lon":5.37172,"is_reserved":false,"is_disabled":false,"rental_uris":{"android":"levelo://app?vid=133ab78f-1a02-4dcd-a782-21de73841da9","ios":"levelo://app?vid=133ab78f-1a02-4dcd-a782-21de73841da9"},"vehicle_type_id":"4","last_reported":1758143276,"current_range_meters":22400,"station_id":"ce4bguh2rcd13ifvqckg","pricing_plan_id":"cebpf4jnsgd1na2vs0mg"},{"bike_id":"c308081f-43f1-45be-aaf0-9d6f75268094","system_id":"levelo_inurba_marseille","lat":43.27996,"lon":5.40009,"is_reserved":false,"is_disabled":false,"rental_uris":{"android":"levelo://app?vid=c308081f-43f1-45be-aaf0-9d6f75268094","ios":"levelo://app?vid=c308081f-43f1-45be-aaf0-9d6f75268094"},"vehicle_type_id":"4","last_reported":1758143276,"current_range_meters":22400,"station_id":"ce4bho92rcd13ifvqh4g","pricing_plan_id":"cebpf4jnsgd1na2vs0mg"},{"bike_id":"855512c0-6a19-4f6d-bd80-3dd36e88ef6a","system_id":"levelo_inurba_marseille","lat":43.29271,"lon":5.37637,"is_reserved":false,"is_disabled":false,"rental_uris":{"android":"levelo://app?vid=855512c0-6a19-4f6d-bd80-3dd36e88ef6a","ios":"levelo://app?vid=855512c0-6a19-4f6d-bd80-3dd36e88ef6a"},"vehicle_type_id":"4","last_reported":1758143276,"current_range_meters":22800,"station_id":"ce4bgi12rcd13ifvqb80","pricing_plan_id":"cebpf4jnsgd1na2vs0mg"},{"bike_id":"f85a8c4d-f9d0-4136-9b57-8bfb28db950c","system_id":"levelo_inurba_marseille","lat":43.31874,"lon":5.37431,"is_reserved":false,"is_disabled":false,"rental_uris":{"android":"levelo://app?vid=f85a8c4d-f9d0-4136-9b57-8bfb28db950c","ios":"levelo://app?vid=f85a8c4d-f9d0-4136-9b57-8bfb28db950c"},"vehicle_type_id":"4","last_reported":1758143276,"current_range_meters":22800,"station_id":"","pricing_plan_id":"cebpf4jnsgd1na2vs0mg"},{"bike_id":"8b2839ab-a476-4b77-b38f-93d16214d875","system_id":"levelo_inurba_marseille","lat":43.29574,"lon":5.37512,"is_reserved":false,"is_disabled":false,"rental_uris":{"android":"levelo://app?vid=8b2839ab-a476-4b77-b38f-93d16214d875","ios":"levelo://app?vid=8b2839ab-a476-4b77-b38f-93d16214d875"},"vehicle_type_id":"4","last_reported":1758143276,"current_range_meters":22400,"station_id":"","pricing_plan_id":"cebpf4jnsgd1na2vs0mg"},{"bike_id":"fa8eeefd-d9d3-4c9a-ba3c-59c7f6465b28","system_id":"levelo_inurba_marseille","lat":43.276169,"lon":5.361012,"is_reserved":false,"is_disabled":true,"rental_uris":{"android":"levelo://app?vid=fa8eeefd-d9d3-4c9a-ba3c-59c7f6465b28","ios":"levelo://app?vid=fa8eeefd-d9d3-4c9a-ba3c-59c7f6465b28"},