{"last_updated":1740784128,"ttl":60,"version":"2.2","data":{"bikes":[{"bike_id":"391d0ec0-109b-4126-a0cd-af69c75b33e7","system_id":"levelo_inurba_marseille","lat":43.27495,"lon":5.42449,"is_reserved":false,"is_disabled":false,"rental_uris":{"android":"levelo://app?vid=391d0ec0-109b-4126-a0cd-af69c75b33e7","ios":"levelo://app?vid=391d0ec0-109b-4126-a0cd-af69c75b33e7"},"vehicle_type_id":"4","last_reported":1740784128,"current_range_meters":2800,"station_id":"ce4bhn92rcd13ifvqgrg","pricing_plan_id":"cebpf4jnsgd1na2vs0mg"},{"bike_id":"a8e59649-cb19-46ae-a0de-ef46d9e8598d","system_id":"levelo_inurba_marseille","lat":43.27908,"lon":5.38016,"is_reserved":false,"is_disabled":false,"rental_uris":{"android":"levelo://app?vid=a8e59649-cb19-46ae-a0de-ef46d9e8598d","ios":"levelo://app?vid=a8e59649-cb19-46ae-a0de-ef46d9e8598d"},"vehicle_type_id":"4","last_reported":1740784128,"current_range_meters":3200,"station_id":"ce4bhf92rcd13ifvqf50","pricing_plan_id":"cebpf4jnsgd1na2vs0mg"},{"bike_id":"03899a96-8c06-4a4d-87d5-e420d78c3cd2","system_id":"levelo_inurba_marseille","lat":43.29017,"lon":5.38137,"is_reserved":false,"is_disabled":false,"rental_uris":{"android":"levelo://app?vid=03899a96-8c06-4a4d-87d5-e420d78c3cd2","ios":"levelo://app?vid=03899a96-8c06-4a4d-87d5-e420d78c3cd2"},"vehicle_type_id":"4","last_reported":1740784128,"current_range_meters":3200,"station_id":"ce4bh4p2rcd13ifvqe1g","pricing_plan_id":"cebpf4jnsgd1na2vs0mg"},{"bike_id":"56dde295-4757-447c-b785-ebc18f7af87a","system_id":"levelo_inurba_marseille","lat":43.30888,"lon":5.39663,"is_reserved":false,"is_disabled":false,"rental_uris":{"android":"levelo://app?vid=56dde295-4757-447c-b785-ebc18f7af87a","ios":"levelo://app?vid=56dde295-4757-447c-b785-ebc18f7af87a"},"vehicle_type_id":"4","last_reported":1740784128,"current_range_meters":3200,"station_id":"ce4bh012rcd13ifvqcv0","pricing_plan_id":"cebpf4jnsgd1na2vs0mg"},{"bike_id":"dbb938bf-03cb-4b54-bd0d-6b81eaab63cf","system_id":"levelo_inurba_marseille","lat":43.28393,"lon":5.37529,"is_reserved":false,"is_disabled":false,"rental_uris":{"android":"levelo://app?vid=dbb938bf-03cb-4b54-bd0d-6b81eaab63cf","ios":"levelo://app?vid=dbb938bf-03cb-4b54-bd0d-6b81eaab63cf"},"vehicle_type_id":"4","last_reported":1740784128,"current_range_meters":3600,"station_id":"ce4bh412rcd13ifvqds0","pricing_plan_id":"cebpf4jnsgd1na2vs0mg"},{"bike_id":"919d42ba-c3b0-4aca-909f-98bd61de0df0","system_id":"levelo_inurba_marseille","lat":43.32286,"lon":5.38281,"is_reserved":false,"is_disabled":false,"rental_uris":{"android":"levelo://app?vid=919d42ba-c3b0-4aca-909f-98bd61de0df0","ios":"levelo://app?vid=919d42ba-c3b0-4aca-909f-98bd61de0df0"},"vehicle_type_id":"4","last_reported":1740784128,"current_range_meters":4000,"station_id":"ce4bhr12rcd13ifvqhqg","pricing_plan_id":"cebpf4jnsgd1na2vs0mg"},{"bike_id":"83c25480-47c1-46eb-89f5-95728d7af2ff","system_id":"levelo_inurba_marseille","lat":43.24685,"lon":5.38158,"is_reserved":false,"is_disabled":false,"rental_uris":{"android":"levelo://app?vid=83c25480-47c1-46eb-89f5-95728d7af2ff","ios":"levelo://app?vid=83c25480-47c1-46eb-89f5-95728d7af2ff"},"vehicle_type_id":"4","last_reported":1740784128,"current_range_meters":4000,"station_id":"ce4bhih2rcd13ifvqfr0","pricing_plan_id":"cebpf4jnsgd1na2vs0mg"},{"bike_id":"aad8156a-5c78-423e-a7a1-0fb955778803","system_id":"levelo_inurba_marseille","lat":43.29251,"lon":5.38446,"is_reserved":false,"is_disabled":false,"rental_uris":{"android":"levelo://app?vid=aad8156a-5c78-423e-a7a1-0fb955778803","ios":"levelo://app?vid=aad8156a-5c78-423e-a7a1-0fb955778803"},"vehicle_type_id":"4","last_reported":1740784128,"current_range_meters":4000,"station_id":"ce4bh692rcd13ifvqea0","pricing_plan_id":"cebpf4jnsgd1na2vs0mg"},{"bike_id":"a402dcb0-63b6-4569-b9e8-ad825500c3f8","system_id":"levelo_inurba_marseille","lat":43.29003,"lon":5.35923,"is_reserved":false,"is_disabled":false,"rental_uris":{"android":"levelo://app?vid=a402dcb0-63b6-4569-b9e8-ad825500c3f8","ios":"levelo://app?vid=a402dcb0-63b6-4569-b9e8-ad825500c3f8"},"vehicle_type_id":"4","last_reported":1740784128,"current_range_meters":4000,"station_id":"","pricing_plan_id":"cebpf4jnsgd1na2vs0mg"},{"bike_id":"a8328c72-27ce-4150-a953-d0b7993a21b2","system_id":"levelo_inurba_marseille","lat":43.29249,"lon":5.37619,"is_reserved":false,"is_disabled":false,"rental_uris":{"android":"levelo://app?vid=a8328c72-27ce-4150-a953-d0b7993a21b2","ios":"levelo://app?vid=a8328c72-27ce-4150-a953-d0b7993a21b2"},"vehicle_type_id":"4","last_reported":1740784128,"current_range_meters":4000,"station_id":"ce4bgi12rcd13ifvqb80","pricing_plan_id":"cebpf4jnsgd1na2vs0mg"},{"bike_id":"e9783a72-39c5-49e7-8847-fa0f76b6d257","system_id":"levelo_inurba_marseille","lat":43.29976,"lon":5.38484,"is_reserved":false,"is_disabled":true,"rental_uris":{"android":"levelo://app?vid=e9783a72-39c5-49e7-8847-fa0f76b6d257","ios":"levelo://app?vid=e9783a72-39c5-49e7-8847-fa0f76b6d257"},"vehicle_type_id":"4","last_reported":1740784128,"current_range_meters":4400,"station_id":"ce4bgj92rcd13ifvqbd0","pricing_plan_id":"cebpf4jnsgd1na2vs0mg"},{"bike_id":"9458a132-a20d-4812-9334-707d5e3ec62b","system_id":"levelo_inurba_marseille","lat":43.28451,"lon":5.35876,"is_reserved":false,"is_disabled":false,"rental_uris":{"android":"levelo://app?vid=9458a132-a20d-4812-9334-707d5e3ec62b","ios":"levelo://app?vid=9458a132-a20d-4812-9334-707d5e3ec62b"},"vehicle_type_id":"4","last_reported":1740784128,"current_range_meters":4400,"station_id":"ce4bhah2rcd13ifvqei0","pricing_plan_id":"cebpf4jnsgd1na2vs0mg"},{"bike_id":"0317c915-b518-4b85-aa91-67d2abe0b311","system_id":"levelo_inurba_marseille","lat":43.29517,"lon":5.39059,"is_reserved":false,"is_disabled":false,"rental_uris":{"android":"levelo://app?vid=0317c915-b518-4b85-aa91-67d2abe0b311","ios":"levelo://app?vid=0317c915-b518-4b85-aa91-67d2abe0b311"},"vehicle_type_id":"4","last_reported":1740784128,"current_range_meters":4800,"station_id":"ce4bh3p2rcd13ifvqdp0","pricing_plan_id":"cebpf4jnsgd1na2vs0mg"},{"bike_id":"9ffbe43c-ee88-45fe-9103-84b71e3d2b6c","system_id":"levelo_inurba_marseille","lat":43.25,"lon":5.38931,"is_reserved":false,"is_disabled":false,"rental_uris":{"android":"levelo://app?vid=9ffbe43c-ee88-45fe-9103-84b71e3d2b6c","ios":"levelo://app?vid=9ffbe43c-ee88-45fe-9103-84b71e3d2b6c"},"vehicle_type_id":"4","last_reported":1740784128,"current_range_meters":5600,"station_id":"ce4bhgp2rcd13ifvqfd0","pricing_plan_id":"cebpf4jnsgd1na2vs0mg"},{"bike_id":"7da7e6b5-eda8-4987-a2ee-ea445319d764","system_id":"levelo_inurba_marseille","lat":43.301254,"lon":5.3984,"is_reserved":false,"is_disabled":false,"rental_uris":{"android":"levelo://app?vid=7da7e6b5-eda8-4987-a2ee-ea445319d764","ios":"levelo://app?vid=7da7e6b5-eda8-4987-a2ee-ea445319d764"},"vehicle_type_id":"4","last_reported":1740784128,"current_range_meters":4000,"station_id":"ce4bh2p2rcd13ifvqdi0","pricing_plan_id":"cebpf4jnsgd1na2vs0mg"},{"bike_id":"3e5384b7-10fc-4ae9-99fc-12247ec6d504","system_id":"levelo_inurba_marseille","lat":43.28723,"lon":5.37944,"is_reserved":false,"is_disabled":false,"rental_uris":{"android":"levelo://app?vid=3e5384b7-10fc-4ae9-99fc-12247ec6d504","ios":"levelo://app?vid=3e5384b7-10fc-4ae9-99fc-12247ec6d504"},"vehicle_type_id":"4","last_reported":1740784128,"current_range_meters":5600,"station_id":"ce4bh9p2rcd13ifvqec0","pricing_plan_id":"cebpf4jnsgd1na2vs0mg"},{"bike_id":"89a7517e-6658-46c5-a615-9e427ec79029","system_id":"levelo_inurba_marseille","lat":43.25712,"lon":5.4182,"is_reserved":false,"is_disabled":false,"rental_uris":{"android":"levelo://app?vid=89a7517e-6658-46c5-a615-9e427ec79029","ios":"levelo://app?vid=89a7517e-6658-46c5-a615-9e427ec79029"},"vehicle_type_id":"4","last_reported":1740784128,"current_range_meters":5600,"station_id":"","pricing_plan_id":"cebpf4jnsgd1na2vs0mg"},{"bike_id":"a9a19c6c-0bed-4d1f-a200-55a2f4d3052e","system_id":"levelo_inurba_marseille","lat":43.29017,"lon":5.42595,"is_reserved":false,"is_disabled":false,"rental_uris":{"android":"levelo://app?vid=a9a19c6c-0bed-4d1f-a200-55a2f4d3052e","ios":"levelo://app?vid=a9a19c6c-0bed-4d1f-a200-55a2f4d3052e"},"vehicle_type_id":"4","last_reported":1740784128,"current_range_meters":5600,"station_id":"","pricing_plan_id":"cebpf4jnsgd1na2vs0mg"},{"bike_id":"1f4208fb-928d-4743-80df-73c1f8230d96","system_id":"levelo_inurba_marseille","lat":43.28686,"lon":5.38634,"is_reserved":false,"is_disabled":true,"rental_uris":{"android":"levelo://app?vid=1f4208fb-928d-4743-80df-73c1f8230d96","ios":"levelo://app?vid=1f4208fb-928d-4743-80df-73c1f8230d96"},"vehicle_type_id":"4","last_reported":1740784128,"current_range_meters":6000,"station_id":"ce4bh492rcd13ifvqdug","pricing_plan_id":"cebpf4jnsgd1na2vs0mg"},{"bike_id":"4a0ba490-ccf2-4fd4-b1e7-54cfbcc44f39","system_id":"levelo_inurba_marseille","lat":43.286777,"lon":5.38655,"is_reserved":false,"is_disabled":false,"rental_uris":{"android":"levelo://app?vid=4a0ba490-ccf2-4fd4-b1e7-54cfbcc44f39","ios":"levelo://app?vid=4a0ba490-ccf2-4fd4-b1e7-54cfbcc44f39"},"vehicle_type_id":"4","last_reported":1740784128,"current_range_meters":6000,"station_id":"ce4bh492rcd13ifvqdug","pricing_plan_id":"cebpf4jnsgd1na2vs0mg"},{"bike_id":"2d151bb7-170e-44c9-853b-131cb86d5796","system_id":"levelo_inurba_marseille","lat":43.26558,"lon":5.39039,"is_reserved":false,"is_disabled":false,"rental_uris":{"android":"levelo://app?vid=2d151bb7-170e-44c9-853b-131cb86d5796","ios":"levelo://app?vid=2d151bb7-170e-44c9-853b-131cb86d5796"},"vehicle_type_id":"4","last_reported":1740784128,"current_range_meters":6000,"station_id":"ce4bhe12rcd13ifvqf30","pricing_plan_id":"cebpf4jnsgd1na2vs0mg"},{"bike_id":"4e21c123-fed3-4db6-ad81-45cccdae0542","system_id":"levelo_inurba_marseille","lat":43.24162,"lon":5.36401,"is_reserved":false,"is_disabled":true,"rental_uris":{"android":"levelo://app?vid=4e21c123-fed3-4db6-ad81-45cccdae0542","ios":"levelo://app?vid=4e21c123-fed3-4db6-ad81-45cccdae0542"},"vehicle_type_id":"4","last_reported":1740784128,"current_range_meters":6000,"station_id":"cpo36qri1sfpv3e86is0","pricing_plan_id":"cebpf4jnsgd1na2vs0mg"},{"bike_id":"a862b8a7-c72a-4010-b828-4a28cb339708","system_id":"levelo_inurba_marseille","lat":43.30887,"lon":5.39645,"is_reserved":false,"is_disabled":false,"rental_uris":{"android":"levelo://app?vid=a862b8a7-c72a-4010-b828-4a28cb339708","ios":"levelo://app?vid=a862b8a7-c72a-4010-b828-4a28cb339708"},"vehicle_type_id":"4","last_reported":1740784128,"current_range_meters":6400,"station_id":"ce4bh012rcd13ifvqcv0","pricing_plan_id":"cebpf4jnsgd1na2vs0mg"},{"bike_id":"95444a96-7641-4850-b323-dc9a894919ae","system_id":"levelo_inurba_marseille","lat":43.33108,"lon":5.37915,"is_reserved":false,"is_disabled":false,"rental_uris":{"android":"levelo://app?vid=95444a96-7641-4850-b323-dc9a894919ae","ios":"levelo://app?vid=95444a96-7641-4850-b323-dc9a894919ae"},"vehicle_type_id":"4","last_reported":1740784128,"current_range_meters":6400,"station_id":"","pricing_plan_id":"cebpf4jnsgd1na2vs0mg"},{"bike_id":"55f306c6-820d-4fa0-bdc4-8b744d1f1eea","system_id":"levelo_inurba_marseille","lat":43.24797,"lon":5.37467,"is_reserved":false,"is_disabled":false,"rental_uris":{"android":"levelo://app?vid=55f306c6-820d-4fa0-bdc4-8b744d1f1eea","ios":"levelo://app?vid=55f306c6-820d-4fa0-bdc4-8b744d1f1eea"},"vehicle_type_id":"4","last_reported":1740784128,"current_range_meters":6400,"station_id":"ce4bhgh2rcd13ifvqfb0","pricing_plan_id":"cebpf4jnsgd1na2vs0mg"},{"bike_id":"65421ca0-0739-4dae-9b9f-2caf2501caaf","system_id":"levelo_inurba_marseille","lat":43.29279,"lon":5.36843,"is_reserved":false,"is_disabled":false,"rental_uris":{"android":"levelo://app?vid=65421ca0-0739-4dae-9b9f-2caf2501caaf","ios":"levelo://app?vid=65421ca0-0739-4dae-9b9f-2caf2501caaf"},"vehicle_type_id":"4","last_reported":1740784128,"current_range_meters":6400,"station_id":"ce4bhbp2rcd13ifvqerg","pricing_plan_id":"cebpf4jnsgd1na2vs0mg"},{"bike_id":"2a398520-3240-4d1e-8947-c64008cd4a40","system_id":"levelo_inurba_marseille","lat":43.23968,"lon":5.36628,"is_reserved":false,"is_disabled":false,"rental_uris":{"android":"levelo://app?vid=2a398520-3240-4d1e-8947-c64008cd4a40","ios":"levelo://app?vid=2a398520-3240-4d1e-8947-c64008cd4a40"},"vehicle_type_id":"4","last_reported":1740784128,"current_range_meters":6400,"station_id":"ce4bhi12rcd13ifvqfp0","pricing_plan_id":"cebpf4jnsgd1na2vs0mg"},{"bike_id":"5f396cb0-91bb-4ffe-83f5-4b18052ab28f","system_id":"levelo_inurba_marseille","lat":43.27374,"lon":5.36257,"is_reserved":false,"is_disabled":false,"rental_uris":{"android":"levelo://app?vid=5f396cb0-91bb-4ffe-83f5-4b18052ab28f","ios":"levelo://app?vid=5f396cb0-91bb-4ffe-83f5-4b18052ab28f"},"vehicle_type_id":"4","last_reported":1740784128,"current_range_meters":6400,"station_id":"ce4bhbh2rcd13ifvqeo0","pricing_plan_id":"cebpf4jnsgd1na2vs0mg"},{"bike_id":"fa5fa748-15e8-445e-a9b0-a0a942f13fa2","system_id":"levelo_inurba_marseille","lat":43.24995,"lon":5.3893,"is_reserved":false,"is_disabled":false,"rental_uris":{"android":"levelo://app?vid=fa5fa748-15e8-445e-a9b0-a0a942f13fa2","ios":"levelo://app?vid=fa5fa748-15e8-445e-a9b0-a0a942f13fa2"},"vehicle_type_id":"4","last_reported":1740784128,"current_range_meters":6400,"station_id":"ce4bhgp2rcd13ifvqfd0","pricing_plan_id":"cebpf4jnsgd1na2vs0mg"},{"bike_id":"dcff507d-3819-435b-8033-cab0f880c6a6","system_id":"levelo_inurba_marseille","lat":43.265008,"lon":5.395536,"is_reserved":false,"is_disabled":true,"rental_uris":{"android":"levelo://app?vid=dcff507d-3819-435b-8033-cab0f880c6a6","ios":"levelo://app?vid=dcff507d-3819-435b-8033-cab0f880c6a6"},"vehicle_type_id":"4","last_reported":1740784128,"current_range_meters":6400,"station_id":"ce4bhi12rcd13ifvqfq0","pricing_plan_id":"cebpf4jnsgd1na2vs0mg"},{"bike_id":"4c3cbff4-8fcd-449f-9462-8524115108b2","system_id":"levelo_inurba_marseille","lat":43.26192,"lon":5.37944,"is_reserved":false,"is_disabled":true,"rental_uris":{"android":"levelo://app?vid=4c3cbff4-8fcd-449f-9462-8524115108b2","ios":"levelo://app?vid=4c3cbff4-8fcd-449f-9462-8524115108b2"},"vehicle_type_id":"4","last_reported":1740784128,"current_range_meters":6400,"station_id":"ce4bhjp2rcd13ifvqg90","pricing_plan_id":"cebpf4jnsgd1na2vs0mg"},{"bike_id":"43c32004-94fe-4598-87ba-734917dbcf43","system_id":"levelo_inurba_marseille","lat":43.29265,"lon":5.37624,"is_reserved":false,"is_disabled":false,"rental_uris":{"android":"levelo://app?vid=43c32004-94fe-4598-87ba-734917dbcf43","ios":"levelo://app?vid=43c32004-94fe-4598-87ba-734917dbcf43"},"vehicle_type_id":"4","last_reported":1740784128,"current_range_meters":6800,"station_id":"ce4bgi12rcd13ifvqb80","pricing_plan_id":"cebpf4jnsgd1na2vs0mg"},{"bike_id":"f9bb54c4-934b-4938-9a6d-c97575b45eeb","system_id":"levelo_inurba_marseille","lat":43.3088,"lon":5.39657,"is_reserved":false,"is_disabled":false,"rental_uris":{"android":"levelo://app?vid=f9bb54c4-934b-4938-9a6d-c97575b45eeb","ios":"levelo://app?vid=f9bb54c4-934b-4938-9a6d-c97575b45eeb"},"vehicle_type_id":"4","last_reported":1740784128,"current_range_meters":6400,"station_id":"ce4bh012rcd13ifvqcv0","pricing_plan_id":"cebpf4jnsgd1na2vs0mg"},{"bike_id":"de6c786f-fe28-46a5-ab32-83a7effbe153","system_id":"levelo_inurba_marseille","lat":43.31488,"lon":5.37307,"is_reserved":false,"is_disabled":false,"rental_uris":{"android":"levelo://app?vid=de6c786f-fe28-46a5-ab32-83a7effbe153","ios":"levelo://app?vid=de6c786f-fe28-46a5-ab32-83a7effbe153"},"vehicle_type_id":"4","last_reported":1740784128,"current_range_meters":6400,"station_id":"ce4bgt12rcd13ifvqcd0","pricing_plan_id":"cebpf4jnsgd1na2vs0mg"},{"bike_id":"0da6e0a1-a80c-4bfa-9f42-9441a63191ed","system_id":"levelo_inurba_marseille","lat":43.24821,"lon":5.37463,"is_reserved":false,"is_disabled":false,"rental_uris":{"android":"levelo://app?vid=0da6e0a1-a80c-4bfa-9f42-9441a63191ed","ios":"levelo://app?vid=0da6e0a1-a80c-4bfa-9f42-9441a63191ed"},"vehicle_type_id":"4","last_reported":1740784128,"current_range_meters":6800,"station_id":"ce4bhgh2rcd13ifvqfb0","pricing_plan_id":"cebpf4jnsgd1na2vs0mg"},{"bike_id":"51dac838-70bd-44dd-918e-f22d4d8e4ad9","system_id":"levelo_inurba_marseille","lat":43.24804,"lon":5.37453,"is_reserved":false,"is_disabled":false,"rental_uris":{"android":"levelo://app?vid=51dac838-70bd-44dd-918e-f22d4d8e4ad9","ios":"levelo://app?vid=51dac838-70bd-44dd-918e-f22d4d8e4ad9"},"vehicle_type_id":"4","last_reported":1740784128,"current_range_meters":6800,"station_id":"ce4bhgh2rcd13ifvqfb0","pricing_plan_id":"cebpf4jnsgd1na2vs0mg"},{"bike_id":"17ddbbb5-11e9-4dea-8d48-8df35a23e77a","system_id":"levelo_inurba_marseille","lat":43.31769,"lon":5.39017,"is_reserved":false,"is_disabled":false,"rental_uris":{"android":"levelo://app?vid=17ddbbb5-11e9-4dea-8d48-8df35a23e77a","ios":"levelo://app?vid=17ddbbb5-11e9-4dea-8d48-8df35a23e77a"},"vehicle_type_id":"4","last_reported":1740784128,"current_range_meters":6800,"station_id":"ce4bhqp2rcd13ifvqhng","pricing_plan_id":"cebpf4jnsgd1na2vs0mg"},{"bike_id":"ac265524-eea7-48ee-96b2-8c8c9df52483","system_id":"levelo_inurba_marseille","lat":43.30946,"lon":5.3905,"is_reserved":false,"is_disabled":false,"rental_uris":{"android":"levelo://app?vid=ac265524-eea7-48ee-96b2-8c8c9df52483","ios":"levelo://app?vid=ac265524-eea7-48ee-96b2-8c8c9df52483"},"vehicle_type_id":"4","last_reported":1740784128,"current_range_meters":6400,"station_id":"ce4bgup2rcd13ifvqco0","pricing_plan_id":"cebpf4jnsgd1na2vs0mg"},{"bike_id":"7bc43f96-9f3f-4e29-b133-908e8958eef9","system_id":"levelo_inurba_marseille","lat":43.29911,"lon":5.37504,"is_reserved":false,"is_disabled":false,"rental_uris":{"android":"levelo://app?vid=7bc43f96-9f3f-4e29-b133-908e8958eef9","ios":"levelo://app?vid=7bc43f96-9f3f-4e29-b133-908e8958eef9"},"vehicle_type_id":"4","last_reported":1740784128,"current_range_meters":6400,"station_id":"ce4bgjh2rcd13ifvqbg0","pricing_plan_id":"cebpf4jnsgd1na2vs0mg"},{"bike_id":"1d423b7c-95b0-4f07-a5c0-fe88800182f7","system_id":"levelo_inurba_marseille","lat":43.33134,"lon":5.38465,"is_reserved":false,"is_disabled":false,"rental_uris":{"android":"levelo://app?vid=1d423b7c-95b0-4f07-a5c0-fe88800182f7","ios":"levelo://app?vid=1d423b7c-95b0-4f07-a5c0-fe88800182f7"},"vehicle_type_id":"4","last_reported":1740784128,"current_range_meters":6800,"station_id":"","pricing_plan_id":"cebpf4jnsgd1na2vs0mg"},{"bike_id":"0e07936b-b5f4-4ce0-90ff-73c063994f1c","system_id":"levelo_inurba_marseille","lat":43.30457,"lon":5.37268,"is_reserved":false,"is_disabled":false,"rental_uris":{"android":"levelo://app?vid=0e07936b-b5f4-4ce0-90ff-73c063994f1c","ios":"levelo://app?vid=0e07936b-b5f4-4ce0-90ff-73c063994f1c"},"vehicle_type_id":"4","last_reported":1740784128,"current_range_meters":6800,"station_id":"","pricing_plan_id":"cebpf4jnsgd1na2vs0mg"},{"bike_id":"acdc8b02-f703-4dec-886d-cf203c0b1b29","system_id":"levelo_inurba_marseille","lat":43.28408,"lon":5.37519,"is_reserved":false,"is_disabled":false,"rental_uris":{"android":"levelo://app?vid=acdc8b02-f703-4dec-886d-cf203c0b1b29","ios":"levelo://app?vid=acdc8b02-f703-4dec-886d-cf203c0b1b29"},"vehicle_type_id":"4","last_reported":1740784128,"current_range_meters":7200,"station_id":"ce4bh412rcd13ifvqds0","pricing_plan_id":"cebpf4jnsgd1na2vs0mg"},{"bike_id":"3021eb73-4643-43b5-9036-08079dcf6c60","system_id":"levelo_inurba_marseille","lat":43.26561,"lon":5.3904,"is_reserved":false,"is_disabled":false,"rental_uris":{"android":"levelo://app?vid=3021eb73-4643-43b5-9036-08079dcf6c60","ios":"levelo://app?vid=3021eb73-4643-43b5-9036-08079dcf6c60"},"vehicle_type_id":"4","last_reported":1740784128,"current_range_meters":7200,"station_id":"ce4bhe12rcd13ifvqf30","pricing_plan_id":"cebpf4jnsgd1na2vs0mg"},{"bike_id":"7182befa-9a6c-49d3-acb0-e8c44e21d25e","system_id":"levelo_inurba_marseille","lat":43.25578,"lon":5.38238,"is_reserved":false,"is_disabled":false,"rental_uris":{"android":"levelo://app?vid=7182befa-9a6c-49d3-acb0-e8c44e21d25e","ios":"levelo://app?vid=7182befa-9a6c-49d3-acb0-e8c44e21d25e"},"vehicle_type_id":"4","last_reported":1740784128,"current_range_meters":7200,"station_id":"ce4bhih2rcd13ifvqfs0","pricing_plan_id":"cebpf4jnsgd1na2vs0mg"},{"bike_id":"ac7b203d-d8fa-4429-8571-7591c246f7d3","system_id":"levelo_inurba_marseille","lat":43.2783,"lon":5.40702,"is_reserved":false,"is_disabled":false,"rental_uris":{"android":"levelo://app?vid=ac7b203d-d8fa-4429-8571-7591c246f7d3","ios":"levelo://app?vid=ac7b203d-d8fa-4429-8571-7591c246f7d3"},"vehicle_type_id":"4","last_reported":1740784128,"current_range_meters":7200,"station_id":"ce4bhnh2rcd13ifvqgtg","pricing_plan_id":"cebpf4jnsgd1na2vs0mg"},{"bike_id":"121f184f-90a0-4e66-9d33-06a22d0922f3","system_id":"levelo_inurba_marseille","lat":43.2416,"lon":5.36407,"is_reserved":false,"is_disabled":false,"rental_uris":{"android":"levelo://app?vid=121f184f-90a0-4e66-9d33-06a22d0922f3","ios":"levelo://app?vid=121f184f-90a0-4e66-9d33-06a22d0922f3"},"vehicle_type_id":"4","last_reported":1740784128,"current_range_meters":7200,"station_id":"cpo36qri1sfpv3e86is0","pricing_plan_id":"cebpf4jnsgd1na2vs0mg"},{"bike_id":"9753fb54-7bac-4c39-b532-b7089220649f","system_id":"levelo_inurba_marseille","lat":43.31097,"lon":5.42414,"is_reserved":false,"is_disabled":false,"rental_uris":{"android":"levelo://app?vid=9753fb54-7bac-4c39-b532-b7089220649f","ios":"levelo://app?vid=9753fb54-7bac-4c39-b532-b7089220649f"},"vehicle_type_id":"4","last_reported":1740784128,"current_range_meters":7200,"station_id":"ce4bhp92rcd13ifvqhag","pricing_plan_id":"cebpf4jnsgd1na2vs0mg"},{"bike_id":"f26c35c1-6d74-4839-8620-0ecaba4ac374","system_id":"levelo_inurba_marseille","lat":43.25027,"lon":5.38927,"is_reserved":false,"is_disabled":false,"rental_uris":{"android":"levelo://app?vid=f26c35c1-6d74-4839-8620-0ecaba4ac374","ios":"levelo://app?vid=f26c35c1-6d74-4839-8620-0ecaba4ac374"},"vehicle_type_id":"4","last_reported":1740784128,"current_range_meters":7200,"station_id":"ce4bhgp2rcd13ifvqfd0","pricing_plan_id":"cebpf4jnsgd1na2vs0mg"},{"bike_id":"67ce8cfb-6f6b-425f-bc83-c1ca88627e6b","system_id":"levelo_inurba_marseille","lat":43.29257,"lon":5.37626,"is_reserved":false,"is_disabled":false,"rental_uris":{"android":"levelo://app?vid=67ce8cfb-6f6b-425f-bc83-c1ca88627e6b","ios":"levelo://app?vid=67ce8cfb-6f6b-425f-bc83-c1ca88627e6b"},"vehicle_type_id":"4","last_reported":1740784128,"current_range_meters":7200,"station_id":"ce4bgi12rcd13ifvqb80","pricing_plan_id":"cebpf4jnsgd1na2vs0mg"},{"bike_id":"c11d57f8-ea00-4859-a163-fca64e26cdc4","system_id":"levelo_inurba_marseille","lat":43.29297,"lon":5.38337,"is_reserved":false,"is_disabled":false,"rental_uris":{"android":"levelo://app?vid=c11d57f8-ea00-4859-a163-fca64e26cdc4","ios":"levelo://app?vid=c11d57f8-ea00-4859-a163-fca64e26cdc4"},"vehicle_type_id":"4","last_reported":1740784128,"current_range_meters":7200,"station_id":"","pricing_plan_id":"cebpf4jnsgd1na2vs0mg"},{"bike_id":"be99602a-a631-49ac-9994-bada14a93daf","system_id":"levelo_inurba_marseille","lat":43.24823,"lon":5.41135,"is_reserved":false,"is_disabled":false,"rental_uris":{"android":"levelo://app?vid=be99602a-a631-49ac-9994-bada14a93daf","ios":"levelo://app?vid=be99602a-a631-49ac-9994-bada14a93daf"},"vehicle_type_id":"4","last_reported":1740784128,"current_range_meters":7200,"station_id":"","pricing_plan_id":"cebpf4jnsgd1na2vs0mg"},{"bike_id":"05178d45-aa5b-4b8b-a800-07890686a1f3","system_id":"levelo_inurba_marseille","lat":43.30638,"lon":5.40094,"is_reserved":false,"is_disabled":false,"rental_uris":{"android":"levelo://app?vid=05178d45-aa5b-4b8b-a800-07890686a1f3","ios":"levelo://app?vid=05178d45-aa5b-4b8b-a800-07890686a1f3"},"vehicle_type_id":"4","last_reported":1740784128,"current_range_meters":12400,"station_id":"ce4bh112rcd13ifvqda0","pricing_plan_id":"cebpf4jnsgd1na2vs0mg"},{"bike_id":"9a55fd22-2625-475f-99bf-5d518bf1c38a","system_id":"levelo_inurba_marseille","lat":43.27946,"lon":5.41052,"is_reserved":false,"is_disabled":false,"rental_uris":{"android":"levelo://app?vid=9a55fd22-2625-475f-99bf-5d518bf1c38a","ios":"levelo://app?vid=9a55fd22-2625-475f-99bf-5d518bf1c38a"},"vehicle_type_id":"4","last_reported":1740784128,"current_range_meters":7200,"station_id":"ce4bhnp2rcd13ifvqh0g","pricing_plan_id":"cebpf4jnsgd1na2vs0mg"},{"bike_id":"cdb49f82-26f4-4ee1-ba90-4d28297e46cc","system_id":"levelo_inurba_marseille","lat":43.293,"lon":5.37158,"is_reserved":false,"is_disabled":false,"rental_uris":{"android":"levelo://app?vid=cdb49f82-26f4-4ee1-ba90-4d28297e46cc","ios":"levelo://app?vid=cdb49f82-26f4-4ee1-ba90-4d28297e46cc"},"vehicle_type_id":"4","last_reported":1740784128,"current_range_meters":7200,"station_id":"ce4bgh92rcd13ifvqb40","pricing_plan_id":"cebpf4jnsgd1na2vs0mg"},{"bike_id":"32028d2a-d834-4678-a648-cf11d05314f9","system_id":"levelo_inurba_marseille","lat":43.292391,"lon":5.39666,"is_reserved":false,"is_disabled":false,"rental_uris":{"android":"levelo://app?vid=32028d2a-d834-4678-a648-cf11d05314f9","ios":"levelo://app?vid=32028d2a-d834-4678-a648-cf11d05314f9"},"vehicle_type_id":"4","last_reported":1740784128,"current_range_meters":8000,"station_id":"ce4bhah2rcd13ifvqej0","pricing_plan_id":"cebpf4jnsgd1na2vs0mg"},{"bike_id":"1be215f6-dfeb-4768-92b5-1a3cd97ca79d","system_id":"levelo_inurba_marseille","lat":43.24387,"lon":5.37061,"is_reserved":false,"is_disabled":false,"rental_uris":{"android":"levelo://app?vid=1be215f6-dfeb-4768-92b5-1a3cd97ca79d","ios":"levelo://app?vid=1be215f6-dfeb-4768-92b5-1a3cd97ca79d"},"vehicle_type_id":"4","last_reported":1740784128,"current_range_meters":8000,"station_id":"ce4bhhh2rcd13ifvqfk0","pricing_plan_id":"cebpf4jnsgd1na2vs0mg"},{"bike_id":"8f9abc0c-64c0-4575-a7a7-1bcd86d9eeb6","system_id":"levelo_inurba_marseille","lat":43.2658,"lon":5.3902,"is_reserved":false,"is_disabled":false,"rental_uris":{"android":"levelo://app?vid=8f9abc0c-64c0-4575-a7a7-1bcd86d9eeb6","ios":"levelo://app?vid=8f9abc0c-64c0-4575-a7a7-1bcd86d9eeb6"},"vehicle_type_id":"4","last_reported":1740784128,"current_range_meters":8000,"station_id":"ce4bhe12rcd13ifvqf30","pricing_plan_id":"cebpf4jnsgd1na2vs0mg"},{"bike_id":"6cca77dd-0649-4eab-bb46-e9401cfc1881","system_id":"levelo_inurba_marseille","lat":43.3088,"lon":5.39622,"is_reserved":false,"is_disabled":false,"rental_uris":{"android":"levelo://app?vid=6cca77dd-0649-4eab-bb46-e9401cfc1881","ios":"levelo://app?vid=6cca77dd-0649-4eab-bb46-e9401cfc1881"},"vehicle_type_id":"4","last_reported":1740784128,"current_range_meters":8000,"station_id":"ce4bh012rcd13ifvqcv0","pricing_plan_id":"cebpf4jnsgd1na2vs0mg"},{"bike_id":"ece3efa8-9de2-4956-b5f6-4479f1db38c5","system_id":"levelo_inurba_marseille","lat":43.30951,"lon":5.39047,"is_reserved":false,"is_disabled":false,"rental_uris":{"android":"levelo://app?vid=ece3efa8-9de2-4956-b5f6-4479f1db38c5","ios":"levelo://app?vid=ece3efa8-9de2-4956-b5f6-4479f1db38c5"},"vehicle_type_id":"4","last_reported":1740784128,"current_range_meters":8000,"station_id":"ce4bgup2rcd13ifvqco0","pricing_plan_id":"cebpf4jnsgd1na2vs0mg"},{"bike_id":"ff6232bd-bedd-48c4-b562-1193456ded22","system_id":"levelo_inurba_marseille","lat":43.25072,"lon":5.39526,"is_reserved":false,"is_disabled":false,"rental_uris":{"android":"levelo://app?vid=ff6232bd-bedd-48c4-b562-1193456ded22","ios":"levelo://app?vid=ff6232bd-bedd-48c4-b562-1193456ded22"},"vehicle_type_id":"4","last_reported":1740784128,"current_range_meters":8000,"station_id":"ce4bhm12rcd13ifvqgkg","pricing_plan_id":"cebpf4jnsgd1na2vs0mg"},{"bike_id":"3de9aeda-1f9a-4bbc-8b90-e02a49e56ca9","system_id":"levelo_inurba_marseille","lat":43.23195,"lon":5.35557,"is_reserved":false,"is_disabled":false,"rental_uris":{"android":"levelo://app?vid=3de9aeda-1f9a-4bbc-8b90-e02a49e56ca9","ios":"levelo://app?vid=3de9aeda-1f9a-4bbc-8b90-e02a49e56ca9"},"vehicle_type_id":"4","last_reported":1740784128,"current_range_meters":8000,"station_id":"ce4bhu92rcd13ifvqi70","pricing_plan_id":"cebpf4jnsgd1na2vs0mg"},{"bike_id":"bcb3dd3d-4bbe-4a55-8cc6-0ab0579bcdbe","system_id":"levelo_inurba_marseille","lat":43.31692,"lon":5.37807,"is_reserved":false,"is_disabled":false,"rental_uris":{"android":"levelo://app?vid=bcb3dd3d-4bbe-4a55-8cc6-0ab0579bcdbe","ios":"levelo://app?vid=bcb3dd3d-4bbe-4a55-8cc6-0ab0579bcdbe"},"vehicle_type_id":"4","last_reported":1740784128,"current_range_meters":8000,"station_id":"","pricing_plan_id":"cebpf4jnsgd1na2vs0mg"},{"bike_id":"9eb62bd7-0fdc-491b-9eef-be0a9f73fbfb","system_id":"levelo_inurba_marseille","lat":43.2417,"lon":5.36395,"is_reserved":false,"is_disabled":false,"rental_uris":{"android":"levelo://app?vid=9eb62bd7-0fdc-491b-9eef-be0a9f73fbfb","ios":"levelo://app?vid=9eb62bd7-0fdc-491b-9eef-be0a9f73fbfb"},"vehicle_type_id":"4","last_reported":1740784128,"current_range_meters":8400,"station_id":"cpo36qri1sfpv3e86is0","pricing_plan_id":"cebpf4jnsgd1na2vs0mg"},{"bike_id":"6efb4250-e3c1-46c3-9109-1ea5b16d7c43","system_id":"levelo_inurba_marseille","lat":43.31125,"lon":5.37767,"is_reserved":false,"is_disabled":true,"rental_uris":{"android":"levelo://app?vid=6efb4250-e3c1-46c3-9109-1ea5b16d7c43","ios":"levelo://app?vid=6efb4250-e3c1-46c3-9109-1ea5b16d7c43"},"vehicle_type_id":"4","last_reported":1740784128,"current_range_meters":8400,"station_id":"ce4bgt92rcd13ifvqcg0","pricing_plan_id":"cebpf4jnsgd1na2vs0mg"},{"bike_id":"5f0b82f5-261c-4de2-a1df-6b1394ca1e45","system_id":"levelo_inurba_marseille","lat":43.30276,"lon":5.37707,"is_reserved":false,"is_disabled":false,"rental_uris":{"android":"levelo://app?vid=5f0b82f5-261c-4de2-a1df-6b1394ca1e45","ios":"levelo://app?vid=5f0b82f5-261c-4de2-a1df-6b1394ca1e45"},"vehicle_type_id":"4","last_reported":1740784128,"current_range_meters":8400,"station_id":"ce4bguh2rcd13ifvqcj0","pricing_plan_id":"cebpf4jnsgd1na2vs0mg"},{"bike_id":"de15dbbd-ae35-44b8-be4b-6a5887186cf2","system_id":"levelo_inurba_marseille","lat":43.29174,"lon":5.37157,"is_reserved":false,"is_disabled":false,"rental_uris":{"android":"levelo://app?vid=de15dbbd-ae35-44b8-be4b-6a5887186cf2","ios":"levelo://app?vid=de15dbbd-ae35-44b8-be4b-6a5887186cf2"},"vehicle_type_id":"4","last_reported":1740784128,"current_range_meters":8400,"station_id":"ce4bha92rcd13ifvqeh0","pricing_plan_id":"cebpf4jnsgd1na2vs0mg"},{"bike_id":"ca140ed1-8e15-46fb-ab05-e9783e7a9a62","system_id":"levelo_inurba_marseille","lat":43.323313,"lon":5.406197,"is_reserved":false,"is_disabled":false,"rental_uris":{"android":"levelo://app?vid=ca140ed1-8e15-46fb-ab05-e9783e7a9a62","ios":"levelo://app?vid=ca140ed1-8e15-46fb-ab05-e9783e7a9a62"},"vehicle_type_id":"4","last_reported":1740784128,"current_range_meters":8400,"station_id":"ce4bhq92rcd13ifvqhjg","pricing_plan_id":"cebpf4jnsgd1na2vs0mg"},{"bike_id":"86fa9070-c842-4442-ac3f-c66446720b12","system_id":"levelo_inurba_marseille","lat":43.29303,"lon":5.37449,"is_reserved":false,"is_disabled":false,"rental_uris":{"android":"levelo://app?vid=86fa9070-c842-4442-ac3f-c66446720b12","ios":"levelo://app?vid=86fa9070-c842-4442-ac3f-c66446720b12"},"vehicle_type_id":"4","last_reported":1740784128,"current_range_meters":8800,"station_id":"ce4bgi12rcd13ifvqb70","pricing_plan_id":"cebpf4jnsgd1na2vs0mg"},{"bike_id":"d4918d6a-5525-4be8-b0c4-7af64b54343d","system_id":"levelo_inurba_marseille","lat":43.24177,"lon":5.36389,"is_reserved":false,"is_disabled":false,"rental_uris":{"android":"levelo://app?vid=d4918d6a-5525-4be8-b0c4-7af64b54343d","ios":"levelo://app?vid=d4918d6a-5525-4be8-b0c4-7af64b54343d"},"vehicle_type_id":"4","last_reported":1740784128,"current_range_meters":8800,"station_id":"cpo36qri1sfpv3e86is0","pricing_plan_id":"cebpf4jnsgd1na2vs0mg"},{"bike_id":"24b75ac8-6b61-4c73-8394-e4a1dd09f3cb","system_id":"levelo_inurba_marseille","lat":43.28376,"lon":5.38636,"is_reserved":false,"is_disabled":false,"rental_uris":{"android":"levelo://app?vid=24b75ac8-6b61-4c73-8394-e4a1dd09f3cb","ios":"levelo://app?vid=24b75ac8-6b61-4c73-8394-e4a1dd09f3cb"},"vehicle_type_id":"4","last_reported":1740784128,"current_range_meters":8800,"station_id":"ce4bh492rcd13ifvqdvg","pricing_plan_id":"cebpf4jnsgd1na2vs0mg"},{"bike_id":"5327f625-0311-4e62-a895-ceadc4ce1f5f","system_id":"levelo_inurba_marseille","lat":43.27077,"lon":5.42267,"is_reserved":false,"is_disabled":false,"rental_uris":{"android":"levelo://app?vid=5327f625-0311-4e62-a895-ceadc4ce1f5f","ios":"levelo://app?vid=5327f625-0311-4e62-a895-ceadc4ce1f5f"},"vehicle_type_id":"4","last_reported":1740784128,"current_range_meters":8800,"station_id":"ce4bhk92rcd13ifvqgb0","pricing_plan_id":"cebpf4jnsgd1na2vs0mg"},{"bike_id":"620ba232-2d97-4cfe-bdaf-3a50962fd2de","system_id":"levelo_inurba_marseille","lat":43.27829,"lon":5.40708,"is_reserved":false,"is_disabled":false,"rental_uris":{"android":"levelo://app?vid=620ba232-2d97-4cfe-bdaf-3a50962fd2de","ios":"levelo://app?vid=620ba232-2d97-4cfe-bdaf-3a50962fd2de"},"vehicle_type_id":"4","last_reported":1740784128,"current_range_meters":8800,"station_id":"ce4bhnh2rcd13ifvqgtg","pricing_plan_id":"cebpf4jnsgd1na2vs0mg"},{"bike_id":"53b23b24-07e8-4870-8ab7-c63d39038125","system_id":"levelo_inurba_marseille","lat":43.29417,"lon":5.38612,"is_reserved":false,"is_disabled":true,"rental_uris":{"android":"levelo://app?vid=53b23b24-07e8-4870-8ab7-c63d39038125","ios":"levelo://app?vid=53b23b24-07e8-4870-8ab7-c63d39038125"},"vehicle_type_id":"4","last_reported":1740784128,"current_range_meters":8800,"station_id":"ce4bh2h2rcd13ifvqdh0","pricing_plan_id":"cebpf4jnsgd1na2vs0mg"},{"bike_id":"63fa412d-c5ac-4871-8f86-1682a5c5b5d5","system_id":"levelo_inurba_marseille","lat":43.315,"lon":5.37365,"is_reserved":false,"is_disabled":false,"rental_uris":{"android":"levelo://app?vid=63fa412d-c5ac-4871-8f86-1682a5c5b5d5","ios":"levelo://app?vid=63fa412d-c5ac-4871-8f86-1682a5c5b5d5"},"vehicle_type_id":"4","last_reported":1740784128,"current_range_meters":8800,"station_id":"","pricing_plan_id":"cebpf4jnsgd1na2vs0mg"},{"bike_id":"559639fc-666c-4d68-b3e3-a393c2727648","system_id":"levelo_inurba_marseille","lat":43.29265,"lon":5.38439,"is_reserved":false,"is_disabled":false,"rental_uris":{"android":"levelo://app?vid=559639fc-666c-4d68-b3e3-a393c2727648","ios":"levelo://app?vid=559639fc-666c-4d68-b3e3-a393c2727648"},"vehicle_type_id":"4","last_reported":1740784128,"current_range_meters":8800,"station_id":"ce4bh692rcd13ifvqea0","pricing_plan_id":"cebpf4jnsgd1na2vs0mg"},{"bike_id":"d450afcf-676c-402c-8f2f-edc15cb61862","system_id":"levelo_inurba_marseille","lat":43.24805,"lon":5.37453,"is_reserved":false,"is_disabled":false,"rental_uris":{"android":"levelo://app?vid=d450afcf-676c-402c-8f2f-edc15cb61862","ios":"levelo://app?vid=d450afcf-676c-402c-8f2f-edc15cb61862"},"vehicle_type_id":"4","last_reported":1740784128,"current_range_meters":8800,"station_id":"ce4bhgh2rcd13ifvqfb0","pricing_plan_id":"cebpf4jnsgd1na2vs0mg"},{"bike_id":"749fee80-dfaa-43de-aa58-d21bbf5e0792","system_id":"levelo_inurba_marseille","lat":43.2321,"lon":5.39964,"is_reserved":false,"is_disabled":false,"rental_uris":{"android":"levelo://app?vid=749fee80-dfaa-43de-aa58-d21bbf5e0792","ios":"levelo://app?vid=749fee80-dfaa-43de-aa58-d21bbf5e0792"},"vehicle_type_id":"4","last_reported":1740784128,"current_range_meters":9200,"station_id":"ce4bhn12rcd13ifvqgqg","pricing_plan_id":"cebpf4jnsgd1na2vs0mg"},{"bike_id":"78c63142-0a35-4210-919d-bda5508e7b77","system_id":"levelo_inurba_marseille","lat":43.28693,"lon":5.39985,"is_reserved":false,"is_disabled":false,"rental_uris":{"android":"levelo://app?vid=78c63142-0a35-4210-919d-bda5508e7b77","ios":"levelo://app?vid=78c63142-0a35-4210-919d-bda5508e7b77"},"vehicle_type_id":"4","last_reported":1740784128,"current_range_meters":9200,"station_id":"ce4bho92rcd13ifvqh3g","pricing_plan_id":"cebpf4jnsgd1na2vs0mg"},{"bike_id":"9e70006a-cdf2-4919-93a2-3c66955a3b59","system_id":"levelo_inurba_marseille","lat":43.32362,"lon":5.36755,"is_reserved":false,"is_disabled":false,"rental_uris":{"android":"levelo://app?vid=9e70006a-cdf2-4919-93a2-3c66955a3b59","ios":"levelo://app?vid=9e70006a-cdf2-4919-93a2-3c66955a3b59"},"vehicle_type_id":"4","last_reported":1740784128,"current_range_meters":9200,"station_id":"ce4bhsh2rcd13ifvqi2g","pricing_plan_id":"cebpf4jnsgd1na2vs0mg"},{"bike_id":"4b7d95b1-35d3-47cc-a9b5-4ba973f3cafd","system_id":"levelo_inurba_marseille","lat":43.24802,"lon":5.37447,"is_reserved":false,"is_disabled":false,"rental_uris":{"android":"levelo://app?vid=4b7d95b1-35d3-47cc-a9b5-4ba973f3cafd","ios":"levelo://app?vid=4b7d95b1-35d3-47cc-a9b5-4ba973f3cafd"},"vehicle_type_id":"4","last_reported":1740784128,"current_range_meters":9200,"station_id":"ce4bhgh2rcd13ifvqfb0","pricing_plan_id":"cebpf4jnsgd1na2vs0mg"},{"bike_id":"c8f101ad-3299-4103-b362-e3fae3ea96b1","system_id":"levelo_inurba_marseille","lat":43.28073,"lon":5.39612,"is_reserved":false,"is_disabled":false,"rental_uris":{"android":"levelo://app?vid=c8f101ad-3299-4103-b362-e3fae3ea96b1","ios":"levelo://app?vid=c8f101ad-3299-4103-b362-e3fae3ea96b1"},"vehicle_type_id":"4","last_reported":1740784128,"current_range_meters":9200,"station_id":"ce4bho12rcd13ifvqh2g","pricing_plan_id":"cebpf4jnsgd1na2vs0mg"},{"bike_id":"b374d9dc-b81c-42d7-b33f-038a885e17e6","system_id":"levelo_inurba_marseille","lat":43.31959,"lon":5.38744,"is_reserved":false,"is_disabled":false,"rental_uris":{"android":"levelo://app?vid=b374d9dc-b81c-42d7-b33f-038a885e17e6","ios":"levelo://app?vid=b374d9dc-b81c-42d7-b33f-038a885e17e6"},"vehicle_type_id":"4","last_reported":1740784128,"current_range_meters":9200,"station_id":"","pricing_plan_id":"cebpf4jnsgd1na2vs0mg"},{"bike_id":"e8e574a6-d13a-4906-9b60-657faa08b971","system_id":"levelo_inurba_marseille","lat":43.26801,"lon":5.40263,"is_reserved":false,"is_disabled":true,"rental_uris":{"android":"levelo://app?vid=e8e574a6-d13a-4906-9b60-657faa08b971","ios":"levelo://app?vid=e8e574a6-d13a-4906-9b60-657faa08b971"},"vehicle_type_id":"4","last_reported":1740784128,"current_range_meters":9200,"station_id":"ce501612rcd8frsf0b60","pricing_plan_id":"cebpf4jnsgd1na2vs0mg"},{"bike_id":"8dbd79ab-8d7e-44ba-9f11-4afd7e562df1","system_id":"levelo_inurba_marseille","lat":43.25004,"lon":5.38929,"is_reserved":false,"is_disabled":false,"rental_uris":{"android":"levelo://app?vid=8dbd79ab-8d7e-44ba-9f11-4afd7e562df1","ios":"levelo://app?vid=8dbd79ab-8d7e-44ba-9f11-4afd7e562df1"},"vehicle_type_id":"4","last_reported":1740784128,"current_range_meters":9200,"station_id":"ce4bhgp2rcd13ifvqfd0","pricing_plan_id":"cebpf4jnsgd1na2vs0mg"},{"bike_id":"94d93eb2-b5f5-4f0b-ae0e-88e26f1e4d83","system_id":"levelo_inurba_marseille","lat":43.27442,"lon":5.39406,"is_reserved":false,"is_disabled":false,"rental_uris":{"android":"levelo://app?vid=94d93eb2-b5f5-4f0b-ae0e-88e26f1e4d83","ios":"levelo://app?vid=94d93eb2-b5f5-4f0b-ae0e-88e26f1e4d83"},"vehicle_type_id":"4","last_reported":1740784128,"current_range_meters":9600,"station_id":"ce4bhdp2rcd13ifvqf20","pricing_plan_id":"cebpf4jnsgd1na2vs0mg"},{"bike_id":"01281ae3-a90b-4aea-b7f6-9d4ebef71030","system_id":"levelo_inurba_marseille","lat":43.33597,"lon":5.40973,"is_reserved":false,"is_disabled":false,"rental_uris":{"android":"levelo://app?vid=01281ae3-a90b-4aea-b7f6-9d4ebef71030","ios":"levelo://app?vid=01281ae3-a90b-4aea-b7f6-9d4ebef71030"},"vehicle_type_id":"4","last_reported":1740784128,"current_range_meters":10800,"station_id":"ce4bhqh2rcd13ifvqhmg","pricing_plan_id":"cebpf4jnsgd1na2vs0mg"},{"bike_id":"abb4df5e-f3b6-49f0-9956-aa5abcc3ede9","system_id":"levelo_inurba_marseille","lat":43.23204,"lon":5.35558,"is_reserved":false,"is_disabled":false,"rental_uris":{"android":"levelo://app?vid=abb4df5e-f3b6-49f0-9956-aa5abcc3ede9","ios":"levelo://app?vid=abb4df5e-f3b6-49f0-9956-aa5abcc3ede9"},"vehicle_type_id":"4","last_reported":1740784128,"current_range_meters":9600,"station_id":"ce4bhu92rcd13ifvqi70","pricing_plan_id":"cebpf4jnsgd1na2vs0mg"},{"bike_id":"44a9b49b-687c-42ec-b31a-1a2a7b71f3f8","system_id":"levelo_inurba_marseille","lat":43.23182,"lon":5.39976,"is_reserved":false,"is_disabled":false,"rental_uris":{"android":"levelo://app?vid=44a9b49b-687c-42ec-b31a-1a2a7b71f3f8","ios":"levelo://app?vid=44a9b49b-687c-42ec-b31a-1a2a7b71f3f8"},"vehicle_type_id":"4","last_reported":1740784128,"current_range_meters":9600,"station_id":"ce4bhn12rcd13ifvqgqg","pricing_plan_id":"cebpf4jnsgd1na2vs0mg"},{"bike_id":"9134e7ce-2e73-449a-8f6e-5585fd856184","system_id":"levelo_inurba_marseille","lat":43.27822,"lon":5.4075,"is_reserved":false,"is_disabled":false,"rental_uris":{"android":"levelo://app?vid=9134e7ce-2e73-449a-8f6e-5585fd856184","ios":"levelo://app?vid=9134e7ce-2e73-449a-8f6e-5585fd856184"},"vehicle_type_id":"4","last_reported":1740784128,"current_range_meters":9600,"station_id":"ce4bhnh2rcd13ifvqgtg","pricing_plan_id":"cebpf4jnsgd1na2vs0mg"},{"bike_id":"d5468aad-116b-4925-85e0-f6f4ad78214e","system_id":"levelo_inurba_marseille","lat":43.29031,"lon":5.38648,"is_reserved":false,"is_disabled":false,"rental_uris":{"android":"levelo://app?vid=d5468aad-116b-4925-85e0-f6f4ad78214e","ios":"levelo://app?vid=d5468aad-116b-4925-85e0-f6f4ad78214e"},"vehicle_type_id":"4","last_reported":1740784128,"current_range_meters":9600,"station_id":"ce4bh4p2rcd13ifvqe0g","pricing_plan_id":"cebpf4jnsgd1na2vs0mg"},{"bike_id":"0999bf54-bb9d-4861-bcfd-105f6d4178ac","system_id":"levelo_inurba_marseille","lat":43.28854,"lon":5.35856,"is_reserved":false,"is_disabled":false,"rental_uris":{"android":"levelo://app?vid=0999bf54-bb9d-4861-bcfd-105f6d4178ac","ios":"levelo://app?vid=0999bf54-bb9d-4861-bcfd-105f6d4178ac"},"vehicle_type_id":"4","last_reported":1740784128,"current_range_meters":9600,"station_id":"ce4bhb12rcd13ifvqem0","pricing_plan_id":"cebpf4jnsgd1na2vs0mg"},{"bike_id":"c35c9fdb-538e-4467-aab5-190b2b20f9f3","system_id":"levelo_inurba_marseille","lat":43.27811,"lon":5.40711,"is_reserved":false,"is_disabled":false,"rental_uris":{"android":"levelo://app?vid=c35c9fdb-538e-4467-aab5-190b2b20f9f3","ios":"levelo://app?vid=c35c9fdb-538e-4467-aab5-190b2b20f9f3"},"vehicle_type_id":"4","last_reported":1740784128,"current_range_meters":9600,"station_id":"ce4bhnh2rcd13ifvqgtg","pricing_plan_id":"cebpf4jnsgd1na2vs0mg"},{"bike_id":"87e93e74-8cd3-44d1-b4df-fd004e9d2d43","system_id":"levelo_inurba_marseille","lat":43.281108,"lon":5.378454,"is_reserved":false,"is_disabled":false,"rental_uris":{"android":"levelo://app?vid=87e93e74-8cd3-44d1-b4df-fd004e9d2d43","ios":"levelo://app?vid=87e93e74-8cd3-44d1-b4df-fd004e9d2d43"},"vehicle_type_id":"4","last_reported":1740784128,"current_range_meters":9600,"station_id":"ce4bha12rcd13ifvqee0","pricing_plan_id":"cebpf4jnsgd1na2vs0mg"},{"bike_id":"bb113d46-ee53-44da-bdcc-afcf6081c369","system_id":"levelo_inurba_marseille","lat":43.27927,"lon":5.39573,"is_reserved":false,"is_disabled":false,"rental_uris":{"android":"levelo://app?vid=bb113d46-ee53-44da-bdcc-afcf6081c369","ios":"levelo://app?vid=bb113d46-ee53-44da-bdcc-afcf6081c369"},"vehicle_type_id":"4","last_reported":1740784128,"current_range_meters":10000,"station_id":"ce4bhf92rcd13ifvqf40","pricing_plan_id":"cebpf4jnsgd1na2vs0mg"},{"bike_id":"339fc872-d35e-45c4-8ec3-41f92e08a676","system_id":"levelo_inurba_marseille","lat":43.28413,"lon":5.37509,"is_reserved":false,"is_disabled":false,"rental_uris":{"android":"levelo://app?vid=339fc872-d35e-45c4-8ec3-41f92e08a676","ios":"levelo://app?vid=339fc872-d35e-45c4-8ec3-41f92e08a676"},"vehicle_type_id":"4","last_reported":1740784128,"current_range_meters":10000,"station_id":"ce4bh412rcd13ifvqds0","pricing_plan_id":"cebpf4jnsgd1na2vs0mg"},{"bike_id":"121435d4-63c2-4b22-b180-dd01286308d1","system_id":"levelo_inurba_marseille","lat":43.30883,"lon":5.39621,"is_reserved":false,"is_disabled":false,"rental_uris":{"android":"levelo://app?vid=121435d4-63c2-4b22-b180-dd01286308d1","ios":"levelo://app?vid=121435d4-63c2-4b22-b180-dd01286308d1"},"vehicle_type_id":"4","last_reported":1740784128,"current_range_meters":10000,"station_id":"ce4bh012rcd13ifvqcv0","pricing_plan_id":"cebpf4jnsgd1na2vs0mg"},{"bike_id":"44b3831f-4abc-4bc0-a9ad-6692bc77ff3f","system_id":"levelo_inurba_marseille","lat":43.2926,"lon":5.38432,"is_reserved":false,"is_disabled":false,"rental_uris":{"android":"levelo://app?vid=44b3831f-4abc-4bc0-a9ad-6692bc77ff3f","ios":"levelo://app?vid=44b3831f-4abc-4bc0-a9ad-6692bc77ff3f"},"vehicle_type_id":"4","last_reported":1740784128,"current_range_meters":10000,"station_id":"ce4bh692rcd13ifvqea0","pricing_plan_id":"cebpf4jnsgd1na2vs0mg"},{"bike_id":"c776e964-75a1-4343-b453-0b5fc1f76818","system_id":"levelo_inurba_marseille","lat":43.3347,"lon":5.38189,"is_reserved":false,"is_disabled":false,"rental_uris":{"android":"levelo://app?vid=c776e964-75a1-4343-b453-0b5fc1f76818","ios":"levelo://app?vid=c776e964-75a1-4343-b453-0b5fc1f76818"},"vehicle_type_id":"4","last_reported":1740784128,"current_range_meters":10000,"station_id":"","pricing_plan_id":"cebpf4jnsgd1na2vs0mg"},{"bike_id":"9133aa9f-1fe1-4d82-86fe-901632455e42","system_id":"levelo_inurba_marseille","lat":43.31278,"lon":5.40164,"is_reserved":false,"is_disabled":false,"rental_uris":{"android":"levelo://app?vid=9133aa9f-1fe1-4d82-86fe-901632455e42","ios":"levelo://app?vid=9133aa9f-1fe1-4d82-86fe-901632455e42"},"vehicle_type_id":"4","last_reported":1740784128,"current_range_meters":10000,"station_id":"ce4bh092rcd13ifvqd30","pricing_plan_id":"cebpf4jnsgd1na2vs0mg"},{"bike_id":"257c4849-dc72-4ebc-b295-ab798a49160b","system_id":"levelo_inurba_marseille","lat":43.2617,"lon":5.38135,"is_reserved":false,"is_disabled":false,"rental_uris":{"android":"levelo://app?vid=257c4849-dc72-4ebc-b295-ab798a49160b","ios":"levelo://app?vid=257c4849-dc72-4ebc-b295-ab798a49160b"},"vehicle_type_id":"4","last_reported":1740784128,"current_range_meters":10000,"station_id":"","pricing_plan_id":"cebpf4jnsgd1na2vs0mg"},{"bike_id":"43d6aa6f-20c7-4a1b-bcb8-31b660876567","system_id":"levelo_inurba_marseille","lat":43.26551,"lon":5.372845,"is_reserved":false,"is_disabled":false,"rental_uris":{"android":"levelo://app?vid=43d6aa6f-20c7-4a1b-bcb8-31b660876567","ios":"levelo://app?vid=43d6aa6f-20c7-4a1b-bcb8-31b660876567"},"vehicle_type_id":"4","last_reported":1740784128,"current_range_meters":10000,"station_id":"ce4bhg12rcd13ifvqf70","pricing_plan_id":"cebpf4jnsgd1na2vs0mg"},{"bike_id":"26cc7840-ae0e-4bb3-b632-324d66a8f696","system_id":"levelo_inurba_marseille","lat":43.29148,"lon":5.47858,"is_reserved":false,"is_disabled":false,"rental_uris":{"android":"levelo://app?vid=26cc7840-ae0e-4bb3-b632-324d66a8f696","ios":"levelo://app?vid=26cc7840-ae0e-4bb3-b632-324d66a8f696"},"vehicle_type_id":"4","last_reported":1740784128,"current_range_meters":10000,"station_id":"","pricing_plan_id":"cebpf4jnsgd1na2vs0mg"},{"bike_id":"7c7cfd37-ef03-4017-8a6f-03e7b17cd25f","system_id":"levelo_inurba_marseille","lat":43.29301,"lon":5.37445,"is_reserved":false,"is_disabled":false,"rental_uris":{"android":"levelo://app?vid=7c7cfd37-ef03-4017-8a6f-03e7b17cd25f","ios":"levelo://app?vid=7c7cfd37-ef03-4017-8a6f-03e7b17cd25f"},"vehicle_type_id":"4","last_reported":1740784128,"current_range_meters":10000,"station_id":"ce4bgi12rcd13ifvqb70","pricing_plan_id":"cebpf4jnsgd1na2vs0mg"},{"bike_id":"3f5e4c77-943b-4a46-b257-614bf13afec4","system_id":"levelo_inurba_marseille","lat":43.24178,"lon":5.36384,"is_reserved":false,"is_disabled":false,"rental_uris":{"android":"levelo://app?vid=3f5e4c77-943b-4a46-b257-614bf13afec4","ios":"levelo://app?vid=3f5e4c77-943b-4a46-b257-614bf13afec4"},"vehicle_type_id":"4","last_reported":1740784128,"current_range_meters":10000,"station_id":"cpo36qri1sfpv3e86is0","pricing_plan_id":"cebpf4jnsgd1na2vs0mg"},{"bike_id":"0b685400-e734-49c7-a371-e90b39ea60ca","system_id":"levelo_inurba_marseille","lat":43.29296,"lon":5.38436,"is_reserved":false,"is_disabled":false,"rental_uris":{"android":"levelo://app?vid=0b685400-e734-49c7-a371-e90b39ea60ca","ios":"levelo://app?vid=0b685400-e734-49c7-a371-e90b39ea60ca"},"vehicle_type_id":"4","last_reported":1740784128,"current_range_meters":10000,"station_id":"ce4bh692rcd13ifvqea0","pricing_plan_id":"cebpf4jnsgd1na2vs0mg"},{"bike_id":"e0647eb2-bc2f-451e-a5c1-a6f05f1a92ee","system_id":"levelo_inurba_marseille","lat":43.28419,"lon":5.34979,"is_reserved":false,"is_disabled":false,"rental_uris":{"android":"levelo://app?vid=e0647eb2-bc2f-451e-a5c1-a6f05f1a92ee","ios":"levelo://app?vid=e0647eb2-bc2f-451e-a5c1-a6f05f1a92ee"},"vehicle_type_id":"4","last_reported":1740784128,"current_range_meters":10000,"station_id":"ce4bhbh2rcd13ifvqepg","pricing_plan_id":"cebpf4jnsgd1na2vs0mg"},{"bike_id":"44e5b79c-a729-4a98-b415-5655781675c4","system_id":"levelo_inurba_marseille","lat":43.30193,"lon":5.36622,"is_reserved":false,"is_disabled":false,"rental_uris":{"android":"levelo://app?vid=44e5b79c-a729-4a98-b415-5655781675c4","ios":"levelo://app?vid=44e5b79c-a729-4a98-b415-5655781675c4"},"vehicle_type_id":"4","last_reported":1740784128,"current_range_meters":10000,"station_id":"ce4bgrh2rcd13ifvqc8g","pricing_plan_id":"cebpf4jnsgd1na2vs0mg"},{"bike_id":"d749cc84-0259-4abe-baf9-8989263f8f67","system_id":"levelo_inurba_marseille","lat":43.29595,"lon":5.38107,"is_reserved":false,"is_disabled":false,"rental_uris":{"android":"levelo://app?vid=d749cc84-0259-4abe-baf9-8989263f8f67","ios":"levelo://app?vid=d749cc84-0259-4abe-baf9-8989263f8f67"},"vehicle_type_id":"4","last_reported":1740784128,"current_range_meters":10000,"station_id":"ce4bgl12rcd13ifvqbo0","pricing_plan_id":"cebpf4jnsgd1na2vs0mg"},{"bike_id":"fc223354-1626-4ffe-abeb-7afb5b60ff03","system_id":"levelo_inurba_marseille","lat":43.30803,"lon":5.38166,"is_reserved":false,"is_disabled":false,"rental_uris":{"android":"levelo://app?vid=fc223354-1626-4ffe-abeb-7afb5b60ff03","ios":"levelo://app?vid=fc223354-1626-4ffe-abeb-7afb5b60ff03"},"vehicle_type_id":"4","last_reported":1740784128,"current_range_meters":10800,"station_id":"ce4bgt12rcd13ifvqce0","pricing_plan_id":"cebpf4jnsgd1na2vs0mg"},{"bike_id":"bcf10ec7-0dc7-4b31-90db-9fddabad3e7a","system_id":"levelo_inurba_marseille","lat":43.30543,"lon":5.36715,"is_reserved":false,"is_disabled":true,"rental_uris":{"android":"levelo://app?vid=bcf10ec7-0dc7-4b31-90db-9fddabad3e7a","ios":"levelo://app?vid=bcf10ec7-0dc7-4b31-90db-9fddabad3e7a"},"vehicle_type_id":"4","last_reported":1740784128,"current_range_meters":10800,"station_id":"ce4bgrp2rcd13ifvqc9g","pricing_plan_id":"cebpf4jnsgd1na2vs0mg"},{"bike_id":"6a59db0c-bf86-4cfc-b265-32f9b7951da4","system_id":"levelo_inurba_marseille","lat":43.29527,"lon":5.38546,"is_reserved":false,"is_disabled":false,"rental_uris":{"android":"levelo://app?vid=6a59db0c-bf86-4cfc-b265-32f9b7951da4","ios":"levelo://app?vid=6a59db0c-bf86-4cfc-b265-32f9b7951da4"},"vehicle_type_id":"4","last_reported":1740784128,"current_range_meters":11200,"station_id":"ce4bgih2rcd13ifvqba0","pricing_plan_id":"cebpf4jnsgd1na2vs0mg"},{"bike_id":"7cce6dff-5f1d-43f2-a320-cf9aa818ca33","system_id":"levelo_inurba_marseille","lat":43.27338,"lon":5.39069,"is_reserved":false,"is_disabled":false,"rental_uris":{"android":"levelo://app?vid=7cce6dff-5f1d-43f2-a320-cf9aa818ca33","ios":"levelo://app?vid=7cce6dff-5f1d-43f2-a320-cf9aa818ca33"},"vehicle_type_id":"4","last_reported":1740784128,"current_range_meters":10800,"station_id":"ce4bhgp2rcd13ifvqfe0","pricing_plan_id":"cebpf4jnsgd1na2vs0mg"},{"bike_id":"a25a4bca-1a72-419f-af06-cf47c412ca14","system_id":"levelo_inurba_marseille","lat":43.3081,"lon":5.435,"is_reserved":false,"is_disabled":false,"rental_uris":{"android":"levelo://app?vid=a25a4bca-1a72-419f-af06-cf47c412ca14","ios":"levelo://app?vid=a25a4bca-1a72-419f-af06-cf47c412ca14"},"vehicle_type_id":"4","last_reported":1740784128,"current_range_meters":11600,"station_id":"ce4bhph2rcd13ifvqheg","pricing_plan_id":"cebpf4jnsgd1na2vs0mg"},{"bike_id":"843d36d5-df7c-471b-973f-9d08aaf2ed09","system_id":"levelo_inurba_marseille","lat":43.29533,"lon":5.38546,"is_reserved":false,"is_disabled":false,"rental_uris":{"android":"levelo://app?vid=843d36d5-df7c-471b-973f-9d08aaf2ed09","ios":"levelo://app?vid=843d36d5-df7c-471b-973f-9d08aaf2ed09"},"vehicle_type_id":"4","last_reported":1740784128,"current_range_meters":11200,"station_id":"ce4bgih2rcd13ifvqba0","pricing_plan_id":"cebpf4jnsgd1na2vs0mg"},{"bike_id":"ab245cfe-76c6-40c0-9fb9-a9eecf86e3f4","system_id":"levelo_inurba_marseille","lat":43.28917,"lon":5.36423,"is_reserved":false,"is_disabled":false,"rental_uris":{"android":"levelo://app?vid=ab245cfe-76c6-40c0-9fb9-a9eecf86e3f4","ios":"levelo://app?vid=ab245cfe-76c6-40c0-9fb9-a9eecf86e3f4"},"vehicle_type_id":"4","last_reported":1740784128,"current_range_meters":11200,"station_id":"ce4bhc92rcd13ifvqetg","pricing_plan_id":"cebpf4jnsgd1na2vs0mg"},{"bike_id":"7f417420-ccb7-4c5d-8053-bab0a3909d22","system_id":"levelo_inurba_marseille","lat":43.28375,"lon":5.38629,"is_reserved":false,"is_disabled":false,"rental_uris":{"android":"levelo://app?vid=7f417420-ccb7-4c5d-8053-bab0a3909d22","ios":"levelo://app?vid=7f417420-ccb7-4c5d-8053-bab0a3909d22"},"vehicle_type_id":"4","last_reported":1740784128,"current_range_meters":11200,"station_id":"ce4bh492rcd13ifvqdvg","pricing_plan_id":"cebpf4jnsgd1na2vs0mg"},{"bike_id":"0cf57a9c-d86e-4783-8b95-e1a91492d3fd","system_id":"levelo_inurba_marseille","lat":43.3229,"lon":5.38299,"is_reserved":false,"is_disabled":false,"rental_uris":{"android":"levelo://app?vid=0cf57a9c-d86e-4783-8b95-e1a91492d3fd","ios":"levelo://app?vid=0cf57a9c-d86e-4783-8b95-e1a91492d3fd"},"vehicle_type_id":"4","last_reported":1740784128,"current_range_meters":11200,"station_id":"ce4bhr12rcd13ifvqhqg","pricing_plan_id":"cebpf4jnsgd1na2vs0mg"},{"bike_id":"a841825f-d30a-4442-aacf-c20d378ce259","system_id":"levelo_inurba_marseille","lat":43.27989,"lon":5.4004,"is_reserved":false,"is_disabled":false,"rental_uris":{"android":"levelo://app?vid=a841825f-d30a-4442-aacf-c20d378ce259","ios":"levelo://app?vid=a841825f-d30a-4442-aacf-c20d378ce259"},"vehicle_type_id":"4","last_reported":1740784128,"current_range_meters":11600,"station_id":"ce4bho92rcd13ifvqh4g","pricing_plan_id":"cebpf4jnsgd1na2vs0mg"},{"bike_id":"018369db-314c-42d6-bb66-f4f6e0d0fd9d","system_id":"levelo_inurba_marseille","lat":43.29541,"lon":5.3855,"is_reserved":false,"is_disabled":false,"rental_uris":{"android":"levelo://app?vid=018369db-314c-42d6-bb66-f4f6e0d0fd9d","ios":"levelo://app?vid=018369db-314c-42d6-bb66-f4f6e0d0fd9d"},"vehicle_type_id":"4","last_reported":1740784128,"current_range_meters":11600,"station_id":"ce4bgih2rcd13ifvqba0","pricing_plan_id":"cebpf4jnsgd1na2vs0mg"},{"bike_id":"364b209e-752e-45ea-b26c-06b2552c1833","system_id":"levelo_inurba_marseille","lat":43.23188,"lon":5.35575,"is_reserved":false,"is_disabled":false,"rental_uris":{"android":"levelo://app?vid=364b209e-752e-45ea-b26c-06b2552c1833","ios":"levelo://app?vid=364b209e-752e-45ea-b26c-06b2552c1833"},"vehicle_type_id":"4","last_reported":1740784128,"current_range_meters":11600,"station_id":"ce4bhu92rcd13ifvqi70","pricing_plan_id":"cebpf4jnsgd1na2vs0mg"},{"bike_id":"6d2e59c8-5bed-45cb-a705-3f8ad1da2114","system_id":"levelo_inurba_marseille","lat":43.28074,"lon":5.39661,"is_reserved":false,"is_disabled":false,"rental_uris":{"android":"levelo://app?vid=6d2e59c8-5bed-45cb-a705-3f8ad1da2114","ios":"levelo://app?vid=6d2e59c8-5bed-45cb-a705-3f8ad1da2114"},"vehicle_type_id":"4","last_reported":1740784128,"current_range_meters":11600,"station_id":"ce4bho12rcd13ifvqh2g","pricing_plan_id":"cebpf4jnsgd1na2vs0mg"},{"bike_id":"643ed7ef-6b82-4e0d-80cd-5157d4f1d0d4","system_id":"levelo_inurba_marseille","lat":43.29298,"lon":5.37422,"is_reserved":false,"is_disabled":false,"rental_uris":{"android":"levelo://app?vid=643ed7ef-6b82-4e0d-80cd-5157d4f1d0d4","ios":"levelo://app?vid=643ed7ef-6b82-4e0d-80cd-5157d4f1d0d4"},"vehicle_type_id":"4","last_reported":1740784128,"current_range_meters":11600,"station_id":"ce4bgi12rcd13ifvqb70","pricing_plan_id":"cebpf4jnsgd1na2vs0mg"},{"bike_id":"2c96ed05-2cc1-4519-8ba6-4a8f3c371c17","system_id":"levelo_inurba_marseille","lat":43.29324,"lon":5.38662,"is_reserved":false,"is_disabled":false,"rental_uris":{"android":"levelo://app?vid=2c96ed05-2cc1-4519-8ba6-4a8f3c371c17","ios":"levelo://app?vid=2c96ed05-2cc1-4519-8ba6-4a8f3c371c17"},"vehicle_type_id":"4","last_reported":1740784128,"current_range_meters":11600,"station_id":"ce4bghh2rcd13ifvqb60","pricing_plan_id":"cebpf4jnsgd1na2vs0mg"},{"bike_id":"b08dbcf0-1e3c-421f-93f6-a17fac885ab4","system_id":"levelo_inurba_marseille","lat":43.27371,"lon":5.36262,"is_reserved":false,"is_disabled":false,"rental_uris":{"android":"levelo://app?vid=b08dbcf0-1e3c-421f-93f6-a17fac885ab4","ios":"levelo://app?vid=b08dbcf0-1e3c-421f-93f6-a17fac885ab4"},"vehicle_type_id":"4","last_reported":1740784128,"current_range_meters":11600,"station_id":"ce4bhbh2rcd13ifvqeo0","pricing_plan_id":"cebpf4jnsgd1na2vs0mg"},{"bike_id":"01a3d87a-a630-4d6f-ad97-42ff108b93f0","system_id":"levelo_inurba_marseille","lat":43.29254,"lon":5.38433,"is_reserved":false,"is_disabled":false,"rental_uris":{"android":"levelo://app?vid=01a3d87a-a630-4d6f-ad97-42ff108b93f0","ios":"levelo://app?vid=01a3d87a-a630-4d6f-ad97-42ff108b93f0"},"vehicle_type_id":"4","last_reported":1740784128,"current_range_meters":11600,"station_id":"ce4bh692rcd13ifvqea0","pricing_plan_id":"cebpf4jnsgd1na2vs0mg"},{"bike_id":"593edb3c-7add-4a3d-9dbe-95cef549de0d","system_id":"levelo_inurba_marseille","lat":43.2307,"lon":5.35487,"is_reserved":false,"is_disabled":false,"rental_uris":{"android":"levelo://app?vid=593edb3c-7add-4a3d-9dbe-95cef549de0d","ios":"levelo://app?vid=593edb3c-7add-4a3d-9dbe-95cef549de0d"},"vehicle_type_id":"4","last_reported":1740784128,"current_range_meters":11600,"station_id":"cpo3342slgdg3j2ifvpg","pricing_plan_id":"cebpf4jnsgd1na2vs0mg"},{"bike_id":"542fbfcb-cc34-4fe5-9bfc-a9a4cc93240a","system_id":"levelo_inurba_marseille","lat":43.30434,"lon":5.38886,"is_reserved":false,"is_disabled":false,"rental_uris":{"android":"levelo://app?vid=542fbfcb-cc34-4fe5-9bfc-a9a4cc93240a","ios":"levelo://app?vid=542fbfcb-cc34-4fe5-9bfc-a9a4cc93240a"},"vehicle_type_id":"4","last_reported":1740784128,"current_range_meters":12000,"station_id":"ce4bgk12rcd13ifvqbi0","pricing_plan_id":"cebpf4jnsgd1na2vs0mg"},{"bike_id":"38e4208e-f256-4294-9ec9-809b58394803","system_id":"levelo_inurba_marseille","lat":43.31315,"lon":5.39716,"is_reserved":false,"is_disabled":false,"rental_uris":{"android":"levelo://app?vid=38e4208e-f256-4294-9ec9-809b58394803","ios":"levelo://app?vid=38e4208e-f256-4294-9ec9-809b58394803"},"vehicle_type_id":"4","last_reported":1740784128,"current_range_meters":12000,"station_id":"ce4bgvp2rcd13ifvqcu0","pricing_plan_id":"cebpf4jnsgd1na2vs0mg"},{"bike_id":"b24d9915-b204-4967-9edb-c0efe2028efc","system_id":"levelo_inurba_marseille","lat":43.29522,"lon":5.38542,"is_reserved":false,"is_disabled":false,"rental_uris":{"android":"levelo://app?vid=b24d9915-b204-4967-9edb-c0efe2028efc","ios":"levelo://app?vid=b24d9915-b204-4967-9edb-c0efe2028efc"},"vehicle_type_id":"4","last_reported":1740784128,"current_range_meters":12000,"station_id":"ce4bgih2rcd13ifvqba0","pricing_plan_id":"cebpf4jnsgd1na2vs0mg"},{"bike_id":"3f91fb5c-c554-4815-8570-380b0647ca1b","system_id":"levelo_inurba_marseille","lat":43.29271,"lon":5.38447,"is_reserved":false,"is_disabled":false,"rental_uris":{"android":"levelo://app?vid=3f91fb5c-c554-4815-8570-380b0647ca1b","ios":"levelo://app?vid=3f91fb5c-c554-4815-8570-380b0647ca1b"},"vehicle_type_id":"4","last_reported":1740784128,"current_range_meters":12000,"station_id":"ce4bh692rcd13ifvqea0","pricing_plan_id":"cebpf4jnsgd1na2vs0mg"},{"bike_id":"55131781-8313-40fb-9654-10198a457920","system_id":"levelo_inurba_marseille","lat":43.29304,"lon":5.37436,"is_reserved":false,"is_disabled":false,"rental_uris":{"android":"levelo://app?vid=55131781-8313-40fb-9654-10198a457920","ios":"levelo://app?vid=55131781-8313-40fb-9654-10198a457920"},"vehicle_type_id":"4","last_reported":1740784128,"current_range_meters":12000,"station_id":"ce4bgi12rcd13ifvqb70","pricing_plan_id":"cebpf4jnsgd1na2vs0mg"},{"bike_id":"0279fc3e-b42a-4a6e-b3f0-577517325aa8","system_id":"levelo_inurba_marseille","lat":43.33077,"lon":5.40822,"is_reserved":false,"is_disabled":false,"rental_uris":{"android":"levelo://app?vid=0279fc3e-b42a-4a6e-b3f0-577517325aa8","ios":"levelo://app?vid=0279fc3e-b42a-4a6e-b3f0-577517325aa8"},"vehicle_type_id":"4","last_reported":1740784128,"current_range_meters":12000,"station_id":"","pricing_plan_id":"cebpf4jnsgd1na2vs0mg"},{"bike_id":"8a4f99ce-bff4-4a86-963f-023125ea5ae7","system_id":"levelo_inurba_marseille","lat":43.26485,"lon":5.39572,"is_reserved":false,"is_disabled":false,"rental_uris":{"android":"levelo://app?vid=8a4f99ce-bff4-4a86-963f-023125ea5ae7","ios":"levelo://app?vid=8a4f99ce-bff4-4a86-963f-023125ea5ae7"},"vehicle_type_id":"4","last_reported":1740784128,"current_range_meters":12000,"station_id":"ce4bhi12rcd13ifvqfq0","pricing_plan_id":"cebpf4jnsgd1na2vs0mg"},{"bike_id":"a307f446-8237-4cc7-951a-b3feb1346c83","system_id":"levelo_inurba_marseille","lat":43.28415,"lon":5.41276,"is_reserved":false,"is_disabled":false,"rental_uris":{"android":"levelo://app?vid=a307f446-8237-4cc7-951a-b3feb1346c83","ios":"levelo://app?vid=a307f446-8237-4cc7-951a-b3feb1346c83"},"vehicle_type_id":"4","last_reported":1740784128,"current_range_meters":12000,"station_id":"","pricing_plan_id":"cebpf4jnsgd1na2vs0mg"},{"bike_id":"52c28c39-66e5-4082-ae42-f81ea043c594","system_id":"levelo_inurba_marseille","lat":43.24809,"lon":5.37437,"is_reserved":false,"is_disabled":false,"rental_uris":{"android":"levelo://app?vid=52c28c39-66e5-4082-ae42-f81ea043c594","ios":"levelo://app?vid=52c28c39-66e5-4082-ae42-f81ea043c594"},"vehicle_type_id":"4","last_reported":1740784128,"current_range_meters":12000,"station_id":"ce4bhgh2rcd13ifvqfb0","pricing_plan_id":"cebpf4jnsgd1na2vs0mg"},{"bike_id":"f5fe4361-1d3d-4314-a7e8-95ca49fcf6f9","system_id":"levelo_inurba_marseille","lat":43.32211,"lon":5.38764,"is_reserved":false,"is_disabled":false,"rental_uris":{"android":"levelo://app?vid=f5fe4361-1d3d-4314-a7e8-95ca49fcf6f9","ios":"levelo://app?vid=f5fe4361-1d3d-4314-a7e8-95ca49fcf6f9"},"vehicle_type_id":"4","last_reported":1740784128,"current_range_meters":12000,"station_id":"","pricing_plan_id":"cebpf4jnsgd1na2vs0mg"},{"bike_id":"be10b658-6853-4344-941a-dc3e450af712","system_id":"levelo_inurba_marseille","lat":43.2508,"lon":5.39519,"is_reserved":false,"is_disabled":false,"rental_uris":{"android":"levelo://app?vid=be10b658-6853-4344-941a-dc3e450af712","ios":"levelo://app?vid=be10b658-6853-4344-941a-dc3e450af712"},"vehicle_type_id":"4","last_reported":1740784128,"current_range_meters":12000,"station_id":"ce4bhm12rcd13ifvqgkg","pricing_plan_id":"cebpf4jnsgd1na2vs0mg"},{"bike_id":"2dabea1c-c2b8-4258-abdc-13e9e45e1bb1","system_id":"levelo_inurba_marseille","lat":43.27819,"lon":5.40731,"is_reserved":false,"is_disabled":false,"rental_uris":{"android":"levelo://app?vid=2dabea1c-c2b8-4258-abdc-13e9e45e1bb1","ios":"levelo://app?vid=2dabea1c-c2b8-4258-abdc-13e9e45e1bb1"},"vehicle_type_id":"4","last_reported":1740784128,"current_range_meters":12000,"station_id":"ce4bhnh2rcd13ifvqgtg","pricing_plan_id":"cebpf4jnsgd1na2vs0mg"},{"bike_id":"49e9cdc7-76a5-4b66-ae2d-61c73beb73a8","system_id":"levelo_inurba_marseille","lat":43.24172,"lon":5.36388,"is_reserved":false,"is_disabled":false,"rental_uris":{"android":"levelo://app?vid=49e9cdc7-76a5-4b66-ae2d-61c73beb73a8","ios":"levelo://app?vid=49e9cdc7-76a5-4b66-ae2d-61c73beb73a8"},"vehicle_type_id":"4","last_reported":1740784128,"current_range_meters":12000,"station_id":"cpo36qri1sfpv3e86is0","pricing_plan_id":"cebpf4jnsgd1na2vs0mg"},{"bike_id":"7effa7a6-9702-430c-b031-394b39ae0ca0","system_id":"levelo_inurba_marseille","lat":43.2953,"lon":5.38546,"is_reserved":false,"is_disabled":false,"rental_uris":{"android":"levelo://app?vid=7effa7a6-9702-430c-b031-394b39ae0ca0","ios":"levelo://app?vid=7effa7a6-9702-430c-b031-394b39ae0ca0"},"vehicle_type_id":"4","last_reported":1740784128,"current_range_meters":12800,"station_id":"ce4bgih2rcd13ifvqba0","pricing_plan_id":"cebpf4jnsgd1na2vs0mg"},{"bike_id":"38f07d09-fa85-4892-a0fa-286a182cf51f","system_id":"levelo_inurba_marseille","lat":43.30214,"lon":5.39463,"is_reserved":false,"is_disabled":false,"rental_uris":{"android":"levelo://app?vid=38f07d09-fa85-4892-a0fa-286a182cf51f","ios":"levelo://app?vid=38f07d09-fa85-4892-a0fa-286a182cf51f"},"vehicle_type_id":"4","last_reported":1740784128,"current_range_meters":12400,"station_id":"ce4bh0p2rcd13ifvqd70","pricing_plan_id":"cebpf4jnsgd1na2vs0mg"},{"bike_id":"a381a5b9-a403-4200-9ffe-4dd1764c25e1","system_id":"levelo_inurba_marseille","lat":43.29534,"lon":5.38538,"is_reserved":false,"is_disabled":false,"rental_uris":{"android":"levelo://app?vid=a381a5b9-a403-4200-9ffe-4dd1764c25e1","ios":"levelo://app?vid=a381a5b9-a403-4200-9ffe-4dd1764c25e1"},"vehicle_type_id":"4","last_reported":1740784128,"current_range_meters":12400,"station_id":"ce4bgih2rcd13ifvqba0","pricing_plan_id":"cebpf4jnsgd1na2vs0mg"},{"bike_id":"eeab2b0f-b74a-40c0-a740-ffe04bdfaf49","system_id":"levelo_inurba_marseille","lat":43.29533,"lon":5.38535,"is_reserved":false,"is_disabled":false,"rental_uris":{"android":"levelo://app?vid=eeab2b0f-b74a-40c0-a740-ffe04bdfaf49","ios":"levelo://app?vid=eeab2b0f-b74a-40c0-a740-ffe04bdfaf49"},"vehicle_type_id":"4","last_reported":1740784128,"current_range_meters":12400,"station_id":"ce4bgih2rcd13ifvqba0","pricing_plan_id":"cebpf4jnsgd1na2vs0mg"},{"bike_id":"8856ea6a-9d67-418d-b686-5b1bf6f3abd4","system_id":"levelo_inurba_marseille","lat":43.27993,"lon":5.41658,"is_reserved":false,"is_disabled":false,"rental_uris":{"android":"levelo://app?vid=8856ea6a-9d67-418d-b686-5b1bf6f3abd4","ios":"levelo://app?vid=8856ea6a-9d67-418d-b686-5b1bf6f3abd4"},"vehicle_type_id":"4","last_reported":1740784128,"current_range_meters":12400,"station_id":"ce4bho12rcd13ifvqh1g","pricing_plan_id":"cebpf4jnsgd1na2vs0mg"},{"bike_id":"4113cb77-4cad-4453-a767-2dd6152228a1","system_id":"levelo_inurba_marseille","lat":43.29304,"lon":5.3746,"is_reserved":false,"is_disabled":false,"rental_uris":{"android":"levelo://app?vid=4113cb77-4cad-4453-a767-2dd6152228a1","ios":"levelo://app?vid=4113cb77-4cad-4453-a767-2dd6152228a1"},"vehicle_type_id":"4","last_reported":1740784128,"current_range_meters":9600,"station_id":"ce4bgi12rcd13ifvqb70","pricing_plan_id":"cebpf4jnsgd1na2vs0mg"},{"bike_id":"97299784-6a66-4b2b-966f-f9f0a7fd068f","system_id":"levelo_inurba_marseille","lat":43.2903,"lon":5.38636,"is_reserved":false,"is_disabled":false,"rental_uris":{"android":"levelo://app?vid=97299784-6a66-4b2b-966f-f9f0a7fd068f","ios":"levelo://app?vid=97299784-6a66-4b2b-966f-f9f0a7fd068f"},"vehicle_type_id":"4","last_reported":1740784128,"current_range_meters":12400,"station_id":"ce4bh4p2rcd13ifvqe0g","pricing_plan_id":"cebpf4jnsgd1na2vs0mg"},{"bike_id":"597c78d8-1097-48db-b3be-fafc8754eab9","system_id":"levelo_inurba_marseille","lat":43.24174,"lon":5.36376,"is_reserved":false,"is_disabled":false,"rental_uris":{"android":"levelo://app?vid=597c78d8-1097-48db-b3be-fafc8754eab9","ios":"levelo://app?vid=597c78d8-1097-48db-b3be-fafc8754eab9"},"vehicle_type_id":"4","last_reported":1740784128,"current_range_meters":12400,"station_id":"cpo36qri1sfpv3e86is0","pricing_plan_id":"cebpf4jnsgd1na2vs0mg"},{"bike_id":"ab83c181-a0ca-45fb-ab7c-ddbef920cbdb","system_id":"levelo_inurba_marseille","lat":43.24801,"lon":5.37462,"is_reserved":false,"is_disabled":false,"rental_uris":{"android":"levelo://app?vid=ab83c181-a0ca-45fb-ab7c-ddbef920cbdb","ios":"levelo://app?vid=ab83c181-a0ca-45fb-ab7c-ddbef920cbdb"},"vehicle_type_id":"4","last_reported":1740784128,"current_range_meters":12800,"station_id":"ce4bhgh2rcd13ifvqfb0","pricing_plan_id":"cebpf4jnsgd1na2vs0mg"},{"bike_id":"152d5173-ed9c-4346-9b22-eb5f34e49026","system_id":"levelo_inurba_marseille","lat":43.27988,"lon":5.40007,"is_reserved":false,"is_disabled":false,"rental_uris":{"android":"levelo://app?vid=152d5173-ed9c-4346-9b22-eb5f34e49026","ios":"levelo://app?vid=152d5173-ed9c-4346-9b22-eb5f34e49026"},"vehicle_type_id":"4","last_reported":1740784128,"current_range_meters":12800,"station_id":"ce4bho92rcd13ifvqh4g","pricing_plan_id":"cebpf4jnsgd1na2vs0mg"},{"bike_id":"c2e38ea5-8bac-4349-bbb8-7bf515f2b922","system_id":"levelo_inurba_marseille","lat":43.29028,"lon":5.38652,"is_reserved":false,"is_disabled":false,"rental_uris":{"android":"levelo://app?vid=c2e38ea5-8bac-4349-bbb8-7bf515f2b922","ios":"levelo://app?vid=c2e38ea5-8bac-4349-bbb8-7bf515f2b922"},"vehicle_type_id":"4","last_reported":1740784128,"current_range_meters":12800,"station_id":"ce4bh4p2rcd13ifvqe0g","pricing_plan_id":"cebpf4jnsgd1na2vs0mg"},{"bike_id":"db5cedd8-2a5e-4954-9155-1cd4948b2414","system_id":"levelo_inurba_marseille","lat":43.29607,"lon":5.38114,"is_reserved":false,"is_disabled":false,"rental_uris":{"android":"levelo://app?vid=db5cedd8-2a5e-4954-9155-1cd4948b2414","ios":"levelo://app?vid=db5cedd8-2a5e-4954-9155-1cd4948b2414"},"vehicle_type_id":"4","last_reported":1740784128,"current_range_meters":12800,"station_id":"ce4bgl12rcd13ifvqbo0","pricing_plan_id":"cebpf4jnsgd1na2vs0mg"},{"bike_id":"74bdaba9-ddf5-4116-ac2f-aa7e97c64476","system_id":"levelo_inurba_marseille","lat":43.24998,"lon":5.38929,"is_reserved":false,"is_disabled":false,"rental_uris":{"android":"levelo://app?vid=74bdaba9-ddf5-4116-ac2f-aa7e97c64476","ios":"levelo://app?vid=74bdaba9-ddf5-4116-ac2f-aa7e97c64476"},"vehicle_type_id":"4","last_reported":1740784128,"current_range_meters":13600,"station_id":"ce4bhgp2rcd13ifvqfd0","pricing_plan_id":"cebpf4jnsgd1na2vs0mg"},{"bike_id":"8de5a5e6-b804-4146-93a8-276017f406c3","system_id":"levelo_inurba_marseille","lat":43.29311,"lon":5.37175,"is_reserved":false,"is_disabled":false,"rental_uris":{"android":"levelo://app?vid=8de5a5e6-b804-4146-93a8-276017f406c3","ios":"levelo://app?vid=8de5a5e6-b804-4146-93a8-276017f406c3"},"vehicle_type_id":"4","last_reported":1740784128,"current_range_meters":13600,"station_id":"ce4bgh92rcd13ifvqb40","pricing_plan_id":"cebpf4jnsgd1na2vs0mg"},{"bike_id":"7d7c3645-a1b8-4cba-8ed4-36c4931e6932","system_id":"levelo_inurba_marseille","lat":43.25587,"lon":5.38234,"is_reserved":false,"is_disabled":false,"rental_uris":{"android":"levelo://app?vid=7d7c3645-a1b8-4cba-8ed4-36c4931e6932","ios":"levelo://app?vid=7d7c3645-a1b8-4cba-8ed4-36c4931e6932"},"vehicle_type_id":"4","last_reported":1740784128,"current_range_meters":13600,"station_id":"ce4bhih2rcd13ifvqfs0","pricing_plan_id":"cebpf4jnsgd1na2vs0mg"},{"bike_id":"b983ab4d-4515-40ac-b6f8-266345de4910","system_id":"levelo_inurba_marseille","lat":43.28455,"lon":5.35887,"is_reserved":false,"is_disabled":false,"rental_uris":{"android":"levelo://app?vid=b983ab4d-4515-40ac-b6f8-266345de4910","ios":"levelo://app?vid=b983ab4d-4515-40ac-b6f8-266345de4910"},"vehicle_type_id":"4","last_reported":1740784128,"current_range_meters":13600,"station_id":"ce4bhah2rcd13ifvqei0","pricing_plan_id":"cebpf4jnsgd1na2vs0mg"},{"bike_id":"c08ee120-9bb0-42c3-8c2c-b3f0171f872c","system_id":"levelo_inurba_marseille","lat":43.28705,"lon":5.39984,"is_reserved":false,"is_disabled":false,"rental_uris":{"android":"levelo://app?vid=c08ee120-9bb0-42c3-8c2c-b3f0171f872c","ios":"levelo://app?vid=c08ee120-9bb0-42c3-8c2c-b3f0171f872c"},"vehicle_type_id":"4","last_reported":1740784128,"current_range_meters":13600,"station_id":"ce4bho92rcd13ifvqh3g","pricing_plan_id":"cebpf4jnsgd1na2vs0mg"},{"bike_id":"b0b47617-138e-47aa-816c-375f04bb54cf","system_id":"levelo_inurba_marseille","lat":43.31176,"lon":5.3873,"is_reserved":false,"is_disabled":false,"rental_uris":{"android":"levelo://app?vid=b0b47617-138e-47aa-816c-375f04bb54cf","ios":"levelo://app?vid=b0b47617-138e-47aa-816c-375f04bb54cf"},"vehicle_type_id":"4","last_reported":1740784128,"current_range_meters":13600,"station_id":"ce4bgv12rcd13ifvqcp0","pricing_plan_id":"cebpf4jnsgd1na2vs0mg"},{"bike_id":"2fd990b0-8119-447c-9a6f-c1a42a96a5b0","system_id":"levelo_inurba_marseille","lat":43.28927,"lon":5.36636,"is_reserved":false,"is_disabled":false,"rental_uris":{"android":"levelo://app?vid=2fd990b0-8119-447c-9a6f-c1a42a96a5b0","ios":"levelo://app?vid=2fd990b0-8119-447c-9a6f-c1a42a96a5b0"},"vehicle_type_id":"4","last_reported":1740784128,"current_range_meters":13600,"station_id":"ce4bhap2rcd13ifvqek0","pricing_plan_id":"cebpf4jnsgd1na2vs0mg"},{"bike_id":"8c86cb21-5e53-44c8-a766-70640a93721c","system_id":"levelo_inurba_marseille","lat":43.291887,"lon":5.375475,"is_reserved":false,"is_disabled":false,"rental_uris":{"android":"levelo://app?vid=8c86cb21-5e53-44c8-a766-70640a93721c","ios":"levelo://app?vid=8c86cb21-5e53-44c8-a766-70640a93721c"},"vehicle_type_id":"4","last_reported":1740784128,"current_range_meters":14000,"station_id":"","pricing_plan_id":"cebpf4jnsgd1na2vs0mg"},{"bike_id":"3ae43e61-e460-4942-a7d7-9a08b7b0118e","system_id":"levelo_inurba_marseille","lat":43.24803,"lon":5.37459,"is_reserved":false,"is_disabled":false,"rental_uris":{"android":"levelo://app?vid=3ae43e61-e460-4942-a7d7-9a08b7b0118e","ios":"levelo://app?vid=3ae43e61-e460-4942-a7d7-9a08b7b0118e"},"vehicle_type_id":"4","last_reported":1740784128,"current_range_meters":14000,"station_id":"ce4bhgh2rcd13ifvqfb0","pricing_plan_id":"cebpf4jnsgd1na2vs0mg"},{"bike_id":"0395e071-5a2b-415c-b481-2f18c2ea3427","system_id":"levelo_inurba_marseille","lat":43.24799,"lon":5.37443,"is_reserved":false,"is_disabled":false,"rental_uris":{"android":"levelo://app?vid=0395e071-5a2b-415c-b481-2f18c2ea3427","ios":"levelo://app?vid=0395e071-5a2b-415c-b481-2f18c2ea3427"},"vehicle_type_id":"4","last_reported":1740784128,"current_range_meters":14000,"station_id":"ce4bhgh2rcd13ifvqfb0","pricing_plan_id":"cebpf4jnsgd1na2vs0mg"},{"bike_id":"82c53456-d952-4284-a013-494bd4f1f3c5","system_id":"levelo_inurba_marseille","lat":43.28955,"lon":5.36646,"is_reserved":false,"is_disabled":false,"rental_uris":{"android":"levelo://app?vid=82c53456-d952-4284-a013-494bd4f1f3c5","ios":"levelo://app?vid=82c53456-d952-4284-a013-494bd4f1f3c5"},"vehicle_type_id":"4","last_reported":1740784128,"current_range_meters":14000,"station_id":"ce4bhap2rcd13ifvqek0","pricing_plan_id":"cebpf4jnsgd1na2vs0mg"},{"bike_id":"27f8d61f-de01-4772-8b8c-ceceaf4de61e","system_id":"levelo_inurba_marseille","lat":43.29075,"lon":5.37118,"is_reserved":false,"is_disabled":true,"rental_uris":{"android":"levelo://app?vid=27f8d61f-de01-4772-8b8c-ceceaf4de61e","ios":"levelo://app?vid=27f8d61f-de01-4772-8b8c-ceceaf4de61e"},"vehicle_type_id":"4","last_reported":1740784128,"current_range_meters":14000,"station_id":"ce4bh5p2rcd13ifvqe4g","pricing_plan_id":"cebpf4jnsgd1na2vs0mg"},{"bike_id":"5ddaee68-76e8-4bba-ab92-b6462db6b328","system_id":"levelo_inurba_marseille","lat":43.29526,"lon":5.39406,"is_reserved":false,"is_disabled":false,"rental_uris":{"android":"levelo://app?vid=5ddaee68-76e8-4bba-ab92-b6462db6b328","ios":"levelo://app?vid=5ddaee68-76e8-4bba-ab92-b6462db6b328"},"vehicle_type_id":"4","last_reported":1740784128,"current_range_meters":14000,"station_id":"ce4bh292rcd13ifvqdf0","pricing_plan_id":"cebpf4jnsgd1na2vs0mg"},{"bike_id":"15e54f67-0f06-4baa-aafb-9f8063144e16","system_id":"levelo_inurba_marseille","lat":43.31265,"lon":5.40168,"is_reserved":false,"is_disabled":false,"rental_uris":{"android":"levelo://app?vid=15e54f67-0f06-4baa-aafb-9f8063144e16","ios":"levelo://app?vid=15e54f67-0f06-4baa-aafb-9f8063144e16"},"vehicle_type_id":"4","last_reported":1740784128,"current_range_meters":14400,"station_id":"ce4bh092rcd13ifvqd30","pricing_plan_id":"cebpf4jnsgd1na2vs0mg"},{"bike_id":"9a6c9851-8945-4937-840c-fd90a487ac95","system_id":"levelo_inurba_marseille","lat":43.27945,"lon":5.41052,"is_reserved":false,"is_disabled":false,"rental_uris":{"android":"levelo://app?vid=9a6c9851-8945-4937-840c-fd90a487ac95","ios":"levelo://app?vid=9a6c9851-8945-4937-840c-fd90a487ac95"},"vehicle_type_id":"4","last_reported":1740784128,"current_range_meters":14400,"station_id":"ce4bhnp2rcd13ifvqh0g","pricing_plan_id":"cebpf4jnsgd1na2vs0mg"},{"bike_id":"a536974c-3eae-4f12-a769-b60dcdaec5a7","system_id":"levelo_inurba_marseille","lat":43.2816,"lon":5.42639,"is_reserved":false,"is_disabled":false,"rental_uris":{"android":"levelo://app?vid=a536974c-3eae-4f12-a769-b60dcdaec5a7","ios":"levelo://app?vid=a536974c-3eae-4f12-a769-b60dcdaec5a7"},"vehicle_type_id":"4","last_reported":1740784128,"current_range_meters":14800,"station_id":"ce4bhnh2rcd13ifvqgug","pricing_plan_id":"cebpf4jnsgd1na2vs0mg"},{"bike_id":"88380df9-96d8-4259-9015-42f88b5705d1","system_id":"levelo_inurba_marseille","lat":43.29009,"lon":5.38647,"is_reserved":false,"is_disabled":false,"rental_uris":{"android":"levelo://app?vid=88380df9-96d8-4259-9015-42f88b5705d1","ios":"levelo://app?vid=88380df9-96d8-4259-9015-42f88b5705d1"},"vehicle_type_id":"4","last_reported":1740784128,"current_range_meters":14400,"station_id":"ce4bh4p2rcd13ifvqe0g","pricing_plan_id":"cebpf4jnsgd1na2vs0mg"},{"bike_id":"52586366-f39b-403f-b467-c8239f9cc964","system_id":"levelo_inurba_marseille","lat":43.30948,"lon":5.39029,"is_reserved":false,"is_disabled":false,"rental_uris":{"android":"levelo://app?vid=52586366-f39b-403f-b467-c8239f9cc964","ios":"levelo://app?vid=52586366-f39b-403f-b467-c8239f9cc964"},"vehicle_type_id":"4","last_reported":1740784128,"current_range_meters":14400,"station_id":"ce4bgup2rcd13ifvqco0","pricing_plan_id":"cebpf4jnsgd1na2vs0mg"},{"bike_id":"69bd9737-2cf3-4064-935f-ce2bb9dba5c4","system_id":"levelo_inurba_marseille","lat":43.2846,"lon":5.35877,"is_reserved":false,"is_disabled":false,"rental_uris":{"android":"levelo://app?vid=69bd9737-2cf3-4064-935f-ce2bb9dba5c4","ios":"levelo://app?vid=69bd9737-2cf3-4064-935f-ce2bb9dba5c4"},"vehicle_type_id":"4","last_reported":1740784128,"current_range_meters":14400,"station_id":"ce4bhah2rcd13ifvqei0","pricing_plan_id":"cebpf4jnsgd1na2vs0mg"},{"bike_id":"d6eec10b-620b-4607-843d-346ffd62a6e7","system_id":"levelo_inurba_marseille","lat":43.26491,"lon":5.39528,"is_reserved":false,"is_disabled":false,"rental_uris":{"android":"levelo://app?vid=d6eec10b-620b-4607-843d-346ffd62a6e7","ios":"levelo://app?vid=d6eec10b-620b-4607-843d-346ffd62a6e7"},"vehicle_type_id":"4","last_reported":1740784128,"current_range_meters":14400,"station_id":"ce4bhi12rcd13ifvqfq0","pricing_plan_id":"cebpf4jnsgd1na2vs0mg"},{"bike_id":"6c7883c2-775d-4e23-81ec-3546ebab04a4","system_id":"levelo_inurba_marseille","lat":43.29243,"lon":5.38442,"is_reserved":false,"is_disabled":false,"rental_uris":{"android":"levelo://app?vid=6c7883c2-775d-4e23-81ec-3546ebab04a4","ios":"levelo://app?vid=6c7883c2-775d-4e23-81ec-3546ebab04a4"},"vehicle_type_id":"4","last_reported":1740784128,"current_range_meters":14800,"station_id":"ce4bh692rcd13ifvqea0","pricing_plan_id":"cebpf4jnsgd1na2vs0mg"},{"bike_id":"cea9c20b-5653-49d2-96c1-c4732f3b7edf","system_id":"levelo_inurba_marseille","lat":43.31354,"lon":5.38497,"is_reserved":false,"is_disabled":false,"rental_uris":{"android":"levelo://app?vid=cea9c20b-5653-49d2-96c1-c4732f3b7edf","ios":"levelo://app?vid=cea9c20b-5653-49d2-96c1-c4732f3b7edf"},"vehicle_type_id":"4","last_reported":1740784128,"current_range_meters":14800,"station_id":"ce4bgt92rcd13ifvqcf0","pricing_plan_id":"cebpf4jnsgd1na2vs0mg"},{"bike_id":"15bc69b9-ca74-48a9-8a8c-8c6ea9d87863","system_id":"levelo_inurba_marseille","lat":43.29524,"lon":5.38535,"is_reserved":false,"is_disabled":false,"rental_uris":{"android":"levelo://app?vid=15bc69b9-ca74-48a9-8a8c-8c6ea9d87863","ios":"levelo://app?vid=15bc69b9-ca74-48a9-8a8c-8c6ea9d87863"},"vehicle_type_id":"4","last_reported":1740784128,"current_range_meters":14800,"station_id":"ce4bgih2rcd13ifvqba0","pricing_plan_id":"cebpf4jnsgd1na2vs0mg"},{"bike_id":"d013a78a-b275-4446-b2e7-8bba7dd432cb","system_id":"levelo_inurba_marseille","lat":43.29258,"lon":5.38429,"is_reserved":false,"is_disabled":false,"rental_uris":{"android":"levelo://app?vid=d013a78a-b275-4446-b2e7-8bba7dd432cb","ios":"levelo://app?vid=d013a78a-b275-4446-b2e7-8bba7dd432cb"},"vehicle_type_id":"4","last_reported":1740784128,"current_range_meters":14800,"station_id":"ce4bh692rcd13ifvqea0","pricing_plan_id":"cebpf4jnsgd1na2vs0mg"},{"bike_id":"a43d23d2-0d6e-4cf7-8691-8ab079a8ff69","system_id":"levelo_inurba_marseille","lat":43.29919,"lon":5.4365,"is_reserved":false,"is_disabled":false,"rental_uris":{"android":"levelo://app?vid=a43d23d2-0d6e-4cf7-8691-8ab079a8ff69","ios":"levelo://app?vid=a43d23d2-0d6e-4cf7-8691-8ab079a8ff69"},"vehicle_type_id":"4","last_reported":1740784128,"current_range_meters":14800,"station_id":"ce4bhpp2rcd13ifvqhfg","pricing_plan_id":"cebpf4jnsgd1na2vs0mg"},{"bike_id":"cabf7c90-e658-4e8c-ace5-66b0ce29daa7","system_id":"levelo_inurba_marseille","lat":43.29564,"lon":5.37524,"is_reserved":false,"is_disabled":false,"rental_uris":{"android":"levelo://app?vid=cabf7c90-e658-4e8c-ace5-66b0ce29daa7","ios":"levelo://app?vid=cabf7c90-e658-4e8c-ace5-66b0ce29daa7"},"vehicle_type_id":"4","last_reported":1740784128,"current_range_meters":14800,"station_id":"ce4bgh92rcd13ifvqb50","pricing_plan_id":"cebpf4jnsgd1na2vs0mg"},{"bike_id":"4015c440-7267-44b4-8be2-f4b87cb51aa9","system_id":"levelo_inurba_marseille","lat":43.25569,"lon":5.38238,"is_reserved":false,"is_disabled":false,"rental_uris":{"android":"levelo://app?vid=4015c440-7267-44b4-8be2-f4b87cb51aa9","ios":"levelo://app?vid=4015c440-7267-44b4-8be2-f4b87cb51aa9"},"vehicle_type_id":"4","last_reported":1740784128,"current_range_meters":14800,"station_id":"ce4bhih2rcd13ifvqfs0","pricing_plan_id":"cebpf4jnsgd1na2vs0mg"},{"bike_id":"20d2ee05-766c-42f5-ad36-8379672e425d","system_id":"levelo_inurba_marseille","lat":43.29596,"lon":5.38103,"is_reserved":false,"is_disabled":false,"rental_uris":{"android":"levelo://app?vid=20d2ee05-766c-42f5-ad36-8379672e425d","ios":"levelo://app?vid=20d2ee05-766c-42f5-ad36-8379672e425d"},"vehicle_type_id":"4","last_reported":1740784128,"current_range_meters":14800,"station_id":"ce4bgl12rcd13ifvqbo0","pricing_plan_id":"cebpf4jnsgd1na2vs0mg"},{"bike_id":"a8c5095e-c400-4ced-9747-86d5ef0f2a27","system_id":"levelo_inurba_marseille","lat":43.28699,"lon":5.37397,"is_reserved":false,"is_disabled":false,"rental_uris":{"android":"levelo://app?vid=a8c5095e-c400-4ced-9747-86d5ef0f2a27","ios":"levelo://app?vid=a8c5095e-c400-4ced-9747-86d5ef0f2a27"},"vehicle_type_id":"4","last_reported":1740784128,"current_range_meters":14800,"station_id":"ce4bh3p2rcd13ifvqdq0","pricing_plan_id":"cebpf4jnsgd1na2vs0mg"},{"bike_id":"76183c36-6aea-46bc-8605-5e851049d0c8","system_id":"levelo_inurba_marseille","lat":43.29275,"lon":5.40105,"is_reserved":false,"is_disabled":false,"rental_uris":{"android":"levelo://app?vid=76183c36-6aea-46bc-8605-5e851049d0c8","ios":"levelo://app?vid=76183c36-6aea-46bc-8605-5e851049d0c8"},"vehicle_type_id":"4","last_reported":1740784128,"current_range_meters":14800,"station_id":"ce4bh312rcd13ifvqdk0","pricing_plan_id":"cebpf4jnsgd1na2vs0mg"},{"bike_id":"b7628d05-4c9b-4a74-bf31-ef4329b328ec","system_id":"levelo_inurba_marseille","lat":43.30948,"lon":5.39029,"is_reserved":false,"is_disabled":false,"rental_uris":{"android":"levelo://app?vid=b7628d05-4c9b-4a74-bf31-ef4329b328ec","ios":"levelo://app?vid=b7628d05-4c9b-4a74-bf31-ef4329b328ec"},"vehicle_type_id":"4","last_reported":1740784128,"current_range_meters":14800,"station_id":"ce4bgup2rcd13ifvqco0","pricing_plan_id":"cebpf4jnsgd1na2vs0mg"},{"bike_id":"85d1b766-bdfe-4877-a335-4669a45aabed","system_id":"levelo_inurba_marseille","lat":43.28285,"lon":5.43332,"is_reserved":false,"is_disabled":false,"rental_uris":{"android":"levelo://app?vid=85d1b766-bdfe-4877-a335-4669a45aabed","ios":"levelo://app?vid=85d1b766-bdfe-4877-a335-4669a45aabed"},"vehicle_type_id":"4","last_reported":1740784128,"current_range_meters":14800,"station_id":"","pricing_plan_id":"cebpf4jnsgd1na2vs0mg"},{"bike_id":"fbf98a58-e451-4d09-a669-c0f77adc25c8","system_id":"levelo_inurba_marseille","lat":43.28022,"lon":5.3695,"is_reserved":false,"is_disabled":false,"rental_uris":{"android":"levelo://app?vid=fbf98a58-e451-4d09-a669-c0f77adc25c8","ios":"levelo://app?vid=fbf98a58-e451-4d09-a669-c0f77adc25c8"},"vehicle_type_id":"4","last_reported":1740784128,"current_range_meters":14800,"station_id":"ce4bha12rcd13ifvqef0","pricing_plan_id":"cebpf4jnsgd1na2vs0mg"},{"bike_id":"4da6ea10-6327-4cb1-93d1-2c41dd738d4a","system_id":"levelo_inurba_marseille","lat":43.29002,"lon":5.35618,"is_reserved":false,"is_disabled":false,"rental_uris":{"android":"levelo://app?vid=4da6ea10-6327-4cb1-93d1-2c41dd738d4a","ios":"levelo://app?vid=4da6ea10-6327-4cb1-93d1-2c41dd738d4a"},"vehicle_type_id":"4","last_reported":1740784128,"current_range_meters":14400,"station_id":"ce4bhb92rcd13ifvqen0","pricing_plan_id":"cebpf4jnsgd1na2vs0mg"},{"bike_id":"0693b9d6-4a9d-4e38-bfa2-80f934bcc2e3","system_id":"levelo_inurba_marseille","lat":43.241771,"lon":5.363997,"is_reserved":false,"is_disabled":false,"rental_uris":{"android":"levelo://app?vid=0693b9d6-4a9d-4e38-bfa2-80f934bcc2e3","ios":"levelo://app?vid=0693b9d6-4a9d-4e38-bfa2-80f934bcc2e3"},"vehicle_type_id":"4","last_reported":1740784128,"current_range_meters":15200,"station_id":"cpo36qri1sfpv3e86is0","pricing_plan_id":"cebpf4jnsgd1na2vs0mg"},{"bike_id":"aa798091-502e-408b-af0e-bd5daef62d68","system_id":"levelo_inurba_marseille","lat":43.29314,"lon":5.37174,"is_reserved":false,"is_disabled":false,"rental_uris":{"android":"levelo://app?vid=aa798091-502e-408b-af0e-bd5daef62d68","ios":"levelo://app?vid=aa798091-502e-408b-af0e-bd5daef62d68"},"vehicle_type_id":"4","last_reported":1740784128,"current_range_meters":15200,"station_id":"ce4bgh92rcd13ifvqb40","pricing_plan_id":"cebpf4jnsgd1na2vs0mg"},{"bike_id":"6bec048c-34db-4c52-b4e8-0c34f144a6d2","system_id":"levelo_inurba_marseille","lat":43.27311,"lon":5.39111,"is_reserved":false,"is_disabled":false,"rental_uris":{"android":"levelo://app?vid=6bec048c-34db-4c52-b4e8-0c34f144a6d2","ios":"levelo://app?vid=6bec048c-34db-4c52-b4e8-0c34f144a6d2"},"vehicle_type_id":"4","last_reported":1740784128,"current_range_meters":15200,"station_id":"ce4bhgp2rcd13ifvqfe0","pricing_plan_id":"cebpf4jnsgd1na2vs0mg"},{"bike_id":"6725b9fa-a9f3-4f27-be5c-e5f5f11c35c1","system_id":"levelo_inurba_marseille","lat":43.31073,"lon":5.38358,"is_reserved":false,"is_disabled":false,"rental_uris":{"android":"levelo://app?vid=6725b9fa-a9f3-4f27-be5c-e5f5f11c35c1","ios":"levelo://app?vid=6725b9fa-a9f3-4f27-be5c-e5f5f11c35c1"},"vehicle_type_id":"4","last_reported":1740784128,"current_range_meters":15200,"station_id":"ce4bgv92rcd13ifvqcr0","pricing_plan_id":"cebpf4jnsgd1na2vs0mg"},{"bike_id":"9f7e403d-3241-4706-bd05-f661b265d93a","system_id":"levelo_inurba_marseille","lat":43.30888,"lon":5.39652,"is_reserved":false,"is_disabled":false,"rental_uris":{"android":"levelo://app?vid=9f7e403d-3241-4706-bd05-f661b265d93a","ios":"levelo://app?vid=9f7e403d-3241-4706-bd05-f661b265d93a"},"vehicle_type_id":"4","last_reported":1740784128,"current_range_meters":15200,"station_id":"ce4bh012rcd13ifvqcv0","pricing_plan_id":"cebpf4jnsgd1na2vs0mg"},{"bike_id":"279a4a56-f6e8-4215-8ac9-05e76c5a9882","system_id":"levelo_inurba_marseille","lat":43.29231,"lon":5.40101,"is_reserved":false,"is_disabled":false,"rental_uris":{"android":"levelo://app?vid=279a4a56-f6e8-4215-8ac9-05e76c5a9882","ios":"levelo://app?vid=279a4a56-f6e8-4215-8ac9-05e76c5a9882"},"vehicle_type_id":"4","last_reported":1740784128,"current_range_meters":15200,"station_id":"","pricing_plan_id":"cebpf4jnsgd1na2vs0mg"},{"bike_id":"5a3a2a16-5c96-49da-8d1e-3bf002cda5ad","system_id":"levelo_inurba_marseille","lat":43.30937,"lon":5.40143,"is_reserved":false,"is_disabled":false,"rental_uris":{"android":"levelo://app?vid=5a3a2a16-5c96-49da-8d1e-3bf002cda5ad","ios":"levelo://app?vid=5a3a2a16-5c96-49da-8d1e-3bf002cda5ad"},"vehicle_type_id":"4","last_reported":1740784128,"current_range_meters":14800,"station_id":"ce4bgvp2rcd13ifvqct0","pricing_plan_id":"cebpf4jnsgd1na2vs0mg"},{"bike_id":"0d6a42ea-f26c-48b6-a0a0-37cfbe3d24fa","system_id":"levelo_inurba_marseille","lat":43.309,"lon":5.39629,"is_reserved":false,"is_disabled":false,"rental_uris":{"android":"levelo://app?vid=0d6a42ea-f26c-48b6-a0a0-37cfbe3d24fa","ios":"levelo://app?vid=0d6a42ea-f26c-48b6-a0a0-37cfbe3d24fa"},"vehicle_type_id":"4","last_reported":1740784128,"current_range_meters":16000,"station_id":"ce4bh012rcd13ifvqcv0","pricing_plan_id":"cebpf4jnsgd1na2vs0mg"},{"bike_id":"f9f4593d-ec14-43c6-ac64-d227a2c444e7","system_id":"levelo_inurba_marseille","lat":43.29922,"lon":5.38555,"is_reserved":false,"is_disabled":true,"rental_uris":{"android":"levelo://app?vid=f9f4593d-ec14-43c6-ac64-d227a2c444e7","ios":"levelo://app?vid=f9f4593d-ec14-43c6-ac64-d227a2c444e7"},"vehicle_type_id":"4","last_reported":1740784128,"current_range_meters":16000,"station_id":"","pricing_plan_id":"cebpf4jnsgd1na2vs0mg"},{"bike_id":"e81f0452-2d78-4b79-9065-9b2e4f97b0af","system_id":"levelo_inurba_marseille","lat":43.29255,"lon":5.38431,"is_reserved":false,"is_disabled":false,"rental_uris":{"android":"levelo://app?vid=e81f0452-2d78-4b79-9065-9b2e4f97b0af","ios":"levelo://app?vid=e81f0452-2d78-4b79-9065-9b2e4f97b0af"},"vehicle_type_id":"4","last_reported":1740784128,"current_range_meters":16000,"station_id":"ce4bh692rcd13ifvqea0","pricing_plan_id":"cebpf4jnsgd1na2vs0mg"},{"bike_id":"2636ecb3-7197-4ec8-9534-46ad1b1d5841","system_id":"levelo_inurba_marseille","lat":43.30878,"lon":5.39622,"is_reserved":false,"is_disabled":false,"rental_uris":{"android":"levelo://app?vid=2636ecb3-7197-4ec8-9534-46ad1b1d5841","ios":"levelo://app?vid=2636ecb3-7197-4ec8-9534-46ad1b1d5841"},"vehicle_type_id":"4","last_reported":1740784128,"current_range_meters":16000,"station_id":"ce4bh012rcd13ifvqcv0","pricing_plan_id":"cebpf4jnsgd1na2vs0mg"},{"bike_id":"ed975e1c-021b-4cdc-b71f-e87affbf4678","system_id":"levelo_inurba_marseille","lat":43.28464,"lon":5.35871,"is_reserved":false,"is_disabled":false,"rental_uris":{"android":"levelo://app?vid=ed975e1c-021b-4cdc-b71f-e87affbf4678","ios":"levelo://app?vid=ed975e1c-021b-4cdc-b71f-e87affbf4678"},"vehicle_type_id":"4","last_reported":1740784128,"current_range_meters":16000,"station_id":"ce4bhah2rcd13ifvqei0","pricing_plan_id":"cebpf4jnsgd1na2vs0mg"},{"bike_id":"32ceb2c3-2f3b-4092-8d32-8ede67e0cd39","system_id":"levelo_inurba_marseille","lat":43.29884,"lon":5.43659,"is_reserved":false,"is_disabled":false,"rental_uris":{"android":"levelo://app?vid=32ceb2c3-2f3b-4092-8d32-8ede67e0cd39","ios":"levelo://app?vid=32ceb2c3-2f3b-4092-8d32-8ede67e0cd39"},"vehicle_type_id":"4","last_reported":1740784128,"current_range_meters":16000,"station_id":"ce4bhpp2rcd13ifvqhfg","pricing_plan_id":"cebpf4jnsgd1na2vs0mg"},{"bike_id":"5a4cdfa8-99f0-48e3-9aa4-56e87ed1a712","system_id":"levelo_inurba_marseille","lat":43.29599,"lon":5.38099,"is_reserved":false,"is_disabled":false,"rental_uris":{"android":"levelo://app?vid=5a4cdfa8-99f0-48e3-9aa4-56e87ed1a712","ios":"levelo://app?vid=5a4cdfa8-99f0-48e3-9aa4-56e87ed1a712"},"vehicle_type_id":"4","last_reported":1740784128,"current_range_meters":16000,"station_id":"ce4bgl12rcd13ifvqbo0","pricing_plan_id":"cebpf4jnsgd1na2vs0mg"},{"bike_id":"161d70e9-e213-4bf5-bde1-9c3d7296d89c","system_id":"levelo_inurba_marseille","lat":43.27801,"lon":5.39215,"is_reserved":false,"is_disabled":true,"rental_uris":{"android":"levelo://app?vid=161d70e9-e213-4bf5-bde1-9c3d7296d89c","ios":"levelo://app?vid=161d70e9-e213-4bf5-bde1-9c3d7296d89c"},"vehicle_type_id":"4","last_reported":1740784128,"current_range_meters":16000,"station_id":"ce4bhjp2rcd13ifvqga0","pricing_plan_id":"cebpf4jnsgd1na2vs0mg"},{"bike_id":"3e6eb5ab-3b41-4e51-838d-95c67fde06e4","system_id":"levelo_inurba_marseille","lat":43.29255,"lon":5.37636,"is_reserved":false,"is_disabled":false,"rental_uris":{"android":"levelo://app?vid=3e6eb5ab-3b41-4e51-838d-95c67fde06e4","ios":"levelo://app?vid=3e6eb5ab-3b41-4e51-838d-95c67fde06e4"},"vehicle_type_id":"4","last_reported":1740784128,"current_range_meters":16000,"station_id":"ce4bgi12rcd13ifvqb80","pricing_plan_id":"cebpf4jnsgd1na2vs0mg"},{"bike_id":"e88170db-16f1-4691-9945-f363a1a2bbf0","system_id":"levelo_inurba_marseille","lat":43.29247,"lon":5.38447,"is_reserved":false,"is_disabled":false,"rental_uris":{"android":"levelo://app?vid=e88170db-16f1-4691-9945-f363a1a2bbf0","ios":"levelo://app?vid=e88170db-16f1-4691-9945-f363a1a2bbf0"},"vehicle_type_id":"4","last_reported":1740784128,"current_range_meters":16000,"station_id":"ce4bh692rcd13ifvqea0","pricing_plan_id":"cebpf4jnsgd1na2vs0mg"},{"bike_id":"1446e7c1-13d8-4d3d-ab92-24d048baf8b7","system_id":"levelo_inurba_marseille","lat":43.28725,"lon":5.36077,"is_reserved":false,"is_disabled":false,"rental_uris":{"android":"levelo://app?vid=1446e7c1-13d8-4d3d-ab92-24d048baf8b7","ios":"levelo://app?vid=1446e7c1-13d8-4d3d-ab92-24d048baf8b7"},"vehicle_type_id":"4","last_reported":1740784128,"current_range_meters":16000,"station_id":"cki0cbj6b192h4jlfktg","pricing_plan_id":"cebpf4jnsgd1na2vs0mg"},{"bike_id":"d7079f25-1775-4843-a7b0-8d2f90924116","system_id":"levelo_inurba_marseille","lat":43.29411,"lon":5.38644,"is_reserved":false,"is_disabled":false,"rental_uris":{"android":"levelo://app?vid=d7079f25-1775-4843-a7b0-8d2f90924116","ios":"levelo://app?vid=d7079f25-1775-4843-a7b0-8d2f90924116"},"vehicle_type_id":"4","last_reported":1740784128,"current_range_meters":16000,"station_id":"ce4bh2h2rcd13ifvqdh0","pricing_plan_id":"cebpf4jnsgd1na2vs0mg"},{"bike_id":"34dddb7e-9f97-407d-8650-2975ed8b8664","system_id":"levelo_inurba_marseille","lat":43.29528,"lon":5.38543,"is_reserved":false,"is_disabled":false,"rental_uris":{"android":"levelo://app?vid=34dddb7e-9f97-407d-8650-2975ed8b8664","ios":"levelo://app?vid=34dddb7e-9f97-407d-8650-2975ed8b8664"},"vehicle_type_id":"4","last_reported":1740784128,"current_range_meters":16000,"station_id":"ce4bgih2rcd13ifvqba0","pricing_plan_id":"cebpf4jnsgd1na2vs0mg"},{"bike_id":"1a540477-b19a-4948-97ad-2e80bba3703b","system_id":"levelo_inurba_marseille","lat":43.29003,"lon":5.35615,"is_reserved":false,"is_disabled":false,"rental_uris":{"android":"levelo://app?vid=1a540477-b19a-4948-97ad-2e80bba3703b","ios":"levelo://app?vid=1a540477-b19a-4948-97ad-2e80bba3703b"},"vehicle_type_id":"4","last_reported":1740784128,"current_range_meters":16400,"station_id":"ce4bhb92rcd13ifvqen0","pricing_plan_id":"cebpf4jnsgd1na2vs0mg"},{"bike_id":"7778bd5d-b9b9-4963-86d9-230254203a27","system_id":"levelo_inurba_marseille","lat":43.30949,"lon":5.39069,"is_reserved":false,"is_disabled":false,"rental_uris":{"android":"levelo://app?vid=7778bd5d-b9b9-4963-86d9-230254203a27","ios":"levelo://app?vid=7778bd5d-b9b9-4963-86d9-230254203a27"},"vehicle_type_id":"4","last_reported":1740784128,"current_range_meters":16400,"station_id":"ce4bgup2rcd13ifvqco0","pricing_plan_id":"cebpf4jnsgd1na2vs0mg"},{"bike_id":"60adc713-a582-4c38-9260-7255b75fa31d","system_id":"levelo_inurba_marseille","lat":43.30884,"lon":5.39641,"is_reserved":false,"is_disabled":false,"rental_uris":{"android":"levelo://app?vid=60adc713-a582-4c38-9260-7255b75fa31d","ios":"levelo://app?vid=60adc713-a582-4c38-9260-7255b75fa31d"},"vehicle_type_id":"4","last_reported":1740784128,"current_range_meters":16400,"station_id":"ce4bh012rcd13ifvqcv0","pricing_plan_id":"cebpf4jnsgd1na2vs0mg"},{"bike_id":"588329a1-39ed-4022-9c50-8be414eaf643","system_id":"levelo_inurba_marseille","lat":43.2943,"lon":5.38601,"is_reserved":false,"is_disabled":false,"rental_uris":{"android":"levelo://app?vid=588329a1-39ed-4022-9c50-8be414eaf643","ios":"levelo://app?vid=588329a1-39ed-4022-9c50-8be414eaf643"},"vehicle_type_id":"4","last_reported":1740784128,"current_range_meters":16400,"station_id":"ce4bh2h2rcd13ifvqdh0","pricing_plan_id":"cebpf4jnsgd1na2vs0mg"},{"bike_id":"608eca7f-7f4d-4c0f-a887-944b256cb755","system_id":"levelo_inurba_marseille","lat":43.29512,"lon":5.37506,"is_reserved":false,"is_disabled":false,"rental_uris":{"android":"levelo://app?vid=608eca7f-7f4d-4c0f-a887-944b256cb755","ios":"levelo://app?vid=608eca7f-7f4d-4c0f-a887-944b256cb755"},"vehicle_type_id":"4","last_reported":1740784128,"current_range_meters":16000,"station_id":"ce4bgkp2rcd13ifvqbmg","pricing_plan_id":"cebpf4jnsgd1na2vs0mg"},{"bike_id":"3815a125-565a-4577-8461-7a3710056863","system_id":"levelo_inurba_marseille","lat":43.28462,"lon":5.3587,"is_reserved":false,"is_disabled":false,"rental_uris":{"android":"levelo://app?vid=3815a125-565a-4577-8461-7a3710056863","ios":"levelo://app?vid=3815a125-565a-4577-8461-7a3710056863"},"vehicle_type_id":"4","last_reported":1740784128,"current_range_meters":16400,"station_id":"ce4bhah2rcd13ifvqei0","pricing_plan_id":"cebpf4jnsgd1na2vs0mg"},{"bike_id":"2d0f4b31-c28f-4866-b331-a400f1c2a007","system_id":"levelo_inurba_marseille","lat":43.28454,"lon":5.35891,"is_reserved":false,"is_disabled":false,"rental_uris":{"android":"levelo://app?vid=2d0f4b31-c28f-4866-b331-a400f1c2a007","ios":"levelo://app?vid=2d0f4b31-c28f-4866-b331-a400f1c2a007"},"vehicle_type_id":"4","last_reported":1740784128,"current_range_meters":16400,"station_id":"ce4bhah2rcd13ifvqei0","pricing_plan_id":"cebpf4jnsgd1na2vs0mg"},{"bike_id":"0ece1d61-5b72-4a35-80cc-dd9fc932baf9","system_id":"levelo_inurba_marseille","lat":43.28041,"lon":5.36945,"is_reserved":false,"is_disabled":false,"rental_uris":{"android":"levelo://app?vid=0ece1d61-5b72-4a35-80cc-dd9fc932baf9","ios":"levelo://app?vid=0ece1d61-5b72-4a35-80cc-dd9fc932baf9"},"vehicle_type_id":"4","last_reported":1740784128,"current_range_meters":16400,"station_id":"ce4bha12rcd13ifvqef0","pricing_plan_id":"cebpf4jnsgd1na2vs0mg"},{"bike_id":"365d6e1a-c9f3-44c4-97f0-4841449f7bd5","system_id":"levelo_inurba_marseille","lat":43.28152,"lon":5.42642,"is_reserved":false,"is_disabled":false,"rental_uris":{"android":"levelo://app?vid=365d6e1a-c9f3-44c4-97f0-4841449f7bd5","ios":"levelo://app?vid=365d6e1a-c9f3-44c4-97f0-4841449f7bd5"},"vehicle_type_id":"4","last_reported":1740784128,"current_range_meters":16400,"station_id":"ce4bhnh2rcd13ifvqgug","pricing_plan_id":"cebpf4jnsgd1na2vs0mg"},{"bike_id":"24db149f-1618-42c4-af45-9cda7f46d94c","system_id":"levelo_inurba_marseille","lat":43.27043,"lon":5.42292,"is_reserved":false,"is_disabled":false,"rental_uris":{"android":"levelo://app?vid=24db149f-1618-42c4-af45-9cda7f46d94c","ios":"levelo://app?vid=24db149f-1618-42c4-af45-9cda7f46d94c"},"vehicle_type_id":"4","last_reported":1740784128,"current_range_meters":16800,"station_id":"ce4bhk92rcd13ifvqgb0","pricing_plan_id":"cebpf4jnsgd1na2vs0mg"},{"bike_id":"ffcd274a-7fbc-421d-b9bc-6722ffac896e","system_id":"levelo_inurba_marseille","lat":43.29534,"lon":5.38548,"is_reserved":false,"is_disabled":false,"rental_uris":{"android":"levelo://app?vid=ffcd274a-7fbc-421d-b9bc-6722ffac896e","ios":"levelo://app?vid=ffcd274a-7fbc-421d-b9bc-6722ffac896e"},"vehicle_type_id":"4","last_reported":1740784128,"current_range_meters":16800,"station_id":"ce4bgih2rcd13ifvqba0","pricing_plan_id":"cebpf4jnsgd1na2vs0mg"},{"bike_id":"8a94d05e-0ac9-4900-afae-8f1bbe4e36de","system_id":"levelo_inurba_marseille","lat":43.30893,"lon":5.39653,"is_reserved":false,"is_disabled":false,"rental_uris":{"android":"levelo://app?vid=8a94d05e-0ac9-4900-afae-8f1bbe4e36de","ios":"levelo://app?vid=8a94d05e-0ac9-4900-afae-8f1bbe4e36de"},"vehicle_type_id":"4","last_reported":1740784128,"current_range_meters":16800,"station_id":"ce4bh012rcd13ifvqcv0","pricing_plan_id":"cebpf4jnsgd1na2vs0mg"},{"bike_id":"3d326c83-df55-456d-a39d-f1c118f8a994","system_id":"levelo_inurba_marseille","lat":43.30232,"lon":5.4005,"is_reserved":false,"is_disabled":true,"rental_uris":{"android":"levelo://app?vid=3d326c83-df55-456d-a39d-f1c118f8a994","ios":"levelo://app?vid=3d326c83-df55-456d-a39d-f1c118f8a994"},"vehicle_type_id":"4","last_reported":1740784128,"current_range_meters":16800,"station_id":"ce4bgvh2rcd13ifvqcs0","pricing_plan_id":"cebpf4jnsgd1na2vs0mg"},{"bike_id":"e78fc081-6e3d-4af3-8ea4-d334284f0749","system_id":"levelo_inurba_marseille","lat":43.29004,"lon":5.35622,"is_reserved":false,"is_disabled":false,"rental_uris":{"android":"levelo://app?vid=e78fc081-6e3d-4af3-8ea4-d334284f0749","ios":"levelo://app?vid=e78fc081-6e3d-4af3-8ea4-d334284f0749"},"vehicle_type_id":"4","last_reported":1740784128,"current_range_meters":16800,"station_id":"ce4bhb92rcd13ifvqen0","pricing_plan_id":"cebpf4jnsgd1na2vs0mg"},{"bike_id":"8d92f691-4229-4e6c-bd0d-9653a1abc1e4","system_id":"levelo_inurba_marseille","lat":43.27928,"lon":5.35426,"is_reserved":false,"is_disabled":false,"rental_uris":{"android":"levelo://app?vid=8d92f691-4229-4e6c-bd0d-9653a1abc1e4","ios":"levelo://app?vid=8d92f691-4229-4e6c-bd0d-9653a1abc1e4"},