{"last_updated":1778341205,"ttl":60,"version":"2.2","data":{"bikes":[{"bike_id":"1709f6c4-df38-4392-a22b-79877bea9f71","system_id":"levelo_inurba_marseille","lat":43.26257,"lon":5.39137,"is_reserved":false,"is_disabled":false,"rental_uris":{"android":"levelo://app?vid=1709f6c4-df38-4392-a22b-79877bea9f71","ios":"levelo://app?vid=1709f6c4-df38-4392-a22b-79877bea9f71"},"vehicle_type_id":"4","last_reported":1778341206,"current_range_meters":2800,"station_id":"","pricing_plan_id":"cebpf4jnsgd1na2vs0mg"},{"bike_id":"cec24eca-6718-4f29-9f44-7c0e4ff4ffb3","system_id":"levelo_inurba_marseille","lat":43.28715,"lon":5.37943,"is_reserved":false,"is_disabled":false,"rental_uris":{"android":"levelo://app?vid=cec24eca-6718-4f29-9f44-7c0e4ff4ffb3","ios":"levelo://app?vid=cec24eca-6718-4f29-9f44-7c0e4ff4ffb3"},"vehicle_type_id":"4","last_reported":1778341206,"current_range_meters":2800,"station_id":"ce4bh9p2rcd13ifvqec0","pricing_plan_id":"cebpf4jnsgd1na2vs0mg"},{"bike_id":"27d3d9b1-1fd2-42d7-99aa-85c5b4081207","system_id":"levelo_inurba_marseille","lat":43.29812,"lon":5.381,"is_reserved":false,"is_disabled":false,"rental_uris":{"android":"levelo://app?vid=27d3d9b1-1fd2-42d7-99aa-85c5b4081207","ios":"levelo://app?vid=27d3d9b1-1fd2-42d7-99aa-85c5b4081207"},"vehicle_type_id":"4","last_reported":1778341206,"current_range_meters":2800,"station_id":"ce4bgip2rcd13ifvqbb0","pricing_plan_id":"cebpf4jnsgd1na2vs0mg"},{"bike_id":"44d94366-1423-491d-b011-6aa352859253","system_id":"levelo_inurba_marseille","lat":43.29998,"lon":5.37208,"is_reserved":false,"is_disabled":false,"rental_uris":{"android":"levelo://app?vid=44d94366-1423-491d-b011-6aa352859253","ios":"levelo://app?vid=44d94366-1423-491d-b011-6aa352859253"},"vehicle_type_id":"4","last_reported":1778341206,"current_range_meters":2800,"station_id":"ce4bgr92rcd13ifvqc7g","pricing_plan_id":"cebpf4jnsgd1na2vs0mg"},{"bike_id":"f9765471-797c-4251-b388-a11b5bbe30f0","system_id":"levelo_inurba_marseille","lat":43.33541,"lon":5.37468,"is_reserved":false,"is_disabled":false,"rental_uris":{"android":"levelo://app?vid=f9765471-797c-4251-b388-a11b5bbe30f0","ios":"levelo://app?vid=f9765471-797c-4251-b388-a11b5bbe30f0"},"vehicle_type_id":"4","last_reported":1778341206,"current_range_meters":2800,"station_id":"st_d46tts09ee8s73dlu43g","pricing_plan_id":"cebpf4jnsgd1na2vs0mg"},{"bike_id":"f93ca899-cd21-45a7-9d0d-efd6b7efed58","system_id":"levelo_inurba_marseille","lat":43.26551,"lon":5.39042,"is_reserved":false,"is_disabled":false,"rental_uris":{"android":"levelo://app?vid=f93ca899-cd21-45a7-9d0d-efd6b7efed58","ios":"levelo://app?vid=f93ca899-cd21-45a7-9d0d-efd6b7efed58"},"vehicle_type_id":"4","last_reported":1778341206,"current_range_meters":2800,"station_id":"ce4bhe12rcd13ifvqf30","pricing_plan_id":"cebpf4jnsgd1na2vs0mg"},{"bike_id":"461f9e7a-ee63-41c7-87ac-bb026a94e595","system_id":"levelo_inurba_marseille","lat":43.27917,"lon":5.37179,"is_reserved":false,"is_disabled":false,"rental_uris":{"android":"levelo://app?vid=461f9e7a-ee63-41c7-87ac-bb026a94e595","ios":"levelo://app?vid=461f9e7a-ee63-41c7-87ac-bb026a94e595"},"vehicle_type_id":"4","last_reported":1778341206,"current_range_meters":2800,"station_id":"","pricing_plan_id":"cebpf4jnsgd1na2vs0mg"},{"bike_id":"c024b4b3-a742-4464-bafb-ef96fdfd0352","system_id":"levelo_inurba_marseille","lat":43.26021,"lon":5.37517,"is_reserved":false,"is_disabled":false,"rental_uris":{"android":"levelo://app?vid=c024b4b3-a742-4464-bafb-ef96fdfd0352","ios":"levelo://app?vid=c024b4b3-a742-4464-bafb-ef96fdfd0352"},"vehicle_type_id":"4","last_reported":1778341206,"current_range_meters":2800,"station_id":"ce4bhgh2rcd13ifvqfa0","pricing_plan_id":"cebpf4jnsgd1na2vs0mg"},{"bike_id":"18e08245-dd81-4263-aed9-a233ccffe5c2","system_id":"levelo_inurba_marseille","lat":43.29693,"lon":5.37314,"is_reserved":false,"is_disabled":false,"rental_uris":{"android":"levelo://app?vid=18e08245-dd81-4263-aed9-a233ccffe5c2","ios":"levelo://app?vid=18e08245-dd81-4263-aed9-a233ccffe5c2"},"vehicle_type_id":"4","last_reported":1778341206,"current_range_meters":2800,"station_id":"ce4bgk12rcd13ifvqbj0","pricing_plan_id":"cebpf4jnsgd1na2vs0mg"},{"bike_id":"06ab7e03-6cc1-4519-8625-3652421fe315","system_id":"levelo_inurba_marseille","lat":43.3315,"lon":5.37718,"is_reserved":false,"is_disabled":false,"rental_uris":{"android":"levelo://app?vid=06ab7e03-6cc1-4519-8625-3652421fe315","ios":"levelo://app?vid=06ab7e03-6cc1-4519-8625-3652421fe315"},"vehicle_type_id":"4","last_reported":1778341206,"current_range_meters":2800,"station_id":"st_d46cu089ee8s73dldbu0","pricing_plan_id":"cebpf4jnsgd1na2vs0mg"},{"bike_id":"abe51b28-bfbd-4be5-a553-507d7245b14c","system_id":"levelo_inurba_marseille","lat":43.28456,"lon":5.35898,"is_reserved":false,"is_disabled":false,"rental_uris":{"android":"levelo://app?vid=abe51b28-bfbd-4be5-a553-507d7245b14c","ios":"levelo://app?vid=abe51b28-bfbd-4be5-a553-507d7245b14c"},"vehicle_type_id":"4","last_reported":1778341206,"current_range_meters":2800,"station_id":"ce4bhah2rcd13ifvqei0","pricing_plan_id":"cebpf4jnsgd1na2vs0mg"},{"bike_id":"c9028c81-fa95-42f9-a96c-7370fe7cd7d1","system_id":"levelo_inurba_marseille","lat":43.28649,"lon":5.38669,"is_reserved":false,"is_disabled":false,"rental_uris":{"android":"levelo://app?vid=c9028c81-fa95-42f9-a96c-7370fe7cd7d1","ios":"levelo://app?vid=c9028c81-fa95-42f9-a96c-7370fe7cd7d1"},"vehicle_type_id":"4","last_reported":1778341206,"current_range_meters":2800,"station_id":"ce4bh492rcd13ifvqdug","pricing_plan_id":"cebpf4jnsgd1na2vs0mg"},{"bike_id":"8eea14e8-81f9-450a-9f42-646e56a018e2","system_id":"levelo_inurba_marseille","lat":43.28875,"lon":5.4253,"is_reserved":false,"is_disabled":true,"rental_uris":{"android":"levelo://app?vid=8eea14e8-81f9-450a-9f42-646e56a018e2","ios":"levelo://app?vid=8eea14e8-81f9-450a-9f42-646e56a018e2"},"vehicle_type_id":"4","last_reported":1778341206,"current_range_meters":2800,"station_id":"st_d3b462108ojc7389ooeg","pricing_plan_id":"cebpf4jnsgd1na2vs0mg"},{"bike_id":"c21bed2b-a080-46f3-a6c6-178e760e70e9","system_id":"levelo_inurba_marseille","lat":43.29978,"lon":5.38497,"is_reserved":false,"is_disabled":false,"rental_uris":{"android":"levelo://app?vid=c21bed2b-a080-46f3-a6c6-178e760e70e9","ios":"levelo://app?vid=c21bed2b-a080-46f3-a6c6-178e760e70e9"},"vehicle_type_id":"4","last_reported":1778341206,"current_range_meters":2800,"station_id":"ce4bgj92rcd13ifvqbd0","pricing_plan_id":"cebpf4jnsgd1na2vs0mg"},{"bike_id":"0849f21e-813e-4790-a125-7e75dbe7b15a","system_id":"levelo_inurba_marseille","lat":43.2648,"lon":5.39546,"is_reserved":false,"is_disabled":false,"rental_uris":{"android":"levelo://app?vid=0849f21e-813e-4790-a125-7e75dbe7b15a","ios":"levelo://app?vid=0849f21e-813e-4790-a125-7e75dbe7b15a"},"vehicle_type_id":"4","last_reported":1778341206,"current_range_meters":2800,"station_id":"ce4bhi12rcd13ifvqfq0","pricing_plan_id":"cebpf4jnsgd1na2vs0mg"},{"bike_id":"ad0fcbd3-d005-4ed6-af7c-01b9e6dea1d1","system_id":"levelo_inurba_marseille","lat":43.27057,"lon":5.40283,"is_reserved":false,"is_disabled":false,"rental_uris":{"android":"levelo://app?vid=ad0fcbd3-d005-4ed6-af7c-01b9e6dea1d1","ios":"levelo://app?vid=ad0fcbd3-d005-4ed6-af7c-01b9e6dea1d1"},"vehicle_type_id":"4","last_reported":1778341206,"current_range_meters":2800,"station_id":"ce4bhk92rcd13ifvqgc0","pricing_plan_id":"cebpf4jnsgd1na2vs0mg"},{"bike_id":"adbdae24-1b6d-4e05-9f3d-b7d760c284d0","system_id":"levelo_inurba_marseille","lat":43.29033,"lon":5.38145,"is_reserved":false,"is_disabled":true,"rental_uris":{"android":"levelo://app?vid=adbdae24-1b6d-4e05-9f3d-b7d760c284d0","ios":"levelo://app?vid=adbdae24-1b6d-4e05-9f3d-b7d760c284d0"},"vehicle_type_id":"4","last_reported":1778341206,"current_range_meters":3200,"station_id":"ce4bh4p2rcd13ifvqe1g","pricing_plan_id":"cebpf4jnsgd1na2vs0mg"},{"bike_id":"de1f270b-3385-476d-a884-6fde9a74ffcb","system_id":"levelo_inurba_marseille","lat":43.30426,"lon":5.38879,"is_reserved":false,"is_disabled":false,"rental_uris":{"android":"levelo://app?vid=de1f270b-3385-476d-a884-6fde9a74ffcb","ios":"levelo://app?vid=de1f270b-3385-476d-a884-6fde9a74ffcb"},"vehicle_type_id":"4","last_reported":1778341206,"current_range_meters":3200,"station_id":"ce4bgk12rcd13ifvqbi0","pricing_plan_id":"cebpf4jnsgd1na2vs0mg"},{"bike_id":"4ba8e3e6-a63f-4d54-838c-85077ac47e03","system_id":"levelo_inurba_marseille","lat":43.25579,"lon":5.38239,"is_reserved":false,"is_disabled":false,"rental_uris":{"android":"levelo://app?vid=4ba8e3e6-a63f-4d54-838c-85077ac47e03","ios":"levelo://app?vid=4ba8e3e6-a63f-4d54-838c-85077ac47e03"},"vehicle_type_id":"4","last_reported":1778341206,"current_range_meters":3200,"station_id":"ce4bhih2rcd13ifvqfs0","pricing_plan_id":"cebpf4jnsgd1na2vs0mg"},{"bike_id":"39b22808-ed8a-4d5e-b612-7fafee5ff684","system_id":"levelo_inurba_marseille","lat":43.273,"lon":5.39054,"is_reserved":false,"is_disabled":false,"rental_uris":{"android":"levelo://app?vid=39b22808-ed8a-4d5e-b612-7fafee5ff684","ios":"levelo://app?vid=39b22808-ed8a-4d5e-b612-7fafee5ff684"},"vehicle_type_id":"4","last_reported":1778341206,"current_range_meters":3200,"station_id":"ce4bhgp2rcd13ifvqfe0","pricing_plan_id":"cebpf4jnsgd1na2vs0mg"},{"bike_id":"7486ce74-b1a6-46d0-b158-e81b99638b7e","system_id":"levelo_inurba_marseille","lat":43.24544,"lon":5.39522,"is_reserved":false,"is_disabled":false,"rental_uris":{"android":"levelo://app?vid=7486ce74-b1a6-46d0-b158-e81b99638b7e","ios":"levelo://app?vid=7486ce74-b1a6-46d0-b158-e81b99638b7e"},"vehicle_type_id":"4","last_reported":1778341206,"current_range_meters":3200,"station_id":"ce4bhlp2rcd13ifvqgjg","pricing_plan_id":"cebpf4jnsgd1na2vs0mg"},{"bike_id":"28591a20-c550-4108-9263-49d1bdca52ed","system_id":"levelo_inurba_marseille","lat":43.28484,"lon":5.48372,"is_reserved":false,"is_disabled":false,"rental_uris":{"android":"levelo://app?vid=28591a20-c550-4108-9263-49d1bdca52ed","ios":"levelo://app?vid=28591a20-c550-4108-9263-49d1bdca52ed"},"vehicle_type_id":"4","last_reported":1778341206,"current_range_meters":3200,"station_id":"","pricing_plan_id":"cebpf4jnsgd1na2vs0mg"},{"bike_id":"6400099d-f713-4246-a4ce-1b44f22e3329","system_id":"levelo_inurba_marseille","lat":43.32131,"lon":5.3679,"is_reserved":false,"is_disabled":false,"rental_uris":{"android":"levelo://app?vid=6400099d-f713-4246-a4ce-1b44f22e3329","ios":"levelo://app?vid=6400099d-f713-4246-a4ce-1b44f22e3329"},"vehicle_type_id":"4","last_reported":1778341206,"current_range_meters":3200,"station_id":"ce4bhrh2rcd13ifvqhug","pricing_plan_id":"cebpf4jnsgd1na2vs0mg"},{"bike_id":"cc34b61b-1f16-49a5-ad09-a23dce0f0826","system_id":"levelo_inurba_marseille","lat":43.28689,"lon":5.38668,"is_reserved":false,"is_disabled":false,"rental_uris":{"android":"levelo://app?vid=cc34b61b-1f16-49a5-ad09-a23dce0f0826","ios":"levelo://app?vid=cc34b61b-1f16-49a5-ad09-a23dce0f0826"},"vehicle_type_id":"4","last_reported":1778341206,"current_range_meters":3200,"station_id":"ce4bh492rcd13ifvqdug","pricing_plan_id":"cebpf4jnsgd1na2vs0mg"},{"bike_id":"7cf0d865-4101-4293-ad81-08c79527ded1","system_id":"levelo_inurba_marseille","lat":43.29617,"lon":5.3775,"is_reserved":false,"is_disabled":false,"rental_uris":{"android":"levelo://app?vid=7cf0d865-4101-4293-ad81-08c79527ded1","ios":"levelo://app?vid=7cf0d865-4101-4293-ad81-08c79527ded1"},"vehicle_type_id":"4","last_reported":1778341206,"current_range_meters":3200,"station_id":"ce4bgi92rcd13ifvqb90","pricing_plan_id":"cebpf4jnsgd1na2vs0mg"},{"bike_id":"5f6a6e5b-0b59-4683-9046-306eb83196fc","system_id":"levelo_inurba_marseille","lat":43.270571,"lon":5.402591,"is_reserved":false,"is_disabled":false,"rental_uris":{"android":"levelo://app?vid=5f6a6e5b-0b59-4683-9046-306eb83196fc","ios":"levelo://app?vid=5f6a6e5b-0b59-4683-9046-306eb83196fc"},"vehicle_type_id":"4","last_reported":1778341206,"current_range_meters":3200,"station_id":"ce4bhk92rcd13ifvqgc0","pricing_plan_id":"cebpf4jnsgd1na2vs0mg"},{"bike_id":"d2cc1400-ed67-4c12-b34e-85c624a5237d","system_id":"levelo_inurba_marseille","lat":43.28402,"lon":5.37508,"is_reserved":false,"is_disabled":false,"rental_uris":{"android":"levelo://app?vid=d2cc1400-ed67-4c12-b34e-85c624a5237d","ios":"levelo://app?vid=d2cc1400-ed67-4c12-b34e-85c624a5237d"},"vehicle_type_id":"4","last_reported":1778341206,"current_range_meters":3200,"station_id":"ce4bh412rcd13ifvqds0","pricing_plan_id":"cebpf4jnsgd1na2vs0mg"},{"bike_id":"3e9489b9-ac94-435f-9ad5-4547dbff1abd","system_id":"levelo_inurba_marseille","lat":43.28577,"lon":5.39512,"is_reserved":false,"is_disabled":false,"rental_uris":{"android":"levelo://app?vid=3e9489b9-ac94-435f-9ad5-4547dbff1abd","ios":"levelo://app?vid=3e9489b9-ac94-435f-9ad5-4547dbff1abd"},"vehicle_type_id":"4","last_reported":1778341206,"current_range_meters":3200,"station_id":"ce4bh292rcd13ifvqdg0","pricing_plan_id":"cebpf4jnsgd1na2vs0mg"},{"bike_id":"da9effdb-af7b-4c05-b031-eb3573b2998c","system_id":"levelo_inurba_marseille","lat":43.2657,"lon":5.39016,"is_reserved":false,"is_disabled":false,"rental_uris":{"android":"levelo://app?vid=da9effdb-af7b-4c05-b031-eb3573b2998c","ios":"levelo://app?vid=da9effdb-af7b-4c05-b031-eb3573b2998c"},"vehicle_type_id":"4","last_reported":1778341206,"current_range_meters":3200,"station_id":"ce4bhe12rcd13ifvqf30","pricing_plan_id":"cebpf4jnsgd1na2vs0mg"},{"bike_id":"a6684ba9-09e7-4795-82de-b834b9da46df","system_id":"levelo_inurba_marseille","lat":43.27213,"lon":5.39198,"is_reserved":false,"is_disabled":false,"rental_uris":{"android":"levelo://app?vid=a6684ba9-09e7-4795-82de-b834b9da46df","ios":"levelo://app?vid=a6684ba9-09e7-4795-82de-b834b9da46df"},"vehicle_type_id":"4","last_reported":1778341206,"current_range_meters":3200,"station_id":"ce4bhhp2rcd13ifvqfm0","pricing_plan_id":"cebpf4jnsgd1na2vs0mg"},{"bike_id":"b0bd13bd-deba-4547-8091-a0362d8e7b24","system_id":"levelo_inurba_marseille","lat":43.28038,"lon":5.36941,"is_reserved":false,"is_disabled":false,"rental_uris":{"android":"levelo://app?vid=b0bd13bd-deba-4547-8091-a0362d8e7b24","ios":"levelo://app?vid=b0bd13bd-deba-4547-8091-a0362d8e7b24"},"vehicle_type_id":"4","last_reported":1778341206,"current_range_meters":3600,"station_id":"ce4bha12rcd13ifvqef0","pricing_plan_id":"cebpf4jnsgd1na2vs0mg"},{"bike_id":"f03e9416-653d-45fd-aba7-c2ee459eb1bb","system_id":"levelo_inurba_marseille","lat":43.33538,"lon":5.37457,"is_reserved":false,"is_disabled":false,"rental_uris":{"android":"levelo://app?vid=f03e9416-653d-45fd-aba7-c2ee459eb1bb","ios":"levelo://app?vid=f03e9416-653d-45fd-aba7-c2ee459eb1bb"},"vehicle_type_id":"4","last_reported":1778341206,"current_range_meters":3600,"station_id":"st_d46tts09ee8s73dlu43g","pricing_plan_id":"cebpf4jnsgd1na2vs0mg"},{"bike_id":"075e7a6c-4f4b-400a-a226-e30e8c6d4f53","system_id":"levelo_inurba_marseille","lat":43.278132,"lon":5.40721,"is_reserved":false,"is_disabled":false,"rental_uris":{"android":"levelo://app?vid=075e7a6c-4f4b-400a-a226-e30e8c6d4f53","ios":"levelo://app?vid=075e7a6c-4f4b-400a-a226-e30e8c6d4f53"},"vehicle_type_id":"4","last_reported":1778341206,"current_range_meters":3600,"station_id":"ce4bhnh2rcd13ifvqgtg","pricing_plan_id":"cebpf4jnsgd1na2vs0mg"},{"bike_id":"c3978b96-f07e-4bde-aa31-5a366b1435c6","system_id":"levelo_inurba_marseille","lat":43.28264,"lon":5.35061,"is_reserved":false,"is_disabled":false,"rental_uris":{"android":"levelo://app?vid=c3978b96-f07e-4bde-aa31-5a366b1435c6","ios":"levelo://app?vid=c3978b96-f07e-4bde-aa31-5a366b1435c6"},"vehicle_type_id":"4","last_reported":1778341206,"current_range_meters":3600,"station_id":"ce4bhbp2rcd13ifvqerg","pricing_plan_id":"cebpf4jnsgd1na2vs0mg"},{"bike_id":"763dc5b7-1fbf-46ea-8272-3c5bffb7cd0e","system_id":"levelo_inurba_marseille","lat":43.26773,"lon":5.39416,"is_reserved":false,"is_disabled":false,"rental_uris":{"android":"levelo://app?vid=763dc5b7-1fbf-46ea-8272-3c5bffb7cd0e","ios":"levelo://app?vid=763dc5b7-1fbf-46ea-8272-3c5bffb7cd0e"},"vehicle_type_id":"4","last_reported":1778341206,"current_range_meters":3600,"station_id":"ce4bhh12rcd13ifvqfg0","pricing_plan_id":"cebpf4jnsgd1na2vs0mg"},{"bike_id":"9a3140d6-e3fa-492e-8460-9c6f22636700","system_id":"levelo_inurba_marseille","lat":43.31316,"lon":5.39946,"is_reserved":false,"is_disabled":false,"rental_uris":{"android":"levelo://app?vid=9a3140d6-e3fa-492e-8460-9c6f22636700","ios":"levelo://app?vid=9a3140d6-e3fa-492e-8460-9c6f22636700"},"vehicle_type_id":"4","last_reported":1778341206,"current_range_meters":3600,"station_id":"","pricing_plan_id":"cebpf4jnsgd1na2vs0mg"},{"bike_id":"d887cdf3-66ee-4a37-985b-e7ed35671fff","system_id":"levelo_inurba_marseille","lat":43.273226,"lon":5.390716,"is_reserved":false,"is_disabled":false,"rental_uris":{"android":"levelo://app?vid=d887cdf3-66ee-4a37-985b-e7ed35671fff","ios":"levelo://app?vid=d887cdf3-66ee-4a37-985b-e7ed35671fff"},"vehicle_type_id":"4","last_reported":1778341206,"current_range_meters":3600,"station_id":"ce4bhgp2rcd13ifvqfe0","pricing_plan_id":"cebpf4jnsgd1na2vs0mg"},{"bike_id":"415142c7-f50e-411e-adf6-f39700e22f6d","system_id":"levelo_inurba_marseille","lat":43.32681,"lon":5.35591,"is_reserved":false,"is_disabled":false,"rental_uris":{"android":"levelo://app?vid=415142c7-f50e-411e-adf6-f39700e22f6d","ios":"levelo://app?vid=415142c7-f50e-411e-adf6-f39700e22f6d"},"vehicle_type_id":"4","last_reported":1778341206,"current_range_meters":3600,"station_id":"","pricing_plan_id":"cebpf4jnsgd1na2vs0mg"},{"bike_id":"456df6e8-00df-4772-b130-44072086dcef","system_id":"levelo_inurba_marseille","lat":43.260624,"lon":5.393952,"is_reserved":false,"is_disabled":false,"rental_uris":{"android":"levelo://app?vid=456df6e8-00df-4772-b130-44072086dcef","ios":"levelo://app?vid=456df6e8-00df-4772-b130-44072086dcef"},"vehicle_type_id":"4","last_reported":1778341206,"current_range_meters":3600,"station_id":"ce4bhh92rcd13ifvqfj0","pricing_plan_id":"cebpf4jnsgd1na2vs0mg"},{"bike_id":"5d1b42b2-291f-4698-8f4a-bb3c0240c3ec","system_id":"levelo_inurba_marseille","lat":43.28939,"lon":5.39633,"is_reserved":false,"is_disabled":false,"rental_uris":{"android":"levelo://app?vid=5d1b42b2-291f-4698-8f4a-bb3c0240c3ec","ios":"levelo://app?vid=5d1b42b2-291f-4698-8f4a-bb3c0240c3ec"},"vehicle_type_id":"4","last_reported":1778341206,"current_range_meters":3600,"station_id":"ce4bh3h2rcd13ifvqdn0","pricing_plan_id":"cebpf4jnsgd1na2vs0mg"},{"bike_id":"2cc2e1ab-0df8-45ae-b300-4b0d381669ca","system_id":"levelo_inurba_marseille","lat":43.308841,"lon":5.396574,"is_reserved":false,"is_disabled":false,"rental_uris":{"android":"levelo://app?vid=2cc2e1ab-0df8-45ae-b300-4b0d381669ca","ios":"levelo://app?vid=2cc2e1ab-0df8-45ae-b300-4b0d381669ca"},"vehicle_type_id":"4","last_reported":1778341206,"current_range_meters":3600,"station_id":"ce4bh012rcd13ifvqcv0","pricing_plan_id":"cebpf4jnsgd1na2vs0mg"},{"bike_id":"76815a2e-e69d-47e3-8199-b0e0d486f9bc","system_id":"levelo_inurba_marseille","lat":43.28628,"lon":5.35107,"is_reserved":false,"is_disabled":false,"rental_uris":{"android":"levelo://app?vid=76815a2e-e69d-47e3-8199-b0e0d486f9bc","ios":"levelo://app?vid=76815a2e-e69d-47e3-8199-b0e0d486f9bc"},"vehicle_type_id":"4","last_reported":1778341206,"current_range_meters":3600,"station_id":"ce4bhch2rcd13ifvqeug","pricing_plan_id":"cebpf4jnsgd1na2vs0mg"},{"bike_id":"fadbef81-0f10-44e3-b436-cf0658d68185","system_id":"levelo_inurba_marseille","lat":43.295298,"lon":5.385516,"is_reserved":false,"is_disabled":false,"rental_uris":{"android":"levelo://app?vid=fadbef81-0f10-44e3-b436-cf0658d68185","ios":"levelo://app?vid=fadbef81-0f10-44e3-b436-cf0658d68185"},"vehicle_type_id":"4","last_reported":1778341206,"current_range_meters":3600,"station_id":"ce4bgih2rcd13ifvqba0","pricing_plan_id":"cebpf4jnsgd1na2vs0mg"},{"bike_id":"e25d0e32-29fc-432f-8e28-501b84c763f7","system_id":"levelo_inurba_marseille","lat":43.24952,"lon":5.40487,"is_reserved":false,"is_disabled":false,"rental_uris":{"android":"levelo://app?vid=e25d0e32-29fc-432f-8e28-501b84c763f7","ios":"levelo://app?vid=e25d0e32-29fc-432f-8e28-501b84c763f7"},"vehicle_type_id":"4","last_reported":1778341206,"current_range_meters":4000,"station_id":"st_d2ngiaodas8pm72gd1h0","pricing_plan_id":"cebpf4jnsgd1na2vs0mg"},{"bike_id":"83c53200-e80f-47bb-b870-a7652825089e","system_id":"levelo_inurba_marseille","lat":43.24692,"lon":5.38164,"is_reserved":false,"is_disabled":false,"rental_uris":{"android":"levelo://app?vid=83c53200-e80f-47bb-b870-a7652825089e","ios":"levelo://app?vid=83c53200-e80f-47bb-b870-a7652825089e"},"vehicle_type_id":"4","last_reported":1778341206,"current_range_meters":4000,"station_id":"ce4bhih2rcd13ifvqfr0","pricing_plan_id":"cebpf4jnsgd1na2vs0mg"},{"bike_id":"b44a9cd4-5b24-4ba8-878e-e9ddbed75cb6","system_id":"levelo_inurba_marseille","lat":43.2796,"lon":5.38727,"is_reserved":false,"is_disabled":true,"rental_uris":{"android":"levelo://app?vid=b44a9cd4-5b24-4ba8-878e-e9ddbed75cb6","ios":"levelo://app?vid=b44a9cd4-5b24-4ba8-878e-e9ddbed75cb6"},"vehicle_type_id":"4","last_reported":1778341206,"current_range_meters":4000,"station_id":"ce4bhg12rcd13ifvqf80","pricing_plan_id":"cebpf4jnsgd1na2vs0mg"},{"bike_id":"476a93db-e5ff-48c0-8eff-69c0f1478384","system_id":"levelo_inurba_marseille","lat":43.276098,"lon":5.360972,"is_reserved":false,"is_disabled":false,"rental_uris":{"android":"levelo://app?vid=476a93db-e5ff-48c0-8eff-69c0f1478384","ios":"levelo://app?vid=476a93db-e5ff-48c0-8eff-69c0f1478384"},"vehicle_type_id":"4","last_reported":1778341206,"current_range_meters":4000,"station_id":"ce4bgj92rcd13ifvqbe0","pricing_plan_id":"cebpf4jnsgd1na2vs0mg"},{"bike_id":"6452db2c-1182-4afc-94bd-93e76ac56d68","system_id":"levelo_inurba_marseille","lat":43.27066,"lon":5.42275,"is_reserved":false,"is_disabled":false,"rental_uris":{"android":"levelo://app?vid=6452db2c-1182-4afc-94bd-93e76ac56d68","ios":"levelo://app?vid=6452db2c-1182-4afc-94bd-93e76ac56d68"},"vehicle_type_id":"4","last_reported":1778341206,"current_range_meters":4000,"station_id":"ce4bhk92rcd13ifvqgb0","pricing_plan_id":"cebpf4jnsgd1na2vs0mg"},{"bike_id":"4b65741e-5ed9-4da8-8620-3a00f88659d6","system_id":"levelo_inurba_marseille","lat":43.28489,"lon":5.48376,"is_reserved":false,"is_disabled":false,"rental_uris":{"android":"levelo://app?vid=4b65741e-5ed9-4da8-8620-3a00f88659d6","ios":"levelo://app?vid=4b65741e-5ed9-4da8-8620-3a00f88659d6"},"vehicle_type_id":"4","last_reported":1778341206,"current_range_meters":4000,"station_id":"","pricing_plan_id":"cebpf4jnsgd1na2vs0mg"},{"bike_id":"3e903eb2-05bf-425f-a545-810c5bf6e402","system_id":"levelo_inurba_marseille","lat":43.29253,"lon":5.38446,"is_reserved":false,"is_disabled":false,"rental_uris":{"android":"levelo://app?vid=3e903eb2-05bf-425f-a545-810c5bf6e402","ios":"levelo://app?vid=3e903eb2-05bf-425f-a545-810c5bf6e402"},"vehicle_type_id":"4","last_reported":1778341206,"current_range_meters":4000,"station_id":"ce4bh692rcd13ifvqea0","pricing_plan_id":"cebpf4jnsgd1na2vs0mg"},{"bike_id":"0ecddad9-091b-47fd-a45d-db67559668c1","system_id":"levelo_inurba_marseille","lat":43.27966,"lon":5.38743,"is_reserved":false,"is_disabled":true,"rental_uris":{"android":"levelo://app?vid=0ecddad9-091b-47fd-a45d-db67559668c1","ios":"levelo://app?vid=0ecddad9-091b-47fd-a45d-db67559668c1"},"vehicle_type_id":"4","last_reported":1778341206,"current_range_meters":4000,"station_id":"ce4bhg12rcd13ifvqf80","pricing_plan_id":"cebpf4jnsgd1na2vs0mg"},{"bike_id":"a9c8b35b-92f4-41e8-821d-c25b79a7922d","system_id":"levelo_inurba_marseille","lat":43.29301,"lon":5.37465,"is_reserved":false,"is_disabled":false,"rental_uris":{"android":"levelo://app?vid=a9c8b35b-92f4-41e8-821d-c25b79a7922d","ios":"levelo://app?vid=a9c8b35b-92f4-41e8-821d-c25b79a7922d"},"vehicle_type_id":"4","last_reported":1778341206,"current_range_meters":4000,"station_id":"ce4bgi12rcd13ifvqb70","pricing_plan_id":"cebpf4jnsgd1na2vs0mg"},{"bike_id":"fa833790-fea7-4b87-ab01-22a9071ab066","system_id":"levelo_inurba_marseille","lat":43.28486,"lon":5.48407,"is_reserved":false,"is_disabled":false,"rental_uris":{"android":"levelo://app?vid=fa833790-fea7-4b87-ab01-22a9071ab066","ios":"levelo://app?vid=fa833790-fea7-4b87-ab01-22a9071ab066"},"vehicle_type_id":"4","last_reported":1778341206,"current_range_meters":4000,"station_id":"st_d3svhcjqgbts73a3dn0g","pricing_plan_id":"cebpf4jnsgd1na2vs0mg"},{"bike_id":"95489a07-b280-4aea-935b-70fc8cc33653","system_id":"levelo_inurba_marseille","lat":43.21745,"lon":5.3461,"is_reserved":false,"is_disabled":true,"rental_uris":{"android":"levelo://app?vid=95489a07-b280-4aea-935b-70fc8cc33653","ios":"levelo://app?vid=95489a07-b280-4aea-935b-70fc8cc33653"},"vehicle_type_id":"4","last_reported":1778341206,"current_range_meters":4000,"station_id":"st_cvj6r9ubvosntc0bgbag","pricing_plan_id":"cebpf4jnsgd1na2vs0mg"},{"bike_id":"5fc85a70-cd51-491b-a363-a46b0850da15","system_id":"levelo_inurba_marseille","lat":43.32878,"lon":5.36688,"is_reserved":false,"is_disabled":false,"rental_uris":{"android":"levelo://app?vid=5fc85a70-cd51-491b-a363-a46b0850da15","ios":"levelo://app?vid=5fc85a70-cd51-491b-a363-a46b0850da15"},"vehicle_type_id":"4","last_reported":1778341206,"current_range_meters":4000,"station_id":"","pricing_plan_id":"cebpf4jnsgd1na2vs0mg"},{"bike_id":"13b1bcc7-e9d8-48b8-a72f-6d1f9d17e51d","system_id":"levelo_inurba_marseille","lat":43.24899,"lon":5.38964,"is_reserved":false,"is_disabled":false,"rental_uris":{"android":"levelo://app?vid=13b1bcc7-e9d8-48b8-a72f-6d1f9d17e51d","ios":"levelo://app?vid=13b1bcc7-e9d8-48b8-a72f-6d1f9d17e51d"},"vehicle_type_id":"4","last_reported":1778341206,"current_range_meters":4000,"station_id":"","pricing_plan_id":"cebpf4jnsgd1na2vs0mg"},{"bike_id":"28d5e7eb-b288-4e16-bd60-ea0fda28fcbf","system_id":"levelo_inurba_marseille","lat":43.249572,"lon":5.404868,"is_reserved":false,"is_disabled":false,"rental_uris":{"android":"levelo://app?vid=28d5e7eb-b288-4e16-bd60-ea0fda28fcbf","ios":"levelo://app?vid=28d5e7eb-b288-4e16-bd60-ea0fda28fcbf"},"vehicle_type_id":"4","last_reported":1778341206,"current_range_meters":4000,"station_id":"st_d2ngiaodas8pm72gd1h0","pricing_plan_id":"cebpf4jnsgd1na2vs0mg"},{"bike_id":"5b17b337-4e55-486b-b310-212b10614e57","system_id":"levelo_inurba_marseille","lat":43.32349,"lon":5.36738,"is_reserved":false,"is_disabled":false,"rental_uris":{"android":"levelo://app?vid=5b17b337-4e55-486b-b310-212b10614e57","ios":"levelo://app?vid=5b17b337-4e55-486b-b310-212b10614e57"},"vehicle_type_id":"4","last_reported":1778341206,"current_range_meters":4000,"station_id":"ce4bhsh2rcd13ifvqi2g","pricing_plan_id":"cebpf4jnsgd1na2vs0mg"},{"bike_id":"84d0084c-0e0e-4eb7-b575-b4c2dec273c2","system_id":"levelo_inurba_marseille","lat":43.30553,"lon":5.3653,"is_reserved":false,"is_disabled":false,"rental_uris":{"android":"levelo://app?vid=84d0084c-0e0e-4eb7-b575-b4c2dec273c2","ios":"levelo://app?vid=84d0084c-0e0e-4eb7-b575-b4c2dec273c2"},"vehicle_type_id":"4","last_reported":1778341206,"current_range_meters":4000,"station_id":"ce4bgs12rcd13ifvqcag","pricing_plan_id":"cebpf4jnsgd1na2vs0mg"},{"bike_id":"4b5dccde-641e-4a58-b246-fe5279230bfa","system_id":"levelo_inurba_marseille","lat":43.284323,"lon":5.388014,"is_reserved":false,"is_disabled":false,"rental_uris":{"android":"levelo://app?vid=4b5dccde-641e-4a58-b246-fe5279230bfa","ios":"levelo://app?vid=4b5dccde-641e-4a58-b246-fe5279230bfa"},"vehicle_type_id":"4","last_reported":1778341206,"current_range_meters":4000,"station_id":"ce4bh492rcd13ifvqdug","pricing_plan_id":"cebpf4jnsgd1na2vs0mg"},{"bike_id":"5b1eba0b-f3bb-429a-8e11-bd91e9f79ce9","system_id":"levelo_inurba_marseille","lat":43.29219,"lon":5.36056,"is_reserved":false,"is_disabled":true,"rental_uris":{"android":"levelo://app?vid=5b1eba0b-f3bb-429a-8e11-bd91e9f79ce9","ios":"levelo://app?vid=5b1eba0b-f3bb-429a-8e11-bd91e9f79ce9"},"vehicle_type_id":"4","last_reported":1778341206,"current_range_meters":4000,"station_id":"ce4bhbh2rcd13ifvqeqg","pricing_plan_id":"cebpf4jnsgd1na2vs0mg"},{"bike_id":"33dc6d7a-f720-4925-9e6a-975a4f86abb8","system_id":"levelo_inurba_marseille","lat":43.27616,"lon":5.36113,"is_reserved":false,"is_disabled":false,"rental_uris":{"android":"levelo://app?vid=33dc6d7a-f720-4925-9e6a-975a4f86abb8","ios":"levelo://app?vid=33dc6d7a-f720-4925-9e6a-975a4f86abb8"},"vehicle_type_id":"4","last_reported":1778341206,"current_range_meters":4000,"station_id":"ce4bgj92rcd13ifvqbe0","pricing_plan_id":"cebpf4jnsgd1na2vs0mg"},{"bike_id":"ba1a84df-99bc-4f91-b102-9b8b01f50ffc","system_id":"levelo_inurba_marseille","lat":43.31871,"lon":5.36822,"is_reserved":false,"is_disabled":false,"rental_uris":{"android":"levelo://app?vid=ba1a84df-99bc-4f91-b102-9b8b01f50ffc","ios":"levelo://app?vid=ba1a84df-99bc-4f91-b102-9b8b01f50ffc"},"vehicle_type_id":"4","last_reported":1778341206,"current_range_meters":4400,"station_id":"st_d6o2h0d0559c73evc1b0","pricing_plan_id":"cebpf4jnsgd1na2vs0mg"},{"bike_id":"ec8d4f16-fc2a-48b2-bf76-ef0b1522dddd","system_id":"levelo_inurba_marseille","lat":43.30291,"lon":5.39196,"is_reserved":false,"is_disabled":false,"rental_uris":{"android":"levelo://app?vid=ec8d4f16-fc2a-48b2-bf76-ef0b1522dddd","ios":"levelo://app?vid=ec8d4f16-fc2a-48b2-bf76-ef0b1522dddd"},"vehicle_type_id":"4","last_reported":1778341206,"current_range_meters":4400,"station_id":"ce4bgkh2rcd13ifvqbk0","pricing_plan_id":"cebpf4jnsgd1na2vs0mg"},{"bike_id":"91d78913-28b2-401d-850a-f1af99bf6768","system_id":"levelo_inurba_marseille","lat":43.28904,"lon":5.42531,"is_reserved":false,"is_disabled":false,"rental_uris":{"android":"levelo://app?vid=91d78913-28b2-401d-850a-f1af99bf6768","ios":"levelo://app?vid=91d78913-28b2-401d-850a-f1af99bf6768"},"vehicle_type_id":"4","last_reported":1778341206,"current_range_meters":4400,"station_id":"st_d3b462108ojc7389ooeg","pricing_plan_id":"cebpf4jnsgd1na2vs0mg"},{"bike_id":"24b5a925-1a2c-4127-b5b2-0ce039bca144","system_id":"levelo_inurba_marseille","lat":43.260294,"lon":5.375527,"is_reserved":false,"is_disabled":false,"rental_uris":{"android":"levelo://app?vid=24b5a925-1a2c-4127-b5b2-0ce039bca144","ios":"levelo://app?vid=24b5a925-1a2c-4127-b5b2-0ce039bca144"},"vehicle_type_id":"4","last_reported":1778341206,"current_range_meters":4400,"station_id":"ce4bhgh2rcd13ifvqfa0","pricing_plan_id":"cebpf4jnsgd1na2vs0mg"},{"bike_id":"09f03c71-3135-488b-aa1b-16f1834011a9","system_id":"levelo_inurba_marseille","lat":43.29198,"lon":5.35677,"is_reserved":false,"is_disabled":false,"rental_uris":{"android":"levelo://app?vid=09f03c71-3135-488b-aa1b-16f1834011a9","ios":"levelo://app?vid=09f03c71-3135-488b-aa1b-16f1834011a9"},"vehicle_type_id":"4","last_reported":1778341206,"current_range_meters":4400,"station_id":"","pricing_plan_id":"cebpf4jnsgd1na2vs0mg"},{"bike_id":"ce245d5d-1def-491b-904c-927a9f66a16b","system_id":"levelo_inurba_marseille","lat":43.2963,"lon":5.40594,"is_reserved":false,"is_disabled":false,"rental_uris":{"android":"levelo://app?vid=ce245d5d-1def-491b-904c-927a9f66a16b","ios":"levelo://app?vid=ce245d5d-1def-491b-904c-927a9f66a16b"},"vehicle_type_id":"4","last_reported":1778341206,"current_range_meters":4400,"station_id":"ce4bh0h2rcd13ifvqd60","pricing_plan_id":"cebpf4jnsgd1na2vs0mg"},{"bike_id":"1c873075-6a79-474c-9a44-b713f6392796","system_id":"levelo_inurba_marseille","lat":43.29854,"lon":5.36284,"is_reserved":false,"is_disabled":false,"rental_uris":{"android":"levelo://app?vid=1c873075-6a79-474c-9a44-b713f6392796","ios":"levelo://app?vid=1c873075-6a79-474c-9a44-b713f6392796"},"vehicle_type_id":"4","last_reported":1778341206,"current_range_meters":4400,"station_id":"ce4bgpp2rcd13ifvqc3g","pricing_plan_id":"cebpf4jnsgd1na2vs0mg"},{"bike_id":"3db695e1-f51b-411a-99be-2fd7676ec7b8","system_id":"levelo_inurba_marseille","lat":43.280385,"lon":5.369438,"is_reserved":false,"is_disabled":false,"rental_uris":{"android":"levelo://app?vid=3db695e1-f51b-411a-99be-2fd7676ec7b8","ios":"levelo://app?vid=3db695e1-f51b-411a-99be-2fd7676ec7b8"},"vehicle_type_id":"4","last_reported":1778341206,"current_range_meters":4400,"station_id":"ce4bha12rcd13ifvqef0","pricing_plan_id":"cebpf4jnsgd1na2vs0mg"},{"bike_id":"c451cd54-727a-4140-b5f2-6124a65a48f3","system_id":"levelo_inurba_marseille","lat":43.3028,"lon":5.3919,"is_reserved":false,"is_disabled":false,"rental_uris":{"android":"levelo://app?vid=c451cd54-727a-4140-b5f2-6124a65a48f3","ios":"levelo://app?vid=c451cd54-727a-4140-b5f2-6124a65a48f3"},"vehicle_type_id":"4","last_reported":1778341206,"current_range_meters":4400,"station_id":"ce4bgkh2rcd13ifvqbk0","pricing_plan_id":"cebpf4jnsgd1na2vs0mg"},{"bike_id":"55cd0d8b-8cd5-4e86-b521-e5ecac83d905","system_id":"levelo_inurba_marseille","lat":43.29312,"lon":5.37174,"is_reserved":false,"is_disabled":false,"rental_uris":{"android":"levelo://app?vid=55cd0d8b-8cd5-4e86-b521-e5ecac83d905","ios":"levelo://app?vid=55cd0d8b-8cd5-4e86-b521-e5ecac83d905"},"vehicle_type_id":"4","last_reported":1778341206,"current_range_meters":4400,"station_id":"ce4bgh92rcd13ifvqb40","pricing_plan_id":"cebpf4jnsgd1na2vs0mg"},{"bike_id":"4433c720-c05e-4419-9a19-b563c044039d","system_id":"levelo_inurba_marseille","lat":43.24655,"lon":5.38173,"is_reserved":false,"is_disabled":false,"rental_uris":{"android":"levelo://app?vid=4433c720-c05e-4419-9a19-b563c044039d","ios":"levelo://app?vid=4433c720-c05e-4419-9a19-b563c044039d"},"vehicle_type_id":"4","last_reported":1778341206,"current_range_meters":4800,"station_id":"ce4bhih2rcd13ifvqfr0","pricing_plan_id":"cebpf4jnsgd1na2vs0mg"},{"bike_id":"e9d60f90-dc72-46cb-ace4-ffb86be750b4","system_id":"levelo_inurba_marseille","lat":43.28703,"lon":5.37382,"is_reserved":false,"is_disabled":false,"rental_uris":{"android":"levelo://app?vid=e9d60f90-dc72-46cb-ace4-ffb86be750b4","ios":"levelo://app?vid=e9d60f90-dc72-46cb-ace4-ffb86be750b4"},"vehicle_type_id":"4","last_reported":1778341206,"current_range_meters":4800,"station_id":"ce4bh3p2rcd13ifvqdq0","pricing_plan_id":"cebpf4jnsgd1na2vs0mg"},{"bike_id":"751cdc66-8641-4875-a1dd-40c6831f96d1","system_id":"levelo_inurba_marseille","lat":43.26768,"lon":5.39428,"is_reserved":false,"is_disabled":false,"rental_uris":{"android":"levelo://app?vid=751cdc66-8641-4875-a1dd-40c6831f96d1","ios":"levelo://app?vid=751cdc66-8641-4875-a1dd-40c6831f96d1"},"vehicle_type_id":"4","last_reported":1778341206,"current_range_meters":4800,"station_id":"ce4bhh12rcd13ifvqfg0","pricing_plan_id":"cebpf4jnsgd1na2vs0mg"},{"bike_id":"fc08ab51-23db-437a-96da-8ab3f8b29865","system_id":"levelo_inurba_marseille","lat":43.29526,"lon":5.39409,"is_reserved":false,"is_disabled":false,"rental_uris":{"android":"levelo://app?vid=fc08ab51-23db-437a-96da-8ab3f8b29865","ios":"levelo://app?vid=fc08ab51-23db-437a-96da-8ab3f8b29865"},"vehicle_type_id":"4","last_reported":1778341206,"current_range_meters":4800,"station_id":"ce4bh292rcd13ifvqdf0","pricing_plan_id":"cebpf4jnsgd1na2vs0mg"},{"bike_id":"b6394b5d-f64a-43c1-84fa-8b1a03bf9077","system_id":"levelo_inurba_marseille","lat":43.299218,"lon":5.374702,"is_reserved":false,"is_disabled":false,"rental_uris":{"android":"levelo://app?vid=b6394b5d-f64a-43c1-84fa-8b1a03bf9077","ios":"levelo://app?vid=b6394b5d-f64a-43c1-84fa-8b1a03bf9077"},"vehicle_type_id":"4","last_reported":1778341206,"current_range_meters":4800,"station_id":"ce4bgjh2rcd13ifvqbg0","pricing_plan_id":"cebpf4jnsgd1na2vs0mg"},{"bike_id":"6c6b1ff7-30d1-4cea-a981-777aee23894a","system_id":"levelo_inurba_marseille","lat":43.28465,"lon":5.38556,"is_reserved":false,"is_disabled":false,"rental_uris":{"android":"levelo://app?vid=6c6b1ff7-30d1-4cea-a981-777aee23894a","ios":"levelo://app?vid=6c6b1ff7-30d1-4cea-a981-777aee23894a"},"vehicle_type_id":"4","last_reported":1778341206,"current_range_meters":4800,"station_id":"ce4bh8p2rcd13ifvqeb0","pricing_plan_id":"cebpf4jnsgd1na2vs0mg"},{"bike_id":"c1b768b5-78ad-4562-8b11-acf628f13106","system_id":"levelo_inurba_marseille","lat":43.27997,"lon":5.44188,"is_reserved":false,"is_disabled":false,"rental_uris":{"android":"levelo://app?vid=c1b768b5-78ad-4562-8b11-acf628f13106","ios":"levelo://app?vid=c1b768b5-78ad-4562-8b11-acf628f13106"},"vehicle_type_id":"4","last_reported":1778341206,"current_range_meters":4800,"station_id":"","pricing_plan_id":"cebpf4jnsgd1na2vs0mg"},{"bike_id":"25a15a93-07fe-47f2-862d-9e8d52ad3d4d","system_id":"levelo_inurba_marseille","lat":43.290631,"lon":5.371528,"is_reserved":false,"is_disabled":false,"rental_uris":{"android":"levelo://app?vid=25a15a93-07fe-47f2-862d-9e8d52ad3d4d","ios":"levelo://app?vid=25a15a93-07fe-47f2-862d-9e8d52ad3d4d"},"vehicle_type_id":"4","last_reported":1778341206,"current_range_meters":4800,"station_id":"ce4bh5p2rcd13ifvqe4g","pricing_plan_id":"cebpf4jnsgd1na2vs0mg"},{"bike_id":"e8461b56-9af7-4d44-a288-92e063783260","system_id":"levelo_inurba_marseille","lat":43.26233,"lon":5.4049,"is_reserved":false,"is_disabled":false,"rental_uris":{"android":"levelo://app?vid=e8461b56-9af7-4d44-a288-92e063783260","ios":"levelo://app?vid=e8461b56-9af7-4d44-a288-92e063783260"},"vehicle_type_id":"4","last_reported":1778341206,"current_range_meters":4800,"station_id":"ce4bhmh2rcd13ifvqgmg","pricing_plan_id":"cebpf4jnsgd1na2vs0mg"},{"bike_id":"7d1629b9-304f-4764-b672-32964335f850","system_id":"levelo_inurba_marseille","lat":43.304302,"lon":5.389029,"is_reserved":false,"is_disabled":false,"rental_uris":{"android":"levelo://app?vid=7d1629b9-304f-4764-b672-32964335f850","ios":"levelo://app?vid=7d1629b9-304f-4764-b672-32964335f850"},"vehicle_type_id":"4","last_reported":1778341206,"current_range_meters":4800,"station_id":"ce4bgk12rcd13ifvqbi0","pricing_plan_id":"cebpf4jnsgd1na2vs0mg"},{"bike_id":"eee51eae-5aaa-4a90-b6bb-0ee2250819e2","system_id":"levelo_inurba_marseille","lat":43.27902,"lon":5.38774,"is_reserved":false,"is_disabled":false,"rental_uris":{"android":"levelo://app?vid=eee51eae-5aaa-4a90-b6bb-0ee2250819e2","ios":"levelo://app?vid=eee51eae-5aaa-4a90-b6bb-0ee2250819e2"},"vehicle_type_id":"4","last_reported":1778341206,"current_range_meters":5600,"station_id":"","pricing_plan_id":"cebpf4jnsgd1na2vs0mg"},{"bike_id":"36bf5966-883a-4820-975e-e8801ce08727","system_id":"levelo_inurba_marseille","lat":43.29317,"lon":5.37143,"is_reserved":false,"is_disabled":false,"rental_uris":{"android":"levelo://app?vid=36bf5966-883a-4820-975e-e8801ce08727","ios":"levelo://app?vid=36bf5966-883a-4820-975e-e8801ce08727"},"vehicle_type_id":"4","last_reported":1778341206,"current_range_meters":5600,"station_id":"ce4bgh92rcd13ifvqb40","pricing_plan_id":"cebpf4jnsgd1na2vs0mg"},{"bike_id":"8127a179-0b6c-4390-978d-34e331e55652","system_id":"levelo_inurba_marseille","lat":43.317,"lon":5.40479,"is_reserved":false,"is_disabled":false,"rental_uris":{"android":"levelo://app?vid=8127a179-0b6c-4390-978d-34e331e55652","ios":"levelo://app?vid=8127a179-0b6c-4390-978d-34e331e55652"},"vehicle_type_id":"4","last_reported":1778341206,"current_range_meters":5600,"station_id":"ce4bh012rcd13ifvqd00","pricing_plan_id":"cebpf4jnsgd1na2vs0mg"},{"bike_id":"e9603e54-ff6b-4fae-9e9b-b17dd395cbe4","system_id":"levelo_inurba_marseille","lat":43.26349,"lon":5.39912,"is_reserved":false,"is_disabled":false,"rental_uris":{"android":"levelo://app?vid=e9603e54-ff6b-4fae-9e9b-b17dd395cbe4","ios":"levelo://app?vid=e9603e54-ff6b-4fae-9e9b-b17dd395cbe4"},"vehicle_type_id":"4","last_reported":1778341206,"current_range_meters":5600,"station_id":"","pricing_plan_id":"cebpf4jnsgd1na2vs0mg"},{"bike_id":"d6177cbc-df79-4783-b382-607985008f6d","system_id":"levelo_inurba_marseille","lat":43.29878,"lon":5.36325,"is_reserved":false,"is_disabled":false,"rental_uris":{"android":"levelo://app?vid=d6177cbc-df79-4783-b382-607985008f6d","ios":"levelo://app?vid=d6177cbc-df79-4783-b382-607985008f6d"},"vehicle_type_id":"4","last_reported":1778341206,"current_range_meters":5600,"station_id":"","pricing_plan_id":"cebpf4jnsgd1na2vs0mg"},{"bike_id":"234d937c-0a51-4b7b-a5da-54c58b1cfe2d","system_id":"levelo_inurba_marseille","lat":43.305487,"lon":5.367357,"is_reserved":false,"is_disabled":true,"rental_uris":{"android":"levelo://app?vid=234d937c-0a51-4b7b-a5da-54c58b1cfe2d","ios":"levelo://app?vid=234d937c-0a51-4b7b-a5da-54c58b1cfe2d"},"vehicle_type_id":"4","last_reported":1778341206,"current_range_meters":5600,"station_id":"ce4bgrp2rcd13ifvqc9g","pricing_plan_id":"cebpf4jnsgd1na2vs0mg"},{"bike_id":"275c316b-3a2f-4684-afc3-6d2ae8cc797f","system_id":"levelo_inurba_marseille","lat":43.29788,"lon":5.39349,"is_reserved":false,"is_disabled":false,"rental_uris":{"android":"levelo://app?vid=275c316b-3a2f-4684-afc3-6d2ae8cc797f","ios":"levelo://app?vid=275c316b-3a2f-4684-afc3-6d2ae8cc797f"},"vehicle_type_id":"4","last_reported":1778341206,"current_range_meters":5600,"station_id":"chh1huq6cuj3fo74tm60","pricing_plan_id":"cebpf4jnsgd1na2vs0mg"},{"bike_id":"cbae987d-4b84-417e-bd1f-38e21a9853b9","system_id":"levelo_inurba_marseille","lat":43.29249,"lon":5.38436,"is_reserved":false,"is_disabled":false,"rental_uris":{"android":"levelo://app?vid=cbae987d-4b84-417e-bd1f-38e21a9853b9","ios":"levelo://app?vid=cbae987d-4b84-417e-bd1f-38e21a9853b9"},"vehicle_type_id":"4","last_reported":1778341206,"current_range_meters":5600,"station_id":"ce4bh692rcd13ifvqea0","pricing_plan_id":"cebpf4jnsgd1na2vs0mg"},{"bike_id":"b8425fa1-a298-4679-ba8a-777546e14eca","system_id":"levelo_inurba_marseille","lat":43.33771,"lon":5.37462,"is_reserved":false,"is_disabled":false,"rental_uris":{"android":"levelo://app?vid=b8425fa1-a298-4679-ba8a-777546e14eca","ios":"levelo://app?vid=b8425fa1-a298-4679-ba8a-777546e14eca"},"vehicle_type_id":"4","last_reported":1778341206,"current_range_meters":5600,"station_id":"","pricing_plan_id":"cebpf4jnsgd1na2vs0mg"},{"bike_id":"7e1e64c8-5ca2-4676-bbe7-6f3e237634bc","system_id":"levelo_inurba_marseille","lat":43.2846,"lon":5.358779,"is_reserved":false,"is_disabled":false,"rental_uris":{"android":"levelo://app?vid=7e1e64c8-5ca2-4676-bbe7-6f3e237634bc","ios":"levelo://app?vid=7e1e64c8-5ca2-4676-bbe7-6f3e237634bc"},"vehicle_type_id":"4","last_reported":1778341206,"current_range_meters":5600,"station_id":"ce4bhah2rcd13ifvqei0","pricing_plan_id":"cebpf4jnsgd1na2vs0mg"},{"bike_id":"567c6efa-3311-4682-a1bd-69e8d8607b2e","system_id":"levelo_inurba_marseille","lat":43.2605,"lon":5.39404,"is_reserved":false,"is_disabled":false,"rental_uris":{"android":"levelo://app?vid=567c6efa-3311-4682-a1bd-69e8d8607b2e","ios":"levelo://app?vid=567c6efa-3311-4682-a1bd-69e8d8607b2e"},"vehicle_type_id":"4","last_reported":1778341206,"current_range_meters":5600,"station_id":"ce4bhh92rcd13ifvqfj0","pricing_plan_id":"cebpf4jnsgd1na2vs0mg"},{"bike_id":"07b32789-ba6e-4432-b9b9-82d38aee4c53","system_id":"levelo_inurba_marseille","lat":43.24167,"lon":5.36413,"is_reserved":false,"is_disabled":false,"rental_uris":{"android":"levelo://app?vid=07b32789-ba6e-4432-b9b9-82d38aee4c53","ios":"levelo://app?vid=07b32789-ba6e-4432-b9b9-82d38aee4c53"},"vehicle_type_id":"4","last_reported":1778341206,"current_range_meters":5600,"station_id":"cpo36qri1sfpv3e86is0","pricing_plan_id":"cebpf4jnsgd1na2vs0mg"},{"bike_id":"d11475dc-ca5e-4d7f-86f1-2f9e7c874d22","system_id":"levelo_inurba_marseille","lat":43.30282,"lon":5.39198,"is_reserved":false,"is_disabled":false,"rental_uris":{"android":"levelo://app?vid=d11475dc-ca5e-4d7f-86f1-2f9e7c874d22","ios":"levelo://app?vid=d11475dc-ca5e-4d7f-86f1-2f9e7c874d22"},"vehicle_type_id":"4","last_reported":1778341206,"current_range_meters":5600,"station_id":"ce4bgkh2rcd13ifvqbk0","pricing_plan_id":"cebpf4jnsgd1na2vs0mg"},{"bike_id":"d1516357-e3eb-4a56-b981-d04ca5e02344","system_id":"levelo_inurba_marseille","lat":43.25571,"lon":5.38237,"is_reserved":false,"is_disabled":false,"rental_uris":{"android":"levelo://app?vid=d1516357-e3eb-4a56-b981-d04ca5e02344","ios":"levelo://app?vid=d1516357-e3eb-4a56-b981-d04ca5e02344"},"vehicle_type_id":"4","last_reported":1778341206,"current_range_meters":5600,"station_id":"ce4bhih2rcd13ifvqfs0","pricing_plan_id":"cebpf4jnsgd1na2vs0mg"},{"bike_id":"89b462e8-5170-4a55-b7ad-89d88b00a8d6","system_id":"levelo_inurba_marseille","lat":43.22926,"lon":5.35369,"is_reserved":false,"is_disabled":false,"rental_uris":{"android":"levelo://app?vid=89b462e8-5170-4a55-b7ad-89d88b00a8d6","ios":"levelo://app?vid=89b462e8-5170-4a55-b7ad-89d88b00a8d6"},"vehicle_type_id":"4","last_reported":1778341206,"current_range_meters":5600,"station_id":"cpo3532slgdg3j2ikp40","pricing_plan_id":"cebpf4jnsgd1na2vs0mg"},{"bike_id":"22f91a44-46a9-43db-903e-c04b625cd419","system_id":"levelo_inurba_marseille","lat":43.29292,"lon":5.36846,"is_reserved":false,"is_disabled":false,"rental_uris":{"android":"levelo://app?vid=22f91a44-46a9-43db-903e-c04b625cd419","ios":"levelo://app?vid=22f91a44-46a9-43db-903e-c04b625cd419"},"vehicle_type_id":"4","last_reported":1778341206,"current_range_meters":6000,"station_id":"ce4bhbp2rcd13ifvqesg","pricing_plan_id":"cebpf4jnsgd1na2vs0mg"},{"bike_id":"798dd442-ecce-41be-b4b9-436ee7f8a467","system_id":"levelo_inurba_marseille","lat":43.272094,"lon":5.390291,"is_reserved":false,"is_disabled":false,"rental_uris":{"android":"levelo://app?vid=798dd442-ecce-41be-b4b9-436ee7f8a467","ios":"levelo://app?vid=798dd442-ecce-41be-b4b9-436ee7f8a467"},"vehicle_type_id":"4","last_reported":1778341206,"current_range_meters":6000,"station_id":"ce4bhhp2rcd13ifvqfm0","pricing_plan_id":"cebpf4jnsgd1na2vs0mg"},{"bike_id":"b222f5b8-45ca-4ee5-9aad-6ec646b3ece0","system_id":"levelo_inurba_marseille","lat":43.30141,"lon":5.38062,"is_reserved":false,"is_disabled":false,"rental_uris":{"android":"levelo://app?vid=b222f5b8-45ca-4ee5-9aad-6ec646b3ece0","ios":"levelo://app?vid=b222f5b8-45ca-4ee5-9aad-6ec646b3ece0"},"vehicle_type_id":"4","last_reported":1778341206,"current_range_meters":6000,"station_id":"ce4bgjp2rcd13ifvqbh0","pricing_plan_id":"cebpf4jnsgd1na2vs0mg"},{"bike_id":"8d433cd8-ede2-498a-84f5-0980fac50dc8","system_id":"levelo_inurba_marseille","lat":43.3041,"lon":5.42353,"is_reserved":false,"is_disabled":false,"rental_uris":{"android":"levelo://app?vid=8d433cd8-ede2-498a-84f5-0980fac50dc8","ios":"levelo://app?vid=8d433cd8-ede2-498a-84f5-0980fac50dc8"},"vehicle_type_id":"4","last_reported":1778341206,"current_range_meters":6000,"station_id":"","pricing_plan_id":"cebpf4jnsgd1na2vs0mg"},{"bike_id":"012436db-213f-4ce3-a46b-2b318f2b65c1","system_id":"levelo_inurba_marseille","lat":43.29558,"lon":5.3752,"is_reserved":false,"is_disabled":true,"rental_uris":{"android":"levelo://app?vid=012436db-213f-4ce3-a46b-2b318f2b65c1","ios":"levelo://app?vid=012436db-213f-4ce3-a46b-2b318f2b65c1"},"vehicle_type_id":"4","last_reported":1778341206,"current_range_meters":6000,"station_id":"ce4bgh92rcd13ifvqb50","pricing_plan_id":"cebpf4jnsgd1na2vs0mg"},{"bike_id":"553a1970-aa99-4661-9794-0cf58298a311","system_id":"levelo_inurba_marseille","lat":43.29283,"lon":5.4014,"is_reserved":false,"is_disabled":false,"rental_uris":{"android":"levelo://app?vid=553a1970-aa99-4661-9794-0cf58298a311","ios":"levelo://app?vid=553a1970-aa99-4661-9794-0cf58298a311"},"vehicle_type_id":"4","last_reported":1778341206,"current_range_meters":6000,"station_id":"ce4bh312rcd13ifvqdk0","pricing_plan_id":"cebpf4jnsgd1na2vs0mg"},{"bike_id":"07829fdc-c599-44a2-8a5d-d38b8b9f7bb8","system_id":"levelo_inurba_marseille","lat":43.30367,"lon":5.42486,"is_reserved":false,"is_disabled":true,"rental_uris":{"android":"levelo://app?vid=07829fdc-c599-44a2-8a5d-d38b8b9f7bb8","ios":"levelo://app?vid=07829fdc-c599-44a2-8a5d-d38b8b9f7bb8"},"vehicle_type_id":"4","last_reported":1778341206,"current_range_meters":6000,"station_id":"ce4bhoh2rcd13ifvqh6g","pricing_plan_id":"cebpf4jnsgd1na2vs0mg"},{"bike_id":"188d6fef-272d-4c86-a825-e812ca9d7f0b","system_id":"levelo_inurba_marseille","lat":43.28484,"lon":5.38426,"is_reserved":false,"is_disabled":false,"rental_uris":{"android":"levelo://app?vid=188d6fef-272d-4c86-a825-e812ca9d7f0b","ios":"levelo://app?vid=188d6fef-272d-4c86-a825-e812ca9d7f0b"},"vehicle_type_id":"4","last_reported":1778341206,"current_range_meters":6000,"station_id":"ce4bh512rcd13ifvqe3g","pricing_plan_id":"cebpf4jnsgd1na2vs0mg"},{"bike_id":"83c1dfcc-adce-4355-b2f2-7f132f52fd1c","system_id":"levelo_inurba_marseille","lat":43.30143,"lon":5.38088,"is_reserved":false,"is_disabled":false,"rental_uris":{"android":"levelo://app?vid=83c1dfcc-adce-4355-b2f2-7f132f52fd1c","ios":"levelo://app?vid=83c1dfcc-adce-4355-b2f2-7f132f52fd1c"},"vehicle_type_id":"4","last_reported":1778341206,"current_range_meters":6000,"station_id":"ce4bgjp2rcd13ifvqbh0","pricing_plan_id":"cebpf4jnsgd1na2vs0mg"},{"bike_id":"5a436f11-afe4-43ad-a9a1-056bd0578be1","system_id":"levelo_inurba_marseille","lat":43.27988,"lon":5.3879,"is_reserved":false,"is_disabled":true,"rental_uris":{"android":"levelo://app?vid=5a436f11-afe4-43ad-a9a1-056bd0578be1","ios":"levelo://app?vid=5a436f11-afe4-43ad-a9a1-056bd0578be1"},"vehicle_type_id":"4","last_reported":1778341206,"current_range_meters":6000,"station_id":"ce4bhg12rcd13ifvqf80","pricing_plan_id":"cebpf4jnsgd1na2vs0mg"},{"bike_id":"2f4c045c-d342-4786-b6b9-3b80abe91c45","system_id":"levelo_inurba_marseille","lat":43.30157,"lon":5.37414,"is_reserved":false,"is_disabled":false,"rental_uris":{"android":"levelo://app?vid=2f4c045c-d342-4786-b6b9-3b80abe91c45","ios":"levelo://app?vid=2f4c045c-d342-4786-b6b9-3b80abe91c45"},"vehicle_type_id":"4","last_reported":1778341206,"current_range_meters":6000,"station_id":"ce4bgs92rcd13ifvqcc0","pricing_plan_id":"cebpf4jnsgd1na2vs0mg"},{"bike_id":"496d9d23-0758-4b07-831b-1c112b733a7b","system_id":"levelo_inurba_marseille","lat":43.27909,"lon":5.37985,"is_reserved":false,"is_disabled":false,"rental_uris":{"android":"levelo://app?vid=496d9d23-0758-4b07-831b-1c112b733a7b","ios":"levelo://app?vid=496d9d23-0758-4b07-831b-1c112b733a7b"},"vehicle_type_id":"4","last_reported":1778341206,"current_range_meters":6000,"station_id":"ce4bhf92rcd13ifvqf50","pricing_plan_id":"cebpf4jnsgd1na2vs0mg"},{"bike_id":"ef4c0d2f-d37c-409b-be4c-7cceaa4aabfa","system_id":"levelo_inurba_marseille","lat":43.28475,"lon":5.48395,"is_reserved":false,"is_disabled":false,"rental_uris":{"android":"levelo://app?vid=ef4c0d2f-d37c-409b-be4c-7cceaa4aabfa","ios":"levelo://app?vid=ef4c0d2f-d37c-409b-be4c-7cceaa4aabfa"},"vehicle_type_id":"4","last_reported":1778341206,"current_range_meters":6400,"station_id":"st_d3svhcjqgbts73a3dn0g","pricing_plan_id":"cebpf4jnsgd1na2vs0mg"},{"bike_id":"8fdbe986-716a-4dce-a50d-3af695e9688c","system_id":"levelo_inurba_marseille","lat":43.33544,"lon":5.37467,"is_reserved":false,"is_disabled":false,"rental_uris":{"android":"levelo://app?vid=8fdbe986-716a-4dce-a50d-3af695e9688c","ios":"levelo://app?vid=8fdbe986-716a-4dce-a50d-3af695e9688c"},"vehicle_type_id":"4","last_reported":1778341206,"current_range_meters":6400,"station_id":"st_d46tts09ee8s73dlu43g","pricing_plan_id":"cebpf4jnsgd1na2vs0mg"},{"bike_id":"240f83cd-e330-45fb-9f58-4a13270cfff0","system_id":"levelo_inurba_marseille","lat":43.28154,"lon":5.42689,"is_reserved":false,"is_disabled":false,"rental_uris":{"android":"levelo://app?vid=240f83cd-e330-45fb-9f58-4a13270cfff0","ios":"levelo://app?vid=240f83cd-e330-45fb-9f58-4a13270cfff0"},"vehicle_type_id":"4","last_reported":1778341206,"current_range_meters":6400,"station_id":"ce4bhnh2rcd13ifvqgug","pricing_plan_id":"cebpf4jnsgd1na2vs0mg"},{"bike_id":"a38822ca-78f7-4117-b607-2ed8f9afbff5","system_id":"levelo_inurba_marseille","lat":43.23962,"lon":5.36637,"is_reserved":false,"is_disabled":false,"rental_uris":{"android":"levelo://app?vid=a38822ca-78f7-4117-b607-2ed8f9afbff5","ios":"levelo://app?vid=a38822ca-78f7-4117-b607-2ed8f9afbff5"},"vehicle_type_id":"4","last_reported":1778341206,"current_range_meters":6400,"station_id":"ce4bhi12rcd13ifvqfp0","pricing_plan_id":"cebpf4jnsgd1na2vs0mg"},{"bike_id":"7f4f8a10-37c9-4ccf-81ed-5986485c8756","system_id":"levelo_inurba_marseille","lat":43.2742,"lon":5.39409,"is_reserved":false,"is_disabled":false,"rental_uris":{"android":"levelo://app?vid=7f4f8a10-37c9-4ccf-81ed-5986485c8756","ios":"levelo://app?vid=7f4f8a10-37c9-4ccf-81ed-5986485c8756"},"vehicle_type_id":"4","last_reported":1778341206,"current_range_meters":6400,"station_id":"ce4bhdp2rcd13ifvqf20","pricing_plan_id":"cebpf4jnsgd1na2vs0mg"},{"bike_id":"fcda3ba2-1105-4ec7-8553-1c32dd2d622d","system_id":"levelo_inurba_marseille","lat":43.26025,"lon":5.3753,"is_reserved":false,"is_disabled":false,"rental_uris":{"android":"levelo://app?vid=fcda3ba2-1105-4ec7-8553-1c32dd2d622d","ios":"levelo://app?vid=fcda3ba2-1105-4ec7-8553-1c32dd2d622d"},"vehicle_type_id":"4","last_reported":1778341206,"current_range_meters":6400,"station_id":"ce4bhgh2rcd13ifvqfa0","pricing_plan_id":"cebpf4jnsgd1na2vs0mg"},{"bike_id":"e744fd51-d53a-4993-92a1-3a6752e7a33c","system_id":"levelo_inurba_marseille","lat":43.32105,"lon":5.36768,"is_reserved":false,"is_disabled":false,"rental_uris":{"android":"levelo://app?vid=e744fd51-d53a-4993-92a1-3a6752e7a33c","ios":"levelo://app?vid=e744fd51-d53a-4993-92a1-3a6752e7a33c"},"vehicle_type_id":"4","last_reported":1778341206,"current_range_meters":6400,"station_id":"ce4bhrh2rcd13ifvqhug","pricing_plan_id":"cebpf4jnsgd1na2vs0mg"},{"bike_id":"e5d8aefe-0188-4bcb-9807-ff589f814d69","system_id":"levelo_inurba_marseille","lat":43.30145,"lon":5.38778,"is_reserved":false,"is_disabled":false,"rental_uris":{"android":"levelo://app?vid=e5d8aefe-0188-4bcb-9807-ff589f814d69","ios":"levelo://app?vid=e5d8aefe-0188-4bcb-9807-ff589f814d69"},"vehicle_type_id":"4","last_reported":1778341206,"current_range_meters":6400,"station_id":"ce4bghh2rcd13ifvqb60","pricing_plan_id":"cebpf4jnsgd1na2vs0mg"},{"bike_id":"10c1c852-27c1-4a93-8a9e-687fcc741284","system_id":"levelo_inurba_marseille","lat":43.29842,"lon":5.36274,"is_reserved":false,"is_disabled":false,"rental_uris":{"android":"levelo://app?vid=10c1c852-27c1-4a93-8a9e-687fcc741284","ios":"levelo://app?vid=10c1c852-27c1-4a93-8a9e-687fcc741284"},"vehicle_type_id":"4","last_reported":1778341206,"current_range_meters":6400,"station_id":"ce4bgpp2rcd13ifvqc3g","pricing_plan_id":"cebpf4jnsgd1na2vs0mg"},{"bike_id":"2d2369a8-bab5-44d1-8a8e-9fa6d2083558","system_id":"levelo_inurba_marseille","lat":43.27624,"lon":5.36125,"is_reserved":false,"is_disabled":false,"rental_uris":{"android":"levelo://app?vid=2d2369a8-bab5-44d1-8a8e-9fa6d2083558","ios":"levelo://app?vid=2d2369a8-bab5-44d1-8a8e-9fa6d2083558"},"vehicle_type_id":"4","last_reported":1778341206,"current_range_meters":6400,"station_id":"ce4bgj92rcd13ifvqbe0","pricing_plan_id":"cebpf4jnsgd1na2vs0mg"},{"bike_id":"9162e04c-717e-44f2-9668-e3601f11ef96","system_id":"levelo_inurba_marseille","lat":43.29782,"lon":5.38075,"is_reserved":false,"is_disabled":false,"rental_uris":{"android":"levelo://app?vid=9162e04c-717e-44f2-9668-e3601f11ef96","ios":"levelo://app?vid=9162e04c-717e-44f2-9668-e3601f11ef96"},"vehicle_type_id":"4","last_reported":1778341206,"current_range_meters":6400,"station_id":"ce4bgip2rcd13ifvqbb0","pricing_plan_id":"cebpf4jnsgd1na2vs0mg"},{"bike_id":"73f926ad-3599-40af-bf51-8dff7c7a4527","system_id":"levelo_inurba_marseille","lat":43.2897,"lon":5.37828,"is_reserved":false,"is_disabled":false,"rental_uris":{"android":"levelo://app?vid=73f926ad-3599-40af-bf51-8dff7c7a4527","ios":"levelo://app?vid=73f926ad-3599-40af-bf51-8dff7c7a4527"},"vehicle_type_id":"4","last_reported":1778341206,"current_range_meters":6400,"station_id":"ce4bh9p2rcd13ifvqed0","pricing_plan_id":"cebpf4jnsgd1na2vs0mg"},{"bike_id":"c440543a-fc70-44c0-b21f-aa93407f1be5","system_id":"levelo_inurba_marseille","lat":43.3416,"lon":5.40943,"is_reserved":false,"is_disabled":true,"rental_uris":{"android":"levelo://app?vid=c440543a-fc70-44c0-b21f-aa93407f1be5","ios":"levelo://app?vid=c440543a-fc70-44c0-b21f-aa93407f1be5"},"vehicle_type_id":"4","last_reported":1778341206,"current_range_meters":6400,"station_id":"ce4bhqh2rcd13ifvqhlg","pricing_plan_id":"cebpf4jnsgd1na2vs0mg"},{"bike_id":"2255df17-c07e-4a3a-8cc8-6e42fc055da7","system_id":"levelo_inurba_marseille","lat":43.25567,"lon":5.38214,"is_reserved":false,"is_disabled":false,"rental_uris":{"android":"levelo://app?vid=2255df17-c07e-4a3a-8cc8-6e42fc055da7","ios":"levelo://app?vid=2255df17-c07e-4a3a-8cc8-6e42fc055da7"},"vehicle_type_id":"4","last_reported":1778341206,"current_range_meters":6400,"station_id":"ce4bhih2rcd13ifvqfs0","pricing_plan_id":"cebpf4jnsgd1na2vs0mg"},{"bike_id":"14a278e5-2265-4abb-8d43-f12d55bfa642","system_id":"levelo_inurba_marseille","lat":43.29847,"lon":5.36273,"is_reserved":false,"is_disabled":false,"rental_uris":{"android":"levelo://app?vid=14a278e5-2265-4abb-8d43-f12d55bfa642","ios":"levelo://app?vid=14a278e5-2265-4abb-8d43-f12d55bfa642"},"vehicle_type_id":"4","last_reported":1778341206,"current_range_meters":6400,"station_id":"ce4bgpp2rcd13ifvqc3g","pricing_plan_id":"cebpf4jnsgd1na2vs0mg"},{"bike_id":"43826f89-5c97-4e1b-bc05-2bb8ca529c36","system_id":"levelo_inurba_marseille","lat":43.29834,"lon":5.36264,"is_reserved":false,"is_disabled":false,"rental_uris":{"android":"levelo://app?vid=43826f89-5c97-4e1b-bc05-2bb8ca529c36","ios":"levelo://app?vid=43826f89-5c97-4e1b-bc05-2bb8ca529c36"},"vehicle_type_id":"4","last_reported":1778341206,"current_range_meters":6400,"station_id":"ce4bgpp2rcd13ifvqc3g","pricing_plan_id":"cebpf4jnsgd1na2vs0mg"},{"bike_id":"b04be0b9-e1f1-4b3a-a624-da85cca3a01a","system_id":"levelo_inurba_marseille","lat":43.24657,"lon":5.38162,"is_reserved":false,"is_disabled":false,"rental_uris":{"android":"levelo://app?vid=b04be0b9-e1f1-4b3a-a624-da85cca3a01a","ios":"levelo://app?vid=b04be0b9-e1f1-4b3a-a624-da85cca3a01a"},"vehicle_type_id":"4","last_reported":1778341206,"current_range_meters":6400,"station_id":"ce4bhih2rcd13ifvqfr0","pricing_plan_id":"cebpf4jnsgd1na2vs0mg"},{"bike_id":"c7a34e43-9a09-4df8-bc8e-1c09874f6b38","system_id":"levelo_inurba_marseille","lat":43.2953,"lon":5.38538,"is_reserved":false,"is_disabled":false,"rental_uris":{"android":"levelo://app?vid=c7a34e43-9a09-4df8-bc8e-1c09874f6b38","ios":"levelo://app?vid=c7a34e43-9a09-4df8-bc8e-1c09874f6b38"},"vehicle_type_id":"4","last_reported":1778341206,"current_range_meters":6400,"station_id":"ce4bgih2rcd13ifvqba0","pricing_plan_id":"cebpf4jnsgd1na2vs0mg"},{"bike_id":"7e1afdc9-01cb-41f5-a90a-4115f5c0fabe","system_id":"levelo_inurba_marseille","lat":43.2919,"lon":5.35792,"is_reserved":false,"is_disabled":false,"rental_uris":{"android":"levelo://app?vid=7e1afdc9-01cb-41f5-a90a-4115f5c0fabe","ios":"levelo://app?vid=7e1afdc9-01cb-41f5-a90a-4115f5c0fabe"},"vehicle_type_id":"4","last_reported":1778341206,"current_range_meters":6400,"station_id":"ce4bhb12rcd13ifvqel0","pricing_plan_id":"cebpf4jnsgd1na2vs0mg"},{"bike_id":"3c2e9b1f-548a-470c-9669-f7ccba7bde0b","system_id":"levelo_inurba_marseille","lat":43.2417,"lon":5.39723,"is_reserved":false,"is_disabled":false,"rental_uris":{"android":"levelo://app?vid=3c2e9b1f-548a-470c-9669-f7ccba7bde0b","ios":"levelo://app?vid=3c2e9b1f-548a-470c-9669-f7ccba7bde0b"},"vehicle_type_id":"4","last_reported":1778341206,"current_range_meters":6800,"station_id":"ce4bhn12rcd13ifvqgpg","pricing_plan_id":"cebpf4jnsgd1na2vs0mg"},{"bike_id":"0905bf26-d1df-4967-bcf7-a2c7f347956a","system_id":"levelo_inurba_marseille","lat":43.28932,"lon":5.39627,"is_reserved":false,"is_disabled":true,"rental_uris":{"android":"levelo://app?vid=0905bf26-d1df-4967-bcf7-a2c7f347956a","ios":"levelo://app?vid=0905bf26-d1df-4967-bcf7-a2c7f347956a"},"vehicle_type_id":"4","last_reported":1778341206,"current_range_meters":6800,"station_id":"ce4bh3h2rcd13ifvqdn0","pricing_plan_id":"cebpf4jnsgd1na2vs0mg"},{"bike_id":"39ea2a97-6f0a-4f1f-bdcd-2ad9c9c1d02d","system_id":"levelo_inurba_marseille","lat":43.29267,"lon":5.36841,"is_reserved":false,"is_disabled":false,"rental_uris":{"android":"levelo://app?vid=39ea2a97-6f0a-4f1f-bdcd-2ad9c9c1d02d","ios":"levelo://app?vid=39ea2a97-6f0a-4f1f-bdcd-2ad9c9c1d02d"},"vehicle_type_id":"4","last_reported":1778341206,"current_range_meters":6800,"station_id":"ce4bhbp2rcd13ifvqesg","pricing_plan_id":"cebpf4jnsgd1na2vs0mg"},{"bike_id":"a489a2d3-b8d0-4d49-bb0c-b595e1d2765f","system_id":"levelo_inurba_marseille","lat":43.31303,"lon":5.40336,"is_reserved":false,"is_disabled":false,"rental_uris":{"android":"levelo://app?vid=a489a2d3-b8d0-4d49-bb0c-b595e1d2765f","ios":"levelo://app?vid=a489a2d3-b8d0-4d49-bb0c-b595e1d2765f"},"vehicle_type_id":"4","last_reported":1778341206,"current_range_meters":6800,"station_id":"","pricing_plan_id":"cebpf4jnsgd1na2vs0mg"},{"bike_id":"558ecc7a-7ed0-4d4d-8eaf-a0bf6d6ce907","system_id":"levelo_inurba_marseille","lat":43.28214,"lon":5.40546,"is_reserved":false,"is_disabled":false,"rental_uris":{"android":"levelo://app?vid=558ecc7a-7ed0-4d4d-8eaf-a0bf6d6ce907","ios":"levelo://app?vid=558ecc7a-7ed0-4d4d-8eaf-a0bf6d6ce907"},"vehicle_type_id":"4","last_reported":1778341206,"current_range_meters":6800,"station_id":"","pricing_plan_id":"cebpf4jnsgd1na2vs0mg"},{"bike_id":"407e9612-ad93-4d7c-a713-0ff1764d5034","system_id":"levelo_inurba_marseille","lat":43.3133,"lon":5.41476,"is_reserved":false,"is_disabled":false,"rental_uris":{"android":"levelo://app?vid=407e9612-ad93-4d7c-a713-0ff1764d5034","ios":"levelo://app?vid=407e9612-ad93-4d7c-a713-0ff1764d5034"},"vehicle_type_id":"4","last_reported":1778341206,"current_range_meters":6800,"station_id":"","pricing_plan_id":"cebpf4jnsgd1na2vs0mg"},{"bike_id":"f377eed6-8aca-40c3-93ca-6773bbbe1770","system_id":"levelo_inurba_marseille","lat":43.25016,"lon":5.38926,"is_reserved":false,"is_disabled":false,"rental_uris":{"android":"levelo://app?vid=f377eed6-8aca-40c3-93ca-6773bbbe1770","ios":"levelo://app?vid=f377eed6-8aca-40c3-93ca-6773bbbe1770"},"vehicle_type_id":"4","last_reported":1778341206,"current_range_meters":6800,"station_id":"ce4bhgp2rcd13ifvqfd0","pricing_plan_id":"cebpf4jnsgd1na2vs0mg"},{"bike_id":"3ec719e0-4022-467e-a900-d9702ddc4b8c","system_id":"levelo_inurba_marseille","lat":43.26231,"lon":5.40452,"is_reserved":false,"is_disabled":false,"rental_uris":{"android":"levelo://app?vid=3ec719e0-4022-467e-a900-d9702ddc4b8c","ios":"levelo://app?vid=3ec719e0-4022-467e-a900-d9702ddc4b8c"},"vehicle_type_id":"4","last_reported":1778341206,"current_range_meters":6800,"station_id":"ce4bhmh2rcd13ifvqgmg","pricing_plan_id":"cebpf4jnsgd1na2vs0mg"},{"bike_id":"a30008ae-a2df-4129-8ea6-0f377536b8ba","system_id":"levelo_inurba_marseille","lat":43.32114,"lon":5.36805,"is_reserved":false,"is_disabled":false,"rental_uris":{"android":"levelo://app?vid=a30008ae-a2df-4129-8ea6-0f377536b8ba","ios":"levelo://app?vid=a30008ae-a2df-4129-8ea6-0f377536b8ba"},"vehicle_type_id":"4","last_reported":1778341206,"current_range_meters":6800,"station_id":"ce4bhrh2rcd13ifvqhug","pricing_plan_id":"cebpf4jnsgd1na2vs0mg"},{"bike_id":"a5d7e7d0-32fe-450c-8f54-cac972db64e4","system_id":"levelo_inurba_marseille","lat":43.26027,"lon":5.37552,"is_reserved":false,"is_disabled":false,"rental_uris":{"android":"levelo://app?vid=a5d7e7d0-32fe-450c-8f54-cac972db64e4","ios":"levelo://app?vid=a5d7e7d0-32fe-450c-8f54-cac972db64e4"},"vehicle_type_id":"4","last_reported":1778341206,"current_range_meters":6800,"station_id":"ce4bhgh2rcd13ifvqfa0","pricing_plan_id":"cebpf4jnsgd1na2vs0mg"},{"bike_id":"5dda00a1-f787-488a-aa64-058079c40c64","system_id":"levelo_inurba_marseille","lat":43.26965,"lon":5.3933,"is_reserved":false,"is_disabled":false,"rental_uris":{"android":"levelo://app?vid=5dda00a1-f787-488a-aa64-058079c40c64","ios":"levelo://app?vid=5dda00a1-f787-488a-aa64-058079c40c64"},"vehicle_type_id":"4","last_reported":1778341206,"current_range_meters":6800,"station_id":"","pricing_plan_id":"cebpf4jnsgd1na2vs0mg"},{"bike_id":"b1eefa37-96ae-4f95-a344-438091e1d04d","system_id":"levelo_inurba_marseille","lat":43.31042,"lon":5.39382,"is_reserved":false,"is_disabled":false,"rental_uris":{"android":"levelo://app?vid=b1eefa37-96ae-4f95-a344-438091e1d04d","ios":"levelo://app?vid=b1eefa37-96ae-4f95-a344-438091e1d04d"},"vehicle_type_id":"4","last_reported":1778341206,"current_range_meters":6800,"station_id":"","pricing_plan_id":"cebpf4jnsgd1na2vs0mg"},{"bike_id":"024c6892-203c-4eeb-b7a9-cce2defb82a6","system_id":"levelo_inurba_marseille","lat":43.27036,"lon":5.383,"is_reserved":false,"is_disabled":false,"rental_uris":{"android":"levelo://app?vid=024c6892-203c-4eeb-b7a9-cce2defb82a6","ios":"levelo://app?vid=024c6892-203c-4eeb-b7a9-cce2defb82a6"},"vehicle_type_id":"4","last_reported":1778341206,"current_range_meters":6800,"station_id":"st_d3n2fo6cfp8s73cte1j0","pricing_plan_id":"cebpf4jnsgd1na2vs0mg"},{"bike_id":"296921d4-d837-47f5-8f08-d0f78154b13e","system_id":"levelo_inurba_marseille","lat":43.29821,"lon":5.38141,"is_reserved":false,"is_disabled":false,"rental_uris":{"android":"levelo://app?vid=296921d4-d837-47f5-8f08-d0f78154b13e","ios":"levelo://app?vid=296921d4-d837-47f5-8f08-d0f78154b13e"},"vehicle_type_id":"4","last_reported":1778341206,"current_range_meters":6800,"station_id":"ce4bgip2rcd13ifvqbb0","pricing_plan_id":"cebpf4jnsgd1na2vs0mg"},{"bike_id":"2fc8250f-3bf2-4aab-b7ce-b929a6d03d91","system_id":"levelo_inurba_marseille","lat":43.28854,"lon":5.39328,"is_reserved":false,"is_disabled":false,"rental_uris":{"android":"levelo://app?vid=2fc8250f-3bf2-4aab-b7ce-b929a6d03d91","ios":"levelo://app?vid=2fc8250f-3bf2-4aab-b7ce-b929a6d03d91"},"vehicle_type_id":"4","last_reported":1778341206,"current_range_meters":6800,"station_id":"ce4bh2p2rcd13ifvqdi0","pricing_plan_id":"cebpf4jnsgd1na2vs0mg"},{"bike_id":"1639ea29-cd25-4831-966c-3ff5dbaa96e9","system_id":"levelo_inurba_marseille","lat":43.29635,"lon":5.37178,"is_reserved":false,"is_disabled":true,"rental_uris":{"android":"levelo://app?vid=1639ea29-cd25-4831-966c-3ff5dbaa96e9","ios":"levelo://app?vid=1639ea29-cd25-4831-966c-3ff5dbaa96e9"},"vehicle_type_id":"4","last_reported":1778341206,"current_range_meters":6800,"station_id":"ce4bgnh2rcd13ifvqc0g","pricing_plan_id":"cebpf4jnsgd1na2vs0mg"},{"bike_id":"0259c7f9-4a67-468b-967d-555f1f780b18","system_id":"levelo_inurba_marseille","lat":43.2466,"lon":5.38159,"is_reserved":false,"is_disabled":false,"rental_uris":{"android":"levelo://app?vid=0259c7f9-4a67-468b-967d-555f1f780b18","ios":"levelo://app?vid=0259c7f9-4a67-468b-967d-555f1f780b18"},"vehicle_type_id":"4","last_reported":1778341206,"current_range_meters":6800,"station_id":"ce4bhih2rcd13ifvqfr0","pricing_plan_id":"cebpf4jnsgd1na2vs0mg"},{"bike_id":"6de95d4b-0d5e-4f11-8955-523041e8216e","system_id":"levelo_inurba_marseille","lat":43.24794,"lon":5.37463,"is_reserved":false,"is_disabled":false,"rental_uris":{"android":"levelo://app?vid=6de95d4b-0d5e-4f11-8955-523041e8216e","ios":"levelo://app?vid=6de95d4b-0d5e-4f11-8955-523041e8216e"},"vehicle_type_id":"4","last_reported":1778341206,"current_range_meters":6800,"station_id":"ce4bhgh2rcd13ifvqfb0","pricing_plan_id":"cebpf4jnsgd1na2vs0mg"},{"bike_id":"6dfe43ac-6131-42a7-8c3d-86b7cfec6e79","system_id":"levelo_inurba_marseille","lat":43.29048,"lon":5.37308,"is_reserved":false,"is_disabled":false,"rental_uris":{"android":"levelo://app?vid=6dfe43ac-6131-42a7-8c3d-86b7cfec6e79","ios":"levelo://app?vid=6dfe43ac-6131-42a7-8c3d-86b7cfec6e79"},"vehicle_type_id":"4","last_reported":1778341206,"current_range_meters":6800,"station_id":"","pricing_plan_id":"cebpf4jnsgd1na2vs0mg"},{"bike_id":"80ce62aa-95db-4134-a27f-af6f321881d8","system_id":"levelo_inurba_marseille","lat":43.3303,"lon":5.39033,"is_reserved":false,"is_disabled":false,"rental_uris":{"android":"levelo://app?vid=80ce62aa-95db-4134-a27f-af6f321881d8","ios":"levelo://app?vid=80ce62aa-95db-4134-a27f-af6f321881d8"},"vehicle_type_id":"4","last_reported":1778341206,"current_range_meters":6800,"station_id":"ce4bhr92rcd13ifvqhrg","pricing_plan_id":"cebpf4jnsgd1na2vs0mg"},{"bike_id":"0152740e-06db-4ade-88eb-e3632fbb8a1f","system_id":"levelo_inurba_marseille","lat":43.28281,"lon":5.35081,"is_reserved":false,"is_disabled":true,"rental_uris":{"android":"levelo://app?vid=0152740e-06db-4ade-88eb-e3632fbb8a1f","ios":"levelo://app?vid=0152740e-06db-4ade-88eb-e3632fbb8a1f"},"vehicle_type_id":"4","last_reported":1778341206,"current_range_meters":6800,"station_id":"ce4bhbp2rcd13ifvqerg","pricing_plan_id":"cebpf4jnsgd1na2vs0mg"},{"bike_id":"29364f71-eea2-4b09-a99e-225ba13542b1","system_id":"levelo_inurba_marseille","lat":43.30782,"lon":5.37633,"is_reserved":false,"is_disabled":false,"rental_uris":{"android":"levelo://app?vid=29364f71-eea2-4b09-a99e-225ba13542b1","ios":"levelo://app?vid=29364f71-eea2-4b09-a99e-225ba13542b1"},"vehicle_type_id":"4","last_reported":1778341206,"current_range_meters":6800,"station_id":"ce4bgv92rcd13ifvqcq0","pricing_plan_id":"cebpf4jnsgd1na2vs0mg"},{"bike_id":"627ea465-4e71-4046-a508-023e31352421","system_id":"levelo_inurba_marseille","lat":43.25052,"lon":5.40499,"is_reserved":false,"is_disabled":false,"rental_uris":{"android":"levelo://app?vid=627ea465-4e71-4046-a508-023e31352421","ios":"levelo://app?vid=627ea465-4e71-4046-a508-023e31352421"},"vehicle_type_id":"4","last_reported":1778341206,"current_range_meters":6800,"station_id":"","pricing_plan_id":"cebpf4jnsgd1na2vs0mg"},{"bike_id":"e7cc9926-a55a-4bc5-8821-32482aa87fde","system_id":"levelo_inurba_marseille","lat":43.29842,"lon":5.36276,"is_reserved":false,"is_disabled":false,"rental_uris":{"android":"levelo://app?vid=e7cc9926-a55a-4bc5-8821-32482aa87fde","ios":"levelo://app?vid=e7cc9926-a55a-4bc5-8821-32482aa87fde"},"vehicle_type_id":"4","last_reported":1778341206,"current_range_meters":6800,"station_id":"ce4bgpp2rcd13ifvqc3g","pricing_plan_id":"cebpf4jnsgd1na2vs0mg"},{"bike_id":"f66d24f2-bc98-4d48-b2ac-6f874acf2979","system_id":"levelo_inurba_marseille","lat":43.28073,"lon":5.38201,"is_reserved":false,"is_disabled":false,"rental_uris":{"android":"levelo://app?vid=f66d24f2-bc98-4d48-b2ac-6f874acf2979","ios":"levelo://app?vid=f66d24f2-bc98-4d48-b2ac-6f874acf2979"},"vehicle_type_id":"4","last_reported":1778341206,"current_range_meters":6800,"station_id":"","pricing_plan_id":"cebpf4jnsgd1na2vs0mg"},{"bike_id":"06d8034e-1e75-4c9d-964c-cc79f00144d3","system_id":"levelo_inurba_marseille","lat":43.28715,"lon":5.36094,"is_reserved":false,"is_disabled":false,"rental_uris":{"android":"levelo://app?vid=06d8034e-1e75-4c9d-964c-cc79f00144d3","ios":"levelo://app?vid=06d8034e-1e75-4c9d-964c-cc79f00144d3"},"vehicle_type_id":"4","last_reported":1778341206,"current_range_meters":7200,"station_id":"cki0cbj6b192h4jlfktg","pricing_plan_id":"cebpf4jnsgd1na2vs0mg"},{"bike_id":"365f5c28-6148-41e1-9064-4136e9124cb6","system_id":"levelo_inurba_marseille","lat":43.26197,"lon":5.37917,"is_reserved":false,"is_disabled":false,"rental_uris":{"android":"levelo://app?vid=365f5c28-6148-41e1-9064-4136e9124cb6","ios":"levelo://app?vid=365f5c28-6148-41e1-9064-4136e9124cb6"},"vehicle_type_id":"4","last_reported":1778341206,"current_range_meters":7200,"station_id":"ce4bhjp2rcd13ifvqg90","pricing_plan_id":"cebpf4jnsgd1na2vs0mg"},{"bike_id":"e6bd8138-3d56-4ae6-9878-8794caa087c5","system_id":"levelo_inurba_marseille","lat":43.2447,"lon":5.42559,"is_reserved":false,"is_disabled":true,"rental_uris":{"android":"levelo://app?vid=e6bd8138-3d56-4ae6-9878-8794caa087c5","ios":"levelo://app?vid=e6bd8138-3d56-4ae6-9878-8794caa087c5"},"vehicle_type_id":"4","last_reported":1778341206,"current_range_meters":7200,"station_id":"st_d4a3vfp97mjs738cd8kg","pricing_plan_id":"cebpf4jnsgd1na2vs0mg"},{"bike_id":"f539bb17-16cf-4505-8a99-d64e79a69d9e","system_id":"levelo_inurba_marseille","lat":43.32113,"lon":5.36751,"is_reserved":false,"is_disabled":false,"rental_uris":{"android":"levelo://app?vid=f539bb17-16cf-4505-8a99-d64e79a69d9e","ios":"levelo://app?vid=f539bb17-16cf-4505-8a99-d64e79a69d9e"},"vehicle_type_id":"4","last_reported":1778341206,"current_range_meters":7200,"station_id":"ce4bhrh2rcd13ifvqhug","pricing_plan_id":"cebpf4jnsgd1na2vs0mg"},{"bike_id":"d54653cb-e99e-44f1-9331-5e486852db25","system_id":"levelo_inurba_marseille","lat":43.26021,"lon":5.37548,"is_reserved":false,"is_disabled":false,"rental_uris":{"android":"levelo://app?vid=d54653cb-e99e-44f1-9331-5e486852db25","ios":"levelo://app?vid=d54653cb-e99e-44f1-9331-5e486852db25"},"vehicle_type_id":"4","last_reported":1778341206,"current_range_meters":7200,"station_id":"ce4bhgh2rcd13ifvqfa0","pricing_plan_id":"cebpf4jnsgd1na2vs0mg"},{"bike_id":"0c1e5de2-2f01-4591-ab3b-3a5ae0e1c12e","system_id":"levelo_inurba_marseille","lat":43.26024,"lon":5.3755,"is_reserved":false,"is_disabled":false,"rental_uris":{"android":"levelo://app?vid=0c1e5de2-2f01-4591-ab3b-3a5ae0e1c12e","ios":"levelo://app?vid=0c1e5de2-2f01-4591-ab3b-3a5ae0e1c12e"},"vehicle_type_id":"4","last_reported":1778341206,"current_range_meters":7200,"station_id":"ce4bhgh2rcd13ifvqfa0","pricing_plan_id":"cebpf4jnsgd1na2vs0mg"},{"bike_id":"947981ac-29ee-4e83-a793-7dde94fd9052","system_id":"levelo_inurba_marseille","lat":43.30437,"lon":5.39745,"is_reserved":false,"is_disabled":false,"rental_uris":{"android":"levelo://app?vid=947981ac-29ee-4e83-a793-7dde94fd9052","ios":"levelo://app?vid=947981ac-29ee-4e83-a793-7dde94fd9052"},"vehicle_type_id":"4","last_reported":1778341206,"current_range_meters":7200,"station_id":"ce4bh092rcd13ifvqd20","pricing_plan_id":"cebpf4jnsgd1na2vs0mg"},{"bike_id":"aed008b8-bc08-46f7-9f0f-840aaf43a67a","system_id":"levelo_inurba_marseille","lat":43.25023,"lon":5.38938,"is_reserved":false,"is_disabled":false,"rental_uris":{"android":"levelo://app?vid=aed008b8-bc08-46f7-9f0f-840aaf43a67a","ios":"levelo://app?vid=aed008b8-bc08-46f7-9f0f-840aaf43a67a"},"vehicle_type_id":"4","last_reported":1778341206,"current_range_meters":7200,"station_id":"ce4bhgp2rcd13ifvqfd0","pricing_plan_id":"cebpf4jnsgd1na2vs0mg"},{"bike_id":"cf975e47-4149-4f88-85c9-177f6a345361","system_id":"levelo_inurba_marseille","lat":43.23191,"lon":5.35555,"is_reserved":false,"is_disabled":false,"rental_uris":{"android":"levelo://app?vid=cf975e47-4149-4f88-85c9-177f6a345361","ios":"levelo://app?vid=cf975e47-4149-4f88-85c9-177f6a345361"},"vehicle_type_id":"4","last_reported":1778341206,"current_range_meters":7200,"station_id":"ce4bhu92rcd13ifvqi70","pricing_plan_id":"cebpf4jnsgd1na2vs0mg"},{"bike_id":"f422b51e-1ef9-42a2-8365-1d33f807a8e0","system_id":"levelo_inurba_marseille","lat":43.23901,"lon":5.37472,"is_reserved":false,"is_disabled":true,"rental_uris":{"android":"levelo://app?vid=f422b51e-1ef9-42a2-8365-1d33f807a8e0","ios":"levelo://app?vid=f422b51e-1ef9-42a2-8365-1d33f807a8e0"},"vehicle_type_id":"4","last_reported":1778341206,"current_range_meters":7200,"station_id":"st_d6sm7csbq4hs73f8fpjg","pricing_plan_id":"cebpf4jnsgd1na2vs0mg"},{"bike_id":"ac669cf6-3802-49e7-8567-a514ce79081d","system_id":"levelo_inurba_marseille","lat":43.29146,"lon":5.38536,"is_reserved":false,"is_disabled":true,"rental_uris":{"android":"levelo://app?vid=ac669cf6-3802-49e7-8567-a514ce79081d","ios":"levelo://app?vid=ac669cf6-3802-49e7-8567-a514ce79081d"},"vehicle_type_id":"4","last_reported":1778341206,"current_range_meters":7200,"station_id":"","pricing_plan_id":"cebpf4jnsgd1na2vs0mg"},{"bike_id":"264dd0a7-16d8-48c6-b8bf-1ef756773377","system_id":"levelo_inurba_marseille","lat":43.31901,"lon":5.36811,"is_reserved":false,"is_disabled":false,"rental_uris":{"android":"levelo://app?vid=264dd0a7-16d8-48c6-b8bf-1ef756773377","ios":"levelo://app?vid=264dd0a7-16d8-48c6-b8bf-1ef756773377"},"vehicle_type_id":"4","last_reported":1778341206,"current_range_meters":7200,"station_id":"st_d6o2h0d0559c73evc1b0","pricing_plan_id":"cebpf4jnsgd1na2vs0mg"},{"bike_id":"c8f1344f-4820-4468-b652-9d6743102d9e","system_id":"levelo_inurba_marseille","lat":43.305965,"lon":5.393527,"is_reserved":false,"is_disabled":false,"rental_uris":{"android":"levelo://app?vid=c8f1344f-4820-4468-b652-9d6743102d9e","ios":"levelo://app?vid=c8f1344f-4820-4468-b652-9d6743102d9e"},"vehicle_type_id":"4","last_reported":1778341206,"current_range_meters":7200,"station_id":"","pricing_plan_id":"cebpf4jnsgd1na2vs0mg"},{"bike_id":"ae5b47a3-6120-4fe6-9bdc-a81986aa9fe0","system_id":"levelo_inurba_marseille","lat":43.25563,"lon":5.3822,"is_reserved":false,"is_disabled":false,"rental_uris":{"android":"levelo://app?vid=ae5b47a3-6120-4fe6-9bdc-a81986aa9fe0","ios":"levelo://app?vid=ae5b47a3-6120-4fe6-9bdc-a81986aa9fe0"},"vehicle_type_id":"4","last_reported":1778341206,"current_range_meters":7200,"station_id":"ce4bhih2rcd13ifvqfs0","pricing_plan_id":"cebpf4jnsgd1na2vs0mg"},{"bike_id":"fd15faf6-f969-4bda-be30-e042b3108596","system_id":"levelo_inurba_marseille","lat":43.26363,"lon":5.41053,"is_reserved":false,"is_disabled":false,"rental_uris":{"android":"levelo://app?vid=fd15faf6-f969-4bda-be30-e042b3108596","ios":"levelo://app?vid=fd15faf6-f969-4bda-be30-e042b3108596"},"vehicle_type_id":"4","last_reported":1778341206,"current_range_meters":7200,"station_id":"st_d4e5ca6na9uc73bfl5fg","pricing_plan_id":"cebpf4jnsgd1na2vs0mg"},{"bike_id":"74a938f2-f578-4294-9976-174677fe2f35","system_id":"levelo_inurba_marseille","lat":43.29461,"lon":5.43297,"is_reserved":false,"is_disabled":false,"rental_uris":{"android":"levelo://app?vid=74a938f2-f578-4294-9976-174677fe2f35","ios":"levelo://app?vid=74a938f2-f578-4294-9976-174677fe2f35"},"vehicle_type_id":"4","last_reported":1778341206,"current_range_meters":7200,"station_id":"st_d3j5ugp08ojc73fj9d10","pricing_plan_id":"cebpf4jnsgd1na2vs0mg"},{"bike_id":"2109b3a9-edd7-49f9-acca-3fc0b7fbc0df","system_id":"levelo_inurba_marseille","lat":43.29848,"lon":5.36282,"is_reserved":false,"is_disabled":false,"rental_uris":{"android":"levelo://app?vid=2109b3a9-edd7-49f9-acca-3fc0b7fbc0df","ios":"levelo://app?vid=2109b3a9-edd7-49f9-acca-3fc0b7fbc0df"},"vehicle_type_id":"4","last_reported":1778341206,"current_range_meters":7200,"station_id":"ce4bgpp2rcd13ifvqc3g","pricing_plan_id":"cebpf4jnsgd1na2vs0mg"},{"bike_id":"a0cb3a40-d776-40ba-88de-406741558e1a","system_id":"levelo_inurba_marseille","lat":43.24389,"lon":5.37064,"is_reserved":false,"is_disabled":false,"rental_uris":{"android":"levelo://app?vid=a0cb3a40-d776-40ba-88de-406741558e1a","ios":"levelo://app?vid=a0cb3a40-d776-40ba-88de-406741558e1a"},"vehicle_type_id":"4","last_reported":1778341206,"current_range_meters":7200,"station_id":"ce4bhhh2rcd13ifvqfk0","pricing_plan_id":"cebpf4jnsgd1na2vs0mg"},{"bike_id":"1695a744-6994-4844-b6a8-50299d58f95b","system_id":"levelo_inurba_marseille","lat":43.27893,"lon":5.38009,"is_reserved":false,"is_disabled":false,"rental_uris":{"android":"levelo://app?vid=1695a744-6994-4844-b6a8-50299d58f95b","ios":"levelo://app?vid=1695a744-6994-4844-b6a8-50299d58f95b"},"vehicle_type_id":"4","last_reported":1778341206,"current_range_meters":7200,"station_id":"ce4bhf92rcd13ifvqf50","pricing_plan_id":"cebpf4jnsgd1na2vs0mg"},{"bike_id":"26187c65-2ca1-4976-9728-76da75e170ae","system_id":"levelo_inurba_marseille","lat":43.26566,"lon":5.39023,"is_reserved":false,"is_disabled":false,"rental_uris":{"android":"levelo://app?vid=26187c65-2ca1-4976-9728-76da75e170ae","ios":"levelo://app?vid=26187c65-2ca1-4976-9728-76da75e170ae"},"vehicle_type_id":"4","last_reported":1778341206,"current_range_meters":7200,"station_id":"ce4bhe12rcd13ifvqf30","pricing_plan_id":"cebpf4jnsgd1na2vs0mg"},{"bike_id":"f62f892b-35da-4575-91cd-6ff29b858255","system_id":"levelo_inurba_marseille","lat":43.29977,"lon":5.3848,"is_reserved":false,"is_disabled":true,"rental_uris":{"android":"levelo://app?vid=f62f892b-35da-4575-91cd-6ff29b858255","ios":"levelo://app?vid=f62f892b-35da-4575-91cd-6ff29b858255"},"vehicle_type_id":"4","last_reported":1778341206,"current_range_meters":7200,"station_id":"ce4bgj92rcd13ifvqbd0","pricing_plan_id":"cebpf4jnsgd1na2vs0mg"},{"bike_id":"d0422a3d-e193-4cef-8d02-e1260b86002b","system_id":"levelo_inurba_marseille","lat":43.29268,"lon":5.37625,"is_reserved":false,"is_disabled":true,"rental_uris":{"android":"levelo://app?vid=d0422a3d-e193-4cef-8d02-e1260b86002b","ios":"levelo://app?vid=d0422a3d-e193-4cef-8d02-e1260b86002b"},"vehicle_type_id":"4","last_reported":1778341206,"current_range_meters":8000,"station_id":"ce4bgi12rcd13ifvqb80","pricing_plan_id":"cebpf4jnsgd1na2vs0mg"},{"bike_id":"87395616-f47a-449e-9177-ca926150ad12","system_id":"levelo_inurba_marseille","lat":43.29556,"lon":5.42292,"is_reserved":false,"is_disabled":false,"rental_uris":{"android":"levelo://app?vid=87395616-f47a-449e-9177-ca926150ad12","ios":"levelo://app?vid=87395616-f47a-449e-9177-ca926150ad12"},"vehicle_type_id":"4","last_reported":1778341206,"current_range_meters":8000,"station_id":"ce4bhph2rcd13ifvqhdg","pricing_plan_id":"cebpf4jnsgd1na2vs0mg"},{"bike_id":"c38cfe7a-2f95-469e-ae57-de46426ce122","system_id":"levelo_inurba_marseille","lat":43.28404,"lon":5.34986,"is_reserved":false,"is_disabled":false,"rental_uris":{"android":"levelo://app?vid=c38cfe7a-2f95-469e-ae57-de46426ce122","ios":"levelo://app?vid=c38cfe7a-2f95-469e-ae57-de46426ce122"},"vehicle_type_id":"4","last_reported":1778341206,"current_range_meters":8000,"station_id":"ce4bhbh2rcd13ifvqepg","pricing_plan_id":"cebpf4jnsgd1na2vs0mg"},{"bike_id":"257f16fc-d8e4-4702-b227-167957db51ed","system_id":"levelo_inurba_marseille","lat":43.243924,"lon":5.370653,"is_reserved":false,"is_disabled":false,"rental_uris":{"android":"levelo://app?vid=257f16fc-d8e4-4702-b227-167957db51ed","ios":"levelo://app?vid=257f16fc-d8e4-4702-b227-167957db51ed"},"vehicle_type_id":"4","last_reported":1778341206,"current_range_meters":8000,"station_id":"ce4bhhh2rcd13ifvqfk0","pricing_plan_id":"cebpf4jnsgd1na2vs0mg"},{"bike_id":"4fd5b212-cba9-47fe-a389-1fe7b66457c2","system_id":"levelo_inurba_marseille","lat":43.30306,"lon":5.36889,"is_reserved":false,"is_disabled":false,"rental_uris":{"android":"levelo://app?vid=4fd5b212-cba9-47fe-a389-1fe7b66457c2","ios":"levelo://app?vid=4fd5b212-cba9-47fe-a389-1fe7b66457c2"},"vehicle_type_id":"4","last_reported":1778341206,"current_range_meters":8000,"station_id":"ce4bgqh2rcd13ifvqc5g","pricing_plan_id":"cebpf4jnsgd1na2vs0mg"},{"bike_id":"8d6752c1-350c-400c-86b4-c14d406557c9","system_id":"levelo_inurba_marseille","lat":43.2871,"lon":5.46674,"is_reserved":false,"is_disabled":false,"rental_uris":{"android":"levelo://app?vid=8d6752c1-350c-400c-86b4-c14d406557c9","ios":"levelo://app?vid=8d6752c1-350c-400c-86b4-c14d406557c9"},"vehicle_type_id":"4","last_reported":1778341206,"current_range_meters":8000,"station_id":"st_d6tc3vkotcvc738tfjhg","pricing_plan_id":"cebpf4jnsgd1na2vs0mg"},{"bike_id":"7f3e11da-cc55-406d-8536-c17b194c4bb8","system_id":"levelo_inurba_marseille","lat":43.296216,"lon":5.377218,"is_reserved":false,"is_disabled":false,"rental_uris":{"android":"levelo://app?vid=7f3e11da-cc55-406d-8536-c17b194c4bb8","ios":"levelo://app?vid=7f3e11da-cc55-406d-8536-c17b194c4bb8"},"vehicle_type_id":"4","last_reported":1778341206,"current_range_meters":8000,"station_id":"ce4bgi92rcd13ifvqb90","pricing_plan_id":"cebpf4jnsgd1na2vs0mg"},{"bike_id":"9a45abed-8a50-4591-a381-dce67a2e04c0","system_id":"levelo_inurba_marseille","lat":43.29777,"lon":5.39366,"is_reserved":false,"is_disabled":true,"rental_uris":{"android":"levelo://app?vid=9a45abed-8a50-4591-a381-dce67a2e04c0","ios":"levelo://app?vid=9a45abed-8a50-4591-a381-dce67a2e04c0"},"vehicle_type_id":"4","last_reported":1778341206,"current_range_meters":8000,"station_id":"chh1huq6cuj3fo74tm60","pricing_plan_id":"cebpf4jnsgd1na2vs0mg"},{"bike_id":"3c5f0f52-deec-4478-b1b8-43df5890b0b6","system_id":"levelo_inurba_marseille","lat":43.23956,"lon":5.36627,"is_reserved":false,"is_disabled":false,"rental_uris":{"android":"levelo://app?vid=3c5f0f52-deec-4478-b1b8-43df5890b0b6","ios":"levelo://app?vid=3c5f0f52-deec-4478-b1b8-43df5890b0b6"},"vehicle_type_id":"4","last_reported":1778341206,"current_range_meters":8000,"station_id":"ce4bhi12rcd13ifvqfp0","pricing_plan_id":"cebpf4jnsgd1na2vs0mg"},{"bike_id":"d5001d3f-f5ab-4f62-bc83-c91230e3b662","system_id":"levelo_inurba_marseille","lat":43.2638,"lon":5.41076,"is_reserved":false,"is_disabled":false,"rental_uris":{"android":"levelo://app?vid=d5001d3f-f5ab-4f62-bc83-c91230e3b662","ios":"levelo://app?vid=d5001d3f-f5ab-4f62-bc83-c91230e3b662"},"vehicle_type_id":"4","last_reported":1778341206,"current_range_meters":8000,"station_id":"st_d4e5ca6na9uc73bfl5fg","pricing_plan_id":"cebpf4jnsgd1na2vs0mg"},{"bike_id":"e9f8a084-8157-4741-81f8-8c6ce23da1a7","system_id":"levelo_inurba_marseille","lat":43.2722,"lon":5.39176,"is_reserved":false,"is_disabled":false,"rental_uris":{"android":"levelo://app?vid=e9f8a084-8157-4741-81f8-8c6ce23da1a7","ios":"levelo://app?vid=e9f8a084-8157-4741-81f8-8c6ce23da1a7"},"vehicle_type_id":"4","last_reported":1778341206,"current_range_meters":8000,"station_id":"ce4bhhp2rcd13ifvqfm0","pricing_plan_id":"cebpf4jnsgd1na2vs0mg"},{"bike_id":"4bc6302e-723c-444e-9c1c-2353d2969136","system_id":"levelo_inurba_marseille","lat":43.29442,"lon":5.396,"is_reserved":false,"is_disabled":true,"rental_uris":{"android":"levelo://app?vid=4bc6302e-723c-444e-9c1c-2353d2969136","ios":"levelo://app?vid=4bc6302e-723c-444e-9c1c-2353d2969136"},"vehicle_type_id":"4","last_reported":1778341206,"current_range_meters":8000,"station_id":"","pricing_plan_id":"cebpf4jnsgd1na2vs0mg"},{"bike_id":"ad824b62-ba8d-40e6-a073-14a810f8f6bf","system_id":"levelo_inurba_marseille","lat":43.26057,"lon":5.39387,"is_reserved":false,"is_disabled":false,"rental_uris":{"android":"levelo://app?vid=ad824b62-ba8d-40e6-a073-14a810f8f6bf","ios":"levelo://app?vid=ad824b62-ba8d-40e6-a073-14a810f8f6bf"},"vehicle_type_id":"4","last_reported":1778341206,"current_range_meters":8000,"station_id":"ce4bhh92rcd13ifvqfj0","pricing_plan_id":"cebpf4jnsgd1na2vs0mg"},{"bike_id":"6483941c-6f70-4f29-abf5-0a6a67bb3c08","system_id":"levelo_inurba_marseille","lat":43.28405,"lon":5.37515,"is_reserved":false,"is_disabled":false,"rental_uris":{"android":"levelo://app?vid=6483941c-6f70-4f29-abf5-0a6a67bb3c08","ios":"levelo://app?vid=6483941c-6f70-4f29-abf5-0a6a67bb3c08"},"vehicle_type_id":"4","last_reported":1778341206,"current_range_meters":8000,"station_id":"ce4bh412rcd13ifvqds0","pricing_plan_id":"cebpf4jnsgd1na2vs0mg"},{"bike_id":"f6aee940-2497-4a5e-ba44-71816b413912","system_id":"levelo_inurba_marseille","lat":43.26494,"lon":5.39537,"is_reserved":false,"is_disabled":false,"rental_uris":{"android":"levelo://app?vid=f6aee940-2497-4a5e-ba44-71816b413912","ios":"levelo://app?vid=f6aee940-2497-4a5e-ba44-71816b413912"},"vehicle_type_id":"4","last_reported":1778341206,"current_range_meters":8000,"station_id":"ce4bhi12rcd13ifvqfq0","pricing_plan_id":"cebpf4jnsgd1na2vs0mg"},{"bike_id":"3e63ca9f-52b9-4901-a1d9-7f430e423bd0","system_id":"levelo_inurba_marseille","lat":43.31444,"lon":5.44123,"is_reserved":false,"is_disabled":false,"rental_uris":{"android":"levelo://app?vid=3e63ca9f-52b9-4901-a1d9-7f430e423bd0","ios":"levelo://app?vid=3e63ca9f-52b9-4901-a1d9-7f430e423bd0"},"vehicle_type_id":"4","last_reported":1778341206,"current_range_meters":8000,"station_id":"","pricing_plan_id":"cebpf4jnsgd1na2vs0mg"},{"bike_id":"1038262b-59d3-44bb-bed0-4b20cf77ade9","system_id":"levelo_inurba_marseille","lat":43.23888,"lon":5.37453,"is_reserved":false,"is_disabled":false,"rental_uris":{"android":"levelo://app?vid=1038262b-59d3-44bb-bed0-4b20cf77ade9","ios":"levelo://app?vid=1038262b-59d3-44bb-bed0-4b20cf77ade9"},"vehicle_type_id":"4","last_reported":1778341206,"current_range_meters":8000,"station_id":"st_d6sm7csbq4hs73f8fpjg","pricing_plan_id":"cebpf4jnsgd1na2vs0mg"},{"bike_id":"7b0cf0fb-ae16-49c4-aadd-c7634ccd23a3","system_id":"levelo_inurba_marseille","lat":43.25111,"lon":5.40321,"is_reserved":false,"is_disabled":false,"rental_uris":{"android":"levelo://app?vid=7b0cf0fb-ae16-49c4-aadd-c7634ccd23a3","ios":"levelo://app?vid=7b0cf0fb-ae16-49c4-aadd-c7634ccd23a3"},"vehicle_type_id":"4","last_reported":1778341206,"current_range_meters":8000,"station_id":"ce4bhlh2rcd13ifvqgig","pricing_plan_id":"cebpf4jnsgd1na2vs0mg"},{"bike_id":"e88067db-06e7-43fb-8b26-0f29cfb1ca74","system_id":"levelo_inurba_marseille","lat":43.28692,"lon":5.46736,"is_reserved":false,"is_disabled":false,"rental_uris":{"android":"levelo://app?vid=e88067db-06e7-43fb-8b26-0f29cfb1ca74","ios":"levelo://app?vid=e88067db-06e7-43fb-8b26-0f29cfb1ca74"},"vehicle_type_id":"4","last_reported":1778341206,"current_range_meters":8000,"station_id":"st_d6tc3vkotcvc738tfjhg","pricing_plan_id":"cebpf4jnsgd1na2vs0mg"},{"bike_id":"f714a204-7349-42e0-a4da-cfde5af426e3","system_id":"levelo_inurba_marseille","lat":43.28608,"lon":5.35097,"is_reserved":false,"is_disabled":false,"rental_uris":{"android":"levelo://app?vid=f714a204-7349-42e0-a4da-cfde5af426e3","ios":"levelo://app?vid=f714a204-7349-42e0-a4da-cfde5af426e3"},"vehicle_type_id":"4","last_reported":1778341206,"current_range_meters":8400,"station_id":"ce4bhch2rcd13ifvqeug","pricing_plan_id":"cebpf4jnsgd1na2vs0mg"},{"bike_id":"5a28d04e-2eb5-47c1-bb9f-6dd56c626293","system_id":"levelo_inurba_marseille","lat":43.26406,"lon":5.41078,"is_reserved":false,"is_disabled":false,"rental_uris":{"android":"levelo://app?vid=5a28d04e-2eb5-47c1-bb9f-6dd56c626293","ios":"levelo://app?vid=5a28d04e-2eb5-47c1-bb9f-6dd56c626293"},"vehicle_type_id":"4","last_reported":1778341206,"current_range_meters":8400,"station_id":"st_d4e5ca6na9uc73bfl5fg","pricing_plan_id":"cebpf4jnsgd1na2vs0mg"},{"bike_id":"261442be-df01-487c-b82d-848abe824608","system_id":"levelo_inurba_marseille","lat":43.2623,"lon":5.40532,"is_reserved":false,"is_disabled":false,"rental_uris":{"android":"levelo://app?vid=261442be-df01-487c-b82d-848abe824608","ios":"levelo://app?vid=261442be-df01-487c-b82d-848abe824608"},"vehicle_type_id":"4","last_reported":1778341206,"current_range_meters":8400,"station_id":"","pricing_plan_id":"cebpf4jnsgd1na2vs0mg"},{"bike_id":"a045b36d-afc6-4a17-85ce-9a8a5b33570c","system_id":"levelo_inurba_marseille","lat":43.29559,"lon":5.37513,"is_reserved":false,"is_disabled":false,"rental_uris":{"android":"levelo://app?vid=a045b36d-afc6-4a17-85ce-9a8a5b33570c","ios":"levelo://app?vid=a045b36d-afc6-4a17-85ce-9a8a5b33570c"},"vehicle_type_id":"4","last_reported":1778341206,"current_range_meters":8400,"station_id":"ce4bgh92rcd13ifvqb50","pricing_plan_id":"cebpf4jnsgd1na2vs0mg"},{"bike_id":"805098e2-093d-436b-8e4d-1268aaf2a2b5","system_id":"levelo_inurba_marseille","lat":43.22531,"lon":5.34823,"is_reserved":false,"is_disabled":false,"rental_uris":{"android":"levelo://app?vid=805098e2-093d-436b-8e4d-1268aaf2a2b5","ios":"levelo://app?vid=805098e2-093d-436b-8e4d-1268aaf2a2b5"},"vehicle_type_id":"4","last_reported":1778341206,"current_range_meters":8400,"station_id":"st_cvj5dfep6f1abm77gieg","pricing_plan_id":"cebpf4jnsgd1na2vs0mg"},{"bike_id":"58f02a01-2d6b-42fb-b6cf-a6eb2f8162a4","system_id":"levelo_inurba_marseille","lat":43.26083,"lon":5.39643,"is_reserved":false,"is_disabled":false,"rental_uris":{"android":"levelo://app?vid=58f02a01-2d6b-42fb-b6cf-a6eb2f8162a4","ios":"levelo://app?vid=58f02a01-2d6b-42fb-b6cf-a6eb2f8162a4"},"vehicle_type_id":"4","last_reported":1778341206,"current_range_meters":8400,"station_id":"","pricing_plan_id":"cebpf4jnsgd1na2vs0mg"},{"bike_id":"14bf6caa-b82c-40bd-acd4-037de3b983b7","system_id":"levelo_inurba_marseille","lat":43.29191,"lon":5.35806,"is_reserved":false,"is_disabled":false,"rental_uris":{"android":"levelo://app?vid=14bf6caa-b82c-40bd-acd4-037de3b983b7","ios":"levelo://app?vid=14bf6caa-b82c-40bd-acd4-037de3b983b7"},"vehicle_type_id":"4","last_reported":1778341206,"current_range_meters":8400,"station_id":"ce4bhb12rcd13ifvqel0","pricing_plan_id":"cebpf4jnsgd1na2vs0mg"},{"bike_id":"a45b8182-a6a4-4d65-a6e5-528cb58fe0bf","system_id":"levelo_inurba_marseille","lat":43.30134,"lon":5.37432,"is_reserved":false,"is_disabled":false,"rental_uris":{"android":"levelo://app?vid=a45b8182-a6a4-4d65-a6e5-528cb58fe0bf","ios":"levelo://app?vid=a45b8182-a6a4-4d65-a6e5-528cb58fe0bf"},"vehicle_type_id":"4","last_reported":1778341206,"current_range_meters":8400,"station_id":"ce4bgs92rcd13ifvqcc0","pricing_plan_id":"cebpf4jnsgd1na2vs0mg"},{"bike_id":"d74b55b1-7186-4fc2-a7a8-58c5cdd1325a","system_id":"levelo_inurba_marseille","lat":43.29849,"lon":5.36269,"is_reserved":false,"is_disabled":false,"rental_uris":{"android":"levelo://app?vid=d74b55b1-7186-4fc2-a7a8-58c5cdd1325a","ios":"levelo://app?vid=d74b55b1-7186-4fc2-a7a8-58c5cdd1325a"},"vehicle_type_id":"4","last_reported":1778341206,"current_range_meters":8400,"station_id":"ce4bgpp2rcd13ifvqc3g","pricing_plan_id":"cebpf4jnsgd1na2vs0mg"},{"bike_id":"507c6bce-675e-4b0f-b0ca-e1f5c3acd03b","system_id":"levelo_inurba_marseille","lat":43.29009,"lon":5.38614,"is_reserved":false,"is_disabled":false,"rental_uris":{"android":"levelo://app?vid=507c6bce-675e-4b0f-b0ca-e1f5c3acd03b","ios":"levelo://app?vid=507c6bce-675e-4b0f-b0ca-e1f5c3acd03b"},"vehicle_type_id":"4","last_reported":1778341206,"current_range_meters":8400,"station_id":"ce4bh4p2rcd13ifvqe0g","pricing_plan_id":"cebpf4jnsgd1na2vs0mg"},{"bike_id":"808c4ecd-9bba-4ef5-91dc-62b4109dcc93","system_id":"levelo_inurba_marseille","lat":43.29532,"lon":5.38511,"is_reserved":false,"is_disabled":true,"rental_uris":{"android":"levelo://app?vid=808c4ecd-9bba-4ef5-91dc-62b4109dcc93","ios":"levelo://app?vid=808c4ecd-9bba-4ef5-91dc-62b4109dcc93"},"vehicle_type_id":"4","last_reported":1778341206,"current_range_meters":8400,"station_id":"ce4bgih2rcd13ifvqba0","pricing_plan_id":"cebpf4jnsgd1na2vs0mg"},{"bike_id":"675f8a66-3eba-4195-aec5-c27bdffa4bf6","system_id":"levelo_inurba_marseille","lat":43.24394,"lon":5.37054,"is_reserved":false,"is_disabled":false,"rental_uris":{"android":"levelo://app?vid=675f8a66-3eba-4195-aec5-c27bdffa4bf6","ios":"levelo://app?vid=675f8a66-3eba-4195-aec5-c27bdffa4bf6"},"vehicle_type_id":"4","last_reported":1778341206,"current_range_meters":8400,"station_id":"ce4bhhh2rcd13ifvqfk0","pricing_plan_id":"cebpf4jnsgd1na2vs0mg"},{"bike_id":"036022eb-f4b7-499f-bea2-49a36e1775a4","system_id":"levelo_inurba_marseille","lat":43.22549,"lon":5.34845,"is_reserved":false,"is_disabled":false,"rental_uris":{"android":"levelo://app?vid=036022eb-f4b7-499f-bea2-49a36e1775a4","ios":"levelo://app?vid=036022eb-f4b7-499f-bea2-49a36e1775a4"},"vehicle_type_id":"4","last_reported":1778341206,"current_range_meters":8400,"station_id":"st_cvj5dfep6f1abm77gieg","pricing_plan_id":"cebpf4jnsgd1na2vs0mg"},{"bike_id":"d6bd60a9-d2a5-49ea-906f-658946bed1b7","system_id":"levelo_inurba_marseille","lat":43.323642,"lon":5.367588,"is_reserved":false,"is_disabled":false,"rental_uris":{"android":"levelo://app?vid=d6bd60a9-d2a5-49ea-906f-658946bed1b7","ios":"levelo://app?vid=d6bd60a9-d2a5-49ea-906f-658946bed1b7"},"vehicle_type_id":"4","last_reported":1778341206,"current_range_meters":8400,"station_id":"ce4bhsh2rcd13ifvqi2g","pricing_plan_id":"cebpf4jnsgd1na2vs0mg"},{"bike_id":"c2277f9d-93a6-480b-b9fc-a6864cbe3c7a","system_id":"levelo_inurba_marseille","lat":43.27682,"lon":5.40666,"is_reserved":false,"is_disabled":false,"rental_uris":{"android":"levelo://app?vid=c2277f9d-93a6-480b-b9fc-a6864cbe3c7a","ios":"levelo://app?vid=c2277f9d-93a6-480b-b9fc-a6864cbe3c7a"},"vehicle_type_id":"4","last_reported":1778341206,"current_range_meters":8400,"station_id":"","pricing_plan_id":"cebpf4jnsgd1na2vs0mg"},{"bike_id":"8ca390b5-651b-45d7-872e-c608c7b4c2b4","system_id":"levelo_inurba_marseille","lat":43.24804,"lon":5.37437,"is_reserved":false,"is_disabled":false,"rental_uris":{"android":"levelo://app?vid=8ca390b5-651b-45d7-872e-c608c7b4c2b4","ios":"levelo://app?vid=8ca390b5-651b-45d7-872e-c608c7b4c2b4"},"vehicle_type_id":"4","last_reported":1778341206,"current_range_meters":8400,"station_id":"ce4bhgh2rcd13ifvqfb0","pricing_plan_id":"cebpf4jnsgd1na2vs0mg"},{"bike_id":"5f334e4c-00d5-4b7d-a61d-f508c42fbbb0","system_id":"levelo_inurba_marseille","lat":43.28483,"lon":5.38567,"is_reserved":false,"is_disabled":false,"rental_uris":{"android":"levelo://app?vid=5f334e4c-00d5-4b7d-a61d-f508c42fbbb0","ios":"levelo://app?vid=5f334e4c-00d5-4b7d-a61d-f508c42fbbb0"},"vehicle_type_id":"4","last_reported":1778341206,"current_range_meters":8400,"station_id":"ce4bh8p2rcd13ifvqeb0","pricing_plan_id":"cebpf4jnsgd1na2vs0mg"},{"bike_id":"2a83d971-35d5-4a3c-b884-b33f20217acd","system_id":"levelo_inurba_marseille","lat":43.24163,"lon":5.36411,"is_reserved":false,"is_disabled":false,"rental_uris":{"android":"levelo://app?vid=2a83d971-35d5-4a3c-b884-b33f20217acd","ios":"levelo://app?vid=2a83d971-35d5-4a3c-b884-b33f20217acd"},"vehicle_type_id":"4","last_reported":1778341206,"current_range_meters":8400,"station_id":"cpo36qri1sfpv3e86is0","pricing_plan_id":"cebpf4jnsgd1na2vs0mg"},{"bike_id":"8bf2c68a-9414-41ee-9cee-74c263a87594","system_id":"levelo_inurba_marseille","lat":43.29553,"lon":5.42294,"is_reserved":false,"is_disabled":false,"rental_uris":{"android":"levelo://app?vid=8bf2c68a-9414-41ee-9cee-74c263a87594","ios":"levelo://app?vid=8bf2c68a-9414-41ee-9cee-74c263a87594"},"vehicle_type_id":"4","last_reported":1778341206,"current_range_meters":8800,"station_id":"ce4bhph2rcd13ifvqhdg","pricing_plan_id":"cebpf4jnsgd1na2vs0mg"},{"bike_id":"9978bf29-8be4-416d-9e1c-7cc044f2b9f1","system_id":"levelo_inurba_marseille","lat":43.33157,"lon":5.37704,"is_reserved":false,"is_disabled":false,"rental_uris":{"android":"levelo://app?vid=9978bf29-8be4-416d-9e1c-7cc044f2b9f1","ios":"levelo://app?vid=9978bf29-8be4-416d-9e1c-7cc044f2b9f1"},"vehicle_type_id":"4","last_reported":1778341206,"current_range_meters":8800,"station_id":"st_d46cu089ee8s73dldbu0","pricing_plan_id":"cebpf4jnsgd1na2vs0mg"},{"bike_id":"9dc61640-987a-437c-ada7-637d7471e1db","system_id":"levelo_inurba_marseille","lat":43.33154,"lon":5.37703,"is_reserved":false,"is_disabled":false,"rental_uris":{"android":"levelo://app?vid=9dc61640-987a-437c-ada7-637d7471e1db","ios":"levelo://app?vid=9dc61640-987a-437c-ada7-637d7471e1db"},"vehicle_type_id":"4","last_reported":1778341206,"current_range_meters":8800,"station_id":"st_d46cu089ee8s73dldbu0","pricing_plan_id":"cebpf4jnsgd1na2vs0mg"},{"bike_id":"1fd7ca2f-c467-4e26-9a69-360f15aaf08d","system_id":"levelo_inurba_marseille","lat":43.30681,"lon":5.40087,"is_reserved":false,"is_disabled":false,"rental_uris":{"android":"levelo://app?vid=1fd7ca2f-c467-4e26-9a69-360f15aaf08d","ios":"levelo://app?vid=1fd7ca2f-c467-4e26-9a69-360f15aaf08d"},"vehicle_type_id":"4","last_reported":1778341206,"current_range_meters":8800,"station_id":"ce4bh112rcd13ifvqda0","pricing_plan_id":"cebpf4jnsgd1na2vs0mg"},{"bike_id":"4d5c1738-de5d-4980-bf22-f82a1560e6b1","system_id":"levelo_inurba_marseille","lat":43.2293,"lon":5.35375,"is_reserved":false,"is_disabled":false,"rental_uris":{"android":"levelo://app?vid=4d5c1738-de5d-4980-bf22-f82a1560e6b1","ios":"levelo://app?vid=4d5c1738-de5d-4980-bf22-f82a1560e6b1"},"vehicle_type_id":"4","last_reported":1778341206,"current_range_meters":8800,"station_id":"cpo3532slgdg3j2ikp40","pricing_plan_id":"cebpf4jnsgd1na2vs0mg"},{"bike_id":"a94ab28b-3e0e-4d84-b67a-0bfaddde8c4a","system_id":"levelo_inurba_marseille","lat":43.26052,"lon":5.39407,"is_reserved":false,"is_disabled":false,"rental_uris":{"android":"levelo://app?vid=a94ab28b-3e0e-4d84-b67a-0bfaddde8c4a","ios":"levelo://app?vid=a94ab28b-3e0e-4d84-b67a-0bfaddde8c4a"},"vehicle_type_id":"4","last_reported":1778341206,"current_range_meters":8800,"station_id":"ce4bhh92rcd13ifvqfj0","pricing_plan_id":"cebpf4jnsgd1na2vs0mg"},{"bike_id":"14fb5fbb-7add-49f3-bcb1-acf20cc949d6","system_id":"levelo_inurba_marseille","lat":43.23898,"lon":5.37457,"is_reserved":false,"is_disabled":false,"rental_uris":{"android":"levelo://app?vid=14fb5fbb-7add-49f3-bcb1-acf20cc949d6","ios":"levelo://app?vid=14fb5fbb-7add-49f3-bcb1-acf20cc949d6"},"vehicle_type_id":"4","last_reported":1778341206,"current_range_meters":8800,"station_id":"st_d6sm7csbq4hs73f8fpjg","pricing_plan_id":"cebpf4jnsgd1na2vs0mg"},{"bike_id":"91be8de9-1b8b-4503-a54f-1d274dc6a102","system_id":"levelo_inurba_marseille","lat":43.309483,"lon":5.390423,"is_reserved":false,"is_disabled":false,"rental_uris":{"android":"levelo://app?vid=91be8de9-1b8b-4503-a54f-1d274dc6a102","ios":"levelo://app?vid=91be8de9-1b8b-4503-a54f-1d274dc6a102"},"vehicle_type_id":"4","last_reported":1778341206,"current_range_meters":8800,"station_id":"ce4bgup2rcd13ifvqco0","pricing_plan_id":"cebpf4jnsgd1na2vs0mg"},{"bike_id":"e5f0fbb4-b8dc-4aa1-9466-61d5f4ac958f","system_id":"levelo_inurba_marseille","lat":43.2902,"lon":5.38125,"is_reserved":false,"is_disabled":true,"rental_uris":{"android":"levelo://app?vid=e5f0fbb4-b8dc-4aa1-9466-61d5f4ac958f","ios":"levelo://app?vid=e5f0fbb4-b8dc-4aa1-9466-61d5f4ac958f"},"vehicle_type_id":"4","last_reported":1778341206,"current_range_meters":8800,"station_id":"ce4bh4p2rcd13ifvqe1g","pricing_plan_id":"cebpf4jnsgd1na2vs0mg"},