{"last_updated":1758827259,"ttl":60,"version":"2.2","data":{"bikes":[{"bike_id":"7ca35991-5a18-45c1-933b-18418daa0284","system_id":"levelo_inurba_marseille","lat":43.32335,"lon":5.40624,"is_reserved":false,"is_disabled":false,"rental_uris":{"android":"levelo://app?vid=7ca35991-5a18-45c1-933b-18418daa0284","ios":"levelo://app?vid=7ca35991-5a18-45c1-933b-18418daa0284"},"vehicle_type_id":"4","last_reported":1758827260,"current_range_meters":2800,"station_id":"ce4bhq92rcd13ifvqhjg","pricing_plan_id":"cebpf4jnsgd1na2vs0mg"},{"bike_id":"38992e72-514d-496a-a0a2-7a69c0ef4aca","system_id":"levelo_inurba_marseille","lat":43.29278,"lon":5.40125,"is_reserved":false,"is_disabled":false,"rental_uris":{"android":"levelo://app?vid=38992e72-514d-496a-a0a2-7a69c0ef4aca","ios":"levelo://app?vid=38992e72-514d-496a-a0a2-7a69c0ef4aca"},"vehicle_type_id":"4","last_reported":1758827260,"current_range_meters":2800,"station_id":"ce4bh312rcd13ifvqdk0","pricing_plan_id":"cebpf4jnsgd1na2vs0mg"},{"bike_id":"c70ef7ef-ef78-47ae-b5fc-1c8a4b5858b9","system_id":"levelo_inurba_marseille","lat":43.27905,"lon":5.39597,"is_reserved":false,"is_disabled":true,"rental_uris":{"android":"levelo://app?vid=c70ef7ef-ef78-47ae-b5fc-1c8a4b5858b9","ios":"levelo://app?vid=c70ef7ef-ef78-47ae-b5fc-1c8a4b5858b9"},"vehicle_type_id":"4","last_reported":1758827260,"current_range_meters":2800,"station_id":"ce4bhf92rcd13ifvqf40","pricing_plan_id":"cebpf4jnsgd1na2vs0mg"},{"bike_id":"dfa2e0eb-c01c-40f5-bdf0-94cf19dc56f0","system_id":"levelo_inurba_marseille","lat":43.25095,"lon":5.39517,"is_reserved":false,"is_disabled":true,"rental_uris":{"android":"levelo://app?vid=dfa2e0eb-c01c-40f5-bdf0-94cf19dc56f0","ios":"levelo://app?vid=dfa2e0eb-c01c-40f5-bdf0-94cf19dc56f0"},"vehicle_type_id":"4","last_reported":1758827260,"current_range_meters":2800,"station_id":"ce4bhm12rcd13ifvqgkg","pricing_plan_id":"cebpf4jnsgd1na2vs0mg"},{"bike_id":"b3104f4a-85fd-4468-81a8-1a7c0a6b90cc","system_id":"levelo_inurba_marseille","lat":43.29893,"lon":5.39749,"is_reserved":false,"is_disabled":false,"rental_uris":{"android":"levelo://app?vid=b3104f4a-85fd-4468-81a8-1a7c0a6b90cc","ios":"levelo://app?vid=b3104f4a-85fd-4468-81a8-1a7c0a6b90cc"},"vehicle_type_id":"4","last_reported":1758827260,"current_range_meters":2800,"station_id":"ce4bh0h2rcd13ifvqd50","pricing_plan_id":"cebpf4jnsgd1na2vs0mg"},{"bike_id":"7a378bf3-d4bd-44ed-9dcb-52eb3e7d6a4e","system_id":"levelo_inurba_marseille","lat":43.297615,"lon":5.3889,"is_reserved":false,"is_disabled":false,"rental_uris":{"android":"levelo://app?vid=7a378bf3-d4bd-44ed-9dcb-52eb3e7d6a4e","ios":"levelo://app?vid=7a378bf3-d4bd-44ed-9dcb-52eb3e7d6a4e"},"vehicle_type_id":"4","last_reported":1758827260,"current_range_meters":2800,"station_id":"","pricing_plan_id":"cebpf4jnsgd1na2vs0mg"},{"bike_id":"7e66907c-db6f-461e-b18b-3d675bb9fed7","system_id":"levelo_inurba_marseille","lat":43.28409,"lon":5.37511,"is_reserved":false,"is_disabled":false,"rental_uris":{"android":"levelo://app?vid=7e66907c-db6f-461e-b18b-3d675bb9fed7","ios":"levelo://app?vid=7e66907c-db6f-461e-b18b-3d675bb9fed7"},"vehicle_type_id":"4","last_reported":1758827260,"current_range_meters":2800,"station_id":"ce4bh412rcd13ifvqds0","pricing_plan_id":"cebpf4jnsgd1na2vs0mg"},{"bike_id":"04f8da8f-dc86-491c-8ef5-18795fde8dc0","system_id":"levelo_inurba_marseille","lat":43.308411,"lon":5.396769,"is_reserved":false,"is_disabled":false,"rental_uris":{"android":"levelo://app?vid=04f8da8f-dc86-491c-8ef5-18795fde8dc0","ios":"levelo://app?vid=04f8da8f-dc86-491c-8ef5-18795fde8dc0"},"vehicle_type_id":"4","last_reported":1758827260,"current_range_meters":3200,"station_id":"ce4bh012rcd13ifvqcv0","pricing_plan_id":"cebpf4jnsgd1na2vs0mg"},{"bike_id":"1efddf8d-578f-4e4c-8c3f-e3a8bd592ba4","system_id":"levelo_inurba_marseille","lat":43.29953,"lon":5.37317,"is_reserved":false,"is_disabled":false,"rental_uris":{"android":"levelo://app?vid=1efddf8d-578f-4e4c-8c3f-e3a8bd592ba4","ios":"levelo://app?vid=1efddf8d-578f-4e4c-8c3f-e3a8bd592ba4"},"vehicle_type_id":"4","last_reported":1758827260,"current_range_meters":3200,"station_id":"","pricing_plan_id":"cebpf4jnsgd1na2vs0mg"},{"bike_id":"547d3044-bdfc-495e-96aa-c53d05d3797e","system_id":"levelo_inurba_marseille","lat":43.3095,"lon":5.39031,"is_reserved":false,"is_disabled":false,"rental_uris":{"android":"levelo://app?vid=547d3044-bdfc-495e-96aa-c53d05d3797e","ios":"levelo://app?vid=547d3044-bdfc-495e-96aa-c53d05d3797e"},"vehicle_type_id":"4","last_reported":1758827260,"current_range_meters":2800,"station_id":"ce4bgup2rcd13ifvqco0","pricing_plan_id":"cebpf4jnsgd1na2vs0mg"},{"bike_id":"2b6c533e-5c1e-42ab-9758-b73c0679b6e4","system_id":"levelo_inurba_marseille","lat":43.26807,"lon":5.40274,"is_reserved":false,"is_disabled":false,"rental_uris":{"android":"levelo://app?vid=2b6c533e-5c1e-42ab-9758-b73c0679b6e4","ios":"levelo://app?vid=2b6c533e-5c1e-42ab-9758-b73c0679b6e4"},"vehicle_type_id":"4","last_reported":1758827260,"current_range_meters":3200,"station_id":"ce501612rcd8frsf0b60","pricing_plan_id":"cebpf4jnsgd1na2vs0mg"},{"bike_id":"f999ab2a-e392-4217-8a90-a579323d8624","system_id":"levelo_inurba_marseille","lat":43.29089,"lon":5.38161,"is_reserved":false,"is_disabled":true,"rental_uris":{"android":"levelo://app?vid=f999ab2a-e392-4217-8a90-a579323d8624","ios":"levelo://app?vid=f999ab2a-e392-4217-8a90-a579323d8624"},"vehicle_type_id":"4","last_reported":1758827260,"current_range_meters":3600,"station_id":"ce4bh512rcd13ifvqe2g","pricing_plan_id":"cebpf4jnsgd1na2vs0mg"},{"bike_id":"8a75e316-5575-4d4d-93f3-0d0218d12c60","system_id":"levelo_inurba_marseille","lat":43.31975,"lon":5.38151,"is_reserved":false,"is_disabled":false,"rental_uris":{"android":"levelo://app?vid=8a75e316-5575-4d4d-93f3-0d0218d12c60","ios":"levelo://app?vid=8a75e316-5575-4d4d-93f3-0d0218d12c60"},"vehicle_type_id":"4","last_reported":1758827260,"current_range_meters":3600,"station_id":"ce4bhr12rcd13ifvqhpg","pricing_plan_id":"cebpf4jnsgd1na2vs0mg"},{"bike_id":"b25c5a88-4318-47a3-b92e-ab26aa17aef9","system_id":"levelo_inurba_marseille","lat":43.279557,"lon":5.387648,"is_reserved":false,"is_disabled":false,"rental_uris":{"android":"levelo://app?vid=b25c5a88-4318-47a3-b92e-ab26aa17aef9","ios":"levelo://app?vid=b25c5a88-4318-47a3-b92e-ab26aa17aef9"},"vehicle_type_id":"4","last_reported":1758827260,"current_range_meters":3600,"station_id":"ce4bhg12rcd13ifvqf80","pricing_plan_id":"cebpf4jnsgd1na2vs0mg"},{"bike_id":"47007103-1d5f-4e7a-94b8-229920ace1cb","system_id":"levelo_inurba_marseille","lat":43.3176,"lon":5.39021,"is_reserved":false,"is_disabled":false,"rental_uris":{"android":"levelo://app?vid=47007103-1d5f-4e7a-94b8-229920ace1cb","ios":"levelo://app?vid=47007103-1d5f-4e7a-94b8-229920ace1cb"},"vehicle_type_id":"4","last_reported":1758827260,"current_range_meters":4000,"station_id":"ce4bhqp2rcd13ifvqhng","pricing_plan_id":"cebpf4jnsgd1na2vs0mg"},{"bike_id":"49ebc342-d598-4518-a6f7-824e4a3ed9db","system_id":"levelo_inurba_marseille","lat":43.305327,"lon":5.367402,"is_reserved":false,"is_disabled":true,"rental_uris":{"android":"levelo://app?vid=49ebc342-d598-4518-a6f7-824e4a3ed9db","ios":"levelo://app?vid=49ebc342-d598-4518-a6f7-824e4a3ed9db"},"vehicle_type_id":"4","last_reported":1758827260,"current_range_meters":3600,"station_id":"ce4bgrp2rcd13ifvqc9g","pricing_plan_id":"cebpf4jnsgd1na2vs0mg"},{"bike_id":"c80e1f6e-41df-47e3-91cd-de5847cd5136","system_id":"levelo_inurba_marseille","lat":43.32331,"lon":5.39306,"is_reserved":false,"is_disabled":false,"rental_uris":{"android":"levelo://app?vid=c80e1f6e-41df-47e3-91cd-de5847cd5136","ios":"levelo://app?vid=c80e1f6e-41df-47e3-91cd-de5847cd5136"},"vehicle_type_id":"4","last_reported":1758827260,"current_range_meters":4000,"station_id":"","pricing_plan_id":"cebpf4jnsgd1na2vs0mg"},{"bike_id":"3d476d69-4af4-40a8-8ecd-153d3d338261","system_id":"levelo_inurba_marseille","lat":43.271946,"lon":5.428642,"is_reserved":false,"is_disabled":false,"rental_uris":{"android":"levelo://app?vid=3d476d69-4af4-40a8-8ecd-153d3d338261","ios":"levelo://app?vid=3d476d69-4af4-40a8-8ecd-153d3d338261"},"vehicle_type_id":"4","last_reported":1758827260,"current_range_meters":4400,"station_id":"","pricing_plan_id":"cebpf4jnsgd1na2vs0mg"},{"bike_id":"7c0482c3-9253-4d1b-b4f3-be55cdb7721d","system_id":"levelo_inurba_marseille","lat":43.33757,"lon":5.37466,"is_reserved":false,"is_disabled":false,"rental_uris":{"android":"levelo://app?vid=7c0482c3-9253-4d1b-b4f3-be55cdb7721d","ios":"levelo://app?vid=7c0482c3-9253-4d1b-b4f3-be55cdb7721d"},"vehicle_type_id":"4","last_reported":1758827260,"current_range_meters":4400,"station_id":"","pricing_plan_id":"cebpf4jnsgd1na2vs0mg"},{"bike_id":"63f9eda9-b18d-4b8e-bb03-4947dfe99a71","system_id":"levelo_inurba_marseille","lat":43.30102,"lon":5.39857,"is_reserved":false,"is_disabled":false,"rental_uris":{"android":"levelo://app?vid=63f9eda9-b18d-4b8e-bb03-4947dfe99a71","ios":"levelo://app?vid=63f9eda9-b18d-4b8e-bb03-4947dfe99a71"},"vehicle_type_id":"4","last_reported":1758827260,"current_range_meters":4400,"station_id":"ce4bh0h2rcd13ifvqd40","pricing_plan_id":"cebpf4jnsgd1na2vs0mg"},{"bike_id":"f0f4f4f4-1682-4a45-995c-d6f13a2f966c","system_id":"levelo_inurba_marseille","lat":43.295191,"lon":5.394014,"is_reserved":false,"is_disabled":false,"rental_uris":{"android":"levelo://app?vid=f0f4f4f4-1682-4a45-995c-d6f13a2f966c","ios":"levelo://app?vid=f0f4f4f4-1682-4a45-995c-d6f13a2f966c"},"vehicle_type_id":"4","last_reported":1758827260,"current_range_meters":4400,"station_id":"ce4bh292rcd13ifvqdf0","pricing_plan_id":"cebpf4jnsgd1na2vs0mg"},{"bike_id":"cba93ed5-78fe-4c22-bede-e29969f4ca2d","system_id":"levelo_inurba_marseille","lat":43.30196,"lon":5.3664,"is_reserved":false,"is_disabled":false,"rental_uris":{"android":"levelo://app?vid=cba93ed5-78fe-4c22-bede-e29969f4ca2d","ios":"levelo://app?vid=cba93ed5-78fe-4c22-bede-e29969f4ca2d"},"vehicle_type_id":"4","last_reported":1758827260,"current_range_meters":4400,"station_id":"ce4bgrh2rcd13ifvqc8g","pricing_plan_id":"cebpf4jnsgd1na2vs0mg"},{"bike_id":"2e4f7a92-51e5-473c-9439-25089a4cf8e9","system_id":"levelo_inurba_marseille","lat":43.31709,"lon":5.377566,"is_reserved":false,"is_disabled":false,"rental_uris":{"android":"levelo://app?vid=2e4f7a92-51e5-473c-9439-25089a4cf8e9","ios":"levelo://app?vid=2e4f7a92-51e5-473c-9439-25089a4cf8e9"},"vehicle_type_id":"4","last_reported":1758827260,"current_range_meters":4400,"station_id":"ce4bgth2rcd13ifvqch0","pricing_plan_id":"cebpf4jnsgd1na2vs0mg"},{"bike_id":"939538dc-20bd-4d94-8a10-8e1e0a179bc7","system_id":"levelo_inurba_marseille","lat":43.30504,"lon":5.36659,"is_reserved":false,"is_disabled":false,"rental_uris":{"android":"levelo://app?vid=939538dc-20bd-4d94-8a10-8e1e0a179bc7","ios":"levelo://app?vid=939538dc-20bd-4d94-8a10-8e1e0a179bc7"},"vehicle_type_id":"4","last_reported":1758827260,"current_range_meters":4800,"station_id":"","pricing_plan_id":"cebpf4jnsgd1na2vs0mg"},{"bike_id":"d455f08b-456e-491b-b002-15f09f16c0fb","system_id":"levelo_inurba_marseille","lat":43.25857,"lon":5.39427,"is_reserved":false,"is_disabled":false,"rental_uris":{"android":"levelo://app?vid=d455f08b-456e-491b-b002-15f09f16c0fb","ios":"levelo://app?vid=d455f08b-456e-491b-b002-15f09f16c0fb"},"vehicle_type_id":"4","last_reported":1758827260,"current_range_meters":4800,"station_id":"ce4bhip2rcd13ifvqft0","pricing_plan_id":"cebpf4jnsgd1na2vs0mg"},{"bike_id":"44a2d7f7-02d1-4155-ae99-0234699e0d1d","system_id":"levelo_inurba_marseille","lat":43.28153,"lon":5.42632,"is_reserved":false,"is_disabled":false,"rental_uris":{"android":"levelo://app?vid=44a2d7f7-02d1-4155-ae99-0234699e0d1d","ios":"levelo://app?vid=44a2d7f7-02d1-4155-ae99-0234699e0d1d"},"vehicle_type_id":"4","last_reported":1758827260,"current_range_meters":4800,"station_id":"ce4bhnh2rcd13ifvqgug","pricing_plan_id":"cebpf4jnsgd1na2vs0mg"},{"bike_id":"208333f3-1be0-46ef-8ec5-a4abb2b01562","system_id":"levelo_inurba_marseille","lat":43.266799,"lon":5.382706,"is_reserved":false,"is_disabled":false,"rental_uris":{"android":"levelo://app?vid=208333f3-1be0-46ef-8ec5-a4abb2b01562","ios":"levelo://app?vid=208333f3-1be0-46ef-8ec5-a4abb2b01562"},"vehicle_type_id":"4","last_reported":1758827260,"current_range_meters":4800,"station_id":"ce4bhg92rcd13ifvqf90","pricing_plan_id":"cebpf4jnsgd1na2vs0mg"},{"bike_id":"9c4a7bdb-c552-4dfd-8efb-40b9e0b0b147","system_id":"levelo_inurba_marseille","lat":43.30917,"lon":5.36726,"is_reserved":false,"is_disabled":false,"rental_uris":{"android":"levelo://app?vid=9c4a7bdb-c552-4dfd-8efb-40b9e0b0b147","ios":"levelo://app?vid=9c4a7bdb-c552-4dfd-8efb-40b9e0b0b147"},"vehicle_type_id":"4","last_reported":1758827260,"current_range_meters":5600,"station_id":"","pricing_plan_id":"cebpf4jnsgd1na2vs0mg"},{"bike_id":"cb3d83dd-8277-415b-bc5d-a118e1200728","system_id":"levelo_inurba_marseille","lat":43.301,"lon":5.4103,"is_reserved":false,"is_disabled":false,"rental_uris":{"android":"levelo://app?vid=cb3d83dd-8277-415b-bc5d-a118e1200728","ios":"levelo://app?vid=cb3d83dd-8277-415b-bc5d-a118e1200728"},"vehicle_type_id":"4","last_reported":1758827260,"current_range_meters":5600,"station_id":"","pricing_plan_id":"cebpf4jnsgd1na2vs0mg"},{"bike_id":"dc0b2770-7a6b-45e1-ba6c-83a9ee6f727d","system_id":"levelo_inurba_marseille","lat":43.29176,"lon":5.37156,"is_reserved":false,"is_disabled":false,"rental_uris":{"android":"levelo://app?vid=dc0b2770-7a6b-45e1-ba6c-83a9ee6f727d","ios":"levelo://app?vid=dc0b2770-7a6b-45e1-ba6c-83a9ee6f727d"},"vehicle_type_id":"4","last_reported":1758827260,"current_range_meters":4800,"station_id":"ce4bha92rcd13ifvqeh0","pricing_plan_id":"cebpf4jnsgd1na2vs0mg"},{"bike_id":"e6c19437-02b3-4db8-ae05-5982733a0a54","system_id":"levelo_inurba_marseille","lat":43.28457,"lon":5.35892,"is_reserved":false,"is_disabled":false,"rental_uris":{"android":"levelo://app?vid=e6c19437-02b3-4db8-ae05-5982733a0a54","ios":"levelo://app?vid=e6c19437-02b3-4db8-ae05-5982733a0a54"},"vehicle_type_id":"4","last_reported":1758827260,"current_range_meters":5600,"station_id":"ce4bhah2rcd13ifvqei0","pricing_plan_id":"cebpf4jnsgd1na2vs0mg"},{"bike_id":"fbe71955-8ea7-4580-9de1-f4682c2375d9","system_id":"levelo_inurba_marseille","lat":43.28036,"lon":5.36957,"is_reserved":false,"is_disabled":false,"rental_uris":{"android":"levelo://app?vid=fbe71955-8ea7-4580-9de1-f4682c2375d9","ios":"levelo://app?vid=fbe71955-8ea7-4580-9de1-f4682c2375d9"},"vehicle_type_id":"4","last_reported":1758827260,"current_range_meters":5600,"station_id":"ce4bha12rcd13ifvqef0","pricing_plan_id":"cebpf4jnsgd1na2vs0mg"},{"bike_id":"e77388af-d05b-4ee4-abd4-e457b66d7edc","system_id":"levelo_inurba_marseille","lat":43.28942,"lon":5.36396,"is_reserved":false,"is_disabled":false,"rental_uris":{"android":"levelo://app?vid=e77388af-d05b-4ee4-abd4-e457b66d7edc","ios":"levelo://app?vid=e77388af-d05b-4ee4-abd4-e457b66d7edc"},"vehicle_type_id":"4","last_reported":1758827260,"current_range_meters":6000,"station_id":"ce4bhc92rcd13ifvqetg","pricing_plan_id":"cebpf4jnsgd1na2vs0mg"},{"bike_id":"ce9add9c-d890-4f92-a73f-3357d2323003","system_id":"levelo_inurba_marseille","lat":43.29959,"lon":5.38512,"is_reserved":false,"is_disabled":false,"rental_uris":{"android":"levelo://app?vid=ce9add9c-d890-4f92-a73f-3357d2323003","ios":"levelo://app?vid=ce9add9c-d890-4f92-a73f-3357d2323003"},"vehicle_type_id":"4","last_reported":1758827260,"current_range_meters":6000,"station_id":"ce4bgj92rcd13ifvqbd0","pricing_plan_id":"cebpf4jnsgd1na2vs0mg"},{"bike_id":"b467065d-40c8-4639-a94e-77f0f1d0a8da","system_id":"levelo_inurba_marseille","lat":43.28455,"lon":5.35879,"is_reserved":false,"is_disabled":false,"rental_uris":{"android":"levelo://app?vid=b467065d-40c8-4639-a94e-77f0f1d0a8da","ios":"levelo://app?vid=b467065d-40c8-4639-a94e-77f0f1d0a8da"},"vehicle_type_id":"4","last_reported":1758827260,"current_range_meters":6000,"station_id":"ce4bhah2rcd13ifvqei0","pricing_plan_id":"cebpf4jnsgd1na2vs0mg"},{"bike_id":"8e50b7c2-5e17-49dc-9ef6-2d60b384fa7c","system_id":"levelo_inurba_marseille","lat":43.28156,"lon":5.42647,"is_reserved":false,"is_disabled":false,"rental_uris":{"android":"levelo://app?vid=8e50b7c2-5e17-49dc-9ef6-2d60b384fa7c","ios":"levelo://app?vid=8e50b7c2-5e17-49dc-9ef6-2d60b384fa7c"},"vehicle_type_id":"4","last_reported":1758827260,"current_range_meters":6000,"station_id":"ce4bhnh2rcd13ifvqgug","pricing_plan_id":"cebpf4jnsgd1na2vs0mg"},{"bike_id":"136a707a-b224-4c44-8119-f846f7b7d0a7","system_id":"levelo_inurba_marseille","lat":43.29516,"lon":5.37375,"is_reserved":false,"is_disabled":false,"rental_uris":{"android":"levelo://app?vid=136a707a-b224-4c44-8119-f846f7b7d0a7","ios":"levelo://app?vid=136a707a-b224-4c44-8119-f846f7b7d0a7"},"vehicle_type_id":"4","last_reported":1758827260,"current_range_meters":6400,"station_id":"","pricing_plan_id":"cebpf4jnsgd1na2vs0mg"},{"bike_id":"08b4a09c-7e8d-461d-b2b5-32e17358126e","system_id":"levelo_inurba_marseille","lat":43.27209,"lon":5.39174,"is_reserved":false,"is_disabled":false,"rental_uris":{"android":"levelo://app?vid=08b4a09c-7e8d-461d-b2b5-32e17358126e","ios":"levelo://app?vid=08b4a09c-7e8d-461d-b2b5-32e17358126e"},"vehicle_type_id":"4","last_reported":1758827260,"current_range_meters":6000,"station_id":"ce4bhhp2rcd13ifvqfm0","pricing_plan_id":"cebpf4jnsgd1na2vs0mg"},{"bike_id":"6b60c023-1fb0-4081-b5d4-30bb110539af","system_id":"levelo_inurba_marseille","lat":43.30353,"lon":5.41872,"is_reserved":false,"is_disabled":false,"rental_uris":{"android":"levelo://app?vid=6b60c023-1fb0-4081-b5d4-30bb110539af","ios":"levelo://app?vid=6b60c023-1fb0-4081-b5d4-30bb110539af"},"vehicle_type_id":"4","last_reported":1758827260,"current_range_meters":6400,"station_id":"ce4bhop2rcd13ifvqh7g","pricing_plan_id":"cebpf4jnsgd1na2vs0mg"},{"bike_id":"5743bd08-d66e-4fe3-b469-89fd3fbe9cdc","system_id":"levelo_inurba_marseille","lat":43.29188,"lon":5.35806,"is_reserved":false,"is_disabled":false,"rental_uris":{"android":"levelo://app?vid=5743bd08-d66e-4fe3-b469-89fd3fbe9cdc","ios":"levelo://app?vid=5743bd08-d66e-4fe3-b469-89fd3fbe9cdc"},"vehicle_type_id":"4","last_reported":1758827260,"current_range_meters":6400,"station_id":"ce4bhb12rcd13ifvqel0","pricing_plan_id":"cebpf4jnsgd1na2vs0mg"},{"bike_id":"4dd3c820-2b6e-44ba-8d31-9877c15f7e64","system_id":"levelo_inurba_marseille","lat":43.32351,"lon":5.40621,"is_reserved":false,"is_disabled":false,"rental_uris":{"android":"levelo://app?vid=4dd3c820-2b6e-44ba-8d31-9877c15f7e64","ios":"levelo://app?vid=4dd3c820-2b6e-44ba-8d31-9877c15f7e64"},"vehicle_type_id":"4","last_reported":1758827260,"current_range_meters":6400,"station_id":"ce4bhq92rcd13ifvqhjg","pricing_plan_id":"cebpf4jnsgd1na2vs0mg"},{"bike_id":"96c5bd7e-946a-4ccf-8ca0-e7654b81a798","system_id":"levelo_inurba_marseille","lat":43.29265,"lon":5.38445,"is_reserved":false,"is_disabled":false,"rental_uris":{"android":"levelo://app?vid=96c5bd7e-946a-4ccf-8ca0-e7654b81a798","ios":"levelo://app?vid=96c5bd7e-946a-4ccf-8ca0-e7654b81a798"},"vehicle_type_id":"4","last_reported":1758827260,"current_range_meters":8400,"station_id":"ce4bh692rcd13ifvqea0","pricing_plan_id":"cebpf4jnsgd1na2vs0mg"},{"bike_id":"58bcb43d-c000-4e3e-b004-30450f57645b","system_id":"levelo_inurba_marseille","lat":43.29527,"lon":5.37448,"is_reserved":false,"is_disabled":false,"rental_uris":{"android":"levelo://app?vid=58bcb43d-c000-4e3e-b004-30450f57645b","ios":"levelo://app?vid=58bcb43d-c000-4e3e-b004-30450f57645b"},"vehicle_type_id":"4","last_reported":1758827260,"current_range_meters":6800,"station_id":"","pricing_plan_id":"cebpf4jnsgd1na2vs0mg"},{"bike_id":"90e38756-d14c-40c4-80e2-d98164bc3042","system_id":"levelo_inurba_marseille","lat":43.29574,"lon":5.37535,"is_reserved":false,"is_disabled":false,"rental_uris":{"android":"levelo://app?vid=90e38756-d14c-40c4-80e2-d98164bc3042","ios":"levelo://app?vid=90e38756-d14c-40c4-80e2-d98164bc3042"},"vehicle_type_id":"4","last_reported":1758827260,"current_range_meters":6800,"station_id":"ce4bgh92rcd13ifvqb50","pricing_plan_id":"cebpf4jnsgd1na2vs0mg"},{"bike_id":"438ead59-de14-4fa0-a61d-03a70a4122ae","system_id":"levelo_inurba_marseille","lat":43.97269,"lon":4.89111,"is_reserved":false,"is_disabled":true,"rental_uris":{"android":"levelo://app?vid=438ead59-de14-4fa0-a61d-03a70a4122ae","ios":"levelo://app?vid=438ead59-de14-4fa0-a61d-03a70a4122ae"},"vehicle_type_id":"4","last_reported":1758827260,"current_range_meters":6800,"station_id":"","pricing_plan_id":"cebpf4jnsgd1na2vs0mg"},{"bike_id":"17f704a0-a604-4e38-a538-a63a42c692be","system_id":"levelo_inurba_marseille","lat":43.29173,"lon":5.37173,"is_reserved":false,"is_disabled":false,"rental_uris":{"android":"levelo://app?vid=17f704a0-a604-4e38-a538-a63a42c692be","ios":"levelo://app?vid=17f704a0-a604-4e38-a538-a63a42c692be"},"vehicle_type_id":"4","last_reported":1758827260,"current_range_meters":6800,"station_id":"ce4bha92rcd13ifvqeh0","pricing_plan_id":"cebpf4jnsgd1na2vs0mg"},{"bike_id":"ddd8c0a7-a7ac-4c34-b48b-0710c492a44c","system_id":"levelo_inurba_marseille","lat":43.32288,"lon":5.39385,"is_reserved":false,"is_disabled":false,"rental_uris":{"android":"levelo://app?vid=ddd8c0a7-a7ac-4c34-b48b-0710c492a44c","ios":"levelo://app?vid=ddd8c0a7-a7ac-4c34-b48b-0710c492a44c"},"vehicle_type_id":"4","last_reported":1758827260,"current_range_meters":6800,"station_id":"","pricing_plan_id":"cebpf4jnsgd1na2vs0mg"},{"bike_id":"4e737411-53ce-4bdf-9802-c3bc30d9bc94","system_id":"levelo_inurba_marseille","lat":43.29586,"lon":5.40709,"is_reserved":false,"is_disabled":false,"rental_uris":{"android":"levelo://app?vid=4e737411-53ce-4bdf-9802-c3bc30d9bc94","ios":"levelo://app?vid=4e737411-53ce-4bdf-9802-c3bc30d9bc94"},"vehicle_type_id":"4","last_reported":1758827260,"current_range_meters":7200,"station_id":"","pricing_plan_id":"cebpf4jnsgd1na2vs0mg"},{"bike_id":"e3118e49-d55a-4a7e-8b62-e885c0de05e0","system_id":"levelo_inurba_marseille","lat":43.32711,"lon":5.39254,"is_reserved":false,"is_disabled":false,"rental_uris":{"android":"levelo://app?vid=e3118e49-d55a-4a7e-8b62-e885c0de05e0","ios":"levelo://app?vid=e3118e49-d55a-4a7e-8b62-e885c0de05e0"},"vehicle_type_id":"4","last_reported":1758827260,"current_range_meters":7200,"station_id":"","pricing_plan_id":"cebpf4jnsgd1na2vs0mg"},{"bike_id":"8dd96a4a-f09c-49de-af96-ea3475a005dd","system_id":"levelo_inurba_marseille","lat":43.301286,"lon":5.387888,"is_reserved":false,"is_disabled":false,"rental_uris":{"android":"levelo://app?vid=8dd96a4a-f09c-49de-af96-ea3475a005dd","ios":"levelo://app?vid=8dd96a4a-f09c-49de-af96-ea3475a005dd"},"vehicle_type_id":"4","last_reported":1758827260,"current_range_meters":7200,"station_id":"ce4bghh2rcd13ifvqb60","pricing_plan_id":"cebpf4jnsgd1na2vs0mg"},{"bike_id":"09b6f38e-5698-434d-bcdb-f10054adbc70","system_id":"levelo_inurba_marseille","lat":43.31751,"lon":5.3902,"is_reserved":false,"is_disabled":false,"rental_uris":{"android":"levelo://app?vid=09b6f38e-5698-434d-bcdb-f10054adbc70","ios":"levelo://app?vid=09b6f38e-5698-434d-bcdb-f10054adbc70"},"vehicle_type_id":"4","last_reported":1758827260,"current_range_meters":7200,"station_id":"ce4bhqp2rcd13ifvqhng","pricing_plan_id":"cebpf4jnsgd1na2vs0mg"},{"bike_id":"c547fbd6-2de9-47a7-9f16-78b35123e20f","system_id":"levelo_inurba_marseille","lat":43.2407,"lon":5.37765,"is_reserved":false,"is_disabled":false,"rental_uris":{"android":"levelo://app?vid=c547fbd6-2de9-47a7-9f16-78b35123e20f","ios":"levelo://app?vid=c547fbd6-2de9-47a7-9f16-78b35123e20f"},"vehicle_type_id":"4","last_reported":1758827260,"current_range_meters":7200,"station_id":"ce4bhnp2rcd13ifvqgvg","pricing_plan_id":"cebpf4jnsgd1na2vs0mg"},{"bike_id":"62894e59-58e7-44df-adb9-b61c946f4f5c","system_id":"levelo_inurba_marseille","lat":43.28615,"lon":5.35101,"is_reserved":false,"is_disabled":false,"rental_uris":{"android":"levelo://app?vid=62894e59-58e7-44df-adb9-b61c946f4f5c","ios":"levelo://app?vid=62894e59-58e7-44df-adb9-b61c946f4f5c"},"vehicle_type_id":"4","last_reported":1758827260,"current_range_meters":7200,"station_id":"ce4bhch2rcd13ifvqeug","pricing_plan_id":"cebpf4jnsgd1na2vs0mg"},{"bike_id":"a38d7c18-1501-4f26-acb6-1c3b36bb2cf9","system_id":"levelo_inurba_marseille","lat":43.300884,"lon":5.390766,"is_reserved":false,"is_disabled":false,"rental_uris":{"android":"levelo://app?vid=a38d7c18-1501-4f26-acb6-1c3b36bb2cf9","ios":"levelo://app?vid=a38d7c18-1501-4f26-acb6-1c3b36bb2cf9"},"vehicle_type_id":"4","last_reported":1758827260,"current_range_meters":7200,"station_id":"ce4bh192rcd13ifvqdb0","pricing_plan_id":"cebpf4jnsgd1na2vs0mg"},{"bike_id":"069a836b-5a03-43a3-a809-fd0b218a6a49","system_id":"levelo_inurba_marseille","lat":43.26553,"lon":5.3729,"is_reserved":false,"is_disabled":false,"rental_uris":{"android":"levelo://app?vid=069a836b-5a03-43a3-a809-fd0b218a6a49","ios":"levelo://app?vid=069a836b-5a03-43a3-a809-fd0b218a6a49"},"vehicle_type_id":"4","last_reported":1758827260,"current_range_meters":7200,"station_id":"ce4bhg12rcd13ifvqf70","pricing_plan_id":"cebpf4jnsgd1na2vs0mg"},{"bike_id":"8425bdcc-052b-4c44-af33-ed39b1d648d8","system_id":"levelo_inurba_marseille","lat":43.28759,"lon":5.40012,"is_reserved":false,"is_disabled":true,"rental_uris":{"android":"levelo://app?vid=8425bdcc-052b-4c44-af33-ed39b1d648d8","ios":"levelo://app?vid=8425bdcc-052b-4c44-af33-ed39b1d648d8"},"vehicle_type_id":"4","last_reported":1758827260,"current_range_meters":7200,"station_id":"ce4bho92rcd13ifvqh3g","pricing_plan_id":"cebpf4jnsgd1na2vs0mg"},{"bike_id":"d79ade9c-797e-44e1-81e9-08700b3f7cc3","system_id":"levelo_inurba_marseille","lat":43.30149,"lon":5.39866,"is_reserved":false,"is_disabled":false,"rental_uris":{"android":"levelo://app?vid=d79ade9c-797e-44e1-81e9-08700b3f7cc3","ios":"levelo://app?vid=d79ade9c-797e-44e1-81e9-08700b3f7cc3"},"vehicle_type_id":"4","last_reported":1758827260,"current_range_meters":400,"station_id":"ce4bh0h2rcd13ifvqd40","pricing_plan_id":"cebpf4jnsgd1na2vs0mg"},{"bike_id":"a294ec25-f643-41e6-b75e-f26534f372ee","system_id":"levelo_inurba_marseille","lat":43.29199,"lon":5.3884,"is_reserved":false,"is_disabled":false,"rental_uris":{"android":"levelo://app?vid=a294ec25-f643-41e6-b75e-f26534f372ee","ios":"levelo://app?vid=a294ec25-f643-41e6-b75e-f26534f372ee"},"vehicle_type_id":"4","last_reported":1758827260,"current_range_meters":7200,"station_id":"","pricing_plan_id":"cebpf4jnsgd1na2vs0mg"},{"bike_id":"0d149f35-ad4d-48d7-8463-4dd39e2fdfb8","system_id":"levelo_inurba_marseille","lat":43.29538,"lon":5.38549,"is_reserved":false,"is_disabled":false,"rental_uris":{"android":"levelo://app?vid=0d149f35-ad4d-48d7-8463-4dd39e2fdfb8","ios":"levelo://app?vid=0d149f35-ad4d-48d7-8463-4dd39e2fdfb8"},"vehicle_type_id":"4","last_reported":1758827260,"current_range_meters":7200,"station_id":"ce4bgih2rcd13ifvqba0","pricing_plan_id":"cebpf4jnsgd1na2vs0mg"},{"bike_id":"d354ec98-01d7-4b55-bec4-abd29718e136","system_id":"levelo_inurba_marseille","lat":43.27982,"lon":5.41657,"is_reserved":false,"is_disabled":false,"rental_uris":{"android":"levelo://app?vid=d354ec98-01d7-4b55-bec4-abd29718e136","ios":"levelo://app?vid=d354ec98-01d7-4b55-bec4-abd29718e136"},"vehicle_type_id":"4","last_reported":1758827260,"current_range_meters":8000,"station_id":"ce4bho12rcd13ifvqh1g","pricing_plan_id":"cebpf4jnsgd1na2vs0mg"},{"bike_id":"83e7feca-07ae-400b-a85a-c6a81865d028","system_id":"levelo_inurba_marseille","lat":43.2779,"lon":5.40711,"is_reserved":false,"is_disabled":false,"rental_uris":{"android":"levelo://app?vid=83e7feca-07ae-400b-a85a-c6a81865d028","ios":"levelo://app?vid=83e7feca-07ae-400b-a85a-c6a81865d028"},"vehicle_type_id":"4","last_reported":1758827260,"current_range_meters":8000,"station_id":"ce4bhnh2rcd13ifvqgtg","pricing_plan_id":"cebpf4jnsgd1na2vs0mg"},{"bike_id":"6eb75fc4-80bc-4f33-b6fc-16352b7fb9e3","system_id":"levelo_inurba_marseille","lat":43.29223,"lon":5.36069,"is_reserved":false,"is_disabled":false,"rental_uris":{"android":"levelo://app?vid=6eb75fc4-80bc-4f33-b6fc-16352b7fb9e3","ios":"levelo://app?vid=6eb75fc4-80bc-4f33-b6fc-16352b7fb9e3"},"vehicle_type_id":"4","last_reported":1758827260,"current_range_meters":8400,"station_id":"ce4bhbh2rcd13ifvqeqg","pricing_plan_id":"cebpf4jnsgd1na2vs0mg"},{"bike_id":"2e3e2341-4f79-4086-85e3-dae48d8cf587","system_id":"levelo_inurba_marseille","lat":43.29198,"lon":5.39323,"is_reserved":false,"is_disabled":false,"rental_uris":{"android":"levelo://app?vid=2e3e2341-4f79-4086-85e3-dae48d8cf587","ios":"levelo://app?vid=2e3e2341-4f79-4086-85e3-dae48d8cf587"},"vehicle_type_id":"4","last_reported":1758827260,"current_range_meters":8400,"station_id":"ce4bh192rcd13ifvqdd0","pricing_plan_id":"cebpf4jnsgd1na2vs0mg"},{"bike_id":"cc5e13b7-99f1-4234-b84e-fa2be6a8110b","system_id":"levelo_inurba_marseille","lat":43.29272,"lon":5.40115,"is_reserved":false,"is_disabled":false,"rental_uris":{"android":"levelo://app?vid=cc5e13b7-99f1-4234-b84e-fa2be6a8110b","ios":"levelo://app?vid=cc5e13b7-99f1-4234-b84e-fa2be6a8110b"},"vehicle_type_id":"4","last_reported":1758827260,"current_range_meters":8400,"station_id":"ce4bh312rcd13ifvqdk0","pricing_plan_id":"cebpf4jnsgd1na2vs0mg"},{"bike_id":"daff55f2-6526-47d5-aba9-cd3e2fa83856","system_id":"levelo_inurba_marseille","lat":43.30326,"lon":5.40437,"is_reserved":false,"is_disabled":false,"rental_uris":{"android":"levelo://app?vid=daff55f2-6526-47d5-aba9-cd3e2fa83856","ios":"levelo://app?vid=daff55f2-6526-47d5-aba9-cd3e2fa83856"},"vehicle_type_id":"4","last_reported":1758827260,"current_range_meters":8400,"station_id":"ce4bh012rcd13ifvqd10","pricing_plan_id":"cebpf4jnsgd1na2vs0mg"},{"bike_id":"94b2f036-4ca4-4693-89f2-72df2150ee98","system_id":"levelo_inurba_marseille","lat":43.258265,"lon":5.394374,"is_reserved":false,"is_disabled":true,"rental_uris":{"android":"levelo://app?vid=94b2f036-4ca4-4693-89f2-72df2150ee98","ios":"levelo://app?vid=94b2f036-4ca4-4693-89f2-72df2150ee98"},"vehicle_type_id":"4","last_reported":1758827260,"current_range_meters":8400,"station_id":"ce4bhip2rcd13ifvqft0","pricing_plan_id":"cebpf4jnsgd1na2vs0mg"},{"bike_id":"f7ef8091-7bd4-4b82-a9d6-cec8e8a3c8d5","system_id":"levelo_inurba_marseille","lat":43.28729,"lon":5.36106,"is_reserved":false,"is_disabled":false,"rental_uris":{"android":"levelo://app?vid=f7ef8091-7bd4-4b82-a9d6-cec8e8a3c8d5","ios":"levelo://app?vid=f7ef8091-7bd4-4b82-a9d6-cec8e8a3c8d5"},"vehicle_type_id":"4","last_reported":1758827260,"current_range_meters":8000,"station_id":"cki0cbj6b192h4jlfktg","pricing_plan_id":"cebpf4jnsgd1na2vs0mg"},{"bike_id":"bee49cfd-75fa-49cc-b956-3e4e8839d0a1","system_id":"levelo_inurba_marseille","lat":43.30333,"lon":5.40435,"is_reserved":false,"is_disabled":false,"rental_uris":{"android":"levelo://app?vid=bee49cfd-75fa-49cc-b956-3e4e8839d0a1","ios":"levelo://app?vid=bee49cfd-75fa-49cc-b956-3e4e8839d0a1"},"vehicle_type_id":"4","last_reported":1758827260,"current_range_meters":8800,"station_id":"ce4bh012rcd13ifvqd10","pricing_plan_id":"cebpf4jnsgd1na2vs0mg"},{"bike_id":"84eae1a9-726c-4379-9a14-754f0dceeeae","system_id":"levelo_inurba_marseille","lat":43.28739,"lon":5.3795,"is_reserved":false,"is_disabled":false,"rental_uris":{"android":"levelo://app?vid=84eae1a9-726c-4379-9a14-754f0dceeeae","ios":"levelo://app?vid=84eae1a9-726c-4379-9a14-754f0dceeeae"},"vehicle_type_id":"4","last_reported":1758827260,"current_range_meters":8800,"station_id":"ce4bh9p2rcd13ifvqec0","pricing_plan_id":"cebpf4jnsgd1na2vs0mg"},{"bike_id":"8b9c1af0-2252-4e4a-836f-6ffcea587190","system_id":"levelo_inurba_marseille","lat":43.29241,"lon":5.39808,"is_reserved":false,"is_disabled":false,"rental_uris":{"android":"levelo://app?vid=8b9c1af0-2252-4e4a-836f-6ffcea587190","ios":"levelo://app?vid=8b9c1af0-2252-4e4a-836f-6ffcea587190"},"vehicle_type_id":"4","last_reported":1758827260,"current_range_meters":8800,"station_id":"ce4bh312rcd13ifvqdk0","pricing_plan_id":"cebpf4jnsgd1na2vs0mg"},{"bike_id":"59b8c9c3-2324-4ac0-9f3e-660bdfb6eb2c","system_id":"levelo_inurba_marseille","lat":43.28235,"lon":5.39074,"is_reserved":false,"is_disabled":false,"rental_uris":{"android":"levelo://app?vid=59b8c9c3-2324-4ac0-9f3e-660bdfb6eb2c","ios":"levelo://app?vid=59b8c9c3-2324-4ac0-9f3e-660bdfb6eb2c"},"vehicle_type_id":"4","last_reported":1758827260,"current_range_meters":8800,"station_id":"ce4bhn92rcd13ifvqgsg","pricing_plan_id":"cebpf4jnsgd1na2vs0mg"},{"bike_id":"8e46f1a9-01fb-4252-9e22-e9eb527bbba3","system_id":"levelo_inurba_marseille","lat":43.30318,"lon":5.40448,"is_reserved":false,"is_disabled":false,"rental_uris":{"android":"levelo://app?vid=8e46f1a9-01fb-4252-9e22-e9eb527bbba3","ios":"levelo://app?vid=8e46f1a9-01fb-4252-9e22-e9eb527bbba3"},"vehicle_type_id":"4","last_reported":1758827260,"current_range_meters":8400,"station_id":"ce4bh012rcd13ifvqd10","pricing_plan_id":"cebpf4jnsgd1na2vs0mg"},{"bike_id":"450844ba-2fc2-47be-9959-8fee61f07fb6","system_id":"levelo_inurba_marseille","lat":43.31741,"lon":5.39024,"is_reserved":false,"is_disabled":false,"rental_uris":{"android":"levelo://app?vid=450844ba-2fc2-47be-9959-8fee61f07fb6","ios":"levelo://app?vid=450844ba-2fc2-47be-9959-8fee61f07fb6"},"vehicle_type_id":"4","last_reported":1758827260,"current_range_meters":9200,"station_id":"ce4bhqp2rcd13ifvqhng","pricing_plan_id":"cebpf4jnsgd1na2vs0mg"},{"bike_id":"3617bd03-1cc8-43e3-92d0-1be77da5b237","system_id":"levelo_inurba_marseille","lat":43.29565,"lon":5.37527,"is_reserved":false,"is_disabled":false,"rental_uris":{"android":"levelo://app?vid=3617bd03-1cc8-43e3-92d0-1be77da5b237","ios":"levelo://app?vid=3617bd03-1cc8-43e3-92d0-1be77da5b237"},"vehicle_type_id":"4","last_reported":1758827260,"current_range_meters":9200,"station_id":"ce4bgh92rcd13ifvqb50","pricing_plan_id":"cebpf4jnsgd1na2vs0mg"},{"bike_id":"16b67c36-1f37-42f9-bfb9-7dc38d051001","system_id":"levelo_inurba_marseille","lat":43.29202,"lon":5.35804,"is_reserved":false,"is_disabled":false,"rental_uris":{"android":"levelo://app?vid=16b67c36-1f37-42f9-bfb9-7dc38d051001","ios":"levelo://app?vid=16b67c36-1f37-42f9-bfb9-7dc38d051001"},"vehicle_type_id":"4","last_reported":1758827260,"current_range_meters":9200,"station_id":"ce4bhb12rcd13ifvqel0","pricing_plan_id":"cebpf4jnsgd1na2vs0mg"},{"bike_id":"aa200d5b-4ba2-4c3f-9fd7-30e24b2cf02d","system_id":"levelo_inurba_marseille","lat":43.29211,"lon":5.36069,"is_reserved":false,"is_disabled":false,"rental_uris":{"android":"levelo://app?vid=aa200d5b-4ba2-4c3f-9fd7-30e24b2cf02d","ios":"levelo://app?vid=aa200d5b-4ba2-4c3f-9fd7-30e24b2cf02d"},"vehicle_type_id":"4","last_reported":1758827260,"current_range_meters":9200,"station_id":"ce4bhbh2rcd13ifvqeqg","pricing_plan_id":"cebpf4jnsgd1na2vs0mg"},{"bike_id":"c288b821-23d5-4c01-b670-30cd2e413fec","system_id":"levelo_inurba_marseille","lat":43.28568,"lon":5.39503,"is_reserved":false,"is_disabled":false,"rental_uris":{"android":"levelo://app?vid=c288b821-23d5-4c01-b670-30cd2e413fec","ios":"levelo://app?vid=c288b821-23d5-4c01-b670-30cd2e413fec"},"vehicle_type_id":"4","last_reported":1758827260,"current_range_meters":9200,"station_id":"ce4bh292rcd13ifvqdg0","pricing_plan_id":"cebpf4jnsgd1na2vs0mg"},{"bike_id":"4035ffcf-62d8-4fb0-89da-8d7b6b41ef29","system_id":"levelo_inurba_marseille","lat":43.294306,"lon":5.397766,"is_reserved":false,"is_disabled":true,"rental_uris":{"android":"levelo://app?vid=4035ffcf-62d8-4fb0-89da-8d7b6b41ef29","ios":"levelo://app?vid=4035ffcf-62d8-4fb0-89da-8d7b6b41ef29"},"vehicle_type_id":"4","last_reported":1758827260,"current_range_meters":9200,"station_id":"ce4bh3h2rcd13ifvqdo0","pricing_plan_id":"cebpf4jnsgd1na2vs0mg"},{"bike_id":"3a83ddcd-ce03-4ed4-a7fa-b273c2464f02","system_id":"levelo_inurba_marseille","lat":43.27954,"lon":5.36331,"is_reserved":false,"is_disabled":false,"rental_uris":{"android":"levelo://app?vid=3a83ddcd-ce03-4ed4-a7fa-b273c2464f02","ios":"levelo://app?vid=3a83ddcd-ce03-4ed4-a7fa-b273c2464f02"},"vehicle_type_id":"4","last_reported":1758827260,"current_range_meters":9200,"station_id":"","pricing_plan_id":"cebpf4jnsgd1na2vs0mg"},{"bike_id":"117acf13-6b03-4ee3-b4a5-edb1f47e11bc","system_id":"levelo_inurba_marseille","lat":43.26828,"lon":5.38715,"is_reserved":false,"is_disabled":false,"rental_uris":{"android":"levelo://app?vid=117acf13-6b03-4ee3-b4a5-edb1f47e11bc","ios":"levelo://app?vid=117acf13-6b03-4ee3-b4a5-edb1f47e11bc"},"vehicle_type_id":"4","last_reported":1758827260,"current_range_meters":9200,"station_id":"","pricing_plan_id":"cebpf4jnsgd1na2vs0mg"},{"bike_id":"355efcf8-6a25-4cbf-8a7b-35f776245b00","system_id":"levelo_inurba_marseille","lat":43.27495,"lon":5.42463,"is_reserved":false,"is_disabled":false,"rental_uris":{"android":"levelo://app?vid=355efcf8-6a25-4cbf-8a7b-35f776245b00","ios":"levelo://app?vid=355efcf8-6a25-4cbf-8a7b-35f776245b00"},"vehicle_type_id":"4","last_reported":1758827260,"current_range_meters":9600,"station_id":"ce4bhn92rcd13ifvqgrg","pricing_plan_id":"cebpf4jnsgd1na2vs0mg"},{"bike_id":"379911e0-a8b9-4b05-96ac-c75be54d3c45","system_id":"levelo_inurba_marseille","lat":43.28864,"lon":5.42518,"is_reserved":false,"is_disabled":false,"rental_uris":{"android":"levelo://app?vid=379911e0-a8b9-4b05-96ac-c75be54d3c45","ios":"levelo://app?vid=379911e0-a8b9-4b05-96ac-c75be54d3c45"},"vehicle_type_id":"4","last_reported":1758827260,"current_range_meters":9600,"station_id":"","pricing_plan_id":"cebpf4jnsgd1na2vs0mg"},{"bike_id":"daa76238-a91b-449c-82ca-e9bb9db06cbb","system_id":"levelo_inurba_marseille","lat":43.27974,"lon":5.38738,"is_reserved":false,"is_disabled":false,"rental_uris":{"android":"levelo://app?vid=daa76238-a91b-449c-82ca-e9bb9db06cbb","ios":"levelo://app?vid=daa76238-a91b-449c-82ca-e9bb9db06cbb"},"vehicle_type_id":"4","last_reported":1758827260,"current_range_meters":9600,"station_id":"ce4bhg12rcd13ifvqf80","pricing_plan_id":"cebpf4jnsgd1na2vs0mg"},{"bike_id":"b2c05481-917c-4c16-a8b5-4e43fb2b428c","system_id":"levelo_inurba_marseille","lat":43.2999,"lon":5.37178,"is_reserved":false,"is_disabled":false,"rental_uris":{"android":"levelo://app?vid=b2c05481-917c-4c16-a8b5-4e43fb2b428c","ios":"levelo://app?vid=b2c05481-917c-4c16-a8b5-4e43fb2b428c"},"vehicle_type_id":"4","last_reported":1758827260,"current_range_meters":9600,"station_id":"ce4bgr92rcd13ifvqc7g","pricing_plan_id":"cebpf4jnsgd1na2vs0mg"},{"bike_id":"147a9bc4-82b7-4f48-b285-b8af3535419e","system_id":"levelo_inurba_marseille","lat":43.30333,"lon":5.40435,"is_reserved":false,"is_disabled":false,"rental_uris":{"android":"levelo://app?vid=147a9bc4-82b7-4f48-b285-b8af3535419e","ios":"levelo://app?vid=147a9bc4-82b7-4f48-b285-b8af3535419e"},"vehicle_type_id":"4","last_reported":1758827260,"current_range_meters":10000,"station_id":"ce4bh012rcd13ifvqd10","pricing_plan_id":"cebpf4jnsgd1na2vs0mg"},{"bike_id":"8eae954c-dab6-4303-94f5-569e1c483f62","system_id":"levelo_inurba_marseille","lat":43.29454,"lon":5.40753,"is_reserved":false,"is_disabled":false,"rental_uris":{"android":"levelo://app?vid=8eae954c-dab6-4303-94f5-569e1c483f62","ios":"levelo://app?vid=8eae954c-dab6-4303-94f5-569e1c483f62"},"vehicle_type_id":"4","last_reported":1758827260,"current_range_meters":10000,"station_id":"","pricing_plan_id":"cebpf4jnsgd1na2vs0mg"},{"bike_id":"6433a73b-b2e6-4dad-a21d-5969fb6f6a20","system_id":"levelo_inurba_marseille","lat":43.29595,"lon":5.38108,"is_reserved":false,"is_disabled":false,"rental_uris":{"android":"levelo://app?vid=6433a73b-b2e6-4dad-a21d-5969fb6f6a20","ios":"levelo://app?vid=6433a73b-b2e6-4dad-a21d-5969fb6f6a20"},"vehicle_type_id":"4","last_reported":1758827260,"current_range_meters":10000,"station_id":"ce4bgl12rcd13ifvqbo0","pricing_plan_id":"cebpf4jnsgd1na2vs0mg"},{"bike_id":"0e9ca394-4351-4bf8-a641-f4e5215baf20","system_id":"levelo_inurba_marseille","lat":43.28268,"lon":5.35082,"is_reserved":false,"is_disabled":false,"rental_uris":{"android":"levelo://app?vid=0e9ca394-4351-4bf8-a641-f4e5215baf20","ios":"levelo://app?vid=0e9ca394-4351-4bf8-a641-f4e5215baf20"},"vehicle_type_id":"4","last_reported":1758827260,"current_range_meters":10000,"station_id":"ce4bhbp2rcd13ifvqerg","pricing_plan_id":"cebpf4jnsgd1na2vs0mg"},{"bike_id":"237c6c1c-3b20-4dcb-82ea-76107a136d3e","system_id":"levelo_inurba_marseille","lat":43.29279,"lon":5.36853,"is_reserved":false,"is_disabled":true,"rental_uris":{"android":"levelo://app?vid=237c6c1c-3b20-4dcb-82ea-76107a136d3e","ios":"levelo://app?vid=237c6c1c-3b20-4dcb-82ea-76107a136d3e"},"vehicle_type_id":"4","last_reported":1758827260,"current_range_meters":10000,"station_id":"ce4bhbp2rcd13ifvqesg","pricing_plan_id":"cebpf4jnsgd1na2vs0mg"},{"bike_id":"363fb36f-820e-4736-aff7-544dc507452c","system_id":"levelo_inurba_marseille","lat":43.3015,"lon":5.38799,"is_reserved":false,"is_disabled":false,"rental_uris":{"android":"levelo://app?vid=363fb36f-820e-4736-aff7-544dc507452c","ios":"levelo://app?vid=363fb36f-820e-4736-aff7-544dc507452c"},"vehicle_type_id":"4","last_reported":1758827260,"current_range_meters":10000,"station_id":"ce4bghh2rcd13ifvqb60","pricing_plan_id":"cebpf4jnsgd1na2vs0mg"},{"bike_id":"0ef81889-2d7f-4e70-b480-0b08f55cbfba","system_id":"levelo_inurba_marseille","lat":43.308565,"lon":5.368524,"is_reserved":false,"is_disabled":false,"rental_uris":{"android":"levelo://app?vid=0ef81889-2d7f-4e70-b480-0b08f55cbfba","ios":"levelo://app?vid=0ef81889-2d7f-4e70-b480-0b08f55cbfba"},"vehicle_type_id":"4","last_reported":1758827260,"current_range_meters":10000,"station_id":"","pricing_plan_id":"cebpf4jnsgd1na2vs0mg"},{"bike_id":"8584eb3e-f7b4-4300-97fe-005a37d8d75b","system_id":"levelo_inurba_marseille","lat":43.3683,"lon":5.36291,"is_reserved":false,"is_disabled":false,"rental_uris":{"android":"levelo://app?vid=8584eb3e-f7b4-4300-97fe-005a37d8d75b","ios":"levelo://app?vid=8584eb3e-f7b4-4300-97fe-005a37d8d75b"},"vehicle_type_id":"4","last_reported":1758827260,"current_range_meters":10000,"station_id":"","pricing_plan_id":"cebpf4jnsgd1na2vs0mg"},{"bike_id":"d5632eaf-207f-4351-be9c-95c58bc9c538","system_id":"levelo_inurba_marseille","lat":43.2955,"lon":5.37512,"is_reserved":false,"is_disabled":true,"rental_uris":{"android":"levelo://app?vid=d5632eaf-207f-4351-be9c-95c58bc9c538","ios":"levelo://app?vid=d5632eaf-207f-4351-be9c-95c58bc9c538"},"vehicle_type_id":"4","last_reported":1758827260,"current_range_meters":10800,"station_id":"ce4bgkp2rcd13ifvqbmg","pricing_plan_id":"cebpf4jnsgd1na2vs0mg"},{"bike_id":"839e8892-f1f3-4aa0-9be9-9c759b67c3db","system_id":"levelo_inurba_marseille","lat":43.2656,"lon":5.39008,"is_reserved":false,"is_disabled":false,"rental_uris":{"android":"levelo://app?vid=839e8892-f1f3-4aa0-9be9-9c759b67c3db","ios":"levelo://app?vid=839e8892-f1f3-4aa0-9be9-9c759b67c3db"},"vehicle_type_id":"4","last_reported":1758827260,"current_range_meters":10800,"station_id":"ce4bhe12rcd13ifvqf30","pricing_plan_id":"cebpf4jnsgd1na2vs0mg"},{"bike_id":"b6be3344-b696-4680-9e86-c7ab86730bed","system_id":"levelo_inurba_marseille","lat":43.29542,"lon":5.38553,"is_reserved":false,"is_disabled":false,"rental_uris":{"android":"levelo://app?vid=b6be3344-b696-4680-9e86-c7ab86730bed","ios":"levelo://app?vid=b6be3344-b696-4680-9e86-c7ab86730bed"},"vehicle_type_id":"4","last_reported":1758827260,"current_range_meters":10800,"station_id":"ce4bgih2rcd13ifvqba0","pricing_plan_id":"cebpf4jnsgd1na2vs0mg"},{"bike_id":"39b43575-42ab-4df9-8856-bab93b23c062","system_id":"levelo_inurba_marseille","lat":43.30145,"lon":5.37417,"is_reserved":false,"is_disabled":false,"rental_uris":{"android":"levelo://app?vid=39b43575-42ab-4df9-8856-bab93b23c062","ios":"levelo://app?vid=39b43575-42ab-4df9-8856-bab93b23c062"},"vehicle_type_id":"4","last_reported":1758827260,"current_range_meters":10000,"station_id":"ce4bgs92rcd13ifvqcc0","pricing_plan_id":"cebpf4jnsgd1na2vs0mg"},{"bike_id":"abff92fe-f96f-4781-a78b-17a215b37c6a","system_id":"levelo_inurba_marseille","lat":43.28943,"lon":5.38386,"is_reserved":false,"is_disabled":false,"rental_uris":{"android":"levelo://app?vid=abff92fe-f96f-4781-a78b-17a215b37c6a","ios":"levelo://app?vid=abff92fe-f96f-4781-a78b-17a215b37c6a"},"vehicle_type_id":"4","last_reported":1758827260,"current_range_meters":10800,"station_id":"ce4bh612rcd13ifvqe6g","pricing_plan_id":"cebpf4jnsgd1na2vs0mg"},{"bike_id":"bdec3261-de13-477f-818b-7af8ae1d1f6a","system_id":"levelo_inurba_marseille","lat":43.23926,"lon":5.37695,"is_reserved":false,"is_disabled":false,"rental_uris":{"android":"levelo://app?vid=bdec3261-de13-477f-818b-7af8ae1d1f6a","ios":"levelo://app?vid=bdec3261-de13-477f-818b-7af8ae1d1f6a"},"vehicle_type_id":"4","last_reported":1758827260,"current_range_meters":10800,"station_id":"","pricing_plan_id":"cebpf4jnsgd1na2vs0mg"},{"bike_id":"7522683e-37c4-42ea-8d99-1da84686c31d","system_id":"levelo_inurba_marseille","lat":43.306505,"lon":5.400827,"is_reserved":false,"is_disabled":true,"rental_uris":{"android":"levelo://app?vid=7522683e-37c4-42ea-8d99-1da84686c31d","ios":"levelo://app?vid=7522683e-37c4-42ea-8d99-1da84686c31d"},"vehicle_type_id":"4","last_reported":1758827260,"current_range_meters":10800,"station_id":"ce4bh112rcd13ifvqda0","pricing_plan_id":"cebpf4jnsgd1na2vs0mg"},{"bike_id":"93425f83-d391-4f84-b2d6-a0c7a4fd144e","system_id":"levelo_inurba_marseille","lat":43.26033,"lon":5.37548,"is_reserved":false,"is_disabled":false,"rental_uris":{"android":"levelo://app?vid=93425f83-d391-4f84-b2d6-a0c7a4fd144e","ios":"levelo://app?vid=93425f83-d391-4f84-b2d6-a0c7a4fd144e"},"vehicle_type_id":"4","last_reported":1758827260,"current_range_meters":10000,"station_id":"ce4bhgh2rcd13ifvqfa0","pricing_plan_id":"cebpf4jnsgd1na2vs0mg"},{"bike_id":"36fce021-90b4-4dc3-8ea3-d6024faf8f05","system_id":"levelo_inurba_marseille","lat":43.28416,"lon":5.34989,"is_reserved":false,"is_disabled":false,"rental_uris":{"android":"levelo://app?vid=36fce021-90b4-4dc3-8ea3-d6024faf8f05","ios":"levelo://app?vid=36fce021-90b4-4dc3-8ea3-d6024faf8f05"},"vehicle_type_id":"4","last_reported":1758827260,"current_range_meters":10800,"station_id":"ce4bhbh2rcd13ifvqepg","pricing_plan_id":"cebpf4jnsgd1na2vs0mg"},{"bike_id":"8a85ee6b-78b8-461d-b465-1e1e97c9656b","system_id":"levelo_inurba_marseille","lat":43.31368,"lon":5.3849,"is_reserved":false,"is_disabled":false,"rental_uris":{"android":"levelo://app?vid=8a85ee6b-78b8-461d-b465-1e1e97c9656b","ios":"levelo://app?vid=8a85ee6b-78b8-461d-b465-1e1e97c9656b"},"vehicle_type_id":"4","last_reported":1758827260,"current_range_meters":10800,"station_id":"ce4bgt92rcd13ifvqcf0","pricing_plan_id":"cebpf4jnsgd1na2vs0mg"},{"bike_id":"67b8aaae-0d39-414d-ba59-1a62d33b4066","system_id":"levelo_inurba_marseille","lat":43.30517,"lon":5.40007,"is_reserved":false,"is_disabled":false,"rental_uris":{"android":"levelo://app?vid=67b8aaae-0d39-414d-ba59-1a62d33b4066","ios":"levelo://app?vid=67b8aaae-0d39-414d-ba59-1a62d33b4066"},"vehicle_type_id":"4","last_reported":1758827260,"current_range_meters":10800,"station_id":"","pricing_plan_id":"cebpf4jnsgd1na2vs0mg"},{"bike_id":"003515e8-8117-44bb-979d-5f47e8d50fda","system_id":"levelo_inurba_marseille","lat":43.30623,"lon":5.37562,"is_reserved":false,"is_disabled":false,"rental_uris":{"android":"levelo://app?vid=003515e8-8117-44bb-979d-5f47e8d50fda","ios":"levelo://app?vid=003515e8-8117-44bb-979d-5f47e8d50fda"},"vehicle_type_id":"4","last_reported":1758827260,"current_range_meters":11200,"station_id":"","pricing_plan_id":"cebpf4jnsgd1na2vs0mg"},{"bike_id":"faaacc5b-8af1-4661-8273-5bf79f6c92e9","system_id":"levelo_inurba_marseille","lat":43.31181,"lon":5.38721,"is_reserved":false,"is_disabled":false,"rental_uris":{"android":"levelo://app?vid=faaacc5b-8af1-4661-8273-5bf79f6c92e9","ios":"levelo://app?vid=faaacc5b-8af1-4661-8273-5bf79f6c92e9"},"vehicle_type_id":"4","last_reported":1758827260,"current_range_meters":11200,"station_id":"ce4bgv12rcd13ifvqcp0","pricing_plan_id":"cebpf4jnsgd1na2vs0mg"},{"bike_id":"5ab45971-f3d9-4051-b916-62c07f12de9b","system_id":"levelo_inurba_marseille","lat":43.29533,"lon":5.39026,"is_reserved":false,"is_disabled":false,"rental_uris":{"android":"levelo://app?vid=5ab45971-f3d9-4051-b916-62c07f12de9b","ios":"levelo://app?vid=5ab45971-f3d9-4051-b916-62c07f12de9b"},"vehicle_type_id":"4","last_reported":1758827260,"current_range_meters":10800,"station_id":"ce4bh3p2rcd13ifvqdp0","pricing_plan_id":"cebpf4jnsgd1na2vs0mg"},{"bike_id":"f56a851d-654d-47fc-968f-fed2969edfb2","system_id":"levelo_inurba_marseille","lat":43.27839,"lon":5.39202,"is_reserved":false,"is_disabled":false,"rental_uris":{"android":"levelo://app?vid=f56a851d-654d-47fc-968f-fed2969edfb2","ios":"levelo://app?vid=f56a851d-654d-47fc-968f-fed2969edfb2"},"vehicle_type_id":"4","last_reported":1758827260,"current_range_meters":11200,"station_id":"ce4bhjp2rcd13ifvqga0","pricing_plan_id":"cebpf4jnsgd1na2vs0mg"},{"bike_id":"1d83c96d-d874-4e8c-bc91-af13c750bf6c","system_id":"levelo_inurba_marseille","lat":43.26566,"lon":5.40324,"is_reserved":false,"is_disabled":false,"rental_uris":{"android":"levelo://app?vid=1d83c96d-d874-4e8c-bc91-af13c750bf6c","ios":"levelo://app?vid=1d83c96d-d874-4e8c-bc91-af13c750bf6c"},"vehicle_type_id":"4","last_reported":1758827260,"current_range_meters":11200,"station_id":"ce4bhmp2rcd13ifvqgng","pricing_plan_id":"cebpf4jnsgd1na2vs0mg"},{"bike_id":"e179c07d-1d53-4e59-b4b0-bc24c7d45b69","system_id":"levelo_inurba_marseille","lat":43.29028,"lon":5.3864,"is_reserved":false,"is_disabled":false,"rental_uris":{"android":"levelo://app?vid=e179c07d-1d53-4e59-b4b0-bc24c7d45b69","ios":"levelo://app?vid=e179c07d-1d53-4e59-b4b0-bc24c7d45b69"},"vehicle_type_id":"4","last_reported":1758827260,"current_range_meters":11200,"station_id":"ce4bh4p2rcd13ifvqe0g","pricing_plan_id":"cebpf4jnsgd1na2vs0mg"},{"bike_id":"22d8f0b2-ccdf-4f53-a8ae-ea03424d27d3","system_id":"levelo_inurba_marseille","lat":43.23185,"lon":5.39981,"is_reserved":false,"is_disabled":false,"rental_uris":{"android":"levelo://app?vid=22d8f0b2-ccdf-4f53-a8ae-ea03424d27d3","ios":"levelo://app?vid=22d8f0b2-ccdf-4f53-a8ae-ea03424d27d3"},"vehicle_type_id":"4","last_reported":1758827260,"current_range_meters":11200,"station_id":"ce4bhn12rcd13ifvqgqg","pricing_plan_id":"cebpf4jnsgd1na2vs0mg"},{"bike_id":"d9b8fa0e-57f1-4026-9be2-2d0e2e94a52b","system_id":"levelo_inurba_marseille","lat":43.2462,"lon":5.43144,"is_reserved":false,"is_disabled":false,"rental_uris":{"android":"levelo://app?vid=d9b8fa0e-57f1-4026-9be2-2d0e2e94a52b","ios":"levelo://app?vid=d9b8fa0e-57f1-4026-9be2-2d0e2e94a52b"},"vehicle_type_id":"4","last_reported":1758827260,"current_range_meters":11200,"station_id":"st_d2m6c4gdas8pm72e190g","pricing_plan_id":"cebpf4jnsgd1na2vs0mg"},{"bike_id":"91a7af58-e5b6-4061-9925-7ba6efc20e01","system_id":"levelo_inurba_marseille","lat":43.28155,"lon":5.4267,"is_reserved":false,"is_disabled":false,"rental_uris":{"android":"levelo://app?vid=91a7af58-e5b6-4061-9925-7ba6efc20e01","ios":"levelo://app?vid=91a7af58-e5b6-4061-9925-7ba6efc20e01"},"vehicle_type_id":"4","last_reported":1758827260,"current_range_meters":11200,"station_id":"ce4bhnh2rcd13ifvqgug","pricing_plan_id":"cebpf4jnsgd1na2vs0mg"},{"bike_id":"46923300-e0d3-40c1-8c76-7dadc761100f","system_id":"levelo_inurba_marseille","lat":43.28982,"lon":5.35603,"is_reserved":false,"is_disabled":false,"rental_uris":{"android":"levelo://app?vid=46923300-e0d3-40c1-8c76-7dadc761100f","ios":"levelo://app?vid=46923300-e0d3-40c1-8c76-7dadc761100f"},"vehicle_type_id":"4","last_reported":1758827260,"current_range_meters":11200,"station_id":"ce4bhb92rcd13ifvqen0","pricing_plan_id":"cebpf4jnsgd1na2vs0mg"},{"bike_id":"212de2eb-8bbc-413c-b204-9fe1facd76e8","system_id":"levelo_inurba_marseille","lat":43.31307,"lon":5.37825,"is_reserved":false,"is_disabled":false,"rental_uris":{"android":"levelo://app?vid=212de2eb-8bbc-413c-b204-9fe1facd76e8","ios":"levelo://app?vid=212de2eb-8bbc-413c-b204-9fe1facd76e8"},"vehicle_type_id":"4","last_reported":1758827260,"current_range_meters":11200,"station_id":"","pricing_plan_id":"cebpf4jnsgd1na2vs0mg"},{"bike_id":"13f15e6f-6b9c-4cb1-b451-283d129c884e","system_id":"levelo_inurba_marseille","lat":43.29196,"lon":5.39336,"is_reserved":false,"is_disabled":false,"rental_uris":{"android":"levelo://app?vid=13f15e6f-6b9c-4cb1-b451-283d129c884e","ios":"levelo://app?vid=13f15e6f-6b9c-4cb1-b451-283d129c884e"},"vehicle_type_id":"4","last_reported":1758827260,"current_range_meters":11200,"station_id":"ce4bh192rcd13ifvqdd0","pricing_plan_id":"cebpf4jnsgd1na2vs0mg"},{"bike_id":"6d82eb49-6834-44b3-8fad-36f63b0f82a8","system_id":"levelo_inurba_marseille","lat":43.29266,"lon":5.40912,"is_reserved":false,"is_disabled":false,"rental_uris":{"android":"levelo://app?vid=6d82eb49-6834-44b3-8fad-36f63b0f82a8","ios":"levelo://app?vid=6d82eb49-6834-44b3-8fad-36f63b0f82a8"},"vehicle_type_id":"4","last_reported":1758827260,"current_range_meters":11200,"station_id":"ce4bh192rcd13ifvqdc0","pricing_plan_id":"cebpf4jnsgd1na2vs0mg"},{"bike_id":"7fefda97-99a0-4e88-b6b0-30735d562e23","system_id":"levelo_inurba_marseille","lat":43.27557,"lon":5.38423,"is_reserved":false,"is_disabled":false,"rental_uris":{"android":"levelo://app?vid=7fefda97-99a0-4e88-b6b0-30735d562e23","ios":"levelo://app?vid=7fefda97-99a0-4e88-b6b0-30735d562e23"},"vehicle_type_id":"4","last_reported":1758827260,"current_range_meters":11200,"station_id":"ce4bhh92rcd13ifvqfi0","pricing_plan_id":"cebpf4jnsgd1na2vs0mg"},{"bike_id":"29ddd986-79e7-472d-b56b-85c078e887a3","system_id":"levelo_inurba_marseille","lat":43.28685,"lon":5.4,"is_reserved":false,"is_disabled":false,"rental_uris":{"android":"levelo://app?vid=29ddd986-79e7-472d-b56b-85c078e887a3","ios":"levelo://app?vid=29ddd986-79e7-472d-b56b-85c078e887a3"},"vehicle_type_id":"4","last_reported":1758827260,"current_range_meters":11600,"station_id":"ce4bho92rcd13ifvqh3g","pricing_plan_id":"cebpf4jnsgd1na2vs0mg"},{"bike_id":"2bd2a176-8590-4e06-8b8c-a96b49b7b36a","system_id":"levelo_inurba_marseille","lat":43.242409,"lon":5.41085,"is_reserved":false,"is_disabled":false,"rental_uris":{"android":"levelo://app?vid=2bd2a176-8590-4e06-8b8c-a96b49b7b36a","ios":"levelo://app?vid=2bd2a176-8590-4e06-8b8c-a96b49b7b36a"},"vehicle_type_id":"4","last_reported":1758827260,"current_range_meters":11600,"station_id":"","pricing_plan_id":"cebpf4jnsgd1na2vs0mg"},{"bike_id":"f9af076b-c426-46f0-97f6-f6a5a530c8e2","system_id":"levelo_inurba_marseille","lat":43.33049,"lon":5.39466,"is_reserved":false,"is_disabled":false,"rental_uris":{"android":"levelo://app?vid=f9af076b-c426-46f0-97f6-f6a5a530c8e2","ios":"levelo://app?vid=f9af076b-c426-46f0-97f6-f6a5a530c8e2"},"vehicle_type_id":"4","last_reported":1758827260,"current_range_meters":11600,"station_id":"","pricing_plan_id":"cebpf4jnsgd1na2vs0mg"},{"bike_id":"504a7b5d-3b61-4f43-a1a0-086da922a9b4","system_id":"levelo_inurba_marseille","lat":43.251032,"lon":5.395733,"is_reserved":false,"is_disabled":false,"rental_uris":{"android":"levelo://app?vid=504a7b5d-3b61-4f43-a1a0-086da922a9b4","ios":"levelo://app?vid=504a7b5d-3b61-4f43-a1a0-086da922a9b4"},"vehicle_type_id":"4","last_reported":1758827260,"current_range_meters":11600,"station_id":"ce4bhm12rcd13ifvqgkg","pricing_plan_id":"cebpf4jnsgd1na2vs0mg"},{"bike_id":"dd47cc9a-8f6a-4c62-9b7c-bd17d8798bcf","system_id":"levelo_inurba_marseille","lat":43.27916,"lon":5.39583,"is_reserved":false,"is_disabled":false,"rental_uris":{"android":"levelo://app?vid=dd47cc9a-8f6a-4c62-9b7c-bd17d8798bcf","ios":"levelo://app?vid=dd47cc9a-8f6a-4c62-9b7c-bd17d8798bcf"},"vehicle_type_id":"4","last_reported":1758827260,"current_range_meters":11600,"station_id":"ce4bhf92rcd13ifvqf40","pricing_plan_id":"cebpf4jnsgd1na2vs0mg"},{"bike_id":"e793b8a8-4611-4404-a8bd-2a019b0a204d","system_id":"levelo_inurba_marseille","lat":43.29598,"lon":5.38629,"is_reserved":false,"is_disabled":false,"rental_uris":{"android":"levelo://app?vid=e793b8a8-4611-4404-a8bd-2a019b0a204d","ios":"levelo://app?vid=e793b8a8-4611-4404-a8bd-2a019b0a204d"},"vehicle_type_id":"4","last_reported":1758827260,"current_range_meters":12000,"station_id":"","pricing_plan_id":"cebpf4jnsgd1na2vs0mg"},{"bike_id":"c0bbf566-f0c7-4a53-8f57-0bdc0943cbb0","system_id":"levelo_inurba_marseille","lat":43.24389,"lon":5.37058,"is_reserved":false,"is_disabled":false,"rental_uris":{"android":"levelo://app?vid=c0bbf566-f0c7-4a53-8f57-0bdc0943cbb0","ios":"levelo://app?vid=c0bbf566-f0c7-4a53-8f57-0bdc0943cbb0"},"vehicle_type_id":"4","last_reported":1758827260,"current_range_meters":11600,"station_id":"ce4bhhh2rcd13ifvqfk0","pricing_plan_id":"cebpf4jnsgd1na2vs0mg"},{"bike_id":"02212ec5-e517-4a4c-bf69-5117e317eb1a","system_id":"levelo_inurba_marseille","lat":43.32098,"lon":5.36797,"is_reserved":false,"is_disabled":false,"rental_uris":{"android":"levelo://app?vid=02212ec5-e517-4a4c-bf69-5117e317eb1a","ios":"levelo://app?vid=02212ec5-e517-4a4c-bf69-5117e317eb1a"},"vehicle_type_id":"4","last_reported":1758827260,"current_range_meters":12000,"station_id":"ce4bhrh2rcd13ifvqhug","pricing_plan_id":"cebpf4jnsgd1na2vs0mg"},{"bike_id":"623865ec-2214-4964-848c-9f7d06a9251a","system_id":"levelo_inurba_marseille","lat":43.3269,"lon":5.39274,"is_reserved":false,"is_disabled":false,"rental_uris":{"android":"levelo://app?vid=623865ec-2214-4964-848c-9f7d06a9251a","ios":"levelo://app?vid=623865ec-2214-4964-848c-9f7d06a9251a"},"vehicle_type_id":"4","last_reported":1758827260,"current_range_meters":12000,"station_id":"","pricing_plan_id":"cebpf4jnsgd1na2vs0mg"},{"bike_id":"f1644bb9-107b-4ff8-8fce-449c2a8d1111","system_id":"levelo_inurba_marseille","lat":43.30545,"lon":5.36556,"is_reserved":false,"is_disabled":false,"rental_uris":{"android":"levelo://app?vid=f1644bb9-107b-4ff8-8fce-449c2a8d1111","ios":"levelo://app?vid=f1644bb9-107b-4ff8-8fce-449c2a8d1111"},"vehicle_type_id":"4","last_reported":1758827260,"current_range_meters":11600,"station_id":"ce4bgs12rcd13ifvqcag","pricing_plan_id":"cebpf4jnsgd1na2vs0mg"},{"bike_id":"4dbf5452-dd4f-4c2e-a2a7-b6051bea8087","system_id":"levelo_inurba_marseille","lat":43.292673,"lon":5.384339,"is_reserved":false,"is_disabled":false,"rental_uris":{"android":"levelo://app?vid=4dbf5452-dd4f-4c2e-a2a7-b6051bea8087","ios":"levelo://app?vid=4dbf5452-dd4f-4c2e-a2a7-b6051bea8087"},"vehicle_type_id":"4","last_reported":1758827260,"current_range_meters":12000,"station_id":"ce4bh512rcd13ifvqe3g","pricing_plan_id":"cebpf4jnsgd1na2vs0mg"},{"bike_id":"7bc9e158-af64-4fa0-a3d2-6f150a0bd49d","system_id":"levelo_inurba_marseille","lat":43.24638,"lon":5.43143,"is_reserved":false,"is_disabled":false,"rental_uris":{"android":"levelo://app?vid=7bc9e158-af64-4fa0-a3d2-6f150a0bd49d","ios":"levelo://app?vid=7bc9e158-af64-4fa0-a3d2-6f150a0bd49d"},"vehicle_type_id":"4","last_reported":1758827260,"current_range_meters":12400,"station_id":"st_d2m6c4gdas8pm72e190g","pricing_plan_id":"cebpf4jnsgd1na2vs0mg"},{"bike_id":"cee3c36d-9304-42e6-a4ef-d96f70adb757","system_id":"levelo_inurba_marseille","lat":43.24949,"lon":5.40494,"is_reserved":false,"is_disabled":false,"rental_uris":{"android":"levelo://app?vid=cee3c36d-9304-42e6-a4ef-d96f70adb757","ios":"levelo://app?vid=cee3c36d-9304-42e6-a4ef-d96f70adb757"},"vehicle_type_id":"4","last_reported":1758827260,"current_range_meters":12400,"station_id":"st_d2ngiaodas8pm72gd1h0","pricing_plan_id":"cebpf4jnsgd1na2vs0mg"},{"bike_id":"1c27f7d4-507d-43e2-b324-44f5e35dee72","system_id":"levelo_inurba_marseille","lat":43.32317,"lon":5.39313,"is_reserved":false,"is_disabled":false,"rental_uris":{"android":"levelo://app?vid=1c27f7d4-507d-43e2-b324-44f5e35dee72","ios":"levelo://app?vid=1c27f7d4-507d-43e2-b324-44f5e35dee72"},"vehicle_type_id":"4","last_reported":1758827260,"current_range_meters":12400,"station_id":"","pricing_plan_id":"cebpf4jnsgd1na2vs0mg"},{"bike_id":"c5ab64bf-78c4-42cd-8ad8-d5c54f85cca0","system_id":"levelo_inurba_marseille","lat":43.292566,"lon":5.384423,"is_reserved":false,"is_disabled":true,"rental_uris":{"android":"levelo://app?vid=c5ab64bf-78c4-42cd-8ad8-d5c54f85cca0","ios":"levelo://app?vid=c5ab64bf-78c4-42cd-8ad8-d5c54f85cca0"},"vehicle_type_id":"4","last_reported":1758827260,"current_range_meters":12800,"station_id":"ce4bh692rcd13ifvqea0","pricing_plan_id":"cebpf4jnsgd1na2vs0mg"},{"bike_id":"3731e4b4-e57b-4ad8-affe-801decac42ca","system_id":"levelo_inurba_marseille","lat":43.24959,"lon":5.405,"is_reserved":false,"is_disabled":false,"rental_uris":{"android":"levelo://app?vid=3731e4b4-e57b-4ad8-affe-801decac42ca","ios":"levelo://app?vid=3731e4b4-e57b-4ad8-affe-801decac42ca"},"vehicle_type_id":"4","last_reported":1758827260,"current_range_meters":12400,"station_id":"st_d2ngiaodas8pm72gd1h0","pricing_plan_id":"cebpf4jnsgd1na2vs0mg"},{"bike_id":"2e22e098-1e6e-4376-9dcc-d2faf4d95e30","system_id":"levelo_inurba_marseille","lat":43.295272,"lon":5.37827,"is_reserved":false,"is_disabled":false,"rental_uris":{"android":"levelo://app?vid=2e22e098-1e6e-4376-9dcc-d2faf4d95e30","ios":"levelo://app?vid=2e22e098-1e6e-4376-9dcc-d2faf4d95e30"},"vehicle_type_id":"4","last_reported":1758827260,"current_range_meters":12400,"station_id":"","pricing_plan_id":"cebpf4jnsgd1na2vs0mg"},{"bike_id":"d31d856a-933d-49cf-948f-ce03657dfc74","system_id":"levelo_inurba_marseille","lat":43.28423,"lon":5.34984,"is_reserved":false,"is_disabled":false,"rental_uris":{"android":"levelo://app?vid=d31d856a-933d-49cf-948f-ce03657dfc74","ios":"levelo://app?vid=d31d856a-933d-49cf-948f-ce03657dfc74"},"vehicle_type_id":"4","last_reported":1758827260,"current_range_meters":12400,"station_id":"ce4bhbh2rcd13ifvqepg","pricing_plan_id":"cebpf4jnsgd1na2vs0mg"},{"bike_id":"fc71c58a-0998-4ad7-adf3-f0dcb9e5585b","system_id":"levelo_inurba_marseille","lat":43.23229,"lon":5.39993,"is_reserved":false,"is_disabled":false,"rental_uris":{"android":"levelo://app?vid=fc71c58a-0998-4ad7-adf3-f0dcb9e5585b","ios":"levelo://app?vid=fc71c58a-0998-4ad7-adf3-f0dcb9e5585b"},"vehicle_type_id":"4","last_reported":1758827260,"current_range_meters":12000,"station_id":"","pricing_plan_id":"cebpf4jnsgd1na2vs0mg"},{"bike_id":"402b573d-229b-4b0e-977a-075c271e85c6","system_id":"levelo_inurba_marseille","lat":43.28865,"lon":5.42528,"is_reserved":false,"is_disabled":false,"rental_uris":{"android":"levelo://app?vid=402b573d-229b-4b0e-977a-075c271e85c6","ios":"levelo://app?vid=402b573d-229b-4b0e-977a-075c271e85c6"},"vehicle_type_id":"4","last_reported":1758827260,"current_range_meters":12800,"station_id":"","pricing_plan_id":"cebpf4jnsgd1na2vs0mg"},{"bike_id":"4d71684d-c2d2-49c2-91e2-9725d0228516","system_id":"levelo_inurba_marseille","lat":43.29199,"lon":5.39323,"is_reserved":false,"is_disabled":false,"rental_uris":{"android":"levelo://app?vid=4d71684d-c2d2-49c2-91e2-9725d0228516","ios":"levelo://app?vid=4d71684d-c2d2-49c2-91e2-9725d0228516"},"vehicle_type_id":"4","last_reported":1758827260,"current_range_meters":12800,"station_id":"ce4bh192rcd13ifvqdd0","pricing_plan_id":"cebpf4jnsgd1na2vs0mg"},{"bike_id":"f897d300-643c-4c7a-951b-f56d70ef23ca","system_id":"levelo_inurba_marseille","lat":43.30336,"lon":5.39079,"is_reserved":false,"is_disabled":false,"rental_uris":{"android":"levelo://app?vid=f897d300-643c-4c7a-951b-f56d70ef23ca","ios":"levelo://app?vid=f897d300-643c-4c7a-951b-f56d70ef23ca"},"vehicle_type_id":"4","last_reported":1758827260,"current_range_meters":12800,"station_id":"","pricing_plan_id":"cebpf4jnsgd1na2vs0mg"},{"bike_id":"b780d6a0-bdad-4f34-ba23-e9394f177431","system_id":"levelo_inurba_marseille","lat":43.25826,"lon":5.39439,"is_reserved":false,"is_disabled":false,"rental_uris":{"android":"levelo://app?vid=b780d6a0-bdad-4f34-ba23-e9394f177431","ios":"levelo://app?vid=b780d6a0-bdad-4f34-ba23-e9394f177431"},"vehicle_type_id":"4","last_reported":1758827260,"current_range_meters":12400,"station_id":"ce4bhip2rcd13ifvqft0","pricing_plan_id":"cebpf4jnsgd1na2vs0mg"},{"bike_id":"a2e0624f-d13c-4ca4-b803-eb42731914aa","system_id":"levelo_inurba_marseille","lat":43.30157,"lon":5.38793,"is_reserved":false,"is_disabled":false,"rental_uris":{"android":"levelo://app?vid=a2e0624f-d13c-4ca4-b803-eb42731914aa","ios":"levelo://app?vid=a2e0624f-d13c-4ca4-b803-eb42731914aa"},"vehicle_type_id":"4","last_reported":1758827260,"current_range_meters":12800,"station_id":"ce4bghh2rcd13ifvqb60","pricing_plan_id":"cebpf4jnsgd1na2vs0mg"},{"bike_id":"d93c128a-6821-4f58-a6cf-cfaa951dcdb7","system_id":"levelo_inurba_marseille","lat":43.30259,"lon":5.40085,"is_reserved":false,"is_disabled":false,"rental_uris":{"android":"levelo://app?vid=d93c128a-6821-4f58-a6cf-cfaa951dcdb7","ios":"levelo://app?vid=d93c128a-6821-4f58-a6cf-cfaa951dcdb7"},"vehicle_type_id":"4","last_reported":1758827260,"current_range_meters":12800,"station_id":"ce4bgvh2rcd13ifvqcs0","pricing_plan_id":"cebpf4jnsgd1na2vs0mg"},{"bike_id":"a1e2404f-3d30-4fe5-af7e-5612a01b9837","system_id":"levelo_inurba_marseille","lat":43.2926,"lon":5.38444,"is_reserved":false,"is_disabled":false,"rental_uris":{"android":"levelo://app?vid=a1e2404f-3d30-4fe5-af7e-5612a01b9837","ios":"levelo://app?vid=a1e2404f-3d30-4fe5-af7e-5612a01b9837"},"vehicle_type_id":"4","last_reported":1758827260,"current_range_meters":12800,"station_id":"ce4bh692rcd13ifvqea0","pricing_plan_id":"cebpf4jnsgd1na2vs0mg"},{"bike_id":"1c35bf83-ebdb-4c44-ba8d-eb30d817a599","system_id":"levelo_inurba_marseille","lat":43.304251,"lon":5.39741,"is_reserved":false,"is_disabled":true,"rental_uris":{"android":"levelo://app?vid=1c35bf83-ebdb-4c44-ba8d-eb30d817a599","ios":"levelo://app?vid=1c35bf83-ebdb-4c44-ba8d-eb30d817a599"},"vehicle_type_id":"4","last_reported":1758827260,"current_range_meters":12800,"station_id":"","pricing_plan_id":"cebpf4jnsgd1na2vs0mg"},{"bike_id":"b102f3a5-cc8c-4a23-b6db-b5573e9e3643","system_id":"levelo_inurba_marseille","lat":43.24809,"lon":5.37459,"is_reserved":false,"is_disabled":false,"rental_uris":{"android":"levelo://app?vid=b102f3a5-cc8c-4a23-b6db-b5573e9e3643","ios":"levelo://app?vid=b102f3a5-cc8c-4a23-b6db-b5573e9e3643"},"vehicle_type_id":"4","last_reported":1758827260,"current_range_meters":12800,"station_id":"ce4bhgh2rcd13ifvqfb0","pricing_plan_id":"cebpf4jnsgd1na2vs0mg"},{"bike_id":"bf60379a-1338-496e-bd27-34660fb129f8","system_id":"levelo_inurba_marseille","lat":43.28859,"lon":5.35859,"is_reserved":false,"is_disabled":false,"rental_uris":{"android":"levelo://app?vid=bf60379a-1338-496e-bd27-34660fb129f8","ios":"levelo://app?vid=bf60379a-1338-496e-bd27-34660fb129f8"},"vehicle_type_id":"4","last_reported":1758827260,"current_range_meters":12800,"station_id":"ce4bhb12rcd13ifvqem0","pricing_plan_id":"cebpf4jnsgd1na2vs0mg"},{"bike_id":"e5303607-da03-4ac7-b81e-b332ede84cf7","system_id":"levelo_inurba_marseille","lat":43.313058,"lon":5.378167,"is_reserved":false,"is_disabled":false,"rental_uris":{"android":"levelo://app?vid=e5303607-da03-4ac7-b81e-b332ede84cf7","ios":"levelo://app?vid=e5303607-da03-4ac7-b81e-b332ede84cf7"},"vehicle_type_id":"4","last_reported":1758827260,"current_range_meters":12800,"station_id":"","pricing_plan_id":"cebpf4jnsgd1na2vs0mg"},{"bike_id":"1595830a-6722-4480-aed7-8836f3043bd7","system_id":"levelo_inurba_marseille","lat":43.292606,"lon":5.384372,"is_reserved":false,"is_disabled":false,"rental_uris":{"android":"levelo://app?vid=1595830a-6722-4480-aed7-8836f3043bd7","ios":"levelo://app?vid=1595830a-6722-4480-aed7-8836f3043bd7"},"vehicle_type_id":"4","last_reported":1758827260,"current_range_meters":13600,"station_id":"ce4bh692rcd13ifvqea0","pricing_plan_id":"cebpf4jnsgd1na2vs0mg"},{"bike_id":"358b5bd0-bd1a-4b9c-b0d1-08dbb5ab85b3","system_id":"levelo_inurba_marseille","lat":43.270488,"lon":5.402797,"is_reserved":false,"is_disabled":false,"rental_uris":{"android":"levelo://app?vid=358b5bd0-bd1a-4b9c-b0d1-08dbb5ab85b3","ios":"levelo://app?vid=358b5bd0-bd1a-4b9c-b0d1-08dbb5ab85b3"},"vehicle_type_id":"4","last_reported":1758827260,"current_range_meters":13600,"station_id":"ce4bhk92rcd13ifvqgc0","pricing_plan_id":"cebpf4jnsgd1na2vs0mg"},{"bike_id":"e7ff35e4-c4d7-4171-87a5-355f3771a20a","system_id":"levelo_inurba_marseille","lat":43.29284,"lon":5.38409,"is_reserved":false,"is_disabled":false,"rental_uris":{"android":"levelo://app?vid=e7ff35e4-c4d7-4171-87a5-355f3771a20a","ios":"levelo://app?vid=e7ff35e4-c4d7-4171-87a5-355f3771a20a"},"vehicle_type_id":"4","last_reported":1758827260,"current_range_meters":13600,"station_id":"ce4bh692rcd13ifvqea0","pricing_plan_id":"cebpf4jnsgd1na2vs0mg"},{"bike_id":"e4ca5159-dd8e-4ae4-8209-ea06eecef222","system_id":"levelo_inurba_marseille","lat":43.31168,"lon":5.38727,"is_reserved":false,"is_disabled":false,"rental_uris":{"android":"levelo://app?vid=e4ca5159-dd8e-4ae4-8209-ea06eecef222","ios":"levelo://app?vid=e4ca5159-dd8e-4ae4-8209-ea06eecef222"},"vehicle_type_id":"4","last_reported":1758827260,"current_range_meters":13600,"station_id":"ce4bgv12rcd13ifvqcp0","pricing_plan_id":"cebpf4jnsgd1na2vs0mg"},{"bike_id":"d0117cc1-5687-42d8-bad4-5ef4920976a1","system_id":"levelo_inurba_marseille","lat":43.2844,"lon":5.39183,"is_reserved":false,"is_disabled":false,"rental_uris":{"android":"levelo://app?vid=d0117cc1-5687-42d8-bad4-5ef4920976a1","ios":"levelo://app?vid=d0117cc1-5687-42d8-bad4-5ef4920976a1"},"vehicle_type_id":"4","last_reported":1758827260,"current_range_meters":13600,"station_id":"ce4bhoh2rcd13ifvqh5g","pricing_plan_id":"cebpf4jnsgd1na2vs0mg"},{"bike_id":"c7f6a08b-c655-4213-b2ba-7d02e7f382fe","system_id":"levelo_inurba_marseille","lat":43.27988,"lon":5.39483,"is_reserved":false,"is_disabled":false,"rental_uris":{"android":"levelo://app?vid=c7f6a08b-c655-4213-b2ba-7d02e7f382fe","ios":"levelo://app?vid=c7f6a08b-c655-4213-b2ba-7d02e7f382fe"},"vehicle_type_id":"4","last_reported":1758827260,"current_range_meters":13600,"station_id":"","pricing_plan_id":"cebpf4jnsgd1na2vs0mg"},{"bike_id":"6ca2b908-82c8-4fdd-bcf9-b993af6cb52b","system_id":"levelo_inurba_marseille","lat":43.287233,"lon":5.389239,"is_reserved":false,"is_disabled":false,"rental_uris":{"android":"levelo://app?vid=6ca2b908-82c8-4fdd-bcf9-b993af6cb52b","ios":"levelo://app?vid=6ca2b908-82c8-4fdd-bcf9-b993af6cb52b"},"vehicle_type_id":"4","last_reported":1758827260,"current_range_meters":13600,"station_id":"ce4bgih2rcd13ifvqba0","pricing_plan_id":"cebpf4jnsgd1na2vs0mg"},{"bike_id":"0f543efc-b649-42ec-8a3d-e07cf3d39ba4","system_id":"levelo_inurba_marseille","lat":43.29264,"lon":5.38439,"is_reserved":false,"is_disabled":false,"rental_uris":{"android":"levelo://app?vid=0f543efc-b649-42ec-8a3d-e07cf3d39ba4","ios":"levelo://app?vid=0f543efc-b649-42ec-8a3d-e07cf3d39ba4"},"vehicle_type_id":"4","last_reported":1758827260,"current_range_meters":13600,"station_id":"ce4bh692rcd13ifvqea0","pricing_plan_id":"cebpf4jnsgd1na2vs0mg"},{"bike_id":"b01b5bc6-6834-41fb-be97-f5b6fb7e9ec8","system_id":"levelo_inurba_marseille","lat":43.26318,"lon":5.39863,"is_reserved":false,"is_disabled":false,"rental_uris":{"android":"levelo://app?vid=b01b5bc6-6834-41fb-be97-f5b6fb7e9ec8","ios":"levelo://app?vid=b01b5bc6-6834-41fb-be97-f5b6fb7e9ec8"},"vehicle_type_id":"4","last_reported":1758827260,"current_range_meters":14000,"station_id":"","pricing_plan_id":"cebpf4jnsgd1na2vs0mg"},{"bike_id":"d0146a8e-5e5f-4833-bbd4-a7253471834a","system_id":"levelo_inurba_marseille","lat":43.27307,"lon":5.392322,"is_reserved":false,"is_disabled":false,"rental_uris":{"android":"levelo://app?vid=d0146a8e-5e5f-4833-bbd4-a7253471834a","ios":"levelo://app?vid=d0146a8e-5e5f-4833-bbd4-a7253471834a"},"vehicle_type_id":"4","last_reported":1758827260,"current_range_meters":14000,"station_id":"ce4bhk92rcd13ifvqgc0","pricing_plan_id":"cebpf4jnsgd1na2vs0mg"},{"bike_id":"cddb7ebd-de34-4a31-a786-4398f6485c53","system_id":"levelo_inurba_marseille","lat":43.30419,"lon":5.39747,"is_reserved":false,"is_disabled":false,"rental_uris":{"android":"levelo://app?vid=cddb7ebd-de34-4a31-a786-4398f6485c53","ios":"levelo://app?vid=cddb7ebd-de34-4a31-a786-4398f6485c53"},"vehicle_type_id":"4","last_reported":1758827260,"current_range_meters":14000,"station_id":"ce4bh092rcd13ifvqd20","pricing_plan_id":"cebpf4jnsgd1na2vs0mg"},{"bike_id":"11a160ff-b883-4187-aac8-caac1341135a","system_id":"levelo_inurba_marseille","lat":43.24943,"lon":5.40507,"is_reserved":false,"is_disabled":false,"rental_uris":{"android":"levelo://app?vid=11a160ff-b883-4187-aac8-caac1341135a","ios":"levelo://app?vid=11a160ff-b883-4187-aac8-caac1341135a"},"vehicle_type_id":"4","last_reported":1758827260,"current_range_meters":14000,"station_id":"st_d2ngiaodas8pm72gd1h0","pricing_plan_id":"cebpf4jnsgd1na2vs0mg"},{"bike_id":"4de6bf9d-26f7-48a3-bf76-48f5e72a3668","system_id":"levelo_inurba_marseille","lat":43.28862,"lon":5.39326,"is_reserved":false,"is_disabled":false,"rental_uris":{"android":"levelo://app?vid=4de6bf9d-26f7-48a3-bf76-48f5e72a3668","ios":"levelo://app?vid=4de6bf9d-26f7-48a3-bf76-48f5e72a3668"},"vehicle_type_id":"4","last_reported":1758827260,"current_range_meters":14000,"station_id":"ce4bh2p2rcd13ifvqdi0","pricing_plan_id":"cebpf4jnsgd1na2vs0mg"},{"bike_id":"7f88e5d8-c68a-4c0a-8004-489c781db840","system_id":"levelo_inurba_marseille","lat":43.30422,"lon":5.4128,"is_reserved":false,"is_disabled":false,"rental_uris":{"android":"levelo://app?vid=7f88e5d8-c68a-4c0a-8004-489c781db840","ios":"levelo://app?vid=7f88e5d8-c68a-4c0a-8004-489c781db840"},"vehicle_type_id":"4","last_reported":1758827260,"current_range_meters":14400,"station_id":"ce4bhop2rcd13ifvqh8g","pricing_plan_id":"cebpf4jnsgd1na2vs0mg"},{"bike_id":"28b93b0c-829d-436b-83e4-2ba6337c57a8","system_id":"levelo_inurba_marseille","lat":43.24645,"lon":5.38904,"is_reserved":false,"is_disabled":false,"rental_uris":{"android":"levelo://app?vid=28b93b0c-829d-436b-83e4-2ba6337c57a8","ios":"levelo://app?vid=28b93b0c-829d-436b-83e4-2ba6337c57a8"},"vehicle_type_id":"4","last_reported":1758827260,"current_range_meters":14400,"station_id":"ce4bhg12rcd13ifvqf60","pricing_plan_id":"cebpf4jnsgd1na2vs0mg"},{"bike_id":"0d54f249-b891-4504-a5ff-687b2a4870e6","system_id":"levelo_inurba_marseille","lat":43.28609,"lon":5.35103,"is_reserved":false,"is_disabled":false,"rental_uris":{"android":"levelo://app?vid=0d54f249-b891-4504-a5ff-687b2a4870e6","ios":"levelo://app?vid=0d54f249-b891-4504-a5ff-687b2a4870e6"},"vehicle_type_id":"4","last_reported":1758827260,"current_range_meters":14400,"station_id":"ce4bhch2rcd13ifvqeug","pricing_plan_id":"cebpf4jnsgd1na2vs0mg"},{"bike_id":"4d4db815-b6ce-4b32-90cd-e31208705b5b","system_id":"levelo_inurba_marseille","lat":43.28645,"lon":5.3636,"is_reserved":false,"is_disabled":false,"rental_uris":{"android":"levelo://app?vid=4d4db815-b6ce-4b32-90cd-e31208705b5b","ios":"levelo://app?vid=4d4db815-b6ce-4b32-90cd-e31208705b5b"},"vehicle_type_id":"4","last_reported":1758827260,"current_range_meters":14400,"station_id":"ce4bhah2rcd13ifvqej0","pricing_plan_id":"cebpf4jnsgd1na2vs0mg"},{"bike_id":"87c11965-076e-4550-9974-a643a31a03fa","system_id":"levelo_inurba_marseille","lat":43.26227,"lon":5.40452,"is_reserved":false,"is_disabled":false,"rental_uris":{"android":"levelo://app?vid=87c11965-076e-4550-9974-a643a31a03fa","ios":"levelo://app?vid=87c11965-076e-4550-9974-a643a31a03fa"},"vehicle_type_id":"4","last_reported":1758827260,"current_range_meters":14400,"station_id":"ce4bhmh2rcd13ifvqgmg","pricing_plan_id":"cebpf4jnsgd1na2vs0mg"},{"bike_id":"d734f0f7-bb82-4cbc-9571-824c32d91d22","system_id":"levelo_inurba_marseille","lat":43.241702,"lon":5.364009,"is_reserved":false,"is_disabled":false,"rental_uris":{"android":"levelo://app?vid=d734f0f7-bb82-4cbc-9571-824c32d91d22","ios":"levelo://app?vid=d734f0f7-bb82-4cbc-9571-824c32d91d22"},"vehicle_type_id":"4","last_reported":1758827260,"current_range_meters":14400,"station_id":"cpo36qri1sfpv3e86is0","pricing_plan_id":"cebpf4jnsgd1na2vs0mg"},{"bike_id":"041cd397-24ab-4e04-af23-07b961e161f4","system_id":"levelo_inurba_marseille","lat":43.337444,"lon":5.374475,"is_reserved":false,"is_disabled":false,"rental_uris":{"android":"levelo://app?vid=041cd397-24ab-4e04-af23-07b961e161f4","ios":"levelo://app?vid=041cd397-24ab-4e04-af23-07b961e161f4"},"vehicle_type_id":"4","last_reported":1758827260,"current_range_meters":14400,"station_id":"","pricing_plan_id":"cebpf4jnsgd1na2vs0mg"},{"bike_id":"6730e1a2-3dd4-4c98-96f6-fb07e00826cf","system_id":"levelo_inurba_marseille","lat":43.2407,"lon":5.37758,"is_reserved":false,"is_disabled":false,"rental_uris":{"android":"levelo://app?vid=6730e1a2-3dd4-4c98-96f6-fb07e00826cf","ios":"levelo://app?vid=6730e1a2-3dd4-4c98-96f6-fb07e00826cf"},"vehicle_type_id":"4","last_reported":1758827260,"current_range_meters":14400,"station_id":"ce4bhnp2rcd13ifvqgvg","pricing_plan_id":"cebpf4jnsgd1na2vs0mg"},{"bike_id":"df649d25-1f44-4471-8cdd-9566da8ef9b9","system_id":"levelo_inurba_marseille","lat":43.32164,"lon":5.38787,"is_reserved":false,"is_disabled":false,"rental_uris":{"android":"levelo://app?vid=df649d25-1f44-4471-8cdd-9566da8ef9b9","ios":"levelo://app?vid=df649d25-1f44-4471-8cdd-9566da8ef9b9"},"vehicle_type_id":"4","last_reported":1758827260,"current_range_meters":14800,"station_id":"","pricing_plan_id":"cebpf4jnsgd1na2vs0mg"},{"bike_id":"c6b3e536-9745-4760-93b7-a9b7697329d8","system_id":"levelo_inurba_marseille","lat":43.28402,"lon":5.34981,"is_reserved":false,"is_disabled":false,"rental_uris":{"android":"levelo://app?vid=c6b3e536-9745-4760-93b7-a9b7697329d8","ios":"levelo://app?vid=c6b3e536-9745-4760-93b7-a9b7697329d8"},"vehicle_type_id":"4","last_reported":1758827260,"current_range_meters":14800,"station_id":"ce4bhbh2rcd13ifvqepg","pricing_plan_id":"cebpf4jnsgd1na2vs0mg"},{"bike_id":"e694124b-5696-428f-ad8d-54fdf49882e6","system_id":"levelo_inurba_marseille","lat":43.29789,"lon":5.39343,"is_reserved":false,"is_disabled":false,"rental_uris":{"android":"levelo://app?vid=e694124b-5696-428f-ad8d-54fdf49882e6","ios":"levelo://app?vid=e694124b-5696-428f-ad8d-54fdf49882e6"},"vehicle_type_id":"4","last_reported":1758827260,"current_range_meters":14800,"station_id":"chh1huq6cuj3fo74tm60","pricing_plan_id":"cebpf4jnsgd1na2vs0mg"},{"bike_id":"8fd54bca-71d1-44cf-9ae4-23cc4e28462c","system_id":"levelo_inurba_marseille","lat":43.29536,"lon":5.38146,"is_reserved":false,"is_disabled":false,"rental_uris":{"android":"levelo://app?vid=8fd54bca-71d1-44cf-9ae4-23cc4e28462c","ios":"levelo://app?vid=8fd54bca-71d1-44cf-9ae4-23cc4e28462c"},"vehicle_type_id":"4","last_reported":1758827260,"current_range_meters":14800,"station_id":"","pricing_plan_id":"cebpf4jnsgd1na2vs0mg"},{"bike_id":"b6ff3672-4e7c-404c-ab2a-bd902cf95e14","system_id":"levelo_inurba_marseille","lat":43.26869,"lon":5.40671,"is_reserved":false,"is_disabled":false,"rental_uris":{"android":"levelo://app?vid=b6ff3672-4e7c-404c-ab2a-bd902cf95e14","ios":"levelo://app?vid=b6ff3672-4e7c-404c-ab2a-bd902cf95e14"},"vehicle_type_id":"4","last_reported":1758827260,"current_range_meters":14800,"station_id":"","pricing_plan_id":"cebpf4jnsgd1na2vs0mg"},{"bike_id":"937ee5bb-c794-4393-a975-4ea453ba0655","system_id":"levelo_inurba_marseille","lat":43.28109,"lon":5.37822,"is_reserved":false,"is_disabled":false,"rental_uris":{"android":"levelo://app?vid=937ee5bb-c794-4393-a975-4ea453ba0655","ios":"levelo://app?vid=937ee5bb-c794-4393-a975-4ea453ba0655"},"vehicle_type_id":"4","last_reported":1758827260,"current_range_meters":14800,"station_id":"ce4bha12rcd13ifvqee0","pricing_plan_id":"cebpf4jnsgd1na2vs0mg"},{"bike_id":"97a5ee76-2e0a-479d-a727-d5a9ad8fecb2","system_id":"levelo_inurba_marseille","lat":43.229421,"lon":5.353869,"is_reserved":false,"is_disabled":false,"rental_uris":{"android":"levelo://app?vid=97a5ee76-2e0a-479d-a727-d5a9ad8fecb2","ios":"levelo://app?vid=97a5ee76-2e0a-479d-a727-d5a9ad8fecb2"},"vehicle_type_id":"4","last_reported":1758827260,"current_range_meters":15200,"station_id":"cpo3532slgdg3j2ikp40","pricing_plan_id":"cebpf4jnsgd1na2vs0mg"},{"bike_id":"97bfabe2-678f-4469-8156-b2c689b4137d","system_id":"levelo_inurba_marseille","lat":43.32006,"lon":5.3815,"is_reserved":false,"is_disabled":false,"rental_uris":{"android":"levelo://app?vid=97bfabe2-678f-4469-8156-b2c689b4137d","ios":"levelo://app?vid=97bfabe2-678f-4469-8156-b2c689b4137d"},"vehicle_type_id":"4","last_reported":1758827260,"current_range_meters":15200,"station_id":"ce4bhr12rcd13ifvqhpg","pricing_plan_id":"cebpf4jnsgd1na2vs0mg"},{"bike_id":"d7bf90ac-5391-41fd-b7ed-1dbc1cad2f08","system_id":"levelo_inurba_marseille","lat":43.29717,"lon":5.36613,"is_reserved":false,"is_disabled":false,"rental_uris":{"android":"levelo://app?vid=d7bf90ac-5391-41fd-b7ed-1dbc1cad2f08","ios":"levelo://app?vid=d7bf90ac-5391-41fd-b7ed-1dbc1cad2f08"},"vehicle_type_id":"4","last_reported":1758827260,"current_range_meters":15200,"station_id":"ce4bgn12rcd13ifvqbt0","pricing_plan_id":"cebpf4jnsgd1na2vs0mg"},{"bike_id":"9b60f32b-f965-4366-b2f7-6a0d1f9f47cb","system_id":"levelo_inurba_marseille","lat":43.26066,"lon":5.394,"is_reserved":false,"is_disabled":false,"rental_uris":{"android":"levelo://app?vid=9b60f32b-f965-4366-b2f7-6a0d1f9f47cb","ios":"levelo://app?vid=9b60f32b-f965-4366-b2f7-6a0d1f9f47cb"},"vehicle_type_id":"4","last_reported":1758827260,"current_range_meters":15200,"station_id":"ce4bhh92rcd13ifvqfj0","pricing_plan_id":"cebpf4jnsgd1na2vs0mg"},{"bike_id":"39e6b2d7-e7bc-4366-8a01-87bc46855564","system_id":"levelo_inurba_marseille","lat":43.32104,"lon":5.36791,"is_reserved":false,"is_disabled":false,"rental_uris":{"android":"levelo://app?vid=39e6b2d7-e7bc-4366-8a01-87bc46855564","ios":"levelo://app?vid=39e6b2d7-e7bc-4366-8a01-87bc46855564"},"vehicle_type_id":"4","last_reported":1758827260,"current_range_meters":15200,"station_id":"ce4bhrh2rcd13ifvqhug","pricing_plan_id":"cebpf4jnsgd1na2vs0mg"},{"bike_id":"81513c38-4122-42c9-a5eb-4cb5b1dc4508","system_id":"levelo_inurba_marseille","lat":43.29539,"lon":5.38536,"is_reserved":false,"is_disabled":false,"rental_uris":{"android":"levelo://app?vid=81513c38-4122-42c9-a5eb-4cb5b1dc4508","ios":"levelo://app?vid=81513c38-4122-42c9-a5eb-4cb5b1dc4508"},"vehicle_type_id":"4","last_reported":1758827260,"current_range_meters":16000,"station_id":"ce4bgih2rcd13ifvqba0","pricing_plan_id":"cebpf4jnsgd1na2vs0mg"},{"bike_id":"97be8e1b-8e50-4131-b4ce-8a578ed1e157","system_id":"levelo_inurba_marseille","lat":43.29261,"lon":5.36853,"is_reserved":false,"is_disabled":false,"rental_uris":{"android":"levelo://app?vid=97be8e1b-8e50-4131-b4ce-8a578ed1e157","ios":"levelo://app?vid=97be8e1b-8e50-4131-b4ce-8a578ed1e157"},"vehicle_type_id":"4","last_reported":1758827260,"current_range_meters":16000,"station_id":"ce4bhbp2rcd13ifvqesg","pricing_plan_id":"cebpf4jnsgd1na2vs0mg"},{"bike_id":"232f7f05-11b0-4e83-87a0-d64195604901","system_id":"levelo_inurba_marseille","lat":43.27985,"lon":5.41679,"is_reserved":false,"is_disabled":false,"rental_uris":{"android":"levelo://app?vid=232f7f05-11b0-4e83-87a0-d64195604901","ios":"levelo://app?vid=232f7f05-11b0-4e83-87a0-d64195604901"},"vehicle_type_id":"4","last_reported":1758827260,"current_range_meters":16000,"station_id":"ce4bho12rcd13ifvqh1g","pricing_plan_id":"cebpf4jnsgd1na2vs0mg"},{"bike_id":"9811e1f7-6003-4f66-9587-6fdbbe85e0ed","system_id":"levelo_inurba_marseille","lat":43.29567,"lon":5.42302,"is_reserved":false,"is_disabled":false,"rental_uris":{"android":"levelo://app?vid=9811e1f7-6003-4f66-9587-6fdbbe85e0ed","ios":"levelo://app?vid=9811e1f7-6003-4f66-9587-6fdbbe85e0ed"},"vehicle_type_id":"4","last_reported":1758827260,"current_range_meters":16000,"station_id":"ce4bhph2rcd13ifvqhdg","pricing_plan_id":"cebpf4jnsgd1na2vs0mg"},{"bike_id":"2cd51364-502a-41a4-bc3b-55c477f7c7cb","system_id":"levelo_inurba_marseille","lat":43.305433,"lon":5.384214,"is_reserved":false,"is_disabled":false,"rental_uris":{"android":"levelo://app?vid=2cd51364-502a-41a4-bc3b-55c477f7c7cb","ios":"levelo://app?vid=2cd51364-502a-41a4-bc3b-55c477f7c7cb"},"vehicle_type_id":"4","last_reported":1758827260,"current_range_meters":16000,"station_id":"ce4bgg92rcd13ifvqb30","pricing_plan_id":"cebpf4jnsgd1na2vs0mg"},{"bike_id":"c31c58ee-4e29-4ce3-bf0a-25ae5cf57cfc","system_id":"levelo_inurba_marseille","lat":43.24942,"lon":5.40489,"is_reserved":false,"is_disabled":false,"rental_uris":{"android":"levelo://app?vid=c31c58ee-4e29-4ce3-bf0a-25ae5cf57cfc","ios":"levelo://app?vid=c31c58ee-4e29-4ce3-bf0a-25ae5cf57cfc"},"vehicle_type_id":"4","last_reported":1758827260,"current_range_meters":16000,"station_id":"st_d2ngiaodas8pm72gd1h0","pricing_plan_id":"cebpf4jnsgd1na2vs0mg"},{"bike_id":"7984d69b-e4e3-4aa7-9904-7b9d506c24f5","system_id":"levelo_inurba_marseille","lat":43.3036,"lon":5.41882,"is_reserved":false,"is_disabled":false,"rental_uris":{"android":"levelo://app?vid=7984d69b-e4e3-4aa7-9904-7b9d506c24f5","ios":"levelo://app?vid=7984d69b-e4e3-4aa7-9904-7b9d506c24f5"},"vehicle_type_id":"4","last_reported":1758827260,"current_range_meters":16000,"station_id":"ce4bhop2rcd13ifvqh7g","pricing_plan_id":"cebpf4jnsgd1na2vs0mg"},{"bike_id":"61a0bc0b-6349-41ea-99c3-d65b2ac68658","system_id":"levelo_inurba_marseille","lat":43.28583,"lon":5.39503,"is_reserved":false,"is_disabled":false,"rental_uris":{"android":"levelo://app?vid=61a0bc0b-6349-41ea-99c3-d65b2ac68658","ios":"levelo://app?vid=61a0bc0b-6349-41ea-99c3-d65b2ac68658"},"vehicle_type_id":"4","last_reported":1758827260,"current_range_meters":15200,"station_id":"ce4bh292rcd13ifvqdg0","pricing_plan_id":"cebpf4jnsgd1na2vs0mg"},{"bike_id":"a57b3feb-2354-42fe-87fd-e8fcee3a0260","system_id":"levelo_inurba_marseille","lat":43.26953,"lon":5.40241,"is_reserved":false,"is_disabled":false,"rental_uris":{"android":"levelo://app?vid=a57b3feb-2354-42fe-87fd-e8fcee3a0260","ios":"levelo://app?vid=a57b3feb-2354-42fe-87fd-e8fcee3a0260"},"vehicle_type_id":"4","last_reported":1758827260,"current_range_meters":16000,"station_id":"","pricing_plan_id":"cebpf4jnsgd1na2vs0mg"},{"bike_id":"67f58060-376b-4aa6-b6af-75cf3296d6d8","system_id":"levelo_inurba_marseille","lat":43.24177,"lon":5.39728,"is_reserved":false,"is_disabled":false,"rental_uris":{"android":"levelo://app?vid=67f58060-376b-4aa6-b6af-75cf3296d6d8","ios":"levelo://app?vid=67f58060-376b-4aa6-b6af-75cf3296d6d8"},"vehicle_type_id":"4","last_reported":1758827260,"current_range_meters":16400,"station_id":"ce4bhn12rcd13ifvqgpg","pricing_plan_id":"cebpf4jnsgd1na2vs0mg"},{"bike_id":"7e848ad8-3b46-4990-8791-073379270774","system_id":"levelo_inurba_marseille","lat":43.273236,"lon":5.391121,"is_reserved":false,"is_disabled":true,"rental_uris":{"android":"levelo://app?vid=7e848ad8-3b46-4990-8791-073379270774","ios":"levelo://app?vid=7e848ad8-3b46-4990-8791-073379270774"},"vehicle_type_id":"4","last_reported":1758827260,"current_range_meters":16400,"station_id":"ce4bhgp2rcd13ifvqfe0","pricing_plan_id":"cebpf4jnsgd1na2vs0mg"},{"bike_id":"b4f47bc1-4d12-4541-a757-a859819c9d1c","system_id":"levelo_inurba_marseille","lat":43.276802,"lon":5.388803,"is_reserved":false,"is_disabled":true,"rental_uris":{"android":"levelo://app?vid=b4f47bc1-4d12-4541-a757-a859819c9d1c","ios":"levelo://app?vid=b4f47bc1-4d12-4541-a757-a859819c9d1c"},"vehicle_type_id":"4","last_reported":1758827260,"current_range_meters":16400,"station_id":"","pricing_plan_id":"cebpf4jnsgd1na2vs0mg"},{"bike_id":"22157a7a-ee5d-40ad-89ff-54270eb438a2","system_id":"levelo_inurba_marseille","lat":43.292958,"lon":5.374642,"is_reserved":false,"is_disabled":false,"rental_uris":{"android":"levelo://app?vid=22157a7a-ee5d-40ad-89ff-54270eb438a2","ios":"levelo://app?vid=22157a7a-ee5d-40ad-89ff-54270eb438a2"},"vehicle_type_id":"4","last_reported":1758827260,"current_range_meters":16400,"station_id":"ce4bgi12rcd13ifvqb70","pricing_plan_id":"cebpf4jnsgd1na2vs0mg"},{"bike_id":"f5a888db-229a-4246-81ee-0ff2a1bcfdfa","system_id":"levelo_inurba_marseille","lat":43.22934,"lon":5.35375,"is_reserved":false,"is_disabled":false,"rental_uris":{"android":"levelo://app?vid=f5a888db-229a-4246-81ee-0ff2a1bcfdfa","ios":"levelo://app?vid=f5a888db-229a-4246-81ee-0ff2a1bcfdfa"},"vehicle_type_id":"4","last_reported":1758827260,"current_range_meters":16400,"station_id":"cpo3532slgdg3j2ikp40","pricing_plan_id":"cebpf4jnsgd1na2vs0mg"},{"bike_id":"e4790f22-3120-4fc6-a533-63e678a0d5be","system_id":"levelo_inurba_marseille","lat":43.25844,"lon":5.39492,"is_reserved":false,"is_disabled":false,"rental_uris":{"android":"levelo://app?vid=e4790f22-3120-4fc6-a533-63e678a0d5be","ios":"levelo://app?vid=e4790f22-3120-4fc6-a533-63e678a0d5be"},"vehicle_type_id":"4","last_reported":1758827260,"current_range_meters":16000,"station_id":"ce4bhip2rcd13ifvqft0","pricing_plan_id":"cebpf4jnsgd1na2vs0mg"},{"bike_id":"c37a4fa9-8929-4812-9e52-967878d66fa4","system_id":"levelo_inurba_marseille","lat":43.278121,"lon":5.407088,"is_reserved":false,"is_disabled":false,"rental_uris":{"android":"levelo://app?vid=c37a4fa9-8929-4812-9e52-967878d66fa4","ios":"levelo://app?vid=c37a4fa9-8929-4812-9e52-967878d66fa4"},"vehicle_type_id":"4","last_reported":1758827260,"current_range_meters":11200,"station_id":"ce4bhnh2rcd13ifvqgtg","pricing_plan_id":"cebpf4jnsgd1na2vs0mg"},{"bike_id":"f6f91872-875f-450b-9fe0-f5c03f77fa57","system_id":"levelo_inurba_marseille","lat":43.31326,"lon":5.39685,"is_reserved":false,"is_disabled":false,"rental_uris":{"android":"levelo://app?vid=f6f91872-875f-450b-9fe0-f5c03f77fa57","ios":"levelo://app?vid=f6f91872-875f-450b-9fe0-f5c03f77fa57"},"vehicle_type_id":"4","last_reported":1758827260,"current_range_meters":16400,"station_id":"ce4bgvp2rcd13ifvqcu0","pricing_plan_id":"cebpf4jnsgd1na2vs0mg"},{"bike_id":"c7d588b9-c1d0-4b5c-a2d6-22e3733e9198","system_id":"levelo_inurba_marseille","lat":43.28997,"lon":5.35622,"is_reserved":false,"is_disabled":false,"rental_uris":{"android":"levelo://app?vid=c7d588b9-c1d0-4b5c-a2d6-22e3733e9198","ios":"levelo://app?vid=c7d588b9-c1d0-4b5c-a2d6-22e3733e9198"},"vehicle_type_id":"4","last_reported":1758827260,"current_range_meters":16800,"station_id":"ce4bhb92rcd13ifvqen0","pricing_plan_id":"cebpf4jnsgd1na2vs0mg"},{"bike_id":"6f97756d-103a-472e-9ee0-e1b6357d8727","system_id":"levelo_inurba_marseille","lat":43.30858,"lon":5.39678,"is_reserved":false,"is_disabled":false,"rental_uris":{"android":"levelo://app?vid=6f97756d-103a-472e-9ee0-e1b6357d8727","ios":"levelo://app?vid=6f97756d-103a-472e-9ee0-e1b6357d8727"},"vehicle_type_id":"4","last_reported":1758827260,"current_range_meters":16800,"station_id":"","pricing_plan_id":"cebpf4jnsgd1na2vs0mg"},{"bike_id":"280349c2-7d75-4732-844a-272770d12d07","system_id":"levelo_inurba_marseille","lat":43.24943,"lon":5.40487,"is_reserved":false,"is_disabled":false,"rental_uris":{"android":"levelo://app?vid=280349c2-7d75-4732-844a-272770d12d07","ios":"levelo://app?vid=280349c2-7d75-4732-844a-272770d12d07"},"vehicle_type_id":"4","last_reported":1758827260,"current_range_meters":16800,"station_id":"st_d2ngiaodas8pm72gd1h0","pricing_plan_id":"cebpf4jnsgd1na2vs0mg"},{"bike_id":"385d4bec-0b61-4d90-b2a4-8cab2c648ea2","system_id":"levelo_inurba_marseille","lat":43.292,"lon":5.39324,"is_reserved":false,"is_disabled":false,"rental_uris":{"android":"levelo://app?vid=385d4bec-0b61-4d90-b2a4-8cab2c648ea2","ios":"levelo://app?vid=385d4bec-0b61-4d90-b2a4-8cab2c648ea2"},"vehicle_type_id":"4","last_reported":1758827260,"current_range_meters":16800,"station_id":"ce4bh192rcd13ifvqdd0","pricing_plan_id":"cebpf4jnsgd1na2vs0mg"},{"bike_id":"13be0879-670b-43f4-8fc1-8fbc1c4ccf9c","system_id":"levelo_inurba_marseille","lat":43.28421,"lon":5.34983,"is_reserved":false,"is_disabled":false,"rental_uris":{"android":"levelo://app?vid=13be0879-670b-43f4-8fc1-8fbc1c4ccf9c","ios":"levelo://app?vid=13be0879-670b-43f4-8fc1-8fbc1c4ccf9c"},"vehicle_type_id":"4","last_reported":1758827260,"current_range_meters":16800,"station_id":"ce4bhbh2rcd13ifvqepg","pricing_plan_id":"cebpf4jnsgd1na2vs0mg"},{"bike_id":"377142cb-267c-494b-99d9-6fe238c4e676","system_id":"levelo_inurba_marseille","lat":43.30973,"lon":5.40797,"is_reserved":false,"is_disabled":false,"rental_uris":{"android":"levelo://app?vid=377142cb-267c-494b-99d9-6fe238c4e676","ios":"levelo://app?vid=377142cb-267c-494b-99d9-6fe238c4e676"},"vehicle_type_id":"4","last_reported":1758827260,"current_range_meters":16800,"station_id":"","pricing_plan_id":"cebpf4jnsgd1na2vs0mg"},{"bike_id":"62053565-e4b3-4e00-90de-bc6adf68d242","system_id":"levelo_inurba_marseille","lat":43.29527,"lon":5.38547,"is_reserved":false,"is_disabled":false,"rental_uris":{"android":"levelo://app?vid=62053565-e4b3-4e00-90de-bc6adf68d242","ios":"levelo://app?vid=62053565-e4b3-4e00-90de-bc6adf68d242"},"vehicle_type_id":"4","last_reported":1758827260,"current_range_meters":16400,"station_id":"ce4bgih2rcd13ifvqba0","pricing_plan_id":"cebpf4jnsgd1na2vs0mg"},{"bike_id":"4bb5f6f4-db70-4848-b1a4-13cacfbb67df","system_id":"levelo_inurba_marseille","lat":43.26953,"lon":5.38634,"is_reserved":false,"is_disabled":false,"rental_uris":{"android":"levelo://app?vid=4bb5f6f4-db70-4848-b1a4-13cacfbb67df","ios":"levelo://app?vid=4bb5f6f4-db70-4848-b1a4-13cacfbb67df"},"vehicle_type_id":"4","last_reported":1758827260,"current_range_meters":16800,"station_id":"ce4bhh92rcd13ifvqfh0","pricing_plan_id":"cebpf4jnsgd1na2vs0mg"},{"bike_id":"37fc5338-fbbe-4cac-85f5-874f18b61471","system_id":"levelo_inurba_marseille","lat":43.29682,"lon":5.36604,"is_reserved":false,"is_disabled":false,"rental_uris":{"android":"levelo://app?vid=37fc5338-fbbe-4cac-85f5-874f18b61471","ios":"levelo://app?vid=37fc5338-fbbe-4cac-85f5-874f18b61471"},"vehicle_type_id":"4","last_reported":1758827260,"current_range_meters":16800,"station_id":"ce4bgn12rcd13ifvqbt0","pricing_plan_id":"cebpf4jnsgd1na2vs0mg"},{"bike_id":"9834ebfc-7287-4f8c-831f-2dacb93bb7d5","system_id":"levelo_inurba_marseille","lat":43.30883,"lon":5.39656,"is_reserved":false,"is_disabled":false,"rental_uris":{"android":"levelo://app?vid=9834ebfc-7287-4f8c-831f-2dacb93bb7d5","ios":"levelo://app?vid=9834ebfc-7287-4f8c-831f-2dacb93bb7d5"},"vehicle_type_id":"4","last_reported":1758827260,"current_range_meters":16400,"station_id":"ce4bh012rcd13ifvqcv0","pricing_plan_id":"cebpf4jnsgd1na2vs0mg"},{"bike_id":"a5a5de36-3c97-4e42-9fb6-faca80b03963","system_id":"levelo_inurba_marseille","lat":43.29532,"lon":5.39046,"is_reserved":false,"is_disabled":false,"rental_uris":{"android":"levelo://app?vid=a5a5de36-3c97-4e42-9fb6-faca80b03963","ios":"levelo://app?vid=a5a5de36-3c97-4e42-9fb6-faca80b03963"},"vehicle_type_id":"4","last_reported":1758827260,"current_range_meters":16800,"station_id":"ce4bh3p2rcd13ifvqdp0","pricing_plan_id":"cebpf4jnsgd1na2vs0mg"},{"bike_id":"36645db1-8f2c-49d5-b515-c00d30b71f29","system_id":"levelo_inurba_marseille","lat":43.28449,"lon":5.35895,"is_reserved":false,"is_disabled":false,"rental_uris":{"android":"levelo://app?vid=36645db1-8f2c-49d5-b515-c00d30b71f29","ios":"levelo://app?vid=36645db1-8f2c-49d5-b515-c00d30b71f29"},"vehicle_type_id":"4","last_reported":1758827260,"current_range_meters":16800,"station_id":"ce4bhah2rcd13ifvqei0","pricing_plan_id":"cebpf4jnsgd1na2vs0mg"},{"bike_id":"e5c3f8b7-f21b-4056-9653-9204bef505d4","system_id":"levelo_inurba_marseille","lat":43.28461,"lon":5.3589,"is_reserved":false,"is_disabled":false,"rental_uris":{"android":"levelo://app?vid=e5c3f8b7-f21b-4056-9653-9204bef505d4","ios":"levelo://app?vid=e5c3f8b7-f21b-4056-9653-9204bef505d4"},"vehicle_type_id":"4","last_reported":1758827260,"current_range_meters":17200,"station_id":"ce4bhah2rcd13ifvqei0","pricing_plan_id":"cebpf4jnsgd1na2vs0mg"},{"bike_id":"327c041e-5c9e-4b0d-a97c-a2dbaab036ae","system_id":"levelo_inurba_marseille","lat":43.32771,"lon":5.41107,"is_reserved":false,"is_disabled":false,"rental_uris":{"android":"levelo://app?vid=327c041e-5c9e-4b0d-a97c-a2dbaab036ae","ios":"levelo://app?vid=327c041e-5c9e-4b0d-a97c-a2dbaab036ae"},"vehicle_type_id":"4","last_reported":1758827260,"current_range_meters":17200,"station_id":"","pricing_plan_id":"cebpf4jnsgd1na2vs0mg"},{"bike_id":"50e099d3-9106-4cfe-85a8-879403cc75f6","system_id":"levelo_inurba_marseille","lat":43.283591,"lon":5.386282,"is_reserved":false,"is_disabled":false,"rental_uris":{"android":"levelo://app?vid=50e099d3-9106-4cfe-85a8-879403cc75f6","ios":"levelo://app?vid=50e099d3-9106-4cfe-85a8-879403cc75f6"},"vehicle_type_id":"4","last_reported":1758827260,"current_range_meters":17200,"station_id":"ce4bh492rcd13ifvqdvg","pricing_plan_id":"cebpf4jnsgd1na2vs0mg"},{"bike_id":"75611fb7-df45-4d9f-9db0-a181136cc424","system_id":"levelo_inurba_marseille","lat":43.21738,"lon":5.34612,"is_reserved":false,"is_disabled":true,"rental_uris":{"android":"levelo://app?vid=75611fb7-df45-4d9f-9db0-a181136cc424","ios":"levelo://app?vid=75611fb7-df45-4d9f-9db0-a181136cc424"},"vehicle_type_id":"4","last_reported":1758827260,"current_range_meters":17200,"station_id":"st_cvj6r9ubvosntc0bgbag","pricing_plan_id":"cebpf4jnsgd1na2vs0mg"},{"bike_id":"ccabd35a-a691-4eed-acd2-dce907f56433","system_id":"levelo_inurba_marseille","lat":43.32337,"lon":5.4064,"is_reserved":false,"is_disabled":false,"rental_uris":{"android":"levelo://app?vid=ccabd35a-a691-4eed-acd2-dce907f56433","ios":"levelo://app?vid=ccabd35a-a691-4eed-acd2-dce907f56433"},"vehicle_type_id":"4","last_reported":1758827260,"current_range_meters":17200,"station_id":"ce4bhq92rcd13ifvqhjg","pricing_plan_id":"cebpf4jnsgd1na2vs0mg"},{"bike_id":"b2219950-bb22-4648-9ba4-18cd9cf365ce","system_id":"levelo_inurba_marseille","lat":43.25079,"lon":5.39518,"is_reserved":false,"is_disabled":false,"rental_uris":{"android":"levelo://app?vid=b2219950-bb22-4648-9ba4-18cd9cf365ce","ios":"levelo://app?vid=b2219950-bb22-4648-9ba4-18cd9cf365ce"},"vehicle_type_id":"4","last_reported":1758827260,"current_range_meters":17200,"station_id":"ce4bhm12rcd13ifvqgkg","pricing_plan_id":"cebpf4jnsgd1na2vs0mg"},{"bike_id":"330b2c47-f746-44c7-9f13-5ee538bbcad2","system_id":"levelo_inurba_marseille","lat":43.28345,"lon":5.38096,"is_reserved":false,"is_disabled":false,"rental_uris":{"android":"levelo://app?vid=330b2c47-f746-44c7-9f13-5ee538bbcad2","ios":"levelo://app?vid=330b2c47-f746-44c7-9f13-5ee538bbcad2"},"vehicle_type_id":"4","last_reported":1758827260,"current_range_meters":17200,"station_id":"ce4bh412rcd13ifvqdr0","pricing_plan_id":"cebpf4jnsgd1na2vs0mg"},{"bike_id":"6924e35a-6e1a-4cc2-994f-51d06ed75695","system_id":"levelo_inurba_marseille","lat":43.24992,"lon":5.38935,"is_reserved":false,"is_disabled":false,"rental_uris":{"android":"levelo://app?vid=6924e35a-6e1a-4cc2-994f-51d06ed75695","ios":"levelo://app?vid=6924e35a-6e1a-4cc2-994f-51d06ed75695"},"vehicle_type_id":"4","last_reported":1758827260,"current_range_meters":17200,"station_id":"ce4bhgp2rcd13ifvqfd0","pricing_plan_id":"cebpf4jnsgd1na2vs0mg"},{"bike_id":"6ff62d79-81a4-487f-8694-4fb22f54a494","system_id":"levelo_inurba_marseille","lat":43.32482,"lon":5.39189,"is_reserved":false,"is_disabled":false,"rental_uris":{"android":"levelo://app?vid=6ff62d79-81a4-487f-8694-4fb22f54a494","ios":"levelo://app?vid=6ff62d79-81a4-487f-8694-4fb22f54a494"},"vehicle_type_id":"4","last_reported":1758827260,"current_range_meters":17200,"station_id":"","pricing_plan_id":"cebpf4jnsgd1na2vs0mg"},{"bike_id":"08fe2b08-b3fa-43f8-ae73-04061f76318d","system_id":"levelo_inurba_marseille","lat":43.305552,"lon":5.365395,"is_reserved":false,"is_disabled":false,"rental_uris":{"android":"levelo://app?vid=08fe2b08-b3fa-43f8-ae73-04061f76318d","ios":"levelo://app?vid=08fe2b08-b3fa-43f8-ae73-04061f76318d"},"vehicle_type_id":"4","last_reported":1758827260,"current_range_meters":17200,"station_id":"","pricing_plan_id":"cebpf4jnsgd1na2vs0mg"},{"bike_id":"c110996d-22e7-4035-9eef-b37954d27511","system_id":"levelo_inurba_marseille","lat":43.23191,"lon":5.35557,"is_reserved":false,"is_disabled":false,"rental_uris":{"android":"levelo://app?vid=c110996d-22e7-4035-9eef-b37954d27511","ios":"levelo://app?vid=c110996d-22e7-4035-9eef-b37954d27511"},"vehicle_type_id":"4","last_reported":1758827260,"current_range_meters":17200,"station_id":"ce4bhu92rcd13ifvqi70","pricing_plan_id":"cebpf4jnsgd1na2vs0mg"},{"bike_id":"1d5d14cf-15e7-4470-bff9-613bb9abe120","system_id":"levelo_inurba_marseille","lat":43.33484,"lon":5.42067,"is_reserved":false,"is_disabled":false,"rental_uris":{"android":"levelo://app?vid=1d5d14cf-15e7-4470-bff9-613bb9abe120","ios":"levelo://app?vid=1d5d14cf-15e7-4470-bff9-613bb9abe120"},"vehicle_type_id":"4","last_reported":1758827260,"current_range_meters":17200,"station_id":"","pricing_plan_id":"cebpf4jnsgd1na2vs0mg"},{"bike_id":"208d8654-3228-40c7-b9c8-8618c2e5fa52","system_id":"levelo_inurba_marseille","lat":43.28651,"lon":5.38279,"is_reserved":false,"is_disabled":false,"rental_uris":{"android":"levelo://app?vid=208d8654-3228-40c7-b9c8-8618c2e5fa52","ios":"levelo://app?vid=208d8654-3228-40c7-b9c8-8618c2e5fa52"},"vehicle_type_id":"4","last_reported":1758827260,"current_range_meters":17200,"station_id":"","pricing_plan_id":"cebpf4jnsgd1na2vs0mg"},