{"last_updated":1739826498,"ttl":60,"version":"2.2","data":{"bikes":[{"bike_id":"08cd6744-10bc-4525-8709-c0c9eaae2b7d","system_id":"levelo_inurba_marseille","lat":43.24661,"lon":5.38905,"is_reserved":false,"is_disabled":true,"rental_uris":{"android":"levelo://app?vid=08cd6744-10bc-4525-8709-c0c9eaae2b7d","ios":"levelo://app?vid=08cd6744-10bc-4525-8709-c0c9eaae2b7d"},"vehicle_type_id":"4","last_reported":1739826498,"current_range_meters":2800,"station_id":"ce4bhg12rcd13ifvqf60","pricing_plan_id":"cebpf4jnsgd1na2vs0mg"},{"bike_id":"fec3a4f9-f159-423f-bd65-ce354a6b7246","system_id":"levelo_inurba_marseille","lat":43.2668,"lon":5.38265,"is_reserved":false,"is_disabled":false,"rental_uris":{"android":"levelo://app?vid=fec3a4f9-f159-423f-bd65-ce354a6b7246","ios":"levelo://app?vid=fec3a4f9-f159-423f-bd65-ce354a6b7246"},"vehicle_type_id":"4","last_reported":1739826498,"current_range_meters":2800,"station_id":"","pricing_plan_id":"cebpf4jnsgd1na2vs0mg"},{"bike_id":"a138a840-0a46-4e4d-a390-66b58ff5c643","system_id":"levelo_inurba_marseille","lat":43.29444,"lon":5.39744,"is_reserved":false,"is_disabled":false,"rental_uris":{"android":"levelo://app?vid=a138a840-0a46-4e4d-a390-66b58ff5c643","ios":"levelo://app?vid=a138a840-0a46-4e4d-a390-66b58ff5c643"},"vehicle_type_id":"4","last_reported":1739826498,"current_range_meters":2800,"station_id":"","pricing_plan_id":"cebpf4jnsgd1na2vs0mg"},{"bike_id":"4e7beed8-3f51-4c59-a37c-0ac46140a818","system_id":"levelo_inurba_marseille","lat":43.26948,"lon":5.38628,"is_reserved":false,"is_disabled":true,"rental_uris":{"android":"levelo://app?vid=4e7beed8-3f51-4c59-a37c-0ac46140a818","ios":"levelo://app?vid=4e7beed8-3f51-4c59-a37c-0ac46140a818"},"vehicle_type_id":"4","last_reported":1739826498,"current_range_meters":3200,"station_id":"","pricing_plan_id":"cebpf4jnsgd1na2vs0mg"},{"bike_id":"458f44e2-37dd-48dd-8470-babd18691b9c","system_id":"levelo_inurba_marseille","lat":43.24644,"lon":5.38891,"is_reserved":false,"is_disabled":true,"rental_uris":{"android":"levelo://app?vid=458f44e2-37dd-48dd-8470-babd18691b9c","ios":"levelo://app?vid=458f44e2-37dd-48dd-8470-babd18691b9c"},"vehicle_type_id":"4","last_reported":1739826498,"current_range_meters":4000,"station_id":"ce4bhg12rcd13ifvqf60","pricing_plan_id":"cebpf4jnsgd1na2vs0mg"},{"bike_id":"ca2143c5-f555-430e-97cf-bfbd15012e2c","system_id":"levelo_inurba_marseille","lat":43.31272,"lon":5.4017,"is_reserved":false,"is_disabled":false,"rental_uris":{"android":"levelo://app?vid=ca2143c5-f555-430e-97cf-bfbd15012e2c","ios":"levelo://app?vid=ca2143c5-f555-430e-97cf-bfbd15012e2c"},"vehicle_type_id":"4","last_reported":1739826498,"current_range_meters":4000,"station_id":"ce4bh092rcd13ifvqd30","pricing_plan_id":"cebpf4jnsgd1na2vs0mg"},{"bike_id":"fdb4d625-32da-4d34-9480-3a0853efe45b","system_id":"levelo_inurba_marseille","lat":43.24142,"lon":5.39599,"is_reserved":false,"is_disabled":true,"rental_uris":{"android":"levelo://app?vid=fdb4d625-32da-4d34-9480-3a0853efe45b","ios":"levelo://app?vid=fdb4d625-32da-4d34-9480-3a0853efe45b"},"vehicle_type_id":"4","last_reported":1739826498,"current_range_meters":4400,"station_id":"ce4bhn12rcd13ifvqgpg","pricing_plan_id":"cebpf4jnsgd1na2vs0mg"},{"bike_id":"2e534440-e771-4d12-9d5c-a84163676ffe","system_id":"levelo_inurba_marseille","lat":43.318885,"lon":5.40728,"is_reserved":false,"is_disabled":false,"rental_uris":{"android":"levelo://app?vid=2e534440-e771-4d12-9d5c-a84163676ffe","ios":"levelo://app?vid=2e534440-e771-4d12-9d5c-a84163676ffe"},"vehicle_type_id":"4","last_reported":1739826498,"current_range_meters":4400,"station_id":"","pricing_plan_id":"cebpf4jnsgd1na2vs0mg"},{"bike_id":"b87cb6a5-cf63-4b15-83a4-03a98611e72a","system_id":"levelo_inurba_marseille","lat":43.28157,"lon":5.4429,"is_reserved":false,"is_disabled":true,"rental_uris":{"android":"levelo://app?vid=b87cb6a5-cf63-4b15-83a4-03a98611e72a","ios":"levelo://app?vid=b87cb6a5-cf63-4b15-83a4-03a98611e72a"},"vehicle_type_id":"4","last_reported":1739826498,"current_range_meters":4400,"station_id":"ce4bhnh2rcd13ifvqgtg","pricing_plan_id":"cebpf4jnsgd1na2vs0mg"},{"bike_id":"6b21d320-52d0-422d-a96b-25dc166ffb72","system_id":"levelo_inurba_marseille","lat":43.30439,"lon":5.41273,"is_reserved":false,"is_disabled":true,"rental_uris":{"android":"levelo://app?vid=6b21d320-52d0-422d-a96b-25dc166ffb72","ios":"levelo://app?vid=6b21d320-52d0-422d-a96b-25dc166ffb72"},"vehicle_type_id":"4","last_reported":1739826498,"current_range_meters":4400,"station_id":"ce4bhop2rcd13ifvqh8g","pricing_plan_id":"cebpf4jnsgd1na2vs0mg"},{"bike_id":"d0e0a89a-0d81-4148-ba85-59442b59d06e","system_id":"levelo_inurba_marseille","lat":43.28631,"lon":5.35081,"is_reserved":false,"is_disabled":false,"rental_uris":{"android":"levelo://app?vid=d0e0a89a-0d81-4148-ba85-59442b59d06e","ios":"levelo://app?vid=d0e0a89a-0d81-4148-ba85-59442b59d06e"},"vehicle_type_id":"4","last_reported":1739826498,"current_range_meters":4800,"station_id":"","pricing_plan_id":"cebpf4jnsgd1na2vs0mg"},{"bike_id":"449e24a9-d58f-4b1d-aeba-5fab857a86f8","system_id":"levelo_inurba_marseille","lat":43.26558,"lon":5.38999,"is_reserved":false,"is_disabled":false,"rental_uris":{"android":"levelo://app?vid=449e24a9-d58f-4b1d-aeba-5fab857a86f8","ios":"levelo://app?vid=449e24a9-d58f-4b1d-aeba-5fab857a86f8"},"vehicle_type_id":"4","last_reported":1739826498,"current_range_meters":4800,"station_id":"ce4bhe12rcd13ifvqf30","pricing_plan_id":"cebpf4jnsgd1na2vs0mg"},{"bike_id":"1d6f5a5a-bf78-4d12-91e4-6dc8a2b7ed98","system_id":"levelo_inurba_marseille","lat":43.27491,"lon":5.42453,"is_reserved":false,"is_disabled":true,"rental_uris":{"android":"levelo://app?vid=1d6f5a5a-bf78-4d12-91e4-6dc8a2b7ed98","ios":"levelo://app?vid=1d6f5a5a-bf78-4d12-91e4-6dc8a2b7ed98"},"vehicle_type_id":"4","last_reported":1739826498,"current_range_meters":5600,"station_id":"ce4bhn92rcd13ifvqgrg","pricing_plan_id":"cebpf4jnsgd1na2vs0mg"},{"bike_id":"3c3964f2-b9ed-4eb2-8b3d-aacd153bbab4","system_id":"levelo_inurba_marseille","lat":43.28035,"lon":5.36942,"is_reserved":false,"is_disabled":false,"rental_uris":{"android":"levelo://app?vid=3c3964f2-b9ed-4eb2-8b3d-aacd153bbab4","ios":"levelo://app?vid=3c3964f2-b9ed-4eb2-8b3d-aacd153bbab4"},"vehicle_type_id":"4","last_reported":1739826498,"current_range_meters":6000,"station_id":"ce4bha12rcd13ifvqef0","pricing_plan_id":"cebpf4jnsgd1na2vs0mg"},{"bike_id":"a4413d93-aceb-47df-9edf-870ce631380e","system_id":"levelo_inurba_marseille","lat":43.24394,"lon":5.37056,"is_reserved":false,"is_disabled":true,"rental_uris":{"android":"levelo://app?vid=a4413d93-aceb-47df-9edf-870ce631380e","ios":"levelo://app?vid=a4413d93-aceb-47df-9edf-870ce631380e"},"vehicle_type_id":"4","last_reported":1739826498,"current_range_meters":6000,"station_id":"ce4bhhh2rcd13ifvqfk0","pricing_plan_id":"cebpf4jnsgd1na2vs0mg"},{"bike_id":"ce61429a-686f-445d-80d9-4b10876ed4ef","system_id":"levelo_inurba_marseille","lat":43.337444,"lon":5.374475,"is_reserved":false,"is_disabled":true,"rental_uris":{"android":"levelo://app?vid=ce61429a-686f-445d-80d9-4b10876ed4ef","ios":"levelo://app?vid=ce61429a-686f-445d-80d9-4b10876ed4ef"},"vehicle_type_id":"4","last_reported":1739826498,"current_range_meters":6000,"station_id":"","pricing_plan_id":"cebpf4jnsgd1na2vs0mg"},{"bike_id":"93508eb0-a226-4401-b90b-84663208dc92","system_id":"levelo_inurba_marseille","lat":43.29533,"lon":5.4067,"is_reserved":false,"is_disabled":false,"rental_uris":{"android":"levelo://app?vid=93508eb0-a226-4401-b90b-84663208dc92","ios":"levelo://app?vid=93508eb0-a226-4401-b90b-84663208dc92"},"vehicle_type_id":"4","last_reported":1739826498,"current_range_meters":6000,"station_id":"ce4bhph2rcd13ifvqhdg","pricing_plan_id":"cebpf4jnsgd1na2vs0mg"},{"bike_id":"b5d51719-c1bb-48d2-8389-d66332973310","system_id":"levelo_inurba_marseille","lat":43.2396,"lon":5.36645,"is_reserved":false,"is_disabled":true,"rental_uris":{"android":"levelo://app?vid=b5d51719-c1bb-48d2-8389-d66332973310","ios":"levelo://app?vid=b5d51719-c1bb-48d2-8389-d66332973310"},"vehicle_type_id":"4","last_reported":1739826498,"current_range_meters":6400,"station_id":"ce4bhi12rcd13ifvqfp0","pricing_plan_id":"cebpf4jnsgd1na2vs0mg"},{"bike_id":"7119608b-2862-4402-8f59-c43fbf7e9dba","system_id":"levelo_inurba_marseille","lat":43.28918,"lon":5.35825,"is_reserved":false,"is_disabled":true,"rental_uris":{"android":"levelo://app?vid=7119608b-2862-4402-8f59-c43fbf7e9dba","ios":"levelo://app?vid=7119608b-2862-4402-8f59-c43fbf7e9dba"},"vehicle_type_id":"4","last_reported":1739826498,"current_range_meters":6400,"station_id":"ce4bhb12rcd13ifvqem0","pricing_plan_id":"cebpf4jnsgd1na2vs0mg"},{"bike_id":"8f2b0aef-e2a7-47a2-bfd4-c34d4ba0caca","system_id":"levelo_inurba_marseille","lat":43.28627,"lon":5.35124,"is_reserved":false,"is_disabled":false,"rental_uris":{"android":"levelo://app?vid=8f2b0aef-e2a7-47a2-bfd4-c34d4ba0caca","ios":"levelo://app?vid=8f2b0aef-e2a7-47a2-bfd4-c34d4ba0caca"},"vehicle_type_id":"4","last_reported":1739826498,"current_range_meters":6400,"station_id":"","pricing_plan_id":"cebpf4jnsgd1na2vs0mg"},{"bike_id":"96a96649-77a9-44c4-824f-d3e92f79f91f","system_id":"levelo_inurba_marseille","lat":43.23959,"lon":5.36642,"is_reserved":false,"is_disabled":false,"rental_uris":{"android":"levelo://app?vid=96a96649-77a9-44c4-824f-d3e92f79f91f","ios":"levelo://app?vid=96a96649-77a9-44c4-824f-d3e92f79f91f"},"vehicle_type_id":"4","last_reported":1739826498,"current_range_meters":6400,"station_id":"ce4bhi12rcd13ifvqfp0","pricing_plan_id":"cebpf4jnsgd1na2vs0mg"},{"bike_id":"ed1d6250-edeb-42f4-ac1a-00f7330bbf06","system_id":"levelo_inurba_marseille","lat":43.31887,"lon":5.40736,"is_reserved":false,"is_disabled":false,"rental_uris":{"android":"levelo://app?vid=ed1d6250-edeb-42f4-ac1a-00f7330bbf06","ios":"levelo://app?vid=ed1d6250-edeb-42f4-ac1a-00f7330bbf06"},"vehicle_type_id":"4","last_reported":1739826498,"current_range_meters":6400,"station_id":"","pricing_plan_id":"cebpf4jnsgd1na2vs0mg"},{"bike_id":"c4916927-7d10-4eb6-bf80-df6fa900d439","system_id":"levelo_inurba_marseille","lat":43.29553,"lon":5.42305,"is_reserved":false,"is_disabled":true,"rental_uris":{"android":"levelo://app?vid=c4916927-7d10-4eb6-bf80-df6fa900d439","ios":"levelo://app?vid=c4916927-7d10-4eb6-bf80-df6fa900d439"},"vehicle_type_id":"4","last_reported":1739826498,"current_range_meters":6400,"station_id":"ce4bhph2rcd13ifvqhdg","pricing_plan_id":"cebpf4jnsgd1na2vs0mg"},{"bike_id":"aac7ef75-6810-4e53-9da5-b36e43886f51","system_id":"levelo_inurba_marseille","lat":43.25107,"lon":5.40324,"is_reserved":false,"is_disabled":false,"rental_uris":{"android":"levelo://app?vid=aac7ef75-6810-4e53-9da5-b36e43886f51","ios":"levelo://app?vid=aac7ef75-6810-4e53-9da5-b36e43886f51"},"vehicle_type_id":"4","last_reported":1739826498,"current_range_meters":6400,"station_id":"","pricing_plan_id":"cebpf4jnsgd1na2vs0mg"},{"bike_id":"1ccb8148-d5a9-45e8-a79b-603264947ba2","system_id":"levelo_inurba_marseille","lat":43.22949,"lon":5.35365,"is_reserved":false,"is_disabled":false,"rental_uris":{"android":"levelo://app?vid=1ccb8148-d5a9-45e8-a79b-603264947ba2","ios":"levelo://app?vid=1ccb8148-d5a9-45e8-a79b-603264947ba2"},"vehicle_type_id":"4","last_reported":1739826498,"current_range_meters":6400,"station_id":"cpo3532slgdg3j2ikp40","pricing_plan_id":"cebpf4jnsgd1na2vs0mg"},{"bike_id":"f206266f-bb9f-443a-8521-7cc97a6d54b8","system_id":"levelo_inurba_marseille","lat":43.32738,"lon":5.39229,"is_reserved":false,"is_disabled":false,"rental_uris":{"android":"levelo://app?vid=f206266f-bb9f-443a-8521-7cc97a6d54b8","ios":"levelo://app?vid=f206266f-bb9f-443a-8521-7cc97a6d54b8"},"vehicle_type_id":"4","last_reported":1739826498,"current_range_meters":6400,"station_id":"","pricing_plan_id":"cebpf4jnsgd1na2vs0mg"},{"bike_id":"dae3a2b0-8c27-4fb9-870b-6a1bfd920a8b","system_id":"levelo_inurba_marseille","lat":43.277069,"lon":5.357727,"is_reserved":false,"is_disabled":false,"rental_uris":{"android":"levelo://app?vid=dae3a2b0-8c27-4fb9-870b-6a1bfd920a8b","ios":"levelo://app?vid=dae3a2b0-8c27-4fb9-870b-6a1bfd920a8b"},"vehicle_type_id":"4","last_reported":1739826498,"current_range_meters":6400,"station_id":"ce4bhbh2rcd13ifvqeo0","pricing_plan_id":"cebpf4jnsgd1na2vs0mg"},{"bike_id":"8c75056a-7815-4dc4-bac4-c86fcaddfb3c","system_id":"levelo_inurba_marseille","lat":43.24805,"lon":5.37462,"is_reserved":false,"is_disabled":false,"rental_uris":{"android":"levelo://app?vid=8c75056a-7815-4dc4-bac4-c86fcaddfb3c","ios":"levelo://app?vid=8c75056a-7815-4dc4-bac4-c86fcaddfb3c"},"vehicle_type_id":"4","last_reported":1739826498,"current_range_meters":6400,"station_id":"ce4bhgh2rcd13ifvqfb0","pricing_plan_id":"cebpf4jnsgd1na2vs0mg"},{"bike_id":"54252a7c-5653-43b2-b4f1-43722b1aa404","system_id":"levelo_inurba_marseille","lat":43.25664,"lon":5.38281,"is_reserved":false,"is_disabled":false,"rental_uris":{"android":"levelo://app?vid=54252a7c-5653-43b2-b4f1-43722b1aa404","ios":"levelo://app?vid=54252a7c-5653-43b2-b4f1-43722b1aa404"},"vehicle_type_id":"4","last_reported":1739826498,"current_range_meters":6400,"station_id":"","pricing_plan_id":"cebpf4jnsgd1na2vs0mg"},{"bike_id":"926e1642-8b0d-4269-911f-e7668b60f23d","system_id":"levelo_inurba_marseille","lat":43.24805,"lon":5.37454,"is_reserved":false,"is_disabled":false,"rental_uris":{"android":"levelo://app?vid=926e1642-8b0d-4269-911f-e7668b60f23d","ios":"levelo://app?vid=926e1642-8b0d-4269-911f-e7668b60f23d"},"vehicle_type_id":"4","last_reported":1739826498,"current_range_meters":6400,"station_id":"","pricing_plan_id":"cebpf4jnsgd1na2vs0mg"},{"bike_id":"68c9ec09-efa3-42b7-9d9b-298456b6ded4","system_id":"levelo_inurba_marseille","lat":43.30457,"lon":5.36957,"is_reserved":false,"is_disabled":false,"rental_uris":{"android":"levelo://app?vid=68c9ec09-efa3-42b7-9d9b-298456b6ded4","ios":"levelo://app?vid=68c9ec09-efa3-42b7-9d9b-298456b6ded4"},"vehicle_type_id":"4","last_reported":1739826498,"current_range_meters":6800,"station_id":"","pricing_plan_id":"cebpf4jnsgd1na2vs0mg"},{"bike_id":"57e1d184-2a53-4317-af98-8e2e25723938","system_id":"levelo_inurba_marseille","lat":43.29358,"lon":5.37859,"is_reserved":false,"is_disabled":false,"rental_uris":{"android":"levelo://app?vid=57e1d184-2a53-4317-af98-8e2e25723938","ios":"levelo://app?vid=57e1d184-2a53-4317-af98-8e2e25723938"},"vehicle_type_id":"4","last_reported":1739826498,"current_range_meters":6800,"station_id":"ce4bgjh2rcd13ifvqbf0","pricing_plan_id":"cebpf4jnsgd1na2vs0mg"},{"bike_id":"3a9a968d-dcc9-4ffb-90af-aadcb8469a1d","system_id":"levelo_inurba_marseille","lat":43.32265,"lon":5.39417,"is_reserved":false,"is_disabled":false,"rental_uris":{"android":"levelo://app?vid=3a9a968d-dcc9-4ffb-90af-aadcb8469a1d","ios":"levelo://app?vid=3a9a968d-dcc9-4ffb-90af-aadcb8469a1d"},"vehicle_type_id":"4","last_reported":1739826498,"current_range_meters":6800,"station_id":"","pricing_plan_id":"cebpf4jnsgd1na2vs0mg"},{"bike_id":"87391072-fcac-4aa4-a59a-70f85ae50cbe","system_id":"levelo_inurba_marseille","lat":43.24545,"lon":5.39544,"is_reserved":false,"is_disabled":false,"rental_uris":{"android":"levelo://app?vid=87391072-fcac-4aa4-a59a-70f85ae50cbe","ios":"levelo://app?vid=87391072-fcac-4aa4-a59a-70f85ae50cbe"},"vehicle_type_id":"4","last_reported":1739826498,"current_range_meters":6800,"station_id":"ce4bhlp2rcd13ifvqgjg","pricing_plan_id":"cebpf4jnsgd1na2vs0mg"},{"bike_id":"33a2f713-59cf-4dee-bd5e-cf5438338de0","system_id":"levelo_inurba_marseille","lat":43.30479,"lon":5.36952,"is_reserved":false,"is_disabled":false,"rental_uris":{"android":"levelo://app?vid=33a2f713-59cf-4dee-bd5e-cf5438338de0","ios":"levelo://app?vid=33a2f713-59cf-4dee-bd5e-cf5438338de0"},"vehicle_type_id":"4","last_reported":1739826498,"current_range_meters":6800,"station_id":"","pricing_plan_id":"cebpf4jnsgd1na2vs0mg"},{"bike_id":"e2a40e08-4a05-4254-862b-b58cc14c7904","system_id":"levelo_inurba_marseille","lat":43.25083,"lon":5.3954,"is_reserved":false,"is_disabled":false,"rental_uris":{"android":"levelo://app?vid=e2a40e08-4a05-4254-862b-b58cc14c7904","ios":"levelo://app?vid=e2a40e08-4a05-4254-862b-b58cc14c7904"},"vehicle_type_id":"4","last_reported":1739826498,"current_range_meters":7200,"station_id":"ce4bhm12rcd13ifvqgkg","pricing_plan_id":"cebpf4jnsgd1na2vs0mg"},{"bike_id":"07fcfbbd-fc40-4726-bcce-bbc10c3cde69","system_id":"levelo_inurba_marseille","lat":43.28105,"lon":5.37847,"is_reserved":false,"is_disabled":false,"rental_uris":{"android":"levelo://app?vid=07fcfbbd-fc40-4726-bcce-bbc10c3cde69","ios":"levelo://app?vid=07fcfbbd-fc40-4726-bcce-bbc10c3cde69"},"vehicle_type_id":"4","last_reported":1739826498,"current_range_meters":7200,"station_id":"ce4bha12rcd13ifvqee0","pricing_plan_id":"cebpf4jnsgd1na2vs0mg"},{"bike_id":"019a5c25-ca06-4329-8d04-0fd2f5d25e08","system_id":"levelo_inurba_marseille","lat":43.27564,"lon":5.38426,"is_reserved":false,"is_disabled":false,"rental_uris":{"android":"levelo://app?vid=019a5c25-ca06-4329-8d04-0fd2f5d25e08","ios":"levelo://app?vid=019a5c25-ca06-4329-8d04-0fd2f5d25e08"},"vehicle_type_id":"4","last_reported":1739826498,"current_range_meters":7200,"station_id":"ce4bhh92rcd13ifvqfi0","pricing_plan_id":"cebpf4jnsgd1na2vs0mg"},{"bike_id":"d19b902e-7c9c-4992-88a0-59cc561bd6eb","system_id":"levelo_inurba_marseille","lat":43.28946,"lon":5.3662,"is_reserved":false,"is_disabled":false,"rental_uris":{"android":"levelo://app?vid=d19b902e-7c9c-4992-88a0-59cc561bd6eb","ios":"levelo://app?vid=d19b902e-7c9c-4992-88a0-59cc561bd6eb"},"vehicle_type_id":"4","last_reported":1739826498,"current_range_meters":7200,"station_id":"ce4bhap2rcd13ifvqek0","pricing_plan_id":"cebpf4jnsgd1na2vs0mg"},{"bike_id":"951b4d3f-8001-4a07-94d2-7c087d9f5ec2","system_id":"levelo_inurba_marseille","lat":43.26075,"lon":5.39374,"is_reserved":false,"is_disabled":false,"rental_uris":{"android":"levelo://app?vid=951b4d3f-8001-4a07-94d2-7c087d9f5ec2","ios":"levelo://app?vid=951b4d3f-8001-4a07-94d2-7c087d9f5ec2"},"vehicle_type_id":"4","last_reported":1739826498,"current_range_meters":7200,"station_id":"ce4bhh92rcd13ifvqfj0","pricing_plan_id":"cebpf4jnsgd1na2vs0mg"},{"bike_id":"cbe20c45-938f-40af-a879-ecc5b18a088b","system_id":"levelo_inurba_marseille","lat":43.28403,"lon":5.37524,"is_reserved":false,"is_disabled":false,"rental_uris":{"android":"levelo://app?vid=cbe20c45-938f-40af-a879-ecc5b18a088b","ios":"levelo://app?vid=cbe20c45-938f-40af-a879-ecc5b18a088b"},"vehicle_type_id":"4","last_reported":1739826498,"current_range_meters":7200,"station_id":"","pricing_plan_id":"cebpf4jnsgd1na2vs0mg"},{"bike_id":"2b278cf2-594f-4230-8154-882e1df047f2","system_id":"levelo_inurba_marseille","lat":43.24089,"lon":5.37718,"is_reserved":false,"is_disabled":false,"rental_uris":{"android":"levelo://app?vid=2b278cf2-594f-4230-8154-882e1df047f2","ios":"levelo://app?vid=2b278cf2-594f-4230-8154-882e1df047f2"},"vehicle_type_id":"4","last_reported":1739826498,"current_range_meters":7200,"station_id":"ce4bhnp2rcd13ifvqgvg","pricing_plan_id":"cebpf4jnsgd1na2vs0mg"},{"bike_id":"96a8a8cd-63f3-4d1c-b2cb-f267c0071f42","system_id":"levelo_inurba_marseille","lat":43.2481,"lon":5.37454,"is_reserved":false,"is_disabled":false,"rental_uris":{"android":"levelo://app?vid=96a8a8cd-63f3-4d1c-b2cb-f267c0071f42","ios":"levelo://app?vid=96a8a8cd-63f3-4d1c-b2cb-f267c0071f42"},"vehicle_type_id":"4","last_reported":1739826498,"current_range_meters":7200,"station_id":"","pricing_plan_id":"cebpf4jnsgd1na2vs0mg"},{"bike_id":"246a1c68-46c2-4820-98cf-1a2de1ba1f55","system_id":"levelo_inurba_marseille","lat":43.27838,"lon":5.39206,"is_reserved":false,"is_disabled":false,"rental_uris":{"android":"levelo://app?vid=246a1c68-46c2-4820-98cf-1a2de1ba1f55","ios":"levelo://app?vid=246a1c68-46c2-4820-98cf-1a2de1ba1f55"},"vehicle_type_id":"4","last_reported":1739826498,"current_range_meters":8000,"station_id":"ce4bhjp2rcd13ifvqga0","pricing_plan_id":"cebpf4jnsgd1na2vs0mg"},{"bike_id":"0e7e7ec9-bd14-40e0-8e23-a3285cbd39f4","system_id":"levelo_inurba_marseille","lat":43.24637,"lon":5.38946,"is_reserved":false,"is_disabled":false,"rental_uris":{"android":"levelo://app?vid=0e7e7ec9-bd14-40e0-8e23-a3285cbd39f4","ios":"levelo://app?vid=0e7e7ec9-bd14-40e0-8e23-a3285cbd39f4"},"vehicle_type_id":"4","last_reported":1739826498,"current_range_meters":8000,"station_id":"ce4bhg12rcd13ifvqf60","pricing_plan_id":"cebpf4jnsgd1na2vs0mg"},{"bike_id":"719440cf-49d6-467d-83b4-f8177f30e991","system_id":"levelo_inurba_marseille","lat":43.2815,"lon":5.42629,"is_reserved":false,"is_disabled":false,"rental_uris":{"android":"levelo://app?vid=719440cf-49d6-467d-83b4-f8177f30e991","ios":"levelo://app?vid=719440cf-49d6-467d-83b4-f8177f30e991"},"vehicle_type_id":"4","last_reported":1739826498,"current_range_meters":8000,"station_id":"","pricing_plan_id":"cebpf4jnsgd1na2vs0mg"},{"bike_id":"9f72b035-42cd-4ed2-9def-93c83a040988","system_id":"levelo_inurba_marseille","lat":43.24078,"lon":5.37654,"is_reserved":false,"is_disabled":false,"rental_uris":{"android":"levelo://app?vid=9f72b035-42cd-4ed2-9def-93c83a040988","ios":"levelo://app?vid=9f72b035-42cd-4ed2-9def-93c83a040988"},"vehicle_type_id":"4","last_reported":1739826498,"current_range_meters":8000,"station_id":"ce4bhnp2rcd13ifvqgvg","pricing_plan_id":"cebpf4jnsgd1na2vs0mg"},{"bike_id":"55096f27-3fcb-413a-8778-8a8402fa7949","system_id":"levelo_inurba_marseille","lat":43.27945,"lon":5.41042,"is_reserved":false,"is_disabled":false,"rental_uris":{"android":"levelo://app?vid=55096f27-3fcb-413a-8778-8a8402fa7949","ios":"levelo://app?vid=55096f27-3fcb-413a-8778-8a8402fa7949"},"vehicle_type_id":"4","last_reported":1739826498,"current_range_meters":8000,"station_id":"ce4bhnp2rcd13ifvqh0g","pricing_plan_id":"cebpf4jnsgd1na2vs0mg"},{"bike_id":"2af45b9a-8c0d-4f01-a654-0c80764127bf","system_id":"levelo_inurba_marseille","lat":43.28723,"lon":5.36097,"is_reserved":false,"is_disabled":true,"rental_uris":{"android":"levelo://app?vid=2af45b9a-8c0d-4f01-a654-0c80764127bf","ios":"levelo://app?vid=2af45b9a-8c0d-4f01-a654-0c80764127bf"},"vehicle_type_id":"4","last_reported":1739826498,"current_range_meters":8000,"station_id":"cki0cbj6b192h4jlfktg","pricing_plan_id":"cebpf4jnsgd1na2vs0mg"},{"bike_id":"1028d825-a809-400b-a433-b2f52b266986","system_id":"levelo_inurba_marseille","lat":43.30956,"lon":5.37887,"is_reserved":false,"is_disabled":false,"rental_uris":{"android":"levelo://app?vid=1028d825-a809-400b-a433-b2f52b266986","ios":"levelo://app?vid=1028d825-a809-400b-a433-b2f52b266986"},"vehicle_type_id":"4","last_reported":1739826498,"current_range_meters":8000,"station_id":"","pricing_plan_id":"cebpf4jnsgd1na2vs0mg"},{"bike_id":"fc404722-a79a-40d0-8e0a-e58382575551","system_id":"levelo_inurba_marseille","lat":43.28004,"lon":5.40017,"is_reserved":false,"is_disabled":false,"rental_uris":{"android":"levelo://app?vid=fc404722-a79a-40d0-8e0a-e58382575551","ios":"levelo://app?vid=fc404722-a79a-40d0-8e0a-e58382575551"},"vehicle_type_id":"4","last_reported":1739826498,"current_range_meters":8000,"station_id":"ce4bho92rcd13ifvqh4g","pricing_plan_id":"cebpf4jnsgd1na2vs0mg"},{"bike_id":"7529b7d3-3386-4c69-b82f-12a292d850ae","system_id":"levelo_inurba_marseille","lat":43.27954,"lon":5.41042,"is_reserved":false,"is_disabled":false,"rental_uris":{"android":"levelo://app?vid=7529b7d3-3386-4c69-b82f-12a292d850ae","ios":"levelo://app?vid=7529b7d3-3386-4c69-b82f-12a292d850ae"},"vehicle_type_id":"4","last_reported":1739826498,"current_range_meters":8400,"station_id":"ce4bhnp2rcd13ifvqh0g","pricing_plan_id":"cebpf4jnsgd1na2vs0mg"},{"bike_id":"47b43428-baa8-4f17-b113-3f79a1469e0a","system_id":"levelo_inurba_marseille","lat":43.2796,"lon":5.41064,"is_reserved":false,"is_disabled":false,"rental_uris":{"android":"levelo://app?vid=47b43428-baa8-4f17-b113-3f79a1469e0a","ios":"levelo://app?vid=47b43428-baa8-4f17-b113-3f79a1469e0a"},"vehicle_type_id":"4","last_reported":1739826498,"current_range_meters":8400,"station_id":"ce4bhnp2rcd13ifvqh0g","pricing_plan_id":"cebpf4jnsgd1na2vs0mg"},{"bike_id":"2e5e89c3-0e0e-4cca-b25a-7707cb6d7c5d","system_id":"levelo_inurba_marseille","lat":43.276646,"lon":5.408419,"is_reserved":false,"is_disabled":false,"rental_uris":{"android":"levelo://app?vid=2e5e89c3-0e0e-4cca-b25a-7707cb6d7c5d","ios":"levelo://app?vid=2e5e89c3-0e0e-4cca-b25a-7707cb6d7c5d"},"vehicle_type_id":"4","last_reported":1739826498,"current_range_meters":8400,"station_id":"","pricing_plan_id":"cebpf4jnsgd1na2vs0mg"},{"bike_id":"01bec25a-ce9b-41ff-8b8e-4879fb269a23","system_id":"levelo_inurba_marseille","lat":43.241638,"lon":5.364111,"is_reserved":false,"is_disabled":false,"rental_uris":{"android":"levelo://app?vid=01bec25a-ce9b-41ff-8b8e-4879fb269a23","ios":"levelo://app?vid=01bec25a-ce9b-41ff-8b8e-4879fb269a23"},"vehicle_type_id":"4","last_reported":1739826498,"current_range_meters":8400,"station_id":"cpo36qri1sfpv3e86is0","pricing_plan_id":"cebpf4jnsgd1na2vs0mg"},{"bike_id":"0e100a33-eafb-4d74-bfcb-df30a048ca1f","system_id":"levelo_inurba_marseille","lat":43.25154,"lon":5.40219,"is_reserved":false,"is_disabled":false,"rental_uris":{"android":"levelo://app?vid=0e100a33-eafb-4d74-bfcb-df30a048ca1f","ios":"levelo://app?vid=0e100a33-eafb-4d74-bfcb-df30a048ca1f"},"vehicle_type_id":"4","last_reported":1739826498,"current_range_meters":8400,"station_id":"ce4bhlh2rcd13ifvqgig","pricing_plan_id":"cebpf4jnsgd1na2vs0mg"},{"bike_id":"aeb146d7-9a7c-4f17-afb8-eb73e5fe637d","system_id":"levelo_inurba_marseille","lat":43.24822,"lon":5.37438,"is_reserved":false,"is_disabled":false,"rental_uris":{"android":"levelo://app?vid=aeb146d7-9a7c-4f17-afb8-eb73e5fe637d","ios":"levelo://app?vid=aeb146d7-9a7c-4f17-afb8-eb73e5fe637d"},"vehicle_type_id":"4","last_reported":1739826498,"current_range_meters":8400,"station_id":"","pricing_plan_id":"cebpf4jnsgd1na2vs0mg"},{"bike_id":"50fe64bb-2a63-41e4-a812-2d48128654a1","system_id":"levelo_inurba_marseille","lat":43.28421,"lon":5.34984,"is_reserved":false,"is_disabled":false,"rental_uris":{"android":"levelo://app?vid=50fe64bb-2a63-41e4-a812-2d48128654a1","ios":"levelo://app?vid=50fe64bb-2a63-41e4-a812-2d48128654a1"},"vehicle_type_id":"4","last_reported":1739826498,"current_range_meters":8800,"station_id":"ce4bhbh2rcd13ifvqepg","pricing_plan_id":"cebpf4jnsgd1na2vs0mg"},{"bike_id":"b2adfa86-5626-4c80-b6a4-718caf1b0c58","system_id":"levelo_inurba_marseille","lat":43.28633,"lon":5.3508,"is_reserved":false,"is_disabled":false,"rental_uris":{"android":"levelo://app?vid=b2adfa86-5626-4c80-b6a4-718caf1b0c58","ios":"levelo://app?vid=b2adfa86-5626-4c80-b6a4-718caf1b0c58"},"vehicle_type_id":"4","last_reported":1739826498,"current_range_meters":8800,"station_id":"","pricing_plan_id":"cebpf4jnsgd1na2vs0mg"},{"bike_id":"eb7860fa-6757-40c8-9075-c63545ec536c","system_id":"levelo_inurba_marseille","lat":43.27462,"lon":5.43506,"is_reserved":false,"is_disabled":false,"rental_uris":{"android":"levelo://app?vid=eb7860fa-6757-40c8-9075-c63545ec536c","ios":"levelo://app?vid=eb7860fa-6757-40c8-9075-c63545ec536c"},"vehicle_type_id":"4","last_reported":1739826498,"current_range_meters":8800,"station_id":"","pricing_plan_id":"cebpf4jnsgd1na2vs0mg"},{"bike_id":"324c900e-5cb2-4ca6-932a-28ceba0385c4","system_id":"levelo_inurba_marseille","lat":43.31094,"lon":5.42413,"is_reserved":false,"is_disabled":false,"rental_uris":{"android":"levelo://app?vid=324c900e-5cb2-4ca6-932a-28ceba0385c4","ios":"levelo://app?vid=324c900e-5cb2-4ca6-932a-28ceba0385c4"},"vehicle_type_id":"4","last_reported":1739826498,"current_range_meters":8800,"station_id":"ce4bhp92rcd13ifvqhag","pricing_plan_id":"cebpf4jnsgd1na2vs0mg"},{"bike_id":"8a49e737-2dba-437e-b0e4-c61d64b4fa11","system_id":"levelo_inurba_marseille","lat":43.24546,"lon":5.39514,"is_reserved":false,"is_disabled":false,"rental_uris":{"android":"levelo://app?vid=8a49e737-2dba-437e-b0e4-c61d64b4fa11","ios":"levelo://app?vid=8a49e737-2dba-437e-b0e4-c61d64b4fa11"},"vehicle_type_id":"4","last_reported":1739826498,"current_range_meters":8800,"station_id":"ce4bhlp2rcd13ifvqgjg","pricing_plan_id":"cebpf4jnsgd1na2vs0mg"},{"bike_id":"c28e63b6-945b-4731-bb7c-09f4796ee396","system_id":"levelo_inurba_marseille","lat":43.28419,"lon":5.34991,"is_reserved":false,"is_disabled":false,"rental_uris":{"android":"levelo://app?vid=c28e63b6-945b-4731-bb7c-09f4796ee396","ios":"levelo://app?vid=c28e63b6-945b-4731-bb7c-09f4796ee396"},"vehicle_type_id":"4","last_reported":1739826498,"current_range_meters":8800,"station_id":"ce4bhbh2rcd13ifvqepg","pricing_plan_id":"cebpf4jnsgd1na2vs0mg"},{"bike_id":"4c7fa70c-e0fb-4e98-8349-3dd589c1f692","system_id":"levelo_inurba_marseille","lat":43.25104,"lon":5.40335,"is_reserved":false,"is_disabled":false,"rental_uris":{"android":"levelo://app?vid=4c7fa70c-e0fb-4e98-8349-3dd589c1f692","ios":"levelo://app?vid=4c7fa70c-e0fb-4e98-8349-3dd589c1f692"},"vehicle_type_id":"4","last_reported":1739826498,"current_range_meters":9200,"station_id":"ce4bhlh2rcd13ifvqgig","pricing_plan_id":"cebpf4jnsgd1na2vs0mg"},{"bike_id":"58ccda7a-a7ea-4fd0-85a2-aaffebd84961","system_id":"levelo_inurba_marseille","lat":43.25002,"lon":5.38929,"is_reserved":false,"is_disabled":false,"rental_uris":{"android":"levelo://app?vid=58ccda7a-a7ea-4fd0-85a2-aaffebd84961","ios":"levelo://app?vid=58ccda7a-a7ea-4fd0-85a2-aaffebd84961"},"vehicle_type_id":"4","last_reported":1739826498,"current_range_meters":9200,"station_id":"ce4bhgp2rcd13ifvqfd0","pricing_plan_id":"cebpf4jnsgd1na2vs0mg"},{"bike_id":"c72dd471-889d-41d7-939b-cdf433bd5acf","system_id":"levelo_inurba_marseille","lat":43.2621,"lon":5.3744,"is_reserved":false,"is_disabled":false,"rental_uris":{"android":"levelo://app?vid=c72dd471-889d-41d7-939b-cdf433bd5acf","ios":"levelo://app?vid=c72dd471-889d-41d7-939b-cdf433bd5acf"},"vehicle_type_id":"4","last_reported":1739826498,"current_range_meters":9200,"station_id":"ce4bhgp2rcd13ifvqfc0","pricing_plan_id":"cebpf4jnsgd1na2vs0mg"},{"bike_id":"542d681f-a9f9-4b66-8519-5295b3261dc9","system_id":"levelo_inurba_marseille","lat":43.30105,"lon":5.39088,"is_reserved":false,"is_disabled":false,"rental_uris":{"android":"levelo://app?vid=542d681f-a9f9-4b66-8519-5295b3261dc9","ios":"levelo://app?vid=542d681f-a9f9-4b66-8519-5295b3261dc9"},"vehicle_type_id":"4","last_reported":1739826498,"current_range_meters":9200,"station_id":"","pricing_plan_id":"cebpf4jnsgd1na2vs0mg"},{"bike_id":"cf88743b-ec29-46d2-8b88-961b886f8b2a","system_id":"levelo_inurba_marseille","lat":43.26555,"lon":5.39028,"is_reserved":false,"is_disabled":true,"rental_uris":{"android":"levelo://app?vid=cf88743b-ec29-46d2-8b88-961b886f8b2a","ios":"levelo://app?vid=cf88743b-ec29-46d2-8b88-961b886f8b2a"},"vehicle_type_id":"4","last_reported":1739826498,"current_range_meters":9200,"station_id":"ce4bhe12rcd13ifvqf30","pricing_plan_id":"cebpf4jnsgd1na2vs0mg"},{"bike_id":"8dbe617a-73bb-43b1-955a-f0b57c2f6fa2","system_id":"levelo_inurba_marseille","lat":43.27383,"lon":5.36224,"is_reserved":false,"is_disabled":false,"rental_uris":{"android":"levelo://app?vid=8dbe617a-73bb-43b1-955a-f0b57c2f6fa2","ios":"levelo://app?vid=8dbe617a-73bb-43b1-955a-f0b57c2f6fa2"},"vehicle_type_id":"4","last_reported":1739826498,"current_range_meters":9200,"station_id":"ce4bhbh2rcd13ifvqeo0","pricing_plan_id":"cebpf4jnsgd1na2vs0mg"},{"bike_id":"d7f5a6fe-ccef-4fa8-9660-769eb9e2899e","system_id":"levelo_inurba_marseille","lat":43.23955,"lon":5.36626,"is_reserved":false,"is_disabled":false,"rental_uris":{"android":"levelo://app?vid=d7f5a6fe-ccef-4fa8-9660-769eb9e2899e","ios":"levelo://app?vid=d7f5a6fe-ccef-4fa8-9660-769eb9e2899e"},"vehicle_type_id":"4","last_reported":1739826498,"current_range_meters":9200,"station_id":"ce4bhi12rcd13ifvqfp0","pricing_plan_id":"cebpf4jnsgd1na2vs0mg"},{"bike_id":"98dafedc-f25b-409d-b3e2-803b47ffb900","system_id":"levelo_inurba_marseille","lat":43.24524,"lon":5.37258,"is_reserved":false,"is_disabled":false,"rental_uris":{"android":"levelo://app?vid=98dafedc-f25b-409d-b3e2-803b47ffb900","ios":"levelo://app?vid=98dafedc-f25b-409d-b3e2-803b47ffb900"},"vehicle_type_id":"4","last_reported":1739826498,"current_range_meters":9200,"station_id":"","pricing_plan_id":"cebpf4jnsgd1na2vs0mg"},{"bike_id":"eb7327fd-672e-4c19-a810-f4aa8a6d8207","system_id":"levelo_inurba_marseille","lat":43.30001,"lon":5.37371,"is_reserved":false,"is_disabled":false,"rental_uris":{"android":"levelo://app?vid=eb7327fd-672e-4c19-a810-f4aa8a6d8207","ios":"levelo://app?vid=eb7327fd-672e-4c19-a810-f4aa8a6d8207"},"vehicle_type_id":"4","last_reported":1739826498,"current_range_meters":9600,"station_id":"","pricing_plan_id":"cebpf4jnsgd1na2vs0mg"},{"bike_id":"fc9896ce-1f52-403c-86a7-1678079c9523","system_id":"levelo_inurba_marseille","lat":43.28136,"lon":5.441743,"is_reserved":false,"is_disabled":false,"rental_uris":{"android":"levelo://app?vid=fc9896ce-1f52-403c-86a7-1678079c9523","ios":"levelo://app?vid=fc9896ce-1f52-403c-86a7-1678079c9523"},"vehicle_type_id":"4","last_reported":1739826498,"current_range_meters":9600,"station_id":"","pricing_plan_id":"cebpf4jnsgd1na2vs0mg"},{"bike_id":"319a4ad4-3f57-4b68-80b0-963bb06cbf47","system_id":"levelo_inurba_marseille","lat":43.29565,"lon":5.39979,"is_reserved":false,"is_disabled":false,"rental_uris":{"android":"levelo://app?vid=319a4ad4-3f57-4b68-80b0-963bb06cbf47","ios":"levelo://app?vid=319a4ad4-3f57-4b68-80b0-963bb06cbf47"},"vehicle_type_id":"4","last_reported":1739826498,"current_range_meters":9600,"station_id":"ce4bh312rcd13ifvqdj0","pricing_plan_id":"cebpf4jnsgd1na2vs0mg"},{"bike_id":"ec68a172-c88f-42fd-a5d1-2f2a5f2b2c75","system_id":"levelo_inurba_marseille","lat":43.27988,"lon":5.41658,"is_reserved":false,"is_disabled":false,"rental_uris":{"android":"levelo://app?vid=ec68a172-c88f-42fd-a5d1-2f2a5f2b2c75","ios":"levelo://app?vid=ec68a172-c88f-42fd-a5d1-2f2a5f2b2c75"},"vehicle_type_id":"4","last_reported":1739826498,"current_range_meters":10000,"station_id":"ce4bho12rcd13ifvqh1g","pricing_plan_id":"cebpf4jnsgd1na2vs0mg"},{"bike_id":"a0dfaaa5-2564-40a0-a720-c6022c8dbdf6","system_id":"levelo_inurba_marseille","lat":43.25517,"lon":5.37664,"is_reserved":false,"is_disabled":false,"rental_uris":{"android":"levelo://app?vid=a0dfaaa5-2564-40a0-a720-c6022c8dbdf6","ios":"levelo://app?vid=a0dfaaa5-2564-40a0-a720-c6022c8dbdf6"},"vehicle_type_id":"4","last_reported":1739826498,"current_range_meters":10000,"station_id":"ce4bhh12rcd13ifvqff0","pricing_plan_id":"cebpf4jnsgd1na2vs0mg"},{"bike_id":"b2eb9521-66ab-42ef-b99e-25163d1a8c42","system_id":"levelo_inurba_marseille","lat":43.31889,"lon":5.4074,"is_reserved":false,"is_disabled":false,"rental_uris":{"android":"levelo://app?vid=b2eb9521-66ab-42ef-b99e-25163d1a8c42","ios":"levelo://app?vid=b2eb9521-66ab-42ef-b99e-25163d1a8c42"},"vehicle_type_id":"4","last_reported":1739826498,"current_range_meters":10000,"station_id":"","pricing_plan_id":"cebpf4jnsgd1na2vs0mg"},{"bike_id":"809cf213-6737-468b-b233-c26bf016ca47","system_id":"levelo_inurba_marseille","lat":43.28162,"lon":5.42647,"is_reserved":false,"is_disabled":false,"rental_uris":{"android":"levelo://app?vid=809cf213-6737-468b-b233-c26bf016ca47","ios":"levelo://app?vid=809cf213-6737-468b-b233-c26bf016ca47"},"vehicle_type_id":"4","last_reported":1739826498,"current_range_meters":10000,"station_id":"ce4bhnh2rcd13ifvqgug","pricing_plan_id":"cebpf4jnsgd1na2vs0mg"},{"bike_id":"b47411c6-8c7d-477c-8857-3de25b957c84","system_id":"levelo_inurba_marseille","lat":43.25096,"lon":5.39489,"is_reserved":false,"is_disabled":false,"rental_uris":{"android":"levelo://app?vid=b47411c6-8c7d-477c-8857-3de25b957c84","ios":"levelo://app?vid=b47411c6-8c7d-477c-8857-3de25b957c84"},"vehicle_type_id":"4","last_reported":1739826498,"current_range_meters":10000,"station_id":"ce4bhm12rcd13ifvqgkg","pricing_plan_id":"cebpf4jnsgd1na2vs0mg"},{"bike_id":"63213ce8-ab3b-490e-8b8e-c1a55a68b2ca","system_id":"levelo_inurba_marseille","lat":43.2951,"lon":5.38198,"is_reserved":false,"is_disabled":true,"rental_uris":{"android":"levelo://app?vid=63213ce8-ab3b-490e-8b8e-c1a55a68b2ca","ios":"levelo://app?vid=63213ce8-ab3b-490e-8b8e-c1a55a68b2ca"},"vehicle_type_id":"4","last_reported":1739826498,"current_range_meters":10000,"station_id":"","pricing_plan_id":"cebpf4jnsgd1na2vs0mg"},{"bike_id":"9b539641-d6fc-4e56-8744-46151aa98684","system_id":"levelo_inurba_marseille","lat":43.26526,"lon":5.39467,"is_reserved":false,"is_disabled":false,"rental_uris":{"android":"levelo://app?vid=9b539641-d6fc-4e56-8744-46151aa98684","ios":"levelo://app?vid=9b539641-d6fc-4e56-8744-46151aa98684"},"vehicle_type_id":"4","last_reported":1739826498,"current_range_meters":10000,"station_id":"ce4bhi12rcd13ifvqfq0","pricing_plan_id":"cebpf4jnsgd1na2vs0mg"},{"bike_id":"bc4f591c-5520-4012-8c42-ce2e7ef9c7b3","system_id":"levelo_inurba_marseille","lat":43.30101,"lon":5.39074,"is_reserved":false,"is_disabled":false,"rental_uris":{"android":"levelo://app?vid=bc4f591c-5520-4012-8c42-ce2e7ef9c7b3","ios":"levelo://app?vid=bc4f591c-5520-4012-8c42-ce2e7ef9c7b3"},"vehicle_type_id":"4","last_reported":1739826498,"current_range_meters":10800,"station_id":"ce4bh192rcd13ifvqdb0","pricing_plan_id":"cebpf4jnsgd1na2vs0mg"},{"bike_id":"811901b7-6a39-4b98-9209-f363e05c2482","system_id":"levelo_inurba_marseille","lat":43.28148,"lon":5.42643,"is_reserved":false,"is_disabled":false,"rental_uris":{"android":"levelo://app?vid=811901b7-6a39-4b98-9209-f363e05c2482","ios":"levelo://app?vid=811901b7-6a39-4b98-9209-f363e05c2482"},"vehicle_type_id":"4","last_reported":1739826498,"current_range_meters":10800,"station_id":"ce4bhnh2rcd13ifvqgug","pricing_plan_id":"cebpf4jnsgd1na2vs0mg"},{"bike_id":"d34fb92a-af04-4ce4-bc7f-267fe4fe0f97","system_id":"levelo_inurba_marseille","lat":43.28416,"lon":5.35006,"is_reserved":false,"is_disabled":false,"rental_uris":{"android":"levelo://app?vid=d34fb92a-af04-4ce4-bc7f-267fe4fe0f97","ios":"levelo://app?vid=d34fb92a-af04-4ce4-bc7f-267fe4fe0f97"},"vehicle_type_id":"4","last_reported":1739826498,"current_range_meters":10800,"station_id":"ce4bhbh2rcd13ifvqepg","pricing_plan_id":"cebpf4jnsgd1na2vs0mg"},{"bike_id":"247f75dd-1d03-4342-afe9-e8048c31583d","system_id":"levelo_inurba_marseille","lat":43.26681,"lon":5.38271,"is_reserved":false,"is_disabled":false,"rental_uris":{"android":"levelo://app?vid=247f75dd-1d03-4342-afe9-e8048c31583d","ios":"levelo://app?vid=247f75dd-1d03-4342-afe9-e8048c31583d"},"vehicle_type_id":"4","last_reported":1739826498,"current_range_meters":10800,"station_id":"ce4bhg92rcd13ifvqf90","pricing_plan_id":"cebpf4jnsgd1na2vs0mg"},{"bike_id":"dcf310c5-15ca-498b-bf9c-cd6c77922408","system_id":"levelo_inurba_marseille","lat":43.23959,"lon":5.36634,"is_reserved":false,"is_disabled":false,"rental_uris":{"android":"levelo://app?vid=dcf310c5-15ca-498b-bf9c-cd6c77922408","ios":"levelo://app?vid=dcf310c5-15ca-498b-bf9c-cd6c77922408"},"vehicle_type_id":"4","last_reported":1739826498,"current_range_meters":10800,"station_id":"ce4bhi12rcd13ifvqfp0","pricing_plan_id":"cebpf4jnsgd1na2vs0mg"},{"bike_id":"6712a9e1-c428-4991-a16e-c35bd007885f","system_id":"levelo_inurba_marseille","lat":43.30212,"lon":5.39464,"is_reserved":false,"is_disabled":false,"rental_uris":{"android":"levelo://app?vid=6712a9e1-c428-4991-a16e-c35bd007885f","ios":"levelo://app?vid=6712a9e1-c428-4991-a16e-c35bd007885f"},"vehicle_type_id":"4","last_reported":1739826498,"current_range_meters":11200,"station_id":"ce4bh0p2rcd13ifvqd70","pricing_plan_id":"cebpf4jnsgd1na2vs0mg"},{"bike_id":"6fddf1f6-1c8d-42ee-8ab3-6a8f9fa20ffa","system_id":"levelo_inurba_marseille","lat":43.24798,"lon":5.37461,"is_reserved":false,"is_disabled":false,"rental_uris":{"android":"levelo://app?vid=6fddf1f6-1c8d-42ee-8ab3-6a8f9fa20ffa","ios":"levelo://app?vid=6fddf1f6-1c8d-42ee-8ab3-6a8f9fa20ffa"},"vehicle_type_id":"4","last_reported":1739826498,"current_range_meters":11200,"station_id":"","pricing_plan_id":"cebpf4jnsgd1na2vs0mg"},{"bike_id":"6528e792-6c2b-41ab-b102-37d30001a0e7","system_id":"levelo_inurba_marseille","lat":43.27265,"lon":5.40066,"is_reserved":false,"is_disabled":false,"rental_uris":{"android":"levelo://app?vid=6528e792-6c2b-41ab-b102-37d30001a0e7","ios":"levelo://app?vid=6528e792-6c2b-41ab-b102-37d30001a0e7"},"vehicle_type_id":"4","last_reported":1739826498,"current_range_meters":11600,"station_id":"","pricing_plan_id":"cebpf4jnsgd1na2vs0mg"},{"bike_id":"983e2b89-c8bc-4dfc-9422-c71705605267","system_id":"levelo_inurba_marseille","lat":43.28713,"lon":5.37402,"is_reserved":false,"is_disabled":false,"rental_uris":{"android":"levelo://app?vid=983e2b89-c8bc-4dfc-9422-c71705605267","ios":"levelo://app?vid=983e2b89-c8bc-4dfc-9422-c71705605267"},"vehicle_type_id":"4","last_reported":1739826498,"current_range_meters":11600,"station_id":"ce4bh3p2rcd13ifvqdq0","pricing_plan_id":"cebpf4jnsgd1na2vs0mg"},{"bike_id":"15ffc5e5-a1d7-46bd-b7be-18c9541e99cf","system_id":"levelo_inurba_marseille","lat":43.29528,"lon":5.3854,"is_reserved":false,"is_disabled":false,"rental_uris":{"android":"levelo://app?vid=15ffc5e5-a1d7-46bd-b7be-18c9541e99cf","ios":"levelo://app?vid=15ffc5e5-a1d7-46bd-b7be-18c9541e99cf"},"vehicle_type_id":"4","last_reported":1739826498,"current_range_meters":11600,"station_id":"ce4bgih2rcd13ifvqba0","pricing_plan_id":"cebpf4jnsgd1na2vs0mg"},{"bike_id":"3d4308c8-b99c-4670-94a5-2308471cb9ad","system_id":"levelo_inurba_marseille","lat":43.31164,"lon":5.38728,"is_reserved":false,"is_disabled":false,"rental_uris":{"android":"levelo://app?vid=3d4308c8-b99c-4670-94a5-2308471cb9ad","ios":"levelo://app?vid=3d4308c8-b99c-4670-94a5-2308471cb9ad"},"vehicle_type_id":"4","last_reported":1739826498,"current_range_meters":11600,"station_id":"ce4bgv12rcd13ifvqcp0","pricing_plan_id":"cebpf4jnsgd1na2vs0mg"},{"bike_id":"e74fef04-4797-4a8d-83a6-0b69a0bb01fb","system_id":"levelo_inurba_marseille","lat":43.27943,"lon":5.4105,"is_reserved":false,"is_disabled":false,"rental_uris":{"android":"levelo://app?vid=e74fef04-4797-4a8d-83a6-0b69a0bb01fb","ios":"levelo://app?vid=e74fef04-4797-4a8d-83a6-0b69a0bb01fb"},"vehicle_type_id":"4","last_reported":1739826498,"current_range_meters":11600,"station_id":"ce4bhnp2rcd13ifvqh0g","pricing_plan_id":"cebpf4jnsgd1na2vs0mg"},{"bike_id":"51412dc6-c40f-4da4-a3a9-768c7d440222","system_id":"levelo_inurba_marseille","lat":43.2835,"lon":5.38629,"is_reserved":false,"is_disabled":false,"rental_uris":{"android":"levelo://app?vid=51412dc6-c40f-4da4-a3a9-768c7d440222","ios":"levelo://app?vid=51412dc6-c40f-4da4-a3a9-768c7d440222"},"vehicle_type_id":"4","last_reported":1739826498,"current_range_meters":11600,"station_id":"ce4bh492rcd13ifvqdvg","pricing_plan_id":"cebpf4jnsgd1na2vs0mg"},{"bike_id":"b64381ab-e3b5-42e1-be3c-9a64ed5aed1d","system_id":"levelo_inurba_marseille","lat":43.24082,"lon":5.37726,"is_reserved":false,"is_disabled":false,"rental_uris":{"android":"levelo://app?vid=b64381ab-e3b5-42e1-be3c-9a64ed5aed1d","ios":"levelo://app?vid=b64381ab-e3b5-42e1-be3c-9a64ed5aed1d"},"vehicle_type_id":"4","last_reported":1739826498,"current_range_meters":11600,"station_id":"ce4bhnp2rcd13ifvqgvg","pricing_plan_id":"cebpf4jnsgd1na2vs0mg"},{"bike_id":"ff8ead88-2b4e-4dc7-9c75-13ec9e7fbdf8","system_id":"levelo_inurba_marseille","lat":43.30138,"lon":5.38793,"is_reserved":false,"is_disabled":false,"rental_uris":{"android":"levelo://app?vid=ff8ead88-2b4e-4dc7-9c75-13ec9e7fbdf8","ios":"levelo://app?vid=ff8ead88-2b4e-4dc7-9c75-13ec9e7fbdf8"},"vehicle_type_id":"4","last_reported":1739826498,"current_range_meters":11600,"station_id":"ce4bghh2rcd13ifvqb60","pricing_plan_id":"cebpf4jnsgd1na2vs0mg"},{"bike_id":"0210a921-fd0e-4f1a-bef1-f3ed4787823d","system_id":"levelo_inurba_marseille","lat":43.28928,"lon":5.3639,"is_reserved":false,"is_disabled":false,"rental_uris":{"android":"levelo://app?vid=0210a921-fd0e-4f1a-bef1-f3ed4787823d","ios":"levelo://app?vid=0210a921-fd0e-4f1a-bef1-f3ed4787823d"},"vehicle_type_id":"4","last_reported":1739826498,"current_range_meters":11600,"station_id":"ce4bhc92rcd13ifvqetg","pricing_plan_id":"cebpf4jnsgd1na2vs0mg"},{"bike_id":"4e2b468f-8f4a-4d73-8517-62fa28d3fb4c","system_id":"levelo_inurba_marseille","lat":43.24816,"lon":5.37463,"is_reserved":false,"is_disabled":false,"rental_uris":{"android":"levelo://app?vid=4e2b468f-8f4a-4d73-8517-62fa28d3fb4c","ios":"levelo://app?vid=4e2b468f-8f4a-4d73-8517-62fa28d3fb4c"},"vehicle_type_id":"4","last_reported":1739826498,"current_range_meters":12000,"station_id":"ce4bhgh2rcd13ifvqfb0","pricing_plan_id":"cebpf4jnsgd1na2vs0mg"},{"bike_id":"d0991bf7-9c1b-4f88-947e-cca686a15eb6","system_id":"levelo_inurba_marseille","lat":43.24659,"lon":5.38159,"is_reserved":false,"is_disabled":false,"rental_uris":{"android":"levelo://app?vid=d0991bf7-9c1b-4f88-947e-cca686a15eb6","ios":"levelo://app?vid=d0991bf7-9c1b-4f88-947e-cca686a15eb6"},"vehicle_type_id":"4","last_reported":1739826498,"current_range_meters":12000,"station_id":"ce4bhih2rcd13ifvqfr0","pricing_plan_id":"cebpf4jnsgd1na2vs0mg"},{"bike_id":"37e2f382-4e5f-4068-ac65-99779f2fa91a","system_id":"levelo_inurba_marseille","lat":43.31063,"lon":5.40098,"is_reserved":false,"is_disabled":false,"rental_uris":{"android":"levelo://app?vid=37e2f382-4e5f-4068-ac65-99779f2fa91a","ios":"levelo://app?vid=37e2f382-4e5f-4068-ac65-99779f2fa91a"},"vehicle_type_id":"4","last_reported":1739826498,"current_range_meters":12000,"station_id":"","pricing_plan_id":"cebpf4jnsgd1na2vs0mg"},{"bike_id":"21964b29-3452-4ba4-919e-80c8fd238b96","system_id":"levelo_inurba_marseille","lat":43.24647,"lon":5.38928,"is_reserved":false,"is_disabled":false,"rental_uris":{"android":"levelo://app?vid=21964b29-3452-4ba4-919e-80c8fd238b96","ios":"levelo://app?vid=21964b29-3452-4ba4-919e-80c8fd238b96"},"vehicle_type_id":"4","last_reported":1739826498,"current_range_meters":12000,"station_id":"ce4bhg12rcd13ifvqf60","pricing_plan_id":"cebpf4jnsgd1na2vs0mg"},{"bike_id":"020f9db3-6048-4a83-8c59-4acc533112c8","system_id":"levelo_inurba_marseille","lat":43.28177,"lon":5.4262,"is_reserved":false,"is_disabled":false,"rental_uris":{"android":"levelo://app?vid=020f9db3-6048-4a83-8c59-4acc533112c8","ios":"levelo://app?vid=020f9db3-6048-4a83-8c59-4acc533112c8"},"vehicle_type_id":"4","last_reported":1739826498,"current_range_meters":12000,"station_id":"ce4bhnh2rcd13ifvqgug","pricing_plan_id":"cebpf4jnsgd1na2vs0mg"},{"bike_id":"7698f8a6-9881-4f3a-8b77-caaefd1c6a7a","system_id":"levelo_inurba_marseille","lat":43.30262,"lon":5.36857,"is_reserved":false,"is_disabled":false,"rental_uris":{"android":"levelo://app?vid=7698f8a6-9881-4f3a-8b77-caaefd1c6a7a","ios":"levelo://app?vid=7698f8a6-9881-4f3a-8b77-caaefd1c6a7a"},"vehicle_type_id":"4","last_reported":1739826498,"current_range_meters":12000,"station_id":"ce4bgqh2rcd13ifvqc5g","pricing_plan_id":"cebpf4jnsgd1na2vs0mg"},{"bike_id":"39178f95-3605-4452-b109-fadb34f60d62","system_id":"levelo_inurba_marseille","lat":43.29301,"lon":5.37161,"is_reserved":false,"is_disabled":false,"rental_uris":{"android":"levelo://app?vid=39178f95-3605-4452-b109-fadb34f60d62","ios":"levelo://app?vid=39178f95-3605-4452-b109-fadb34f60d62"},"vehicle_type_id":"4","last_reported":1739826498,"current_range_meters":10800,"station_id":"ce4bgh92rcd13ifvqb40","pricing_plan_id":"cebpf4jnsgd1na2vs0mg"},{"bike_id":"cb8372d6-bad2-4555-89ad-5b495afb0b59","system_id":"levelo_inurba_marseille","lat":43.24839,"lon":5.37463,"is_reserved":false,"is_disabled":false,"rental_uris":{"android":"levelo://app?vid=cb8372d6-bad2-4555-89ad-5b495afb0b59","ios":"levelo://app?vid=cb8372d6-bad2-4555-89ad-5b495afb0b59"},"vehicle_type_id":"4","last_reported":1739826498,"current_range_meters":12400,"station_id":"ce4bhgh2rcd13ifvqfb0","pricing_plan_id":"cebpf4jnsgd1na2vs0mg"},{"bike_id":"c10d62d7-fc9c-4fc4-a819-66c4604b7faa","system_id":"levelo_inurba_marseille","lat":43.31164,"lon":5.38705,"is_reserved":false,"is_disabled":false,"rental_uris":{"android":"levelo://app?vid=c10d62d7-fc9c-4fc4-a819-66c4604b7faa","ios":"levelo://app?vid=c10d62d7-fc9c-4fc4-a819-66c4604b7faa"},"vehicle_type_id":"4","last_reported":1739826498,"current_range_meters":12400,"station_id":"ce4bgv12rcd13ifvqcp0","pricing_plan_id":"cebpf4jnsgd1na2vs0mg"},{"bike_id":"43e58a6d-2a17-41bb-bd75-661bed22a62b","system_id":"levelo_inurba_marseille","lat":43.312,"lon":5.38686,"is_reserved":false,"is_disabled":false,"rental_uris":{"android":"levelo://app?vid=43e58a6d-2a17-41bb-bd75-661bed22a62b","ios":"levelo://app?vid=43e58a6d-2a17-41bb-bd75-661bed22a62b"},"vehicle_type_id":"4","last_reported":1739826498,"current_range_meters":12400,"station_id":"","pricing_plan_id":"cebpf4jnsgd1na2vs0mg"},{"bike_id":"64627059-f94e-4aa2-a301-7dfa05f02d32","system_id":"levelo_inurba_marseille","lat":43.28879,"lon":5.35873,"is_reserved":false,"is_disabled":false,"rental_uris":{"android":"levelo://app?vid=64627059-f94e-4aa2-a301-7dfa05f02d32","ios":"levelo://app?vid=64627059-f94e-4aa2-a301-7dfa05f02d32"},"vehicle_type_id":"4","last_reported":1739826498,"current_range_meters":12800,"station_id":"ce4bhb12rcd13ifvqem0","pricing_plan_id":"cebpf4jnsgd1na2vs0mg"},{"bike_id":"c5c59f41-6de9-4286-8e47-0b749ef897bc","system_id":"levelo_inurba_marseille","lat":43.28625,"lon":5.35098,"is_reserved":false,"is_disabled":false,"rental_uris":{"android":"levelo://app?vid=c5c59f41-6de9-4286-8e47-0b749ef897bc","ios":"levelo://app?vid=c5c59f41-6de9-4286-8e47-0b749ef897bc"},"vehicle_type_id":"4","last_reported":1739826498,"current_range_meters":12800,"station_id":"ce4bhch2rcd13ifvqeug","pricing_plan_id":"cebpf4jnsgd1na2vs0mg"},{"bike_id":"b5f12192-8930-4405-9baa-728ef8f4fb2c","system_id":"levelo_inurba_marseille","lat":43.29032,"lon":5.35923,"is_reserved":false,"is_disabled":false,"rental_uris":{"android":"levelo://app?vid=b5f12192-8930-4405-9baa-728ef8f4fb2c","ios":"levelo://app?vid=b5f12192-8930-4405-9baa-728ef8f4fb2c"},"vehicle_type_id":"4","last_reported":1739826498,"current_range_meters":12800,"station_id":"","pricing_plan_id":"cebpf4jnsgd1na2vs0mg"},{"bike_id":"c2641d2e-53cf-40df-88e3-1e855ec50404","system_id":"levelo_inurba_marseille","lat":43.293003,"lon":5.371869,"is_reserved":false,"is_disabled":false,"rental_uris":{"android":"levelo://app?vid=c2641d2e-53cf-40df-88e3-1e855ec50404","ios":"levelo://app?vid=c2641d2e-53cf-40df-88e3-1e855ec50404"},"vehicle_type_id":"4","last_reported":1739826498,"current_range_meters":12800,"station_id":"ce4bgh92rcd13ifvqb40","pricing_plan_id":"cebpf4jnsgd1na2vs0mg"},{"bike_id":"fc9c7cc8-6acb-4dbf-b2d2-323565e1aa3d","system_id":"levelo_inurba_marseille","lat":43.29969,"lon":5.38488,"is_reserved":false,"is_disabled":false,"rental_uris":{"android":"levelo://app?vid=fc9c7cc8-6acb-4dbf-b2d2-323565e1aa3d","ios":"levelo://app?vid=fc9c7cc8-6acb-4dbf-b2d2-323565e1aa3d"},"vehicle_type_id":"4","last_reported":1739826498,"current_range_meters":12800,"station_id":"ce4bgj92rcd13ifvqbd0","pricing_plan_id":"cebpf4jnsgd1na2vs0mg"},{"bike_id":"b0fc4ee7-b366-47b1-9db5-87f9ab849753","system_id":"levelo_inurba_marseille","lat":43.3015,"lon":5.39852,"is_reserved":false,"is_disabled":false,"rental_uris":{"android":"levelo://app?vid=b0fc4ee7-b366-47b1-9db5-87f9ab849753","ios":"levelo://app?vid=b0fc4ee7-b366-47b1-9db5-87f9ab849753"},"vehicle_type_id":"4","last_reported":1739826498,"current_range_meters":13600,"station_id":"ce4bh0h2rcd13ifvqd40","pricing_plan_id":"cebpf4jnsgd1na2vs0mg"},{"bike_id":"b3ac8a32-c75f-4104-9c7c-7daa3d4434b6","system_id":"levelo_inurba_marseille","lat":43.29302,"lon":5.38741,"is_reserved":false,"is_disabled":false,"rental_uris":{"android":"levelo://app?vid=b3ac8a32-c75f-4104-9c7c-7daa3d4434b6","ios":"levelo://app?vid=b3ac8a32-c75f-4104-9c7c-7daa3d4434b6"},"vehicle_type_id":"4","last_reported":1739826498,"current_range_meters":13600,"station_id":"ce4bh392rcd13ifvqdm0","pricing_plan_id":"cebpf4jnsgd1na2vs0mg"},{"bike_id":"6aa04f83-4617-4ea6-b5da-204afbdef87a","system_id":"levelo_inurba_marseille","lat":43.3136,"lon":5.38502,"is_reserved":false,"is_disabled":false,"rental_uris":{"android":"levelo://app?vid=6aa04f83-4617-4ea6-b5da-204afbdef87a","ios":"levelo://app?vid=6aa04f83-4617-4ea6-b5da-204afbdef87a"},"vehicle_type_id":"4","last_reported":1739826498,"current_range_meters":13600,"station_id":"ce4bgt92rcd13ifvqcf0","pricing_plan_id":"cebpf4jnsgd1na2vs0mg"},{"bike_id":"81a3ec43-f5b3-4625-8b09-e5347b4debed","system_id":"levelo_inurba_marseille","lat":43.28103,"lon":5.37855,"is_reserved":false,"is_disabled":false,"rental_uris":{"android":"levelo://app?vid=81a3ec43-f5b3-4625-8b09-e5347b4debed","ios":"levelo://app?vid=81a3ec43-f5b3-4625-8b09-e5347b4debed"},"vehicle_type_id":"4","last_reported":1739826498,"current_range_meters":13600,"station_id":"ce4bha12rcd13ifvqee0","pricing_plan_id":"cebpf4jnsgd1na2vs0mg"},{"bike_id":"975330f9-a307-4c9d-99a0-233b7aae6341","system_id":"levelo_inurba_marseille","lat":43.2841,"lon":5.37513,"is_reserved":false,"is_disabled":false,"rental_uris":{"android":"levelo://app?vid=975330f9-a307-4c9d-99a0-233b7aae6341","ios":"levelo://app?vid=975330f9-a307-4c9d-99a0-233b7aae6341"},"vehicle_type_id":"4","last_reported":1739826498,"current_range_meters":14000,"station_id":"","pricing_plan_id":"cebpf4jnsgd1na2vs0mg"},{"bike_id":"94086d7d-7e3b-4cfb-aba2-495e47e3ab8b","system_id":"levelo_inurba_marseille","lat":43.28722,"lon":5.37947,"is_reserved":false,"is_disabled":false,"rental_uris":{"android":"levelo://app?vid=94086d7d-7e3b-4cfb-aba2-495e47e3ab8b","ios":"levelo://app?vid=94086d7d-7e3b-4cfb-aba2-495e47e3ab8b"},"vehicle_type_id":"4","last_reported":1739826498,"current_range_meters":14000,"station_id":"ce4bh9p2rcd13ifvqec0","pricing_plan_id":"cebpf4jnsgd1na2vs0mg"},{"bike_id":"1f0e85ad-0247-40d7-92ac-b2f07aec402b","system_id":"levelo_inurba_marseille","lat":43.27617,"lon":5.36112,"is_reserved":false,"is_disabled":false,"rental_uris":{"android":"levelo://app?vid=1f0e85ad-0247-40d7-92ac-b2f07aec402b","ios":"levelo://app?vid=1f0e85ad-0247-40d7-92ac-b2f07aec402b"},"vehicle_type_id":"4","last_reported":1739826498,"current_range_meters":14000,"station_id":"ce4bgj92rcd13ifvqbe0","pricing_plan_id":"cebpf4jnsgd1na2vs0mg"},{"bike_id":"40e0ff68-3d1a-4432-8cb4-17c809915b0f","system_id":"levelo_inurba_marseille","lat":43.28717,"lon":5.36097,"is_reserved":false,"is_disabled":false,"rental_uris":{"android":"levelo://app?vid=40e0ff68-3d1a-4432-8cb4-17c809915b0f","ios":"levelo://app?vid=40e0ff68-3d1a-4432-8cb4-17c809915b0f"},"vehicle_type_id":"4","last_reported":1739826498,"current_range_meters":14000,"station_id":"cki0cbj6b192h4jlfktg","pricing_plan_id":"cebpf4jnsgd1na2vs0mg"},{"bike_id":"44f4612a-2167-4206-9bde-4bd81e8ddbcd","system_id":"levelo_inurba_marseille","lat":43.29185,"lon":5.39341,"is_reserved":false,"is_disabled":false,"rental_uris":{"android":"levelo://app?vid=44f4612a-2167-4206-9bde-4bd81e8ddbcd","ios":"levelo://app?vid=44f4612a-2167-4206-9bde-4bd81e8ddbcd"},"vehicle_type_id":"4","last_reported":1739826498,"current_range_meters":14000,"station_id":"ce4bh192rcd13ifvqdd0","pricing_plan_id":"cebpf4jnsgd1na2vs0mg"},{"bike_id":"f8e06fc7-00b7-4831-828e-752a95e98412","system_id":"levelo_inurba_marseille","lat":43.28897,"lon":5.3589,"is_reserved":false,"is_disabled":false,"rental_uris":{"android":"levelo://app?vid=f8e06fc7-00b7-4831-828e-752a95e98412","ios":"levelo://app?vid=f8e06fc7-00b7-4831-828e-752a95e98412"},"vehicle_type_id":"4","last_reported":1739826498,"current_range_meters":14000,"station_id":"ce4bhb12rcd13ifvqem0","pricing_plan_id":"cebpf4jnsgd1na2vs0mg"},{"bike_id":"9084f880-c05c-41d9-962e-1ab7add2848e","system_id":"levelo_inurba_marseille","lat":43.24072,"lon":5.37713,"is_reserved":false,"is_disabled":false,"rental_uris":{"android":"levelo://app?vid=9084f880-c05c-41d9-962e-1ab7add2848e","ios":"levelo://app?vid=9084f880-c05c-41d9-962e-1ab7add2848e"},"vehicle_type_id":"4","last_reported":1739826498,"current_range_meters":14000,"station_id":"ce4bhnp2rcd13ifvqgvg","pricing_plan_id":"cebpf4jnsgd1na2vs0mg"},{"bike_id":"809e0db5-ea8a-479c-944d-dd438628e7fa","system_id":"levelo_inurba_marseille","lat":43.26058,"lon":5.39395,"is_reserved":false,"is_disabled":false,"rental_uris":{"android":"levelo://app?vid=809e0db5-ea8a-479c-944d-dd438628e7fa","ios":"levelo://app?vid=809e0db5-ea8a-479c-944d-dd438628e7fa"},"vehicle_type_id":"4","last_reported":1739826498,"current_range_meters":14000,"station_id":"ce4bhh92rcd13ifvqfj0","pricing_plan_id":"cebpf4jnsgd1na2vs0mg"},{"bike_id":"80842653-0916-4e4e-96ac-1b8b526d2858","system_id":"levelo_inurba_marseille","lat":43.29281,"lon":5.40893,"is_reserved":false,"is_disabled":false,"rental_uris":{"android":"levelo://app?vid=80842653-0916-4e4e-96ac-1b8b526d2858","ios":"levelo://app?vid=80842653-0916-4e4e-96ac-1b8b526d2858"},"vehicle_type_id":"4","last_reported":1739826498,"current_range_meters":14400,"station_id":"","pricing_plan_id":"cebpf4jnsgd1na2vs0mg"},{"bike_id":"7c21b9af-ec8a-4973-bb0a-4c2cf86b4985","system_id":"levelo_inurba_marseille","lat":43.30608,"lon":5.39339,"is_reserved":false,"is_disabled":false,"rental_uris":{"android":"levelo://app?vid=7c21b9af-ec8a-4973-bb0a-4c2cf86b4985","ios":"levelo://app?vid=7c21b9af-ec8a-4973-bb0a-4c2cf86b4985"},"vehicle_type_id":"4","last_reported":1739826498,"current_range_meters":14400,"station_id":"ce4bh0p2rcd13ifvqd80","pricing_plan_id":"cebpf4jnsgd1na2vs0mg"},{"bike_id":"b4f7951e-a8d9-4f42-b03f-b06ba82daa83","system_id":"levelo_inurba_marseille","lat":43.27201,"lon":5.40995,"is_reserved":false,"is_disabled":false,"rental_uris":{"android":"levelo://app?vid=b4f7951e-a8d9-4f42-b03f-b06ba82daa83","ios":"levelo://app?vid=b4f7951e-a8d9-4f42-b03f-b06ba82daa83"},"vehicle_type_id":"4","last_reported":1739826498,"current_range_meters":14400,"station_id":"ce4bhl12rcd13ifvqgf0","pricing_plan_id":"cebpf4jnsgd1na2vs0mg"},{"bike_id":"6cea39d1-143a-437a-be7c-4155e2811eca","system_id":"levelo_inurba_marseille","lat":43.25092,"lon":5.39499,"is_reserved":false,"is_disabled":false,"rental_uris":{"android":"levelo://app?vid=6cea39d1-143a-437a-be7c-4155e2811eca","ios":"levelo://app?vid=6cea39d1-143a-437a-be7c-4155e2811eca"},"vehicle_type_id":"4","last_reported":1739826498,"current_range_meters":14400,"station_id":"ce4bhm12rcd13ifvqgkg","pricing_plan_id":"cebpf4jnsgd1na2vs0mg"},{"bike_id":"c8a43b30-3b03-476c-9691-acede197d3ef","system_id":"levelo_inurba_marseille","lat":43.2798,"lon":5.41657,"is_reserved":false,"is_disabled":false,"rental_uris":{"android":"levelo://app?vid=c8a43b30-3b03-476c-9691-acede197d3ef","ios":"levelo://app?vid=c8a43b30-3b03-476c-9691-acede197d3ef"},"vehicle_type_id":"4","last_reported":1739826498,"current_range_meters":14400,"station_id":"ce4bho12rcd13ifvqh1g","pricing_plan_id":"cebpf4jnsgd1na2vs0mg"},{"bike_id":"e57f9313-8443-49d5-820a-e3f0c205b6f2","system_id":"levelo_inurba_marseille","lat":43.24076,"lon":5.37726,"is_reserved":false,"is_disabled":false,"rental_uris":{"android":"levelo://app?vid=e57f9313-8443-49d5-820a-e3f0c205b6f2","ios":"levelo://app?vid=e57f9313-8443-49d5-820a-e3f0c205b6f2"},"vehicle_type_id":"4","last_reported":1739826498,"current_range_meters":14400,"station_id":"","pricing_plan_id":"cebpf4jnsgd1na2vs0mg"},{"bike_id":"7e1bcd16-719a-4da9-aa93-fa68923adaea","system_id":"levelo_inurba_marseille","lat":43.24082,"lon":5.3775,"is_reserved":false,"is_disabled":false,"rental_uris":{"android":"levelo://app?vid=7e1bcd16-719a-4da9-aa93-fa68923adaea","ios":"levelo://app?vid=7e1bcd16-719a-4da9-aa93-fa68923adaea"},"vehicle_type_id":"4","last_reported":1739826498,"current_range_meters":14400,"station_id":"ce4bhnp2rcd13ifvqgvg","pricing_plan_id":"cebpf4jnsgd1na2vs0mg"},{"bike_id":"c6d403ef-af42-41ae-9312-3a948449b260","system_id":"levelo_inurba_marseille","lat":43.27655,"lon":5.36094,"is_reserved":false,"is_disabled":false,"rental_uris":{"android":"levelo://app?vid=c6d403ef-af42-41ae-9312-3a948449b260","ios":"levelo://app?vid=c6d403ef-af42-41ae-9312-3a948449b260"},"vehicle_type_id":"4","last_reported":1739826498,"current_range_meters":14400,"station_id":"ce4bgj92rcd13ifvqbe0","pricing_plan_id":"cebpf4jnsgd1na2vs0mg"},{"bike_id":"ae150bdd-3d2a-4f9e-967f-89386cd94b17","system_id":"levelo_inurba_marseille","lat":43.30201,"lon":5.39464,"is_reserved":false,"is_disabled":false,"rental_uris":{"android":"levelo://app?vid=ae150bdd-3d2a-4f9e-967f-89386cd94b17","ios":"levelo://app?vid=ae150bdd-3d2a-4f9e-967f-89386cd94b17"},"vehicle_type_id":"4","last_reported":1739826498,"current_range_meters":14800,"station_id":"","pricing_plan_id":"cebpf4jnsgd1na2vs0mg"},{"bike_id":"9513c14d-d35f-4f74-91aa-e7d0eab7a530","system_id":"levelo_inurba_marseille","lat":43.2994,"lon":5.36539,"is_reserved":false,"is_disabled":false,"rental_uris":{"android":"levelo://app?vid=9513c14d-d35f-4f74-91aa-e7d0eab7a530","ios":"levelo://app?vid=9513c14d-d35f-4f74-91aa-e7d0eab7a530"},"vehicle_type_id":"4","last_reported":1739826498,"current_range_meters":14800,"station_id":"ce4bgm92rcd13ifvqbr0","pricing_plan_id":"cebpf4jnsgd1na2vs0mg"},{"bike_id":"e70271b9-6da6-41aa-9025-850c7abf1379","system_id":"levelo_inurba_marseille","lat":43.27839,"lon":5.39192,"is_reserved":false,"is_disabled":false,"rental_uris":{"android":"levelo://app?vid=e70271b9-6da6-41aa-9025-850c7abf1379","ios":"levelo://app?vid=e70271b9-6da6-41aa-9025-850c7abf1379"},"vehicle_type_id":"4","last_reported":1739826498,"current_range_meters":14800,"station_id":"ce4bhjp2rcd13ifvqga0","pricing_plan_id":"cebpf4jnsgd1na2vs0mg"},{"bike_id":"91bf3218-0a05-4226-acc9-b3131b7d5a8d","system_id":"levelo_inurba_marseille","lat":43.23956,"lon":5.36629,"is_reserved":false,"is_disabled":false,"rental_uris":{"android":"levelo://app?vid=91bf3218-0a05-4226-acc9-b3131b7d5a8d","ios":"levelo://app?vid=91bf3218-0a05-4226-acc9-b3131b7d5a8d"},"vehicle_type_id":"4","last_reported":1739826498,"current_range_meters":15200,"station_id":"ce4bhi12rcd13ifvqfp0","pricing_plan_id":"cebpf4jnsgd1na2vs0mg"},{"bike_id":"fa26596f-385b-467a-983c-09a503967e29","system_id":"levelo_inurba_marseille","lat":43.2827,"lon":5.35077,"is_reserved":false,"is_disabled":true,"rental_uris":{"android":"levelo://app?vid=fa26596f-385b-467a-983c-09a503967e29","ios":"levelo://app?vid=fa26596f-385b-467a-983c-09a503967e29"},"vehicle_type_id":"4","last_reported":1739826498,"current_range_meters":15200,"station_id":"ce4bhbp2rcd13ifvqerg","pricing_plan_id":"cebpf4jnsgd1na2vs0mg"},{"bike_id":"2925d872-7877-4b1f-89a7-e112a91d35d3","system_id":"levelo_inurba_marseille","lat":43.28462,"lon":5.35901,"is_reserved":false,"is_disabled":true,"rental_uris":{"android":"levelo://app?vid=2925d872-7877-4b1f-89a7-e112a91d35d3","ios":"levelo://app?vid=2925d872-7877-4b1f-89a7-e112a91d35d3"},"vehicle_type_id":"4","last_reported":1739826498,"current_range_meters":15200,"station_id":"ce4bhah2rcd13ifvqei0","pricing_plan_id":"cebpf4jnsgd1na2vs0mg"},{"bike_id":"1565f1ee-d1ca-41bc-a5aa-349191da7e71","system_id":"levelo_inurba_marseille","lat":43.3094,"lon":5.40146,"is_reserved":false,"is_disabled":false,"rental_uris":{"android":"levelo://app?vid=1565f1ee-d1ca-41bc-a5aa-349191da7e71","ios":"levelo://app?vid=1565f1ee-d1ca-41bc-a5aa-349191da7e71"},"vehicle_type_id":"4","last_reported":1739826498,"current_range_meters":15200,"station_id":"ce4bgvp2rcd13ifvqct0","pricing_plan_id":"cebpf4jnsgd1na2vs0mg"},{"bike_id":"2026fe3f-65a8-4038-ba84-b3acc82ea882","system_id":"levelo_inurba_marseille","lat":43.32059,"lon":5.41553,"is_reserved":false,"is_disabled":false,"rental_uris":{"android":"levelo://app?vid=2026fe3f-65a8-4038-ba84-b3acc82ea882","ios":"levelo://app?vid=2026fe3f-65a8-4038-ba84-b3acc82ea882"},"vehicle_type_id":"4","last_reported":1739826498,"current_range_meters":15200,"station_id":"ce4bhq92rcd13ifvqhkg","pricing_plan_id":"cebpf4jnsgd1na2vs0mg"},{"bike_id":"f0b1bcc6-ec25-4888-a3ae-f9cd133d3662","system_id":"levelo_inurba_marseille","lat":43.24656,"lon":5.3886,"is_reserved":false,"is_disabled":false,"rental_uris":{"android":"levelo://app?vid=f0b1bcc6-ec25-4888-a3ae-f9cd133d3662","ios":"levelo://app?vid=f0b1bcc6-ec25-4888-a3ae-f9cd133d3662"},"vehicle_type_id":"4","last_reported":1739826498,"current_range_meters":15200,"station_id":"ce4bhg12rcd13ifvqf60","pricing_plan_id":"cebpf4jnsgd1na2vs0mg"},{"bike_id":"5969998e-e087-474a-a79d-eb36ea864d98","system_id":"levelo_inurba_marseille","lat":43.29564,"lon":5.37529,"is_reserved":false,"is_disabled":false,"rental_uris":{"android":"levelo://app?vid=5969998e-e087-474a-a79d-eb36ea864d98","ios":"levelo://app?vid=5969998e-e087-474a-a79d-eb36ea864d98"},"vehicle_type_id":"4","last_reported":1739826498,"current_range_meters":15200,"station_id":"ce4bgh92rcd13ifvqb50","pricing_plan_id":"cebpf4jnsgd1na2vs0mg"},{"bike_id":"772e5d73-e78f-47a1-9755-63448f7ea7a3","system_id":"levelo_inurba_marseille","lat":43.28704,"lon":5.37401,"is_reserved":false,"is_disabled":false,"rental_uris":{"android":"levelo://app?vid=772e5d73-e78f-47a1-9755-63448f7ea7a3","ios":"levelo://app?vid=772e5d73-e78f-47a1-9755-63448f7ea7a3"},"vehicle_type_id":"4","last_reported":1739826498,"current_range_meters":16000,"station_id":"ce4bh3p2rcd13ifvqdq0","pricing_plan_id":"cebpf4jnsgd1na2vs0mg"},{"bike_id":"c095829e-fb26-4b76-9d56-c459933e1ed9","system_id":"levelo_inurba_marseille","lat":43.28351,"lon":5.38113,"is_reserved":false,"is_disabled":false,"rental_uris":{"android":"levelo://app?vid=c095829e-fb26-4b76-9d56-c459933e1ed9","ios":"levelo://app?vid=c095829e-fb26-4b76-9d56-c459933e1ed9"},"vehicle_type_id":"4","last_reported":1739826498,"current_range_meters":16000,"station_id":"ce4bh412rcd13ifvqdr0","pricing_plan_id":"cebpf4jnsgd1na2vs0mg"},{"bike_id":"c46925fe-6da4-4769-9725-cdfac3858a5b","system_id":"levelo_inurba_marseille","lat":43.28608,"lon":5.37065,"is_reserved":false,"is_disabled":false,"rental_uris":{"android":"levelo://app?vid=c46925fe-6da4-4769-9725-cdfac3858a5b","ios":"levelo://app?vid=c46925fe-6da4-4769-9725-cdfac3858a5b"},"vehicle_type_id":"4","last_reported":1739826498,"current_range_meters":16000,"station_id":"ce4bht12rcd13ifvqi60","pricing_plan_id":"cebpf4jnsgd1na2vs0mg"},{"bike_id":"1c4ab1c1-f8e5-4ceb-8507-e3b252ef908b","system_id":"levelo_inurba_marseille","lat":43.24143,"lon":5.36424,"is_reserved":false,"is_disabled":false,"rental_uris":{"android":"levelo://app?vid=1c4ab1c1-f8e5-4ceb-8507-e3b252ef908b","ios":"levelo://app?vid=1c4ab1c1-f8e5-4ceb-8507-e3b252ef908b"},"vehicle_type_id":"4","last_reported":1739826498,"current_range_meters":16000,"station_id":"cpo36qri1sfpv3e86is0","pricing_plan_id":"cebpf4jnsgd1na2vs0mg"},{"bike_id":"1a593f97-80e0-4ab5-99e3-1042da8fe8d9","system_id":"levelo_inurba_marseille","lat":43.2319,"lon":5.40004,"is_reserved":false,"is_disabled":false,"rental_uris":{"android":"levelo://app?vid=1a593f97-80e0-4ab5-99e3-1042da8fe8d9","ios":"levelo://app?vid=1a593f97-80e0-4ab5-99e3-1042da8fe8d9"},"vehicle_type_id":"4","last_reported":1739826498,"current_range_meters":16000,"station_id":"","pricing_plan_id":"cebpf4jnsgd1na2vs0mg"},{"bike_id":"bb4a3648-09cb-4cc2-9947-bf380533d03f","system_id":"levelo_inurba_marseille","lat":43.31642,"lon":5.37248,"is_reserved":false,"is_disabled":true,"rental_uris":{"android":"levelo://app?vid=bb4a3648-09cb-4cc2-9947-bf380533d03f","ios":"levelo://app?vid=bb4a3648-09cb-4cc2-9947-bf380533d03f"},"vehicle_type_id":"4","last_reported":1739826498,"current_range_meters":16000,"station_id":"","pricing_plan_id":"cebpf4jnsgd1na2vs0mg"},{"bike_id":"e493d32f-c7df-48a8-8644-e6c67b333882","system_id":"levelo_inurba_marseille","lat":43.30144,"lon":5.37129,"is_reserved":false,"is_disabled":false,"rental_uris":{"android":"levelo://app?vid=e493d32f-c7df-48a8-8644-e6c67b333882","ios":"levelo://app?vid=e493d32f-c7df-48a8-8644-e6c67b333882"},"vehicle_type_id":"4","last_reported":1739826498,"current_range_meters":16000,"station_id":"","pricing_plan_id":"cebpf4jnsgd1na2vs0mg"},{"bike_id":"6c60b5ea-0d16-45a8-aed9-718e51e279eb","system_id":"levelo_inurba_marseille","lat":43.3026,"lon":5.40062,"is_reserved":false,"is_disabled":false,"rental_uris":{"android":"levelo://app?vid=6c60b5ea-0d16-45a8-aed9-718e51e279eb","ios":"levelo://app?vid=6c60b5ea-0d16-45a8-aed9-718e51e279eb"},"vehicle_type_id":"4","last_reported":1739826498,"current_range_meters":16400,"station_id":"ce4bgvh2rcd13ifvqcs0","pricing_plan_id":"cebpf4jnsgd1na2vs0mg"},{"bike_id":"d1dec037-ee4c-4db9-a655-1087d8ee1f4f","system_id":"levelo_inurba_marseille","lat":43.28443,"lon":5.39154,"is_reserved":false,"is_disabled":true,"rental_uris":{"android":"levelo://app?vid=d1dec037-ee4c-4db9-a655-1087d8ee1f4f","ios":"levelo://app?vid=d1dec037-ee4c-4db9-a655-1087d8ee1f4f"},"vehicle_type_id":"4","last_reported":1739826498,"current_range_meters":16400,"station_id":"","pricing_plan_id":"cebpf4jnsgd1na2vs0mg"},{"bike_id":"a799a60b-3c75-45fb-ac00-220d507c3482","system_id":"levelo_inurba_marseille","lat":43.2482,"lon":5.37454,"is_reserved":false,"is_disabled":false,"rental_uris":{"android":"levelo://app?vid=a799a60b-3c75-45fb-ac00-220d507c3482","ios":"levelo://app?vid=a799a60b-3c75-45fb-ac00-220d507c3482"},"vehicle_type_id":"4","last_reported":1739826498,"current_range_meters":16400,"station_id":"ce4bhgh2rcd13ifvqfb0","pricing_plan_id":"cebpf4jnsgd1na2vs0mg"},{"bike_id":"e46ad52b-d861-4d04-a2c4-ea45df01633c","system_id":"levelo_inurba_marseille","lat":43.2682,"lon":5.40251,"is_reserved":false,"is_disabled":true,"rental_uris":{"android":"levelo://app?vid=e46ad52b-d861-4d04-a2c4-ea45df01633c","ios":"levelo://app?vid=e46ad52b-d861-4d04-a2c4-ea45df01633c"},"vehicle_type_id":"4","last_reported":1739826498,"current_range_meters":16400,"station_id":"ce501612rcd8frsf0b60","pricing_plan_id":"cebpf4jnsgd1na2vs0mg"},{"bike_id":"c74b4dbc-e6ae-47cb-9ea7-91e74f12ab36","system_id":"levelo_inurba_marseille","lat":43.28349,"lon":5.38117,"is_reserved":false,"is_disabled":false,"rental_uris":{"android":"levelo://app?vid=c74b4dbc-e6ae-47cb-9ea7-91e74f12ab36","ios":"levelo://app?vid=c74b4dbc-e6ae-47cb-9ea7-91e74f12ab36"},"vehicle_type_id":"4","last_reported":1739826498,"current_range_meters":16400,"station_id":"ce4bh412rcd13ifvqdr0","pricing_plan_id":"cebpf4jnsgd1na2vs0mg"},{"bike_id":"15ad0ad5-f350-4d66-b392-f676b4cfecb2","system_id":"levelo_inurba_marseille","lat":43.29661,"lon":5.3719,"is_reserved":false,"is_disabled":false,"rental_uris":{"android":"levelo://app?vid=15ad0ad5-f350-4d66-b392-f676b4cfecb2","ios":"levelo://app?vid=15ad0ad5-f350-4d66-b392-f676b4cfecb2"},"vehicle_type_id":"4","last_reported":1739826498,"current_range_meters":16400,"station_id":"","pricing_plan_id":"cebpf4jnsgd1na2vs0mg"},{"bike_id":"a81f047e-2602-4d29-8821-508c11538471","system_id":"levelo_inurba_marseille","lat":43.2296,"lon":5.35395,"is_reserved":false,"is_disabled":false,"rental_uris":{"android":"levelo://app?vid=a81f047e-2602-4d29-8821-508c11538471","ios":"levelo://app?vid=a81f047e-2602-4d29-8821-508c11538471"},"vehicle_type_id":"4","last_reported":1739826498,"current_range_meters":16800,"station_id":"cpo3532slgdg3j2ikp40","pricing_plan_id":"cebpf4jnsgd1na2vs0mg"},{"bike_id":"284a8cd0-df84-4ef7-a803-d894861ca39c","system_id":"levelo_inurba_marseille","lat":43.282684,"lon":5.350626,"is_reserved":false,"is_disabled":false,"rental_uris":{"android":"levelo://app?vid=284a8cd0-df84-4ef7-a803-d894861ca39c","ios":"levelo://app?vid=284a8cd0-df84-4ef7-a803-d894861ca39c"},"vehicle_type_id":"4","last_reported":1739826498,"current_range_meters":16800,"station_id":"ce4bhbp2rcd13ifvqerg","pricing_plan_id":"cebpf4jnsgd1na2vs0mg"},{"bike_id":"2546597a-b5e7-435b-b314-15a01feaf011","system_id":"levelo_inurba_marseille","lat":43.28847,"lon":5.35857,"is_reserved":false,"is_disabled":false,"rental_uris":{"android":"levelo://app?vid=2546597a-b5e7-435b-b314-15a01feaf011","ios":"levelo://app?vid=2546597a-b5e7-435b-b314-15a01feaf011"},"vehicle_type_id":"4","last_reported":1739826498,"current_range_meters":16800,"station_id":"ce4bhb12rcd13ifvqem0","pricing_plan_id":"cebpf4jnsgd1na2vs0mg"},{"bike_id":"a0d6d5a0-c616-4c50-b79e-af5849f07aae","system_id":"levelo_inurba_marseille","lat":43.30814,"lon":5.37225,"is_reserved":false,"is_disabled":false,"rental_uris":{"android":"levelo://app?vid=a0d6d5a0-c616-4c50-b79e-af5849f07aae","ios":"levelo://app?vid=a0d6d5a0-c616-4c50-b79e-af5849f07aae"},"vehicle_type_id":"4","last_reported":1739826498,"current_range_meters":16800,"station_id":"ce4bguh2rcd13ifvqckg","pricing_plan_id":"cebpf4jnsgd1na2vs0mg"},{"bike_id":"fb320ab6-b048-490c-8a84-1e6d74fac584","system_id":"levelo_inurba_marseille","lat":43.25729,"lon":5.41106,"is_reserved":false,"is_disabled":false,"rental_uris":{"android":"levelo://app?vid=fb320ab6-b048-490c-8a84-1e6d74fac584","ios":"levelo://app?vid=fb320ab6-b048-490c-8a84-1e6d74fac584"},"vehicle_type_id":"4","last_reported":1739826498,"current_range_meters":16800,"station_id":"ce4bhkp2rcd13ifvqgd0","pricing_plan_id":"cebpf4jnsgd1na2vs0mg"},{"bike_id":"dc4a30fe-7782-41fd-945a-cea0914a5f61","system_id":"levelo_inurba_marseille","lat":43.30878,"lon":5.39666,"is_reserved":false,"is_disabled":false,"rental_uris":{"android":"levelo://app?vid=dc4a30fe-7782-41fd-945a-cea0914a5f61","ios":"levelo://app?vid=dc4a30fe-7782-41fd-945a-cea0914a5f61"},"vehicle_type_id":"4","last_reported":1739826498,"current_range_meters":16800,"station_id":"ce4bh012rcd13ifvqcv0","pricing_plan_id":"cebpf4jnsgd1na2vs0mg"},{"bike_id":"42c7cfa8-bce6-4834-be4f-e8fd7551245d","system_id":"levelo_inurba_marseille","lat":43.2861,"lon":5.42615,"is_reserved":false,"is_disabled":false,"rental_uris":{"android":"levelo://app?vid=42c7cfa8-bce6-4834-be4f-e8fd7551245d","ios":"levelo://app?vid=42c7cfa8-bce6-4834-be4f-e8fd7551245d"},"vehicle_type_id":"4","last_reported":1739826498,"current_range_meters":16800,"station_id":"","pricing_plan_id":"cebpf4jnsgd1na2vs0mg"},{"bike_id":"127c050c-6151-462e-9b5c-e895e08ceb84","system_id":"levelo_inurba_marseille","lat":43.28459,"lon":5.35885,"is_reserved":false,"is_disabled":false,"rental_uris":{"android":"levelo://app?vid=127c050c-6151-462e-9b5c-e895e08ceb84","ios":"levelo://app?vid=127c050c-6151-462e-9b5c-e895e08ceb84"},"vehicle_type_id":"4","last_reported":1739826498,"current_range_meters":16800,"station_id":"ce4bhah2rcd13ifvqei0","pricing_plan_id":"cebpf4jnsgd1na2vs0mg"},{"bike_id":"bcbf2b40-530b-4d35-82d3-b68c01aa8ba5","system_id":"levelo_inurba_marseille","lat":43.30423,"lon":5.39742,"is_reserved":false,"is_disabled":false,"rental_uris":{"android":"levelo://app?vid=bcbf2b40-530b-4d35-82d3-b68c01aa8ba5","ios":"levelo://app?vid=bcbf2b40-530b-4d35-82d3-b68c01aa8ba5"},"vehicle_type_id":"4","last_reported":1739826498,"current_range_meters":16800,"station_id":"ce4bh092rcd13ifvqd20","pricing_plan_id":"cebpf4jnsgd1na2vs0mg"},{"bike_id":"5fed333a-fea3-49c3-ac73-dff75f83da89","system_id":"levelo_inurba_marseille","lat":43.2843,"lon":5.37518,"is_reserved":false,"is_disabled":false,"rental_uris":{"android":"levelo://app?vid=5fed333a-fea3-49c3-ac73-dff75f83da89","ios":"levelo://app?vid=5fed333a-fea3-49c3-ac73-dff75f83da89"},"vehicle_type_id":"4","last_reported":1739826498,"current_range_meters":16800,"station_id":"ce4bh412rcd13ifvqds0","pricing_plan_id":"cebpf4jnsgd1na2vs0mg"},{"bike_id":"691852ea-1113-4c47-9853-b0165c35be16","system_id":"levelo_inurba_marseille","lat":43.28061,"lon":5.37844,"is_reserved":false,"is_disabled":false,"rental_uris":{"android":"levelo://app?vid=691852ea-1113-4c47-9853-b0165c35be16","ios":"levelo://app?vid=691852ea-1113-4c47-9853-b0165c35be16"},"vehicle_type_id":"4","last_reported":1739826498,"current_range_meters":16800,"station_id":"ce4bha12rcd13ifvqee0","pricing_plan_id":"cebpf4jnsgd1na2vs0mg"},{"bike_id":"5fc08369-93d6-4c07-97be-10cb8352d964","system_id":"levelo_inurba_marseille","lat":43.29571,"lon":5.37492,"is_reserved":false,"is_disabled":false,"rental_uris":{"android":"levelo://app?vid=5fc08369-93d6-4c07-97be-10cb8352d964","ios":"levelo://app?vid=5fc08369-93d6-4c07-97be-10cb8352d964"},"vehicle_type_id":"4","last_reported":1739826498,"current_range_meters":17200,"station_id":"","pricing_plan_id":"cebpf4jnsgd1na2vs0mg"},{"bike_id":"cb943006-3d49-4d28-a996-061563694221","system_id":"levelo_inurba_marseille","lat":43.23957,"lon":5.36623,"is_reserved":false,"is_disabled":false,"rental_uris":{"android":"levelo://app?vid=cb943006-3d49-4d28-a996-061563694221","ios":"levelo://app?vid=cb943006-3d49-4d28-a996-061563694221"},"vehicle_type_id":"4","last_reported":1739826498,"current_range_meters":17200,"station_id":"ce4bhi12rcd13ifvqfp0","pricing_plan_id":"cebpf4jnsgd1na2vs0mg"},{"bike_id":"9885c601-2cbe-4ea7-9b6c-479dc416387c","system_id":"levelo_inurba_marseille","lat":43.29885,"lon":5.43641,"is_reserved":false,"is_disabled":false,"rental_uris":{"android":"levelo://app?vid=9885c601-2cbe-4ea7-9b6c-479dc416387c","ios":"levelo://app?vid=9885c601-2cbe-4ea7-9b6c-479dc416387c"},"vehicle_type_id":"4","last_reported":1739826498,"current_range_meters":17200,"station_id":"ce4bhpp2rcd13ifvqhfg","pricing_plan_id":"cebpf4jnsgd1na2vs0mg"},{"bike_id":"e28b2af1-2f65-45fb-a5fa-98971e397d74","system_id":"levelo_inurba_marseille","lat":43.30596,"lon":5.39348,"is_reserved":false,"is_disabled":false,"rental_uris":{"android":"levelo://app?vid=e28b2af1-2f65-45fb-a5fa-98971e397d74","ios":"levelo://app?vid=e28b2af1-2f65-45fb-a5fa-98971e397d74"},"vehicle_type_id":"4","last_reported":1739826498,"current_range_meters":17200,"station_id":"ce4bh0p2rcd13ifvqd80","pricing_plan_id":"cebpf4jnsgd1na2vs0mg"},{"bike_id":"eccd8f50-0d44-405a-897c-7354c541adab","system_id":"levelo_inurba_marseille","lat":43.23189,"lon":5.39979,"is_reserved":false,"is_disabled":false,"rental_uris":{"android":"levelo://app?vid=eccd8f50-0d44-405a-897c-7354c541adab","ios":"levelo://app?vid=eccd8f50-0d44-405a-897c-7354c541adab"},"vehicle_type_id":"4","last_reported":1739826498,"current_range_meters":17200,"station_id":"ce4bhn12rcd13ifvqgqg","pricing_plan_id":"cebpf4jnsgd1na2vs0mg"},{"bike_id":"58a5c712-9d46-4329-afac-796b4051eca6","system_id":"levelo_inurba_marseille","lat":43.25025,"lon":5.38894,"is_reserved":false,"is_disabled":true,"rental_uris":{"android":"levelo://app?vid=58a5c712-9d46-4329-afac-796b4051eca6","ios":"levelo://app?vid=58a5c712-9d46-4329-afac-796b4051eca6"},"vehicle_type_id":"4","last_reported":1739826498,"current_range_meters":17200,"station_id":"ce4bhgp2rcd13ifvqfd0","pricing_plan_id":"cebpf4jnsgd1na2vs0mg"},{"bike_id":"332aae98-b1c1-4681-8000-a95c22617d98","system_id":"levelo_inurba_marseille","lat":43.28487,"lon":5.38468,"is_reserved":false,"is_disabled":false,"rental_uris":{"android":"levelo://app?vid=332aae98-b1c1-4681-8000-a95c22617d98","ios":"levelo://app?vid=332aae98-b1c1-4681-8000-a95c22617d98"},"vehicle_type_id":"4","last_reported":1739826498,"current_range_meters":17200,"station_id":"ce4bh512rcd13ifvqe3g","pricing_plan_id":"cebpf4jnsgd1na2vs0mg"},{"bike_id":"b6c8ef64-7a9f-4d03-8f6a-54b917e9c30f","system_id":"levelo_inurba_marseille","lat":43.28701,"lon":5.37381,"is_reserved":false,"is_disabled":false,"rental_uris":{"android":"levelo://app?vid=b6c8ef64-7a9f-4d03-8f6a-54b917e9c30f","ios":"levelo://app?vid=b6c8ef64-7a9f-4d03-8f6a-54b917e9c30f"},"vehicle_type_id":"4","last_reported":1739826498,"current_range_meters":17200,"station_id":"ce4bh3p2rcd13ifvqdq0","pricing_plan_id":"cebpf4jnsgd1na2vs0mg"},{"bike_id":"9212f55b-2ef0-4417-a698-ed5dcd551dc2","system_id":"levelo_inurba_marseille","lat":43.2655,"lon":5.39293,"is_reserved":false,"is_disabled":false,"rental_uris":{"android":"levelo://app?vid=9212f55b-2ef0-4417-a698-ed5dcd551dc2","ios":"levelo://app?vid=9212f55b-2ef0-4417-a698-ed5dcd551dc2"},"vehicle_type_id":"4","last_reported":1739826498,"current_range_meters":17200,"station_id":"ce4bhe12rcd13ifvqf30","pricing_plan_id":"cebpf4jnsgd1na2vs0mg"},{"bike_id":"6c96a73f-ff01-463f-bd8c-14885ee904b6","system_id":"levelo_inurba_marseille","lat":43.29056,"lon":5.35821,"is_reserved":false,"is_disabled":false,"rental_uris":{"android":"levelo://app?vid=6c96a73f-ff01-463f-bd8c-14885ee904b6","ios":"levelo://app?vid=6c96a73f-ff01-463f-bd8c-14885ee904b6"},"vehicle_type_id":"4","last_reported":1739826498,"current_range_meters":17200,"station_id":"ce4bhb92rcd13ifvqen0","pricing_plan_id":"cebpf4jnsgd1na2vs0mg"},{"bike_id":"a18d790d-07a5-49e7-9126-9be5347c108c","system_id":"levelo_inurba_marseille","lat":43.28261,"lon":5.35097,"is_reserved":false,"is_disabled":false,"rental_uris":{"android":"levelo://app?vid=a18d790d-07a5-49e7-9126-9be5347c108c","ios":"levelo://app?vid=a18d790d-07a5-49e7-9126-9be5347c108c"},"vehicle_type_id":"4","last_reported":1739826498,"current_range_meters":17200,"station_id":"ce4bhbp2rcd13ifvqerg","pricing_plan_id":"cebpf4jnsgd1na2vs0mg"},{"bike_id":"d4c6584d-44bd-4c47-83b2-1b8d5db3aaa7","system_id":"levelo_inurba_marseille","lat":43.32111,"lon":5.36763,"is_reserved":false,"is_disabled":false,"rental_uris":{"android":"levelo://app?vid=d4c6584d-44bd-4c47-83b2-1b8d5db3aaa7","ios":"levelo://app?vid=d4c6584d-44bd-4c47-83b2-1b8d5db3aaa7"},"vehicle_type_id":"4","last_reported":1739826498,"current_range_meters":17200,"station_id":"ce4bhrh2rcd13ifvqhug","pricing_plan_id":"cebpf4jnsgd1na2vs0mg"},{"bike_id":"90d63db2-6fe7-45b6-a13b-c2ab670912e2","system_id":"levelo_inurba_marseille","lat":43.29972,"lon":5.37193,"is_reserved":false,"is_disabled":false,"rental_uris":{"android":"levelo://app?vid=90d63db2-6fe7-45b6-a13b-c2ab670912e2","ios":"levelo://app?vid=90d63db2-6fe7-45b6-a13b-c2ab670912e2"},"vehicle_type_id":"4","last_reported":1739826498,"current_range_meters":17200,"station_id":"ce4bgr92rcd13ifvqc7g","pricing_plan_id":"cebpf4jnsgd1na2vs0mg"},{"bike_id":"c0bbfb62-faac-4bdc-ad49-21c384d9f883","system_id":"levelo_inurba_marseille","lat":43.27941,"lon":5.41052,"is_reserved":false,"is_disabled":false,"rental_uris":{"android":"levelo://app?vid=c0bbfb62-faac-4bdc-ad49-21c384d9f883","ios":"levelo://app?vid=c0bbfb62-faac-4bdc-ad49-21c384d9f883"},"vehicle_type_id":"4","last_reported":1739826498,"current_range_meters":17600,"station_id":"ce4bhnp2rcd13ifvqh0g","pricing_plan_id":"cebpf4jnsgd1na2vs0mg"},{"bike_id":"f12d45cd-b40b-485d-a08c-8b9cfb55af28","system_id":"levelo_inurba_marseille","lat":43.2694,"lon":5.4025,"is_reserved":false,"is_disabled":false,"rental_uris":{"android":"levelo://app?vid=f12d45cd-b40b-485d-a08c-8b9cfb55af28","ios":"levelo://app?vid=f12d45cd-b40b-485d-a08c-8b9cfb55af28"},"vehicle_type_id":"4","last_reported":1739826498,"current_range_meters":17200,"station_id":"ce4bhkp2rcd13ifvqgd0","pricing_plan_id":"cebpf4jnsgd1na2vs0mg"},{"bike_id":"fa7fa1e6-789b-4e65-88b3-1141f29e5b4a","system_id":"levelo_inurba_marseille","lat":43.29851,"lon":5.36275,"is_reserved":false,"is_disabled":false,"rental_uris":{"android":"levelo://app?vid=fa7fa1e6-789b-4e65-88b3-1141f29e5b4a","ios":"levelo://app?vid=fa7fa1e6-789b-4e65-88b3-1141f29e5b4a"},"vehicle_type_id":"4","last_reported":1739826498,"current_range_meters":17600,"station_id":"","pricing_plan_id":"cebpf4jnsgd1na2vs0mg"},{"bike_id":"0b2680da-7c5b-4aed-a130-96935f84eced","system_id":"levelo_inurba_marseille","lat":43.31171,"lon":5.38709,"is_reserved":false,"is_disabled":false,"rental_uris":{"android":"levelo://app?vid=0b2680da-7c5b-4aed-a130-96935f84eced","ios":"levelo://app?vid=0b2680da-7c5b-4aed-a130-96935f84eced"},"vehicle_type_id":"4","last_reported":1739826498,"current_range_meters":18000,"station_id":"ce4bgv12rcd13ifvqcp0","pricing_plan_id":"cebpf4jnsgd1na2vs0mg"},{"bike_id":"87e4e3d9-887e-4f25-bf58-279367bc8327","system_id":"levelo_inurba_marseille","lat":43.30661,"lon":5.40143,"is_reserved":false,"is_disabled":true,"rental_uris":{"android":"levelo://app?vid=87e4e3d9-887e-4f25-bf58-279367bc8327","ios":"levelo://app?vid=87e4e3d9-887e-4f25-bf58-279367bc8327"},"vehicle_type_id":"4","last_reported":1739826498,"current_range_meters":18000,"station_id":"ce4bh112rcd13ifvqda0","pricing_plan_id":"cebpf4jnsgd1na2vs0mg"},{"bike_id":"407e5944-557a-481f-9c3c-c2024ce7925a","system_id":"levelo_inurba_marseille","lat":43.27598,"lon":5.36136,"is_reserved":false,"is_disabled":false,"rental_uris":{"android":"levelo://app?vid=407e5944-557a-481f-9c3c-c2024ce7925a","ios":"levelo://app?vid=407e5944-557a-481f-9c3c-c2024ce7925a"},"vehicle_type_id":"4","last_reported":1739826498,"current_range_meters":18000,"station_id":"","pricing_plan_id":"cebpf4jnsgd1na2vs0mg"},{"bike_id":"e480c57e-b127-443d-9f5e-fb55b44f3937","system_id":"levelo_inurba_marseille","lat":43.25095,"lon":5.39505,"is_reserved":false,"is_disabled":false,"rental_uris":{"android":"levelo://app?vid=e480c57e-b127-443d-9f5e-fb55b44f3937","ios":"levelo://app?vid=e480c57e-b127-443d-9f5e-fb55b44f3937"},"vehicle_type_id":"4","last_reported":1739826498,"current_range_meters":18000,"station_id":"ce4bhm12rcd13ifvqgkg","pricing_plan_id":"cebpf4jnsgd1na2vs0mg"},{"bike_id":"8796c4a1-cf69-4acb-819d-b56299eee9b7","system_id":"levelo_inurba_marseille","lat":43.33259,"lon":5.379,"is_reserved":false,"is_disabled":false,"rental_uris":{"android":"levelo://app?vid=8796c4a1-cf69-4acb-819d-b56299eee9b7","ios":"levelo://app?vid=8796c4a1-cf69-4acb-819d-b56299eee9b7"},"vehicle_type_id":"4","last_reported":1739826498,"current_range_meters":18000,"station_id":"","pricing_plan_id":"cebpf4jnsgd1na2vs0mg"},{"bike_id":"f6170a10-18b8-4598-b27e-251b634530b3","system_id":"levelo_inurba_marseille","lat":43.30159,"lon":5.3882,"is_reserved":false,"is_disabled":false,"rental_uris":{"android":"levelo://app?vid=f6170a10-18b8-4598-b27e-251b634530b3","ios":"levelo://app?vid=f6170a10-18b8-4598-b27e-251b634530b3"},"vehicle_type_id":"4","last_reported":1739826498,"current_range_meters":18000,"station_id":"ce4bghh2rcd13ifvqb60","pricing_plan_id":"cebpf4jnsgd1na2vs0mg"},{"bike_id":"efb6b4a0-de1c-4f69-bd8b-ff07ea46a8fd","system_id":"levelo_inurba_marseille","lat":43.28863,"lon":5.3584,"is_reserved":false,"is_disabled":false,"rental_uris":{"android":"levelo://app?vid=efb6b4a0-de1c-4f69-bd8b-ff07ea46a8fd","ios":"levelo://app?vid=efb6b4a0-de1c-4f69-bd8b-ff07ea46a8fd"},"vehicle_type_id":"4","last_reported":1739826498,"current_range_meters":18000,"station_id":"ce4bhb12rcd13ifvqem0","pricing_plan_id":"cebpf4jnsgd1na2vs0mg"},{"bike_id":"25ea9eec-29d9-4063-8007-929ebb2d1ef2","system_id":"levelo_inurba_marseille","lat":43.255,"lon":5.37655,"is_reserved":false,"is_disabled":false,"rental_uris":{"android":"levelo://app?vid=25ea9eec-29d9-4063-8007-929ebb2d1ef2","ios":"levelo://app?vid=25ea9eec-29d9-4063-8007-929ebb2d1ef2"},"vehicle_type_id":"4","last_reported":1739826498,"current_range_meters":18000,"station_id":"ce4bhh12rcd13ifvqff0","pricing_plan_id":"cebpf4jnsgd1na2vs0mg"},{"bike_id":"a5b070e8-7956-4e5f-9a24-b1e1cafe82c0","system_id":"levelo_inurba_marseille","lat":43.24106,"lon":5.37771,"is_reserved":false,"is_disabled":false,"rental_uris":{"android":"levelo://app?vid=a5b070e8-7956-4e5f-9a24-b1e1cafe82c0","ios":"levelo://app?vid=a5b070e8-7956-4e5f-9a24-b1e1cafe82c0"},"vehicle_type_id":"4","last_reported":1739826498,"current_range_meters":18000,"station_id":"ce4bhnp2rcd13ifvqgvg","pricing_plan_id":"cebpf4jnsgd1na2vs0mg"},{"bike_id":"fc5c756e-1d0c-4e0a-9de6-1a01dd9cbc1e","system_id":"levelo_inurba_marseille","lat":43.28921,"lon":5.38406,"is_reserved":false,"is_disabled":false,"rental_uris":{"android":"levelo://app?vid=fc5c756e-1d0c-4e0a-9de6-1a01dd9cbc1e","ios":"levelo://app?vid=fc5c756e-1d0c-4e0a-9de6-1a01dd9cbc1e"},"vehicle_type_id":"4","last_reported":1739826498,"current_range_meters":17600,"station_id":"ce4bh612rcd13ifvqe6g","pricing_plan_id":"cebpf4jnsgd1na2vs0mg"},{"bike_id":"007a32ed-f762-4022-9ecb-b11783d35e5d","system_id":"levelo_inurba_marseille","lat":43.28171,"lon":5.42649,"is_reserved":false,"is_disabled":false,"rental_uris":{"android":"levelo://app?vid=007a32ed-f762-4022-9ecb-b11783d35e5d","ios":"levelo://app?vid=007a32ed-f762-4022-9ecb-b11783d35e5d"},"vehicle_type_id":"4","last_reported":1739826498,"current_range_meters":18800,"station_id":"","pricing_plan_id":"cebpf4jnsgd1na2vs0mg"},{"bike_id":"bfcd5735-e47b-480f-b20c-80d6ffee51c2","system_id":"levelo_inurba_marseille","lat":43.29034,"lon":5.38607,"is_reserved":false,"is_disabled":false,"rental_uris":{"android":"levelo://app?vid=bfcd5735-e47b-480f-b20c-80d6ffee51c2","ios":"levelo://app?vid=bfcd5735-e47b-480f-b20c-80d6ffee51c2"},"vehicle_type_id":"4","last_reported":1739826498,"current_range_meters":18800,"station_id":"ce4bh4p2rcd13ifvqe0g","pricing_plan_id":"cebpf4jnsgd1na2vs0mg"},{"bike_id":"76c9367b-ed2d-4a32-8248-96f0b3ffdfa6","system_id":"levelo_inurba_marseille","lat":43.30603,"lon":5.39339,"is_reserved":false,"is_disabled":false,"rental_uris":{"android":"levelo://app?vid=76c9367b-ed2d-4a32-8248-96f0b3ffdfa6","ios":"levelo://app?vid=76c9367b-ed2d-4a32-8248-96f0b3ffdfa6"},"vehicle_type_id":"4","last_reported":1739826498,"current_range_meters":18800,"station_id":"","pricing_plan_id":"cebpf4jnsgd1na2vs0mg"},{"bike_id":"5c3e56f9-b7df-4b47-b1a7-e9fb85099b05","system_id":"levelo_inurba_marseille","lat":43.2454,"lon":5.39521,"is_reserved":false,"is_disabled":false,"rental_uris":{"android":"levelo://app?vid=5c3e56f9-b7df-4b47-b1a7-e9fb85099b05","ios":"levelo://app?vid=5c3e56f9-b7df-4b47-b1a7-e9fb85099b05"},"vehicle_type_id":"4","last_reported":1739826498,"current_range_meters":18800,"station_id":"ce4bhlp2rcd13ifvqgjg","pricing_plan_id":"cebpf4jnsgd1na2vs0mg"},{"bike_id":"f31467cf-8c81-4972-8598-137c33fe7a83","system_id":"levelo_inurba_marseille","lat":43.28873,"lon":5.35846,"is_reserved":false,"is_disabled":false,"rental_uris":{"android":"levelo://app?vid=f31467cf-8c81-4972-8598-137c33fe7a83","ios":"levelo://app?vid=f31467cf-8c81-4972-8598-137c33fe7a83"},"vehicle_type_id":"4","last_reported":1739826498,"current_range_meters":18800,"station_id":"ce4bhb12rcd13ifvqem0","pricing_plan_id":"cebpf4jnsgd1na2vs0mg"},{"bike_id":"3a582d70-b23f-4aa8-bb69-d9d4a3eb0ba1","system_id":"levelo_inurba_marseille","lat":43.33716,"lon":5.39206,"is_reserved":false,"is_disabled":true,"rental_uris":{"android":"levelo://app?vid=3a582d70-b23f-4aa8-bb69-d9d4a3eb0ba1","ios":"levelo://app?vid=3a582d70-b23f-4aa8-bb69-d9d4a3eb0ba1"},"vehicle_type_id":"4","last_reported":1739826498,"current_range_meters":18800,"station_id":"ce4bhr92rcd13ifvqhsg","pricing_plan_id":"cebpf4jnsgd1na2vs0mg"},{"bike_id":"1219795a-2bd4-4703-8c38-cae46b85c7e0","system_id":"levelo_inurba_marseille","lat":43.25008,"lon":5.38926,"is_reserved":false,"is_disabled":false,"rental_uris":{"android":"levelo://app?vid=1219795a-2bd4-4703-8c38-cae46b85c7e0","ios":"levelo://app?vid=1219795a-2bd4-4703-8c38-cae46b85c7e0"},"vehicle_type_id":"4","last_reported":1739826498,"current_range_meters":19200,"station_id":"ce4bhgp2rcd13ifvqfd0","pricing_plan_id":"cebpf4jnsgd1na2vs0mg"},{"bike_id":"4e5f052d-5d6a-4a68-bf1a-8f04f7f2d4cd","system_id":"levelo_inurba_marseille","lat":43.284069,"lon":5.375127,"is_reserved":false,"is_disabled":false,"rental_uris":{"android":"levelo://app?vid=4e5f052d-5d6a-4a68-bf1a-8f04f7f2d4cd","ios":"levelo://app?vid=4e5f052d-5d6a-4a68-bf1a-8f04f7f2d4cd"},"vehicle_type_id":"4","last_reported":1739826498,"current_range_meters":19200,"station_id":"ce4bh412rcd13ifvqds0","pricing_plan_id":"cebpf4jnsgd1na2vs0mg"},{"bike_id":"5cfaffa7-9c16-4bd3-8253-88a2755b400e","system_id":"levelo_inurba_marseille","lat":43.2981,"lon":5.37073,"is_reserved":false,"is_disabled":false,"rental_uris":{"android":"levelo://app?vid=5cfaffa7-9c16-4bd3-8253-88a2755b400e","ios":"levelo://app?vid=5cfaffa7-9c16-4bd3-8253-88a2755b400e"},"vehicle_type_id":"4","last_reported":1739826498,"current_range_meters":19200,"station_id":"ce4bgop2rcd13ifvqc1g","pricing_plan_id":"cebpf4jnsgd1na2vs0mg"},{"bike_id":"f1746a33-b4f0-4afe-8baa-499961d892e0","system_id":"levelo_inurba_marseille","lat":43.29799,"lon":5.37107,"is_reserved":false,"is_disabled":false,"rental_uris":{"android":"levelo://app?vid=f1746a33-b4f0-4afe-8baa-499961d892e0","ios":"levelo://app?vid=f1746a33-b4f0-4afe-8baa-499961d892e0"},"vehicle_type_id":"4","last_reported":1739826498,"current_range_meters":19200,"station_id":"ce4bgop2rcd13ifvqc1g","pricing_plan_id":"cebpf4jnsgd1na2vs0mg"},{"bike_id":"85add7b6-bb92-4123-9a9a-94dfccb80c3b","system_id":"levelo_inurba_marseille","lat":43.25088,"lon":5.39515,"is_reserved":false,"is_disabled":false,"rental_uris":{"android":"levelo://app?vid=85add7b6-bb92-4123-9a9a-94dfccb80c3b","ios":"levelo://app?vid=85add7b6-bb92-4123-9a9a-94dfccb80c3b"},"vehicle_type_id":"4","last_reported":1739826498,"current_range_meters":19200,"station_id":"ce4bhm12rcd13ifvqgkg","pricing_plan_id":"cebpf4jnsgd1na2vs0mg"},{"bike_id":"08a2cf12-3eb1-430c-9c41-021042dc1c23","system_id":"levelo_inurba_marseille","lat":43.2693,"lon":5.3891,"is_reserved":false,"is_disabled":false,"rental_uris":{"android":"levelo://app?vid=08a2cf12-3eb1-430c-9c41-021042dc1c23","ios":"levelo://app?vid=08a2cf12-3eb1-430c-9c41-021042dc1c23"},"vehicle_type_id":"4","last_reported":1739826498,"current_range_meters":19200,"station_id":"ce4bhhh2rcd13ifvqfl0","pricing_plan_id":"cebpf4jnsgd1na2vs0mg"},{"bike_id":"c8487b94-6c0d-43d0-b1ab-4de3aeccfcae","system_id":"levelo_inurba_marseille","lat":43.27944,"lon":5.41049,"is_reserved":false,"is_disabled":false,"rental_uris":{"android":"levelo://app?vid=c8487b94-6c0d-43d0-b1ab-4de3aeccfcae","ios":"levelo://app?vid=c8487b94-6c0d-43d0-b1ab-4de3aeccfcae"},"vehicle_type_id":"4","last_reported":1739826498,"current_range_meters":19200,"station_id":"ce4bhnp2rcd13ifvqh0g","pricing_plan_id":"cebpf4jnsgd1na2vs0mg"},{"bike_id":"e5627cce-7d6a-4967-bac3-3b67e3697d3d","system_id":"levelo_inurba_marseille","lat":43.31753,"lon":5.39018,"is_reserved":false,"is_disabled":false,"rental_uris":{"android":"levelo://app?vid=e5627cce-7d6a-4967-bac3-3b67e3697d3d","ios":"levelo://app?vid=e5627cce-7d6a-4967-bac3-3b67e3697d3d"},"vehicle_type_id":"4","last_reported":1739826498,"current_range_meters":19600,"station_id":"ce4bhqp2rcd13ifvqhng","pricing_plan_id":"cebpf4jnsgd1na2vs0mg"},{"bike_id":"64a29ba1-ca36-4759-b889-a9ce58125d5b","system_id":"levelo_inurba_marseille","lat":43.29273,"lon":5.40171,"is_reserved":false,"is_disabled":false,"rental_uris":{"android":"levelo://app?vid=64a29ba1-ca36-4759-b889-a9ce58125d5b","ios":"levelo://app?vid=64a29ba1-ca36-4759-b889-a9ce58125d5b"},"vehicle_type_id":"4","last_reported":1739826498,"current_range_meters":19600,"station_id":"ce4bh312rcd13ifvqdk0","pricing_plan_id":"cebpf4jnsgd1na2vs0mg"},{"bike_id":"7d81ed17-28bd-4158-a1da-87c5a169f0a3","system_id":"levelo_inurba_marseille","lat":43.2926,"lon":5.40908,"is_reserved":false,"is_disabled":false,"rental_uris":{"android":"levelo://app?vid=7d81ed17-28bd-4158-a1da-87c5a169f0a3","ios":"levelo://app?vid=7d81ed17-28bd-4158-a1da-87c5a169f0a3"},"vehicle_type_id":"4","last_reported":1739826498,"current_range_meters":19600,"station_id":"ce4bh192rcd13ifvqdc0","pricing_plan_id":"cebpf4jnsgd1na2vs0mg"},{"bike_id":"3534748a-eb65-45ff-8aa8-3665a0ec4029","system_id":"levelo_inurba_marseille","lat":43.31695,"lon":5.40466,"is_reserved":false,"is_disabled":false,"rental_uris":{"android":"levelo://app?vid=3534748a-eb65-45ff-8aa8-3665a0ec4029","ios":"levelo://app?vid=3534748a-eb65-45ff-8aa8-3665a0ec4029"},"vehicle_type_id":"4","last_reported":1739826498,"current_range_meters":19600,"station_id":"ce4bh012rcd13ifvqd00","pricing_plan_id":"cebpf4jnsgd1na2vs0mg"},{"bike_id":"1d63a175-89ef-49ff-9ead-dfe9ed6c22cf","system_id":"levelo_inurba_marseille","lat":43.246914,"lon":5.39425,"is_reserved":false,"is_disabled":false,"rental_uris":{"android":"levelo://app?vid=1d63a175-89ef-49ff-9ead-dfe9ed6c22cf","ios":"levelo://app?vid=1d63a175-89ef-49ff-9ead-dfe9ed6c22cf"},"vehicle_type_id":"4","last_reported":1739826498,"current_range_meters":19600,"station_id":"","pricing_plan_id":"cebpf4jnsgd1na2vs0mg"},{"bike_id":"7d2c7165-1f04-4bd7-a75e-2609b99ae28c","system_id":"levelo_inurba_marseille","lat":43.29982,"lon":5.37187,"is_reserved":false,"is_disabled":true,"rental_uris":{"android":"levelo://app?vid=7d2c7165-1f04-4bd7-a75e-2609b99ae28c","ios":"levelo://app?vid=7d2c7165-1f04-4bd7-a75e-2609b99ae28c"},"vehicle_type_id":"4","last_reported":1739826498,"current_range_meters":19600,"station_id":"ce4bgr92rcd13ifvqc7g","pricing_plan_id":"cebpf4jnsgd1na2vs0mg"},{"bike_id":"5626338a-4144-48ad-b662-8be5f9612acf","system_id":"levelo_inurba_marseille","lat":43.29275,"lon":5.40959,"is_reserved":false,"is_disabled":false,"rental_uris":{"android":"levelo://app?vid=5626338a-4144-48ad-b662-8be5f9612acf","ios":"levelo://app?vid=5626338a-4144-48ad-b662-8be5f9612acf"},"vehicle_type_id":"4","last_reported":1739826498,"current_range_meters":19600,"station_id":"ce4bh192rcd13ifvqdc0","pricing_plan_id":"cebpf4jnsgd1na2vs0mg"},{"bike_id":"f0376bed-5806-4a78-89e0-cc8934556f71","system_id":"levelo_inurba_marseille","lat":43.30315,"lon":5.40451,"is_reserved":false,"is_disabled":false,"rental_uris":{"android":"levelo://app?vid=f0376bed-5806-4a78-89e0-cc8934556f71","ios":"levelo://app?vid=f0376bed-5806-4a78-89e0-cc8934556f71"},"vehicle_type_id":"4","last_reported":1739826498,"current_range_meters":19600,"station_id":"ce4bh012rcd13ifvqd10","pricing_plan_id":"cebpf4jnsgd1na2vs0mg"},{"bike_id":"3d671193-57f2-4293-9ee5-6b4ab507ad5b","system_id":"levelo_inurba_marseille","lat":43.29033,"lon":5.35595,"is_reserved":false,"is_disabled":false,"rental_uris":{"android":"levelo://app?vid=3d671193-57f2-4293-9ee5-6b4ab507ad5b","ios":"levelo://app?vid=3d671193-57f2-4293-9ee5-6b4ab507ad5b"},"vehicle_type_id":"4","last_reported":1739826498,"current_range_meters":19600,"station_id":"ce4bhb92rcd13ifvqen0","pricing_plan_id":"cebpf4jnsgd1na2vs0mg"},{"bike_id":"a2ee6135-e74e-4e84-abc5-1996384466f8","system_id":"levelo_inurba_marseille","lat":43.2983,"lon":5.37069,"is_reserved":false,"is_disabled":false,"rental_uris":{"android":"levelo://app?vid=a2ee6135-e74e-4e84-abc5-1996384466f8","ios":"levelo://app?vid=a2ee6135-e74e-4e84-abc5-1996384466f8"},"vehicle_type_id":"4","last_reported":1739826498,"current_range_meters":20000,"station_id":"ce4bgop2rcd13ifvqc1g","pricing_plan_id":"cebpf4jnsgd1na2vs0mg"},{"bike_id":"f285e585-4b3f-4b0e-9560-55b6dc71fe40","system_id":"levelo_inurba_marseille","lat":43.29771,"lon":5.39344,"is_reserved":false,"is_disabled":false,"rental_uris":{"android":"levelo://app?vid=f285e585-4b3f-4b0e-9560-55b6dc71fe40","ios":"levelo://app?vid=f285e585-4b3f-4b0e-9560-55b6dc71fe40"},"vehicle_type_id":"4","last_reported":1739826498,"current_range_meters":20000,"station_id":"chh1huq6cuj3fo74tm60","pricing_plan_id":"cebpf4jnsgd1na2vs0mg"},{"bike_id":"cdb027a0-b875-4ada-92c3-2d2168720582","system_id":"levelo_inurba_marseille","lat":43.28283,"lon":5.35075,"is_reserved":false,"is_disabled":true,"rental_uris":{"android":"levelo://app?vid=cdb027a0-b875-4ada-92c3-2d2168720582","ios":"levelo://app?vid=cdb027a0-b875-4ada-92c3-2d2168720582"},"vehicle_type_id":"4","last_reported":1739826498,"current_range_meters":20000,"station_id":"ce4bhbp2rcd13ifvqerg","pricing_plan_id":"cebpf4jnsgd1na2vs0mg"},{"bike_id":"475471da-3b14-471f-99b6-563ae0c892bd","system_id":"levelo_inurba_marseille","lat":43.29223,"lon":5.36058,"is_reserved":false,"is_disabled":false,"rental_uris":{"android":"levelo://app?vid=475471da-3b14-471f-99b6-563ae0c892bd","ios":"levelo://app?vid=475471da-3b14-471f-99b6-563ae0c892bd"},"vehicle_type_id":"4","last_reported":1739826498,"current_range_meters":20400,"station_id":"ce4bhbh2rcd13ifvqeqg","pricing_plan_id":"cebpf4jnsgd1na2vs0mg"},{"bike_id":"0e558690-a3bb-4837-94b7-ebd7744bb5a5","system_id":"levelo_inurba_marseille","lat":43.295252,"lon":5.385378,"is_reserved":false,"is_disabled":false,"rental_uris":{"android":"levelo://app?vid=0e558690-a3bb-4837-94b7-ebd7744bb5a5","ios":"levelo://app?vid=0e558690-a3bb-4837-94b7-ebd7744bb5a5"},"vehicle_type_id":"4","last_reported":1739826498,"current_range_meters":20400,"station_id":"ce4bgqh2rcd13ifvqc4g","pricing_plan_id":"cebpf4jnsgd1na2vs0mg"},{"bike_id":"795850c1-154b-40f0-b64c-d35acaa1861d","system_id":"levelo_inurba_marseille","lat":43.25031,"lon":5.38911,"is_reserved":false,"is_disabled":false,"rental_uris":{"android":"levelo://app?vid=795850c1-154b-40f0-b64c-d35acaa1861d","ios":"levelo://app?vid=795850c1-154b-40f0-b64c-d35acaa1861d"},"vehicle_type_id":"4","last_reported":1739826498,"current_range_meters":20400,"station_id":"ce4bhgp2rcd13ifvqfd0","pricing_plan_id":"cebpf4jnsgd1na2vs0mg"},{"bike_id":"27699aeb-cf31-49d2-9725-2b2c33e5046b","system_id":"levelo_inurba_marseille","lat":43.28409,"lon":5.37517,"is_reserved":false,"is_disabled":false,"rental_uris":{"android":"levelo://app?vid=27699aeb-cf31-49d2-9725-2b2c33e5046b","ios":"levelo://app?vid=27699aeb-cf31-49d2-9725-2b2c33e5046b"},"vehicle_type_id":"4","last_reported":1739826498,"current_range_meters":20400,"station_id":"ce4bh412rcd13ifvqds0","pricing_plan_id":"cebpf4jnsgd1na2vs0mg"},