{"last_updated":1747103790,"ttl":60,"version":"2.2","data":{"bikes":[{"bike_id":"73c00190-8602-4a80-bc8a-4e1f187c4250","system_id":"levelo_inurba_marseille","lat":43.211957,"lon":5.350837,"is_reserved":false,"is_disabled":false,"rental_uris":{"android":"levelo://app?vid=73c00190-8602-4a80-bc8a-4e1f187c4250","ios":"levelo://app?vid=73c00190-8602-4a80-bc8a-4e1f187c4250"},"vehicle_type_id":"4","last_reported":1747103790,"current_range_meters":2800,"station_id":"st_cvj6sg6p6f1abm77japg","pricing_plan_id":"cebpf4jnsgd1na2vs0mg"},{"bike_id":"0fa43b28-a1f0-42f2-ab2c-512fb16942f6","system_id":"levelo_inurba_marseille","lat":43.27171,"lon":5.40995,"is_reserved":false,"is_disabled":false,"rental_uris":{"android":"levelo://app?vid=0fa43b28-a1f0-42f2-ab2c-512fb16942f6","ios":"levelo://app?vid=0fa43b28-a1f0-42f2-ab2c-512fb16942f6"},"vehicle_type_id":"4","last_reported":1747103790,"current_range_meters":2800,"station_id":"ce4bhl12rcd13ifvqgf0","pricing_plan_id":"cebpf4jnsgd1na2vs0mg"},{"bike_id":"32f607e3-86f4-4b83-a00e-3860ca594338","system_id":"levelo_inurba_marseille","lat":43.31712,"lon":5.42431,"is_reserved":false,"is_disabled":false,"rental_uris":{"android":"levelo://app?vid=32f607e3-86f4-4b83-a00e-3860ca594338","ios":"levelo://app?vid=32f607e3-86f4-4b83-a00e-3860ca594338"},"vehicle_type_id":"4","last_reported":1747103790,"current_range_meters":3200,"station_id":"ce4bhp92rcd13ifvqhbg","pricing_plan_id":"cebpf4jnsgd1na2vs0mg"},{"bike_id":"fc2577e7-1497-425b-9d4f-ab8d7dc843c6","system_id":"levelo_inurba_marseille","lat":43.33771,"lon":5.37485,"is_reserved":false,"is_disabled":false,"rental_uris":{"android":"levelo://app?vid=fc2577e7-1497-425b-9d4f-ab8d7dc843c6","ios":"levelo://app?vid=fc2577e7-1497-425b-9d4f-ab8d7dc843c6"},"vehicle_type_id":"4","last_reported":1747103790,"current_range_meters":3200,"station_id":"","pricing_plan_id":"cebpf4jnsgd1na2vs0mg"},{"bike_id":"8d3f0072-11c5-4a63-8a10-ef44205facce","system_id":"levelo_inurba_marseille","lat":43.265612,"lon":5.389985,"is_reserved":false,"is_disabled":false,"rental_uris":{"android":"levelo://app?vid=8d3f0072-11c5-4a63-8a10-ef44205facce","ios":"levelo://app?vid=8d3f0072-11c5-4a63-8a10-ef44205facce"},"vehicle_type_id":"4","last_reported":1747103790,"current_range_meters":3200,"station_id":"ce4bhe12rcd13ifvqf30","pricing_plan_id":"cebpf4jnsgd1na2vs0mg"},{"bike_id":"2d789099-a508-4f13-9b86-cbba56b0c5b7","system_id":"levelo_inurba_marseille","lat":43.265578,"lon":5.390055,"is_reserved":false,"is_disabled":false,"rental_uris":{"android":"levelo://app?vid=2d789099-a508-4f13-9b86-cbba56b0c5b7","ios":"levelo://app?vid=2d789099-a508-4f13-9b86-cbba56b0c5b7"},"vehicle_type_id":"4","last_reported":1747103790,"current_range_meters":3200,"station_id":"ce4bhe12rcd13ifvqf30","pricing_plan_id":"cebpf4jnsgd1na2vs0mg"},{"bike_id":"0fedde00-40eb-40d2-8fc2-e61ecce46b7b","system_id":"levelo_inurba_marseille","lat":43.282943,"lon":5.432219,"is_reserved":false,"is_disabled":false,"rental_uris":{"android":"levelo://app?vid=0fedde00-40eb-40d2-8fc2-e61ecce46b7b","ios":"levelo://app?vid=0fedde00-40eb-40d2-8fc2-e61ecce46b7b"},"vehicle_type_id":"4","last_reported":1747103790,"current_range_meters":3200,"station_id":"","pricing_plan_id":"cebpf4jnsgd1na2vs0mg"},{"bike_id":"3ae1cd74-71fb-47ba-ac9b-3b9bc8cd8449","system_id":"levelo_inurba_marseille","lat":43.217416,"lon":5.346061,"is_reserved":false,"is_disabled":false,"rental_uris":{"android":"levelo://app?vid=3ae1cd74-71fb-47ba-ac9b-3b9bc8cd8449","ios":"levelo://app?vid=3ae1cd74-71fb-47ba-ac9b-3b9bc8cd8449"},"vehicle_type_id":"4","last_reported":1747103790,"current_range_meters":3600,"station_id":"st_cvj6r9ubvosntc0bgbag","pricing_plan_id":"cebpf4jnsgd1na2vs0mg"},{"bike_id":"c7551d8c-8c75-47d4-9f17-6b1a17125acb","system_id":"levelo_inurba_marseille","lat":43.265642,"lon":5.390056,"is_reserved":false,"is_disabled":false,"rental_uris":{"android":"levelo://app?vid=c7551d8c-8c75-47d4-9f17-6b1a17125acb","ios":"levelo://app?vid=c7551d8c-8c75-47d4-9f17-6b1a17125acb"},"vehicle_type_id":"4","last_reported":1747103790,"current_range_meters":3600,"station_id":"ce4bhe12rcd13ifvqf30","pricing_plan_id":"cebpf4jnsgd1na2vs0mg"},{"bike_id":"1838afde-afc3-4eda-8678-62b4dcd0e305","system_id":"levelo_inurba_marseille","lat":43.240651,"lon":5.377623,"is_reserved":false,"is_disabled":false,"rental_uris":{"android":"levelo://app?vid=1838afde-afc3-4eda-8678-62b4dcd0e305","ios":"levelo://app?vid=1838afde-afc3-4eda-8678-62b4dcd0e305"},"vehicle_type_id":"4","last_reported":1747103790,"current_range_meters":3600,"station_id":"ce4bhnp2rcd13ifvqgvg","pricing_plan_id":"cebpf4jnsgd1na2vs0mg"},{"bike_id":"b1b8c807-8597-4a9c-bbcd-a2746fd63865","system_id":"levelo_inurba_marseille","lat":43.2528,"lon":5.399202,"is_reserved":false,"is_disabled":false,"rental_uris":{"android":"levelo://app?vid=b1b8c807-8597-4a9c-bbcd-a2746fd63865","ios":"levelo://app?vid=b1b8c807-8597-4a9c-bbcd-a2746fd63865"},"vehicle_type_id":"4","last_reported":1747103790,"current_range_meters":3600,"station_id":"","pricing_plan_id":"cebpf4jnsgd1na2vs0mg"},{"bike_id":"129c03ab-3dcf-46d9-96ab-a3c8ac304f4a","system_id":"levelo_inurba_marseille","lat":43.26565,"lon":5.38985,"is_reserved":false,"is_disabled":true,"rental_uris":{"android":"levelo://app?vid=129c03ab-3dcf-46d9-96ab-a3c8ac304f4a","ios":"levelo://app?vid=129c03ab-3dcf-46d9-96ab-a3c8ac304f4a"},"vehicle_type_id":"4","last_reported":1747103790,"current_range_meters":3600,"station_id":"ce4bhe12rcd13ifvqf30","pricing_plan_id":"cebpf4jnsgd1na2vs0mg"},{"bike_id":"aba16c61-ea08-4da4-9b4a-99504f3e1a5f","system_id":"levelo_inurba_marseille","lat":43.24689,"lon":5.38143,"is_reserved":false,"is_disabled":false,"rental_uris":{"android":"levelo://app?vid=aba16c61-ea08-4da4-9b4a-99504f3e1a5f","ios":"levelo://app?vid=aba16c61-ea08-4da4-9b4a-99504f3e1a5f"},"vehicle_type_id":"4","last_reported":1747103790,"current_range_meters":4000,"station_id":"ce4bhih2rcd13ifvqfr0","pricing_plan_id":"cebpf4jnsgd1na2vs0mg"},{"bike_id":"83a81ffb-3d1c-4122-a406-60b114a380fc","system_id":"levelo_inurba_marseille","lat":43.212,"lon":5.35071,"is_reserved":false,"is_disabled":false,"rental_uris":{"android":"levelo://app?vid=83a81ffb-3d1c-4122-a406-60b114a380fc","ios":"levelo://app?vid=83a81ffb-3d1c-4122-a406-60b114a380fc"},"vehicle_type_id":"4","last_reported":1747103790,"current_range_meters":4000,"station_id":"st_cvj6sg6p6f1abm77japg","pricing_plan_id":"cebpf4jnsgd1na2vs0mg"},{"bike_id":"842512c1-c47a-4299-8023-743fe242896b","system_id":"levelo_inurba_marseille","lat":43.246492,"lon":5.388984,"is_reserved":false,"is_disabled":false,"rental_uris":{"android":"levelo://app?vid=842512c1-c47a-4299-8023-743fe242896b","ios":"levelo://app?vid=842512c1-c47a-4299-8023-743fe242896b"},"vehicle_type_id":"4","last_reported":1747103790,"current_range_meters":4400,"station_id":"ce4bhg12rcd13ifvqf60","pricing_plan_id":"cebpf4jnsgd1na2vs0mg"},{"bike_id":"37de1aed-1149-4673-8960-0c1e46b86a56","system_id":"levelo_inurba_marseille","lat":43.319963,"lon":5.381395,"is_reserved":false,"is_disabled":false,"rental_uris":{"android":"levelo://app?vid=37de1aed-1149-4673-8960-0c1e46b86a56","ios":"levelo://app?vid=37de1aed-1149-4673-8960-0c1e46b86a56"},"vehicle_type_id":"4","last_reported":1747103790,"current_range_meters":4800,"station_id":"ce4bhr12rcd13ifvqhpg","pricing_plan_id":"cebpf4jnsgd1na2vs0mg"},{"bike_id":"b4227e99-ced2-43eb-bed2-644b65614810","system_id":"levelo_inurba_marseille","lat":43.3087,"lon":5.39645,"is_reserved":false,"is_disabled":false,"rental_uris":{"android":"levelo://app?vid=b4227e99-ced2-43eb-bed2-644b65614810","ios":"levelo://app?vid=b4227e99-ced2-43eb-bed2-644b65614810"},"vehicle_type_id":"4","last_reported":1747103790,"current_range_meters":5600,"station_id":"ce4bh012rcd13ifvqcv0","pricing_plan_id":"cebpf4jnsgd1na2vs0mg"},{"bike_id":"79f767b1-523b-4188-996e-cfe61a261e86","system_id":"levelo_inurba_marseille","lat":43.241811,"lon":5.39729,"is_reserved":false,"is_disabled":false,"rental_uris":{"android":"levelo://app?vid=79f767b1-523b-4188-996e-cfe61a261e86","ios":"levelo://app?vid=79f767b1-523b-4188-996e-cfe61a261e86"},"vehicle_type_id":"4","last_reported":1747103790,"current_range_meters":5600,"station_id":"ce4bhn12rcd13ifvqgpg","pricing_plan_id":"cebpf4jnsgd1na2vs0mg"},{"bike_id":"5f9b62df-1db7-4452-8caf-5538e3287ca8","system_id":"levelo_inurba_marseille","lat":43.2935,"lon":5.42817,"is_reserved":false,"is_disabled":false,"rental_uris":{"android":"levelo://app?vid=5f9b62df-1db7-4452-8caf-5538e3287ca8","ios":"levelo://app?vid=5f9b62df-1db7-4452-8caf-5538e3287ca8"},"vehicle_type_id":"4","last_reported":1747103790,"current_range_meters":5600,"station_id":"","pricing_plan_id":"cebpf4jnsgd1na2vs0mg"},{"bike_id":"c166edd6-904a-4bc0-bde0-4462b8738864","system_id":"levelo_inurba_marseille","lat":43.241628,"lon":5.364106,"is_reserved":false,"is_disabled":false,"rental_uris":{"android":"levelo://app?vid=c166edd6-904a-4bc0-bde0-4462b8738864","ios":"levelo://app?vid=c166edd6-904a-4bc0-bde0-4462b8738864"},"vehicle_type_id":"4","last_reported":1747103790,"current_range_meters":6000,"station_id":"cpo36qri1sfpv3e86is0","pricing_plan_id":"cebpf4jnsgd1na2vs0mg"},{"bike_id":"2deb1013-2a4e-4281-83f4-5de1b133ca70","system_id":"levelo_inurba_marseille","lat":43.298963,"lon":5.436601,"is_reserved":false,"is_disabled":false,"rental_uris":{"android":"levelo://app?vid=2deb1013-2a4e-4281-83f4-5de1b133ca70","ios":"levelo://app?vid=2deb1013-2a4e-4281-83f4-5de1b133ca70"},"vehicle_type_id":"4","last_reported":1747103790,"current_range_meters":6000,"station_id":"ce4bhpp2rcd13ifvqhfg","pricing_plan_id":"cebpf4jnsgd1na2vs0mg"},{"bike_id":"6e5c91eb-f4c3-4748-8248-e56e7fa8d9e4","system_id":"levelo_inurba_marseille","lat":43.323511,"lon":5.388861,"is_reserved":false,"is_disabled":false,"rental_uris":{"android":"levelo://app?vid=6e5c91eb-f4c3-4748-8248-e56e7fa8d9e4","ios":"levelo://app?vid=6e5c91eb-f4c3-4748-8248-e56e7fa8d9e4"},"vehicle_type_id":"4","last_reported":1747103790,"current_range_meters":6400,"station_id":"ce4bhqp2rcd13ifvqhog","pricing_plan_id":"cebpf4jnsgd1na2vs0mg"},{"bike_id":"63e9444f-c14c-435d-9c33-22d8afa9b431","system_id":"levelo_inurba_marseille","lat":43.28564,"lon":5.39496,"is_reserved":false,"is_disabled":true,"rental_uris":{"android":"levelo://app?vid=63e9444f-c14c-435d-9c33-22d8afa9b431","ios":"levelo://app?vid=63e9444f-c14c-435d-9c33-22d8afa9b431"},"vehicle_type_id":"4","last_reported":1747103790,"current_range_meters":6400,"station_id":"ce4bh292rcd13ifvqdg0","pricing_plan_id":"cebpf4jnsgd1na2vs0mg"},{"bike_id":"864ce70f-1098-4973-90a9-d5c9b927170c","system_id":"levelo_inurba_marseille","lat":43.303844,"lon":5.424681,"is_reserved":false,"is_disabled":false,"rental_uris":{"android":"levelo://app?vid=864ce70f-1098-4973-90a9-d5c9b927170c","ios":"levelo://app?vid=864ce70f-1098-4973-90a9-d5c9b927170c"},"vehicle_type_id":"4","last_reported":1747103790,"current_range_meters":6800,"station_id":"ce4bhoh2rcd13ifvqh6g","pricing_plan_id":"cebpf4jnsgd1na2vs0mg"},{"bike_id":"daf4e063-31f2-4b88-aa14-a8b6f4bed22c","system_id":"levelo_inurba_marseille","lat":43.304207,"lon":5.397476,"is_reserved":false,"is_disabled":true,"rental_uris":{"android":"levelo://app?vid=daf4e063-31f2-4b88-aa14-a8b6f4bed22c","ios":"levelo://app?vid=daf4e063-31f2-4b88-aa14-a8b6f4bed22c"},"vehicle_type_id":"4","last_reported":1747103790,"current_range_meters":6800,"station_id":"ce4bh092rcd13ifvqd20","pricing_plan_id":"cebpf4jnsgd1na2vs0mg"},{"bike_id":"1efd5ed7-ddfe-407c-bfe9-7df51383e995","system_id":"levelo_inurba_marseille","lat":43.28412,"lon":5.349907,"is_reserved":false,"is_disabled":false,"rental_uris":{"android":"levelo://app?vid=1efd5ed7-ddfe-407c-bfe9-7df51383e995","ios":"levelo://app?vid=1efd5ed7-ddfe-407c-bfe9-7df51383e995"},"vehicle_type_id":"4","last_reported":1747103790,"current_range_meters":6800,"station_id":"ce4bhbh2rcd13ifvqepg","pricing_plan_id":"cebpf4jnsgd1na2vs0mg"},{"bike_id":"f39bbe5a-4dad-40ae-9813-fc9649277bd5","system_id":"levelo_inurba_marseille","lat":43.231928,"lon":5.355513,"is_reserved":false,"is_disabled":false,"rental_uris":{"android":"levelo://app?vid=f39bbe5a-4dad-40ae-9813-fc9649277bd5","ios":"levelo://app?vid=f39bbe5a-4dad-40ae-9813-fc9649277bd5"},"vehicle_type_id":"4","last_reported":1747103790,"current_range_meters":6800,"station_id":"ce4bhu92rcd13ifvqi70","pricing_plan_id":"cebpf4jnsgd1na2vs0mg"},{"bike_id":"8cad80b9-40f1-4238-b3c2-e7e97d51aeba","system_id":"levelo_inurba_marseille","lat":43.323636,"lon":5.388906,"is_reserved":false,"is_disabled":false,"rental_uris":{"android":"levelo://app?vid=8cad80b9-40f1-4238-b3c2-e7e97d51aeba","ios":"levelo://app?vid=8cad80b9-40f1-4238-b3c2-e7e97d51aeba"},"vehicle_type_id":"4","last_reported":1747103790,"current_range_meters":6800,"station_id":"ce4bhqp2rcd13ifvqhog","pricing_plan_id":"cebpf4jnsgd1na2vs0mg"},{"bike_id":"671f1f53-8d82-4ed4-ade1-f1720e0973b5","system_id":"levelo_inurba_marseille","lat":43.28151,"lon":5.42646,"is_reserved":false,"is_disabled":false,"rental_uris":{"android":"levelo://app?vid=671f1f53-8d82-4ed4-ade1-f1720e0973b5","ios":"levelo://app?vid=671f1f53-8d82-4ed4-ade1-f1720e0973b5"},"vehicle_type_id":"4","last_reported":1747103790,"current_range_meters":7200,"station_id":"ce4bhnh2rcd13ifvqgug","pricing_plan_id":"cebpf4jnsgd1na2vs0mg"},{"bike_id":"b2e8f874-de9c-484f-9976-af989bbdd976","system_id":"levelo_inurba_marseille","lat":43.3065,"lon":5.40071,"is_reserved":false,"is_disabled":false,"rental_uris":{"android":"levelo://app?vid=b2e8f874-de9c-484f-9976-af989bbdd976","ios":"levelo://app?vid=b2e8f874-de9c-484f-9976-af989bbdd976"},"vehicle_type_id":"4","last_reported":1747103790,"current_range_meters":7200,"station_id":"ce4bh112rcd13ifvqda0","pricing_plan_id":"cebpf4jnsgd1na2vs0mg"},{"bike_id":"b0ac8040-90e0-41ee-a2e3-e5462910fefc","system_id":"levelo_inurba_marseille","lat":43.27542,"lon":5.412848,"is_reserved":false,"is_disabled":false,"rental_uris":{"android":"levelo://app?vid=b0ac8040-90e0-41ee-a2e3-e5462910fefc","ios":"levelo://app?vid=b0ac8040-90e0-41ee-a2e3-e5462910fefc"},"vehicle_type_id":"4","last_reported":1747103790,"current_range_meters":7200,"station_id":"","pricing_plan_id":"cebpf4jnsgd1na2vs0mg"},{"bike_id":"0a7e584e-880e-41a6-aef5-ff83f35e27d8","system_id":"levelo_inurba_marseille","lat":43.3061,"lon":5.404567,"is_reserved":false,"is_disabled":false,"rental_uris":{"android":"levelo://app?vid=0a7e584e-880e-41a6-aef5-ff83f35e27d8","ios":"levelo://app?vid=0a7e584e-880e-41a6-aef5-ff83f35e27d8"},"vehicle_type_id":"4","last_reported":1747103790,"current_range_meters":7200,"station_id":"","pricing_plan_id":"cebpf4jnsgd1na2vs0mg"},{"bike_id":"220b77d1-efd2-4d3e-9ffa-e663e1f17d00","system_id":"levelo_inurba_marseille","lat":43.31318,"lon":5.39689,"is_reserved":false,"is_disabled":false,"rental_uris":{"android":"levelo://app?vid=220b77d1-efd2-4d3e-9ffa-e663e1f17d00","ios":"levelo://app?vid=220b77d1-efd2-4d3e-9ffa-e663e1f17d00"},"vehicle_type_id":"4","last_reported":1747103790,"current_range_meters":7200,"station_id":"ce4bgvp2rcd13ifvqcu0","pricing_plan_id":"cebpf4jnsgd1na2vs0mg"},{"bike_id":"c47d6331-3490-479f-8407-edd7635a0103","system_id":"levelo_inurba_marseille","lat":43.281521,"lon":5.426403,"is_reserved":false,"is_disabled":false,"rental_uris":{"android":"levelo://app?vid=c47d6331-3490-479f-8407-edd7635a0103","ios":"levelo://app?vid=c47d6331-3490-479f-8407-edd7635a0103"},"vehicle_type_id":"4","last_reported":1747103790,"current_range_meters":7200,"station_id":"ce4bhnh2rcd13ifvqgug","pricing_plan_id":"cebpf4jnsgd1na2vs0mg"},{"bike_id":"de4a530f-3b17-41b9-bd98-d22e64d46bdc","system_id":"levelo_inurba_marseille","lat":43.321036,"lon":5.367828,"is_reserved":false,"is_disabled":false,"rental_uris":{"android":"levelo://app?vid=de4a530f-3b17-41b9-bd98-d22e64d46bdc","ios":"levelo://app?vid=de4a530f-3b17-41b9-bd98-d22e64d46bdc"},"vehicle_type_id":"4","last_reported":1747103790,"current_range_meters":7200,"station_id":"ce4bhrh2rcd13ifvqhug","pricing_plan_id":"cebpf4jnsgd1na2vs0mg"},{"bike_id":"dc776917-8e86-4545-a94d-f2cc98cc43bb","system_id":"levelo_inurba_marseille","lat":43.3025,"lon":5.40069,"is_reserved":false,"is_disabled":false,"rental_uris":{"android":"levelo://app?vid=dc776917-8e86-4545-a94d-f2cc98cc43bb","ios":"levelo://app?vid=dc776917-8e86-4545-a94d-f2cc98cc43bb"},"vehicle_type_id":"4","last_reported":1747103790,"current_range_meters":8000,"station_id":"ce4bgvh2rcd13ifvqcs0","pricing_plan_id":"cebpf4jnsgd1na2vs0mg"},{"bike_id":"d47be2cb-5174-453e-8394-152709458289","system_id":"levelo_inurba_marseille","lat":43.29262,"lon":5.37628,"is_reserved":false,"is_disabled":false,"rental_uris":{"android":"levelo://app?vid=d47be2cb-5174-453e-8394-152709458289","ios":"levelo://app?vid=d47be2cb-5174-453e-8394-152709458289"},"vehicle_type_id":"4","last_reported":1747103790,"current_range_meters":8000,"station_id":"ce4bgi12rcd13ifvqb80","pricing_plan_id":"cebpf4jnsgd1na2vs0mg"},{"bike_id":"8713ea68-2d18-4f02-b58b-17c62786319e","system_id":"levelo_inurba_marseille","lat":43.323491,"lon":5.406222,"is_reserved":false,"is_disabled":false,"rental_uris":{"android":"levelo://app?vid=8713ea68-2d18-4f02-b58b-17c62786319e","ios":"levelo://app?vid=8713ea68-2d18-4f02-b58b-17c62786319e"},"vehicle_type_id":"4","last_reported":1747103790,"current_range_meters":8000,"station_id":"ce4bhq92rcd13ifvqhjg","pricing_plan_id":"cebpf4jnsgd1na2vs0mg"},{"bike_id":"c5eb53b8-783c-4568-bc58-af7e2dd00aa0","system_id":"levelo_inurba_marseille","lat":43.32356,"lon":5.36755,"is_reserved":false,"is_disabled":false,"rental_uris":{"android":"levelo://app?vid=c5eb53b8-783c-4568-bc58-af7e2dd00aa0","ios":"levelo://app?vid=c5eb53b8-783c-4568-bc58-af7e2dd00aa0"},"vehicle_type_id":"4","last_reported":1747103790,"current_range_meters":8000,"station_id":"ce4bhsh2rcd13ifvqi2g","pricing_plan_id":"cebpf4jnsgd1na2vs0mg"},{"bike_id":"d6defe93-e44a-481d-a104-e0a4d7584d2f","system_id":"levelo_inurba_marseille","lat":43.313281,"lon":5.396977,"is_reserved":false,"is_disabled":false,"rental_uris":{"android":"levelo://app?vid=d6defe93-e44a-481d-a104-e0a4d7584d2f","ios":"levelo://app?vid=d6defe93-e44a-481d-a104-e0a4d7584d2f"},"vehicle_type_id":"4","last_reported":1747103790,"current_range_meters":8000,"station_id":"ce4bgvp2rcd13ifvqcu0","pricing_plan_id":"cebpf4jnsgd1na2vs0mg"},{"bike_id":"817ae355-323f-4b59-ad3f-7cabef227558","system_id":"levelo_inurba_marseille","lat":43.314817,"lon":5.373063,"is_reserved":false,"is_disabled":false,"rental_uris":{"android":"levelo://app?vid=817ae355-323f-4b59-ad3f-7cabef227558","ios":"levelo://app?vid=817ae355-323f-4b59-ad3f-7cabef227558"},"vehicle_type_id":"4","last_reported":1747103790,"current_range_meters":8000,"station_id":"ce4bgt12rcd13ifvqcd0","pricing_plan_id":"cebpf4jnsgd1na2vs0mg"},{"bike_id":"a6f76d4d-3bf3-4601-9711-d2be4511763e","system_id":"levelo_inurba_marseille","lat":43.30653,"lon":5.400723,"is_reserved":false,"is_disabled":false,"rental_uris":{"android":"levelo://app?vid=a6f76d4d-3bf3-4601-9711-d2be4511763e","ios":"levelo://app?vid=a6f76d4d-3bf3-4601-9711-d2be4511763e"},"vehicle_type_id":"4","last_reported":1747103790,"current_range_meters":8000,"station_id":"ce4bh112rcd13ifvqda0","pricing_plan_id":"cebpf4jnsgd1na2vs0mg"},{"bike_id":"8b3eac21-bb1f-4170-9c40-95292bcf13c4","system_id":"levelo_inurba_marseille","lat":43.31737,"lon":5.40451,"is_reserved":false,"is_disabled":false,"rental_uris":{"android":"levelo://app?vid=8b3eac21-bb1f-4170-9c40-95292bcf13c4","ios":"levelo://app?vid=8b3eac21-bb1f-4170-9c40-95292bcf13c4"},"vehicle_type_id":"4","last_reported":1747103790,"current_range_meters":8000,"station_id":"","pricing_plan_id":"cebpf4jnsgd1na2vs0mg"},{"bike_id":"ea43783d-8b54-48fc-b7dc-9031385273ca","system_id":"levelo_inurba_marseille","lat":43.26077,"lon":5.39388,"is_reserved":false,"is_disabled":true,"rental_uris":{"android":"levelo://app?vid=ea43783d-8b54-48fc-b7dc-9031385273ca","ios":"levelo://app?vid=ea43783d-8b54-48fc-b7dc-9031385273ca"},"vehicle_type_id":"4","last_reported":1747103790,"current_range_meters":8000,"station_id":"ce4bhh92rcd13ifvqfj0","pricing_plan_id":"cebpf4jnsgd1na2vs0mg"},{"bike_id":"decd7b5f-cddf-4dc2-a45b-9dd01f4b7747","system_id":"levelo_inurba_marseille","lat":43.241718,"lon":5.397273,"is_reserved":false,"is_disabled":false,"rental_uris":{"android":"levelo://app?vid=decd7b5f-cddf-4dc2-a45b-9dd01f4b7747","ios":"levelo://app?vid=decd7b5f-cddf-4dc2-a45b-9dd01f4b7747"},"vehicle_type_id":"4","last_reported":1747103790,"current_range_meters":8400,"station_id":"ce4bhn12rcd13ifvqgpg","pricing_plan_id":"cebpf4jnsgd1na2vs0mg"},{"bike_id":"96e57902-a51d-4ff0-abf7-329ea18a5e12","system_id":"levelo_inurba_marseille","lat":43.280316,"lon":5.369416,"is_reserved":false,"is_disabled":false,"rental_uris":{"android":"levelo://app?vid=96e57902-a51d-4ff0-abf7-329ea18a5e12","ios":"levelo://app?vid=96e57902-a51d-4ff0-abf7-329ea18a5e12"},"vehicle_type_id":"4","last_reported":1747103790,"current_range_meters":8400,"station_id":"ce4bha12rcd13ifvqef0","pricing_plan_id":"cebpf4jnsgd1na2vs0mg"},{"bike_id":"b3d7a4d3-78a5-43a0-9843-e302414df266","system_id":"levelo_inurba_marseille","lat":43.27915,"lon":5.39587,"is_reserved":false,"is_disabled":false,"rental_uris":{"android":"levelo://app?vid=b3d7a4d3-78a5-43a0-9843-e302414df266","ios":"levelo://app?vid=b3d7a4d3-78a5-43a0-9843-e302414df266"},"vehicle_type_id":"4","last_reported":1747103790,"current_range_meters":8400,"station_id":"ce4bhf92rcd13ifvqf40","pricing_plan_id":"cebpf4jnsgd1na2vs0mg"},{"bike_id":"cf119389-8c06-4449-a205-2b18fbb577ee","system_id":"levelo_inurba_marseille","lat":43.316982,"lon":5.404571,"is_reserved":false,"is_disabled":false,"rental_uris":{"android":"levelo://app?vid=cf119389-8c06-4449-a205-2b18fbb577ee","ios":"levelo://app?vid=cf119389-8c06-4449-a205-2b18fbb577ee"},"vehicle_type_id":"4","last_reported":1747103790,"current_range_meters":8400,"station_id":"ce4bh012rcd13ifvqd00","pricing_plan_id":"cebpf4jnsgd1na2vs0mg"},{"bike_id":"7b0310c2-4dd8-4d0d-9eaf-d38f3b6639d2","system_id":"levelo_inurba_marseille","lat":43.27295,"lon":5.39143,"is_reserved":false,"is_disabled":true,"rental_uris":{"android":"levelo://app?vid=7b0310c2-4dd8-4d0d-9eaf-d38f3b6639d2","ios":"levelo://app?vid=7b0310c2-4dd8-4d0d-9eaf-d38f3b6639d2"},"vehicle_type_id":"4","last_reported":1747103790,"current_range_meters":8800,"station_id":"ce4bhgp2rcd13ifvqfe0","pricing_plan_id":"cebpf4jnsgd1na2vs0mg"},{"bike_id":"9b3463fc-a8b1-44b7-8937-38fe177691ca","system_id":"levelo_inurba_marseille","lat":43.281052,"lon":5.378409,"is_reserved":false,"is_disabled":false,"rental_uris":{"android":"levelo://app?vid=9b3463fc-a8b1-44b7-8937-38fe177691ca","ios":"levelo://app?vid=9b3463fc-a8b1-44b7-8937-38fe177691ca"},"vehicle_type_id":"4","last_reported":1747103790,"current_range_meters":8800,"station_id":"ce4bha12rcd13ifvqee0","pricing_plan_id":"cebpf4jnsgd1na2vs0mg"},{"bike_id":"b72a4969-059b-4185-8447-533da62c3c19","system_id":"levelo_inurba_marseille","lat":43.24662,"lon":5.38163,"is_reserved":false,"is_disabled":false,"rental_uris":{"android":"levelo://app?vid=b72a4969-059b-4185-8447-533da62c3c19","ios":"levelo://app?vid=b72a4969-059b-4185-8447-533da62c3c19"},"vehicle_type_id":"4","last_reported":1747103790,"current_range_meters":8800,"station_id":"ce4bhih2rcd13ifvqfr0","pricing_plan_id":"cebpf4jnsgd1na2vs0mg"},{"bike_id":"e0b16578-b75c-49a0-be9b-59a4685629b7","system_id":"levelo_inurba_marseille","lat":43.28135,"lon":5.42662,"is_reserved":false,"is_disabled":false,"rental_uris":{"android":"levelo://app?vid=e0b16578-b75c-49a0-be9b-59a4685629b7","ios":"levelo://app?vid=e0b16578-b75c-49a0-be9b-59a4685629b7"},"vehicle_type_id":"4","last_reported":1747103790,"current_range_meters":8800,"station_id":"ce4bhnh2rcd13ifvqgug","pricing_plan_id":"cebpf4jnsgd1na2vs0mg"},{"bike_id":"2ee4d910-0ee1-4bc5-86c8-c77afad12b4f","system_id":"levelo_inurba_marseille","lat":43.321074,"lon":5.367996,"is_reserved":false,"is_disabled":false,"rental_uris":{"android":"levelo://app?vid=2ee4d910-0ee1-4bc5-86c8-c77afad12b4f","ios":"levelo://app?vid=2ee4d910-0ee1-4bc5-86c8-c77afad12b4f"},"vehicle_type_id":"4","last_reported":1747103790,"current_range_meters":8800,"station_id":"ce4bhrh2rcd13ifvqhug","pricing_plan_id":"cebpf4jnsgd1na2vs0mg"},{"bike_id":"acca8498-5f9b-48da-a0fd-34e73dfe9abc","system_id":"levelo_inurba_marseille","lat":43.284164,"lon":5.375179,"is_reserved":false,"is_disabled":false,"rental_uris":{"android":"levelo://app?vid=acca8498-5f9b-48da-a0fd-34e73dfe9abc","ios":"levelo://app?vid=acca8498-5f9b-48da-a0fd-34e73dfe9abc"},"vehicle_type_id":"4","last_reported":1747103790,"current_range_meters":9200,"station_id":"ce4bh412rcd13ifvqds0","pricing_plan_id":"cebpf4jnsgd1na2vs0mg"},{"bike_id":"3c281eff-7dc7-407f-8e9d-0238a4fa94bd","system_id":"levelo_inurba_marseille","lat":43.31329,"lon":5.39681,"is_reserved":false,"is_disabled":false,"rental_uris":{"android":"levelo://app?vid=3c281eff-7dc7-407f-8e9d-0238a4fa94bd","ios":"levelo://app?vid=3c281eff-7dc7-407f-8e9d-0238a4fa94bd"},"vehicle_type_id":"4","last_reported":1747103790,"current_range_meters":9200,"station_id":"ce4bgvp2rcd13ifvqcu0","pricing_plan_id":"cebpf4jnsgd1na2vs0mg"},{"bike_id":"716e0f00-1566-4a7e-a8b9-e05eb17ac39c","system_id":"levelo_inurba_marseille","lat":43.31162,"lon":5.38752,"is_reserved":false,"is_disabled":false,"rental_uris":{"android":"levelo://app?vid=716e0f00-1566-4a7e-a8b9-e05eb17ac39c","ios":"levelo://app?vid=716e0f00-1566-4a7e-a8b9-e05eb17ac39c"},"vehicle_type_id":"4","last_reported":1747103790,"current_range_meters":9200,"station_id":"ce4bgv12rcd13ifvqcp0","pricing_plan_id":"cebpf4jnsgd1na2vs0mg"},{"bike_id":"cbc7eed1-f7c6-43f2-b64f-3b59b18e7401","system_id":"levelo_inurba_marseille","lat":43.22507,"lon":5.34769,"is_reserved":false,"is_disabled":true,"rental_uris":{"android":"levelo://app?vid=cbc7eed1-f7c6-43f2-b64f-3b59b18e7401","ios":"levelo://app?vid=cbc7eed1-f7c6-43f2-b64f-3b59b18e7401"},"vehicle_type_id":"4","last_reported":1747103790,"current_range_meters":9200,"station_id":"st_cvj5dfep6f1abm77gieg","pricing_plan_id":"cebpf4jnsgd1na2vs0mg"},{"bike_id":"0a8bb0eb-e18a-4601-8b9c-10cedd4593aa","system_id":"levelo_inurba_marseille","lat":43.251103,"lon":5.403261,"is_reserved":false,"is_disabled":false,"rental_uris":{"android":"levelo://app?vid=0a8bb0eb-e18a-4601-8b9c-10cedd4593aa","ios":"levelo://app?vid=0a8bb0eb-e18a-4601-8b9c-10cedd4593aa"},"vehicle_type_id":"4","last_reported":1747103790,"current_range_meters":9200,"station_id":"ce4bhlh2rcd13ifvqgig","pricing_plan_id":"cebpf4jnsgd1na2vs0mg"},{"bike_id":"b49c1e48-4bbf-4fd1-bf90-fe88ef997d43","system_id":"levelo_inurba_marseille","lat":43.309248,"lon":5.401466,"is_reserved":false,"is_disabled":false,"rental_uris":{"android":"levelo://app?vid=b49c1e48-4bbf-4fd1-bf90-fe88ef997d43","ios":"levelo://app?vid=b49c1e48-4bbf-4fd1-bf90-fe88ef997d43"},"vehicle_type_id":"4","last_reported":1747103790,"current_range_meters":9600,"station_id":"ce4bgvp2rcd13ifvqct0","pricing_plan_id":"cebpf4jnsgd1na2vs0mg"},{"bike_id":"7263ec53-2f0d-4a95-a3f3-91e07271074c","system_id":"levelo_inurba_marseille","lat":43.284774,"lon":5.384221,"is_reserved":false,"is_disabled":false,"rental_uris":{"android":"levelo://app?vid=7263ec53-2f0d-4a95-a3f3-91e07271074c","ios":"levelo://app?vid=7263ec53-2f0d-4a95-a3f3-91e07271074c"},"vehicle_type_id":"4","last_reported":1747103790,"current_range_meters":9600,"station_id":"ce4bh512rcd13ifvqe3g","pricing_plan_id":"cebpf4jnsgd1na2vs0mg"},{"bike_id":"09667552-604c-472f-b05c-2be0e1fd2bf4","system_id":"levelo_inurba_marseille","lat":43.280361,"lon":5.369425,"is_reserved":false,"is_disabled":false,"rental_uris":{"android":"levelo://app?vid=09667552-604c-472f-b05c-2be0e1fd2bf4","ios":"levelo://app?vid=09667552-604c-472f-b05c-2be0e1fd2bf4"},"vehicle_type_id":"4","last_reported":1747103790,"current_range_meters":9600,"station_id":"ce4bha12rcd13ifvqef0","pricing_plan_id":"cebpf4jnsgd1na2vs0mg"},{"bike_id":"84daf3e2-01ed-48ee-8b76-11525731e098","system_id":"levelo_inurba_marseille","lat":43.313245,"lon":5.39691,"is_reserved":false,"is_disabled":false,"rental_uris":{"android":"levelo://app?vid=84daf3e2-01ed-48ee-8b76-11525731e098","ios":"levelo://app?vid=84daf3e2-01ed-48ee-8b76-11525731e098"},"vehicle_type_id":"4","last_reported":1747103790,"current_range_meters":10000,"station_id":"ce4bgvp2rcd13ifvqcu0","pricing_plan_id":"cebpf4jnsgd1na2vs0mg"},{"bike_id":"05617d14-03fb-41f1-810f-0dc29b93dde8","system_id":"levelo_inurba_marseille","lat":43.279527,"lon":5.386937,"is_reserved":false,"is_disabled":false,"rental_uris":{"android":"levelo://app?vid=05617d14-03fb-41f1-810f-0dc29b93dde8","ios":"levelo://app?vid=05617d14-03fb-41f1-810f-0dc29b93dde8"},"vehicle_type_id":"4","last_reported":1747103790,"current_range_meters":10000,"station_id":"ce4bhg12rcd13ifvqf80","pricing_plan_id":"cebpf4jnsgd1na2vs0mg"},{"bike_id":"f93d7148-cc3e-4f2f-a6f4-5ba6d803042d","system_id":"levelo_inurba_marseille","lat":43.27974,"lon":5.38752,"is_reserved":false,"is_disabled":false,"rental_uris":{"android":"levelo://app?vid=f93d7148-cc3e-4f2f-a6f4-5ba6d803042d","ios":"levelo://app?vid=f93d7148-cc3e-4f2f-a6f4-5ba6d803042d"},"vehicle_type_id":"4","last_reported":1747103790,"current_range_meters":10000,"station_id":"ce4bhg12rcd13ifvqf80","pricing_plan_id":"cebpf4jnsgd1na2vs0mg"},{"bike_id":"8f22a717-4ce8-42f7-9922-ecd69d0f4e5e","system_id":"levelo_inurba_marseille","lat":43.2925,"lon":5.40918,"is_reserved":false,"is_disabled":false,"rental_uris":{"android":"levelo://app?vid=8f22a717-4ce8-42f7-9922-ecd69d0f4e5e","ios":"levelo://app?vid=8f22a717-4ce8-42f7-9922-ecd69d0f4e5e"},"vehicle_type_id":"4","last_reported":1747103790,"current_range_meters":10000,"station_id":"ce4bh192rcd13ifvqdc0","pricing_plan_id":"cebpf4jnsgd1na2vs0mg"},{"bike_id":"480977bd-d894-40ad-9026-4ea290dc9528","system_id":"levelo_inurba_marseille","lat":43.241654,"lon":5.364051,"is_reserved":false,"is_disabled":false,"rental_uris":{"android":"levelo://app?vid=480977bd-d894-40ad-9026-4ea290dc9528","ios":"levelo://app?vid=480977bd-d894-40ad-9026-4ea290dc9528"},"vehicle_type_id":"4","last_reported":1747103790,"current_range_meters":10800,"station_id":"cpo36qri1sfpv3e86is0","pricing_plan_id":"cebpf4jnsgd1na2vs0mg"},{"bike_id":"514b5930-0fdf-4acd-bbcd-af58d719758f","system_id":"levelo_inurba_marseille","lat":43.341465,"lon":5.409113,"is_reserved":false,"is_disabled":true,"rental_uris":{"android":"levelo://app?vid=514b5930-0fdf-4acd-bbcd-af58d719758f","ios":"levelo://app?vid=514b5930-0fdf-4acd-bbcd-af58d719758f"},"vehicle_type_id":"4","last_reported":1747103790,"current_range_meters":10800,"station_id":"ce4bhqh2rcd13ifvqhlg","pricing_plan_id":"cebpf4jnsgd1na2vs0mg"},{"bike_id":"de2e4e22-ea1a-40b8-addf-31f6ff1ae52a","system_id":"levelo_inurba_marseille","lat":43.316921,"lon":5.40473,"is_reserved":false,"is_disabled":false,"rental_uris":{"android":"levelo://app?vid=de2e4e22-ea1a-40b8-addf-31f6ff1ae52a","ios":"levelo://app?vid=de2e4e22-ea1a-40b8-addf-31f6ff1ae52a"},"vehicle_type_id":"4","last_reported":1747103790,"current_range_meters":10800,"station_id":"ce4bh012rcd13ifvqd00","pricing_plan_id":"cebpf4jnsgd1na2vs0mg"},{"bike_id":"e1c208dc-7760-4d8d-9fd5-b750855aff8a","system_id":"levelo_inurba_marseille","lat":43.30921,"lon":5.401468,"is_reserved":false,"is_disabled":false,"rental_uris":{"android":"levelo://app?vid=e1c208dc-7760-4d8d-9fd5-b750855aff8a","ios":"levelo://app?vid=e1c208dc-7760-4d8d-9fd5-b750855aff8a"},"vehicle_type_id":"4","last_reported":1747103790,"current_range_meters":10800,"station_id":"ce4bgvp2rcd13ifvqct0","pricing_plan_id":"cebpf4jnsgd1na2vs0mg"},{"bike_id":"1c6eb6d7-18a7-475f-bf1d-bf448cfe2c5d","system_id":"levelo_inurba_marseille","lat":43.279171,"lon":5.395802,"is_reserved":false,"is_disabled":false,"rental_uris":{"android":"levelo://app?vid=1c6eb6d7-18a7-475f-bf1d-bf448cfe2c5d","ios":"levelo://app?vid=1c6eb6d7-18a7-475f-bf1d-bf448cfe2c5d"},"vehicle_type_id":"4","last_reported":1747103790,"current_range_meters":10800,"station_id":"ce4bhf92rcd13ifvqf40","pricing_plan_id":"cebpf4jnsgd1na2vs0mg"},{"bike_id":"779f5c3b-06ef-48f1-897e-15c00ef24199","system_id":"levelo_inurba_marseille","lat":43.280776,"lon":5.396446,"is_reserved":false,"is_disabled":false,"rental_uris":{"android":"levelo://app?vid=779f5c3b-06ef-48f1-897e-15c00ef24199","ios":"levelo://app?vid=779f5c3b-06ef-48f1-897e-15c00ef24199"},"vehicle_type_id":"4","last_reported":1747103790,"current_range_meters":10800,"station_id":"ce4bho12rcd13ifvqh2g","pricing_plan_id":"cebpf4jnsgd1na2vs0mg"},{"bike_id":"c87ad494-e1b6-4f9f-b251-de412ee48149","system_id":"levelo_inurba_marseille","lat":43.281564,"lon":5.426429,"is_reserved":false,"is_disabled":false,"rental_uris":{"android":"levelo://app?vid=c87ad494-e1b6-4f9f-b251-de412ee48149","ios":"levelo://app?vid=c87ad494-e1b6-4f9f-b251-de412ee48149"},"vehicle_type_id":"4","last_reported":1747103790,"current_range_meters":11200,"station_id":"ce4bhnh2rcd13ifvqgug","pricing_plan_id":"cebpf4jnsgd1na2vs0mg"},{"bike_id":"3d8eff64-3568-4b32-b8e0-e6710e6b904b","system_id":"levelo_inurba_marseille","lat":43.330747,"lon":5.40822,"is_reserved":false,"is_disabled":false,"rental_uris":{"android":"levelo://app?vid=3d8eff64-3568-4b32-b8e0-e6710e6b904b","ios":"levelo://app?vid=3d8eff64-3568-4b32-b8e0-e6710e6b904b"},"vehicle_type_id":"4","last_reported":1747103790,"current_range_meters":11200,"station_id":"","pricing_plan_id":"cebpf4jnsgd1na2vs0mg"},{"bike_id":"65842b62-6dfe-4b9d-b0b7-9c58aa824100","system_id":"levelo_inurba_marseille","lat":43.27567,"lon":5.3842,"is_reserved":false,"is_disabled":false,"rental_uris":{"android":"levelo://app?vid=65842b62-6dfe-4b9d-b0b7-9c58aa824100","ios":"levelo://app?vid=65842b62-6dfe-4b9d-b0b7-9c58aa824100"},"vehicle_type_id":"4","last_reported":1747103790,"current_range_meters":11200,"station_id":"ce4bhh92rcd13ifvqfi0","pricing_plan_id":"cebpf4jnsgd1na2vs0mg"},{"bike_id":"37947ea2-4144-498b-9773-6d6e7497365c","system_id":"levelo_inurba_marseille","lat":43.314804,"lon":5.37321,"is_reserved":false,"is_disabled":false,"rental_uris":{"android":"levelo://app?vid=37947ea2-4144-498b-9773-6d6e7497365c","ios":"levelo://app?vid=37947ea2-4144-498b-9773-6d6e7497365c"},"vehicle_type_id":"4","last_reported":1747103790,"current_range_meters":11200,"station_id":"ce4bgt12rcd13ifvqcd0","pricing_plan_id":"cebpf4jnsgd1na2vs0mg"},{"bike_id":"0e89a721-196d-4572-b905-e39e1dafff7a","system_id":"levelo_inurba_marseille","lat":43.321085,"lon":5.367744,"is_reserved":false,"is_disabled":false,"rental_uris":{"android":"levelo://app?vid=0e89a721-196d-4572-b905-e39e1dafff7a","ios":"levelo://app?vid=0e89a721-196d-4572-b905-e39e1dafff7a"},"vehicle_type_id":"4","last_reported":1747103790,"current_range_meters":11200,"station_id":"ce4bhrh2rcd13ifvqhug","pricing_plan_id":"cebpf4jnsgd1na2vs0mg"},{"bike_id":"c45660a4-2a75-4fe5-babc-ce5f32b31b47","system_id":"levelo_inurba_marseille","lat":43.309295,"lon":5.401485,"is_reserved":false,"is_disabled":false,"rental_uris":{"android":"levelo://app?vid=c45660a4-2a75-4fe5-babc-ce5f32b31b47","ios":"levelo://app?vid=c45660a4-2a75-4fe5-babc-ce5f32b31b47"},"vehicle_type_id":"4","last_reported":1747103790,"current_range_meters":11200,"station_id":"ce4bgvp2rcd13ifvqct0","pricing_plan_id":"cebpf4jnsgd1na2vs0mg"},{"bike_id":"855e05e9-a0e5-426c-b2ce-3b3fc636f06b","system_id":"levelo_inurba_marseille","lat":43.2511,"lon":5.40359,"is_reserved":false,"is_disabled":false,"rental_uris":{"android":"levelo://app?vid=855e05e9-a0e5-426c-b2ce-3b3fc636f06b","ios":"levelo://app?vid=855e05e9-a0e5-426c-b2ce-3b3fc636f06b"},"vehicle_type_id":"4","last_reported":1747103790,"current_range_meters":11600,"station_id":"ce4bhlh2rcd13ifvqgig","pricing_plan_id":"cebpf4jnsgd1na2vs0mg"},{"bike_id":"b95a3da1-d84f-4349-bc15-21030c7174b6","system_id":"levelo_inurba_marseille","lat":43.29273,"lon":5.401266,"is_reserved":false,"is_disabled":false,"rental_uris":{"android":"levelo://app?vid=b95a3da1-d84f-4349-bc15-21030c7174b6","ios":"levelo://app?vid=b95a3da1-d84f-4349-bc15-21030c7174b6"},"vehicle_type_id":"4","last_reported":1747103790,"current_range_meters":11600,"station_id":"ce4bh312rcd13ifvqdk0","pricing_plan_id":"cebpf4jnsgd1na2vs0mg"},{"bike_id":"ac3030fa-1740-4828-ad83-daded8929ecc","system_id":"levelo_inurba_marseille","lat":43.255153,"lon":5.40092,"is_reserved":false,"is_disabled":false,"rental_uris":{"android":"levelo://app?vid=ac3030fa-1740-4828-ad83-daded8929ecc","ios":"levelo://app?vid=ac3030fa-1740-4828-ad83-daded8929ecc"},"vehicle_type_id":"4","last_reported":1747103790,"current_range_meters":11600,"station_id":"","pricing_plan_id":"cebpf4jnsgd1na2vs0mg"},{"bike_id":"9b58c434-4f3b-4687-a714-9c8986208408","system_id":"levelo_inurba_marseille","lat":43.279155,"lon":5.395773,"is_reserved":false,"is_disabled":false,"rental_uris":{"android":"levelo://app?vid=9b58c434-4f3b-4687-a714-9c8986208408","ios":"levelo://app?vid=9b58c434-4f3b-4687-a714-9c8986208408"},"vehicle_type_id":"4","last_reported":1747103790,"current_range_meters":11600,"station_id":"ce4bhf92rcd13ifvqf40","pricing_plan_id":"cebpf4jnsgd1na2vs0mg"},{"bike_id":"4acebf5d-90de-4f34-bd54-e2958ed913ff","system_id":"levelo_inurba_marseille","lat":43.292813,"lon":5.401276,"is_reserved":false,"is_disabled":false,"rental_uris":{"android":"levelo://app?vid=4acebf5d-90de-4f34-bd54-e2958ed913ff","ios":"levelo://app?vid=4acebf5d-90de-4f34-bd54-e2958ed913ff"},"vehicle_type_id":"4","last_reported":1747103790,"current_range_meters":11600,"station_id":"ce4bh312rcd13ifvqdk0","pricing_plan_id":"cebpf4jnsgd1na2vs0mg"},{"bike_id":"5de1e8df-cec1-47cf-b554-41f6e726d337","system_id":"levelo_inurba_marseille","lat":43.274165,"lon":5.406085,"is_reserved":false,"is_disabled":false,"rental_uris":{"android":"levelo://app?vid=5de1e8df-cec1-47cf-b554-41f6e726d337","ios":"levelo://app?vid=5de1e8df-cec1-47cf-b554-41f6e726d337"},"vehicle_type_id":"4","last_reported":1747103790,"current_range_meters":11600,"station_id":"","pricing_plan_id":"cebpf4jnsgd1na2vs0mg"},{"bike_id":"315c9aa5-cd9f-4a60-8ba2-a8f8830c3824","system_id":"levelo_inurba_marseille","lat":43.323441,"lon":5.406159,"is_reserved":false,"is_disabled":false,"rental_uris":{"android":"levelo://app?vid=315c9aa5-cd9f-4a60-8ba2-a8f8830c3824","ios":"levelo://app?vid=315c9aa5-cd9f-4a60-8ba2-a8f8830c3824"},"vehicle_type_id":"4","last_reported":1747103790,"current_range_meters":12000,"station_id":"ce4bhq92rcd13ifvqhjg","pricing_plan_id":"cebpf4jnsgd1na2vs0mg"},{"bike_id":"d9b91c76-9420-4248-9ccc-54ae67080ef3","system_id":"levelo_inurba_marseille","lat":43.310662,"lon":5.383506,"is_reserved":false,"is_disabled":false,"rental_uris":{"android":"levelo://app?vid=d9b91c76-9420-4248-9ccc-54ae67080ef3","ios":"levelo://app?vid=d9b91c76-9420-4248-9ccc-54ae67080ef3"},"vehicle_type_id":"4","last_reported":1747103790,"current_range_meters":12000,"station_id":"ce4bgv92rcd13ifvqcr0","pricing_plan_id":"cebpf4jnsgd1na2vs0mg"},{"bike_id":"759e649a-2376-4211-85aa-2535ec6f8982","system_id":"levelo_inurba_marseille","lat":43.29252,"lon":5.40887,"is_reserved":false,"is_disabled":false,"rental_uris":{"android":"levelo://app?vid=759e649a-2376-4211-85aa-2535ec6f8982","ios":"levelo://app?vid=759e649a-2376-4211-85aa-2535ec6f8982"},"vehicle_type_id":"4","last_reported":1747103790,"current_range_meters":12000,"station_id":"ce4bh192rcd13ifvqdc0","pricing_plan_id":"cebpf4jnsgd1na2vs0mg"},{"bike_id":"a07af238-1d5a-492e-88df-35771675e17b","system_id":"levelo_inurba_marseille","lat":43.28717,"lon":5.37374,"is_reserved":false,"is_disabled":false,"rental_uris":{"android":"levelo://app?vid=a07af238-1d5a-492e-88df-35771675e17b","ios":"levelo://app?vid=a07af238-1d5a-492e-88df-35771675e17b"},"vehicle_type_id":"4","last_reported":1747103790,"current_range_meters":12000,"station_id":"ce4bh3p2rcd13ifvqdq0","pricing_plan_id":"cebpf4jnsgd1na2vs0mg"},{"bike_id":"41da10f9-c4df-4a4d-81d7-007f46c00b73","system_id":"levelo_inurba_marseille","lat":43.23186,"lon":5.39973,"is_reserved":false,"is_disabled":false,"rental_uris":{"android":"levelo://app?vid=41da10f9-c4df-4a4d-81d7-007f46c00b73","ios":"levelo://app?vid=41da10f9-c4df-4a4d-81d7-007f46c00b73"},"vehicle_type_id":"4","last_reported":1747103790,"current_range_meters":12000,"station_id":"ce4bhn12rcd13ifvqgqg","pricing_plan_id":"cebpf4jnsgd1na2vs0mg"},{"bike_id":"198d6fcd-54b0-4522-a846-5bc9669dd62a","system_id":"levelo_inurba_marseille","lat":43.313614,"lon":5.384917,"is_reserved":false,"is_disabled":false,"rental_uris":{"android":"levelo://app?vid=198d6fcd-54b0-4522-a846-5bc9669dd62a","ios":"levelo://app?vid=198d6fcd-54b0-4522-a846-5bc9669dd62a"},"vehicle_type_id":"4","last_reported":1747103790,"current_range_meters":12400,"station_id":"ce4bgt92rcd13ifvqcf0","pricing_plan_id":"cebpf4jnsgd1na2vs0mg"},{"bike_id":"4d55bf7d-239f-41dc-917f-ddce35592326","system_id":"levelo_inurba_marseille","lat":43.30581,"lon":5.393576,"is_reserved":false,"is_disabled":false,"rental_uris":{"android":"levelo://app?vid=4d55bf7d-239f-41dc-917f-ddce35592326","ios":"levelo://app?vid=4d55bf7d-239f-41dc-917f-ddce35592326"},"vehicle_type_id":"4","last_reported":1747103790,"current_range_meters":12400,"station_id":"","pricing_plan_id":"cebpf4jnsgd1na2vs0mg"},{"bike_id":"bb092f13-3c25-4c75-9364-d848fa2cf322","system_id":"levelo_inurba_marseille","lat":43.310739,"lon":5.383492,"is_reserved":false,"is_disabled":false,"rental_uris":{"android":"levelo://app?vid=bb092f13-3c25-4c75-9364-d848fa2cf322","ios":"levelo://app?vid=bb092f13-3c25-4c75-9364-d848fa2cf322"},"vehicle_type_id":"4","last_reported":1747103790,"current_range_meters":12800,"station_id":"ce4bgv92rcd13ifvqcr0","pricing_plan_id":"cebpf4jnsgd1na2vs0mg"},{"bike_id":"354f0639-e2ee-49bc-b649-f0d89cf9efb0","system_id":"levelo_inurba_marseille","lat":43.324849,"lon":5.365739,"is_reserved":false,"is_disabled":true,"rental_uris":{"android":"levelo://app?vid=354f0639-e2ee-49bc-b649-f0d89cf9efb0","ios":"levelo://app?vid=354f0639-e2ee-49bc-b649-f0d89cf9efb0"},"vehicle_type_id":"4","last_reported":1747103790,"current_range_meters":12800,"station_id":"ce4bhs12rcd13ifvqhvg","pricing_plan_id":"cebpf4jnsgd1na2vs0mg"},{"bike_id":"c860cf20-2d6d-4124-bd93-cf59a1e3f8b8","system_id":"levelo_inurba_marseille","lat":43.26544,"lon":5.3733,"is_reserved":false,"is_disabled":false,"rental_uris":{"android":"levelo://app?vid=c860cf20-2d6d-4124-bd93-cf59a1e3f8b8","ios":"levelo://app?vid=c860cf20-2d6d-4124-bd93-cf59a1e3f8b8"},"vehicle_type_id":"4","last_reported":1747103790,"current_range_meters":12800,"station_id":"ce4bhg12rcd13ifvqf70","pricing_plan_id":"cebpf4jnsgd1na2vs0mg"},{"bike_id":"82a2983a-aad6-4341-9119-63bff39dd4f7","system_id":"levelo_inurba_marseille","lat":43.23188,"lon":5.39976,"is_reserved":false,"is_disabled":false,"rental_uris":{"android":"levelo://app?vid=82a2983a-aad6-4341-9119-63bff39dd4f7","ios":"levelo://app?vid=82a2983a-aad6-4341-9119-63bff39dd4f7"},"vehicle_type_id":"4","last_reported":1747103790,"current_range_meters":13600,"station_id":"ce4bhn12rcd13ifvqgqg","pricing_plan_id":"cebpf4jnsgd1na2vs0mg"},{"bike_id":"32972ee3-c0c1-46d9-be86-9fe1b5e515c9","system_id":"levelo_inurba_marseille","lat":43.278975,"lon":5.379993,"is_reserved":false,"is_disabled":false,"rental_uris":{"android":"levelo://app?vid=32972ee3-c0c1-46d9-be86-9fe1b5e515c9","ios":"levelo://app?vid=32972ee3-c0c1-46d9-be86-9fe1b5e515c9"},"vehicle_type_id":"4","last_reported":1747103790,"current_range_meters":14000,"station_id":"ce4bhf92rcd13ifvqf50","pricing_plan_id":"cebpf4jnsgd1na2vs0mg"},{"bike_id":"de95d53c-a8d8-42e2-bf5c-cb50d31548c5","system_id":"levelo_inurba_marseille","lat":43.28106,"lon":5.37829,"is_reserved":false,"is_disabled":false,"rental_uris":{"android":"levelo://app?vid=de95d53c-a8d8-42e2-bf5c-cb50d31548c5","ios":"levelo://app?vid=de95d53c-a8d8-42e2-bf5c-cb50d31548c5"},"vehicle_type_id":"4","last_reported":1747103790,"current_range_meters":14000,"station_id":"ce4bha12rcd13ifvqee0","pricing_plan_id":"cebpf4jnsgd1na2vs0mg"},{"bike_id":"ed82de67-f99c-423e-a19e-5a8396700ec6","system_id":"levelo_inurba_marseille","lat":43.306569,"lon":5.400851,"is_reserved":false,"is_disabled":false,"rental_uris":{"android":"levelo://app?vid=ed82de67-f99c-423e-a19e-5a8396700ec6","ios":"levelo://app?vid=ed82de67-f99c-423e-a19e-5a8396700ec6"},"vehicle_type_id":"4","last_reported":1747103790,"current_range_meters":14000,"station_id":"ce4bh112rcd13ifvqda0","pricing_plan_id":"cebpf4jnsgd1na2vs0mg"},{"bike_id":"ac001682-4a7a-4388-94d8-65693d64511f","system_id":"levelo_inurba_marseille","lat":43.316942,"lon":5.404699,"is_reserved":false,"is_disabled":false,"rental_uris":{"android":"levelo://app?vid=ac001682-4a7a-4388-94d8-65693d64511f","ios":"levelo://app?vid=ac001682-4a7a-4388-94d8-65693d64511f"},"vehicle_type_id":"4","last_reported":1747103790,"current_range_meters":14000,"station_id":"ce4bh012rcd13ifvqd00","pricing_plan_id":"cebpf4jnsgd1na2vs0mg"},{"bike_id":"dc8472a8-1e0e-48c9-8d42-8e60b4ffb2cb","system_id":"levelo_inurba_marseille","lat":43.28665,"lon":5.36357,"is_reserved":false,"is_disabled":false,"rental_uris":{"android":"levelo://app?vid=dc8472a8-1e0e-48c9-8d42-8e60b4ffb2cb","ios":"levelo://app?vid=dc8472a8-1e0e-48c9-8d42-8e60b4ffb2cb"},"vehicle_type_id":"4","last_reported":1747103790,"current_range_meters":14000,"station_id":"ce4bhah2rcd13ifvqej0","pricing_plan_id":"cebpf4jnsgd1na2vs0mg"},{"bike_id":"25c7fd20-a32b-4a5c-b3c2-a6332984f86b","system_id":"levelo_inurba_marseille","lat":43.240679,"lon":5.377569,"is_reserved":false,"is_disabled":false,"rental_uris":{"android":"levelo://app?vid=25c7fd20-a32b-4a5c-b3c2-a6332984f86b","ios":"levelo://app?vid=25c7fd20-a32b-4a5c-b3c2-a6332984f86b"},"vehicle_type_id":"4","last_reported":1747103790,"current_range_meters":14000,"station_id":"ce4bhnp2rcd13ifvqgvg","pricing_plan_id":"cebpf4jnsgd1na2vs0mg"},{"bike_id":"e6ad97f1-b73e-46fd-a80f-360ecb6587de","system_id":"levelo_inurba_marseille","lat":43.280004,"lon":5.400117,"is_reserved":false,"is_disabled":false,"rental_uris":{"android":"levelo://app?vid=e6ad97f1-b73e-46fd-a80f-360ecb6587de","ios":"levelo://app?vid=e6ad97f1-b73e-46fd-a80f-360ecb6587de"},"vehicle_type_id":"4","last_reported":1747103790,"current_range_meters":14000,"station_id":"ce4bho92rcd13ifvqh4g","pricing_plan_id":"cebpf4jnsgd1na2vs0mg"},{"bike_id":"f702f1f1-baff-4710-b092-d4b131f8acb6","system_id":"levelo_inurba_marseille","lat":43.303749,"lon":5.424843,"is_reserved":false,"is_disabled":false,"rental_uris":{"android":"levelo://app?vid=f702f1f1-baff-4710-b092-d4b131f8acb6","ios":"levelo://app?vid=f702f1f1-baff-4710-b092-d4b131f8acb6"},"vehicle_type_id":"4","last_reported":1747103790,"current_range_meters":14400,"station_id":"ce4bhoh2rcd13ifvqh6g","pricing_plan_id":"cebpf4jnsgd1na2vs0mg"},{"bike_id":"e8df05ea-9d41-44ac-8a3f-146c6d975e87","system_id":"levelo_inurba_marseille","lat":43.279161,"lon":5.395726,"is_reserved":false,"is_disabled":false,"rental_uris":{"android":"levelo://app?vid=e8df05ea-9d41-44ac-8a3f-146c6d975e87","ios":"levelo://app?vid=e8df05ea-9d41-44ac-8a3f-146c6d975e87"},"vehicle_type_id":"4","last_reported":1747103790,"current_range_meters":14400,"station_id":"ce4bhf92rcd13ifvqf40","pricing_plan_id":"cebpf4jnsgd1na2vs0mg"},{"bike_id":"da5f26e6-a027-4050-96fd-49f051e3cf65","system_id":"levelo_inurba_marseille","lat":43.286983,"lon":5.373971,"is_reserved":false,"is_disabled":false,"rental_uris":{"android":"levelo://app?vid=da5f26e6-a027-4050-96fd-49f051e3cf65","ios":"levelo://app?vid=da5f26e6-a027-4050-96fd-49f051e3cf65"},"vehicle_type_id":"4","last_reported":1747103790,"current_range_meters":14400,"station_id":"ce4bh3p2rcd13ifvqdq0","pricing_plan_id":"cebpf4jnsgd1na2vs0mg"},{"bike_id":"556e7d69-5d47-4a34-9e72-f2f8167566e6","system_id":"levelo_inurba_marseille","lat":43.30119,"lon":5.38786,"is_reserved":false,"is_disabled":true,"rental_uris":{"android":"levelo://app?vid=556e7d69-5d47-4a34-9e72-f2f8167566e6","ios":"levelo://app?vid=556e7d69-5d47-4a34-9e72-f2f8167566e6"},"vehicle_type_id":"4","last_reported":1747103790,"current_range_meters":14800,"station_id":"ce4bghh2rcd13ifvqb60","pricing_plan_id":"cebpf4jnsgd1na2vs0mg"},{"bike_id":"50d41a93-a4d0-45e4-a910-408ae21130bd","system_id":"levelo_inurba_marseille","lat":43.29519,"lon":5.39403,"is_reserved":false,"is_disabled":false,"rental_uris":{"android":"levelo://app?vid=50d41a93-a4d0-45e4-a910-408ae21130bd","ios":"levelo://app?vid=50d41a93-a4d0-45e4-a910-408ae21130bd"},"vehicle_type_id":"4","last_reported":1747103790,"current_range_meters":15200,"station_id":"ce4bh292rcd13ifvqdf0","pricing_plan_id":"cebpf4jnsgd1na2vs0mg"},{"bike_id":"42557dae-bbe0-42c6-8015-b1021735213b","system_id":"levelo_inurba_marseille","lat":43.284617,"lon":5.358891,"is_reserved":false,"is_disabled":true,"rental_uris":{"android":"levelo://app?vid=42557dae-bbe0-42c6-8015-b1021735213b","ios":"levelo://app?vid=42557dae-bbe0-42c6-8015-b1021735213b"},"vehicle_type_id":"4","last_reported":1747103790,"current_range_meters":15200,"station_id":"ce4bhah2rcd13ifvqei0","pricing_plan_id":"cebpf4jnsgd1na2vs0mg"},{"bike_id":"a8d98450-92cc-44d0-b272-436af46aa0f9","system_id":"levelo_inurba_marseille","lat":43.29431,"lon":5.38549,"is_reserved":false,"is_disabled":true,"rental_uris":{"android":"levelo://app?vid=a8d98450-92cc-44d0-b272-436af46aa0f9","ios":"levelo://app?vid=a8d98450-92cc-44d0-b272-436af46aa0f9"},"vehicle_type_id":"4","last_reported":1747103790,"current_range_meters":15200,"station_id":"","pricing_plan_id":"cebpf4jnsgd1na2vs0mg"},{"bike_id":"60cfea43-65dd-49c5-be74-cbe13c14c76d","system_id":"levelo_inurba_marseille","lat":43.284596,"lon":5.358824,"is_reserved":false,"is_disabled":false,"rental_uris":{"android":"levelo://app?vid=60cfea43-65dd-49c5-be74-cbe13c14c76d","ios":"levelo://app?vid=60cfea43-65dd-49c5-be74-cbe13c14c76d"},"vehicle_type_id":"4","last_reported":1747103790,"current_range_meters":15200,"station_id":"ce4bhah2rcd13ifvqei0","pricing_plan_id":"cebpf4jnsgd1na2vs0mg"},{"bike_id":"817270a4-9a01-4414-b690-0ea4101d3373","system_id":"levelo_inurba_marseille","lat":43.30378,"lon":5.42481,"is_reserved":false,"is_disabled":false,"rental_uris":{"android":"levelo://app?vid=817270a4-9a01-4414-b690-0ea4101d3373","ios":"levelo://app?vid=817270a4-9a01-4414-b690-0ea4101d3373"},"vehicle_type_id":"4","last_reported":1747103790,"current_range_meters":16000,"station_id":"ce4bhoh2rcd13ifvqh6g","pricing_plan_id":"cebpf4jnsgd1na2vs0mg"},{"bike_id":"d8627b0b-c071-458d-b087-deed91cba0d3","system_id":"levelo_inurba_marseille","lat":43.309313,"lon":5.401438,"is_reserved":false,"is_disabled":false,"rental_uris":{"android":"levelo://app?vid=d8627b0b-c071-458d-b087-deed91cba0d3","ios":"levelo://app?vid=d8627b0b-c071-458d-b087-deed91cba0d3"},"vehicle_type_id":"4","last_reported":1747103790,"current_range_meters":16000,"station_id":"ce4bgvp2rcd13ifvqct0","pricing_plan_id":"cebpf4jnsgd1na2vs0mg"},{"bike_id":"386d5dbf-2a14-4801-8ee7-a8f50e4a87d8","system_id":"levelo_inurba_marseille","lat":43.217501,"lon":5.34604,"is_reserved":false,"is_disabled":false,"rental_uris":{"android":"levelo://app?vid=386d5dbf-2a14-4801-8ee7-a8f50e4a87d8","ios":"levelo://app?vid=386d5dbf-2a14-4801-8ee7-a8f50e4a87d8"},"vehicle_type_id":"4","last_reported":1747103790,"current_range_meters":16000,"station_id":"st_cvj6r9ubvosntc0bgbag","pricing_plan_id":"cebpf4jnsgd1na2vs0mg"},{"bike_id":"2fdc8039-2a91-416c-8148-d1e7c0df93ae","system_id":"levelo_inurba_marseille","lat":43.229233,"lon":5.353763,"is_reserved":false,"is_disabled":true,"rental_uris":{"android":"levelo://app?vid=2fdc8039-2a91-416c-8148-d1e7c0df93ae","ios":"levelo://app?vid=2fdc8039-2a91-416c-8148-d1e7c0df93ae"},"vehicle_type_id":"4","last_reported":1747103790,"current_range_meters":16000,"station_id":"cpo3532slgdg3j2ikp40","pricing_plan_id":"cebpf4jnsgd1na2vs0mg"},{"bike_id":"d91707b8-7a71-4f5b-ad0d-d1a6247b4ed5","system_id":"levelo_inurba_marseille","lat":43.292203,"lon":5.360684,"is_reserved":false,"is_disabled":false,"rental_uris":{"android":"levelo://app?vid=d91707b8-7a71-4f5b-ad0d-d1a6247b4ed5","ios":"levelo://app?vid=d91707b8-7a71-4f5b-ad0d-d1a6247b4ed5"},"vehicle_type_id":"4","last_reported":1747103790,"current_range_meters":16000,"station_id":"ce4bhbh2rcd13ifvqeqg","pricing_plan_id":"cebpf4jnsgd1na2vs0mg"},{"bike_id":"39dbaf81-bc49-42f6-96c5-50b162f92bd5","system_id":"levelo_inurba_marseille","lat":43.284542,"lon":5.358938,"is_reserved":false,"is_disabled":false,"rental_uris":{"android":"levelo://app?vid=39dbaf81-bc49-42f6-96c5-50b162f92bd5","ios":"levelo://app?vid=39dbaf81-bc49-42f6-96c5-50b162f92bd5"},"vehicle_type_id":"4","last_reported":1747103790,"current_range_meters":16000,"station_id":"ce4bhah2rcd13ifvqei0","pricing_plan_id":"cebpf4jnsgd1na2vs0mg"},{"bike_id":"df710665-948d-460f-9cb6-529d24517f44","system_id":"levelo_inurba_marseille","lat":43.29928,"lon":5.3654,"is_reserved":false,"is_disabled":false,"rental_uris":{"android":"levelo://app?vid=df710665-948d-460f-9cb6-529d24517f44","ios":"levelo://app?vid=df710665-948d-460f-9cb6-529d24517f44"},"vehicle_type_id":"4","last_reported":1747103790,"current_range_meters":16000,"station_id":"ce4bgm92rcd13ifvqbr0","pricing_plan_id":"cebpf4jnsgd1na2vs0mg"},{"bike_id":"ef0f891e-d6e3-4198-aa9f-2547ee9950fb","system_id":"levelo_inurba_marseille","lat":43.28153,"lon":5.42652,"is_reserved":false,"is_disabled":false,"rental_uris":{"android":"levelo://app?vid=ef0f891e-d6e3-4198-aa9f-2547ee9950fb","ios":"levelo://app?vid=ef0f891e-d6e3-4198-aa9f-2547ee9950fb"},"vehicle_type_id":"4","last_reported":1747103790,"current_range_meters":16000,"station_id":"ce4bhnh2rcd13ifvqgug","pricing_plan_id":"cebpf4jnsgd1na2vs0mg"},{"bike_id":"56804647-9200-40e3-b22d-163739b0e936","system_id":"levelo_inurba_marseille","lat":43.306451,"lon":5.400714,"is_reserved":false,"is_disabled":false,"rental_uris":{"android":"levelo://app?vid=56804647-9200-40e3-b22d-163739b0e936","ios":"levelo://app?vid=56804647-9200-40e3-b22d-163739b0e936"},"vehicle_type_id":"4","last_reported":1747103790,"current_range_meters":16400,"station_id":"ce4bh112rcd13ifvqda0","pricing_plan_id":"cebpf4jnsgd1na2vs0mg"},{"bike_id":"aaf1bb4b-f3d6-45cc-8e77-e5d0c945415a","system_id":"levelo_inurba_marseille","lat":43.262282,"lon":5.404528,"is_reserved":false,"is_disabled":false,"rental_uris":{"android":"levelo://app?vid=aaf1bb4b-f3d6-45cc-8e77-e5d0c945415a","ios":"levelo://app?vid=aaf1bb4b-f3d6-45cc-8e77-e5d0c945415a"},"vehicle_type_id":"4","last_reported":1747103790,"current_range_meters":16400,"station_id":"ce4bhmh2rcd13ifvqgmg","pricing_plan_id":"cebpf4jnsgd1na2vs0mg"},{"bike_id":"ef12a5ea-c05f-466b-b152-54518f397510","system_id":"levelo_inurba_marseille","lat":43.34138,"lon":5.40909,"is_reserved":false,"is_disabled":false,"rental_uris":{"android":"levelo://app?vid=ef12a5ea-c05f-466b-b152-54518f397510","ios":"levelo://app?vid=ef12a5ea-c05f-466b-b152-54518f397510"},"vehicle_type_id":"4","last_reported":1747103790,"current_range_meters":16400,"station_id":"ce4bhqh2rcd13ifvqhlg","pricing_plan_id":"cebpf4jnsgd1na2vs0mg"},{"bike_id":"49a975d3-8be0-49f2-b26a-3bee576a3c73","system_id":"levelo_inurba_marseille","lat":43.24671,"lon":5.38153,"is_reserved":false,"is_disabled":false,"rental_uris":{"android":"levelo://app?vid=49a975d3-8be0-49f2-b26a-3bee576a3c73","ios":"levelo://app?vid=49a975d3-8be0-49f2-b26a-3bee576a3c73"},"vehicle_type_id":"4","last_reported":1747103790,"current_range_meters":16400,"station_id":"ce4bhih2rcd13ifvqfr0","pricing_plan_id":"cebpf4jnsgd1na2vs0mg"},{"bike_id":"5ed6891a-4747-4680-a606-698f44b742e8","system_id":"levelo_inurba_marseille","lat":43.30647,"lon":5.400778,"is_reserved":false,"is_disabled":false,"rental_uris":{"android":"levelo://app?vid=5ed6891a-4747-4680-a606-698f44b742e8","ios":"levelo://app?vid=5ed6891a-4747-4680-a606-698f44b742e8"},"vehicle_type_id":"4","last_reported":1747103790,"current_range_meters":16400,"station_id":"ce4bh112rcd13ifvqda0","pricing_plan_id":"cebpf4jnsgd1na2vs0mg"},{"bike_id":"89d887b1-d582-4b90-b9fc-fda3c6c69da9","system_id":"levelo_inurba_marseille","lat":43.30143,"lon":5.3807,"is_reserved":false,"is_disabled":false,"rental_uris":{"android":"levelo://app?vid=89d887b1-d582-4b90-b9fc-fda3c6c69da9","ios":"levelo://app?vid=89d887b1-d582-4b90-b9fc-fda3c6c69da9"},"vehicle_type_id":"4","last_reported":1747103790,"current_range_meters":16800,"station_id":"ce4bgjp2rcd13ifvqbh0","pricing_plan_id":"cebpf4jnsgd1na2vs0mg"},{"bike_id":"7151ad20-2272-4422-ab03-9362e0c96575","system_id":"levelo_inurba_marseille","lat":43.28453,"lon":5.35893,"is_reserved":false,"is_disabled":false,"rental_uris":{"android":"levelo://app?vid=7151ad20-2272-4422-ab03-9362e0c96575","ios":"levelo://app?vid=7151ad20-2272-4422-ab03-9362e0c96575"},"vehicle_type_id":"4","last_reported":1747103790,"current_range_meters":16800,"station_id":"ce4bhah2rcd13ifvqei0","pricing_plan_id":"cebpf4jnsgd1na2vs0mg"},{"bike_id":"d9a784dc-2620-459d-afd5-260a793dcba9","system_id":"levelo_inurba_marseille","lat":43.30885,"lon":5.39625,"is_reserved":false,"is_disabled":false,"rental_uris":{"android":"levelo://app?vid=d9a784dc-2620-459d-afd5-260a793dcba9","ios":"levelo://app?vid=d9a784dc-2620-459d-afd5-260a793dcba9"},"vehicle_type_id":"4","last_reported":1747103790,"current_range_meters":16800,"station_id":"ce4bh012rcd13ifvqcv0","pricing_plan_id":"cebpf4jnsgd1na2vs0mg"},{"bike_id":"2006b892-9b4b-4ad3-b6e0-5f7c07aa8055","system_id":"levelo_inurba_marseille","lat":43.313231,"lon":5.397124,"is_reserved":false,"is_disabled":false,"rental_uris":{"android":"levelo://app?vid=2006b892-9b4b-4ad3-b6e0-5f7c07aa8055","ios":"levelo://app?vid=2006b892-9b4b-4ad3-b6e0-5f7c07aa8055"},"vehicle_type_id":"4","last_reported":1747103790,"current_range_meters":16800,"station_id":"ce4bgvp2rcd13ifvqcu0","pricing_plan_id":"cebpf4jnsgd1na2vs0mg"},{"bike_id":"f6974a9d-f445-4f9d-802d-62b54dcd3467","system_id":"levelo_inurba_marseille","lat":43.27915,"lon":5.3958,"is_reserved":false,"is_disabled":false,"rental_uris":{"android":"levelo://app?vid=f6974a9d-f445-4f9d-802d-62b54dcd3467","ios":"levelo://app?vid=f6974a9d-f445-4f9d-802d-62b54dcd3467"},"vehicle_type_id":"4","last_reported":1747103790,"current_range_meters":16800,"station_id":"ce4bhf92rcd13ifvqf40","pricing_plan_id":"cebpf4jnsgd1na2vs0mg"},{"bike_id":"0e123c4d-e8d0-4826-91b5-bc1bd261f062","system_id":"levelo_inurba_marseille","lat":43.292703,"lon":5.401247,"is_reserved":false,"is_disabled":true,"rental_uris":{"android":"levelo://app?vid=0e123c4d-e8d0-4826-91b5-bc1bd261f062","ios":"levelo://app?vid=0e123c4d-e8d0-4826-91b5-bc1bd261f062"},"vehicle_type_id":"4","last_reported":1747103790,"current_range_meters":16800,"station_id":"ce4bh312rcd13ifvqdk0","pricing_plan_id":"cebpf4jnsgd1na2vs0mg"},{"bike_id":"520f07fc-e2a5-442e-bcdc-caa8376efe3e","system_id":"levelo_inurba_marseille","lat":43.31681,"lon":5.40482,"is_reserved":false,"is_disabled":false,"rental_uris":{"android":"levelo://app?vid=520f07fc-e2a5-442e-bcdc-caa8376efe3e","ios":"levelo://app?vid=520f07fc-e2a5-442e-bcdc-caa8376efe3e"},"vehicle_type_id":"4","last_reported":1747103790,"current_range_meters":16800,"station_id":"ce4bh012rcd13ifvqd00","pricing_plan_id":"cebpf4jnsgd1na2vs0mg"},{"bike_id":"66029515-0d6b-45cb-83ec-911327deffa5","system_id":"levelo_inurba_marseille","lat":43.318804,"lon":5.407337,"is_reserved":false,"is_disabled":false,"rental_uris":{"android":"levelo://app?vid=66029515-0d6b-45cb-83ec-911327deffa5","ios":"levelo://app?vid=66029515-0d6b-45cb-83ec-911327deffa5"},"vehicle_type_id":"4","last_reported":1747103790,"current_range_meters":16800,"station_id":"ce4bhq12rcd13ifvqhig","pricing_plan_id":"cebpf4jnsgd1na2vs0mg"},{"bike_id":"849551c5-240b-48cd-88b2-3e23f9d3b406","system_id":"levelo_inurba_marseille","lat":43.284114,"lon":5.375123,"is_reserved":false,"is_disabled":false,"rental_uris":{"android":"levelo://app?vid=849551c5-240b-48cd-88b2-3e23f9d3b406","ios":"levelo://app?vid=849551c5-240b-48cd-88b2-3e23f9d3b406"},"vehicle_type_id":"4","last_reported":1747103790,"current_range_meters":17200,"station_id":"ce4bh412rcd13ifvqds0","pricing_plan_id":"cebpf4jnsgd1na2vs0mg"},{"bike_id":"9d352004-7b2c-43e3-9328-20e4f737c9c4","system_id":"levelo_inurba_marseille","lat":43.262294,"lon":5.404539,"is_reserved":false,"is_disabled":true,"rental_uris":{"android":"levelo://app?vid=9d352004-7b2c-43e3-9328-20e4f737c9c4","ios":"levelo://app?vid=9d352004-7b2c-43e3-9328-20e4f737c9c4"},"vehicle_type_id":"4","last_reported":1747103790,"current_range_meters":17200,"station_id":"","pricing_plan_id":"cebpf4jnsgd1na2vs0mg"},{"bike_id":"2064d8ad-c121-472c-a67d-5dfda4a122da","system_id":"levelo_inurba_marseille","lat":43.29571,"lon":5.37507,"is_reserved":false,"is_disabled":true,"rental_uris":{"android":"levelo://app?vid=2064d8ad-c121-472c-a67d-5dfda4a122da","ios":"levelo://app?vid=2064d8ad-c121-472c-a67d-5dfda4a122da"},"vehicle_type_id":"4","last_reported":1747103790,"current_range_meters":17200,"station_id":"ce4bgh92rcd13ifvqb50","pricing_plan_id":"cebpf4jnsgd1na2vs0mg"},{"bike_id":"79bb0198-c0e7-4a4d-971f-338c22111321","system_id":"levelo_inurba_marseille","lat":43.306416,"lon":5.400684,"is_reserved":false,"is_disabled":false,"rental_uris":{"android":"levelo://app?vid=79bb0198-c0e7-4a4d-971f-338c22111321","ios":"levelo://app?vid=79bb0198-c0e7-4a4d-971f-338c22111321"},"vehicle_type_id":"4","last_reported":1747103790,"current_range_meters":17600,"station_id":"ce4bh112rcd13ifvqda0","pricing_plan_id":"cebpf4jnsgd1na2vs0mg"},{"bike_id":"3f241b5b-2106-4780-a5ac-9c4c044fa6b7","system_id":"levelo_inurba_marseille","lat":43.292797,"lon":5.401249,"is_reserved":false,"is_disabled":false,"rental_uris":{"android":"levelo://app?vid=3f241b5b-2106-4780-a5ac-9c4c044fa6b7","ios":"levelo://app?vid=3f241b5b-2106-4780-a5ac-9c4c044fa6b7"},"vehicle_type_id":"4","last_reported":1747103790,"current_range_meters":17600,"station_id":"ce4bh312rcd13ifvqdk0","pricing_plan_id":"cebpf4jnsgd1na2vs0mg"},{"bike_id":"e2b7593a-dbbc-4a30-b5c1-ee286ff2c1a1","system_id":"levelo_inurba_marseille","lat":43.24677,"lon":5.38184,"is_reserved":false,"is_disabled":false,"rental_uris":{"android":"levelo://app?vid=e2b7593a-dbbc-4a30-b5c1-ee286ff2c1a1","ios":"levelo://app?vid=e2b7593a-dbbc-4a30-b5c1-ee286ff2c1a1"},"vehicle_type_id":"4","last_reported":1747103790,"current_range_meters":17600,"station_id":"ce4bhih2rcd13ifvqfr0","pricing_plan_id":"cebpf4jnsgd1na2vs0mg"},{"bike_id":"6612848c-309d-4d62-ac1d-f61c33129268","system_id":"levelo_inurba_marseille","lat":43.306429,"lon":5.400718,"is_reserved":false,"is_disabled":false,"rental_uris":{"android":"levelo://app?vid=6612848c-309d-4d62-ac1d-f61c33129268","ios":"levelo://app?vid=6612848c-309d-4d62-ac1d-f61c33129268"},"vehicle_type_id":"4","last_reported":1747103790,"current_range_meters":17600,"station_id":"ce4bh112rcd13ifvqda0","pricing_plan_id":"cebpf4jnsgd1na2vs0mg"},{"bike_id":"6447c765-0518-4251-ac58-5c51399d7270","system_id":"levelo_inurba_marseille","lat":43.2979,"lon":5.38094,"is_reserved":false,"is_disabled":false,"rental_uris":{"android":"levelo://app?vid=6447c765-0518-4251-ac58-5c51399d7270","ios":"levelo://app?vid=6447c765-0518-4251-ac58-5c51399d7270"},"vehicle_type_id":"4","last_reported":1747103790,"current_range_meters":17600,"station_id":"ce4bgip2rcd13ifvqbb0","pricing_plan_id":"cebpf4jnsgd1na2vs0mg"},{"bike_id":"ae2670a2-585e-4081-a3e0-8ca36e005485","system_id":"levelo_inurba_marseille","lat":43.240801,"lon":5.377449,"is_reserved":false,"is_disabled":false,"rental_uris":{"android":"levelo://app?vid=ae2670a2-585e-4081-a3e0-8ca36e005485","ios":"levelo://app?vid=ae2670a2-585e-4081-a3e0-8ca36e005485"},"vehicle_type_id":"4","last_reported":1747103790,"current_range_meters":17600,"station_id":"ce4bhnp2rcd13ifvqgvg","pricing_plan_id":"cebpf4jnsgd1na2vs0mg"},{"bike_id":"93ddefd7-b17e-4643-9c51-9ff2311d7114","system_id":"levelo_inurba_marseille","lat":43.309311,"lon":5.401444,"is_reserved":false,"is_disabled":false,"rental_uris":{"android":"levelo://app?vid=93ddefd7-b17e-4643-9c51-9ff2311d7114","ios":"levelo://app?vid=93ddefd7-b17e-4643-9c51-9ff2311d7114"},"vehicle_type_id":"4","last_reported":1747103790,"current_range_meters":17600,"station_id":"ce4bgvp2rcd13ifvqct0","pricing_plan_id":"cebpf4jnsgd1na2vs0mg"},{"bike_id":"2b02467a-5ffd-42c5-bd01-79712910f637","system_id":"levelo_inurba_marseille","lat":43.28142,"lon":5.42658,"is_reserved":false,"is_disabled":false,"rental_uris":{"android":"levelo://app?vid=2b02467a-5ffd-42c5-bd01-79712910f637","ios":"levelo://app?vid=2b02467a-5ffd-42c5-bd01-79712910f637"},"vehicle_type_id":"4","last_reported":1747103790,"current_range_meters":17600,"station_id":"ce4bhnh2rcd13ifvqgug","pricing_plan_id":"cebpf4jnsgd1na2vs0mg"},{"bike_id":"c898206a-f917-4a97-a896-23d0ca1417ca","system_id":"levelo_inurba_marseille","lat":43.31703,"lon":5.43711,"is_reserved":false,"is_disabled":false,"rental_uris":{"android":"levelo://app?vid=c898206a-f917-4a97-a896-23d0ca1417ca","ios":"levelo://app?vid=c898206a-f917-4a97-a896-23d0ca1417ca"},"vehicle_type_id":"4","last_reported":1747103790,"current_range_meters":18000,"station_id":"ce4bhp92rcd13ifvqhcg","pricing_plan_id":"cebpf4jnsgd1na2vs0mg"},{"bike_id":"39a6bd1f-7072-469f-8856-342cea40130d","system_id":"levelo_inurba_marseille","lat":43.246451,"lon":5.388963,"is_reserved":false,"is_disabled":false,"rental_uris":{"android":"levelo://app?vid=39a6bd1f-7072-469f-8856-342cea40130d","ios":"levelo://app?vid=39a6bd1f-7072-469f-8856-342cea40130d"},"vehicle_type_id":"4","last_reported":1747103790,"current_range_meters":18000,"station_id":"ce4bhg12rcd13ifvqf60","pricing_plan_id":"cebpf4jnsgd1na2vs0mg"},{"bike_id":"302b8f99-619b-481d-a346-4fb377ba7c79","system_id":"levelo_inurba_marseille","lat":43.31998,"lon":5.38159,"is_reserved":false,"is_disabled":false,"rental_uris":{"android":"levelo://app?vid=302b8f99-619b-481d-a346-4fb377ba7c79","ios":"levelo://app?vid=302b8f99-619b-481d-a346-4fb377ba7c79"},"vehicle_type_id":"4","last_reported":1747103790,"current_range_meters":18000,"station_id":"ce4bhr12rcd13ifvqhpg","pricing_plan_id":"cebpf4jnsgd1na2vs0mg"},{"bike_id":"e0809dbb-caf4-4db3-afc9-1a31c8833d65","system_id":"levelo_inurba_marseille","lat":43.27906,"lon":5.39588,"is_reserved":false,"is_disabled":false,"rental_uris":{"android":"levelo://app?vid=e0809dbb-caf4-4db3-afc9-1a31c8833d65","ios":"levelo://app?vid=e0809dbb-caf4-4db3-afc9-1a31c8833d65"},"vehicle_type_id":"4","last_reported":1747103790,"current_range_meters":18000,"station_id":"ce4bhf92rcd13ifvqf40","pricing_plan_id":"cebpf4jnsgd1na2vs0mg"},{"bike_id":"1095b252-790e-4155-ab4e-86136a24d6fc","system_id":"levelo_inurba_marseille","lat":43.28455,"lon":5.35895,"is_reserved":false,"is_disabled":false,"rental_uris":{"android":"levelo://app?vid=1095b252-790e-4155-ab4e-86136a24d6fc","ios":"levelo://app?vid=1095b252-790e-4155-ab4e-86136a24d6fc"},"vehicle_type_id":"4","last_reported":1747103790,"current_range_meters":18000,"station_id":"ce4bhah2rcd13ifvqei0","pricing_plan_id":"cebpf4jnsgd1na2vs0mg"},{"bike_id":"63fb28b9-258e-4580-8e31-1efaa0aeb238","system_id":"levelo_inurba_marseille","lat":43.280795,"lon":5.396498,"is_reserved":false,"is_disabled":false,"rental_uris":{"android":"levelo://app?vid=63fb28b9-258e-4580-8e31-1efaa0aeb238","ios":"levelo://app?vid=63fb28b9-258e-4580-8e31-1efaa0aeb238"},"vehicle_type_id":"4","last_reported":1747103790,"current_range_meters":18000,"station_id":"ce4bho12rcd13ifvqh2g","pricing_plan_id":"cebpf4jnsgd1na2vs0mg"},{"bike_id":"241a000d-cef4-427c-b5ef-e2f8e2d74bbb","system_id":"levelo_inurba_marseille","lat":43.286955,"lon":5.373943,"is_reserved":false,"is_disabled":false,"rental_uris":{"android":"levelo://app?vid=241a000d-cef4-427c-b5ef-e2f8e2d74bbb","ios":"levelo://app?vid=241a000d-cef4-427c-b5ef-e2f8e2d74bbb"},"vehicle_type_id":"4","last_reported":1747103790,"current_range_meters":18000,"station_id":"ce4bh3p2rcd13ifvqdq0","pricing_plan_id":"cebpf4jnsgd1na2vs0mg"},{"bike_id":"6eb0004f-6ee3-4804-97a0-f050ea148c7b","system_id":"levelo_inurba_marseille","lat":43.297915,"lon":5.393501,"is_reserved":false,"is_disabled":false,"rental_uris":{"android":"levelo://app?vid=6eb0004f-6ee3-4804-97a0-f050ea148c7b","ios":"levelo://app?vid=6eb0004f-6ee3-4804-97a0-f050ea148c7b"},"vehicle_type_id":"4","last_reported":1747103790,"current_range_meters":18800,"station_id":"chh1huq6cuj3fo74tm60","pricing_plan_id":"cebpf4jnsgd1na2vs0mg"},{"bike_id":"c1234833-9229-4e89-b9fe-8e9717a034dd","system_id":"levelo_inurba_marseille","lat":43.32362,"lon":5.38876,"is_reserved":false,"is_disabled":false,"rental_uris":{"android":"levelo://app?vid=c1234833-9229-4e89-b9fe-8e9717a034dd","ios":"levelo://app?vid=c1234833-9229-4e89-b9fe-8e9717a034dd"},"vehicle_type_id":"4","last_reported":1747103790,"current_range_meters":18800,"station_id":"ce4bhqp2rcd13ifvqhog","pricing_plan_id":"cebpf4jnsgd1na2vs0mg"},{"bike_id":"9d76660f-c284-49a2-8765-48337aa51471","system_id":"levelo_inurba_marseille","lat":43.321057,"lon":5.367754,"is_reserved":false,"is_disabled":false,"rental_uris":{"android":"levelo://app?vid=9d76660f-c284-49a2-8765-48337aa51471","ios":"levelo://app?vid=9d76660f-c284-49a2-8765-48337aa51471"},"vehicle_type_id":"4","last_reported":1747103790,"current_range_meters":18800,"station_id":"ce4bhrh2rcd13ifvqhug","pricing_plan_id":"cebpf4jnsgd1na2vs0mg"},{"bike_id":"039e0c3d-3862-4849-8b36-59dbcbfdd09f","system_id":"levelo_inurba_marseille","lat":43.303246,"lon":5.404338,"is_reserved":false,"is_disabled":false,"rental_uris":{"android":"levelo://app?vid=039e0c3d-3862-4849-8b36-59dbcbfdd09f","ios":"levelo://app?vid=039e0c3d-3862-4849-8b36-59dbcbfdd09f"},"vehicle_type_id":"4","last_reported":1747103790,"current_range_meters":18800,"station_id":"ce4bh012rcd13ifvqd10","pricing_plan_id":"cebpf4jnsgd1na2vs0mg"},{"bike_id":"d32141a3-bc2d-4773-a44e-5bf9a3ff868b","system_id":"levelo_inurba_marseille","lat":43.257235,"lon":5.411032,"is_reserved":false,"is_disabled":false,"rental_uris":{"android":"levelo://app?vid=d32141a3-bc2d-4773-a44e-5bf9a3ff868b","ios":"levelo://app?vid=d32141a3-bc2d-4773-a44e-5bf9a3ff868b"},"vehicle_type_id":"4","last_reported":1747103790,"current_range_meters":19200,"station_id":"ce4bhkp2rcd13ifvqgd0","pricing_plan_id":"cebpf4jnsgd1na2vs0mg"},{"bike_id":"0c893fb7-8626-4706-85bf-f404b871dea5","system_id":"levelo_inurba_marseille","lat":43.281262,"lon":5.44589,"is_reserved":false,"is_disabled":false,"rental_uris":{"android":"levelo://app?vid=0c893fb7-8626-4706-85bf-f404b871dea5","ios":"levelo://app?vid=0c893fb7-8626-4706-85bf-f404b871dea5"},"vehicle_type_id":"4","last_reported":1747103790,"current_range_meters":19200,"station_id":"","pricing_plan_id":"cebpf4jnsgd1na2vs0mg"},{"bike_id":"59bd68ff-a61f-444d-9496-d2f88e27ccd4","system_id":"levelo_inurba_marseille","lat":43.28665,"lon":5.40058,"is_reserved":false,"is_disabled":false,"rental_uris":{"android":"levelo://app?vid=59bd68ff-a61f-444d-9496-d2f88e27ccd4","ios":"levelo://app?vid=59bd68ff-a61f-444d-9496-d2f88e27ccd4"},"vehicle_type_id":"4","last_reported":1747103790,"current_range_meters":19200,"station_id":"","pricing_plan_id":"cebpf4jnsgd1na2vs0mg"},{"bike_id":"fd146880-44e0-4bd0-8aa8-d0a4e1e1a964","system_id":"levelo_inurba_marseille","lat":43.307325,"lon":5.424415,"is_reserved":false,"is_disabled":false,"rental_uris":{"android":"levelo://app?vid=fd146880-44e0-4bd0-8aa8-d0a4e1e1a964","ios":"levelo://app?vid=fd146880-44e0-4bd0-8aa8-d0a4e1e1a964"},"vehicle_type_id":"4","last_reported":1747103790,"current_range_meters":19200,"station_id":"st_cvj6ca6bvosntc0bfgr0","pricing_plan_id":"cebpf4jnsgd1na2vs0mg"},{"bike_id":"85bb6071-e792-4f67-a718-8548b40eced6","system_id":"levelo_inurba_marseille","lat":43.28676,"lon":5.38669,"is_reserved":false,"is_disabled":true,"rental_uris":{"android":"levelo://app?vid=85bb6071-e792-4f67-a718-8548b40eced6","ios":"levelo://app?vid=85bb6071-e792-4f67-a718-8548b40eced6"},"vehicle_type_id":"4","last_reported":1747103790,"current_range_meters":19200,"station_id":"ce4bh492rcd13ifvqdug","pricing_plan_id":"cebpf4jnsgd1na2vs0mg"},{"bike_id":"900bcc98-1b12-4e7a-a6a9-9f59b8fbf69b","system_id":"levelo_inurba_marseille","lat":43.31492,"lon":5.373,"is_reserved":false,"is_disabled":false,"rental_uris":{"android":"levelo://app?vid=900bcc98-1b12-4e7a-a6a9-9f59b8fbf69b","ios":"levelo://app?vid=900bcc98-1b12-4e7a-a6a9-9f59b8fbf69b"},"vehicle_type_id":"4","last_reported":1747103790,"current_range_meters":19200,"station_id":"ce4bgt12rcd13ifvqcd0","pricing_plan_id":"cebpf4jnsgd1na2vs0mg"},{"bike_id":"50838afa-4db6-4810-a427-67691cd7c935","system_id":"levelo_inurba_marseille","lat":43.279159,"lon":5.395824,"is_reserved":false,"is_disabled":false,"rental_uris":{"android":"levelo://app?vid=50838afa-4db6-4810-a427-67691cd7c935","ios":"levelo://app?vid=50838afa-4db6-4810-a427-67691cd7c935"},"vehicle_type_id":"4","last_reported":1747103790,"current_range_meters":19200,"station_id":"ce4bhf92rcd13ifvqf40","pricing_plan_id":"cebpf4jnsgd1na2vs0mg"},{"bike_id":"acc5833a-6427-49df-a603-fbea78aca361","system_id":"levelo_inurba_marseille","lat":43.309313,"lon":5.401673,"is_reserved":false,"is_disabled":false,"rental_uris":{"android":"levelo://app?vid=acc5833a-6427-49df-a603-fbea78aca361","ios":"levelo://app?vid=acc5833a-6427-49df-a603-fbea78aca361"},"vehicle_type_id":"4","last_reported":1747103790,"current_range_meters":19200,"station_id":"ce4bgvp2rcd13ifvqct0","pricing_plan_id":"cebpf4jnsgd1na2vs0mg"},{"bike_id":"e2ecfea9-bf1c-4ff7-90aa-38a775d0a076","system_id":"levelo_inurba_marseille","lat":43.295211,"lon":5.394097,"is_reserved":false,"is_disabled":false,"rental_uris":{"android":"levelo://app?vid=e2ecfea9-bf1c-4ff7-90aa-38a775d0a076","ios":"levelo://app?vid=e2ecfea9-bf1c-4ff7-90aa-38a775d0a076"},"vehicle_type_id":"4","last_reported":1747103790,"current_range_meters":19200,"station_id":"ce4bh292rcd13ifvqdf0","pricing_plan_id":"cebpf4jnsgd1na2vs0mg"},{"bike_id":"e81304a7-b84e-45bb-ac30-343bf46aa7a7","system_id":"levelo_inurba_marseille","lat":43.279116,"lon":5.395751,"is_reserved":false,"is_disabled":false,"rental_uris":{"android":"levelo://app?vid=e81304a7-b84e-45bb-ac30-343bf46aa7a7","ios":"levelo://app?vid=e81304a7-b84e-45bb-ac30-343bf46aa7a7"},"vehicle_type_id":"4","last_reported":1747103790,"current_range_meters":19600,"station_id":"ce4bhf92rcd13ifvqf40","pricing_plan_id":"cebpf4jnsgd1na2vs0mg"},{"bike_id":"e83dcaca-181c-4b02-bf44-8d4da8809b5b","system_id":"levelo_inurba_marseille","lat":43.317155,"lon":5.43705,"is_reserved":false,"is_disabled":false,"rental_uris":{"android":"levelo://app?vid=e83dcaca-181c-4b02-bf44-8d4da8809b5b","ios":"levelo://app?vid=e83dcaca-181c-4b02-bf44-8d4da8809b5b"},"vehicle_type_id":"4","last_reported":1747103790,"current_range_meters":19600,"station_id":"ce4bhp92rcd13ifvqhcg","pricing_plan_id":"cebpf4jnsgd1na2vs0mg"},{"bike_id":"eeb882a8-fe36-4d5c-a964-fc0d0f965523","system_id":"levelo_inurba_marseille","lat":43.306799,"lon":5.366914,"is_reserved":false,"is_disabled":false,"rental_uris":{"android":"levelo://app?vid=eeb882a8-fe36-4d5c-a964-fc0d0f965523","ios":"levelo://app?vid=eeb882a8-fe36-4d5c-a964-fc0d0f965523"},"vehicle_type_id":"4","last_reported":1747103790,"current_range_meters":19600,"station_id":"","pricing_plan_id":"cebpf4jnsgd1na2vs0mg"},{"bike_id":"581a76c6-406f-436c-80cf-424046378536","system_id":"levelo_inurba_marseille","lat":43.23141,"lon":5.43715,"is_reserved":false,"is_disabled":false,"rental_uris":{"android":"levelo://app?vid=581a76c6-406f-436c-80cf-424046378536","ios":"levelo://app?vid=581a76c6-406f-436c-80cf-424046378536"},"vehicle_type_id":"4","last_reported":1747103790,"current_range_meters":19600,"station_id":"ce4bhmp2rcd13ifvqgog","pricing_plan_id":"cebpf4jnsgd1na2vs0mg"},{"bike_id":"1e297e0e-a907-489c-9a22-1dfb89bfb64f","system_id":"levelo_inurba_marseille","lat":43.292279,"lon":5.364172,"is_reserved":false,"is_disabled":true,"rental_uris":{"android":"levelo://app?vid=1e297e0e-a907-489c-9a22-1dfb89bfb64f","ios":"levelo://app?vid=1e297e0e-a907-489c-9a22-1dfb89bfb64f"},"vehicle_type_id":"4","last_reported":1747103790,"current_range_meters":20000,"station_id":"","pricing_plan_id":"cebpf4jnsgd1na2vs0mg"},{"bike_id":"3161144a-408c-4586-b7ff-23edd431593d","system_id":"levelo_inurba_marseille","lat":43.286163,"lon":5.350959,"is_reserved":false,"is_disabled":true,"rental_uris":{"android":"levelo://app?vid=3161144a-408c-4586-b7ff-23edd431593d","ios":"levelo://app?vid=3161144a-408c-4586-b7ff-23edd431593d"},"vehicle_type_id":"4","last_reported":1747103790,"current_range_meters":20000,"station_id":"ce4bhch2rcd13ifvqeug","pricing_plan_id":"cebpf4jnsgd1na2vs0mg"},{"bike_id":"b67742bf-3e86-4b2b-9c02-75c56b43889b","system_id":"levelo_inurba_marseille","lat":43.313288,"lon":5.39703,"is_reserved":false,"is_disabled":false,"rental_uris":{"android":"levelo://app?vid=b67742bf-3e86-4b2b-9c02-75c56b43889b","ios":"levelo://app?vid=b67742bf-3e86-4b2b-9c02-75c56b43889b"},"vehicle_type_id":"4","last_reported":1747103790,"current_range_meters":20000,"station_id":"ce4bgvp2rcd13ifvqcu0","pricing_plan_id":"cebpf4jnsgd1na2vs0mg"},{"bike_id":"37d9effc-0a3d-4cbd-a02a-d300193f4b62","system_id":"levelo_inurba_marseille","lat":43.33599,"lon":5.41046,"is_reserved":false,"is_disabled":false,"rental_uris":{"android":"levelo://app?vid=37d9effc-0a3d-4cbd-a02a-d300193f4b62","ios":"levelo://app?vid=37d9effc-0a3d-4cbd-a02a-d300193f4b62"},"vehicle_type_id":"4","last_reported":1747103790,"current_range_meters":20000,"station_id":"ce4bhqh2rcd13ifvqhmg","pricing_plan_id":"cebpf4jnsgd1na2vs0mg"},{"bike_id":"9e7ebd91-af82-4549-976b-c088b359c00b","system_id":"levelo_inurba_marseille","lat":43.32108,"lon":5.367691,"is_reserved":false,"is_disabled":false,"rental_uris":{"android":"levelo://app?vid=9e7ebd91-af82-4549-976b-c088b359c00b","ios":"levelo://app?vid=9e7ebd91-af82-4549-976b-c088b359c00b"},"vehicle_type_id":"4","last_reported":1747103790,"current_range_meters":20000,"station_id":"ce4bhrh2rcd13ifvqhug","pricing_plan_id":"cebpf4jnsgd1na2vs0mg"},{"bike_id":"8f82ac87-198d-4032-b637-99ee1ef357f0","system_id":"levelo_inurba_marseille","lat":43.24531,"lon":5.3954,"is_reserved":false,"is_disabled":false,"rental_uris":{"android":"levelo://app?vid=8f82ac87-198d-4032-b637-99ee1ef357f0","ios":"levelo://app?vid=8f82ac87-198d-4032-b637-99ee1ef357f0"},"vehicle_type_id":"4","last_reported":1747103790,"current_range_meters":20400,"station_id":"ce4bhlp2rcd13ifvqgjg","pricing_plan_id":"cebpf4jnsgd1na2vs0mg"},{"bike_id":"0cd08830-fc84-4017-9483-59e593e66c02","system_id":"levelo_inurba_marseille","lat":43.2439,"lon":5.37065,"is_reserved":false,"is_disabled":true,"rental_uris":{"android":"levelo://app?vid=0cd08830-fc84-4017-9483-59e593e66c02","ios":"levelo://app?vid=0cd08830-fc84-4017-9483-59e593e66c02"},"vehicle_type_id":"4","last_reported":1747103790,"current_range_meters":20400,"station_id":"ce4bhhh2rcd13ifvqfk0","pricing_plan_id":"cebpf4jnsgd1na2vs0mg"},{"bike_id":"9af92dc4-bf0c-4511-97d1-d2749625ccab","system_id":"levelo_inurba_marseille","lat":43.27806,"lon":5.40716,"is_reserved":false,"is_disabled":false,"rental_uris":{"android":"levelo://app?vid=9af92dc4-bf0c-4511-97d1-d2749625ccab","ios":"levelo://app?vid=9af92dc4-bf0c-4511-97d1-d2749625ccab"},"vehicle_type_id":"4","last_reported":1747103790,"current_range_meters":20400,"station_id":"ce4bhnh2rcd13ifvqgtg","pricing_plan_id":"cebpf4jnsgd1na2vs0mg"},{"bike_id":"41a4bf39-49b2-4db9-8370-a61b5011ecbd","system_id":"levelo_inurba_marseille","lat":43.28967,"lon":5.37826,"is_reserved":false,"is_disabled":true,"rental_uris":{"android":"levelo://app?vid=41a4bf39-49b2-4db9-8370-a61b5011ecbd","ios":"levelo://app?vid=41a4bf39-49b2-4db9-8370-a61b5011ecbd"},"vehicle_type_id":"4","last_reported":1747103790,"current_range_meters":20800,"station_id":"ce4bh9p2rcd13ifvqed0","pricing_plan_id":"cebpf4jnsgd1na2vs0mg"},{"bike_id":"bb1746d7-068d-4837-bf23-ca3e2bd391fb","system_id":"levelo_inurba_marseille","lat":43.261905,"lon":5.374609,"is_reserved":false,"is_disabled":true,"rental_uris":{"android":"levelo://app?vid=bb1746d7-068d-4837-bf23-ca3e2bd391fb","ios":"levelo://app?vid=bb1746d7-068d-4837-bf23-ca3e2bd391fb"},"vehicle_type_id":"4","last_reported":1747103790,"current_range_meters":20800,"station_id":"ce4bhgp2rcd13ifvqfc0","pricing_plan_id":"cebpf4jnsgd1na2vs0mg"},{"bike_id":"0344e0e8-f261-4332-b969-30800ba38c53","system_id":"levelo_inurba_marseille","lat":43.27992,"lon":5.40031,"is_reserved":false,"is_disabled":false,"rental_uris":{"android":"levelo://app?vid=0344e0e8-f261-4332-b969-30800ba38c53","ios":"levelo://app?vid=0344e0e8-f261-4332-b969-30800ba38c53"},"vehicle_type_id":"4","last_reported":1747103790,"current_range_meters":21600,"station_id":"ce4bho92rcd13ifvqh4g","pricing_plan_id":"cebpf4jnsgd1na2vs0mg"},{"bike_id":"f1651654-a33f-4e9c-8950-8a1aea49abac","system_id":"levelo_inurba_marseille","lat":43.287278,"lon":5.360853,"is_reserved":false,"is_disabled":false,"rental_uris":{"android":"levelo://app?vid=f1651654-a33f-4e9c-8950-8a1aea49abac","ios":"levelo://app?vid=f1651654-a33f-4e9c-8950-8a1aea49abac"},"vehicle_type_id":"4","last_reported":1747103790,"current_range_meters":21600,"station_id":"cki0cbj6b192h4jlfktg","pricing_plan_id":"cebpf4jnsgd1na2vs0mg"},{"bike_id":"b65fd085-9b65-46d6-ad1e-68d0a7c6954c","system_id":"levelo_inurba_marseille","lat":43.278058,"lon":5.407093,"is_reserved":false,"is_disabled":false,"rental_uris":{"android":"levelo://app?vid=b65fd085-9b65-46d6-ad1e-68d0a7c6954c","ios":"levelo://app?vid=b65fd085-9b65-46d6-ad1e-68d0a7c6954c"},"vehicle_type_id":"4","last_reported":1747103790,"current_range_meters":21600,"station_id":"ce4bhnh2rcd13ifvqgtg","pricing_plan_id":"cebpf4jnsgd1na2vs0mg"},{"bike_id":"0c636178-8025-443a-881d-ec35507d7129","system_id":"levelo_inurba_marseille","lat":43.245462,"lon":5.395255,"is_reserved":false,"is_disabled":false,"rental_uris":{"android":"levelo://app?vid=0c636178-8025-443a-881d-ec35507d7129","ios":"levelo://app?vid=0c636178-8025-443a-881d-ec35507d7129"},"vehicle_type_id":"4","last_reported":1747103790,"current_range_meters":21600,"station_id":"ce4bhlp2rcd13ifvqgjg","pricing_plan_id":"cebpf4jnsgd1na2vs0mg"},{"bike_id":"88f527f5-cdac-4033-a7f7-7523d71e8d2b","system_id":"levelo_inurba_marseille","lat":43.31322,"lon":5.39722,"is_reserved":false,"is_disabled":false,"rental_uris":{"android":"levelo://app?vid=88f527f5-cdac-4033-a7f7-7523d71e8d2b","ios":"levelo://app?vid=88f527f5-cdac-4033-a7f7-7523d71e8d2b"},"vehicle_type_id":"4","last_reported":1747103790,"current_range_meters":22000,"station_id":"ce4bgvp2rcd13ifvqcu0","pricing_plan_id":"cebpf4jnsgd1na2vs0mg"},{"bike_id":"746d6870-f129-46ea-9cce-9733ae5747f5","system_id":"levelo_inurba_marseille","lat":43.24184,"lon":5.39674,"is_reserved":false,"is_disabled":false,"rental_uris":{"android":"levelo://app?vid=746d6870-f129-46ea-9cce-9733ae5747f5","ios":"levelo://app?vid=746d6870-f129-46ea-9cce-9733ae5747f5"},"vehicle_type_id":"4","last_reported":1747103790,"current_range_meters":22000,"station_id":"ce4bhn12rcd13ifvqgpg","pricing_plan_id":"cebpf4jnsgd1na2vs0mg"},{"bike_id":"0a12ae31-9f3b-467f-bf3b-3e289283c812","system_id":"levelo_inurba_marseille","lat":43.30778,"lon":5.370832,"is_reserved":false,"is_disabled":true,"rental_uris":{"android":"levelo://app?vid=0a12ae31-9f3b-467f-bf3b-3e289283c812","ios":"levelo://app?vid=0a12ae31-9f3b-467f-bf3b-3e289283c812"},"vehicle_type_id":"4","last_reported":1747103790,"current_range_meters":22000,"station_id":"","pricing_plan_id":"cebpf4jnsgd1na2vs0mg"},{"bike_id":"2a8d6c84-f97c-47ac-97e8-b5252d886c6b","system_id":"levelo_inurba_marseille","lat":43.306439,"lon":5.400674,"is_reserved":false,"is_disabled":false,"rental_uris":{"android":"levelo://app?vid=2a8d6c84-f97c-47ac-97e8-b5252d886c6b","ios":"levelo://app?vid=2a8d6c84-f97c-47ac-97e8-b5252d886c6b"},"vehicle_type_id":"4","last_reported":1747103790,"current_range_meters":22000,"station_id":"ce4bh112rcd13ifvqda0","pricing_plan_id":"cebpf4jnsgd1na2vs0mg"},{"bike_id":"84951397-69e9-4cc4-a9b3-8bac0d4c150d","system_id":"levelo_inurba_marseille","lat":43.303718,"lon":5.424849,"is_reserved":false,"is_disabled":false,"rental_uris":{"android":"levelo://app?vid=84951397-69e9-4cc4-a9b3-8bac0d4c150d","ios":"levelo://app?vid=84951397-69e9-4cc4-a9b3-8bac0d4c150d"},"vehicle_type_id":"4","last_reported":1747103790,"current_range_meters":22000,"station_id":"ce4bhoh2rcd13ifvqh6g","pricing_plan_id":"cebpf4jnsgd1na2vs0mg"},{"bike_id":"a6613d3f-10bf-4275-a3fe-2d2c08b0abd0","system_id":"levelo_inurba_marseille","lat":43.246472,"lon":5.389028,"is_reserved":false,"is_disabled":false,"rental_uris":{"android":"levelo://app?vid=a6613d3f-10bf-4275-a3fe-2d2c08b0abd0","ios":"levelo://app?vid=a6613d3f-10bf-4275-a3fe-2d2c08b0abd0"},"vehicle_type_id":"4","last_reported":1747103790,"current_range_meters":22400,"station_id":"ce4bhg12rcd13ifvqf60","pricing_plan_id":"cebpf4jnsgd1na2vs0mg"},{"bike_id":"7edae4e3-02d9-44f7-8013-99c1fec4bf3b","system_id":"levelo_inurba_marseille","lat":43.31716,"lon":5.40441,"is_reserved":false,"is_disabled":false,"rental_uris":{"android":"levelo://app?vid=7edae4e3-02d9-44f7-8013-99c1fec4bf3b","ios":"levelo://app?vid=7edae4e3-02d9-44f7-8013-99c1fec4bf3b"},"vehicle_type_id":"4","last_reported":1747103790,"current_range_meters":22400,"station_id":"ce4bh012rcd13ifvqd00","pricing_plan_id":"cebpf4jnsgd1na2vs0mg"},{"bike_id":"48a8b53a-5cd4-449c-b6b6-ea36e619d6c5","system_id":"levelo_inurba_marseille","lat":43.313292,"lon":5.397055,"is_reserved":false,"is_disabled":false,"rental_uris":{"android":"levelo://app?vid=48a8b53a-5cd4-449c-b6b6-ea36e619d6c5","ios":"levelo://app?vid=48a8b53a-5cd4-449c-b6b6-ea36e619d6c5"},"vehicle_type_id":"4","last_reported":1747103790,"current_range_meters":22400,"station_id":"ce4bgvp2rcd13ifvqcu0","pricing_plan_id":"cebpf4jnsgd1na2vs0mg"},{"bike_id":"74dda79f-dee3-4dd9-b119-1c599b4adee2","system_id":"levelo_inurba_marseille","lat":43.2696,"lon":5.38636,"is_reserved":false,"is_disabled":false,"rental_uris":{"android":"levelo://app?vid=74dda79f-dee3-4dd9-b119-1c599b4adee2","ios":"levelo://app?vid=74dda79f-dee3-4dd9-b119-1c599b4adee2"},"vehicle_type_id":"4","last_reported":1747103790,"current_range_meters":22800,"station_id":"ce4bhh92rcd13ifvqfh0","pricing_plan_id":"cebpf4jnsgd1na2vs0mg"},{"bike_id":"a1811688-68e4-477a-bc8b-271e96fe4451","system_id":"levelo_inurba_marseille","lat":43.29025,"lon":5.38656,"is_reserved":false,"is_disabled":true,"rental_uris":{"android":"levelo://app?vid=a1811688-68e4-477a-bc8b-271e96fe4451","ios":"levelo://app?vid=a1811688-68e4-477a-bc8b-271e96fe4451"},"vehicle_type_id":"4","last_reported":1747103790,"current_range_meters":22800,"station_id":"ce4bh4p2rcd13ifvqe0g","pricing_plan_id":"cebpf4jnsgd1na2vs0mg"},{"bike_id":"2e9a1bb6-b9ff-4e0b-be40-2437411ffe1f","system_id":"levelo_inurba_marseille","lat":43.30654,"lon":5.400766,"is_reserved":false,"is_disabled":false,"rental_uris":{"android":"levelo://app?vid=2e9a1bb6-b9ff-4e0b-be40-2437411ffe1f","ios":"levelo://app?vid=2e9a1bb6-b9ff-4e0b-be40-2437411ffe1f"},"vehicle_type_id":"4","last_reported":1747103790,"current_range_meters":22800,"station_id":"ce4bh112rcd13ifvqda0","pricing_plan_id":"cebpf4jnsgd1na2vs0mg"},{"bike_id":"b77082e7-baf8-4a81-a38d-1ebffa12f548","system_id":"levelo_inurba_marseille","lat":43.28693,"lon":5.37441,"is_reserved":false,"is_disabled":false,"rental_uris":{"android":"levelo://app?vid=b77082e7-baf8-4a81-a38d-1ebffa12f548","ios":"levelo://app?vid=b77082e7-baf8-4a81-a38d-1ebffa12f548"},"vehicle_type_id":"4","last_reported":1747103790,"current_range_meters":23200,"station_id":"ce4bh3p2rcd13ifvqdq0","pricing_plan_id":"cebpf4jnsgd1na2vs0mg"},{"bike_id":"13f23f22-878f-4513-a985-79b027048394","system_id":"levelo_inurba_marseille","lat":43.28452,"lon":5.35902,"is_reserved":false,"is_disabled":false,"rental_uris":{"android":"levelo://app?vid=13f23f22-878f-4513-a985-79b027048394","ios":"levelo://app?vid=13f23f22-878f-4513-a985-79b027048394"},"vehicle_type_id":"4","last_reported":1747103790,"current_range_meters":23200,"station_id":"ce4bhah2rcd13ifvqei0","pricing_plan_id":"cebpf4jnsgd1na2vs0mg"},{"bike_id":"d6827c15-a9b9-471d-a8db-15e4478d7960","system_id":"levelo_inurba_marseille","lat":43.28717,"lon":5.37389,"is_reserved":false,"is_disabled":false,"rental_uris":{"android":"levelo://app?vid=d6827c15-a9b9-471d-a8db-15e4478d7960","ios":"levelo://app?vid=d6827c15-a9b9-471d-a8db-15e4478d7960"},"vehicle_type_id":"4","last_reported":1747103790,"current_range_meters":23200,"station_id":"ce4bh3p2rcd13ifvqdq0","pricing_plan_id":"cebpf4jnsgd1na2vs0mg"},{"bike_id":"5647a91f-31a6-41fb-82bb-83893a94fc73","system_id":"levelo_inurba_marseille","lat":43.21206,"lon":5.35102,"is_reserved":false,"is_disabled":false,"rental_uris":{"android":"levelo://app?vid=5647a91f-31a6-41fb-82bb-83893a94fc73","ios":"levelo://app?vid=5647a91f-31a6-41fb-82bb-83893a94fc73"},"vehicle_type_id":"4","last_reported":1747103790,"current_range_meters":24000,"station_id":"st_cvj6sg6p6f1abm77japg","pricing_plan_id":"cebpf4jnsgd1na2vs0mg"},{"bike_id":"a55a8e89-7507-44c1-8a58-75c7621a3117","system_id":"levelo_inurba_marseille","lat":43.24049,"lon":5.37775,"is_reserved":false,"is_disabled":false,"rental_uris":{"android":"levelo://app?vid=a55a8e89-7507-44c1-8a58-75c7621a3117","ios":"levelo://app?vid=a55a8e89-7507-44c1-8a58-75c7621a3117"},"vehicle_type_id":"4","last_reported":1747103790,"current_range_meters":24000,"station_id":"ce4bhnp2rcd13ifvqgvg","pricing_plan_id":"cebpf4jnsgd1na2vs0mg"},{"bike_id":"53c2c5b1-547e-454a-9252-c33846187b27","system_id":"levelo_inurba_marseille","lat":43.323385,"lon":5.406174,"is_reserved":false,"is_disabled":false,"rental_uris":{"android":"levelo://app?vid=53c2c5b1-547e-454a-9252-c33846187b27","ios":"levelo://app?vid=53c2c5b1-547e-454a-9252-c33846187b27"},"vehicle_type_id":"4","last_reported":1747103790,"current_range_meters":24000,"station_id":"ce4bhq92rcd13ifvqhjg","pricing_plan_id":"cebpf4jnsgd1na2vs0mg"},{"bike_id":"312cf0fa-89c7-41e2-ab6c-83d3c271172c","system_id":"levelo_inurba_marseille","lat":43.3167,"lon":5.40475,"is_reserved":false,"is_disabled":false,"rental_uris":{"android":"levelo://app?vid=312cf0fa-89c7-41e2-ab6c-83d3c271172c","ios":"levelo://app?vid=312cf0fa-89c7-41e2-ab6c-83d3c271172c"},"vehicle_type_id":"4","last_reported":1747103790,"current_range_meters":24000,"station_id":"ce4bh012rcd13ifvqd00","pricing_plan_id":"cebpf4jnsgd1na2vs0mg"},{"bike_id":"122d19df-7ece-499b-be36-5b90e232caeb","system_id":"levelo_inurba_marseille","lat":43.309344,"lon":5.401392,"is_reserved":false,"is_disabled":false,"rental_uris":{"android":"levelo://app?vid=122d19df-7ece-499b-be36-5b90e232caeb","ios":"levelo://app?vid=122d19df-7ece-499b-be36-5b90e232caeb"},"vehicle_type_id":"4","last_reported":1747103790,"current_range_meters":24000,"station_id":"ce4bgvp2rcd13ifvqct0","pricing_plan_id":"cebpf4jnsgd1na2vs0mg"},{"bike_id":"42a87d09-2752-4ffe-952d-d97641d46755","system_id":"levelo_inurba_marseille","lat":43.306468,"lon":5.400896,"is_reserved":false,"is_disabled":false,"rental_uris":{"android":"levelo://app?vid=42a87d09-2752-4ffe-952d-d97641d46755","ios":"levelo://app?vid=42a87d09-2752-4ffe-952d-d97641d46755"},"vehicle_type_id":"4","last_reported":1747103790,"current_range_meters":24000,"station_id":"ce4bh112rcd13ifvqda0","pricing_plan_id":"cebpf4jnsgd1na2vs0mg"},{"bike_id":"398d8bf1-3fb0-4d52-b3f7-ca477dcd5f3e","system_id":"levelo_inurba_marseille","lat":43.29519,"lon":5.39407,"is_reserved":false,"is_disabled":false,"rental_uris":{"android":"levelo://app?vid=398d8bf1-3fb0-4d52-b3f7-ca477dcd5f3e","ios":"levelo://app?vid=398d8bf1-3fb0-4d52-b3f7-ca477dcd5f3e"},"vehicle_type_id":"4","last_reported":1747103790,"current_range_meters":24000,"station_id":"ce4bh292rcd13ifvqdf0","pricing_plan_id":"cebpf4jnsgd1na2vs0mg"},{"bike_id":"b963eb7d-609a-45f1-bafd-6ea623ae7fbf","system_id":"levelo_inurba_marseille","lat":43.281545,"lon":5.426379,"is_reserved":false,"is_disabled":false,"rental_uris":{"android":"levelo://app?vid=b963eb7d-609a-45f1-bafd-6ea623ae7fbf","ios":"levelo://app?vid=b963eb7d-609a-45f1-bafd-6ea623ae7fbf"},"vehicle_type_id":"4","last_reported":1747103790,"current_range_meters":24000,"station_id":"ce4bhnh2rcd13ifvqgug","pricing_plan_id":"cebpf4jnsgd1na2vs0mg"},{"bike_id":"899fa6ca-8fac-4775-a022-ab48a2f4e3c5","system_id":"levelo_inurba_marseille","lat":43.24668,"lon":5.38181,"is_reserved":false,"is_disabled":false,"rental_uris":{"android":"levelo://app?vid=899fa6ca-8fac-4775-a022-ab48a2f4e3c5","ios":"levelo://app?vid=899fa6ca-8fac-4775-a022-ab48a2f4e3c5"},"vehicle_type_id":"4","last_reported":1747103790,"current_range_meters":24000,"station_id":"ce4bhih2rcd13ifvqfr0","pricing_plan_id":"cebpf4jnsgd1na2vs0mg"},{"bike_id":"0a8ca5c2-40f2-4245-9b84-8e8cc11c2ffd","system_id":"levelo_inurba_marseille","lat":43.26073,"lon":5.39415,"is_reserved":false,"is_disabled":true,"rental_uris":{"android":"levelo://app?vid=0a8ca5c2-40f2-4245-9b84-8e8cc11c2ffd","ios":"levelo://app?vid=0a8ca5c2-40f2-4245-9b84-8e8cc11c2ffd"},"vehicle_type_id":"4","last_reported":1747103790,"current_range_meters":24000,"station_id":"ce4bhh92rcd13ifvqfj0","pricing_plan_id":"cebpf4jnsgd1na2vs0mg"},{"bike_id":"00f5910a-85fe-4277-94b8-7c8bc5f3d78f","system_id":"levelo_inurba_marseille","lat":43.29518,"lon":5.42329,"is_reserved":false,"is_disabled":false,"rental_uris":{"android":"levelo://app?vid=00f5910a-85fe-4277-94b8-7c8bc5f3d78f","ios":"levelo://app?vid=00f5910a-85fe-4277-94b8-7c8bc5f3d78f"},"vehicle_type_id":"4","last_reported":1747103790,"current_range_meters":24400,"station_id":"ce4bhph2rcd13ifvqhdg","pricing_plan_id":"cebpf4jnsgd1na2vs0mg"},{"bike_id":"13e2de49-bc42-46bd-8afc-b4dead0cce5d","system_id":"levelo_inurba_marseille","lat":43.32286,"lon":5.38287,"is_reserved":false,"is_disabled":false,"rental_uris":{"android":"levelo://app?vid=13e2de49-bc42-46bd-8afc-b4dead0cce5d","ios":"levelo://app?vid=13e2de49-bc42-46bd-8afc-b4dead0cce5d"},"vehicle_type_id":"4","last_reported":1747103790,"current_range_meters":24400,"station_id":"ce4bhr12rcd13ifvqhqg","pricing_plan_id":"cebpf4jnsgd1na2vs0mg"},{"bike_id":"0b4e5f96-d776-4db8-8a8a-9cb155766ad1","system_id":"levelo_inurba_marseille","lat":43.291997,"lon":5.393112,"is_reserved":false,"is_disabled":false,"rental_uris":{"android":"levelo://app?vid=0b4e5f96-d776-4db8-8a8a-9cb155766ad1","ios":"levelo://app?vid=0b4e5f96-d776-4db8-8a8a-9cb155766ad1"},"vehicle_type_id":"4","last_reported":1747103790,"current_range_meters":24400,"station_id":"ce4bh192rcd13ifvqdd0","pricing_plan_id":"cebpf4jnsgd1na2vs0mg"},{"bike_id":"6a823f1a-6318-4c59-8ef1-0310574389dd","system_id":"levelo_inurba_marseille","lat":43.295693,"lon":5.399711,"is_reserved":false,"is_disabled":false,"rental_uris":{"android":"levelo://app?vid=6a823f1a-6318-4c59-8ef1-0310574389dd","ios":"levelo://app?vid=6a823f1a-6318-4c59-8ef1-0310574389dd"},"vehicle_type_id":"4","last_reported":1747103790,"current_range_meters":24400,"station_id":"ce4bh312rcd13ifvqdj0","pricing_plan_id":"cebpf4jnsgd1na2vs0mg"},{"bike_id":"3ea93f15-db04-4894-a901-ee3874ff2ab2","system_id":"levelo_inurba_marseille","lat":43.28372,"lon":5.38101,"is_reserved":false,"is_disabled":false,"rental_uris":{"android":"levelo://app?vid=3ea93f15-db04-4894-a901-ee3874ff2ab2","ios":"levelo://app?vid=3ea93f15-db04-4894-a901-ee3874ff2ab2"},"vehicle_type_id":"4","last_reported":1747103790,"current_range_meters":24400,"station_id":"ce4bh412rcd13ifvqdr0","pricing_plan_id":"cebpf4jnsgd1na2vs0mg"},{"bike_id":"856edd1c-41fa-4163-ac94-3c5b1ee3b929","system_id":"levelo_inurba_marseille","lat":43.273804,"lon":5.362524,"is_reserved":false,"is_disabled":true,"rental_uris":{"android":"levelo://app?vid=856edd1c-41fa-4163-ac94-3c5b1ee3b929","ios":"levelo://app?vid=856edd1c-41fa-4163-ac94-3c5b1ee3b929"},"vehicle_type_id":"4","last_reported":1747103790,"current_range_meters":24400,"station_id":"ce4bhbh2rcd13ifvqeo0","pricing_plan_id":"cebpf4jnsgd1na2vs0mg"},{"bike_id":"77b5d70d-51ce-4b88-9584-9cc538b94021","system_id":"levelo_inurba_marseille","lat":43.310662,"lon":5.383503,"is_reserved":false,"is_disabled":false,"rental_uris":{"android":"levelo://app?vid=77b5d70d-51ce-4b88-9584-9cc538b94021","ios":"levelo://app?vid=77b5d70d-51ce-4b88-9584-9cc538b94021"},"vehicle_type_id":"4","last_reported":1747103790,"current_range_meters":24400,"station_id":"ce4bgv92rcd13ifvqcr0","pricing_plan_id":"cebpf4jnsgd1na2vs0mg"},{"bike_id":"fbe1a290-f52f-439e-b97c-04f5045931d7","system_id":"levelo_inurba_marseille","lat":43.2815,"lon":5.426588,"is_reserved":false,"is_disabled":false,"rental_uris":{"android":"levelo://app?vid=fbe1a290-f52f-439e-b97c-04f5045931d7","ios":"levelo://app?vid=fbe1a290-f52f-439e-b97c-04f5045931d7"},"vehicle_type_id":"4","last_reported":1747103790,"current_range_meters":24400,"station_id":"ce4bhnh2rcd13ifvqgug","pricing_plan_id":"cebpf4jnsgd1na2vs0mg"},{"bike_id":"8deafdb0-b72e-42a8-9144-f28ecef9389d","system_id":"levelo_inurba_marseille","lat":43.321084,"lon":5.367336,"is_reserved":false,"is_disabled":false,"rental_uris":{"android":"levelo://app?vid=8deafdb0-b72e-42a8-9144-f28ecef9389d","ios":"levelo://app?vid=8deafdb0-b72e-42a8-9144-f28ecef9389d"},"vehicle_type_id":"4","last_reported":1747103790,"current_range_meters":24800,"station_id":"ce4bhrh2rcd13ifvqhug","pricing_plan_id":"cebpf4jnsgd1na2vs0mg"},{"bike_id":"93362b3f-2597-4629-a6d9-baa2de57db56","system_id":"levelo_inurba_marseille","lat":43.29512,"lon":5.394007,"is_reserved":false,"is_disabled":true,"rental_uris":{"android":"levelo://app?vid=93362b3f-2597-4629-a6d9-baa2de57db56","ios":"levelo://app?vid=93362b3f-2597-4629-a6d9-baa2de57db56"},"vehicle_type_id":"4","last_reported":1747103790,"current_range_meters":24800,"station_id":"ce4bh292rcd13ifvqdf0","pricing_plan_id":"cebpf4jnsgd1na2vs0mg"},{"bike_id":"aa9a901d-2a7e-41ed-97e8-9ff553b5fe0f","system_id":"levelo_inurba_marseille","lat":43.30645,"lon":5.40073,"is_reserved":false,"is_disabled":false,"rental_uris":{"android":"levelo://app?vid=aa9a901d-2a7e-41ed-97e8-9ff553b5fe0f","ios":"levelo://app?vid=aa9a901d-2a7e-41ed-97e8-9ff553b5fe0f"},"vehicle_type_id":"4","last_reported":1747103790,"current_range_meters":24800,"station_id":"ce4bh112rcd13ifvqda0","pricing_plan_id":"cebpf4jnsgd1na2vs0mg"},{"bike_id":"1473dded-ea4a-40d1-94d9-615cf1e91983","system_id":"levelo_inurba_marseille","lat":43.285687,"lon":5.395034,"is_reserved":false,"is_disabled":false,"rental_uris":{"android":"levelo://app?vid=1473dded-ea4a-40d1-94d9-615cf1e91983","ios":"levelo://app?vid=1473dded-ea4a-40d1-94d9-615cf1e91983"},"vehicle_type_id":"4","last_reported":1747103790,"current_range_meters":24800,"station_id":"ce4bh292rcd13ifvqdg0","pricing_plan_id":"cebpf4jnsgd1na2vs0mg"},{"bike_id":"f0af08b4-97ab-496c-bdbe-5f634755ca69","system_id":"levelo_inurba_marseille","lat":43.23958,"lon":5.36627,"is_reserved":false,"is_disabled":true,"rental_uris":{"android":"levelo://app?vid=f0af08b4-97ab-496c-bdbe-5f634755ca69","ios":"levelo://app?vid=f0af08b4-97ab-496c-bdbe-5f634755ca69"},"vehicle_type_id":"4","last_reported":1747103790,"current_range_meters":24800,"station_id":"ce4bhi12rcd13ifvqfp0","pricing_plan_id":"cebpf4jnsgd1na2vs0mg"},{"bike_id":"9670f60b-d981-469e-87fd-010a1d3c3a6e","system_id":"levelo_inurba_marseille","lat":43.32118,"lon":5.36776,"is_reserved":false,"is_disabled":false,"rental_uris":{"android":"levelo://app?vid=9670f60b-d981-469e-87fd-010a1d3c3a6e","ios":"levelo://app?vid=9670f60b-d981-469e-87fd-010a1d3c3a6e"},"vehicle_type_id":"4","last_reported":1747103790,"current_range_meters":24800,"station_id":"ce4bhrh2rcd13ifvqhug","pricing_plan_id":"cebpf4jnsgd1na2vs0mg"},{"bike_id":"18556955-6e5e-44de-8de6-34b971734618","system_id":"levelo_inurba_marseille","lat":43.32076,"lon":5.36792,"is_reserved":false,"is_disabled":false,"rental_uris":{"android":"levelo://app?vid=18556955-6e5e-44de-8de6-34b971734618","ios":"levelo://app?vid=18556955-6e5e-44de-8de6-34b971734618"},"vehicle_type_id":"4","last_reported":1747103790,"current_range_meters":25200,"station_id":"ce4bhrh2rcd13ifvqhug","pricing_plan_id":"cebpf4jnsgd1na2vs0mg"},{"bike_id":"c8154eaf-e64f-41f3-a8fc-b7c7b32f5956","system_id":"levelo_inurba_marseille","lat":43.28592,"lon":5.3708,"is_reserved":false,"is_disabled":false,"rental_uris":{"android":"levelo://app?vid=c8154eaf-e64f-41f3-a8fc-b7c7b32f5956","ios":"levelo://app?vid=c8154eaf-e64f-41f3-a8fc-b7c7b32f5956"},"vehicle_type_id":"4","last_reported":1747103790,"current_range_meters":25200,"station_id":"ce4bht12rcd13ifvqi60","pricing_plan_id":"cebpf4jnsgd1na2vs0mg"},