{"last_updated":1741813731,"ttl":60,"version":"2.2","data":{"bikes":[{"bike_id":"9d38b3d2-691c-4156-a190-2058f23b0121","system_id":"levelo_inurba_marseille","lat":43.29893,"lon":5.4367,"is_reserved":false,"is_disabled":false,"rental_uris":{"android":"levelo://app?vid=9d38b3d2-691c-4156-a190-2058f23b0121","ios":"levelo://app?vid=9d38b3d2-691c-4156-a190-2058f23b0121"},"vehicle_type_id":"4","last_reported":1741813732,"current_range_meters":2800,"station_id":"ce4bhpp2rcd13ifvqhfg","pricing_plan_id":"cebpf4jnsgd1na2vs0mg"},{"bike_id":"30692acb-d1ed-463b-80ba-7db2b1ab8a9a","system_id":"levelo_inurba_marseille","lat":43.31751,"lon":5.39019,"is_reserved":false,"is_disabled":false,"rental_uris":{"android":"levelo://app?vid=30692acb-d1ed-463b-80ba-7db2b1ab8a9a","ios":"levelo://app?vid=30692acb-d1ed-463b-80ba-7db2b1ab8a9a"},"vehicle_type_id":"4","last_reported":1741813732,"current_range_meters":2800,"station_id":"ce4bhqp2rcd13ifvqhng","pricing_plan_id":"cebpf4jnsgd1na2vs0mg"},{"bike_id":"bf2feb02-4272-4476-92f9-9420844c4078","system_id":"levelo_inurba_marseille","lat":43.31216,"lon":5.37654,"is_reserved":false,"is_disabled":false,"rental_uris":{"android":"levelo://app?vid=bf2feb02-4272-4476-92f9-9420844c4078","ios":"levelo://app?vid=bf2feb02-4272-4476-92f9-9420844c4078"},"vehicle_type_id":"4","last_reported":1741813732,"current_range_meters":2800,"station_id":"","pricing_plan_id":"cebpf4jnsgd1na2vs0mg"},{"bike_id":"8d148f9c-d435-4123-bd0e-8d7ebd73846f","system_id":"levelo_inurba_marseille","lat":43.27055,"lon":5.40272,"is_reserved":false,"is_disabled":true,"rental_uris":{"android":"levelo://app?vid=8d148f9c-d435-4123-bd0e-8d7ebd73846f","ios":"levelo://app?vid=8d148f9c-d435-4123-bd0e-8d7ebd73846f"},"vehicle_type_id":"4","last_reported":1741813732,"current_range_meters":2800,"station_id":"ce4bhk92rcd13ifvqgc0","pricing_plan_id":"cebpf4jnsgd1na2vs0mg"},{"bike_id":"e7e9b884-ed96-4c28-bfc8-5c941bb66b6e","system_id":"levelo_inurba_marseille","lat":43.292053,"lon":5.393314,"is_reserved":false,"is_disabled":false,"rental_uris":{"android":"levelo://app?vid=e7e9b884-ed96-4c28-bfc8-5c941bb66b6e","ios":"levelo://app?vid=e7e9b884-ed96-4c28-bfc8-5c941bb66b6e"},"vehicle_type_id":"4","last_reported":1741813732,"current_range_meters":3200,"station_id":"ce4bh412rcd13ifvqdr0","pricing_plan_id":"cebpf4jnsgd1na2vs0mg"},{"bike_id":"b8c32fa7-0e60-4cc5-8608-d0d333ca6e59","system_id":"levelo_inurba_marseille","lat":43.29171,"lon":5.37156,"is_reserved":false,"is_disabled":false,"rental_uris":{"android":"levelo://app?vid=b8c32fa7-0e60-4cc5-8608-d0d333ca6e59","ios":"levelo://app?vid=b8c32fa7-0e60-4cc5-8608-d0d333ca6e59"},"vehicle_type_id":"4","last_reported":1741813732,"current_range_meters":3600,"station_id":"ce4bha92rcd13ifvqeh0","pricing_plan_id":"cebpf4jnsgd1na2vs0mg"},{"bike_id":"73ec5b48-643f-485f-a254-9a90befd3a79","system_id":"levelo_inurba_marseille","lat":43.26541,"lon":5.3903,"is_reserved":false,"is_disabled":true,"rental_uris":{"android":"levelo://app?vid=73ec5b48-643f-485f-a254-9a90befd3a79","ios":"levelo://app?vid=73ec5b48-643f-485f-a254-9a90befd3a79"},"vehicle_type_id":"4","last_reported":1741813732,"current_range_meters":3600,"station_id":"ce4bhe12rcd13ifvqf30","pricing_plan_id":"cebpf4jnsgd1na2vs0mg"},{"bike_id":"45d8d7b0-29eb-4eaf-9ec9-00efd0738f1e","system_id":"levelo_inurba_marseille","lat":43.31154,"lon":5.37312,"is_reserved":false,"is_disabled":false,"rental_uris":{"android":"levelo://app?vid=45d8d7b0-29eb-4eaf-9ec9-00efd0738f1e","ios":"levelo://app?vid=45d8d7b0-29eb-4eaf-9ec9-00efd0738f1e"},"vehicle_type_id":"4","last_reported":1741813732,"current_range_meters":3600,"station_id":"","pricing_plan_id":"cebpf4jnsgd1na2vs0mg"},{"bike_id":"80771939-f406-42f7-81c5-33180fd8a338","system_id":"levelo_inurba_marseille","lat":43.231962,"lon":5.355531,"is_reserved":false,"is_disabled":false,"rental_uris":{"android":"levelo://app?vid=80771939-f406-42f7-81c5-33180fd8a338","ios":"levelo://app?vid=80771939-f406-42f7-81c5-33180fd8a338"},"vehicle_type_id":"4","last_reported":1741813732,"current_range_meters":3600,"station_id":"ce4bhu92rcd13ifvqi70","pricing_plan_id":"cebpf4jnsgd1na2vs0mg"},{"bike_id":"8d4bf0a4-cd38-4e92-8c90-69533c6f2a5d","system_id":"levelo_inurba_marseille","lat":43.23963,"lon":5.36639,"is_reserved":false,"is_disabled":false,"rental_uris":{"android":"levelo://app?vid=8d4bf0a4-cd38-4e92-8c90-69533c6f2a5d","ios":"levelo://app?vid=8d4bf0a4-cd38-4e92-8c90-69533c6f2a5d"},"vehicle_type_id":"4","last_reported":1741813732,"current_range_meters":3600,"station_id":"ce4bhi12rcd13ifvqfp0","pricing_plan_id":"cebpf4jnsgd1na2vs0mg"},{"bike_id":"5be62f5c-b4d5-490f-97d7-7d11c616d8af","system_id":"levelo_inurba_marseille","lat":43.23057,"lon":5.35498,"is_reserved":false,"is_disabled":false,"rental_uris":{"android":"levelo://app?vid=5be62f5c-b4d5-490f-97d7-7d11c616d8af","ios":"levelo://app?vid=5be62f5c-b4d5-490f-97d7-7d11c616d8af"},"vehicle_type_id":"4","last_reported":1741813732,"current_range_meters":3600,"station_id":"cpo3342slgdg3j2ifvpg","pricing_plan_id":"cebpf4jnsgd1na2vs0mg"},{"bike_id":"fdbac7ef-22ba-4941-b886-d3e0af4a7a0a","system_id":"levelo_inurba_marseille","lat":43.269173,"lon":5.36747,"is_reserved":false,"is_disabled":false,"rental_uris":{"android":"levelo://app?vid=fdbac7ef-22ba-4941-b886-d3e0af4a7a0a","ios":"levelo://app?vid=fdbac7ef-22ba-4941-b886-d3e0af4a7a0a"},"vehicle_type_id":"4","last_reported":1741813732,"current_range_meters":4000,"station_id":"ce4bhh12rcd13ifvqff0","pricing_plan_id":"cebpf4jnsgd1na2vs0mg"},{"bike_id":"830864fb-decd-4134-a03c-54cd90a6198b","system_id":"levelo_inurba_marseille","lat":43.25108,"lon":5.40324,"is_reserved":false,"is_disabled":false,"rental_uris":{"android":"levelo://app?vid=830864fb-decd-4134-a03c-54cd90a6198b","ios":"levelo://app?vid=830864fb-decd-4134-a03c-54cd90a6198b"},"vehicle_type_id":"4","last_reported":1741813732,"current_range_meters":4000,"station_id":"ce4bhlh2rcd13ifvqgig","pricing_plan_id":"cebpf4jnsgd1na2vs0mg"},{"bike_id":"988612f3-1fbe-4a8c-834c-105ffc1b0235","system_id":"levelo_inurba_marseille","lat":43.32656,"lon":5.40994,"is_reserved":false,"is_disabled":false,"rental_uris":{"android":"levelo://app?vid=988612f3-1fbe-4a8c-834c-105ffc1b0235","ios":"levelo://app?vid=988612f3-1fbe-4a8c-834c-105ffc1b0235"},"vehicle_type_id":"4","last_reported":1741813732,"current_range_meters":4000,"station_id":"ce4bhpp2rcd13ifvqhgg","pricing_plan_id":"cebpf4jnsgd1na2vs0mg"},{"bike_id":"e8ebfdbe-ea63-4592-a79a-3d110a8bd4cb","system_id":"levelo_inurba_marseille","lat":43.28155,"lon":5.42651,"is_reserved":false,"is_disabled":false,"rental_uris":{"android":"levelo://app?vid=e8ebfdbe-ea63-4592-a79a-3d110a8bd4cb","ios":"levelo://app?vid=e8ebfdbe-ea63-4592-a79a-3d110a8bd4cb"},"vehicle_type_id":"4","last_reported":1741813732,"current_range_meters":4000,"station_id":"ce4bhnh2rcd13ifvqgug","pricing_plan_id":"cebpf4jnsgd1na2vs0mg"},{"bike_id":"3b41a26c-8e5a-414f-b3a5-4f3f861c1cdf","system_id":"levelo_inurba_marseille","lat":43.26268,"lon":5.40432,"is_reserved":false,"is_disabled":false,"rental_uris":{"android":"levelo://app?vid=3b41a26c-8e5a-414f-b3a5-4f3f861c1cdf","ios":"levelo://app?vid=3b41a26c-8e5a-414f-b3a5-4f3f861c1cdf"},"vehicle_type_id":"4","last_reported":1741813732,"current_range_meters":4000,"station_id":"","pricing_plan_id":"cebpf4jnsgd1na2vs0mg"},{"bike_id":"ef202d0e-dca9-4b8a-b2ef-a3e69d908c04","system_id":"levelo_inurba_marseille","lat":43.26207,"lon":5.40432,"is_reserved":false,"is_disabled":false,"rental_uris":{"android":"levelo://app?vid=ef202d0e-dca9-4b8a-b2ef-a3e69d908c04","ios":"levelo://app?vid=ef202d0e-dca9-4b8a-b2ef-a3e69d908c04"},"vehicle_type_id":"4","last_reported":1741813732,"current_range_meters":4400,"station_id":"","pricing_plan_id":"cebpf4jnsgd1na2vs0mg"},{"bike_id":"0e13eaa4-9218-468c-aab4-9d42b806daeb","system_id":"levelo_inurba_marseille","lat":43.30789,"lon":5.3815,"is_reserved":false,"is_disabled":false,"rental_uris":{"android":"levelo://app?vid=0e13eaa4-9218-468c-aab4-9d42b806daeb","ios":"levelo://app?vid=0e13eaa4-9218-468c-aab4-9d42b806daeb"},"vehicle_type_id":"4","last_reported":1741813732,"current_range_meters":4400,"station_id":"ce4bgt12rcd13ifvqce0","pricing_plan_id":"cebpf4jnsgd1na2vs0mg"},{"bike_id":"89f5252d-ca6b-4c4a-8924-1e95cb6ec267","system_id":"levelo_inurba_marseille","lat":43.2396,"lon":5.36653,"is_reserved":false,"is_disabled":false,"rental_uris":{"android":"levelo://app?vid=89f5252d-ca6b-4c4a-8924-1e95cb6ec267","ios":"levelo://app?vid=89f5252d-ca6b-4c4a-8924-1e95cb6ec267"},"vehicle_type_id":"4","last_reported":1741813732,"current_range_meters":4400,"station_id":"ce4bhi12rcd13ifvqfp0","pricing_plan_id":"cebpf4jnsgd1na2vs0mg"},{"bike_id":"5a87dcbd-b562-4475-bc62-d5d49a890414","system_id":"levelo_inurba_marseille","lat":43.29797,"lon":5.404,"is_reserved":false,"is_disabled":false,"rental_uris":{"android":"levelo://app?vid=5a87dcbd-b562-4475-bc62-d5d49a890414","ios":"levelo://app?vid=5a87dcbd-b562-4475-bc62-d5d49a890414"},"vehicle_type_id":"4","last_reported":1741813732,"current_range_meters":3600,"station_id":"ce4bh112rcd13ifvqd90","pricing_plan_id":"cebpf4jnsgd1na2vs0mg"},{"bike_id":"dcfd1a85-d7f2-4032-920c-859f469d3076","system_id":"levelo_inurba_marseille","lat":43.29038,"lon":5.39979,"is_reserved":false,"is_disabled":false,"rental_uris":{"android":"levelo://app?vid=dcfd1a85-d7f2-4032-920c-859f469d3076","ios":"levelo://app?vid=dcfd1a85-d7f2-4032-920c-859f469d3076"},"vehicle_type_id":"4","last_reported":1741813732,"current_range_meters":4400,"station_id":"ce4bh392rcd13ifvqdm0","pricing_plan_id":"cebpf4jnsgd1na2vs0mg"},{"bike_id":"8447b2d4-400b-4f74-8048-25cf7f1ca261","system_id":"levelo_inurba_marseille","lat":43.23182,"lon":5.39978,"is_reserved":false,"is_disabled":false,"rental_uris":{"android":"levelo://app?vid=8447b2d4-400b-4f74-8048-25cf7f1ca261","ios":"levelo://app?vid=8447b2d4-400b-4f74-8048-25cf7f1ca261"},"vehicle_type_id":"4","last_reported":1741813732,"current_range_meters":4800,"station_id":"ce4bhn12rcd13ifvqgqg","pricing_plan_id":"cebpf4jnsgd1na2vs0mg"},{"bike_id":"94eb9559-8c4f-4d60-98ac-469a5ce58b64","system_id":"levelo_inurba_marseille","lat":43.24649,"lon":5.38903,"is_reserved":false,"is_disabled":false,"rental_uris":{"android":"levelo://app?vid=94eb9559-8c4f-4d60-98ac-469a5ce58b64","ios":"levelo://app?vid=94eb9559-8c4f-4d60-98ac-469a5ce58b64"},"vehicle_type_id":"4","last_reported":1741813732,"current_range_meters":4800,"station_id":"ce4bhg12rcd13ifvqf60","pricing_plan_id":"cebpf4jnsgd1na2vs0mg"},{"bike_id":"8d34a4f7-e66d-4425-bd8f-8bcdf3a71cb8","system_id":"levelo_inurba_marseille","lat":43.30884,"lon":5.39652,"is_reserved":false,"is_disabled":false,"rental_uris":{"android":"levelo://app?vid=8d34a4f7-e66d-4425-bd8f-8bcdf3a71cb8","ios":"levelo://app?vid=8d34a4f7-e66d-4425-bd8f-8bcdf3a71cb8"},"vehicle_type_id":"4","last_reported":1741813732,"current_range_meters":4800,"station_id":"ce4bh012rcd13ifvqcv0","pricing_plan_id":"cebpf4jnsgd1na2vs0mg"},{"bike_id":"58d1b5b3-d322-4418-97d0-3066ec3d9afc","system_id":"levelo_inurba_marseille","lat":43.23209,"lon":5.35538,"is_reserved":false,"is_disabled":false,"rental_uris":{"android":"levelo://app?vid=58d1b5b3-d322-4418-97d0-3066ec3d9afc","ios":"levelo://app?vid=58d1b5b3-d322-4418-97d0-3066ec3d9afc"},"vehicle_type_id":"4","last_reported":1741813732,"current_range_meters":4800,"station_id":"ce4bhu92rcd13ifvqi70","pricing_plan_id":"cebpf4jnsgd1na2vs0mg"},{"bike_id":"6d00e3ad-461d-46dc-a418-2daa9b3fc079","system_id":"levelo_inurba_marseille","lat":43.2407,"lon":5.37759,"is_reserved":false,"is_disabled":false,"rental_uris":{"android":"levelo://app?vid=6d00e3ad-461d-46dc-a418-2daa9b3fc079","ios":"levelo://app?vid=6d00e3ad-461d-46dc-a418-2daa9b3fc079"},"vehicle_type_id":"4","last_reported":1741813732,"current_range_meters":5600,"station_id":"ce4bhnp2rcd13ifvqgvg","pricing_plan_id":"cebpf4jnsgd1na2vs0mg"},{"bike_id":"4fd966ea-0299-4885-bbf2-dc47de946512","system_id":"levelo_inurba_marseille","lat":43.30929,"lon":5.37268,"is_reserved":false,"is_disabled":false,"rental_uris":{"android":"levelo://app?vid=4fd966ea-0299-4885-bbf2-dc47de946512","ios":"levelo://app?vid=4fd966ea-0299-4885-bbf2-dc47de946512"},"vehicle_type_id":"4","last_reported":1741813732,"current_range_meters":3200,"station_id":"","pricing_plan_id":"cebpf4jnsgd1na2vs0mg"},{"bike_id":"7c25226e-9ca8-4a5f-af3f-246f6b1df853","system_id":"levelo_inurba_marseille","lat":43.230628,"lon":5.354966,"is_reserved":false,"is_disabled":false,"rental_uris":{"android":"levelo://app?vid=7c25226e-9ca8-4a5f-af3f-246f6b1df853","ios":"levelo://app?vid=7c25226e-9ca8-4a5f-af3f-246f6b1df853"},"vehicle_type_id":"4","last_reported":1741813732,"current_range_meters":5600,"station_id":"cpo3342slgdg3j2ifvpg","pricing_plan_id":"cebpf4jnsgd1na2vs0mg"},{"bike_id":"b8785a4d-9125-4dcf-9521-8aa540b40cb4","system_id":"levelo_inurba_marseille","lat":43.24815,"lon":5.37457,"is_reserved":false,"is_disabled":false,"rental_uris":{"android":"levelo://app?vid=b8785a4d-9125-4dcf-9521-8aa540b40cb4","ios":"levelo://app?vid=b8785a4d-9125-4dcf-9521-8aa540b40cb4"},"vehicle_type_id":"4","last_reported":1741813732,"current_range_meters":5600,"station_id":"ce4bhgh2rcd13ifvqfb0","pricing_plan_id":"cebpf4jnsgd1na2vs0mg"},{"bike_id":"e649e2d0-af54-4ce5-b5f7-1fd68a3b0a85","system_id":"levelo_inurba_marseille","lat":43.28165,"lon":5.42634,"is_reserved":false,"is_disabled":false,"rental_uris":{"android":"levelo://app?vid=e649e2d0-af54-4ce5-b5f7-1fd68a3b0a85","ios":"levelo://app?vid=e649e2d0-af54-4ce5-b5f7-1fd68a3b0a85"},"vehicle_type_id":"4","last_reported":1741813732,"current_range_meters":6000,"station_id":"ce4bhnh2rcd13ifvqgug","pricing_plan_id":"cebpf4jnsgd1na2vs0mg"},{"bike_id":"82cd5ea9-3de1-4625-91cd-cc7216ebca60","system_id":"levelo_inurba_marseille","lat":43.25585,"lon":5.38227,"is_reserved":false,"is_disabled":false,"rental_uris":{"android":"levelo://app?vid=82cd5ea9-3de1-4625-91cd-cc7216ebca60","ios":"levelo://app?vid=82cd5ea9-3de1-4625-91cd-cc7216ebca60"},"vehicle_type_id":"4","last_reported":1741813732,"current_range_meters":6000,"station_id":"ce4bhih2rcd13ifvqfs0","pricing_plan_id":"cebpf4jnsgd1na2vs0mg"},{"bike_id":"f43a547a-a63f-466e-891d-16f53f2a7257","system_id":"levelo_inurba_marseille","lat":43.28038,"lon":5.36941,"is_reserved":false,"is_disabled":false,"rental_uris":{"android":"levelo://app?vid=f43a547a-a63f-466e-891d-16f53f2a7257","ios":"levelo://app?vid=f43a547a-a63f-466e-891d-16f53f2a7257"},"vehicle_type_id":"4","last_reported":1741813732,"current_range_meters":6000,"station_id":"ce4bha12rcd13ifvqef0","pricing_plan_id":"cebpf4jnsgd1na2vs0mg"},{"bike_id":"548caab8-1d2c-4b84-963b-f8217af52e80","system_id":"levelo_inurba_marseille","lat":43.29039,"lon":5.37562,"is_reserved":false,"is_disabled":true,"rental_uris":{"android":"levelo://app?vid=548caab8-1d2c-4b84-963b-f8217af52e80","ios":"levelo://app?vid=548caab8-1d2c-4b84-963b-f8217af52e80"},"vehicle_type_id":"4","last_reported":1741813732,"current_range_meters":6000,"station_id":"ce4bh692rcd13ifvqe90","pricing_plan_id":"cebpf4jnsgd1na2vs0mg"},{"bike_id":"f640465e-8c9e-425a-8e36-08d8d5201bf6","system_id":"levelo_inurba_marseille","lat":43.23198,"lon":5.35541,"is_reserved":false,"is_disabled":false,"rental_uris":{"android":"levelo://app?vid=f640465e-8c9e-425a-8e36-08d8d5201bf6","ios":"levelo://app?vid=f640465e-8c9e-425a-8e36-08d8d5201bf6"},"vehicle_type_id":"4","last_reported":1741813732,"current_range_meters":6000,"station_id":"ce4bhu92rcd13ifvqi70","pricing_plan_id":"cebpf4jnsgd1na2vs0mg"},{"bike_id":"5eef5338-ff8a-466a-999e-0f162b00ff22","system_id":"levelo_inurba_marseille","lat":43.24553,"lon":5.39543,"is_reserved":false,"is_disabled":false,"rental_uris":{"android":"levelo://app?vid=5eef5338-ff8a-466a-999e-0f162b00ff22","ios":"levelo://app?vid=5eef5338-ff8a-466a-999e-0f162b00ff22"},"vehicle_type_id":"4","last_reported":1741813732,"current_range_meters":6000,"station_id":"ce4bhlp2rcd13ifvqgjg","pricing_plan_id":"cebpf4jnsgd1na2vs0mg"},{"bike_id":"7e81252c-5aa0-407c-9d88-a6a9de8a4ca2","system_id":"levelo_inurba_marseille","lat":43.29194,"lon":5.39312,"is_reserved":false,"is_disabled":false,"rental_uris":{"android":"levelo://app?vid=7e81252c-5aa0-407c-9d88-a6a9de8a4ca2","ios":"levelo://app?vid=7e81252c-5aa0-407c-9d88-a6a9de8a4ca2"},"vehicle_type_id":"4","last_reported":1741813732,"current_range_meters":6400,"station_id":"ce4bh192rcd13ifvqdd0","pricing_plan_id":"cebpf4jnsgd1na2vs0mg"},{"bike_id":"60addeb5-8b0b-4949-b3a6-5f197b8d4abb","system_id":"levelo_inurba_marseille","lat":43.33058,"lon":5.39809,"is_reserved":false,"is_disabled":false,"rental_uris":{"android":"levelo://app?vid=60addeb5-8b0b-4949-b3a6-5f197b8d4abb","ios":"levelo://app?vid=60addeb5-8b0b-4949-b3a6-5f197b8d4abb"},"vehicle_type_id":"4","last_reported":1741813732,"current_range_meters":6400,"station_id":"","pricing_plan_id":"cebpf4jnsgd1na2vs0mg"},{"bike_id":"53bbc677-f662-4a74-ab20-889cce9f6bff","system_id":"levelo_inurba_marseille","lat":43.231886,"lon":5.399881,"is_reserved":false,"is_disabled":false,"rental_uris":{"android":"levelo://app?vid=53bbc677-f662-4a74-ab20-889cce9f6bff","ios":"levelo://app?vid=53bbc677-f662-4a74-ab20-889cce9f6bff"},"vehicle_type_id":"4","last_reported":1741813732,"current_range_meters":6400,"station_id":"ce4bhn12rcd13ifvqgqg","pricing_plan_id":"cebpf4jnsgd1na2vs0mg"},{"bike_id":"d5c6aead-0b4b-49f9-954e-22cf9b9962ba","system_id":"levelo_inurba_marseille","lat":43.31734,"lon":5.37768,"is_reserved":false,"is_disabled":false,"rental_uris":{"android":"levelo://app?vid=d5c6aead-0b4b-49f9-954e-22cf9b9962ba","ios":"levelo://app?vid=d5c6aead-0b4b-49f9-954e-22cf9b9962ba"},"vehicle_type_id":"4","last_reported":1741813732,"current_range_meters":6400,"station_id":"ce4bgth2rcd13ifvqch0","pricing_plan_id":"cebpf4jnsgd1na2vs0mg"},{"bike_id":"241d79a7-8164-4ee5-8d3f-2565e2e0b3e8","system_id":"levelo_inurba_marseille","lat":43.31377,"lon":5.379867,"is_reserved":false,"is_disabled":false,"rental_uris":{"android":"levelo://app?vid=241d79a7-8164-4ee5-8d3f-2565e2e0b3e8","ios":"levelo://app?vid=241d79a7-8164-4ee5-8d3f-2565e2e0b3e8"},"vehicle_type_id":"4","last_reported":1741813732,"current_range_meters":6400,"station_id":"","pricing_plan_id":"cebpf4jnsgd1na2vs0mg"},{"bike_id":"1bb5dae5-2cdb-43ae-b04c-dad911982ded","system_id":"levelo_inurba_marseille","lat":43.25113,"lon":5.40312,"is_reserved":false,"is_disabled":false,"rental_uris":{"android":"levelo://app?vid=1bb5dae5-2cdb-43ae-b04c-dad911982ded","ios":"levelo://app?vid=1bb5dae5-2cdb-43ae-b04c-dad911982ded"},"vehicle_type_id":"4","last_reported":1741813732,"current_range_meters":6400,"station_id":"ce4bhlh2rcd13ifvqgig","pricing_plan_id":"cebpf4jnsgd1na2vs0mg"},{"bike_id":"23dc0a7a-ba20-46d2-a451-961ef46474f1","system_id":"levelo_inurba_marseille","lat":43.31754,"lon":5.39022,"is_reserved":false,"is_disabled":false,"rental_uris":{"android":"levelo://app?vid=23dc0a7a-ba20-46d2-a451-961ef46474f1","ios":"levelo://app?vid=23dc0a7a-ba20-46d2-a451-961ef46474f1"},"vehicle_type_id":"4","last_reported":1741813732,"current_range_meters":6400,"station_id":"ce4bhqp2rcd13ifvqhng","pricing_plan_id":"cebpf4jnsgd1na2vs0mg"},{"bike_id":"95c4f609-4057-4688-9b5c-93c1039e1099","system_id":"levelo_inurba_marseille","lat":43.24563,"lon":5.39522,"is_reserved":false,"is_disabled":false,"rental_uris":{"android":"levelo://app?vid=95c4f609-4057-4688-9b5c-93c1039e1099","ios":"levelo://app?vid=95c4f609-4057-4688-9b5c-93c1039e1099"},"vehicle_type_id":"4","last_reported":1741813732,"current_range_meters":6400,"station_id":"ce4bhlp2rcd13ifvqgjg","pricing_plan_id":"cebpf4jnsgd1na2vs0mg"},{"bike_id":"a58f07f0-b33f-4953-ab0c-f29dc5595b36","system_id":"levelo_inurba_marseille","lat":43.29023,"lon":5.38124,"is_reserved":false,"is_disabled":true,"rental_uris":{"android":"levelo://app?vid=a58f07f0-b33f-4953-ab0c-f29dc5595b36","ios":"levelo://app?vid=a58f07f0-b33f-4953-ab0c-f29dc5595b36"},"vehicle_type_id":"4","last_reported":1741813732,"current_range_meters":6800,"station_id":"ce4bh4p2rcd13ifvqe1g","pricing_plan_id":"cebpf4jnsgd1na2vs0mg"},{"bike_id":"c47abed3-463e-4702-b23e-85563cf7923d","system_id":"levelo_inurba_marseille","lat":43.31088,"lon":5.42444,"is_reserved":false,"is_disabled":false,"rental_uris":{"android":"levelo://app?vid=c47abed3-463e-4702-b23e-85563cf7923d","ios":"levelo://app?vid=c47abed3-463e-4702-b23e-85563cf7923d"},"vehicle_type_id":"4","last_reported":1741813732,"current_range_meters":6800,"station_id":"ce4bhp92rcd13ifvqhag","pricing_plan_id":"cebpf4jnsgd1na2vs0mg"},{"bike_id":"c8424a2d-efd9-4ccf-9fc2-6fdb41afc986","system_id":"levelo_inurba_marseille","lat":43.28154,"lon":5.42637,"is_reserved":false,"is_disabled":false,"rental_uris":{"android":"levelo://app?vid=c8424a2d-efd9-4ccf-9fc2-6fdb41afc986","ios":"levelo://app?vid=c8424a2d-efd9-4ccf-9fc2-6fdb41afc986"},"vehicle_type_id":"4","last_reported":1741813732,"current_range_meters":6800,"station_id":"ce4bhnh2rcd13ifvqgug","pricing_plan_id":"cebpf4jnsgd1na2vs0mg"},{"bike_id":"f1c0d483-c580-4378-87bc-d11122fe1b18","system_id":"levelo_inurba_marseille","lat":43.29268,"lon":5.38445,"is_reserved":false,"is_disabled":true,"rental_uris":{"android":"levelo://app?vid=f1c0d483-c580-4378-87bc-d11122fe1b18","ios":"levelo://app?vid=f1c0d483-c580-4378-87bc-d11122fe1b18"},"vehicle_type_id":"4","last_reported":1741813732,"current_range_meters":6800,"station_id":"ce4bh692rcd13ifvqea0","pricing_plan_id":"cebpf4jnsgd1na2vs0mg"},{"bike_id":"fc959b8d-1341-494f-98e8-b88bdc42e5fd","system_id":"levelo_inurba_marseille","lat":43.31996,"lon":5.38156,"is_reserved":false,"is_disabled":false,"rental_uris":{"android":"levelo://app?vid=fc959b8d-1341-494f-98e8-b88bdc42e5fd","ios":"levelo://app?vid=fc959b8d-1341-494f-98e8-b88bdc42e5fd"},"vehicle_type_id":"4","last_reported":1741813732,"current_range_meters":6800,"station_id":"ce4bhr12rcd13ifvqhpg","pricing_plan_id":"cebpf4jnsgd1na2vs0mg"},{"bike_id":"da440fc7-ae9a-4b21-83c8-a8e662a14c16","system_id":"levelo_inurba_marseille","lat":43.25531,"lon":5.37659,"is_reserved":false,"is_disabled":true,"rental_uris":{"android":"levelo://app?vid=da440fc7-ae9a-4b21-83c8-a8e662a14c16","ios":"levelo://app?vid=da440fc7-ae9a-4b21-83c8-a8e662a14c16"},"vehicle_type_id":"4","last_reported":1741813732,"current_range_meters":6800,"station_id":"ce4bhh12rcd13ifvqff0","pricing_plan_id":"cebpf4jnsgd1na2vs0mg"},{"bike_id":"4b07b260-5fba-4534-bdee-f9c50db59047","system_id":"levelo_inurba_marseille","lat":43.32943,"lon":5.39052,"is_reserved":false,"is_disabled":false,"rental_uris":{"android":"levelo://app?vid=4b07b260-5fba-4534-bdee-f9c50db59047","ios":"levelo://app?vid=4b07b260-5fba-4534-bdee-f9c50db59047"},"vehicle_type_id":"4","last_reported":1741813732,"current_range_meters":6800,"station_id":"","pricing_plan_id":"cebpf4jnsgd1na2vs0mg"},{"bike_id":"94ee7794-5eaa-46ed-adb1-a75e768828ef","system_id":"levelo_inurba_marseille","lat":43.27962,"lon":5.38743,"is_reserved":false,"is_disabled":false,"rental_uris":{"android":"levelo://app?vid=94ee7794-5eaa-46ed-adb1-a75e768828ef","ios":"levelo://app?vid=94ee7794-5eaa-46ed-adb1-a75e768828ef"},"vehicle_type_id":"4","last_reported":1741813732,"current_range_meters":6800,"station_id":"ce4bhg12rcd13ifvqf80","pricing_plan_id":"cebpf4jnsgd1na2vs0mg"},{"bike_id":"83ce6271-ffa3-4e21-8aee-eef24c3cb1c8","system_id":"levelo_inurba_marseille","lat":43.25858,"lon":5.39898,"is_reserved":false,"is_disabled":false,"rental_uris":{"android":"levelo://app?vid=83ce6271-ffa3-4e21-8aee-eef24c3cb1c8","ios":"levelo://app?vid=83ce6271-ffa3-4e21-8aee-eef24c3cb1c8"},"vehicle_type_id":"4","last_reported":1741813732,"current_range_meters":6800,"station_id":"ce4bhl92rcd13ifvqghg","pricing_plan_id":"cebpf4jnsgd1na2vs0mg"},{"bike_id":"985ba300-542a-4309-8532-765e28bc8981","system_id":"levelo_inurba_marseille","lat":43.30826,"lon":5.36975,"is_reserved":false,"is_disabled":false,"rental_uris":{"android":"levelo://app?vid=985ba300-542a-4309-8532-765e28bc8981","ios":"levelo://app?vid=985ba300-542a-4309-8532-765e28bc8981"},"vehicle_type_id":"4","last_reported":1741813732,"current_range_meters":6800,"station_id":"","pricing_plan_id":"cebpf4jnsgd1na2vs0mg"},{"bike_id":"3f034010-0f0b-4a73-aa5f-fd005f333a62","system_id":"levelo_inurba_marseille","lat":43.29031,"lon":5.3865,"is_reserved":false,"is_disabled":false,"rental_uris":{"android":"levelo://app?vid=3f034010-0f0b-4a73-aa5f-fd005f333a62","ios":"levelo://app?vid=3f034010-0f0b-4a73-aa5f-fd005f333a62"},"vehicle_type_id":"4","last_reported":1741813732,"current_range_meters":6800,"station_id":"ce4bh4p2rcd13ifvqe0g","pricing_plan_id":"cebpf4jnsgd1na2vs0mg"},{"bike_id":"44ac2f0b-f0c4-43be-9a21-9dfeb1228fbc","system_id":"levelo_inurba_marseille","lat":43.28077,"lon":5.39656,"is_reserved":false,"is_disabled":false,"rental_uris":{"android":"levelo://app?vid=44ac2f0b-f0c4-43be-9a21-9dfeb1228fbc","ios":"levelo://app?vid=44ac2f0b-f0c4-43be-9a21-9dfeb1228fbc"},"vehicle_type_id":"4","last_reported":1741813732,"current_range_meters":6800,"station_id":"ce4bho12rcd13ifvqh2g","pricing_plan_id":"cebpf4jnsgd1na2vs0mg"},{"bike_id":"e12be538-6dde-4604-98c7-f66a323a5270","system_id":"levelo_inurba_marseille","lat":43.23059,"lon":5.35491,"is_reserved":false,"is_disabled":false,"rental_uris":{"android":"levelo://app?vid=e12be538-6dde-4604-98c7-f66a323a5270","ios":"levelo://app?vid=e12be538-6dde-4604-98c7-f66a323a5270"},"vehicle_type_id":"4","last_reported":1741813732,"current_range_meters":6800,"station_id":"cpo3342slgdg3j2ifvpg","pricing_plan_id":"cebpf4jnsgd1na2vs0mg"},{"bike_id":"f69a41ab-5e9f-43f8-91ce-b222faee4ca4","system_id":"levelo_inurba_marseille","lat":43.30147,"lon":5.37421,"is_reserved":false,"is_disabled":false,"rental_uris":{"android":"levelo://app?vid=f69a41ab-5e9f-43f8-91ce-b222faee4ca4","ios":"levelo://app?vid=f69a41ab-5e9f-43f8-91ce-b222faee4ca4"},"vehicle_type_id":"4","last_reported":1741813732,"current_range_meters":6800,"station_id":"ce4bgs92rcd13ifvqcc0","pricing_plan_id":"cebpf4jnsgd1na2vs0mg"},{"bike_id":"feb4b9df-ca5a-441d-8892-405597e7da99","system_id":"levelo_inurba_marseille","lat":43.23059,"lon":5.3548,"is_reserved":false,"is_disabled":false,"rental_uris":{"android":"levelo://app?vid=feb4b9df-ca5a-441d-8892-405597e7da99","ios":"levelo://app?vid=feb4b9df-ca5a-441d-8892-405597e7da99"},"vehicle_type_id":"4","last_reported":1741813732,"current_range_meters":6800,"station_id":"cpo3342slgdg3j2ifvpg","pricing_plan_id":"cebpf4jnsgd1na2vs0mg"},{"bike_id":"415e7a31-245d-4ead-9f33-dad092a04302","system_id":"levelo_inurba_marseille","lat":43.23065,"lon":5.35487,"is_reserved":false,"is_disabled":false,"rental_uris":{"android":"levelo://app?vid=415e7a31-245d-4ead-9f33-dad092a04302","ios":"levelo://app?vid=415e7a31-245d-4ead-9f33-dad092a04302"},"vehicle_type_id":"4","last_reported":1741813732,"current_range_meters":7200,"station_id":"cpo3342slgdg3j2ifvpg","pricing_plan_id":"cebpf4jnsgd1na2vs0mg"},{"bike_id":"db78c952-cb3a-4ed1-83ee-d481a83b8291","system_id":"levelo_inurba_marseille","lat":43.2693,"lon":5.38911,"is_reserved":false,"is_disabled":false,"rental_uris":{"android":"levelo://app?vid=db78c952-cb3a-4ed1-83ee-d481a83b8291","ios":"levelo://app?vid=db78c952-cb3a-4ed1-83ee-d481a83b8291"},"vehicle_type_id":"4","last_reported":1741813732,"current_range_meters":6800,"station_id":"ce4bhhh2rcd13ifvqfl0","pricing_plan_id":"cebpf4jnsgd1na2vs0mg"},{"bike_id":"72de4c85-7223-490f-9219-5d9d46436df5","system_id":"levelo_inurba_marseille","lat":43.33176,"lon":5.39456,"is_reserved":false,"is_disabled":false,"rental_uris":{"android":"levelo://app?vid=72de4c85-7223-490f-9219-5d9d46436df5","ios":"levelo://app?vid=72de4c85-7223-490f-9219-5d9d46436df5"},"vehicle_type_id":"4","last_reported":1741813732,"current_range_meters":8000,"station_id":"","pricing_plan_id":"cebpf4jnsgd1na2vs0mg"},{"bike_id":"62822e07-bde7-4f32-9a60-0dd57fa516ba","system_id":"levelo_inurba_marseille","lat":43.29865,"lon":5.39735,"is_reserved":false,"is_disabled":false,"rental_uris":{"android":"levelo://app?vid=62822e07-bde7-4f32-9a60-0dd57fa516ba","ios":"levelo://app?vid=62822e07-bde7-4f32-9a60-0dd57fa516ba"},"vehicle_type_id":"4","last_reported":1741813732,"current_range_meters":7200,"station_id":"ce4bh0h2rcd13ifvqd50","pricing_plan_id":"cebpf4jnsgd1na2vs0mg"},{"bike_id":"c646b02a-bcae-4eff-beb2-0fc9901597e0","system_id":"levelo_inurba_marseille","lat":43.24545,"lon":5.39523,"is_reserved":false,"is_disabled":false,"rental_uris":{"android":"levelo://app?vid=c646b02a-bcae-4eff-beb2-0fc9901597e0","ios":"levelo://app?vid=c646b02a-bcae-4eff-beb2-0fc9901597e0"},"vehicle_type_id":"4","last_reported":1741813732,"current_range_meters":7200,"station_id":"ce4bhlp2rcd13ifvqgjg","pricing_plan_id":"cebpf4jnsgd1na2vs0mg"},{"bike_id":"05388ace-665a-4114-a828-939b708a2589","system_id":"levelo_inurba_marseille","lat":43.23193,"lon":5.39975,"is_reserved":false,"is_disabled":false,"rental_uris":{"android":"levelo://app?vid=05388ace-665a-4114-a828-939b708a2589","ios":"levelo://app?vid=05388ace-665a-4114-a828-939b708a2589"},"vehicle_type_id":"4","last_reported":1741813732,"current_range_meters":7200,"station_id":"ce4bhn12rcd13ifvqgqg","pricing_plan_id":"cebpf4jnsgd1na2vs0mg"},{"bike_id":"ed596a7c-cda2-45ef-b25e-62c3bde0748a","system_id":"levelo_inurba_marseille","lat":43.25006,"lon":5.38931,"is_reserved":false,"is_disabled":false,"rental_uris":{"android":"levelo://app?vid=ed596a7c-cda2-45ef-b25e-62c3bde0748a","ios":"levelo://app?vid=ed596a7c-cda2-45ef-b25e-62c3bde0748a"},"vehicle_type_id":"4","last_reported":1741813732,"current_range_meters":8000,"station_id":"ce4bhgp2rcd13ifvqfd0","pricing_plan_id":"cebpf4jnsgd1na2vs0mg"},{"bike_id":"efab6700-508c-45e7-a250-bfb1d4670a97","system_id":"levelo_inurba_marseille","lat":43.31314,"lon":5.3973,"is_reserved":false,"is_disabled":false,"rental_uris":{"android":"levelo://app?vid=efab6700-508c-45e7-a250-bfb1d4670a97","ios":"levelo://app?vid=efab6700-508c-45e7-a250-bfb1d4670a97"},"vehicle_type_id":"4","last_reported":1741813732,"current_range_meters":8000,"station_id":"ce4bgvp2rcd13ifvqcu0","pricing_plan_id":"cebpf4jnsgd1na2vs0mg"},{"bike_id":"e82a7765-952e-473e-ae93-51129021ba92","system_id":"levelo_inurba_marseille","lat":43.23951,"lon":5.36649,"is_reserved":false,"is_disabled":false,"rental_uris":{"android":"levelo://app?vid=e82a7765-952e-473e-ae93-51129021ba92","ios":"levelo://app?vid=e82a7765-952e-473e-ae93-51129021ba92"},"vehicle_type_id":"4","last_reported":1741813732,"current_range_meters":8000,"station_id":"ce4bhi12rcd13ifvqfp0","pricing_plan_id":"cebpf4jnsgd1na2vs0mg"},{"bike_id":"4bd1d516-27fc-4a7a-a82b-0dd452c88ab3","system_id":"levelo_inurba_marseille","lat":43.27485,"lon":5.42454,"is_reserved":false,"is_disabled":false,"rental_uris":{"android":"levelo://app?vid=4bd1d516-27fc-4a7a-a82b-0dd452c88ab3","ios":"levelo://app?vid=4bd1d516-27fc-4a7a-a82b-0dd452c88ab3"},"vehicle_type_id":"4","last_reported":1741813732,"current_range_meters":8000,"station_id":"ce4bhn92rcd13ifvqgrg","pricing_plan_id":"cebpf4jnsgd1na2vs0mg"},{"bike_id":"036b7adf-641b-4805-af35-5082b53b93a3","system_id":"levelo_inurba_marseille","lat":43.29869,"lon":5.3973,"is_reserved":false,"is_disabled":false,"rental_uris":{"android":"levelo://app?vid=036b7adf-641b-4805-af35-5082b53b93a3","ios":"levelo://app?vid=036b7adf-641b-4805-af35-5082b53b93a3"},"vehicle_type_id":"4","last_reported":1741813732,"current_range_meters":10800,"station_id":"ce4bh0h2rcd13ifvqd50","pricing_plan_id":"cebpf4jnsgd1na2vs0mg"},{"bike_id":"966a843b-2687-4bd7-ad0f-8d17709f0fda","system_id":"levelo_inurba_marseille","lat":43.31058,"lon":5.38361,"is_reserved":false,"is_disabled":false,"rental_uris":{"android":"levelo://app?vid=966a843b-2687-4bd7-ad0f-8d17709f0fda","ios":"levelo://app?vid=966a843b-2687-4bd7-ad0f-8d17709f0fda"},"vehicle_type_id":"4","last_reported":1741813732,"current_range_meters":8400,"station_id":"ce4bgv92rcd13ifvqcr0","pricing_plan_id":"cebpf4jnsgd1na2vs0mg"},{"bike_id":"ef3a7ddb-cf45-4466-bbc7-0ba1798fb5cd","system_id":"levelo_inurba_marseille","lat":43.29303,"lon":5.37175,"is_reserved":false,"is_disabled":false,"rental_uris":{"android":"levelo://app?vid=ef3a7ddb-cf45-4466-bbc7-0ba1798fb5cd","ios":"levelo://app?vid=ef3a7ddb-cf45-4466-bbc7-0ba1798fb5cd"},"vehicle_type_id":"4","last_reported":1741813732,"current_range_meters":8400,"station_id":"ce4bgh92rcd13ifvqb40","pricing_plan_id":"cebpf4jnsgd1na2vs0mg"},{"bike_id":"633ba8c1-2c9f-4ecd-a921-5eb75731d6da","system_id":"levelo_inurba_marseille","lat":43.28702,"lon":5.37392,"is_reserved":false,"is_disabled":false,"rental_uris":{"android":"levelo://app?vid=633ba8c1-2c9f-4ecd-a921-5eb75731d6da","ios":"levelo://app?vid=633ba8c1-2c9f-4ecd-a921-5eb75731d6da"},"vehicle_type_id":"4","last_reported":1741813732,"current_range_meters":8400,"station_id":"ce4bh3p2rcd13ifvqdq0","pricing_plan_id":"cebpf4jnsgd1na2vs0mg"},{"bike_id":"8baf206c-55c3-4aed-af55-45129b72d8cc","system_id":"levelo_inurba_marseille","lat":43.2894,"lon":5.36637,"is_reserved":false,"is_disabled":false,"rental_uris":{"android":"levelo://app?vid=8baf206c-55c3-4aed-af55-45129b72d8cc","ios":"levelo://app?vid=8baf206c-55c3-4aed-af55-45129b72d8cc"},"vehicle_type_id":"4","last_reported":1741813732,"current_range_meters":8400,"station_id":"ce4bhap2rcd13ifvqek0","pricing_plan_id":"cebpf4jnsgd1na2vs0mg"},{"bike_id":"2931d81f-abb3-45b8-9224-dc3fce2fae31","system_id":"levelo_inurba_marseille","lat":43.32364,"lon":5.36743,"is_reserved":false,"is_disabled":false,"rental_uris":{"android":"levelo://app?vid=2931d81f-abb3-45b8-9224-dc3fce2fae31","ios":"levelo://app?vid=2931d81f-abb3-45b8-9224-dc3fce2fae31"},"vehicle_type_id":"4","last_reported":1741813732,"current_range_meters":8400,"station_id":"ce4bhsh2rcd13ifvqi2g","pricing_plan_id":"cebpf4jnsgd1na2vs0mg"},{"bike_id":"29845dc5-37a0-4fe4-ad83-a244b4c5c8a7","system_id":"levelo_inurba_marseille","lat":43.28161,"lon":5.42662,"is_reserved":false,"is_disabled":false,"rental_uris":{"android":"levelo://app?vid=29845dc5-37a0-4fe4-ad83-a244b4c5c8a7","ios":"levelo://app?vid=29845dc5-37a0-4fe4-ad83-a244b4c5c8a7"},"vehicle_type_id":"4","last_reported":1741813732,"current_range_meters":8400,"station_id":"ce4bhnh2rcd13ifvqgug","pricing_plan_id":"cebpf4jnsgd1na2vs0mg"},{"bike_id":"8dee66dd-a753-4e90-9df0-a75f60b0d66f","system_id":"levelo_inurba_marseille","lat":43.28579,"lon":5.425,"is_reserved":false,"is_disabled":false,"rental_uris":{"android":"levelo://app?vid=8dee66dd-a753-4e90-9df0-a75f60b0d66f","ios":"levelo://app?vid=8dee66dd-a753-4e90-9df0-a75f60b0d66f"},"vehicle_type_id":"4","last_reported":1741813732,"current_range_meters":8400,"station_id":"","pricing_plan_id":"cebpf4jnsgd1na2vs0mg"},{"bike_id":"5c0be3c0-190a-43f3-becc-02f064bfef44","system_id":"levelo_inurba_marseille","lat":43.33433,"lon":5.4007,"is_reserved":false,"is_disabled":false,"rental_uris":{"android":"levelo://app?vid=5c0be3c0-190a-43f3-becc-02f064bfef44","ios":"levelo://app?vid=5c0be3c0-190a-43f3-becc-02f064bfef44"},"vehicle_type_id":"4","last_reported":1741813732,"current_range_meters":8400,"station_id":"","pricing_plan_id":"cebpf4jnsgd1na2vs0mg"},{"bike_id":"c4df4535-7d31-495a-82fb-c042b3676ebe","system_id":"levelo_inurba_marseille","lat":43.32344,"lon":5.40605,"is_reserved":false,"is_disabled":false,"rental_uris":{"android":"levelo://app?vid=c4df4535-7d31-495a-82fb-c042b3676ebe","ios":"levelo://app?vid=c4df4535-7d31-495a-82fb-c042b3676ebe"},"vehicle_type_id":"4","last_reported":1741813732,"current_range_meters":8400,"station_id":"ce4bhq92rcd13ifvqhjg","pricing_plan_id":"cebpf4jnsgd1na2vs0mg"},{"bike_id":"03fcef79-f017-4d15-a10d-891c5cd96db2","system_id":"levelo_inurba_marseille","lat":43.23065,"lon":5.35481,"is_reserved":false,"is_disabled":false,"rental_uris":{"android":"levelo://app?vid=03fcef79-f017-4d15-a10d-891c5cd96db2","ios":"levelo://app?vid=03fcef79-f017-4d15-a10d-891c5cd96db2"},"vehicle_type_id":"4","last_reported":1741813732,"current_range_meters":8400,"station_id":"cpo3342slgdg3j2ifvpg","pricing_plan_id":"cebpf4jnsgd1na2vs0mg"},{"bike_id":"f829a819-671e-4b71-9c22-56c5f8047725","system_id":"levelo_inurba_marseille","lat":43.32376,"lon":5.36756,"is_reserved":false,"is_disabled":false,"rental_uris":{"android":"levelo://app?vid=f829a819-671e-4b71-9c22-56c5f8047725","ios":"levelo://app?vid=f829a819-671e-4b71-9c22-56c5f8047725"},"vehicle_type_id":"4","last_reported":1741813732,"current_range_meters":8400,"station_id":"ce4bhsh2rcd13ifvqi2g","pricing_plan_id":"cebpf4jnsgd1na2vs0mg"},{"bike_id":"f076f6f7-e4b4-48be-92db-c2ec27c500f6","system_id":"levelo_inurba_marseille","lat":43.231929,"lon":5.399851,"is_reserved":false,"is_disabled":false,"rental_uris":{"android":"levelo://app?vid=f076f6f7-e4b4-48be-92db-c2ec27c500f6","ios":"levelo://app?vid=f076f6f7-e4b4-48be-92db-c2ec27c500f6"},"vehicle_type_id":"4","last_reported":1741813732,"current_range_meters":8800,"station_id":"ce4bhn12rcd13ifvqgqg","pricing_plan_id":"cebpf4jnsgd1na2vs0mg"},{"bike_id":"385dd9cb-1d33-48e9-8250-88818c623a92","system_id":"levelo_inurba_marseille","lat":43.260587,"lon":5.393947,"is_reserved":false,"is_disabled":false,"rental_uris":{"android":"levelo://app?vid=385dd9cb-1d33-48e9-8250-88818c623a92","ios":"levelo://app?vid=385dd9cb-1d33-48e9-8250-88818c623a92"},"vehicle_type_id":"4","last_reported":1741813732,"current_range_meters":8800,"station_id":"ce4bhh92rcd13ifvqfj0","pricing_plan_id":"cebpf4jnsgd1na2vs0mg"},{"bike_id":"aeca8d61-61f7-41ab-a0ef-f49a44bca5c8","system_id":"levelo_inurba_marseille","lat":43.29,"lon":5.35615,"is_reserved":false,"is_disabled":true,"rental_uris":{"android":"levelo://app?vid=aeca8d61-61f7-41ab-a0ef-f49a44bca5c8","ios":"levelo://app?vid=aeca8d61-61f7-41ab-a0ef-f49a44bca5c8"},"vehicle_type_id":"4","last_reported":1741813732,"current_range_meters":8800,"station_id":"ce4bhb92rcd13ifvqen0","pricing_plan_id":"cebpf4jnsgd1na2vs0mg"},{"bike_id":"e24c6d9b-6472-424b-b3fe-1280a8eeaeaa","system_id":"levelo_inurba_marseille","lat":43.29101,"lon":5.38122,"is_reserved":false,"is_disabled":false,"rental_uris":{"android":"levelo://app?vid=e24c6d9b-6472-424b-b3fe-1280a8eeaeaa","ios":"levelo://app?vid=e24c6d9b-6472-424b-b3fe-1280a8eeaeaa"},"vehicle_type_id":"4","last_reported":1741813732,"current_range_meters":8800,"station_id":"ce4bh512rcd13ifvqe2g","pricing_plan_id":"cebpf4jnsgd1na2vs0mg"},{"bike_id":"f4f6951d-a3fd-42a9-86a0-c61cdb750c82","system_id":"levelo_inurba_marseille","lat":43.25092,"lon":5.39513,"is_reserved":false,"is_disabled":false,"rental_uris":{"android":"levelo://app?vid=f4f6951d-a3fd-42a9-86a0-c61cdb750c82","ios":"levelo://app?vid=f4f6951d-a3fd-42a9-86a0-c61cdb750c82"},"vehicle_type_id":"4","last_reported":1741813732,"current_range_meters":8800,"station_id":"ce4bhm12rcd13ifvqgkg","pricing_plan_id":"cebpf4jnsgd1na2vs0mg"},{"bike_id":"d7aaef38-7eff-471c-ba72-07e0eabbfe50","system_id":"levelo_inurba_marseille","lat":43.27934,"lon":5.41044,"is_reserved":false,"is_disabled":false,"rental_uris":{"android":"levelo://app?vid=d7aaef38-7eff-471c-ba72-07e0eabbfe50","ios":"levelo://app?vid=d7aaef38-7eff-471c-ba72-07e0eabbfe50"},"vehicle_type_id":"4","last_reported":1741813732,"current_range_meters":8800,"station_id":"ce4bhnp2rcd13ifvqh0g","pricing_plan_id":"cebpf4jnsgd1na2vs0mg"},{"bike_id":"1bb0937d-9ba1-4ef6-b9f0-674b69c5806f","system_id":"levelo_inurba_marseille","lat":43.29515,"lon":5.39409,"is_reserved":false,"is_disabled":false,"rental_uris":{"android":"levelo://app?vid=1bb0937d-9ba1-4ef6-b9f0-674b69c5806f","ios":"levelo://app?vid=1bb0937d-9ba1-4ef6-b9f0-674b69c5806f"},"vehicle_type_id":"4","last_reported":1741813732,"current_range_meters":8800,"station_id":"ce4bh292rcd13ifvqdf0","pricing_plan_id":"cebpf4jnsgd1na2vs0mg"},{"bike_id":"a4ce6389-69c8-41eb-a2cb-27e113df5153","system_id":"levelo_inurba_marseille","lat":43.28615,"lon":5.35097,"is_reserved":false,"is_disabled":false,"rental_uris":{"android":"levelo://app?vid=a4ce6389-69c8-41eb-a2cb-27e113df5153","ios":"levelo://app?vid=a4ce6389-69c8-41eb-a2cb-27e113df5153"},"vehicle_type_id":"4","last_reported":1741813732,"current_range_meters":9200,"station_id":"ce4bhch2rcd13ifvqeug","pricing_plan_id":"cebpf4jnsgd1na2vs0mg"},{"bike_id":"8b6c96b0-c180-4024-b6d1-b96a5d1b6e43","system_id":"levelo_inurba_marseille","lat":43.2988,"lon":5.38902,"is_reserved":false,"is_disabled":false,"rental_uris":{"android":"levelo://app?vid=8b6c96b0-c180-4024-b6d1-b96a5d1b6e43","ios":"levelo://app?vid=8b6c96b0-c180-4024-b6d1-b96a5d1b6e43"},"vehicle_type_id":"4","last_reported":1741813732,"current_range_meters":9200,"station_id":"ce4bh392rcd13ifvqdl0","pricing_plan_id":"cebpf4jnsgd1na2vs0mg"},{"bike_id":"46f2e81a-8d75-4b81-a3ee-d46e23c0fa4e","system_id":"levelo_inurba_marseille","lat":43.24548,"lon":5.39531,"is_reserved":false,"is_disabled":false,"rental_uris":{"android":"levelo://app?vid=46f2e81a-8d75-4b81-a3ee-d46e23c0fa4e","ios":"levelo://app?vid=46f2e81a-8d75-4b81-a3ee-d46e23c0fa4e"},"vehicle_type_id":"4","last_reported":1741813732,"current_range_meters":9200,"station_id":"ce4bhlp2rcd13ifvqgjg","pricing_plan_id":"cebpf4jnsgd1na2vs0mg"},{"bike_id":"707f97a7-32db-422b-bfa8-ef8d193a1bb4","system_id":"levelo_inurba_marseille","lat":43.2293,"lon":5.35377,"is_reserved":false,"is_disabled":false,"rental_uris":{"android":"levelo://app?vid=707f97a7-32db-422b-bfa8-ef8d193a1bb4","ios":"levelo://app?vid=707f97a7-32db-422b-bfa8-ef8d193a1bb4"},"vehicle_type_id":"4","last_reported":1741813732,"current_range_meters":9200,"station_id":"cpo3532slgdg3j2ikp40","pricing_plan_id":"cebpf4jnsgd1na2vs0mg"},{"bike_id":"ec5d08ce-934d-49b5-9a73-c20b44942d11","system_id":"levelo_inurba_marseille","lat":43.314248,"lon":5.375391,"is_reserved":false,"is_disabled":false,"rental_uris":{"android":"levelo://app?vid=ec5d08ce-934d-49b5-9a73-c20b44942d11","ios":"levelo://app?vid=ec5d08ce-934d-49b5-9a73-c20b44942d11"},"vehicle_type_id":"4","last_reported":1741813732,"current_range_meters":9200,"station_id":"","pricing_plan_id":"cebpf4jnsgd1na2vs0mg"},{"bike_id":"c16477d5-7793-4073-b158-0eaf5052f2dc","system_id":"levelo_inurba_marseille","lat":43.28306,"lon":5.43225,"is_reserved":false,"is_disabled":false,"rental_uris":{"android":"levelo://app?vid=c16477d5-7793-4073-b158-0eaf5052f2dc","ios":"levelo://app?vid=c16477d5-7793-4073-b158-0eaf5052f2dc"},"vehicle_type_id":"4","last_reported":1741813732,"current_range_meters":9200,"station_id":"","pricing_plan_id":"cebpf4jnsgd1na2vs0mg"},{"bike_id":"6190eac7-4d69-4aee-8885-569caf678aef","system_id":"levelo_inurba_marseille","lat":43.25732,"lon":5.41105,"is_reserved":false,"is_disabled":false,"rental_uris":{"android":"levelo://app?vid=6190eac7-4d69-4aee-8885-569caf678aef","ios":"levelo://app?vid=6190eac7-4d69-4aee-8885-569caf678aef"},"vehicle_type_id":"4","last_reported":1741813732,"current_range_meters":9200,"station_id":"ce4bhkp2rcd13ifvqgd0","pricing_plan_id":"cebpf4jnsgd1na2vs0mg"},{"bike_id":"c1e9afda-d123-467f-b327-87f3a94a0b81","system_id":"levelo_inurba_marseille","lat":43.24674,"lon":5.38168,"is_reserved":false,"is_disabled":false,"rental_uris":{"android":"levelo://app?vid=c1e9afda-d123-467f-b327-87f3a94a0b81","ios":"levelo://app?vid=c1e9afda-d123-467f-b327-87f3a94a0b81"},"vehicle_type_id":"4","last_reported":1741813732,"current_range_meters":9200,"station_id":"ce4bhih2rcd13ifvqfr0","pricing_plan_id":"cebpf4jnsgd1na2vs0mg"},{"bike_id":"12d8c0d4-6abc-4053-9c8c-690abca02735","system_id":"levelo_inurba_marseille","lat":43.312043,"lon":5.374277,"is_reserved":false,"is_disabled":false,"rental_uris":{"android":"levelo://app?vid=12d8c0d4-6abc-4053-9c8c-690abca02735","ios":"levelo://app?vid=12d8c0d4-6abc-4053-9c8c-690abca02735"},"vehicle_type_id":"4","last_reported":1741813732,"current_range_meters":9200,"station_id":"","pricing_plan_id":"cebpf4jnsgd1na2vs0mg"},{"bike_id":"cf16dec3-3347-40cc-be03-a3cd79c5b809","system_id":"levelo_inurba_marseille","lat":43.29429,"lon":5.38636,"is_reserved":false,"is_disabled":false,"rental_uris":{"android":"levelo://app?vid=cf16dec3-3347-40cc-be03-a3cd79c5b809","ios":"levelo://app?vid=cf16dec3-3347-40cc-be03-a3cd79c5b809"},"vehicle_type_id":"4","last_reported":1741813732,"current_range_meters":9200,"station_id":"ce4bh2h2rcd13ifvqdh0","pricing_plan_id":"cebpf4jnsgd1na2vs0mg"},{"bike_id":"4d4acf51-c07c-4aef-b577-238196b1ded2","system_id":"levelo_inurba_marseille","lat":43.27073,"lon":5.42283,"is_reserved":false,"is_disabled":false,"rental_uris":{"android":"levelo://app?vid=4d4acf51-c07c-4aef-b577-238196b1ded2","ios":"levelo://app?vid=4d4acf51-c07c-4aef-b577-238196b1ded2"},"vehicle_type_id":"4","last_reported":1741813732,"current_range_meters":9600,"station_id":"ce4bhk92rcd13ifvqgb0","pricing_plan_id":"cebpf4jnsgd1na2vs0mg"},{"bike_id":"f83b1590-73f8-4900-a667-6c005eb9b249","system_id":"levelo_inurba_marseille","lat":43.29579,"lon":5.39966,"is_reserved":false,"is_disabled":true,"rental_uris":{"android":"levelo://app?vid=f83b1590-73f8-4900-a667-6c005eb9b249","ios":"levelo://app?vid=f83b1590-73f8-4900-a667-6c005eb9b249"},"vehicle_type_id":"4","last_reported":1741813732,"current_range_meters":9600,"station_id":"ce4bh312rcd13ifvqdj0","pricing_plan_id":"cebpf4jnsgd1na2vs0mg"},{"bike_id":"20719e7d-e656-4d2f-a019-3cbf98c17c5e","system_id":"levelo_inurba_marseille","lat":43.28626,"lon":5.3511,"is_reserved":false,"is_disabled":false,"rental_uris":{"android":"levelo://app?vid=20719e7d-e656-4d2f-a019-3cbf98c17c5e","ios":"levelo://app?vid=20719e7d-e656-4d2f-a019-3cbf98c17c5e"},"vehicle_type_id":"4","last_reported":1741813732,"current_range_meters":9600,"station_id":"ce4bhch2rcd13ifvqeug","pricing_plan_id":"cebpf4jnsgd1na2vs0mg"},{"bike_id":"600a8b1d-91ce-4fc9-92cd-846d63d5cb51","system_id":"levelo_inurba_marseille","lat":43.24999,"lon":5.38922,"is_reserved":false,"is_disabled":false,"rental_uris":{"android":"levelo://app?vid=600a8b1d-91ce-4fc9-92cd-846d63d5cb51","ios":"levelo://app?vid=600a8b1d-91ce-4fc9-92cd-846d63d5cb51"},"vehicle_type_id":"4","last_reported":1741813732,"current_range_meters":9600,"station_id":"ce4bhgp2rcd13ifvqfd0","pricing_plan_id":"cebpf4jnsgd1na2vs0mg"},{"bike_id":"485f1510-a973-46b6-8b2d-6d22ffc60cae","system_id":"levelo_inurba_marseille","lat":43.24188,"lon":5.3642,"is_reserved":false,"is_disabled":false,"rental_uris":{"android":"levelo://app?vid=485f1510-a973-46b6-8b2d-6d22ffc60cae","ios":"levelo://app?vid=485f1510-a973-46b6-8b2d-6d22ffc60cae"},"vehicle_type_id":"4","last_reported":1741813732,"current_range_meters":9600,"station_id":"cpo36qri1sfpv3e86is0","pricing_plan_id":"cebpf4jnsgd1na2vs0mg"},{"bike_id":"2d16443d-ed2e-4c48-af94-4deffe2479f1","system_id":"levelo_inurba_marseille","lat":43.25004,"lon":5.38913,"is_reserved":false,"is_disabled":false,"rental_uris":{"android":"levelo://app?vid=2d16443d-ed2e-4c48-af94-4deffe2479f1","ios":"levelo://app?vid=2d16443d-ed2e-4c48-af94-4deffe2479f1"},"vehicle_type_id":"4","last_reported":1741813732,"current_range_meters":9600,"station_id":"ce4bhgp2rcd13ifvqfd0","pricing_plan_id":"cebpf4jnsgd1na2vs0mg"},{"bike_id":"e59dfd2a-6724-4e77-b6b3-0f0dfc37aab3","system_id":"levelo_inurba_marseille","lat":43.3079,"lon":5.3815,"is_reserved":false,"is_disabled":false,"rental_uris":{"android":"levelo://app?vid=e59dfd2a-6724-4e77-b6b3-0f0dfc37aab3","ios":"levelo://app?vid=e59dfd2a-6724-4e77-b6b3-0f0dfc37aab3"},"vehicle_type_id":"4","last_reported":1741813732,"current_range_meters":9600,"station_id":"ce4bgt12rcd13ifvqce0","pricing_plan_id":"cebpf4jnsgd1na2vs0mg"},{"bike_id":"976670d4-d283-4d56-9d3a-3b6e97813f9f","system_id":"levelo_inurba_marseille","lat":43.29411,"lon":5.38612,"is_reserved":false,"is_disabled":false,"rental_uris":{"android":"levelo://app?vid=976670d4-d283-4d56-9d3a-3b6e97813f9f","ios":"levelo://app?vid=976670d4-d283-4d56-9d3a-3b6e97813f9f"},"vehicle_type_id":"4","last_reported":1741813732,"current_range_meters":9600,"station_id":"ce4bh2h2rcd13ifvqdh0","pricing_plan_id":"cebpf4jnsgd1na2vs0mg"},{"bike_id":"0a995a9a-6122-4f4b-b298-a8b06cbca7e2","system_id":"levelo_inurba_marseille","lat":43.24997,"lon":5.38917,"is_reserved":false,"is_disabled":false,"rental_uris":{"android":"levelo://app?vid=0a995a9a-6122-4f4b-b298-a8b06cbca7e2","ios":"levelo://app?vid=0a995a9a-6122-4f4b-b298-a8b06cbca7e2"},"vehicle_type_id":"4","last_reported":1741813732,"current_range_meters":10000,"station_id":"ce4bhgp2rcd13ifvqfd0","pricing_plan_id":"cebpf4jnsgd1na2vs0mg"},{"bike_id":"df6b060b-9f9e-4288-bcc1-ae0d53050642","system_id":"levelo_inurba_marseille","lat":43.22932,"lon":5.35391,"is_reserved":false,"is_disabled":false,"rental_uris":{"android":"levelo://app?vid=df6b060b-9f9e-4288-bcc1-ae0d53050642","ios":"levelo://app?vid=df6b060b-9f9e-4288-bcc1-ae0d53050642"},"vehicle_type_id":"4","last_reported":1741813732,"current_range_meters":10000,"station_id":"cpo3532slgdg3j2ikp40","pricing_plan_id":"cebpf4jnsgd1na2vs0mg"},{"bike_id":"1c58fcc8-d521-416d-b810-f664c0bc7f73","system_id":"levelo_inurba_marseille","lat":43.27835,"lon":5.39209,"is_reserved":false,"is_disabled":false,"rental_uris":{"android":"levelo://app?vid=1c58fcc8-d521-416d-b810-f664c0bc7f73","ios":"levelo://app?vid=1c58fcc8-d521-416d-b810-f664c0bc7f73"},"vehicle_type_id":"4","last_reported":1741813732,"current_range_meters":10000,"station_id":"","pricing_plan_id":"cebpf4jnsgd1na2vs0mg"},{"bike_id":"55fe5d5a-17ad-4e56-ad62-6cc28a264c81","system_id":"levelo_inurba_marseille","lat":43.24989,"lon":5.38917,"is_reserved":false,"is_disabled":false,"rental_uris":{"android":"levelo://app?vid=55fe5d5a-17ad-4e56-ad62-6cc28a264c81","ios":"levelo://app?vid=55fe5d5a-17ad-4e56-ad62-6cc28a264c81"},"vehicle_type_id":"4","last_reported":1741813732,"current_range_meters":10000,"station_id":"ce4bhgp2rcd13ifvqfd0","pricing_plan_id":"cebpf4jnsgd1na2vs0mg"},{"bike_id":"9f25a6ad-433a-45b0-a0d0-4a619d769e26","system_id":"levelo_inurba_marseille","lat":43.231917,"lon":5.355595,"is_reserved":false,"is_disabled":false,"rental_uris":{"android":"levelo://app?vid=9f25a6ad-433a-45b0-a0d0-4a619d769e26","ios":"levelo://app?vid=9f25a6ad-433a-45b0-a0d0-4a619d769e26"},"vehicle_type_id":"4","last_reported":1741813732,"current_range_meters":10000,"station_id":"ce4bhu92rcd13ifvqi70","pricing_plan_id":"cebpf4jnsgd1na2vs0mg"},{"bike_id":"234f837a-7327-4b92-8f17-adec428df1b9","system_id":"levelo_inurba_marseille","lat":43.25929,"lon":5.40909,"is_reserved":false,"is_disabled":false,"rental_uris":{"android":"levelo://app?vid=234f837a-7327-4b92-8f17-adec428df1b9","ios":"levelo://app?vid=234f837a-7327-4b92-8f17-adec428df1b9"},"vehicle_type_id":"4","last_reported":1741813732,"current_range_meters":10000,"station_id":"ce4bhm92rcd13ifvqglg","pricing_plan_id":"cebpf4jnsgd1na2vs0mg"},{"bike_id":"f89b9f3b-9595-4d0e-acf5-ac5f650bb50c","system_id":"levelo_inurba_marseille","lat":43.30372,"lon":5.42475,"is_reserved":false,"is_disabled":false,"rental_uris":{"android":"levelo://app?vid=f89b9f3b-9595-4d0e-acf5-ac5f650bb50c","ios":"levelo://app?vid=f89b9f3b-9595-4d0e-acf5-ac5f650bb50c"},"vehicle_type_id":"4","last_reported":1741813732,"current_range_meters":10000,"station_id":"ce4bghh2rcd13ifvqb60","pricing_plan_id":"cebpf4jnsgd1na2vs0mg"},{"bike_id":"45fd1bb1-794d-4df4-b163-157b6c4166f2","system_id":"levelo_inurba_marseille","lat":43.313263,"lon":5.39694,"is_reserved":false,"is_disabled":false,"rental_uris":{"android":"levelo://app?vid=45fd1bb1-794d-4df4-b163-157b6c4166f2","ios":"levelo://app?vid=45fd1bb1-794d-4df4-b163-157b6c4166f2"},"vehicle_type_id":"4","last_reported":1741813732,"current_range_meters":10000,"station_id":"ce4bgvp2rcd13ifvqcu0","pricing_plan_id":"cebpf4jnsgd1na2vs0mg"},{"bike_id":"7d4aedfe-c4d1-46e1-9530-386849f612f8","system_id":"levelo_inurba_marseille","lat":43.303744,"lon":5.424939,"is_reserved":false,"is_disabled":false,"rental_uris":{"android":"levelo://app?vid=7d4aedfe-c4d1-46e1-9530-386849f612f8","ios":"levelo://app?vid=7d4aedfe-c4d1-46e1-9530-386849f612f8"},"vehicle_type_id":"4","last_reported":1741813732,"current_range_meters":10000,"station_id":"ce4bghh2rcd13ifvqb60","pricing_plan_id":"cebpf4jnsgd1na2vs0mg"},{"bike_id":"58162fa4-21cd-4f49-aab7-1f0e64f7ff45","system_id":"levelo_inurba_marseille","lat":43.29275,"lon":5.38446,"is_reserved":false,"is_disabled":false,"rental_uris":{"android":"levelo://app?vid=58162fa4-21cd-4f49-aab7-1f0e64f7ff45","ios":"levelo://app?vid=58162fa4-21cd-4f49-aab7-1f0e64f7ff45"},"vehicle_type_id":"4","last_reported":1741813732,"current_range_meters":10000,"station_id":"ce4bh692rcd13ifvqea0","pricing_plan_id":"cebpf4jnsgd1na2vs0mg"},{"bike_id":"6a148f0d-9530-4bf0-8b0d-e5fa0a34f5ab","system_id":"levelo_inurba_marseille","lat":43.28264,"lon":5.35059,"is_reserved":false,"is_disabled":false,"rental_uris":{"android":"levelo://app?vid=6a148f0d-9530-4bf0-8b0d-e5fa0a34f5ab","ios":"levelo://app?vid=6a148f0d-9530-4bf0-8b0d-e5fa0a34f5ab"},"vehicle_type_id":"4","last_reported":1741813732,"current_range_meters":10000,"station_id":"ce4bhbp2rcd13ifvqerg","pricing_plan_id":"cebpf4jnsgd1na2vs0mg"},{"bike_id":"6c83aba9-eb1e-4e35-add9-1ed6c49a74fd","system_id":"levelo_inurba_marseille","lat":43.27989,"lon":5.41655,"is_reserved":false,"is_disabled":false,"rental_uris":{"android":"levelo://app?vid=6c83aba9-eb1e-4e35-add9-1ed6c49a74fd","ios":"levelo://app?vid=6c83aba9-eb1e-4e35-add9-1ed6c49a74fd"},"vehicle_type_id":"4","last_reported":1741813732,"current_range_meters":10000,"station_id":"ce4bho12rcd13ifvqh1g","pricing_plan_id":"cebpf4jnsgd1na2vs0mg"},{"bike_id":"0b9925e3-e64b-415a-937e-2c2fc3c95d99","system_id":"levelo_inurba_marseille","lat":43.24802,"lon":5.37453,"is_reserved":false,"is_disabled":false,"rental_uris":{"android":"levelo://app?vid=0b9925e3-e64b-415a-937e-2c2fc3c95d99","ios":"levelo://app?vid=0b9925e3-e64b-415a-937e-2c2fc3c95d99"},"vehicle_type_id":"4","last_reported":1741813732,"current_range_meters":9600,"station_id":"ce4bhgh2rcd13ifvqfb0","pricing_plan_id":"cebpf4jnsgd1na2vs0mg"},{"bike_id":"3baf227d-0be9-4b96-8721-684a3fb14c35","system_id":"levelo_inurba_marseille","lat":43.31825,"lon":5.37328,"is_reserved":false,"is_disabled":false,"rental_uris":{"android":"levelo://app?vid=3baf227d-0be9-4b96-8721-684a3fb14c35","ios":"levelo://app?vid=3baf227d-0be9-4b96-8721-684a3fb14c35"},"vehicle_type_id":"4","last_reported":1741813732,"current_range_meters":10800,"station_id":"","pricing_plan_id":"cebpf4jnsgd1na2vs0mg"},{"bike_id":"9c9b4fe2-0c24-4e47-8858-2d4973e49f79","system_id":"levelo_inurba_marseille","lat":43.27554,"lon":5.38453,"is_reserved":false,"is_disabled":false,"rental_uris":{"android":"levelo://app?vid=9c9b4fe2-0c24-4e47-8858-2d4973e49f79","ios":"levelo://app?vid=9c9b4fe2-0c24-4e47-8858-2d4973e49f79"},"vehicle_type_id":"4","last_reported":1741813732,"current_range_meters":10800,"station_id":"ce4bhh92rcd13ifvqfi0","pricing_plan_id":"cebpf4jnsgd1na2vs0mg"},{"bike_id":"27978618-6a05-41e9-b500-4c9c04aec95f","system_id":"levelo_inurba_marseille","lat":43.28152,"lon":5.426383,"is_reserved":false,"is_disabled":false,"rental_uris":{"android":"levelo://app?vid=27978618-6a05-41e9-b500-4c9c04aec95f","ios":"levelo://app?vid=27978618-6a05-41e9-b500-4c9c04aec95f"},"vehicle_type_id":"4","last_reported":1741813732,"current_range_meters":10800,"station_id":"ce4bhnh2rcd13ifvqgug","pricing_plan_id":"cebpf4jnsgd1na2vs0mg"},{"bike_id":"6797bf15-c428-46eb-86a3-64177d518a4c","system_id":"levelo_inurba_marseille","lat":43.31329,"lon":5.39688,"is_reserved":false,"is_disabled":false,"rental_uris":{"android":"levelo://app?vid=6797bf15-c428-46eb-86a3-64177d518a4c","ios":"levelo://app?vid=6797bf15-c428-46eb-86a3-64177d518a4c"},"vehicle_type_id":"4","last_reported":1741813732,"current_range_meters":10000,"station_id":"ce4bgvp2rcd13ifvqcu0","pricing_plan_id":"cebpf4jnsgd1na2vs0mg"},{"bike_id":"23667599-c39f-4b94-a83e-082050eb199c","system_id":"levelo_inurba_marseille","lat":43.28411,"lon":5.37532,"is_reserved":false,"is_disabled":false,"rental_uris":{"android":"levelo://app?vid=23667599-c39f-4b94-a83e-082050eb199c","ios":"levelo://app?vid=23667599-c39f-4b94-a83e-082050eb199c"},"vehicle_type_id":"4","last_reported":1741813732,"current_range_meters":10800,"station_id":"ce4bh412rcd13ifvqds0","pricing_plan_id":"cebpf4jnsgd1na2vs0mg"},{"bike_id":"6dbc9b4a-c5a1-4dbf-a00f-5bb7462d2694","system_id":"levelo_inurba_marseille","lat":43.2809,"lon":5.39852,"is_reserved":false,"is_disabled":false,"rental_uris":{"android":"levelo://app?vid=6dbc9b4a-c5a1-4dbf-a00f-5bb7462d2694","ios":"levelo://app?vid=6dbc9b4a-c5a1-4dbf-a00f-5bb7462d2694"},"vehicle_type_id":"4","last_reported":1741813732,"current_range_meters":10800,"station_id":"","pricing_plan_id":"cebpf4jnsgd1na2vs0mg"},{"bike_id":"d1309957-921e-405b-b003-407a2d70e92c","system_id":"levelo_inurba_marseille","lat":43.29093,"lon":5.38139,"is_reserved":false,"is_disabled":false,"rental_uris":{"android":"levelo://app?vid=d1309957-921e-405b-b003-407a2d70e92c","ios":"levelo://app?vid=d1309957-921e-405b-b003-407a2d70e92c"},"vehicle_type_id":"4","last_reported":1741813732,"current_range_meters":10800,"station_id":"ce4bh512rcd13ifvqe2g","pricing_plan_id":"cebpf4jnsgd1na2vs0mg"},{"bike_id":"1be64586-9d5f-48d8-a1a1-8be7ddd8d3e7","system_id":"levelo_inurba_marseille","lat":43.29304,"lon":5.37459,"is_reserved":false,"is_disabled":false,"rental_uris":{"android":"levelo://app?vid=1be64586-9d5f-48d8-a1a1-8be7ddd8d3e7","ios":"levelo://app?vid=1be64586-9d5f-48d8-a1a1-8be7ddd8d3e7"},"vehicle_type_id":"4","last_reported":1741813732,"current_range_meters":10800,"station_id":"ce4bgi12rcd13ifvqb70","pricing_plan_id":"cebpf4jnsgd1na2vs0mg"},{"bike_id":"754c237d-5821-4330-866f-75f381380385","system_id":"levelo_inurba_marseille","lat":43.28934,"lon":5.38391,"is_reserved":false,"is_disabled":false,"rental_uris":{"android":"levelo://app?vid=754c237d-5821-4330-866f-75f381380385","ios":"levelo://app?vid=754c237d-5821-4330-866f-75f381380385"},"vehicle_type_id":"4","last_reported":1741813732,"current_range_meters":10800,"station_id":"ce4bh612rcd13ifvqe6g","pricing_plan_id":"cebpf4jnsgd1na2vs0mg"},{"bike_id":"2214eca3-ab97-4506-b860-b288639ca218","system_id":"levelo_inurba_marseille","lat":43.28682,"lon":5.36328,"is_reserved":false,"is_disabled":false,"rental_uris":{"android":"levelo://app?vid=2214eca3-ab97-4506-b860-b288639ca218","ios":"levelo://app?vid=2214eca3-ab97-4506-b860-b288639ca218"},"vehicle_type_id":"4","last_reported":1741813732,"current_range_meters":11200,"station_id":"ce4bhah2rcd13ifvqej0","pricing_plan_id":"cebpf4jnsgd1na2vs0mg"},{"bike_id":"00028537-194a-482a-bb26-c1f11c8124ee","system_id":"levelo_inurba_marseille","lat":43.2871,"lon":5.39965,"is_reserved":false,"is_disabled":false,"rental_uris":{"android":"levelo://app?vid=00028537-194a-482a-bb26-c1f11c8124ee","ios":"levelo://app?vid=00028537-194a-482a-bb26-c1f11c8124ee"},"vehicle_type_id":"4","last_reported":1741813732,"current_range_meters":11200,"station_id":"ce4bho92rcd13ifvqh3g","pricing_plan_id":"cebpf4jnsgd1na2vs0mg"},{"bike_id":"46a916bd-57dd-4dd4-880a-f914dd2ac6e7","system_id":"levelo_inurba_marseille","lat":43.29422,"lon":5.38614,"is_reserved":false,"is_disabled":false,"rental_uris":{"android":"levelo://app?vid=46a916bd-57dd-4dd4-880a-f914dd2ac6e7","ios":"levelo://app?vid=46a916bd-57dd-4dd4-880a-f914dd2ac6e7"},"vehicle_type_id":"4","last_reported":1741813732,"current_range_meters":11200,"station_id":"ce4bh2h2rcd13ifvqdh0","pricing_plan_id":"cebpf4jnsgd1na2vs0mg"},{"bike_id":"e3ebb8d0-e18b-402b-a602-10009618d70c","system_id":"levelo_inurba_marseille","lat":43.28669,"lon":5.38667,"is_reserved":false,"is_disabled":false,"rental_uris":{"android":"levelo://app?vid=e3ebb8d0-e18b-402b-a602-10009618d70c","ios":"levelo://app?vid=e3ebb8d0-e18b-402b-a602-10009618d70c"},"vehicle_type_id":"4","last_reported":1741813732,"current_range_meters":11200,"station_id":"ce4bh492rcd13ifvqdug","pricing_plan_id":"cebpf4jnsgd1na2vs0mg"},{"bike_id":"63a97a08-5bd6-402f-a69b-1a4f72254415","system_id":"levelo_inurba_marseille","lat":43.3105,"lon":5.3834,"is_reserved":false,"is_disabled":false,"rental_uris":{"android":"levelo://app?vid=63a97a08-5bd6-402f-a69b-1a4f72254415","ios":"levelo://app?vid=63a97a08-5bd6-402f-a69b-1a4f72254415"},"vehicle_type_id":"4","last_reported":1741813732,"current_range_meters":11200,"station_id":"ce4bgv92rcd13ifvqcr0","pricing_plan_id":"cebpf4jnsgd1na2vs0mg"},{"bike_id":"df666d8d-21bb-4a31-a58c-0e4b634c7195","system_id":"levelo_inurba_marseille","lat":43.29511,"lon":5.39396,"is_reserved":false,"is_disabled":true,"rental_uris":{"android":"levelo://app?vid=df666d8d-21bb-4a31-a58c-0e4b634c7195","ios":"levelo://app?vid=df666d8d-21bb-4a31-a58c-0e4b634c7195"},"vehicle_type_id":"4","last_reported":1741813732,"current_range_meters":11200,"station_id":"ce4bh292rcd13ifvqdf0","pricing_plan_id":"cebpf4jnsgd1na2vs0mg"},{"bike_id":"c8f5a7aa-328f-49c1-a785-9624fa888d07","system_id":"levelo_inurba_marseille","lat":43.25024,"lon":5.38915,"is_reserved":false,"is_disabled":false,"rental_uris":{"android":"levelo://app?vid=c8f5a7aa-328f-49c1-a785-9624fa888d07","ios":"levelo://app?vid=c8f5a7aa-328f-49c1-a785-9624fa888d07"},"vehicle_type_id":"4","last_reported":1741813732,"current_range_meters":11200,"station_id":"ce4bhgp2rcd13ifvqfd0","pricing_plan_id":"cebpf4jnsgd1na2vs0mg"},{"bike_id":"0234a9c0-0d92-4771-9dd1-5abbd3156dde","system_id":"levelo_inurba_marseille","lat":43.24082,"lon":5.37751,"is_reserved":false,"is_disabled":false,"rental_uris":{"android":"levelo://app?vid=0234a9c0-0d92-4771-9dd1-5abbd3156dde","ios":"levelo://app?vid=0234a9c0-0d92-4771-9dd1-5abbd3156dde"},"vehicle_type_id":"4","last_reported":1741813732,"current_range_meters":11200,"station_id":"ce4bhnp2rcd13ifvqgvg","pricing_plan_id":"cebpf4jnsgd1na2vs0mg"},{"bike_id":"9dc8ba98-3de9-4f14-81e1-9a5589e794de","system_id":"levelo_inurba_marseille","lat":43.25861,"lon":5.39915,"is_reserved":false,"is_disabled":true,"rental_uris":{"android":"levelo://app?vid=9dc8ba98-3de9-4f14-81e1-9a5589e794de","ios":"levelo://app?vid=9dc8ba98-3de9-4f14-81e1-9a5589e794de"},"vehicle_type_id":"4","last_reported":1741813732,"current_range_meters":11600,"station_id":"ce4bhl92rcd13ifvqghg","pricing_plan_id":"cebpf4jnsgd1na2vs0mg"},{"bike_id":"0f657a11-cd49-48b4-920c-f71beb517820","system_id":"levelo_inurba_marseille","lat":43.27809,"lon":5.40714,"is_reserved":false,"is_disabled":false,"rental_uris":{"android":"levelo://app?vid=0f657a11-cd49-48b4-920c-f71beb517820","ios":"levelo://app?vid=0f657a11-cd49-48b4-920c-f71beb517820"},"vehicle_type_id":"4","last_reported":1741813732,"current_range_meters":11600,"station_id":"ce4bhnh2rcd13ifvqgtg","pricing_plan_id":"cebpf4jnsgd1na2vs0mg"},{"bike_id":"79397302-4916-493d-9bc0-e5035ae3c476","system_id":"levelo_inurba_marseille","lat":43.229335,"lon":5.353764,"is_reserved":false,"is_disabled":false,"rental_uris":{"android":"levelo://app?vid=79397302-4916-493d-9bc0-e5035ae3c476","ios":"levelo://app?vid=79397302-4916-493d-9bc0-e5035ae3c476"},"vehicle_type_id":"4","last_reported":1741813732,"current_range_meters":11600,"station_id":"cpo3532slgdg3j2ikp40","pricing_plan_id":"cebpf4jnsgd1na2vs0mg"},{"bike_id":"2c7213de-1d2d-4b17-ab38-ba3bb19fab23","system_id":"levelo_inurba_marseille","lat":43.2892,"lon":5.36624,"is_reserved":false,"is_disabled":false,"rental_uris":{"android":"levelo://app?vid=2c7213de-1d2d-4b17-ab38-ba3bb19fab23","ios":"levelo://app?vid=2c7213de-1d2d-4b17-ab38-ba3bb19fab23"},"vehicle_type_id":"4","last_reported":1741813732,"current_range_meters":12000,"station_id":"ce4bhap2rcd13ifvqek0","pricing_plan_id":"cebpf4jnsgd1na2vs0mg"},{"bike_id":"29982826-bd7f-4522-8a2b-5667c6dbda27","system_id":"levelo_inurba_marseille","lat":43.2942,"lon":5.3861,"is_reserved":false,"is_disabled":false,"rental_uris":{"android":"levelo://app?vid=29982826-bd7f-4522-8a2b-5667c6dbda27","ios":"levelo://app?vid=29982826-bd7f-4522-8a2b-5667c6dbda27"},"vehicle_type_id":"4","last_reported":1741813732,"current_range_meters":12000,"station_id":"ce4bh2h2rcd13ifvqdh0","pricing_plan_id":"cebpf4jnsgd1na2vs0mg"},{"bike_id":"d2773e10-f455-4491-8b29-022de0220a00","system_id":"levelo_inurba_marseille","lat":43.277187,"lon":5.388534,"is_reserved":false,"is_disabled":false,"rental_uris":{"android":"levelo://app?vid=d2773e10-f455-4491-8b29-022de0220a00","ios":"levelo://app?vid=d2773e10-f455-4491-8b29-022de0220a00"},"vehicle_type_id":"4","last_reported":1741813732,"current_range_meters":12000,"station_id":"ce4bhi12rcd13ifvqfo0","pricing_plan_id":"cebpf4jnsgd1na2vs0mg"},{"bike_id":"4c607265-c996-4d9b-81fd-daa80dd99e32","system_id":"levelo_inurba_marseille","lat":43.28774,"lon":5.38419,"is_reserved":false,"is_disabled":false,"rental_uris":{"android":"levelo://app?vid=4c607265-c996-4d9b-81fd-daa80dd99e32","ios":"levelo://app?vid=4c607265-c996-4d9b-81fd-daa80dd99e32"},"vehicle_type_id":"4","last_reported":1741813732,"current_range_meters":12000,"station_id":"","pricing_plan_id":"cebpf4jnsgd1na2vs0mg"},{"bike_id":"e7b25e36-0a83-4dda-88d0-c2926bc1cbb4","system_id":"levelo_inurba_marseille","lat":43.29849,"lon":5.36285,"is_reserved":false,"is_disabled":true,"rental_uris":{"android":"levelo://app?vid=e7b25e36-0a83-4dda-88d0-c2926bc1cbb4","ios":"levelo://app?vid=e7b25e36-0a83-4dda-88d0-c2926bc1cbb4"},"vehicle_type_id":"4","last_reported":1741813732,"current_range_meters":12000,"station_id":"ce4bgpp2rcd13ifvqc3g","pricing_plan_id":"cebpf4jnsgd1na2vs0mg"},{"bike_id":"79e732be-e7d8-4dc9-8c8f-89d56717d799","system_id":"levelo_inurba_marseille","lat":43.29036,"lon":5.37556,"is_reserved":false,"is_disabled":true,"rental_uris":{"android":"levelo://app?vid=79e732be-e7d8-4dc9-8c8f-89d56717d799","ios":"levelo://app?vid=79e732be-e7d8-4dc9-8c8f-89d56717d799"},"vehicle_type_id":"4","last_reported":1741813732,"current_range_meters":12000,"station_id":"ce4bh692rcd13ifvqe90","pricing_plan_id":"cebpf4jnsgd1na2vs0mg"},{"bike_id":"443a3fb1-e6f8-4551-9dcb-92b2072390e6","system_id":"levelo_inurba_marseille","lat":43.30141,"lon":5.37702,"is_reserved":false,"is_disabled":false,"rental_uris":{"android":"levelo://app?vid=443a3fb1-e6f8-4551-9dcb-92b2072390e6","ios":"levelo://app?vid=443a3fb1-e6f8-4551-9dcb-92b2072390e6"},"vehicle_type_id":"4","last_reported":1741813732,"current_range_meters":12000,"station_id":"","pricing_plan_id":"cebpf4jnsgd1na2vs0mg"},{"bike_id":"ece86757-6640-491c-a421-ba8c6be1515c","system_id":"levelo_inurba_marseille","lat":43.25121,"lon":5.40316,"is_reserved":false,"is_disabled":false,"rental_uris":{"android":"levelo://app?vid=ece86757-6640-491c-a421-ba8c6be1515c","ios":"levelo://app?vid=ece86757-6640-491c-a421-ba8c6be1515c"},"vehicle_type_id":"4","last_reported":1741813732,"current_range_meters":12000,"station_id":"ce4bhlh2rcd13ifvqgig","pricing_plan_id":"cebpf4jnsgd1na2vs0mg"},{"bike_id":"04b6b0f6-d318-40e6-a023-347d481d621c","system_id":"levelo_inurba_marseille","lat":43.29168,"lon":5.37551,"is_reserved":false,"is_disabled":false,"rental_uris":{"android":"levelo://app?vid=04b6b0f6-d318-40e6-a023-347d481d621c","ios":"levelo://app?vid=04b6b0f6-d318-40e6-a023-347d481d621c"},"vehicle_type_id":"4","last_reported":1741813732,"current_range_meters":12400,"station_id":"","pricing_plan_id":"cebpf4jnsgd1na2vs0mg"},{"bike_id":"04ed59a4-256a-4a63-a12b-5306bfffd4c8","system_id":"levelo_inurba_marseille","lat":43.29162,"lon":5.37153,"is_reserved":false,"is_disabled":false,"rental_uris":{"android":"levelo://app?vid=04ed59a4-256a-4a63-a12b-5306bfffd4c8","ios":"levelo://app?vid=04ed59a4-256a-4a63-a12b-5306bfffd4c8"},"vehicle_type_id":"4","last_reported":1741813732,"current_range_meters":12400,"station_id":"ce4bha92rcd13ifvqeh0","pricing_plan_id":"cebpf4jnsgd1na2vs0mg"},{"bike_id":"c61d7311-00e7-457a-bb0a-9e28cea8b49c","system_id":"levelo_inurba_marseille","lat":43.29912,"lon":5.38134,"is_reserved":false,"is_disabled":false,"rental_uris":{"android":"levelo://app?vid=c61d7311-00e7-457a-bb0a-9e28cea8b49c","ios":"levelo://app?vid=c61d7311-00e7-457a-bb0a-9e28cea8b49c"},"vehicle_type_id":"4","last_reported":1741813732,"current_range_meters":12400,"station_id":"ce4bgj12rcd13ifvqbc0","pricing_plan_id":"cebpf4jnsgd1na2vs0mg"},{"bike_id":"0420ab90-0203-49bc-a76d-8a5003ef7a7e","system_id":"levelo_inurba_marseille","lat":43.29973,"lon":5.38501,"is_reserved":false,"is_disabled":false,"rental_uris":{"android":"levelo://app?vid=0420ab90-0203-49bc-a76d-8a5003ef7a7e","ios":"levelo://app?vid=0420ab90-0203-49bc-a76d-8a5003ef7a7e"},"vehicle_type_id":"4","last_reported":1741813732,"current_range_meters":12400,"station_id":"ce4bgj92rcd13ifvqbd0","pricing_plan_id":"cebpf4jnsgd1na2vs0mg"},{"bike_id":"fb4d3d43-e3be-4890-b407-3b840ca7b245","system_id":"levelo_inurba_marseille","lat":43.29028,"lon":5.38645,"is_reserved":false,"is_disabled":false,"rental_uris":{"android":"levelo://app?vid=fb4d3d43-e3be-4890-b407-3b840ca7b245","ios":"levelo://app?vid=fb4d3d43-e3be-4890-b407-3b840ca7b245"},"vehicle_type_id":"4","last_reported":1741813732,"current_range_meters":12400,"station_id":"ce4bh4p2rcd13ifvqe0g","pricing_plan_id":"cebpf4jnsgd1na2vs0mg"},{"bike_id":"559d880c-413b-4bec-b478-ce00f72287ce","system_id":"levelo_inurba_marseille","lat":43.31722,"lon":5.37821,"is_reserved":false,"is_disabled":false,"rental_uris":{"android":"levelo://app?vid=559d880c-413b-4bec-b478-ce00f72287ce","ios":"levelo://app?vid=559d880c-413b-4bec-b478-ce00f72287ce"},"vehicle_type_id":"4","last_reported":1741813732,"current_range_meters":12400,"station_id":"ce4bgth2rcd13ifvqch0","pricing_plan_id":"cebpf4jnsgd1na2vs0mg"},{"bike_id":"646e6216-4cc7-4290-ad26-2dd97fff7af1","system_id":"levelo_inurba_marseille","lat":43.25578,"lon":5.3824,"is_reserved":false,"is_disabled":false,"rental_uris":{"android":"levelo://app?vid=646e6216-4cc7-4290-ad26-2dd97fff7af1","ios":"levelo://app?vid=646e6216-4cc7-4290-ad26-2dd97fff7af1"},"vehicle_type_id":"4","last_reported":1741813732,"current_range_meters":12400,"station_id":"ce4bhih2rcd13ifvqfs0","pricing_plan_id":"cebpf4jnsgd1na2vs0mg"},{"bike_id":"86fc146c-4af9-49a2-9b65-b6b8fa03c722","system_id":"levelo_inurba_marseille","lat":43.2918,"lon":5.39317,"is_reserved":false,"is_disabled":false,"rental_uris":{"android":"levelo://app?vid=86fc146c-4af9-49a2-9b65-b6b8fa03c722","ios":"levelo://app?vid=86fc146c-4af9-49a2-9b65-b6b8fa03c722"},"vehicle_type_id":"4","last_reported":1741813732,"current_range_meters":12400,"station_id":"ce4bh192rcd13ifvqdd0","pricing_plan_id":"cebpf4jnsgd1na2vs0mg"},{"bike_id":"ad9df770-4bb8-4d58-9977-27f74b2a6ff4","system_id":"levelo_inurba_marseille","lat":43.29194,"lon":5.3932,"is_reserved":false,"is_disabled":false,"rental_uris":{"android":"levelo://app?vid=ad9df770-4bb8-4d58-9977-27f74b2a6ff4","ios":"levelo://app?vid=ad9df770-4bb8-4d58-9977-27f74b2a6ff4"},"vehicle_type_id":"4","last_reported":1741813732,"current_range_meters":12400,"station_id":"ce4bh192rcd13ifvqdd0","pricing_plan_id":"cebpf4jnsgd1na2vs0mg"},{"bike_id":"f8d561ed-cd52-4477-a285-e85a187791de","system_id":"levelo_inurba_marseille","lat":43.2918,"lon":5.39311,"is_reserved":false,"is_disabled":false,"rental_uris":{"android":"levelo://app?vid=f8d561ed-cd52-4477-a285-e85a187791de","ios":"levelo://app?vid=f8d561ed-cd52-4477-a285-e85a187791de"},"vehicle_type_id":"4","last_reported":1741813732,"current_range_meters":12400,"station_id":"ce4bh192rcd13ifvqdd0","pricing_plan_id":"cebpf4jnsgd1na2vs0mg"},{"bike_id":"5412c073-a21a-4f09-b8b3-6e8cd885fd55","system_id":"levelo_inurba_marseille","lat":43.31072,"lon":5.38349,"is_reserved":false,"is_disabled":true,"rental_uris":{"android":"levelo://app?vid=5412c073-a21a-4f09-b8b3-6e8cd885fd55","ios":"levelo://app?vid=5412c073-a21a-4f09-b8b3-6e8cd885fd55"},"vehicle_type_id":"4","last_reported":1741813732,"current_range_meters":12400,"station_id":"ce4bgv92rcd13ifvqcr0","pricing_plan_id":"cebpf4jnsgd1na2vs0mg"},{"bike_id":"f2ee747f-c996-4c41-b815-ac9913b5b0ef","system_id":"levelo_inurba_marseille","lat":43.31458,"lon":5.37571,"is_reserved":false,"is_disabled":false,"rental_uris":{"android":"levelo://app?vid=f2ee747f-c996-4c41-b815-ac9913b5b0ef","ios":"levelo://app?vid=f2ee747f-c996-4c41-b815-ac9913b5b0ef"},"vehicle_type_id":"4","last_reported":1741813732,"current_range_meters":12400,"station_id":"","pricing_plan_id":"cebpf4jnsgd1na2vs0mg"},{"bike_id":"ce489125-903d-4cef-81f6-5acc9d35aa0e","system_id":"levelo_inurba_marseille","lat":43.29303,"lon":5.37462,"is_reserved":false,"is_disabled":false,"rental_uris":{"android":"levelo://app?vid=ce489125-903d-4cef-81f6-5acc9d35aa0e","ios":"levelo://app?vid=ce489125-903d-4cef-81f6-5acc9d35aa0e"},"vehicle_type_id":"4","last_reported":1741813732,"current_range_meters":12400,"station_id":"ce4bgi12rcd13ifvqb70","pricing_plan_id":"cebpf4jnsgd1na2vs0mg"},{"bike_id":"1eeb43c6-bcc5-4484-9765-c2384a5952c3","system_id":"levelo_inurba_marseille","lat":43.28938,"lon":5.36632,"is_reserved":false,"is_disabled":false,"rental_uris":{"android":"levelo://app?vid=1eeb43c6-bcc5-4484-9765-c2384a5952c3","ios":"levelo://app?vid=1eeb43c6-bcc5-4484-9765-c2384a5952c3"},"vehicle_type_id":"4","last_reported":1741813732,"current_range_meters":12800,"station_id":"ce4bhap2rcd13ifvqek0","pricing_plan_id":"cebpf4jnsgd1na2vs0mg"},{"bike_id":"9dde7abb-8f4c-492c-af04-4ca9fee80c35","system_id":"levelo_inurba_marseille","lat":43.29544,"lon":5.38536,"is_reserved":false,"is_disabled":false,"rental_uris":{"android":"levelo://app?vid=9dde7abb-8f4c-492c-af04-4ca9fee80c35","ios":"levelo://app?vid=9dde7abb-8f4c-492c-af04-4ca9fee80c35"},"vehicle_type_id":"4","last_reported":1741813732,"current_range_meters":12800,"station_id":"ce4bgih2rcd13ifvqba0","pricing_plan_id":"cebpf4jnsgd1na2vs0mg"},{"bike_id":"6df1e7f3-12c0-481c-9941-2246e17807ca","system_id":"levelo_inurba_marseille","lat":43.2849,"lon":5.36819,"is_reserved":false,"is_disabled":true,"rental_uris":{"android":"levelo://app?vid=6df1e7f3-12c0-481c-9941-2246e17807ca","ios":"levelo://app?vid=6df1e7f3-12c0-481c-9941-2246e17807ca"},"vehicle_type_id":"4","last_reported":1741813732,"current_range_meters":12800,"station_id":"","pricing_plan_id":"cebpf4jnsgd1na2vs0mg"},{"bike_id":"a94f52d3-8f92-4581-aa55-a6373f361c0f","system_id":"levelo_inurba_marseille","lat":43.309143,"lon":5.39663,"is_reserved":false,"is_disabled":false,"rental_uris":{"android":"levelo://app?vid=a94f52d3-8f92-4581-aa55-a6373f361c0f","ios":"levelo://app?vid=a94f52d3-8f92-4581-aa55-a6373f361c0f"},"vehicle_type_id":"4","last_reported":1741813732,"current_range_meters":12800,"station_id":"ce4bh012rcd13ifvqcv0","pricing_plan_id":"cebpf4jnsgd1na2vs0mg"},{"bike_id":"f82b5a4a-3803-4ccc-a27e-93c32c4ac78b","system_id":"levelo_inurba_marseille","lat":43.30425,"lon":5.41299,"is_reserved":false,"is_disabled":false,"rental_uris":{"android":"levelo://app?vid=f82b5a4a-3803-4ccc-a27e-93c32c4ac78b","ios":"levelo://app?vid=f82b5a4a-3803-4ccc-a27e-93c32c4ac78b"},"vehicle_type_id":"4","last_reported":1741813732,"current_range_meters":9600,"station_id":"ce4bhop2rcd13ifvqh8g","pricing_plan_id":"cebpf4jnsgd1na2vs0mg"},{"bike_id":"c1883f69-20d3-4090-b7ad-cadabe4aa4fd","system_id":"levelo_inurba_marseille","lat":43.25861,"lon":5.39906,"is_reserved":false,"is_disabled":false,"rental_uris":{"android":"levelo://app?vid=c1883f69-20d3-4090-b7ad-cadabe4aa4fd","ios":"levelo://app?vid=c1883f69-20d3-4090-b7ad-cadabe4aa4fd"},"vehicle_type_id":"4","last_reported":1741813732,"current_range_meters":12800,"station_id":"ce4bhl92rcd13ifvqghg","pricing_plan_id":"cebpf4jnsgd1na2vs0mg"},{"bike_id":"7382db7c-ea28-4d6b-a6ac-0a5dc179880b","system_id":"levelo_inurba_marseille","lat":43.33079,"lon":5.38195,"is_reserved":false,"is_disabled":false,"rental_uris":{"android":"levelo://app?vid=7382db7c-ea28-4d6b-a6ac-0a5dc179880b","ios":"levelo://app?vid=7382db7c-ea28-4d6b-a6ac-0a5dc179880b"},"vehicle_type_id":"4","last_reported":1741813732,"current_range_meters":13600,"station_id":"","pricing_plan_id":"cebpf4jnsgd1na2vs0mg"},{"bike_id":"dc038e5c-17ee-4ef4-9523-3c21813a7ccf","system_id":"levelo_inurba_marseille","lat":43.29791,"lon":5.39343,"is_reserved":false,"is_disabled":false,"rental_uris":{"android":"levelo://app?vid=dc038e5c-17ee-4ef4-9523-3c21813a7ccf","ios":"levelo://app?vid=dc038e5c-17ee-4ef4-9523-3c21813a7ccf"},"vehicle_type_id":"4","last_reported":1741813732,"current_range_meters":12800,"station_id":"chh1huq6cuj3fo74tm60","pricing_plan_id":"cebpf4jnsgd1na2vs0mg"},{"bike_id":"23df97c9-a380-4881-971d-3a667cce51ad","system_id":"levelo_inurba_marseille","lat":43.29423,"lon":5.38642,"is_reserved":false,"is_disabled":false,"rental_uris":{"android":"levelo://app?vid=23df97c9-a380-4881-971d-3a667cce51ad","ios":"levelo://app?vid=23df97c9-a380-4881-971d-3a667cce51ad"},"vehicle_type_id":"4","last_reported":1741813732,"current_range_meters":13600,"station_id":"ce4bh2h2rcd13ifvqdh0","pricing_plan_id":"cebpf4jnsgd1na2vs0mg"},{"bike_id":"3a0406cd-c8ef-42ef-b405-bb4a8bd64c09","system_id":"levelo_inurba_marseille","lat":43.30881,"lon":5.39657,"is_reserved":false,"is_disabled":false,"rental_uris":{"android":"levelo://app?vid=3a0406cd-c8ef-42ef-b405-bb4a8bd64c09","ios":"levelo://app?vid=3a0406cd-c8ef-42ef-b405-bb4a8bd64c09"},"vehicle_type_id":"4","last_reported":1741813732,"current_range_meters":13600,"station_id":"ce4bh012rcd13ifvqcv0","pricing_plan_id":"cebpf4jnsgd1na2vs0mg"},{"bike_id":"73a715cc-ecd7-4c2b-9e3f-50abfee4acd1","system_id":"levelo_inurba_marseille","lat":43.25579,"lon":5.38238,"is_reserved":false,"is_disabled":false,"rental_uris":{"android":"levelo://app?vid=73a715cc-ecd7-4c2b-9e3f-50abfee4acd1","ios":"levelo://app?vid=73a715cc-ecd7-4c2b-9e3f-50abfee4acd1"},"vehicle_type_id":"4","last_reported":1741813732,"current_range_meters":12800,"station_id":"ce4bhih2rcd13ifvqfs0","pricing_plan_id":"cebpf4jnsgd1na2vs0mg"},{"bike_id":"160ee366-45ff-4abc-859b-170d32229d5d","system_id":"levelo_inurba_marseille","lat":43.2396,"lon":5.3664,"is_reserved":false,"is_disabled":false,"rental_uris":{"android":"levelo://app?vid=160ee366-45ff-4abc-859b-170d32229d5d","ios":"levelo://app?vid=160ee366-45ff-4abc-859b-170d32229d5d"},"vehicle_type_id":"4","last_reported":1741813732,"current_range_meters":14000,"station_id":"ce4bhi12rcd13ifvqfp0","pricing_plan_id":"cebpf4jnsgd1na2vs0mg"},{"bike_id":"f2123f56-4b86-4f37-9277-4e46a6129744","system_id":"levelo_inurba_marseille","lat":43.27947,"lon":5.41039,"is_reserved":false,"is_disabled":false,"rental_uris":{"android":"levelo://app?vid=f2123f56-4b86-4f37-9277-4e46a6129744","ios":"levelo://app?vid=f2123f56-4b86-4f37-9277-4e46a6129744"},"vehicle_type_id":"4","last_reported":1741813732,"current_range_meters":14000,"station_id":"ce4bhnp2rcd13ifvqh0g","pricing_plan_id":"cebpf4jnsgd1na2vs0mg"},{"bike_id":"e85e7281-8ded-4f9f-9074-cd43c73f5f32","system_id":"levelo_inurba_marseille","lat":43.31345,"lon":5.3736,"is_reserved":false,"is_disabled":false,"rental_uris":{"android":"levelo://app?vid=e85e7281-8ded-4f9f-9074-cd43c73f5f32","ios":"levelo://app?vid=e85e7281-8ded-4f9f-9074-cd43c73f5f32"},"vehicle_type_id":"4","last_reported":1741813732,"current_range_meters":14000,"station_id":"","pricing_plan_id":"cebpf4jnsgd1na2vs0mg"},{"bike_id":"d1235ce3-1007-4d2d-9e28-ea39398a63a8","system_id":"levelo_inurba_marseille","lat":43.231986,"lon":5.355476,"is_reserved":false,"is_disabled":false,"rental_uris":{"android":"levelo://app?vid=d1235ce3-1007-4d2d-9e28-ea39398a63a8","ios":"levelo://app?vid=d1235ce3-1007-4d2d-9e28-ea39398a63a8"},"vehicle_type_id":"4","last_reported":1741813732,"current_range_meters":14000,"station_id":"ce4bhu92rcd13ifvqi70","pricing_plan_id":"cebpf4jnsgd1na2vs0mg"},{"bike_id":"0118782e-a9be-4c57-a3c6-f989e8d3b9bf","system_id":"levelo_inurba_marseille","lat":43.24183,"lon":5.39731,"is_reserved":false,"is_disabled":false,"rental_uris":{"android":"levelo://app?vid=0118782e-a9be-4c57-a3c6-f989e8d3b9bf","ios":"levelo://app?vid=0118782e-a9be-4c57-a3c6-f989e8d3b9bf"},"vehicle_type_id":"4","last_reported":1741813732,"current_range_meters":14000,"station_id":"ce4bhn12rcd13ifvqgpg","pricing_plan_id":"cebpf4jnsgd1na2vs0mg"},{"bike_id":"299f5537-20a7-46bb-9d82-e34927175af8","system_id":"levelo_inurba_marseille","lat":43.31513,"lon":5.37011,"is_reserved":false,"is_disabled":false,"rental_uris":{"android":"levelo://app?vid=299f5537-20a7-46bb-9d82-e34927175af8","ios":"levelo://app?vid=299f5537-20a7-46bb-9d82-e34927175af8"},"vehicle_type_id":"4","last_reported":1741813732,"current_range_meters":14000,"station_id":"","pricing_plan_id":"cebpf4jnsgd1na2vs0mg"},{"bike_id":"3082748f-98e4-4f65-aad3-436c5bc661ca","system_id":"levelo_inurba_marseille","lat":43.27973,"lon":5.40039,"is_reserved":false,"is_disabled":false,"rental_uris":{"android":"levelo://app?vid=3082748f-98e4-4f65-aad3-436c5bc661ca","ios":"levelo://app?vid=3082748f-98e4-4f65-aad3-436c5bc661ca"},"vehicle_type_id":"4","last_reported":1741813732,"current_range_meters":14400,"station_id":"ce4bho92rcd13ifvqh4g","pricing_plan_id":"cebpf4jnsgd1na2vs0mg"},{"bike_id":"237a5574-7a00-4083-a6c1-3f14b5d239da","system_id":"levelo_inurba_marseille","lat":43.31897,"lon":5.37352,"is_reserved":false,"is_disabled":false,"rental_uris":{"android":"levelo://app?vid=237a5574-7a00-4083-a6c1-3f14b5d239da","ios":"levelo://app?vid=237a5574-7a00-4083-a6c1-3f14b5d239da"},"vehicle_type_id":"4","last_reported":1741813732,"current_range_meters":14400,"station_id":"","pricing_plan_id":"cebpf4jnsgd1na2vs0mg"},{"bike_id":"c56541a9-e267-4e0d-92bf-6c460ccf6080","system_id":"levelo_inurba_marseille","lat":43.292318,"lon":5.360697,"is_reserved":false,"is_disabled":false,"rental_uris":{"android":"levelo://app?vid=c56541a9-e267-4e0d-92bf-6c460ccf6080","ios":"levelo://app?vid=c56541a9-e267-4e0d-92bf-6c460ccf6080"},"vehicle_type_id":"4","last_reported":1741813732,"current_range_meters":14400,"station_id":"ce4bhbh2rcd13ifvqeo0","pricing_plan_id":"cebpf4jnsgd1na2vs0mg"},{"bike_id":"61460e6d-e2a0-4402-821a-682e0cc31ae4","system_id":"levelo_inurba_marseille","lat":43.29259,"lon":5.38451,"is_reserved":false,"is_disabled":false,"rental_uris":{"android":"levelo://app?vid=61460e6d-e2a0-4402-821a-682e0cc31ae4","ios":"levelo://app?vid=61460e6d-e2a0-4402-821a-682e0cc31ae4"},"vehicle_type_id":"4","last_reported":1741813732,"current_range_meters":14400,"station_id":"ce4bh692rcd13ifvqea0","pricing_plan_id":"cebpf4jnsgd1na2vs0mg"},{"bike_id":"fd440347-0404-4c36-8fbe-7ebffd7a9e8f","system_id":"levelo_inurba_marseille","lat":43.3334,"lon":5.39612,"is_reserved":false,"is_disabled":false,"rental_uris":{"android":"levelo://app?vid=fd440347-0404-4c36-8fbe-7ebffd7a9e8f","ios":"levelo://app?vid=fd440347-0404-4c36-8fbe-7ebffd7a9e8f"},"vehicle_type_id":"4","last_reported":1741813732,"current_range_meters":14400,"station_id":"","pricing_plan_id":"cebpf4jnsgd1na2vs0mg"},{"bike_id":"894adb72-eba3-4c31-be33-a34cdb918fbd","system_id":"levelo_inurba_marseille","lat":43.25696,"lon":5.41027,"is_reserved":false,"is_disabled":false,"rental_uris":{"android":"levelo://app?vid=894adb72-eba3-4c31-be33-a34cdb918fbd","ios":"levelo://app?vid=894adb72-eba3-4c31-be33-a34cdb918fbd"},"vehicle_type_id":"4","last_reported":1741813732,"current_range_meters":14400,"station_id":"","pricing_plan_id":"cebpf4jnsgd1na2vs0mg"},{"bike_id":"2be38cf2-4e50-409d-9087-ea95916b88f6","system_id":"levelo_inurba_marseille","lat":43.30813,"lon":5.38158,"is_reserved":false,"is_disabled":false,"rental_uris":{"android":"levelo://app?vid=2be38cf2-4e50-409d-9087-ea95916b88f6","ios":"levelo://app?vid=2be38cf2-4e50-409d-9087-ea95916b88f6"},"vehicle_type_id":"4","last_reported":1741813732,"current_range_meters":14400,"station_id":"ce4bgt12rcd13ifvqce0","pricing_plan_id":"cebpf4jnsgd1na2vs0mg"},{"bike_id":"303ff363-ae27-464f-897b-a8687ab6ce28","system_id":"levelo_inurba_marseille","lat":43.30886,"lon":5.39633,"is_reserved":false,"is_disabled":false,"rental_uris":{"android":"levelo://app?vid=303ff363-ae27-464f-897b-a8687ab6ce28","ios":"levelo://app?vid=303ff363-ae27-464f-897b-a8687ab6ce28"},"vehicle_type_id":"4","last_reported":1741813732,"current_range_meters":14400,"station_id":"ce4bh012rcd13ifvqcv0","pricing_plan_id":"cebpf4jnsgd1na2vs0mg"},{"bike_id":"c80337ea-fffa-4b53-a9be-ec09f2c61528","system_id":"levelo_inurba_marseille","lat":43.33617,"lon":5.41013,"is_reserved":false,"is_disabled":false,"rental_uris":{"android":"levelo://app?vid=c80337ea-fffa-4b53-a9be-ec09f2c61528","ios":"levelo://app?vid=c80337ea-fffa-4b53-a9be-ec09f2c61528"},"vehicle_type_id":"4","last_reported":1741813732,"current_range_meters":14800,"station_id":"ce4bhqh2rcd13ifvqhmg","pricing_plan_id":"cebpf4jnsgd1na2vs0mg"},{"bike_id":"aae329d6-ac52-44ca-941f-8f23afbb22d5","system_id":"levelo_inurba_marseille","lat":43.2893,"lon":5.38403,"is_reserved":false,"is_disabled":false,"rental_uris":{"android":"levelo://app?vid=aae329d6-ac52-44ca-941f-8f23afbb22d5","ios":"levelo://app?vid=aae329d6-ac52-44ca-941f-8f23afbb22d5"},"vehicle_type_id":"4","last_reported":1741813732,"current_range_meters":14800,"station_id":"ce4bh612rcd13ifvqe6g","pricing_plan_id":"cebpf4jnsgd1na2vs0mg"},{"bike_id":"84756c0b-3dd0-4737-8169-fb5dd993aef4","system_id":"levelo_inurba_marseille","lat":43.29309,"lon":5.37426,"is_reserved":false,"is_disabled":false,"rental_uris":{"android":"levelo://app?vid=84756c0b-3dd0-4737-8169-fb5dd993aef4","ios":"levelo://app?vid=84756c0b-3dd0-4737-8169-fb5dd993aef4"},"vehicle_type_id":"4","last_reported":1741813732,"current_range_meters":14800,"station_id":"ce4bgi12rcd13ifvqb70","pricing_plan_id":"cebpf4jnsgd1na2vs0mg"},{"bike_id":"47e69b59-ebb6-4704-8786-703b1e4ed927","system_id":"levelo_inurba_marseille","lat":43.24157,"lon":5.39714,"is_reserved":false,"is_disabled":false,"rental_uris":{"android":"levelo://app?vid=47e69b59-ebb6-4704-8786-703b1e4ed927","ios":"levelo://app?vid=47e69b59-ebb6-4704-8786-703b1e4ed927"},"vehicle_type_id":"4","last_reported":1741813732,"current_range_meters":14800,"station_id":"ce4bhn12rcd13ifvqgpg","pricing_plan_id":"cebpf4jnsgd1na2vs0mg"},{"bike_id":"127fed04-fe1d-4143-a0f1-08353951ebd0","system_id":"levelo_inurba_marseille","lat":43.3127,"lon":5.40169,"is_reserved":false,"is_disabled":false,"rental_uris":{"android":"levelo://app?vid=127fed04-fe1d-4143-a0f1-08353951ebd0","ios":"levelo://app?vid=127fed04-fe1d-4143-a0f1-08353951ebd0"},"vehicle_type_id":"4","last_reported":1741813732,"current_range_meters":15200,"station_id":"ce4bh092rcd13ifvqd30","pricing_plan_id":"cebpf4jnsgd1na2vs0mg"},{"bike_id":"95583956-9373-403e-a9b7-af095ab52947","system_id":"levelo_inurba_marseille","lat":43.30914,"lon":5.40142,"is_reserved":false,"is_disabled":false,"rental_uris":{"android":"levelo://app?vid=95583956-9373-403e-a9b7-af095ab52947","ios":"levelo://app?vid=95583956-9373-403e-a9b7-af095ab52947"},"vehicle_type_id":"4","last_reported":1741813732,"current_range_meters":15200,"station_id":"ce4bgvp2rcd13ifvqct0","pricing_plan_id":"cebpf4jnsgd1na2vs0mg"},{"bike_id":"a823fe98-0845-44f0-af70-a3e75e70ed04","system_id":"levelo_inurba_marseille","lat":43.25008,"lon":5.38914,"is_reserved":false,"is_disabled":false,"rental_uris":{"android":"levelo://app?vid=a823fe98-0845-44f0-af70-a3e75e70ed04","ios":"levelo://app?vid=a823fe98-0845-44f0-af70-a3e75e70ed04"},"vehicle_type_id":"4","last_reported":1741813732,"current_range_meters":15200,"station_id":"ce4bhgp2rcd13ifvqfd0","pricing_plan_id":"cebpf4jnsgd1na2vs0mg"},{"bike_id":"94b30f95-19e8-4b24-809a-d279976d82ea","system_id":"levelo_inurba_marseille","lat":43.313697,"lon":5.396431,"is_reserved":false,"is_disabled":false,"rental_uris":{"android":"levelo://app?vid=94b30f95-19e8-4b24-809a-d279976d82ea","ios":"levelo://app?vid=94b30f95-19e8-4b24-809a-d279976d82ea"},"vehicle_type_id":"4","last_reported":1741813732,"current_range_meters":15200,"station_id":"","pricing_plan_id":"cebpf4jnsgd1na2vs0mg"},{"bike_id":"671d55cb-191d-47bc-89c2-8691b74c74cc","system_id":"levelo_inurba_marseille","lat":43.28484,"lon":5.35999,"is_reserved":false,"is_disabled":false,"rental_uris":{"android":"levelo://app?vid=671d55cb-191d-47bc-89c2-8691b74c74cc","ios":"levelo://app?vid=671d55cb-191d-47bc-89c2-8691b74c74cc"},"vehicle_type_id":"4","last_reported":1741813732,"current_range_meters":15200,"station_id":"","pricing_plan_id":"cebpf4jnsgd1na2vs0mg"},{"bike_id":"2d18c3dc-5e96-4db8-bea3-3dbe8f543bbd","system_id":"levelo_inurba_marseille","lat":43.32479,"lon":5.36568,"is_reserved":false,"is_disabled":false,"rental_uris":{"android":"levelo://app?vid=2d18c3dc-5e96-4db8-bea3-3dbe8f543bbd","ios":"levelo://app?vid=2d18c3dc-5e96-4db8-bea3-3dbe8f543bbd"},"vehicle_type_id":"4","last_reported":1741813732,"current_range_meters":14800,"station_id":"ce4bhs12rcd13ifvqhvg","pricing_plan_id":"cebpf4jnsgd1na2vs0mg"},{"bike_id":"99099f32-d68d-4a8f-92e1-a43fbc6a961f","system_id":"levelo_inurba_marseille","lat":43.28935,"lon":5.36628,"is_reserved":false,"is_disabled":false,"rental_uris":{"android":"levelo://app?vid=99099f32-d68d-4a8f-92e1-a43fbc6a961f","ios":"levelo://app?vid=99099f32-d68d-4a8f-92e1-a43fbc6a961f"},"vehicle_type_id":"4","last_reported":1741813732,"current_range_meters":14800,"station_id":"ce4bhap2rcd13ifvqek0","pricing_plan_id":"cebpf4jnsgd1na2vs0mg"},{"bike_id":"ddc4e18c-8f32-414f-b54d-dab0f725381f","system_id":"levelo_inurba_marseille","lat":43.30893,"lon":5.39639,"is_reserved":false,"is_disabled":false,"rental_uris":{"android":"levelo://app?vid=ddc4e18c-8f32-414f-b54d-dab0f725381f","ios":"levelo://app?vid=ddc4e18c-8f32-414f-b54d-dab0f725381f"},"vehicle_type_id":"4","last_reported":1741813732,"current_range_meters":15200,"station_id":"ce4bh012rcd13ifvqcv0","pricing_plan_id":"cebpf4jnsgd1na2vs0mg"},{"bike_id":"0807fab1-82bf-4bf0-bf30-2487c43c2d85","system_id":"levelo_inurba_marseille","lat":43.29176,"lon":5.39321,"is_reserved":false,"is_disabled":false,"rental_uris":{"android":"levelo://app?vid=0807fab1-82bf-4bf0-bf30-2487c43c2d85","ios":"levelo://app?vid=0807fab1-82bf-4bf0-bf30-2487c43c2d85"},"vehicle_type_id":"4","last_reported":1741813732,"current_range_meters":16000,"station_id":"ce4bh192rcd13ifvqdd0","pricing_plan_id":"cebpf4jnsgd1na2vs0mg"},{"bike_id":"25f2d06a-d003-4f4f-bf54-3b9ea7555834","system_id":"levelo_inurba_marseille","lat":43.29883,"lon":5.38904,"is_reserved":false,"is_disabled":false,"rental_uris":{"android":"levelo://app?vid=25f2d06a-d003-4f4f-bf54-3b9ea7555834","ios":"levelo://app?vid=25f2d06a-d003-4f4f-bf54-3b9ea7555834"},"vehicle_type_id":"4","last_reported":1741813732,"current_range_meters":15200,"station_id":"ce4bh392rcd13ifvqdl0","pricing_plan_id":"cebpf4jnsgd1na2vs0mg"},{"bike_id":"f550acae-a478-493d-8418-eb4ab17dc323","system_id":"levelo_inurba_marseille","lat":43.25039,"lon":5.38908,"is_reserved":false,"is_disabled":false,"rental_uris":{"android":"levelo://app?vid=f550acae-a478-493d-8418-eb4ab17dc323","ios":"levelo://app?vid=f550acae-a478-493d-8418-eb4ab17dc323"},"vehicle_type_id":"4","last_reported":1741813732,"current_range_meters":15200,"station_id":"ce4bhgp2rcd13ifvqfd0","pricing_plan_id":"cebpf4jnsgd1na2vs0mg"},{"bike_id":"c0d93da8-20a9-43de-ac96-41ac95e88f41","system_id":"levelo_inurba_marseille","lat":43.28662,"lon":5.3636,"is_reserved":false,"is_disabled":false,"rental_uris":{"android":"levelo://app?vid=c0d93da8-20a9-43de-ac96-41ac95e88f41","ios":"levelo://app?vid=c0d93da8-20a9-43de-ac96-41ac95e88f41"},"vehicle_type_id":"4","last_reported":1741813732,"current_range_meters":15200,"station_id":"ce4bhah2rcd13ifvqej0","pricing_plan_id":"cebpf4jnsgd1na2vs0mg"},{"bike_id":"734bbb0a-0e47-49e4-8b61-6f598407221a","system_id":"levelo_inurba_marseille","lat":43.24178,"lon":5.39727,"is_reserved":false,"is_disabled":false,"rental_uris":{"android":"levelo://app?vid=734bbb0a-0e47-49e4-8b61-6f598407221a","ios":"levelo://app?vid=734bbb0a-0e47-49e4-8b61-6f598407221a"},"vehicle_type_id":"4","last_reported":1741813732,"current_range_meters":15200,"station_id":"ce4bhn12rcd13ifvqgpg","pricing_plan_id":"cebpf4jnsgd1na2vs0mg"},{"bike_id":"80778412-7627-4fce-841b-e741064db274","system_id":"levelo_inurba_marseille","lat":43.27312,"lon":5.39087,"is_reserved":false,"is_disabled":false,"rental_uris":{"android":"levelo://app?vid=80778412-7627-4fce-841b-e741064db274","ios":"levelo://app?vid=80778412-7627-4fce-841b-e741064db274"},"vehicle_type_id":"4","last_reported":1741813732,"current_range_meters":15200,"station_id":"ce4bhgp2rcd13ifvqfe0","pricing_plan_id":"cebpf4jnsgd1na2vs0mg"},{"bike_id":"81b9cb1e-db42-4d55-9d6b-044a4092416a","system_id":"levelo_inurba_marseille","lat":43.30932,"lon":5.40141,"is_reserved":false,"is_disabled":false,"rental_uris":{"android":"levelo://app?vid=81b9cb1e-db42-4d55-9d6b-044a4092416a","ios":"levelo://app?vid=81b9cb1e-db42-4d55-9d6b-044a4092416a"},"vehicle_type_id":"4","last_reported":1741813732,"current_range_meters":16000,"station_id":"ce4bgvp2rcd13ifvqct0","pricing_plan_id":"cebpf4jnsgd1na2vs0mg"},{"bike_id":"f43d92b8-3283-4660-8d30-278ad3d41aae","system_id":"levelo_inurba_marseille","lat":43.27917,"lon":5.39575,"is_reserved":false,"is_disabled":false,"rental_uris":{"android":"levelo://app?vid=f43d92b8-3283-4660-8d30-278ad3d41aae","ios":"levelo://app?vid=f43d92b8-3283-4660-8d30-278ad3d41aae"},"vehicle_type_id":"4","last_reported":1741813732,"current_range_meters":16000,"station_id":"ce4bhf92rcd13ifvqf40","pricing_plan_id":"cebpf4jnsgd1na2vs0mg"},{"bike_id":"ecefee2d-0daa-4cc3-9d63-61a078601cfd","system_id":"levelo_inurba_marseille","lat":43.28701,"lon":5.3742,"is_reserved":false,"is_disabled":true,"rental_uris":{"android":"levelo://app?vid=ecefee2d-0daa-4cc3-9d63-61a078601cfd","ios":"levelo://app?vid=ecefee2d-0daa-4cc3-9d63-61a078601cfd"},"vehicle_type_id":"4","last_reported":1741813732,"current_range_meters":16000,"station_id":"ce4bh3p2rcd13ifvqdq0","pricing_plan_id":"cebpf4jnsgd1na2vs0mg"},{"bike_id":"cae1a1ac-f174-4e64-87d8-9f9488ed34e9","system_id":"levelo_inurba_marseille","lat":43.29415,"lon":5.3863,"is_reserved":false,"is_disabled":false,"rental_uris":{"android":"levelo://app?vid=cae1a1ac-f174-4e64-87d8-9f9488ed34e9","ios":"levelo://app?vid=cae1a1ac-f174-4e64-87d8-9f9488ed34e9"},"vehicle_type_id":"4","last_reported":1741813732,"current_range_meters":16000,"station_id":"ce4bh2h2rcd13ifvqdh0","pricing_plan_id":"cebpf4jnsgd1na2vs0mg"},{"bike_id":"838a2139-3b51-4dee-be61-c76bd3376677","system_id":"levelo_inurba_marseille","lat":43.29972,"lon":5.38494,"is_reserved":false,"is_disabled":false,"rental_uris":{"android":"levelo://app?vid=838a2139-3b51-4dee-be61-c76bd3376677","ios":"levelo://app?vid=838a2139-3b51-4dee-be61-c76bd3376677"},"vehicle_type_id":"4","last_reported":1741813732,"current_range_meters":16000,"station_id":"ce4bgj92rcd13ifvqbd0","pricing_plan_id":"cebpf4jnsgd1na2vs0mg"},{"bike_id":"9c067a7a-ca47-4ba3-982e-e3c13c2eb137","system_id":"levelo_inurba_marseille","lat":43.28075,"lon":5.39664,"is_reserved":false,"is_disabled":false,"rental_uris":{"android":"levelo://app?vid=9c067a7a-ca47-4ba3-982e-e3c13c2eb137","ios":"levelo://app?vid=9c067a7a-ca47-4ba3-982e-e3c13c2eb137"},"vehicle_type_id":"4","last_reported":1741813732,"current_range_meters":16000,"station_id":"ce4bho12rcd13ifvqh2g","pricing_plan_id":"cebpf4jnsgd1na2vs0mg"},{"bike_id":"8d93327b-4c27-4905-8185-af00d21521bf","system_id":"levelo_inurba_marseille","lat":43.284279,"lon":5.375176,"is_reserved":false,"is_disabled":false,"rental_uris":{"android":"levelo://app?vid=8d93327b-4c27-4905-8185-af00d21521bf","ios":"levelo://app?vid=8d93327b-4c27-4905-8185-af00d21521bf"},"vehicle_type_id":"4","last_reported":1741813732,"current_range_meters":16000,"station_id":"ce4bh412rcd13ifvqds0","pricing_plan_id":"cebpf4jnsgd1na2vs0mg"},{"bike_id":"3a254f63-8711-4d27-a9ac-39bd66820438","system_id":"levelo_inurba_marseille","lat":43.30926,"lon":5.40178,"is_reserved":false,"is_disabled":false,"rental_uris":{"android":"levelo://app?vid=3a254f63-8711-4d27-a9ac-39bd66820438","ios":"levelo://app?vid=3a254f63-8711-4d27-a9ac-39bd66820438"},"vehicle_type_id":"4","last_reported":1741813732,"current_range_meters":16000,"station_id":"ce4bgvp2rcd13ifvqct0","pricing_plan_id":"cebpf4jnsgd1na2vs0mg"},{"bike_id":"9c8b5e68-465d-459e-9a9a-53933796b971","system_id":"levelo_inurba_marseille","lat":43.27371,"lon":5.36261,"is_reserved":false,"is_disabled":false,"rental_uris":{"android":"levelo://app?vid=9c8b5e68-465d-459e-9a9a-53933796b971","ios":"levelo://app?vid=9c8b5e68-465d-459e-9a9a-53933796b971"},"vehicle_type_id":"4","last_reported":1741813732,"current_range_meters":16000,"station_id":"ce4bhbh2rcd13ifvqeo0","pricing_plan_id":"cebpf4jnsgd1na2vs0mg"},{"bike_id":"8cbb226b-80bd-49a7-9b10-1ab5be908c3c","system_id":"levelo_inurba_marseille","lat":43.29535,"lon":5.38545,"is_reserved":false,"is_disabled":false,"rental_uris":{"android":"levelo://app?vid=8cbb226b-80bd-49a7-9b10-1ab5be908c3c","ios":"levelo://app?vid=8cbb226b-80bd-49a7-9b10-1ab5be908c3c"},"vehicle_type_id":"4","last_reported":1741813732,"current_range_meters":16000,"station_id":"ce4bgih2rcd13ifvqba0","pricing_plan_id":"cebpf4jnsgd1na2vs0mg"},{"bike_id":"3f1f2a6b-3b86-4650-858a-a4346faf5758","system_id":"levelo_inurba_marseille","lat":43.29026,"lon":5.38643,"is_reserved":false,"is_disabled":false,"rental_uris":{"android":"levelo://app?vid=3f1f2a6b-3b86-4650-858a-a4346faf5758","ios":"levelo://app?vid=3f1f2a6b-3b86-4650-858a-a4346faf5758"},"vehicle_type_id":"4","last_reported":1741813732,"current_range_meters":16000,"station_id":"ce4bh4p2rcd13ifvqe0g","pricing_plan_id":"cebpf4jnsgd1na2vs0mg"},{"bike_id":"6d3b21af-e6ed-4744-8f69-608405b1a7d1","system_id":"levelo_inurba_marseille","lat":43.30882,"lon":5.39645,"is_reserved":false,"is_disabled":false,"rental_uris":{"android":"levelo://app?vid=6d3b21af-e6ed-4744-8f69-608405b1a7d1","ios":"levelo://app?vid=6d3b21af-e6ed-4744-8f69-608405b1a7d1"},"vehicle_type_id":"4","last_reported":1741813732,"current_range_meters":16000,"station_id":"ce4bh012rcd13ifvqcv0","pricing_plan_id":"cebpf4jnsgd1na2vs0mg"},{"bike_id":"4c388885-9691-4385-9d41-52732298bfb4","system_id":"levelo_inurba_marseille","lat":43.2944,"lon":5.3861,"is_reserved":false,"is_disabled":false,"rental_uris":{"android":"levelo://app?vid=4c388885-9691-4385-9d41-52732298bfb4","ios":"levelo://app?vid=4c388885-9691-4385-9d41-52732298bfb4"},"vehicle_type_id":"4","last_reported":1741813732,"current_range_meters":16400,"station_id":"ce4bh2h2rcd13ifvqdh0","pricing_plan_id":"cebpf4jnsgd1na2vs0mg"},{"bike_id":"2ceee151-07bf-4d36-80b7-294af7caa2e2","system_id":"levelo_inurba_marseille","lat":43.28358,"lon":5.38643,"is_reserved":false,"is_disabled":true,"rental_uris":{"android":"levelo://app?vid=2ceee151-07bf-4d36-80b7-294af7caa2e2","ios":"levelo://app?vid=2ceee151-07bf-4d36-80b7-294af7caa2e2"},"vehicle_type_id":"4","last_reported":1741813732,"current_range_meters":16400,"station_id":"ce4bh492rcd13ifvqdvg","pricing_plan_id":"cebpf4jnsgd1na2vs0mg"},{"bike_id":"d0ab2a3e-a999-4385-92b9-ee36f2d9e18c","system_id":"levelo_inurba_marseille","lat":43.288518,"lon":5.358538,"is_reserved":false,"is_disabled":false,"rental_uris":{"android":"levelo://app?vid=d0ab2a3e-a999-4385-92b9-ee36f2d9e18c","ios":"levelo://app?vid=d0ab2a3e-a999-4385-92b9-ee36f2d9e18c"},"vehicle_type_id":"4","last_reported":1741813732,"current_range_meters":16400,"station_id":"ce4bhb12rcd13ifvqem0","pricing_plan_id":"cebpf4jnsgd1na2vs0mg"},{"bike_id":"588d101e-9f1e-4743-bfb3-1be6dffe89b7","system_id":"levelo_inurba_marseille","lat":43.28688,"lon":5.37391,"is_reserved":false,"is_disabled":false,"rental_uris":{"android":"levelo://app?vid=588d101e-9f1e-4743-bfb3-1be6dffe89b7","ios":"levelo://app?vid=588d101e-9f1e-4743-bfb3-1be6dffe89b7"},"vehicle_type_id":"4","last_reported":1741813732,"current_range_meters":16400,"station_id":"ce4bh3p2rcd13ifvqdq0","pricing_plan_id":"cebpf4jnsgd1na2vs0mg"},{"bike_id":"f3291a48-4171-4dd1-b341-037b6e6f6b32","system_id":"levelo_inurba_marseille","lat":43.28361,"lon":5.38122,"is_reserved":false,"is_disabled":true,"rental_uris":{"android":"levelo://app?vid=f3291a48-4171-4dd1-b341-037b6e6f6b32","ios":"levelo://app?vid=f3291a48-4171-4dd1-b341-037b6e6f6b32"},"vehicle_type_id":"4","last_reported":1741813732,"current_range_meters":16400,"station_id":"ce4bh412rcd13ifvqdr0","pricing_plan_id":"cebpf4jnsgd1na2vs0mg"},{"bike_id":"7c253b93-b8df-4e2c-8b02-f2088c573708","system_id":"levelo_inurba_marseille","lat":43.25717,"lon":5.41082,"is_reserved":false,"is_disabled":false,"rental_uris":{"android":"levelo://app?vid=7c253b93-b8df-4e2c-8b02-f2088c573708","ios":"levelo://app?vid=7c253b93-b8df-4e2c-8b02-f2088c573708"},"vehicle_type_id":"4","last_reported":1741813732,"current_range_meters":16400,"station_id":"ce4bhkp2rcd13ifvqgd0","pricing_plan_id":"cebpf4jnsgd1na2vs0mg"},