{"last_updated":1765939431,"ttl":60,"version":"2.2","data":{"bikes":[{"bike_id":"00afda0d-bfff-4e25-8b97-ab98be102235","system_id":"levelo_inurba_marseille","lat":43.337733,"lon":5.374319,"is_reserved":false,"is_disabled":false,"rental_uris":{"android":"levelo://app?vid=00afda0d-bfff-4e25-8b97-ab98be102235","ios":"levelo://app?vid=00afda0d-bfff-4e25-8b97-ab98be102235"},"vehicle_type_id":"4","last_reported":1765939431,"current_range_meters":2800,"station_id":"","pricing_plan_id":"cebpf4jnsgd1na2vs0mg"},{"bike_id":"fd5e8f34-b96d-419a-9e35-b3a31e4ea000","system_id":"levelo_inurba_marseille","lat":43.28426,"lon":5.34987,"is_reserved":false,"is_disabled":false,"rental_uris":{"android":"levelo://app?vid=fd5e8f34-b96d-419a-9e35-b3a31e4ea000","ios":"levelo://app?vid=fd5e8f34-b96d-419a-9e35-b3a31e4ea000"},"vehicle_type_id":"4","last_reported":1765939431,"current_range_meters":3200,"station_id":"ce4bhbh2rcd13ifvqepg","pricing_plan_id":"cebpf4jnsgd1na2vs0mg"},{"bike_id":"35f868df-4a32-4556-9ef9-3a316ca79a77","system_id":"levelo_inurba_marseille","lat":43.2419,"lon":5.3972,"is_reserved":false,"is_disabled":false,"rental_uris":{"android":"levelo://app?vid=35f868df-4a32-4556-9ef9-3a316ca79a77","ios":"levelo://app?vid=35f868df-4a32-4556-9ef9-3a316ca79a77"},"vehicle_type_id":"4","last_reported":1765939431,"current_range_meters":3200,"station_id":"ce4bhn12rcd13ifvqgpg","pricing_plan_id":"cebpf4jnsgd1na2vs0mg"},{"bike_id":"fd9665ae-4c09-4a0b-8f35-0e2ee18fdf4d","system_id":"levelo_inurba_marseille","lat":43.337666,"lon":5.374436,"is_reserved":false,"is_disabled":false,"rental_uris":{"android":"levelo://app?vid=fd9665ae-4c09-4a0b-8f35-0e2ee18fdf4d","ios":"levelo://app?vid=fd9665ae-4c09-4a0b-8f35-0e2ee18fdf4d"},"vehicle_type_id":"4","last_reported":1765939431,"current_range_meters":3600,"station_id":"","pricing_plan_id":"cebpf4jnsgd1na2vs0mg"},{"bike_id":"808bb12f-4c1a-4ea2-b1d0-b9540077b37f","system_id":"levelo_inurba_marseille","lat":43.27939,"lon":5.41047,"is_reserved":false,"is_disabled":false,"rental_uris":{"android":"levelo://app?vid=808bb12f-4c1a-4ea2-b1d0-b9540077b37f","ios":"levelo://app?vid=808bb12f-4c1a-4ea2-b1d0-b9540077b37f"},"vehicle_type_id":"4","last_reported":1765939431,"current_range_meters":4000,"station_id":"ce4bhnp2rcd13ifvqh0g","pricing_plan_id":"cebpf4jnsgd1na2vs0mg"},{"bike_id":"bee5f29c-17ec-4d6a-b731-2c856acb548f","system_id":"levelo_inurba_marseille","lat":43.337725,"lon":5.374316,"is_reserved":false,"is_disabled":false,"rental_uris":{"android":"levelo://app?vid=bee5f29c-17ec-4d6a-b731-2c856acb548f","ios":"levelo://app?vid=bee5f29c-17ec-4d6a-b731-2c856acb548f"},"vehicle_type_id":"4","last_reported":1765939431,"current_range_meters":4000,"station_id":"","pricing_plan_id":"cebpf4jnsgd1na2vs0mg"},{"bike_id":"21940acf-bed2-4de5-b6ec-5b87742b4155","system_id":"levelo_inurba_marseille","lat":43.30942,"lon":5.40149,"is_reserved":false,"is_disabled":false,"rental_uris":{"android":"levelo://app?vid=21940acf-bed2-4de5-b6ec-5b87742b4155","ios":"levelo://app?vid=21940acf-bed2-4de5-b6ec-5b87742b4155"},"vehicle_type_id":"4","last_reported":1765939431,"current_range_meters":4400,"station_id":"ce4bgvp2rcd13ifvqct0","pricing_plan_id":"cebpf4jnsgd1na2vs0mg"},{"bike_id":"f59c9188-dfaf-4cfe-902c-94af1d594952","system_id":"levelo_inurba_marseille","lat":43.26506,"lon":5.39407,"is_reserved":false,"is_disabled":false,"rental_uris":{"android":"levelo://app?vid=f59c9188-dfaf-4cfe-902c-94af1d594952","ios":"levelo://app?vid=f59c9188-dfaf-4cfe-902c-94af1d594952"},"vehicle_type_id":"4","last_reported":1765939431,"current_range_meters":4400,"station_id":"","pricing_plan_id":"cebpf4jnsgd1na2vs0mg"},{"bike_id":"d3eb1a28-60f7-4eab-a9be-915a03b25c99","system_id":"levelo_inurba_marseille","lat":43.337444,"lon":5.374475,"is_reserved":false,"is_disabled":false,"rental_uris":{"android":"levelo://app?vid=d3eb1a28-60f7-4eab-a9be-915a03b25c99","ios":"levelo://app?vid=d3eb1a28-60f7-4eab-a9be-915a03b25c99"},"vehicle_type_id":"4","last_reported":1765939431,"current_range_meters":4400,"station_id":"","pricing_plan_id":"cebpf4jnsgd1na2vs0mg"},{"bike_id":"e772c7a8-eb0a-4135-ba56-107639baea98","system_id":"levelo_inurba_marseille","lat":43.31061,"lon":5.38329,"is_reserved":false,"is_disabled":false,"rental_uris":{"android":"levelo://app?vid=e772c7a8-eb0a-4135-ba56-107639baea98","ios":"levelo://app?vid=e772c7a8-eb0a-4135-ba56-107639baea98"},"vehicle_type_id":"4","last_reported":1765939431,"current_range_meters":4800,"station_id":"ce4bgv92rcd13ifvqcr0","pricing_plan_id":"cebpf4jnsgd1na2vs0mg"},{"bike_id":"44badf90-3cca-4808-b24a-4f0b358ea738","system_id":"levelo_inurba_marseille","lat":43.28674,"lon":5.36332,"is_reserved":false,"is_disabled":false,"rental_uris":{"android":"levelo://app?vid=44badf90-3cca-4808-b24a-4f0b358ea738","ios":"levelo://app?vid=44badf90-3cca-4808-b24a-4f0b358ea738"},"vehicle_type_id":"4","last_reported":1765939431,"current_range_meters":4800,"station_id":"ce4bhah2rcd13ifvqej0","pricing_plan_id":"cebpf4jnsgd1na2vs0mg"},{"bike_id":"22965c76-2bef-47e0-aa88-652bbd323279","system_id":"levelo_inurba_marseille","lat":43.28026,"lon":5.42127,"is_reserved":false,"is_disabled":false,"rental_uris":{"android":"levelo://app?vid=22965c76-2bef-47e0-aa88-652bbd323279","ios":"levelo://app?vid=22965c76-2bef-47e0-aa88-652bbd323279"},"vehicle_type_id":"4","last_reported":1765939431,"current_range_meters":5600,"station_id":"","pricing_plan_id":"cebpf4jnsgd1na2vs0mg"},{"bike_id":"9366b54d-3d5e-4e2f-a20d-49d0ce57f0ef","system_id":"levelo_inurba_marseille","lat":43.31082,"lon":5.42435,"is_reserved":false,"is_disabled":false,"rental_uris":{"android":"levelo://app?vid=9366b54d-3d5e-4e2f-a20d-49d0ce57f0ef","ios":"levelo://app?vid=9366b54d-3d5e-4e2f-a20d-49d0ce57f0ef"},"vehicle_type_id":"4","last_reported":1765939431,"current_range_meters":5600,"station_id":"ce4bhp92rcd13ifvqhag","pricing_plan_id":"cebpf4jnsgd1na2vs0mg"},{"bike_id":"be8df72b-8c7a-4a0c-97b2-aec61d13780f","system_id":"levelo_inurba_marseille","lat":43.2841,"lon":5.37519,"is_reserved":false,"is_disabled":false,"rental_uris":{"android":"levelo://app?vid=be8df72b-8c7a-4a0c-97b2-aec61d13780f","ios":"levelo://app?vid=be8df72b-8c7a-4a0c-97b2-aec61d13780f"},"vehicle_type_id":"4","last_reported":1765939431,"current_range_meters":5600,"station_id":"ce4bh412rcd13ifvqds0","pricing_plan_id":"cebpf4jnsgd1na2vs0mg"},{"bike_id":"6678b399-cd33-407d-ab10-46a212b0077e","system_id":"levelo_inurba_marseille","lat":43.27817,"lon":5.40709,"is_reserved":false,"is_disabled":false,"rental_uris":{"android":"levelo://app?vid=6678b399-cd33-407d-ab10-46a212b0077e","ios":"levelo://app?vid=6678b399-cd33-407d-ab10-46a212b0077e"},"vehicle_type_id":"4","last_reported":1765939431,"current_range_meters":5600,"station_id":"ce4bhnh2rcd13ifvqgtg","pricing_plan_id":"cebpf4jnsgd1na2vs0mg"},{"bike_id":"74318dd8-1691-4b91-b1e4-1899d7815c78","system_id":"levelo_inurba_marseille","lat":43.21201,"lon":5.35068,"is_reserved":false,"is_disabled":false,"rental_uris":{"android":"levelo://app?vid=74318dd8-1691-4b91-b1e4-1899d7815c78","ios":"levelo://app?vid=74318dd8-1691-4b91-b1e4-1899d7815c78"},"vehicle_type_id":"4","last_reported":1765939431,"current_range_meters":5600,"station_id":"st_cvj6sg6p6f1abm77japg","pricing_plan_id":"cebpf4jnsgd1na2vs0mg"},{"bike_id":"3464140a-fa4d-4baa-a277-f0b733016dfb","system_id":"levelo_inurba_marseille","lat":43.316035,"lon":5.379218,"is_reserved":false,"is_disabled":false,"rental_uris":{"android":"levelo://app?vid=3464140a-fa4d-4baa-a277-f0b733016dfb","ios":"levelo://app?vid=3464140a-fa4d-4baa-a277-f0b733016dfb"},"vehicle_type_id":"4","last_reported":1765939431,"current_range_meters":5600,"station_id":"","pricing_plan_id":"cebpf4jnsgd1na2vs0mg"},{"bike_id":"0d04367a-2738-41fb-8bc5-77b89893b507","system_id":"levelo_inurba_marseille","lat":43.21189,"lon":5.35087,"is_reserved":false,"is_disabled":false,"rental_uris":{"android":"levelo://app?vid=0d04367a-2738-41fb-8bc5-77b89893b507","ios":"levelo://app?vid=0d04367a-2738-41fb-8bc5-77b89893b507"},"vehicle_type_id":"4","last_reported":1765939431,"current_range_meters":5600,"station_id":"","pricing_plan_id":"cebpf4jnsgd1na2vs0mg"},{"bike_id":"6c4d514d-f969-4ac8-9933-42f04018cb6a","system_id":"levelo_inurba_marseille","lat":43.33801,"lon":5.3745,"is_reserved":false,"is_disabled":false,"rental_uris":{"android":"levelo://app?vid=6c4d514d-f969-4ac8-9933-42f04018cb6a","ios":"levelo://app?vid=6c4d514d-f969-4ac8-9933-42f04018cb6a"},"vehicle_type_id":"4","last_reported":1765939431,"current_range_meters":6000,"station_id":"","pricing_plan_id":"cebpf4jnsgd1na2vs0mg"},{"bike_id":"0c2c5140-af06-486a-a322-d624aecbcc21","system_id":"levelo_inurba_marseille","lat":43.24508,"lon":5.40003,"is_reserved":false,"is_disabled":false,"rental_uris":{"android":"levelo://app?vid=0c2c5140-af06-486a-a322-d624aecbcc21","ios":"levelo://app?vid=0c2c5140-af06-486a-a322-d624aecbcc21"},"vehicle_type_id":"4","last_reported":1765939431,"current_range_meters":6000,"station_id":"","pricing_plan_id":"cebpf4jnsgd1na2vs0mg"},{"bike_id":"58fe3c41-c31c-418f-8b03-ed2ed0f7c8fd","system_id":"levelo_inurba_marseille","lat":43.30102,"lon":5.36546,"is_reserved":false,"is_disabled":false,"rental_uris":{"android":"levelo://app?vid=58fe3c41-c31c-418f-8b03-ed2ed0f7c8fd","ios":"levelo://app?vid=58fe3c41-c31c-418f-8b03-ed2ed0f7c8fd"},"vehicle_type_id":"4","last_reported":1765939431,"current_range_meters":6000,"station_id":"","pricing_plan_id":"cebpf4jnsgd1na2vs0mg"},{"bike_id":"d6808b6f-5df2-4878-a1e8-910e03305a8b","system_id":"levelo_inurba_marseille","lat":43.29089,"lon":5.38121,"is_reserved":false,"is_disabled":false,"rental_uris":{"android":"levelo://app?vid=d6808b6f-5df2-4878-a1e8-910e03305a8b","ios":"levelo://app?vid=d6808b6f-5df2-4878-a1e8-910e03305a8b"},"vehicle_type_id":"4","last_reported":1765939431,"current_range_meters":6400,"station_id":"","pricing_plan_id":"cebpf4jnsgd1na2vs0mg"},{"bike_id":"ea3a0e00-0cce-4fdc-8ca0-bcf44acae8e7","system_id":"levelo_inurba_marseille","lat":43.28082,"lon":5.39649,"is_reserved":false,"is_disabled":false,"rental_uris":{"android":"levelo://app?vid=ea3a0e00-0cce-4fdc-8ca0-bcf44acae8e7","ios":"levelo://app?vid=ea3a0e00-0cce-4fdc-8ca0-bcf44acae8e7"},"vehicle_type_id":"4","last_reported":1765939431,"current_range_meters":6400,"station_id":"ce4bho12rcd13ifvqh2g","pricing_plan_id":"cebpf4jnsgd1na2vs0mg"},{"bike_id":"85299ce6-7d31-4779-8540-b094a53082ba","system_id":"levelo_inurba_marseille","lat":43.24812,"lon":5.37462,"is_reserved":false,"is_disabled":false,"rental_uris":{"android":"levelo://app?vid=85299ce6-7d31-4779-8540-b094a53082ba","ios":"levelo://app?vid=85299ce6-7d31-4779-8540-b094a53082ba"},"vehicle_type_id":"4","last_reported":1765939431,"current_range_meters":6400,"station_id":"ce4bhgh2rcd13ifvqfb0","pricing_plan_id":"cebpf4jnsgd1na2vs0mg"},{"bike_id":"cb1f5960-1301-476b-96d3-4692edd24f05","system_id":"levelo_inurba_marseille","lat":43.28456,"lon":5.35892,"is_reserved":false,"is_disabled":false,"rental_uris":{"android":"levelo://app?vid=cb1f5960-1301-476b-96d3-4692edd24f05","ios":"levelo://app?vid=cb1f5960-1301-476b-96d3-4692edd24f05"},"vehicle_type_id":"4","last_reported":1765939431,"current_range_meters":6400,"station_id":"ce4bhah2rcd13ifvqei0","pricing_plan_id":"cebpf4jnsgd1na2vs0mg"},{"bike_id":"05cfabeb-49ec-49fd-beca-647bddc52f91","system_id":"levelo_inurba_marseille","lat":43.29003,"lon":5.35608,"is_reserved":false,"is_disabled":false,"rental_uris":{"android":"levelo://app?vid=05cfabeb-49ec-49fd-beca-647bddc52f91","ios":"levelo://app?vid=05cfabeb-49ec-49fd-beca-647bddc52f91"},"vehicle_type_id":"4","last_reported":1765939431,"current_range_meters":6800,"station_id":"ce4bhb92rcd13ifvqen0","pricing_plan_id":"cebpf4jnsgd1na2vs0mg"},{"bike_id":"2eb48ac0-1153-4ff0-b79a-1b3ae852c8e6","system_id":"levelo_inurba_marseille","lat":43.29795,"lon":5.39343,"is_reserved":false,"is_disabled":false,"rental_uris":{"android":"levelo://app?vid=2eb48ac0-1153-4ff0-b79a-1b3ae852c8e6","ios":"levelo://app?vid=2eb48ac0-1153-4ff0-b79a-1b3ae852c8e6"},"vehicle_type_id":"4","last_reported":1765939431,"current_range_meters":6800,"station_id":"chh1huq6cuj3fo74tm60","pricing_plan_id":"cebpf4jnsgd1na2vs0mg"},{"bike_id":"073a7a15-b275-4308-bcad-5695c10d63fa","system_id":"levelo_inurba_marseille","lat":43.28689,"lon":5.37376,"is_reserved":false,"is_disabled":false,"rental_uris":{"android":"levelo://app?vid=073a7a15-b275-4308-bcad-5695c10d63fa","ios":"levelo://app?vid=073a7a15-b275-4308-bcad-5695c10d63fa"},"vehicle_type_id":"4","last_reported":1765939431,"current_range_meters":6800,"station_id":"ce4bh3p2rcd13ifvqdq0","pricing_plan_id":"cebpf4jnsgd1na2vs0mg"},{"bike_id":"404fe945-0720-4c24-bab5-cbf684a02c70","system_id":"levelo_inurba_marseille","lat":43.29945,"lon":5.36546,"is_reserved":false,"is_disabled":false,"rental_uris":{"android":"levelo://app?vid=404fe945-0720-4c24-bab5-cbf684a02c70","ios":"levelo://app?vid=404fe945-0720-4c24-bab5-cbf684a02c70"},"vehicle_type_id":"4","last_reported":1765939431,"current_range_meters":6800,"station_id":"ce4bgm92rcd13ifvqbr0","pricing_plan_id":"cebpf4jnsgd1na2vs0mg"},{"bike_id":"3ca60de7-a1f7-4000-9cbe-4bf96a1cfcde","system_id":"levelo_inurba_marseille","lat":43.26223,"lon":5.37441,"is_reserved":false,"is_disabled":false,"rental_uris":{"android":"levelo://app?vid=3ca60de7-a1f7-4000-9cbe-4bf96a1cfcde","ios":"levelo://app?vid=3ca60de7-a1f7-4000-9cbe-4bf96a1cfcde"},"vehicle_type_id":"4","last_reported":1765939431,"current_range_meters":6800,"station_id":"ce4bhgp2rcd13ifvqfc0","pricing_plan_id":"cebpf4jnsgd1na2vs0mg"},{"bike_id":"905732b3-bbb0-42bd-b922-4b439a3f5383","system_id":"levelo_inurba_marseille","lat":43.29074,"lon":5.37166,"is_reserved":false,"is_disabled":false,"rental_uris":{"android":"levelo://app?vid=905732b3-bbb0-42bd-b922-4b439a3f5383","ios":"levelo://app?vid=905732b3-bbb0-42bd-b922-4b439a3f5383"},"vehicle_type_id":"4","last_reported":1765939431,"current_range_meters":7200,"station_id":"ce4bh5p2rcd13ifvqe4g","pricing_plan_id":"cebpf4jnsgd1na2vs0mg"},{"bike_id":"cbb3cb83-33c4-4cfd-9c89-a3a54102dc58","system_id":"levelo_inurba_marseille","lat":43.246653,"lon":5.381589,"is_reserved":false,"is_disabled":false,"rental_uris":{"android":"levelo://app?vid=cbb3cb83-33c4-4cfd-9c89-a3a54102dc58","ios":"levelo://app?vid=cbb3cb83-33c4-4cfd-9c89-a3a54102dc58"},"vehicle_type_id":"4","last_reported":1765939431,"current_range_meters":7200,"station_id":"ce4bhih2rcd13ifvqfr0","pricing_plan_id":"cebpf4jnsgd1na2vs0mg"},{"bike_id":"ea8e544d-39f7-44e7-839e-949ee2069145","system_id":"levelo_inurba_marseille","lat":43.3359,"lon":5.41005,"is_reserved":false,"is_disabled":false,"rental_uris":{"android":"levelo://app?vid=ea8e544d-39f7-44e7-839e-949ee2069145","ios":"levelo://app?vid=ea8e544d-39f7-44e7-839e-949ee2069145"},"vehicle_type_id":"4","last_reported":1765939431,"current_range_meters":7200,"station_id":"ce4bhqh2rcd13ifvqhmg","pricing_plan_id":"cebpf4jnsgd1na2vs0mg"},{"bike_id":"d34c8a5f-b7a4-4065-b9b6-f6eb76684ee1","system_id":"levelo_inurba_marseille","lat":43.29782,"lon":5.4041,"is_reserved":false,"is_disabled":false,"rental_uris":{"android":"levelo://app?vid=d34c8a5f-b7a4-4065-b9b6-f6eb76684ee1","ios":"levelo://app?vid=d34c8a5f-b7a4-4065-b9b6-f6eb76684ee1"},"vehicle_type_id":"4","last_reported":1765939431,"current_range_meters":8000,"station_id":"ce4bh112rcd13ifvqd90","pricing_plan_id":"cebpf4jnsgd1na2vs0mg"},{"bike_id":"88373178-fb5f-4a85-b912-55ad80fdf72d","system_id":"levelo_inurba_marseille","lat":43.29946,"lon":5.36539,"is_reserved":false,"is_disabled":false,"rental_uris":{"android":"levelo://app?vid=88373178-fb5f-4a85-b912-55ad80fdf72d","ios":"levelo://app?vid=88373178-fb5f-4a85-b912-55ad80fdf72d"},"vehicle_type_id":"4","last_reported":1765939431,"current_range_meters":8000,"station_id":"ce4bgm92rcd13ifvqbr0","pricing_plan_id":"cebpf4jnsgd1na2vs0mg"},{"bike_id":"343fe7d0-3d78-4db3-9459-a24be8980043","system_id":"levelo_inurba_marseille","lat":43.2947,"lon":5.38394,"is_reserved":false,"is_disabled":false,"rental_uris":{"android":"levelo://app?vid=343fe7d0-3d78-4db3-9459-a24be8980043","ios":"levelo://app?vid=343fe7d0-3d78-4db3-9459-a24be8980043"},"vehicle_type_id":"4","last_reported":1765939431,"current_range_meters":8000,"station_id":"","pricing_plan_id":"cebpf4jnsgd1na2vs0mg"},{"bike_id":"cc628e38-ebc6-4b90-aaf6-136f2898a5a0","system_id":"levelo_inurba_marseille","lat":43.29517,"lon":5.39395,"is_reserved":false,"is_disabled":false,"rental_uris":{"android":"levelo://app?vid=cc628e38-ebc6-4b90-aaf6-136f2898a5a0","ios":"levelo://app?vid=cc628e38-ebc6-4b90-aaf6-136f2898a5a0"},"vehicle_type_id":"4","last_reported":1765939431,"current_range_meters":8000,"station_id":"ce4bh292rcd13ifvqdf0","pricing_plan_id":"cebpf4jnsgd1na2vs0mg"},{"bike_id":"bb375ea7-b5dc-495b-a2db-52999cf6e68d","system_id":"levelo_inurba_marseille","lat":43.28467,"lon":5.35875,"is_reserved":false,"is_disabled":false,"rental_uris":{"android":"levelo://app?vid=bb375ea7-b5dc-495b-a2db-52999cf6e68d","ios":"levelo://app?vid=bb375ea7-b5dc-495b-a2db-52999cf6e68d"},"vehicle_type_id":"4","last_reported":1765939431,"current_range_meters":8000,"station_id":"ce4bhah2rcd13ifvqei0","pricing_plan_id":"cebpf4jnsgd1na2vs0mg"},{"bike_id":"dc574736-cd01-4254-a980-695e3e4354a6","system_id":"levelo_inurba_marseille","lat":43.27611,"lon":5.36121,"is_reserved":false,"is_disabled":false,"rental_uris":{"android":"levelo://app?vid=dc574736-cd01-4254-a980-695e3e4354a6","ios":"levelo://app?vid=dc574736-cd01-4254-a980-695e3e4354a6"},"vehicle_type_id":"4","last_reported":1765939431,"current_range_meters":8400,"station_id":"ce4bgj92rcd13ifvqbe0","pricing_plan_id":"cebpf4jnsgd1na2vs0mg"},{"bike_id":"b5de3dc8-191d-41f1-a993-dd1eca7db6fc","system_id":"levelo_inurba_marseille","lat":43.31036,"lon":5.39351,"is_reserved":false,"is_disabled":false,"rental_uris":{"android":"levelo://app?vid=b5de3dc8-191d-41f1-a993-dd1eca7db6fc","ios":"levelo://app?vid=b5de3dc8-191d-41f1-a993-dd1eca7db6fc"},"vehicle_type_id":"4","last_reported":1765939431,"current_range_meters":8400,"station_id":"","pricing_plan_id":"cebpf4jnsgd1na2vs0mg"},{"bike_id":"67be8c3b-4400-403c-b56e-31f2a51931e7","system_id":"levelo_inurba_marseille","lat":43.23186,"lon":5.35537,"is_reserved":false,"is_disabled":true,"rental_uris":{"android":"levelo://app?vid=67be8c3b-4400-403c-b56e-31f2a51931e7","ios":"levelo://app?vid=67be8c3b-4400-403c-b56e-31f2a51931e7"},"vehicle_type_id":"4","last_reported":1765939431,"current_range_meters":8800,"station_id":"ce4bhu92rcd13ifvqi70","pricing_plan_id":"cebpf4jnsgd1na2vs0mg"},{"bike_id":"62319f52-bb5a-47c6-bf63-d8b31ecb59b3","system_id":"levelo_inurba_marseille","lat":43.26451,"lon":5.37369,"is_reserved":false,"is_disabled":false,"rental_uris":{"android":"levelo://app?vid=62319f52-bb5a-47c6-bf63-d8b31ecb59b3","ios":"levelo://app?vid=62319f52-bb5a-47c6-bf63-d8b31ecb59b3"},"vehicle_type_id":"4","last_reported":1765939431,"current_range_meters":8800,"station_id":"","pricing_plan_id":"cebpf4jnsgd1na2vs0mg"},{"bike_id":"f9ba0bc8-1678-4550-8ab9-06ec3e215e8d","system_id":"levelo_inurba_marseille","lat":43.337444,"lon":5.374475,"is_reserved":false,"is_disabled":false,"rental_uris":{"android":"levelo://app?vid=f9ba0bc8-1678-4550-8ab9-06ec3e215e8d","ios":"levelo://app?vid=f9ba0bc8-1678-4550-8ab9-06ec3e215e8d"},"vehicle_type_id":"4","last_reported":1765939431,"current_range_meters":8800,"station_id":"","pricing_plan_id":"cebpf4jnsgd1na2vs0mg"},{"bike_id":"cc1e4e7e-cf17-4d72-8905-b0ca5761bdee","system_id":"levelo_inurba_marseille","lat":43.24661,"lon":5.38168,"is_reserved":false,"is_disabled":false,"rental_uris":{"android":"levelo://app?vid=cc1e4e7e-cf17-4d72-8905-b0ca5761bdee","ios":"levelo://app?vid=cc1e4e7e-cf17-4d72-8905-b0ca5761bdee"},"vehicle_type_id":"4","last_reported":1765939431,"current_range_meters":8800,"station_id":"ce4bhih2rcd13ifvqfr0","pricing_plan_id":"cebpf4jnsgd1na2vs0mg"},{"bike_id":"0b397a54-ce36-4bbf-a3de-34fc8ce39672","system_id":"levelo_inurba_marseille","lat":43.308039,"lon":5.381465,"is_reserved":false,"is_disabled":false,"rental_uris":{"android":"levelo://app?vid=0b397a54-ce36-4bbf-a3de-34fc8ce39672","ios":"levelo://app?vid=0b397a54-ce36-4bbf-a3de-34fc8ce39672"},"vehicle_type_id":"4","last_reported":1765939431,"current_range_meters":8800,"station_id":"ce4bho92rcd13ifvqh4g","pricing_plan_id":"cebpf4jnsgd1na2vs0mg"},{"bike_id":"1d3879da-21e4-498b-bccd-3d94b45e8429","system_id":"levelo_inurba_marseille","lat":43.24568,"lon":5.39555,"is_reserved":false,"is_disabled":true,"rental_uris":{"android":"levelo://app?vid=1d3879da-21e4-498b-bccd-3d94b45e8429","ios":"levelo://app?vid=1d3879da-21e4-498b-bccd-3d94b45e8429"},"vehicle_type_id":"4","last_reported":1765939431,"current_range_meters":8800,"station_id":"ce4bhlp2rcd13ifvqgjg","pricing_plan_id":"cebpf4jnsgd1na2vs0mg"},{"bike_id":"168944bc-143d-4235-a87c-58523f4f4dd7","system_id":"levelo_inurba_marseille","lat":43.29637,"lon":5.38082,"is_reserved":false,"is_disabled":true,"rental_uris":{"android":"levelo://app?vid=168944bc-143d-4235-a87c-58523f4f4dd7","ios":"levelo://app?vid=168944bc-143d-4235-a87c-58523f4f4dd7"},"vehicle_type_id":"4","last_reported":1765939431,"current_range_meters":8800,"station_id":"ce4bgl12rcd13ifvqbo0","pricing_plan_id":"cebpf4jnsgd1na2vs0mg"},{"bike_id":"77e0d0eb-6af8-474d-83a5-2b5e4ff0d935","system_id":"levelo_inurba_marseille","lat":43.24649,"lon":5.43147,"is_reserved":false,"is_disabled":true,"rental_uris":{"android":"levelo://app?vid=77e0d0eb-6af8-474d-83a5-2b5e4ff0d935","ios":"levelo://app?vid=77e0d0eb-6af8-474d-83a5-2b5e4ff0d935"},"vehicle_type_id":"4","last_reported":1765939431,"current_range_meters":8800,"station_id":"st_d2m6c4gdas8pm72e190g","pricing_plan_id":"cebpf4jnsgd1na2vs0mg"},{"bike_id":"254e36cb-c2ce-4dbd-bc4b-a9c0cf594f6c","system_id":"levelo_inurba_marseille","lat":43.30892,"lon":5.39651,"is_reserved":false,"is_disabled":false,"rental_uris":{"android":"levelo://app?vid=254e36cb-c2ce-4dbd-bc4b-a9c0cf594f6c","ios":"levelo://app?vid=254e36cb-c2ce-4dbd-bc4b-a9c0cf594f6c"},"vehicle_type_id":"4","last_reported":1765939431,"current_range_meters":8800,"station_id":"ce4bh012rcd13ifvqcv0","pricing_plan_id":"cebpf4jnsgd1na2vs0mg"},{"bike_id":"5f9115dc-47d2-4bdb-be36-56ac4d2294b3","system_id":"levelo_inurba_marseille","lat":43.30723,"lon":5.42441,"is_reserved":false,"is_disabled":false,"rental_uris":{"android":"levelo://app?vid=5f9115dc-47d2-4bdb-be36-56ac4d2294b3","ios":"levelo://app?vid=5f9115dc-47d2-4bdb-be36-56ac4d2294b3"},"vehicle_type_id":"4","last_reported":1765939431,"current_range_meters":8800,"station_id":"st_cvj6ca6bvosntc0bfgr0","pricing_plan_id":"cebpf4jnsgd1na2vs0mg"},{"bike_id":"90f357fd-4c0f-4c8b-96c8-9cf3e3651b28","system_id":"levelo_inurba_marseille","lat":43.28275,"lon":5.35086,"is_reserved":false,"is_disabled":false,"rental_uris":{"android":"levelo://app?vid=90f357fd-4c0f-4c8b-96c8-9cf3e3651b28","ios":"levelo://app?vid=90f357fd-4c0f-4c8b-96c8-9cf3e3651b28"},"vehicle_type_id":"4","last_reported":1765939431,"current_range_meters":9200,"station_id":"ce4bhbp2rcd13ifvqerg","pricing_plan_id":"cebpf4jnsgd1na2vs0mg"},{"bike_id":"bdfdd4a8-1daf-42c9-bd6e-fef1676d674d","system_id":"levelo_inurba_marseille","lat":43.28654,"lon":5.36348,"is_reserved":false,"is_disabled":false,"rental_uris":{"android":"levelo://app?vid=bdfdd4a8-1daf-42c9-bd6e-fef1676d674d","ios":"levelo://app?vid=bdfdd4a8-1daf-42c9-bd6e-fef1676d674d"},"vehicle_type_id":"4","last_reported":1765939431,"current_range_meters":9200,"station_id":"ce4bhah2rcd13ifvqej0","pricing_plan_id":"cebpf4jnsgd1na2vs0mg"},{"bike_id":"0fc26cb2-fc00-491d-95b7-3f6a852c11de","system_id":"levelo_inurba_marseille","lat":43.28455,"lon":5.35895,"is_reserved":false,"is_disabled":false,"rental_uris":{"android":"levelo://app?vid=0fc26cb2-fc00-491d-95b7-3f6a852c11de","ios":"levelo://app?vid=0fc26cb2-fc00-491d-95b7-3f6a852c11de"},"vehicle_type_id":"4","last_reported":1765939431,"current_range_meters":9200,"station_id":"ce4bhah2rcd13ifvqei0","pricing_plan_id":"cebpf4jnsgd1na2vs0mg"},{"bike_id":"860586bd-84d4-43ba-af58-7f526b0205ca","system_id":"levelo_inurba_marseille","lat":43.31465,"lon":5.37417,"is_reserved":false,"is_disabled":false,"rental_uris":{"android":"levelo://app?vid=860586bd-84d4-43ba-af58-7f526b0205ca","ios":"levelo://app?vid=860586bd-84d4-43ba-af58-7f526b0205ca"},"vehicle_type_id":"4","last_reported":1765939431,"current_range_meters":9200,"station_id":"","pricing_plan_id":"cebpf4jnsgd1na2vs0mg"},{"bike_id":"b296fdce-bc4e-4615-b7a9-989d9472d975","system_id":"levelo_inurba_marseille","lat":43.255724,"lon":5.382432,"is_reserved":false,"is_disabled":false,"rental_uris":{"android":"levelo://app?vid=b296fdce-bc4e-4615-b7a9-989d9472d975","ios":"levelo://app?vid=b296fdce-bc4e-4615-b7a9-989d9472d975"},"vehicle_type_id":"4","last_reported":1765939431,"current_range_meters":9200,"station_id":"ce4bhih2rcd13ifvqfs0","pricing_plan_id":"cebpf4jnsgd1na2vs0mg"},{"bike_id":"929cf538-0f17-44b1-998a-c48280fa525c","system_id":"levelo_inurba_marseille","lat":43.27489,"lon":5.42442,"is_reserved":false,"is_disabled":false,"rental_uris":{"android":"levelo://app?vid=929cf538-0f17-44b1-998a-c48280fa525c","ios":"levelo://app?vid=929cf538-0f17-44b1-998a-c48280fa525c"},"vehicle_type_id":"4","last_reported":1765939431,"current_range_meters":9200,"station_id":"ce4bhn92rcd13ifvqgrg","pricing_plan_id":"cebpf4jnsgd1na2vs0mg"},{"bike_id":"e70bca03-b790-4942-9e87-552f261a9e48","system_id":"levelo_inurba_marseille","lat":43.27044,"lon":5.38309,"is_reserved":false,"is_disabled":false,"rental_uris":{"android":"levelo://app?vid=e70bca03-b790-4942-9e87-552f261a9e48","ios":"levelo://app?vid=e70bca03-b790-4942-9e87-552f261a9e48"},"vehicle_type_id":"4","last_reported":1765939431,"current_range_meters":9200,"station_id":"st_d3n2fo6cfp8s73cte1j0","pricing_plan_id":"cebpf4jnsgd1na2vs0mg"},{"bike_id":"ab4ef196-e8fa-4fab-81e9-8ad3ad4973f7","system_id":"levelo_inurba_marseille","lat":43.27073,"lon":5.42265,"is_reserved":false,"is_disabled":true,"rental_uris":{"android":"levelo://app?vid=ab4ef196-e8fa-4fab-81e9-8ad3ad4973f7","ios":"levelo://app?vid=ab4ef196-e8fa-4fab-81e9-8ad3ad4973f7"},"vehicle_type_id":"4","last_reported":1765939431,"current_range_meters":9200,"station_id":"ce4bhk92rcd13ifvqgb0","pricing_plan_id":"cebpf4jnsgd1na2vs0mg"},{"bike_id":"b325c2c2-d335-46e8-8873-e16fb8ab4685","system_id":"levelo_inurba_marseille","lat":43.33596,"lon":5.41,"is_reserved":false,"is_disabled":false,"rental_uris":{"android":"levelo://app?vid=b325c2c2-d335-46e8-8873-e16fb8ab4685","ios":"levelo://app?vid=b325c2c2-d335-46e8-8873-e16fb8ab4685"},"vehicle_type_id":"4","last_reported":1765939431,"current_range_meters":9200,"station_id":"ce4bhqh2rcd13ifvqhmg","pricing_plan_id":"cebpf4jnsgd1na2vs0mg"},{"bike_id":"100f7b7c-1e92-4651-aa96-952f638bad27","system_id":"levelo_inurba_marseille","lat":43.3108,"lon":5.42437,"is_reserved":false,"is_disabled":false,"rental_uris":{"android":"levelo://app?vid=100f7b7c-1e92-4651-aa96-952f638bad27","ios":"levelo://app?vid=100f7b7c-1e92-4651-aa96-952f638bad27"},"vehicle_type_id":"4","last_reported":1765939431,"current_range_meters":9200,"station_id":"ce4bhp92rcd13ifvqhag","pricing_plan_id":"cebpf4jnsgd1na2vs0mg"},{"bike_id":"bfae7ad9-0be6-400c-9401-6605e8971a7e","system_id":"levelo_inurba_marseille","lat":43.28687,"lon":5.37995,"is_reserved":false,"is_disabled":false,"rental_uris":{"android":"levelo://app?vid=bfae7ad9-0be6-400c-9401-6605e8971a7e","ios":"levelo://app?vid=bfae7ad9-0be6-400c-9401-6605e8971a7e"},"vehicle_type_id":"4","last_reported":1765939431,"current_range_meters":9200,"station_id":"","pricing_plan_id":"cebpf4jnsgd1na2vs0mg"},{"bike_id":"df7471b3-50a8-4510-84e2-aeca22f14e85","system_id":"levelo_inurba_marseille","lat":43.28737,"lon":5.38411,"is_reserved":false,"is_disabled":false,"rental_uris":{"android":"levelo://app?vid=df7471b3-50a8-4510-84e2-aeca22f14e85","ios":"levelo://app?vid=df7471b3-50a8-4510-84e2-aeca22f14e85"},"vehicle_type_id":"4","last_reported":1765939431,"current_range_meters":9600,"station_id":"","pricing_plan_id":"cebpf4jnsgd1na2vs0mg"},{"bike_id":"7b9bd5de-20ee-492a-91cc-3964972326b2","system_id":"levelo_inurba_marseille","lat":43.29475,"lon":5.38293,"is_reserved":false,"is_disabled":false,"rental_uris":{"android":"levelo://app?vid=7b9bd5de-20ee-492a-91cc-3964972326b2","ios":"levelo://app?vid=7b9bd5de-20ee-492a-91cc-3964972326b2"},"vehicle_type_id":"4","last_reported":1765939431,"current_range_meters":9600,"station_id":"","pricing_plan_id":"cebpf4jnsgd1na2vs0mg"},{"bike_id":"8eeca007-d87c-41ed-b1f2-0428fb5e78a6","system_id":"levelo_inurba_marseille","lat":43.26549,"lon":5.37311,"is_reserved":false,"is_disabled":false,"rental_uris":{"android":"levelo://app?vid=8eeca007-d87c-41ed-b1f2-0428fb5e78a6","ios":"levelo://app?vid=8eeca007-d87c-41ed-b1f2-0428fb5e78a6"},"vehicle_type_id":"4","last_reported":1765939431,"current_range_meters":10000,"station_id":"ce4bhg12rcd13ifvqf70","pricing_plan_id":"cebpf4jnsgd1na2vs0mg"},{"bike_id":"71eb1a16-88e0-457c-a111-7bb97e3f4d31","system_id":"levelo_inurba_marseille","lat":43.28535,"lon":5.44105,"is_reserved":false,"is_disabled":false,"rental_uris":{"android":"levelo://app?vid=71eb1a16-88e0-457c-a111-7bb97e3f4d31","ios":"levelo://app?vid=71eb1a16-88e0-457c-a111-7bb97e3f4d31"},"vehicle_type_id":"4","last_reported":1765939431,"current_range_meters":10000,"station_id":"st_d3j3df2ikq2c7380ej80","pricing_plan_id":"cebpf4jnsgd1na2vs0mg"},{"bike_id":"b2d0bee3-8553-4527-a831-d1e903999f00","system_id":"levelo_inurba_marseille","lat":43.316791,"lon":5.375612,"is_reserved":false,"is_disabled":false,"rental_uris":{"android":"levelo://app?vid=b2d0bee3-8553-4527-a831-d1e903999f00","ios":"levelo://app?vid=b2d0bee3-8553-4527-a831-d1e903999f00"},"vehicle_type_id":"4","last_reported":1765939431,"current_range_meters":10000,"station_id":"","pricing_plan_id":"cebpf4jnsgd1na2vs0mg"},{"bike_id":"21bcd810-1303-43db-a3fe-409b08319e8a","system_id":"levelo_inurba_marseille","lat":43.25331,"lon":5.42184,"is_reserved":false,"is_disabled":false,"rental_uris":{"android":"levelo://app?vid=21bcd810-1303-43db-a3fe-409b08319e8a","ios":"levelo://app?vid=21bcd810-1303-43db-a3fe-409b08319e8a"},"vehicle_type_id":"4","last_reported":1765939431,"current_range_meters":10000,"station_id":"st_d2m65c5bi1j21697t3ng","pricing_plan_id":"cebpf4jnsgd1na2vs0mg"},{"bike_id":"7eaed911-52ff-45ed-b3ff-cd17f37407d1","system_id":"levelo_inurba_marseille","lat":43.28231,"lon":5.34904,"is_reserved":false,"is_disabled":false,"rental_uris":{"android":"levelo://app?vid=7eaed911-52ff-45ed-b3ff-cd17f37407d1","ios":"levelo://app?vid=7eaed911-52ff-45ed-b3ff-cd17f37407d1"},"vehicle_type_id":"4","last_reported":1765939431,"current_range_meters":10000,"station_id":"","pricing_plan_id":"cebpf4jnsgd1na2vs0mg"},{"bike_id":"96d01075-b12c-47f4-a4ea-d0913bc2ee1f","system_id":"levelo_inurba_marseille","lat":43.24632,"lon":5.43143,"is_reserved":false,"is_disabled":false,"rental_uris":{"android":"levelo://app?vid=96d01075-b12c-47f4-a4ea-d0913bc2ee1f","ios":"levelo://app?vid=96d01075-b12c-47f4-a4ea-d0913bc2ee1f"},"vehicle_type_id":"4","last_reported":1765939431,"current_range_meters":10000,"station_id":"st_d2m6c4gdas8pm72e190g","pricing_plan_id":"cebpf4jnsgd1na2vs0mg"},{"bike_id":"89f5a425-6334-463b-8fab-6805660c96eb","system_id":"levelo_inurba_marseille","lat":43.315942,"lon":5.366655,"is_reserved":false,"is_disabled":false,"rental_uris":{"android":"levelo://app?vid=89f5a425-6334-463b-8fab-6805660c96eb","ios":"levelo://app?vid=89f5a425-6334-463b-8fab-6805660c96eb"},"vehicle_type_id":"4","last_reported":1765939431,"current_range_meters":10000,"station_id":"","pricing_plan_id":"cebpf4jnsgd1na2vs0mg"},{"bike_id":"43f1e5b6-6733-49f3-afee-4b272067dec8","system_id":"levelo_inurba_marseille","lat":43.24165,"lon":5.36393,"is_reserved":false,"is_disabled":false,"rental_uris":{"android":"levelo://app?vid=43f1e5b6-6733-49f3-afee-4b272067dec8","ios":"levelo://app?vid=43f1e5b6-6733-49f3-afee-4b272067dec8"},"vehicle_type_id":"4","last_reported":1765939431,"current_range_meters":10000,"station_id":"cpo36qri1sfpv3e86is0","pricing_plan_id":"cebpf4jnsgd1na2vs0mg"},{"bike_id":"90ea1878-6f61-4c28-9d11-0c44b5be2810","system_id":"levelo_inurba_marseille","lat":43.28654,"lon":5.36358,"is_reserved":false,"is_disabled":false,"rental_uris":{"android":"levelo://app?vid=90ea1878-6f61-4c28-9d11-0c44b5be2810","ios":"levelo://app?vid=90ea1878-6f61-4c28-9d11-0c44b5be2810"},"vehicle_type_id":"4","last_reported":1765939431,"current_range_meters":10000,"station_id":"ce4bhah2rcd13ifvqej0","pricing_plan_id":"cebpf4jnsgd1na2vs0mg"},{"bike_id":"f5c06492-8ff7-4eb9-a21d-99dd280e7db4","system_id":"levelo_inurba_marseille","lat":43.29813,"lon":5.44071,"is_reserved":false,"is_disabled":false,"rental_uris":{"android":"levelo://app?vid=f5c06492-8ff7-4eb9-a21d-99dd280e7db4","ios":"levelo://app?vid=f5c06492-8ff7-4eb9-a21d-99dd280e7db4"},"vehicle_type_id":"4","last_reported":1765939431,"current_range_meters":10000,"station_id":"st_d3jp68qikq2c7381ktn0","pricing_plan_id":"cebpf4jnsgd1na2vs0mg"},{"bike_id":"15d813ba-27fd-4382-ad14-89afa4b8c8d7","system_id":"levelo_inurba_marseille","lat":43.259325,"lon":5.409017,"is_reserved":false,"is_disabled":false,"rental_uris":{"android":"levelo://app?vid=15d813ba-27fd-4382-ad14-89afa4b8c8d7","ios":"levelo://app?vid=15d813ba-27fd-4382-ad14-89afa4b8c8d7"},"vehicle_type_id":"4","last_reported":1765939431,"current_range_meters":10000,"station_id":"ce4bhm92rcd13ifvqglg","pricing_plan_id":"cebpf4jnsgd1na2vs0mg"},{"bike_id":"919fcffc-e74b-427a-b74c-298e8406e81a","system_id":"levelo_inurba_marseille","lat":43.26812,"lon":5.40265,"is_reserved":false,"is_disabled":false,"rental_uris":{"android":"levelo://app?vid=919fcffc-e74b-427a-b74c-298e8406e81a","ios":"levelo://app?vid=919fcffc-e74b-427a-b74c-298e8406e81a"},"vehicle_type_id":"4","last_reported":1765939431,"current_range_meters":10000,"station_id":"ce501612rcd8frsf0b60","pricing_plan_id":"cebpf4jnsgd1na2vs0mg"},{"bike_id":"b861df9c-98ec-4cec-84eb-2349de3151bd","system_id":"levelo_inurba_marseille","lat":43.31085,"lon":5.42434,"is_reserved":false,"is_disabled":false,"rental_uris":{"android":"levelo://app?vid=b861df9c-98ec-4cec-84eb-2349de3151bd","ios":"levelo://app?vid=b861df9c-98ec-4cec-84eb-2349de3151bd"},"vehicle_type_id":"4","last_reported":1765939431,"current_range_meters":10000,"station_id":"ce4bhp92rcd13ifvqhag","pricing_plan_id":"cebpf4jnsgd1na2vs0mg"},{"bike_id":"65d92bad-1a39-4f3d-b402-7fcc9313e19a","system_id":"levelo_inurba_marseille","lat":43.27903,"lon":5.39594,"is_reserved":false,"is_disabled":false,"rental_uris":{"android":"levelo://app?vid=65d92bad-1a39-4f3d-b402-7fcc9313e19a","ios":"levelo://app?vid=65d92bad-1a39-4f3d-b402-7fcc9313e19a"},"vehicle_type_id":"4","last_reported":1765939431,"current_range_meters":10000,"station_id":"ce4bhf92rcd13ifvqf40","pricing_plan_id":"cebpf4jnsgd1na2vs0mg"},{"bike_id":"c207d154-2a6e-4f87-9688-1e794e636894","system_id":"levelo_inurba_marseille","lat":43.2292,"lon":5.35364,"is_reserved":false,"is_disabled":false,"rental_uris":{"android":"levelo://app?vid=c207d154-2a6e-4f87-9688-1e794e636894","ios":"levelo://app?vid=c207d154-2a6e-4f87-9688-1e794e636894"},"vehicle_type_id":"4","last_reported":1765939431,"current_range_meters":10000,"station_id":"cpo3532slgdg3j2ikp40","pricing_plan_id":"cebpf4jnsgd1na2vs0mg"},{"bike_id":"4c0adb54-e09e-48f3-baae-3a20f0af4e72","system_id":"levelo_inurba_marseille","lat":43.33611,"lon":5.4104,"is_reserved":false,"is_disabled":false,"rental_uris":{"android":"levelo://app?vid=4c0adb54-e09e-48f3-baae-3a20f0af4e72","ios":"levelo://app?vid=4c0adb54-e09e-48f3-baae-3a20f0af4e72"},"vehicle_type_id":"4","last_reported":1765939431,"current_range_meters":10000,"station_id":"ce4bhqh2rcd13ifvqhmg","pricing_plan_id":"cebpf4jnsgd1na2vs0mg"},{"bike_id":"c53e521f-b69c-4fd1-8474-441d53c89320","system_id":"levelo_inurba_marseille","lat":43.30888,"lon":5.39627,"is_reserved":false,"is_disabled":false,"rental_uris":{"android":"levelo://app?vid=c53e521f-b69c-4fd1-8474-441d53c89320","ios":"levelo://app?vid=c53e521f-b69c-4fd1-8474-441d53c89320"},"vehicle_type_id":"4","last_reported":1765939431,"current_range_meters":10000,"station_id":"ce4bh012rcd13ifvqcv0","pricing_plan_id":"cebpf4jnsgd1na2vs0mg"},{"bike_id":"b15e6942-c3bc-4e01-ad46-908264752494","system_id":"levelo_inurba_marseille","lat":43.25079,"lon":5.395,"is_reserved":false,"is_disabled":false,"rental_uris":{"android":"levelo://app?vid=b15e6942-c3bc-4e01-ad46-908264752494","ios":"levelo://app?vid=b15e6942-c3bc-4e01-ad46-908264752494"},"vehicle_type_id":"4","last_reported":1765939431,"current_range_meters":10800,"station_id":"ce4bhm12rcd13ifvqgkg","pricing_plan_id":"cebpf4jnsgd1na2vs0mg"},{"bike_id":"3f6974f5-cfb9-4673-96ca-cbbb4b47f916","system_id":"levelo_inurba_marseille","lat":43.28345,"lon":5.381054,"is_reserved":false,"is_disabled":false,"rental_uris":{"android":"levelo://app?vid=3f6974f5-cfb9-4673-96ca-cbbb4b47f916","ios":"levelo://app?vid=3f6974f5-cfb9-4673-96ca-cbbb4b47f916"},"vehicle_type_id":"4","last_reported":1765939431,"current_range_meters":10800,"station_id":"ce4bh412rcd13ifvqdr0","pricing_plan_id":"cebpf4jnsgd1na2vs0mg"},{"bike_id":"0f9e6f74-c72d-458b-b50f-68130f3f5b68","system_id":"levelo_inurba_marseille","lat":43.249476,"lon":5.404844,"is_reserved":false,"is_disabled":false,"rental_uris":{"android":"levelo://app?vid=0f9e6f74-c72d-458b-b50f-68130f3f5b68","ios":"levelo://app?vid=0f9e6f74-c72d-458b-b50f-68130f3f5b68"},"vehicle_type_id":"4","last_reported":1765939431,"current_range_meters":10800,"station_id":"st_d2ngiaodas8pm72gd1h0","pricing_plan_id":"cebpf4jnsgd1na2vs0mg"},{"bike_id":"54767de6-804b-469f-90ff-ca2ed56fb7b8","system_id":"levelo_inurba_marseille","lat":43.28697,"lon":5.39981,"is_reserved":false,"is_disabled":false,"rental_uris":{"android":"levelo://app?vid=54767de6-804b-469f-90ff-ca2ed56fb7b8","ios":"levelo://app?vid=54767de6-804b-469f-90ff-ca2ed56fb7b8"},"vehicle_type_id":"4","last_reported":1765939431,"current_range_meters":10800,"station_id":"ce4bho92rcd13ifvqh3g","pricing_plan_id":"cebpf4jnsgd1na2vs0mg"},{"bike_id":"a1ea4967-b2ee-40d7-bbad-b544553f9b30","system_id":"levelo_inurba_marseille","lat":43.28661,"lon":5.36328,"is_reserved":false,"is_disabled":false,"rental_uris":{"android":"levelo://app?vid=a1ea4967-b2ee-40d7-bbad-b544553f9b30","ios":"levelo://app?vid=a1ea4967-b2ee-40d7-bbad-b544553f9b30"},"vehicle_type_id":"4","last_reported":1765939431,"current_range_meters":10800,"station_id":"ce4bhah2rcd13ifvqej0","pricing_plan_id":"cebpf4jnsgd1na2vs0mg"},{"bike_id":"2ed1a8d7-fa6b-4641-936f-3a2533ef5919","system_id":"levelo_inurba_marseille","lat":43.28809,"lon":5.35883,"is_reserved":false,"is_disabled":false,"rental_uris":{"android":"levelo://app?vid=2ed1a8d7-fa6b-4641-936f-3a2533ef5919","ios":"levelo://app?vid=2ed1a8d7-fa6b-4641-936f-3a2533ef5919"},"vehicle_type_id":"4","last_reported":1765939431,"current_range_meters":10800,"station_id":"","pricing_plan_id":"cebpf4jnsgd1na2vs0mg"},{"bike_id":"c1afd3fb-8bde-4703-af2f-e40876be8db2","system_id":"levelo_inurba_marseille","lat":43.28427,"lon":5.37518,"is_reserved":false,"is_disabled":false,"rental_uris":{"android":"levelo://app?vid=c1afd3fb-8bde-4703-af2f-e40876be8db2","ios":"levelo://app?vid=c1afd3fb-8bde-4703-af2f-e40876be8db2"},"vehicle_type_id":"4","last_reported":1765939431,"current_range_meters":10800,"station_id":"ce4bh412rcd13ifvqds0","pricing_plan_id":"cebpf4jnsgd1na2vs0mg"},{"bike_id":"4b855f5a-7577-4c52-a7fa-8841ff8f7f88","system_id":"levelo_inurba_marseille","lat":43.30345,"lon":5.41879,"is_reserved":false,"is_disabled":false,"rental_uris":{"android":"levelo://app?vid=4b855f5a-7577-4c52-a7fa-8841ff8f7f88","ios":"levelo://app?vid=4b855f5a-7577-4c52-a7fa-8841ff8f7f88"},"vehicle_type_id":"4","last_reported":1765939431,"current_range_meters":10800,"station_id":"ce4bhop2rcd13ifvqh7g","pricing_plan_id":"cebpf4jnsgd1na2vs0mg"},{"bike_id":"b83f4d2c-5349-4333-b9a9-95c155b2591e","system_id":"levelo_inurba_marseille","lat":43.269517,"lon":5.386423,"is_reserved":false,"is_disabled":false,"rental_uris":{"android":"levelo://app?vid=b83f4d2c-5349-4333-b9a9-95c155b2591e","ios":"levelo://app?vid=b83f4d2c-5349-4333-b9a9-95c155b2591e"},"vehicle_type_id":"4","last_reported":1765939431,"current_range_meters":10800,"station_id":"ce4bhh92rcd13ifvqfh0","pricing_plan_id":"cebpf4jnsgd1na2vs0mg"},{"bike_id":"7c64e78f-2a73-4e8f-8431-bb6751dbd5a5","system_id":"levelo_inurba_marseille","lat":43.31256,"lon":5.40173,"is_reserved":false,"is_disabled":false,"rental_uris":{"android":"levelo://app?vid=7c64e78f-2a73-4e8f-8431-bb6751dbd5a5","ios":"levelo://app?vid=7c64e78f-2a73-4e8f-8431-bb6751dbd5a5"},"vehicle_type_id":"4","last_reported":1765939431,"current_range_meters":11200,"station_id":"ce4bh092rcd13ifvqd30","pricing_plan_id":"cebpf4jnsgd1na2vs0mg"},{"bike_id":"ad5077e7-adfd-4460-ab6e-dc27206627c9","system_id":"levelo_inurba_marseille","lat":43.23794,"lon":5.36634,"is_reserved":false,"is_disabled":false,"rental_uris":{"android":"levelo://app?vid=ad5077e7-adfd-4460-ab6e-dc27206627c9","ios":"levelo://app?vid=ad5077e7-adfd-4460-ab6e-dc27206627c9"},"vehicle_type_id":"4","last_reported":1765939431,"current_range_meters":11200,"station_id":"st_d3nk18o9ro0c73en2l3g","pricing_plan_id":"cebpf4jnsgd1na2vs0mg"},{"bike_id":"54f8fe26-ad2a-40ba-8e6d-e7235d52405d","system_id":"levelo_inurba_marseille","lat":43.25353,"lon":5.42164,"is_reserved":false,"is_disabled":true,"rental_uris":{"android":"levelo://app?vid=54f8fe26-ad2a-40ba-8e6d-e7235d52405d","ios":"levelo://app?vid=54f8fe26-ad2a-40ba-8e6d-e7235d52405d"},"vehicle_type_id":"4","last_reported":1765939431,"current_range_meters":11200,"station_id":"st_d2m65c5bi1j21697t3ng","pricing_plan_id":"cebpf4jnsgd1na2vs0mg"},{"bike_id":"d41a21d4-827e-499c-91c6-deff6eb783e7","system_id":"levelo_inurba_marseille","lat":43.24654,"lon":5.43139,"is_reserved":false,"is_disabled":true,"rental_uris":{"android":"levelo://app?vid=d41a21d4-827e-499c-91c6-deff6eb783e7","ios":"levelo://app?vid=d41a21d4-827e-499c-91c6-deff6eb783e7"},"vehicle_type_id":"4","last_reported":1765939431,"current_range_meters":11600,"station_id":"st_d2m6c4gdas8pm72e190g","pricing_plan_id":"cebpf4jnsgd1na2vs0mg"},{"bike_id":"5cde72fc-6b41-4764-bcbf-9fc9dff4199e","system_id":"levelo_inurba_marseille","lat":43.337444,"lon":5.374475,"is_reserved":false,"is_disabled":false,"rental_uris":{"android":"levelo://app?vid=5cde72fc-6b41-4764-bcbf-9fc9dff4199e","ios":"levelo://app?vid=5cde72fc-6b41-4764-bcbf-9fc9dff4199e"},"vehicle_type_id":"4","last_reported":1765939431,"current_range_meters":11600,"station_id":"","pricing_plan_id":"cebpf4jnsgd1na2vs0mg"},{"bike_id":"cb5fb5c4-3bd8-4960-9377-b1a41b4ca74b","system_id":"levelo_inurba_marseille","lat":43.23153,"lon":5.43703,"is_reserved":false,"is_disabled":true,"rental_uris":{"android":"levelo://app?vid=cb5fb5c4-3bd8-4960-9377-b1a41b4ca74b","ios":"levelo://app?vid=cb5fb5c4-3bd8-4960-9377-b1a41b4ca74b"},"vehicle_type_id":"4","last_reported":1765939431,"current_range_meters":11600,"station_id":"ce4bhmp2rcd13ifvqgog","pricing_plan_id":"cebpf4jnsgd1na2vs0mg"},{"bike_id":"d0c81cd9-bcb1-46de-85cc-999523e8d872","system_id":"levelo_inurba_marseille","lat":43.30442,"lon":5.37094,"is_reserved":false,"is_disabled":false,"rental_uris":{"android":"levelo://app?vid=d0c81cd9-bcb1-46de-85cc-999523e8d872","ios":"levelo://app?vid=d0c81cd9-bcb1-46de-85cc-999523e8d872"},"vehicle_type_id":"4","last_reported":1765939431,"current_range_meters":11600,"station_id":"","pricing_plan_id":"cebpf4jnsgd1na2vs0mg"},{"bike_id":"0757412c-3a83-462e-90dd-86301f3f0506","system_id":"levelo_inurba_marseille","lat":43.3015,"lon":5.380674,"is_reserved":false,"is_disabled":false,"rental_uris":{"android":"levelo://app?vid=0757412c-3a83-462e-90dd-86301f3f0506","ios":"levelo://app?vid=0757412c-3a83-462e-90dd-86301f3f0506"},"vehicle_type_id":"4","last_reported":1765939431,"current_range_meters":11600,"station_id":"","pricing_plan_id":"cebpf4jnsgd1na2vs0mg"},{"bike_id":"9218d1b7-c5db-40b2-a73f-6707fc89717f","system_id":"levelo_inurba_marseille","lat":43.28725,"lon":5.36082,"is_reserved":false,"is_disabled":false,"rental_uris":{"android":"levelo://app?vid=9218d1b7-c5db-40b2-a73f-6707fc89717f","ios":"levelo://app?vid=9218d1b7-c5db-40b2-a73f-6707fc89717f"},"vehicle_type_id":"4","last_reported":1765939431,"current_range_meters":11600,"station_id":"cki0cbj6b192h4jlfktg","pricing_plan_id":"cebpf4jnsgd1na2vs0mg"},{"bike_id":"bb30194d-85ce-4ca8-b46d-788238ef96a9","system_id":"levelo_inurba_marseille","lat":43.32337,"lon":5.3849,"is_reserved":false,"is_disabled":false,"rental_uris":{"android":"levelo://app?vid=bb30194d-85ce-4ca8-b46d-788238ef96a9","ios":"levelo://app?vid=bb30194d-85ce-4ca8-b46d-788238ef96a9"},"vehicle_type_id":"4","last_reported":1765939431,"current_range_meters":11600,"station_id":"st_d45171o9ee8s73djdqug","pricing_plan_id":"cebpf4jnsgd1na2vs0mg"},{"bike_id":"2d1403ee-ac22-4c66-89cd-b5e3bfed1000","system_id":"levelo_inurba_marseille","lat":43.308738,"lon":5.396508,"is_reserved":false,"is_disabled":false,"rental_uris":{"android":"levelo://app?vid=2d1403ee-ac22-4c66-89cd-b5e3bfed1000","ios":"levelo://app?vid=2d1403ee-ac22-4c66-89cd-b5e3bfed1000"},"vehicle_type_id":"4","last_reported":1765939431,"current_range_meters":11600,"station_id":"ce4bh012rcd13ifvqcv0","pricing_plan_id":"cebpf4jnsgd1na2vs0mg"},{"bike_id":"cf9a8835-2c14-44d2-87db-d4b7a12ddc2b","system_id":"levelo_inurba_marseille","lat":43.30874,"lon":5.39637,"is_reserved":false,"is_disabled":false,"rental_uris":{"android":"levelo://app?vid=cf9a8835-2c14-44d2-87db-d4b7a12ddc2b","ios":"levelo://app?vid=cf9a8835-2c14-44d2-87db-d4b7a12ddc2b"},"vehicle_type_id":"4","last_reported":1765939431,"current_range_meters":11600,"station_id":"ce4bh012rcd13ifvqcv0","pricing_plan_id":"cebpf4jnsgd1na2vs0mg"},{"bike_id":"886c4777-c3a8-404d-8b7e-98f6e45dfc80","system_id":"levelo_inurba_marseille","lat":43.28936,"lon":5.36637,"is_reserved":false,"is_disabled":false,"rental_uris":{"android":"levelo://app?vid=886c4777-c3a8-404d-8b7e-98f6e45dfc80","ios":"levelo://app?vid=886c4777-c3a8-404d-8b7e-98f6e45dfc80"},"vehicle_type_id":"4","last_reported":1765939431,"current_range_meters":12000,"station_id":"ce4bhap2rcd13ifvqek0","pricing_plan_id":"cebpf4jnsgd1na2vs0mg"},{"bike_id":"da5ecca3-137f-4eaf-b8ce-bba5dec56f8c","system_id":"levelo_inurba_marseille","lat":43.29264,"lon":5.36851,"is_reserved":false,"is_disabled":false,"rental_uris":{"android":"levelo://app?vid=da5ecca3-137f-4eaf-b8ce-bba5dec56f8c","ios":"levelo://app?vid=da5ecca3-137f-4eaf-b8ce-bba5dec56f8c"},"vehicle_type_id":"4","last_reported":1765939431,"current_range_meters":12000,"station_id":"ce4bhbp2rcd13ifvqesg","pricing_plan_id":"cebpf4jnsgd1na2vs0mg"},{"bike_id":"6a26ef33-8204-4bf8-bbbb-122b1a4410f3","system_id":"levelo_inurba_marseille","lat":43.27283,"lon":5.41078,"is_reserved":false,"is_disabled":false,"rental_uris":{"android":"levelo://app?vid=6a26ef33-8204-4bf8-bbbb-122b1a4410f3","ios":"levelo://app?vid=6a26ef33-8204-4bf8-bbbb-122b1a4410f3"},"vehicle_type_id":"4","last_reported":1765939431,"current_range_meters":12000,"station_id":"","pricing_plan_id":"cebpf4jnsgd1na2vs0mg"},{"bike_id":"a0c07452-895c-44a7-9035-b105f565bcdf","system_id":"levelo_inurba_marseille","lat":43.3094,"lon":5.40144,"is_reserved":false,"is_disabled":false,"rental_uris":{"android":"levelo://app?vid=a0c07452-895c-44a7-9035-b105f565bcdf","ios":"levelo://app?vid=a0c07452-895c-44a7-9035-b105f565bcdf"},"vehicle_type_id":"4","last_reported":1765939431,"current_range_meters":12000,"station_id":"ce4bgvp2rcd13ifvqct0","pricing_plan_id":"cebpf4jnsgd1na2vs0mg"},{"bike_id":"2018262a-bf73-4762-85dc-5dc99811617e","system_id":"levelo_inurba_marseille","lat":43.23793,"lon":5.36615,"is_reserved":false,"is_disabled":false,"rental_uris":{"android":"levelo://app?vid=2018262a-bf73-4762-85dc-5dc99811617e","ios":"levelo://app?vid=2018262a-bf73-4762-85dc-5dc99811617e"},"vehicle_type_id":"4","last_reported":1765939431,"current_range_meters":12000,"station_id":"st_d3nk18o9ro0c73en2l3g","pricing_plan_id":"cebpf4jnsgd1na2vs0mg"},{"bike_id":"dec26d4f-bfcf-427f-a2a6-36d817b7e991","system_id":"levelo_inurba_marseille","lat":43.31082,"lon":5.4244,"is_reserved":false,"is_disabled":false,"rental_uris":{"android":"levelo://app?vid=dec26d4f-bfcf-427f-a2a6-36d817b7e991","ios":"levelo://app?vid=dec26d4f-bfcf-427f-a2a6-36d817b7e991"},"vehicle_type_id":"4","last_reported":1765939431,"current_range_meters":12000,"station_id":"ce4bhp92rcd13ifvqhag","pricing_plan_id":"cebpf4jnsgd1na2vs0mg"},{"bike_id":"83ae917c-7fe4-47bf-a2eb-2d59c3f51a7e","system_id":"levelo_inurba_marseille","lat":43.265576,"lon":5.372854,"is_reserved":false,"is_disabled":false,"rental_uris":{"android":"levelo://app?vid=83ae917c-7fe4-47bf-a2eb-2d59c3f51a7e","ios":"levelo://app?vid=83ae917c-7fe4-47bf-a2eb-2d59c3f51a7e"},"vehicle_type_id":"4","last_reported":1765939431,"current_range_meters":12400,"station_id":"ce4bhih2rcd13ifvqfr0","pricing_plan_id":"cebpf4jnsgd1na2vs0mg"},{"bike_id":"9b44a221-f6d7-4572-bedc-1c17e6b131d2","system_id":"levelo_inurba_marseille","lat":43.24652,"lon":5.38897,"is_reserved":false,"is_disabled":false,"rental_uris":{"android":"levelo://app?vid=9b44a221-f6d7-4572-bedc-1c17e6b131d2","ios":"levelo://app?vid=9b44a221-f6d7-4572-bedc-1c17e6b131d2"},"vehicle_type_id":"4","last_reported":1765939431,"current_range_meters":12400,"station_id":"ce4bhg12rcd13ifvqf60","pricing_plan_id":"cebpf4jnsgd1na2vs0mg"},{"bike_id":"a871de1e-c565-4e25-8616-7e2406059526","system_id":"levelo_inurba_marseille","lat":43.28707,"lon":5.37397,"is_reserved":false,"is_disabled":true,"rental_uris":{"android":"levelo://app?vid=a871de1e-c565-4e25-8616-7e2406059526","ios":"levelo://app?vid=a871de1e-c565-4e25-8616-7e2406059526"},"vehicle_type_id":"4","last_reported":1765939431,"current_range_meters":12400,"station_id":"ce4bh3p2rcd13ifvqdq0","pricing_plan_id":"cebpf4jnsgd1na2vs0mg"},{"bike_id":"5c770126-be0f-4320-9b77-8c906c744b81","system_id":"levelo_inurba_marseille","lat":43.26758,"lon":5.3934,"is_reserved":false,"is_disabled":false,"rental_uris":{"android":"levelo://app?vid=5c770126-be0f-4320-9b77-8c906c744b81","ios":"levelo://app?vid=5c770126-be0f-4320-9b77-8c906c744b81"},"vehicle_type_id":"4","last_reported":1765939431,"current_range_meters":12400,"station_id":"","pricing_plan_id":"cebpf4jnsgd1na2vs0mg"},{"bike_id":"aa67747d-a892-4b57-8bb2-85433ec255b9","system_id":"levelo_inurba_marseille","lat":43.31996,"lon":5.38143,"is_reserved":false,"is_disabled":false,"rental_uris":{"android":"levelo://app?vid=aa67747d-a892-4b57-8bb2-85433ec255b9","ios":"levelo://app?vid=aa67747d-a892-4b57-8bb2-85433ec255b9"},"vehicle_type_id":"4","last_reported":1765939431,"current_range_meters":12400,"station_id":"ce4bhr12rcd13ifvqhpg","pricing_plan_id":"cebpf4jnsgd1na2vs0mg"},{"bike_id":"bbf36351-d905-4bef-a4d9-fdb20bed767a","system_id":"levelo_inurba_marseille","lat":43.29268,"lon":5.40895,"is_reserved":false,"is_disabled":false,"rental_uris":{"android":"levelo://app?vid=bbf36351-d905-4bef-a4d9-fdb20bed767a","ios":"levelo://app?vid=bbf36351-d905-4bef-a4d9-fdb20bed767a"},"vehicle_type_id":"4","last_reported":1765939431,"current_range_meters":12400,"station_id":"ce4bh192rcd13ifvqdc0","pricing_plan_id":"cebpf4jnsgd1na2vs0mg"},{"bike_id":"a6a2b2eb-9fac-4a15-8bbe-853cd503e49d","system_id":"levelo_inurba_marseille","lat":43.31709,"lon":5.43708,"is_reserved":false,"is_disabled":false,"rental_uris":{"android":"levelo://app?vid=a6a2b2eb-9fac-4a15-8bbe-853cd503e49d","ios":"levelo://app?vid=a6a2b2eb-9fac-4a15-8bbe-853cd503e49d"},"vehicle_type_id":"4","last_reported":1765939431,"current_range_meters":12400,"station_id":"ce4bhp92rcd13ifvqhcg","pricing_plan_id":"cebpf4jnsgd1na2vs0mg"},{"bike_id":"fcddb508-236d-428b-9038-c3ba4ac2e194","system_id":"levelo_inurba_marseille","lat":43.3174,"lon":5.37658,"is_reserved":false,"is_disabled":false,"rental_uris":{"android":"levelo://app?vid=fcddb508-236d-428b-9038-c3ba4ac2e194","ios":"levelo://app?vid=fcddb508-236d-428b-9038-c3ba4ac2e194"},"vehicle_type_id":"4","last_reported":1765939431,"current_range_meters":12800,"station_id":"","pricing_plan_id":"cebpf4jnsgd1na2vs0mg"},{"bike_id":"931cc2e4-ca00-4490-bf81-25a667f33330","system_id":"levelo_inurba_marseille","lat":43.28208,"lon":5.39048,"is_reserved":false,"is_disabled":false,"rental_uris":{"android":"levelo://app?vid=931cc2e4-ca00-4490-bf81-25a667f33330","ios":"levelo://app?vid=931cc2e4-ca00-4490-bf81-25a667f33330"},"vehicle_type_id":"4","last_reported":1765939431,"current_range_meters":12800,"station_id":"ce4bhn92rcd13ifvqgsg","pricing_plan_id":"cebpf4jnsgd1na2vs0mg"},{"bike_id":"56facf01-d81d-4d46-b8fb-1576e9c818c0","system_id":"levelo_inurba_marseille","lat":43.25699,"lon":5.41085,"is_reserved":false,"is_disabled":false,"rental_uris":{"android":"levelo://app?vid=56facf01-d81d-4d46-b8fb-1576e9c818c0","ios":"levelo://app?vid=56facf01-d81d-4d46-b8fb-1576e9c818c0"},"vehicle_type_id":"4","last_reported":1765939431,"current_range_meters":12800,"station_id":"ce4bhkp2rcd13ifvqgd0","pricing_plan_id":"cebpf4jnsgd1na2vs0mg"},{"bike_id":"8dc0f41d-9492-4bf7-82ec-ac2860636811","system_id":"levelo_inurba_marseille","lat":43.24172,"lon":5.36398,"is_reserved":false,"is_disabled":false,"rental_uris":{"android":"levelo://app?vid=8dc0f41d-9492-4bf7-82ec-ac2860636811","ios":"levelo://app?vid=8dc0f41d-9492-4bf7-82ec-ac2860636811"},"vehicle_type_id":"4","last_reported":1765939431,"current_range_meters":12800,"station_id":"cpo36qri1sfpv3e86is0","pricing_plan_id":"cebpf4jnsgd1na2vs0mg"},{"bike_id":"3fa871eb-e575-49a9-87e8-f6675d7a9e8f","system_id":"levelo_inurba_marseille","lat":43.29797,"lon":5.39333,"is_reserved":false,"is_disabled":false,"rental_uris":{"android":"levelo://app?vid=3fa871eb-e575-49a9-87e8-f6675d7a9e8f","ios":"levelo://app?vid=3fa871eb-e575-49a9-87e8-f6675d7a9e8f"},"vehicle_type_id":"4","last_reported":1765939431,"current_range_meters":12800,"station_id":"chh1huq6cuj3fo74tm60","pricing_plan_id":"cebpf4jnsgd1na2vs0mg"},{"bike_id":"2767f57f-39fa-4688-8cd5-1803c9b01059","system_id":"levelo_inurba_marseille","lat":43.28148,"lon":5.42634,"is_reserved":false,"is_disabled":false,"rental_uris":{"android":"levelo://app?vid=2767f57f-39fa-4688-8cd5-1803c9b01059","ios":"levelo://app?vid=2767f57f-39fa-4688-8cd5-1803c9b01059"},"vehicle_type_id":"4","last_reported":1765939431,"current_range_meters":12800,"station_id":"ce4bhnh2rcd13ifvqgug","pricing_plan_id":"cebpf4jnsgd1na2vs0mg"},{"bike_id":"ff1c5ec2-a170-42b1-a402-e63d4cd7ccc1","system_id":"levelo_inurba_marseille","lat":43.28459,"lon":5.35901,"is_reserved":false,"is_disabled":false,"rental_uris":{"android":"levelo://app?vid=ff1c5ec2-a170-42b1-a402-e63d4cd7ccc1","ios":"levelo://app?vid=ff1c5ec2-a170-42b1-a402-e63d4cd7ccc1"},"vehicle_type_id":"4","last_reported":1765939431,"current_range_meters":12800,"station_id":"ce4bhah2rcd13ifvqei0","pricing_plan_id":"cebpf4jnsgd1na2vs0mg"},{"bike_id":"819f1872-dcdb-49ac-a725-54d9a30d1d50","system_id":"levelo_inurba_marseille","lat":43.29849,"lon":5.36286,"is_reserved":false,"is_disabled":false,"rental_uris":{"android":"levelo://app?vid=819f1872-dcdb-49ac-a725-54d9a30d1d50","ios":"levelo://app?vid=819f1872-dcdb-49ac-a725-54d9a30d1d50"},"vehicle_type_id":"4","last_reported":1765939431,"current_range_meters":12800,"station_id":"ce4bgpp2rcd13ifvqc3g","pricing_plan_id":"cebpf4jnsgd1na2vs0mg"},{"bike_id":"ef1b7ebd-307f-4305-88c9-4f48fc52bf62","system_id":"levelo_inurba_marseille","lat":43.27949,"lon":5.41041,"is_reserved":false,"is_disabled":false,"rental_uris":{"android":"levelo://app?vid=ef1b7ebd-307f-4305-88c9-4f48fc52bf62","ios":"levelo://app?vid=ef1b7ebd-307f-4305-88c9-4f48fc52bf62"},"vehicle_type_id":"4","last_reported":1765939431,"current_range_meters":12800,"station_id":"ce4bhnp2rcd13ifvqh0g","pricing_plan_id":"cebpf4jnsgd1na2vs0mg"},{"bike_id":"68c51e41-6d63-4b6c-b5cf-e82e4217dc4a","system_id":"levelo_inurba_marseille","lat":43.31327,"lon":5.39693,"is_reserved":false,"is_disabled":false,"rental_uris":{"android":"levelo://app?vid=68c51e41-6d63-4b6c-b5cf-e82e4217dc4a","ios":"levelo://app?vid=68c51e41-6d63-4b6c-b5cf-e82e4217dc4a"},"vehicle_type_id":"4","last_reported":1765939431,"current_range_meters":12800,"station_id":"ce4bgvp2rcd13ifvqcu0","pricing_plan_id":"cebpf4jnsgd1na2vs0mg"},{"bike_id":"eb1378a4-982a-4479-9b24-044fa8304a65","system_id":"levelo_inurba_marseille","lat":43.27819,"lon":5.40677,"is_reserved":false,"is_disabled":false,"rental_uris":{"android":"levelo://app?vid=eb1378a4-982a-4479-9b24-044fa8304a65","ios":"levelo://app?vid=eb1378a4-982a-4479-9b24-044fa8304a65"},"vehicle_type_id":"4","last_reported":1765939431,"current_range_meters":12800,"station_id":"ce4bhnh2rcd13ifvqgtg","pricing_plan_id":"cebpf4jnsgd1na2vs0mg"},{"bike_id":"dee35a69-2311-47c5-b736-05bf840d3a8b","system_id":"levelo_inurba_marseille","lat":43.28616,"lon":5.39854,"is_reserved":false,"is_disabled":false,"rental_uris":{"android":"levelo://app?vid=dee35a69-2311-47c5-b736-05bf840d3a8b","ios":"levelo://app?vid=dee35a69-2311-47c5-b736-05bf840d3a8b"},"vehicle_type_id":"4","last_reported":1765939431,"current_range_meters":13600,"station_id":"st_d4a7ka997mjs738ck50g","pricing_plan_id":"cebpf4jnsgd1na2vs0mg"},{"bike_id":"4dd7d3ca-649b-40b1-930b-8984a0cb2b2c","system_id":"levelo_inurba_marseille","lat":43.29179,"lon":5.39313,"is_reserved":false,"is_disabled":false,"rental_uris":{"android":"levelo://app?vid=4dd7d3ca-649b-40b1-930b-8984a0cb2b2c","ios":"levelo://app?vid=4dd7d3ca-649b-40b1-930b-8984a0cb2b2c"},"vehicle_type_id":"4","last_reported":1765939431,"current_range_meters":13600,"station_id":"ce4bh192rcd13ifvqdd0","pricing_plan_id":"cebpf4jnsgd1na2vs0mg"},{"bike_id":"b01c284a-db3b-463c-a1b1-f9e6266250c0","system_id":"levelo_inurba_marseille","lat":43.301326,"lon":5.39876,"is_reserved":false,"is_disabled":false,"rental_uris":{"android":"levelo://app?vid=b01c284a-db3b-463c-a1b1-f9e6266250c0","ios":"levelo://app?vid=b01c284a-db3b-463c-a1b1-f9e6266250c0"},"vehicle_type_id":"4","last_reported":1765939431,"current_range_meters":13600,"station_id":"ce4bh0h2rcd13ifvqd40","pricing_plan_id":"cebpf4jnsgd1na2vs0mg"},{"bike_id":"a7fb6309-2b67-48fd-a604-7555499decdb","system_id":"levelo_inurba_marseille","lat":43.24148,"lon":5.36394,"is_reserved":false,"is_disabled":false,"rental_uris":{"android":"levelo://app?vid=a7fb6309-2b67-48fd-a604-7555499decdb","ios":"levelo://app?vid=a7fb6309-2b67-48fd-a604-7555499decdb"},"vehicle_type_id":"4","last_reported":1765939431,"current_range_meters":13600,"station_id":"cpo36qri1sfpv3e86is0","pricing_plan_id":"cebpf4jnsgd1na2vs0mg"},{"bike_id":"0a2d81af-c789-4426-af29-b843e405024e","system_id":"levelo_inurba_marseille","lat":43.26953,"lon":5.38647,"is_reserved":false,"is_disabled":false,"rental_uris":{"android":"levelo://app?vid=0a2d81af-c789-4426-af29-b843e405024e","ios":"levelo://app?vid=0a2d81af-c789-4426-af29-b843e405024e"},"vehicle_type_id":"4","last_reported":1765939431,"current_range_meters":13600,"station_id":"ce4bhh92rcd13ifvqfh0","pricing_plan_id":"cebpf4jnsgd1na2vs0mg"},{"bike_id":"0f28b80e-ee7f-47f3-9eea-fe09714ef2c4","system_id":"levelo_inurba_marseille","lat":43.337634,"lon":5.37441,"is_reserved":false,"is_disabled":false,"rental_uris":{"android":"levelo://app?vid=0f28b80e-ee7f-47f3-9eea-fe09714ef2c4","ios":"levelo://app?vid=0f28b80e-ee7f-47f3-9eea-fe09714ef2c4"},"vehicle_type_id":"4","last_reported":1765939431,"current_range_meters":13600,"station_id":"","pricing_plan_id":"cebpf4jnsgd1na2vs0mg"},{"bike_id":"5ff1e29e-5387-4cb5-8ebf-7398557427ce","system_id":"levelo_inurba_marseille","lat":43.31189,"lon":5.38718,"is_reserved":false,"is_disabled":false,"rental_uris":{"android":"levelo://app?vid=5ff1e29e-5387-4cb5-8ebf-7398557427ce","ios":"levelo://app?vid=5ff1e29e-5387-4cb5-8ebf-7398557427ce"},"vehicle_type_id":"4","last_reported":1765939431,"current_range_meters":13600,"station_id":"ce4bgv12rcd13ifvqcp0","pricing_plan_id":"cebpf4jnsgd1na2vs0mg"},{"bike_id":"2588927c-dac4-4c91-a8da-29ee82b5fccf","system_id":"levelo_inurba_marseille","lat":43.31204,"lon":5.38768,"is_reserved":false,"is_disabled":false,"rental_uris":{"android":"levelo://app?vid=2588927c-dac4-4c91-a8da-29ee82b5fccf","ios":"levelo://app?vid=2588927c-dac4-4c91-a8da-29ee82b5fccf"},"vehicle_type_id":"4","last_reported":1765939431,"current_range_meters":13600,"station_id":"ce4bgv12rcd13ifvqcp0","pricing_plan_id":"cebpf4jnsgd1na2vs0mg"},{"bike_id":"ea92ee08-4c09-4185-8b04-f598b482cc4e","system_id":"levelo_inurba_marseille","lat":43.28937,"lon":5.36636,"is_reserved":false,"is_disabled":true,"rental_uris":{"android":"levelo://app?vid=ea92ee08-4c09-4185-8b04-f598b482cc4e","ios":"levelo://app?vid=ea92ee08-4c09-4185-8b04-f598b482cc4e"},"vehicle_type_id":"4","last_reported":1765939431,"current_range_meters":13600,"station_id":"ce4bhap2rcd13ifvqek0","pricing_plan_id":"cebpf4jnsgd1na2vs0mg"},{"bike_id":"2109bc99-0dc2-4de5-9b99-a253a23f65c4","system_id":"levelo_inurba_marseille","lat":43.31065,"lon":5.38335,"is_reserved":false,"is_disabled":false,"rental_uris":{"android":"levelo://app?vid=2109bc99-0dc2-4de5-9b99-a253a23f65c4","ios":"levelo://app?vid=2109bc99-0dc2-4de5-9b99-a253a23f65c4"},"vehicle_type_id":"4","last_reported":1765939431,"current_range_meters":13600,"station_id":"ce4bgv92rcd13ifvqcr0","pricing_plan_id":"cebpf4jnsgd1na2vs0mg"},{"bike_id":"1f825f20-8f06-4ed8-8eb4-0e4a8ab8b02f","system_id":"levelo_inurba_marseille","lat":43.30516,"lon":5.38441,"is_reserved":false,"is_disabled":true,"rental_uris":{"android":"levelo://app?vid=1f825f20-8f06-4ed8-8eb4-0e4a8ab8b02f","ios":"levelo://app?vid=1f825f20-8f06-4ed8-8eb4-0e4a8ab8b02f"},"vehicle_type_id":"4","last_reported":1765939431,"current_range_meters":13600,"station_id":"ce4bgg92rcd13ifvqb30","pricing_plan_id":"cebpf4jnsgd1na2vs0mg"},{"bike_id":"250d1271-bb32-40ce-b6c2-79df1b5125b1","system_id":"levelo_inurba_marseille","lat":43.317596,"lon":5.390175,"is_reserved":false,"is_disabled":false,"rental_uris":{"android":"levelo://app?vid=250d1271-bb32-40ce-b6c2-79df1b5125b1","ios":"levelo://app?vid=250d1271-bb32-40ce-b6c2-79df1b5125b1"},"vehicle_type_id":"4","last_reported":1765939431,"current_range_meters":13600,"station_id":"ce4bhqp2rcd13ifvqhng","pricing_plan_id":"cebpf4jnsgd1na2vs0mg"},{"bike_id":"f4a99808-7103-4483-9275-15fdac2819ac","system_id":"levelo_inurba_marseille","lat":43.28572,"lon":5.38493,"is_reserved":false,"is_disabled":false,"rental_uris":{"android":"levelo://app?vid=f4a99808-7103-4483-9275-15fdac2819ac","ios":"levelo://app?vid=f4a99808-7103-4483-9275-15fdac2819ac"},"vehicle_type_id":"4","last_reported":1765939431,"current_range_meters":14000,"station_id":"","pricing_plan_id":"cebpf4jnsgd1na2vs0mg"},{"bike_id":"eed18767-05c9-4c1e-a884-f815f273a381","system_id":"levelo_inurba_marseille","lat":43.29251,"lon":5.39338,"is_reserved":false,"is_disabled":true,"rental_uris":{"android":"levelo://app?vid=eed18767-05c9-4c1e-a884-f815f273a381","ios":"levelo://app?vid=eed18767-05c9-4c1e-a884-f815f273a381"},"vehicle_type_id":"4","last_reported":1765939431,"current_range_meters":14000,"station_id":"ce4bh192rcd13ifvqdd0","pricing_plan_id":"cebpf4jnsgd1na2vs0mg"},{"bike_id":"d410f1f1-41e1-4b22-890b-a504c7feb153","system_id":"levelo_inurba_marseille","lat":43.27836,"lon":5.40688,"is_reserved":false,"is_disabled":false,"rental_uris":{"android":"levelo://app?vid=d410f1f1-41e1-4b22-890b-a504c7feb153","ios":"levelo://app?vid=d410f1f1-41e1-4b22-890b-a504c7feb153"},"vehicle_type_id":"4","last_reported":1765939431,"current_range_meters":14000,"station_id":"ce4bhnh2rcd13ifvqgtg","pricing_plan_id":"cebpf4jnsgd1na2vs0mg"},{"bike_id":"a728f578-9ffd-4933-abb7-901f57ead409","system_id":"levelo_inurba_marseille","lat":43.28933,"lon":5.36626,"is_reserved":false,"is_disabled":false,"rental_uris":{"android":"levelo://app?vid=a728f578-9ffd-4933-abb7-901f57ead409","ios":"levelo://app?vid=a728f578-9ffd-4933-abb7-901f57ead409"},"vehicle_type_id":"4","last_reported":1765939431,"current_range_meters":14000,"station_id":"ce4bhap2rcd13ifvqek0","pricing_plan_id":"cebpf4jnsgd1na2vs0mg"},{"bike_id":"901b3a8b-f4b8-43e9-b2c3-ef7ef69f1ad6","system_id":"levelo_inurba_marseille","lat":43.2419,"lon":5.39741,"is_reserved":false,"is_disabled":false,"rental_uris":{"android":"levelo://app?vid=901b3a8b-f4b8-43e9-b2c3-ef7ef69f1ad6","ios":"levelo://app?vid=901b3a8b-f4b8-43e9-b2c3-ef7ef69f1ad6"},"vehicle_type_id":"4","last_reported":1765939431,"current_range_meters":14400,"station_id":"ce4bhn12rcd13ifvqgpg","pricing_plan_id":"cebpf4jnsgd1na2vs0mg"},{"bike_id":"ac4aa1be-0e24-4512-948c-492a003128ca","system_id":"levelo_inurba_marseille","lat":43.24385,"lon":5.37047,"is_reserved":false,"is_disabled":false,"rental_uris":{"android":"levelo://app?vid=ac4aa1be-0e24-4512-948c-492a003128ca","ios":"levelo://app?vid=ac4aa1be-0e24-4512-948c-492a003128ca"},"vehicle_type_id":"4","last_reported":1765939431,"current_range_meters":14400,"station_id":"ce4bhhh2rcd13ifvqfk0","pricing_plan_id":"cebpf4jnsgd1na2vs0mg"},{"bike_id":"7470f7ec-7c1d-489b-a8f1-7507a064b9c8","system_id":"levelo_inurba_marseille","lat":43.28491,"lon":5.48389,"is_reserved":false,"is_disabled":false,"rental_uris":{"android":"levelo://app?vid=7470f7ec-7c1d-489b-a8f1-7507a064b9c8","ios":"levelo://app?vid=7470f7ec-7c1d-489b-a8f1-7507a064b9c8"},"vehicle_type_id":"4","last_reported":1765939431,"current_range_meters":14400,"station_id":"st_d3svhcjqgbts73a3dn0g","pricing_plan_id":"cebpf4jnsgd1na2vs0mg"},{"bike_id":"ae152a74-982f-4cb8-927e-b912525232e4","system_id":"levelo_inurba_marseille","lat":43.30884,"lon":5.36867,"is_reserved":false,"is_disabled":false,"rental_uris":{"android":"levelo://app?vid=ae152a74-982f-4cb8-927e-b912525232e4","ios":"levelo://app?vid=ae152a74-982f-4cb8-927e-b912525232e4"},"vehicle_type_id":"4","last_reported":1765939431,"current_range_meters":14400,"station_id":"ce4bgn92rcd13ifvqbvg","pricing_plan_id":"cebpf4jnsgd1na2vs0mg"},{"bike_id":"28a744b6-aad9-460a-8ba2-62947d4f3255","system_id":"levelo_inurba_marseille","lat":43.30313,"lon":5.4043,"is_reserved":false,"is_disabled":false,"rental_uris":{"android":"levelo://app?vid=28a744b6-aad9-460a-8ba2-62947d4f3255","ios":"levelo://app?vid=28a744b6-aad9-460a-8ba2-62947d4f3255"},"vehicle_type_id":"4","last_reported":1765939431,"current_range_meters":14400,"station_id":"ce4bh012rcd13ifvqd10","pricing_plan_id":"cebpf4jnsgd1na2vs0mg"},{"bike_id":"3f1ed9ab-bfd0-4809-9993-c87762b4c952","system_id":"levelo_inurba_marseille","lat":43.28404,"lon":5.37518,"is_reserved":false,"is_disabled":false,"rental_uris":{"android":"levelo://app?vid=3f1ed9ab-bfd0-4809-9993-c87762b4c952","ios":"levelo://app?vid=3f1ed9ab-bfd0-4809-9993-c87762b4c952"},"vehicle_type_id":"4","last_reported":1765939431,"current_range_meters":14400,"station_id":"ce4bh412rcd13ifvqds0","pricing_plan_id":"cebpf4jnsgd1na2vs0mg"},{"bike_id":"e52f4ad0-f100-40eb-810c-c2bfb55704c4","system_id":"levelo_inurba_marseille","lat":43.32098,"lon":5.36753,"is_reserved":false,"is_disabled":false,"rental_uris":{"android":"levelo://app?vid=e52f4ad0-f100-40eb-810c-c2bfb55704c4","ios":"levelo://app?vid=e52f4ad0-f100-40eb-810c-c2bfb55704c4"},"vehicle_type_id":"4","last_reported":1765939431,"current_range_meters":14400,"station_id":"ce4bhrh2rcd13ifvqhug","pricing_plan_id":"cebpf4jnsgd1na2vs0mg"},{"bike_id":"9f2f990e-a17c-4f6c-a4a5-29e0700c6330","system_id":"levelo_inurba_marseille","lat":43.30514,"lon":5.36714,"is_reserved":false,"is_disabled":false,"rental_uris":{"android":"levelo://app?vid=9f2f990e-a17c-4f6c-a4a5-29e0700c6330","ios":"levelo://app?vid=9f2f990e-a17c-4f6c-a4a5-29e0700c6330"},"vehicle_type_id":"4","last_reported":1765939431,"current_range_meters":14400,"station_id":"ce4bgrp2rcd13ifvqc9g","pricing_plan_id":"cebpf4jnsgd1na2vs0mg"},{"bike_id":"d0238009-b059-4b6c-9bd4-cfe9c93af6f9","system_id":"levelo_inurba_marseille","lat":43.33169,"lon":5.37666,"is_reserved":false,"is_disabled":false,"rental_uris":{"android":"levelo://app?vid=d0238009-b059-4b6c-9bd4-cfe9c93af6f9","ios":"levelo://app?vid=d0238009-b059-4b6c-9bd4-cfe9c93af6f9"},"vehicle_type_id":"4","last_reported":1765939431,"current_range_meters":14400,"station_id":"st_d46cu089ee8s73dldbu0","pricing_plan_id":"cebpf4jnsgd1na2vs0mg"},{"bike_id":"51759637-04a0-4e9c-8605-61c54388f10f","system_id":"levelo_inurba_marseille","lat":43.3032,"lon":5.40439,"is_reserved":false,"is_disabled":false,"rental_uris":{"android":"levelo://app?vid=51759637-04a0-4e9c-8605-61c54388f10f","ios":"levelo://app?vid=51759637-04a0-4e9c-8605-61c54388f10f"},"vehicle_type_id":"4","last_reported":1765939431,"current_range_meters":14400,"station_id":"ce4bh012rcd13ifvqd10","pricing_plan_id":"cebpf4jnsgd1na2vs0mg"},{"bike_id":"0ee816cc-5a63-4743-a2f1-e1fc0e05e1f0","system_id":"levelo_inurba_marseille","lat":43.24805,"lon":5.37456,"is_reserved":false,"is_disabled":false,"rental_uris":{"android":"levelo://app?vid=0ee816cc-5a63-4743-a2f1-e1fc0e05e1f0","ios":"levelo://app?vid=0ee816cc-5a63-4743-a2f1-e1fc0e05e1f0"},"vehicle_type_id":"4","last_reported":1765939431,"current_range_meters":14400,"station_id":"ce4bhgh2rcd13ifvqfb0","pricing_plan_id":"cebpf4jnsgd1na2vs0mg"},{"bike_id":"4cb832b3-c7d7-4149-8ead-f376e30b04e2","system_id":"levelo_inurba_marseille","lat":43.272,"lon":5.40976,"is_reserved":false,"is_disabled":false,"rental_uris":{"android":"levelo://app?vid=4cb832b3-c7d7-4149-8ead-f376e30b04e2","ios":"levelo://app?vid=4cb832b3-c7d7-4149-8ead-f376e30b04e2"},"vehicle_type_id":"4","last_reported":1765939431,"current_range_meters":14800,"station_id":"ce4bhl12rcd13ifvqgf0","pricing_plan_id":"cebpf4jnsgd1na2vs0mg"},{"bike_id":"7eb562a5-23c0-4113-83ac-de171b9648d5","system_id":"levelo_inurba_marseille","lat":43.25123,"lon":5.40349,"is_reserved":false,"is_disabled":false,"rental_uris":{"android":"levelo://app?vid=7eb562a5-23c0-4113-83ac-de171b9648d5","ios":"levelo://app?vid=7eb562a5-23c0-4113-83ac-de171b9648d5"},"vehicle_type_id":"4","last_reported":1765939431,"current_range_meters":14800,"station_id":"ce4bhlh2rcd13ifvqgig","pricing_plan_id":"cebpf4jnsgd1na2vs0mg"},{"bike_id":"6e071e61-9d6e-4a02-8914-eba8c7f9027d","system_id":"levelo_inurba_marseille","lat":43.28464,"lon":5.3843,"is_reserved":false,"is_disabled":false,"rental_uris":{"android":"levelo://app?vid=6e071e61-9d6e-4a02-8914-eba8c7f9027d","ios":"levelo://app?vid=6e071e61-9d6e-4a02-8914-eba8c7f9027d"},"vehicle_type_id":"4","last_reported":1765939431,"current_range_meters":14800,"station_id":"ce4bh512rcd13ifvqe3g","pricing_plan_id":"cebpf4jnsgd1na2vs0mg"},{"bike_id":"6eaf6cc4-b10f-435b-a4c3-93e897f6c344","system_id":"levelo_inurba_marseille","lat":43.29804,"lon":5.44054,"is_reserved":false,"is_disabled":false,"rental_uris":{"android":"levelo://app?vid=6eaf6cc4-b10f-435b-a4c3-93e897f6c344","ios":"levelo://app?vid=6eaf6cc4-b10f-435b-a4c3-93e897f6c344"},"vehicle_type_id":"4","last_reported":1765939431,"current_range_meters":15200,"station_id":"st_d3jp68qikq2c7381ktn0","pricing_plan_id":"cebpf4jnsgd1na2vs0mg"},{"bike_id":"f0fe58b6-1d4c-401c-88da-af8b6855578c","system_id":"levelo_inurba_marseille","lat":43.28195,"lon":5.39055,"is_reserved":false,"is_disabled":false,"rental_uris":{"android":"levelo://app?vid=f0fe58b6-1d4c-401c-88da-af8b6855578c","ios":"levelo://app?vid=f0fe58b6-1d4c-401c-88da-af8b6855578c"},"vehicle_type_id":"4","last_reported":1765939431,"current_range_meters":15200,"station_id":"ce4bhn92rcd13ifvqgsg","pricing_plan_id":"cebpf4jnsgd1na2vs0mg"},{"bike_id":"c231ccf5-90a5-45bc-8611-cc46d56156ae","system_id":"levelo_inurba_marseille","lat":43.31281,"lon":5.40162,"is_reserved":false,"is_disabled":false,"rental_uris":{"android":"levelo://app?vid=c231ccf5-90a5-45bc-8611-cc46d56156ae","ios":"levelo://app?vid=c231ccf5-90a5-45bc-8611-cc46d56156ae"},"vehicle_type_id":"4","last_reported":1765939431,"current_range_meters":15200,"station_id":"ce4bh092rcd13ifvqd30","pricing_plan_id":"cebpf4jnsgd1na2vs0mg"},{"bike_id":"540065f4-b9cc-492a-8ee2-e6cfe606f95e","system_id":"levelo_inurba_marseille","lat":43.33723,"lon":5.3748,"is_reserved":false,"is_disabled":false,"rental_uris":{"android":"levelo://app?vid=540065f4-b9cc-492a-8ee2-e6cfe606f95e","ios":"levelo://app?vid=540065f4-b9cc-492a-8ee2-e6cfe606f95e"},"vehicle_type_id":"4","last_reported":1765939431,"current_range_meters":15200,"station_id":"","pricing_plan_id":"cebpf4jnsgd1na2vs0mg"},{"bike_id":"6f6e6cf0-405c-4777-8bd9-18e4bff88cfa","system_id":"levelo_inurba_marseille","lat":43.24388,"lon":5.37047,"is_reserved":false,"is_disabled":false,"rental_uris":{"android":"levelo://app?vid=6f6e6cf0-405c-4777-8bd9-18e4bff88cfa","ios":"levelo://app?vid=6f6e6cf0-405c-4777-8bd9-18e4bff88cfa"},"vehicle_type_id":"4","last_reported":1765939431,"current_range_meters":15200,"station_id":"ce4bhhh2rcd13ifvqfk0","pricing_plan_id":"cebpf4jnsgd1na2vs0mg"},{"bike_id":"e67d079c-9430-453f-9045-27ab2ac41c6a","system_id":"levelo_inurba_marseille","lat":43.24076,"lon":5.37759,"is_reserved":false,"is_disabled":false,"rental_uris":{"android":"levelo://app?vid=e67d079c-9430-453f-9045-27ab2ac41c6a","ios":"levelo://app?vid=e67d079c-9430-453f-9045-27ab2ac41c6a"},"vehicle_type_id":"4","last_reported":1765939431,"current_range_meters":15200,"station_id":"ce4bhnp2rcd13ifvqgvg","pricing_plan_id":"cebpf4jnsgd1na2vs0mg"},{"bike_id":"2432f99d-27f2-42ef-b3e6-f7e71f39a4f6","system_id":"levelo_inurba_marseille","lat":43.30114,"lon":5.36841,"is_reserved":false,"is_disabled":false,"rental_uris":{"android":"levelo://app?vid=2432f99d-27f2-42ef-b3e6-f7e71f39a4f6","ios":"levelo://app?vid=2432f99d-27f2-42ef-b3e6-f7e71f39a4f6"},"vehicle_type_id":"4","last_reported":1765939431,"current_range_meters":15200,"station_id":"","pricing_plan_id":"cebpf4jnsgd1na2vs0mg"},{"bike_id":"5d2db87a-8397-4186-b1d7-2a1024fc09e5","system_id":"levelo_inurba_marseille","lat":43.29915,"lon":5.37451,"is_reserved":false,"is_disabled":false,"rental_uris":{"android":"levelo://app?vid=5d2db87a-8397-4186-b1d7-2a1024fc09e5","ios":"levelo://app?vid=5d2db87a-8397-4186-b1d7-2a1024fc09e5"},"vehicle_type_id":"4","last_reported":1765939431,"current_range_meters":16000,"station_id":"ce4bgjh2rcd13ifvqbg0","pricing_plan_id":"cebpf4jnsgd1na2vs0mg"},{"bike_id":"735a99a6-a93a-483e-b519-edcc002b5b3e","system_id":"levelo_inurba_marseille","lat":43.26556,"lon":5.37286,"is_reserved":false,"is_disabled":false,"rental_uris":{"android":"levelo://app?vid=735a99a6-a93a-483e-b519-edcc002b5b3e","ios":"levelo://app?vid=735a99a6-a93a-483e-b519-edcc002b5b3e"},"vehicle_type_id":"4","last_reported":1765939431,"current_range_meters":16000,"station_id":"ce4bhg12rcd13ifvqf70","pricing_plan_id":"cebpf4jnsgd1na2vs0mg"},{"bike_id":"cae1478d-1268-4134-aa1e-c58d3eaf9d38","system_id":"levelo_inurba_marseille","lat":43.3193,"lon":5.40082,"is_reserved":false,"is_disabled":false,"rental_uris":{"android":"levelo://app?vid=cae1478d-1268-4134-aa1e-c58d3eaf9d38","ios":"levelo://app?vid=cae1478d-1268-4134-aa1e-c58d3eaf9d38"},"vehicle_type_id":"4","last_reported":1765939431,"current_range_meters":16000,"station_id":"","pricing_plan_id":"cebpf4jnsgd1na2vs0mg"},{"bike_id":"abf2b9ef-0457-4725-9c65-8a073f7d7fab","system_id":"levelo_inurba_marseille","lat":43.30436,"lon":5.41547,"is_reserved":false,"is_disabled":false,"rental_uris":{"android":"levelo://app?vid=abf2b9ef-0457-4725-9c65-8a073f7d7fab","ios":"levelo://app?vid=abf2b9ef-0457-4725-9c65-8a073f7d7fab"},"vehicle_type_id":"4","last_reported":1765939431,"current_range_meters":16000,"station_id":"","pricing_plan_id":"cebpf4jnsgd1na2vs0mg"},{"bike_id":"82903da7-2cad-4a09-9e3b-db80a73433e1","system_id":"levelo_inurba_marseille","lat":43.28458,"lon":5.35908,"is_reserved":false,"is_disabled":true,"rental_uris":{"android":"levelo://app?vid=82903da7-2cad-4a09-9e3b-db80a73433e1","ios":"levelo://app?vid=82903da7-2cad-4a09-9e3b-db80a73433e1"},"vehicle_type_id":"4","last_reported":1765939431,"current_range_meters":16000,"station_id":"ce4bhah2rcd13ifvqei0","pricing_plan_id":"cebpf4jnsgd1na2vs0mg"},{"bike_id":"72393a95-42a5-49b8-b7d7-bab87b9932e6","system_id":"levelo_inurba_marseille","lat":43.31443,"lon":5.45376,"is_reserved":false,"is_disabled":false,"rental_uris":{"android":"levelo://app?vid=72393a95-42a5-49b8-b7d7-bab87b9932e6","ios":"levelo://app?vid=72393a95-42a5-49b8-b7d7-bab87b9932e6"},"vehicle_type_id":"4","last_reported":1765939431,"current_range_meters":16000,"station_id":"","pricing_plan_id":"cebpf4jnsgd1na2vs0mg"},{"bike_id":"445bb042-7da3-41d9-a1a1-1f41857dd194","system_id":"levelo_inurba_marseille","lat":43.31187,"lon":5.38696,"is_reserved":false,"is_disabled":false,"rental_uris":{"android":"levelo://app?vid=445bb042-7da3-41d9-a1a1-1f41857dd194","ios":"levelo://app?vid=445bb042-7da3-41d9-a1a1-1f41857dd194"},"vehicle_type_id":"4","last_reported":1765939431,"current_range_meters":16400,"station_id":"ce4bgv12rcd13ifvqcp0","pricing_plan_id":"cebpf4jnsgd1na2vs0mg"},{"bike_id":"ce5d141b-e27c-42be-aa2f-923882d363a8","system_id":"levelo_inurba_marseille","lat":43.28105,"lon":5.37843,"is_reserved":false,"is_disabled":false,"rental_uris":{"android":"levelo://app?vid=ce5d141b-e27c-42be-aa2f-923882d363a8","ios":"levelo://app?vid=ce5d141b-e27c-42be-aa2f-923882d363a8"},"vehicle_type_id":"4","last_reported":1765939431,"current_range_meters":16400,"station_id":"ce4bha12rcd13ifvqee0","pricing_plan_id":"cebpf4jnsgd1na2vs0mg"},{"bike_id":"ba57a2b6-c4c9-45f9-8cbe-56026c6e8a49","system_id":"levelo_inurba_marseille","lat":43.29052,"lon":5.37955,"is_reserved":false,"is_disabled":false,"rental_uris":{"android":"levelo://app?vid=ba57a2b6-c4c9-45f9-8cbe-56026c6e8a49","ios":"levelo://app?vid=ba57a2b6-c4c9-45f9-8cbe-56026c6e8a49"},"vehicle_type_id":"4","last_reported":1765939431,"current_range_meters":16400,"station_id":"","pricing_plan_id":"cebpf4jnsgd1na2vs0mg"},{"bike_id":"c502cf50-8d9e-41ab-80d9-f09f0b489eb1","system_id":"levelo_inurba_marseille","lat":43.262082,"lon":5.374402,"is_reserved":false,"is_disabled":false,"rental_uris":{"android":"levelo://app?vid=c502cf50-8d9e-41ab-80d9-f09f0b489eb1","ios":"levelo://app?vid=c502cf50-8d9e-41ab-80d9-f09f0b489eb1"},"vehicle_type_id":"4","last_reported":1765939431,"current_range_meters":16400,"station_id":"","pricing_plan_id":"cebpf4jnsgd1na2vs0mg"},{"bike_id":"b30e99b7-7a59-40dd-8e21-e56fdd933898","system_id":"levelo_inurba_marseille","lat":43.31347,"lon":5.39685,"is_reserved":false,"is_disabled":false,"rental_uris":{"android":"levelo://app?vid=b30e99b7-7a59-40dd-8e21-e56fdd933898","ios":"levelo://app?vid=b30e99b7-7a59-40dd-8e21-e56fdd933898"},"vehicle_type_id":"4","last_reported":1765939431,"current_range_meters":16400,"station_id":"ce4bgvp2rcd13ifvqcu0","pricing_plan_id":"cebpf4jnsgd1na2vs0mg"},{"bike_id":"f71a1f1b-61c3-4937-b8ae-ba9d31ea3cd4","system_id":"levelo_inurba_marseille","lat":43.3121,"lon":5.36586,"is_reserved":false,"is_disabled":false,"rental_uris":{"android":"levelo://app?vid=f71a1f1b-61c3-4937-b8ae-ba9d31ea3cd4","ios":"levelo://app?vid=f71a1f1b-61c3-4937-b8ae-ba9d31ea3cd4"},"vehicle_type_id":"4","last_reported":1765939431,"current_range_meters":16400,"station_id":"","pricing_plan_id":"cebpf4jnsgd1na2vs0mg"},{"bike_id":"e2484a05-a2dd-4e38-83cb-db28efe2a4cb","system_id":"levelo_inurba_marseille","lat":43.29853,"lon":5.37906,"is_reserved":false,"is_disabled":false,"rental_uris":{"android":"levelo://app?vid=e2484a05-a2dd-4e38-83cb-db28efe2a4cb","ios":"levelo://app?vid=e2484a05-a2dd-4e38-83cb-db28efe2a4cb"},"vehicle_type_id":"4","last_reported":1765939431,"current_range_meters":16400,"station_id":"","pricing_plan_id":"cebpf4jnsgd1na2vs0mg"},{"bike_id":"a7d7a4af-a000-49ef-ade7-78b7fedbbdc7","system_id":"levelo_inurba_marseille","lat":43.31361,"lon":5.38502,"is_reserved":false,"is_disabled":false,"rental_uris":{"android":"levelo://app?vid=a7d7a4af-a000-49ef-ade7-78b7fedbbdc7","ios":"levelo://app?vid=a7d7a4af-a000-49ef-ade7-78b7fedbbdc7"},"vehicle_type_id":"4","last_reported":1765939431,"current_range_meters":16400,"station_id":"ce4bgt92rcd13ifvqcf0","pricing_plan_id":"cebpf4jnsgd1na2vs0mg"},{"bike_id":"147a030a-a3ef-4cc1-8c9c-eba4bbe58a59","system_id":"levelo_inurba_marseille","lat":43.28855,"lon":5.39322,"is_reserved":false,"is_disabled":true,"rental_uris":{"android":"levelo://app?vid=147a030a-a3ef-4cc1-8c9c-eba4bbe58a59","ios":"levelo://app?vid=147a030a-a3ef-4cc1-8c9c-eba4bbe58a59"},"vehicle_type_id":"4","last_reported":1765939431,"current_range_meters":16400,"station_id":"ce4bh2p2rcd13ifvqdi0","pricing_plan_id":"cebpf4jnsgd1na2vs0mg"},{"bike_id":"2a447707-1e63-48d3-bc58-3c15db9f3c7a","system_id":"levelo_inurba_marseille","lat":43.32005,"lon":5.38165,"is_reserved":false,"is_disabled":false,"rental_uris":{"android":"levelo://app?vid=2a447707-1e63-48d3-bc58-3c15db9f3c7a","ios":"levelo://app?vid=2a447707-1e63-48d3-bc58-3c15db9f3c7a"},"vehicle_type_id":"4","last_reported":1765939431,"current_range_meters":16400,"station_id":"ce4bhr12rcd13ifvqhpg","pricing_plan_id":"cebpf4jnsgd1na2vs0mg"},{"bike_id":"577e8dfa-855d-43ff-8683-4513a6d95873","system_id":"levelo_inurba_marseille","lat":43.24064,"lon":5.3773,"is_reserved":false,"is_disabled":false,"rental_uris":{"android":"levelo://app?vid=577e8dfa-855d-43ff-8683-4513a6d95873","ios":"levelo://app?vid=577e8dfa-855d-43ff-8683-4513a6d95873"},"vehicle_type_id":"4","last_reported":1765939431,"current_range_meters":16400,"station_id":"ce4bhnp2rcd13ifvqgvg","pricing_plan_id":"cebpf4jnsgd1na2vs0mg"},{"bike_id":"4c300c61-a5f9-486c-91f7-961c510b1148","system_id":"levelo_inurba_marseille","lat":43.29599,"lon":5.38098,"is_reserved":false,"is_disabled":false,"rental_uris":{"android":"levelo://app?vid=4c300c61-a5f9-486c-91f7-961c510b1148","ios":"levelo://app?vid=4c300c61-a5f9-486c-91f7-961c510b1148"},"vehicle_type_id":"4","last_reported":1765939431,"current_range_meters":16400,"station_id":"ce4bgl12rcd13ifvqbo0","pricing_plan_id":"cebpf4jnsgd1na2vs0mg"},{"bike_id":"c42cb838-06e1-489e-9fd0-0c3e226398cb","system_id":"levelo_inurba_marseille","lat":43.2258,"lon":5.41623,"is_reserved":false,"is_disabled":false,"rental_uris":{"android":"levelo://app?vid=c42cb838-06e1-489e-9fd0-0c3e226398cb","ios":"levelo://app?vid=c42cb838-06e1-489e-9fd0-0c3e226398cb"},"vehicle_type_id":"4","last_reported":1765939431,"current_range_meters":16400,"station_id":"st_d2o4gvlbi1j2169b742g","pricing_plan_id":"cebpf4jnsgd1na2vs0mg"},{"bike_id":"026e8651-2767-4fc0-b1c3-2f40b04d4561","system_id":"levelo_inurba_marseille","lat":43.28478,"lon":5.48396,"is_reserved":false,"is_disabled":false,"rental_uris":{"android":"levelo://app?vid=026e8651-2767-4fc0-b1c3-2f40b04d4561","ios":"levelo://app?vid=026e8651-2767-4fc0-b1c3-2f40b04d4561"},"vehicle_type_id":"4","last_reported":1765939431,"current_range_meters":16800,"station_id":"st_d3svhcjqgbts73a3dn0g","pricing_plan_id":"cebpf4jnsgd1na2vs0mg"},{"bike_id":"f6757b0d-3d63-42f4-bcf1-09383a6d7f4e","system_id":"levelo_inurba_marseille","lat":43.30886,"lon":5.3964,"is_reserved":false,"is_disabled":false,"rental_uris":{"android":"levelo://app?vid=f6757b0d-3d63-42f4-bcf1-09383a6d7f4e","ios":"levelo://app?vid=f6757b0d-3d63-42f4-bcf1-09383a6d7f4e"},"vehicle_type_id":"4","last_reported":1765939431,"current_range_meters":16800,"station_id":"ce4bh012rcd13ifvqcv0","pricing_plan_id":"cebpf4jnsgd1na2vs0mg"},{"bike_id":"06479f1a-4795-4536-b2e0-ee1e0220aafe","system_id":"levelo_inurba_marseille","lat":43.30787,"lon":5.38129,"is_reserved":false,"is_disabled":false,"rental_uris":{"android":"levelo://app?vid=06479f1a-4795-4536-b2e0-ee1e0220aafe","ios":"levelo://app?vid=06479f1a-4795-4536-b2e0-ee1e0220aafe"},"vehicle_type_id":"4","last_reported":1765939431,"current_range_meters":16800,"station_id":"ce4bgt12rcd13ifvqce0","pricing_plan_id":"cebpf4jnsgd1na2vs0mg"},{"bike_id":"724d13ba-4040-4885-b93d-4c7e96f224b8","system_id":"levelo_inurba_marseille","lat":43.28942,"lon":5.36384,"is_reserved":false,"is_disabled":false,"rental_uris":{"android":"levelo://app?vid=724d13ba-4040-4885-b93d-4c7e96f224b8","ios":"levelo://app?vid=724d13ba-4040-4885-b93d-4c7e96f224b8"},"vehicle_type_id":"4","last_reported":1765939431,"current_range_meters":16800,"station_id":"ce4bhc92rcd13ifvqetg","pricing_plan_id":"cebpf4jnsgd1na2vs0mg"},{"bike_id":"0eaebf46-1bd1-4aaf-b805-fb25a3bcd61e","system_id":"levelo_inurba_marseille","lat":43.29819,"lon":5.4407,"is_reserved":false,"is_disabled":false,"rental_uris":{"android":"levelo://app?vid=0eaebf46-1bd1-4aaf-b805-fb25a3bcd61e","ios":"levelo://app?vid=0eaebf46-1bd1-4aaf-b805-fb25a3bcd61e"},"vehicle_type_id":"4","last_reported":1765939431,"current_range_meters":16800,"station_id":"st_d3jp68qikq2c7381ktn0","pricing_plan_id":"cebpf4jnsgd1na2vs0mg"},{"bike_id":"babcbf2f-3149-4397-bed0-fc9fb158d7ef","system_id":"levelo_inurba_marseille","lat":43.27823,"lon":5.4067,"is_reserved":false,"is_disabled":false,"rental_uris":{"android":"levelo://app?vid=babcbf2f-3149-4397-bed0-fc9fb158d7ef","ios":"levelo://app?vid=babcbf2f-3149-4397-bed0-fc9fb158d7ef"},"vehicle_type_id":"4","last_reported":1765939431,"current_range_meters":16800,"station_id":"ce4bhnh2rcd13ifvqgtg","pricing_plan_id":"cebpf4jnsgd1na2vs0mg"},{"bike_id":"fedcd8c6-9dd1-49f7-a439-c3d118a3a7ba","system_id":"levelo_inurba_marseille","lat":43.3211,"lon":5.36777,"is_reserved":false,"is_disabled":false,"rental_uris":{"android":"levelo://app?vid=fedcd8c6-9dd1-49f7-a439-c3d118a3a7ba","ios":"levelo://app?vid=fedcd8c6-9dd1-49f7-a439-c3d118a3a7ba"},"vehicle_type_id":"4","last_reported":1765939431,"current_range_meters":16800,"station_id":"ce4bhrh2rcd13ifvqhug","pricing_plan_id":"cebpf4jnsgd1na2vs0mg"},{"bike_id":"57bf9f67-9522-40c4-82f0-435099d363f7","system_id":"levelo_inurba_marseille","lat":43.32372,"lon":5.36746,"is_reserved":false,"is_disabled":false,"rental_uris":{"android":"levelo://app?vid=57bf9f67-9522-40c4-82f0-435099d363f7","ios":"levelo://app?vid=57bf9f67-9522-40c4-82f0-435099d363f7"},"vehicle_type_id":"4","last_reported":1765939431,"current_range_meters":16800,"station_id":"ce4bhsh2rcd13ifvqi2g","pricing_plan_id":"cebpf4jnsgd1na2vs0mg"},{"bike_id":"1229dd0c-cd94-4b46-af8f-e1c364f379f7","system_id":"levelo_inurba_marseille","lat":43.23175,"lon":5.43706,"is_reserved":false,"is_disabled":true,"rental_uris":{"android":"levelo://app?vid=1229dd0c-cd94-4b46-af8f-e1c364f379f7","ios":"levelo://app?vid=1229dd0c-cd94-4b46-af8f-e1c364f379f7"},"vehicle_type_id":"4","last_reported":1765939431,"current_range_meters":16800,"station_id":"ce4bhmp2rcd13ifvqgog","pricing_plan_id":"cebpf4jnsgd1na2vs0mg"},{"bike_id":"c2840dd5-f5cb-4451-a5f9-5bb4de624b60","system_id":"levelo_inurba_marseille","lat":43.270552,"lon":5.383082,"is_reserved":false,"is_disabled":false,"rental_uris":{"android":"levelo://app?vid=c2840dd5-f5cb-4451-a5f9-5bb4de624b60","ios":"levelo://app?vid=c2840dd5-f5cb-4451-a5f9-5bb4de624b60"},"vehicle_type_id":"4","last_reported":1765939431,"current_range_meters":16800,"station_id":"ce4bhbh2rcd13ifvqeo0","pricing_plan_id":"cebpf4jnsgd1na2vs0mg"},{"bike_id":"3f85392e-7751-4fbe-9206-afff2b3033e2","system_id":"levelo_inurba_marseille","lat":43.30379,"lon":5.42486,"is_reserved":false,"is_disabled":false,"rental_uris":{"android":"levelo://app?vid=3f85392e-7751-4fbe-9206-afff2b3033e2","ios":"levelo://app?vid=3f85392e-7751-4fbe-9206-afff2b3033e2"},"vehicle_type_id":"4","last_reported":1765939431,"current_range_meters":16800,"station_id":"ce4bhoh2rcd13ifvqh6g","pricing_plan_id":"cebpf4jnsgd1na2vs0mg"},{"bike_id":"fe4aedb5-7f9b-4ae5-8bf7-66af81151ffc","system_id":"levelo_inurba_marseille","lat":43.337444,"lon":5.374475,"is_reserved":false,"is_disabled":false,"rental_uris":{"android":"levelo://app?vid=fe4aedb5-7f9b-4ae5-8bf7-66af81151ffc","ios":"levelo://app?vid=fe4aedb5-7f9b-4ae5-8bf7-66af81151ffc"},"vehicle_type_id":"4","last_reported":1765939431,"current_range_meters":17200,"station_id":"ce4bhph2rcd13ifvqhdg","pricing_plan_id":"cebpf4jnsgd1na2vs0mg"},{"bike_id":"4f65f5d8-763d-47e2-a27b-ac0e31d9326f","system_id":"levelo_inurba_marseille","lat":43.28027,"lon":5.36943,"is_reserved":false,"is_disabled":false,"rental_uris":{"android":"levelo://app?vid=4f65f5d8-763d-47e2-a27b-ac0e31d9326f","ios":"levelo://app?vid=4f65f5d8-763d-47e2-a27b-ac0e31d9326f"},"vehicle_type_id":"4","last_reported":1765939431,"current_range_meters":17200,"station_id":"ce4bha12rcd13ifvqef0","pricing_plan_id":"cebpf4jnsgd1na2vs0mg"},{"bike_id":"1e3ef357-3d9b-4e4f-be7b-7c742fef268f","system_id":"levelo_inurba_marseille","lat":43.26543,"lon":5.37318,"is_reserved":false,"is_disabled":false,"rental_uris":{"android":"levelo://app?vid=1e3ef357-3d9b-4e4f-be7b-7c742fef268f","ios":"levelo://app?vid=1e3ef357-3d9b-4e4f-be7b-7c742fef268f"},"vehicle_type_id":"4","last_reported":1765939431,"current_range_meters":17200,"station_id":"ce4bhg12rcd13ifvqf70","pricing_plan_id":"cebpf4jnsgd1na2vs0mg"},{"bike_id":"cb0842d7-93bc-4351-8f3b-fffed7b4f15a","system_id":"levelo_inurba_marseille","lat":43.26946,"lon":5.3863,"is_reserved":false,"is_disabled":true,"rental_uris":{"android":"levelo://app?vid=cb0842d7-93bc-4351-8f3b-fffed7b4f15a","ios":"levelo://app?vid=cb0842d7-93bc-4351-8f3b-fffed7b4f15a"},"vehicle_type_id":"4","last_reported":1765939431,"current_range_meters":17200,"station_id":"ce4bhh92rcd13ifvqfh0","pricing_plan_id":"cebpf4jnsgd1na2vs0mg"},{"bike_id":"46300de1-2118-46f4-bf10-bd61a7328e2b","system_id":"levelo_inurba_marseille","lat":43.26676,"lon":5.39614,"is_reserved":false,"is_disabled":false,"rental_uris":{"android":"levelo://app?vid=46300de1-2118-46f4-bf10-bd61a7328e2b","ios":"levelo://app?vid=46300de1-2118-46f4-bf10-bd61a7328e2b"},"vehicle_type_id":"4","last_reported":1765939431,"current_range_meters":17200,"station_id":"","pricing_plan_id":"cebpf4jnsgd1na2vs0mg"},{"bike_id":"6b16acc7-a80b-4f96-ae73-b1410de5081b","system_id":"levelo_inurba_marseille","lat":43.28612,"lon":5.35107,"is_reserved":false,"is_disabled":true,"rental_uris":{"android":"levelo://app?vid=6b16acc7-a80b-4f96-ae73-b1410de5081b","ios":"levelo://app?vid=6b16acc7-a80b-4f96-ae73-b1410de5081b"},"vehicle_type_id":"4","last_reported":1765939431,"current_range_meters":17200,"station_id":"ce4bhch2rcd13ifvqeug","pricing_plan_id":"cebpf4jnsgd1na2vs0mg"},{"bike_id":"7ff51734-7635-4e26-ba98-c2660f473ff2","system_id":"levelo_inurba_marseille","lat":43.23052,"lon":5.35501,"is_reserved":false,"is_disabled":false,"rental_uris":{"android":"levelo://app?vid=7ff51734-7635-4e26-ba98-c2660f473ff2","ios":"levelo://app?vid=7ff51734-7635-4e26-ba98-c2660f473ff2"},"vehicle_type_id":"4","last_reported":1765939431,"current_range_meters":17200,"station_id":"cpo3342slgdg3j2ifvpg","pricing_plan_id":"cebpf4jnsgd1na2vs0mg"},{"bike_id":"38d66c43-4ebd-4d4a-9b0f-fcb1404bb6e8","system_id":"levelo_inurba_marseille","lat":43.25576,"lon":5.38243,"is_reserved":false,"is_disabled":false,"rental_uris":{"android":"levelo://app?vid=38d66c43-4ebd-4d4a-9b0f-fcb1404bb6e8","ios":"levelo://app?vid=38d66c43-4ebd-4d4a-9b0f-fcb1404bb6e8"},"vehicle_type_id":"4","last_reported":1765939431,"current_range_meters":17200,"station_id":"ce4bhih2rcd13ifvqfs0","pricing_plan_id":"cebpf4jnsgd1na2vs0mg"},{"bike_id":"a2fe9bea-c83b-4540-9993-b21511028686","system_id":"levelo_inurba_marseille","lat":43.33749,"lon":5.37487,"is_reserved":false,"is_disabled":false,"rental_uris":{"android":"levelo://app?vid=a2fe9bea-c83b-4540-9993-b21511028686","ios":"levelo://app?vid=a2fe9bea-c83b-4540-9993-b21511028686"},"vehicle_type_id":"4","last_reported":1765939431,"current_range_meters":17200,"station_id":"","pricing_plan_id":"cebpf4jnsgd1na2vs0mg"},{"bike_id":"1c5dead3-188b-41b2-9359-9797d9a1af54","system_id":"levelo_inurba_marseille","lat":43.24376,"lon":5.37053,"is_reserved":false,"is_disabled":false,"rental_uris":{"android":"levelo://app?vid=1c5dead3-188b-41b2-9359-9797d9a1af54","ios":"levelo://app?vid=1c5dead3-188b-41b2-9359-9797d9a1af54"},"vehicle_type_id":"4","last_reported":1765939431,"current_range_meters":17200,"station_id":"ce4bhhh2rcd13ifvqfk0","pricing_plan_id":"cebpf4jnsgd1na2vs0mg"},{"bike_id":"ad558faf-9861-432b-98a5-c0d2a8d4db94","system_id":"levelo_inurba_marseille","lat":43.24174,"lon":5.36407,"is_reserved":false,"is_disabled":false,"rental_uris":{"android":"levelo://app?vid=ad558faf-9861-432b-98a5-c0d2a8d4db94","ios":"levelo://app?vid=ad558faf-9861-432b-98a5-c0d2a8d4db94"},"vehicle_type_id":"4","last_reported":1765939431,"current_range_meters":17200,"station_id":"cpo36qri1sfpv3e86is0","pricing_plan_id":"cebpf4jnsgd1na2vs0mg"},{"bike_id":"ddb979ed-b28e-434f-a173-cf8e45cf006a","system_id":"levelo_inurba_marseille","lat":43.2904,"lon":5.38125,"is_reserved":false,"is_disabled":true,"rental_uris":{"android":"levelo://app?vid=ddb979ed-b28e-434f-a173-cf8e45cf006a","ios":"levelo://app?vid=ddb979ed-b28e-434f-a173-cf8e45cf006a"},"vehicle_type_id":"4","last_reported":1765939431,"current_range_meters":17600,"station_id":"ce4bh4p2rcd13ifvqe1g","pricing_plan_id":"cebpf4jnsgd1na2vs0mg"},{"bike_id":"93857234-4e13-468b-a17e-fbf90680642e","system_id":"levelo_inurba_marseille","lat":43.30595,"lon":5.39357,"is_reserved":false,"is_disabled":false,"rental_uris":{"android":"levelo://app?vid=93857234-4e13-468b-a17e-fbf90680642e","ios":"levelo://app?vid=93857234-4e13-468b-a17e-fbf90680642e"},"vehicle_type_id":"4","last_reported":1765939431,"current_range_meters":17600,"station_id":"ce4bh0p2rcd13ifvqd80","pricing_plan_id":"cebpf4jnsgd1na2vs0mg"},{"bike_id":"45b2e68f-e929-4ac0-b62b-830ec3a36c60","system_id":"levelo_inurba_marseille","lat":43.23803,"lon":5.36642,"is_reserved":false,"is_disabled":false,"rental_uris":{"android":"levelo://app?vid=45b2e68f-e929-4ac0-b62b-830ec3a36c60","ios":"levelo://app?vid=45b2e68f-e929-4ac0-b62b-830ec3a36c60"},"vehicle_type_id":"4","last_reported":1765939431,"current_range_meters":17600,"station_id":"st_d3nk18o9ro0c73en2l3g","pricing_plan_id":"cebpf4jnsgd1na2vs0mg"},{"bike_id":"00ba10be-1328-4ca6-b450-df4120e2744a","system_id":"levelo_inurba_marseille","lat":43.2815,"lon":5.42639,"is_reserved":false,"is_disabled":true,"rental_uris":{"android":"levelo://app?vid=00ba10be-1328-4ca6-b450-df4120e2744a","ios":"levelo://app?vid=00ba10be-1328-4ca6-b450-df4120e2744a"},"vehicle_type_id":"4","last_reported":1765939431,"current_range_meters":17600,"station_id":"ce4bhnh2rcd13ifvqgug","pricing_plan_id":"cebpf4jnsgd1na2vs0mg"},{"bike_id":"590d7443-f2a7-4117-8cb1-5c6fb20333f7","system_id":"levelo_inurba_marseille","lat":43.28423,"lon":5.34998,"is_reserved":false,"is_disabled":false,"rental_uris":{"android":"levelo://app?vid=590d7443-f2a7-4117-8cb1-5c6fb20333f7","ios":"levelo://app?vid=590d7443-f2a7-4117-8cb1-5c6fb20333f7"},"vehicle_type_id":"4","last_reported":1765939431,"current_range_meters":17600,"station_id":"ce4bhbh2rcd13ifvqepg","pricing_plan_id":"cebpf4jnsgd1na2vs0mg"},{"bike_id":"04e6c109-942c-4a93-8957-1da6dd08b594","system_id":"levelo_inurba_marseille","lat":43.29801,"lon":5.39336,"is_reserved":false,"is_disabled":false,"rental_uris":{"android":"levelo://app?vid=04e6c109-942c-4a93-8957-1da6dd08b594","ios":"levelo://app?vid=04e6c109-942c-4a93-8957-1da6dd08b594"},"vehicle_type_id":"4","last_reported":1765939431,"current_range_meters":17600,"station_id":"chh1huq6cuj3fo74tm60","pricing_plan_id":"cebpf4jnsgd1na2vs0mg"},{"bike_id":"5a63800a-0e2d-4cd2-8eb3-1b079ff5bd60","system_id":"levelo_inurba_marseille","lat":43.3009,"lon":5.39075,"is_reserved":false,"is_disabled":false,"rental_uris":{"android":"levelo://app?vid=5a63800a-0e2d-4cd2-8eb3-1b079ff5bd60","ios":"levelo://app?vid=5a63800a-0e2d-4cd2-8eb3-1b079ff5bd60"},"vehicle_type_id":"4","last_reported":1765939431,"current_range_meters":17600,"station_id":"ce4bh192rcd13ifvqdb0","pricing_plan_id":"cebpf4jnsgd1na2vs0mg"},{"bike_id":"22bae7df-85a0-4f42-a65e-88e69700d64e","system_id":"levelo_inurba_marseille","lat":43.27944,"lon":5.41037,"is_reserved":false,"is_disabled":false,"rental_uris":{"android":"levelo://app?vid=22bae7df-85a0-4f42-a65e-88e69700d64e","ios":"levelo://app?vid=22bae7df-85a0-4f42-a65e-88e69700d64e"},"vehicle_type_id":"4","last_reported":1765939431,"current_range_meters":17600,"station_id":"ce4bhnp2rcd13ifvqh0g","pricing_plan_id":"cebpf4jnsgd1na2vs0mg"},{"bike_id":"cb1d1c06-cfd3-468e-bcfb-1c04816293a7","system_id":"levelo_inurba_marseille","lat":43.30891,"lon":5.39654,"is_reserved":false,"is_disabled":false,"rental_uris":{"android":"levelo://app?vid=cb1d1c06-cfd3-468e-bcfb-1c04816293a7","ios":"levelo://app?vid=cb1d1c06-cfd3-468e-bcfb-1c04816293a7"},"vehicle_type_id":"4","last_reported":1765939431,"current_range_meters":17600,"station_id":"ce4bh012rcd13ifvqcv0","pricing_plan_id":"cebpf4jnsgd1na2vs0mg"},{"bike_id":"8a7acb2c-7e67-45cc-a177-81566096ce00","system_id":"levelo_inurba_marseille","lat":43.31162,"lon":5.38718,"is_reserved":false,"is_disabled":false,"rental_uris":{"android":"levelo://app?vid=8a7acb2c-7e67-45cc-a177-81566096ce00","ios":"levelo://app?vid=8a7acb2c-7e67-45cc-a177-81566096ce00"},"vehicle_type_id":"4","last_reported":1765939431,"current_range_meters":17600,"station_id":"ce4bgv12rcd13ifvqcp0","pricing_plan_id":"cebpf4jnsgd1na2vs0mg"},{"bike_id":"a069d494-c77c-4030-a5c6-de1b11d48193","system_id":"levelo_inurba_marseille","lat":43.28354,"lon":5.38108,"is_reserved":false,"is_disabled":false,"rental_uris":{"android":"levelo://app?vid=a069d494-c77c-4030-a5c6-de1b11d48193","ios":"levelo://app?vid=a069d494-c77c-4030-a5c6-de1b11d48193"},"vehicle_type_id":"4","last_reported":1765939431,"current_range_meters":17600,"station_id":"ce4bh412rcd13ifvqdr0","pricing_plan_id":"cebpf4jnsgd1na2vs0mg"},{"bike_id":"b08416a9-4fd4-4f0f-a9cd-cf796054033c","system_id":"levelo_inurba_marseille","lat":43.29578,"lon":5.38178,"is_reserved":false,"is_disabled":false,"rental_uris":{"android":"levelo://app?vid=b08416a9-4fd4-4f0f-a9cd-cf796054033c","ios":"levelo://app?vid=b08416a9-4fd4-4f0f-a9cd-cf796054033c"},"vehicle_type_id":"4","last_reported":1765939431,"current_range_meters":18000,"station_id":"","pricing_plan_id":"cebpf4jnsgd1na2vs0mg"},{"bike_id":"7107df84-5908-4fce-a897-c004c6e0490e","system_id":"levelo_inurba_marseille","lat":43.337648,"lon":5.374342,"is_reserved":false,"is_disabled":false,"rental_uris":{"android":"levelo://app?vid=7107df84-5908-4fce-a897-c004c6e0490e","ios":"levelo://app?vid=7107df84-5908-4fce-a897-c004c6e0490e"},"vehicle_type_id":"4","last_reported":1765939431,"current_range_meters":18000,"station_id":"","pricing_plan_id":"cebpf4jnsgd1na2vs0mg"},{"bike_id":"48cfb043-f005-44ec-b97c-ee2be2ee2d36","system_id":"levelo_inurba_marseille","lat":43.264057,"lon":5.392162,"is_reserved":false,"is_disabled":false,"rental_uris":{"android":"levelo://app?vid=48cfb043-f005-44ec-b97c-ee2be2ee2d36","ios":"levelo://app?vid=48cfb043-f005-44ec-b97c-ee2be2ee2d36"},"vehicle_type_id":"4","last_reported":1765939431,"current_range_meters":18000,"station_id":"","pricing_plan_id":"cebpf4jnsgd1na2vs0mg"},{"bike_id":"5d5013fb-5e32-4530-a28c-7fc0d3460ff8","system_id":"levelo_inurba_marseille","lat":43.27808,"lon":5.40691,"is_reserved":false,"is_disabled":false,"rental_uris":{"android":"levelo://app?vid=5d5013fb-5e32-4530-a28c-7fc0d3460ff8","ios":"levelo://app?vid=5d5013fb-5e32-4530-a28c-7fc0d3460ff8"},"vehicle_type_id":"4","last_reported":1765939431,"current_range_meters":18000,"station_id":"ce4bhnh2rcd13ifvqgtg","pricing_plan_id":"cebpf4jnsgd1na2vs0mg"},{"bike_id":"4135a0aa-5a1c-4e4f-bd6e-3fff37e53119","system_id":"levelo_inurba_marseille","lat":43.21748,"lon":5.34591,"is_reserved":false,"is_disabled":true,"rental_uris":{"android":"levelo://app?vid=4135a0aa-5a1c-4e4f-bd6e-3fff37e53119","ios":"levelo://app?vid=4135a0aa-5a1c-4e4f-bd6e-3fff37e53119"},"vehicle_type_id":"4","last_reported":1765939431,"current_range_meters":18000,"station_id":"st_cvj6r9ubvosntc0bgbag","pricing_plan_id":"cebpf4jnsgd1na2vs0mg"},{"bike_id":"87496e3c-5ded-4b6b-a05a-cc43f718587e","system_id":"levelo_inurba_marseille","lat":43.24389,"lon":5.37051,"is_reserved":false,"is_disabled":false,"rental_uris":{"android":"levelo://app?vid=87496e3c-5ded-4b6b-a05a-cc43f718587e","ios":"levelo://app?vid=87496e3c-5ded-4b6b-a05a-cc43f718587e"},"vehicle_type_id":"4","last_reported":1765939431,"current_range_meters":18000,"station_id":"ce4bhhh2rcd13ifvqfk0","pricing_plan_id":"cebpf4jnsgd1na2vs0mg"},{"bike_id":"fa6f92d2-8437-4f8d-b03f-3c3f142f8390","system_id":"levelo_inurba_marseille","lat":43.28399,"lon":5.3873,"is_reserved":false,"is_disabled":false,"rental_uris":{"android":"levelo://app?vid=fa6f92d2-8437-4f8d-b03f-3c3f142f8390","ios":"levelo://app?vid=fa6f92d2-8437-4f8d-b03f-3c3f142f8390"},