{"last_updated":1758960698,"ttl":60,"version":"2.2","data":{"bikes":[{"bike_id":"90e969e7-7e0a-45e3-93fb-c2395876924b","system_id":"levelo_inurba_marseille","lat":43.273729,"lon":5.36259,"is_reserved":false,"is_disabled":false,"rental_uris":{"android":"levelo://app?vid=90e969e7-7e0a-45e3-93fb-c2395876924b","ios":"levelo://app?vid=90e969e7-7e0a-45e3-93fb-c2395876924b"},"vehicle_type_id":"4","last_reported":1758960699,"current_range_meters":2800,"station_id":"ce4bhbh2rcd13ifvqeo0","pricing_plan_id":"cebpf4jnsgd1na2vs0mg"},{"bike_id":"eebd0368-3541-4c49-ab7c-6808d2f7ef27","system_id":"levelo_inurba_marseille","lat":43.25496,"lon":5.37646,"is_reserved":false,"is_disabled":false,"rental_uris":{"android":"levelo://app?vid=eebd0368-3541-4c49-ab7c-6808d2f7ef27","ios":"levelo://app?vid=eebd0368-3541-4c49-ab7c-6808d2f7ef27"},"vehicle_type_id":"4","last_reported":1758960699,"current_range_meters":2800,"station_id":"ce4bhh12rcd13ifvqff0","pricing_plan_id":"cebpf4jnsgd1na2vs0mg"},{"bike_id":"64279a81-ee34-4c3b-b57a-9b62bb0c0a24","system_id":"levelo_inurba_marseille","lat":43.31546,"lon":5.43157,"is_reserved":false,"is_disabled":false,"rental_uris":{"android":"levelo://app?vid=64279a81-ee34-4c3b-b57a-9b62bb0c0a24","ios":"levelo://app?vid=64279a81-ee34-4c3b-b57a-9b62bb0c0a24"},"vehicle_type_id":"4","last_reported":1758960699,"current_range_meters":2800,"station_id":"","pricing_plan_id":"cebpf4jnsgd1na2vs0mg"},{"bike_id":"d8a2347c-225c-4028-b110-5b8c63be1a5a","system_id":"levelo_inurba_marseille","lat":43.28789,"lon":5.37663,"is_reserved":false,"is_disabled":false,"rental_uris":{"android":"levelo://app?vid=d8a2347c-225c-4028-b110-5b8c63be1a5a","ios":"levelo://app?vid=d8a2347c-225c-4028-b110-5b8c63be1a5a"},"vehicle_type_id":"4","last_reported":1758960699,"current_range_meters":3600,"station_id":"","pricing_plan_id":"cebpf4jnsgd1na2vs0mg"},{"bike_id":"4949fcce-d8e3-467f-b7b4-445f07ef4ae4","system_id":"levelo_inurba_marseille","lat":43.29915,"lon":5.3662,"is_reserved":false,"is_disabled":false,"rental_uris":{"android":"levelo://app?vid=4949fcce-d8e3-467f-b7b4-445f07ef4ae4","ios":"levelo://app?vid=4949fcce-d8e3-467f-b7b4-445f07ef4ae4"},"vehicle_type_id":"4","last_reported":1758960699,"current_range_meters":3600,"station_id":"ce4bgm92rcd13ifvqbr0","pricing_plan_id":"cebpf4jnsgd1na2vs0mg"},{"bike_id":"09345af4-1611-45da-afb4-68def57df4a1","system_id":"levelo_inurba_marseille","lat":43.240769,"lon":5.377582,"is_reserved":false,"is_disabled":false,"rental_uris":{"android":"levelo://app?vid=09345af4-1611-45da-afb4-68def57df4a1","ios":"levelo://app?vid=09345af4-1611-45da-afb4-68def57df4a1"},"vehicle_type_id":"4","last_reported":1758960699,"current_range_meters":3600,"station_id":"ce4bhnp2rcd13ifvqgvg","pricing_plan_id":"cebpf4jnsgd1na2vs0mg"},{"bike_id":"45d3503b-4869-4c77-b22e-00e24d697dab","system_id":"levelo_inurba_marseille","lat":43.282642,"lon":5.350744,"is_reserved":false,"is_disabled":false,"rental_uris":{"android":"levelo://app?vid=45d3503b-4869-4c77-b22e-00e24d697dab","ios":"levelo://app?vid=45d3503b-4869-4c77-b22e-00e24d697dab"},"vehicle_type_id":"4","last_reported":1758960699,"current_range_meters":4000,"station_id":"","pricing_plan_id":"cebpf4jnsgd1na2vs0mg"},{"bike_id":"588bb5c6-d90f-4edd-b1de-2d2164a39c00","system_id":"levelo_inurba_marseille","lat":43.32948,"lon":5.39046,"is_reserved":false,"is_disabled":false,"rental_uris":{"android":"levelo://app?vid=588bb5c6-d90f-4edd-b1de-2d2164a39c00","ios":"levelo://app?vid=588bb5c6-d90f-4edd-b1de-2d2164a39c00"},"vehicle_type_id":"4","last_reported":1758960699,"current_range_meters":4000,"station_id":"","pricing_plan_id":"cebpf4jnsgd1na2vs0mg"},{"bike_id":"003515e8-8117-44bb-979d-5f47e8d50fda","system_id":"levelo_inurba_marseille","lat":43.30623,"lon":5.3757,"is_reserved":false,"is_disabled":false,"rental_uris":{"android":"levelo://app?vid=003515e8-8117-44bb-979d-5f47e8d50fda","ios":"levelo://app?vid=003515e8-8117-44bb-979d-5f47e8d50fda"},"vehicle_type_id":"4","last_reported":1758960699,"current_range_meters":4800,"station_id":"","pricing_plan_id":"cebpf4jnsgd1na2vs0mg"},{"bike_id":"9a921cb2-04da-4550-9ae0-deb68d9d52e9","system_id":"levelo_inurba_marseille","lat":43.26024,"lon":5.37552,"is_reserved":false,"is_disabled":false,"rental_uris":{"android":"levelo://app?vid=9a921cb2-04da-4550-9ae0-deb68d9d52e9","ios":"levelo://app?vid=9a921cb2-04da-4550-9ae0-deb68d9d52e9"},"vehicle_type_id":"4","last_reported":1758960699,"current_range_meters":4800,"station_id":"ce4bhgh2rcd13ifvqfa0","pricing_plan_id":"cebpf4jnsgd1na2vs0mg"},{"bike_id":"e2051fcc-0803-423b-a9dd-2c9c7d3c8c51","system_id":"levelo_inurba_marseille","lat":43.28224,"lon":5.39077,"is_reserved":false,"is_disabled":false,"rental_uris":{"android":"levelo://app?vid=e2051fcc-0803-423b-a9dd-2c9c7d3c8c51","ios":"levelo://app?vid=e2051fcc-0803-423b-a9dd-2c9c7d3c8c51"},"vehicle_type_id":"4","last_reported":1758960699,"current_range_meters":5600,"station_id":"ce4bhn92rcd13ifvqgsg","pricing_plan_id":"cebpf4jnsgd1na2vs0mg"},{"bike_id":"3c19536b-fb5b-4f9a-ab5d-bec9a9d3b963","system_id":"levelo_inurba_marseille","lat":43.24645,"lon":5.38892,"is_reserved":false,"is_disabled":false,"rental_uris":{"android":"levelo://app?vid=3c19536b-fb5b-4f9a-ab5d-bec9a9d3b963","ios":"levelo://app?vid=3c19536b-fb5b-4f9a-ab5d-bec9a9d3b963"},"vehicle_type_id":"4","last_reported":1758960699,"current_range_meters":5600,"station_id":"ce4bhg12rcd13ifvqf60","pricing_plan_id":"cebpf4jnsgd1na2vs0mg"},{"bike_id":"fee689bb-cae2-4ff6-9789-75afd812a849","system_id":"levelo_inurba_marseille","lat":43.27999,"lon":5.40015,"is_reserved":false,"is_disabled":false,"rental_uris":{"android":"levelo://app?vid=fee689bb-cae2-4ff6-9789-75afd812a849","ios":"levelo://app?vid=fee689bb-cae2-4ff6-9789-75afd812a849"},"vehicle_type_id":"4","last_reported":1758960699,"current_range_meters":5600,"station_id":"ce4bho92rcd13ifvqh4g","pricing_plan_id":"cebpf4jnsgd1na2vs0mg"},{"bike_id":"8957bba0-c3e1-4ad9-8eab-50b7b44581f6","system_id":"levelo_inurba_marseille","lat":43.29045,"lon":5.39957,"is_reserved":false,"is_disabled":false,"rental_uris":{"android":"levelo://app?vid=8957bba0-c3e1-4ad9-8eab-50b7b44581f6","ios":"levelo://app?vid=8957bba0-c3e1-4ad9-8eab-50b7b44581f6"},"vehicle_type_id":"4","last_reported":1758960699,"current_range_meters":5600,"station_id":"ce4bh392rcd13ifvqdm0","pricing_plan_id":"cebpf4jnsgd1na2vs0mg"},{"bike_id":"f897d300-643c-4c7a-951b-f56d70ef23ca","system_id":"levelo_inurba_marseille","lat":43.303393,"lon":5.390761,"is_reserved":false,"is_disabled":false,"rental_uris":{"android":"levelo://app?vid=f897d300-643c-4c7a-951b-f56d70ef23ca","ios":"levelo://app?vid=f897d300-643c-4c7a-951b-f56d70ef23ca"},"vehicle_type_id":"4","last_reported":1758960699,"current_range_meters":6000,"station_id":"","pricing_plan_id":"cebpf4jnsgd1na2vs0mg"},{"bike_id":"defaea9d-4c8c-405b-91ea-a2b4bc8bd075","system_id":"levelo_inurba_marseille","lat":43.29041,"lon":5.39964,"is_reserved":false,"is_disabled":false,"rental_uris":{"android":"levelo://app?vid=defaea9d-4c8c-405b-91ea-a2b4bc8bd075","ios":"levelo://app?vid=defaea9d-4c8c-405b-91ea-a2b4bc8bd075"},"vehicle_type_id":"4","last_reported":1758960699,"current_range_meters":6000,"station_id":"ce4bh392rcd13ifvqdm0","pricing_plan_id":"cebpf4jnsgd1na2vs0mg"},{"bike_id":"09f1d78c-9084-4946-aaba-00285afd0631","system_id":"levelo_inurba_marseille","lat":43.2511,"lon":5.40318,"is_reserved":false,"is_disabled":false,"rental_uris":{"android":"levelo://app?vid=09f1d78c-9084-4946-aaba-00285afd0631","ios":"levelo://app?vid=09f1d78c-9084-4946-aaba-00285afd0631"},"vehicle_type_id":"4","last_reported":1758960699,"current_range_meters":6000,"station_id":"ce4bhlh2rcd13ifvqgig","pricing_plan_id":"cebpf4jnsgd1na2vs0mg"},{"bike_id":"10570c5a-8e04-4e55-8478-90c821e94d73","system_id":"levelo_inurba_marseille","lat":43.33165,"lon":5.3818,"is_reserved":false,"is_disabled":false,"rental_uris":{"android":"levelo://app?vid=10570c5a-8e04-4e55-8478-90c821e94d73","ios":"levelo://app?vid=10570c5a-8e04-4e55-8478-90c821e94d73"},"vehicle_type_id":"4","last_reported":1758960699,"current_range_meters":6000,"station_id":"","pricing_plan_id":"cebpf4jnsgd1na2vs0mg"},{"bike_id":"6a6d6cff-09b8-44e2-b0ef-2f3a93fde45f","system_id":"levelo_inurba_marseille","lat":43.29798,"lon":5.37956,"is_reserved":false,"is_disabled":false,"rental_uris":{"android":"levelo://app?vid=6a6d6cff-09b8-44e2-b0ef-2f3a93fde45f","ios":"levelo://app?vid=6a6d6cff-09b8-44e2-b0ef-2f3a93fde45f"},"vehicle_type_id":"4","last_reported":1758960699,"current_range_meters":6400,"station_id":"","pricing_plan_id":"cebpf4jnsgd1na2vs0mg"},{"bike_id":"18e29ec1-7822-40d1-87b2-621e22858e0a","system_id":"levelo_inurba_marseille","lat":43.23962,"lon":5.36634,"is_reserved":false,"is_disabled":false,"rental_uris":{"android":"levelo://app?vid=18e29ec1-7822-40d1-87b2-621e22858e0a","ios":"levelo://app?vid=18e29ec1-7822-40d1-87b2-621e22858e0a"},"vehicle_type_id":"4","last_reported":1758960699,"current_range_meters":6400,"station_id":"ce4bhi12rcd13ifvqfp0","pricing_plan_id":"cebpf4jnsgd1na2vs0mg"},{"bike_id":"e057a4ef-97bf-4e25-9a18-02598bbb0bbf","system_id":"levelo_inurba_marseille","lat":43.24546,"lon":5.39508,"is_reserved":false,"is_disabled":true,"rental_uris":{"android":"levelo://app?vid=e057a4ef-97bf-4e25-9a18-02598bbb0bbf","ios":"levelo://app?vid=e057a4ef-97bf-4e25-9a18-02598bbb0bbf"},"vehicle_type_id":"4","last_reported":1758960699,"current_range_meters":6400,"station_id":"ce4bhlp2rcd13ifvqgjg","pricing_plan_id":"cebpf4jnsgd1na2vs0mg"},{"bike_id":"c7f6a08b-c655-4213-b2ba-7d02e7f382fe","system_id":"levelo_inurba_marseille","lat":43.27988,"lon":5.39483,"is_reserved":false,"is_disabled":false,"rental_uris":{"android":"levelo://app?vid=c7f6a08b-c655-4213-b2ba-7d02e7f382fe","ios":"levelo://app?vid=c7f6a08b-c655-4213-b2ba-7d02e7f382fe"},"vehicle_type_id":"4","last_reported":1758960699,"current_range_meters":6400,"station_id":"","pricing_plan_id":"cebpf4jnsgd1na2vs0mg"},{"bike_id":"95c8dbbf-39eb-4107-a1d7-5913a8bdf057","system_id":"levelo_inurba_marseille","lat":43.32328,"lon":5.40622,"is_reserved":false,"is_disabled":false,"rental_uris":{"android":"levelo://app?vid=95c8dbbf-39eb-4107-a1d7-5913a8bdf057","ios":"levelo://app?vid=95c8dbbf-39eb-4107-a1d7-5913a8bdf057"},"vehicle_type_id":"4","last_reported":1758960699,"current_range_meters":6400,"station_id":"ce4bhq92rcd13ifvqhjg","pricing_plan_id":"cebpf4jnsgd1na2vs0mg"},{"bike_id":"61c08a40-d1df-4d21-ba92-bc55b96c5751","system_id":"levelo_inurba_marseille","lat":43.266827,"lon":5.382758,"is_reserved":false,"is_disabled":false,"rental_uris":{"android":"levelo://app?vid=61c08a40-d1df-4d21-ba92-bc55b96c5751","ios":"levelo://app?vid=61c08a40-d1df-4d21-ba92-bc55b96c5751"},"vehicle_type_id":"4","last_reported":1758960699,"current_range_meters":6400,"station_id":"ce4bhg92rcd13ifvqf90","pricing_plan_id":"cebpf4jnsgd1na2vs0mg"},{"bike_id":"9ff7934d-4382-48ad-bd82-d9289de898cf","system_id":"levelo_inurba_marseille","lat":43.26783,"lon":5.39406,"is_reserved":false,"is_disabled":false,"rental_uris":{"android":"levelo://app?vid=9ff7934d-4382-48ad-bd82-d9289de898cf","ios":"levelo://app?vid=9ff7934d-4382-48ad-bd82-d9289de898cf"},"vehicle_type_id":"4","last_reported":1758960699,"current_range_meters":6400,"station_id":"ce4bhh12rcd13ifvqfg0","pricing_plan_id":"cebpf4jnsgd1na2vs0mg"},{"bike_id":"f3dac6d8-b180-4928-85f1-c0e06c666299","system_id":"levelo_inurba_marseille","lat":43.26362,"lon":5.39657,"is_reserved":false,"is_disabled":false,"rental_uris":{"android":"levelo://app?vid=f3dac6d8-b180-4928-85f1-c0e06c666299","ios":"levelo://app?vid=f3dac6d8-b180-4928-85f1-c0e06c666299"},"vehicle_type_id":"4","last_reported":1758960699,"current_range_meters":6800,"station_id":"","pricing_plan_id":"cebpf4jnsgd1na2vs0mg"},{"bike_id":"6ed89cc0-a1c2-411f-8cbe-6e0b5926bab7","system_id":"levelo_inurba_marseille","lat":43.29537,"lon":5.40023,"is_reserved":false,"is_disabled":false,"rental_uris":{"android":"levelo://app?vid=6ed89cc0-a1c2-411f-8cbe-6e0b5926bab7","ios":"levelo://app?vid=6ed89cc0-a1c2-411f-8cbe-6e0b5926bab7"},"vehicle_type_id":"4","last_reported":1758960699,"current_range_meters":6800,"station_id":"","pricing_plan_id":"cebpf4jnsgd1na2vs0mg"},{"bike_id":"d338b77d-ad48-4e13-9343-e6517f785413","system_id":"levelo_inurba_marseille","lat":43.29972,"lon":5.38509,"is_reserved":false,"is_disabled":false,"rental_uris":{"android":"levelo://app?vid=d338b77d-ad48-4e13-9343-e6517f785413","ios":"levelo://app?vid=d338b77d-ad48-4e13-9343-e6517f785413"},"vehicle_type_id":"4","last_reported":1758960699,"current_range_meters":6800,"station_id":"ce4bgj92rcd13ifvqbd0","pricing_plan_id":"cebpf4jnsgd1na2vs0mg"},{"bike_id":"e3661075-3019-460d-b409-fd03f144fed6","system_id":"levelo_inurba_marseille","lat":43.28925,"lon":5.36644,"is_reserved":false,"is_disabled":false,"rental_uris":{"android":"levelo://app?vid=e3661075-3019-460d-b409-fd03f144fed6","ios":"levelo://app?vid=e3661075-3019-460d-b409-fd03f144fed6"},"vehicle_type_id":"4","last_reported":1758960699,"current_range_meters":7200,"station_id":"ce4bhap2rcd13ifvqek0","pricing_plan_id":"cebpf4jnsgd1na2vs0mg"},{"bike_id":"0b1eb747-8274-4a8a-a752-7c30d6b68dc6","system_id":"levelo_inurba_marseille","lat":43.29891,"lon":5.43666,"is_reserved":false,"is_disabled":false,"rental_uris":{"android":"levelo://app?vid=0b1eb747-8274-4a8a-a752-7c30d6b68dc6","ios":"levelo://app?vid=0b1eb747-8274-4a8a-a752-7c30d6b68dc6"},"vehicle_type_id":"4","last_reported":1758960699,"current_range_meters":7200,"station_id":"ce4bhpp2rcd13ifvqhfg","pricing_plan_id":"cebpf4jnsgd1na2vs0mg"},{"bike_id":"f89dbc4c-8c1c-44e9-926b-1dbe4477e045","system_id":"levelo_inurba_marseille","lat":43.29523,"lon":5.3855,"is_reserved":false,"is_disabled":false,"rental_uris":{"android":"levelo://app?vid=f89dbc4c-8c1c-44e9-926b-1dbe4477e045","ios":"levelo://app?vid=f89dbc4c-8c1c-44e9-926b-1dbe4477e045"},"vehicle_type_id":"4","last_reported":1758960699,"current_range_meters":6800,"station_id":"ce4bgih2rcd13ifvqba0","pricing_plan_id":"cebpf4jnsgd1na2vs0mg"},{"bike_id":"041cd397-24ab-4e04-af23-07b961e161f4","system_id":"levelo_inurba_marseille","lat":43.337444,"lon":5.374475,"is_reserved":false,"is_disabled":false,"rental_uris":{"android":"levelo://app?vid=041cd397-24ab-4e04-af23-07b961e161f4","ios":"levelo://app?vid=041cd397-24ab-4e04-af23-07b961e161f4"},"vehicle_type_id":"4","last_reported":1758960699,"current_range_meters":7200,"station_id":"","pricing_plan_id":"cebpf4jnsgd1na2vs0mg"},{"bike_id":"78b43ab0-57e9-43ee-b7c6-fbbb1406e224","system_id":"levelo_inurba_marseille","lat":43.25728,"lon":5.41103,"is_reserved":false,"is_disabled":true,"rental_uris":{"android":"levelo://app?vid=78b43ab0-57e9-43ee-b7c6-fbbb1406e224","ios":"levelo://app?vid=78b43ab0-57e9-43ee-b7c6-fbbb1406e224"},"vehicle_type_id":"4","last_reported":1758960699,"current_range_meters":7200,"station_id":"ce4bhkp2rcd13ifvqgd0","pricing_plan_id":"cebpf4jnsgd1na2vs0mg"},{"bike_id":"22e1526a-5d94-480e-9eef-c281aa35345c","system_id":"levelo_inurba_marseille","lat":43.21188,"lon":5.35088,"is_reserved":false,"is_disabled":false,"rental_uris":{"android":"levelo://app?vid=22e1526a-5d94-480e-9eef-c281aa35345c","ios":"levelo://app?vid=22e1526a-5d94-480e-9eef-c281aa35345c"},"vehicle_type_id":"4","last_reported":1758960699,"current_range_meters":8000,"station_id":"st_cvj6sg6p6f1abm77japg","pricing_plan_id":"cebpf4jnsgd1na2vs0mg"},{"bike_id":"75611fb7-df45-4d9f-9db0-a181136cc424","system_id":"levelo_inurba_marseille","lat":43.2175,"lon":5.34597,"is_reserved":false,"is_disabled":false,"rental_uris":{"android":"levelo://app?vid=75611fb7-df45-4d9f-9db0-a181136cc424","ios":"levelo://app?vid=75611fb7-df45-4d9f-9db0-a181136cc424"},"vehicle_type_id":"4","last_reported":1758960699,"current_range_meters":8000,"station_id":"st_cvj6r9ubvosntc0bgbag","pricing_plan_id":"cebpf4jnsgd1na2vs0mg"},{"bike_id":"8d5f2b42-5ec3-4818-8f3c-f7b6fd220ebe","system_id":"levelo_inurba_marseille","lat":43.29594,"lon":5.381,"is_reserved":false,"is_disabled":false,"rental_uris":{"android":"levelo://app?vid=8d5f2b42-5ec3-4818-8f3c-f7b6fd220ebe","ios":"levelo://app?vid=8d5f2b42-5ec3-4818-8f3c-f7b6fd220ebe"},"vehicle_type_id":"4","last_reported":1758960699,"current_range_meters":8000,"station_id":"ce4bgl12rcd13ifvqbo0","pricing_plan_id":"cebpf4jnsgd1na2vs0mg"},{"bike_id":"a898d2fd-6567-4531-a6ba-ae906960be4e","system_id":"levelo_inurba_marseille","lat":43.28933,"lon":5.36378,"is_reserved":false,"is_disabled":false,"rental_uris":{"android":"levelo://app?vid=a898d2fd-6567-4531-a6ba-ae906960be4e","ios":"levelo://app?vid=a898d2fd-6567-4531-a6ba-ae906960be4e"},"vehicle_type_id":"4","last_reported":1758960699,"current_range_meters":8000,"station_id":"ce4bhc92rcd13ifvqetg","pricing_plan_id":"cebpf4jnsgd1na2vs0mg"},{"bike_id":"8d6491b5-e2bc-4211-9538-e9e885fe215e","system_id":"levelo_inurba_marseille","lat":43.23186,"lon":5.35569,"is_reserved":false,"is_disabled":false,"rental_uris":{"android":"levelo://app?vid=8d6491b5-e2bc-4211-9538-e9e885fe215e","ios":"levelo://app?vid=8d6491b5-e2bc-4211-9538-e9e885fe215e"},"vehicle_type_id":"4","last_reported":1758960699,"current_range_meters":8400,"station_id":"ce4bhu92rcd13ifvqi70","pricing_plan_id":"cebpf4jnsgd1na2vs0mg"},{"bike_id":"174dfb4f-f618-4c2f-be1c-ae0d6b405e94","system_id":"levelo_inurba_marseille","lat":43.29707,"lon":5.38254,"is_reserved":false,"is_disabled":false,"rental_uris":{"android":"levelo://app?vid=174dfb4f-f618-4c2f-be1c-ae0d6b405e94","ios":"levelo://app?vid=174dfb4f-f618-4c2f-be1c-ae0d6b405e94"},"vehicle_type_id":"4","last_reported":1758960699,"current_range_meters":8400,"station_id":"","pricing_plan_id":"cebpf4jnsgd1na2vs0mg"},{"bike_id":"10a1f6b6-637c-4e45-a304-d180b707ff74","system_id":"levelo_inurba_marseille","lat":43.29361,"lon":5.37842,"is_reserved":false,"is_disabled":false,"rental_uris":{"android":"levelo://app?vid=10a1f6b6-637c-4e45-a304-d180b707ff74","ios":"levelo://app?vid=10a1f6b6-637c-4e45-a304-d180b707ff74"},"vehicle_type_id":"4","last_reported":1758960699,"current_range_meters":8800,"station_id":"ce4bgjh2rcd13ifvqbf0","pricing_plan_id":"cebpf4jnsgd1na2vs0mg"},{"bike_id":"a2185f37-5e50-467c-b5bc-77836aff0d11","system_id":"levelo_inurba_marseille","lat":43.24387,"lon":5.3706,"is_reserved":false,"is_disabled":false,"rental_uris":{"android":"levelo://app?vid=a2185f37-5e50-467c-b5bc-77836aff0d11","ios":"levelo://app?vid=a2185f37-5e50-467c-b5bc-77836aff0d11"},"vehicle_type_id":"4","last_reported":1758960699,"current_range_meters":8400,"station_id":"ce4bhhh2rcd13ifvqfk0","pricing_plan_id":"cebpf4jnsgd1na2vs0mg"},{"bike_id":"8fb6b312-30ed-4765-90d6-32ed783bc889","system_id":"levelo_inurba_marseille","lat":43.29976,"lon":5.41339,"is_reserved":false,"is_disabled":true,"rental_uris":{"android":"levelo://app?vid=8fb6b312-30ed-4765-90d6-32ed783bc889","ios":"levelo://app?vid=8fb6b312-30ed-4765-90d6-32ed783bc889"},"vehicle_type_id":"4","last_reported":1758960699,"current_range_meters":8400,"station_id":"ce4bhp12rcd13ifvqh9g","pricing_plan_id":"cebpf4jnsgd1na2vs0mg"},{"bike_id":"908460d6-0883-408b-8339-f050376e79e2","system_id":"levelo_inurba_marseille","lat":43.29923,"lon":5.37456,"is_reserved":false,"is_disabled":false,"rental_uris":{"android":"levelo://app?vid=908460d6-0883-408b-8339-f050376e79e2","ios":"levelo://app?vid=908460d6-0883-408b-8339-f050376e79e2"},"vehicle_type_id":"4","last_reported":1758960699,"current_range_meters":8400,"station_id":"ce4bgjh2rcd13ifvqbg0","pricing_plan_id":"cebpf4jnsgd1na2vs0mg"},{"bike_id":"75ef55dd-ae43-4622-8e8c-0964dcb9a20a","system_id":"levelo_inurba_marseille","lat":43.24067,"lon":5.37764,"is_reserved":false,"is_disabled":false,"rental_uris":{"android":"levelo://app?vid=75ef55dd-ae43-4622-8e8c-0964dcb9a20a","ios":"levelo://app?vid=75ef55dd-ae43-4622-8e8c-0964dcb9a20a"},"vehicle_type_id":"4","last_reported":1758960699,"current_range_meters":8000,"station_id":"ce4bhnp2rcd13ifvqgvg","pricing_plan_id":"cebpf4jnsgd1na2vs0mg"},{"bike_id":"72696c89-c9b8-445a-a207-28d1fbda8487","system_id":"levelo_inurba_marseille","lat":43.23187,"lon":5.35543,"is_reserved":false,"is_disabled":false,"rental_uris":{"android":"levelo://app?vid=72696c89-c9b8-445a-a207-28d1fbda8487","ios":"levelo://app?vid=72696c89-c9b8-445a-a207-28d1fbda8487"},"vehicle_type_id":"4","last_reported":1758960699,"current_range_meters":8400,"station_id":"ce4bhu92rcd13ifvqi70","pricing_plan_id":"cebpf4jnsgd1na2vs0mg"},{"bike_id":"b01b5bc6-6834-41fb-be97-f5b6fb7e9ec8","system_id":"levelo_inurba_marseille","lat":43.26308,"lon":5.39853,"is_reserved":false,"is_disabled":false,"rental_uris":{"android":"levelo://app?vid=b01b5bc6-6834-41fb-be97-f5b6fb7e9ec8","ios":"levelo://app?vid=b01b5bc6-6834-41fb-be97-f5b6fb7e9ec8"},"vehicle_type_id":"4","last_reported":1758960699,"current_range_meters":8800,"station_id":"","pricing_plan_id":"cebpf4jnsgd1na2vs0mg"},{"bike_id":"4748c3b1-ff31-4251-a91a-28573b813886","system_id":"levelo_inurba_marseille","lat":43.28843,"lon":5.39329,"is_reserved":false,"is_disabled":false,"rental_uris":{"android":"levelo://app?vid=4748c3b1-ff31-4251-a91a-28573b813886","ios":"levelo://app?vid=4748c3b1-ff31-4251-a91a-28573b813886"},"vehicle_type_id":"4","last_reported":1758960699,"current_range_meters":8800,"station_id":"ce4bh2p2rcd13ifvqdi0","pricing_plan_id":"cebpf4jnsgd1na2vs0mg"},{"bike_id":"6f142987-1c4e-4448-a09a-991320e62d7e","system_id":"levelo_inurba_marseille","lat":43.27201,"lon":5.39187,"is_reserved":false,"is_disabled":false,"rental_uris":{"android":"levelo://app?vid=6f142987-1c4e-4448-a09a-991320e62d7e","ios":"levelo://app?vid=6f142987-1c4e-4448-a09a-991320e62d7e"},"vehicle_type_id":"4","last_reported":1758960699,"current_range_meters":9200,"station_id":"ce4bhhp2rcd13ifvqfm0","pricing_plan_id":"cebpf4jnsgd1na2vs0mg"},{"bike_id":"2907de3a-cdb7-4c49-945b-9d4546080cdd","system_id":"levelo_inurba_marseille","lat":43.29461,"lon":5.36242,"is_reserved":false,"is_disabled":false,"rental_uris":{"android":"levelo://app?vid=2907de3a-cdb7-4c49-945b-9d4546080cdd","ios":"levelo://app?vid=2907de3a-cdb7-4c49-945b-9d4546080cdd"},"vehicle_type_id":"4","last_reported":1758960699,"current_range_meters":9200,"station_id":"","pricing_plan_id":"cebpf4jnsgd1na2vs0mg"},{"bike_id":"4f5083ea-b2eb-44c2-80b3-19bbb642c141","system_id":"levelo_inurba_marseille","lat":43.21748,"lon":5.34601,"is_reserved":false,"is_disabled":false,"rental_uris":{"android":"levelo://app?vid=4f5083ea-b2eb-44c2-80b3-19bbb642c141","ios":"levelo://app?vid=4f5083ea-b2eb-44c2-80b3-19bbb642c141"},"vehicle_type_id":"4","last_reported":1758960699,"current_range_meters":9200,"station_id":"","pricing_plan_id":"cebpf4jnsgd1na2vs0mg"},{"bike_id":"44c441d1-c949-4285-a22a-fe5b16d6d1ae","system_id":"levelo_inurba_marseille","lat":43.289433,"lon":5.384782,"is_reserved":false,"is_disabled":false,"rental_uris":{"android":"levelo://app?vid=44c441d1-c949-4285-a22a-fe5b16d6d1ae","ios":"levelo://app?vid=44c441d1-c949-4285-a22a-fe5b16d6d1ae"},"vehicle_type_id":"4","last_reported":1758960699,"current_range_meters":9200,"station_id":"ce4bh612rcd13ifvqe6g","pricing_plan_id":"cebpf4jnsgd1na2vs0mg"},{"bike_id":"e445f74c-46ac-4d45-a5ec-ebb090b8f10b","system_id":"levelo_inurba_marseille","lat":43.28472,"lon":5.38418,"is_reserved":false,"is_disabled":false,"rental_uris":{"android":"levelo://app?vid=e445f74c-46ac-4d45-a5ec-ebb090b8f10b","ios":"levelo://app?vid=e445f74c-46ac-4d45-a5ec-ebb090b8f10b"},"vehicle_type_id":"4","last_reported":1758960699,"current_range_meters":8800,"station_id":"ce4bh512rcd13ifvqe3g","pricing_plan_id":"cebpf4jnsgd1na2vs0mg"},{"bike_id":"c975862c-3721-4ac1-a6a4-5b86cf0364aa","system_id":"levelo_inurba_marseille","lat":43.211981,"lon":5.350783,"is_reserved":false,"is_disabled":false,"rental_uris":{"android":"levelo://app?vid=c975862c-3721-4ac1-a6a4-5b86cf0364aa","ios":"levelo://app?vid=c975862c-3721-4ac1-a6a4-5b86cf0364aa"},"vehicle_type_id":"4","last_reported":1758960699,"current_range_meters":9200,"station_id":"st_cvj6sg6p6f1abm77japg","pricing_plan_id":"cebpf4jnsgd1na2vs0mg"},{"bike_id":"a639c491-c436-478a-8d5d-bd2c30b918ff","system_id":"levelo_inurba_marseille","lat":43.2976,"lon":5.372,"is_reserved":false,"is_disabled":false,"rental_uris":{"android":"levelo://app?vid=a639c491-c436-478a-8d5d-bd2c30b918ff","ios":"levelo://app?vid=a639c491-c436-478a-8d5d-bd2c30b918ff"},"vehicle_type_id":"4","last_reported":1758960699,"current_range_meters":9200,"station_id":"","pricing_plan_id":"cebpf4jnsgd1na2vs0mg"},{"bike_id":"0375b7de-bb13-4ce6-82bf-f45ed994bc50","system_id":"levelo_inurba_marseille","lat":43.21748,"lon":5.34595,"is_reserved":false,"is_disabled":false,"rental_uris":{"android":"levelo://app?vid=0375b7de-bb13-4ce6-82bf-f45ed994bc50","ios":"levelo://app?vid=0375b7de-bb13-4ce6-82bf-f45ed994bc50"},"vehicle_type_id":"4","last_reported":1758960699,"current_range_meters":9600,"station_id":"","pricing_plan_id":"cebpf4jnsgd1na2vs0mg"},{"bike_id":"c5bb7a40-6cbf-45e4-a195-baa40b81ec5a","system_id":"levelo_inurba_marseille","lat":43.29768,"lon":5.37109,"is_reserved":false,"is_disabled":false,"rental_uris":{"android":"levelo://app?vid=c5bb7a40-6cbf-45e4-a195-baa40b81ec5a","ios":"levelo://app?vid=c5bb7a40-6cbf-45e4-a195-baa40b81ec5a"},"vehicle_type_id":"4","last_reported":1758960699,"current_range_meters":9200,"station_id":"ce4bgop2rcd13ifvqc1g","pricing_plan_id":"cebpf4jnsgd1na2vs0mg"},{"bike_id":"a60274be-e39c-4dbe-bf75-6e30df67c0b7","system_id":"levelo_inurba_marseille","lat":43.23151,"lon":5.43716,"is_reserved":false,"is_disabled":false,"rental_uris":{"android":"levelo://app?vid=a60274be-e39c-4dbe-bf75-6e30df67c0b7","ios":"levelo://app?vid=a60274be-e39c-4dbe-bf75-6e30df67c0b7"},"vehicle_type_id":"4","last_reported":1758960699,"current_range_meters":9600,"station_id":"ce4bhmp2rcd13ifvqgog","pricing_plan_id":"cebpf4jnsgd1na2vs0mg"},{"bike_id":"492ad12c-b243-47af-8b99-b8dc1dc5237a","system_id":"levelo_inurba_marseille","lat":43.22932,"lon":5.35358,"is_reserved":false,"is_disabled":false,"rental_uris":{"android":"levelo://app?vid=492ad12c-b243-47af-8b99-b8dc1dc5237a","ios":"levelo://app?vid=492ad12c-b243-47af-8b99-b8dc1dc5237a"},"vehicle_type_id":"4","last_reported":1758960699,"current_range_meters":9600,"station_id":"cpo3532slgdg3j2ikp40","pricing_plan_id":"cebpf4jnsgd1na2vs0mg"},{"bike_id":"a4628786-70dc-449c-a0ac-a0fc8d53ba1d","system_id":"levelo_inurba_marseille","lat":43.29191,"lon":5.358,"is_reserved":false,"is_disabled":false,"rental_uris":{"android":"levelo://app?vid=a4628786-70dc-449c-a0ac-a0fc8d53ba1d","ios":"levelo://app?vid=a4628786-70dc-449c-a0ac-a0fc8d53ba1d"},"vehicle_type_id":"4","last_reported":1758960699,"current_range_meters":10000,"station_id":"ce4bhb12rcd13ifvqel0","pricing_plan_id":"cebpf4jnsgd1na2vs0mg"},{"bike_id":"87194717-d0d0-4d7e-b2f1-1afb4445bc8b","system_id":"levelo_inurba_marseille","lat":43.250915,"lon":5.395143,"is_reserved":false,"is_disabled":false,"rental_uris":{"android":"levelo://app?vid=87194717-d0d0-4d7e-b2f1-1afb4445bc8b","ios":"levelo://app?vid=87194717-d0d0-4d7e-b2f1-1afb4445bc8b"},"vehicle_type_id":"4","last_reported":1758960699,"current_range_meters":10000,"station_id":"ce4bhm12rcd13ifvqgkg","pricing_plan_id":"cebpf4jnsgd1na2vs0mg"},{"bike_id":"3f51e03c-3abb-4dde-8cdd-da596aa3252f","system_id":"levelo_inurba_marseille","lat":43.27672,"lon":5.38893,"is_reserved":false,"is_disabled":true,"rental_uris":{"android":"levelo://app?vid=3f51e03c-3abb-4dde-8cdd-da596aa3252f","ios":"levelo://app?vid=3f51e03c-3abb-4dde-8cdd-da596aa3252f"},"vehicle_type_id":"4","last_reported":1758960699,"current_range_meters":10000,"station_id":"ce4bhi12rcd13ifvqfo0","pricing_plan_id":"cebpf4jnsgd1na2vs0mg"},{"bike_id":"9a4f92ed-e086-4038-a651-bbe0613f80bd","system_id":"levelo_inurba_marseille","lat":43.22556,"lon":5.41626,"is_reserved":false,"is_disabled":false,"rental_uris":{"android":"levelo://app?vid=9a4f92ed-e086-4038-a651-bbe0613f80bd","ios":"levelo://app?vid=9a4f92ed-e086-4038-a651-bbe0613f80bd"},"vehicle_type_id":"4","last_reported":1758960699,"current_range_meters":10000,"station_id":"st_d2o4gvlbi1j2169b742g","pricing_plan_id":"cebpf4jnsgd1na2vs0mg"},{"bike_id":"fd7db3b2-bf6f-47a6-a193-d9e54fb8924d","system_id":"levelo_inurba_marseille","lat":43.32681,"lon":5.38835,"is_reserved":false,"is_disabled":false,"rental_uris":{"android":"levelo://app?vid=fd7db3b2-bf6f-47a6-a193-d9e54fb8924d","ios":"levelo://app?vid=fd7db3b2-bf6f-47a6-a193-d9e54fb8924d"},"vehicle_type_id":"4","last_reported":1758960699,"current_range_meters":10000,"station_id":"","pricing_plan_id":"cebpf4jnsgd1na2vs0mg"},{"bike_id":"de3747e9-e37c-4cdb-ad1a-9f67e8a91990","system_id":"levelo_inurba_marseille","lat":43.23178,"lon":5.4002,"is_reserved":false,"is_disabled":false,"rental_uris":{"android":"levelo://app?vid=de3747e9-e37c-4cdb-ad1a-9f67e8a91990","ios":"levelo://app?vid=de3747e9-e37c-4cdb-ad1a-9f67e8a91990"},"vehicle_type_id":"4","last_reported":1758960699,"current_range_meters":10000,"station_id":"ce4bhn12rcd13ifvqgqg","pricing_plan_id":"cebpf4jnsgd1na2vs0mg"},{"bike_id":"7412c2bc-126e-4fde-a5a2-6602deef6b91","system_id":"levelo_inurba_marseille","lat":43.29839,"lon":5.36268,"is_reserved":false,"is_disabled":false,"rental_uris":{"android":"levelo://app?vid=7412c2bc-126e-4fde-a5a2-6602deef6b91","ios":"levelo://app?vid=7412c2bc-126e-4fde-a5a2-6602deef6b91"},"vehicle_type_id":"4","last_reported":1758960699,"current_range_meters":10000,"station_id":"ce4bgpp2rcd13ifvqc3g","pricing_plan_id":"cebpf4jnsgd1na2vs0mg"},{"bike_id":"08fe2b08-b3fa-43f8-ae73-04061f76318d","system_id":"levelo_inurba_marseille","lat":43.305552,"lon":5.365395,"is_reserved":false,"is_disabled":false,"rental_uris":{"android":"levelo://app?vid=08fe2b08-b3fa-43f8-ae73-04061f76318d","ios":"levelo://app?vid=08fe2b08-b3fa-43f8-ae73-04061f76318d"},"vehicle_type_id":"4","last_reported":1758960699,"current_range_meters":10000,"station_id":"","pricing_plan_id":"cebpf4jnsgd1na2vs0mg"},{"bike_id":"0ea41344-eefb-4701-8c32-712cc43b7e62","system_id":"levelo_inurba_marseille","lat":43.31507,"lon":5.37276,"is_reserved":false,"is_disabled":false,"rental_uris":{"android":"levelo://app?vid=0ea41344-eefb-4701-8c32-712cc43b7e62","ios":"levelo://app?vid=0ea41344-eefb-4701-8c32-712cc43b7e62"},"vehicle_type_id":"4","last_reported":1758960699,"current_range_meters":10000,"station_id":"ce4bgt12rcd13ifvqcd0","pricing_plan_id":"cebpf4jnsgd1na2vs0mg"},{"bike_id":"10b8d871-07e9-4114-9eb9-6bcce40e7beb","system_id":"levelo_inurba_marseille","lat":43.27045,"lon":5.392226,"is_reserved":false,"is_disabled":false,"rental_uris":{"android":"levelo://app?vid=10b8d871-07e9-4114-9eb9-6bcce40e7beb","ios":"levelo://app?vid=10b8d871-07e9-4114-9eb9-6bcce40e7beb"},"vehicle_type_id":"4","last_reported":1758960699,"current_range_meters":10000,"station_id":"ce4bhe12rcd13ifvqf30","pricing_plan_id":"cebpf4jnsgd1na2vs0mg"},{"bike_id":"12461b77-00c4-45a1-89eb-a750b94fdc79","system_id":"levelo_inurba_marseille","lat":43.23962,"lon":5.36624,"is_reserved":false,"is_disabled":false,"rental_uris":{"android":"levelo://app?vid=12461b77-00c4-45a1-89eb-a750b94fdc79","ios":"levelo://app?vid=12461b77-00c4-45a1-89eb-a750b94fdc79"},"vehicle_type_id":"4","last_reported":1758960699,"current_range_meters":10000,"station_id":"ce4bhi12rcd13ifvqfp0","pricing_plan_id":"cebpf4jnsgd1na2vs0mg"},{"bike_id":"15cb1014-adc9-48d4-ac46-3163bd23ebd7","system_id":"levelo_inurba_marseille","lat":43.2396,"lon":5.36631,"is_reserved":false,"is_disabled":false,"rental_uris":{"android":"levelo://app?vid=15cb1014-adc9-48d4-ac46-3163bd23ebd7","ios":"levelo://app?vid=15cb1014-adc9-48d4-ac46-3163bd23ebd7"},"vehicle_type_id":"4","last_reported":1758960699,"current_range_meters":10800,"station_id":"ce4bhi12rcd13ifvqfp0","pricing_plan_id":"cebpf4jnsgd1na2vs0mg"},{"bike_id":"6c00a6a0-3cf0-48a9-b218-0693fab11be9","system_id":"levelo_inurba_marseille","lat":43.30279,"lon":5.43522,"is_reserved":false,"is_disabled":false,"rental_uris":{"android":"levelo://app?vid=6c00a6a0-3cf0-48a9-b218-0693fab11be9","ios":"levelo://app?vid=6c00a6a0-3cf0-48a9-b218-0693fab11be9"},"vehicle_type_id":"4","last_reported":1758960699,"current_range_meters":10800,"station_id":"","pricing_plan_id":"cebpf4jnsgd1na2vs0mg"},{"bike_id":"0725469e-ab3e-45f9-98fe-b89f6d9f6262","system_id":"levelo_inurba_marseille","lat":43.262021,"lon":5.37932,"is_reserved":false,"is_disabled":false,"rental_uris":{"android":"levelo://app?vid=0725469e-ab3e-45f9-98fe-b89f6d9f6262","ios":"levelo://app?vid=0725469e-ab3e-45f9-98fe-b89f6d9f6262"},"vehicle_type_id":"4","last_reported":1758960699,"current_range_meters":10800,"station_id":"ce4bhjp2rcd13ifvqg90","pricing_plan_id":"cebpf4jnsgd1na2vs0mg"},{"bike_id":"09018ec9-72c9-4d84-9d68-5aef86bf762b","system_id":"levelo_inurba_marseille","lat":43.33023,"lon":5.39043,"is_reserved":false,"is_disabled":false,"rental_uris":{"android":"levelo://app?vid=09018ec9-72c9-4d84-9d68-5aef86bf762b","ios":"levelo://app?vid=09018ec9-72c9-4d84-9d68-5aef86bf762b"},"vehicle_type_id":"4","last_reported":1758960699,"current_range_meters":10800,"station_id":"ce4bhr92rcd13ifvqhrg","pricing_plan_id":"cebpf4jnsgd1na2vs0mg"},{"bike_id":"e9b46934-d986-4a30-8f9c-ea89b5131add","system_id":"levelo_inurba_marseille","lat":43.23961,"lon":5.3664,"is_reserved":false,"is_disabled":false,"rental_uris":{"android":"levelo://app?vid=e9b46934-d986-4a30-8f9c-ea89b5131add","ios":"levelo://app?vid=e9b46934-d986-4a30-8f9c-ea89b5131add"},"vehicle_type_id":"4","last_reported":1758960699,"current_range_meters":10800,"station_id":"ce4bhi12rcd13ifvqfp0","pricing_plan_id":"cebpf4jnsgd1na2vs0mg"},{"bike_id":"de37a4c8-34a4-4a8f-b54c-1bbc676690f8","system_id":"levelo_inurba_marseille","lat":43.30287,"lon":5.40466,"is_reserved":false,"is_disabled":false,"rental_uris":{"android":"levelo://app?vid=de37a4c8-34a4-4a8f-b54c-1bbc676690f8","ios":"levelo://app?vid=de37a4c8-34a4-4a8f-b54c-1bbc676690f8"},"vehicle_type_id":"4","last_reported":1758960699,"current_range_meters":10800,"station_id":"ce4bh012rcd13ifvqd10","pricing_plan_id":"cebpf4jnsgd1na2vs0mg"},{"bike_id":"0b2fda4e-ac18-414b-8b05-54fcdd4fc421","system_id":"levelo_inurba_marseille","lat":43.32279,"lon":5.38287,"is_reserved":false,"is_disabled":false,"rental_uris":{"android":"levelo://app?vid=0b2fda4e-ac18-414b-8b05-54fcdd4fc421","ios":"levelo://app?vid=0b2fda4e-ac18-414b-8b05-54fcdd4fc421"},"vehicle_type_id":"4","last_reported":1758960699,"current_range_meters":10800,"station_id":"ce4bhr12rcd13ifvqhqg","pricing_plan_id":"cebpf4jnsgd1na2vs0mg"},{"bike_id":"74edfd30-b972-4882-80ba-b192751c42e3","system_id":"levelo_inurba_marseille","lat":43.24977,"lon":5.38923,"is_reserved":false,"is_disabled":false,"rental_uris":{"android":"levelo://app?vid=74edfd30-b972-4882-80ba-b192751c42e3","ios":"levelo://app?vid=74edfd30-b972-4882-80ba-b192751c42e3"},"vehicle_type_id":"4","last_reported":1758960699,"current_range_meters":10800,"station_id":"ce4bhgp2rcd13ifvqfd0","pricing_plan_id":"cebpf4jnsgd1na2vs0mg"},{"bike_id":"dbee219e-5153-4b73-9f21-b46d94357ac7","system_id":"levelo_inurba_marseille","lat":43.29891,"lon":5.38107,"is_reserved":false,"is_disabled":true,"rental_uris":{"android":"levelo://app?vid=dbee219e-5153-4b73-9f21-b46d94357ac7","ios":"levelo://app?vid=dbee219e-5153-4b73-9f21-b46d94357ac7"},"vehicle_type_id":"4","last_reported":1758960699,"current_range_meters":10800,"station_id":"ce4bgj12rcd13ifvqbc0","pricing_plan_id":"cebpf4jnsgd1na2vs0mg"},{"bike_id":"3652de56-c611-41c6-aa03-7fef6136da9d","system_id":"levelo_inurba_marseille","lat":43.24991,"lon":5.3893,"is_reserved":false,"is_disabled":false,"rental_uris":{"android":"levelo://app?vid=3652de56-c611-41c6-aa03-7fef6136da9d","ios":"levelo://app?vid=3652de56-c611-41c6-aa03-7fef6136da9d"},"vehicle_type_id":"4","last_reported":1758960699,"current_range_meters":11200,"station_id":"ce4bhgp2rcd13ifvqfd0","pricing_plan_id":"cebpf4jnsgd1na2vs0mg"},{"bike_id":"85782661-163d-4a8b-b5a4-1f0a766faaa2","system_id":"levelo_inurba_marseille","lat":43.24622,"lon":5.43149,"is_reserved":false,"is_disabled":false,"rental_uris":{"android":"levelo://app?vid=85782661-163d-4a8b-b5a4-1f0a766faaa2","ios":"levelo://app?vid=85782661-163d-4a8b-b5a4-1f0a766faaa2"},"vehicle_type_id":"4","last_reported":1758960699,"current_range_meters":11200,"station_id":"st_d2m6c4gdas8pm72e190g","pricing_plan_id":"cebpf4jnsgd1na2vs0mg"},{"bike_id":"fd4b5ad5-2581-44dd-90b2-f4a8fbdc2423","system_id":"levelo_inurba_marseille","lat":43.299011,"lon":5.364989,"is_reserved":false,"is_disabled":false,"rental_uris":{"android":"levelo://app?vid=fd4b5ad5-2581-44dd-90b2-f4a8fbdc2423","ios":"levelo://app?vid=fd4b5ad5-2581-44dd-90b2-f4a8fbdc2423"},"vehicle_type_id":"4","last_reported":1758960699,"current_range_meters":11200,"station_id":"","pricing_plan_id":"cebpf4jnsgd1na2vs0mg"},{"bike_id":"fc88e4a3-bba5-409d-aedf-70a9d539a9c0","system_id":"levelo_inurba_marseille","lat":43.308869,"lon":5.396352,"is_reserved":false,"is_disabled":false,"rental_uris":{"android":"levelo://app?vid=fc88e4a3-bba5-409d-aedf-70a9d539a9c0","ios":"levelo://app?vid=fc88e4a3-bba5-409d-aedf-70a9d539a9c0"},"vehicle_type_id":"4","last_reported":1758960699,"current_range_meters":11200,"station_id":"ce4bh012rcd13ifvqcv0","pricing_plan_id":"cebpf4jnsgd1na2vs0mg"},{"bike_id":"fee74e98-eb52-4f66-a612-109c75f34aa6","system_id":"levelo_inurba_marseille","lat":43.296216,"lon":5.379492,"is_reserved":false,"is_disabled":false,"rental_uris":{"android":"levelo://app?vid=fee74e98-eb52-4f66-a612-109c75f34aa6","ios":"levelo://app?vid=fee74e98-eb52-4f66-a612-109c75f34aa6"},"vehicle_type_id":"4","last_reported":1758960699,"current_range_meters":11200,"station_id":"","pricing_plan_id":"cebpf4jnsgd1na2vs0mg"},{"bike_id":"460dc79f-5575-4f99-ae1a-a43c8adf9ace","system_id":"levelo_inurba_marseille","lat":43.253451,"lon":5.421644,"is_reserved":false,"is_disabled":false,"rental_uris":{"android":"levelo://app?vid=460dc79f-5575-4f99-ae1a-a43c8adf9ace","ios":"levelo://app?vid=460dc79f-5575-4f99-ae1a-a43c8adf9ace"},"vehicle_type_id":"4","last_reported":1758960699,"current_range_meters":11200,"station_id":"st_d2m65c5bi1j21697t3ng","pricing_plan_id":"cebpf4jnsgd1na2vs0mg"},{"bike_id":"c37e5625-b670-436a-802f-d0e6109b1c8f","system_id":"levelo_inurba_marseille","lat":43.30155,"lon":5.38071,"is_reserved":false,"is_disabled":false,"rental_uris":{"android":"levelo://app?vid=c37e5625-b670-436a-802f-d0e6109b1c8f","ios":"levelo://app?vid=c37e5625-b670-436a-802f-d0e6109b1c8f"},"vehicle_type_id":"4","last_reported":1758960699,"current_range_meters":11200,"station_id":"ce4bgjp2rcd13ifvqbh0","pricing_plan_id":"cebpf4jnsgd1na2vs0mg"},{"bike_id":"8cf842e4-76c1-4a82-ad31-66529da65dba","system_id":"levelo_inurba_marseille","lat":43.26702,"lon":5.40242,"is_reserved":false,"is_disabled":false,"rental_uris":{"android":"levelo://app?vid=8cf842e4-76c1-4a82-ad31-66529da65dba","ios":"levelo://app?vid=8cf842e4-76c1-4a82-ad31-66529da65dba"},"vehicle_type_id":"4","last_reported":1758960699,"current_range_meters":11600,"station_id":"","pricing_plan_id":"cebpf4jnsgd1na2vs0mg"},{"bike_id":"735b4eef-5ed2-47aa-ab59-36616a810357","system_id":"levelo_inurba_marseille","lat":43.28046,"lon":5.39143,"is_reserved":false,"is_disabled":false,"rental_uris":{"android":"levelo://app?vid=735b4eef-5ed2-47aa-ab59-36616a810357","ios":"levelo://app?vid=735b4eef-5ed2-47aa-ab59-36616a810357"},"vehicle_type_id":"4","last_reported":1758960699,"current_range_meters":11600,"station_id":"","pricing_plan_id":"cebpf4jnsgd1na2vs0mg"},{"bike_id":"5a85c95d-db7c-4aff-bb3e-11fe5a5d2127","system_id":"levelo_inurba_marseille","lat":43.26558,"lon":5.39051,"is_reserved":false,"is_disabled":false,"rental_uris":{"android":"levelo://app?vid=5a85c95d-db7c-4aff-bb3e-11fe5a5d2127","ios":"levelo://app?vid=5a85c95d-db7c-4aff-bb3e-11fe5a5d2127"},"vehicle_type_id":"4","last_reported":1758960699,"current_range_meters":11600,"station_id":"ce4bhe12rcd13ifvqf30","pricing_plan_id":"cebpf4jnsgd1na2vs0mg"},{"bike_id":"9a36f4d5-b71c-4988-ae7e-8b34668c4163","system_id":"levelo_inurba_marseille","lat":43.299411,"lon":5.385201,"is_reserved":false,"is_disabled":false,"rental_uris":{"android":"levelo://app?vid=9a36f4d5-b71c-4988-ae7e-8b34668c4163","ios":"levelo://app?vid=9a36f4d5-b71c-4988-ae7e-8b34668c4163"},"vehicle_type_id":"4","last_reported":1758960699,"current_range_meters":11600,"station_id":"","pricing_plan_id":"cebpf4jnsgd1na2vs0mg"},{"bike_id":"6d6d8da8-e6bd-4401-8227-e4015a556e81","system_id":"levelo_inurba_marseille","lat":43.25114,"lon":5.40316,"is_reserved":false,"is_disabled":false,"rental_uris":{"android":"levelo://app?vid=6d6d8da8-e6bd-4401-8227-e4015a556e81","ios":"levelo://app?vid=6d6d8da8-e6bd-4401-8227-e4015a556e81"},"vehicle_type_id":"4","last_reported":1758960699,"current_range_meters":11600,"station_id":"ce4bhlh2rcd13ifvqgig","pricing_plan_id":"cebpf4jnsgd1na2vs0mg"},{"bike_id":"0cf97b39-df9d-481e-b032-3d63e88a5049","system_id":"levelo_inurba_marseille","lat":43.24794,"lon":5.37478,"is_reserved":false,"is_disabled":false,"rental_uris":{"android":"levelo://app?vid=0cf97b39-df9d-481e-b032-3d63e88a5049","ios":"levelo://app?vid=0cf97b39-df9d-481e-b032-3d63e88a5049"},"vehicle_type_id":"4","last_reported":1758960699,"current_range_meters":11600,"station_id":"ce4bhgh2rcd13ifvqfb0","pricing_plan_id":"cebpf4jnsgd1na2vs0mg"},{"bike_id":"cd52d724-6e36-4c8e-9efa-f35ff15b1a8b","system_id":"levelo_inurba_marseille","lat":43.3171,"lon":5.42438,"is_reserved":false,"is_disabled":false,"rental_uris":{"android":"levelo://app?vid=cd52d724-6e36-4c8e-9efa-f35ff15b1a8b","ios":"levelo://app?vid=cd52d724-6e36-4c8e-9efa-f35ff15b1a8b"},"vehicle_type_id":"4","last_reported":1758960699,"current_range_meters":11600,"station_id":"ce4bhp92rcd13ifvqhbg","pricing_plan_id":"cebpf4jnsgd1na2vs0mg"},{"bike_id":"ab915236-e4e0-43d4-b3d0-7dc20b4ec838","system_id":"levelo_inurba_marseille","lat":43.31333,"lon":5.36704,"is_reserved":false,"is_disabled":false,"rental_uris":{"android":"levelo://app?vid=ab915236-e4e0-43d4-b3d0-7dc20b4ec838","ios":"levelo://app?vid=ab915236-e4e0-43d4-b3d0-7dc20b4ec838"},"vehicle_type_id":"4","last_reported":1758960699,"current_range_meters":11600,"station_id":"ce4bgr92rcd13ifvqc6g","pricing_plan_id":"cebpf4jnsgd1na2vs0mg"},{"bike_id":"7266fb39-452a-4e7f-aafa-8725c9c5d955","system_id":"levelo_inurba_marseille","lat":43.2718,"lon":5.40996,"is_reserved":false,"is_disabled":false,"rental_uris":{"android":"levelo://app?vid=7266fb39-452a-4e7f-aafa-8725c9c5d955","ios":"levelo://app?vid=7266fb39-452a-4e7f-aafa-8725c9c5d955"},"vehicle_type_id":"4","last_reported":1758960699,"current_range_meters":12000,"station_id":"ce4bhl12rcd13ifvqgf0","pricing_plan_id":"cebpf4jnsgd1na2vs0mg"},{"bike_id":"a6187c30-1c11-4309-be70-335b3ca8c646","system_id":"levelo_inurba_marseille","lat":43.21184,"lon":5.3508,"is_reserved":false,"is_disabled":false,"rental_uris":{"android":"levelo://app?vid=a6187c30-1c11-4309-be70-335b3ca8c646","ios":"levelo://app?vid=a6187c30-1c11-4309-be70-335b3ca8c646"},"vehicle_type_id":"4","last_reported":1758960699,"current_range_meters":12000,"station_id":"","pricing_plan_id":"cebpf4jnsgd1na2vs0mg"},{"bike_id":"9bb4db31-0bf9-4171-bca1-76cb045f53a3","system_id":"levelo_inurba_marseille","lat":43.26924,"lon":5.389081,"is_reserved":false,"is_disabled":false,"rental_uris":{"android":"levelo://app?vid=9bb4db31-0bf9-4171-bca1-76cb045f53a3","ios":"levelo://app?vid=9bb4db31-0bf9-4171-bca1-76cb045f53a3"},"vehicle_type_id":"4","last_reported":1758960699,"current_range_meters":12000,"station_id":"ce4bhhh2rcd13ifvqfl0","pricing_plan_id":"cebpf4jnsgd1na2vs0mg"},{"bike_id":"ec348589-ff91-45a4-84f8-96a0dc2abb69","system_id":"levelo_inurba_marseille","lat":43.32726,"lon":5.3927,"is_reserved":false,"is_disabled":false,"rental_uris":{"android":"levelo://app?vid=ec348589-ff91-45a4-84f8-96a0dc2abb69","ios":"levelo://app?vid=ec348589-ff91-45a4-84f8-96a0dc2abb69"},"vehicle_type_id":"4","last_reported":1758960699,"current_range_meters":12000,"station_id":"","pricing_plan_id":"cebpf4jnsgd1na2vs0mg"},{"bike_id":"2a416e7a-1803-402e-9523-74bfe690bd54","system_id":"levelo_inurba_marseille","lat":43.32365,"lon":5.36767,"is_reserved":false,"is_disabled":false,"rental_uris":{"android":"levelo://app?vid=2a416e7a-1803-402e-9523-74bfe690bd54","ios":"levelo://app?vid=2a416e7a-1803-402e-9523-74bfe690bd54"},"vehicle_type_id":"4","last_reported":1758960699,"current_range_meters":12000,"station_id":"ce4bhsh2rcd13ifvqi2g","pricing_plan_id":"cebpf4jnsgd1na2vs0mg"},{"bike_id":"84576be0-79e2-4501-b565-989bebdccf2d","system_id":"levelo_inurba_marseille","lat":43.25099,"lon":5.39511,"is_reserved":false,"is_disabled":false,"rental_uris":{"android":"levelo://app?vid=84576be0-79e2-4501-b565-989bebdccf2d","ios":"levelo://app?vid=84576be0-79e2-4501-b565-989bebdccf2d"},"vehicle_type_id":"4","last_reported":1758960699,"current_range_meters":12400,"station_id":"ce4bhm12rcd13ifvqgkg","pricing_plan_id":"cebpf4jnsgd1na2vs0mg"},{"bike_id":"63d52c35-c9c9-44eb-9780-1b2f9145123b","system_id":"levelo_inurba_marseille","lat":43.29627,"lon":5.377037,"is_reserved":false,"is_disabled":false,"rental_uris":{"android":"levelo://app?vid=63d52c35-c9c9-44eb-9780-1b2f9145123b","ios":"levelo://app?vid=63d52c35-c9c9-44eb-9780-1b2f9145123b"},"vehicle_type_id":"4","last_reported":1758960699,"current_range_meters":12400,"station_id":"","pricing_plan_id":"cebpf4jnsgd1na2vs0mg"},{"bike_id":"01bf55f2-4ac6-46f6-8504-3267bf31e1a6","system_id":"levelo_inurba_marseille","lat":43.2973,"lon":5.381787,"is_reserved":false,"is_disabled":false,"rental_uris":{"android":"levelo://app?vid=01bf55f2-4ac6-46f6-8504-3267bf31e1a6","ios":"levelo://app?vid=01bf55f2-4ac6-46f6-8504-3267bf31e1a6"},"vehicle_type_id":"4","last_reported":1758960699,"current_range_meters":12400,"station_id":"","pricing_plan_id":"cebpf4jnsgd1na2vs0mg"},{"bike_id":"ed525bbd-b856-4ccb-98f4-4a06424e256f","system_id":"levelo_inurba_marseille","lat":43.28071,"lon":5.39659,"is_reserved":false,"is_disabled":false,"rental_uris":{"android":"levelo://app?vid=ed525bbd-b856-4ccb-98f4-4a06424e256f","ios":"levelo://app?vid=ed525bbd-b856-4ccb-98f4-4a06424e256f"},"vehicle_type_id":"4","last_reported":1758960699,"current_range_meters":12400,"station_id":"ce4bho12rcd13ifvqh2g","pricing_plan_id":"cebpf4jnsgd1na2vs0mg"},{"bike_id":"ee925a9c-c600-454e-8837-0da5956fd25f","system_id":"levelo_inurba_marseille","lat":43.2292,"lon":5.35384,"is_reserved":false,"is_disabled":false,"rental_uris":{"android":"levelo://app?vid=ee925a9c-c600-454e-8837-0da5956fd25f","ios":"levelo://app?vid=ee925a9c-c600-454e-8837-0da5956fd25f"},"vehicle_type_id":"4","last_reported":1758960699,"current_range_meters":12400,"station_id":"cpo3532slgdg3j2ikp40","pricing_plan_id":"cebpf4jnsgd1na2vs0mg"},{"bike_id":"45e07bae-690f-4ff3-a8bd-511d32841972","system_id":"levelo_inurba_marseille","lat":43.24653,"lon":5.40198,"is_reserved":false,"is_disabled":false,"rental_uris":{"android":"levelo://app?vid=45e07bae-690f-4ff3-a8bd-511d32841972","ios":"levelo://app?vid=45e07bae-690f-4ff3-a8bd-511d32841972"},"vehicle_type_id":"4","last_reported":1758960699,"current_range_meters":12800,"station_id":"","pricing_plan_id":"cebpf4jnsgd1na2vs0mg"},{"bike_id":"453cf56d-2688-46ef-862b-c5be6be57e1e","system_id":"levelo_inurba_marseille","lat":43.30922,"lon":5.4014,"is_reserved":false,"is_disabled":false,"rental_uris":{"android":"levelo://app?vid=453cf56d-2688-46ef-862b-c5be6be57e1e","ios":"levelo://app?vid=453cf56d-2688-46ef-862b-c5be6be57e1e"},"vehicle_type_id":"4","last_reported":1758960699,"current_range_meters":12800,"station_id":"ce4bgvp2rcd13ifvqct0","pricing_plan_id":"cebpf4jnsgd1na2vs0mg"},{"bike_id":"e8c51c17-19f3-4a36-b51c-2f9ea4777522","system_id":"levelo_inurba_marseille","lat":43.26551,"lon":5.39019,"is_reserved":false,"is_disabled":false,"rental_uris":{"android":"levelo://app?vid=e8c51c17-19f3-4a36-b51c-2f9ea4777522","ios":"levelo://app?vid=e8c51c17-19f3-4a36-b51c-2f9ea4777522"},"vehicle_type_id":"4","last_reported":1758960699,"current_range_meters":12800,"station_id":"ce4bhe12rcd13ifvqf30","pricing_plan_id":"cebpf4jnsgd1na2vs0mg"},{"bike_id":"1c14f608-9eb0-4b58-8221-e6e5ed28265b","system_id":"levelo_inurba_marseille","lat":43.24402,"lon":5.37072,"is_reserved":false,"is_disabled":false,"rental_uris":{"android":"levelo://app?vid=1c14f608-9eb0-4b58-8221-e6e5ed28265b","ios":"levelo://app?vid=1c14f608-9eb0-4b58-8221-e6e5ed28265b"},"vehicle_type_id":"4","last_reported":1758960699,"current_range_meters":12800,"station_id":"ce4bhhh2rcd13ifvqfk0","pricing_plan_id":"cebpf4jnsgd1na2vs0mg"},{"bike_id":"fc0516a3-c60c-4ef6-aa0f-b20216ddae8e","system_id":"levelo_inurba_marseille","lat":43.28959,"lon":5.37174,"is_reserved":false,"is_disabled":false,"rental_uris":{"android":"levelo://app?vid=fc0516a3-c60c-4ef6-aa0f-b20216ddae8e","ios":"levelo://app?vid=fc0516a3-c60c-4ef6-aa0f-b20216ddae8e"},"vehicle_type_id":"4","last_reported":1758960699,"current_range_meters":12800,"station_id":"","pricing_plan_id":"cebpf4jnsgd1na2vs0mg"},{"bike_id":"c8b1cf41-1849-4329-8ffa-26e75935d5f8","system_id":"levelo_inurba_marseille","lat":43.27068,"lon":5.42276,"is_reserved":false,"is_disabled":false,"rental_uris":{"android":"levelo://app?vid=c8b1cf41-1849-4329-8ffa-26e75935d5f8","ios":"levelo://app?vid=c8b1cf41-1849-4329-8ffa-26e75935d5f8"},"vehicle_type_id":"4","last_reported":1758960699,"current_range_meters":12800,"station_id":"ce4bhk92rcd13ifvqgb0","pricing_plan_id":"cebpf4jnsgd1na2vs0mg"},{"bike_id":"39e73ceb-60a7-4264-8736-2fb1b49c7fb4","system_id":"levelo_inurba_marseille","lat":43.25004,"lon":5.38938,"is_reserved":false,"is_disabled":false,"rental_uris":{"android":"levelo://app?vid=39e73ceb-60a7-4264-8736-2fb1b49c7fb4","ios":"levelo://app?vid=39e73ceb-60a7-4264-8736-2fb1b49c7fb4"},"vehicle_type_id":"4","last_reported":1758960699,"current_range_meters":12800,"station_id":"ce4bhgp2rcd13ifvqfd0","pricing_plan_id":"cebpf4jnsgd1na2vs0mg"},{"bike_id":"58c5d8d8-e7b2-499f-9416-b45356fd9694","system_id":"levelo_inurba_marseille","lat":43.24391,"lon":5.3706,"is_reserved":false,"is_disabled":false,"rental_uris":{"android":"levelo://app?vid=58c5d8d8-e7b2-499f-9416-b45356fd9694","ios":"levelo://app?vid=58c5d8d8-e7b2-499f-9416-b45356fd9694"},"vehicle_type_id":"4","last_reported":1758960699,"current_range_meters":13600,"station_id":"ce4bhhh2rcd13ifvqfk0","pricing_plan_id":"cebpf4jnsgd1na2vs0mg"},{"bike_id":"f3ef9752-6b80-4dbe-a156-d688042ef814","system_id":"levelo_inurba_marseille","lat":43.30135,"lon":5.3809,"is_reserved":false,"is_disabled":false,"rental_uris":{"android":"levelo://app?vid=f3ef9752-6b80-4dbe-a156-d688042ef814","ios":"levelo://app?vid=f3ef9752-6b80-4dbe-a156-d688042ef814"},"vehicle_type_id":"4","last_reported":1758960699,"current_range_meters":13600,"station_id":"ce4bgjp2rcd13ifvqbh0","pricing_plan_id":"cebpf4jnsgd1na2vs0mg"},{"bike_id":"934ea1ec-b7f6-49a1-9efa-287317d4eb22","system_id":"levelo_inurba_marseille","lat":43.29048,"lon":5.35914,"is_reserved":false,"is_disabled":false,"rental_uris":{"android":"levelo://app?vid=934ea1ec-b7f6-49a1-9efa-287317d4eb22","ios":"levelo://app?vid=934ea1ec-b7f6-49a1-9efa-287317d4eb22"},"vehicle_type_id":"4","last_reported":1758960699,"current_range_meters":13600,"station_id":"","pricing_plan_id":"cebpf4jnsgd1na2vs0mg"},{"bike_id":"052c59a7-1cc4-4bbc-97f5-180981a63118","system_id":"levelo_inurba_marseille","lat":43.24625,"lon":5.43139,"is_reserved":false,"is_disabled":false,"rental_uris":{"android":"levelo://app?vid=052c59a7-1cc4-4bbc-97f5-180981a63118","ios":"levelo://app?vid=052c59a7-1cc4-4bbc-97f5-180981a63118"},"vehicle_type_id":"4","last_reported":1758960699,"current_range_meters":13600,"station_id":"st_d2m6c4gdas8pm72e190g","pricing_plan_id":"cebpf4jnsgd1na2vs0mg"},{"bike_id":"80bdba63-46f3-4274-b0d9-d9711409b6a8","system_id":"levelo_inurba_marseille","lat":43.270752,"lon":5.402497,"is_reserved":false,"is_disabled":false,"rental_uris":{"android":"levelo://app?vid=80bdba63-46f3-4274-b0d9-d9711409b6a8","ios":"levelo://app?vid=80bdba63-46f3-4274-b0d9-d9711409b6a8"},"vehicle_type_id":"4","last_reported":1758960699,"current_range_meters":13600,"station_id":"","pricing_plan_id":"cebpf4jnsgd1na2vs0mg"},{"bike_id":"31a2accd-fac1-445a-96a9-4f1a04ab92f2","system_id":"levelo_inurba_marseille","lat":43.323525,"lon":5.406163,"is_reserved":false,"is_disabled":false,"rental_uris":{"android":"levelo://app?vid=31a2accd-fac1-445a-96a9-4f1a04ab92f2","ios":"levelo://app?vid=31a2accd-fac1-445a-96a9-4f1a04ab92f2"},"vehicle_type_id":"4","last_reported":1758960699,"current_range_meters":13600,"station_id":"ce4bhq92rcd13ifvqhjg","pricing_plan_id":"cebpf4jnsgd1na2vs0mg"},{"bike_id":"520768a5-0472-4840-8a30-038119547343","system_id":"levelo_inurba_marseille","lat":43.29865,"lon":5.39742,"is_reserved":false,"is_disabled":false,"rental_uris":{"android":"levelo://app?vid=520768a5-0472-4840-8a30-038119547343","ios":"levelo://app?vid=520768a5-0472-4840-8a30-038119547343"},"vehicle_type_id":"4","last_reported":1758960699,"current_range_meters":13600,"station_id":"ce4bh0h2rcd13ifvqd50","pricing_plan_id":"cebpf4jnsgd1na2vs0mg"},{"bike_id":"0b6d78ef-a482-414c-8c48-806956450260","system_id":"levelo_inurba_marseille","lat":43.306567,"lon":5.400777,"is_reserved":false,"is_disabled":false,"rental_uris":{"android":"levelo://app?vid=0b6d78ef-a482-414c-8c48-806956450260","ios":"levelo://app?vid=0b6d78ef-a482-414c-8c48-806956450260"},"vehicle_type_id":"4","last_reported":1758960699,"current_range_meters":13600,"station_id":"ce4bh112rcd13ifvqda0","pricing_plan_id":"cebpf4jnsgd1na2vs0mg"},{"bike_id":"a85c738a-1316-4889-b7f4-674fdfcaba7e","system_id":"levelo_inurba_marseille","lat":43.24651,"lon":5.40348,"is_reserved":false,"is_disabled":false,"rental_uris":{"android":"levelo://app?vid=a85c738a-1316-4889-b7f4-674fdfcaba7e","ios":"levelo://app?vid=a85c738a-1316-4889-b7f4-674fdfcaba7e"},"vehicle_type_id":"4","last_reported":1758960699,"current_range_meters":14000,"station_id":"","pricing_plan_id":"cebpf4jnsgd1na2vs0mg"},{"bike_id":"eb32315f-0124-4980-bb14-56cb7dc3d10d","system_id":"levelo_inurba_marseille","lat":43.240718,"lon":5.377713,"is_reserved":false,"is_disabled":false,"rental_uris":{"android":"levelo://app?vid=eb32315f-0124-4980-bb14-56cb7dc3d10d","ios":"levelo://app?vid=eb32315f-0124-4980-bb14-56cb7dc3d10d"},"vehicle_type_id":"4","last_reported":1758960699,"current_range_meters":14000,"station_id":"ce4bhnp2rcd13ifvqgvg","pricing_plan_id":"cebpf4jnsgd1na2vs0mg"},{"bike_id":"03ca5269-dc37-4abc-8845-9dd82fe8b800","system_id":"levelo_inurba_marseille","lat":43.31701,"lon":5.437,"is_reserved":false,"is_disabled":false,"rental_uris":{"android":"levelo://app?vid=03ca5269-dc37-4abc-8845-9dd82fe8b800","ios":"levelo://app?vid=03ca5269-dc37-4abc-8845-9dd82fe8b800"},"vehicle_type_id":"4","last_reported":1758960699,"current_range_meters":14000,"station_id":"ce4bhp92rcd13ifvqhcg","pricing_plan_id":"cebpf4jnsgd1na2vs0mg"},{"bike_id":"5ce6ff15-cd49-45d2-8bdc-549c9bae74c5","system_id":"levelo_inurba_marseille","lat":43.292276,"lon":5.3606,"is_reserved":false,"is_disabled":false,"rental_uris":{"android":"levelo://app?vid=5ce6ff15-cd49-45d2-8bdc-549c9bae74c5","ios":"levelo://app?vid=5ce6ff15-cd49-45d2-8bdc-549c9bae74c5"},"vehicle_type_id":"4","last_reported":1758960699,"current_range_meters":14000,"station_id":"ce4bhbh2rcd13ifvqeqg","pricing_plan_id":"cebpf4jnsgd1na2vs0mg"},{"bike_id":"df649d25-1f44-4471-8cdd-9566da8ef9b9","system_id":"levelo_inurba_marseille","lat":43.31744,"lon":5.39018,"is_reserved":false,"is_disabled":false,"rental_uris":{"android":"levelo://app?vid=df649d25-1f44-4471-8cdd-9566da8ef9b9","ios":"levelo://app?vid=df649d25-1f44-4471-8cdd-9566da8ef9b9"},"vehicle_type_id":"4","last_reported":1758960699,"current_range_meters":14400,"station_id":"ce4bhqp2rcd13ifvqhng","pricing_plan_id":"cebpf4jnsgd1na2vs0mg"},{"bike_id":"1c158e14-a73d-4102-8731-3e29785486e5","system_id":"levelo_inurba_marseille","lat":43.24075,"lon":5.37754,"is_reserved":false,"is_disabled":false,"rental_uris":{"android":"levelo://app?vid=1c158e14-a73d-4102-8731-3e29785486e5","ios":"levelo://app?vid=1c158e14-a73d-4102-8731-3e29785486e5"},"vehicle_type_id":"4","last_reported":1758960699,"current_range_meters":14400,"station_id":"ce4bhnp2rcd13ifvqgvg","pricing_plan_id":"cebpf4jnsgd1na2vs0mg"},{"bike_id":"9de5eb4a-2bba-4d94-b5d2-50807c7d8cc2","system_id":"levelo_inurba_marseille","lat":43.22534,"lon":5.34839,"is_reserved":false,"is_disabled":false,"rental_uris":{"android":"levelo://app?vid=9de5eb4a-2bba-4d94-b5d2-50807c7d8cc2","ios":"levelo://app?vid=9de5eb4a-2bba-4d94-b5d2-50807c7d8cc2"},"vehicle_type_id":"4","last_reported":1758960699,"current_range_meters":14400,"station_id":"","pricing_plan_id":"cebpf4jnsgd1na2vs0mg"},{"bike_id":"5bb42022-0e19-48bc-a5b4-218bb1d7482e","system_id":"levelo_inurba_marseille","lat":43.31255,"lon":5.37747,"is_reserved":false,"is_disabled":false,"rental_uris":{"android":"levelo://app?vid=5bb42022-0e19-48bc-a5b4-218bb1d7482e","ios":"levelo://app?vid=5bb42022-0e19-48bc-a5b4-218bb1d7482e"},"vehicle_type_id":"4","last_reported":1758960699,"current_range_meters":14400,"station_id":"","pricing_plan_id":"cebpf4jnsgd1na2vs0mg"},{"bike_id":"46ac5fb6-ac2e-43e8-84c9-c4e46889ea29","system_id":"levelo_inurba_marseille","lat":43.211974,"lon":5.350751,"is_reserved":false,"is_disabled":false,"rental_uris":{"android":"levelo://app?vid=46ac5fb6-ac2e-43e8-84c9-c4e46889ea29","ios":"levelo://app?vid=46ac5fb6-ac2e-43e8-84c9-c4e46889ea29"},"vehicle_type_id":"4","last_reported":1758960699,"current_range_meters":14400,"station_id":"st_cvj6sg6p6f1abm77japg","pricing_plan_id":"cebpf4jnsgd1na2vs0mg"},{"bike_id":"03350417-1098-4d6c-b8fe-9e64358744bf","system_id":"levelo_inurba_marseille","lat":43.31051,"lon":5.37584,"is_reserved":false,"is_disabled":false,"rental_uris":{"android":"levelo://app?vid=03350417-1098-4d6c-b8fe-9e64358744bf","ios":"levelo://app?vid=03350417-1098-4d6c-b8fe-9e64358744bf"},"vehicle_type_id":"4","last_reported":1758960699,"current_range_meters":14400,"station_id":"","pricing_plan_id":"cebpf4jnsgd1na2vs0mg"},{"bike_id":"cd119ae5-1417-41f1-a8e2-920696e70b86","system_id":"levelo_inurba_marseille","lat":43.22555,"lon":5.41641,"is_reserved":false,"is_disabled":false,"rental_uris":{"android":"levelo://app?vid=cd119ae5-1417-41f1-a8e2-920696e70b86","ios":"levelo://app?vid=cd119ae5-1417-41f1-a8e2-920696e70b86"},"vehicle_type_id":"4","last_reported":1758960699,"current_range_meters":14800,"station_id":"st_d2o4gvlbi1j2169b742g","pricing_plan_id":"cebpf4jnsgd1na2vs0mg"},{"bike_id":"665db91b-dd1b-4912-8590-8678ef4e8928","system_id":"levelo_inurba_marseille","lat":43.25123,"lon":5.4036,"is_reserved":false,"is_disabled":false,"rental_uris":{"android":"levelo://app?vid=665db91b-dd1b-4912-8590-8678ef4e8928","ios":"levelo://app?vid=665db91b-dd1b-4912-8590-8678ef4e8928"},"vehicle_type_id":"4","last_reported":1758960699,"current_range_meters":14800,"station_id":"ce4bhlh2rcd13ifvqgig","pricing_plan_id":"cebpf4jnsgd1na2vs0mg"},{"bike_id":"c1add67e-d97b-4ae5-9936-32890a5a6c38","system_id":"levelo_inurba_marseille","lat":43.26779,"lon":5.39415,"is_reserved":false,"is_disabled":false,"rental_uris":{"android":"levelo://app?vid=c1add67e-d97b-4ae5-9936-32890a5a6c38","ios":"levelo://app?vid=c1add67e-d97b-4ae5-9936-32890a5a6c38"},"vehicle_type_id":"4","last_reported":1758960699,"current_range_meters":14800,"station_id":"ce4bhh12rcd13ifvqfg0","pricing_plan_id":"cebpf4jnsgd1na2vs0mg"},{"bike_id":"1c3e2cf7-7039-483f-bd2a-6943b321f854","system_id":"levelo_inurba_marseille","lat":43.26407,"lon":5.41116,"is_reserved":false,"is_disabled":false,"rental_uris":{"android":"levelo://app?vid=1c3e2cf7-7039-483f-bd2a-6943b321f854","ios":"levelo://app?vid=1c3e2cf7-7039-483f-bd2a-6943b321f854"},"vehicle_type_id":"4","last_reported":1758960699,"current_range_meters":14800,"station_id":"","pricing_plan_id":"cebpf4jnsgd1na2vs0mg"},{"bike_id":"367cc5de-fbd0-47d1-8fa2-cb83d9fcf585","system_id":"levelo_inurba_marseille","lat":43.25828,"lon":5.39426,"is_reserved":false,"is_disabled":false,"rental_uris":{"android":"levelo://app?vid=367cc5de-fbd0-47d1-8fa2-cb83d9fcf585","ios":"levelo://app?vid=367cc5de-fbd0-47d1-8fa2-cb83d9fcf585"},"vehicle_type_id":"4","last_reported":1758960699,"current_range_meters":14800,"station_id":"ce4bhip2rcd13ifvqft0","pricing_plan_id":"cebpf4jnsgd1na2vs0mg"},{"bike_id":"71649b2c-48f8-4b8a-b9c0-477bd83fa14b","system_id":"levelo_inurba_marseille","lat":43.28415,"lon":5.35003,"is_reserved":false,"is_disabled":false,"rental_uris":{"android":"levelo://app?vid=71649b2c-48f8-4b8a-b9c0-477bd83fa14b","ios":"levelo://app?vid=71649b2c-48f8-4b8a-b9c0-477bd83fa14b"},"vehicle_type_id":"4","last_reported":1758960699,"current_range_meters":15200,"station_id":"ce4bhbh2rcd13ifvqepg","pricing_plan_id":"cebpf4jnsgd1na2vs0mg"},{"bike_id":"327c041e-5c9e-4b0d-a97c-a2dbaab036ae","system_id":"levelo_inurba_marseille","lat":43.32813,"lon":5.4113,"is_reserved":false,"is_disabled":false,"rental_uris":{"android":"levelo://app?vid=327c041e-5c9e-4b0d-a97c-a2dbaab036ae","ios":"levelo://app?vid=327c041e-5c9e-4b0d-a97c-a2dbaab036ae"},"vehicle_type_id":"4","last_reported":1758960699,"current_range_meters":15200,"station_id":"","pricing_plan_id":"cebpf4jnsgd1na2vs0mg"},{"bike_id":"d753618e-83c9-4154-a6f0-8f9d7aab3bc8","system_id":"levelo_inurba_marseille","lat":43.26022,"lon":5.3755,"is_reserved":false,"is_disabled":false,"rental_uris":{"android":"levelo://app?vid=d753618e-83c9-4154-a6f0-8f9d7aab3bc8","ios":"levelo://app?vid=d753618e-83c9-4154-a6f0-8f9d7aab3bc8"},"vehicle_type_id":"4","last_reported":1758960699,"current_range_meters":15200,"station_id":"ce4bhgh2rcd13ifvqfa0","pricing_plan_id":"cebpf4jnsgd1na2vs0mg"},{"bike_id":"53f2ada2-9e8e-42f9-b6af-c41b3996fb09","system_id":"levelo_inurba_marseille","lat":43.29872,"lon":5.39728,"is_reserved":false,"is_disabled":false,"rental_uris":{"android":"levelo://app?vid=53f2ada2-9e8e-42f9-b6af-c41b3996fb09","ios":"levelo://app?vid=53f2ada2-9e8e-42f9-b6af-c41b3996fb09"},"vehicle_type_id":"4","last_reported":1758960699,"current_range_meters":15200,"station_id":"ce4bh0h2rcd13ifvqd50","pricing_plan_id":"cebpf4jnsgd1na2vs0mg"},{"bike_id":"a73de0de-3f37-4157-90a0-3b873c167b76","system_id":"levelo_inurba_marseille","lat":43.29215,"lon":5.3607,"is_reserved":false,"is_disabled":false,"rental_uris":{"android":"levelo://app?vid=a73de0de-3f37-4157-90a0-3b873c167b76","ios":"levelo://app?vid=a73de0de-3f37-4157-90a0-3b873c167b76"},"vehicle_type_id":"4","last_reported":1758960699,"current_range_meters":16000,"station_id":"ce4bhbh2rcd13ifvqeqg","pricing_plan_id":"cebpf4jnsgd1na2vs0mg"},{"bike_id":"9feae468-b8bd-422a-8fcb-2d68fc5ee82c","system_id":"levelo_inurba_marseille","lat":43.33384,"lon":5.42015,"is_reserved":false,"is_disabled":false,"rental_uris":{"android":"levelo://app?vid=9feae468-b8bd-422a-8fcb-2d68fc5ee82c","ios":"levelo://app?vid=9feae468-b8bd-422a-8fcb-2d68fc5ee82c"},"vehicle_type_id":"4","last_reported":1758960699,"current_range_meters":16000,"station_id":"","pricing_plan_id":"cebpf4jnsgd1na2vs0mg"},{"bike_id":"a4ba26dc-2f32-48e5-bf18-4cc12ac5d755","system_id":"levelo_inurba_marseille","lat":43.27054,"lon":5.42281,"is_reserved":false,"is_disabled":false,"rental_uris":{"android":"levelo://app?vid=a4ba26dc-2f32-48e5-bf18-4cc12ac5d755","ios":"levelo://app?vid=a4ba26dc-2f32-48e5-bf18-4cc12ac5d755"},"vehicle_type_id":"4","last_reported":1758960699,"current_range_meters":16000,"station_id":"ce4bhk92rcd13ifvqgb0","pricing_plan_id":"cebpf4jnsgd1na2vs0mg"},{"bike_id":"18a681d0-322e-4d29-9b19-e34de899730a","system_id":"levelo_inurba_marseille","lat":43.30548,"lon":5.36539,"is_reserved":false,"is_disabled":false,"rental_uris":{"android":"levelo://app?vid=18a681d0-322e-4d29-9b19-e34de899730a","ios":"levelo://app?vid=18a681d0-322e-4d29-9b19-e34de899730a"},"vehicle_type_id":"4","last_reported":1758960699,"current_range_meters":16000,"station_id":"ce4bgs12rcd13ifvqcag","pricing_plan_id":"cebpf4jnsgd1na2vs0mg"},{"bike_id":"398ee6a3-1ca0-4a39-b8ef-9410f4339bd9","system_id":"levelo_inurba_marseille","lat":43.2416,"lon":5.36408,"is_reserved":false,"is_disabled":false,"rental_uris":{"android":"levelo://app?vid=398ee6a3-1ca0-4a39-b8ef-9410f4339bd9","ios":"levelo://app?vid=398ee6a3-1ca0-4a39-b8ef-9410f4339bd9"},"vehicle_type_id":"4","last_reported":1758960699,"current_range_meters":16000,"station_id":"cpo36qri1sfpv3e86is0","pricing_plan_id":"cebpf4jnsgd1na2vs0mg"},{"bike_id":"71c5f8cc-6881-46b9-bbbc-8164fe7d6eaa","system_id":"levelo_inurba_marseille","lat":43.25119,"lon":5.40314,"is_reserved":false,"is_disabled":false,"rental_uris":{"android":"levelo://app?vid=71c5f8cc-6881-46b9-bbbc-8164fe7d6eaa","ios":"levelo://app?vid=71c5f8cc-6881-46b9-bbbc-8164fe7d6eaa"},"vehicle_type_id":"4","last_reported":1758960699,"current_range_meters":16000,"station_id":"ce4bhlh2rcd13ifvqgig","pricing_plan_id":"cebpf4jnsgd1na2vs0mg"},{"bike_id":"4436834c-2e38-4057-b027-a5233599b710","system_id":"levelo_inurba_marseille","lat":43.2318,"lon":5.39989,"is_reserved":false,"is_disabled":false,"rental_uris":{"android":"levelo://app?vid=4436834c-2e38-4057-b027-a5233599b710","ios":"levelo://app?vid=4436834c-2e38-4057-b027-a5233599b710"},"vehicle_type_id":"4","last_reported":1758960699,"current_range_meters":16000,"station_id":"ce4bhn12rcd13ifvqgqg","pricing_plan_id":"cebpf4jnsgd1na2vs0mg"},{"bike_id":"7c52b079-c905-4381-9f05-d50602f93e5f","system_id":"levelo_inurba_marseille","lat":43.21749,"lon":5.34599,"is_reserved":false,"is_disabled":false,"rental_uris":{"android":"levelo://app?vid=7c52b079-c905-4381-9f05-d50602f93e5f","ios":"levelo://app?vid=7c52b079-c905-4381-9f05-d50602f93e5f"},"vehicle_type_id":"4","last_reported":1758960699,"current_range_meters":16000,"station_id":"","pricing_plan_id":"cebpf4jnsgd1na2vs0mg"},{"bike_id":"aa1ef45f-f323-4723-9180-ea0318bf8a28","system_id":"levelo_inurba_marseille","lat":43.32329,"lon":5.40616,"is_reserved":false,"is_disabled":false,"rental_uris":{"android":"levelo://app?vid=aa1ef45f-f323-4723-9180-ea0318bf8a28","ios":"levelo://app?vid=aa1ef45f-f323-4723-9180-ea0318bf8a28"},"vehicle_type_id":"4","last_reported":1758960699,"current_range_meters":16400,"station_id":"ce4bhq92rcd13ifvqhjg","pricing_plan_id":"cebpf4jnsgd1na2vs0mg"},{"bike_id":"85c7ac65-0172-4766-8977-f4ba34ed9c93","system_id":"levelo_inurba_marseille","lat":43.25331,"lon":5.4217,"is_reserved":false,"is_disabled":false,"rental_uris":{"android":"levelo://app?vid=85c7ac65-0172-4766-8977-f4ba34ed9c93","ios":"levelo://app?vid=85c7ac65-0172-4766-8977-f4ba34ed9c93"},"vehicle_type_id":"4","last_reported":1758960699,"current_range_meters":16400,"station_id":"st_d2m65c5bi1j21697t3ng","pricing_plan_id":"cebpf4jnsgd1na2vs0mg"},{"bike_id":"60ef707f-22ce-4566-aae4-8970d2991590","system_id":"levelo_inurba_marseille","lat":43.304231,"lon":5.397434,"is_reserved":false,"is_disabled":false,"rental_uris":{"android":"levelo://app?vid=60ef707f-22ce-4566-aae4-8970d2991590","ios":"levelo://app?vid=60ef707f-22ce-4566-aae4-8970d2991590"},"vehicle_type_id":"4","last_reported":1758960699,"current_range_meters":16400,"station_id":"","pricing_plan_id":"cebpf4jnsgd1na2vs0mg"},{"bike_id":"ef755c66-7861-4426-8d6b-6bfa164e35f4","system_id":"levelo_inurba_marseille","lat":43.26941,"lon":5.38627,"is_reserved":false,"is_disabled":false,"rental_uris":{"android":"levelo://app?vid=ef755c66-7861-4426-8d6b-6bfa164e35f4","ios":"levelo://app?vid=ef755c66-7861-4426-8d6b-6bfa164e35f4"},"vehicle_type_id":"4","last_reported":1758960699,"current_range_meters":16400,"station_id":"ce4bhh92rcd13ifvqfh0","pricing_plan_id":"cebpf4jnsgd1na2vs0mg"},{"bike_id":"317f2be1-b105-402c-900f-6b3ae07bb4db","system_id":"levelo_inurba_marseille","lat":43.24164,"lon":5.36402,"is_reserved":false,"is_disabled":false,"rental_uris":{"android":"levelo://app?vid=317f2be1-b105-402c-900f-6b3ae07bb4db","ios":"levelo://app?vid=317f2be1-b105-402c-900f-6b3ae07bb4db"},"vehicle_type_id":"4","last_reported":1758960699,"current_range_meters":16400,"station_id":"cpo36qri1sfpv3e86is0","pricing_plan_id":"cebpf4jnsgd1na2vs0mg"},{"bike_id":"46c22c63-b9aa-4fad-a46f-cd003d26bd11","system_id":"levelo_inurba_marseille","lat":43.30891,"lon":5.37187,"is_reserved":false,"is_disabled":false,"rental_uris":{"android":"levelo://app?vid=46c22c63-b9aa-4fad-a46f-cd003d26bd11","ios":"levelo://app?vid=46c22c63-b9aa-4fad-a46f-cd003d26bd11"},"vehicle_type_id":"4","last_reported":1758960699,"current_range_meters":14800,"station_id":"ce4bguh2rcd13ifvqckg","pricing_plan_id":"cebpf4jnsgd1na2vs0mg"},{"bike_id":"6fbef51e-815f-44f1-844b-e8c9d10753b8","system_id":"levelo_inurba_marseille","lat":43.27161,"lon":5.41005,"is_reserved":false,"is_disabled":false,"rental_uris":{"android":"levelo://app?vid=6fbef51e-815f-44f1-844b-e8c9d10753b8","ios":"levelo://app?vid=6fbef51e-815f-44f1-844b-e8c9d10753b8"},"vehicle_type_id":"4","last_reported":1758960699,"current_range_meters":16800,"station_id":"ce4bhl12rcd13ifvqgf0","pricing_plan_id":"cebpf4jnsgd1na2vs0mg"},{"bike_id":"cb0a43cc-2f6b-482a-91bb-c383cccf5be4","system_id":"levelo_inurba_marseille","lat":43.31982,"lon":5.38033,"is_reserved":false,"is_disabled":false,"rental_uris":{"android":"levelo://app?vid=cb0a43cc-2f6b-482a-91bb-c383cccf5be4","ios":"levelo://app?vid=cb0a43cc-2f6b-482a-91bb-c383cccf5be4"},"vehicle_type_id":"4","last_reported":1758960699,"current_range_meters":16800,"station_id":"","pricing_plan_id":"cebpf4jnsgd1na2vs0mg"},{"bike_id":"4c02c545-ad59-45b1-9b9c-d3678a5922c7","system_id":"levelo_inurba_marseille","lat":43.337444,"lon":5.374475,"is_reserved":false,"is_disabled":false,"rental_uris":{"android":"levelo://app?vid=4c02c545-ad59-45b1-9b9c-d3678a5922c7","ios":"levelo://app?vid=4c02c545-ad59-45b1-9b9c-d3678a5922c7"},"vehicle_type_id":"4","last_reported":1758960699,"current_range_meters":16800,"station_id":"","pricing_plan_id":"cebpf4jnsgd1na2vs0mg"},{"bike_id":"3fccd8f6-2dcb-412d-8982-fb947c83a223","system_id":"levelo_inurba_marseille","lat":43.31107,"lon":5.37761,"is_reserved":false,"is_disabled":false,"rental_uris":{"android":"levelo://app?vid=3fccd8f6-2dcb-412d-8982-fb947c83a223","ios":"levelo://app?vid=3fccd8f6-2dcb-412d-8982-fb947c83a223"},"vehicle_type_id":"4","last_reported":1758960699,"current_range_meters":16800,"station_id":"ce4bgt92rcd13ifvqcg0","pricing_plan_id":"cebpf4jnsgd1na2vs0mg"},{"bike_id":"569a862b-43e7-4f17-bccb-3602f06fb171","system_id":"levelo_inurba_marseille","lat":43.262265,"lon":5.374583,"is_reserved":false,"is_disabled":false,"rental_uris":{"android":"levelo://app?vid=569a862b-43e7-4f17-bccb-3602f06fb171","ios":"levelo://app?vid=569a862b-43e7-4f17-bccb-3602f06fb171"},"vehicle_type_id":"4","last_reported":1758960699,"current_range_meters":16800,"station_id":"","pricing_plan_id":"cebpf4jnsgd1na2vs0mg"},{"bike_id":"3c406417-c9c2-4748-906e-a2fb7326e10c","system_id":"levelo_inurba_marseille","lat":43.28698,"lon":5.39973,"is_reserved":false,"is_disabled":false,"rental_uris":{"android":"levelo://app?vid=3c406417-c9c2-4748-906e-a2fb7326e10c","ios":"levelo://app?vid=3c406417-c9c2-4748-906e-a2fb7326e10c"},"vehicle_type_id":"4","last_reported":1758960699,"current_range_meters":16800,"station_id":"ce4bho92rcd13ifvqh3g","pricing_plan_id":"cebpf4jnsgd1na2vs0mg"},{"bike_id":"7aac2627-6b70-4df7-ad8a-6082bb89c0b7","system_id":"levelo_inurba_marseille","lat":43.2511,"lon":5.40323,"is_reserved":false,"is_disabled":false,"rental_uris":{"android":"levelo://app?vid=7aac2627-6b70-4df7-ad8a-6082bb89c0b7","ios":"levelo://app?vid=7aac2627-6b70-4df7-ad8a-6082bb89c0b7"},"vehicle_type_id":"4","last_reported":1758960699,"current_range_meters":16800,"station_id":"ce4bhlh2rcd13ifvqgig","pricing_plan_id":"cebpf4jnsgd1na2vs0mg"},{"bike_id":"28ee8c09-1dd8-4072-8a3e-fbfd6fb6b45b","system_id":"levelo_inurba_marseille","lat":43.31897,"lon":5.40727,"is_reserved":false,"is_disabled":false,"rental_uris":{"android":"levelo://app?vid=28ee8c09-1dd8-4072-8a3e-fbfd6fb6b45b","ios":"levelo://app?vid=28ee8c09-1dd8-4072-8a3e-fbfd6fb6b45b"},"vehicle_type_id":"4","last_reported":1758960699,"current_range_meters":17200,"station_id":"ce4bhq12rcd13ifvqhig","pricing_plan_id":"cebpf4jnsgd1na2vs0mg"},{"bike_id":"795e28c7-3b59-411f-bea5-03115d2870c9","system_id":"levelo_inurba_marseille","lat":43.25824,"lon":5.39437,"is_reserved":false,"is_disabled":false,"rental_uris":{"android":"levelo://app?vid=795e28c7-3b59-411f-bea5-03115d2870c9","ios":"levelo://app?vid=795e28c7-3b59-411f-bea5-03115d2870c9"},"vehicle_type_id":"4","last_reported":1758960699,"current_range_meters":16800,"station_id":"ce4bhip2rcd13ifvqft0","pricing_plan_id":"cebpf4jnsgd1na2vs0mg"},{"bike_id":"dc4883ea-8f06-44d1-8b3d-6660e39a87ec","system_id":"levelo_inurba_marseille","lat":43.217652,"lon":5.345877,"is_reserved":false,"is_disabled":true,"rental_uris":{"android":"levelo://app?vid=dc4883ea-8f06-44d1-8b3d-6660e39a87ec","ios":"levelo://app?vid=dc4883ea-8f06-44d1-8b3d-6660e39a87ec"},"vehicle_type_id":"4","last_reported":1758960699,"current_range_meters":17200,"station_id":"st_cvj6r9ubvosntc0bgbag","pricing_plan_id":"cebpf4jnsgd1na2vs0mg"},{"bike_id":"4f5a88f0-fd06-4a49-be33-193b1dc49457","system_id":"levelo_inurba_marseille","lat":43.30408,"lon":5.41284,"is_reserved":false,"is_disabled":true,"rental_uris":{"android":"levelo://app?vid=4f5a88f0-fd06-4a49-be33-193b1dc49457","ios":"levelo://app?vid=4f5a88f0-fd06-4a49-be33-193b1dc49457"},"vehicle_type_id":"4","last_reported":1758960699,"current_range_meters":17200,"station_id":"ce4bhop2rcd13ifvqh8g","pricing_plan_id":"cebpf4jnsgd1na2vs0mg"},{"bike_id":"cf0349d2-e796-490f-997d-7cf8135b7efd","system_id":"levelo_inurba_marseille","lat":43.25571,"lon":5.38252,"is_reserved":false,"is_disabled":false,"rental_uris":{"android":"levelo://app?vid=cf0349d2-e796-490f-997d-7cf8135b7efd","ios":"levelo://app?vid=cf0349d2-e796-490f-997d-7cf8135b7efd"},"vehicle_type_id":"4","last_reported":1758960699,"current_range_meters":17200,"station_id":"ce4bhih2rcd13ifvqfs0","pricing_plan_id":"cebpf4jnsgd1na2vs0mg"},{"bike_id":"809498ec-17c7-4be3-af91-40663913f97a","system_id":"levelo_inurba_marseille","lat":43.25085,"lon":5.4035,"is_reserved":false,"is_disabled":false,"rental_uris":{"android":"levelo://app?vid=809498ec-17c7-4be3-af91-40663913f97a","ios":"levelo://app?vid=809498ec-17c7-4be3-af91-40663913f97a"},"vehicle_type_id":"4","last_reported":1758960699,"current_range_meters":17200,"station_id":"ce4bhlh2rcd13ifvqgig","pricing_plan_id":"cebpf4jnsgd1na2vs0mg"},{"bike_id":"d66cd03b-dbeb-4aa4-961e-bd97aeefe4a4","system_id":"levelo_inurba_marseille","lat":43.259629,"lon":5.413685,"is_reserved":false,"is_disabled":false,"rental_uris":{"android":"levelo://app?vid=d66cd03b-dbeb-4aa4-961e-bd97aeefe4a4","ios":"levelo://app?vid=d66cd03b-dbeb-4aa4-961e-bd97aeefe4a4"},"vehicle_type_id":"4","last_reported":1758960699,"current_range_meters":17200,"station_id":"","pricing_plan_id":"cebpf4jnsgd1na2vs0mg"},{"bike_id":"be5bbc58-3292-463a-9aed-cc5eac2aaff6","system_id":"levelo_inurba_marseille","lat":43.24664,"lon":5.38136,"is_reserved":false,"is_disabled":false,"rental_uris":{"android":"levelo://app?vid=be5bbc58-3292-463a-9aed-cc5eac2aaff6","ios":"levelo://app?vid=be5bbc58-3292-463a-9aed-cc5eac2aaff6"},"vehicle_type_id":"4","last_reported":1758960699,"current_range_meters":17600,"station_id":"ce4bhih2rcd13ifvqfr0","pricing_plan_id":"cebpf4jnsgd1na2vs0mg"},{"bike_id":"976fd36e-2f5c-424c-baa8-068b37f1eb42","system_id":"levelo_inurba_marseille","lat":43.27564,"lon":5.38429,"is_reserved":false,"is_disabled":false,"rental_uris":{"android":"levelo://app?vid=976fd36e-2f5c-424c-baa8-068b37f1eb42","ios":"levelo://app?vid=976fd36e-2f5c-424c-baa8-068b37f1eb42"},"vehicle_type_id":"4","last_reported":1758960699,"current_range_meters":17600,"station_id":"ce4bhh92rcd13ifvqfi0","pricing_plan_id":"cebpf4jnsgd1na2vs0mg"},{"bike_id":"a5ff59a1-1644-4b76-9136-59d47ea9f820","system_id":"levelo_inurba_marseille","lat":43.30912,"lon":5.37489,"is_reserved":false,"is_disabled":false,"rental_uris":{"android":"levelo://app?vid=a5ff59a1-1644-4b76-9136-59d47ea9f820","ios":"levelo://app?vid=a5ff59a1-1644-4b76-9136-59d47ea9f820"},"vehicle_type_id":"4","last_reported":1758960699,"current_range_meters":17600,"station_id":"","pricing_plan_id":"cebpf4jnsgd1na2vs0mg"},{"bike_id":"75a1808b-f036-45a0-9b9e-d8442cdf8f90","system_id":"levelo_inurba_marseille","lat":43.25001,"lon":5.38936,"is_reserved":false,"is_disabled":false,"rental_uris":{"android":"levelo://app?vid=75a1808b-f036-45a0-9b9e-d8442cdf8f90","ios":"levelo://app?vid=75a1808b-f036-45a0-9b9e-d8442cdf8f90"},"vehicle_type_id":"4","last_reported":1758960699,"current_range_meters":17600,"station_id":"ce4bhgp2rcd13ifvqfd0","pricing_plan_id":"cebpf4jnsgd1na2vs0mg"},{"bike_id":"c19a096d-6bfd-4347-9445-ece358d57b77","system_id":"levelo_inurba_marseille","lat":43.30659,"lon":5.40254,"is_reserved":false,"is_disabled":false,"rental_uris":{"android":"levelo://app?vid=c19a096d-6bfd-4347-9445-ece358d57b77","ios":"levelo://app?vid=c19a096d-6bfd-4347-9445-ece358d57b77"},"vehicle_type_id":"4","last_reported":1758960699,"current_range_meters":17600,"station_id":"","pricing_plan_id":"cebpf4jnsgd1na2vs0mg"},{"bike_id":"54e7e81f-be08-40ef-af55-88274545b504","system_id":"levelo_inurba_marseille","lat":43.30317,"lon":5.40441,"is_reserved":false,"is_disabled":false,"rental_uris":{"android":"levelo://app?vid=54e7e81f-be08-40ef-af55-88274545b504","ios":"levelo://app?vid=54e7e81f-be08-40ef-af55-88274545b504"},"vehicle_type_id":"4","last_reported":1758960699,"current_range_meters":17600,"station_id":"ce4bh012rcd13ifvqd10","pricing_plan_id":"cebpf4jnsgd1na2vs0mg"},{"bike_id":"6f967dbd-9923-4c9d-8f8e-66d348ba5e74","system_id":"levelo_inurba_marseille","lat":43.25494,"lon":5.37648,"is_reserved":false,"is_disabled":false,"rental_uris":{"android":"levelo://app?vid=6f967dbd-9923-4c9d-8f8e-66d348ba5e74","ios":"levelo://app?vid=6f967dbd-9923-4c9d-8f8e-66d348ba5e74"},"vehicle_type_id":"4","last_reported":1758960699,"current_range_meters":17600,"station_id":"ce4bhh12rcd13ifvqff0","pricing_plan_id":"cebpf4jnsgd1na2vs0mg"},{"bike_id":"54fff988-c74f-45fc-a0eb-29489bfa1777","system_id":"levelo_inurba_marseille","lat":43.2463,"lon":5.3889,"is_reserved":false,"is_disabled":false,"rental_uris":{"android":"levelo://app?vid=54fff988-c74f-45fc-a0eb-29489bfa1777","ios":"levelo://app?vid=54fff988-c74f-45fc-a0eb-29489bfa1777"},"vehicle_type_id":"4","last_reported":1758960699,"current_range_meters":17600,"station_id":"ce4bhg12rcd13ifvqf60","pricing_plan_id":"cebpf4jnsgd1na2vs0mg"},{"bike_id":"8ba5e33b-48f1-42b5-a531-76085f7229c8","system_id":"levelo_inurba_marseille","lat":43.246341,"lon":5.431464,"is_reserved":false,"is_disabled":false,"rental_uris":{"android":"levelo://app?vid=8ba5e33b-48f1-42b5-a531-76085f7229c8","ios":"levelo://app?vid=8ba5e33b-48f1-42b5-a531-76085f7229c8"},"vehicle_type_id":"4","last_reported":1758960699,"current_range_meters":17600,"station_id":"st_d2m6c4gdas8pm72e190g","pricing_plan_id":"cebpf4jnsgd1na2vs0mg"},{"bike_id":"61f72c81-84af-4d24-903d-9a7cb27e68a1","system_id":"levelo_inurba_marseille","lat":43.24651,"lon":5.43134,"is_reserved":false,"is_disabled":false,"rental_uris":{"android":"levelo://app?vid=61f72c81-84af-4d24-903d-9a7cb27e68a1","ios":"levelo://app?vid=61f72c81-84af-4d24-903d-9a7cb27e68a1"},"vehicle_type_id":"4","last_reported":1758960699,"current_range_meters":17600,"station_id":"st_d2m6c4gdas8pm72e190g","pricing_plan_id":"cebpf4jnsgd1na2vs0mg"},{"bike_id":"9a3f3972-6426-45ed-a084-7f45c8c77358","system_id":"levelo_inurba_marseille","lat":43.27498,"lon":5.42444,"is_reserved":false,"is_disabled":false,"rental_uris":{"android":"levelo://app?vid=9a3f3972-6426-45ed-a084-7f45c8c77358","ios":"levelo://app?vid=9a3f3972-6426-45ed-a084-7f45c8c77358"},"vehicle_type_id":"4","last_reported":1758960699,"current_range_meters":17600,"station_id":"ce4bhn92rcd13ifvqgrg","pricing_plan_id":"cebpf4jnsgd1na2vs0mg"},{"bike_id":"4f5f9b8a-cf53-40f1-bb39-f7718febf450","system_id":"levelo_inurba_marseille","lat":43.28929,"lon":5.36395,"is_reserved":false,"is_disabled":false,"rental_uris":{"android":"levelo://app?vid=4f5f9b8a-cf53-40f1-bb39-f7718febf450","ios":"levelo://app?vid=4f5f9b8a-cf53-40f1-bb39-f7718febf450"},"vehicle_type_id":"4","last_reported":1758960699,"current_range_meters":18000,"station_id":"ce4bhc92rcd13ifvqetg","pricing_plan_id":"cebpf4jnsgd1na2vs0mg"},{"bike_id":"80a1468f-cd11-4e7d-a7a1-61a690ce0617","system_id":"levelo_inurba_marseille","lat":43.27047,"lon":5.42271,"is_reserved":false,"is_disabled":false,"rental_uris":{"android":"levelo://app?vid=80a1468f-cd11-4e7d-a7a1-61a690ce0617","ios":"levelo://app?vid=80a1468f-cd11-4e7d-a7a1-61a690ce0617"},"vehicle_type_id":"4","last_reported":1758960699,"current_range_meters":18000,"station_id":"ce4bhk92rcd13ifvqgb0","pricing_plan_id":"cebpf4jnsgd1na2vs0mg"},{"bike_id":"d55e72cf-944a-4608-8c58-6a41695b302e","system_id":"levelo_inurba_marseille","lat":43.31079,"lon":5.38376,"is_reserved":false,"is_disabled":false,"rental_uris":{"android":"levelo://app?vid=d55e72cf-944a-4608-8c58-6a41695b302e","ios":"levelo://app?vid=d55e72cf-944a-4608-8c58-6a41695b302e"},"vehicle_type_id":"4","last_reported":1758960699,"current_range_meters":18000,"station_id":"ce4bgv92rcd13ifvqcr0","pricing_plan_id":"cebpf4jnsgd1na2vs0mg"},{"bike_id":"2d967268-bf6e-4120-9c7c-f7aae6350590","system_id":"levelo_inurba_marseille","lat":43.31676,"lon":5.40468,"is_reserved":false,"is_disabled":false,"rental_uris":{"android":"levelo://app?vid=2d967268-bf6e-4120-9c7c-f7aae6350590","ios":"levelo://app?vid=2d967268-bf6e-4120-9c7c-f7aae6350590"},"vehicle_type_id":"4","last_reported":1758960699,"current_range_meters":18000,"station_id":"ce4bh012rcd13ifvqd00","pricing_plan_id":"cebpf4jnsgd1na2vs0mg"},{"bike_id":"2243febf-ebaf-474b-8e3e-799410e4c867","system_id":"levelo_inurba_marseille","lat":43.32563,"lon":5.36349,"is_reserved":false,"is_disabled":false,"rental_uris":{"android":"levelo://app?vid=2243febf-ebaf-474b-8e3e-799410e4c867","ios":"levelo://app?vid=2243febf-ebaf-474b-8e3e-799410e4c867"},"vehicle_type_id":"4","last_reported":1758960699,"current_range_meters":18000,"station_id":"","pricing_plan_id":"cebpf4jnsgd1na2vs0mg"},{"bike_id":"2e2effc8-fb5e-4a41-afb9-91cfb6bf939f","system_id":"levelo_inurba_marseille","lat":43.24805,"lon":5.37455,"is_reserved":false,"is_disabled":false,"rental_uris":{"android":"levelo://app?vid=2e2effc8-fb5e-4a41-afb9-91cfb6bf939f","ios":"levelo://app?vid=2e2effc8-fb5e-4a41-afb9-91cfb6bf939f"},"vehicle_type_id":"4","last_reported":1758960699,"current_range_meters":18000,"station_id":"ce4bhgh2rcd13ifvqfb0","pricing_plan_id":"cebpf4jnsgd1na2vs0mg"},{"bike_id":"224456f7-755b-48c3-be3b-f5ee7830c7bc","system_id":"levelo_inurba_marseille","lat":43.32055,"lon":5.41554,"is_reserved":false,"is_disabled":false,"rental_uris":{"android":"levelo://app?vid=224456f7-755b-48c3-be3b-f5ee7830c7bc","ios":"levelo://app?vid=224456f7-755b-48c3-be3b-f5ee7830c7bc"},"vehicle_type_id":"4","last_reported":1758960699,"current_range_meters":18000,"station_id":"ce4bhq92rcd13ifvqhkg","pricing_plan_id":"cebpf4jnsgd1na2vs0mg"},{"bike_id":"d04d69ab-b81a-4e04-b105-360a2ca4e5b6","system_id":"levelo_inurba_marseille","lat":43.23181,"lon":5.4,"is_reserved":false,"is_disabled":false,"rental_uris":{"android":"levelo://app?vid=d04d69ab-b81a-4e04-b105-360a2ca4e5b6","ios":"levelo://app?vid=d04d69ab-b81a-4e04-b105-360a2ca4e5b6"},"vehicle_type_id":"4","last_reported":1758960699,"current_range_meters":18000,"station_id":"ce4bhn12rcd13ifvqgqg","pricing_plan_id":"cebpf4jnsgd1na2vs0mg"},{"bike_id":"88417ecf-3b45-4a85-b3ba-a098b1b6b1ed","system_id":"levelo_inurba_marseille","lat":43.27316,"lon":5.38539,"is_reserved":false,"is_disabled":false,"rental_uris":{"android":"levelo://app?vid=88417ecf-3b45-4a85-b3ba-a098b1b6b1ed","ios":"levelo://app?vid=88417ecf-3b45-4a85-b3ba-a098b1b6b1ed"},"vehicle_type_id":"4","last_reported":1758960699,"current_range_meters":18000,"station_id":"","pricing_plan_id":"cebpf4jnsgd1na2vs0mg"},{"bike_id":"0d0352bf-f394-45c0-baef-aa15dd4a4c38","system_id":"levelo_inurba_marseille","lat":43.24654,"lon":5.43126,"is_reserved":false,"is_disabled":false,"rental_uris":{"android":"levelo://app?vid=0d0352bf-f394-45c0-baef-aa15dd4a4c38","ios":"levelo://app?vid=0d0352bf-f394-45c0-baef-aa15dd4a4c38"},"vehicle_type_id":"4","last_reported":1758960699,"current_range_meters":18000,"station_id":"st_d2m6c4gdas8pm72e190g","pricing_plan_id":"cebpf4jnsgd1na2vs0mg"},{"bike_id":"91f03681-11bd-4a24-811a-6c09a89c8efe","system_id":"levelo_inurba_marseille","lat":43.24999,"lon":5.38927,"is_reserved":false,"is_disabled":false,"rental_uris":{"android":"levelo://app?vid=91f03681-11bd-4a24-811a-6c09a89c8efe","ios":"levelo://app?vid=91f03681-11bd-4a24-811a-6c09a89c8efe"},"vehicle_type_id":"4","last_reported":1758960699,"current_range_meters":18000,"station_id":"ce4bhgp2rcd13ifvqfd0","pricing_plan_id":"cebpf4jnsgd1na2vs0mg"},{"bike_id":"9d9cb4e9-d21a-4a45-b390-b7b55c6d9b4d","system_id":"levelo_inurba_marseille","lat":43.27051,"lon":5.40268,"is_reserved":false,"is_disabled":false,"rental_uris":{"android":"levelo://app?vid=9d9cb4e9-d21a-4a45-b390-b7b55c6d9b4d","ios":"levelo://app?vid=9d9cb4e9-d21a-4a45-b390-b7b55c6d9b4d"},"vehicle_type_id":"4","last_reported":1758960699,"current_range_meters":18000,"station_id":"ce4bhk92rcd13ifvqgc0","pricing_plan_id":"cebpf4jnsgd1na2vs0mg"},{"bike_id":"49cc1930-269d-4bd6-8804-0c6869823a2d","system_id":"levelo_inurba_marseille","lat":43.2418,"lon":5.39727,"is_reserved":false,"is_disabled":false,"rental_uris":{"android":"levelo://app?vid=49cc1930-269d-4bd6-8804-0c6869823a2d","ios":"levelo://app?vid=49cc1930-269d-4bd6-8804-0c6869823a2d"},"vehicle_type_id":"4","last_reported":1758960699,"current_range_meters":18000,"station_id":"ce4bhn12rcd13ifvqgpg","pricing_plan_id":"cebpf4jnsgd1na2vs0mg"},{"bike_id":"9a819dc8-447d-4df7-8b5f-0b18332a26a7","system_id":"levelo_inurba_marseille","lat":43.29005,"lon":5.3865,"is_reserved":false,"is_disabled":true,"rental_uris":{"android":"levelo://app?vid=9a819dc8-447d-4df7-8b5f-0b18332a26a7","ios":"levelo://app?vid=9a819dc8-447d-4df7-8b5f-0b18332a26a7"},"vehicle_type_id":"4","last_reported":1758960699,"current_range_meters":18000,"station_id":"ce4bh4p2rcd13ifvqe0g","pricing_plan_id":"cebpf4jnsgd1na2vs0mg"},{"bike_id":"258ab053-1083-4ca9-a32a-1e85f085fc22","system_id":"levelo_inurba_marseille","lat":43.337444,"lon":5.374475,"is_reserved":false,"is_disabled":false,"rental_uris":{"android":"levelo://app?vid=258ab053-1083-4ca9-a32a-1e85f085fc22","ios":"levelo://app?vid=258ab053-1083-4ca9-a32a-1e85f085fc22"},"vehicle_type_id":"4","last_reported":1758960699,"current_range_meters":18000,"station_id":"","pricing_plan_id":"cebpf4jnsgd1na2vs0mg"},{"bike_id":"94c907cb-ff8c-42ef-93bd-027ccdbc3487","system_id":"levelo_inurba_marseille","lat":43.29252,"lon":5.36859,"is_reserved":false,"is_disabled":false,"rental_uris":{"android":"levelo://app?vid=94c907cb-ff8c-42ef-93bd-027ccdbc3487","ios":"levelo://app?vid=94c907cb-ff8c-42ef-93bd-027ccdbc3487"},"vehicle_type_id":"4","last_reported":1758960699,"current_range_meters":18800,"station_id":"ce4bhbp2rcd13ifvqesg","pricing_plan_id":"cebpf4jnsgd1na2vs0mg"},{"bike_id":"736ae3fd-2a7d-4623-b035-fd9a456bd909","system_id":"levelo_inurba_marseille","lat":43.27899,"lon":5.38007,"is_reserved":false,"is_disabled":false,"rental_uris":{"android":"levelo://app?vid=736ae3fd-2a7d-4623-b035-fd9a456bd909","ios":"levelo://app?vid=736ae3fd-2a7d-4623-b035-fd9a456bd909"},"vehicle_type_id":"4","last_reported":1758960699,"current_range_meters":18800,"station_id":"ce4bhf92rcd13ifvqf50","pricing_plan_id":"cebpf4jnsgd1na2vs0mg"},{"bike_id":"85281e4f-a640-4e95-9ed3-f61c9f551e60","system_id":"levelo_inurba_marseille","lat":43.22535,"lon":5.41693,"is_reserved":false,"is_disabled":false,"rental_uris":{"android":"levelo://app?vid=85281e4f-a640-4e95-9ed3-f61c9f551e60","ios":"levelo://app?vid=85281e4f-a640-4e95-9ed3-f61c9f551e60"},"vehicle_type_id":"4","last_reported":1758960699,"current_range_meters":18800,"station_id":"st_d2o4gvlbi1j2169b742g","pricing_plan_id":"cebpf4jnsgd1na2vs0mg"},{"bike_id":"c3540d4b-6b27-44ad-8e52-a31bb0e59238","system_id":"levelo_inurba_marseille","lat":43.28699,"lon":5.40021,"is_reserved":false,"is_disabled":false,"rental_uris":{"android":"levelo://app?vid=c3540d4b-6b27-44ad-8e52-a31bb0e59238","ios":"levelo://app?vid=c3540d4b-6b27-44ad-8e52-a31bb0e59238"},"vehicle_type_id":"4","last_reported":1758960699,"current_range_meters":18800,"station_id":"ce4bho92rcd13ifvqh3g","pricing_plan_id":"cebpf4jnsgd1na2vs0mg"},{"bike_id":"4bc5ce2a-a943-49ff-b51f-ff13b97e7de5","system_id":"levelo_inurba_marseille","lat":43.28826,"lon":5.35831,"is_reserved":false,"is_disabled":false,"rental_uris":{"android":"levelo://app?vid=4bc5ce2a-a943-49ff-b51f-ff13b97e7de5","ios":"levelo://app?vid=4bc5ce2a-a943-49ff-b51f-ff13b97e7de5"},"vehicle_type_id":"4","last_reported":1758960699,"current_range_meters":18800,"station_id":"ce4bhb12rcd13ifvqem0","pricing_plan_id":"cebpf4jnsgd1na2vs0mg"},{"bike_id":"a938d35e-65f3-4d42-b164-197702b1b5bd","system_id":"levelo_inurba_marseille","lat":43.33747,"lon":5.37453,"is_reserved":false,"is_disabled":false,"rental_uris":{"android":"levelo://app?vid=a938d35e-65f3-4d42-b164-197702b1b5bd","ios":"levelo://app?vid=a938d35e-65f3-4d42-b164-197702b1b5bd"},"vehicle_type_id":"4","last_reported":1758960699,"current_range_meters":18800,"station_id":"","pricing_plan_id":"cebpf4jnsgd1na2vs0mg"},{"bike_id":"ce90b0c1-6c36-4837-a050-6c45b26dd091","system_id":"levelo_inurba_marseille","lat":43.23184,"lon":5.35586,"is_reserved":false,"is_disabled":false,"rental_uris":{"android":"levelo://app?vid=ce90b0c1-6c36-4837-a050-6c45b26dd091","ios":"levelo://app?vid=ce90b0c1-6c36-4837-a050-6c45b26dd091"},"vehicle_type_id":"4","last_reported":1758960699,"current_range_meters":18800,"station_id":"ce4bhu92rcd13ifvqi70","pricing_plan_id":"cebpf4jnsgd1na2vs0mg"},{"bike_id":"20f3037e-5eb2-41d8-85bc-19d5a3fd98b2","system_id":"levelo_inurba_marseille","lat":43.25578,"lon":5.38233,"is_reserved":false,"is_disabled":false,"rental_uris":{"android":"levelo://app?vid=20f3037e-5eb2-41d8-85bc-19d5a3fd98b2","ios":"levelo://app?vid=20f3037e-5eb2-41d8-85bc-19d5a3fd98b2"},"vehicle_type_id":"4","last_reported":1758960699,"current_range_meters":18800,"station_id":"ce4bhih2rcd13ifvqfs0","pricing_plan_id":"cebpf4jnsgd1na2vs0mg"},{"bike_id":"a709973b-47e3-4942-88bd-f9706d2222eb","system_id":"levelo_inurba_marseille","lat":43.21217,"lon":5.35052,"is_reserved":false,"is_disabled":false,"rental_uris":{"android":"levelo://app?vid=a709973b-47e3-4942-88bd-f9706d2222eb","ios":"levelo://app?vid=a709973b-47e3-4942-88bd-f9706d2222eb"},"vehicle_type_id":"4","last_reported":1758960699,"current_range_meters":18800,"station_id":"","pricing_plan_id":"cebpf4jnsgd1na2vs0mg"},{"bike_id":"d02b558e-758e-4a0b-b868-d8421befd034","system_id":"levelo_inurba_marseille","lat":43.324768,"lon":5.365595,"is_reserved":false,"is_disabled":false,"rental_uris":{"android":"levelo://app?vid=d02b558e-758e-4a0b-b868-d8421befd034","ios":"levelo://app?vid=d02b558e-758e-4a0b-b868-d8421befd034"},"vehicle_type_id":"4","last_reported":1758960699,"current_range_meters":18800,"station_id":"ce4bhs12rcd13ifvqhvg","pricing_plan_id":"cebpf4jnsgd1na2vs0mg"},{"bike_id":"0415890b-d5b8-4d33-833b-9e116991d70e","system_id":"levelo_inurba_marseille","lat":43.29188,"lon":5.39326,"is_reserved":false,"is_disabled":false,"rental_uris":{"android":"levelo://app?vid=0415890b-d5b8-4d33-833b-9e116991d70e","ios":"levelo://app?vid=0415890b-d5b8-4d33-833b-9e116991d70e"},"vehicle_type_id":"4","last_reported":1758960699,"current_range_meters":18800,"station_id":"ce4bh192rcd13ifvqdd0","pricing_plan_id":"cebpf4jnsgd1na2vs0mg"},{"bike_id":"b8ed05fe-79e0-4c32-857b-6ff12081a4a0","system_id":"levelo_inurba_marseille","lat":43.30144,"lon":5.38088,"is_reserved":false,"is_disabled":false,"rental_uris":{"android":"levelo://app?vid=b8ed05fe-79e0-4c32-857b-6ff12081a4a0","ios":"levelo://app?vid=b8ed05fe-79e0-4c32-857b-6ff12081a4a0"},"vehicle_type_id":"4","last_reported":1758960699,"current_range_meters":19200,"station_id":"ce4bgjp2rcd13ifvqbh0","pricing_plan_id":"cebpf4jnsgd1na2vs0mg"},{"bike_id":"95bafeb0-6c7b-407a-a73b-a6569ff5cb66","system_id":"levelo_inurba_marseille","lat":43.30839,"lon":5.37103,"is_reserved":false,"is_disabled":false,"rental_uris":{"android":"levelo://app?vid=95bafeb0-6c7b-407a-a73b-a6569ff5cb66","ios":"levelo://app?vid=95bafeb0-6c7b-407a-a73b-a6569ff5cb66"},"vehicle_type_id":"4","last_reported":1758960699,"current_range_meters":19200,"station_id":"","pricing_plan_id":"cebpf4jnsgd1na2vs0mg"},{"bike_id":"2c6518be-b3f0-42d2-93c9-c1de9e54885f","system_id":"levelo_inurba_marseille","lat":43.29227,"lon":5.38219,"is_reserved":false,"is_disabled":false,"rental_uris":{"android":"levelo://app?vid=2c6518be-b3f0-42d2-93c9-c1de9e54885f","ios":"levelo://app?vid=2c6518be-b3f0-42d2-93c9-c1de9e54885f"},"vehicle_type_id":"4","last_reported":1758960699,"current_range_meters":19200,"station_id":"","pricing_plan_id":"cebpf4jnsgd1na2vs0mg"},{"bike_id":"3cb1dae7-6bcd-41e5-b1b7-c1d25c751a99","system_id":"levelo_inurba_marseille","lat":43.337635,"lon":5.374385,"is_reserved":false,"is_disabled":false,"rental_uris":{"android":"levelo://app?vid=3cb1dae7-6bcd-41e5-b1b7-c1d25c751a99","ios":"levelo://app?vid=3cb1dae7-6bcd-41e5-b1b7-c1d25c751a99"},"vehicle_type_id":"4","last_reported":1758960699,"current_range_meters":19200,"station_id":"","pricing_plan_id":"cebpf4jnsgd1na2vs0mg"},{"bike_id":"d15ab4b0-88ac-4a2f-96b6-8adca8dc45ed","system_id":"levelo_inurba_marseille","lat":43.231813,"lon":5.399919,"is_reserved":false,"is_disabled":false,"rental_uris":{"android":"levelo://app?vid=d15ab4b0-88ac-4a2f-96b6-8adca8dc45ed","ios":"levelo://app?vid=d15ab4b0-88ac-4a2f-96b6-8adca8dc45ed"},"vehicle_type_id":"4","last_reported":1758960699,"current_range_meters":19200,"station_id":"ce4bhn12rcd13ifvqgqg","pricing_plan_id":"cebpf4jnsgd1na2vs0mg"},{"bike_id":"5fe7f407-3191-4d84-bcf8-5bce6d58e56d","system_id":"levelo_inurba_marseille","lat":43.22924,"lon":5.35384,"is_reserved":false,"is_disabled":false,"rental_uris":{"android":"levelo://app?vid=5fe7f407-3191-4d84-bcf8-5bce6d58e56d","ios":"levelo://app?vid=5fe7f407-3191-4d84-bcf8-5bce6d58e56d"},"vehicle_type_id":"4","last_reported":1758960699,"current_range_meters":19200,"station_id":"cpo3532slgdg3j2ikp40","pricing_plan_id":"cebpf4jnsgd1na2vs0mg"},{"bike_id":"7ac81eae-aed2-4f3f-a100-b35f399befc9","system_id":"levelo_inurba_marseille","lat":43.25099,"lon":5.40324,"is_reserved":false,"is_disabled":false,"rental_uris":{"android":"levelo://app?vid=7ac81eae-aed2-4f3f-a100-b35f399befc9","ios":"levelo://app?vid=7ac81eae-aed2-4f3f-a100-b35f399befc9"},"vehicle_type_id":"4","last_reported":1758960699,"current_range_meters":19200,"station_id":"ce4bhlh2rcd13ifvqgig","pricing_plan_id":"cebpf4jnsgd1na2vs0mg"},{"bike_id":"c081d6ac-5788-49e0-94f1-f96219519e58","system_id":"levelo_inurba_marseille","lat":43.24646,"lon":5.38892,"is_reserved":false,"is_disabled":false,"rental_uris":{"android":"levelo://app?vid=c081d6ac-5788-49e0-94f1-f96219519e58","ios":"levelo://app?vid=c081d6ac-5788-49e0-94f1-f96219519e58"},"vehicle_type_id":"4","last_reported":1758960699,"current_range_meters":19200,"station_id":"ce4bhg12rcd13ifvqf60","pricing_plan_id":"cebpf4jnsgd1na2vs0mg"},{"bike_id":"1dad2113-89e2-44fc-a0b6-ddd6a09baff1","system_id":"levelo_inurba_marseille","lat":43.337444,"lon":5.374475,"is_reserved":false,"is_disabled":false,"rental_uris":{"android":"levelo://app?vid=1dad2113-89e2-44fc-a0b6-ddd6a09baff1","ios":"levelo://app?vid=1dad2113-89e2-44fc-a0b6-ddd6a09baff1"},"vehicle_type_id":"4","last_reported":1758960699,"current_range_meters":19200,"station_id":"","pricing_plan_id":"cebpf4jnsgd1na2vs0mg"},{"bike_id":"151d75a0-434c-41d6-a3a8-42bc6a9a604c","system_id":"levelo_inurba_marseille","lat":43.31757,"lon":5.39017,"is_reserved":false,"is_disabled":false,"rental_uris":{"android":"levelo://app?vid=151d75a0-434c-41d6-a3a8-42bc6a9a604c","ios":"levelo://app?vid=151d75a0-434c-41d6-a3a8-42bc6a9a604c"},"vehicle_type_id":"4","last_reported":1758960699,"current_range_meters":19600,"station_id":"ce4bgt92rcd13ifvqcf0","pricing_plan_id":"cebpf4jnsgd1na2vs0mg"},{"bike_id":"fa58a715-5241-40e2-9067-9950150ea8a4","system_id":"levelo_inurba_marseille","lat":43.29259,"lon":5.409,"is_reserved":false,"is_disabled":false,"rental_uris":{"android":"levelo://app?vid=fa58a715-5241-40e2-9067-9950150ea8a4","ios":"levelo://app?vid=fa58a715-5241-40e2-9067-9950150ea8a4"},"vehicle_type_id":"4","last_reported":1758960699,"current_range_meters":19600,"station_id":"ce4bh192rcd13ifvqdc0","pricing_plan_id":"cebpf4jnsgd1na2vs0mg"},{"bike_id":"4a20e211-a20a-4315-85c2-a3b98401a12c","system_id":"levelo_inurba_marseille","lat":43.29365,"lon":5.37835,"is_reserved":false,"is_disabled":false,"rental_uris":{"android":"levelo://app?vid=4a20e211-a20a-4315-85c2-a3b98401a12c","ios":"levelo://app?vid=4a20e211-a20a-4315-85c2-a3b98401a12c"},"vehicle_type_id":"4","last_reported":1758960699,"current_range_meters":19200,"station_id":"ce4bgjh2rcd13ifvqbf0","pricing_plan_id":"cebpf4jnsgd1na2vs0mg"},{"bike_id":"646f0f8c-16c8-42a4-ac83-c3b6e75ee5de","system_id":"levelo_inurba_marseille","lat":43.261963,"lon":5.379094,"is_reserved":false,"is_disabled":false,"rental_uris":{"android":"levelo://app?vid=646f0f8c-16c8-42a4-ac83-c3b6e75ee5de","ios":"levelo://app?vid=646f0f8c-16c8-42a4-ac83-c3b6e75ee5de"},"vehicle_type_id":"4","last_reported":1758960699,"current_range_meters":19600,"station_id":"ce4bhjp2rcd13ifvqg90","pricing_plan_id":"cebpf4jnsgd1na2vs0mg"},{"bike_id":"67ce24ae-94e5-4973-b016-d38e83715ffb","system_id":"levelo_inurba_marseille","lat":43.27417,"lon":5.39404,"is_reserved":false,"is_disabled":false,"rental_uris":{"android":"levelo://app?vid=67ce24ae-94e5-4973-b016-d38e83715ffb","ios":"levelo://app?vid=67ce24ae-94e5-4973-b016-d38e83715ffb"},"vehicle_type_id":"4","last_reported":1758960699,"current_range_meters":19600,"station_id":"ce4bhdp2rcd13ifvqf20","pricing_plan_id":"cebpf4jnsgd1na2vs0mg"},{"bike_id":"0656741e-4baa-4804-921b-3ed5233045aa","system_id":"levelo_inurba_marseille","lat":43.24645,"lon":5.43145,"is_reserved":false,"is_disabled":false,"rental_uris":{"android":"levelo://app?vid=0656741e-4baa-4804-921b-3ed5233045aa","ios":"levelo://app?vid=0656741e-4baa-4804-921b-3ed5233045aa"},"vehicle_type_id":"4","last_reported":1758960699,"current_range_meters":19600,"station_id":"st_d2m6c4gdas8pm72e190g","pricing_plan_id":"cebpf4jnsgd1na2vs0mg"},{"bike_id":"f7fdaffe-9356-46f8-aafc-07fc7b568a2a","system_id":"levelo_inurba_marseille","lat":43.287085,"lon":5.399942,"is_reserved":false,"is_disabled":false,"rental_uris":{"android":"levelo://app?vid=f7fdaffe-9356-46f8-aafc-07fc7b568a2a","ios":"levelo://app?vid=f7fdaffe-9356-46f8-aafc-07fc7b568a2a"},"vehicle_type_id":"4","last_reported":1758960699,"current_range_meters":19600,"station_id":"ce4bho92rcd13ifvqh3g","pricing_plan_id":"cebpf4jnsgd1na2vs0mg"},{"bike_id":"4eb59af1-2103-4348-9205-cf62452bc5eb","system_id":"levelo_inurba_marseille","lat":43.29274,"lon":5.36844,"is_reserved":false,"is_disabled":false,"rental_uris":{"android":"levelo://app?vid=4eb59af1-2103-4348-9205-cf62452bc5eb","ios":"levelo://app?vid=4eb59af1-2103-4348-9205-cf62452bc5eb"},"vehicle_type_id":"4","last_reported":1758960699,"current_range_meters":20000,"station_id":"ce4bhbp2rcd13ifvqesg","pricing_plan_id":"cebpf4jnsgd1na2vs0mg"},{"bike_id":"4ef4f8d0-f207-4f7d-8888-7557127a78de","system_id":"levelo_inurba_marseille","lat":43.306026,"lon":5.419311,"is_reserved":false,"is_disabled":false,"rental_uris":{"android":"levelo://app?vid=4ef4f8d0-f207-4f7d-8888-7557127a78de","ios":"levelo://app?vid=4ef4f8d0-f207-4f7d-8888-7557127a78de"},"vehicle_type_id":"4","last_reported":1758960699,"current_range_meters":19600,"station_id":"ce4bhp92rcd13ifvqhcg","pricing_plan_id":"cebpf4jnsgd1na2vs0mg"},{"bike_id":"1ce51a8c-0434-4f6b-bf1c-d54018762b35","system_id":"levelo_inurba_marseille","lat":43.31887,"lon":5.40734,"is_reserved":false,"is_disabled":false,"rental_uris":{"android":"levelo://app?vid=1ce51a8c-0434-4f6b-bf1c-d54018762b35","ios":"levelo://app?vid=1ce51a8c-0434-4f6b-bf1c-d54018762b35"},"vehicle_type_id":"4","last_reported":1758960699,"current_range_meters":20000,"station_id":"ce4bhq12rcd13ifvqhig","pricing_plan_id":"cebpf4jnsgd1na2vs0mg"},