{"last_updated":1745608073,"ttl":60,"version":"2.2","data":{"bikes":[{"bike_id":"476e50ce-28ba-410a-9e09-f7d0ec67d6d9","system_id":"levelo_inurba_marseille","lat":43.29072,"lon":5.38172,"is_reserved":false,"is_disabled":false,"rental_uris":{"android":"levelo://app?vid=476e50ce-28ba-410a-9e09-f7d0ec67d6d9","ios":"levelo://app?vid=476e50ce-28ba-410a-9e09-f7d0ec67d6d9"},"vehicle_type_id":"4","last_reported":1745608073,"current_range_meters":2800,"station_id":"ce4bh512rcd13ifvqe2g","pricing_plan_id":"cebpf4jnsgd1na2vs0mg"},{"bike_id":"76e15636-5e80-4447-859b-31aec23ac2ac","system_id":"levelo_inurba_marseille","lat":43.289399,"lon":5.366428,"is_reserved":false,"is_disabled":false,"rental_uris":{"android":"levelo://app?vid=76e15636-5e80-4447-859b-31aec23ac2ac","ios":"levelo://app?vid=76e15636-5e80-4447-859b-31aec23ac2ac"},"vehicle_type_id":"4","last_reported":1745608073,"current_range_meters":2800,"station_id":"ce4bhap2rcd13ifvqek0","pricing_plan_id":"cebpf4jnsgd1na2vs0mg"},{"bike_id":"eef66cd2-af18-4ce6-9f49-a60e87016bb8","system_id":"levelo_inurba_marseille","lat":43.27951,"lon":5.37902,"is_reserved":false,"is_disabled":false,"rental_uris":{"android":"levelo://app?vid=eef66cd2-af18-4ce6-9f49-a60e87016bb8","ios":"levelo://app?vid=eef66cd2-af18-4ce6-9f49-a60e87016bb8"},"vehicle_type_id":"4","last_reported":1745608073,"current_range_meters":2800,"station_id":"","pricing_plan_id":"cebpf4jnsgd1na2vs0mg"},{"bike_id":"1e14dbf4-1f09-4150-b135-9acd8e164fa1","system_id":"levelo_inurba_marseille","lat":43.29203,"lon":5.39312,"is_reserved":false,"is_disabled":false,"rental_uris":{"android":"levelo://app?vid=1e14dbf4-1f09-4150-b135-9acd8e164fa1","ios":"levelo://app?vid=1e14dbf4-1f09-4150-b135-9acd8e164fa1"},"vehicle_type_id":"4","last_reported":1745608073,"current_range_meters":2800,"station_id":"ce4bh192rcd13ifvqdd0","pricing_plan_id":"cebpf4jnsgd1na2vs0mg"},{"bike_id":"04de76c4-a1ad-45bf-9e28-7c78bfcbb5c0","system_id":"levelo_inurba_marseille","lat":43.25212,"lon":5.37418,"is_reserved":false,"is_disabled":false,"rental_uris":{"android":"levelo://app?vid=04de76c4-a1ad-45bf-9e28-7c78bfcbb5c0","ios":"levelo://app?vid=04de76c4-a1ad-45bf-9e28-7c78bfcbb5c0"},"vehicle_type_id":"4","last_reported":1745608073,"current_range_meters":2800,"station_id":"","pricing_plan_id":"cebpf4jnsgd1na2vs0mg"},{"bike_id":"fd265570-119b-4158-9264-8701f39090e6","system_id":"levelo_inurba_marseille","lat":43.29063,"lon":5.37142,"is_reserved":false,"is_disabled":true,"rental_uris":{"android":"levelo://app?vid=fd265570-119b-4158-9264-8701f39090e6","ios":"levelo://app?vid=fd265570-119b-4158-9264-8701f39090e6"},"vehicle_type_id":"4","last_reported":1745608073,"current_range_meters":3200,"station_id":"ce4bh5p2rcd13ifvqe4g","pricing_plan_id":"cebpf4jnsgd1na2vs0mg"},{"bike_id":"17212859-5048-489d-8287-c4d9619e0597","system_id":"levelo_inurba_marseille","lat":43.21194,"lon":5.35067,"is_reserved":false,"is_disabled":false,"rental_uris":{"android":"levelo://app?vid=17212859-5048-489d-8287-c4d9619e0597","ios":"levelo://app?vid=17212859-5048-489d-8287-c4d9619e0597"},"vehicle_type_id":"4","last_reported":1745608073,"current_range_meters":3200,"station_id":"st_cvj6sg6p6f1abm77japg","pricing_plan_id":"cebpf4jnsgd1na2vs0mg"},{"bike_id":"7bc9e0f0-1858-48cc-bec0-f8a244c96ec7","system_id":"levelo_inurba_marseille","lat":43.27497,"lon":5.42466,"is_reserved":false,"is_disabled":true,"rental_uris":{"android":"levelo://app?vid=7bc9e0f0-1858-48cc-bec0-f8a244c96ec7","ios":"levelo://app?vid=7bc9e0f0-1858-48cc-bec0-f8a244c96ec7"},"vehicle_type_id":"4","last_reported":1745608073,"current_range_meters":3200,"station_id":"ce4bhn92rcd13ifvqgrg","pricing_plan_id":"cebpf4jnsgd1na2vs0mg"},{"bike_id":"db2c16aa-7c8e-4694-813a-d0227cd09b78","system_id":"levelo_inurba_marseille","lat":43.31488,"lon":5.37261,"is_reserved":false,"is_disabled":false,"rental_uris":{"android":"levelo://app?vid=db2c16aa-7c8e-4694-813a-d0227cd09b78","ios":"levelo://app?vid=db2c16aa-7c8e-4694-813a-d0227cd09b78"},"vehicle_type_id":"4","last_reported":1745608073,"current_range_meters":3200,"station_id":"ce4bgt12rcd13ifvqcd0","pricing_plan_id":"cebpf4jnsgd1na2vs0mg"},{"bike_id":"83cf408d-bd48-48dc-ac06-024e0418cc58","system_id":"levelo_inurba_marseille","lat":43.29301,"lon":5.3743,"is_reserved":false,"is_disabled":true,"rental_uris":{"android":"levelo://app?vid=83cf408d-bd48-48dc-ac06-024e0418cc58","ios":"levelo://app?vid=83cf408d-bd48-48dc-ac06-024e0418cc58"},"vehicle_type_id":"4","last_reported":1745608073,"current_range_meters":3200,"station_id":"ce4bgi12rcd13ifvqb70","pricing_plan_id":"cebpf4jnsgd1na2vs0mg"},{"bike_id":"47c415eb-9c02-4094-bc4c-e5bc6add6cc6","system_id":"levelo_inurba_marseille","lat":43.21188,"lon":5.35085,"is_reserved":false,"is_disabled":false,"rental_uris":{"android":"levelo://app?vid=47c415eb-9c02-4094-bc4c-e5bc6add6cc6","ios":"levelo://app?vid=47c415eb-9c02-4094-bc4c-e5bc6add6cc6"},"vehicle_type_id":"4","last_reported":1745608073,"current_range_meters":3200,"station_id":"st_cvj6sg6p6f1abm77japg","pricing_plan_id":"cebpf4jnsgd1na2vs0mg"},{"bike_id":"864841d4-d573-470a-87c7-00ad207d699d","system_id":"levelo_inurba_marseille","lat":43.26882,"lon":5.36844,"is_reserved":false,"is_disabled":false,"rental_uris":{"android":"levelo://app?vid=864841d4-d573-470a-87c7-00ad207d699d","ios":"levelo://app?vid=864841d4-d573-470a-87c7-00ad207d699d"},"vehicle_type_id":"4","last_reported":1745608073,"current_range_meters":3200,"station_id":"","pricing_plan_id":"cebpf4jnsgd1na2vs0mg"},{"bike_id":"35e61cdb-edd8-47d6-89ad-5b633996c08f","system_id":"levelo_inurba_marseille","lat":43.26801,"lon":5.40268,"is_reserved":false,"is_disabled":false,"rental_uris":{"android":"levelo://app?vid=35e61cdb-edd8-47d6-89ad-5b633996c08f","ios":"levelo://app?vid=35e61cdb-edd8-47d6-89ad-5b633996c08f"},"vehicle_type_id":"4","last_reported":1745608073,"current_range_meters":3200,"station_id":"ce501612rcd8frsf0b60","pricing_plan_id":"cebpf4jnsgd1na2vs0mg"},{"bike_id":"c443db59-103f-41d3-9673-47e1aa381a4a","system_id":"levelo_inurba_marseille","lat":43.295332,"lon":5.37564,"is_reserved":false,"is_disabled":false,"rental_uris":{"android":"levelo://app?vid=c443db59-103f-41d3-9673-47e1aa381a4a","ios":"levelo://app?vid=c443db59-103f-41d3-9673-47e1aa381a4a"},"vehicle_type_id":"4","last_reported":1745608073,"current_range_meters":3200,"station_id":"ce4bgkp2rcd13ifvqbmg","pricing_plan_id":"cebpf4jnsgd1na2vs0mg"},{"bike_id":"bd8d2f88-d2f5-4665-a5d8-683098684879","system_id":"levelo_inurba_marseille","lat":43.28689,"lon":5.3867,"is_reserved":false,"is_disabled":false,"rental_uris":{"android":"levelo://app?vid=bd8d2f88-d2f5-4665-a5d8-683098684879","ios":"levelo://app?vid=bd8d2f88-d2f5-4665-a5d8-683098684879"},"vehicle_type_id":"4","last_reported":1745608073,"current_range_meters":3200,"station_id":"ce4bh492rcd13ifvqdug","pricing_plan_id":"cebpf4jnsgd1na2vs0mg"},{"bike_id":"517307bf-4d89-4085-83f3-9b9bdaea61dc","system_id":"levelo_inurba_marseille","lat":43.29266,"lon":5.37637,"is_reserved":false,"is_disabled":false,"rental_uris":{"android":"levelo://app?vid=517307bf-4d89-4085-83f3-9b9bdaea61dc","ios":"levelo://app?vid=517307bf-4d89-4085-83f3-9b9bdaea61dc"},"vehicle_type_id":"4","last_reported":1745608073,"current_range_meters":3600,"station_id":"ce4bgi12rcd13ifvqb80","pricing_plan_id":"cebpf4jnsgd1na2vs0mg"},{"bike_id":"e531a2ce-1fe4-43cc-ac0f-451abefa7327","system_id":"levelo_inurba_marseille","lat":43.28424,"lon":5.37505,"is_reserved":false,"is_disabled":false,"rental_uris":{"android":"levelo://app?vid=e531a2ce-1fe4-43cc-ac0f-451abefa7327","ios":"levelo://app?vid=e531a2ce-1fe4-43cc-ac0f-451abefa7327"},"vehicle_type_id":"4","last_reported":1745608073,"current_range_meters":3600,"station_id":"ce4bh412rcd13ifvqds0","pricing_plan_id":"cebpf4jnsgd1na2vs0mg"},{"bike_id":"eb0f6c6c-0542-4b07-9982-1892909c8b73","system_id":"levelo_inurba_marseille","lat":43.2794,"lon":5.41048,"is_reserved":false,"is_disabled":false,"rental_uris":{"android":"levelo://app?vid=eb0f6c6c-0542-4b07-9982-1892909c8b73","ios":"levelo://app?vid=eb0f6c6c-0542-4b07-9982-1892909c8b73"},"vehicle_type_id":"4","last_reported":1745608073,"current_range_meters":3600,"station_id":"ce4bhnp2rcd13ifvqh0g","pricing_plan_id":"cebpf4jnsgd1na2vs0mg"},{"bike_id":"0665421a-052d-4840-9df9-d527b568d595","system_id":"levelo_inurba_marseille","lat":43.32412,"lon":5.39086,"is_reserved":false,"is_disabled":false,"rental_uris":{"android":"levelo://app?vid=0665421a-052d-4840-9df9-d527b568d595","ios":"levelo://app?vid=0665421a-052d-4840-9df9-d527b568d595"},"vehicle_type_id":"4","last_reported":1745608073,"current_range_meters":3600,"station_id":"","pricing_plan_id":"cebpf4jnsgd1na2vs0mg"},{"bike_id":"429b1089-d06b-4191-bf25-4c86fb8935b6","system_id":"levelo_inurba_marseille","lat":43.28674,"lon":5.38663,"is_reserved":false,"is_disabled":false,"rental_uris":{"android":"levelo://app?vid=429b1089-d06b-4191-bf25-4c86fb8935b6","ios":"levelo://app?vid=429b1089-d06b-4191-bf25-4c86fb8935b6"},"vehicle_type_id":"4","last_reported":1745608073,"current_range_meters":4000,"station_id":"ce4bh492rcd13ifvqdug","pricing_plan_id":"cebpf4jnsgd1na2vs0mg"},{"bike_id":"749bd3eb-fcff-491e-af89-fb69c28ba672","system_id":"levelo_inurba_marseille","lat":43.2963,"lon":5.40598,"is_reserved":false,"is_disabled":false,"rental_uris":{"android":"levelo://app?vid=749bd3eb-fcff-491e-af89-fb69c28ba672","ios":"levelo://app?vid=749bd3eb-fcff-491e-af89-fb69c28ba672"},"vehicle_type_id":"4","last_reported":1745608073,"current_range_meters":4000,"station_id":"ce4bh0h2rcd13ifvqd60","pricing_plan_id":"cebpf4jnsgd1na2vs0mg"},{"bike_id":"617fbf20-bb15-4117-b0a0-f63054ce20f7","system_id":"levelo_inurba_marseille","lat":43.2786,"lon":5.35438,"is_reserved":false,"is_disabled":false,"rental_uris":{"android":"levelo://app?vid=617fbf20-bb15-4117-b0a0-f63054ce20f7","ios":"levelo://app?vid=617fbf20-bb15-4117-b0a0-f63054ce20f7"},"vehicle_type_id":"4","last_reported":1745608073,"current_range_meters":4000,"station_id":"","pricing_plan_id":"cebpf4jnsgd1na2vs0mg"},{"bike_id":"7c487905-b89a-40cc-b31a-6a6fd3ab3b69","system_id":"levelo_inurba_marseille","lat":43.31077,"lon":5.38355,"is_reserved":false,"is_disabled":false,"rental_uris":{"android":"levelo://app?vid=7c487905-b89a-40cc-b31a-6a6fd3ab3b69","ios":"levelo://app?vid=7c487905-b89a-40cc-b31a-6a6fd3ab3b69"},"vehicle_type_id":"4","last_reported":1745608073,"current_range_meters":4000,"station_id":"ce4bgv92rcd13ifvqcr0","pricing_plan_id":"cebpf4jnsgd1na2vs0mg"},{"bike_id":"7bf34cef-e66d-4f00-9126-35e9b4fcdd42","system_id":"levelo_inurba_marseille","lat":43.28488,"lon":5.3842,"is_reserved":false,"is_disabled":false,"rental_uris":{"android":"levelo://app?vid=7bf34cef-e66d-4f00-9126-35e9b4fcdd42","ios":"levelo://app?vid=7bf34cef-e66d-4f00-9126-35e9b4fcdd42"},"vehicle_type_id":"4","last_reported":1745608073,"current_range_meters":4000,"station_id":"ce4bh512rcd13ifvqe3g","pricing_plan_id":"cebpf4jnsgd1na2vs0mg"},{"bike_id":"41a32230-dfdd-46c4-9634-5165712b4521","system_id":"levelo_inurba_marseille","lat":43.29265,"lon":5.36846,"is_reserved":false,"is_disabled":false,"rental_uris":{"android":"levelo://app?vid=41a32230-dfdd-46c4-9634-5165712b4521","ios":"levelo://app?vid=41a32230-dfdd-46c4-9634-5165712b4521"},"vehicle_type_id":"4","last_reported":1745608073,"current_range_meters":4400,"station_id":"ce4bhbp2rcd13ifvqesg","pricing_plan_id":"cebpf4jnsgd1na2vs0mg"},{"bike_id":"363a2d68-cf41-47e2-a139-265c695dd990","system_id":"levelo_inurba_marseille","lat":43.29633,"lon":5.40596,"is_reserved":false,"is_disabled":false,"rental_uris":{"android":"levelo://app?vid=363a2d68-cf41-47e2-a139-265c695dd990","ios":"levelo://app?vid=363a2d68-cf41-47e2-a139-265c695dd990"},"vehicle_type_id":"4","last_reported":1745608073,"current_range_meters":4400,"station_id":"ce4bh0h2rcd13ifvqd60","pricing_plan_id":"cebpf4jnsgd1na2vs0mg"},{"bike_id":"9f77d6c5-1947-43fc-b4ed-6196948d5b28","system_id":"levelo_inurba_marseille","lat":43.3211,"lon":5.41537,"is_reserved":false,"is_disabled":false,"rental_uris":{"android":"levelo://app?vid=9f77d6c5-1947-43fc-b4ed-6196948d5b28","ios":"levelo://app?vid=9f77d6c5-1947-43fc-b4ed-6196948d5b28"},"vehicle_type_id":"4","last_reported":1745608073,"current_range_meters":4800,"station_id":"ce4bhq92rcd13ifvqhkg","pricing_plan_id":"cebpf4jnsgd1na2vs0mg"},{"bike_id":"019ff373-94c8-469c-9461-b2d270a37e51","system_id":"levelo_inurba_marseille","lat":43.29568,"lon":5.3998,"is_reserved":false,"is_disabled":false,"rental_uris":{"android":"levelo://app?vid=019ff373-94c8-469c-9461-b2d270a37e51","ios":"levelo://app?vid=019ff373-94c8-469c-9461-b2d270a37e51"},"vehicle_type_id":"4","last_reported":1745608073,"current_range_meters":4800,"station_id":"ce4bh312rcd13ifvqdj0","pricing_plan_id":"cebpf4jnsgd1na2vs0mg"},{"bike_id":"8362342a-9325-4b3d-95bd-71b53b087261","system_id":"levelo_inurba_marseille","lat":43.29174,"lon":5.37146,"is_reserved":false,"is_disabled":false,"rental_uris":{"android":"levelo://app?vid=8362342a-9325-4b3d-95bd-71b53b087261","ios":"levelo://app?vid=8362342a-9325-4b3d-95bd-71b53b087261"},"vehicle_type_id":"4","last_reported":1745608073,"current_range_meters":4800,"station_id":"ce4bha92rcd13ifvqeh0","pricing_plan_id":"cebpf4jnsgd1na2vs0mg"},{"bike_id":"81e41d97-ef49-4ac8-a652-cd2e6fefd25f","system_id":"levelo_inurba_marseille","lat":43.292883,"lon":5.401268,"is_reserved":false,"is_disabled":false,"rental_uris":{"android":"levelo://app?vid=81e41d97-ef49-4ac8-a652-cd2e6fefd25f","ios":"levelo://app?vid=81e41d97-ef49-4ac8-a652-cd2e6fefd25f"},"vehicle_type_id":"4","last_reported":1745608073,"current_range_meters":4800,"station_id":"ce4bhc92rcd13ifvqetg","pricing_plan_id":"cebpf4jnsgd1na2vs0mg"},{"bike_id":"0ef090c8-b30d-42aa-a986-f1a5509bf3d5","system_id":"levelo_inurba_marseille","lat":43.25978,"lon":5.3758,"is_reserved":false,"is_disabled":false,"rental_uris":{"android":"levelo://app?vid=0ef090c8-b30d-42aa-a986-f1a5509bf3d5","ios":"levelo://app?vid=0ef090c8-b30d-42aa-a986-f1a5509bf3d5"},"vehicle_type_id":"4","last_reported":1745608073,"current_range_meters":5600,"station_id":"","pricing_plan_id":"cebpf4jnsgd1na2vs0mg"},{"bike_id":"d0c15c3d-7bd4-45dc-86a0-b3a9d1aacdb6","system_id":"levelo_inurba_marseille","lat":43.29284,"lon":5.38413,"is_reserved":false,"is_disabled":false,"rental_uris":{"android":"levelo://app?vid=d0c15c3d-7bd4-45dc-86a0-b3a9d1aacdb6","ios":"levelo://app?vid=d0c15c3d-7bd4-45dc-86a0-b3a9d1aacdb6"},"vehicle_type_id":"4","last_reported":1745608073,"current_range_meters":5600,"station_id":"ce4bh692rcd13ifvqea0","pricing_plan_id":"cebpf4jnsgd1na2vs0mg"},{"bike_id":"3c81a5f9-7c5c-40b2-be35-e8317f5851c4","system_id":"levelo_inurba_marseille","lat":43.26804,"lon":5.402655,"is_reserved":false,"is_disabled":false,"rental_uris":{"android":"levelo://app?vid=3c81a5f9-7c5c-40b2-be35-e8317f5851c4","ios":"levelo://app?vid=3c81a5f9-7c5c-40b2-be35-e8317f5851c4"},"vehicle_type_id":"4","last_reported":1745608073,"current_range_meters":5600,"station_id":"ce501612rcd8frsf0b60","pricing_plan_id":"cebpf4jnsgd1na2vs0mg"},{"bike_id":"46374c49-3adc-4c5a-8966-e00f056c0d57","system_id":"levelo_inurba_marseille","lat":43.27846,"lon":5.35442,"is_reserved":false,"is_disabled":false,"rental_uris":{"android":"levelo://app?vid=46374c49-3adc-4c5a-8966-e00f056c0d57","ios":"levelo://app?vid=46374c49-3adc-4c5a-8966-e00f056c0d57"},"vehicle_type_id":"4","last_reported":1745608073,"current_range_meters":6000,"station_id":"","pricing_plan_id":"cebpf4jnsgd1na2vs0mg"},{"bike_id":"a5615bf5-cc50-42b8-96d6-31dbfda62af2","system_id":"levelo_inurba_marseille","lat":43.30948,"lon":5.39043,"is_reserved":false,"is_disabled":false,"rental_uris":{"android":"levelo://app?vid=a5615bf5-cc50-42b8-96d6-31dbfda62af2","ios":"levelo://app?vid=a5615bf5-cc50-42b8-96d6-31dbfda62af2"},"vehicle_type_id":"4","last_reported":1745608073,"current_range_meters":6000,"station_id":"ce4bgup2rcd13ifvqco0","pricing_plan_id":"cebpf4jnsgd1na2vs0mg"},{"bike_id":"dbe58fa4-fb79-48d8-81d2-9780581db0f3","system_id":"levelo_inurba_marseille","lat":43.31117,"lon":5.37752,"is_reserved":false,"is_disabled":false,"rental_uris":{"android":"levelo://app?vid=dbe58fa4-fb79-48d8-81d2-9780581db0f3","ios":"levelo://app?vid=dbe58fa4-fb79-48d8-81d2-9780581db0f3"},"vehicle_type_id":"4","last_reported":1745608073,"current_range_meters":6000,"station_id":"ce4bgt92rcd13ifvqcg0","pricing_plan_id":"cebpf4jnsgd1na2vs0mg"},{"bike_id":"59330673-332f-4c6e-95cf-6300e8636342","system_id":"levelo_inurba_marseille","lat":43.29264,"lon":5.38431,"is_reserved":false,"is_disabled":false,"rental_uris":{"android":"levelo://app?vid=59330673-332f-4c6e-95cf-6300e8636342","ios":"levelo://app?vid=59330673-332f-4c6e-95cf-6300e8636342"},"vehicle_type_id":"4","last_reported":1745608073,"current_range_meters":5600,"station_id":"ce4bh692rcd13ifvqea0","pricing_plan_id":"cebpf4jnsgd1na2vs0mg"},{"bike_id":"800029b4-b8b8-40ba-8a1c-a4befe0c1ee6","system_id":"levelo_inurba_marseille","lat":43.26759,"lon":5.39443,"is_reserved":false,"is_disabled":true,"rental_uris":{"android":"levelo://app?vid=800029b4-b8b8-40ba-8a1c-a4befe0c1ee6","ios":"levelo://app?vid=800029b4-b8b8-40ba-8a1c-a4befe0c1ee6"},"vehicle_type_id":"4","last_reported":1745608073,"current_range_meters":5600,"station_id":"ce4bhh12rcd13ifvqfg0","pricing_plan_id":"cebpf4jnsgd1na2vs0mg"},{"bike_id":"f425d9cb-80e9-4b0a-9761-f26fba5018c2","system_id":"levelo_inurba_marseille","lat":43.28715,"lon":5.39983,"is_reserved":false,"is_disabled":true,"rental_uris":{"android":"levelo://app?vid=f425d9cb-80e9-4b0a-9761-f26fba5018c2","ios":"levelo://app?vid=f425d9cb-80e9-4b0a-9761-f26fba5018c2"},"vehicle_type_id":"4","last_reported":1745608073,"current_range_meters":6000,"station_id":"ce4bho92rcd13ifvqh3g","pricing_plan_id":"cebpf4jnsgd1na2vs0mg"},{"bike_id":"6e94a711-5402-4704-b611-7db8261a971d","system_id":"levelo_inurba_marseille","lat":43.25714,"lon":5.4111,"is_reserved":false,"is_disabled":false,"rental_uris":{"android":"levelo://app?vid=6e94a711-5402-4704-b611-7db8261a971d","ios":"levelo://app?vid=6e94a711-5402-4704-b611-7db8261a971d"},"vehicle_type_id":"4","last_reported":1745608073,"current_range_meters":6400,"station_id":"ce4bhkp2rcd13ifvqgd0","pricing_plan_id":"cebpf4jnsgd1na2vs0mg"},{"bike_id":"68b2cfa3-21fd-4895-95b9-634aef193fe7","system_id":"levelo_inurba_marseille","lat":43.29273,"lon":5.36848,"is_reserved":false,"is_disabled":false,"rental_uris":{"android":"levelo://app?vid=68b2cfa3-21fd-4895-95b9-634aef193fe7","ios":"levelo://app?vid=68b2cfa3-21fd-4895-95b9-634aef193fe7"},"vehicle_type_id":"4","last_reported":1745608073,"current_range_meters":6400,"station_id":"ce4bhbp2rcd13ifvqesg","pricing_plan_id":"cebpf4jnsgd1na2vs0mg"},{"bike_id":"f527f5c0-bb2b-4d45-b757-197fcdb930b7","system_id":"levelo_inurba_marseille","lat":43.32287,"lon":5.3828,"is_reserved":false,"is_disabled":false,"rental_uris":{"android":"levelo://app?vid=f527f5c0-bb2b-4d45-b757-197fcdb930b7","ios":"levelo://app?vid=f527f5c0-bb2b-4d45-b757-197fcdb930b7"},"vehicle_type_id":"4","last_reported":1745608073,"current_range_meters":6400,"station_id":"ce4bhr12rcd13ifvqhqg","pricing_plan_id":"cebpf4jnsgd1na2vs0mg"},{"bike_id":"d0b0c53d-88bf-4b99-ba35-dee66528f198","system_id":"levelo_inurba_marseille","lat":43.27561,"lon":5.38422,"is_reserved":false,"is_disabled":false,"rental_uris":{"android":"levelo://app?vid=d0b0c53d-88bf-4b99-ba35-dee66528f198","ios":"levelo://app?vid=d0b0c53d-88bf-4b99-ba35-dee66528f198"},"vehicle_type_id":"4","last_reported":1745608073,"current_range_meters":6400,"station_id":"ce4bhh92rcd13ifvqfi0","pricing_plan_id":"cebpf4jnsgd1na2vs0mg"},{"bike_id":"a981b7e1-a44a-40fc-875d-64e765d85b16","system_id":"levelo_inurba_marseille","lat":43.31774,"lon":5.38998,"is_reserved":false,"is_disabled":false,"rental_uris":{"android":"levelo://app?vid=a981b7e1-a44a-40fc-875d-64e765d85b16","ios":"levelo://app?vid=a981b7e1-a44a-40fc-875d-64e765d85b16"},"vehicle_type_id":"4","last_reported":1745608073,"current_range_meters":6400,"station_id":"ce4bhqp2rcd13ifvqhng","pricing_plan_id":"cebpf4jnsgd1na2vs0mg"},{"bike_id":"f587b1ad-8767-42fd-bb98-bdf1bb330f9a","system_id":"levelo_inurba_marseille","lat":43.32475,"lon":5.42123,"is_reserved":false,"is_disabled":false,"rental_uris":{"android":"levelo://app?vid=f587b1ad-8767-42fd-bb98-bdf1bb330f9a","ios":"levelo://app?vid=f587b1ad-8767-42fd-bb98-bdf1bb330f9a"},"vehicle_type_id":"4","last_reported":1745608073,"current_range_meters":6400,"station_id":"","pricing_plan_id":"cebpf4jnsgd1na2vs0mg"},{"bike_id":"2ca87a11-564f-4d02-9bbe-38f647a02125","system_id":"levelo_inurba_marseille","lat":43.3133,"lon":5.39688,"is_reserved":false,"is_disabled":true,"rental_uris":{"android":"levelo://app?vid=2ca87a11-564f-4d02-9bbe-38f647a02125","ios":"levelo://app?vid=2ca87a11-564f-4d02-9bbe-38f647a02125"},"vehicle_type_id":"4","last_reported":1745608073,"current_range_meters":6400,"station_id":"ce4bgvp2rcd13ifvqcu0","pricing_plan_id":"cebpf4jnsgd1na2vs0mg"},{"bike_id":"e725be89-03eb-4efa-abd9-401ea99c5e6d","system_id":"levelo_inurba_marseille","lat":43.30894,"lon":5.37812,"is_reserved":false,"is_disabled":false,"rental_uris":{"android":"levelo://app?vid=e725be89-03eb-4efa-abd9-401ea99c5e6d","ios":"levelo://app?vid=e725be89-03eb-4efa-abd9-401ea99c5e6d"},"vehicle_type_id":"4","last_reported":1745608073,"current_range_meters":6400,"station_id":"","pricing_plan_id":"cebpf4jnsgd1na2vs0mg"},{"bike_id":"63582950-e3df-422a-bc90-390b2e11312e","system_id":"levelo_inurba_marseille","lat":43.25027,"lon":5.40279,"is_reserved":false,"is_disabled":false,"rental_uris":{"android":"levelo://app?vid=63582950-e3df-422a-bc90-390b2e11312e","ios":"levelo://app?vid=63582950-e3df-422a-bc90-390b2e11312e"},"vehicle_type_id":"4","last_reported":1745608073,"current_range_meters":6400,"station_id":"ce4bhlh2rcd13ifvqgig","pricing_plan_id":"cebpf4jnsgd1na2vs0mg"},{"bike_id":"5dcab9ac-657e-4fe1-8221-d2e3138a04c1","system_id":"levelo_inurba_marseille","lat":43.29932,"lon":5.36549,"is_reserved":false,"is_disabled":false,"rental_uris":{"android":"levelo://app?vid=5dcab9ac-657e-4fe1-8221-d2e3138a04c1","ios":"levelo://app?vid=5dcab9ac-657e-4fe1-8221-d2e3138a04c1"},"vehicle_type_id":"4","last_reported":1745608073,"current_range_meters":6400,"station_id":"ce4bgm92rcd13ifvqbr0","pricing_plan_id":"cebpf4jnsgd1na2vs0mg"},{"bike_id":"ecdd0875-7d56-4cd2-a14a-671f78e26c97","system_id":"levelo_inurba_marseille","lat":43.23049,"lon":5.35494,"is_reserved":false,"is_disabled":false,"rental_uris":{"android":"levelo://app?vid=ecdd0875-7d56-4cd2-a14a-671f78e26c97","ios":"levelo://app?vid=ecdd0875-7d56-4cd2-a14a-671f78e26c97"},"vehicle_type_id":"4","last_reported":1745608073,"current_range_meters":6800,"station_id":"cpo3342slgdg3j2ifvpg","pricing_plan_id":"cebpf4jnsgd1na2vs0mg"},{"bike_id":"b148126a-90c8-4ca0-81d6-29bdb7841bf5","system_id":"levelo_inurba_marseille","lat":43.29417,"lon":5.38623,"is_reserved":false,"is_disabled":false,"rental_uris":{"android":"levelo://app?vid=b148126a-90c8-4ca0-81d6-29bdb7841bf5","ios":"levelo://app?vid=b148126a-90c8-4ca0-81d6-29bdb7841bf5"},"vehicle_type_id":"4","last_reported":1745608073,"current_range_meters":6800,"station_id":"ce4bh2h2rcd13ifvqdh0","pricing_plan_id":"cebpf4jnsgd1na2vs0mg"},{"bike_id":"b42a57f7-8fb4-4722-9fd1-48ccd8de2de1","system_id":"levelo_inurba_marseille","lat":43.29418,"lon":5.38632,"is_reserved":false,"is_disabled":false,"rental_uris":{"android":"levelo://app?vid=b42a57f7-8fb4-4722-9fd1-48ccd8de2de1","ios":"levelo://app?vid=b42a57f7-8fb4-4722-9fd1-48ccd8de2de1"},"vehicle_type_id":"4","last_reported":1745608073,"current_range_meters":8800,"station_id":"ce4bh2h2rcd13ifvqdh0","pricing_plan_id":"cebpf4jnsgd1na2vs0mg"},{"bike_id":"debb596a-cf31-4e61-90ea-007d673e88bc","system_id":"levelo_inurba_marseille","lat":43.28486,"lon":5.38548,"is_reserved":false,"is_disabled":false,"rental_uris":{"android":"levelo://app?vid=debb596a-cf31-4e61-90ea-007d673e88bc","ios":"levelo://app?vid=debb596a-cf31-4e61-90ea-007d673e88bc"},"vehicle_type_id":"4","last_reported":1745608073,"current_range_meters":3600,"station_id":"ce4bh8p2rcd13ifvqeb0","pricing_plan_id":"cebpf4jnsgd1na2vs0mg"},{"bike_id":"34807227-b07b-4237-9b16-64f1a86bb269","system_id":"levelo_inurba_marseille","lat":43.30946,"lon":5.39043,"is_reserved":false,"is_disabled":false,"rental_uris":{"android":"levelo://app?vid=34807227-b07b-4237-9b16-64f1a86bb269","ios":"levelo://app?vid=34807227-b07b-4237-9b16-64f1a86bb269"},"vehicle_type_id":"4","last_reported":1745608073,"current_range_meters":6800,"station_id":"ce4bgup2rcd13ifvqco0","pricing_plan_id":"cebpf4jnsgd1na2vs0mg"},{"bike_id":"712faf1a-d477-445f-a6d0-ce8feb518892","system_id":"levelo_inurba_marseille","lat":43.26685,"lon":5.3827,"is_reserved":false,"is_disabled":false,"rental_uris":{"android":"levelo://app?vid=712faf1a-d477-445f-a6d0-ce8feb518892","ios":"levelo://app?vid=712faf1a-d477-445f-a6d0-ce8feb518892"},"vehicle_type_id":"4","last_reported":1745608073,"current_range_meters":6800,"station_id":"ce4bhg92rcd13ifvqf90","pricing_plan_id":"cebpf4jnsgd1na2vs0mg"},{"bike_id":"566af3c7-55e6-47d8-98d6-26dbaee4cf9e","system_id":"levelo_inurba_marseille","lat":43.30246,"lon":5.37153,"is_reserved":false,"is_disabled":false,"rental_uris":{"android":"levelo://app?vid=566af3c7-55e6-47d8-98d6-26dbaee4cf9e","ios":"levelo://app?vid=566af3c7-55e6-47d8-98d6-26dbaee4cf9e"},"vehicle_type_id":"4","last_reported":1745608073,"current_range_meters":6800,"station_id":"","pricing_plan_id":"cebpf4jnsgd1na2vs0mg"},{"bike_id":"cc556544-fa74-4857-918f-95cd0549b210","system_id":"levelo_inurba_marseille","lat":43.297287,"lon":5.365321,"is_reserved":false,"is_disabled":false,"rental_uris":{"android":"levelo://app?vid=cc556544-fa74-4857-918f-95cd0549b210","ios":"levelo://app?vid=cc556544-fa74-4857-918f-95cd0549b210"},"vehicle_type_id":"4","last_reported":1745608073,"current_range_meters":6800,"station_id":"ce4bgn12rcd13ifvqbt0","pricing_plan_id":"cebpf4jnsgd1na2vs0mg"},{"bike_id":"52cb41a7-5096-4f42-a09a-abce4785d5e2","system_id":"levelo_inurba_marseille","lat":43.27109,"lon":5.42256,"is_reserved":false,"is_disabled":true,"rental_uris":{"android":"levelo://app?vid=52cb41a7-5096-4f42-a09a-abce4785d5e2","ios":"levelo://app?vid=52cb41a7-5096-4f42-a09a-abce4785d5e2"},"vehicle_type_id":"4","last_reported":1745608073,"current_range_meters":6800,"station_id":"ce4bhk92rcd13ifvqgb0","pricing_plan_id":"cebpf4jnsgd1na2vs0mg"},{"bike_id":"f163e2b6-f1d4-4ab4-8850-a1f91bd7c3fd","system_id":"levelo_inurba_marseille","lat":43.29898,"lon":5.43665,"is_reserved":false,"is_disabled":false,"rental_uris":{"android":"levelo://app?vid=f163e2b6-f1d4-4ab4-8850-a1f91bd7c3fd","ios":"levelo://app?vid=f163e2b6-f1d4-4ab4-8850-a1f91bd7c3fd"},"vehicle_type_id":"4","last_reported":1745608073,"current_range_meters":7200,"station_id":"ce4bhpp2rcd13ifvqhfg","pricing_plan_id":"cebpf4jnsgd1na2vs0mg"},{"bike_id":"0d008ee9-1dc0-4f61-a6a4-96a68ca8d35e","system_id":"levelo_inurba_marseille","lat":43.2904,"lon":5.39963,"is_reserved":false,"is_disabled":false,"rental_uris":{"android":"levelo://app?vid=0d008ee9-1dc0-4f61-a6a4-96a68ca8d35e","ios":"levelo://app?vid=0d008ee9-1dc0-4f61-a6a4-96a68ca8d35e"},"vehicle_type_id":"4","last_reported":1745608073,"current_range_meters":7200,"station_id":"ce4bh392rcd13ifvqdm0","pricing_plan_id":"cebpf4jnsgd1na2vs0mg"},{"bike_id":"4bf0cade-afa0-4731-b40e-ef3f8f4a4fe5","system_id":"levelo_inurba_marseille","lat":43.30103,"lon":5.39081,"is_reserved":false,"is_disabled":true,"rental_uris":{"android":"levelo://app?vid=4bf0cade-afa0-4731-b40e-ef3f8f4a4fe5","ios":"levelo://app?vid=4bf0cade-afa0-4731-b40e-ef3f8f4a4fe5"},"vehicle_type_id":"4","last_reported":1745608073,"current_range_meters":7200,"station_id":"ce4bh192rcd13ifvqdb0","pricing_plan_id":"cebpf4jnsgd1na2vs0mg"},{"bike_id":"fa08c917-15f0-46bf-9b4b-3ce0e752e62f","system_id":"levelo_inurba_marseille","lat":43.3341,"lon":5.40064,"is_reserved":false,"is_disabled":false,"rental_uris":{"android":"levelo://app?vid=fa08c917-15f0-46bf-9b4b-3ce0e752e62f","ios":"levelo://app?vid=fa08c917-15f0-46bf-9b4b-3ce0e752e62f"},"vehicle_type_id":"4","last_reported":1745608073,"current_range_meters":7200,"station_id":"","pricing_plan_id":"cebpf4jnsgd1na2vs0mg"},{"bike_id":"3e1ad8a3-a958-4d00-9a56-262625ea8d0f","system_id":"levelo_inurba_marseille","lat":43.28038,"lon":5.36946,"is_reserved":false,"is_disabled":false,"rental_uris":{"android":"levelo://app?vid=3e1ad8a3-a958-4d00-9a56-262625ea8d0f","ios":"levelo://app?vid=3e1ad8a3-a958-4d00-9a56-262625ea8d0f"},"vehicle_type_id":"4","last_reported":1745608073,"current_range_meters":7200,"station_id":"ce4bha12rcd13ifvqef0","pricing_plan_id":"cebpf4jnsgd1na2vs0mg"},{"bike_id":"0fed98bb-08d1-4677-9b48-8a0ad7426d92","system_id":"levelo_inurba_marseille","lat":43.29304,"lon":5.37468,"is_reserved":false,"is_disabled":false,"rental_uris":{"android":"levelo://app?vid=0fed98bb-08d1-4677-9b48-8a0ad7426d92","ios":"levelo://app?vid=0fed98bb-08d1-4677-9b48-8a0ad7426d92"},"vehicle_type_id":"4","last_reported":1745608073,"current_range_meters":7200,"station_id":"ce4bgi12rcd13ifvqb70","pricing_plan_id":"cebpf4jnsgd1na2vs0mg"},{"bike_id":"6b6d8530-0ea4-4dfe-bc85-1efc08b0c72a","system_id":"levelo_inurba_marseille","lat":43.290192,"lon":5.386144,"is_reserved":false,"is_disabled":false,"rental_uris":{"android":"levelo://app?vid=6b6d8530-0ea4-4dfe-bc85-1efc08b0c72a","ios":"levelo://app?vid=6b6d8530-0ea4-4dfe-bc85-1efc08b0c72a"},"vehicle_type_id":"4","last_reported":1745608073,"current_range_meters":7200,"station_id":"","pricing_plan_id":"cebpf4jnsgd1na2vs0mg"},{"bike_id":"34742a64-5286-428b-96ff-084c89b181ce","system_id":"levelo_inurba_marseille","lat":43.29525,"lon":5.38543,"is_reserved":false,"is_disabled":false,"rental_uris":{"android":"levelo://app?vid=34742a64-5286-428b-96ff-084c89b181ce","ios":"levelo://app?vid=34742a64-5286-428b-96ff-084c89b181ce"},"vehicle_type_id":"4","last_reported":1745608073,"current_range_meters":7200,"station_id":"ce4bgih2rcd13ifvqba0","pricing_plan_id":"cebpf4jnsgd1na2vs0mg"},{"bike_id":"3767ba54-0ee2-464a-8805-d28bad95405b","system_id":"levelo_inurba_marseille","lat":43.25958,"lon":5.375509,"is_reserved":false,"is_disabled":false,"rental_uris":{"android":"levelo://app?vid=3767ba54-0ee2-464a-8805-d28bad95405b","ios":"levelo://app?vid=3767ba54-0ee2-464a-8805-d28bad95405b"},"vehicle_type_id":"4","last_reported":1745608073,"current_range_meters":7200,"station_id":"","pricing_plan_id":"cebpf4jnsgd1na2vs0mg"},{"bike_id":"a6a6fa09-7e94-46f4-9587-1943517bd1ef","system_id":"levelo_inurba_marseille","lat":43.30318,"lon":5.369,"is_reserved":false,"is_disabled":false,"rental_uris":{"android":"levelo://app?vid=a6a6fa09-7e94-46f4-9587-1943517bd1ef","ios":"levelo://app?vid=a6a6fa09-7e94-46f4-9587-1943517bd1ef"},"vehicle_type_id":"4","last_reported":1745608073,"current_range_meters":7200,"station_id":"ce4bgqh2rcd13ifvqc5g","pricing_plan_id":"cebpf4jnsgd1na2vs0mg"},{"bike_id":"16a161cc-9c5d-494e-9f07-95944735da23","system_id":"levelo_inurba_marseille","lat":43.28963,"lon":5.37841,"is_reserved":false,"is_disabled":false,"rental_uris":{"android":"levelo://app?vid=16a161cc-9c5d-494e-9f07-95944735da23","ios":"levelo://app?vid=16a161cc-9c5d-494e-9f07-95944735da23"},"vehicle_type_id":"4","last_reported":1745608073,"current_range_meters":8000,"station_id":"ce4bh9p2rcd13ifvqed0","pricing_plan_id":"cebpf4jnsgd1na2vs0mg"},{"bike_id":"ab49b0ae-90ee-4214-bbd8-e0867a6763e8","system_id":"levelo_inurba_marseille","lat":43.31255,"lon":5.37167,"is_reserved":false,"is_disabled":false,"rental_uris":{"android":"levelo://app?vid=ab49b0ae-90ee-4214-bbd8-e0867a6763e8","ios":"levelo://app?vid=ab49b0ae-90ee-4214-bbd8-e0867a6763e8"},"vehicle_type_id":"4","last_reported":1745608073,"current_range_meters":8000,"station_id":"","pricing_plan_id":"cebpf4jnsgd1na2vs0mg"},{"bike_id":"290f939f-7b3c-4624-bb09-a53e5ec9c2d5","system_id":"levelo_inurba_marseille","lat":43.3095,"lon":5.39032,"is_reserved":false,"is_disabled":false,"rental_uris":{"android":"levelo://app?vid=290f939f-7b3c-4624-bb09-a53e5ec9c2d5","ios":"levelo://app?vid=290f939f-7b3c-4624-bb09-a53e5ec9c2d5"},"vehicle_type_id":"4","last_reported":1745608073,"current_range_meters":8000,"station_id":"ce4bgup2rcd13ifvqco0","pricing_plan_id":"cebpf4jnsgd1na2vs0mg"},{"bike_id":"bb34a576-c24d-4e09-af2b-fa8159c0da8b","system_id":"levelo_inurba_marseille","lat":43.29275,"lon":5.36844,"is_reserved":false,"is_disabled":false,"rental_uris":{"android":"levelo://app?vid=bb34a576-c24d-4e09-af2b-fa8159c0da8b","ios":"levelo://app?vid=bb34a576-c24d-4e09-af2b-fa8159c0da8b"},"vehicle_type_id":"4","last_reported":1745608073,"current_range_meters":8000,"station_id":"ce4bhbp2rcd13ifvqesg","pricing_plan_id":"cebpf4jnsgd1na2vs0mg"},{"bike_id":"2c4f0672-4e08-4a85-a44b-0cfafaf0d2c7","system_id":"levelo_inurba_marseille","lat":43.29257,"lon":5.38435,"is_reserved":false,"is_disabled":false,"rental_uris":{"android":"levelo://app?vid=2c4f0672-4e08-4a85-a44b-0cfafaf0d2c7","ios":"levelo://app?vid=2c4f0672-4e08-4a85-a44b-0cfafaf0d2c7"},"vehicle_type_id":"4","last_reported":1745608073,"current_range_meters":8400,"station_id":"ce4bh692rcd13ifvqea0","pricing_plan_id":"cebpf4jnsgd1na2vs0mg"},{"bike_id":"198ed981-9cb8-454c-9973-8de5676cb446","system_id":"levelo_inurba_marseille","lat":43.25029,"lon":5.389372,"is_reserved":false,"is_disabled":false,"rental_uris":{"android":"levelo://app?vid=198ed981-9cb8-454c-9973-8de5676cb446","ios":"levelo://app?vid=198ed981-9cb8-454c-9973-8de5676cb446"},"vehicle_type_id":"4","last_reported":1745608073,"current_range_meters":8400,"station_id":"ce4bhgp2rcd13ifvqfd0","pricing_plan_id":"cebpf4jnsgd1na2vs0mg"},{"bike_id":"d721dd34-165c-4212-a128-abfd72eaf4d3","system_id":"levelo_inurba_marseille","lat":43.29525,"lon":5.38541,"is_reserved":false,"is_disabled":false,"rental_uris":{"android":"levelo://app?vid=d721dd34-165c-4212-a128-abfd72eaf4d3","ios":"levelo://app?vid=d721dd34-165c-4212-a128-abfd72eaf4d3"},"vehicle_type_id":"4","last_reported":1745608073,"current_range_meters":8000,"station_id":"ce4bgih2rcd13ifvqba0","pricing_plan_id":"cebpf4jnsgd1na2vs0mg"},{"bike_id":"c1ccd199-3bfe-4293-a4cb-6829c97c125f","system_id":"levelo_inurba_marseille","lat":43.32415,"lon":5.39097,"is_reserved":false,"is_disabled":false,"rental_uris":{"android":"levelo://app?vid=c1ccd199-3bfe-4293-a4cb-6829c97c125f","ios":"levelo://app?vid=c1ccd199-3bfe-4293-a4cb-6829c97c125f"},"vehicle_type_id":"4","last_reported":1745608073,"current_range_meters":8400,"station_id":"","pricing_plan_id":"cebpf4jnsgd1na2vs0mg"},{"bike_id":"799938bb-11ab-4e7a-a851-3fac952672f8","system_id":"levelo_inurba_marseille","lat":43.28835,"lon":5.39311,"is_reserved":false,"is_disabled":false,"rental_uris":{"android":"levelo://app?vid=799938bb-11ab-4e7a-a851-3fac952672f8","ios":"levelo://app?vid=799938bb-11ab-4e7a-a851-3fac952672f8"},"vehicle_type_id":"4","last_reported":1745608073,"current_range_meters":8400,"station_id":"ce4bh2p2rcd13ifvqdi0","pricing_plan_id":"cebpf4jnsgd1na2vs0mg"},{"bike_id":"90b2a0c1-f5e7-4258-8b3b-6edb7873a2fc","system_id":"levelo_inurba_marseille","lat":43.29265,"lon":5.38441,"is_reserved":false,"is_disabled":false,"rental_uris":{"android":"levelo://app?vid=90b2a0c1-f5e7-4258-8b3b-6edb7873a2fc","ios":"levelo://app?vid=90b2a0c1-f5e7-4258-8b3b-6edb7873a2fc"},"vehicle_type_id":"4","last_reported":1745608073,"current_range_meters":8400,"station_id":"ce4bh692rcd13ifvqea0","pricing_plan_id":"cebpf4jnsgd1na2vs0mg"},{"bike_id":"b523e0d8-e562-4ca4-bc3b-09b5eb935be8","system_id":"levelo_inurba_marseille","lat":43.3169,"lon":5.437,"is_reserved":false,"is_disabled":false,"rental_uris":{"android":"levelo://app?vid=b523e0d8-e562-4ca4-bc3b-09b5eb935be8","ios":"levelo://app?vid=b523e0d8-e562-4ca4-bc3b-09b5eb935be8"},"vehicle_type_id":"4","last_reported":1745608073,"current_range_meters":8400,"station_id":"ce4bhp92rcd13ifvqhcg","pricing_plan_id":"cebpf4jnsgd1na2vs0mg"},{"bike_id":"86283a22-c85e-4a66-8e84-8cd7f4176e89","system_id":"levelo_inurba_marseille","lat":43.2991,"lon":5.38143,"is_reserved":false,"is_disabled":false,"rental_uris":{"android":"levelo://app?vid=86283a22-c85e-4a66-8e84-8cd7f4176e89","ios":"levelo://app?vid=86283a22-c85e-4a66-8e84-8cd7f4176e89"},"vehicle_type_id":"4","last_reported":1745608073,"current_range_meters":8400,"station_id":"ce4bgj12rcd13ifvqbc0","pricing_plan_id":"cebpf4jnsgd1na2vs0mg"},{"bike_id":"1d6d102f-89dc-4052-9661-a1eaff1c6b0a","system_id":"levelo_inurba_marseille","lat":43.24798,"lon":5.37466,"is_reserved":false,"is_disabled":false,"rental_uris":{"android":"levelo://app?vid=1d6d102f-89dc-4052-9661-a1eaff1c6b0a","ios":"levelo://app?vid=1d6d102f-89dc-4052-9661-a1eaff1c6b0a"},"vehicle_type_id":"4","last_reported":1745608073,"current_range_meters":8400,"station_id":"ce4bhgh2rcd13ifvqfb0","pricing_plan_id":"cebpf4jnsgd1na2vs0mg"},{"bike_id":"f6a298cf-b5ab-4375-9c9e-56c09a869416","system_id":"levelo_inurba_marseille","lat":43.29534,"lon":5.38541,"is_reserved":false,"is_disabled":false,"rental_uris":{"android":"levelo://app?vid=f6a298cf-b5ab-4375-9c9e-56c09a869416","ios":"levelo://app?vid=f6a298cf-b5ab-4375-9c9e-56c09a869416"},"vehicle_type_id":"4","last_reported":1745608073,"current_range_meters":8400,"station_id":"ce4bgih2rcd13ifvqba0","pricing_plan_id":"cebpf4jnsgd1na2vs0mg"},{"bike_id":"bbbf75c1-d1a6-4017-ab68-98b27faf19a4","system_id":"levelo_inurba_marseille","lat":43.29526,"lon":5.3854,"is_reserved":false,"is_disabled":false,"rental_uris":{"android":"levelo://app?vid=bbbf75c1-d1a6-4017-ab68-98b27faf19a4","ios":"levelo://app?vid=bbbf75c1-d1a6-4017-ab68-98b27faf19a4"},"vehicle_type_id":"4","last_reported":1745608073,"current_range_meters":8400,"station_id":"ce4bgih2rcd13ifvqba0","pricing_plan_id":"cebpf4jnsgd1na2vs0mg"},{"bike_id":"1746265e-27ad-4913-8a06-b6dc5372d844","system_id":"levelo_inurba_marseille","lat":43.26008,"lon":5.37517,"is_reserved":false,"is_disabled":false,"rental_uris":{"android":"levelo://app?vid=1746265e-27ad-4913-8a06-b6dc5372d844","ios":"levelo://app?vid=1746265e-27ad-4913-8a06-b6dc5372d844"},"vehicle_type_id":"4","last_reported":1745608073,"current_range_meters":8800,"station_id":"ce4bhgh2rcd13ifvqfa0","pricing_plan_id":"cebpf4jnsgd1na2vs0mg"},{"bike_id":"89205ab4-16be-4a7d-a31c-9575ab4bd046","system_id":"levelo_inurba_marseille","lat":43.27998,"lon":5.40016,"is_reserved":false,"is_disabled":false,"rental_uris":{"android":"levelo://app?vid=89205ab4-16be-4a7d-a31c-9575ab4bd046","ios":"levelo://app?vid=89205ab4-16be-4a7d-a31c-9575ab4bd046"},"vehicle_type_id":"4","last_reported":1745608073,"current_range_meters":8800,"station_id":"ce4bho92rcd13ifvqh4g","pricing_plan_id":"cebpf4jnsgd1na2vs0mg"},{"bike_id":"cfa34a75-efec-4eb8-a020-77feca0ad5e2","system_id":"levelo_inurba_marseille","lat":43.21214,"lon":5.3507,"is_reserved":false,"is_disabled":false,"rental_uris":{"android":"levelo://app?vid=cfa34a75-efec-4eb8-a020-77feca0ad5e2","ios":"levelo://app?vid=cfa34a75-efec-4eb8-a020-77feca0ad5e2"},"vehicle_type_id":"4","last_reported":1745608073,"current_range_meters":8800,"station_id":"st_cvj6sg6p6f1abm77japg","pricing_plan_id":"cebpf4jnsgd1na2vs0mg"},{"bike_id":"859c00b9-33f6-447c-a76b-d13c41664022","system_id":"levelo_inurba_marseille","lat":43.29602,"lon":5.36745,"is_reserved":false,"is_disabled":false,"rental_uris":{"android":"levelo://app?vid=859c00b9-33f6-447c-a76b-d13c41664022","ios":"levelo://app?vid=859c00b9-33f6-447c-a76b-d13c41664022"},"vehicle_type_id":"4","last_reported":1745608073,"current_range_meters":8800,"station_id":"ce4bgph2rcd13ifvqc2g","pricing_plan_id":"cebpf4jnsgd1na2vs0mg"},{"bike_id":"7e5b31bf-0eda-4c16-8d35-f13e708bf69a","system_id":"levelo_inurba_marseille","lat":43.25861,"lon":5.39902,"is_reserved":false,"is_disabled":false,"rental_uris":{"android":"levelo://app?vid=7e5b31bf-0eda-4c16-8d35-f13e708bf69a","ios":"levelo://app?vid=7e5b31bf-0eda-4c16-8d35-f13e708bf69a"},"vehicle_type_id":"4","last_reported":1745608073,"current_range_meters":8400,"station_id":"ce4bhl92rcd13ifvqghg","pricing_plan_id":"cebpf4jnsgd1na2vs0mg"},{"bike_id":"990c0921-c693-455e-a39d-b78a153a405c","system_id":"levelo_inurba_marseille","lat":43.28612,"lon":5.35105,"is_reserved":false,"is_disabled":false,"rental_uris":{"android":"levelo://app?vid=990c0921-c693-455e-a39d-b78a153a405c","ios":"levelo://app?vid=990c0921-c693-455e-a39d-b78a153a405c"},"vehicle_type_id":"4","last_reported":1745608073,"current_range_meters":8800,"station_id":"ce4bhch2rcd13ifvqeug","pricing_plan_id":"cebpf4jnsgd1na2vs0mg"},{"bike_id":"ac252c73-a175-4300-ba20-ca8af5f8d3bb","system_id":"levelo_inurba_marseille","lat":43.28948,"lon":5.36394,"is_reserved":false,"is_disabled":false,"rental_uris":{"android":"levelo://app?vid=ac252c73-a175-4300-ba20-ca8af5f8d3bb","ios":"levelo://app?vid=ac252c73-a175-4300-ba20-ca8af5f8d3bb"},"vehicle_type_id":"4","last_reported":1745608073,"current_range_meters":8800,"station_id":"ce4bhc92rcd13ifvqetg","pricing_plan_id":"cebpf4jnsgd1na2vs0mg"},{"bike_id":"7ac61bb7-b687-4de6-9cf2-0e275fc30dde","system_id":"levelo_inurba_marseille","lat":43.28468,"lon":5.35869,"is_reserved":false,"is_disabled":false,"rental_uris":{"android":"levelo://app?vid=7ac61bb7-b687-4de6-9cf2-0e275fc30dde","ios":"levelo://app?vid=7ac61bb7-b687-4de6-9cf2-0e275fc30dde"},"vehicle_type_id":"4","last_reported":1745608073,"current_range_meters":8800,"station_id":"ce4bhah2rcd13ifvqei0","pricing_plan_id":"cebpf4jnsgd1na2vs0mg"},{"bike_id":"95d1e744-40e5-47aa-8c31-5d7a8b36ff8a","system_id":"levelo_inurba_marseille","lat":43.28665,"lon":5.3636,"is_reserved":false,"is_disabled":false,"rental_uris":{"android":"levelo://app?vid=95d1e744-40e5-47aa-8c31-5d7a8b36ff8a","ios":"levelo://app?vid=95d1e744-40e5-47aa-8c31-5d7a8b36ff8a"},"vehicle_type_id":"4","last_reported":1745608073,"current_range_meters":8800,"station_id":"ce4bhah2rcd13ifvqej0","pricing_plan_id":"cebpf4jnsgd1na2vs0mg"},{"bike_id":"3a2e0082-84fb-4747-8d6f-7f6135e950aa","system_id":"levelo_inurba_marseille","lat":43.28655,"lon":5.36351,"is_reserved":false,"is_disabled":false,"rental_uris":{"android":"levelo://app?vid=3a2e0082-84fb-4747-8d6f-7f6135e950aa","ios":"levelo://app?vid=3a2e0082-84fb-4747-8d6f-7f6135e950aa"},"vehicle_type_id":"4","last_reported":1745608073,"current_range_meters":8000,"station_id":"ce4bhah2rcd13ifvqej0","pricing_plan_id":"cebpf4jnsgd1na2vs0mg"},{"bike_id":"4b06fcee-d0e9-49d0-92a8-cff5dc8012e3","system_id":"levelo_inurba_marseille","lat":43.24998,"lon":5.38931,"is_reserved":false,"is_disabled":false,"rental_uris":{"android":"levelo://app?vid=4b06fcee-d0e9-49d0-92a8-cff5dc8012e3","ios":"levelo://app?vid=4b06fcee-d0e9-49d0-92a8-cff5dc8012e3"},"vehicle_type_id":"4","last_reported":1745608073,"current_range_meters":9600,"station_id":"ce4bhgp2rcd13ifvqfd0","pricing_plan_id":"cebpf4jnsgd1na2vs0mg"},{"bike_id":"a1cc7d6a-9e6d-4050-a3ce-2b76809b72ff","system_id":"levelo_inurba_marseille","lat":43.30182,"lon":5.36621,"is_reserved":false,"is_disabled":false,"rental_uris":{"android":"levelo://app?vid=a1cc7d6a-9e6d-4050-a3ce-2b76809b72ff","ios":"levelo://app?vid=a1cc7d6a-9e6d-4050-a3ce-2b76809b72ff"},"vehicle_type_id":"4","last_reported":1745608073,"current_range_meters":8800,"station_id":"ce4bgrh2rcd13ifvqc8g","pricing_plan_id":"cebpf4jnsgd1na2vs0mg"},{"bike_id":"db7d7242-8c7e-4f94-b69e-661206cd7af4","system_id":"levelo_inurba_marseille","lat":43.29262,"lon":5.38437,"is_reserved":false,"is_disabled":false,"rental_uris":{"android":"levelo://app?vid=db7d7242-8c7e-4f94-b69e-661206cd7af4","ios":"levelo://app?vid=db7d7242-8c7e-4f94-b69e-661206cd7af4"},"vehicle_type_id":"4","last_reported":1745608073,"current_range_meters":8800,"station_id":"","pricing_plan_id":"cebpf4jnsgd1na2vs0mg"},{"bike_id":"69297328-a926-4991-b5a8-9b525c2cd8ff","system_id":"levelo_inurba_marseille","lat":43.24545,"lon":5.39523,"is_reserved":false,"is_disabled":false,"rental_uris":{"android":"levelo://app?vid=69297328-a926-4991-b5a8-9b525c2cd8ff","ios":"levelo://app?vid=69297328-a926-4991-b5a8-9b525c2cd8ff"},"vehicle_type_id":"4","last_reported":1745608073,"current_range_meters":9200,"station_id":"ce4bhlp2rcd13ifvqgjg","pricing_plan_id":"cebpf4jnsgd1na2vs0mg"},{"bike_id":"cc49d7df-7ac8-4737-8445-c197f979bd4d","system_id":"levelo_inurba_marseille","lat":43.28856,"lon":5.35834,"is_reserved":false,"is_disabled":true,"rental_uris":{"android":"levelo://app?vid=cc49d7df-7ac8-4737-8445-c197f979bd4d","ios":"levelo://app?vid=cc49d7df-7ac8-4737-8445-c197f979bd4d"},"vehicle_type_id":"4","last_reported":1745608073,"current_range_meters":9200,"station_id":"ce4bhb12rcd13ifvqem0","pricing_plan_id":"cebpf4jnsgd1na2vs0mg"},{"bike_id":"571f0722-56e2-4aae-84c2-1a7e597ec588","system_id":"levelo_inurba_marseille","lat":43.29311,"lon":5.37176,"is_reserved":false,"is_disabled":false,"rental_uris":{"android":"levelo://app?vid=571f0722-56e2-4aae-84c2-1a7e597ec588","ios":"levelo://app?vid=571f0722-56e2-4aae-84c2-1a7e597ec588"},"vehicle_type_id":"4","last_reported":1745608073,"current_range_meters":9200,"station_id":"ce4bgh92rcd13ifvqb40","pricing_plan_id":"cebpf4jnsgd1na2vs0mg"},{"bike_id":"f53ca2be-5e14-4232-a442-dc2e98de0bb7","system_id":"levelo_inurba_marseille","lat":43.273187,"lon":5.39084,"is_reserved":false,"is_disabled":true,"rental_uris":{"android":"levelo://app?vid=f53ca2be-5e14-4232-a442-dc2e98de0bb7","ios":"levelo://app?vid=f53ca2be-5e14-4232-a442-dc2e98de0bb7"},"vehicle_type_id":"4","last_reported":1745608073,"current_range_meters":9200,"station_id":"ce4bhgp2rcd13ifvqfe0","pricing_plan_id":"cebpf4jnsgd1na2vs0mg"},{"bike_id":"a4eb122f-111a-484b-8288-555eecabfece","system_id":"levelo_inurba_marseille","lat":43.295288,"lon":5.385493,"is_reserved":false,"is_disabled":false,"rental_uris":{"android":"levelo://app?vid=a4eb122f-111a-484b-8288-555eecabfece","ios":"levelo://app?vid=a4eb122f-111a-484b-8288-555eecabfece"},"vehicle_type_id":"4","last_reported":1745608073,"current_range_meters":9600,"station_id":"ce4bgih2rcd13ifvqba0","pricing_plan_id":"cebpf4jnsgd1na2vs0mg"},{"bike_id":"d174a9ca-d91d-4f8a-94c8-1768271b7574","system_id":"levelo_inurba_marseille","lat":43.248042,"lon":5.37484,"is_reserved":false,"is_disabled":false,"rental_uris":{"android":"levelo://app?vid=d174a9ca-d91d-4f8a-94c8-1768271b7574","ios":"levelo://app?vid=d174a9ca-d91d-4f8a-94c8-1768271b7574"},"vehicle_type_id":"4","last_reported":1745608073,"current_range_meters":9600,"station_id":"ce4bhgh2rcd13ifvqfb0","pricing_plan_id":"cebpf4jnsgd1na2vs0mg"},{"bike_id":"df30ab3c-6c36-4803-b581-815c1851cda5","system_id":"levelo_inurba_marseille","lat":43.29263,"lon":5.38425,"is_reserved":false,"is_disabled":false,"rental_uris":{"android":"levelo://app?vid=df30ab3c-6c36-4803-b581-815c1851cda5","ios":"levelo://app?vid=df30ab3c-6c36-4803-b581-815c1851cda5"},"vehicle_type_id":"4","last_reported":1745608073,"current_range_meters":9600,"station_id":"ce4bh692rcd13ifvqea0","pricing_plan_id":"cebpf4jnsgd1na2vs0mg"},{"bike_id":"5aa6b5e4-47fc-45e1-bd2f-02310fb675b0","system_id":"levelo_inurba_marseille","lat":43.28077,"lon":5.39657,"is_reserved":false,"is_disabled":false,"rental_uris":{"android":"levelo://app?vid=5aa6b5e4-47fc-45e1-bd2f-02310fb675b0","ios":"levelo://app?vid=5aa6b5e4-47fc-45e1-bd2f-02310fb675b0"},"vehicle_type_id":"4","last_reported":1745608073,"current_range_meters":9600,"station_id":"ce4bho12rcd13ifvqh2g","pricing_plan_id":"cebpf4jnsgd1na2vs0mg"},{"bike_id":"4202cb1a-6e91-4053-b864-14260a6ae58b","system_id":"levelo_inurba_marseille","lat":43.29583,"lon":5.36738,"is_reserved":false,"is_disabled":false,"rental_uris":{"android":"levelo://app?vid=4202cb1a-6e91-4053-b864-14260a6ae58b","ios":"levelo://app?vid=4202cb1a-6e91-4053-b864-14260a6ae58b"},"vehicle_type_id":"4","last_reported":1745608073,"current_range_meters":9600,"station_id":"ce4bgph2rcd13ifvqc2g","pricing_plan_id":"cebpf4jnsgd1na2vs0mg"},{"bike_id":"2342c4c2-2f95-467d-a8c5-90bfb52c13cf","system_id":"levelo_inurba_marseille","lat":43.30949,"lon":5.39043,"is_reserved":false,"is_disabled":false,"rental_uris":{"android":"levelo://app?vid=2342c4c2-2f95-467d-a8c5-90bfb52c13cf","ios":"levelo://app?vid=2342c4c2-2f95-467d-a8c5-90bfb52c13cf"},"vehicle_type_id":"4","last_reported":1745608073,"current_range_meters":9600,"station_id":"ce4bgup2rcd13ifvqco0","pricing_plan_id":"cebpf4jnsgd1na2vs0mg"},{"bike_id":"e55b7fd1-db0d-4417-a85a-eee1595f4095","system_id":"levelo_inurba_marseille","lat":43.2795,"lon":5.41032,"is_reserved":false,"is_disabled":false,"rental_uris":{"android":"levelo://app?vid=e55b7fd1-db0d-4417-a85a-eee1595f4095","ios":"levelo://app?vid=e55b7fd1-db0d-4417-a85a-eee1595f4095"},"vehicle_type_id":"4","last_reported":1745608073,"current_range_meters":9600,"station_id":"ce4bhnp2rcd13ifvqh0g","pricing_plan_id":"cebpf4jnsgd1na2vs0mg"},{"bike_id":"7d90e5bb-25c7-4ba2-ba21-54cf338d57ef","system_id":"levelo_inurba_marseille","lat":43.2926,"lon":5.38432,"is_reserved":false,"is_disabled":false,"rental_uris":{"android":"levelo://app?vid=7d90e5bb-25c7-4ba2-ba21-54cf338d57ef","ios":"levelo://app?vid=7d90e5bb-25c7-4ba2-ba21-54cf338d57ef"},"vehicle_type_id":"4","last_reported":1745608073,"current_range_meters":10000,"station_id":"ce4bh692rcd13ifvqea0","pricing_plan_id":"cebpf4jnsgd1na2vs0mg"},{"bike_id":"e6b2597f-12ef-4042-86e4-99de3267e53d","system_id":"levelo_inurba_marseille","lat":43.28462,"lon":5.3588,"is_reserved":false,"is_disabled":false,"rental_uris":{"android":"levelo://app?vid=e6b2597f-12ef-4042-86e4-99de3267e53d","ios":"levelo://app?vid=e6b2597f-12ef-4042-86e4-99de3267e53d"},"vehicle_type_id":"4","last_reported":1745608073,"current_range_meters":10000,"station_id":"ce4bhah2rcd13ifvqei0","pricing_plan_id":"cebpf4jnsgd1na2vs0mg"},{"bike_id":"78c7f484-570c-4dec-877d-06e748e2a726","system_id":"levelo_inurba_marseille","lat":43.298004,"lon":5.381117,"is_reserved":false,"is_disabled":true,"rental_uris":{"android":"levelo://app?vid=78c7f484-570c-4dec-877d-06e748e2a726","ios":"levelo://app?vid=78c7f484-570c-4dec-877d-06e748e2a726"},"vehicle_type_id":"4","last_reported":1745608073,"current_range_meters":10000,"station_id":"ce4bgip2rcd13ifvqbb0","pricing_plan_id":"cebpf4jnsgd1na2vs0mg"},{"bike_id":"ef08ecdf-05c4-499e-a54e-fa1e469132be","system_id":"levelo_inurba_marseille","lat":43.2953,"lon":5.39396,"is_reserved":false,"is_disabled":false,"rental_uris":{"android":"levelo://app?vid=ef08ecdf-05c4-499e-a54e-fa1e469132be","ios":"levelo://app?vid=ef08ecdf-05c4-499e-a54e-fa1e469132be"},"vehicle_type_id":"4","last_reported":1745608073,"current_range_meters":10000,"station_id":"ce4bh292rcd13ifvqdf0","pricing_plan_id":"cebpf4jnsgd1na2vs0mg"},{"bike_id":"73630e3c-f54b-42d6-a2da-9cf6ae680aba","system_id":"levelo_inurba_marseille","lat":43.30138,"lon":5.38781,"is_reserved":false,"is_disabled":false,"rental_uris":{"android":"levelo://app?vid=73630e3c-f54b-42d6-a2da-9cf6ae680aba","ios":"levelo://app?vid=73630e3c-f54b-42d6-a2da-9cf6ae680aba"},"vehicle_type_id":"4","last_reported":1745608073,"current_range_meters":9600,"station_id":"ce4bgvh2rcd13ifvqcs0","pricing_plan_id":"cebpf4jnsgd1na2vs0mg"},{"bike_id":"7f7ef8d2-9a9f-4938-a30c-31121ba70407","system_id":"levelo_inurba_marseille","lat":43.31888,"lon":5.36775,"is_reserved":false,"is_disabled":false,"rental_uris":{"android":"levelo://app?vid=7f7ef8d2-9a9f-4938-a30c-31121ba70407","ios":"levelo://app?vid=7f7ef8d2-9a9f-4938-a30c-31121ba70407"},"vehicle_type_id":"4","last_reported":1745608073,"current_range_meters":10000,"station_id":"","pricing_plan_id":"cebpf4jnsgd1na2vs0mg"},{"bike_id":"5c8dde23-03af-4ec7-8c64-b6a7b95cfa5a","system_id":"levelo_inurba_marseille","lat":43.33727,"lon":5.39191,"is_reserved":false,"is_disabled":false,"rental_uris":{"android":"levelo://app?vid=5c8dde23-03af-4ec7-8c64-b6a7b95cfa5a","ios":"levelo://app?vid=5c8dde23-03af-4ec7-8c64-b6a7b95cfa5a"},"vehicle_type_id":"4","last_reported":1745608073,"current_range_meters":10000,"station_id":"ce4bhr92rcd13ifvqhsg","pricing_plan_id":"cebpf4jnsgd1na2vs0mg"},{"bike_id":"dc8be256-ccf8-469a-94c0-2f22afb9b485","system_id":"levelo_inurba_marseille","lat":43.30536,"lon":5.36725,"is_reserved":false,"is_disabled":false,"rental_uris":{"android":"levelo://app?vid=dc8be256-ccf8-469a-94c0-2f22afb9b485","ios":"levelo://app?vid=dc8be256-ccf8-469a-94c0-2f22afb9b485"},"vehicle_type_id":"4","last_reported":1745608073,"current_range_meters":10000,"station_id":"ce4bgrp2rcd13ifvqc9g","pricing_plan_id":"cebpf4jnsgd1na2vs0mg"},{"bike_id":"3ea8a631-7f35-4597-aa4a-9a6b459c06e6","system_id":"levelo_inurba_marseille","lat":43.28668,"lon":5.38665,"is_reserved":false,"is_disabled":false,"rental_uris":{"android":"levelo://app?vid=3ea8a631-7f35-4597-aa4a-9a6b459c06e6","ios":"levelo://app?vid=3ea8a631-7f35-4597-aa4a-9a6b459c06e6"},"vehicle_type_id":"4","last_reported":1745608073,"current_range_meters":10000,"station_id":"ce4bh492rcd13ifvqdug","pricing_plan_id":"cebpf4jnsgd1na2vs0mg"},{"bike_id":"bd95f0bb-c5b1-4d5c-837c-b505e5069d47","system_id":"levelo_inurba_marseille","lat":43.33209,"lon":5.39762,"is_reserved":false,"is_disabled":false,"rental_uris":{"android":"levelo://app?vid=bd95f0bb-c5b1-4d5c-837c-b505e5069d47","ios":"levelo://app?vid=bd95f0bb-c5b1-4d5c-837c-b505e5069d47"},"vehicle_type_id":"4","last_reported":1745608073,"current_range_meters":10000,"station_id":"","pricing_plan_id":"cebpf4jnsgd1na2vs0mg"},{"bike_id":"9f5578ed-5577-43eb-b8df-e2b6a45d6d89","system_id":"levelo_inurba_marseille","lat":43.28606,"lon":5.37073,"is_reserved":false,"is_disabled":false,"rental_uris":{"android":"levelo://app?vid=9f5578ed-5577-43eb-b8df-e2b6a45d6d89","ios":"levelo://app?vid=9f5578ed-5577-43eb-b8df-e2b6a45d6d89"},"vehicle_type_id":"4","last_reported":1745608073,"current_range_meters":10800,"station_id":"ce4bht12rcd13ifvqi60","pricing_plan_id":"cebpf4jnsgd1na2vs0mg"},{"bike_id":"c7d69c21-6a0d-4674-b956-7932762eec61","system_id":"levelo_inurba_marseille","lat":43.29274,"lon":5.36842,"is_reserved":false,"is_disabled":false,"rental_uris":{"android":"levelo://app?vid=c7d69c21-6a0d-4674-b956-7932762eec61","ios":"levelo://app?vid=c7d69c21-6a0d-4674-b956-7932762eec61"},"vehicle_type_id":"4","last_reported":1745608073,"current_range_meters":10800,"station_id":"ce4bhbp2rcd13ifvqesg","pricing_plan_id":"cebpf4jnsgd1na2vs0mg"},{"bike_id":"fa72b649-3018-4187-96fe-d31c0b11e0f8","system_id":"levelo_inurba_marseille","lat":43.29493,"lon":5.3749,"is_reserved":false,"is_disabled":false,"rental_uris":{"android":"levelo://app?vid=fa72b649-3018-4187-96fe-d31c0b11e0f8","ios":"levelo://app?vid=fa72b649-3018-4187-96fe-d31c0b11e0f8"},"vehicle_type_id":"4","last_reported":1745608073,"current_range_meters":10800,"station_id":"ce4bgkp2rcd13ifvqbmg","pricing_plan_id":"cebpf4jnsgd1na2vs0mg"},{"bike_id":"edbc9bff-8242-42ee-887f-3b5d28f3a582","system_id":"levelo_inurba_marseille","lat":43.2937,"lon":5.37852,"is_reserved":false,"is_disabled":true,"rental_uris":{"android":"levelo://app?vid=edbc9bff-8242-42ee-887f-3b5d28f3a582","ios":"levelo://app?vid=edbc9bff-8242-42ee-887f-3b5d28f3a582"},"vehicle_type_id":"4","last_reported":1745608073,"current_range_meters":10800,"station_id":"ce4bgjh2rcd13ifvqbf0","pricing_plan_id":"cebpf4jnsgd1na2vs0mg"},{"bike_id":"dc01f0b5-b1ff-492a-9187-c2aa24895f43","system_id":"levelo_inurba_marseille","lat":43.23217,"lon":5.39968,"is_reserved":false,"is_disabled":false,"rental_uris":{"android":"levelo://app?vid=dc01f0b5-b1ff-492a-9187-c2aa24895f43","ios":"levelo://app?vid=dc01f0b5-b1ff-492a-9187-c2aa24895f43"},"vehicle_type_id":"4","last_reported":1745608073,"current_range_meters":10800,"station_id":"","pricing_plan_id":"cebpf4jnsgd1na2vs0mg"},{"bike_id":"4391bf7a-a174-468d-a010-0a6081e391cd","system_id":"levelo_inurba_marseille","lat":43.28936,"lon":5.36394,"is_reserved":false,"is_disabled":false,"rental_uris":{"android":"levelo://app?vid=4391bf7a-a174-468d-a010-0a6081e391cd","ios":"levelo://app?vid=4391bf7a-a174-468d-a010-0a6081e391cd"},"vehicle_type_id":"4","last_reported":1745608073,"current_range_meters":11200,"station_id":"ce4bhc92rcd13ifvqetg","pricing_plan_id":"cebpf4jnsgd1na2vs0mg"},{"bike_id":"043e1ac6-c9a6-453f-864e-cd12612346be","system_id":"levelo_inurba_marseille","lat":43.296304,"lon":5.371487,"is_reserved":false,"is_disabled":false,"rental_uris":{"android":"levelo://app?vid=043e1ac6-c9a6-453f-864e-cd12612346be","ios":"levelo://app?vid=043e1ac6-c9a6-453f-864e-cd12612346be"},"vehicle_type_id":"4","last_reported":1745608073,"current_range_meters":11200,"station_id":"ce4bgrp2rcd13ifvqc9g","pricing_plan_id":"cebpf4jnsgd1na2vs0mg"},{"bike_id":"0fae9b4c-c6d2-4fa8-87d3-0bfcc5f031fb","system_id":"levelo_inurba_marseille","lat":43.30801,"lon":5.43513,"is_reserved":false,"is_disabled":false,"rental_uris":{"android":"levelo://app?vid=0fae9b4c-c6d2-4fa8-87d3-0bfcc5f031fb","ios":"levelo://app?vid=0fae9b4c-c6d2-4fa8-87d3-0bfcc5f031fb"},"vehicle_type_id":"4","last_reported":1745608073,"current_range_meters":11200,"station_id":"ce4bhph2rcd13ifvqheg","pricing_plan_id":"cebpf4jnsgd1na2vs0mg"},{"bike_id":"9f88f27a-59b0-4e78-8351-2960b89c1629","system_id":"levelo_inurba_marseille","lat":43.29431,"lon":5.38618,"is_reserved":false,"is_disabled":false,"rental_uris":{"android":"levelo://app?vid=9f88f27a-59b0-4e78-8351-2960b89c1629","ios":"levelo://app?vid=9f88f27a-59b0-4e78-8351-2960b89c1629"},"vehicle_type_id":"4","last_reported":1745608073,"current_range_meters":11200,"station_id":"ce4bh2h2rcd13ifvqdh0","pricing_plan_id":"cebpf4jnsgd1na2vs0mg"},{"bike_id":"10cad3e8-7310-4777-b799-5903361d4c14","system_id":"levelo_inurba_marseille","lat":43.28027,"lon":5.36943,"is_reserved":false,"is_disabled":false,"rental_uris":{"android":"levelo://app?vid=10cad3e8-7310-4777-b799-5903361d4c14","ios":"levelo://app?vid=10cad3e8-7310-4777-b799-5903361d4c14"},"vehicle_type_id":"4","last_reported":1745608073,"current_range_meters":11200,"station_id":"ce4bha12rcd13ifvqef0","pricing_plan_id":"cebpf4jnsgd1na2vs0mg"},{"bike_id":"3c976c1b-644c-4432-ad5a-b823ebcbcc9c","system_id":"levelo_inurba_marseille","lat":43.30132,"lon":5.37426,"is_reserved":false,"is_disabled":true,"rental_uris":{"android":"levelo://app?vid=3c976c1b-644c-4432-ad5a-b823ebcbcc9c","ios":"levelo://app?vid=3c976c1b-644c-4432-ad5a-b823ebcbcc9c"},"vehicle_type_id":"4","last_reported":1745608073,"current_range_meters":11200,"station_id":"ce4bgs92rcd13ifvqcc0","pricing_plan_id":"cebpf4jnsgd1na2vs0mg"},{"bike_id":"01b46bfb-6e36-45ce-aba8-38102ee9eb80","system_id":"levelo_inurba_marseille","lat":43.28935,"lon":5.36635,"is_reserved":false,"is_disabled":false,"rental_uris":{"android":"levelo://app?vid=01b46bfb-6e36-45ce-aba8-38102ee9eb80","ios":"levelo://app?vid=01b46bfb-6e36-45ce-aba8-38102ee9eb80"},"vehicle_type_id":"4","last_reported":1745608073,"current_range_meters":11200,"station_id":"ce4bhap2rcd13ifvqek0","pricing_plan_id":"cebpf4jnsgd1na2vs0mg"},{"bike_id":"01ff9bde-bb6f-4ea4-a735-67792ca10ada","system_id":"levelo_inurba_marseille","lat":43.32093,"lon":5.41593,"is_reserved":false,"is_disabled":false,"rental_uris":{"android":"levelo://app?vid=01ff9bde-bb6f-4ea4-a735-67792ca10ada","ios":"levelo://app?vid=01ff9bde-bb6f-4ea4-a735-67792ca10ada"},"vehicle_type_id":"4","last_reported":1745608073,"current_range_meters":11200,"station_id":"ce4bhq92rcd13ifvqhkg","pricing_plan_id":"cebpf4jnsgd1na2vs0mg"},{"bike_id":"1f7a0f85-680b-4cda-969e-dc874c407459","system_id":"levelo_inurba_marseille","lat":43.2962,"lon":5.37164,"is_reserved":false,"is_disabled":false,"rental_uris":{"android":"levelo://app?vid=1f7a0f85-680b-4cda-969e-dc874c407459","ios":"levelo://app?vid=1f7a0f85-680b-4cda-969e-dc874c407459"},"vehicle_type_id":"4","last_reported":1745608073,"current_range_meters":11200,"station_id":"ce4bgnh2rcd13ifvqc0g","pricing_plan_id":"cebpf4jnsgd1na2vs0mg"},{"bike_id":"5d7a48cb-ac55-49d4-b384-f759d3e70456","system_id":"levelo_inurba_marseille","lat":43.28933,"lon":5.3962,"is_reserved":false,"is_disabled":false,"rental_uris":{"android":"levelo://app?vid=5d7a48cb-ac55-49d4-b384-f759d3e70456","ios":"levelo://app?vid=5d7a48cb-ac55-49d4-b384-f759d3e70456"},"vehicle_type_id":"4","last_reported":1745608073,"current_range_meters":11600,"station_id":"ce4bh3h2rcd13ifvqdn0","pricing_plan_id":"cebpf4jnsgd1na2vs0mg"},{"bike_id":"03ec5728-5a8d-475c-be69-d63e54c8d683","system_id":"levelo_inurba_marseille","lat":43.32484,"lon":5.36721,"is_reserved":false,"is_disabled":false,"rental_uris":{"android":"levelo://app?vid=03ec5728-5a8d-475c-be69-d63e54c8d683","ios":"levelo://app?vid=03ec5728-5a8d-475c-be69-d63e54c8d683"},"vehicle_type_id":"4","last_reported":1745608073,"current_range_meters":11600,"station_id":"","pricing_plan_id":"cebpf4jnsgd1na2vs0mg"},{"bike_id":"470f538b-a772-425a-8f1b-27ecd260df67","system_id":"levelo_inurba_marseille","lat":43.30934,"lon":5.4014,"is_reserved":false,"is_disabled":false,"rental_uris":{"android":"levelo://app?vid=470f538b-a772-425a-8f1b-27ecd260df67","ios":"levelo://app?vid=470f538b-a772-425a-8f1b-27ecd260df67"},"vehicle_type_id":"4","last_reported":1745608073,"current_range_meters":11600,"station_id":"ce4bgvp2rcd13ifvqct0","pricing_plan_id":"cebpf4jnsgd1na2vs0mg"},{"bike_id":"501ce2f8-1ff2-4830-a785-44ca9fe79734","system_id":"levelo_inurba_marseille","lat":43.30897,"lon":5.37195,"is_reserved":false,"is_disabled":false,"rental_uris":{"android":"levelo://app?vid=501ce2f8-1ff2-4830-a785-44ca9fe79734","ios":"levelo://app?vid=501ce2f8-1ff2-4830-a785-44ca9fe79734"},"vehicle_type_id":"4","last_reported":1745608073,"current_range_meters":11600,"station_id":"ce4bguh2rcd13ifvqckg","pricing_plan_id":"cebpf4jnsgd1na2vs0mg"},{"bike_id":"87a2c48b-6b21-40eb-96ea-dbf9977b94cb","system_id":"levelo_inurba_marseille","lat":43.31704,"lon":5.37747,"is_reserved":false,"is_disabled":false,"rental_uris":{"android":"levelo://app?vid=87a2c48b-6b21-40eb-96ea-dbf9977b94cb","ios":"levelo://app?vid=87a2c48b-6b21-40eb-96ea-dbf9977b94cb"},"vehicle_type_id":"4","last_reported":1745608073,"current_range_meters":11600,"station_id":"ce4bgth2rcd13ifvqch0","pricing_plan_id":"cebpf4jnsgd1na2vs0mg"},{"bike_id":"5e517853-2d11-4045-b0b7-7d2633decfc7","system_id":"levelo_inurba_marseille","lat":43.30935,"lon":5.39064,"is_reserved":false,"is_disabled":false,"rental_uris":{"android":"levelo://app?vid=5e517853-2d11-4045-b0b7-7d2633decfc7","ios":"levelo://app?vid=5e517853-2d11-4045-b0b7-7d2633decfc7"},"vehicle_type_id":"4","last_reported":1745608073,"current_range_meters":11600,"station_id":"ce4bgup2rcd13ifvqco0","pricing_plan_id":"cebpf4jnsgd1na2vs0mg"},{"bike_id":"53cb0972-24ea-49b0-93e8-c92bf1235538","system_id":"levelo_inurba_marseille","lat":43.29273,"lon":5.36848,"is_reserved":false,"is_disabled":false,"rental_uris":{"android":"levelo://app?vid=53cb0972-24ea-49b0-93e8-c92bf1235538","ios":"levelo://app?vid=53cb0972-24ea-49b0-93e8-c92bf1235538"},"vehicle_type_id":"4","last_reported":1745608073,"current_range_meters":11600,"station_id":"ce4bhbp2rcd13ifvqesg","pricing_plan_id":"cebpf4jnsgd1na2vs0mg"},{"bike_id":"c7e902d4-412a-4856-a3cd-84294ebaed67","system_id":"levelo_inurba_marseille","lat":43.29619,"lon":5.37169,"is_reserved":false,"is_disabled":false,"rental_uris":{"android":"levelo://app?vid=c7e902d4-412a-4856-a3cd-84294ebaed67","ios":"levelo://app?vid=c7e902d4-412a-4856-a3cd-84294ebaed67"},"vehicle_type_id":"4","last_reported":1745608073,"current_range_meters":11600,"station_id":"ce4bgnh2rcd13ifvqc0g","pricing_plan_id":"cebpf4jnsgd1na2vs0mg"},{"bike_id":"d4c58439-9a21-4bb1-8d01-461656a2888d","system_id":"levelo_inurba_marseille","lat":43.30188,"lon":5.36606,"is_reserved":false,"is_disabled":false,"rental_uris":{"android":"levelo://app?vid=d4c58439-9a21-4bb1-8d01-461656a2888d","ios":"levelo://app?vid=d4c58439-9a21-4bb1-8d01-461656a2888d"},"vehicle_type_id":"4","last_reported":1745608073,"current_range_meters":12000,"station_id":"ce4bgrh2rcd13ifvqc8g","pricing_plan_id":"cebpf4jnsgd1na2vs0mg"},{"bike_id":"e3b5bedc-edc9-410f-aa86-2babd442ca67","system_id":"levelo_inurba_marseille","lat":43.289059,"lon":5.361846,"is_reserved":false,"is_disabled":false,"rental_uris":{"android":"levelo://app?vid=e3b5bedc-edc9-410f-aa86-2babd442ca67","ios":"levelo://app?vid=e3b5bedc-edc9-410f-aa86-2babd442ca67"},"vehicle_type_id":"4","last_reported":1745608073,"current_range_meters":12000,"station_id":"ce4bhah2rcd13ifvqej0","pricing_plan_id":"cebpf4jnsgd1na2vs0mg"},{"bike_id":"4c11ff0f-a579-4f78-9960-a443174b0bdd","system_id":"levelo_inurba_marseille","lat":43.2119,"lon":5.35091,"is_reserved":false,"is_disabled":false,"rental_uris":{"android":"levelo://app?vid=4c11ff0f-a579-4f78-9960-a443174b0bdd","ios":"levelo://app?vid=4c11ff0f-a579-4f78-9960-a443174b0bdd"},"vehicle_type_id":"4","last_reported":1745608073,"current_range_meters":12000,"station_id":"st_cvj6sg6p6f1abm77japg","pricing_plan_id":"cebpf4jnsgd1na2vs0mg"},{"bike_id":"39fb9f6e-a1c8-4866-8568-9adab6fd055a","system_id":"levelo_inurba_marseille","lat":43.29937,"lon":5.36553,"is_reserved":false,"is_disabled":false,"rental_uris":{"android":"levelo://app?vid=39fb9f6e-a1c8-4866-8568-9adab6fd055a","ios":"levelo://app?vid=39fb9f6e-a1c8-4866-8568-9adab6fd055a"},"vehicle_type_id":"4","last_reported":1745608073,"current_range_meters":12400,"station_id":"ce4bgm92rcd13ifvqbr0","pricing_plan_id":"cebpf4jnsgd1na2vs0mg"},{"bike_id":"422b5989-c8b6-43aa-b2b9-3bfeb2e1ddc0","system_id":"levelo_inurba_marseille","lat":43.247074,"lon":5.411898,"is_reserved":false,"is_disabled":false,"rental_uris":{"android":"levelo://app?vid=422b5989-c8b6-43aa-b2b9-3bfeb2e1ddc0","ios":"levelo://app?vid=422b5989-c8b6-43aa-b2b9-3bfeb2e1ddc0"},"vehicle_type_id":"4","last_reported":1745608073,"current_range_meters":12400,"station_id":"","pricing_plan_id":"cebpf4jnsgd1na2vs0mg"},{"bike_id":"9ed7f8b0-1b74-4fb2-bf17-4c079263a406","system_id":"levelo_inurba_marseille","lat":43.25494,"lon":5.37649,"is_reserved":false,"is_disabled":false,"rental_uris":{"android":"levelo://app?vid=9ed7f8b0-1b74-4fb2-bf17-4c079263a406","ios":"levelo://app?vid=9ed7f8b0-1b74-4fb2-bf17-4c079263a406"},"vehicle_type_id":"4","last_reported":1745608073,"current_range_meters":12400,"station_id":"ce4bhh12rcd13ifvqff0","pricing_plan_id":"cebpf4jnsgd1na2vs0mg"},{"bike_id":"9199a126-57ac-4796-808c-36e9c499ce70","system_id":"levelo_inurba_marseille","lat":43.29848,"lon":5.36283,"is_reserved":false,"is_disabled":false,"rental_uris":{"android":"levelo://app?vid=9199a126-57ac-4796-808c-36e9c499ce70","ios":"levelo://app?vid=9199a126-57ac-4796-808c-36e9c499ce70"},"vehicle_type_id":"4","last_reported":1745608073,"current_range_meters":12400,"station_id":"ce4bgpp2rcd13ifvqc3g","pricing_plan_id":"cebpf4jnsgd1na2vs0mg"},{"bike_id":"e2dcabcf-64d8-4394-bb9a-ff877bee611a","system_id":"levelo_inurba_marseille","lat":43.32055,"lon":5.41506,"is_reserved":false,"is_disabled":false,"rental_uris":{"android":"levelo://app?vid=e2dcabcf-64d8-4394-bb9a-ff877bee611a","ios":"levelo://app?vid=e2dcabcf-64d8-4394-bb9a-ff877bee611a"},"vehicle_type_id":"4","last_reported":1745608073,"current_range_meters":12400,"station_id":"ce4bhq92rcd13ifvqhkg","pricing_plan_id":"cebpf4jnsgd1na2vs0mg"},{"bike_id":"778d6c69-c6e6-41a7-9e6d-3d5946b4abad","system_id":"levelo_inurba_marseille","lat":43.293971,"lon":5.373663,"is_reserved":false,"is_disabled":false,"rental_uris":{"android":"levelo://app?vid=778d6c69-c6e6-41a7-9e6d-3d5946b4abad","ios":"levelo://app?vid=778d6c69-c6e6-41a7-9e6d-3d5946b4abad"},"vehicle_type_id":"4","last_reported":1745608073,"current_range_meters":12400,"station_id":"ce4bgk12rcd13ifvqbi0","pricing_plan_id":"cebpf4jnsgd1na2vs0mg"},{"bike_id":"b599b1c9-8f38-4632-816b-538d2b1bcca6","system_id":"levelo_inurba_marseille","lat":43.30188,"lon":5.3662,"is_reserved":false,"is_disabled":false,"rental_uris":{"android":"levelo://app?vid=b599b1c9-8f38-4632-816b-538d2b1bcca6","ios":"levelo://app?vid=b599b1c9-8f38-4632-816b-538d2b1bcca6"},"vehicle_type_id":"4","last_reported":1745608073,"current_range_meters":12000,"station_id":"ce4bgrh2rcd13ifvqc8g","pricing_plan_id":"cebpf4jnsgd1na2vs0mg"},{"bike_id":"46f3eaa6-d5a9-408b-9b5f-f0660a1c4f5c","system_id":"levelo_inurba_marseille","lat":43.296335,"lon":5.371659,"is_reserved":false,"is_disabled":false,"rental_uris":{"android":"levelo://app?vid=46f3eaa6-d5a9-408b-9b5f-f0660a1c4f5c","ios":"levelo://app?vid=46f3eaa6-d5a9-408b-9b5f-f0660a1c4f5c"},"vehicle_type_id":"4","last_reported":1745608073,"current_range_meters":12400,"station_id":"ce4bgnh2rcd13ifvqc0g","pricing_plan_id":"cebpf4jnsgd1na2vs0mg"},{"bike_id":"89c3afd8-2516-49aa-a859-402ffbfdc686","system_id":"levelo_inurba_marseille","lat":43.28085,"lon":5.39649,"is_reserved":false,"is_disabled":false,"rental_uris":{"android":"levelo://app?vid=89c3afd8-2516-49aa-a859-402ffbfdc686","ios":"levelo://app?vid=89c3afd8-2516-49aa-a859-402ffbfdc686"},"vehicle_type_id":"4","last_reported":1745608073,"current_range_meters":12400,"station_id":"ce4bho12rcd13ifvqh2g","pricing_plan_id":"cebpf4jnsgd1na2vs0mg"},{"bike_id":"c65adb3e-50be-42af-92da-68dd7e4eacc9","system_id":"levelo_inurba_marseille","lat":43.30164,"lon":5.38122,"is_reserved":false,"is_disabled":true,"rental_uris":{"android":"levelo://app?vid=c65adb3e-50be-42af-92da-68dd7e4eacc9","ios":"levelo://app?vid=c65adb3e-50be-42af-92da-68dd7e4eacc9"},"vehicle_type_id":"4","last_reported":1745608073,"current_range_meters":12400,"station_id":"ce4bgjp2rcd13ifvqbh0","pricing_plan_id":"cebpf4jnsgd1na2vs0mg"},{"bike_id":"0bfff189-ec6a-4439-b345-e9dd168ab867","system_id":"levelo_inurba_marseille","lat":43.3374,"lon":5.39217,"is_reserved":false,"is_disabled":false,"rental_uris":{"android":"levelo://app?vid=0bfff189-ec6a-4439-b345-e9dd168ab867","ios":"levelo://app?vid=0bfff189-ec6a-4439-b345-e9dd168ab867"},"vehicle_type_id":"4","last_reported":1745608073,"current_range_meters":12400,"station_id":"ce4bhr92rcd13ifvqhsg","pricing_plan_id":"cebpf4jnsgd1na2vs0mg"},{"bike_id":"5ef4ba9e-eb7d-43d2-9b32-76b96e7a8085","system_id":"levelo_inurba_marseille","lat":43.294124,"lon":5.386221,"is_reserved":false,"is_disabled":false,"rental_uris":{"android":"levelo://app?vid=5ef4ba9e-eb7d-43d2-9b32-76b96e7a8085","ios":"levelo://app?vid=5ef4ba9e-eb7d-43d2-9b32-76b96e7a8085"},"vehicle_type_id":"4","last_reported":1745608073,"current_range_meters":12800,"station_id":"ce4bh312rcd13ifvqdj0","pricing_plan_id":"cebpf4jnsgd1na2vs0mg"},{"bike_id":"a42a140f-45f6-48de-94f2-cb6e48f5c019","system_id":"levelo_inurba_marseille","lat":43.30946,"lon":5.39041,"is_reserved":false,"is_disabled":false,"rental_uris":{"android":"levelo://app?vid=a42a140f-45f6-48de-94f2-cb6e48f5c019","ios":"levelo://app?vid=a42a140f-45f6-48de-94f2-cb6e48f5c019"},"vehicle_type_id":"4","last_reported":1745608073,"current_range_meters":12800,"station_id":"ce4bgup2rcd13ifvqco0","pricing_plan_id":"cebpf4jnsgd1na2vs0mg"},{"bike_id":"6172de8a-1532-4523-b41c-7aa4caf0e2be","system_id":"levelo_inurba_marseille","lat":43.29259,"lon":5.38452,"is_reserved":false,"is_disabled":false,"rental_uris":{"android":"levelo://app?vid=6172de8a-1532-4523-b41c-7aa4caf0e2be","ios":"levelo://app?vid=6172de8a-1532-4523-b41c-7aa4caf0e2be"},"vehicle_type_id":"4","last_reported":1745608073,"current_range_meters":12800,"station_id":"ce4bh692rcd13ifvqea0","pricing_plan_id":"cebpf4jnsgd1na2vs0mg"},{"bike_id":"b3c5bf7d-82b5-4c03-8aa3-ffbe428b4c3e","system_id":"levelo_inurba_marseille","lat":43.24549,"lon":5.39533,"is_reserved":false,"is_disabled":false,"rental_uris":{"android":"levelo://app?vid=b3c5bf7d-82b5-4c03-8aa3-ffbe428b4c3e","ios":"levelo://app?vid=b3c5bf7d-82b5-4c03-8aa3-ffbe428b4c3e"},"vehicle_type_id":"4","last_reported":1745608073,"current_range_meters":12800,"station_id":"ce4bhlp2rcd13ifvqgjg","pricing_plan_id":"cebpf4jnsgd1na2vs0mg"},{"bike_id":"a5cf2fed-2ab0-4b2e-8d3e-58499d448821","system_id":"levelo_inurba_marseille","lat":43.33004,"lon":5.39073,"is_reserved":false,"is_disabled":false,"rental_uris":{"android":"levelo://app?vid=a5cf2fed-2ab0-4b2e-8d3e-58499d448821","ios":"levelo://app?vid=a5cf2fed-2ab0-4b2e-8d3e-58499d448821"},"vehicle_type_id":"4","last_reported":1745608073,"current_range_meters":13600,"station_id":"ce4bhr92rcd13ifvqhrg","pricing_plan_id":"cebpf4jnsgd1na2vs0mg"},{"bike_id":"0bb3847a-3e52-4dfb-ae84-6d2ece4f9abf","system_id":"levelo_inurba_marseille","lat":43.288527,"lon":5.358534,"is_reserved":false,"is_disabled":false,"rental_uris":{"android":"levelo://app?vid=0bb3847a-3e52-4dfb-ae84-6d2ece4f9abf","ios":"levelo://app?vid=0bb3847a-3e52-4dfb-ae84-6d2ece4f9abf"},"vehicle_type_id":"4","last_reported":1745608073,"current_range_meters":14000,"station_id":"ce4bhb12rcd13ifvqem0","pricing_plan_id":"cebpf4jnsgd1na2vs0mg"},{"bike_id":"aa69049b-be01-40d2-8ee4-d1c78580efc5","system_id":"levelo_inurba_marseille","lat":43.2743,"lon":5.39406,"is_reserved":false,"is_disabled":false,"rental_uris":{"android":"levelo://app?vid=aa69049b-be01-40d2-8ee4-d1c78580efc5","ios":"levelo://app?vid=aa69049b-be01-40d2-8ee4-d1c78580efc5"},"vehicle_type_id":"4","last_reported":1745608073,"current_range_meters":13600,"station_id":"ce4bhdp2rcd13ifvqf20","pricing_plan_id":"cebpf4jnsgd1na2vs0mg"},{"bike_id":"85f50380-5046-4e8e-9b2e-cb7d2c86a67e","system_id":"levelo_inurba_marseille","lat":43.29428,"lon":5.38616,"is_reserved":false,"is_disabled":false,"rental_uris":{"android":"levelo://app?vid=85f50380-5046-4e8e-9b2e-cb7d2c86a67e","ios":"levelo://app?vid=85f50380-5046-4e8e-9b2e-cb7d2c86a67e"},"vehicle_type_id":"4","last_reported":1745608073,"current_range_meters":14000,"station_id":"ce4bh2h2rcd13ifvqdh0","pricing_plan_id":"cebpf4jnsgd1na2vs0mg"},{"bike_id":"a36f3031-523c-46e4-8e2a-58aa9e41b580","system_id":"levelo_inurba_marseille","lat":43.30321,"lon":5.36888,"is_reserved":false,"is_disabled":false,"rental_uris":{"android":"levelo://app?vid=a36f3031-523c-46e4-8e2a-58aa9e41b580","ios":"levelo://app?vid=a36f3031-523c-46e4-8e2a-58aa9e41b580"},"vehicle_type_id":"4","last_reported":1745608073,"current_range_meters":14400,"station_id":"ce4bgqh2rcd13ifvqc5g","pricing_plan_id":"cebpf4jnsgd1na2vs0mg"},{"bike_id":"3e076d22-0e26-40a7-91dc-5f499a694cab","system_id":"levelo_inurba_marseille","lat":43.29526,"lon":5.38544,"is_reserved":false,"is_disabled":false,"rental_uris":{"android":"levelo://app?vid=3e076d22-0e26-40a7-91dc-5f499a694cab","ios":"levelo://app?vid=3e076d22-0e26-40a7-91dc-5f499a694cab"},"vehicle_type_id":"4","last_reported":1745608073,"current_range_meters":14400,"station_id":"ce4bgih2rcd13ifvqba0","pricing_plan_id":"cebpf4jnsgd1na2vs0mg"},{"bike_id":"0912610e-7078-41fd-973b-ad8ab679b4f6","system_id":"levelo_inurba_marseille","lat":43.295471,"lon":5.385223,"is_reserved":false,"is_disabled":false,"rental_uris":{"android":"levelo://app?vid=0912610e-7078-41fd-973b-ad8ab679b4f6","ios":"levelo://app?vid=0912610e-7078-41fd-973b-ad8ab679b4f6"},"vehicle_type_id":"4","last_reported":1745608073,"current_range_meters":14400,"station_id":"ce4bgih2rcd13ifvqba0","pricing_plan_id":"cebpf4jnsgd1na2vs0mg"},{"bike_id":"b6c6d9f7-b123-42c6-8ea7-68299b7c9958","system_id":"levelo_inurba_marseille","lat":43.324,"lon":5.39156,"is_reserved":false,"is_disabled":false,"rental_uris":{"android":"levelo://app?vid=b6c6d9f7-b123-42c6-8ea7-68299b7c9958","ios":"levelo://app?vid=b6c6d9f7-b123-42c6-8ea7-68299b7c9958"},"vehicle_type_id":"4","last_reported":1745608073,"current_range_meters":14800,"station_id":"","pricing_plan_id":"cebpf4jnsgd1na2vs0mg"},{"bike_id":"eda4f340-b014-403c-84c9-c3dc9fe1e110","system_id":"levelo_inurba_marseille","lat":43.30586,"lon":5.3936,"is_reserved":false,"is_disabled":false,"rental_uris":{"android":"levelo://app?vid=eda4f340-b014-403c-84c9-c3dc9fe1e110","ios":"levelo://app?vid=eda4f340-b014-403c-84c9-c3dc9fe1e110"},"vehicle_type_id":"4","last_reported":1745608073,"current_range_meters":14400,"station_id":"ce4bh0p2rcd13ifvqd80","pricing_plan_id":"cebpf4jnsgd1na2vs0mg"},{"bike_id":"c731ed82-fbbd-4d9c-8637-2fa5af4ff537","system_id":"levelo_inurba_marseille","lat":43.25503,"lon":5.37646,"is_reserved":false,"is_disabled":false,"rental_uris":{"android":"levelo://app?vid=c731ed82-fbbd-4d9c-8637-2fa5af4ff537","ios":"levelo://app?vid=c731ed82-fbbd-4d9c-8637-2fa5af4ff537"},"vehicle_type_id":"4","last_reported":1745608073,"current_range_meters":14400,"station_id":"ce4bhh12rcd13ifvqff0","pricing_plan_id":"cebpf4jnsgd1na2vs0mg"},{"bike_id":"568053e1-9183-4cee-acca-959027493876","system_id":"levelo_inurba_marseille","lat":43.30889,"lon":5.36858,"is_reserved":false,"is_disabled":true,"rental_uris":{"android":"levelo://app?vid=568053e1-9183-4cee-acca-959027493876","ios":"levelo://app?vid=568053e1-9183-4cee-acca-959027493876"},"vehicle_type_id":"4","last_reported":1745608073,"current_range_meters":14800,"station_id":"ce4bgn92rcd13ifvqbvg","pricing_plan_id":"cebpf4jnsgd1na2vs0mg"},{"bike_id":"b8126e7e-1a65-400a-8f61-6f6cbf4f7f9f","system_id":"levelo_inurba_marseille","lat":43.23189,"lon":5.35556,"is_reserved":false,"is_disabled":false,"rental_uris":{"android":"levelo://app?vid=b8126e7e-1a65-400a-8f61-6f6cbf4f7f9f","ios":"levelo://app?vid=b8126e7e-1a65-400a-8f61-6f6cbf4f7f9f"},"vehicle_type_id":"4","last_reported":1745608073,"current_range_meters":14800,"station_id":"ce4bhu92rcd13ifvqi70","pricing_plan_id":"cebpf4jnsgd1na2vs0mg"},{"bike_id":"86e68f21-03bd-4df9-9d18-98bf18aaca0e","system_id":"levelo_inurba_marseille","lat":43.31362,"lon":5.38502,"is_reserved":false,"is_disabled":false,"rental_uris":{"android":"levelo://app?vid=86e68f21-03bd-4df9-9d18-98bf18aaca0e","ios":"levelo://app?vid=86e68f21-03bd-4df9-9d18-98bf18aaca0e"},"vehicle_type_id":"4","last_reported":1745608073,"current_range_meters":14800,"station_id":"ce4bgt92rcd13ifvqcf0","pricing_plan_id":"cebpf4jnsgd1na2vs0mg"},{"bike_id":"052d1162-338b-4da1-9270-72f30517e6a2","system_id":"levelo_inurba_marseille","lat":43.30147,"lon":5.39856,"is_reserved":false,"is_disabled":false,"rental_uris":{"android":"levelo://app?vid=052d1162-338b-4da1-9270-72f30517e6a2","ios":"levelo://app?vid=052d1162-338b-4da1-9270-72f30517e6a2"},"vehicle_type_id":"4","last_reported":1745608073,"current_range_meters":14400,"station_id":"ce4bh0h2rcd13ifvqd40","pricing_plan_id":"cebpf4jnsgd1na2vs0mg"},{"bike_id":"ec5f1667-0436-4eda-ad90-b2165f76a59a","system_id":"levelo_inurba_marseille","lat":43.28151,"lon":5.42654,"is_reserved":false,"is_disabled":false,"rental_uris":{"android":"levelo://app?vid=ec5f1667-0436-4eda-ad90-b2165f76a59a","ios":"levelo://app?vid=ec5f1667-0436-4eda-ad90-b2165f76a59a"},"vehicle_type_id":"4","last_reported":1745608073,"current_range_meters":15200,"station_id":"ce4bhnh2rcd13ifvqgug","pricing_plan_id":"cebpf4jnsgd1na2vs0mg"},{"bike_id":"af6af1ea-83a0-4448-a6b9-d143557f7290","system_id":"levelo_inurba_marseille","lat":43.26992,"lon":5.40263,"is_reserved":false,"is_disabled":false,"rental_uris":{"android":"levelo://app?vid=af6af1ea-83a0-4448-a6b9-d143557f7290","ios":"levelo://app?vid=af6af1ea-83a0-4448-a6b9-d143557f7290"},"vehicle_type_id":"4","last_reported":1745608073,"current_range_meters":15200,"station_id":"cjm6bp8fraef2m0cb0m0","pricing_plan_id":"cebpf4jnsgd1na2vs0mg"},{"bike_id":"dc5b82cd-1b5b-4070-82af-a8860b0a811d","system_id":"levelo_inurba_marseille","lat":43.231949,"lon":5.355512,"is_reserved":false,"is_disabled":false,"rental_uris":{"android":"levelo://app?vid=dc5b82cd-1b5b-4070-82af-a8860b0a811d","ios":"levelo://app?vid=dc5b82cd-1b5b-4070-82af-a8860b0a811d"},"vehicle_type_id":"4","last_reported":1745608073,"current_range_meters":15200,"station_id":"ce4bhu92rcd13ifvqi70","pricing_plan_id":"cebpf4jnsgd1na2vs0mg"},{"bike_id":"d4fac4f8-0a33-4fba-a520-ef4f03ca4bb4","system_id":"levelo_inurba_marseille","lat":43.30952,"lon":5.39041,"is_reserved":false,"is_disabled":false,"rental_uris":{"android":"levelo://app?vid=d4fac4f8-0a33-4fba-a520-ef4f03ca4bb4","ios":"levelo://app?vid=d4fac4f8-0a33-4fba-a520-ef4f03ca4bb4"},"vehicle_type_id":"4","last_reported":1745608073,"current_range_meters":15200,"station_id":"ce4bgup2rcd13ifvqco0","pricing_plan_id":"cebpf4jnsgd1na2vs0mg"},{"bike_id":"49a5be0b-2b23-4d57-a2bd-3a5d802fab0b","system_id":"levelo_inurba_marseille","lat":43.28993,"lon":5.35599,"is_reserved":false,"is_disabled":true,"rental_uris":{"android":"levelo://app?vid=49a5be0b-2b23-4d57-a2bd-3a5d802fab0b","ios":"levelo://app?vid=49a5be0b-2b23-4d57-a2bd-3a5d802fab0b"},"vehicle_type_id":"4","last_reported":1745608073,"current_range_meters":15200,"station_id":"ce4bhb92rcd13ifvqen0","pricing_plan_id":"cebpf4jnsgd1na2vs0mg"},{"bike_id":"666466fe-2276-4629-a70f-80717acb589f","system_id":"levelo_inurba_marseille","lat":43.29265,"lon":5.37645,"is_reserved":false,"is_disabled":false,"rental_uris":{"android":"levelo://app?vid=666466fe-2276-4629-a70f-80717acb589f","ios":"levelo://app?vid=666466fe-2276-4629-a70f-80717acb589f"},"vehicle_type_id":"4","last_reported":1745608073,"current_range_meters":16000,"station_id":"ce4bgi12rcd13ifvqb80","pricing_plan_id":"cebpf4jnsgd1na2vs0mg"},{"bike_id":"eb155674-27b9-4bd4-8e63-20bfba1aa855","system_id":"levelo_inurba_marseille","lat":43.29201,"lon":5.39315,"is_reserved":false,"is_disabled":false,"rental_uris":{"android":"levelo://app?vid=eb155674-27b9-4bd4-8e63-20bfba1aa855","ios":"levelo://app?vid=eb155674-27b9-4bd4-8e63-20bfba1aa855"},"vehicle_type_id":"4","last_reported":1745608073,"current_range_meters":16000,"station_id":"ce4bh192rcd13ifvqdd0","pricing_plan_id":"cebpf4jnsgd1na2vs0mg"},{"bike_id":"262de007-d0f9-4b5c-9db4-1c829c9329a9","system_id":"levelo_inurba_marseille","lat":43.27942,"lon":5.41046,"is_reserved":false,"is_disabled":false,"rental_uris":{"android":"levelo://app?vid=262de007-d0f9-4b5c-9db4-1c829c9329a9","ios":"levelo://app?vid=262de007-d0f9-4b5c-9db4-1c829c9329a9"},"vehicle_type_id":"4","last_reported":1745608073,"current_range_meters":16000,"station_id":"ce4bhnp2rcd13ifvqh0g","pricing_plan_id":"cebpf4jnsgd1na2vs0mg"},{"bike_id":"987d7900-bb2a-45cb-bed7-6d69f6fd4fa3","system_id":"levelo_inurba_marseille","lat":43.28485,"lon":5.38444,"is_reserved":false,"is_disabled":false,"rental_uris":{"android":"levelo://app?vid=987d7900-bb2a-45cb-bed7-6d69f6fd4fa3","ios":"levelo://app?vid=987d7900-bb2a-45cb-bed7-6d69f6fd4fa3"},"vehicle_type_id":"4","last_reported":1745608073,"current_range_meters":16000,"station_id":"ce4bh512rcd13ifvqe3g","pricing_plan_id":"cebpf4jnsgd1na2vs0mg"},{"bike_id":"ed2eed78-dcf0-44fe-b961-f40c74d3091c","system_id":"levelo_inurba_marseille","lat":43.29603,"lon":5.38102,"is_reserved":false,"is_disabled":false,"rental_uris":{"android":"levelo://app?vid=ed2eed78-dcf0-44fe-b961-f40c74d3091c","ios":"levelo://app?vid=ed2eed78-dcf0-44fe-b961-f40c74d3091c"},"vehicle_type_id":"4","last_reported":1745608073,"current_range_meters":10000,"station_id":"ce4bgl12rcd13ifvqbo0","pricing_plan_id":"cebpf4jnsgd1na2vs0mg"},{"bike_id":"e870689b-f349-4787-8f5e-ab6f7c394f22","system_id":"levelo_inurba_marseille","lat":43.32286,"lon":5.38275,"is_reserved":false,"is_disabled":false,"rental_uris":{"android":"levelo://app?vid=e870689b-f349-4787-8f5e-ab6f7c394f22","ios":"levelo://app?vid=e870689b-f349-4787-8f5e-ab6f7c394f22"},"vehicle_type_id":"4","last_reported":1745608073,"current_range_meters":16000,"station_id":"ce4bhr12rcd13ifvqhqg","pricing_plan_id":"cebpf4jnsgd1na2vs0mg"},{"bike_id":"9a37b5a9-a8bb-4530-aa26-5631d9b2251d","system_id":"levelo_inurba_marseille","lat":43.29848,"lon":5.36287,"is_reserved":false,"is_disabled":false,"rental_uris":{"android":"levelo://app?vid=9a37b5a9-a8bb-4530-aa26-5631d9b2251d","ios":"levelo://app?vid=9a37b5a9-a8bb-4530-aa26-5631d9b2251d"},"vehicle_type_id":"4","last_reported":1745608073,"current_range_meters":16800,"station_id":"","pricing_plan_id":"cebpf4jnsgd1na2vs0mg"},{"bike_id":"d9efaa8d-eb44-4482-a02b-f187986a170b","system_id":"levelo_inurba_marseille","lat":43.298933,"lon":5.383992,"is_reserved":false,"is_disabled":false,"rental_uris":{"android":"levelo://app?vid=d9efaa8d-eb44-4482-a02b-f187986a170b","ios":"levelo://app?vid=d9efaa8d-eb44-4482-a02b-f187986a170b"},"vehicle_type_id":"4","last_reported":1745608073,"current_range_meters":16400,"station_id":"ce4bh012rcd13ifvqcv0","pricing_plan_id":"cebpf4jnsgd1na2vs0mg"},{"bike_id":"52300e33-d1f2-4264-9f31-7351167a7116","system_id":"levelo_inurba_marseille","lat":43.27813,"lon":5.40712,"is_reserved":false,"is_disabled":false,"rental_uris":{"android":"levelo://app?vid=52300e33-d1f2-4264-9f31-7351167a7116","ios":"levelo://app?vid=52300e33-d1f2-4264-9f31-7351167a7116"},"vehicle_type_id":"4","last_reported":1745608073,"current_range_meters":16800,"station_id":"ce4bhnh2rcd13ifvqgtg","pricing_plan_id":"cebpf4jnsgd1na2vs0mg"},{"bike_id":"5c59969d-437f-43ab-990f-664c9830a931","system_id":"levelo_inurba_marseille","lat":43.31376,"lon":5.38669,"is_reserved":false,"is_disabled":false,"rental_uris":{"android":"levelo://app?vid=5c59969d-437f-43ab-990f-664c9830a931","ios":"levelo://app?vid=5c59969d-437f-43ab-990f-664c9830a931"},"vehicle_type_id":"4","last_reported":1745608073,"current_range_meters":16800,"station_id":"","pricing_plan_id":"cebpf4jnsgd1na2vs0mg"},{"bike_id":"c5af7a15-3ea8-49cc-bdc5-b0b093964bd5","system_id":"levelo_inurba_marseille","lat":43.28152,"lon":5.42642,"is_reserved":false,"is_disabled":false,"rental_uris":{"android":"levelo://app?vid=c5af7a15-3ea8-49cc-bdc5-b0b093964bd5","ios":"levelo://app?vid=c5af7a15-3ea8-49cc-bdc5-b0b093964bd5"},"vehicle_type_id":"4","last_reported":1745608073,"current_range_meters":16800,"station_id":"ce4bhnh2rcd13ifvqgug","pricing_plan_id":"cebpf4jnsgd1na2vs0mg"},{"bike_id":"ea8dde20-409a-4358-8cb6-eeec31f44fdd","system_id":"levelo_inurba_marseille","lat":43.30306,"lon":5.36901,"is_reserved":false,"is_disabled":false,"rental_uris":{"android":"levelo://app?vid=ea8dde20-409a-4358-8cb6-eeec31f44fdd","ios":"levelo://app?vid=ea8dde20-409a-4358-8cb6-eeec31f44fdd"},"vehicle_type_id":"4","last_reported":1745608073,"current_range_meters":16800,"station_id":"ce4bgqh2rcd13ifvqc5g","pricing_plan_id":"cebpf4jnsgd1na2vs0mg"},{"bike_id":"31de0553-c9b8-4cd4-844d-7d7b36fa3ecd","system_id":"levelo_inurba_marseille","lat":43.28164,"lon":5.4262,"is_reserved":false,"is_disabled":false,"rental_uris":{"android":"levelo://app?vid=31de0553-c9b8-4cd4-844d-7d7b36fa3ecd","ios":"levelo://app?vid=31de0553-c9b8-4cd4-844d-7d7b36fa3ecd"},"vehicle_type_id":"4","last_reported":1745608073,"current_range_meters":16800,"station_id":"ce4bhnh2rcd13ifvqgug","pricing_plan_id":"cebpf4jnsgd1na2vs0mg"},{"bike_id":"6af27718-a240-4511-b105-026b1985396f","system_id":"levelo_inurba_marseille","lat":43.29618,"lon":5.3628,"is_reserved":false,"is_disabled":false,"rental_uris":{"android":"levelo://app?vid=6af27718-a240-4511-b105-026b1985396f","ios":"levelo://app?vid=6af27718-a240-4511-b105-026b1985396f"},"vehicle_type_id":"4","last_reported":1745608073,"current_range_meters":16800,"station_id":"","pricing_plan_id":"cebpf4jnsgd1na2vs0mg"},{"bike_id":"009b4d31-b1e1-449b-99fe-26b589d67db6","system_id":"levelo_inurba_marseille","lat":43.28614,"lon":5.37053,"is_reserved":false,"is_disabled":false,"rental_uris":{"android":"levelo://app?vid=009b4d31-b1e1-449b-99fe-26b589d67db6","ios":"levelo://app?vid=009b4d31-b1e1-449b-99fe-26b589d67db6"},"vehicle_type_id":"4","last_reported":1745608073,"current_range_meters":16800,"station_id":"ce4bht12rcd13ifvqi60","pricing_plan_id":"cebpf4jnsgd1na2vs0mg"},{"bike_id":"a44c41a4-622a-4a4e-ac16-266ec0cdc544","system_id":"levelo_inurba_marseille","lat":43.28027,"lon":5.36953,"is_reserved":false,"is_disabled":false,"rental_uris":{"android":"levelo://app?vid=a44c41a4-622a-4a4e-ac16-266ec0cdc544","ios":"levelo://app?vid=a44c41a4-622a-4a4e-ac16-266ec0cdc544"},"vehicle_type_id":"4","last_reported":1745608073,"current_range_meters":16800,"station_id":"ce4bha12rcd13ifvqef0","pricing_plan_id":"cebpf4jnsgd1na2vs0mg"},{"bike_id":"4f5910d3-b374-4b3b-9f0d-3e52e281b8ac","system_id":"levelo_inurba_marseille","lat":43.2551,"lon":5.37643,"is_reserved":false,"is_disabled":false,"rental_uris":{"android":"levelo://app?vid=4f5910d3-b374-4b3b-9f0d-3e52e281b8ac","ios":"levelo://app?vid=4f5910d3-b374-4b3b-9f0d-3e52e281b8ac"},"vehicle_type_id":"4","last_reported":1745608073,"current_range_meters":16800,"station_id":"ce4bhh12rcd13ifvqff0","pricing_plan_id":"cebpf4jnsgd1na2vs0mg"},{"bike_id":"7fe1ad88-6f9b-4569-bb5f-c6e6a0381210","system_id":"levelo_inurba_marseille","lat":43.30795,"lon":5.43533,"is_reserved":false,"is_disabled":false,"rental_uris":{"android":"levelo://app?vid=7fe1ad88-6f9b-4569-bb5f-c6e6a0381210","ios":"levelo://app?vid=7fe1ad88-6f9b-4569-bb5f-c6e6a0381210"},"vehicle_type_id":"4","last_reported":1745608073,"current_range_meters":16800,"station_id":"ce4bhph2rcd13ifvqheg","pricing_plan_id":"cebpf4jnsgd1na2vs0mg"},{"bike_id":"51a4b1f4-4cfb-4b9e-b7e6-50254ee4c796","system_id":"levelo_inurba_marseille","lat":43.28617,"lon":5.37048,"is_reserved":false,"is_disabled":true,"rental_uris":{"android":"levelo://app?vid=51a4b1f4-4cfb-4b9e-b7e6-50254ee4c796","ios":"levelo://app?vid=51a4b1f4-4cfb-4b9e-b7e6-50254ee4c796"},"vehicle_type_id":"4","last_reported":1745608073,"current_range_meters":16800,"station_id":"ce4bht12rcd13ifvqi60","pricing_plan_id":"cebpf4jnsgd1na2vs0mg"},{"bike_id":"96733886-38eb-4a8b-9470-0c4bf645e97a","system_id":"levelo_inurba_marseille","lat":43.27953,"lon":5.41033,"is_reserved":false,"is_disabled":false,"rental_uris":{"android":"levelo://app?vid=96733886-38eb-4a8b-9470-0c4bf645e97a","ios":"levelo://app?vid=96733886-38eb-4a8b-9470-0c4bf645e97a"},"vehicle_type_id":"4","last_reported":1745608073,"current_range_meters":17200,"station_id":"ce4bhnp2rcd13ifvqh0g","pricing_plan_id":"cebpf4jnsgd1na2vs0mg"},{"bike_id":"c2082d28-0049-4d9b-b77b-3e0f2acaef07","system_id":"levelo_inurba_marseille","lat":43.29027,"lon":5.38134,"is_reserved":false,"is_disabled":false,"rental_uris":{"android":"levelo://app?vid=c2082d28-0049-4d9b-b77b-3e0f2acaef07","ios":"levelo://app?vid=c2082d28-0049-4d9b-b77b-3e0f2acaef07"},"vehicle_type_id":"4","last_reported":1745608073,"current_range_meters":17200,"station_id":"ce4bh4p2rcd13ifvqe1g","pricing_plan_id":"cebpf4jnsgd1na2vs0mg"},{"bike_id":"2a642a6a-63fc-45af-a74c-52027923ae75","system_id":"levelo_inurba_marseille","lat":43.29261,"lon":5.3843,"is_reserved":false,"is_disabled":false,"rental_uris":{"android":"levelo://app?vid=2a642a6a-63fc-45af-a74c-52027923ae75","ios":"levelo://app?vid=2a642a6a-63fc-45af-a74c-52027923ae75"},"vehicle_type_id":"4","last_reported":1745608073,"current_range_meters":17200,"station_id":"ce4bh692rcd13ifvqea0","pricing_plan_id":"cebpf4jnsgd1na2vs0mg"},{"bike_id":"f253dbf1-2a54-4f08-8c72-a6001f6e9588","system_id":"levelo_inurba_marseille","lat":43.31086,"lon":5.38348,"is_reserved":false,"is_disabled":false,"rental_uris":{"android":"levelo://app?vid=f253dbf1-2a54-4f08-8c72-a6001f6e9588","ios":"levelo://app?vid=f253dbf1-2a54-4f08-8c72-a6001f6e9588"},"vehicle_type_id":"4","last_reported":1745608073,"current_range_meters":17200,"station_id":"ce4bgv92rcd13ifvqcr0","pricing_plan_id":"cebpf4jnsgd1na2vs0mg"},{"bike_id":"e3cdf67a-5fc2-4703-9c39-57d29454c8ba","system_id":"levelo_inurba_marseille","lat":43.340425,"lon":5.386994,"is_reserved":false,"is_disabled":false,"rental_uris":{"android":"levelo://app?vid=e3cdf67a-5fc2-4703-9c39-57d29454c8ba","ios":"levelo://app?vid=e3cdf67a-5fc2-4703-9c39-57d29454c8ba"},"vehicle_type_id":"4","last_reported":1745608073,"current_range_meters":17600,"station_id":"","pricing_plan_id":"cebpf4jnsgd1na2vs0mg"},{"bike_id":"c99307bf-2a53-44ec-9952-092256dde960","system_id":"levelo_inurba_marseille","lat":43.26208,"lon":5.37442,"is_reserved":false,"is_disabled":false,"rental_uris":{"android":"levelo://app?vid=c99307bf-2a53-44ec-9952-092256dde960","ios":"levelo://app?vid=c99307bf-2a53-44ec-9952-092256dde960"},"vehicle_type_id":"4","last_reported":1745608073,"current_range_meters":17600,"station_id":"ce4bhgp2rcd13ifvqfc0","pricing_plan_id":"cebpf4jnsgd1na2vs0mg"},{"bike_id":"559bde7c-a247-43c6-8483-bbbc420ade79","system_id":"levelo_inurba_marseille","lat":43.28041,"lon":5.3694,"is_reserved":false,"is_disabled":false,"rental_uris":{"android":"levelo://app?vid=559bde7c-a247-43c6-8483-bbbc420ade79","ios":"levelo://app?vid=559bde7c-a247-43c6-8483-bbbc420ade79"},"vehicle_type_id":"4","last_reported":1745608073,"current_range_meters":17600,"station_id":"ce4bha12rcd13ifvqef0","pricing_plan_id":"cebpf4jnsgd1na2vs0mg"},{"bike_id":"47c519dd-dfce-4455-9722-bd40f3f9cf27","system_id":"levelo_inurba_marseille","lat":43.27911,"lon":5.39586,"is_reserved":false,"is_disabled":false,"rental_uris":{"android":"levelo://app?vid=47c519dd-dfce-4455-9722-bd40f3f9cf27","ios":"levelo://app?vid=47c519dd-dfce-4455-9722-bd40f3f9cf27"},"vehicle_type_id":"4","last_reported":1745608073,"current_range_meters":17600,"station_id":"ce4bhf92rcd13ifvqf40","pricing_plan_id":"cebpf4jnsgd1na2vs0mg"},{"bike_id":"4046a82f-66e8-4b55-bd0a-356edea772d8","system_id":"levelo_inurba_marseille","lat":43.30803,"lon":5.37409,"is_reserved":false,"is_disabled":false,"rental_uris":{"android":"levelo://app?vid=4046a82f-66e8-4b55-bd0a-356edea772d8","ios":"levelo://app?vid=4046a82f-66e8-4b55-bd0a-356edea772d8"},"vehicle_type_id":"4","last_reported":1745608073,"current_range_meters":18000,"station_id":"","pricing_plan_id":"cebpf4jnsgd1na2vs0mg"},{"bike_id":"0986b787-6553-4f2c-b52f-7befe7647f4d","system_id":"levelo_inurba_marseille","lat":43.32482,"lon":5.36563,"is_reserved":false,"is_disabled":false,"rental_uris":{"android":"levelo://app?vid=0986b787-6553-4f2c-b52f-7befe7647f4d","ios":"levelo://app?vid=0986b787-6553-4f2c-b52f-7befe7647f4d"},"vehicle_type_id":"4","last_reported":1745608073,"current_range_meters":18000,"station_id":"ce4bhs12rcd13ifvqhvg","pricing_plan_id":"cebpf4jnsgd1na2vs0mg"},{"bike_id":"5b0176a5-7960-40d3-8ad4-20fcd758d247","system_id":"levelo_inurba_marseille","lat":43.28845,"lon":5.39306,"is_reserved":false,"is_disabled":false,"rental_uris":{"android":"levelo://app?vid=5b0176a5-7960-40d3-8ad4-20fcd758d247","ios":"levelo://app?vid=5b0176a5-7960-40d3-8ad4-20fcd758d247"},"vehicle_type_id":"4","last_reported":1745608073,"current_range_meters":18000,"station_id":"ce4bh2p2rcd13ifvqdi0","pricing_plan_id":"cebpf4jnsgd1na2vs0mg"},{"bike_id":"6b369b4c-9a29-4a4e-a107-d6eeff032a3d","system_id":"levelo_inurba_marseille","lat":43.30538,"lon":5.36554,"is_reserved":false,"is_disabled":false,"rental_uris":{"android":"levelo://app?vid=6b369b4c-9a29-4a4e-a107-d6eeff032a3d","ios":"levelo://app?vid=6b369b4c-9a29-4a4e-a107-d6eeff032a3d"},"vehicle_type_id":"4","last_reported":1745608073,"current_range_meters":18000,"station_id":"ce4bgs12rcd13ifvqcag","pricing_plan_id":"cebpf4jnsgd1na2vs0mg"},{"bike_id":"07dbcea6-efda-4414-802a-ff4af4d4b95a","system_id":"levelo_inurba_marseille","lat":43.31715,"lon":5.43708,"is_reserved":false,"is_disabled":false,"rental_uris":{"android":"levelo://app?vid=07dbcea6-efda-4414-802a-ff4af4d4b95a","ios":"levelo://app?vid=07dbcea6-efda-4414-802a-ff4af4d4b95a"},"vehicle_type_id":"4","last_reported":1745608073,"current_range_meters":18000,"station_id":"ce4bhp92rcd13ifvqhcg","pricing_plan_id":"cebpf4jnsgd1na2vs0mg"},{"bike_id":"d28bf9af-5868-40cf-bc78-dd7cb5c022b5","system_id":"levelo_inurba_marseille","lat":43.29956,"lon":5.38527,"is_reserved":false,"is_disabled":true,"rental_uris":{"android":"levelo://app?vid=d28bf9af-5868-40cf-bc78-dd7cb5c022b5","ios":"levelo://app?vid=d28bf9af-5868-40cf-bc78-dd7cb5c022b5"},"vehicle_type_id":"4","last_reported":1745608073,"current_range_meters":18000,"station_id":"ce4bgj92rcd13ifvqbd0","pricing_plan_id":"cebpf4jnsgd1na2vs0mg"},{"bike_id":"9fac8949-580c-4814-ac69-31148581f4a2","system_id":"levelo_inurba_marseille","lat":43.32988,"lon":5.39159,"is_reserved":false,"is_disabled":false,"rental_uris":{"android":"levelo://app?vid=9fac8949-580c-4814-ac69-31148581f4a2","ios":"levelo://app?vid=9fac8949-580c-4814-ac69-31148581f4a2"},"vehicle_type_id":"4","last_reported":1745608073,"current_range_meters":18000,"station_id":"","pricing_plan_id":"cebpf4jnsgd1na2vs0mg"},{"bike_id":"cc2c5d23-9f21-412f-8ef0-e554f6c96319","system_id":"levelo_inurba_marseille","lat":43.28027,"lon":5.36952,"is_reserved":false,"is_disabled":false,"rental_uris":{"android":"levelo://app?vid=cc2c5d23-9f21-412f-8ef0-e554f6c96319","ios":"levelo://app?vid=cc2c5d23-9f21-412f-8ef0-e554f6c96319"},"vehicle_type_id":"4","last_reported":1745608073,"current_range_meters":18800,"station_id":"ce4bha12rcd13ifvqef0","pricing_plan_id":"cebpf4jnsgd1na2vs0mg"},{"bike_id":"484aaecc-1866-4716-8644-67915eb32ee1","system_id":"levelo_inurba_marseille","lat":43.3095,"lon":5.39033,"is_reserved":false,"is_disabled":false,"rental_uris":{"android":"levelo://app?vid=484aaecc-1866-4716-8644-67915eb32ee1","ios":"levelo://app?vid=484aaecc-1866-4716-8644-67915eb32ee1"},"vehicle_type_id":"4","last_reported":1745608073,"current_range_meters":18800,"station_id":"ce4bgup2rcd13ifvqco0","pricing_plan_id":"cebpf4jnsgd1na2vs0mg"},{"bike_id":"1d594d7c-16a9-48be-be0b-72f4630a76e8","system_id":"levelo_inurba_marseille","lat":43.255,"lon":5.37652,"is_reserved":false,"is_disabled":false,"rental_uris":{"android":"levelo://app?vid=1d594d7c-16a9-48be-be0b-72f4630a76e8","ios":"levelo://app?vid=1d594d7c-16a9-48be-be0b-72f4630a76e8"},"vehicle_type_id":"4","last_reported":1745608073,"current_range_meters":18800,"station_id":"ce4bhh12rcd13ifvqff0","pricing_plan_id":"cebpf4jnsgd1na2vs0mg"},{"bike_id":"292efd32-0ab8-4178-9857-905c09dea480","system_id":"levelo_inurba_marseille","lat":43.28455,"lon":5.35894,"is_reserved":false,"is_disabled":false,"rental_uris":{"android":"levelo://app?vid=292efd32-0ab8-4178-9857-905c09dea480","ios":"levelo://app?vid=292efd32-0ab8-4178-9857-905c09dea480"},"vehicle_type_id":"4","last_reported":1745608073,"current_range_meters":19200,"station_id":"ce4bhah2rcd13ifvqei0","pricing_plan_id":"cebpf4jnsgd1na2vs0mg"},{"bike_id":"0915a08f-8db1-4bd0-9253-0c23878831ef","system_id":"levelo_inurba_marseille","lat":43.2955,"lon":5.42294,"is_reserved":false,"is_disabled":false,"rental_uris":{"android":"levelo://app?vid=0915a08f-8db1-4bd0-9253-0c23878831ef","ios":"levelo://app?vid=0915a08f-8db1-4bd0-9253-0c23878831ef"},"vehicle_type_id":"4","last_reported":1745608073,"current_range_meters":19200,"station_id":"ce4bhph2rcd13ifvqhdg","pricing_plan_id":"cebpf4jnsgd1na2vs0mg"},{"bike_id":"f112f895-8048-435c-bdc9-cb9eefd90c8e","system_id":"levelo_inurba_marseille","lat":43.309509,"lon":5.390347,"is_reserved":false,"is_disabled":false,"rental_uris":{"android":"levelo://app?vid=f112f895-8048-435c-bdc9-cb9eefd90c8e","ios":"levelo://app?vid=f112f895-8048-435c-bdc9-cb9eefd90c8e"},"vehicle_type_id":"4","last_reported":1745608073,"current_range_meters":19200,"station_id":"","pricing_plan_id":"cebpf4jnsgd1na2vs0mg"},{"bike_id":"8ec4e23d-1c19-470d-879c-6e0b7873e4d5","system_id":"levelo_inurba_marseille","lat":43.29027,"lon":5.38134,"is_reserved":false,"is_disabled":true,"rental_uris":{"android":"levelo://app?vid=8ec4e23d-1c19-470d-879c-6e0b7873e4d5","ios":"levelo://app?vid=8ec4e23d-1c19-470d-879c-6e0b7873e4d5"},"vehicle_type_id":"4","last_reported":1745608073,"current_range_meters":19200,"station_id":"ce4bh4p2rcd13ifvqe1g","pricing_plan_id":"cebpf4jnsgd1na2vs0mg"},{"bike_id":"4741e6af-20c0-42f4-b950-4d85a1b8cba0","system_id":"levelo_inurba_marseille","lat":43.30836,"lon":5.37907,"is_reserved":false,"is_disabled":false,"rental_uris":{"android":"levelo://app?vid=4741e6af-20c0-42f4-b950-4d85a1b8cba0","ios":"levelo://app?vid=4741e6af-20c0-42f4-b950-4d85a1b8cba0"},"vehicle_type_id":"4","last_reported":1745608073,"current_range_meters":19200,"station_id":"","pricing_plan_id":"cebpf4jnsgd1na2vs0mg"},{"bike_id":"c58340fc-3779-4f7b-bab9-ba34fb32250e","system_id":"levelo_inurba_marseille","lat":43.30961,"lon":5.39042,"is_reserved":false,"is_disabled":false,"rental_uris":{"android":"levelo://app?vid=c58340fc-3779-4f7b-bab9-ba34fb32250e","ios":"levelo://app?vid=c58340fc-3779-4f7b-bab9-ba34fb32250e"},"vehicle_type_id":"4","last_reported":1745608073,"current_range_meters":19200,"station_id":"ce4bgup2rcd13ifvqco0","pricing_plan_id":"cebpf4jnsgd1na2vs0mg"},{"bike_id":"a99a7530-05fc-4a82-9bdc-e3e16ab6a4f5","system_id":"levelo_inurba_marseille","lat":43.2953,"lon":5.38532,"is_reserved":false,"is_disabled":false,"rental_uris":{"android":"levelo://app?vid=a99a7530-05fc-4a82-9bdc-e3e16ab6a4f5","ios":"levelo://app?vid=a99a7530-05fc-4a82-9bdc-e3e16ab6a4f5"},"vehicle_type_id":"4","last_reported":1745608073,"current_range_meters":19200,"station_id":"ce4bgih2rcd13ifvqba0","pricing_plan_id":"cebpf4jnsgd1na2vs0mg"},