{"last_updated":1730204262,"ttl":60,"version":"2.2","data":{"bikes":[{"bike_id":"99582ce6-fa29-46a8-a0ab-bf49d3a74229","system_id":"levelo_inurba_marseille","lat":43.25584,"lon":5.38228,"is_reserved":false,"is_disabled":false,"rental_uris":{"android":"levelo://app?vid=99582ce6-fa29-46a8-a0ab-bf49d3a74229","ios":"levelo://app?vid=99582ce6-fa29-46a8-a0ab-bf49d3a74229"},"vehicle_type_id":"4","last_reported":1730204262,"current_range_meters":19600,"station_id":"ce4bhih2rcd13ifvqfs0","pricing_plan_id":"cebpf4jnsgd1na2vs0mg"},{"bike_id":"d0b0a2fb-510e-455f-8d64-8ee752b317c9","system_id":"levelo_inurba_marseille","lat":43.31229,"lon":5.36856,"is_reserved":false,"is_disabled":false,"rental_uris":{"android":"levelo://app?vid=d0b0a2fb-510e-455f-8d64-8ee752b317c9","ios":"levelo://app?vid=d0b0a2fb-510e-455f-8d64-8ee752b317c9"},"vehicle_type_id":"4","last_reported":1730204262,"current_range_meters":34000,"station_id":"ce4bgl92rcd13ifvqbq0","pricing_plan_id":"cebpf4jnsgd1na2vs0mg"},{"bike_id":"57b602a8-c84e-4f60-b433-c10fcd1a9322","system_id":"levelo_inurba_marseille","lat":43.29849,"lon":5.36283,"is_reserved":false,"is_disabled":false,"rental_uris":{"android":"levelo://app?vid=57b602a8-c84e-4f60-b433-c10fcd1a9322","ios":"levelo://app?vid=57b602a8-c84e-4f60-b433-c10fcd1a9322"},"vehicle_type_id":"4","last_reported":1730204262,"current_range_meters":34800,"station_id":"ce4bgpp2rcd13ifvqc3g","pricing_plan_id":"cebpf4jnsgd1na2vs0mg"},{"bike_id":"6daefb7d-890b-4927-bca4-1e9b57c2727d","system_id":"levelo_inurba_marseille","lat":43.27179,"lon":5.40996,"is_reserved":false,"is_disabled":false,"rental_uris":{"android":"levelo://app?vid=6daefb7d-890b-4927-bca4-1e9b57c2727d","ios":"levelo://app?vid=6daefb7d-890b-4927-bca4-1e9b57c2727d"},"vehicle_type_id":"4","last_reported":1730204262,"current_range_meters":7200,"station_id":"ce4bhl12rcd13ifvqgf0","pricing_plan_id":"cebpf4jnsgd1na2vs0mg"},{"bike_id":"4412fcda-f252-4c84-82b4-cfcfbd45622b","system_id":"levelo_inurba_marseille","lat":43.29892,"lon":5.43658,"is_reserved":false,"is_disabled":false,"rental_uris":{"android":"levelo://app?vid=4412fcda-f252-4c84-82b4-cfcfbd45622b","ios":"levelo://app?vid=4412fcda-f252-4c84-82b4-cfcfbd45622b"},"vehicle_type_id":"4","last_reported":1730204262,"current_range_meters":39200,"station_id":"ce4bhpp2rcd13ifvqhfg","pricing_plan_id":"cebpf4jnsgd1na2vs0mg"},{"bike_id":"7728c6cd-92bf-48f0-9848-309e67c38641","system_id":"levelo_inurba_marseille","lat":43.322918,"lon":5.382797,"is_reserved":false,"is_disabled":false,"rental_uris":{"android":"levelo://app?vid=7728c6cd-92bf-48f0-9848-309e67c38641","ios":"levelo://app?vid=7728c6cd-92bf-48f0-9848-309e67c38641"},"vehicle_type_id":"4","last_reported":1730204262,"current_range_meters":38800,"station_id":"ce4bhr12rcd13ifvqhqg","pricing_plan_id":"cebpf4jnsgd1na2vs0mg"},{"bike_id":"89146a8e-4b67-409d-b7c9-de2fbe50837a","system_id":"levelo_inurba_marseille","lat":43.24176,"lon":5.39729,"is_reserved":false,"is_disabled":false,"rental_uris":{"android":"levelo://app?vid=89146a8e-4b67-409d-b7c9-de2fbe50837a","ios":"levelo://app?vid=89146a8e-4b67-409d-b7c9-de2fbe50837a"},"vehicle_type_id":"4","last_reported":1730204262,"current_range_meters":30000,"station_id":"ce4bhn12rcd13ifvqgpg","pricing_plan_id":"cebpf4jnsgd1na2vs0mg"},{"bike_id":"7019b8ca-f923-42f4-b767-30d6c2983305","system_id":"levelo_inurba_marseille","lat":43.25102,"lon":5.40324,"is_reserved":false,"is_disabled":false,"rental_uris":{"android":"levelo://app?vid=7019b8ca-f923-42f4-b767-30d6c2983305","ios":"levelo://app?vid=7019b8ca-f923-42f4-b767-30d6c2983305"},"vehicle_type_id":"4","last_reported":1730204262,"current_range_meters":38800,"station_id":"ce4bhlh2rcd13ifvqgig","pricing_plan_id":"cebpf4jnsgd1na2vs0mg"},{"bike_id":"9cd28ed1-51d4-469f-80b1-db1aa7224fd9","system_id":"levelo_inurba_marseille","lat":43.31894,"lon":5.40742,"is_reserved":false,"is_disabled":false,"rental_uris":{"android":"levelo://app?vid=9cd28ed1-51d4-469f-80b1-db1aa7224fd9","ios":"levelo://app?vid=9cd28ed1-51d4-469f-80b1-db1aa7224fd9"},"vehicle_type_id":"4","last_reported":1730204262,"current_range_meters":35600,"station_id":"ce4bhq12rcd13ifvqhig","pricing_plan_id":"cebpf4jnsgd1na2vs0mg"},{"bike_id":"4298f1e4-011a-46c1-81fe-a0f27b2c52e5","system_id":"levelo_inurba_marseille","lat":43.31363,"lon":5.38484,"is_reserved":false,"is_disabled":false,"rental_uris":{"android":"levelo://app?vid=4298f1e4-011a-46c1-81fe-a0f27b2c52e5","ios":"levelo://app?vid=4298f1e4-011a-46c1-81fe-a0f27b2c52e5"},"vehicle_type_id":"4","last_reported":1730204262,"current_range_meters":8000,"station_id":"ce4bgt92rcd13ifvqcf0","pricing_plan_id":"cebpf4jnsgd1na2vs0mg"},{"bike_id":"62c7e5a0-66c0-47ee-b181-1ce7d8b0d22b","system_id":"levelo_inurba_marseille","lat":43.31335,"lon":5.36708,"is_reserved":false,"is_disabled":false,"rental_uris":{"android":"levelo://app?vid=62c7e5a0-66c0-47ee-b181-1ce7d8b0d22b","ios":"levelo://app?vid=62c7e5a0-66c0-47ee-b181-1ce7d8b0d22b"},"vehicle_type_id":"4","last_reported":1730204262,"current_range_meters":37600,"station_id":"ce4bgr92rcd13ifvqc6g","pricing_plan_id":"cebpf4jnsgd1na2vs0mg"},{"bike_id":"37b40bb4-bb0c-44ab-a480-c722707afa01","system_id":"levelo_inurba_marseille","lat":43.29271,"lon":5.40113,"is_reserved":false,"is_disabled":false,"rental_uris":{"android":"levelo://app?vid=37b40bb4-bb0c-44ab-a480-c722707afa01","ios":"levelo://app?vid=37b40bb4-bb0c-44ab-a480-c722707afa01"},"vehicle_type_id":"4","last_reported":1730204262,"current_range_meters":16000,"station_id":"ce4bh312rcd13ifvqdk0","pricing_plan_id":"cebpf4jnsgd1na2vs0mg"},{"bike_id":"a8fd7285-3135-48fd-8519-69a5c378b239","system_id":"levelo_inurba_marseille","lat":43.284978,"lon":5.385637,"is_reserved":false,"is_disabled":false,"rental_uris":{"android":"levelo://app?vid=a8fd7285-3135-48fd-8519-69a5c378b239","ios":"levelo://app?vid=a8fd7285-3135-48fd-8519-69a5c378b239"},"vehicle_type_id":"4","last_reported":1730204262,"current_range_meters":18000,"station_id":"ce4bh8p2rcd13ifvqeb0","pricing_plan_id":"cebpf4jnsgd1na2vs0mg"},{"bike_id":"4efc610e-02b4-467c-acf9-9ee68f6b7bf5","system_id":"levelo_inurba_marseille","lat":43.23196,"lon":5.35544,"is_reserved":false,"is_disabled":false,"rental_uris":{"android":"levelo://app?vid=4efc610e-02b4-467c-acf9-9ee68f6b7bf5","ios":"levelo://app?vid=4efc610e-02b4-467c-acf9-9ee68f6b7bf5"},"vehicle_type_id":"4","last_reported":1730204262,"current_range_meters":38800,"station_id":"ce4bhu92rcd13ifvqi70","pricing_plan_id":"cebpf4jnsgd1na2vs0mg"},{"bike_id":"f660ffa9-c183-4c21-aee1-92a2d31799a1","system_id":"levelo_inurba_marseille","lat":43.31165,"lon":5.38718,"is_reserved":false,"is_disabled":false,"rental_uris":{"android":"levelo://app?vid=f660ffa9-c183-4c21-aee1-92a2d31799a1","ios":"levelo://app?vid=f660ffa9-c183-4c21-aee1-92a2d31799a1"},"vehicle_type_id":"4","last_reported":1730204262,"current_range_meters":22400,"station_id":"ce4bgv12rcd13ifvqcp0","pricing_plan_id":"cebpf4jnsgd1na2vs0mg"},{"bike_id":"960d455d-56ea-41f6-9c69-d1294353e87b","system_id":"levelo_inurba_marseille","lat":43.32488,"lon":5.36556,"is_reserved":false,"is_disabled":false,"rental_uris":{"android":"levelo://app?vid=960d455d-56ea-41f6-9c69-d1294353e87b","ios":"levelo://app?vid=960d455d-56ea-41f6-9c69-d1294353e87b"},"vehicle_type_id":"4","last_reported":1730204262,"current_range_meters":28800,"station_id":"ce4bhs12rcd13ifvqhvg","pricing_plan_id":"cebpf4jnsgd1na2vs0mg"},{"bike_id":"703412b6-5bff-4812-8759-8a99beeb3031","system_id":"levelo_inurba_marseille","lat":43.30911,"lon":5.36844,"is_reserved":false,"is_disabled":false,"rental_uris":{"android":"levelo://app?vid=703412b6-5bff-4812-8759-8a99beeb3031","ios":"levelo://app?vid=703412b6-5bff-4812-8759-8a99beeb3031"},"vehicle_type_id":"4","last_reported":1730204262,"current_range_meters":36800,"station_id":"ce4bgn92rcd13ifvqbvg","pricing_plan_id":"cebpf4jnsgd1na2vs0mg"},{"bike_id":"b2cb9511-94a5-4a1d-89ef-2db07776742c","system_id":"levelo_inurba_marseille","lat":43.290355,"lon":5.39964,"is_reserved":false,"is_disabled":false,"rental_uris":{"android":"levelo://app?vid=b2cb9511-94a5-4a1d-89ef-2db07776742c","ios":"levelo://app?vid=b2cb9511-94a5-4a1d-89ef-2db07776742c"},"vehicle_type_id":"4","last_reported":1730204262,"current_range_meters":35600,"station_id":"ce4bgrh2rcd13ifvqc8g","pricing_plan_id":"cebpf4jnsgd1na2vs0mg"},{"bike_id":"a2dc2c5b-7a08-47f4-b341-179e9e26fe24","system_id":"levelo_inurba_marseille","lat":43.28266,"lon":5.35059,"is_reserved":false,"is_disabled":false,"rental_uris":{"android":"levelo://app?vid=a2dc2c5b-7a08-47f4-b341-179e9e26fe24","ios":"levelo://app?vid=a2dc2c5b-7a08-47f4-b341-179e9e26fe24"},"vehicle_type_id":"4","last_reported":1730204262,"current_range_meters":32000,"station_id":"ce4bhbp2rcd13ifvqerg","pricing_plan_id":"cebpf4jnsgd1na2vs0mg"},{"bike_id":"bda602e5-a892-4823-b151-26ccb9695526","system_id":"levelo_inurba_marseille","lat":43.31331,"lon":5.39687,"is_reserved":false,"is_disabled":false,"rental_uris":{"android":"levelo://app?vid=bda602e5-a892-4823-b151-26ccb9695526","ios":"levelo://app?vid=bda602e5-a892-4823-b151-26ccb9695526"},"vehicle_type_id":"4","last_reported":1730204262,"current_range_meters":38800,"station_id":"ce4bgvp2rcd13ifvqcu0","pricing_plan_id":"cebpf4jnsgd1na2vs0mg"},{"bike_id":"f664db86-1775-4f23-b446-c96d0c4c22db","system_id":"levelo_inurba_marseille","lat":43.26192,"lon":5.37446,"is_reserved":false,"is_disabled":false,"rental_uris":{"android":"levelo://app?vid=f664db86-1775-4f23-b446-c96d0c4c22db","ios":"levelo://app?vid=f664db86-1775-4f23-b446-c96d0c4c22db"},"vehicle_type_id":"4","last_reported":1730204262,"current_range_meters":34000,"station_id":"ce4bhgp2rcd13ifvqfc0","pricing_plan_id":"cebpf4jnsgd1na2vs0mg"},{"bike_id":"8e1cf6e1-b26f-4ff5-aadf-710f6284a59f","system_id":"levelo_inurba_marseille","lat":43.28078,"lon":5.39654,"is_reserved":false,"is_disabled":false,"rental_uris":{"android":"levelo://app?vid=8e1cf6e1-b26f-4ff5-aadf-710f6284a59f","ios":"levelo://app?vid=8e1cf6e1-b26f-4ff5-aadf-710f6284a59f"},"vehicle_type_id":"4","last_reported":1730204262,"current_range_meters":39200,"station_id":"ce4bho12rcd13ifvqh2g","pricing_plan_id":"cebpf4jnsgd1na2vs0mg"},{"bike_id":"5cff84c2-597a-451c-985d-d4b72f386d82","system_id":"levelo_inurba_marseille","lat":43.246575,"lon":5.381747,"is_reserved":false,"is_disabled":false,"rental_uris":{"android":"levelo://app?vid=5cff84c2-597a-451c-985d-d4b72f386d82","ios":"levelo://app?vid=5cff84c2-597a-451c-985d-d4b72f386d82"},"vehicle_type_id":"4","last_reported":1730204262,"current_range_meters":17200,"station_id":"ce4bhih2rcd13ifvqfr0","pricing_plan_id":"cebpf4jnsgd1na2vs0mg"},{"bike_id":"a3e8244e-561e-4359-a446-94df17fdbec9","system_id":"levelo_inurba_marseille","lat":43.27315,"lon":5.39088,"is_reserved":false,"is_disabled":false,"rental_uris":{"android":"levelo://app?vid=a3e8244e-561e-4359-a446-94df17fdbec9","ios":"levelo://app?vid=a3e8244e-561e-4359-a446-94df17fdbec9"},"vehicle_type_id":"4","last_reported":1730204262,"current_range_meters":38000,"station_id":"ce4bhgp2rcd13ifvqfe0","pricing_plan_id":"cebpf4jnsgd1na2vs0mg"},{"bike_id":"0a61a3d2-6641-4f3b-873d-011bf5852eb2","system_id":"levelo_inurba_marseille","lat":43.27979,"lon":5.38742,"is_reserved":false,"is_disabled":false,"rental_uris":{"android":"levelo://app?vid=0a61a3d2-6641-4f3b-873d-011bf5852eb2","ios":"levelo://app?vid=0a61a3d2-6641-4f3b-873d-011bf5852eb2"},"vehicle_type_id":"4","last_reported":1730204262,"current_range_meters":32400,"station_id":"ce4bhg12rcd13ifvqf80","pricing_plan_id":"cebpf4jnsgd1na2vs0mg"},{"bike_id":"796ddc31-0cd6-4e3c-addb-6bb53dcc0bd4","system_id":"levelo_inurba_marseille","lat":43.294387,"lon":5.39743,"is_reserved":false,"is_disabled":false,"rental_uris":{"android":"levelo://app?vid=796ddc31-0cd6-4e3c-addb-6bb53dcc0bd4","ios":"levelo://app?vid=796ddc31-0cd6-4e3c-addb-6bb53dcc0bd4"},"vehicle_type_id":"4","last_reported":1730204262,"current_range_meters":27200,"station_id":"ce4bh3h2rcd13ifvqdo0","pricing_plan_id":"cebpf4jnsgd1na2vs0mg"},{"bike_id":"c6035000-ed11-4c21-bcd6-4630e63bc459","system_id":"levelo_inurba_marseille","lat":43.26938,"lon":5.38919,"is_reserved":false,"is_disabled":false,"rental_uris":{"android":"levelo://app?vid=c6035000-ed11-4c21-bcd6-4630e63bc459","ios":"levelo://app?vid=c6035000-ed11-4c21-bcd6-4630e63bc459"},"vehicle_type_id":"4","last_reported":1730204262,"current_range_meters":32000,"station_id":"ce4bhb92rcd13ifvqen0","pricing_plan_id":"cebpf4jnsgd1na2vs0mg"},{"bike_id":"0f42d642-fdb6-4608-919e-6fa6f04abf04","system_id":"levelo_inurba_marseille","lat":43.31695,"lon":5.40471,"is_reserved":false,"is_disabled":false,"rental_uris":{"android":"levelo://app?vid=0f42d642-fdb6-4608-919e-6fa6f04abf04","ios":"levelo://app?vid=0f42d642-fdb6-4608-919e-6fa6f04abf04"},"vehicle_type_id":"4","last_reported":1730204262,"current_range_meters":24800,"station_id":"ce4bh012rcd13ifvqd00","pricing_plan_id":"cebpf4jnsgd1na2vs0mg"},{"bike_id":"bdf63b9f-8930-45e7-8177-b607568d23e7","system_id":"levelo_inurba_marseille","lat":43.3054,"lon":5.36695,"is_reserved":false,"is_disabled":false,"rental_uris":{"android":"levelo://app?vid=bdf63b9f-8930-45e7-8177-b607568d23e7","ios":"levelo://app?vid=bdf63b9f-8930-45e7-8177-b607568d23e7"},"vehicle_type_id":"4","last_reported":1730204262,"current_range_meters":38400,"station_id":"ce4bgrp2rcd13ifvqc9g","pricing_plan_id":"cebpf4jnsgd1na2vs0mg"},{"bike_id":"8897d205-66a5-4afc-b22b-cefc8ff949a9","system_id":"levelo_inurba_marseille","lat":43.28412,"lon":5.3498,"is_reserved":false,"is_disabled":false,"rental_uris":{"android":"levelo://app?vid=8897d205-66a5-4afc-b22b-cefc8ff949a9","ios":"levelo://app?vid=8897d205-66a5-4afc-b22b-cefc8ff949a9"},"vehicle_type_id":"4","last_reported":1730204262,"current_range_meters":24000,"station_id":"ce4bhbh2rcd13ifvqepg","pricing_plan_id":"cebpf4jnsgd1na2vs0mg"},{"bike_id":"1ec1daf0-7326-4119-a741-03991bb4ec82","system_id":"levelo_inurba_marseille","lat":43.28407,"lon":5.37503,"is_reserved":false,"is_disabled":false,"rental_uris":{"android":"levelo://app?vid=1ec1daf0-7326-4119-a741-03991bb4ec82","ios":"levelo://app?vid=1ec1daf0-7326-4119-a741-03991bb4ec82"},"vehicle_type_id":"4","last_reported":1730204262,"current_range_meters":24400,"station_id":"ce4bh412rcd13ifvqds0","pricing_plan_id":"cebpf4jnsgd1na2vs0mg"},{"bike_id":"70c69c26-6ac3-4c35-9f87-8dfeb042db6a","system_id":"levelo_inurba_marseille","lat":43.3117,"lon":5.38699,"is_reserved":false,"is_disabled":false,"rental_uris":{"android":"levelo://app?vid=70c69c26-6ac3-4c35-9f87-8dfeb042db6a","ios":"levelo://app?vid=70c69c26-6ac3-4c35-9f87-8dfeb042db6a"},"vehicle_type_id":"4","last_reported":1730204262,"current_range_meters":25600,"station_id":"ce4bgv12rcd13ifvqcp0","pricing_plan_id":"cebpf4jnsgd1na2vs0mg"},{"bike_id":"e2b9e699-dad4-448a-8531-1d3331721e76","system_id":"levelo_inurba_marseille","lat":43.24806,"lon":5.37455,"is_reserved":false,"is_disabled":false,"rental_uris":{"android":"levelo://app?vid=e2b9e699-dad4-448a-8531-1d3331721e76","ios":"levelo://app?vid=e2b9e699-dad4-448a-8531-1d3331721e76"},"vehicle_type_id":"4","last_reported":1730204262,"current_range_meters":36800,"station_id":"ce4bhgh2rcd13ifvqfb0","pricing_plan_id":"cebpf4jnsgd1na2vs0mg"},{"bike_id":"c542c681-ace4-4a80-b9f6-e93674b3f9cd","system_id":"levelo_inurba_marseille","lat":43.28411,"lon":5.37516,"is_reserved":false,"is_disabled":false,"rental_uris":{"android":"levelo://app?vid=c542c681-ace4-4a80-b9f6-e93674b3f9cd","ios":"levelo://app?vid=c542c681-ace4-4a80-b9f6-e93674b3f9cd"},"vehicle_type_id":"4","last_reported":1730204262,"current_range_meters":39200,"station_id":"ce4bh412rcd13ifvqds0","pricing_plan_id":"cebpf4jnsgd1na2vs0mg"},{"bike_id":"1a01e51f-80b9-45b2-8546-6f6668da116a","system_id":"levelo_inurba_marseille","lat":43.25937,"lon":5.40896,"is_reserved":false,"is_disabled":false,"rental_uris":{"android":"levelo://app?vid=1a01e51f-80b9-45b2-8546-6f6668da116a","ios":"levelo://app?vid=1a01e51f-80b9-45b2-8546-6f6668da116a"},"vehicle_type_id":"4","last_reported":1730204262,"current_range_meters":34000,"station_id":"ce4bhm92rcd13ifvqglg","pricing_plan_id":"cebpf4jnsgd1na2vs0mg"},{"bike_id":"70bb78fe-4bef-4d56-a833-affc0bdfc9f3","system_id":"levelo_inurba_marseille","lat":43.2319,"lon":5.35556,"is_reserved":false,"is_disabled":false,"rental_uris":{"android":"levelo://app?vid=70bb78fe-4bef-4d56-a833-affc0bdfc9f3","ios":"levelo://app?vid=70bb78fe-4bef-4d56-a833-affc0bdfc9f3"},"vehicle_type_id":"4","last_reported":1730204262,"current_range_meters":40000,"station_id":"ce4bhu92rcd13ifvqi70","pricing_plan_id":"cebpf4jnsgd1na2vs0mg"},{"bike_id":"f3fe06b8-8166-41e5-afc2-5aba8fc5457a","system_id":"levelo_inurba_marseille","lat":43.30905,"lon":5.36839,"is_reserved":false,"is_disabled":false,"rental_uris":{"android":"levelo://app?vid=f3fe06b8-8166-41e5-afc2-5aba8fc5457a","ios":"levelo://app?vid=f3fe06b8-8166-41e5-afc2-5aba8fc5457a"},"vehicle_type_id":"4","last_reported":1730204262,"current_range_meters":39200,"station_id":"ce4bgn92rcd13ifvqbvg","pricing_plan_id":"cebpf4jnsgd1na2vs0mg"},{"bike_id":"7d059a43-bb3c-4555-9e51-db21365b796b","system_id":"levelo_inurba_marseille","lat":43.25935,"lon":5.40903,"is_reserved":false,"is_disabled":false,"rental_uris":{"android":"levelo://app?vid=7d059a43-bb3c-4555-9e51-db21365b796b","ios":"levelo://app?vid=7d059a43-bb3c-4555-9e51-db21365b796b"},"vehicle_type_id":"4","last_reported":1730204262,"current_range_meters":32800,"station_id":"ce4bhm92rcd13ifvqglg","pricing_plan_id":"cebpf4jnsgd1na2vs0mg"},{"bike_id":"ebd45235-750b-4fb8-b4d9-15e7b9cb2242","system_id":"levelo_inurba_marseille","lat":43.31162,"lon":5.38711,"is_reserved":false,"is_disabled":false,"rental_uris":{"android":"levelo://app?vid=ebd45235-750b-4fb8-b4d9-15e7b9cb2242","ios":"levelo://app?vid=ebd45235-750b-4fb8-b4d9-15e7b9cb2242"},"vehicle_type_id":"4","last_reported":1730204262,"current_range_meters":28400,"station_id":"ce4bgv12rcd13ifvqcp0","pricing_plan_id":"cebpf4jnsgd1na2vs0mg"},{"bike_id":"c5202c93-fa7d-440a-98a5-2daa5726ee19","system_id":"levelo_inurba_marseille","lat":43.28153,"lon":5.42648,"is_reserved":false,"is_disabled":false,"rental_uris":{"android":"levelo://app?vid=c5202c93-fa7d-440a-98a5-2daa5726ee19","ios":"levelo://app?vid=c5202c93-fa7d-440a-98a5-2daa5726ee19"},"vehicle_type_id":"4","last_reported":1730204262,"current_range_meters":35200,"station_id":"ce4bhnh2rcd13ifvqgug","pricing_plan_id":"cebpf4jnsgd1na2vs0mg"},{"bike_id":"ed333577-f904-487a-8248-ddaacbb8b2e1","system_id":"levelo_inurba_marseille","lat":43.29028,"lon":5.38644,"is_reserved":false,"is_disabled":false,"rental_uris":{"android":"levelo://app?vid=ed333577-f904-487a-8248-ddaacbb8b2e1","ios":"levelo://app?vid=ed333577-f904-487a-8248-ddaacbb8b2e1"},"vehicle_type_id":"4","last_reported":1730204262,"current_range_meters":11600,"station_id":"ce4bh4p2rcd13ifvqe0g","pricing_plan_id":"cebpf4jnsgd1na2vs0mg"},{"bike_id":"2214b3a3-af91-4eae-9e6d-decb16658f07","system_id":"levelo_inurba_marseille","lat":43.29926,"lon":5.36546,"is_reserved":false,"is_disabled":false,"rental_uris":{"android":"levelo://app?vid=2214b3a3-af91-4eae-9e6d-decb16658f07","ios":"levelo://app?vid=2214b3a3-af91-4eae-9e6d-decb16658f07"},"vehicle_type_id":"4","last_reported":1730204262,"current_range_meters":14000,"station_id":"ce4bgm92rcd13ifvqbr0","pricing_plan_id":"cebpf4jnsgd1na2vs0mg"},{"bike_id":"3973ceb5-1b1a-46aa-be50-65b822965aae","system_id":"levelo_inurba_marseille","lat":43.25931,"lon":5.40907,"is_reserved":false,"is_disabled":false,"rental_uris":{"android":"levelo://app?vid=3973ceb5-1b1a-46aa-be50-65b822965aae","ios":"levelo://app?vid=3973ceb5-1b1a-46aa-be50-65b822965aae"},"vehicle_type_id":"4","last_reported":1730204262,"current_range_meters":20000,"station_id":"ce4bhm92rcd13ifvqglg","pricing_plan_id":"cebpf4jnsgd1na2vs0mg"},{"bike_id":"fe8d55a3-e101-4f0b-8418-3ec215e317fd","system_id":"levelo_inurba_marseille","lat":43.31083,"lon":5.42429,"is_reserved":false,"is_disabled":false,"rental_uris":{"android":"levelo://app?vid=fe8d55a3-e101-4f0b-8418-3ec215e317fd","ios":"levelo://app?vid=fe8d55a3-e101-4f0b-8418-3ec215e317fd"},"vehicle_type_id":"4","last_reported":1730204262,"current_range_meters":38400,"station_id":"ce4bhp92rcd13ifvqhag","pricing_plan_id":"cebpf4jnsgd1na2vs0mg"},{"bike_id":"03cbaa70-9fa8-4d62-8ddb-33858c5c9890","system_id":"levelo_inurba_marseille","lat":43.29027,"lon":5.38644,"is_reserved":false,"is_disabled":false,"rental_uris":{"android":"levelo://app?vid=03cbaa70-9fa8-4d62-8ddb-33858c5c9890","ios":"levelo://app?vid=03cbaa70-9fa8-4d62-8ddb-33858c5c9890"},"vehicle_type_id":"4","last_reported":1730204262,"current_range_meters":32000,"station_id":"ce4bh4p2rcd13ifvqe0g","pricing_plan_id":"cebpf4jnsgd1na2vs0mg"},{"bike_id":"eff8b9e7-79d0-445c-97c8-996ccecaeee3","system_id":"levelo_inurba_marseille","lat":43.284417,"lon":5.392043,"is_reserved":false,"is_disabled":false,"rental_uris":{"android":"levelo://app?vid=eff8b9e7-79d0-445c-97c8-996ccecaeee3","ios":"levelo://app?vid=eff8b9e7-79d0-445c-97c8-996ccecaeee3"},"vehicle_type_id":"4","last_reported":1730204262,"current_range_meters":19600,"station_id":"ce4bhoh2rcd13ifvqh5g","pricing_plan_id":"cebpf4jnsgd1na2vs0mg"},{"bike_id":"1c36e968-b9ec-4e4e-a73e-52f85b4ded24","system_id":"levelo_inurba_marseille","lat":43.27182,"lon":5.40988,"is_reserved":false,"is_disabled":false,"rental_uris":{"android":"levelo://app?vid=1c36e968-b9ec-4e4e-a73e-52f85b4ded24","ios":"levelo://app?vid=1c36e968-b9ec-4e4e-a73e-52f85b4ded24"},"vehicle_type_id":"4","last_reported":1730204262,"current_range_meters":16000,"station_id":"ce4bhl12rcd13ifvqgf0","pricing_plan_id":"cebpf4jnsgd1na2vs0mg"},{"bike_id":"e625ddd5-61d5-441a-98c0-2154f83f35ae","system_id":"levelo_inurba_marseille","lat":43.23064,"lon":5.35489,"is_reserved":false,"is_disabled":false,"rental_uris":{"android":"levelo://app?vid=e625ddd5-61d5-441a-98c0-2154f83f35ae","ios":"levelo://app?vid=e625ddd5-61d5-441a-98c0-2154f83f35ae"},"vehicle_type_id":"4","last_reported":1730204262,"current_range_meters":20400,"station_id":"cpo3342slgdg3j2ifvpg","pricing_plan_id":"cebpf4jnsgd1na2vs0mg"},{"bike_id":"b7f9b6d0-c43d-460c-9d13-8f79fba12eb4","system_id":"levelo_inurba_marseille","lat":43.31491,"lon":5.37299,"is_reserved":false,"is_disabled":false,"rental_uris":{"android":"levelo://app?vid=b7f9b6d0-c43d-460c-9d13-8f79fba12eb4","ios":"levelo://app?vid=b7f9b6d0-c43d-460c-9d13-8f79fba12eb4"},"vehicle_type_id":"4","last_reported":1730204262,"current_range_meters":9600,"station_id":"ce4bgt12rcd13ifvqcd0","pricing_plan_id":"cebpf4jnsgd1na2vs0mg"},{"bike_id":"c5081d89-e03c-4862-a260-5f6086905af2","system_id":"levelo_inurba_marseille","lat":43.28268,"lon":5.35061,"is_reserved":false,"is_disabled":false,"rental_uris":{"android":"levelo://app?vid=c5081d89-e03c-4862-a260-5f6086905af2","ios":"levelo://app?vid=c5081d89-e03c-4862-a260-5f6086905af2"},"vehicle_type_id":"4","last_reported":1730204262,"current_range_meters":36800,"station_id":"ce4bhbp2rcd13ifvqerg","pricing_plan_id":"cebpf4jnsgd1na2vs0mg"},{"bike_id":"92adf987-4779-4b78-ad9c-8e29ab9175f3","system_id":"levelo_inurba_marseille","lat":43.23196,"lon":5.35557,"is_reserved":false,"is_disabled":false,"rental_uris":{"android":"levelo://app?vid=92adf987-4779-4b78-ad9c-8e29ab9175f3","ios":"levelo://app?vid=92adf987-4779-4b78-ad9c-8e29ab9175f3"},"vehicle_type_id":"4","last_reported":1730204262,"current_range_meters":19200,"station_id":"ce4bhu92rcd13ifvqi70","pricing_plan_id":"cebpf4jnsgd1na2vs0mg"},{"bike_id":"76ddb465-b366-4020-9904-e6087f53aa41","system_id":"levelo_inurba_marseille","lat":43.24806,"lon":5.37459,"is_reserved":false,"is_disabled":false,"rental_uris":{"android":"levelo://app?vid=76ddb465-b366-4020-9904-e6087f53aa41","ios":"levelo://app?vid=76ddb465-b366-4020-9904-e6087f53aa41"},"vehicle_type_id":"4","last_reported":1730204262,"current_range_meters":30400,"station_id":"ce4bhgh2rcd13ifvqfb0","pricing_plan_id":"cebpf4jnsgd1na2vs0mg"},{"bike_id":"0249a363-75cb-4372-9d69-8fb60ab0fe4f","system_id":"levelo_inurba_marseille","lat":43.296404,"lon":5.37297,"is_reserved":false,"is_disabled":false,"rental_uris":{"android":"levelo://app?vid=0249a363-75cb-4372-9d69-8fb60ab0fe4f","ios":"levelo://app?vid=0249a363-75cb-4372-9d69-8fb60ab0fe4f"},"vehicle_type_id":"4","last_reported":1730204262,"current_range_meters":15200,"station_id":"ce4bgk12rcd13ifvqbj0","pricing_plan_id":"cebpf4jnsgd1na2vs0mg"},{"bike_id":"bdd4b560-7456-474a-8d43-7d179515bc00","system_id":"levelo_inurba_marseille","lat":43.3377,"lon":5.37461,"is_reserved":false,"is_disabled":false,"rental_uris":{"android":"levelo://app?vid=bdd4b560-7456-474a-8d43-7d179515bc00","ios":"levelo://app?vid=bdd4b560-7456-474a-8d43-7d179515bc00"},"vehicle_type_id":"4","last_reported":1730204262,"current_range_meters":38400,"station_id":"","pricing_plan_id":"cebpf4jnsgd1na2vs0mg"},{"bike_id":"17f3f27b-c3de-4f76-87af-ae319edfcb41","system_id":"levelo_inurba_marseille","lat":43.2837,"lon":5.4,"is_reserved":false,"is_disabled":false,"rental_uris":{"android":"levelo://app?vid=17f3f27b-c3de-4f76-87af-ae319edfcb41","ios":"levelo://app?vid=17f3f27b-c3de-4f76-87af-ae319edfcb41"},"vehicle_type_id":"4","last_reported":1730204262,"current_range_meters":17200,"station_id":"","pricing_plan_id":"cebpf4jnsgd1na2vs0mg"},{"bike_id":"d9752bf7-9408-4393-b436-e95811aed54f","system_id":"levelo_inurba_marseille","lat":43.29027,"lon":5.3813,"is_reserved":false,"is_disabled":false,"rental_uris":{"android":"levelo://app?vid=d9752bf7-9408-4393-b436-e95811aed54f","ios":"levelo://app?vid=d9752bf7-9408-4393-b436-e95811aed54f"},"vehicle_type_id":"4","last_reported":1730204262,"current_range_meters":36400,"station_id":"ce4bh4p2rcd13ifvqe1g","pricing_plan_id":"cebpf4jnsgd1na2vs0mg"},{"bike_id":"8d4f7822-0722-481a-b9a5-b8b33ca89429","system_id":"levelo_inurba_marseille","lat":43.23151,"lon":5.43713,"is_reserved":false,"is_disabled":false,"rental_uris":{"android":"levelo://app?vid=8d4f7822-0722-481a-b9a5-b8b33ca89429","ios":"levelo://app?vid=8d4f7822-0722-481a-b9a5-b8b33ca89429"},"vehicle_type_id":"4","last_reported":1730204262,"current_range_meters":7200,"station_id":"ce4bhmp2rcd13ifvqgog","pricing_plan_id":"cebpf4jnsgd1na2vs0mg"},{"bike_id":"85e98f67-1633-4146-9234-9225e500992d","system_id":"levelo_inurba_marseille","lat":43.24387,"lon":5.3705,"is_reserved":false,"is_disabled":false,"rental_uris":{"android":"levelo://app?vid=85e98f67-1633-4146-9234-9225e500992d","ios":"levelo://app?vid=85e98f67-1633-4146-9234-9225e500992d"},"vehicle_type_id":"4","last_reported":1730204262,"current_range_meters":16000,"station_id":"ce4bhhh2rcd13ifvqfk0","pricing_plan_id":"cebpf4jnsgd1na2vs0mg"},{"bike_id":"eab9ecc7-9085-459c-a4cf-9ae2ae1a387d","system_id":"levelo_inurba_marseille","lat":43.28264,"lon":5.35065,"is_reserved":false,"is_disabled":false,"rental_uris":{"android":"levelo://app?vid=eab9ecc7-9085-459c-a4cf-9ae2ae1a387d","ios":"levelo://app?vid=eab9ecc7-9085-459c-a4cf-9ae2ae1a387d"},"vehicle_type_id":"4","last_reported":1730204262,"current_range_meters":34000,"station_id":"ce4bhbp2rcd13ifvqerg","pricing_plan_id":"cebpf4jnsgd1na2vs0mg"},{"bike_id":"fcd3aa3b-520c-4138-8928-8394f66c58fb","system_id":"levelo_inurba_marseille","lat":43.30781,"lon":5.37636,"is_reserved":false,"is_disabled":false,"rental_uris":{"android":"levelo://app?vid=fcd3aa3b-520c-4138-8928-8394f66c58fb","ios":"levelo://app?vid=fcd3aa3b-520c-4138-8928-8394f66c58fb"},"vehicle_type_id":"4","last_reported":1730204262,"current_range_meters":14800,"station_id":"ce4bgv92rcd13ifvqcq0","pricing_plan_id":"cebpf4jnsgd1na2vs0mg"},{"bike_id":"3eacef56-e200-4054-9b0c-156c6ef1c7f9","system_id":"levelo_inurba_marseille","lat":43.32108,"lon":5.36777,"is_reserved":false,"is_disabled":false,"rental_uris":{"android":"levelo://app?vid=3eacef56-e200-4054-9b0c-156c6ef1c7f9","ios":"levelo://app?vid=3eacef56-e200-4054-9b0c-156c6ef1c7f9"},"vehicle_type_id":"4","last_reported":1730204262,"current_range_meters":36800,"station_id":"ce4bhrh2rcd13ifvqhug","pricing_plan_id":"cebpf4jnsgd1na2vs0mg"},{"bike_id":"0e6f47ea-ffaf-48d0-907a-7a28dc2c146f","system_id":"levelo_inurba_marseille","lat":43.25936,"lon":5.40904,"is_reserved":false,"is_disabled":false,"rental_uris":{"android":"levelo://app?vid=0e6f47ea-ffaf-48d0-907a-7a28dc2c146f","ios":"levelo://app?vid=0e6f47ea-ffaf-48d0-907a-7a28dc2c146f"},"vehicle_type_id":"4","last_reported":1730204262,"current_range_meters":32800,"station_id":"ce4bhm92rcd13ifvqglg","pricing_plan_id":"cebpf4jnsgd1na2vs0mg"},{"bike_id":"8bea202a-b719-4be5-a825-91c8c8a8a149","system_id":"levelo_inurba_marseille","lat":43.28253,"lon":5.3505,"is_reserved":false,"is_disabled":false,"rental_uris":{"android":"levelo://app?vid=8bea202a-b719-4be5-a825-91c8c8a8a149","ios":"levelo://app?vid=8bea202a-b719-4be5-a825-91c8c8a8a149"},"vehicle_type_id":"4","last_reported":1730204262,"current_range_meters":21600,"station_id":"ce4bhbp2rcd13ifvqerg","pricing_plan_id":"cebpf4jnsgd1na2vs0mg"},{"bike_id":"667351c3-3b86-422d-b797-f052ba632efc","system_id":"levelo_inurba_marseille","lat":43.29711,"lon":5.3661,"is_reserved":false,"is_disabled":false,"rental_uris":{"android":"levelo://app?vid=667351c3-3b86-422d-b797-f052ba632efc","ios":"levelo://app?vid=667351c3-3b86-422d-b797-f052ba632efc"},"vehicle_type_id":"4","last_reported":1730204262,"current_range_meters":3600,"station_id":"ce4bgn12rcd13ifvqbt0","pricing_plan_id":"cebpf4jnsgd1na2vs0mg"},{"bike_id":"ae844abd-5f49-4e6c-8086-3880c1d44cf6","system_id":"levelo_inurba_marseille","lat":43.3266,"lon":5.40984,"is_reserved":false,"is_disabled":false,"rental_uris":{"android":"levelo://app?vid=ae844abd-5f49-4e6c-8086-3880c1d44cf6","ios":"levelo://app?vid=ae844abd-5f49-4e6c-8086-3880c1d44cf6"},"vehicle_type_id":"4","last_reported":1730204262,"current_range_meters":24800,"station_id":"ce4bhpp2rcd13ifvqhgg","pricing_plan_id":"cebpf4jnsgd1na2vs0mg"},{"bike_id":"a3d2f5f9-d16d-4984-bfac-6cfd62262114","system_id":"levelo_inurba_marseille","lat":43.25944,"lon":5.40902,"is_reserved":false,"is_disabled":false,"rental_uris":{"android":"levelo://app?vid=a3d2f5f9-d16d-4984-bfac-6cfd62262114","ios":"levelo://app?vid=a3d2f5f9-d16d-4984-bfac-6cfd62262114"},"vehicle_type_id":"4","last_reported":1730204262,"current_range_meters":30800,"station_id":"ce4bhm92rcd13ifvqglg","pricing_plan_id":"cebpf4jnsgd1na2vs0mg"},{"bike_id":"4af7bd31-3ac0-4d21-a62d-ac99e0ee06e4","system_id":"levelo_inurba_marseille","lat":43.27573,"lon":5.38417,"is_reserved":false,"is_disabled":false,"rental_uris":{"android":"levelo://app?vid=4af7bd31-3ac0-4d21-a62d-ac99e0ee06e4","ios":"levelo://app?vid=4af7bd31-3ac0-4d21-a62d-ac99e0ee06e4"},"vehicle_type_id":"4","last_reported":1730204262,"current_range_meters":24400,"station_id":"ce4bhh92rcd13ifvqfi0","pricing_plan_id":"cebpf4jnsgd1na2vs0mg"},{"bike_id":"3b2a9e4c-424f-4e3b-a9fe-b4feeea9e33f","system_id":"levelo_inurba_marseille","lat":43.27185,"lon":5.40993,"is_reserved":false,"is_disabled":false,"rental_uris":{"android":"levelo://app?vid=3b2a9e4c-424f-4e3b-a9fe-b4feeea9e33f","ios":"levelo://app?vid=3b2a9e4c-424f-4e3b-a9fe-b4feeea9e33f"},"vehicle_type_id":"4","last_reported":1730204262,"current_range_meters":38000,"station_id":"ce4bhl12rcd13ifvqgf0","pricing_plan_id":"cebpf4jnsgd1na2vs0mg"},{"bike_id":"4bd3dc7a-cd73-4bb6-8f68-66aa73a42057","system_id":"levelo_inurba_marseille","lat":43.27058,"lon":5.40258,"is_reserved":false,"is_disabled":false,"rental_uris":{"android":"levelo://app?vid=4bd3dc7a-cd73-4bb6-8f68-66aa73a42057","ios":"levelo://app?vid=4bd3dc7a-cd73-4bb6-8f68-66aa73a42057"},"vehicle_type_id":"4","last_reported":1730204262,"current_range_meters":37600,"station_id":"ce4bhk92rcd13ifvqgc0","pricing_plan_id":"cebpf4jnsgd1na2vs0mg"},{"bike_id":"eaaf851c-1cf1-42e5-b40f-71a27a57f758","system_id":"levelo_inurba_marseille","lat":43.25931,"lon":5.409,"is_reserved":false,"is_disabled":false,"rental_uris":{"android":"levelo://app?vid=eaaf851c-1cf1-42e5-b40f-71a27a57f758","ios":"levelo://app?vid=eaaf851c-1cf1-42e5-b40f-71a27a57f758"},"vehicle_type_id":"4","last_reported":1730204262,"current_range_meters":26800,"station_id":"ce4bhm92rcd13ifvqglg","pricing_plan_id":"cebpf4jnsgd1na2vs0mg"},{"bike_id":"64711851-e01b-494a-9fb3-4ce4aa17192b","system_id":"levelo_inurba_marseille","lat":43.26563,"lon":5.37296,"is_reserved":false,"is_disabled":false,"rental_uris":{"android":"levelo://app?vid=64711851-e01b-494a-9fb3-4ce4aa17192b","ios":"levelo://app?vid=64711851-e01b-494a-9fb3-4ce4aa17192b"},"vehicle_type_id":"4","last_reported":1730204262,"current_range_meters":19600,"station_id":"ce4bhg12rcd13ifvqf70","pricing_plan_id":"cebpf4jnsgd1na2vs0mg"},{"bike_id":"e58711fa-10f6-45dd-92af-ca00402b7e53","system_id":"levelo_inurba_marseille","lat":43.30907,"lon":5.36853,"is_reserved":false,"is_disabled":false,"rental_uris":{"android":"levelo://app?vid=e58711fa-10f6-45dd-92af-ca00402b7e53","ios":"levelo://app?vid=e58711fa-10f6-45dd-92af-ca00402b7e53"},"vehicle_type_id":"4","last_reported":1730204262,"current_range_meters":30400,"station_id":"ce4bgn92rcd13ifvqbvg","pricing_plan_id":"cebpf4jnsgd1na2vs0mg"},{"bike_id":"9f15d991-e1ab-4f34-9461-b9513c6eafc5","system_id":"levelo_inurba_marseille","lat":43.30149,"lon":5.37421,"is_reserved":false,"is_disabled":false,"rental_uris":{"android":"levelo://app?vid=9f15d991-e1ab-4f34-9461-b9513c6eafc5","ios":"levelo://app?vid=9f15d991-e1ab-4f34-9461-b9513c6eafc5"},"vehicle_type_id":"4","last_reported":1730204262,"current_range_meters":40000,"station_id":"ce4bgs92rcd13ifvqcc0","pricing_plan_id":"cebpf4jnsgd1na2vs0mg"},{"bike_id":"5f5d147c-aa27-4bc5-8489-9251a71dcef3","system_id":"levelo_inurba_marseille","lat":43.29614,"lon":5.37719,"is_reserved":false,"is_disabled":false,"rental_uris":{"android":"levelo://app?vid=5f5d147c-aa27-4bc5-8489-9251a71dcef3","ios":"levelo://app?vid=5f5d147c-aa27-4bc5-8489-9251a71dcef3"},"vehicle_type_id":"4","last_reported":1730204262,"current_range_meters":35600,"station_id":"ce4bgi92rcd13ifvqb90","pricing_plan_id":"cebpf4jnsgd1na2vs0mg"},{"bike_id":"e40111e4-4deb-41a5-ac02-7465c5223951","system_id":"levelo_inurba_marseille","lat":43.28626,"lon":5.38339,"is_reserved":false,"is_disabled":false,"rental_uris":{"android":"levelo://app?vid=e40111e4-4deb-41a5-ac02-7465c5223951","ios":"levelo://app?vid=e40111e4-4deb-41a5-ac02-7465c5223951"},"vehicle_type_id":"4","last_reported":1730204262,"current_range_meters":16400,"station_id":"ce4bh4p2rcd13ifvqe1g","pricing_plan_id":"cebpf4jnsgd1na2vs0mg"},{"bike_id":"f274d9e8-1689-4183-b0e4-6ebbece185ac","system_id":"levelo_inurba_marseille","lat":43.26807,"lon":5.40273,"is_reserved":false,"is_disabled":false,"rental_uris":{"android":"levelo://app?vid=f274d9e8-1689-4183-b0e4-6ebbece185ac","ios":"levelo://app?vid=f274d9e8-1689-4183-b0e4-6ebbece185ac"},"vehicle_type_id":"4","last_reported":1730204262,"current_range_meters":39200,"station_id":"ce501612rcd8frsf0b60","pricing_plan_id":"cebpf4jnsgd1na2vs0mg"},{"bike_id":"c497513d-9d1d-4320-a1e3-875a8b21d4c5","system_id":"levelo_inurba_marseille","lat":43.27181,"lon":5.40996,"is_reserved":false,"is_disabled":false,"rental_uris":{"android":"levelo://app?vid=c497513d-9d1d-4320-a1e3-875a8b21d4c5","ios":"levelo://app?vid=c497513d-9d1d-4320-a1e3-875a8b21d4c5"},"vehicle_type_id":"4","last_reported":1730204262,"current_range_meters":36800,"station_id":"ce4bhl12rcd13ifvqgf0","pricing_plan_id":"cebpf4jnsgd1na2vs0mg"},{"bike_id":"4597f7ab-1ca3-4fc7-9479-9d8dbcc82d77","system_id":"levelo_inurba_marseille","lat":43.29265,"lon":5.38438,"is_reserved":false,"is_disabled":false,"rental_uris":{"android":"levelo://app?vid=4597f7ab-1ca3-4fc7-9479-9d8dbcc82d77","ios":"levelo://app?vid=4597f7ab-1ca3-4fc7-9479-9d8dbcc82d77"},"vehicle_type_id":"4","last_reported":1730204262,"current_range_meters":16000,"station_id":"ce4bh692rcd13ifvqea0","pricing_plan_id":"cebpf4jnsgd1na2vs0mg"},{"bike_id":"f09b6f98-8f70-4e17-9b24-58d678c3f39f","system_id":"levelo_inurba_marseille","lat":43.32482,"lon":5.36558,"is_reserved":false,"is_disabled":false,"rental_uris":{"android":"levelo://app?vid=f09b6f98-8f70-4e17-9b24-58d678c3f39f","ios":"levelo://app?vid=f09b6f98-8f70-4e17-9b24-58d678c3f39f"},"vehicle_type_id":"4","last_reported":1730204262,"current_range_meters":11600,"station_id":"ce4bhs12rcd13ifvqhvg","pricing_plan_id":"cebpf4jnsgd1na2vs0mg"},{"bike_id":"4aa9ec8e-8a2f-4bf2-b664-653d737532aa","system_id":"levelo_inurba_marseille","lat":43.29545,"lon":5.42276,"is_reserved":false,"is_disabled":false,"rental_uris":{"android":"levelo://app?vid=4aa9ec8e-8a2f-4bf2-b664-653d737532aa","ios":"levelo://app?vid=4aa9ec8e-8a2f-4bf2-b664-653d737532aa"},"vehicle_type_id":"4","last_reported":1730204262,"current_range_meters":38800,"station_id":"ce4bhph2rcd13ifvqhdg","pricing_plan_id":"cebpf4jnsgd1na2vs0mg"},{"bike_id":"bd387d54-7b9e-4c1b-b709-6b77435ac16f","system_id":"levelo_inurba_marseille","lat":43.24403,"lon":5.37056,"is_reserved":false,"is_disabled":false,"rental_uris":{"android":"levelo://app?vid=bd387d54-7b9e-4c1b-b709-6b77435ac16f","ios":"levelo://app?vid=bd387d54-7b9e-4c1b-b709-6b77435ac16f"},"vehicle_type_id":"4","last_reported":1730204262,"current_range_meters":38400,"station_id":"ce4bhhh2rcd13ifvqfk0","pricing_plan_id":"cebpf4jnsgd1na2vs0mg"},{"bike_id":"e21e40f4-0859-4036-9221-e55476a0a560","system_id":"levelo_inurba_marseille","lat":43.2959,"lon":5.36736,"is_reserved":false,"is_disabled":false,"rental_uris":{"android":"levelo://app?vid=e21e40f4-0859-4036-9221-e55476a0a560","ios":"levelo://app?vid=e21e40f4-0859-4036-9221-e55476a0a560"},"vehicle_type_id":"4","last_reported":1730204262,"current_range_meters":36800,"station_id":"ce4bgph2rcd13ifvqc2g","pricing_plan_id":"cebpf4jnsgd1na2vs0mg"},{"bike_id":"1d52c061-143c-48ef-99c7-2b4bca385f21","system_id":"levelo_inurba_marseille","lat":43.29636,"lon":5.40593,"is_reserved":false,"is_disabled":false,"rental_uris":{"android":"levelo://app?vid=1d52c061-143c-48ef-99c7-2b4bca385f21","ios":"levelo://app?vid=1d52c061-143c-48ef-99c7-2b4bca385f21"},"vehicle_type_id":"4","last_reported":1730204262,"current_range_meters":3200,"station_id":"ce4bh0h2rcd13ifvqd60","pricing_plan_id":"cebpf4jnsgd1na2vs0mg"},{"bike_id":"82fab877-7785-4233-bf49-2391a6c65f1c","system_id":"levelo_inurba_marseille","lat":43.29681,"lon":5.37283,"is_reserved":false,"is_disabled":false,"rental_uris":{"android":"levelo://app?vid=82fab877-7785-4233-bf49-2391a6c65f1c","ios":"levelo://app?vid=82fab877-7785-4233-bf49-2391a6c65f1c"},"vehicle_type_id":"4","last_reported":1730204262,"current_range_meters":31200,"station_id":"ce4bgk12rcd13ifvqbj0","pricing_plan_id":"cebpf4jnsgd1na2vs0mg"},{"bike_id":"46718d22-ae18-484b-bd22-3de22b369af2","system_id":"levelo_inurba_marseille","lat":43.29556,"lon":5.42287,"is_reserved":false,"is_disabled":false,"rental_uris":{"android":"levelo://app?vid=46718d22-ae18-484b-bd22-3de22b369af2","ios":"levelo://app?vid=46718d22-ae18-484b-bd22-3de22b369af2"},"vehicle_type_id":"4","last_reported":1730204262,"current_range_meters":38800,"station_id":"ce4bhph2rcd13ifvqhdg","pricing_plan_id":"cebpf4jnsgd1na2vs0mg"},{"bike_id":"d5c8fa42-2467-4cbe-a884-69b7df559269","system_id":"levelo_inurba_marseille","lat":43.28001,"lon":5.40015,"is_reserved":false,"is_disabled":false,"rental_uris":{"android":"levelo://app?vid=d5c8fa42-2467-4cbe-a884-69b7df559269","ios":"levelo://app?vid=d5c8fa42-2467-4cbe-a884-69b7df559269"},"vehicle_type_id":"4","last_reported":1730204262,"current_range_meters":31200,"station_id":"ce4bho92rcd13ifvqh4g","pricing_plan_id":"cebpf4jnsgd1na2vs0mg"},{"bike_id":"952763a7-b841-46fb-bb9a-f9734fd48a34","system_id":"levelo_inurba_marseille","lat":43.28098,"lon":5.37833,"is_reserved":false,"is_disabled":false,"rental_uris":{"android":"levelo://app?vid=952763a7-b841-46fb-bb9a-f9734fd48a34","ios":"levelo://app?vid=952763a7-b841-46fb-bb9a-f9734fd48a34"},"vehicle_type_id":"4","last_reported":1730204262,"current_range_meters":12800,"station_id":"ce4bha12rcd13ifvqee0","pricing_plan_id":"cebpf4jnsgd1na2vs0mg"},{"bike_id":"d87dc17f-cd92-416d-836e-7d546602d84b","system_id":"levelo_inurba_marseille","lat":43.30133,"lon":5.38786,"is_reserved":false,"is_disabled":false,"rental_uris":{"android":"levelo://app?vid=d87dc17f-cd92-416d-836e-7d546602d84b","ios":"levelo://app?vid=d87dc17f-cd92-416d-836e-7d546602d84b"},"vehicle_type_id":"4","last_reported":1730204262,"current_range_meters":6400,"station_id":"ce4bghh2rcd13ifvqb60","pricing_plan_id":"cebpf4jnsgd1na2vs0mg"},{"bike_id":"be383dfd-f6e4-4514-be85-96c9b0d78716","system_id":"levelo_inurba_marseille","lat":43.23054,"lon":5.35494,"is_reserved":false,"is_disabled":false,"rental_uris":{"android":"levelo://app?vid=be383dfd-f6e4-4514-be85-96c9b0d78716","ios":"levelo://app?vid=be383dfd-f6e4-4514-be85-96c9b0d78716"},"vehicle_type_id":"4","last_reported":1730204262,"current_range_meters":32400,"station_id":"cpo3342slgdg3j2ifvpg","pricing_plan_id":"cebpf4jnsgd1na2vs0mg"},{"bike_id":"b12425a9-456b-4240-9101-c3b9f8f5a488","system_id":"levelo_inurba_marseille","lat":43.32485,"lon":5.36561,"is_reserved":false,"is_disabled":false,"rental_uris":{"android":"levelo://app?vid=b12425a9-456b-4240-9101-c3b9f8f5a488","ios":"levelo://app?vid=b12425a9-456b-4240-9101-c3b9f8f5a488"},"vehicle_type_id":"4","last_reported":1730204262,"current_range_meters":39200,"station_id":"ce4bhs12rcd13ifvqhvg","pricing_plan_id":"cebpf4jnsgd1na2vs0mg"},{"bike_id":"6eadd10a-a6d8-410a-bf17-cb13ead6d052","system_id":"levelo_inurba_marseille","lat":43.27816,"lon":5.40719,"is_reserved":false,"is_disabled":false,"rental_uris":{"android":"levelo://app?vid=6eadd10a-a6d8-410a-bf17-cb13ead6d052","ios":"levelo://app?vid=6eadd10a-a6d8-410a-bf17-cb13ead6d052"},"vehicle_type_id":"4","last_reported":1730204262,"current_range_meters":11200,"station_id":"ce4bhnh2rcd13ifvqgtg","pricing_plan_id":"cebpf4jnsgd1na2vs0mg"},{"bike_id":"3587c9bc-d3f5-4a3e-86bb-219d71113e09","system_id":"levelo_inurba_marseille","lat":43.29885,"lon":5.36312,"is_reserved":false,"is_disabled":false,"rental_uris":{"android":"levelo://app?vid=3587c9bc-d3f5-4a3e-86bb-219d71113e09","ios":"levelo://app?vid=3587c9bc-d3f5-4a3e-86bb-219d71113e09"},"vehicle_type_id":"4","last_reported":1730204262,"current_range_meters":12800,"station_id":"","pricing_plan_id":"cebpf4jnsgd1na2vs0mg"},{"bike_id":"9afc8807-f832-4417-bd03-3c2b914835d8","system_id":"levelo_inurba_marseille","lat":43.30594,"lon":5.37203,"is_reserved":false,"is_disabled":false,"rental_uris":{"android":"levelo://app?vid=9afc8807-f832-4417-bd03-3c2b914835d8","ios":"levelo://app?vid=9afc8807-f832-4417-bd03-3c2b914835d8"},"vehicle_type_id":"4","last_reported":1730204262,"current_range_meters":38800,"station_id":"ce4bgqh2rcd13ifvqc4g","pricing_plan_id":"cebpf4jnsgd1na2vs0mg"},{"bike_id":"2ba76b22-d063-4037-958c-9a9715e5fa3a","system_id":"levelo_inurba_marseille","lat":43.296233,"lon":5.371506,"is_reserved":false,"is_disabled":false,"rental_uris":{"android":"levelo://app?vid=2ba76b22-d063-4037-958c-9a9715e5fa3a","ios":"levelo://app?vid=2ba76b22-d063-4037-958c-9a9715e5fa3a"},"vehicle_type_id":"4","last_reported":1730204262,"current_range_meters":12000,"station_id":"ce4bgnh2rcd13ifvqc0g","pricing_plan_id":"cebpf4jnsgd1na2vs0mg"},{"bike_id":"3af184b2-4379-45ff-9c65-73bc96690fa2","system_id":"levelo_inurba_marseille","lat":43.3248,"lon":5.36573,"is_reserved":false,"is_disabled":false,"rental_uris":{"android":"levelo://app?vid=3af184b2-4379-45ff-9c65-73bc96690fa2","ios":"levelo://app?vid=3af184b2-4379-45ff-9c65-73bc96690fa2"},"vehicle_type_id":"4","last_reported":1730204262,"current_range_meters":30800,"station_id":"ce4bhs12rcd13ifvqhvg","pricing_plan_id":"cebpf4jnsgd1na2vs0mg"},{"bike_id":"eaee8ab2-76f5-4b37-b465-9eb26268ad5d","system_id":"levelo_inurba_marseille","lat":43.25938,"lon":5.40903,"is_reserved":false,"is_disabled":false,"rental_uris":{"android":"levelo://app?vid=eaee8ab2-76f5-4b37-b465-9eb26268ad5d","ios":"levelo://app?vid=eaee8ab2-76f5-4b37-b465-9eb26268ad5d"},"vehicle_type_id":"4","last_reported":1730204262,"current_range_meters":33200,"station_id":"ce4bhm92rcd13ifvqglg","pricing_plan_id":"cebpf4jnsgd1na2vs0mg"},{"bike_id":"f3b80b25-4b2b-42d9-b9f5-9c92053c0f62","system_id":"levelo_inurba_marseille","lat":43.25494,"lon":5.37644,"is_reserved":false,"is_disabled":false,"rental_uris":{"android":"levelo://app?vid=f3b80b25-4b2b-42d9-b9f5-9c92053c0f62","ios":"levelo://app?vid=f3b80b25-4b2b-42d9-b9f5-9c92053c0f62"},"vehicle_type_id":"4","last_reported":1730204262,"current_range_meters":38800,"station_id":"ce4bhh12rcd13ifvqff0","pricing_plan_id":"cebpf4jnsgd1na2vs0mg"},{"bike_id":"8de5b029-21c3-43f5-aa93-223789d44fe6","system_id":"levelo_inurba_marseille","lat":43.29194,"lon":5.35798,"is_reserved":false,"is_disabled":false,"rental_uris":{"android":"levelo://app?vid=8de5b029-21c3-43f5-aa93-223789d44fe6","ios":"levelo://app?vid=8de5b029-21c3-43f5-aa93-223789d44fe6"},"vehicle_type_id":"4","last_reported":1730204262,"current_range_meters":25600,"station_id":"ce4bhb12rcd13ifvqel0","pricing_plan_id":"cebpf4jnsgd1na2vs0mg"},{"bike_id":"4cc9b611-227a-4675-8219-8592dde41f3f","system_id":"levelo_inurba_marseille","lat":43.282686,"lon":5.350721,"is_reserved":false,"is_disabled":false,"rental_uris":{"android":"levelo://app?vid=4cc9b611-227a-4675-8219-8592dde41f3f","ios":"levelo://app?vid=4cc9b611-227a-4675-8219-8592dde41f3f"},"vehicle_type_id":"4","last_reported":1730204262,"current_range_meters":16000,"station_id":"ce4bhbp2rcd13ifvqerg","pricing_plan_id":"cebpf4jnsgd1na2vs0mg"},{"bike_id":"39d2e199-d2aa-43e1-be71-617e52750200","system_id":"levelo_inurba_marseille","lat":43.29841,"lon":5.36264,"is_reserved":false,"is_disabled":false,"rental_uris":{"android":"levelo://app?vid=39d2e199-d2aa-43e1-be71-617e52750200","ios":"levelo://app?vid=39d2e199-d2aa-43e1-be71-617e52750200"},"vehicle_type_id":"4","last_reported":1730204262,"current_range_meters":13600,"station_id":"ce4bgpp2rcd13ifvqc3g","pricing_plan_id":"cebpf4jnsgd1na2vs0mg"},{"bike_id":"1ad22c01-81fa-4f58-9a14-74883e4cb310","system_id":"levelo_inurba_marseille","lat":43.29849,"lon":5.36271,"is_reserved":false,"is_disabled":false,"rental_uris":{"android":"levelo://app?vid=1ad22c01-81fa-4f58-9a14-74883e4cb310","ios":"levelo://app?vid=1ad22c01-81fa-4f58-9a14-74883e4cb310"},"vehicle_type_id":"4","last_reported":1730204262,"current_range_meters":27600,"station_id":"ce4bgpp2rcd13ifvqc3g","pricing_plan_id":"cebpf4jnsgd1na2vs0mg"},{"bike_id":"63391d05-8b84-49c2-9d55-caac70d37a79","system_id":"levelo_inurba_marseille","lat":43.30533,"lon":5.36557,"is_reserved":false,"is_disabled":false,"rental_uris":{"android":"levelo://app?vid=63391d05-8b84-49c2-9d55-caac70d37a79","ios":"levelo://app?vid=63391d05-8b84-49c2-9d55-caac70d37a79"},"vehicle_type_id":"4","last_reported":1730204262,"current_range_meters":32400,"station_id":"ce4bgs12rcd13ifvqcag","pricing_plan_id":"cebpf4jnsgd1na2vs0mg"},{"bike_id":"d63ff0fa-0048-44c6-b2c6-b7c44580de3a","system_id":"levelo_inurba_marseille","lat":43.2512,"lon":5.40314,"is_reserved":false,"is_disabled":false,"rental_uris":{"android":"levelo://app?vid=d63ff0fa-0048-44c6-b2c6-b7c44580de3a","ios":"levelo://app?vid=d63ff0fa-0048-44c6-b2c6-b7c44580de3a"},"vehicle_type_id":"4","last_reported":1730204262,"current_range_meters":39200,"station_id":"ce4bhlh2rcd13ifvqgig","pricing_plan_id":"cebpf4jnsgd1na2vs0mg"},{"bike_id":"673db70d-0a85-41a9-93a5-7316d31cd8bb","system_id":"levelo_inurba_marseille","lat":43.24549,"lon":5.39521,"is_reserved":false,"is_disabled":false,"rental_uris":{"android":"levelo://app?vid=673db70d-0a85-41a9-93a5-7316d31cd8bb","ios":"levelo://app?vid=673db70d-0a85-41a9-93a5-7316d31cd8bb"},"vehicle_type_id":"4","last_reported":1730204262,"current_range_meters":32800,"station_id":"ce4bhlp2rcd13ifvqgjg","pricing_plan_id":"cebpf4jnsgd1na2vs0mg"},{"bike_id":"73c5c6a5-c9fe-4630-927e-3cd20d2f06ea","system_id":"levelo_inurba_marseille","lat":43.29843,"lon":5.36264,"is_reserved":false,"is_disabled":false,"rental_uris":{"android":"levelo://app?vid=73c5c6a5-c9fe-4630-927e-3cd20d2f06ea","ios":"levelo://app?vid=73c5c6a5-c9fe-4630-927e-3cd20d2f06ea"},"vehicle_type_id":"4","last_reported":1730204262,"current_range_meters":36800,"station_id":"ce4bgpp2rcd13ifvqc3g","pricing_plan_id":"cebpf4jnsgd1na2vs0mg"},{"bike_id":"a2f91a54-aabc-467a-bd1d-2399ad58ea1c","system_id":"levelo_inurba_marseille","lat":43.27207,"lon":5.39167,"is_reserved":false,"is_disabled":false,"rental_uris":{"android":"levelo://app?vid=a2f91a54-aabc-467a-bd1d-2399ad58ea1c","ios":"levelo://app?vid=a2f91a54-aabc-467a-bd1d-2399ad58ea1c"},"vehicle_type_id":"4","last_reported":1730204262,"current_range_meters":20800,"station_id":"ce4bhhp2rcd13ifvqfm0","pricing_plan_id":"cebpf4jnsgd1na2vs0mg"},{"bike_id":"2d112996-c7d2-4209-aa87-682cf98c81e1","system_id":"levelo_inurba_marseille","lat":43.32656,"lon":5.40997,"is_reserved":false,"is_disabled":false,"rental_uris":{"android":"levelo://app?vid=2d112996-c7d2-4209-aa87-682cf98c81e1","ios":"levelo://app?vid=2d112996-c7d2-4209-aa87-682cf98c81e1"},"vehicle_type_id":"4","last_reported":1730204262,"current_range_meters":33200,"station_id":"ce4bhpp2rcd13ifvqhgg","pricing_plan_id":"cebpf4jnsgd1na2vs0mg"},{"bike_id":"091332a3-84cd-4451-b62f-6bfb91210342","system_id":"levelo_inurba_marseille","lat":43.29523,"lon":5.38537,"is_reserved":false,"is_disabled":false,"rental_uris":{"android":"levelo://app?vid=091332a3-84cd-4451-b62f-6bfb91210342","ios":"levelo://app?vid=091332a3-84cd-4451-b62f-6bfb91210342"},"vehicle_type_id":"4","last_reported":1730204262,"current_range_meters":28400,"station_id":"ce4bgih2rcd13ifvqba0","pricing_plan_id":"cebpf4jnsgd1na2vs0mg"},{"bike_id":"98e8366e-9da6-44b8-85f3-dc17063a36c6","system_id":"levelo_inurba_marseille","lat":43.27069,"lon":5.42279,"is_reserved":false,"is_disabled":false,"rental_uris":{"android":"levelo://app?vid=98e8366e-9da6-44b8-85f3-dc17063a36c6","ios":"levelo://app?vid=98e8366e-9da6-44b8-85f3-dc17063a36c6"},"vehicle_type_id":"4","last_reported":1730204262,"current_range_meters":38400,"station_id":"ce4bhk92rcd13ifvqgb0","pricing_plan_id":"cebpf4jnsgd1na2vs0mg"},{"bike_id":"c7ae46c4-3507-432a-9ec8-3001d58bc75a","system_id":"levelo_inurba_marseille","lat":43.29226,"lon":5.3607,"is_reserved":false,"is_disabled":false,"rental_uris":{"android":"levelo://app?vid=c7ae46c4-3507-432a-9ec8-3001d58bc75a","ios":"levelo://app?vid=c7ae46c4-3507-432a-9ec8-3001d58bc75a"},"vehicle_type_id":"4","last_reported":1730204262,"current_range_meters":8000,"station_id":"ce4bhbh2rcd13ifvqeqg","pricing_plan_id":"cebpf4jnsgd1na2vs0mg"},{"bike_id":"2428d0d4-0189-4b00-85c9-81366524f657","system_id":"levelo_inurba_marseille","lat":43.25932,"lon":5.40904,"is_reserved":false,"is_disabled":false,"rental_uris":{"android":"levelo://app?vid=2428d0d4-0189-4b00-85c9-81366524f657","ios":"levelo://app?vid=2428d0d4-0189-4b00-85c9-81366524f657"},"vehicle_type_id":"4","last_reported":1730204262,"current_range_meters":28800,"station_id":"ce4bhm92rcd13ifvqglg","pricing_plan_id":"cebpf4jnsgd1na2vs0mg"},{"bike_id":"66569125-ecb1-43c8-a535-8a5b9baeafc9","system_id":"levelo_inurba_marseille","lat":43.24547,"lon":5.39522,"is_reserved":false,"is_disabled":false,"rental_uris":{"android":"levelo://app?vid=66569125-ecb1-43c8-a535-8a5b9baeafc9","ios":"levelo://app?vid=66569125-ecb1-43c8-a535-8a5b9baeafc9"},"vehicle_type_id":"4","last_reported":1730204262,"current_range_meters":40000,"station_id":"ce4bhlp2rcd13ifvqgjg","pricing_plan_id":"cebpf4jnsgd1na2vs0mg"},{"bike_id":"612e6346-5a05-457f-a354-3d0b1d669220","system_id":"levelo_inurba_marseille","lat":43.30133,"lon":5.38783,"is_reserved":false,"is_disabled":false,"rental_uris":{"android":"levelo://app?vid=612e6346-5a05-457f-a354-3d0b1d669220","ios":"levelo://app?vid=612e6346-5a05-457f-a354-3d0b1d669220"},"vehicle_type_id":"4","last_reported":1730204262,"current_range_meters":20400,"station_id":"ce4bghh2rcd13ifvqb60","pricing_plan_id":"cebpf4jnsgd1na2vs0mg"},{"bike_id":"8e1e013e-3ecf-4dca-b689-43e5e570405d","system_id":"levelo_inurba_marseille","lat":43.290161,"lon":5.356217,"is_reserved":false,"is_disabled":false,"rental_uris":{"android":"levelo://app?vid=8e1e013e-3ecf-4dca-b689-43e5e570405d","ios":"levelo://app?vid=8e1e013e-3ecf-4dca-b689-43e5e570405d"},"vehicle_type_id":"4","last_reported":1730204262,"current_range_meters":32000,"station_id":"ce4bhb92rcd13ifvqen0","pricing_plan_id":"cebpf4jnsgd1na2vs0mg"},{"bike_id":"d451966f-9a13-4708-9dff-99520abd1e77","system_id":"levelo_inurba_marseille","lat":43.32481,"lon":5.36557,"is_reserved":false,"is_disabled":false,"rental_uris":{"android":"levelo://app?vid=d451966f-9a13-4708-9dff-99520abd1e77","ios":"levelo://app?vid=d451966f-9a13-4708-9dff-99520abd1e77"},"vehicle_type_id":"4","last_reported":1730204262,"current_range_meters":31200,"station_id":"ce4bhs12rcd13ifvqhvg","pricing_plan_id":"cebpf4jnsgd1na2vs0mg"},{"bike_id":"dbda7efb-410d-4a2b-a65e-9bcd0c2c113c","system_id":"levelo_inurba_marseille","lat":43.25105,"lon":5.40327,"is_reserved":false,"is_disabled":false,"rental_uris":{"android":"levelo://app?vid=dbda7efb-410d-4a2b-a65e-9bcd0c2c113c","ios":"levelo://app?vid=dbda7efb-410d-4a2b-a65e-9bcd0c2c113c"},"vehicle_type_id":"4","last_reported":1730204262,"current_range_meters":16000,"station_id":"ce4bhlh2rcd13ifvqgig","pricing_plan_id":"cebpf4jnsgd1na2vs0mg"},{"bike_id":"fefccc14-5f07-4075-9bb1-17a5eeedd4e1","system_id":"levelo_inurba_marseille","lat":43.28273,"lon":5.35066,"is_reserved":false,"is_disabled":false,"rental_uris":{"android":"levelo://app?vid=fefccc14-5f07-4075-9bb1-17a5eeedd4e1","ios":"levelo://app?vid=fefccc14-5f07-4075-9bb1-17a5eeedd4e1"},"vehicle_type_id":"4","last_reported":1730204262,"current_range_meters":27600,"station_id":"ce4bhbp2rcd13ifvqerg","pricing_plan_id":"cebpf4jnsgd1na2vs0mg"},{"bike_id":"95b8db23-cccb-4940-aeb0-d66afa53ee98","system_id":"levelo_inurba_marseille","lat":43.299593,"lon":5.384942,"is_reserved":false,"is_disabled":false,"rental_uris":{"android":"levelo://app?vid=95b8db23-cccb-4940-aeb0-d66afa53ee98","ios":"levelo://app?vid=95b8db23-cccb-4940-aeb0-d66afa53ee98"},"vehicle_type_id":"4","last_reported":1730204262,"current_range_meters":19600,"station_id":"ce4bh0h2rcd13ifvqd50","pricing_plan_id":"cebpf4jnsgd1na2vs0mg"},{"bike_id":"63571fed-c3a2-42ba-ae2b-725f7293368c","system_id":"levelo_inurba_marseille","lat":43.29605,"lon":5.37729,"is_reserved":false,"is_disabled":false,"rental_uris":{"android":"levelo://app?vid=63571fed-c3a2-42ba-ae2b-725f7293368c","ios":"levelo://app?vid=63571fed-c3a2-42ba-ae2b-725f7293368c"},"vehicle_type_id":"4","last_reported":1730204262,"current_range_meters":22800,"station_id":"ce4bgi92rcd13ifvqb90","pricing_plan_id":"cebpf4jnsgd1na2vs0mg"},{"bike_id":"13ead589-3dc3-4a5d-a5d8-185eb6f1ed37","system_id":"levelo_inurba_marseille","lat":43.30304,"lon":5.36882,"is_reserved":false,"is_disabled":false,"rental_uris":{"android":"levelo://app?vid=13ead589-3dc3-4a5d-a5d8-185eb6f1ed37","ios":"levelo://app?vid=13ead589-3dc3-4a5d-a5d8-185eb6f1ed37"},"vehicle_type_id":"4","last_reported":1730204262,"current_range_meters":4400,"station_id":"ce4bgqh2rcd13ifvqc5g","pricing_plan_id":"cebpf4jnsgd1na2vs0mg"},{"bike_id":"d621fc4d-3b68-4e95-a826-979053eb123d","system_id":"levelo_inurba_marseille","lat":43.2996,"lon":5.41321,"is_reserved":false,"is_disabled":false,"rental_uris":{"android":"levelo://app?vid=d621fc4d-3b68-4e95-a826-979053eb123d","ios":"levelo://app?vid=d621fc4d-3b68-4e95-a826-979053eb123d"},"vehicle_type_id":"4","last_reported":1730204262,"current_range_meters":28800,"station_id":"ce4bhp12rcd13ifvqh9g","pricing_plan_id":"cebpf4jnsgd1na2vs0mg"},{"bike_id":"6c5c2d65-9bb4-4292-a94e-19dacaca1c03","system_id":"levelo_inurba_marseille","lat":43.29895,"lon":5.43663,"is_reserved":false,"is_disabled":false,"rental_uris":{"android":"levelo://app?vid=6c5c2d65-9bb4-4292-a94e-19dacaca1c03","ios":"levelo://app?vid=6c5c2d65-9bb4-4292-a94e-19dacaca1c03"},"vehicle_type_id":"4","last_reported":1730204262,"current_range_meters":39200,"station_id":"ce4bhpp2rcd13ifvqhfg","pricing_plan_id":"cebpf4jnsgd1na2vs0mg"},{"bike_id":"4f7f07f6-d39f-4ccb-a580-64b7243589fa","system_id":"levelo_inurba_marseille","lat":43.26938,"lon":5.40249,"is_reserved":false,"is_disabled":false,"rental_uris":{"android":"levelo://app?vid=4f7f07f6-d39f-4ccb-a580-64b7243589fa","ios":"levelo://app?vid=4f7f07f6-d39f-4ccb-a580-64b7243589fa"},"vehicle_type_id":"4","last_reported":1730204262,"current_range_meters":38800,"station_id":"cjm6bp8fraef2m0cb0m0","pricing_plan_id":"cebpf4jnsgd1na2vs0mg"},{"bike_id":"bbe94dcd-b3ff-4e01-a340-9c001a158aa7","system_id":"levelo_inurba_marseille","lat":43.25932,"lon":5.40904,"is_reserved":false,"is_disabled":false,"rental_uris":{"android":"levelo://app?vid=bbe94dcd-b3ff-4e01-a340-9c001a158aa7","ios":"levelo://app?vid=bbe94dcd-b3ff-4e01-a340-9c001a158aa7"},"vehicle_type_id":"4","last_reported":1730204262,"current_range_meters":38800,"station_id":"ce4bhm92rcd13ifvqglg","pricing_plan_id":"cebpf4jnsgd1na2vs0mg"},{"bike_id":"228c0e14-e6bb-4f06-b9b4-8a885e4321b4","system_id":"levelo_inurba_marseille","lat":43.26556,"lon":5.37277,"is_reserved":false,"is_disabled":false,"rental_uris":{"android":"levelo://app?vid=228c0e14-e6bb-4f06-b9b4-8a885e4321b4","ios":"levelo://app?vid=228c0e14-e6bb-4f06-b9b4-8a885e4321b4"},"vehicle_type_id":"4","last_reported":1730204262,"current_range_meters":26800,"station_id":"ce4bhg12rcd13ifvqf70","pricing_plan_id":"cebpf4jnsgd1na2vs0mg"},{"bike_id":"766801a5-7dbd-464a-bc56-398e14b9cf78","system_id":"levelo_inurba_marseille","lat":43.29805,"lon":5.37136,"is_reserved":false,"is_disabled":false,"rental_uris":{"android":"levelo://app?vid=766801a5-7dbd-464a-bc56-398e14b9cf78","ios":"levelo://app?vid=766801a5-7dbd-464a-bc56-398e14b9cf78"},"vehicle_type_id":"4","last_reported":1730204262,"current_range_meters":10800,"station_id":"","pricing_plan_id":"cebpf4jnsgd1na2vs0mg"},{"bike_id":"afc8a59e-718c-432c-b226-d6be0903e5fb","system_id":"levelo_inurba_marseille","lat":43.24409,"lon":5.37067,"is_reserved":false,"is_disabled":false,"rental_uris":{"android":"levelo://app?vid=afc8a59e-718c-432c-b226-d6be0903e5fb","ios":"levelo://app?vid=afc8a59e-718c-432c-b226-d6be0903e5fb"},"vehicle_type_id":"4","last_reported":1730204262,"current_range_meters":37600,"station_id":"ce4bhhh2rcd13ifvqfk0","pricing_plan_id":"cebpf4jnsgd1na2vs0mg"},{"bike_id":"370a73a2-b397-4dd4-9881-4f6997fda098","system_id":"levelo_inurba_marseille","lat":43.25116,"lon":5.40316,"is_reserved":false,"is_disabled":false,"rental_uris":{"android":"levelo://app?vid=370a73a2-b397-4dd4-9881-4f6997fda098","ios":"levelo://app?vid=370a73a2-b397-4dd4-9881-4f6997fda098"},"vehicle_type_id":"4","last_reported":1730204262,"current_range_meters":31200,"station_id":"ce4bhlh2rcd13ifvqgig","pricing_plan_id":"cebpf4jnsgd1na2vs0mg"},{"bike_id":"98249be0-d5ac-4ddd-aa12-ac0853921326","system_id":"levelo_inurba_marseille","lat":43.29037,"lon":5.39958,"is_reserved":false,"is_disabled":false,"rental_uris":{"android":"levelo://app?vid=98249be0-d5ac-4ddd-aa12-ac0853921326","ios":"levelo://app?vid=98249be0-d5ac-4ddd-aa12-ac0853921326"},"vehicle_type_id":"4","last_reported":1730204262,"current_range_meters":10800,"station_id":"ce4bh392rcd13ifvqdm0","pricing_plan_id":"cebpf4jnsgd1na2vs0mg"},{"bike_id":"90213912-9450-4b7a-9275-368c4b290ce6","system_id":"levelo_inurba_marseille","lat":43.28699,"lon":5.39981,"is_reserved":false,"is_disabled":false,"rental_uris":{"android":"levelo://app?vid=90213912-9450-4b7a-9275-368c4b290ce6","ios":"levelo://app?vid=90213912-9450-4b7a-9275-368c4b290ce6"},"vehicle_type_id":"4","last_reported":1730204262,"current_range_meters":25200,"station_id":"ce4bho92rcd13ifvqh3g","pricing_plan_id":"cebpf4jnsgd1na2vs0mg"},{"bike_id":"ff4f1faf-1181-4bac-a8c0-65c8ad034dee","system_id":"levelo_inurba_marseille","lat":43.273743,"lon":5.36255,"is_reserved":false,"is_disabled":false,"rental_uris":{"android":"levelo://app?vid=ff4f1faf-1181-4bac-a8c0-65c8ad034dee","ios":"levelo://app?vid=ff4f1faf-1181-4bac-a8c0-65c8ad034dee"},"vehicle_type_id":"4","last_reported":1730204262,"current_range_meters":8400,"station_id":"ce4bhah2rcd13ifvqej0","pricing_plan_id":"cebpf4jnsgd1na2vs0mg"},{"bike_id":"a1402e50-bfad-42cd-b770-fff741fe34aa","system_id":"levelo_inurba_marseille","lat":43.25007,"lon":5.38912,"is_reserved":false,"is_disabled":false,"rental_uris":{"android":"levelo://app?vid=a1402e50-bfad-42cd-b770-fff741fe34aa","ios":"levelo://app?vid=a1402e50-bfad-42cd-b770-fff741fe34aa"},"vehicle_type_id":"4","last_reported":1730204262,"current_range_meters":38000,"station_id":"ce4bhgp2rcd13ifvqfd0","pricing_plan_id":"cebpf4jnsgd1na2vs0mg"},{"bike_id":"4ff9ff98-c9e0-44c4-ba8c-f2ebb3990daa","system_id":"levelo_inurba_marseille","lat":43.32484,"lon":5.36562,"is_reserved":false,"is_disabled":false,"rental_uris":{"android":"levelo://app?vid=4ff9ff98-c9e0-44c4-ba8c-f2ebb3990daa","ios":"levelo://app?vid=4ff9ff98-c9e0-44c4-ba8c-f2ebb3990daa"},"vehicle_type_id":"4","last_reported":1730204262,"current_range_meters":8000,"station_id":"ce4bhs12rcd13ifvqhvg","pricing_plan_id":"cebpf4jnsgd1na2vs0mg"},{"bike_id":"e9a30b88-e478-4b5f-a58c-17fcea990527","system_id":"levelo_inurba_marseille","lat":43.29913,"lon":5.37459,"is_reserved":false,"is_disabled":false,"rental_uris":{"android":"levelo://app?vid=e9a30b88-e478-4b5f-a58c-17fcea990527","ios":"levelo://app?vid=e9a30b88-e478-4b5f-a58c-17fcea990527"},"vehicle_type_id":"4","last_reported":1730204262,"current_range_meters":17600,"station_id":"ce4bgjh2rcd13ifvqbg0","pricing_plan_id":"cebpf4jnsgd1na2vs0mg"},{"bike_id":"ed1cbfd8-d0fd-4491-87ac-7b900d366572","system_id":"levelo_inurba_marseille","lat":43.296478,"lon":5.36608,"is_reserved":false,"is_disabled":false,"rental_uris":{"android":"levelo://app?vid=ed1cbfd8-d0fd-4491-87ac-7b900d366572","ios":"levelo://app?vid=ed1cbfd8-d0fd-4491-87ac-7b900d366572"},"vehicle_type_id":"4","last_reported":1730204262,"current_range_meters":29600,"station_id":"ce4bha92rcd13ifvqeh0","pricing_plan_id":"cebpf4jnsgd1na2vs0mg"},{"bike_id":"75cb1cc6-d5d2-4dcd-ae25-28283e0b065b","system_id":"levelo_inurba_marseille","lat":43.29612,"lon":5.37722,"is_reserved":false,"is_disabled":false,"rental_uris":{"android":"levelo://app?vid=75cb1cc6-d5d2-4dcd-ae25-28283e0b065b","ios":"levelo://app?vid=75cb1cc6-d5d2-4dcd-ae25-28283e0b065b"},"vehicle_type_id":"4","last_reported":1730204262,"current_range_meters":19200,"station_id":"ce4bgi92rcd13ifvqb90","pricing_plan_id":"cebpf4jnsgd1na2vs0mg"},{"bike_id":"142f2714-9cad-42ab-8fdd-aecca8d8699e","system_id":"levelo_inurba_marseille","lat":43.33606,"lon":5.41023,"is_reserved":false,"is_disabled":false,"rental_uris":{"android":"levelo://app?vid=142f2714-9cad-42ab-8fdd-aecca8d8699e","ios":"levelo://app?vid=142f2714-9cad-42ab-8fdd-aecca8d8699e"},"vehicle_type_id":"4","last_reported":1730204262,"current_range_meters":24400,"station_id":"ce4bhqh2rcd13ifvqhmg","pricing_plan_id":"cebpf4jnsgd1na2vs0mg"},{"bike_id":"181bef3f-1485-40bb-83af-377fe61dde0b","system_id":"levelo_inurba_marseille","lat":43.32481,"lon":5.36563,"is_reserved":false,"is_disabled":false,"rental_uris":{"android":"levelo://app?vid=181bef3f-1485-40bb-83af-377fe61dde0b","ios":"levelo://app?vid=181bef3f-1485-40bb-83af-377fe61dde0b"},"vehicle_type_id":"4","last_reported":1730204262,"current_range_meters":28000,"station_id":"ce4bhs12rcd13ifvqhvg","pricing_plan_id":"cebpf4jnsgd1na2vs0mg"},{"bike_id":"42a572ee-4cf3-46b6-b8f0-0a0e16109200","system_id":"levelo_inurba_marseille","lat":43.27219,"lon":5.39189,"is_reserved":false,"is_disabled":false,"rental_uris":{"android":"levelo://app?vid=42a572ee-4cf3-46b6-b8f0-0a0e16109200","ios":"levelo://app?vid=42a572ee-4cf3-46b6-b8f0-0a0e16109200"},"vehicle_type_id":"4","last_reported":1730204262,"current_range_meters":40000,"station_id":"ce4bhhp2rcd13ifvqfm0","pricing_plan_id":"cebpf4jnsgd1na2vs0mg"},{"bike_id":"c7757bea-4296-44dc-b490-1ebf01a3caf0","system_id":"levelo_inurba_marseille","lat":43.32477,"lon":5.36557,"is_reserved":false,"is_disabled":false,"rental_uris":{"android":"levelo://app?vid=c7757bea-4296-44dc-b490-1ebf01a3caf0","ios":"levelo://app?vid=c7757bea-4296-44dc-b490-1ebf01a3caf0"},"vehicle_type_id":"4","last_reported":1730204262,"current_range_meters":35600,"station_id":"ce4bhs12rcd13ifvqhvg","pricing_plan_id":"cebpf4jnsgd1na2vs0mg"},{"bike_id":"82938b73-db78-491a-8e6b-de7ae6d59fe5","system_id":"levelo_inurba_marseille","lat":43.33755,"lon":5.37435,"is_reserved":false,"is_disabled":false,"rental_uris":{"android":"levelo://app?vid=82938b73-db78-491a-8e6b-de7ae6d59fe5","ios":"levelo://app?vid=82938b73-db78-491a-8e6b-de7ae6d59fe5"},"vehicle_type_id":"4","last_reported":1730204262,"current_range_meters":36400,"station_id":"","pricing_plan_id":"cebpf4jnsgd1na2vs0mg"},{"bike_id":"9ad633bf-7d28-4e90-bd87-854101be9da9","system_id":"levelo_inurba_marseille","lat":43.297182,"lon":5.376876,"is_reserved":false,"is_disabled":false,"rental_uris":{"android":"levelo://app?vid=9ad633bf-7d28-4e90-bd87-854101be9da9","ios":"levelo://app?vid=9ad633bf-7d28-4e90-bd87-854101be9da9"},"vehicle_type_id":"4","last_reported":1730204262,"current_range_meters":40000,"station_id":"ce4bgkh2rcd13ifvqbl0","pricing_plan_id":"cebpf4jnsgd1na2vs0mg"},{"bike_id":"5ec52240-6009-4841-b27e-a7da6a622246","system_id":"levelo_inurba_marseille","lat":43.30904,"lon":5.36834,"is_reserved":false,"is_disabled":false,"rental_uris":{"android":"levelo://app?vid=5ec52240-6009-4841-b27e-a7da6a622246","ios":"levelo://app?vid=5ec52240-6009-4841-b27e-a7da6a622246"},"vehicle_type_id":"4","last_reported":1730204262,"current_range_meters":24800,"station_id":"ce4bgn92rcd13ifvqbvg","pricing_plan_id":"cebpf4jnsgd1na2vs0mg"},{"bike_id":"9ae3326f-87cc-4d87-b149-5cf6eb05eedf","system_id":"levelo_inurba_marseille","lat":43.30522,"lon":5.36546,"is_reserved":false,"is_disabled":false,"rental_uris":{"android":"levelo://app?vid=9ae3326f-87cc-4d87-b149-5cf6eb05eedf","ios":"levelo://app?vid=9ae3326f-87cc-4d87-b149-5cf6eb05eedf"},"vehicle_type_id":"4","last_reported":1730204262,"current_range_meters":39200,"station_id":"ce4bgs12rcd13ifvqcag","pricing_plan_id":"cebpf4jnsgd1na2vs0mg"},{"bike_id":"6723272e-aaea-4b98-9990-28d8bc18c708","system_id":"levelo_inurba_marseille","lat":43.320448,"lon":5.415489,"is_reserved":false,"is_disabled":false,"rental_uris":{"android":"levelo://app?vid=6723272e-aaea-4b98-9990-28d8bc18c708","ios":"levelo://app?vid=6723272e-aaea-4b98-9990-28d8bc18c708"},"vehicle_type_id":"4","last_reported":1730204262,"current_range_meters":38800,"station_id":"ce4bhq92rcd13ifvqhkg","pricing_plan_id":"cebpf4jnsgd1na2vs0mg"},{"bike_id":"9a0ee878-3792-48cc-a91e-8587eb869f9f","system_id":"levelo_inurba_marseille","lat":43.30534,"lon":5.36544,"is_reserved":false,"is_disabled":false,"rental_uris":{"android":"levelo://app?vid=9a0ee878-3792-48cc-a91e-8587eb869f9f","ios":"levelo://app?vid=9a0ee878-3792-48cc-a91e-8587eb869f9f"},"vehicle_type_id":"4","last_reported":1730204262,"current_range_meters":40000,"station_id":"ce4bgs12rcd13ifvqcag","pricing_plan_id":"cebpf4jnsgd1na2vs0mg"},{"bike_id":"d5c33c2a-e98a-4d53-95a8-526daefb5965","system_id":"levelo_inurba_marseille","lat":43.25939,"lon":5.40893,"is_reserved":false,"is_disabled":false,"rental_uris":{"android":"levelo://app?vid=d5c33c2a-e98a-4d53-95a8-526daefb5965","ios":"levelo://app?vid=d5c33c2a-e98a-4d53-95a8-526daefb5965"},"vehicle_type_id":"4","last_reported":1730204262,"current_range_meters":24400,"station_id":"ce4bhm92rcd13ifvqglg","pricing_plan_id":"cebpf4jnsgd1na2vs0mg"},{"bike_id":"22939462-f077-407c-af99-7b3be0e231b8","system_id":"levelo_inurba_marseille","lat":43.2922,"lon":5.36073,"is_reserved":false,"is_disabled":false,"rental_uris":{"android":"levelo://app?vid=22939462-f077-407c-af99-7b3be0e231b8","ios":"levelo://app?vid=22939462-f077-407c-af99-7b3be0e231b8"},"vehicle_type_id":"4","last_reported":1730204262,"current_range_meters":35600,"station_id":"ce4bhbh2rcd13ifvqeqg","pricing_plan_id":"cebpf4jnsgd1na2vs0mg"},{"bike_id":"f6b14166-5cd0-4cb4-84b2-c28ae5c2c613","system_id":"levelo_inurba_marseille","lat":43.2315,"lon":5.43718,"is_reserved":false,"is_disabled":false,"rental_uris":{"android":"levelo://app?vid=f6b14166-5cd0-4cb4-84b2-c28ae5c2c613","ios":"levelo://app?vid=f6b14166-5cd0-4cb4-84b2-c28ae5c2c613"},"vehicle_type_id":"4","last_reported":1730204262,"current_range_meters":39200,"station_id":"ce4bhmp2rcd13ifvqgog","pricing_plan_id":"cebpf4jnsgd1na2vs0mg"},{"bike_id":"1a861092-4ba8-4fa1-a624-0d99aa90f1b8","system_id":"levelo_inurba_marseille","lat":43.28483,"lon":5.3855,"is_reserved":false,"is_disabled":false,"rental_uris":{"android":"levelo://app?vid=1a861092-4ba8-4fa1-a624-0d99aa90f1b8","ios":"levelo://app?vid=1a861092-4ba8-4fa1-a624-0d99aa90f1b8"},"vehicle_type_id":"4","last_reported":1730204262,"current_range_meters":37600,"station_id":"ce4bh8p2rcd13ifvqeb0","pricing_plan_id":"cebpf4jnsgd1na2vs0mg"},{"bike_id":"a404248e-6987-4d99-b20a-9cc9dfe309cc","system_id":"levelo_inurba_marseille","lat":43.24075,"lon":5.37756,"is_reserved":false,"is_disabled":false,"rental_uris":{"android":"levelo://app?vid=a404248e-6987-4d99-b20a-9cc9dfe309cc","ios":"levelo://app?vid=a404248e-6987-4d99-b20a-9cc9dfe309cc"},"vehicle_type_id":"4","last_reported":1730204262,"current_range_meters":10000,"station_id":"ce4bhnp2rcd13ifvqgvg","pricing_plan_id":"cebpf4jnsgd1na2vs0mg"},{"bike_id":"eb816a0f-2ee5-4806-8412-a9686c8d2332","system_id":"levelo_inurba_marseille","lat":43.30555,"lon":5.36529,"is_reserved":false,"is_disabled":false,"rental_uris":{"android":"levelo://app?vid=eb816a0f-2ee5-4806-8412-a9686c8d2332","ios":"levelo://app?vid=eb816a0f-2ee5-4806-8412-a9686c8d2332"},"vehicle_type_id":"4","last_reported":1730204262,"current_range_meters":38800,"station_id":"ce4bgs12rcd13ifvqcag","pricing_plan_id":"cebpf4jnsgd1na2vs0mg"},{"bike_id":"5aa288e2-e971-42ed-88a4-245192921273","system_id":"levelo_inurba_marseille","lat":43.30551,"lon":5.36516,"is_reserved":false,"is_disabled":false,"rental_uris":{"android":"levelo://app?vid=5aa288e2-e971-42ed-88a4-245192921273","ios":"levelo://app?vid=5aa288e2-e971-42ed-88a4-245192921273"},"vehicle_type_id":"4","last_reported":1730204262,"current_range_meters":38800,"station_id":"ce4bgs12rcd13ifvqcag","pricing_plan_id":"cebpf4jnsgd1na2vs0mg"},{"bike_id":"5b0caea7-b0e5-4da2-a359-403550b56cfa","system_id":"levelo_inurba_marseille","lat":43.24158,"lon":5.36391,"is_reserved":false,"is_disabled":false,"rental_uris":{"android":"levelo://app?vid=5b0caea7-b0e5-4da2-a359-403550b56cfa","ios":"levelo://app?vid=5b0caea7-b0e5-4da2-a359-403550b56cfa"},"vehicle_type_id":"4","last_reported":1730204262,"current_range_meters":28000,"station_id":"cpo36qri1sfpv3e86is0","pricing_plan_id":"cebpf4jnsgd1na2vs0mg"},{"bike_id":"5c359509-c1dc-4b60-8b27-7d565dc6ce2e","system_id":"levelo_inurba_marseille","lat":43.30465,"lon":5.37913,"is_reserved":false,"is_disabled":false,"rental_uris":{"android":"levelo://app?vid=5c359509-c1dc-4b60-8b27-7d565dc6ce2e","ios":"levelo://app?vid=5c359509-c1dc-4b60-8b27-7d565dc6ce2e"},"vehicle_type_id":"4","last_reported":1730204262,"current_range_meters":29600,"station_id":"ce4bgup2rcd13ifvqcn0","pricing_plan_id":"cebpf4jnsgd1na2vs0mg"},{"bike_id":"8cebbd3b-c409-482d-995a-e50323e46a38","system_id":"levelo_inurba_marseille","lat":43.23148,"lon":5.43712,"is_reserved":false,"is_disabled":false,"rental_uris":{"android":"levelo://app?vid=8cebbd3b-c409-482d-995a-e50323e46a38","ios":"levelo://app?vid=8cebbd3b-c409-482d-995a-e50323e46a38"},"vehicle_type_id":"4","last_reported":1730204262,"current_range_meters":22400,"station_id":"ce4bhmp2rcd13ifvqgog","pricing_plan_id":"cebpf4jnsgd1na2vs0mg"},{"bike_id":"0d50a4f7-db80-4199-9866-031e6bc06a9b","system_id":"levelo_inurba_marseille","lat":43.28952,"lon":5.3753,"is_reserved":false,"is_disabled":false,"rental_uris":{"android":"levelo://app?vid=0d50a4f7-db80-4199-9866-031e6bc06a9b","ios":"levelo://app?vid=0d50a4f7-db80-4199-9866-031e6bc06a9b"},"vehicle_type_id":"4","last_reported":1730204262,"current_range_meters":6400,"station_id":"ce4bh412rcd13ifvqds0","pricing_plan_id":"cebpf4jnsgd1na2vs0mg"},{"bike_id":"099a0032-6fe3-4a0e-a0ba-ab5284105d72","system_id":"levelo_inurba_marseille","lat":43.25115,"lon":5.40319,"is_reserved":false,"is_disabled":false,"rental_uris":{"android":"levelo://app?vid=099a0032-6fe3-4a0e-a0ba-ab5284105d72","ios":"levelo://app?vid=099a0032-6fe3-4a0e-a0ba-ab5284105d72"},"vehicle_type_id":"4","last_reported":1730204262,"current_range_meters":37600,"station_id":"ce4bhlh2rcd13ifvqgig","pricing_plan_id":"cebpf4jnsgd1na2vs0mg"},{"bike_id":"a581efc5-d230-4ff3-8636-9f746646707f","system_id":"levelo_inurba_marseille","lat":43.33763,"lon":5.37438,"is_reserved":false,"is_disabled":false,"rental_uris":{"android":"levelo://app?vid=a581efc5-d230-4ff3-8636-9f746646707f","ios":"levelo://app?vid=a581efc5-d230-4ff3-8636-9f746646707f"},"vehicle_type_id":"4","last_reported":1730204262,"current_range_meters":27200,"station_id":"","pricing_plan_id":"cebpf4jnsgd1na2vs0mg"},{"bike_id":"0e3ee072-f89b-44fa-9683-d0e6bc4d21ec","system_id":"levelo_inurba_marseille","lat":43.29725,"lon":5.37686,"is_reserved":false,"is_disabled":false,"rental_uris":{"android":"levelo://app?vid=0e3ee072-f89b-44fa-9683-d0e6bc4d21ec","ios":"levelo://app?vid=0e3ee072-f89b-44fa-9683-d0e6bc4d21ec"},"vehicle_type_id":"4","last_reported":1730204262,"current_range_meters":36000,"station_id":"ce4bgkh2rcd13ifvqbl0","pricing_plan_id":"cebpf4jnsgd1na2vs0mg"},{"bike_id":"01dd2947-560e-46d7-a9a8-db889ebb7b3f","system_id":"levelo_inurba_marseille","lat":43.27564,"lon":5.38414,"is_reserved":false,"is_disabled":false,"rental_uris":{"android":"levelo://app?vid=01dd2947-560e-46d7-a9a8-db889ebb7b3f","ios":"levelo://app?vid=01dd2947-560e-46d7-a9a8-db889ebb7b3f"},"vehicle_type_id":"4","last_reported":1730204262,"current_range_meters":38000,"station_id":"ce4bhh92rcd13ifvqfi0","pricing_plan_id":"cebpf4jnsgd1na2vs0mg"},{"bike_id":"ef1bbf1d-91b2-4ffd-a332-3b8c840c794e","system_id":"levelo_inurba_marseille","lat":43.33105,"lon":5.38241,"is_reserved":false,"is_disabled":false,"rental_uris":{"android":"levelo://app?vid=ef1bbf1d-91b2-4ffd-a332-3b8c840c794e","ios":"levelo://app?vid=ef1bbf1d-91b2-4ffd-a332-3b8c840c794e"},"vehicle_type_id":"4","last_reported":1730204262,"current_range_meters":4400,"station_id":"","pricing_plan_id":"cebpf4jnsgd1na2vs0mg"},{"bike_id":"31034c88-d5c9-4cee-b0d9-96b2269ac9da","system_id":"levelo_inurba_marseille","lat":43.27989,"lon":5.41647,"is_reserved":false,"is_disabled":false,"rental_uris":{"android":"levelo://app?vid=31034c88-d5c9-4cee-b0d9-96b2269ac9da","ios":"levelo://app?vid=31034c88-d5c9-4cee-b0d9-96b2269ac9da"},"vehicle_type_id":"4","last_reported":1730204262,"current_range_meters":31200,"station_id":"ce4bho12rcd13ifvqh1g","pricing_plan_id":"cebpf4jnsgd1na2vs0mg"},{"bike_id":"bdf9382a-e106-48c6-bde4-0221e2fc0411","system_id":"levelo_inurba_marseille","lat":43.2656,"lon":5.37283,"is_reserved":false,"is_disabled":false,"rental_uris":{"android":"levelo://app?vid=bdf9382a-e106-48c6-bde4-0221e2fc0411","ios":"levelo://app?vid=bdf9382a-e106-48c6-bde4-0221e2fc0411"},"vehicle_type_id":"4","last_reported":1730204262,"current_range_meters":36800,"station_id":"ce4bhg12rcd13ifvqf70","pricing_plan_id":"cebpf4jnsgd1na2vs0mg"},{"bike_id":"889b21df-fcfd-4fc2-8975-9ed5904bc736","system_id":"levelo_inurba_marseille","lat":43.30542,"lon":5.36692,"is_reserved":false,"is_disabled":false,"rental_uris":{"android":"levelo://app?vid=889b21df-fcfd-4fc2-8975-9ed5904bc736","ios":"levelo://app?vid=889b21df-fcfd-4fc2-8975-9ed5904bc736"},"vehicle_type_id":"4","last_reported":1730204262,"current_range_meters":28000,"station_id":"ce4bgrp2rcd13ifvqc9g","pricing_plan_id":"cebpf4jnsgd1na2vs0mg"},{"bike_id":"92545d6c-760c-4e85-b9a1-da2bfffc0818","system_id":"levelo_inurba_marseille","lat":43.23154,"lon":5.43709,"is_reserved":false,"is_disabled":false,"rental_uris":{"android":"levelo://app?vid=92545d6c-760c-4e85-b9a1-da2bfffc0818","ios":"levelo://app?vid=92545d6c-760c-4e85-b9a1-da2bfffc0818"},"vehicle_type_id":"4","last_reported":1730204262,"current_range_meters":22800,"station_id":"ce4bhmp2rcd13ifvqgog","pricing_plan_id":"cebpf4jnsgd1na2vs0mg"},{"bike_id":"361a4032-142b-4de6-a3e9-eac34bd8ce13","system_id":"levelo_inurba_marseille","lat":43.24066,"lon":5.37753,"is_reserved":false,"is_disabled":false,"rental_uris":{"android":"levelo://app?vid=361a4032-142b-4de6-a3e9-eac34bd8ce13","ios":"levelo://app?vid=361a4032-142b-4de6-a3e9-eac34bd8ce13"},"vehicle_type_id":"4","last_reported":1730204262,"current_range_meters":30800,"station_id":"ce4bhnp2rcd13ifvqgvg","pricing_plan_id":"cebpf4jnsgd1na2vs0mg"},{"bike_id":"8e70e846-94f7-4ee8-b1e4-f80eeee302d2","system_id":"levelo_inurba_marseille","lat":43.26497,"lon":5.39539,"is_reserved":false,"is_disabled":false,"rental_uris":{"android":"levelo://app?vid=8e70e846-94f7-4ee8-b1e4-f80eeee302d2","ios":"levelo://app?vid=8e70e846-94f7-4ee8-b1e4-f80eeee302d2"},"vehicle_type_id":"4","last_reported":1730204262,"current_range_meters":36800,"station_id":"ce4bhi12rcd13ifvqfq0","pricing_plan_id":"cebpf4jnsgd1na2vs0mg"},{"bike_id":"6d535ca1-ff3a-40d6-b7f0-6895af51c976","system_id":"levelo_inurba_marseille","lat":43.32285,"lon":5.38274,"is_reserved":false,"is_disabled":false,"rental_uris":{"android":"levelo://app?vid=6d535ca1-ff3a-40d6-b7f0-6895af51c976","ios":"levelo://app?vid=6d535ca1-ff3a-40d6-b7f0-6895af51c976"},"vehicle_type_id":"4","last_reported":1730204262,"current_range_meters":33200,"station_id":"ce4bhr12rcd13ifvqhqg","pricing_plan_id":"cebpf4jnsgd1na2vs0mg"},{"bike_id":"bd1d0c81-a505-473b-97ed-c2b8dcfa3ede","system_id":"levelo_inurba_marseille","lat":43.28423,"lon":5.34983,"is_reserved":false,"is_disabled":false,"rental_uris":{"android":"levelo://app?vid=bd1d0c81-a505-473b-97ed-c2b8dcfa3ede","ios":"levelo://app?vid=bd1d0c81-a505-473b-97ed-c2b8dcfa3ede"},"vehicle_type_id":"4","last_reported":1730204262,"current_range_meters":39200,"station_id":"ce4bhbh2rcd13ifvqepg","pricing_plan_id":"cebpf4jnsgd1na2vs0mg"},{"bike_id":"98d8ad1f-cce5-41a7-9713-584cc85a31c9","system_id":"levelo_inurba_marseille","lat":43.28151,"lon":5.42638,"is_reserved":false,"is_disabled":false,"rental_uris":{"android":"levelo://app?vid=98d8ad1f-cce5-41a7-9713-584cc85a31c9","ios":"levelo://app?vid=98d8ad1f-cce5-41a7-9713-584cc85a31c9"},"vehicle_type_id":"4","last_reported":1730204262,"current_range_meters":38000,"station_id":"ce4bhnh2rcd13ifvqgug","pricing_plan_id":"cebpf4jnsgd1na2vs0mg"},{"bike_id":"9ed6ece7-5f54-4c85-ab41-09b6c89b90f0","system_id":"levelo_inurba_marseille","lat":43.24805,"lon":5.37454,"is_reserved":false,"is_disabled":false,"rental_uris":{"android":"levelo://app?vid=9ed6ece7-5f54-4c85-ab41-09b6c89b90f0","ios":"levelo://app?vid=9ed6ece7-5f54-4c85-ab41-09b6c89b90f0"},"vehicle_type_id":"4","last_reported":1730204262,"current_range_meters":28800,"station_id":"ce4bhgh2rcd13ifvqfb0","pricing_plan_id":"cebpf4jnsgd1na2vs0mg"},{"bike_id":"4de2b8b4-50bb-4bfc-86d3-23ae4fdebd97","system_id":"levelo_inurba_marseille","lat":43.31223,"lon":5.36859,"is_reserved":false,"is_disabled":false,"rental_uris":{"android":"levelo://app?vid=4de2b8b4-50bb-4bfc-86d3-23ae4fdebd97","ios":"levelo://app?vid=4de2b8b4-50bb-4bfc-86d3-23ae4fdebd97"},"vehicle_type_id":"4","last_reported":1730204262,"current_range_meters":38000,"station_id":"ce4bgl92rcd13ifvqbq0","pricing_plan_id":"cebpf4jnsgd1na2vs0mg"},{"bike_id":"15d40fcf-50fc-4f87-b166-60d73871351e","system_id":"levelo_inurba_marseille","lat":43.29871,"lon":5.38895,"is_reserved":false,"is_disabled":false,"rental_uris":{"android":"levelo://app?vid=15d40fcf-50fc-4f87-b166-60d73871351e","ios":"levelo://app?vid=15d40fcf-50fc-4f87-b166-60d73871351e"},"vehicle_type_id":"4","last_reported":1730204262,"current_range_meters":32400,"station_id":"ce4bh392rcd13ifvqdl0","pricing_plan_id":"cebpf4jnsgd1na2vs0mg"},{"bike_id":"aec282c3-324d-487a-8850-842dfff52168","system_id":"levelo_inurba_marseille","lat":43.23155,"lon":5.43708,"is_reserved":false,"is_disabled":false,"rental_uris":{"android":"levelo://app?vid=aec282c3-324d-487a-8850-842dfff52168","ios":"levelo://app?vid=aec282c3-324d-487a-8850-842dfff52168"},"vehicle_type_id":"4","last_reported":1730204262,"current_range_meters":24400,"station_id":"ce4bhmp2rcd13ifvqgog","pricing_plan_id":"cebpf4jnsgd1na2vs0mg"},{"bike_id":"71ca1ef6-5725-460f-9bb5-daec8bfd3521","system_id":"levelo_inurba_marseille","lat":43.33024,"lon":5.39037,"is_reserved":false,"is_disabled":false,"rental_uris":{"android":"levelo://app?vid=71ca1ef6-5725-460f-9bb5-daec8bfd3521","ios":"levelo://app?vid=71ca1ef6-5725-460f-9bb5-daec8bfd3521"},"vehicle_type_id":"4","last_reported":1730204262,"current_range_meters":27200,"station_id":"ce4bhr92rcd13ifvqhrg","pricing_plan_id":"cebpf4jnsgd1na2vs0mg"},{"bike_id":"e4735d37-a5fd-4c22-b065-5327fe43c356","system_id":"levelo_inurba_marseille","lat":43.31161,"lon":5.38697,"is_reserved":false,"is_disabled":false,"rental_uris":{"android":"levelo://app?vid=e4735d37-a5fd-4c22-b065-5327fe43c356","ios":"levelo://app?vid=e4735d37-a5fd-4c22-b065-5327fe43c356"},"vehicle_type_id":"4","last_reported":1730204262,"current_range_meters":10800,"station_id":"ce4bgv12rcd13ifvqcp0","pricing_plan_id":"cebpf4jnsgd1na2vs0mg"},{"bike_id":"160c3125-d109-49e3-a687-ede78b99dea2","system_id":"levelo_inurba_marseille","lat":43.23202,"lon":5.35546,"is_reserved":false,"is_disabled":false,"rental_uris":{"android":"levelo://app?vid=160c3125-d109-49e3-a687-ede78b99dea2","ios":"levelo://app?vid=160c3125-d109-49e3-a687-ede78b99dea2"},"vehicle_type_id":"4","last_reported":1730204262,"current_range_meters":16800,"station_id":"ce4bhu92rcd13ifvqi70","pricing_plan_id":"cebpf4jnsgd1na2vs0mg"},{"bike_id":"27edc2bb-9c3f-48e5-b1e5-ca1fd7b23862","system_id":"levelo_inurba_marseille","lat":43.2721,"lon":5.39175,"is_reserved":false,"is_disabled":false,"rental_uris":{"android":"levelo://app?vid=27edc2bb-9c3f-48e5-b1e5-ca1fd7b23862","ios":"levelo://app?vid=27edc2bb-9c3f-48e5-b1e5-ca1fd7b23862"},"vehicle_type_id":"4","last_reported":1730204262,"current_range_meters":39200,"station_id":"ce4bhhp2rcd13ifvqfm0","pricing_plan_id":"cebpf4jnsgd1na2vs0mg"},{"bike_id":"7a3f60d6-5589-44b2-bea7-8a929e9b6b4e","system_id":"levelo_inurba_marseille","lat":43.29897,"lon":5.43668,"is_reserved":false,"is_disabled":false,"rental_uris":{"android":"levelo://app?vid=7a3f60d6-5589-44b2-bea7-8a929e9b6b4e","ios":"levelo://app?vid=7a3f60d6-5589-44b2-bea7-8a929e9b6b4e"},"vehicle_type_id":"4","last_reported":1730204262,"current_range_meters":17600,"station_id":"ce4bhpp2rcd13ifvqhfg","pricing_plan_id":"cebpf4jnsgd1na2vs0mg"},{"bike_id":"58c76d7e-ede0-49b4-adb5-3e66ee6972dd","system_id":"levelo_inurba_marseille","lat":43.25937,"lon":5.40893,"is_reserved":false,"is_disabled":false,"rental_uris":{"android":"levelo://app?vid=58c76d7e-ede0-49b4-adb5-3e66ee6972dd","ios":"levelo://app?vid=58c76d7e-ede0-49b4-adb5-3e66ee6972dd"},"vehicle_type_id":"4","last_reported":1730204262,"current_range_meters":29600,"station_id":"ce4bhm92rcd13ifvqglg","pricing_plan_id":"cebpf4jnsgd1na2vs0mg"},{"bike_id":"194228cc-72ed-4fc7-b446-df1e0f6d1b40","system_id":"levelo_inurba_marseille","lat":43.2418,"lon":5.39712,"is_reserved":false,"is_disabled":false,"rental_uris":{"android":"levelo://app?vid=194228cc-72ed-4fc7-b446-df1e0f6d1b40","ios":"levelo://app?vid=194228cc-72ed-4fc7-b446-df1e0f6d1b40"},"vehicle_type_id":"4","last_reported":1730204262,"current_range_meters":26800,"station_id":"ce4bhn12rcd13ifvqgpg","pricing_plan_id":"cebpf4jnsgd1na2vs0mg"},{"bike_id":"8eadca90-649a-4d68-8aa3-d4f830594c15","system_id":"levelo_inurba_marseille","lat":43.31702,"lon":5.3776,"is_reserved":false,"is_disabled":false,"rental_uris":{"android":"levelo://app?vid=8eadca90-649a-4d68-8aa3-d4f830594c15","ios":"levelo://app?vid=8eadca90-649a-4d68-8aa3-d4f830594c15"},"vehicle_type_id":"4","last_reported":1730204262,"current_range_meters":35200,"station_id":"ce4bgth2rcd13ifvqch0","pricing_plan_id":"cebpf4jnsgd1na2vs0mg"},{"bike_id":"8b23b470-7740-40b5-a268-9621e9a22558","system_id":"levelo_inurba_marseille","lat":43.23155,"lon":5.43704,"is_reserved":false,"is_disabled":false,"rental_uris":{"android":"levelo://app?vid=8b23b470-7740-40b5-a268-9621e9a22558","ios":"levelo://app?vid=8b23b470-7740-40b5-a268-9621e9a22558"},"vehicle_type_id":"4","last_reported":1730204262,"current_range_meters":24800,"station_id":"ce4bhmp2rcd13ifvqgog","pricing_plan_id":"cebpf4jnsgd1na2vs0mg"},{"bike_id":"4610bff7-5313-41f8-8fdc-7e503ab891b4","system_id":"levelo_inurba_marseille","lat":43.27203,"lon":5.39178,"is_reserved":false,"is_disabled":false,"rental_uris":{"android":"levelo://app?vid=4610bff7-5313-41f8-8fdc-7e503ab891b4","ios":"levelo://app?vid=4610bff7-5313-41f8-8fdc-7e503ab891b4"},"vehicle_type_id":"4","last_reported":1730204262,"current_range_meters":14800,"station_id":"ce4bhhp2rcd13ifvqfm0","pricing_plan_id":"cebpf4jnsgd1na2vs0mg"},{"bike_id":"65fe9e28-0526-4b4d-8cb6-579b041ed280","system_id":"levelo_inurba_marseille","lat":43.29846,"lon":5.36264,"is_reserved":false,"is_disabled":false,"rental_uris":{"android":"levelo://app?vid=65fe9e28-0526-4b4d-8cb6-579b041ed280","ios":"levelo://app?vid=65fe9e28-0526-4b4d-8cb6-579b041ed280"},"vehicle_type_id":"4","last_reported":1730204262,"current_range_meters":38800,"station_id":"ce4bgpp2rcd13ifvqc3g","pricing_plan_id":"cebpf4jnsgd1na2vs0mg"},{"bike_id":"80302869-51c1-4bd4-bd89-7a5621b65d68","system_id":"levelo_inurba_marseille","lat":43.308838,"lon":5.372035,"is_reserved":false,"is_disabled":false,"rental_uris":{"android":"levelo://app?vid=80302869-51c1-4bd4-bd89-7a5621b65d68","ios":"levelo://app?vid=80302869-51c1-4bd4-bd89-7a5621b65d68"},"vehicle_type_id":"4","last_reported":1730204262,"current_range_meters":33200,"station_id":"ce4bh092rcd13ifvqd30","pricing_plan_id":"cebpf4jnsgd1na2vs0mg"},{"bike_id":"b9349388-5492-4add-941d-476e2baf643a","system_id":"levelo_inurba_marseille","lat":43.25106,"lon":5.40316,"is_reserved":false,"is_disabled":false,"rental_uris":{"android":"levelo://app?vid=b9349388-5492-4add-941d-476e2baf643a","ios":"levelo://app?vid=b9349388-5492-4add-941d-476e2baf643a"},"vehicle_type_id":"4","last_reported":1730204262,"current_range_meters":6000,"station_id":"ce4bhlh2rcd13ifvqgig","pricing_plan_id":"cebpf4jnsgd1na2vs0mg"},{"bike_id":"49ab98ea-93c7-4fd0-82f0-c1399cb5a359","system_id":"levelo_inurba_marseille","lat":43.31266,"lon":5.40158,"is_reserved":false,"is_disabled":false,"rental_uris":{"android":"levelo://app?vid=49ab98ea-93c7-4fd0-82f0-c1399cb5a359","ios":"levelo://app?vid=49ab98ea-93c7-4fd0-82f0-c1399cb5a359"},"vehicle_type_id":"4","last_reported":1730204262,"current_range_meters":26000,"station_id":"ce4bh092rcd13ifvqd30","pricing_plan_id":"cebpf4jnsgd1na2vs0mg"},{"bike_id":"cc9626e2-84e7-40c3-92e0-f9be40709757","system_id":"levelo_inurba_marseille","lat":43.248,"lon":5.37452,"is_reserved":false,"is_disabled":false,"rental_uris":{"android":"levelo://app?vid=cc9626e2-84e7-40c3-92e0-f9be40709757","ios":"levelo://app?vid=cc9626e2-84e7-40c3-92e0-f9be40709757"},"vehicle_type_id":"4","last_reported":1730204262,"current_range_meters":11600,"station_id":"ce4bhgh2rcd13ifvqfb0","pricing_plan_id":"cebpf4jnsgd1na2vs0mg"},{"bike_id":"2b1444bf-7d5e-40da-bcdf-679bab3c33f6","system_id":"levelo_inurba_marseille","lat":43.26194,"lon":5.37443,"is_reserved":false,"is_disabled":false,"rental_uris":{"android":"levelo://app?vid=2b1444bf-7d5e-40da-bcdf-679bab3c33f6","ios":"levelo://app?vid=2b1444bf-7d5e-40da-bcdf-679bab3c33f6"},"vehicle_type_id":"4","last_reported":1730204262,"current_range_meters":32000,"station_id":"ce4bhgp2rcd13ifvqfc0","pricing_plan_id":"cebpf4jnsgd1na2vs0mg"},{"bike_id":"6292f4b6-1885-4a92-a640-069ffe1c3295","system_id":"levelo_inurba_marseille","lat":43.30182,"lon":5.36613,"is_reserved":false,"is_disabled":false,"rental_uris":{"android":"levelo://app?vid=6292f4b6-1885-4a92-a640-069ffe1c3295","ios":"levelo://app?vid=6292f4b6-1885-4a92-a640-069ffe1c3295"},"vehicle_type_id":"4","last_reported":1730204262,"current_range_meters":36800,"station_id":"ce4bgrh2rcd13ifvqc8g","pricing_plan_id":"cebpf4jnsgd1na2vs0mg"},{"bike_id":"5697302b-b6cf-436b-b80f-2dbf4370116e","system_id":"levelo_inurba_marseille","lat":43.262,"lon":5.3793,"is_reserved":false,"is_disabled":false,"rental_uris":{"android":"levelo://app?vid=5697302b-b6cf-436b-b80f-2dbf4370116e","ios":"levelo://app?vid=5697302b-b6cf-436b-b80f-2dbf4370116e"},"vehicle_type_id":"4","last_reported":1730204262,"current_range_meters":24000,"station_id":"ce4bhjp2rcd13ifvqg90","pricing_plan_id":"cebpf4jnsgd1na2vs0mg"},{"bike_id":"e89f9628-16a6-47cd-807d-f0965232ba2c","system_id":"levelo_inurba_marseille","lat":43.26199,"lon":5.37917,"is_reserved":false,"is_disabled":false,"rental_uris":{"android":"levelo://app?vid=e89f9628-16a6-47cd-807d-f0965232ba2c","ios":"levelo://app?vid=e89f9628-16a6-47cd-807d-f0965232ba2c"},"vehicle_type_id":"4","last_reported":1730204262,"current_range_meters":37600,"station_id":"ce4bhjp2rcd13ifvqg90","pricing_plan_id":"cebpf4jnsgd1na2vs0mg"},{"bike_id":"d3e057b4-c7c0-455e-918e-6a5b577f9496","system_id":"levelo_inurba_marseille","lat":43.24388,"lon":5.3706,"is_reserved":false,"is_disabled":false,"rental_uris":{"android":"levelo://app?vid=d3e057b4-c7c0-455e-918e-6a5b577f9496","ios":"levelo://app?vid=d3e057b4-c7c0-455e-918e-6a5b577f9496"},"vehicle_type_id":"4","last_reported":1730204262,"current_range_meters":18800,"station_id":"ce4bhhh2rcd13ifvqfk0","pricing_plan_id":"cebpf4jnsgd1na2vs0mg"},{"bike_id":"938d729d-bd0d-4192-a6fa-55da9f36ebc0","system_id":"levelo_inurba_marseille","lat":43.29901,"lon":5.38139,"is_reserved":false,"is_disabled":false,"rental_uris":{"android":"levelo://app?vid=938d729d-bd0d-4192-a6fa-55da9f36ebc0","ios":"levelo://app?vid=938d729d-bd0d-4192-a6fa-55da9f36ebc0"},"vehicle_type_id":"4","last_reported":1730204262,"current_range_meters":26800,"station_id":"ce4bgj12rcd13ifvqbc0","pricing_plan_id":"cebpf4jnsgd1na2vs0mg"},{"bike_id":"94d915c4-abff-46dd-88eb-b5d3ec1f325f","system_id":"levelo_inurba_marseille","lat":43.28917,"lon":5.38389,"is_reserved":false,"is_disabled":false,"rental_uris":{"android":"levelo://app?vid=94d915c4-abff-46dd-88eb-b5d3ec1f325f","ios":"levelo://app?vid=94d915c4-abff-46dd-88eb-b5d3ec1f325f"},"vehicle_type_id":"4","last_reported":1730204262,"current_range_meters":39200,"station_id":"ce4bh612rcd13ifvqe6g","pricing_plan_id":"cebpf4jnsgd1na2vs0mg"},{"bike_id":"3a23b39f-7822-4db7-a163-d44b99f45303","system_id":"levelo_inurba_marseille","lat":43.30605,"lon":5.37223,"is_reserved":false,"is_disabled":false,"rental_uris":{"android":"levelo://app?vid=3a23b39f-7822-4db7-a163-d44b99f45303","ios":"levelo://app?vid=3a23b39f-7822-4db7-a163-d44b99f45303"},"vehicle_type_id":"4","last_reported":1730204262,"current_range_meters":25200,"station_id":"ce4bgqh2rcd13ifvqc4g","pricing_plan_id":"cebpf4jnsgd1na2vs0mg"},{"bike_id":"867b409c-962e-4c75-aba2-14cc0f1bfda6","system_id":"levelo_inurba_marseille","lat":43.2418,"lon":5.39721,"is_reserved":false,"is_disabled":false,"rental_uris":{"android":"levelo://app?vid=867b409c-962e-4c75-aba2-14cc0f1bfda6","ios":"levelo://app?vid=867b409c-962e-4c75-aba2-14cc0f1bfda6"},"vehicle_type_id":"4","last_reported":1730204262,"current_range_meters":30400,"station_id":"ce4bhn12rcd13ifvqgpg","pricing_plan_id":"cebpf4jnsgd1na2vs0mg"},{"bike_id":"74a89115-a436-4e30-94ad-8ab3f66f7314","system_id":"levelo_inurba_marseille","lat":43.2962,"lon":5.37152,"is_reserved":false,"is_disabled":false,"rental_uris":{"android":"levelo://app?vid=74a89115-a436-4e30-94ad-8ab3f66f7314","ios":"levelo://app?vid=74a89115-a436-4e30-94ad-8ab3f66f7314"},"vehicle_type_id":"4","last_reported":1730204262,"current_range_meters":33600,"station_id":"ce4bgnh2rcd13ifvqc0g","pricing_plan_id":"cebpf4jnsgd1na2vs0mg"},{"bike_id":"54890e41-4cc2-4bd8-99dc-430b7a9a9f21","system_id":"levelo_inurba_marseille","lat":43.27349,"lon":5.39066,"is_reserved":false,"is_disabled":false,"rental_uris":{"android":"levelo://app?vid=54890e41-4cc2-4bd8-99dc-430b7a9a9f21","ios":"levelo://app?vid=54890e41-4cc2-4bd8-99dc-430b7a9a9f21"},"vehicle_type_id":"4","last_reported":1730204262,"current_range_meters":28000,"station_id":"ce4bhgp2rcd13ifvqfe0","pricing_plan_id":"cebpf4jnsgd1na2vs0mg"},{"bike_id":"bb7948dd-148d-4f09-a5ad-24e803bb29b7","system_id":"levelo_inurba_marseille","lat":43.24803,"lon":5.37449,"is_reserved":false,"is_disabled":false,"rental_uris":{"android":"levelo://app?vid=bb7948dd-148d-4f09-a5ad-24e803bb29b7","ios":"levelo://app?vid=bb7948dd-148d-4f09-a5ad-24e803bb29b7"},"vehicle_type_id":"4","last_reported":1730204262,"current_range_meters":9200,"station_id":"ce4bhgh2rcd13ifvqfb0","pricing_plan_id":"cebpf4jnsgd1na2vs0mg"},{"bike_id":"858a5c30-f1e7-444f-90de-b4312a05101f","system_id":"levelo_inurba_marseille","lat":43.29841,"lon":5.36254,"is_reserved":false,"is_disabled":false,"rental_uris":{"android":"levelo://app?vid=858a5c30-f1e7-444f-90de-b4312a05101f","ios":"levelo://app?vid=858a5c30-f1e7-444f-90de-b4312a05101f"},"vehicle_type_id":"4","last_reported":1730204262,"current_range_meters":18800,"station_id":"ce4bgpp2rcd13ifvqc3g","pricing_plan_id":"cebpf4jnsgd1na2vs0mg"},{"bike_id":"81f0a4ec-ac5c-448f-8c18-578bd1547055","system_id":"levelo_inurba_marseille","lat":43.29416,"lon":5.38619,"is_reserved":false,"is_disabled":false,"rental_uris":{"android":"levelo://app?vid=81f0a4ec-ac5c-448f-8c18-578bd1547055","ios":"levelo://app?vid=81f0a4ec-ac5c-448f-8c18-578bd1547055"},"vehicle_type_id":"4","last_reported":1730204262,"current_range_meters":38400,"station_id":"ce4bh2h2rcd13ifvqdh0","pricing_plan_id":"cebpf4jnsgd1na2vs0mg"},{"bike_id":"69b6ebfe-9c5d-4a95-a615-ec757932bd4d","system_id":"levelo_inurba_marseille","lat":43.297852,"lon":5.381084,"is_reserved":false,"is_disabled":false,"rental_uris":{"android":"levelo://app?vid=69b6ebfe-9c5d-4a95-a615-ec757932bd4d","ios":"levelo://app?vid=69b6ebfe-9c5d-4a95-a615-ec757932bd4d"},"vehicle_type_id":"4","last_reported":1730204262,"current_range_meters":26000,"station_id":"ce4bgip2rcd13ifvqbb0","pricing_plan_id":"cebpf4jnsgd1na2vs0mg"},{"bike_id":"cd4d27a6-85e6-4f7f-b8c9-cb25f6a8f34b","system_id":"levelo_inurba_marseille","lat":43.29795,"lon":5.38105,"is_reserved":false,"is_disabled":false,"rental_uris":{"android":"levelo://app?vid=cd4d27a6-85e6-4f7f-b8c9-cb25f6a8f34b","ios":"levelo://app?vid=cd4d27a6-85e6-4f7f-b8c9-cb25f6a8f34b"},"vehicle_type_id":"4","last_reported":1730204262,"current_range_meters":39200,"station_id":"ce4bgip2rcd13ifvqbb0","pricing_plan_id":"cebpf4jnsgd1na2vs0mg"},{"bike_id":"129b0a21-da85-491b-82b3-52bef4f0aec5","system_id":"levelo_inurba_marseille","lat":43.254944,"lon":5.37646,"is_reserved":false,"is_disabled":false,"rental_uris":{"android":"levelo://app?vid=129b0a21-da85-491b-82b3-52bef4f0aec5","ios":"levelo://app?vid=129b0a21-da85-491b-82b3-52bef4f0aec5"},"vehicle_type_id":"4","last_reported":1730204262,"current_range_meters":16000,"station_id":"ce4bhh12rcd13ifvqff0","pricing_plan_id":"cebpf4jnsgd1na2vs0mg"},{"bike_id":"2fda6181-03f5-40ed-b158-4bcd6908625f","system_id":"levelo_inurba_marseille","lat":43.31681,"lon":5.4355,"is_reserved":false,"is_disabled":false,"rental_uris":{"android":"levelo://app?vid=2fda6181-03f5-40ed-b158-4bcd6908625f","ios":"levelo://app?vid=2fda6181-03f5-40ed-b158-4bcd6908625f"},"vehicle_type_id":"4","last_reported":1730204262,"current_range_meters":24400,"station_id":"","pricing_plan_id":"cebpf4jnsgd1na2vs0mg"},{"bike_id":"3147bfbd-3065-4ae9-a4cc-ec3dcd788d86","system_id":"levelo_inurba_marseille","lat":43.30606,"lon":5.37222,"is_reserved":false,"is_disabled":false,"rental_uris":{"android":"levelo://app?vid=3147bfbd-3065-4ae9-a4cc-ec3dcd788d86","ios":"levelo://app?vid=3147bfbd-3065-4ae9-a4cc-ec3dcd788d86"},"vehicle_type_id":"4","last_reported":1730204262,"current_range_meters":34000,"station_id":"ce4bgqh2rcd13ifvqc4g","pricing_plan_id":"cebpf4jnsgd1na2vs0mg"},{"bike_id":"42f33d93-d869-423b-8263-d4fe286325ee","system_id":"levelo_inurba_marseille","lat":43.24078,"lon":5.37751,"is_reserved":false,"is_disabled":false,"rental_uris":{"android":"levelo://app?vid=42f33d93-d869-423b-8263-d4fe286325ee","ios":"levelo://app?vid=42f33d93-d869-423b-8263-d4fe286325ee"},"vehicle_type_id":"4","last_reported":1730204262,"current_range_meters":13600,"station_id":"ce4bhnp2rcd13ifvqgvg","pricing_plan_id":"cebpf4jnsgd1na2vs0mg"},{"bike_id":"53f70b62-cacd-404a-985f-f7ea91aa90ba","system_id":"levelo_inurba_marseille","lat":43.28075,"lon":5.39643,"is_reserved":false,"is_disabled":false,"rental_uris":{"android":"levelo://app?vid=53f70b62-cacd-404a-985f-f7ea91aa90ba","ios":"levelo://app?vid=53f70b62-cacd-404a-985f-f7ea91aa90ba"},"vehicle_type_id":"4","last_reported":1730204262,"current_range_meters":38000,"station_id":"ce4bho12rcd13ifvqh2g","pricing_plan_id":"cebpf4jnsgd1na2vs0mg"},{"bike_id":"6d126f3e-2af9-470f-8e5c-b695ef9f023e","system_id":"levelo_inurba_marseille","lat":43.27422,"lon":5.39403,"is_reserved":false,"is_disabled":false,"rental_uris":{"android":"levelo://app?vid=6d126f3e-2af9-470f-8e5c-b695ef9f023e","ios":"levelo://app?vid=6d126f3e-2af9-470f-8e5c-b695ef9f023e"},"vehicle_type_id":"4","last_reported":1730204262,"current_range_meters":24400,"station_id":"ce4bhdp2rcd13ifvqf20","pricing_plan_id":"cebpf4jnsgd1na2vs0mg"},{"bike_id":"06998347-67e4-445a-951f-ce1a8b41fb06","system_id":"levelo_inurba_marseille","lat":43.29784,"lon":5.37101,"is_reserved":false,"is_disabled":false,"rental_uris":{"android":"levelo://app?vid=06998347-67e4-445a-951f-ce1a8b41fb06","ios":"levelo://app?vid=06998347-67e4-445a-951f-ce1a8b41fb06"},"vehicle_type_id":"4","last_reported":1730204262,"current_range_meters":37600,"station_id":"ce4bgop2rcd13ifvqc1g","pricing_plan_id":"cebpf4jnsgd1na2vs0mg"},{"bike_id":"d58562d7-57f6-49b2-a569-c4a9a54f9613","system_id":"levelo_inurba_marseille","lat":43.30593,"lon":5.39354,"is_reserved":false,"is_disabled":false,"rental_uris":{"android":"levelo://app?vid=d58562d7-57f6-49b2-a569-c4a9a54f9613","ios":"levelo://app?vid=d58562d7-57f6-49b2-a569-c4a9a54f9613"},"vehicle_type_id":"4","last_reported":1730204262,"current_range_meters":38800,"station_id":"ce4bh0p2rcd13ifvqd80","pricing_plan_id":"cebpf4jnsgd1na2vs0mg"},{"bike_id":"34b489c9-d4bd-48eb-bfd5-eb842b1e849b","system_id":"levelo_inurba_marseille","lat":43.29618,"lon":5.37155,"is_reserved":false,"is_disabled":false,"rental_uris":{"android":"levelo://app?vid=34b489c9-d4bd-48eb-bfd5-eb842b1e849b","ios":"levelo://app?vid=34b489c9-d4bd-48eb-bfd5-eb842b1e849b"},"vehicle_type_id":"4","last_reported":1730204262,"current_range_meters":38000,"station_id":"ce4bgnh2rcd13ifvqc0g","pricing_plan_id":"cebpf4jnsgd1na2vs0mg"},{"bike_id":"4168fef6-d644-4952-98f5-ad848f050b1f","system_id":"levelo_inurba_marseille","lat":43.30458,"lon":5.37901,"is_reserved":false,"is_disabled":false,"rental_uris":{"android":"levelo://app?vid=4168fef6-d644-4952-98f5-ad848f050b1f","ios":"levelo://app?vid=4168fef6-d644-4952-98f5-ad848f050b1f"},"vehicle_type_id":"4","last_reported":1730204262,"current_range_meters":21600,"station_id":"ce4bgup2rcd13ifvqcn0","pricing_plan_id":"cebpf4jnsgd1na2vs0mg"},{"bike_id":"a2c88a69-381f-47e9-9a04-33848e22832a","system_id":"levelo_inurba_marseille","lat":43.23181,"lon":5.39999,"is_reserved":false,"is_disabled":false,"rental_uris":{"android":"levelo://app?vid=a2c88a69-381f-47e9-9a04-33848e22832a","ios":"levelo://app?vid=a2c88a69-381f-47e9-9a04-33848e22832a"},"vehicle_type_id":"4","last_reported":1730204262,"current_range_meters":29600,"station_id":"ce4bhn12rcd13ifvqgqg","pricing_plan_id":"cebpf4jnsgd1na2vs0mg"},{"bike_id":"42c5b94d-a6e1-4c0e-b3fa-74ef5f2ef0d2","system_id":"levelo_inurba_marseille","lat":43.2397,"lon":5.36621,"is_reserved":false,"is_disabled":false,"rental_uris":{"android":"levelo://app?vid=42c5b94d-a6e1-4c0e-b3fa-74ef5f2ef0d2","ios":"levelo://app?vid=42c5b94d-a6e1-4c0e-b3fa-74ef5f2ef0d2"},"vehicle_type_id":"4","last_reported":1730204262,"current_range_meters":22400,"station_id":"ce4bhi12rcd13ifvqfp0","pricing_plan_id":"cebpf4jnsgd1na2vs0mg"},{"bike_id":"539749be-63c3-4e7d-8e6f-07c48e2fac10","system_id":"levelo_inurba_marseille","lat":43.33768,"lon":5.37436,"is_reserved":false,"is_disabled":false,"rental_uris":{"android":"levelo://app?vid=539749be-63c3-4e7d-8e6f-07c48e2fac10","ios":"levelo://app?vid=539749be-63c3-4e7d-8e6f-07c48e2fac10"},"vehicle_type_id":"4","last_reported":1730204262,"current_range_meters":37600,"station_id":"","pricing_plan_id":"cebpf4jnsgd1na2vs0mg"},