{"last_updated":1757873502,"ttl":60,"version":"2.2","data":{"bikes":[{"bike_id":"c63d7249-195f-484a-9fcb-2c620a7e4d30","system_id":"levelo_inurba_marseille","lat":43.310632,"lon":5.38366,"is_reserved":false,"is_disabled":false,"rental_uris":{"android":"levelo://app?vid=c63d7249-195f-484a-9fcb-2c620a7e4d30","ios":"levelo://app?vid=c63d7249-195f-484a-9fcb-2c620a7e4d30"},"vehicle_type_id":"4","last_reported":1757873503,"current_range_meters":2800,"station_id":"ce4bgv92rcd13ifvqcr0","pricing_plan_id":"cebpf4jnsgd1na2vs0mg"},{"bike_id":"dd1d75c3-4c23-43e1-a5a0-6ccb8c20262a","system_id":"levelo_inurba_marseille","lat":43.29447,"lon":5.3974,"is_reserved":false,"is_disabled":false,"rental_uris":{"android":"levelo://app?vid=dd1d75c3-4c23-43e1-a5a0-6ccb8c20262a","ios":"levelo://app?vid=dd1d75c3-4c23-43e1-a5a0-6ccb8c20262a"},"vehicle_type_id":"4","last_reported":1757873503,"current_range_meters":2800,"station_id":"ce4bh3h2rcd13ifvqdo0","pricing_plan_id":"cebpf4jnsgd1na2vs0mg"},{"bike_id":"9532f927-ccf9-4886-b0c7-771c1136870e","system_id":"levelo_inurba_marseille","lat":43.28482,"lon":5.38539,"is_reserved":false,"is_disabled":false,"rental_uris":{"android":"levelo://app?vid=9532f927-ccf9-4886-b0c7-771c1136870e","ios":"levelo://app?vid=9532f927-ccf9-4886-b0c7-771c1136870e"},"vehicle_type_id":"4","last_reported":1757873503,"current_range_meters":2800,"station_id":"ce4bh8p2rcd13ifvqeb0","pricing_plan_id":"cebpf4jnsgd1na2vs0mg"},{"bike_id":"1f144c6e-1bfc-459d-afa6-9749e5df12de","system_id":"levelo_inurba_marseille","lat":43.2895,"lon":5.36384,"is_reserved":false,"is_disabled":false,"rental_uris":{"android":"levelo://app?vid=1f144c6e-1bfc-459d-afa6-9749e5df12de","ios":"levelo://app?vid=1f144c6e-1bfc-459d-afa6-9749e5df12de"},"vehicle_type_id":"4","last_reported":1757873503,"current_range_meters":2800,"station_id":"ce4bhc92rcd13ifvqetg","pricing_plan_id":"cebpf4jnsgd1na2vs0mg"},{"bike_id":"f6819f0a-4c1e-4029-af20-6942dd119639","system_id":"levelo_inurba_marseille","lat":43.2996,"lon":5.38526,"is_reserved":false,"is_disabled":true,"rental_uris":{"android":"levelo://app?vid=f6819f0a-4c1e-4029-af20-6942dd119639","ios":"levelo://app?vid=f6819f0a-4c1e-4029-af20-6942dd119639"},"vehicle_type_id":"4","last_reported":1757873503,"current_range_meters":3200,"station_id":"ce4bgj92rcd13ifvqbd0","pricing_plan_id":"cebpf4jnsgd1na2vs0mg"},{"bike_id":"ac256fea-28f5-4e9a-a630-4c82711abcbf","system_id":"levelo_inurba_marseille","lat":43.29581,"lon":5.37503,"is_reserved":false,"is_disabled":false,"rental_uris":{"android":"levelo://app?vid=ac256fea-28f5-4e9a-a630-4c82711abcbf","ios":"levelo://app?vid=ac256fea-28f5-4e9a-a630-4c82711abcbf"},"vehicle_type_id":"4","last_reported":1757873503,"current_range_meters":3200,"station_id":"ce4bgh92rcd13ifvqb50","pricing_plan_id":"cebpf4jnsgd1na2vs0mg"},{"bike_id":"2bf11e33-2606-41c5-8d5c-50f8a9edcda5","system_id":"levelo_inurba_marseille","lat":43.29601,"lon":5.38109,"is_reserved":false,"is_disabled":false,"rental_uris":{"android":"levelo://app?vid=2bf11e33-2606-41c5-8d5c-50f8a9edcda5","ios":"levelo://app?vid=2bf11e33-2606-41c5-8d5c-50f8a9edcda5"},"vehicle_type_id":"4","last_reported":1757873503,"current_range_meters":2800,"station_id":"ce4bgl12rcd13ifvqbo0","pricing_plan_id":"cebpf4jnsgd1na2vs0mg"},{"bike_id":"94410f22-b3f0-4763-82ee-b5ccb37833c5","system_id":"levelo_inurba_marseille","lat":43.28457,"lon":5.35873,"is_reserved":false,"is_disabled":false,"rental_uris":{"android":"levelo://app?vid=94410f22-b3f0-4763-82ee-b5ccb37833c5","ios":"levelo://app?vid=94410f22-b3f0-4763-82ee-b5ccb37833c5"},"vehicle_type_id":"4","last_reported":1757873503,"current_range_meters":3200,"station_id":"ce4bhah2rcd13ifvqei0","pricing_plan_id":"cebpf4jnsgd1na2vs0mg"},{"bike_id":"feda5e19-2027-450d-aa03-3e0c987650f5","system_id":"levelo_inurba_marseille","lat":43.27517,"lon":5.39866,"is_reserved":false,"is_disabled":false,"rental_uris":{"android":"levelo://app?vid=feda5e19-2027-450d-aa03-3e0c987650f5","ios":"levelo://app?vid=feda5e19-2027-450d-aa03-3e0c987650f5"},"vehicle_type_id":"4","last_reported":1757873503,"current_range_meters":3200,"station_id":"","pricing_plan_id":"cebpf4jnsgd1na2vs0mg"},{"bike_id":"29939e1d-7683-455b-aa01-8621cf17f4fa","system_id":"levelo_inurba_marseille","lat":43.24938,"lon":5.40521,"is_reserved":false,"is_disabled":true,"rental_uris":{"android":"levelo://app?vid=29939e1d-7683-455b-aa01-8621cf17f4fa","ios":"levelo://app?vid=29939e1d-7683-455b-aa01-8621cf17f4fa"},"vehicle_type_id":"4","last_reported":1757873503,"current_range_meters":3200,"station_id":"st_d2ngiaodas8pm72gd1h0","pricing_plan_id":"cebpf4jnsgd1na2vs0mg"},{"bike_id":"8c1a00de-420a-4510-b259-11d78b0442bc","system_id":"levelo_inurba_marseille","lat":43.31878,"lon":5.37466,"is_reserved":false,"is_disabled":false,"rental_uris":{"android":"levelo://app?vid=8c1a00de-420a-4510-b259-11d78b0442bc","ios":"levelo://app?vid=8c1a00de-420a-4510-b259-11d78b0442bc"},"vehicle_type_id":"4","last_reported":1757873503,"current_range_meters":3200,"station_id":"","pricing_plan_id":"cebpf4jnsgd1na2vs0mg"},{"bike_id":"a3977072-5f91-4a68-b0d6-dc3cb909a337","system_id":"levelo_inurba_marseille","lat":43.33767,"lon":5.37487,"is_reserved":false,"is_disabled":false,"rental_uris":{"android":"levelo://app?vid=a3977072-5f91-4a68-b0d6-dc3cb909a337","ios":"levelo://app?vid=a3977072-5f91-4a68-b0d6-dc3cb909a337"},"vehicle_type_id":"4","last_reported":1757873503,"current_range_meters":3600,"station_id":"","pricing_plan_id":"cebpf4jnsgd1na2vs0mg"},{"bike_id":"11ab53e1-9057-4618-bc26-1a3223ae26a3","system_id":"levelo_inurba_marseille","lat":43.30315,"lon":5.36892,"is_reserved":false,"is_disabled":false,"rental_uris":{"android":"levelo://app?vid=11ab53e1-9057-4618-bc26-1a3223ae26a3","ios":"levelo://app?vid=11ab53e1-9057-4618-bc26-1a3223ae26a3"},"vehicle_type_id":"4","last_reported":1757873503,"current_range_meters":3200,"station_id":"ce4bgqh2rcd13ifvqc5g","pricing_plan_id":"cebpf4jnsgd1na2vs0mg"},{"bike_id":"3bd595b7-af3b-43b1-8697-1bcb2a61af6f","system_id":"levelo_inurba_marseille","lat":43.2801,"lon":5.39992,"is_reserved":false,"is_disabled":true,"rental_uris":{"android":"levelo://app?vid=3bd595b7-af3b-43b1-8697-1bcb2a61af6f","ios":"levelo://app?vid=3bd595b7-af3b-43b1-8697-1bcb2a61af6f"},"vehicle_type_id":"4","last_reported":1757873503,"current_range_meters":3600,"station_id":"ce4bho92rcd13ifvqh4g","pricing_plan_id":"cebpf4jnsgd1na2vs0mg"},{"bike_id":"ded65af7-dc47-4ec3-848f-32cdedab004d","system_id":"levelo_inurba_marseille","lat":43.32238,"lon":5.41312,"is_reserved":false,"is_disabled":false,"rental_uris":{"android":"levelo://app?vid=ded65af7-dc47-4ec3-848f-32cdedab004d","ios":"levelo://app?vid=ded65af7-dc47-4ec3-848f-32cdedab004d"},"vehicle_type_id":"4","last_reported":1757873503,"current_range_meters":3600,"station_id":"","pricing_plan_id":"cebpf4jnsgd1na2vs0mg"},{"bike_id":"972b4c5f-3a00-4bb2-9116-b81f2cecc9f2","system_id":"levelo_inurba_marseille","lat":43.33764,"lon":5.37483,"is_reserved":false,"is_disabled":false,"rental_uris":{"android":"levelo://app?vid=972b4c5f-3a00-4bb2-9116-b81f2cecc9f2","ios":"levelo://app?vid=972b4c5f-3a00-4bb2-9116-b81f2cecc9f2"},"vehicle_type_id":"4","last_reported":1757873503,"current_range_meters":3600,"station_id":"","pricing_plan_id":"cebpf4jnsgd1na2vs0mg"},{"bike_id":"6adf3697-2a6e-4351-98ca-8003a94968d3","system_id":"levelo_inurba_marseille","lat":43.287148,"lon":5.379328,"is_reserved":false,"is_disabled":false,"rental_uris":{"android":"levelo://app?vid=6adf3697-2a6e-4351-98ca-8003a94968d3","ios":"levelo://app?vid=6adf3697-2a6e-4351-98ca-8003a94968d3"},"vehicle_type_id":"4","last_reported":1757873503,"current_range_meters":3200,"station_id":"ce4bh9p2rcd13ifvqec0","pricing_plan_id":"cebpf4jnsgd1na2vs0mg"},{"bike_id":"b8b25177-6887-4780-b02f-6a921fbcb5b9","system_id":"levelo_inurba_marseille","lat":43.29031,"lon":5.38654,"is_reserved":false,"is_disabled":false,"rental_uris":{"android":"levelo://app?vid=b8b25177-6887-4780-b02f-6a921fbcb5b9","ios":"levelo://app?vid=b8b25177-6887-4780-b02f-6a921fbcb5b9"},"vehicle_type_id":"4","last_reported":1757873503,"current_range_meters":3600,"station_id":"ce4bh4p2rcd13ifvqe0g","pricing_plan_id":"cebpf4jnsgd1na2vs0mg"},{"bike_id":"e11cc831-5136-4436-b554-34adf9bd3b19","system_id":"levelo_inurba_marseille","lat":43.28728,"lon":5.36077,"is_reserved":false,"is_disabled":false,"rental_uris":{"android":"levelo://app?vid=e11cc831-5136-4436-b554-34adf9bd3b19","ios":"levelo://app?vid=e11cc831-5136-4436-b554-34adf9bd3b19"},"vehicle_type_id":"4","last_reported":1757873503,"current_range_meters":3600,"station_id":"cki0cbj6b192h4jlfktg","pricing_plan_id":"cebpf4jnsgd1na2vs0mg"},{"bike_id":"4d57139d-f377-4436-bfc6-85a88eeb7c91","system_id":"levelo_inurba_marseille","lat":43.30885,"lon":5.39659,"is_reserved":false,"is_disabled":false,"rental_uris":{"android":"levelo://app?vid=4d57139d-f377-4436-bfc6-85a88eeb7c91","ios":"levelo://app?vid=4d57139d-f377-4436-bfc6-85a88eeb7c91"},"vehicle_type_id":"4","last_reported":1757873503,"current_range_meters":800,"station_id":"ce4bh012rcd13ifvqcv0","pricing_plan_id":"cebpf4jnsgd1na2vs0mg"},{"bike_id":"8337cea4-f5e4-4695-9f53-fd47b9a8f3dd","system_id":"levelo_inurba_marseille","lat":43.29435,"lon":5.39759,"is_reserved":false,"is_disabled":false,"rental_uris":{"android":"levelo://app?vid=8337cea4-f5e4-4695-9f53-fd47b9a8f3dd","ios":"levelo://app?vid=8337cea4-f5e4-4695-9f53-fd47b9a8f3dd"},"vehicle_type_id":"4","last_reported":1757873503,"current_range_meters":4000,"station_id":"ce4bh3h2rcd13ifvqdo0","pricing_plan_id":"cebpf4jnsgd1na2vs0mg"},{"bike_id":"14ca7080-2b36-423b-9465-36f7104cde8f","system_id":"levelo_inurba_marseille","lat":43.29567,"lon":5.39986,"is_reserved":false,"is_disabled":false,"rental_uris":{"android":"levelo://app?vid=14ca7080-2b36-423b-9465-36f7104cde8f","ios":"levelo://app?vid=14ca7080-2b36-423b-9465-36f7104cde8f"},"vehicle_type_id":"4","last_reported":1757873503,"current_range_meters":4000,"station_id":"ce4bh312rcd13ifvqdj0","pricing_plan_id":"cebpf4jnsgd1na2vs0mg"},{"bike_id":"065f1c95-b6fa-43d1-8496-9a41c3cf7cd0","system_id":"levelo_inurba_marseille","lat":43.28391,"lon":5.3755,"is_reserved":false,"is_disabled":false,"rental_uris":{"android":"levelo://app?vid=065f1c95-b6fa-43d1-8496-9a41c3cf7cd0","ios":"levelo://app?vid=065f1c95-b6fa-43d1-8496-9a41c3cf7cd0"},"vehicle_type_id":"4","last_reported":1757873503,"current_range_meters":4400,"station_id":"ce4bh412rcd13ifvqds0","pricing_plan_id":"cebpf4jnsgd1na2vs0mg"},{"bike_id":"f7d8183b-7d80-4429-af65-dbe54c5139c9","system_id":"levelo_inurba_marseille","lat":43.29251,"lon":5.38435,"is_reserved":false,"is_disabled":false,"rental_uris":{"android":"levelo://app?vid=f7d8183b-7d80-4429-af65-dbe54c5139c9","ios":"levelo://app?vid=f7d8183b-7d80-4429-af65-dbe54c5139c9"},"vehicle_type_id":"4","last_reported":1757873503,"current_range_meters":4400,"station_id":"ce4bh692rcd13ifvqea0","pricing_plan_id":"cebpf4jnsgd1na2vs0mg"},{"bike_id":"7d7c32e8-fe56-4682-a54d-594604eccad7","system_id":"levelo_inurba_marseille","lat":43.31224,"lon":5.36853,"is_reserved":false,"is_disabled":false,"rental_uris":{"android":"levelo://app?vid=7d7c32e8-fe56-4682-a54d-594604eccad7","ios":"levelo://app?vid=7d7c32e8-fe56-4682-a54d-594604eccad7"},"vehicle_type_id":"4","last_reported":1757873503,"current_range_meters":4400,"station_id":"ce4bgl92rcd13ifvqbq0","pricing_plan_id":"cebpf4jnsgd1na2vs0mg"},{"bike_id":"7b71f358-f42e-4609-8a93-8241f30af0e3","system_id":"levelo_inurba_marseille","lat":43.29572,"lon":5.37537,"is_reserved":false,"is_disabled":false,"rental_uris":{"android":"levelo://app?vid=7b71f358-f42e-4609-8a93-8241f30af0e3","ios":"levelo://app?vid=7b71f358-f42e-4609-8a93-8241f30af0e3"},"vehicle_type_id":"4","last_reported":1757873503,"current_range_meters":4400,"station_id":"ce4bgh92rcd13ifvqb50","pricing_plan_id":"cebpf4jnsgd1na2vs0mg"},{"bike_id":"d206c560-3bbb-498c-82c3-ec675e2a4610","system_id":"levelo_inurba_marseille","lat":43.31074,"lon":5.38358,"is_reserved":false,"is_disabled":false,"rental_uris":{"android":"levelo://app?vid=d206c560-3bbb-498c-82c3-ec675e2a4610","ios":"levelo://app?vid=d206c560-3bbb-498c-82c3-ec675e2a4610"},"vehicle_type_id":"4","last_reported":1757873503,"current_range_meters":4400,"station_id":"ce4bgv92rcd13ifvqcr0","pricing_plan_id":"cebpf4jnsgd1na2vs0mg"},{"bike_id":"1aa02754-6095-425e-b9cd-46f1d95986cd","system_id":"levelo_inurba_marseille","lat":43.30605,"lon":5.37229,"is_reserved":false,"is_disabled":false,"rental_uris":{"android":"levelo://app?vid=1aa02754-6095-425e-b9cd-46f1d95986cd","ios":"levelo://app?vid=1aa02754-6095-425e-b9cd-46f1d95986cd"},"vehicle_type_id":"4","last_reported":1757873503,"current_range_meters":4400,"station_id":"ce4bgqh2rcd13ifvqc4g","pricing_plan_id":"cebpf4jnsgd1na2vs0mg"},{"bike_id":"46397c1c-e52e-463a-8f5b-c6fab6900ad4","system_id":"levelo_inurba_marseille","lat":43.28154,"lon":5.42648,"is_reserved":false,"is_disabled":false,"rental_uris":{"android":"levelo://app?vid=46397c1c-e52e-463a-8f5b-c6fab6900ad4","ios":"levelo://app?vid=46397c1c-e52e-463a-8f5b-c6fab6900ad4"},"vehicle_type_id":"4","last_reported":1757873503,"current_range_meters":4400,"station_id":"ce4bhnh2rcd13ifvqgug","pricing_plan_id":"cebpf4jnsgd1na2vs0mg"},{"bike_id":"ac630a74-bbc8-4e9e-9b99-3a968484a89d","system_id":"levelo_inurba_marseille","lat":43.28405,"lon":5.37498,"is_reserved":false,"is_disabled":false,"rental_uris":{"android":"levelo://app?vid=ac630a74-bbc8-4e9e-9b99-3a968484a89d","ios":"levelo://app?vid=ac630a74-bbc8-4e9e-9b99-3a968484a89d"},"vehicle_type_id":"4","last_reported":1757873503,"current_range_meters":4400,"station_id":"ce4bh412rcd13ifvqds0","pricing_plan_id":"cebpf4jnsgd1na2vs0mg"},{"bike_id":"775af279-8ac9-4585-9121-809be9b13265","system_id":"levelo_inurba_marseille","lat":43.337775,"lon":5.374412,"is_reserved":false,"is_disabled":false,"rental_uris":{"android":"levelo://app?vid=775af279-8ac9-4585-9121-809be9b13265","ios":"levelo://app?vid=775af279-8ac9-4585-9121-809be9b13265"},"vehicle_type_id":"4","last_reported":1757873503,"current_range_meters":4800,"station_id":"","pricing_plan_id":"cebpf4jnsgd1na2vs0mg"},{"bike_id":"e62100d8-99a5-44e0-a074-23ae2bdf9da0","system_id":"levelo_inurba_marseille","lat":43.31072,"lon":5.38361,"is_reserved":false,"is_disabled":false,"rental_uris":{"android":"levelo://app?vid=e62100d8-99a5-44e0-a074-23ae2bdf9da0","ios":"levelo://app?vid=e62100d8-99a5-44e0-a074-23ae2bdf9da0"},"vehicle_type_id":"4","last_reported":1757873503,"current_range_meters":4800,"station_id":"ce4bgv92rcd13ifvqcr0","pricing_plan_id":"cebpf4jnsgd1na2vs0mg"},{"bike_id":"b43495c4-2096-40d9-b249-5144717ad98c","system_id":"levelo_inurba_marseille","lat":43.28699,"lon":5.37385,"is_reserved":false,"is_disabled":false,"rental_uris":{"android":"levelo://app?vid=b43495c4-2096-40d9-b249-5144717ad98c","ios":"levelo://app?vid=b43495c4-2096-40d9-b249-5144717ad98c"},"vehicle_type_id":"4","last_reported":1757873503,"current_range_meters":4800,"station_id":"ce4bh3p2rcd13ifvqdq0","pricing_plan_id":"cebpf4jnsgd1na2vs0mg"},{"bike_id":"e03bd15c-c472-4f08-bc2f-c1b8a57b70fb","system_id":"levelo_inurba_marseille","lat":43.3298,"lon":5.39022,"is_reserved":false,"is_disabled":false,"rental_uris":{"android":"levelo://app?vid=e03bd15c-c472-4f08-bc2f-c1b8a57b70fb","ios":"levelo://app?vid=e03bd15c-c472-4f08-bc2f-c1b8a57b70fb"},"vehicle_type_id":"4","last_reported":1757873503,"current_range_meters":4800,"station_id":"ce4bhr92rcd13ifvqhrg","pricing_plan_id":"cebpf4jnsgd1na2vs0mg"},{"bike_id":"ba5ec91e-17a3-49a5-b2ec-7f19e0ddb3fd","system_id":"levelo_inurba_marseille","lat":43.31496,"lon":5.37309,"is_reserved":false,"is_disabled":true,"rental_uris":{"android":"levelo://app?vid=ba5ec91e-17a3-49a5-b2ec-7f19e0ddb3fd","ios":"levelo://app?vid=ba5ec91e-17a3-49a5-b2ec-7f19e0ddb3fd"},"vehicle_type_id":"4","last_reported":1757873503,"current_range_meters":4800,"station_id":"ce4bgt12rcd13ifvqcd0","pricing_plan_id":"cebpf4jnsgd1na2vs0mg"},{"bike_id":"16bcfbbb-f7cc-4a28-b098-f2017e21f461","system_id":"levelo_inurba_marseille","lat":43.29579,"lon":5.36749,"is_reserved":false,"is_disabled":false,"rental_uris":{"android":"levelo://app?vid=16bcfbbb-f7cc-4a28-b098-f2017e21f461","ios":"levelo://app?vid=16bcfbbb-f7cc-4a28-b098-f2017e21f461"},"vehicle_type_id":"4","last_reported":1757873503,"current_range_meters":5600,"station_id":"ce4bgph2rcd13ifvqc2g","pricing_plan_id":"cebpf4jnsgd1na2vs0mg"},{"bike_id":"43b0ea42-abce-4798-9f36-c0903097f21c","system_id":"levelo_inurba_marseille","lat":43.3172,"lon":5.424011,"is_reserved":false,"is_disabled":false,"rental_uris":{"android":"levelo://app?vid=43b0ea42-abce-4798-9f36-c0903097f21c","ios":"levelo://app?vid=43b0ea42-abce-4798-9f36-c0903097f21c"},"vehicle_type_id":"4","last_reported":1757873503,"current_range_meters":5600,"station_id":"ce4bhp92rcd13ifvqhbg","pricing_plan_id":"cebpf4jnsgd1na2vs0mg"},{"bike_id":"ae2200e0-55fa-4d16-87bf-72ca65d67371","system_id":"levelo_inurba_marseille","lat":43.28376,"lon":5.38477,"is_reserved":false,"is_disabled":false,"rental_uris":{"android":"levelo://app?vid=ae2200e0-55fa-4d16-87bf-72ca65d67371","ios":"levelo://app?vid=ae2200e0-55fa-4d16-87bf-72ca65d67371"},"vehicle_type_id":"4","last_reported":1757873503,"current_range_meters":6000,"station_id":"","pricing_plan_id":"cebpf4jnsgd1na2vs0mg"},{"bike_id":"b5947267-4fd1-4513-a652-90c4d0418a33","system_id":"levelo_inurba_marseille","lat":43.29937,"lon":5.36557,"is_reserved":false,"is_disabled":false,"rental_uris":{"android":"levelo://app?vid=b5947267-4fd1-4513-a652-90c4d0418a33","ios":"levelo://app?vid=b5947267-4fd1-4513-a652-90c4d0418a33"},"vehicle_type_id":"4","last_reported":1757873503,"current_range_meters":6000,"station_id":"ce4bgm92rcd13ifvqbr0","pricing_plan_id":"cebpf4jnsgd1na2vs0mg"},{"bike_id":"b45dbb8a-579d-4345-aa80-ccff6767adeb","system_id":"levelo_inurba_marseille","lat":43.27942,"lon":5.41052,"is_reserved":false,"is_disabled":false,"rental_uris":{"android":"levelo://app?vid=b45dbb8a-579d-4345-aa80-ccff6767adeb","ios":"levelo://app?vid=b45dbb8a-579d-4345-aa80-ccff6767adeb"},"vehicle_type_id":"4","last_reported":1757873503,"current_range_meters":6000,"station_id":"ce4bhnp2rcd13ifvqh0g","pricing_plan_id":"cebpf4jnsgd1na2vs0mg"},{"bike_id":"eaa220fb-5349-44c0-849a-e1e199bab0e0","system_id":"levelo_inurba_marseille","lat":43.30514,"lon":5.36711,"is_reserved":false,"is_disabled":true,"rental_uris":{"android":"levelo://app?vid=eaa220fb-5349-44c0-849a-e1e199bab0e0","ios":"levelo://app?vid=eaa220fb-5349-44c0-849a-e1e199bab0e0"},"vehicle_type_id":"4","last_reported":1757873503,"current_range_meters":6400,"station_id":"ce4bgrp2rcd13ifvqc9g","pricing_plan_id":"cebpf4jnsgd1na2vs0mg"},{"bike_id":"1abdc9ab-fca1-47ab-bcbe-664bcfb4cd8a","system_id":"levelo_inurba_marseille","lat":43.23149,"lon":5.4371,"is_reserved":false,"is_disabled":false,"rental_uris":{"android":"levelo://app?vid=1abdc9ab-fca1-47ab-bcbe-664bcfb4cd8a","ios":"levelo://app?vid=1abdc9ab-fca1-47ab-bcbe-664bcfb4cd8a"},"vehicle_type_id":"4","last_reported":1757873503,"current_range_meters":6400,"station_id":"ce4bhmp2rcd13ifvqgog","pricing_plan_id":"cebpf4jnsgd1na2vs0mg"},{"bike_id":"0eac0c05-dbf1-4c0b-af6d-53c5df91e290","system_id":"levelo_inurba_marseille","lat":43.296769,"lon":5.37139,"is_reserved":false,"is_disabled":false,"rental_uris":{"android":"levelo://app?vid=0eac0c05-dbf1-4c0b-af6d-53c5df91e290","ios":"levelo://app?vid=0eac0c05-dbf1-4c0b-af6d-53c5df91e290"},"vehicle_type_id":"4","last_reported":1757873503,"current_range_meters":6400,"station_id":"","pricing_plan_id":"cebpf4jnsgd1na2vs0mg"},{"bike_id":"94f81f39-3c51-4c7c-9f88-5224c18d3bd6","system_id":"levelo_inurba_marseille","lat":43.318973,"lon":5.40719,"is_reserved":false,"is_disabled":false,"rental_uris":{"android":"levelo://app?vid=94f81f39-3c51-4c7c-9f88-5224c18d3bd6","ios":"levelo://app?vid=94f81f39-3c51-4c7c-9f88-5224c18d3bd6"},"vehicle_type_id":"4","last_reported":1757873503,"current_range_meters":6400,"station_id":"ce4bhq12rcd13ifvqhig","pricing_plan_id":"cebpf4jnsgd1na2vs0mg"},{"bike_id":"c811a200-c604-4172-819a-378bbec29f7f","system_id":"levelo_inurba_marseille","lat":43.28863,"lon":5.39325,"is_reserved":false,"is_disabled":false,"rental_uris":{"android":"levelo://app?vid=c811a200-c604-4172-819a-378bbec29f7f","ios":"levelo://app?vid=c811a200-c604-4172-819a-378bbec29f7f"},"vehicle_type_id":"4","last_reported":1757873503,"current_range_meters":6000,"station_id":"ce4bh2p2rcd13ifvqdi0","pricing_plan_id":"cebpf4jnsgd1na2vs0mg"},{"bike_id":"52f7214f-3667-4c40-8950-751e4a3e14cb","system_id":"levelo_inurba_marseille","lat":43.29578,"lon":5.375254,"is_reserved":false,"is_disabled":false,"rental_uris":{"android":"levelo://app?vid=52f7214f-3667-4c40-8950-751e4a3e14cb","ios":"levelo://app?vid=52f7214f-3667-4c40-8950-751e4a3e14cb"},"vehicle_type_id":"4","last_reported":1757873503,"current_range_meters":6400,"station_id":"","pricing_plan_id":"cebpf4jnsgd1na2vs0mg"},{"bike_id":"bb136de5-5d80-4d5b-afd5-a1b8d982c9cb","system_id":"levelo_inurba_marseille","lat":43.27993,"lon":5.40006,"is_reserved":false,"is_disabled":false,"rental_uris":{"android":"levelo://app?vid=bb136de5-5d80-4d5b-afd5-a1b8d982c9cb","ios":"levelo://app?vid=bb136de5-5d80-4d5b-afd5-a1b8d982c9cb"},"vehicle_type_id":"4","last_reported":1757873503,"current_range_meters":6400,"station_id":"ce4bho92rcd13ifvqh4g","pricing_plan_id":"cebpf4jnsgd1na2vs0mg"},{"bike_id":"e1d2e4b0-dcc3-4ec6-8f60-71a0707cd0fe","system_id":"levelo_inurba_marseille","lat":43.21747,"lon":5.34631,"is_reserved":false,"is_disabled":true,"rental_uris":{"android":"levelo://app?vid=e1d2e4b0-dcc3-4ec6-8f60-71a0707cd0fe","ios":"levelo://app?vid=e1d2e4b0-dcc3-4ec6-8f60-71a0707cd0fe"},"vehicle_type_id":"4","last_reported":1757873503,"current_range_meters":6400,"station_id":"st_cvj6r9ubvosntc0bgbag","pricing_plan_id":"cebpf4jnsgd1na2vs0mg"},{"bike_id":"3d78301d-e0c4-459b-9999-bb19bd2df99c","system_id":"levelo_inurba_marseille","lat":43.23963,"lon":5.36626,"is_reserved":false,"is_disabled":true,"rental_uris":{"android":"levelo://app?vid=3d78301d-e0c4-459b-9999-bb19bd2df99c","ios":"levelo://app?vid=3d78301d-e0c4-459b-9999-bb19bd2df99c"},"vehicle_type_id":"4","last_reported":1757873503,"current_range_meters":6800,"station_id":"ce4bhi12rcd13ifvqfp0","pricing_plan_id":"cebpf4jnsgd1na2vs0mg"},{"bike_id":"a24c4696-920b-4645-847f-87e0b46915a6","system_id":"levelo_inurba_marseille","lat":43.32423,"lon":5.42522,"is_reserved":false,"is_disabled":false,"rental_uris":{"android":"levelo://app?vid=a24c4696-920b-4645-847f-87e0b46915a6","ios":"levelo://app?vid=a24c4696-920b-4645-847f-87e0b46915a6"},"vehicle_type_id":"4","last_reported":1757873503,"current_range_meters":6800,"station_id":"","pricing_plan_id":"cebpf4jnsgd1na2vs0mg"},{"bike_id":"8bd9e12b-6034-4f9f-b612-6113ba90c84f","system_id":"levelo_inurba_marseille","lat":43.30885,"lon":5.39644,"is_reserved":false,"is_disabled":false,"rental_uris":{"android":"levelo://app?vid=8bd9e12b-6034-4f9f-b612-6113ba90c84f","ios":"levelo://app?vid=8bd9e12b-6034-4f9f-b612-6113ba90c84f"},"vehicle_type_id":"4","last_reported":1757873503,"current_range_meters":6800,"station_id":"ce4bh012rcd13ifvqcv0","pricing_plan_id":"cebpf4jnsgd1na2vs0mg"},{"bike_id":"33a0f1b8-1e3e-40b2-b64f-c70586e05114","system_id":"levelo_inurba_marseille","lat":43.25819,"lon":5.39439,"is_reserved":false,"is_disabled":false,"rental_uris":{"android":"levelo://app?vid=33a0f1b8-1e3e-40b2-b64f-c70586e05114","ios":"levelo://app?vid=33a0f1b8-1e3e-40b2-b64f-c70586e05114"},"vehicle_type_id":"4","last_reported":1757873503,"current_range_meters":6800,"station_id":"ce4bhip2rcd13ifvqft0","pricing_plan_id":"cebpf4jnsgd1na2vs0mg"},{"bike_id":"b49b2f05-0771-4dc0-a6b0-2430fecde684","system_id":"levelo_inurba_marseille","lat":43.27804,"lon":5.40729,"is_reserved":false,"is_disabled":false,"rental_uris":{"android":"levelo://app?vid=b49b2f05-0771-4dc0-a6b0-2430fecde684","ios":"levelo://app?vid=b49b2f05-0771-4dc0-a6b0-2430fecde684"},"vehicle_type_id":"4","last_reported":1757873503,"current_range_meters":6800,"station_id":"ce4bhnh2rcd13ifvqgtg","pricing_plan_id":"cebpf4jnsgd1na2vs0mg"},{"bike_id":"5f323fe7-4d72-4407-8ead-ffce821c15f0","system_id":"levelo_inurba_marseille","lat":43.29539,"lon":5.38538,"is_reserved":false,"is_disabled":false,"rental_uris":{"android":"levelo://app?vid=5f323fe7-4d72-4407-8ead-ffce821c15f0","ios":"levelo://app?vid=5f323fe7-4d72-4407-8ead-ffce821c15f0"},"vehicle_type_id":"4","last_reported":1757873503,"current_range_meters":6800,"station_id":"ce4bgih2rcd13ifvqba0","pricing_plan_id":"cebpf4jnsgd1na2vs0mg"},{"bike_id":"c3136736-d87c-4c71-9556-040726d7b9b4","system_id":"levelo_inurba_marseille","lat":43.29877,"lon":5.39724,"is_reserved":false,"is_disabled":false,"rental_uris":{"android":"levelo://app?vid=c3136736-d87c-4c71-9556-040726d7b9b4","ios":"levelo://app?vid=c3136736-d87c-4c71-9556-040726d7b9b4"},"vehicle_type_id":"4","last_reported":1757873503,"current_range_meters":9600,"station_id":"ce4bh0h2rcd13ifvqd50","pricing_plan_id":"cebpf4jnsgd1na2vs0mg"},{"bike_id":"cbd6e891-6ea4-484c-b167-fec7ec71ecdc","system_id":"levelo_inurba_marseille","lat":43.27193,"lon":5.40986,"is_reserved":false,"is_disabled":false,"rental_uris":{"android":"levelo://app?vid=cbd6e891-6ea4-484c-b167-fec7ec71ecdc","ios":"levelo://app?vid=cbd6e891-6ea4-484c-b167-fec7ec71ecdc"},"vehicle_type_id":"4","last_reported":1757873503,"current_range_meters":7200,"station_id":"ce4bhl12rcd13ifvqgf0","pricing_plan_id":"cebpf4jnsgd1na2vs0mg"},{"bike_id":"96dcfce9-8263-409b-8205-b4bbdac3cbf4","system_id":"levelo_inurba_marseille","lat":43.29258,"lon":5.40908,"is_reserved":false,"is_disabled":false,"rental_uris":{"android":"levelo://app?vid=96dcfce9-8263-409b-8205-b4bbdac3cbf4","ios":"levelo://app?vid=96dcfce9-8263-409b-8205-b4bbdac3cbf4"},"vehicle_type_id":"4","last_reported":1757873503,"current_range_meters":7200,"station_id":"ce4bh192rcd13ifvqdc0","pricing_plan_id":"cebpf4jnsgd1na2vs0mg"},{"bike_id":"9a45254c-c77a-469d-8fa3-a3fa05a580ba","system_id":"levelo_inurba_marseille","lat":43.27173,"lon":5.38682,"is_reserved":false,"is_disabled":false,"rental_uris":{"android":"levelo://app?vid=9a45254c-c77a-469d-8fa3-a3fa05a580ba","ios":"levelo://app?vid=9a45254c-c77a-469d-8fa3-a3fa05a580ba"},"vehicle_type_id":"4","last_reported":1757873503,"current_range_meters":7200,"station_id":"","pricing_plan_id":"cebpf4jnsgd1na2vs0mg"},{"bike_id":"463345a6-2d4f-4448-8488-9cab1efda713","system_id":"levelo_inurba_marseille","lat":43.25457,"lon":5.40156,"is_reserved":false,"is_disabled":false,"rental_uris":{"android":"levelo://app?vid=463345a6-2d4f-4448-8488-9cab1efda713","ios":"levelo://app?vid=463345a6-2d4f-4448-8488-9cab1efda713"},"vehicle_type_id":"4","last_reported":1757873503,"current_range_meters":7200,"station_id":"","pricing_plan_id":"cebpf4jnsgd1na2vs0mg"},{"bike_id":"ae520323-4cd6-4d98-a16c-7d0478b47978","system_id":"levelo_inurba_marseille","lat":43.25819,"lon":5.39439,"is_reserved":false,"is_disabled":false,"rental_uris":{"android":"levelo://app?vid=ae520323-4cd6-4d98-a16c-7d0478b47978","ios":"levelo://app?vid=ae520323-4cd6-4d98-a16c-7d0478b47978"},"vehicle_type_id":"4","last_reported":1757873503,"current_range_meters":7200,"station_id":"ce4bhip2rcd13ifvqft0","pricing_plan_id":"cebpf4jnsgd1na2vs0mg"},{"bike_id":"43c12178-6616-4e66-9326-4eec45031a5c","system_id":"levelo_inurba_marseille","lat":43.25087,"lon":5.39525,"is_reserved":false,"is_disabled":false,"rental_uris":{"android":"levelo://app?vid=43c12178-6616-4e66-9326-4eec45031a5c","ios":"levelo://app?vid=43c12178-6616-4e66-9326-4eec45031a5c"},"vehicle_type_id":"4","last_reported":1757873503,"current_range_meters":8000,"station_id":"ce4bhm12rcd13ifvqgkg","pricing_plan_id":"cebpf4jnsgd1na2vs0mg"},{"bike_id":"4cf6d145-3fcb-495a-a17f-0a95682d2281","system_id":"levelo_inurba_marseille","lat":43.29172,"lon":5.37148,"is_reserved":false,"is_disabled":false,"rental_uris":{"android":"levelo://app?vid=4cf6d145-3fcb-495a-a17f-0a95682d2281","ios":"levelo://app?vid=4cf6d145-3fcb-495a-a17f-0a95682d2281"},"vehicle_type_id":"4","last_reported":1757873503,"current_range_meters":8000,"station_id":"ce4bha92rcd13ifvqeh0","pricing_plan_id":"cebpf4jnsgd1na2vs0mg"},{"bike_id":"4891d751-b66c-4a3d-89d5-78926b795844","system_id":"levelo_inurba_marseille","lat":43.30255,"lon":5.44827,"is_reserved":false,"is_disabled":false,"rental_uris":{"android":"levelo://app?vid=4891d751-b66c-4a3d-89d5-78926b795844","ios":"levelo://app?vid=4891d751-b66c-4a3d-89d5-78926b795844"},"vehicle_type_id":"4","last_reported":1757873503,"current_range_meters":8000,"station_id":"","pricing_plan_id":"cebpf4jnsgd1na2vs0mg"},{"bike_id":"84be000e-b186-4e60-8aaa-b7a0f42a7175","system_id":"levelo_inurba_marseille","lat":43.337616,"lon":5.374353,"is_reserved":false,"is_disabled":false,"rental_uris":{"android":"levelo://app?vid=84be000e-b186-4e60-8aaa-b7a0f42a7175","ios":"levelo://app?vid=84be000e-b186-4e60-8aaa-b7a0f42a7175"},"vehicle_type_id":"4","last_reported":1757873503,"current_range_meters":8000,"station_id":"","pricing_plan_id":"cebpf4jnsgd1na2vs0mg"},{"bike_id":"09b01e41-aadb-470e-9f58-3851f3b13611","system_id":"levelo_inurba_marseille","lat":43.28353,"lon":5.38116,"is_reserved":false,"is_disabled":false,"rental_uris":{"android":"levelo://app?vid=09b01e41-aadb-470e-9f58-3851f3b13611","ios":"levelo://app?vid=09b01e41-aadb-470e-9f58-3851f3b13611"},"vehicle_type_id":"4","last_reported":1757873503,"current_range_meters":8000,"station_id":"ce4bh412rcd13ifvqdr0","pricing_plan_id":"cebpf4jnsgd1na2vs0mg"},{"bike_id":"ff261a2c-901b-4bc8-9141-60d7f58b6cc7","system_id":"levelo_inurba_marseille","lat":43.30305,"lon":5.3688,"is_reserved":false,"is_disabled":false,"rental_uris":{"android":"levelo://app?vid=ff261a2c-901b-4bc8-9141-60d7f58b6cc7","ios":"levelo://app?vid=ff261a2c-901b-4bc8-9141-60d7f58b6cc7"},"vehicle_type_id":"4","last_reported":1757873503,"current_range_meters":8000,"station_id":"ce4bgqh2rcd13ifvqc5g","pricing_plan_id":"cebpf4jnsgd1na2vs0mg"},{"bike_id":"25a2044a-93d9-4705-b82a-de64b12b28db","system_id":"levelo_inurba_marseille","lat":43.28704,"lon":5.39985,"is_reserved":false,"is_disabled":false,"rental_uris":{"android":"levelo://app?vid=25a2044a-93d9-4705-b82a-de64b12b28db","ios":"levelo://app?vid=25a2044a-93d9-4705-b82a-de64b12b28db"},"vehicle_type_id":"4","last_reported":1757873503,"current_range_meters":8000,"station_id":"ce4bho92rcd13ifvqh3g","pricing_plan_id":"cebpf4jnsgd1na2vs0mg"},{"bike_id":"799abdac-8495-45a0-8bb6-09e6179469d5","system_id":"levelo_inurba_marseille","lat":43.254939,"lon":5.3766,"is_reserved":false,"is_disabled":true,"rental_uris":{"android":"levelo://app?vid=799abdac-8495-45a0-8bb6-09e6179469d5","ios":"levelo://app?vid=799abdac-8495-45a0-8bb6-09e6179469d5"},"vehicle_type_id":"4","last_reported":1757873503,"current_range_meters":8400,"station_id":"ce4bhh12rcd13ifvqff0","pricing_plan_id":"cebpf4jnsgd1na2vs0mg"},{"bike_id":"38193a70-2ce0-4df3-8e83-dbda80bb6624","system_id":"levelo_inurba_marseille","lat":43.30133,"lon":5.39867,"is_reserved":false,"is_disabled":false,"rental_uris":{"android":"levelo://app?vid=38193a70-2ce0-4df3-8e83-dbda80bb6624","ios":"levelo://app?vid=38193a70-2ce0-4df3-8e83-dbda80bb6624"},"vehicle_type_id":"4","last_reported":1757873503,"current_range_meters":8400,"station_id":"","pricing_plan_id":"cebpf4jnsgd1na2vs0mg"},{"bike_id":"c675a074-2c28-407f-91ec-e776fd90bf09","system_id":"levelo_inurba_marseille","lat":43.290013,"lon":5.356119,"is_reserved":false,"is_disabled":false,"rental_uris":{"android":"levelo://app?vid=c675a074-2c28-407f-91ec-e776fd90bf09","ios":"levelo://app?vid=c675a074-2c28-407f-91ec-e776fd90bf09"},"vehicle_type_id":"4","last_reported":1757873503,"current_range_meters":8400,"station_id":"ce4bhb92rcd13ifvqen0","pricing_plan_id":"cebpf4jnsgd1na2vs0mg"},{"bike_id":"78f84639-56f9-4c15-8768-49ed5cee722d","system_id":"levelo_inurba_marseille","lat":43.2602,"lon":5.37555,"is_reserved":false,"is_disabled":true,"rental_uris":{"android":"levelo://app?vid=78f84639-56f9-4c15-8768-49ed5cee722d","ios":"levelo://app?vid=78f84639-56f9-4c15-8768-49ed5cee722d"},"vehicle_type_id":"4","last_reported":1757873503,"current_range_meters":8400,"station_id":"ce4bhgh2rcd13ifvqfa0","pricing_plan_id":"cebpf4jnsgd1na2vs0mg"},{"bike_id":"b5e3cd4d-2dd7-4015-ae05-e5fd4b1c81e8","system_id":"levelo_inurba_marseille","lat":43.28699,"lon":5.37393,"is_reserved":false,"is_disabled":false,"rental_uris":{"android":"levelo://app?vid=b5e3cd4d-2dd7-4015-ae05-e5fd4b1c81e8","ios":"levelo://app?vid=b5e3cd4d-2dd7-4015-ae05-e5fd4b1c81e8"},"vehicle_type_id":"4","last_reported":1757873503,"current_range_meters":8400,"station_id":"ce4bh3p2rcd13ifvqdq0","pricing_plan_id":"cebpf4jnsgd1na2vs0mg"},{"bike_id":"a0065ad5-85b6-4971-9573-2f13e8e2e057","system_id":"levelo_inurba_marseille","lat":43.29913,"lon":5.37479,"is_reserved":false,"is_disabled":false,"rental_uris":{"android":"levelo://app?vid=a0065ad5-85b6-4971-9573-2f13e8e2e057","ios":"levelo://app?vid=a0065ad5-85b6-4971-9573-2f13e8e2e057"},"vehicle_type_id":"4","last_reported":1757873503,"current_range_meters":8400,"station_id":"ce4bgjh2rcd13ifvqbg0","pricing_plan_id":"cebpf4jnsgd1na2vs0mg"},{"bike_id":"e6eea560-2468-4c92-84c8-6929f31f5f51","system_id":"levelo_inurba_marseille","lat":43.29041,"lon":5.35926,"is_reserved":false,"is_disabled":false,"rental_uris":{"android":"levelo://app?vid=e6eea560-2468-4c92-84c8-6929f31f5f51","ios":"levelo://app?vid=e6eea560-2468-4c92-84c8-6929f31f5f51"},"vehicle_type_id":"4","last_reported":1757873503,"current_range_meters":4000,"station_id":"ce4bha92rcd13ifvqeg0","pricing_plan_id":"cebpf4jnsgd1na2vs0mg"},{"bike_id":"d5c98035-fc72-4062-a3ec-13203f68e8ed","system_id":"levelo_inurba_marseille","lat":43.28874,"lon":5.42512,"is_reserved":false,"is_disabled":false,"rental_uris":{"android":"levelo://app?vid=d5c98035-fc72-4062-a3ec-13203f68e8ed","ios":"levelo://app?vid=d5c98035-fc72-4062-a3ec-13203f68e8ed"},"vehicle_type_id":"4","last_reported":1757873503,"current_range_meters":8400,"station_id":"","pricing_plan_id":"cebpf4jnsgd1na2vs0mg"},{"bike_id":"a8a61d66-4164-4272-9aad-8a4e7ca3904e","system_id":"levelo_inurba_marseille","lat":43.31173,"lon":5.38729,"is_reserved":false,"is_disabled":false,"rental_uris":{"android":"levelo://app?vid=a8a61d66-4164-4272-9aad-8a4e7ca3904e","ios":"levelo://app?vid=a8a61d66-4164-4272-9aad-8a4e7ca3904e"},"vehicle_type_id":"4","last_reported":1757873503,"current_range_meters":12400,"station_id":"ce4bgv12rcd13ifvqcp0","pricing_plan_id":"cebpf4jnsgd1na2vs0mg"},{"bike_id":"02dbb44c-70e3-4a7a-b86e-6159cc35ba47","system_id":"levelo_inurba_marseille","lat":43.29587,"lon":5.38689,"is_reserved":false,"is_disabled":false,"rental_uris":{"android":"levelo://app?vid=02dbb44c-70e3-4a7a-b86e-6159cc35ba47","ios":"levelo://app?vid=02dbb44c-70e3-4a7a-b86e-6159cc35ba47"},"vehicle_type_id":"4","last_reported":1757873503,"current_range_meters":8400,"station_id":"ce4bgih2rcd13ifvqba0","pricing_plan_id":"cebpf4jnsgd1na2vs0mg"},{"bike_id":"d224ab29-3000-4bbf-8c7a-2737b8f93d8e","system_id":"levelo_inurba_marseille","lat":43.24803,"lon":5.37471,"is_reserved":false,"is_disabled":true,"rental_uris":{"android":"levelo://app?vid=d224ab29-3000-4bbf-8c7a-2737b8f93d8e","ios":"levelo://app?vid=d224ab29-3000-4bbf-8c7a-2737b8f93d8e"},"vehicle_type_id":"4","last_reported":1757873503,"current_range_meters":8400,"station_id":"ce4bhgh2rcd13ifvqfb0","pricing_plan_id":"cebpf4jnsgd1na2vs0mg"},{"bike_id":"312d1202-5943-43b9-a805-a645ad324f51","system_id":"levelo_inurba_marseille","lat":43.29268,"lon":5.40149,"is_reserved":false,"is_disabled":true,"rental_uris":{"android":"levelo://app?vid=312d1202-5943-43b9-a805-a645ad324f51","ios":"levelo://app?vid=312d1202-5943-43b9-a805-a645ad324f51"},"vehicle_type_id":"4","last_reported":1757873503,"current_range_meters":8800,"station_id":"ce4bh312rcd13ifvqdk0","pricing_plan_id":"cebpf4jnsgd1na2vs0mg"},{"bike_id":"6515536f-56de-4109-b7a1-24c742aed225","system_id":"levelo_inurba_marseille","lat":43.31997,"lon":5.37234,"is_reserved":false,"is_disabled":false,"rental_uris":{"android":"levelo://app?vid=6515536f-56de-4109-b7a1-24c742aed225","ios":"levelo://app?vid=6515536f-56de-4109-b7a1-24c742aed225"},"vehicle_type_id":"4","last_reported":1757873503,"current_range_meters":8800,"station_id":"","pricing_plan_id":"cebpf4jnsgd1na2vs0mg"},{"bike_id":"55d59e02-f5a5-4e1a-9360-556e842fa2a4","system_id":"levelo_inurba_marseille","lat":43.33764,"lon":5.37496,"is_reserved":false,"is_disabled":false,"rental_uris":{"android":"levelo://app?vid=55d59e02-f5a5-4e1a-9360-556e842fa2a4","ios":"levelo://app?vid=55d59e02-f5a5-4e1a-9360-556e842fa2a4"},"vehicle_type_id":"4","last_reported":1757873503,"current_range_meters":8800,"station_id":"","pricing_plan_id":"cebpf4jnsgd1na2vs0mg"},{"bike_id":"ca369377-5757-4bd8-81d1-f2b5d121fc14","system_id":"levelo_inurba_marseille","lat":43.27177,"lon":5.40999,"is_reserved":false,"is_disabled":false,"rental_uris":{"android":"levelo://app?vid=ca369377-5757-4bd8-81d1-f2b5d121fc14","ios":"levelo://app?vid=ca369377-5757-4bd8-81d1-f2b5d121fc14"},"vehicle_type_id":"4","last_reported":1757873503,"current_range_meters":8800,"station_id":"ce4bhl12rcd13ifvqgf0","pricing_plan_id":"cebpf4jnsgd1na2vs0mg"},{"bike_id":"fcc917f8-5b60-41bf-bbe9-90b8ede358ff","system_id":"levelo_inurba_marseille","lat":43.29196,"lon":5.39326,"is_reserved":false,"is_disabled":false,"rental_uris":{"android":"levelo://app?vid=fcc917f8-5b60-41bf-bbe9-90b8ede358ff","ios":"levelo://app?vid=fcc917f8-5b60-41bf-bbe9-90b8ede358ff"},"vehicle_type_id":"4","last_reported":1757873503,"current_range_meters":8800,"station_id":"ce4bh192rcd13ifvqdd0","pricing_plan_id":"cebpf4jnsgd1na2vs0mg"},{"bike_id":"060cb2f3-817a-4a6f-be61-86bf0144b685","system_id":"levelo_inurba_marseille","lat":43.30796,"lon":5.38165,"is_reserved":false,"is_disabled":false,"rental_uris":{"android":"levelo://app?vid=060cb2f3-817a-4a6f-be61-86bf0144b685","ios":"levelo://app?vid=060cb2f3-817a-4a6f-be61-86bf0144b685"},"vehicle_type_id":"4","last_reported":1757873503,"current_range_meters":2000,"station_id":"ce4bgt12rcd13ifvqce0","pricing_plan_id":"cebpf4jnsgd1na2vs0mg"},{"bike_id":"57e2b698-e593-4af5-98c4-a81122670538","system_id":"levelo_inurba_marseille","lat":43.2991,"lon":5.37462,"is_reserved":false,"is_disabled":false,"rental_uris":{"android":"levelo://app?vid=57e2b698-e593-4af5-98c4-a81122670538","ios":"levelo://app?vid=57e2b698-e593-4af5-98c4-a81122670538"},"vehicle_type_id":"4","last_reported":1757873503,"current_range_meters":8800,"station_id":"ce4bgjh2rcd13ifvqbg0","pricing_plan_id":"cebpf4jnsgd1na2vs0mg"},{"bike_id":"406f6607-363d-4cf0-95ae-26829ed0307c","system_id":"levelo_inurba_marseille","lat":43.262277,"lon":5.404402,"is_reserved":false,"is_disabled":true,"rental_uris":{"android":"levelo://app?vid=406f6607-363d-4cf0-95ae-26829ed0307c","ios":"levelo://app?vid=406f6607-363d-4cf0-95ae-26829ed0307c"},"vehicle_type_id":"4","last_reported":1757873503,"current_range_meters":8800,"station_id":"ce4bhmh2rcd13ifvqgmg","pricing_plan_id":"cebpf4jnsgd1na2vs0mg"},{"bike_id":"38745dba-bb4a-400d-b504-ab33a9c92031","system_id":"levelo_inurba_marseille","lat":43.28939,"lon":5.36635,"is_reserved":false,"is_disabled":false,"rental_uris":{"android":"levelo://app?vid=38745dba-bb4a-400d-b504-ab33a9c92031","ios":"levelo://app?vid=38745dba-bb4a-400d-b504-ab33a9c92031"},"vehicle_type_id":"4","last_reported":1757873503,"current_range_meters":8800,"station_id":"ce4bhap2rcd13ifvqek0","pricing_plan_id":"cebpf4jnsgd1na2vs0mg"},{"bike_id":"af855c88-100f-429f-ba0c-3dad51b30928","system_id":"levelo_inurba_marseille","lat":43.21189,"lon":5.35078,"is_reserved":false,"is_disabled":true,"rental_uris":{"android":"levelo://app?vid=af855c88-100f-429f-ba0c-3dad51b30928","ios":"levelo://app?vid=af855c88-100f-429f-ba0c-3dad51b30928"},"vehicle_type_id":"4","last_reported":1757873503,"current_range_meters":9200,"station_id":"st_cvj6sg6p6f1abm77japg","pricing_plan_id":"cebpf4jnsgd1na2vs0mg"},{"bike_id":"182289c1-d8ed-492c-a287-70c8f4e5e1b2","system_id":"levelo_inurba_marseille","lat":43.32402,"lon":5.38931,"is_reserved":false,"is_disabled":false,"rental_uris":{"android":"levelo://app?vid=182289c1-d8ed-492c-a287-70c8f4e5e1b2","ios":"levelo://app?vid=182289c1-d8ed-492c-a287-70c8f4e5e1b2"},"vehicle_type_id":"4","last_reported":1757873503,"current_range_meters":9200,"station_id":"","pricing_plan_id":"cebpf4jnsgd1na2vs0mg"},{"bike_id":"d5fe8587-d577-4927-9f03-bf5f1fa338f3","system_id":"levelo_inurba_marseille","lat":43.325752,"lon":5.375801,"is_reserved":false,"is_disabled":false,"rental_uris":{"android":"levelo://app?vid=d5fe8587-d577-4927-9f03-bf5f1fa338f3","ios":"levelo://app?vid=d5fe8587-d577-4927-9f03-bf5f1fa338f3"},"vehicle_type_id":"4","last_reported":1757873503,"current_range_meters":9200,"station_id":"","pricing_plan_id":"cebpf4jnsgd1na2vs0mg"},{"bike_id":"0b9519eb-50e4-429a-aa11-adbb1e2fce96","system_id":"levelo_inurba_marseille","lat":43.28346,"lon":5.38673,"is_reserved":false,"is_disabled":false,"rental_uris":{"android":"levelo://app?vid=0b9519eb-50e4-429a-aa11-adbb1e2fce96","ios":"levelo://app?vid=0b9519eb-50e4-429a-aa11-adbb1e2fce96"},"vehicle_type_id":"4","last_reported":1757873503,"current_range_meters":9200,"station_id":"ce4bh492rcd13ifvqdvg","pricing_plan_id":"cebpf4jnsgd1na2vs0mg"},{"bike_id":"d9c11a94-d122-4240-b95b-24fdee8810ac","system_id":"levelo_inurba_marseille","lat":43.28264,"lon":5.39921,"is_reserved":false,"is_disabled":false,"rental_uris":{"android":"levelo://app?vid=d9c11a94-d122-4240-b95b-24fdee8810ac","ios":"levelo://app?vid=d9c11a94-d122-4240-b95b-24fdee8810ac"},"vehicle_type_id":"4","last_reported":1757873503,"current_range_meters":9200,"station_id":"","pricing_plan_id":"cebpf4jnsgd1na2vs0mg"},{"bike_id":"31f4578e-18c6-48fb-9fec-123fce0578f9","system_id":"levelo_inurba_marseille","lat":43.33775,"lon":5.37439,"is_reserved":false,"is_disabled":false,"rental_uris":{"android":"levelo://app?vid=31f4578e-18c6-48fb-9fec-123fce0578f9","ios":"levelo://app?vid=31f4578e-18c6-48fb-9fec-123fce0578f9"},"vehicle_type_id":"4","last_reported":1757873503,"current_range_meters":9200,"station_id":"","pricing_plan_id":"cebpf4jnsgd1na2vs0mg"},{"bike_id":"974e0192-4f9e-4803-b6bc-e5f6e12940e1","system_id":"levelo_inurba_marseille","lat":43.31516,"lon":5.38855,"is_reserved":false,"is_disabled":false,"rental_uris":{"android":"levelo://app?vid=974e0192-4f9e-4803-b6bc-e5f6e12940e1","ios":"levelo://app?vid=974e0192-4f9e-4803-b6bc-e5f6e12940e1"},"vehicle_type_id":"4","last_reported":1757873503,"current_range_meters":9600,"station_id":"","pricing_plan_id":"cebpf4jnsgd1na2vs0mg"},{"bike_id":"58e4d2c3-ca5a-414f-acc3-c631f749869c","system_id":"levelo_inurba_marseille","lat":43.31377,"lon":5.38539,"is_reserved":false,"is_disabled":true,"rental_uris":{"android":"levelo://app?vid=58e4d2c3-ca5a-414f-acc3-c631f749869c","ios":"levelo://app?vid=58e4d2c3-ca5a-414f-acc3-c631f749869c"},"vehicle_type_id":"4","last_reported":1757873503,"current_range_meters":9600,"station_id":"","pricing_plan_id":"cebpf4jnsgd1na2vs0mg"},{"bike_id":"cd104b68-7370-4e88-ba9c-1edeee0f6c77","system_id":"levelo_inurba_marseille","lat":43.252202,"lon":5.42479,"is_reserved":false,"is_disabled":true,"rental_uris":{"android":"levelo://app?vid=cd104b68-7370-4e88-ba9c-1edeee0f6c77","ios":"levelo://app?vid=cd104b68-7370-4e88-ba9c-1edeee0f6c77"},"vehicle_type_id":"4","last_reported":1757873503,"current_range_meters":9600,"station_id":"","pricing_plan_id":"cebpf4jnsgd1na2vs0mg"},{"bike_id":"9604b56e-3c87-4803-8ea1-6b403e72be48","system_id":"levelo_inurba_marseille","lat":43.25103,"lon":5.40351,"is_reserved":false,"is_disabled":false,"rental_uris":{"android":"levelo://app?vid=9604b56e-3c87-4803-8ea1-6b403e72be48","ios":"levelo://app?vid=9604b56e-3c87-4803-8ea1-6b403e72be48"},"vehicle_type_id":"4","last_reported":1757873503,"current_range_meters":9600,"station_id":"ce4bhlh2rcd13ifvqgig","pricing_plan_id":"cebpf4jnsgd1na2vs0mg"},{"bike_id":"44dae483-e15c-4375-9fc2-a5d1a37449df","system_id":"levelo_inurba_marseille","lat":43.29525,"lon":5.39405,"is_reserved":false,"is_disabled":false,"rental_uris":{"android":"levelo://app?vid=44dae483-e15c-4375-9fc2-a5d1a37449df","ios":"levelo://app?vid=44dae483-e15c-4375-9fc2-a5d1a37449df"},"vehicle_type_id":"4","last_reported":1757873503,"current_range_meters":9600,"station_id":"ce4bh292rcd13ifvqdf0","pricing_plan_id":"cebpf4jnsgd1na2vs0mg"},{"bike_id":"f07d1a34-6972-4c1d-8ed8-100dd0fc1e78","system_id":"levelo_inurba_marseille","lat":43.32985,"lon":5.39052,"is_reserved":false,"is_disabled":false,"rental_uris":{"android":"levelo://app?vid=f07d1a34-6972-4c1d-8ed8-100dd0fc1e78","ios":"levelo://app?vid=f07d1a34-6972-4c1d-8ed8-100dd0fc1e78"},"vehicle_type_id":"4","last_reported":1757873503,"current_range_meters":9600,"station_id":"ce4bhr92rcd13ifvqhrg","pricing_plan_id":"cebpf4jnsgd1na2vs0mg"},{"bike_id":"92328f20-9c61-4621-aefd-c280af7d31a0","system_id":"levelo_inurba_marseille","lat":43.28871,"lon":5.42539,"is_reserved":false,"is_disabled":false,"rental_uris":{"android":"levelo://app?vid=92328f20-9c61-4621-aefd-c280af7d31a0","ios":"levelo://app?vid=92328f20-9c61-4621-aefd-c280af7d31a0"},"vehicle_type_id":"4","last_reported":1757873503,"current_range_meters":9600,"station_id":"","pricing_plan_id":"cebpf4jnsgd1na2vs0mg"},{"bike_id":"30e85da9-4a4e-420a-bc64-cfe1eeea89eb","system_id":"levelo_inurba_marseille","lat":43.28343,"lon":5.37652,"is_reserved":false,"is_disabled":false,"rental_uris":{"android":"levelo://app?vid=30e85da9-4a4e-420a-bc64-cfe1eeea89eb","ios":"levelo://app?vid=30e85da9-4a4e-420a-bc64-cfe1eeea89eb"},"vehicle_type_id":"4","last_reported":1757873503,"current_range_meters":9600,"station_id":"","pricing_plan_id":"cebpf4jnsgd1na2vs0mg"},{"bike_id":"a01e032f-0344-4ad8-99c8-e3d0d9921bd3","system_id":"levelo_inurba_marseille","lat":43.29065,"lon":5.37158,"is_reserved":false,"is_disabled":false,"rental_uris":{"android":"levelo://app?vid=a01e032f-0344-4ad8-99c8-e3d0d9921bd3","ios":"levelo://app?vid=a01e032f-0344-4ad8-99c8-e3d0d9921bd3"},"vehicle_type_id":"4","last_reported":1757873503,"current_range_meters":9200,"station_id":"ce4bh5p2rcd13ifvqe4g","pricing_plan_id":"cebpf4jnsgd1na2vs0mg"},{"bike_id":"4e4e979c-633e-43b7-b657-e54f6f5fc0e1","system_id":"levelo_inurba_marseille","lat":43.29232,"lon":5.40924,"is_reserved":false,"is_disabled":false,"rental_uris":{"android":"levelo://app?vid=4e4e979c-633e-43b7-b657-e54f6f5fc0e1","ios":"levelo://app?vid=4e4e979c-633e-43b7-b657-e54f6f5fc0e1"},"vehicle_type_id":"4","last_reported":1757873503,"current_range_meters":9200,"station_id":"ce4bh192rcd13ifvqdc0","pricing_plan_id":"cebpf4jnsgd1na2vs0mg"},{"bike_id":"54756892-40fc-40da-862a-36f475f86070","system_id":"levelo_inurba_marseille","lat":43.29677,"lon":5.37148,"is_reserved":false,"is_disabled":false,"rental_uris":{"android":"levelo://app?vid=54756892-40fc-40da-862a-36f475f86070","ios":"levelo://app?vid=54756892-40fc-40da-862a-36f475f86070"},"vehicle_type_id":"4","last_reported":1757873503,"current_range_meters":9600,"station_id":"","pricing_plan_id":"cebpf4jnsgd1na2vs0mg"},{"bike_id":"8b453ebd-bead-4ede-b4bb-6e8271309ef6","system_id":"levelo_inurba_marseille","lat":43.26801,"lon":5.4027,"is_reserved":false,"is_disabled":false,"rental_uris":{"android":"levelo://app?vid=8b453ebd-bead-4ede-b4bb-6e8271309ef6","ios":"levelo://app?vid=8b453ebd-bead-4ede-b4bb-6e8271309ef6"},"vehicle_type_id":"4","last_reported":1757873503,"current_range_meters":10800,"station_id":"ce501612rcd8frsf0b60","pricing_plan_id":"cebpf4jnsgd1na2vs0mg"},{"bike_id":"a8f0c8fc-2111-4e67-87eb-ec1390424c8c","system_id":"levelo_inurba_marseille","lat":43.26505,"lon":5.39531,"is_reserved":false,"is_disabled":false,"rental_uris":{"android":"levelo://app?vid=a8f0c8fc-2111-4e67-87eb-ec1390424c8c","ios":"levelo://app?vid=a8f0c8fc-2111-4e67-87eb-ec1390424c8c"},"vehicle_type_id":"4","last_reported":1757873503,"current_range_meters":10000,"station_id":"ce4bhi12rcd13ifvqfq0","pricing_plan_id":"cebpf4jnsgd1na2vs0mg"},{"bike_id":"2a2497be-b987-492b-a17c-d497933a8aed","system_id":"levelo_inurba_marseille","lat":43.32362,"lon":5.36778,"is_reserved":false,"is_disabled":false,"rental_uris":{"android":"levelo://app?vid=2a2497be-b987-492b-a17c-d497933a8aed","ios":"levelo://app?vid=2a2497be-b987-492b-a17c-d497933a8aed"},"vehicle_type_id":"4","last_reported":1757873503,"current_range_meters":10000,"station_id":"ce4bhsh2rcd13ifvqi2g","pricing_plan_id":"cebpf4jnsgd1na2vs0mg"},{"bike_id":"16572620-16f0-40a6-8afc-79d0b1846f64","system_id":"levelo_inurba_marseille","lat":43.28159,"lon":5.426262,"is_reserved":false,"is_disabled":false,"rental_uris":{"android":"levelo://app?vid=16572620-16f0-40a6-8afc-79d0b1846f64","ios":"levelo://app?vid=16572620-16f0-40a6-8afc-79d0b1846f64"},"vehicle_type_id":"4","last_reported":1757873503,"current_range_meters":10000,"station_id":"ce4bhnh2rcd13ifvqgug","pricing_plan_id":"cebpf4jnsgd1na2vs0mg"},{"bike_id":"ee42c31a-b74b-4b2d-917a-cd50dc10c6ce","system_id":"levelo_inurba_marseille","lat":43.32971,"lon":5.39286,"is_reserved":false,"is_disabled":false,"rental_uris":{"android":"levelo://app?vid=ee42c31a-b74b-4b2d-917a-cd50dc10c6ce","ios":"levelo://app?vid=ee42c31a-b74b-4b2d-917a-cd50dc10c6ce"},"vehicle_type_id":"4","last_reported":1757873503,"current_range_meters":10000,"station_id":"","pricing_plan_id":"cebpf4jnsgd1na2vs0mg"},{"bike_id":"a23e3f16-4cd9-46b4-aa30-7bafa962cefa","system_id":"levelo_inurba_marseille","lat":43.31534,"lon":5.38018,"is_reserved":false,"is_disabled":false,"rental_uris":{"android":"levelo://app?vid=a23e3f16-4cd9-46b4-aa30-7bafa962cefa","ios":"levelo://app?vid=a23e3f16-4cd9-46b4-aa30-7bafa962cefa"},"vehicle_type_id":"4","last_reported":1757873503,"current_range_meters":10000,"station_id":"ce4bhsp2rcd13ifvqi50","pricing_plan_id":"cebpf4jnsgd1na2vs0mg"},{"bike_id":"5b2ab8b1-dfa8-41d8-a41d-3f56699028b9","system_id":"levelo_inurba_marseille","lat":43.27815,"lon":5.40712,"is_reserved":false,"is_disabled":false,"rental_uris":{"android":"levelo://app?vid=5b2ab8b1-dfa8-41d8-a41d-3f56699028b9","ios":"levelo://app?vid=5b2ab8b1-dfa8-41d8-a41d-3f56699028b9"},"vehicle_type_id":"4","last_reported":1757873503,"current_range_meters":10000,"station_id":"ce4bhnh2rcd13ifvqgtg","pricing_plan_id":"cebpf4jnsgd1na2vs0mg"},{"bike_id":"59ce2723-b76f-44f3-bf23-bac1b7d8c298","system_id":"levelo_inurba_marseille","lat":43.30606,"lon":5.37224,"is_reserved":false,"is_disabled":false,"rental_uris":{"android":"levelo://app?vid=59ce2723-b76f-44f3-bf23-bac1b7d8c298","ios":"levelo://app?vid=59ce2723-b76f-44f3-bf23-bac1b7d8c298"},"vehicle_type_id":"4","last_reported":1757873503,"current_range_meters":10000,"station_id":"ce4bgqh2rcd13ifvqc4g","pricing_plan_id":"cebpf4jnsgd1na2vs0mg"},{"bike_id":"c5cba6d7-e282-4417-a818-5fc0802dcb08","system_id":"levelo_inurba_marseille","lat":43.33761,"lon":5.3745,"is_reserved":false,"is_disabled":false,"rental_uris":{"android":"levelo://app?vid=c5cba6d7-e282-4417-a818-5fc0802dcb08","ios":"levelo://app?vid=c5cba6d7-e282-4417-a818-5fc0802dcb08"},"vehicle_type_id":"4","last_reported":1757873503,"current_range_meters":10000,"station_id":"","pricing_plan_id":"cebpf4jnsgd1na2vs0mg"},{"bike_id":"582285b2-ae40-4d3e-95af-f95513b979ec","system_id":"levelo_inurba_marseille","lat":43.29536,"lon":5.38539,"is_reserved":false,"is_disabled":false,"rental_uris":{"android":"levelo://app?vid=582285b2-ae40-4d3e-95af-f95513b979ec","ios":"levelo://app?vid=582285b2-ae40-4d3e-95af-f95513b979ec"},"vehicle_type_id":"4","last_reported":1757873503,"current_range_meters":10000,"station_id":"ce4bgih2rcd13ifvqba0","pricing_plan_id":"cebpf4jnsgd1na2vs0mg"},{"bike_id":"b03c1975-2102-4e17-ad03-17309a8f4172","system_id":"levelo_inurba_marseille","lat":43.30906,"lon":5.36842,"is_reserved":false,"is_disabled":false,"rental_uris":{"android":"levelo://app?vid=b03c1975-2102-4e17-ad03-17309a8f4172","ios":"levelo://app?vid=b03c1975-2102-4e17-ad03-17309a8f4172"},"vehicle_type_id":"4","last_reported":1757873503,"current_range_meters":10800,"station_id":"ce4bgn92rcd13ifvqbvg","pricing_plan_id":"cebpf4jnsgd1na2vs0mg"},{"bike_id":"416a5366-b97a-45f7-a1e6-cdd8fe846b86","system_id":"levelo_inurba_marseille","lat":43.32369,"lon":5.38891,"is_reserved":false,"is_disabled":false,"rental_uris":{"android":"levelo://app?vid=416a5366-b97a-45f7-a1e6-cdd8fe846b86","ios":"levelo://app?vid=416a5366-b97a-45f7-a1e6-cdd8fe846b86"},"vehicle_type_id":"4","last_reported":1757873503,"current_range_meters":10800,"station_id":"ce4bhqp2rcd13ifvqhog","pricing_plan_id":"cebpf4jnsgd1na2vs0mg"},{"bike_id":"f87734eb-0b50-416b-a2d9-b0e026c50d90","system_id":"levelo_inurba_marseille","lat":43.2997,"lon":5.37171,"is_reserved":false,"is_disabled":false,"rental_uris":{"android":"levelo://app?vid=f87734eb-0b50-416b-a2d9-b0e026c50d90","ios":"levelo://app?vid=f87734eb-0b50-416b-a2d9-b0e026c50d90"},"vehicle_type_id":"4","last_reported":1757873503,"current_range_meters":10800,"station_id":"ce4bgr92rcd13ifvqc7g","pricing_plan_id":"cebpf4jnsgd1na2vs0mg"},{"bike_id":"a3e2ef8f-a94b-43a9-9ca6-ca89e6e0ff26","system_id":"levelo_inurba_marseille","lat":43.284,"lon":5.37533,"is_reserved":false,"is_disabled":false,"rental_uris":{"android":"levelo://app?vid=a3e2ef8f-a94b-43a9-9ca6-ca89e6e0ff26","ios":"levelo://app?vid=a3e2ef8f-a94b-43a9-9ca6-ca89e6e0ff26"},"vehicle_type_id":"4","last_reported":1757873503,"current_range_meters":10800,"station_id":"ce4bh412rcd13ifvqds0","pricing_plan_id":"cebpf4jnsgd1na2vs0mg"},{"bike_id":"5c1e55d9-decd-426f-89d8-b98a558f3809","system_id":"levelo_inurba_marseille","lat":43.31703,"lon":5.40466,"is_reserved":false,"is_disabled":true,"rental_uris":{"android":"levelo://app?vid=5c1e55d9-decd-426f-89d8-b98a558f3809","ios":"levelo://app?vid=5c1e55d9-decd-426f-89d8-b98a558f3809"},"vehicle_type_id":"4","last_reported":1757873503,"current_range_meters":10800,"station_id":"ce4bh012rcd13ifvqd00","pricing_plan_id":"cebpf4jnsgd1na2vs0mg"},{"bike_id":"00425172-2b4d-4aae-9255-caf549b12b8d","system_id":"levelo_inurba_marseille","lat":43.30794,"lon":5.38165,"is_reserved":false,"is_disabled":false,"rental_uris":{"android":"levelo://app?vid=00425172-2b4d-4aae-9255-caf549b12b8d","ios":"levelo://app?vid=00425172-2b4d-4aae-9255-caf549b12b8d"},"vehicle_type_id":"4","last_reported":1757873503,"current_range_meters":10800,"station_id":"ce4bgt12rcd13ifvqce0","pricing_plan_id":"cebpf4jnsgd1na2vs0mg"},{"bike_id":"ffc40971-f5eb-41b8-b284-56b1843977f4","system_id":"levelo_inurba_marseille","lat":43.28931,"lon":5.38407,"is_reserved":false,"is_disabled":false,"rental_uris":{"android":"levelo://app?vid=ffc40971-f5eb-41b8-b284-56b1843977f4","ios":"levelo://app?vid=ffc40971-f5eb-41b8-b284-56b1843977f4"},"vehicle_type_id":"4","last_reported":1757873503,"current_range_meters":10800,"station_id":"ce4bh612rcd13ifvqe6g","pricing_plan_id":"cebpf4jnsgd1na2vs0mg"},{"bike_id":"d2e0cdbf-4bb5-4350-9d13-e89b25bc828d","system_id":"levelo_inurba_marseille","lat":43.298399,"lon":5.389152,"is_reserved":false,"is_disabled":false,"rental_uris":{"android":"levelo://app?vid=d2e0cdbf-4bb5-4350-9d13-e89b25bc828d","ios":"levelo://app?vid=d2e0cdbf-4bb5-4350-9d13-e89b25bc828d"},"vehicle_type_id":"4","last_reported":1757873503,"current_range_meters":10800,"station_id":"ce4bh392rcd13ifvqdl0","pricing_plan_id":"cebpf4jnsgd1na2vs0mg"},{"bike_id":"3cfa1ba3-c599-49b9-a906-49868595b153","system_id":"levelo_inurba_marseille","lat":43.26778,"lon":5.39417,"is_reserved":false,"is_disabled":false,"rental_uris":{"android":"levelo://app?vid=3cfa1ba3-c599-49b9-a906-49868595b153","ios":"levelo://app?vid=3cfa1ba3-c599-49b9-a906-49868595b153"},"vehicle_type_id":"4","last_reported":1757873503,"current_range_meters":10000,"station_id":"ce4bhh12rcd13ifvqfg0","pricing_plan_id":"cebpf4jnsgd1na2vs0mg"},{"bike_id":"52434ff3-7e2d-41e3-a2d2-1a74440d44d8","system_id":"levelo_inurba_marseille","lat":43.3172,"lon":5.42404,"is_reserved":false,"is_disabled":false,"rental_uris":{"android":"levelo://app?vid=52434ff3-7e2d-41e3-a2d2-1a74440d44d8","ios":"levelo://app?vid=52434ff3-7e2d-41e3-a2d2-1a74440d44d8"},"vehicle_type_id":"4","last_reported":1757873503,"current_range_meters":10800,"station_id":"ce4bhp92rcd13ifvqhbg","pricing_plan_id":"cebpf4jnsgd1na2vs0mg"},{"bike_id":"deba709c-fd12-4231-a979-71a054c8494d","system_id":"levelo_inurba_marseille","lat":43.28446,"lon":5.37514,"is_reserved":false,"is_disabled":false,"rental_uris":{"android":"levelo://app?vid=deba709c-fd12-4231-a979-71a054c8494d","ios":"levelo://app?vid=deba709c-fd12-4231-a979-71a054c8494d"},"vehicle_type_id":"4","last_reported":1757873503,"current_range_meters":10800,"station_id":"","pricing_plan_id":"cebpf4jnsgd1na2vs0mg"},{"bike_id":"3bc338fd-b3c5-4caa-b6e6-3c70a52689ba","system_id":"levelo_inurba_marseille","lat":43.31547,"lon":5.38855,"is_reserved":false,"is_disabled":false,"rental_uris":{"android":"levelo://app?vid=3bc338fd-b3c5-4caa-b6e6-3c70a52689ba","ios":"levelo://app?vid=3bc338fd-b3c5-4caa-b6e6-3c70a52689ba"},"vehicle_type_id":"4","last_reported":1757873503,"current_range_meters":10800,"station_id":"","pricing_plan_id":"cebpf4jnsgd1na2vs0mg"},{"bike_id":"5b08033c-e596-407a-ada4-49eb3a516099","system_id":"levelo_inurba_marseille","lat":43.25831,"lon":5.39425,"is_reserved":false,"is_disabled":false,"rental_uris":{"android":"levelo://app?vid=5b08033c-e596-407a-ada4-49eb3a516099","ios":"levelo://app?vid=5b08033c-e596-407a-ada4-49eb3a516099"},"vehicle_type_id":"4","last_reported":1757873503,"current_range_meters":11200,"station_id":"ce4bhip2rcd13ifvqft0","pricing_plan_id":"cebpf4jnsgd1na2vs0mg"},{"bike_id":"90b99ccf-2b3c-4d75-9e45-7dd3a550aac1","system_id":"levelo_inurba_marseille","lat":43.23569,"lon":5.39891,"is_reserved":false,"is_disabled":false,"rental_uris":{"android":"levelo://app?vid=90b99ccf-2b3c-4d75-9e45-7dd3a550aac1","ios":"levelo://app?vid=90b99ccf-2b3c-4d75-9e45-7dd3a550aac1"},"vehicle_type_id":"4","last_reported":1757873503,"current_range_meters":11200,"station_id":"","pricing_plan_id":"cebpf4jnsgd1na2vs0mg"},{"bike_id":"0d9e5e26-a151-4e54-a822-68c1cc7608c8","system_id":"levelo_inurba_marseille","lat":43.29562,"lon":5.37522,"is_reserved":false,"is_disabled":false,"rental_uris":{"android":"levelo://app?vid=0d9e5e26-a151-4e54-a822-68c1cc7608c8","ios":"levelo://app?vid=0d9e5e26-a151-4e54-a822-68c1cc7608c8"},"vehicle_type_id":"4","last_reported":1757873503,"current_range_meters":11200,"station_id":"ce4bgh92rcd13ifvqb50","pricing_plan_id":"cebpf4jnsgd1na2vs0mg"},{"bike_id":"77b7289b-dd73-44ea-a10f-65a8b03de89f","system_id":"levelo_inurba_marseille","lat":43.28696,"lon":5.37413,"is_reserved":false,"is_disabled":false,"rental_uris":{"android":"levelo://app?vid=77b7289b-dd73-44ea-a10f-65a8b03de89f","ios":"levelo://app?vid=77b7289b-dd73-44ea-a10f-65a8b03de89f"},"vehicle_type_id":"4","last_reported":1757873503,"current_range_meters":11200,"station_id":"ce4bh3p2rcd13ifvqdq0","pricing_plan_id":"cebpf4jnsgd1na2vs0mg"},{"bike_id":"d0a1739a-c22f-4203-9f71-a089f4b367e4","system_id":"levelo_inurba_marseille","lat":43.31988,"lon":5.38159,"is_reserved":false,"is_disabled":true,"rental_uris":{"android":"levelo://app?vid=d0a1739a-c22f-4203-9f71-a089f4b367e4","ios":"levelo://app?vid=d0a1739a-c22f-4203-9f71-a089f4b367e4"},"vehicle_type_id":"4","last_reported":1757873503,"current_range_meters":11600,"station_id":"ce4bhr12rcd13ifvqhpg","pricing_plan_id":"cebpf4jnsgd1na2vs0mg"},{"bike_id":"8f0a411a-c074-4adb-9740-d0fd8eaced28","system_id":"levelo_inurba_marseille","lat":43.27821,"lon":5.40713,"is_reserved":false,"is_disabled":false,"rental_uris":{"android":"levelo://app?vid=8f0a411a-c074-4adb-9740-d0fd8eaced28","ios":"levelo://app?vid=8f0a411a-c074-4adb-9740-d0fd8eaced28"},"vehicle_type_id":"4","last_reported":1757873503,"current_range_meters":11600,"station_id":"ce4bhnh2rcd13ifvqgtg","pricing_plan_id":"cebpf4jnsgd1na2vs0mg"},{"bike_id":"f85a8c4d-f9d0-4136-9b57-8bfb28db950c","system_id":"levelo_inurba_marseille","lat":43.29866,"lon":5.37691,"is_reserved":false,"is_disabled":false,"rental_uris":{"android":"levelo://app?vid=f85a8c4d-f9d0-4136-9b57-8bfb28db950c","ios":"levelo://app?vid=f85a8c4d-f9d0-4136-9b57-8bfb28db950c"},"vehicle_type_id":"4","last_reported":1757873503,"current_range_meters":11600,"station_id":"","pricing_plan_id":"cebpf4jnsgd1na2vs0mg"},{"bike_id":"94c4c486-5ec7-4ee1-846f-0f062e9dc9e6","system_id":"levelo_inurba_marseille","lat":43.3171,"lon":5.37752,"is_reserved":false,"is_disabled":false,"rental_uris":{"android":"levelo://app?vid=94c4c486-5ec7-4ee1-846f-0f062e9dc9e6","ios":"levelo://app?vid=94c4c486-5ec7-4ee1-846f-0f062e9dc9e6"},"vehicle_type_id":"4","last_reported":1757873503,"current_range_meters":11600,"station_id":"ce4bgth2rcd13ifvqch0","pricing_plan_id":"cebpf4jnsgd1na2vs0mg"},{"bike_id":"f7160a75-80b2-46dd-b0b5-86ce3ad72837","system_id":"levelo_inurba_marseille","lat":43.30805,"lon":5.3816,"is_reserved":false,"is_disabled":false,"rental_uris":{"android":"levelo://app?vid=f7160a75-80b2-46dd-b0b5-86ce3ad72837","ios":"levelo://app?vid=f7160a75-80b2-46dd-b0b5-86ce3ad72837"},"vehicle_type_id":"4","last_reported":1757873503,"current_range_meters":11600,"station_id":"ce4bgt12rcd13ifvqce0","pricing_plan_id":"cebpf4jnsgd1na2vs0mg"},{"bike_id":"a34f11f1-1477-4bf9-b6fc-68974cdb4f3f","system_id":"levelo_inurba_marseille","lat":43.31695,"lon":5.37768,"is_reserved":false,"is_disabled":false,"rental_uris":{"android":"levelo://app?vid=a34f11f1-1477-4bf9-b6fc-68974cdb4f3f","ios":"levelo://app?vid=a34f11f1-1477-4bf9-b6fc-68974cdb4f3f"},"vehicle_type_id":"4","last_reported":1757873503,"current_range_meters":11600,"station_id":"ce4bgth2rcd13ifvqch0","pricing_plan_id":"cebpf4jnsgd1na2vs0mg"},{"bike_id":"bee21f1c-4fc6-4da7-b9ac-dd49eca3e14d","system_id":"levelo_inurba_marseille","lat":43.30274,"lon":5.37727,"is_reserved":false,"is_disabled":false,"rental_uris":{"android":"levelo://app?vid=bee21f1c-4fc6-4da7-b9ac-dd49eca3e14d","ios":"levelo://app?vid=bee21f1c-4fc6-4da7-b9ac-dd49eca3e14d"},"vehicle_type_id":"4","last_reported":1757873503,"current_range_meters":12400,"station_id":"ce4bguh2rcd13ifvqcj0","pricing_plan_id":"cebpf4jnsgd1na2vs0mg"},{"bike_id":"8e3a9e83-812e-4b5d-8c7b-5119699e81be","system_id":"levelo_inurba_marseille","lat":43.31583,"lon":5.40619,"is_reserved":false,"is_disabled":false,"rental_uris":{"android":"levelo://app?vid=8e3a9e83-812e-4b5d-8c7b-5119699e81be","ios":"levelo://app?vid=8e3a9e83-812e-4b5d-8c7b-5119699e81be"},"vehicle_type_id":"4","last_reported":1757873503,"current_range_meters":12000,"station_id":"","pricing_plan_id":"cebpf4jnsgd1na2vs0mg"},{"bike_id":"753cac42-95e7-4905-9e07-e2edfddfe3aa","system_id":"levelo_inurba_marseille","lat":43.31491,"lon":5.37308,"is_reserved":false,"is_disabled":false,"rental_uris":{"android":"levelo://app?vid=753cac42-95e7-4905-9e07-e2edfddfe3aa","ios":"levelo://app?vid=753cac42-95e7-4905-9e07-e2edfddfe3aa"},"vehicle_type_id":"4","last_reported":1757873503,"current_range_meters":11600,"station_id":"ce4bgt12rcd13ifvqcd0","pricing_plan_id":"cebpf4jnsgd1na2vs0mg"},{"bike_id":"f0f91981-97a4-4847-ba72-080bc75ab7b1","system_id":"levelo_inurba_marseille","lat":43.2533,"lon":5.42167,"is_reserved":false,"is_disabled":true,"rental_uris":{"android":"levelo://app?vid=f0f91981-97a4-4847-ba72-080bc75ab7b1","ios":"levelo://app?vid=f0f91981-97a4-4847-ba72-080bc75ab7b1"},"vehicle_type_id":"4","last_reported":1757873503,"current_range_meters":12000,"station_id":"st_d2m65c5bi1j21697t3ng","pricing_plan_id":"cebpf4jnsgd1na2vs0mg"},{"bike_id":"5021f1a8-2e3b-4873-97d1-30ef7876c437","system_id":"levelo_inurba_marseille","lat":43.23152,"lon":5.43721,"is_reserved":false,"is_disabled":false,"rental_uris":{"android":"levelo://app?vid=5021f1a8-2e3b-4873-97d1-30ef7876c437","ios":"levelo://app?vid=5021f1a8-2e3b-4873-97d1-30ef7876c437"},"vehicle_type_id":"4","last_reported":1757873503,"current_range_meters":12000,"station_id":"ce4bhmp2rcd13ifvqgog","pricing_plan_id":"cebpf4jnsgd1na2vs0mg"},{"bike_id":"daf6eb47-c310-4e4f-8488-f49a0ba00399","system_id":"levelo_inurba_marseille","lat":43.30091,"lon":5.36418,"is_reserved":false,"is_disabled":false,"rental_uris":{"android":"levelo://app?vid=daf6eb47-c310-4e4f-8488-f49a0ba00399","ios":"levelo://app?vid=daf6eb47-c310-4e4f-8488-f49a0ba00399"},"vehicle_type_id":"4","last_reported":1757873503,"current_range_meters":12400,"station_id":"","pricing_plan_id":"cebpf4jnsgd1na2vs0mg"},{"bike_id":"bb8dab7d-aee3-409e-9014-7af49f6668e2","system_id":"levelo_inurba_marseille","lat":43.28464,"lon":5.3589,"is_reserved":false,"is_disabled":false,"rental_uris":{"android":"levelo://app?vid=bb8dab7d-aee3-409e-9014-7af49f6668e2","ios":"levelo://app?vid=bb8dab7d-aee3-409e-9014-7af49f6668e2"},"vehicle_type_id":"4","last_reported":1757873503,"current_range_meters":12400,"station_id":"ce4bhah2rcd13ifvqei0","pricing_plan_id":"cebpf4jnsgd1na2vs0mg"},{"bike_id":"b27aec61-2b96-4707-bde6-1d443762f6ae","system_id":"levelo_inurba_marseille","lat":43.28693,"lon":5.37388,"is_reserved":false,"is_disabled":false,"rental_uris":{"android":"levelo://app?vid=b27aec61-2b96-4707-bde6-1d443762f6ae","ios":"levelo://app?vid=b27aec61-2b96-4707-bde6-1d443762f6ae"},"vehicle_type_id":"4","last_reported":1757873503,"current_range_meters":12400,"station_id":"ce4bh3p2rcd13ifvqdq0","pricing_plan_id":"cebpf4jnsgd1na2vs0mg"},{"bike_id":"bfb7bbce-6cb1-45bd-9017-136ca15bddf8","system_id":"levelo_inurba_marseille","lat":43.30222,"lon":5.39467,"is_reserved":false,"is_disabled":false,"rental_uris":{"android":"levelo://app?vid=bfb7bbce-6cb1-45bd-9017-136ca15bddf8","ios":"levelo://app?vid=bfb7bbce-6cb1-45bd-9017-136ca15bddf8"},"vehicle_type_id":"4","last_reported":1757873503,"current_range_meters":14400,"station_id":"ce4bh0p2rcd13ifvqd70","pricing_plan_id":"cebpf4jnsgd1na2vs0mg"},{"bike_id":"8ab60a89-bd14-40d7-b359-020ea126cfef","system_id":"levelo_inurba_marseille","lat":43.3236,"lon":5.36759,"is_reserved":false,"is_disabled":false,"rental_uris":{"android":"levelo://app?vid=8ab60a89-bd14-40d7-b359-020ea126cfef","ios":"levelo://app?vid=8ab60a89-bd14-40d7-b359-020ea126cfef"},"vehicle_type_id":"4","last_reported":1757873503,"current_range_meters":12400,"station_id":"ce4bhsh2rcd13ifvqi2g","pricing_plan_id":"cebpf4jnsgd1na2vs0mg"},{"bike_id":"8a6c01b0-083d-4b97-81ab-26c6d55e6634","system_id":"levelo_inurba_marseille","lat":43.31538,"lon":5.38049,"is_reserved":false,"is_disabled":false,"rental_uris":{"android":"levelo://app?vid=8a6c01b0-083d-4b97-81ab-26c6d55e6634","ios":"levelo://app?vid=8a6c01b0-083d-4b97-81ab-26c6d55e6634"},"vehicle_type_id":"4","last_reported":1757873503,"current_range_meters":12400,"station_id":"ce4bhsp2rcd13ifvqi50","pricing_plan_id":"cebpf4jnsgd1na2vs0mg"},{"bike_id":"b4c8b034-63af-4848-b400-bf779911b495","system_id":"levelo_inurba_marseille","lat":43.3188,"lon":5.40736,"is_reserved":false,"is_disabled":false,"rental_uris":{"android":"levelo://app?vid=b4c8b034-63af-4848-b400-bf779911b495","ios":"levelo://app?vid=b4c8b034-63af-4848-b400-bf779911b495"},"vehicle_type_id":"4","last_reported":1757873503,"current_range_meters":12400,"station_id":"ce4bhq12rcd13ifvqhig","pricing_plan_id":"cebpf4jnsgd1na2vs0mg"},{"bike_id":"b9ddc4cb-63dd-4d34-bd5c-1d7f46219a05","system_id":"levelo_inurba_marseille","lat":43.29304,"lon":5.37175,"is_reserved":false,"is_disabled":false,"rental_uris":{"android":"levelo://app?vid=b9ddc4cb-63dd-4d34-bd5c-1d7f46219a05","ios":"levelo://app?vid=b9ddc4cb-63dd-4d34-bd5c-1d7f46219a05"},"vehicle_type_id":"4","last_reported":1757873503,"current_range_meters":12400,"station_id":"ce4bgh92rcd13ifvqb40","pricing_plan_id":"cebpf4jnsgd1na2vs0mg"},{"bike_id":"0c1e8249-01f4-4517-859f-d097f19d45c2","system_id":"levelo_inurba_marseille","lat":43.25499,"lon":5.37654,"is_reserved":false,"is_disabled":false,"rental_uris":{"android":"levelo://app?vid=0c1e8249-01f4-4517-859f-d097f19d45c2","ios":"levelo://app?vid=0c1e8249-01f4-4517-859f-d097f19d45c2"},"vehicle_type_id":"4","last_reported":1757873503,"current_range_meters":16400,"station_id":"ce4bhh12rcd13ifvqff0","pricing_plan_id":"cebpf4jnsgd1na2vs0mg"},{"bike_id":"85db8ab9-6b24-4c23-8762-109e948df9cd","system_id":"levelo_inurba_marseille","lat":43.306033,"lon":5.404591,"is_reserved":false,"is_disabled":false,"rental_uris":{"android":"levelo://app?vid=85db8ab9-6b24-4c23-8762-109e948df9cd","ios":"levelo://app?vid=85db8ab9-6b24-4c23-8762-109e948df9cd"},"vehicle_type_id":"4","last_reported":1757873503,"current_range_meters":12800,"station_id":"","pricing_plan_id":"cebpf4jnsgd1na2vs0mg"},{"bike_id":"53e261c9-8d2a-4316-ba8f-ee6d9e6b7616","system_id":"levelo_inurba_marseille","lat":43.28611,"lon":5.35094,"is_reserved":false,"is_disabled":true,"rental_uris":{"android":"levelo://app?vid=53e261c9-8d2a-4316-ba8f-ee6d9e6b7616","ios":"levelo://app?vid=53e261c9-8d2a-4316-ba8f-ee6d9e6b7616"},"vehicle_type_id":"4","last_reported":1757873503,"current_range_meters":12800,"station_id":"ce4bhch2rcd13ifvqeug","pricing_plan_id":"cebpf4jnsgd1na2vs0mg"},{"bike_id":"0b7cf587-d237-44ba-b350-52bcad26e90f","system_id":"levelo_inurba_marseille","lat":43.29551,"lon":5.42281,"is_reserved":false,"is_disabled":false,"rental_uris":{"android":"levelo://app?vid=0b7cf587-d237-44ba-b350-52bcad26e90f","ios":"levelo://app?vid=0b7cf587-d237-44ba-b350-52bcad26e90f"},"vehicle_type_id":"4","last_reported":1757873503,"current_range_meters":12400,"station_id":"ce4bhph2rcd13ifvqhdg","pricing_plan_id":"cebpf4jnsgd1na2vs0mg"},{"bike_id":"fbd0328c-4ce4-4080-b126-d2d47d815fa6","system_id":"levelo_inurba_marseille","lat":43.21743,"lon":5.34617,"is_reserved":false,"is_disabled":true,"rental_uris":{"android":"levelo://app?vid=fbd0328c-4ce4-4080-b126-d2d47d815fa6","ios":"levelo://app?vid=fbd0328c-4ce4-4080-b126-d2d47d815fa6"},"vehicle_type_id":"4","last_reported":1757873503,"current_range_meters":12800,"station_id":"st_cvj6r9ubvosntc0bgbag","pricing_plan_id":"cebpf4jnsgd1na2vs0mg"},{"bike_id":"7ff21013-eedb-4849-b3ec-e5e3eb2ca241","system_id":"levelo_inurba_marseille","lat":43.24077,"lon":5.37756,"is_reserved":false,"is_disabled":false,"rental_uris":{"android":"levelo://app?vid=7ff21013-eedb-4849-b3ec-e5e3eb2ca241","ios":"levelo://app?vid=7ff21013-eedb-4849-b3ec-e5e3eb2ca241"},"vehicle_type_id":"4","last_reported":1757873503,"current_range_meters":12800,"station_id":"ce4bhnp2rcd13ifvqgvg","pricing_plan_id":"cebpf4jnsgd1na2vs0mg"},{"bike_id":"fccbb0a6-7a81-412c-a9fb-c31e6248f13e","system_id":"levelo_inurba_marseille","lat":43.29076,"lon":5.37152,"is_reserved":false,"is_disabled":false,"rental_uris":{"android":"levelo://app?vid=fccbb0a6-7a81-412c-a9fb-c31e6248f13e","ios":"levelo://app?vid=fccbb0a6-7a81-412c-a9fb-c31e6248f13e"},"vehicle_type_id":"4","last_reported":1757873503,"current_range_meters":12800,"station_id":"ce4bh5p2rcd13ifvqe4g","pricing_plan_id":"cebpf4jnsgd1na2vs0mg"},{"bike_id":"56d1d1ee-f77b-4544-8fea-6720c47bce02","system_id":"levelo_inurba_marseille","lat":43.30887,"lon":5.39649,"is_reserved":false,"is_disabled":false,"rental_uris":{"android":"levelo://app?vid=56d1d1ee-f77b-4544-8fea-6720c47bce02","ios":"levelo://app?vid=56d1d1ee-f77b-4544-8fea-6720c47bce02"},"vehicle_type_id":"4","last_reported":1757873503,"current_range_meters":15200,"station_id":"ce4bh012rcd13ifvqcv0","pricing_plan_id":"cebpf4jnsgd1na2vs0mg"},{"bike_id":"6f688d13-5d68-4ea3-9890-a51a37e6a99f","system_id":"levelo_inurba_marseille","lat":43.28623,"lon":5.37051,"is_reserved":false,"is_disabled":false,"rental_uris":{"android":"levelo://app?vid=6f688d13-5d68-4ea3-9890-a51a37e6a99f","ios":"levelo://app?vid=6f688d13-5d68-4ea3-9890-a51a37e6a99f"},"vehicle_type_id":"4","last_reported":1757873503,"current_range_meters":13600,"station_id":"ce4bht12rcd13ifvqi60","pricing_plan_id":"cebpf4jnsgd1na2vs0mg"},{"bike_id":"d9c4202c-de13-4428-8c40-40d90faf1618","system_id":"levelo_inurba_marseille","lat":43.31356,"lon":5.3707,"is_reserved":false,"is_disabled":false,"rental_uris":{"android":"levelo://app?vid=d9c4202c-de13-4428-8c40-40d90faf1618","ios":"levelo://app?vid=d9c4202c-de13-4428-8c40-40d90faf1618"},"vehicle_type_id":"4","last_reported":1757873503,"current_range_meters":13600,"station_id":"","pricing_plan_id":"cebpf4jnsgd1na2vs0mg"},{"bike_id":"26fb7b99-6c61-42a9-86e0-57eb665302d2","system_id":"levelo_inurba_marseille","lat":43.29041,"lon":5.39957,"is_reserved":false,"is_disabled":false,"rental_uris":{"android":"levelo://app?vid=26fb7b99-6c61-42a9-86e0-57eb665302d2","ios":"levelo://app?vid=26fb7b99-6c61-42a9-86e0-57eb665302d2"},"vehicle_type_id":"4","last_reported":1757873503,"current_range_meters":14000,"station_id":"ce4bh392rcd13ifvqdm0","pricing_plan_id":"cebpf4jnsgd1na2vs0mg"},{"bike_id":"2f3f8715-c4a4-42b9-973d-d3c8f41c90db","system_id":"levelo_inurba_marseille","lat":43.3173,"lon":5.43714,"is_reserved":false,"is_disabled":false,"rental_uris":{"android":"levelo://app?vid=2f3f8715-c4a4-42b9-973d-d3c8f41c90db","ios":"levelo://app?vid=2f3f8715-c4a4-42b9-973d-d3c8f41c90db"},"vehicle_type_id":"4","last_reported":1757873503,"current_range_meters":13600,"station_id":"ce4bhp92rcd13ifvqhcg","pricing_plan_id":"cebpf4jnsgd1na2vs0mg"},{"bike_id":"42f0d81d-d8a1-45d0-8bb4-bc801a51727f","system_id":"levelo_inurba_marseille","lat":43.28689,"lon":5.3745,"is_reserved":false,"is_disabled":false,"rental_uris":{"android":"levelo://app?vid=42f0d81d-d8a1-45d0-8bb4-bc801a51727f","ios":"levelo://app?vid=42f0d81d-d8a1-45d0-8bb4-bc801a51727f"},"vehicle_type_id":"4","last_reported":1757873503,"current_range_meters":13600,"station_id":"ce4bh3p2rcd13ifvqdq0","pricing_plan_id":"cebpf4jnsgd1na2vs0mg"},{"bike_id":"06079039-1818-42e8-94ae-3a86cbbe1cf6","system_id":"levelo_inurba_marseille","lat":43.29253,"lon":5.40907,"is_reserved":false,"is_disabled":false,"rental_uris":{"android":"levelo://app?vid=06079039-1818-42e8-94ae-3a86cbbe1cf6","ios":"levelo://app?vid=06079039-1818-42e8-94ae-3a86cbbe1cf6"},"vehicle_type_id":"4","last_reported":1757873503,"current_range_meters":14000,"station_id":"ce4bh192rcd13ifvqdc0","pricing_plan_id":"cebpf4jnsgd1na2vs0mg"},{"bike_id":"867a06c4-c507-468c-a42b-66dfa736196d","system_id":"levelo_inurba_marseille","lat":43.28421,"lon":5.35017,"is_reserved":false,"is_disabled":true,"rental_uris":{"android":"levelo://app?vid=867a06c4-c507-468c-a42b-66dfa736196d","ios":"levelo://app?vid=867a06c4-c507-468c-a42b-66dfa736196d"},"vehicle_type_id":"4","last_reported":1757873503,"current_range_meters":14000,"station_id":"ce4bhbh2rcd13ifvqepg","pricing_plan_id":"cebpf4jnsgd1na2vs0mg"},{"bike_id":"e9ad5fe9-14f6-4073-8260-627262d67c90","system_id":"levelo_inurba_marseille","lat":43.296325,"lon":5.37715,"is_reserved":false,"is_disabled":false,"rental_uris":{"android":"levelo://app?vid=e9ad5fe9-14f6-4073-8260-627262d67c90","ios":"levelo://app?vid=e9ad5fe9-14f6-4073-8260-627262d67c90"},"vehicle_type_id":"4","last_reported":1757873503,"current_range_meters":14000,"station_id":"ce4bgi92rcd13ifvqb90","pricing_plan_id":"cebpf4jnsgd1na2vs0mg"},{"bike_id":"98ec5e77-8c7d-4793-bc7a-6d9a5110750c","system_id":"levelo_inurba_marseille","lat":43.29032,"lon":5.38669,"is_reserved":false,"is_disabled":false,"rental_uris":{"android":"levelo://app?vid=98ec5e77-8c7d-4793-bc7a-6d9a5110750c","ios":"levelo://app?vid=98ec5e77-8c7d-4793-bc7a-6d9a5110750c"},"vehicle_type_id":"4","last_reported":1757873503,"current_range_meters":14000,"station_id":"ce4bh4p2rcd13ifvqe0g","pricing_plan_id":"cebpf4jnsgd1na2vs0mg"},{"bike_id":"b045a291-de61-4ba2-a3cf-3ab5d9c80345","system_id":"levelo_inurba_marseille","lat":43.31994,"lon":5.3817,"is_reserved":false,"is_disabled":false,"rental_uris":{"android":"levelo://app?vid=b045a291-de61-4ba2-a3cf-3ab5d9c80345","ios":"levelo://app?vid=b045a291-de61-4ba2-a3cf-3ab5d9c80345"},"vehicle_type_id":"4","last_reported":1757873503,"current_range_meters":13600,"station_id":"ce4bhr12rcd13ifvqhpg","pricing_plan_id":"cebpf4jnsgd1na2vs0mg"},{"bike_id":"e8930cfa-2c36-4dbf-ab3e-6afdedf38824","system_id":"levelo_inurba_marseille","lat":43.22569,"lon":5.41629,"is_reserved":false,"is_disabled":false,"rental_uris":{"android":"levelo://app?vid=e8930cfa-2c36-4dbf-ab3e-6afdedf38824","ios":"levelo://app?vid=e8930cfa-2c36-4dbf-ab3e-6afdedf38824"},"vehicle_type_id":"4","last_reported":1757873503,"current_range_meters":14000,"station_id":"st_d2o4gvlbi1j2169b742g","pricing_plan_id":"cebpf4jnsgd1na2vs0mg"},{"bike_id":"4d6e6605-7f16-44fa-a19a-c138ee7cb360","system_id":"levelo_inurba_marseille","lat":43.33799,"lon":5.37446,"is_reserved":false,"is_disabled":false,"rental_uris":{"android":"levelo://app?vid=4d6e6605-7f16-44fa-a19a-c138ee7cb360","ios":"levelo://app?vid=4d6e6605-7f16-44fa-a19a-c138ee7cb360"},"vehicle_type_id":"4","last_reported":1757873503,"current_range_meters":14000,"station_id":"","pricing_plan_id":"cebpf4jnsgd1na2vs0mg"},{"bike_id":"2d4f8702-f871-4299-b471-061f32bc7f69","system_id":"levelo_inurba_marseille","lat":43.22565,"lon":5.41638,"is_reserved":false,"is_disabled":false,"rental_uris":{"android":"levelo://app?vid=2d4f8702-f871-4299-b471-061f32bc7f69","ios":"levelo://app?vid=2d4f8702-f871-4299-b471-061f32bc7f69"},"vehicle_type_id":"4","last_reported":1757873503,"current_range_meters":14000,"station_id":"st_d2o4gvlbi1j2169b742g","pricing_plan_id":"cebpf4jnsgd1na2vs0mg"},{"bike_id":"e06d2e94-3ae2-4b4b-9d7e-05d3f806365a","system_id":"levelo_inurba_marseille","lat":43.25828,"lon":5.39442,"is_reserved":false,"is_disabled":false,"rental_uris":{"android":"levelo://app?vid=e06d2e94-3ae2-4b4b-9d7e-05d3f806365a","ios":"levelo://app?vid=e06d2e94-3ae2-4b4b-9d7e-05d3f806365a"},"vehicle_type_id":"4","last_reported":1757873503,"current_range_meters":14000,"station_id":"ce4bhip2rcd13ifvqft0","pricing_plan_id":"cebpf4jnsgd1na2vs0mg"},{"bike_id":"7d7b03c9-f46f-4377-b089-b2019aae399f","system_id":"levelo_inurba_marseille","lat":43.23188,"lon":5.3999,"is_reserved":false,"is_disabled":true,"rental_uris":{"android":"levelo://app?vid=7d7b03c9-f46f-4377-b089-b2019aae399f","ios":"levelo://app?vid=7d7b03c9-f46f-4377-b089-b2019aae399f"},"vehicle_type_id":"4","last_reported":1757873503,"current_range_meters":14000,"station_id":"ce4bhn12rcd13ifvqgqg","pricing_plan_id":"cebpf4jnsgd1na2vs0mg"},{"bike_id":"1fd2edf2-65c9-4d68-b7ae-1c08ddc7b7d2","system_id":"levelo_inurba_marseille","lat":43.28083,"lon":5.39662,"is_reserved":false,"is_disabled":false,"rental_uris":{"android":"levelo://app?vid=1fd2edf2-65c9-4d68-b7ae-1c08ddc7b7d2","ios":"levelo://app?vid=1fd2edf2-65c9-4d68-b7ae-1c08ddc7b7d2"},"vehicle_type_id":"4","last_reported":1757873503,"current_range_meters":14000,"station_id":"ce4bho12rcd13ifvqh2g","pricing_plan_id":"cebpf4jnsgd1na2vs0mg"},{"bike_id":"d9624274-17bf-4b70-846f-a799e80d6c51","system_id":"levelo_inurba_marseille","lat":43.30925,"lon":5.40151,"is_reserved":false,"is_disabled":false,"rental_uris":{"android":"levelo://app?vid=d9624274-17bf-4b70-846f-a799e80d6c51","ios":"levelo://app?vid=d9624274-17bf-4b70-846f-a799e80d6c51"},"vehicle_type_id":"4","last_reported":1757873503,"current_range_meters":13600,"station_id":"ce4bgvp2rcd13ifvqct0","pricing_plan_id":"cebpf4jnsgd1na2vs0mg"},{"bike_id":"ca3e6e40-39a6-495d-900a-7b746d784a39","system_id":"levelo_inurba_marseille","lat":43.28109,"lon":5.37829,"is_reserved":false,"is_disabled":false,"rental_uris":{"android":"levelo://app?vid=ca3e6e40-39a6-495d-900a-7b746d784a39","ios":"levelo://app?vid=ca3e6e40-39a6-495d-900a-7b746d784a39"},"vehicle_type_id":"4","last_reported":1757873503,"current_range_meters":14000,"station_id":"ce4bha12rcd13ifvqee0","pricing_plan_id":"cebpf4jnsgd1na2vs0mg"},{"bike_id":"795543a3-4d40-47a2-ba91-0c0d7988d4cf","system_id":"levelo_inurba_marseille","lat":43.27377,"lon":5.36252,"is_reserved":false,"is_disabled":true,"rental_uris":{"android":"levelo://app?vid=795543a3-4d40-47a2-ba91-0c0d7988d4cf","ios":"levelo://app?vid=795543a3-4d40-47a2-ba91-0c0d7988d4cf"},"vehicle_type_id":"4","last_reported":1757873503,"current_range_meters":14400,"station_id":"ce4bhbh2rcd13ifvqeo0","pricing_plan_id":"cebpf4jnsgd1na2vs0mg"},{"bike_id":"7c1f1d0c-fe61-4aed-9952-04f35ab1400d","system_id":"levelo_inurba_marseille","lat":43.29235,"lon":5.38452,"is_reserved":false,"is_disabled":false,"rental_uris":{"android":"levelo://app?vid=7c1f1d0c-fe61-4aed-9952-04f35ab1400d","ios":"levelo://app?vid=7c1f1d0c-fe61-4aed-9952-04f35ab1400d"},"vehicle_type_id":"4","last_reported":1757873503,"current_range_meters":14400,"station_id":"ce4bh692rcd13ifvqea0","pricing_plan_id":"cebpf4jnsgd1na2vs0mg"},{"bike_id":"053ebac7-7e7d-47a1-8128-fe80f5d2606b","system_id":"levelo_inurba_marseille","lat":43.29716,"lon":5.37691,"is_reserved":false,"is_disabled":false,"rental_uris":{"android":"levelo://app?vid=053ebac7-7e7d-47a1-8128-fe80f5d2606b","ios":"levelo://app?vid=053ebac7-7e7d-47a1-8128-fe80f5d2606b"},"vehicle_type_id":"4","last_reported":1757873503,"current_range_meters":14400,"station_id":"ce4bgkh2rcd13ifvqbl0","pricing_plan_id":"cebpf4jnsgd1na2vs0mg"},{"bike_id":"f75319f4-d3a6-440f-9c89-5af7f4acd041","system_id":"levelo_inurba_marseille","lat":43.22555,"lon":5.41629,"is_reserved":false,"is_disabled":false,"rental_uris":{"android":"levelo://app?vid=f75319f4-d3a6-440f-9c89-5af7f4acd041","ios":"levelo://app?vid=f75319f4-d3a6-440f-9c89-5af7f4acd041"},"vehicle_type_id":"4","last_reported":1757873503,"current_range_meters":14800,"station_id":"st_d2o4gvlbi1j2169b742g","pricing_plan_id":"cebpf4jnsgd1na2vs0mg"},{"bike_id":"d8d2a7a3-cbe3-4c35-84c6-8d1ff296053a","system_id":"levelo_inurba_marseille","lat":43.294112,"lon":5.374004,"is_reserved":false,"is_disabled":false,"rental_uris":{"android":"levelo://app?vid=d8d2a7a3-cbe3-4c35-84c6-8d1ff296053a","ios":"levelo://app?vid=d8d2a7a3-cbe3-4c35-84c6-8d1ff296053a"},"vehicle_type_id":"4","last_reported":1757873503,"current_range_meters":14800,"station_id":"ce4bgop2rcd13ifvqc1g","pricing_plan_id":"cebpf4jnsgd1na2vs0mg"},{"bike_id":"564ba669-16c8-44a9-8db5-378864438f15","system_id":"levelo_inurba_marseille","lat":43.30418,"lon":5.41275,"is_reserved":false,"is_disabled":false,"rental_uris":{"android":"levelo://app?vid=564ba669-16c8-44a9-8db5-378864438f15","ios":"levelo://app?vid=564ba669-16c8-44a9-8db5-378864438f15"},"vehicle_type_id":"4","last_reported":1757873503,"current_range_meters":14800,"station_id":"ce4bhop2rcd13ifvqh8g","pricing_plan_id":"cebpf4jnsgd1na2vs0mg"},{"bike_id":"319a870a-15ff-4a5d-90ce-1278355c75c3","system_id":"levelo_inurba_marseille","lat":43.28084,"lon":5.39664,"is_reserved":false,"is_disabled":false,"rental_uris":{"android":"levelo://app?vid=319a870a-15ff-4a5d-90ce-1278355c75c3","ios":"levelo://app?vid=319a870a-15ff-4a5d-90ce-1278355c75c3"},"vehicle_type_id":"4","last_reported":1757873503,"current_range_meters":14800,"station_id":"ce4bho12rcd13ifvqh2g","pricing_plan_id":"cebpf4jnsgd1na2vs0mg"},{"bike_id":"b2fba456-5a3b-40c6-8765-ad84661db187","system_id":"levelo_inurba_marseille","lat":43.257205,"lon":5.411136,"is_reserved":false,"is_disabled":true,"rental_uris":{"android":"levelo://app?vid=b2fba456-5a3b-40c6-8765-ad84661db187","ios":"levelo://app?vid=b2fba456-5a3b-40c6-8765-ad84661db187"},"vehicle_type_id":"4","last_reported":1757873503,"current_range_meters":14800,"station_id":"ce4bhkp2rcd13ifvqgd0","pricing_plan_id":"cebpf4jnsgd1na2vs0mg"},{"bike_id":"f57245bb-ec07-45a1-bfcb-432e5ec88da0","system_id":"levelo_inurba_marseille","lat":43.25002,"lon":5.38939,"is_reserved":false,"is_disabled":false,"rental_uris":{"android":"levelo://app?vid=f57245bb-ec07-45a1-bfcb-432e5ec88da0","ios":"levelo://app?vid=f57245bb-ec07-45a1-bfcb-432e5ec88da0"},"vehicle_type_id":"4","last_reported":1757873503,"current_range_meters":14800,"station_id":"ce4bhgp2rcd13ifvqfd0","pricing_plan_id":"cebpf4jnsgd1na2vs0mg"},{"bike_id":"746f8f66-7f46-4e2a-8f64-942936320bf9","system_id":"levelo_inurba_marseille","lat":43.23959,"lon":5.36631,"is_reserved":false,"is_disabled":true,"rental_uris":{"android":"levelo://app?vid=746f8f66-7f46-4e2a-8f64-942936320bf9","ios":"levelo://app?vid=746f8f66-7f46-4e2a-8f64-942936320bf9"},"vehicle_type_id":"4","last_reported":1757873503,"current_range_meters":14800,"station_id":"ce4bhi12rcd13ifvqfp0","pricing_plan_id":"cebpf4jnsgd1na2vs0mg"},{"bike_id":"f2716c8e-a615-422e-8355-a217d6b8fc45","system_id":"levelo_inurba_marseille","lat":43.299745,"lon":5.371875,"is_reserved":false,"is_disabled":false,"rental_uris":{"android":"levelo://app?vid=f2716c8e-a615-422e-8355-a217d6b8fc45","ios":"levelo://app?vid=f2716c8e-a615-422e-8355-a217d6b8fc45"},"vehicle_type_id":"4","last_reported":1757873503,"current_range_meters":15200,"station_id":"ce4bgr92rcd13ifvqc7g","pricing_plan_id":"cebpf4jnsgd1na2vs0mg"},{"bike_id":"e7a329bd-ed66-4ac7-aaba-63f2810ddd86","system_id":"levelo_inurba_marseille","lat":43.31936,"lon":5.3715,"is_reserved":false,"is_disabled":false,"rental_uris":{"android":"levelo://app?vid=e7a329bd-ed66-4ac7-aaba-63f2810ddd86","ios":"levelo://app?vid=e7a329bd-ed66-4ac7-aaba-63f2810ddd86"},"vehicle_type_id":"4","last_reported":1757873503,"current_range_meters":15200,"station_id":"","pricing_plan_id":"cebpf4jnsgd1na2vs0mg"},{"bike_id":"b002a392-08fa-4b2e-b212-3e002cd96c5d","system_id":"levelo_inurba_marseille","lat":43.23976,"lon":5.36613,"is_reserved":false,"is_disabled":false,"rental_uris":{"android":"levelo://app?vid=b002a392-08fa-4b2e-b212-3e002cd96c5d","ios":"levelo://app?vid=b002a392-08fa-4b2e-b212-3e002cd96c5d"},"vehicle_type_id":"4","last_reported":1757873503,"current_range_meters":15200,"station_id":"ce4bhi12rcd13ifvqfp0","pricing_plan_id":"cebpf4jnsgd1na2vs0mg"},{"bike_id":"950a5f0c-6122-4d8d-a42b-4763023d14f2","system_id":"levelo_inurba_marseille","lat":43.2549,"lon":5.37653,"is_reserved":false,"is_disabled":true,"rental_uris":{"android":"levelo://app?vid=950a5f0c-6122-4d8d-a42b-4763023d14f2","ios":"levelo://app?vid=950a5f0c-6122-4d8d-a42b-4763023d14f2"},"vehicle_type_id":"4","last_reported":1757873503,"current_range_meters":16000,"station_id":"ce4bhh12rcd13ifvqff0","pricing_plan_id":"cebpf4jnsgd1na2vs0mg"},{"bike_id":"e05eea5e-3ede-4b75-8a49-e9854c3d159d","system_id":"levelo_inurba_marseille","lat":43.28617,"lon":5.35101,"is_reserved":false,"is_disabled":true,"rental_uris":{"android":"levelo://app?vid=e05eea5e-3ede-4b75-8a49-e9854c3d159d","ios":"levelo://app?vid=e05eea5e-3ede-4b75-8a49-e9854c3d159d"},"vehicle_type_id":"4","last_reported":1757873503,"current_range_meters":16000,"station_id":"ce4bhch2rcd13ifvqeug","pricing_plan_id":"cebpf4jnsgd1na2vs0mg"},{"bike_id":"ef0bf49c-3536-4c6d-93e5-132f28458339","system_id":"levelo_inurba_marseille","lat":43.280304,"lon":5.36953,"is_reserved":false,"is_disabled":false,"rental_uris":{"android":"levelo://app?vid=ef0bf49c-3536-4c6d-93e5-132f28458339","ios":"levelo://app?vid=ef0bf49c-3536-4c6d-93e5-132f28458339"},"vehicle_type_id":"4","last_reported":1757873503,"current_range_meters":16000,"station_id":"ce4bha12rcd13ifvqef0","pricing_plan_id":"cebpf4jnsgd1na2vs0mg"},{"bike_id":"15c12f1b-150c-43be-9134-ac05fb9a1bef","system_id":"levelo_inurba_marseille","lat":43.29066,"lon":5.37147,"is_reserved":false,"is_disabled":true,"rental_uris":{"android":"levelo://app?vid=15c12f1b-150c-43be-9134-ac05fb9a1bef","ios":"levelo://app?vid=15c12f1b-150c-43be-9134-ac05fb9a1bef"},"vehicle_type_id":"4","last_reported":1757873503,"current_range_meters":16000,"station_id":"ce4bh5p2rcd13ifvqe4g","pricing_plan_id":"cebpf4jnsgd1na2vs0mg"},{"bike_id":"05ea2b7f-838d-43ef-b6fd-12a81d59bd32","system_id":"levelo_inurba_marseille","lat":43.27494,"lon":5.42448,"is_reserved":false,"is_disabled":false,"rental_uris":{"android":"levelo://app?vid=05ea2b7f-838d-43ef-b6fd-12a81d59bd32","ios":"levelo://app?vid=05ea2b7f-838d-43ef-b6fd-12a81d59bd32"},"vehicle_type_id":"4","last_reported":1757873503,"current_range_meters":16000,"station_id":"ce4bhn92rcd13ifvqgrg","pricing_plan_id":"cebpf4jnsgd1na2vs0mg"},{"bike_id":"3afb3fda-90e3-4d5b-9e59-cd271504e04d","system_id":"levelo_inurba_marseille","lat":43.2979,"lon":5.39354,"is_reserved":false,"is_disabled":false,"rental_uris":{"android":"levelo://app?vid=3afb3fda-90e3-4d5b-9e59-cd271504e04d","ios":"levelo://app?vid=3afb3fda-90e3-4d5b-9e59-cd271504e04d"},"vehicle_type_id":"4","last_reported":1757873503,"current_range_meters":16000,"station_id":"chh1huq6cuj3fo74tm60","pricing_plan_id":"cebpf4jnsgd1na2vs0mg"},{"bike_id":"3a245337-95ae-4d1c-a654-7e5649e655e3","system_id":"levelo_inurba_marseille","lat":43.29581,"lon":5.36744,"is_reserved":false,"is_disabled":false,"rental_uris":{"android":"levelo://app?vid=3a245337-95ae-4d1c-a654-7e5649e655e3","ios":"levelo://app?vid=3a245337-95ae-4d1c-a654-7e5649e655e3"},"vehicle_type_id":"4","last_reported":1757873503,"current_range_meters":16000,"station_id":"ce4bgph2rcd13ifvqc2g","pricing_plan_id":"cebpf4jnsgd1na2vs0mg"},{"bike_id":"11ad8891-c33b-4f02-be5e-e0c70eba8d31","system_id":"levelo_inurba_marseille","lat":43.29196,"lon":5.39313,"is_reserved":false,"is_disabled":false,"rental_uris":{"android":"levelo://app?vid=11ad8891-c33b-4f02-be5e-e0c70eba8d31","ios":"levelo://app?vid=11ad8891-c33b-4f02-be5e-e0c70eba8d31"},"vehicle_type_id":"4","last_reported":1757873503,"current_range_meters":16000,"station_id":"ce4bh192rcd13ifvqdd0","pricing_plan_id":"cebpf4jnsgd1na2vs0mg"},{"bike_id":"fe4773e5-220f-4622-89c9-2a98ef024789","system_id":"levelo_inurba_marseille","lat":43.24643,"lon":5.38901,"is_reserved":false,"is_disabled":false,"rental_uris":{"android":"levelo://app?vid=fe4773e5-220f-4622-89c9-2a98ef024789","ios":"levelo://app?vid=fe4773e5-220f-4622-89c9-2a98ef024789"},"vehicle_type_id":"4","last_reported":1757873503,"current_range_meters":16000,"station_id":"ce4bhg12rcd13ifvqf60","pricing_plan_id":"cebpf4jnsgd1na2vs0mg"},{"bike_id":"512d6552-2c9e-4c40-b1ca-537e9b0175b2","system_id":"levelo_inurba_marseille","lat":43.279997,"lon":5.416723,"is_reserved":false,"is_disabled":false,"rental_uris":{"android":"levelo://app?vid=512d6552-2c9e-4c40-b1ca-537e9b0175b2","ios":"levelo://app?vid=512d6552-2c9e-4c40-b1ca-537e9b0175b2"},"vehicle_type_id":"4","last_reported":1757873503,"current_range_meters":16400,"station_id":"ce4bho12rcd13ifvqh1g","pricing_plan_id":"cebpf4jnsgd1na2vs0mg"},{"bike_id":"046ba709-b940-4fa3-9690-1d81db536e4b","system_id":"levelo_inurba_marseille","lat":43.22541,"lon":5.41643,"is_reserved":false,"is_disabled":false,"rental_uris":{"android":"levelo://app?vid=046ba709-b940-4fa3-9690-1d81db536e4b","ios":"levelo://app?vid=046ba709-b940-4fa3-9690-1d81db536e4b"},"vehicle_type_id":"4","last_reported":1757873503,"current_range_meters":16400,"station_id":"st_d2o4gvlbi1j2169b742g","pricing_plan_id":"cebpf4jnsgd1na2vs0mg"},{"bike_id":"e30ee915-2cfa-4776-bfb4-f70f84b1354a","system_id":"levelo_inurba_marseille","lat":43.28688,"lon":5.38657,"is_reserved":false,"is_disabled":false,"rental_uris":{"android":"levelo://app?vid=e30ee915-2cfa-4776-bfb4-f70f84b1354a","ios":"levelo://app?vid=e30ee915-2cfa-4776-bfb4-f70f84b1354a"},"vehicle_type_id":"4","last_reported":1757873503,"current_range_meters":16400,"station_id":"ce4bh492rcd13ifvqdug","pricing_plan_id":"cebpf4jnsgd1na2vs0mg"},{"bike_id":"397a1965-20ca-4e56-9040-f9b523084602","system_id":"levelo_inurba_marseille","lat":43.29197,"lon":5.39309,"is_reserved":false,"is_disabled":false,"rental_uris":{"android":"levelo://app?vid=397a1965-20ca-4e56-9040-f9b523084602","ios":"levelo://app?vid=397a1965-20ca-4e56-9040-f9b523084602"},"vehicle_type_id":"4","last_reported":1757873503,"current_range_meters":17600,"station_id":"ce4bh192rcd13ifvqdd0","pricing_plan_id":"cebpf4jnsgd1na2vs0mg"},{"bike_id":"95251c11-6699-4aa0-8909-a444151e2dc9","system_id":"levelo_inurba_marseille","lat":43.240822,"lon":5.377535,"is_reserved":false,"is_disabled":false,"rental_uris":{"android":"levelo://app?vid=95251c11-6699-4aa0-8909-a444151e2dc9","ios":"levelo://app?vid=95251c11-6699-4aa0-8909-a444151e2dc9"},"vehicle_type_id":"4","last_reported":1757873503,"current_range_meters":16400,"station_id":"ce4bhnp2rcd13ifvqgvg","pricing_plan_id":"cebpf4jnsgd1na2vs0mg"},{"bike_id":"f1e672db-2781-4677-99d9-1480a5deeb0d","system_id":"levelo_inurba_marseille","lat":43.29374,"lon":5.37843,"is_reserved":false,"is_disabled":false,"rental_uris":{"android":"levelo://app?vid=f1e672db-2781-4677-99d9-1480a5deeb0d","ios":"levelo://app?vid=f1e672db-2781-4677-99d9-1480a5deeb0d"},"vehicle_type_id":"4","last_reported":1757873503,"current_range_meters":16400,"station_id":"ce4bgjh2rcd13ifvqbf0","pricing_plan_id":"cebpf4jnsgd1na2vs0mg"},{"bike_id":"8f04fe6a-b496-4a33-88d0-7a57c81f211d","system_id":"levelo_inurba_marseille","lat":43.24383,"lon":5.37078,"is_reserved":false,"is_disabled":true,"rental_uris":{"android":"levelo://app?vid=8f04fe6a-b496-4a33-88d0-7a57c81f211d","ios":"levelo://app?vid=8f04fe6a-b496-4a33-88d0-7a57c81f211d"},"vehicle_type_id":"4","last_reported":1757873503,"current_range_meters":16400,"station_id":"ce4bhhh2rcd13ifvqfk0","pricing_plan_id":"cebpf4jnsgd1na2vs0mg"},{"bike_id":"223000a7-94d3-4c0e-806d-c61e275941d9","system_id":"levelo_inurba_marseille","lat":43.29581,"lon":5.38119,"is_reserved":false,"is_disabled":false,"rental_uris":{"android":"levelo://app?vid=223000a7-94d3-4c0e-806d-c61e275941d9","ios":"levelo://app?vid=223000a7-94d3-4c0e-806d-c61e275941d9"},"vehicle_type_id":"4","last_reported":1757873503,"current_range_meters":16400,"station_id":"ce4bgl12rcd13ifvqbo0","pricing_plan_id":"cebpf4jnsgd1na2vs0mg"},{"bike_id":"1d00b1da-40ae-48d9-b03f-193c191a67f1","system_id":"levelo_inurba_marseille","lat":43.2927,"lon":5.40877,"is_reserved":false,"is_disabled":true,"rental_uris":{"android":"levelo://app?vid=1d00b1da-40ae-48d9-b03f-193c191a67f1","ios":"levelo://app?vid=1d00b1da-40ae-48d9-b03f-193c191a67f1"},"vehicle_type_id":"4","last_reported":1757873503,"current_range_meters":16800,"station_id":"ce4bh192rcd13ifvqdc0","pricing_plan_id":"cebpf4jnsgd1na2vs0mg"},{"bike_id":"117b42ce-3e7d-4261-8711-6ad95dd287f7","system_id":"levelo_inurba_marseille","lat":43.29803,"lon":5.38086,"is_reserved":false,"is_disabled":false,"rental_uris":{"android":"levelo://app?vid=117b42ce-3e7d-4261-8711-6ad95dd287f7","ios":"levelo://app?vid=117b42ce-3e7d-4261-8711-6ad95dd287f7"},"vehicle_type_id":"4","last_reported":1757873503,"current_range_meters":16800,"station_id":"ce4bgip2rcd13ifvqbb0","pricing_plan_id":"cebpf4jnsgd1na2vs0mg"},{"bike_id":"0c6fe877-1024-4901-84e8-0fbaefe45584","system_id":"levelo_inurba_marseille","lat":43.33397,"lon":5.40073,"is_reserved":false,"is_disabled":false,"rental_uris":{"android":"levelo://app?vid=0c6fe877-1024-4901-84e8-0fbaefe45584","ios":"levelo://app?vid=0c6fe877-1024-4901-84e8-0fbaefe45584"},"vehicle_type_id":"4","last_reported":1757873503,"current_range_meters":16800,"station_id":"","pricing_plan_id":"cebpf4jnsgd1na2vs0mg"},{"bike_id":"ebc28d3f-48e0-4c19-84dd-0c3a04a1ca62","system_id":"levelo_inurba_marseille","lat":43.25865,"lon":5.39923,"is_reserved":false,"is_disabled":true,"rental_uris":{"android":"levelo://app?vid=ebc28d3f-48e0-4c19-84dd-0c3a04a1ca62","ios":"levelo://app?vid=ebc28d3f-48e0-4c19-84dd-0c3a04a1ca62"},"vehicle_type_id":"4","last_reported":1757873503,"current_range_meters":16800,"station_id":"ce4bhl92rcd13ifvqghg","pricing_plan_id":"cebpf4jnsgd1na2vs0mg"},{"bike_id":"322c1f5a-85db-4ef6-bcd4-1b5c417c8ee0","system_id":"levelo_inurba_marseille","lat":43.3377,"lon":5.37488,"is_reserved":false,"is_disabled":false,"rental_uris":{"android":"levelo://app?vid=322c1f5a-85db-4ef6-bcd4-1b5c417c8ee0","ios":"levelo://app?vid=322c1f5a-85db-4ef6-bcd4-1b5c417c8ee0"},"vehicle_type_id":"4","last_reported":1757873503,"current_range_meters":16800,"station_id":"","pricing_plan_id":"cebpf4jnsgd1na2vs0mg"},{"bike_id":"be138e63-178a-43f1-96d5-f180ba9a0eee","system_id":"levelo_inurba_marseille","lat":43.27496,"lon":5.42442,"is_reserved":false,"is_disabled":false,"rental_uris":{"android":"levelo://app?vid=be138e63-178a-43f1-96d5-f180ba9a0eee","ios":"levelo://app?vid=be138e63-178a-43f1-96d5-f180ba9a0eee"},"vehicle_type_id":"4","last_reported":1757873503,"current_range_meters":16800,"station_id":"ce4bhn92rcd13ifvqgrg","pricing_plan_id":"cebpf4jnsgd1na2vs0mg"},{"bike_id":"c9f82b86-7ced-43c5-8bc4-fa83f1b9c33c","system_id":"levelo_inurba_marseille","lat":43.24648,"lon":5.38169,"is_reserved":false,"is_disabled":false,"rental_uris":{"android":"levelo://app?vid=c9f82b86-7ced-43c5-8bc4-fa83f1b9c33c","ios":"levelo://app?vid=c9f82b86-7ced-43c5-8bc4-fa83f1b9c33c"},"vehicle_type_id":"4","last_reported":1757873503,"current_range_meters":16800,"station_id":"ce4bhih2rcd13ifvqfr0","pricing_plan_id":"cebpf4jnsgd1na2vs0mg"},{"bike_id":"ad63778a-4fbe-4846-9db4-c91f5d909fa2","system_id":"levelo_inurba_marseille","lat":43.24944,"lon":5.40495,"is_reserved":false,"is_disabled":false,"rental_uris":{"android":"levelo://app?vid=ad63778a-4fbe-4846-9db4-c91f5d909fa2","ios":"levelo://app?vid=ad63778a-4fbe-4846-9db4-c91f5d909fa2"},"vehicle_type_id":"4","last_reported":1757873503,"current_range_meters":16800,"station_id":"st_d2ngiaodas8pm72gd1h0","pricing_plan_id":"cebpf4jnsgd1na2vs0mg"},{"bike_id":"19110d65-b7e0-4e57-b63f-f07fd9d7f8f8","system_id":"levelo_inurba_marseille","lat":43.24821,"lon":5.37449,"is_reserved":false,"is_disabled":false,"rental_uris":{"android":"levelo://app?vid=19110d65-b7e0-4e57-b63f-f07fd9d7f8f8","ios":"levelo://app?vid=19110d65-b7e0-4e57-b63f-f07fd9d7f8f8"},"vehicle_type_id":"4","last_reported":1757873503,"current_range_meters":16800,"station_id":"ce4bhgh2rcd13ifvqfb0","pricing_plan_id":"cebpf4jnsgd1na2vs0mg"},{"bike_id":"98c1a434-d7d4-4ae7-bb04-0ded001d318d","system_id":"levelo_inurba_marseille","lat":43.31113,"lon":5.3777,"is_reserved":false,"is_disabled":false,"rental_uris":{"android":"levelo://app?vid=98c1a434-d7d4-4ae7-bb04-0ded001d318d","ios":"levelo://app?vid=98c1a434-d7d4-4ae7-bb04-0ded001d318d"},"vehicle_type_id":"4","last_reported":1757873503,"current_range_meters":16800,"station_id":"ce4bgt92rcd13ifvqcg0","pricing_plan_id":"cebpf4jnsgd1na2vs0mg"},{"bike_id":"ca82bc98-f0ec-4316-b60d-256402081946","system_id":"levelo_inurba_marseille","lat":43.31758,"lon":5.39024,"is_reserved":false,"is_disabled":false,"rental_uris":{"android":"levelo://app?vid=ca82bc98-f0ec-4316-b60d-256402081946","ios":"levelo://app?vid=ca82bc98-f0ec-4316-b60d-256402081946"},"vehicle_type_id":"4","last_reported":1757873503,"current_range_meters":16800,"station_id":"ce4bhqp2rcd13ifvqhng","pricing_plan_id":"cebpf4jnsgd1na2vs0mg"},{"bike_id":"c9caf910-7dbf-466a-bbab-9b464a48d37c","system_id":"levelo_inurba_marseille","lat":43.31883,"lon":5.4074,"is_reserved":false,"is_disabled":false,"rental_uris":{"android":"levelo://app?vid=c9caf910-7dbf-466a-bbab-9b464a48d37c","ios":"levelo://app?vid=c9caf910-7dbf-466a-bbab-9b464a48d37c"},"vehicle_type_id":"4","last_reported":1757873503,"current_range_meters":17200,"station_id":"ce4bhq12rcd13ifvqhig","pricing_plan_id":"cebpf4jnsgd1na2vs0mg"},{"bike_id":"a92e5148-05e8-464a-8eee-a436b81b0777","system_id":"levelo_inurba_marseille","lat":43.29577,"lon":5.37515,"is_reserved":false,"is_disabled":false,"rental_uris":{"android":"levelo://app?vid=a92e5148-05e8-464a-8eee-a436b81b0777","ios":"levelo://app?vid=a92e5148-05e8-464a-8eee-a436b81b0777"},"vehicle_type_id":"4","last_reported":1757873503,"current_range_meters":17200,"station_id":"ce4bgh92rcd13ifvqb50","pricing_plan_id":"cebpf4jnsgd1na2vs0mg"},{"bike_id":"655a1dd4-c079-4e0c-a858-637c36a10d74","system_id":"levelo_inurba_marseille","lat":43.29527,"lon":5.39407,"is_reserved":false,"is_disabled":false,"rental_uris":{"android":"levelo://app?vid=655a1dd4-c079-4e0c-a858-637c36a10d74","ios":"levelo://app?vid=655a1dd4-c079-4e0c-a858-637c36a10d74"},"vehicle_type_id":"4","last_reported":1757873503,"current_range_meters":16800,"station_id":"ce4bh292rcd13ifvqdf0","pricing_plan_id":"cebpf4jnsgd1na2vs0mg"},{"bike_id":"60df5be0-868d-496d-a7cc-2e097de1a47a","system_id":"levelo_inurba_marseille","lat":43.22554,"lon":5.41657,"is_reserved":false,"is_disabled":false,"rental_uris":{"android":"levelo://app?vid=60df5be0-868d-496d-a7cc-2e097de1a47a","ios":"levelo://app?vid=60df5be0-868d-496d-a7cc-2e097de1a47a"},"vehicle_type_id":"4","last_reported":1757873503,"current_range_meters":17200,"station_id":"st_d2o4gvlbi1j2169b742g","pricing_plan_id":"cebpf4jnsgd1na2vs0mg"},{"bike_id":"61242a27-0db1-42cc-9fb5-dd86bf5c6a93","system_id":"levelo_inurba_marseille","lat":43.24643,"lon":5.38879,"is_reserved":false,"is_disabled":false,"rental_uris":{"android":"levelo://app?vid=61242a27-0db1-42cc-9fb5-dd86bf5c6a93","ios":"levelo://app?vid=61242a27-0db1-42cc-9fb5-dd86bf5c6a93"},