{"last_updated":1746659371,"ttl":60,"version":"2.2","data":{"bikes":[{"bike_id":"646ce932-e3b6-448c-a87b-52e6b01e32fa","system_id":"levelo_inurba_marseille","lat":43.26188,"lon":5.38749,"is_reserved":false,"is_disabled":true,"rental_uris":{"android":"levelo://app?vid=646ce932-e3b6-448c-a87b-52e6b01e32fa","ios":"levelo://app?vid=646ce932-e3b6-448c-a87b-52e6b01e32fa"},"vehicle_type_id":"4","last_reported":1746659371,"current_range_meters":0,"station_id":"","pricing_plan_id":"cebpf4jnsgd1na2vs0mg"},{"bike_id":"9afdaa32-5437-40bb-b5dc-0e42f55a33ee","system_id":"levelo_inurba_marseille","lat":43.25393,"lon":5.41849,"is_reserved":false,"is_disabled":true,"rental_uris":{"android":"levelo://app?vid=9afdaa32-5437-40bb-b5dc-0e42f55a33ee","ios":"levelo://app?vid=9afdaa32-5437-40bb-b5dc-0e42f55a33ee"},"vehicle_type_id":"4","last_reported":1746659371,"current_range_meters":0,"station_id":"","pricing_plan_id":"cebpf4jnsgd1na2vs0mg"},{"bike_id":"66b646b3-6352-44bb-9bfb-21570512e3e5","system_id":"levelo_inurba_marseille","lat":43.2809,"lon":5.40383,"is_reserved":false,"is_disabled":true,"rental_uris":{"android":"levelo://app?vid=66b646b3-6352-44bb-9bfb-21570512e3e5","ios":"levelo://app?vid=66b646b3-6352-44bb-9bfb-21570512e3e5"},"vehicle_type_id":"4","last_reported":1746659371,"current_range_meters":0,"station_id":"","pricing_plan_id":"cebpf4jnsgd1na2vs0mg"},{"bike_id":"a38c2d49-7988-4ef8-83e8-42a2504085da","system_id":"levelo_inurba_marseille","lat":43.24483,"lon":5.41187,"is_reserved":false,"is_disabled":true,"rental_uris":{"android":"levelo://app?vid=a38c2d49-7988-4ef8-83e8-42a2504085da","ios":"levelo://app?vid=a38c2d49-7988-4ef8-83e8-42a2504085da"},"vehicle_type_id":"4","last_reported":1746659371,"current_range_meters":0,"station_id":"","pricing_plan_id":"cebpf4jnsgd1na2vs0mg"},{"bike_id":"b56eeeb9-9ded-4dd2-9efa-c8d4f8a5e387","system_id":"levelo_inurba_marseille","lat":43.27384,"lon":5.42237,"is_reserved":false,"is_disabled":true,"rental_uris":{"android":"levelo://app?vid=b56eeeb9-9ded-4dd2-9efa-c8d4f8a5e387","ios":"levelo://app?vid=b56eeeb9-9ded-4dd2-9efa-c8d4f8a5e387"},"vehicle_type_id":"4","last_reported":1746659371,"current_range_meters":0,"station_id":"","pricing_plan_id":"cebpf4jnsgd1na2vs0mg"},{"bike_id":"88c3c6c1-a33a-48ed-b2a4-48c16332184c","system_id":"levelo_inurba_marseille","lat":43.27937,"lon":5.37392,"is_reserved":false,"is_disabled":true,"rental_uris":{"android":"levelo://app?vid=88c3c6c1-a33a-48ed-b2a4-48c16332184c","ios":"levelo://app?vid=88c3c6c1-a33a-48ed-b2a4-48c16332184c"},"vehicle_type_id":"4","last_reported":1746659371,"current_range_meters":0,"station_id":"","pricing_plan_id":"cebpf4jnsgd1na2vs0mg"},{"bike_id":"edaf51df-2b4b-4d63-a4ec-c1762e310aff","system_id":"levelo_inurba_marseille","lat":43.30601,"lon":5.37562,"is_reserved":false,"is_disabled":true,"rental_uris":{"android":"levelo://app?vid=edaf51df-2b4b-4d63-a4ec-c1762e310aff","ios":"levelo://app?vid=edaf51df-2b4b-4d63-a4ec-c1762e310aff"},"vehicle_type_id":"4","last_reported":1746659371,"current_range_meters":0,"station_id":"","pricing_plan_id":"cebpf4jnsgd1na2vs0mg"},{"bike_id":"2d251c8d-e9d0-476f-8622-cb88831f30c3","system_id":"levelo_inurba_marseille","lat":43.270107,"lon":5.387718,"is_reserved":false,"is_disabled":true,"rental_uris":{"android":"levelo://app?vid=2d251c8d-e9d0-476f-8622-cb88831f30c3","ios":"levelo://app?vid=2d251c8d-e9d0-476f-8622-cb88831f30c3"},"vehicle_type_id":"4","last_reported":1746659371,"current_range_meters":0,"station_id":"","pricing_plan_id":"cebpf4jnsgd1na2vs0mg"},{"bike_id":"718447f3-b6d2-4455-9edd-b1cf56662f96","system_id":"levelo_inurba_marseille","lat":43.3254,"lon":5.43146,"is_reserved":false,"is_disabled":true,"rental_uris":{"android":"levelo://app?vid=718447f3-b6d2-4455-9edd-b1cf56662f96","ios":"levelo://app?vid=718447f3-b6d2-4455-9edd-b1cf56662f96"},"vehicle_type_id":"4","last_reported":1746659371,"current_range_meters":0,"station_id":"","pricing_plan_id":"cebpf4jnsgd1na2vs0mg"},{"bike_id":"4d6a6720-247b-4a8a-8fc0-b209386213b1","system_id":"levelo_inurba_marseille","lat":43.29902,"lon":5.37488,"is_reserved":false,"is_disabled":true,"rental_uris":{"android":"levelo://app?vid=4d6a6720-247b-4a8a-8fc0-b209386213b1","ios":"levelo://app?vid=4d6a6720-247b-4a8a-8fc0-b209386213b1"},"vehicle_type_id":"4","last_reported":1746659371,"current_range_meters":0,"station_id":"ce4bgjh2rcd13ifvqbg0","pricing_plan_id":"cebpf4jnsgd1na2vs0mg"},{"bike_id":"faa4530b-2039-4956-a4a0-745de63a1515","system_id":"levelo_inurba_marseille","lat":43.29628,"lon":5.40595,"is_reserved":false,"is_disabled":true,"rental_uris":{"android":"levelo://app?vid=faa4530b-2039-4956-a4a0-745de63a1515","ios":"levelo://app?vid=faa4530b-2039-4956-a4a0-745de63a1515"},"vehicle_type_id":"4","last_reported":1746659371,"current_range_meters":0,"station_id":"ce4bh0h2rcd13ifvqd60","pricing_plan_id":"cebpf4jnsgd1na2vs0mg"},{"bike_id":"6b97df8d-16b8-4e0e-8624-a242b58ef50c","system_id":"levelo_inurba_marseille","lat":43.2922,"lon":5.36056,"is_reserved":false,"is_disabled":true,"rental_uris":{"android":"levelo://app?vid=6b97df8d-16b8-4e0e-8624-a242b58ef50c","ios":"levelo://app?vid=6b97df8d-16b8-4e0e-8624-a242b58ef50c"},"vehicle_type_id":"4","last_reported":1746659371,"current_range_meters":0,"station_id":"ce4bhbh2rcd13ifvqeqg","pricing_plan_id":"cebpf4jnsgd1na2vs0mg"},{"bike_id":"f156d225-1eb2-4ecb-a085-15f56a94525e","system_id":"levelo_inurba_marseille","lat":43.24638,"lon":5.3891,"is_reserved":false,"is_disabled":true,"rental_uris":{"android":"levelo://app?vid=f156d225-1eb2-4ecb-a085-15f56a94525e","ios":"levelo://app?vid=f156d225-1eb2-4ecb-a085-15f56a94525e"},"vehicle_type_id":"4","last_reported":1746659371,"current_range_meters":0,"station_id":"ce4bhg12rcd13ifvqf60","pricing_plan_id":"cebpf4jnsgd1na2vs0mg"},{"bike_id":"feb890b8-0780-4f81-9c02-374fb45aa1e0","system_id":"levelo_inurba_marseille","lat":43.25121,"lon":5.40351,"is_reserved":false,"is_disabled":true,"rental_uris":{"android":"levelo://app?vid=feb890b8-0780-4f81-9c02-374fb45aa1e0","ios":"levelo://app?vid=feb890b8-0780-4f81-9c02-374fb45aa1e0"},"vehicle_type_id":"4","last_reported":1746659371,"current_range_meters":0,"station_id":"ce4bhlh2rcd13ifvqgig","pricing_plan_id":"cebpf4jnsgd1na2vs0mg"},{"bike_id":"095da06c-5395-4717-8c30-144a54bfab48","system_id":"levelo_inurba_marseille","lat":43.279105,"lon":5.395732,"is_reserved":false,"is_disabled":true,"rental_uris":{"android":"levelo://app?vid=095da06c-5395-4717-8c30-144a54bfab48","ios":"levelo://app?vid=095da06c-5395-4717-8c30-144a54bfab48"},"vehicle_type_id":"4","last_reported":1746659371,"current_range_meters":400,"station_id":"","pricing_plan_id":"cebpf4jnsgd1na2vs0mg"},{"bike_id":"98311345-d550-4900-aa71-c93d80529501","system_id":"levelo_inurba_marseille","lat":43.308,"lon":5.38147,"is_reserved":false,"is_disabled":true,"rental_uris":{"android":"levelo://app?vid=98311345-d550-4900-aa71-c93d80529501","ios":"levelo://app?vid=98311345-d550-4900-aa71-c93d80529501"},"vehicle_type_id":"4","last_reported":1746659371,"current_range_meters":400,"station_id":"ce4bgt12rcd13ifvqce0","pricing_plan_id":"cebpf4jnsgd1na2vs0mg"},{"bike_id":"26afb579-0676-4acb-afe9-9937e07f8267","system_id":"levelo_inurba_marseille","lat":43.28265,"lon":5.35063,"is_reserved":false,"is_disabled":true,"rental_uris":{"android":"levelo://app?vid=26afb579-0676-4acb-afe9-9937e07f8267","ios":"levelo://app?vid=26afb579-0676-4acb-afe9-9937e07f8267"},"vehicle_type_id":"4","last_reported":1746659371,"current_range_meters":800,"station_id":"ce4bhbp2rcd13ifvqerg","pricing_plan_id":"cebpf4jnsgd1na2vs0mg"},{"bike_id":"bfb95bc3-63f2-42e8-87ee-211a06cc9c10","system_id":"levelo_inurba_marseille","lat":43.2801,"lon":5.41657,"is_reserved":false,"is_disabled":true,"rental_uris":{"android":"levelo://app?vid=bfb95bc3-63f2-42e8-87ee-211a06cc9c10","ios":"levelo://app?vid=bfb95bc3-63f2-42e8-87ee-211a06cc9c10"},"vehicle_type_id":"4","last_reported":1746659371,"current_range_meters":800,"station_id":"ce4bho12rcd13ifvqh1g","pricing_plan_id":"cebpf4jnsgd1na2vs0mg"},{"bike_id":"ce1a1ffc-82f8-4f2c-8017-da400b200d0b","system_id":"levelo_inurba_marseille","lat":43.274326,"lon":5.394106,"is_reserved":false,"is_disabled":true,"rental_uris":{"android":"levelo://app?vid=ce1a1ffc-82f8-4f2c-8017-da400b200d0b","ios":"levelo://app?vid=ce1a1ffc-82f8-4f2c-8017-da400b200d0b"},"vehicle_type_id":"4","last_reported":1746659371,"current_range_meters":1200,"station_id":"ce4bhdp2rcd13ifvqf20","pricing_plan_id":"cebpf4jnsgd1na2vs0mg"},{"bike_id":"89fc5fdc-a2d0-4cf8-a126-0d2e4ccdbdc2","system_id":"levelo_inurba_marseille","lat":43.30946,"lon":5.39042,"is_reserved":false,"is_disabled":true,"rental_uris":{"android":"levelo://app?vid=89fc5fdc-a2d0-4cf8-a126-0d2e4ccdbdc2","ios":"levelo://app?vid=89fc5fdc-a2d0-4cf8-a126-0d2e4ccdbdc2"},"vehicle_type_id":"4","last_reported":1746659371,"current_range_meters":1600,"station_id":"ce4bgup2rcd13ifvqco0","pricing_plan_id":"cebpf4jnsgd1na2vs0mg"},{"bike_id":"f580b33b-8f23-4b44-bce5-4d4cc9af9e47","system_id":"levelo_inurba_marseille","lat":43.30806,"lon":5.43526,"is_reserved":false,"is_disabled":true,"rental_uris":{"android":"levelo://app?vid=f580b33b-8f23-4b44-bce5-4d4cc9af9e47","ios":"levelo://app?vid=f580b33b-8f23-4b44-bce5-4d4cc9af9e47"},"vehicle_type_id":"4","last_reported":1746659371,"current_range_meters":2000,"station_id":"ce4bhph2rcd13ifvqheg","pricing_plan_id":"cebpf4jnsgd1na2vs0mg"},{"bike_id":"4bb8a243-8684-4d97-80ae-9dad72611a44","system_id":"levelo_inurba_marseille","lat":43.28357,"lon":5.38098,"is_reserved":false,"is_disabled":false,"rental_uris":{"android":"levelo://app?vid=4bb8a243-8684-4d97-80ae-9dad72611a44","ios":"levelo://app?vid=4bb8a243-8684-4d97-80ae-9dad72611a44"},"vehicle_type_id":"4","last_reported":1746659371,"current_range_meters":2800,"station_id":"ce4bh412rcd13ifvqdr0","pricing_plan_id":"cebpf4jnsgd1na2vs0mg"},{"bike_id":"9748a0c4-d6b8-4d04-814d-c8cd66193aaf","system_id":"levelo_inurba_marseille","lat":43.25226,"lon":5.41082,"is_reserved":false,"is_disabled":false,"rental_uris":{"android":"levelo://app?vid=9748a0c4-d6b8-4d04-814d-c8cd66193aaf","ios":"levelo://app?vid=9748a0c4-d6b8-4d04-814d-c8cd66193aaf"},"vehicle_type_id":"4","last_reported":1746659371,"current_range_meters":3200,"station_id":"","pricing_plan_id":"cebpf4jnsgd1na2vs0mg"},{"bike_id":"78d6cd42-7367-40db-afa3-81e38969457f","system_id":"levelo_inurba_marseille","lat":43.30124,"lon":5.39853,"is_reserved":false,"is_disabled":false,"rental_uris":{"android":"levelo://app?vid=78d6cd42-7367-40db-afa3-81e38969457f","ios":"levelo://app?vid=78d6cd42-7367-40db-afa3-81e38969457f"},"vehicle_type_id":"4","last_reported":1746659371,"current_range_meters":3200,"station_id":"ce4bh0h2rcd13ifvqd40","pricing_plan_id":"cebpf4jnsgd1na2vs0mg"},{"bike_id":"8f448a42-8a96-4265-9dc2-81fdb1375f3c","system_id":"levelo_inurba_marseille","lat":43.30218,"lon":5.39469,"is_reserved":false,"is_disabled":false,"rental_uris":{"android":"levelo://app?vid=8f448a42-8a96-4265-9dc2-81fdb1375f3c","ios":"levelo://app?vid=8f448a42-8a96-4265-9dc2-81fdb1375f3c"},"vehicle_type_id":"4","last_reported":1746659371,"current_range_meters":3200,"station_id":"ce4bh0p2rcd13ifvqd70","pricing_plan_id":"cebpf4jnsgd1na2vs0mg"},{"bike_id":"2b5d772f-a47e-4b77-9742-f35c020a53e8","system_id":"levelo_inurba_marseille","lat":43.28697,"lon":5.3739,"is_reserved":false,"is_disabled":false,"rental_uris":{"android":"levelo://app?vid=2b5d772f-a47e-4b77-9742-f35c020a53e8","ios":"levelo://app?vid=2b5d772f-a47e-4b77-9742-f35c020a53e8"},"vehicle_type_id":"4","last_reported":1746659371,"current_range_meters":3200,"station_id":"ce4bh3p2rcd13ifvqdq0","pricing_plan_id":"cebpf4jnsgd1na2vs0mg"},{"bike_id":"e8e5b6e6-4da0-485a-b3ed-6a38fb860c7a","system_id":"levelo_inurba_marseille","lat":43.25117,"lon":5.40315,"is_reserved":false,"is_disabled":false,"rental_uris":{"android":"levelo://app?vid=e8e5b6e6-4da0-485a-b3ed-6a38fb860c7a","ios":"levelo://app?vid=e8e5b6e6-4da0-485a-b3ed-6a38fb860c7a"},"vehicle_type_id":"4","last_reported":1746659371,"current_range_meters":3200,"station_id":"ce4bhlh2rcd13ifvqgig","pricing_plan_id":"cebpf4jnsgd1na2vs0mg"},{"bike_id":"1468695b-0559-4866-9988-bb58fe407d53","system_id":"levelo_inurba_marseille","lat":43.27995,"lon":5.40022,"is_reserved":false,"is_disabled":false,"rental_uris":{"android":"levelo://app?vid=1468695b-0559-4866-9988-bb58fe407d53","ios":"levelo://app?vid=1468695b-0559-4866-9988-bb58fe407d53"},"vehicle_type_id":"4","last_reported":1746659371,"current_range_meters":3600,"station_id":"ce4bho92rcd13ifvqh4g","pricing_plan_id":"cebpf4jnsgd1na2vs0mg"},{"bike_id":"63cb73aa-86fe-4599-9b76-3790ec130780","system_id":"levelo_inurba_marseille","lat":43.29569,"lon":5.37898,"is_reserved":false,"is_disabled":false,"rental_uris":{"android":"levelo://app?vid=63cb73aa-86fe-4599-9b76-3790ec130780","ios":"levelo://app?vid=63cb73aa-86fe-4599-9b76-3790ec130780"},"vehicle_type_id":"4","last_reported":1746659371,"current_range_meters":4000,"station_id":"","pricing_plan_id":"cebpf4jnsgd1na2vs0mg"},{"bike_id":"4af23ece-e235-4107-99c7-9702e360ce0f","system_id":"levelo_inurba_marseille","lat":43.31357,"lon":5.36713,"is_reserved":false,"is_disabled":false,"rental_uris":{"android":"levelo://app?vid=4af23ece-e235-4107-99c7-9702e360ce0f","ios":"levelo://app?vid=4af23ece-e235-4107-99c7-9702e360ce0f"},"vehicle_type_id":"4","last_reported":1746659371,"current_range_meters":4000,"station_id":"ce4bgr92rcd13ifvqc6g","pricing_plan_id":"cebpf4jnsgd1na2vs0mg"},{"bike_id":"1496fd3b-8e15-4e17-813d-5cc0107c427c","system_id":"levelo_inurba_marseille","lat":43.3093,"lon":5.40141,"is_reserved":false,"is_disabled":false,"rental_uris":{"android":"levelo://app?vid=1496fd3b-8e15-4e17-813d-5cc0107c427c","ios":"levelo://app?vid=1496fd3b-8e15-4e17-813d-5cc0107c427c"},"vehicle_type_id":"4","last_reported":1746659371,"current_range_meters":4000,"station_id":"ce4bgvp2rcd13ifvqct0","pricing_plan_id":"cebpf4jnsgd1na2vs0mg"},{"bike_id":"c9592205-9409-4f74-aed1-7c4141a58caa","system_id":"levelo_inurba_marseille","lat":43.271418,"lon":5.363639,"is_reserved":false,"is_disabled":false,"rental_uris":{"android":"levelo://app?vid=c9592205-9409-4f74-aed1-7c4141a58caa","ios":"levelo://app?vid=c9592205-9409-4f74-aed1-7c4141a58caa"},"vehicle_type_id":"4","last_reported":1746659371,"current_range_meters":4400,"station_id":"","pricing_plan_id":"cebpf4jnsgd1na2vs0mg"},{"bike_id":"351c998d-7524-4daf-aa92-d5e4d72a1b49","system_id":"levelo_inurba_marseille","lat":43.30792,"lon":5.38146,"is_reserved":false,"is_disabled":false,"rental_uris":{"android":"levelo://app?vid=351c998d-7524-4daf-aa92-d5e4d72a1b49","ios":"levelo://app?vid=351c998d-7524-4daf-aa92-d5e4d72a1b49"},"vehicle_type_id":"4","last_reported":1746659371,"current_range_meters":4400,"station_id":"ce4bgt12rcd13ifvqce0","pricing_plan_id":"cebpf4jnsgd1na2vs0mg"},{"bike_id":"67938c3f-a3a7-433c-b059-8d5a38bf972f","system_id":"levelo_inurba_marseille","lat":43.2872,"lon":5.3608,"is_reserved":false,"is_disabled":false,"rental_uris":{"android":"levelo://app?vid=67938c3f-a3a7-433c-b059-8d5a38bf972f","ios":"levelo://app?vid=67938c3f-a3a7-433c-b059-8d5a38bf972f"},"vehicle_type_id":"4","last_reported":1746659371,"current_range_meters":4400,"station_id":"cki0cbj6b192h4jlfktg","pricing_plan_id":"cebpf4jnsgd1na2vs0mg"},{"bike_id":"888032c5-3b18-4161-a6ba-36a926872c5e","system_id":"levelo_inurba_marseille","lat":43.29061,"lon":5.37156,"is_reserved":false,"is_disabled":false,"rental_uris":{"android":"levelo://app?vid=888032c5-3b18-4161-a6ba-36a926872c5e","ios":"levelo://app?vid=888032c5-3b18-4161-a6ba-36a926872c5e"},"vehicle_type_id":"4","last_reported":1746659371,"current_range_meters":4800,"station_id":"ce4bh5p2rcd13ifvqe4g","pricing_plan_id":"cebpf4jnsgd1na2vs0mg"},{"bike_id":"5f89e5d8-8e5e-4a6d-901c-70aafb0a905d","system_id":"levelo_inurba_marseille","lat":43.29237,"lon":5.37389,"is_reserved":false,"is_disabled":false,"rental_uris":{"android":"levelo://app?vid=5f89e5d8-8e5e-4a6d-901c-70aafb0a905d","ios":"levelo://app?vid=5f89e5d8-8e5e-4a6d-901c-70aafb0a905d"},"vehicle_type_id":"4","last_reported":1746659371,"current_range_meters":5600,"station_id":"","pricing_plan_id":"cebpf4jnsgd1na2vs0mg"},{"bike_id":"e3604f93-0af1-4c30-bf3a-790cbee767ee","system_id":"levelo_inurba_marseille","lat":43.31164,"lon":5.38713,"is_reserved":false,"is_disabled":false,"rental_uris":{"android":"levelo://app?vid=e3604f93-0af1-4c30-bf3a-790cbee767ee","ios":"levelo://app?vid=e3604f93-0af1-4c30-bf3a-790cbee767ee"},"vehicle_type_id":"4","last_reported":1746659371,"current_range_meters":5600,"station_id":"ce4bgv12rcd13ifvqcp0","pricing_plan_id":"cebpf4jnsgd1na2vs0mg"},{"bike_id":"45aaad29-61be-4b55-a624-2b9190511697","system_id":"levelo_inurba_marseille","lat":43.28438,"lon":5.37528,"is_reserved":false,"is_disabled":false,"rental_uris":{"android":"levelo://app?vid=45aaad29-61be-4b55-a624-2b9190511697","ios":"levelo://app?vid=45aaad29-61be-4b55-a624-2b9190511697"},"vehicle_type_id":"4","last_reported":1746659371,"current_range_meters":5600,"station_id":"ce4bh412rcd13ifvqds0","pricing_plan_id":"cebpf4jnsgd1na2vs0mg"},{"bike_id":"705f1f6f-d92c-4df1-a512-943b0bf79900","system_id":"levelo_inurba_marseille","lat":43.22503,"lon":5.34781,"is_reserved":false,"is_disabled":false,"rental_uris":{"android":"levelo://app?vid=705f1f6f-d92c-4df1-a512-943b0bf79900","ios":"levelo://app?vid=705f1f6f-d92c-4df1-a512-943b0bf79900"},"vehicle_type_id":"4","last_reported":1746659371,"current_range_meters":5600,"station_id":"st_cvj5dfep6f1abm77gieg","pricing_plan_id":"cebpf4jnsgd1na2vs0mg"},{"bike_id":"b309296a-5a1b-445a-9a01-8252b5594238","system_id":"levelo_inurba_marseille","lat":43.24184,"lon":5.3972,"is_reserved":false,"is_disabled":false,"rental_uris":{"android":"levelo://app?vid=b309296a-5a1b-445a-9a01-8252b5594238","ios":"levelo://app?vid=b309296a-5a1b-445a-9a01-8252b5594238"},"vehicle_type_id":"4","last_reported":1746659371,"current_range_meters":6000,"station_id":"ce4bhn12rcd13ifvqgpg","pricing_plan_id":"cebpf4jnsgd1na2vs0mg"},{"bike_id":"b0e5964e-da0e-4b0e-bc51-35acce30e418","system_id":"levelo_inurba_marseille","lat":43.2794,"lon":5.41032,"is_reserved":false,"is_disabled":false,"rental_uris":{"android":"levelo://app?vid=b0e5964e-da0e-4b0e-bc51-35acce30e418","ios":"levelo://app?vid=b0e5964e-da0e-4b0e-bc51-35acce30e418"},"vehicle_type_id":"4","last_reported":1746659371,"current_range_meters":6400,"station_id":"ce4bhnp2rcd13ifvqh0g","pricing_plan_id":"cebpf4jnsgd1na2vs0mg"},{"bike_id":"88f90c5c-6128-4b9d-bb34-6e1b40933e50","system_id":"levelo_inurba_marseille","lat":43.282948,"lon":5.43225,"is_reserved":false,"is_disabled":false,"rental_uris":{"android":"levelo://app?vid=88f90c5c-6128-4b9d-bb34-6e1b40933e50","ios":"levelo://app?vid=88f90c5c-6128-4b9d-bb34-6e1b40933e50"},"vehicle_type_id":"4","last_reported":1746659371,"current_range_meters":6800,"station_id":"","pricing_plan_id":"cebpf4jnsgd1na2vs0mg"},{"bike_id":"c189691b-b119-4c90-8222-433d4d58b892","system_id":"levelo_inurba_marseille","lat":43.24804,"lon":5.37454,"is_reserved":false,"is_disabled":false,"rental_uris":{"android":"levelo://app?vid=c189691b-b119-4c90-8222-433d4d58b892","ios":"levelo://app?vid=c189691b-b119-4c90-8222-433d4d58b892"},"vehicle_type_id":"4","last_reported":1746659371,"current_range_meters":6800,"station_id":"ce4bhgh2rcd13ifvqfb0","pricing_plan_id":"cebpf4jnsgd1na2vs0mg"},{"bike_id":"2b981428-1290-436a-9084-aab24f94a85e","system_id":"levelo_inurba_marseille","lat":43.28717,"lon":5.36094,"is_reserved":false,"is_disabled":false,"rental_uris":{"android":"levelo://app?vid=2b981428-1290-436a-9084-aab24f94a85e","ios":"levelo://app?vid=2b981428-1290-436a-9084-aab24f94a85e"},"vehicle_type_id":"4","last_reported":1746659371,"current_range_meters":6800,"station_id":"cki0cbj6b192h4jlfktg","pricing_plan_id":"cebpf4jnsgd1na2vs0mg"},{"bike_id":"dce814c0-4c4e-4a20-a33b-97af480f0bcb","system_id":"levelo_inurba_marseille","lat":43.29026,"lon":5.42632,"is_reserved":false,"is_disabled":false,"rental_uris":{"android":"levelo://app?vid=dce814c0-4c4e-4a20-a33b-97af480f0bcb","ios":"levelo://app?vid=dce814c0-4c4e-4a20-a33b-97af480f0bcb"},"vehicle_type_id":"4","last_reported":1746659371,"current_range_meters":7200,"station_id":"","pricing_plan_id":"cebpf4jnsgd1na2vs0mg"},{"bike_id":"082b5772-10bb-4282-bdbf-aa00094bbf28","system_id":"levelo_inurba_marseille","lat":43.27052,"lon":5.40251,"is_reserved":false,"is_disabled":false,"rental_uris":{"android":"levelo://app?vid=082b5772-10bb-4282-bdbf-aa00094bbf28","ios":"levelo://app?vid=082b5772-10bb-4282-bdbf-aa00094bbf28"},"vehicle_type_id":"4","last_reported":1746659371,"current_range_meters":7200,"station_id":"ce4bhk92rcd13ifvqgc0","pricing_plan_id":"cebpf4jnsgd1na2vs0mg"},{"bike_id":"aa6eaa6f-a172-4a31-8500-b76476b59cb3","system_id":"levelo_inurba_marseille","lat":43.23187,"lon":5.3998,"is_reserved":false,"is_disabled":false,"rental_uris":{"android":"levelo://app?vid=aa6eaa6f-a172-4a31-8500-b76476b59cb3","ios":"levelo://app?vid=aa6eaa6f-a172-4a31-8500-b76476b59cb3"},"vehicle_type_id":"4","last_reported":1746659371,"current_range_meters":7200,"station_id":"ce4bhn12rcd13ifvqgqg","pricing_plan_id":"cebpf4jnsgd1na2vs0mg"},{"bike_id":"eccba332-1be7-42d7-a3c4-90b0d1cb293e","system_id":"levelo_inurba_marseille","lat":43.27998,"lon":5.41659,"is_reserved":false,"is_disabled":false,"rental_uris":{"android":"levelo://app?vid=eccba332-1be7-42d7-a3c4-90b0d1cb293e","ios":"levelo://app?vid=eccba332-1be7-42d7-a3c4-90b0d1cb293e"},"vehicle_type_id":"4","last_reported":1746659371,"current_range_meters":7200,"station_id":"ce4bho12rcd13ifvqh1g","pricing_plan_id":"cebpf4jnsgd1na2vs0mg"},{"bike_id":"76c17301-0ba0-4119-897e-717ae48f7588","system_id":"levelo_inurba_marseille","lat":43.27994,"lon":5.40031,"is_reserved":false,"is_disabled":false,"rental_uris":{"android":"levelo://app?vid=76c17301-0ba0-4119-897e-717ae48f7588","ios":"levelo://app?vid=76c17301-0ba0-4119-897e-717ae48f7588"},"vehicle_type_id":"4","last_reported":1746659371,"current_range_meters":7200,"station_id":"ce4bho92rcd13ifvqh4g","pricing_plan_id":"cebpf4jnsgd1na2vs0mg"},{"bike_id":"873d81b2-ae97-4808-bf70-1ba1ad5fcda6","system_id":"levelo_inurba_marseille","lat":43.32362,"lon":5.36747,"is_reserved":false,"is_disabled":false,"rental_uris":{"android":"levelo://app?vid=873d81b2-ae97-4808-bf70-1ba1ad5fcda6","ios":"levelo://app?vid=873d81b2-ae97-4808-bf70-1ba1ad5fcda6"},"vehicle_type_id":"4","last_reported":1746659371,"current_range_meters":7200,"station_id":"ce4bhsh2rcd13ifvqi2g","pricing_plan_id":"cebpf4jnsgd1na2vs0mg"},{"bike_id":"9d03e3b9-cc02-47cb-8220-42e752a6ad34","system_id":"levelo_inurba_marseille","lat":43.29019,"lon":5.477,"is_reserved":false,"is_disabled":false,"rental_uris":{"android":"levelo://app?vid=9d03e3b9-cc02-47cb-8220-42e752a6ad34","ios":"levelo://app?vid=9d03e3b9-cc02-47cb-8220-42e752a6ad34"},"vehicle_type_id":"4","last_reported":1746659371,"current_range_meters":8000,"station_id":"","pricing_plan_id":"cebpf4jnsgd1na2vs0mg"},{"bike_id":"a0add42f-ee76-4ac8-8812-b89ff4adeb67","system_id":"levelo_inurba_marseille","lat":43.29005,"lon":5.35609,"is_reserved":false,"is_disabled":false,"rental_uris":{"android":"levelo://app?vid=a0add42f-ee76-4ac8-8812-b89ff4adeb67","ios":"levelo://app?vid=a0add42f-ee76-4ac8-8812-b89ff4adeb67"},"vehicle_type_id":"4","last_reported":1746659371,"current_range_meters":8000,"station_id":"ce4bhb92rcd13ifvqen0","pricing_plan_id":"cebpf4jnsgd1na2vs0mg"},{"bike_id":"0e10e92a-439e-4081-803c-5f351bcf88ef","system_id":"levelo_inurba_marseille","lat":43.27942,"lon":5.41033,"is_reserved":false,"is_disabled":false,"rental_uris":{"android":"levelo://app?vid=0e10e92a-439e-4081-803c-5f351bcf88ef","ios":"levelo://app?vid=0e10e92a-439e-4081-803c-5f351bcf88ef"},"vehicle_type_id":"4","last_reported":1746659371,"current_range_meters":8000,"station_id":"ce4bhnp2rcd13ifvqh0g","pricing_plan_id":"cebpf4jnsgd1na2vs0mg"},{"bike_id":"dfd27e22-9b34-42f8-9fdf-f3a07c5bdce7","system_id":"levelo_inurba_marseille","lat":43.24137,"lon":5.36424,"is_reserved":false,"is_disabled":false,"rental_uris":{"android":"levelo://app?vid=dfd27e22-9b34-42f8-9fdf-f3a07c5bdce7","ios":"levelo://app?vid=dfd27e22-9b34-42f8-9fdf-f3a07c5bdce7"},"vehicle_type_id":"4","last_reported":1746659371,"current_range_meters":8000,"station_id":"cpo36qri1sfpv3e86is0","pricing_plan_id":"cebpf4jnsgd1na2vs0mg"},{"bike_id":"81ba7db5-5264-4e66-9236-ac68ced72379","system_id":"levelo_inurba_marseille","lat":43.31367,"lon":5.38497,"is_reserved":false,"is_disabled":false,"rental_uris":{"android":"levelo://app?vid=81ba7db5-5264-4e66-9236-ac68ced72379","ios":"levelo://app?vid=81ba7db5-5264-4e66-9236-ac68ced72379"},"vehicle_type_id":"4","last_reported":1746659371,"current_range_meters":8400,"station_id":"ce4bgt92rcd13ifvqcf0","pricing_plan_id":"cebpf4jnsgd1na2vs0mg"},{"bike_id":"3b2a68fe-c021-4418-a531-0b2d164af29a","system_id":"levelo_inurba_marseille","lat":43.274223,"lon":5.39416,"is_reserved":false,"is_disabled":false,"rental_uris":{"android":"levelo://app?vid=3b2a68fe-c021-4418-a531-0b2d164af29a","ios":"levelo://app?vid=3b2a68fe-c021-4418-a531-0b2d164af29a"},"vehicle_type_id":"4","last_reported":1746659371,"current_range_meters":8400,"station_id":"ce4bhdp2rcd13ifvqf20","pricing_plan_id":"cebpf4jnsgd1na2vs0mg"},{"bike_id":"fb158fd2-2336-47ee-a8b2-1a7cf41ae5f2","system_id":"levelo_inurba_marseille","lat":43.26499,"lon":5.39534,"is_reserved":false,"is_disabled":false,"rental_uris":{"android":"levelo://app?vid=fb158fd2-2336-47ee-a8b2-1a7cf41ae5f2","ios":"levelo://app?vid=fb158fd2-2336-47ee-a8b2-1a7cf41ae5f2"},"vehicle_type_id":"4","last_reported":1746659371,"current_range_meters":8400,"station_id":"ce4bhi12rcd13ifvqfq0","pricing_plan_id":"cebpf4jnsgd1na2vs0mg"},{"bike_id":"a3d1c3b6-a74f-4494-b344-2d31d55350e0","system_id":"levelo_inurba_marseille","lat":43.240694,"lon":5.377568,"is_reserved":false,"is_disabled":false,"rental_uris":{"android":"levelo://app?vid=a3d1c3b6-a74f-4494-b344-2d31d55350e0","ios":"levelo://app?vid=a3d1c3b6-a74f-4494-b344-2d31d55350e0"},"vehicle_type_id":"4","last_reported":1746659371,"current_range_meters":8400,"station_id":"ce4bhnp2rcd13ifvqgvg","pricing_plan_id":"cebpf4jnsgd1na2vs0mg"},{"bike_id":"871d92dc-153b-42ec-8d90-34c9e0fb29bf","system_id":"levelo_inurba_marseille","lat":43.306335,"lon":5.398815,"is_reserved":false,"is_disabled":false,"rental_uris":{"android":"levelo://app?vid=871d92dc-153b-42ec-8d90-34c9e0fb29bf","ios":"levelo://app?vid=871d92dc-153b-42ec-8d90-34c9e0fb29bf"},"vehicle_type_id":"4","last_reported":1746659371,"current_range_meters":8800,"station_id":"","pricing_plan_id":"cebpf4jnsgd1na2vs0mg"},{"bike_id":"3e8d8104-67f6-4ceb-98a1-a0150fb4c1b0","system_id":"levelo_inurba_marseille","lat":43.30366,"lon":5.40468,"is_reserved":false,"is_disabled":false,"rental_uris":{"android":"levelo://app?vid=3e8d8104-67f6-4ceb-98a1-a0150fb4c1b0","ios":"levelo://app?vid=3e8d8104-67f6-4ceb-98a1-a0150fb4c1b0"},"vehicle_type_id":"4","last_reported":1746659371,"current_range_meters":8800,"station_id":"","pricing_plan_id":"cebpf4jnsgd1na2vs0mg"},{"bike_id":"b7bdbe3a-b7ec-4256-908f-dfa71835a5d1","system_id":"levelo_inurba_marseille","lat":43.28865,"lon":5.37148,"is_reserved":false,"is_disabled":false,"rental_uris":{"android":"levelo://app?vid=b7bdbe3a-b7ec-4256-908f-dfa71835a5d1","ios":"levelo://app?vid=b7bdbe3a-b7ec-4256-908f-dfa71835a5d1"},"vehicle_type_id":"4","last_reported":1746659371,"current_range_meters":8800,"station_id":"","pricing_plan_id":"cebpf4jnsgd1na2vs0mg"},{"bike_id":"7e454145-ac8c-4cf5-9eb3-037ed55ef9ca","system_id":"levelo_inurba_marseille","lat":43.30933,"lon":5.40149,"is_reserved":false,"is_disabled":false,"rental_uris":{"android":"levelo://app?vid=7e454145-ac8c-4cf5-9eb3-037ed55ef9ca","ios":"levelo://app?vid=7e454145-ac8c-4cf5-9eb3-037ed55ef9ca"},"vehicle_type_id":"4","last_reported":1746659371,"current_range_meters":8800,"station_id":"ce4bgvp2rcd13ifvqct0","pricing_plan_id":"cebpf4jnsgd1na2vs0mg"},{"bike_id":"eac3f89a-a3f9-4b2f-85c7-51e4a0be2456","system_id":"levelo_inurba_marseille","lat":43.29283,"lon":5.40116,"is_reserved":false,"is_disabled":false,"rental_uris":{"android":"levelo://app?vid=eac3f89a-a3f9-4b2f-85c7-51e4a0be2456","ios":"levelo://app?vid=eac3f89a-a3f9-4b2f-85c7-51e4a0be2456"},"vehicle_type_id":"4","last_reported":1746659371,"current_range_meters":8800,"station_id":"ce4bh312rcd13ifvqdk0","pricing_plan_id":"cebpf4jnsgd1na2vs0mg"},{"bike_id":"e16a7f12-1003-4490-ba0f-165d96d78d97","system_id":"levelo_inurba_marseille","lat":43.28459,"lon":5.35892,"is_reserved":false,"is_disabled":false,"rental_uris":{"android":"levelo://app?vid=e16a7f12-1003-4490-ba0f-165d96d78d97","ios":"levelo://app?vid=e16a7f12-1003-4490-ba0f-165d96d78d97"},"vehicle_type_id":"4","last_reported":1746659371,"current_range_meters":8800,"station_id":"ce4bhah2rcd13ifvqei0","pricing_plan_id":"cebpf4jnsgd1na2vs0mg"},{"bike_id":"96cde410-af28-430b-883d-e5b9a0d0cbac","system_id":"levelo_inurba_marseille","lat":43.25112,"lon":5.40322,"is_reserved":false,"is_disabled":false,"rental_uris":{"android":"levelo://app?vid=96cde410-af28-430b-883d-e5b9a0d0cbac","ios":"levelo://app?vid=96cde410-af28-430b-883d-e5b9a0d0cbac"},"vehicle_type_id":"4","last_reported":1746659371,"current_range_meters":8800,"station_id":"ce4bhlh2rcd13ifvqgig","pricing_plan_id":"cebpf4jnsgd1na2vs0mg"},{"bike_id":"12d11cd6-622e-498d-8eb9-e4d5613e5912","system_id":"levelo_inurba_marseille","lat":43.27945,"lon":5.41047,"is_reserved":false,"is_disabled":false,"rental_uris":{"android":"levelo://app?vid=12d11cd6-622e-498d-8eb9-e4d5613e5912","ios":"levelo://app?vid=12d11cd6-622e-498d-8eb9-e4d5613e5912"},"vehicle_type_id":"4","last_reported":1746659371,"current_range_meters":8800,"station_id":"ce4bhnp2rcd13ifvqh0g","pricing_plan_id":"cebpf4jnsgd1na2vs0mg"},{"bike_id":"5872f101-9271-4805-860d-0ee54b52f844","system_id":"levelo_inurba_marseille","lat":43.322923,"lon":5.382674,"is_reserved":false,"is_disabled":false,"rental_uris":{"android":"levelo://app?vid=5872f101-9271-4805-860d-0ee54b52f844","ios":"levelo://app?vid=5872f101-9271-4805-860d-0ee54b52f844"},"vehicle_type_id":"4","last_reported":1746659371,"current_range_meters":8800,"station_id":"ce4bhr12rcd13ifvqhqg","pricing_plan_id":"cebpf4jnsgd1na2vs0mg"},{"bike_id":"149dbc3f-738a-4425-9044-fb81967ea585","system_id":"levelo_inurba_marseille","lat":43.23052,"lon":5.3549,"is_reserved":false,"is_disabled":false,"rental_uris":{"android":"levelo://app?vid=149dbc3f-738a-4425-9044-fb81967ea585","ios":"levelo://app?vid=149dbc3f-738a-4425-9044-fb81967ea585"},"vehicle_type_id":"4","last_reported":1746659371,"current_range_meters":8800,"station_id":"cpo3342slgdg3j2ifvpg","pricing_plan_id":"cebpf4jnsgd1na2vs0mg"},{"bike_id":"be3a2ed9-e107-46dc-8066-89cfcff50847","system_id":"levelo_inurba_marseille","lat":43.29232,"lon":5.3713,"is_reserved":false,"is_disabled":false,"rental_uris":{"android":"levelo://app?vid=be3a2ed9-e107-46dc-8066-89cfcff50847","ios":"levelo://app?vid=be3a2ed9-e107-46dc-8066-89cfcff50847"},"vehicle_type_id":"4","last_reported":1746659371,"current_range_meters":9200,"station_id":"","pricing_plan_id":"cebpf4jnsgd1na2vs0mg"},{"bike_id":"4bfd4d1c-23c3-4630-a869-7e02c20c16fb","system_id":"levelo_inurba_marseille","lat":43.27424,"lon":5.394153,"is_reserved":false,"is_disabled":false,"rental_uris":{"android":"levelo://app?vid=4bfd4d1c-23c3-4630-a869-7e02c20c16fb","ios":"levelo://app?vid=4bfd4d1c-23c3-4630-a869-7e02c20c16fb"},"vehicle_type_id":"4","last_reported":1746659371,"current_range_meters":9200,"station_id":"ce4bhdp2rcd13ifvqf20","pricing_plan_id":"cebpf4jnsgd1na2vs0mg"},{"bike_id":"93bc13b8-0242-4459-89ba-fdaff1d35e39","system_id":"levelo_inurba_marseille","lat":43.27208,"lon":5.39185,"is_reserved":false,"is_disabled":false,"rental_uris":{"android":"levelo://app?vid=93bc13b8-0242-4459-89ba-fdaff1d35e39","ios":"levelo://app?vid=93bc13b8-0242-4459-89ba-fdaff1d35e39"},"vehicle_type_id":"4","last_reported":1746659371,"current_range_meters":9200,"station_id":"ce4bhhp2rcd13ifvqfm0","pricing_plan_id":"cebpf4jnsgd1na2vs0mg"},{"bike_id":"6675a5e8-5c8e-47e3-9935-5e27adad727a","system_id":"levelo_inurba_marseille","lat":43.27939,"lon":5.41036,"is_reserved":false,"is_disabled":false,"rental_uris":{"android":"levelo://app?vid=6675a5e8-5c8e-47e3-9935-5e27adad727a","ios":"levelo://app?vid=6675a5e8-5c8e-47e3-9935-5e27adad727a"},"vehicle_type_id":"4","last_reported":1746659371,"current_range_meters":9200,"station_id":"ce4bhnp2rcd13ifvqh0g","pricing_plan_id":"cebpf4jnsgd1na2vs0mg"},{"bike_id":"3f740e4f-b8ba-4b6f-8ffb-1251744dee36","system_id":"levelo_inurba_marseille","lat":43.32474,"lon":5.36555,"is_reserved":false,"is_disabled":false,"rental_uris":{"android":"levelo://app?vid=3f740e4f-b8ba-4b6f-8ffb-1251744dee36","ios":"levelo://app?vid=3f740e4f-b8ba-4b6f-8ffb-1251744dee36"},"vehicle_type_id":"4","last_reported":1746659371,"current_range_meters":9200,"station_id":"ce4bhs12rcd13ifvqhvg","pricing_plan_id":"cebpf4jnsgd1na2vs0mg"},{"bike_id":"89420609-8590-4e4d-9042-8fb0e02b5686","system_id":"levelo_inurba_marseille","lat":43.241674,"lon":5.36394,"is_reserved":false,"is_disabled":false,"rental_uris":{"android":"levelo://app?vid=89420609-8590-4e4d-9042-8fb0e02b5686","ios":"levelo://app?vid=89420609-8590-4e4d-9042-8fb0e02b5686"},"vehicle_type_id":"4","last_reported":1746659371,"current_range_meters":9200,"station_id":"cpo36qri1sfpv3e86is0","pricing_plan_id":"cebpf4jnsgd1na2vs0mg"},{"bike_id":"dbe6c090-a883-4f7a-86ca-f7062cab9bbf","system_id":"levelo_inurba_marseille","lat":43.21754,"lon":5.345883,"is_reserved":false,"is_disabled":false,"rental_uris":{"android":"levelo://app?vid=dbe6c090-a883-4f7a-86ca-f7062cab9bbf","ios":"levelo://app?vid=dbe6c090-a883-4f7a-86ca-f7062cab9bbf"},"vehicle_type_id":"4","last_reported":1746659371,"current_range_meters":9200,"station_id":"st_cvj6r9ubvosntc0bgbag","pricing_plan_id":"cebpf4jnsgd1na2vs0mg"},{"bike_id":"ce40ea43-bacf-49f3-b5af-ffaf2a1f03b1","system_id":"levelo_inurba_marseille","lat":43.304868,"lon":5.367548,"is_reserved":false,"is_disabled":false,"rental_uris":{"android":"levelo://app?vid=ce40ea43-bacf-49f3-b5af-ffaf2a1f03b1","ios":"levelo://app?vid=ce40ea43-bacf-49f3-b5af-ffaf2a1f03b1"},"vehicle_type_id":"4","last_reported":1746659371,"current_range_meters":9600,"station_id":"","pricing_plan_id":"cebpf4jnsgd1na2vs0mg"},{"bike_id":"32550934-c433-495f-9bb1-7de7852cd68c","system_id":"levelo_inurba_marseille","lat":43.30797,"lon":5.38156,"is_reserved":false,"is_disabled":false,"rental_uris":{"android":"levelo://app?vid=32550934-c433-495f-9bb1-7de7852cd68c","ios":"levelo://app?vid=32550934-c433-495f-9bb1-7de7852cd68c"},"vehicle_type_id":"4","last_reported":1746659371,"current_range_meters":9600,"station_id":"ce4bgt12rcd13ifvqce0","pricing_plan_id":"cebpf4jnsgd1na2vs0mg"},{"bike_id":"e8576f2d-c2c3-4bf0-8eff-76ada0a81525","system_id":"levelo_inurba_marseille","lat":43.28459,"lon":5.35886,"is_reserved":false,"is_disabled":false,"rental_uris":{"android":"levelo://app?vid=e8576f2d-c2c3-4bf0-8eff-76ada0a81525","ios":"levelo://app?vid=e8576f2d-c2c3-4bf0-8eff-76ada0a81525"},"vehicle_type_id":"4","last_reported":1746659371,"current_range_meters":9600,"station_id":"ce4bhah2rcd13ifvqei0","pricing_plan_id":"cebpf4jnsgd1na2vs0mg"},{"bike_id":"6fcecdbd-a5d7-498c-85d8-462b7a653c6a","system_id":"levelo_inurba_marseille","lat":43.28461,"lon":5.35899,"is_reserved":false,"is_disabled":false,"rental_uris":{"android":"levelo://app?vid=6fcecdbd-a5d7-498c-85d8-462b7a653c6a","ios":"levelo://app?vid=6fcecdbd-a5d7-498c-85d8-462b7a653c6a"},"vehicle_type_id":"4","last_reported":1746659371,"current_range_meters":9600,"station_id":"ce4bhah2rcd13ifvqei0","pricing_plan_id":"cebpf4jnsgd1na2vs0mg"},{"bike_id":"c650db92-e467-494a-8ffb-fba552729a60","system_id":"levelo_inurba_marseille","lat":43.23965,"lon":5.36626,"is_reserved":false,"is_disabled":false,"rental_uris":{"android":"levelo://app?vid=c650db92-e467-494a-8ffb-fba552729a60","ios":"levelo://app?vid=c650db92-e467-494a-8ffb-fba552729a60"},"vehicle_type_id":"4","last_reported":1746659371,"current_range_meters":9600,"station_id":"ce4bhi12rcd13ifvqfp0","pricing_plan_id":"cebpf4jnsgd1na2vs0mg"},{"bike_id":"dc4c68a6-1f07-407b-9b2d-d057aaa3ae1d","system_id":"levelo_inurba_marseille","lat":43.27946,"lon":5.41036,"is_reserved":false,"is_disabled":false,"rental_uris":{"android":"levelo://app?vid=dc4c68a6-1f07-407b-9b2d-d057aaa3ae1d","ios":"levelo://app?vid=dc4c68a6-1f07-407b-9b2d-d057aaa3ae1d"},"vehicle_type_id":"4","last_reported":1746659371,"current_range_meters":9600,"station_id":"ce4bhnp2rcd13ifvqh0g","pricing_plan_id":"cebpf4jnsgd1na2vs0mg"},{"bike_id":"6e45998c-e68a-48d7-8915-28fa72e79cfc","system_id":"levelo_inurba_marseille","lat":43.29902,"lon":5.37464,"is_reserved":false,"is_disabled":false,"rental_uris":{"android":"levelo://app?vid=6e45998c-e68a-48d7-8915-28fa72e79cfc","ios":"levelo://app?vid=6e45998c-e68a-48d7-8915-28fa72e79cfc"},"vehicle_type_id":"4","last_reported":1746659371,"current_range_meters":10000,"station_id":"ce4bgjh2rcd13ifvqbg0","pricing_plan_id":"cebpf4jnsgd1na2vs0mg"},{"bike_id":"957aba25-c5b1-43b8-b7ae-7df1badff429","system_id":"levelo_inurba_marseille","lat":43.31282,"lon":5.4017,"is_reserved":false,"is_disabled":false,"rental_uris":{"android":"levelo://app?vid=957aba25-c5b1-43b8-b7ae-7df1badff429","ios":"levelo://app?vid=957aba25-c5b1-43b8-b7ae-7df1badff429"},"vehicle_type_id":"4","last_reported":1746659371,"current_range_meters":10000,"station_id":"ce4bh092rcd13ifvqd30","pricing_plan_id":"cebpf4jnsgd1na2vs0mg"},{"bike_id":"5f37399e-5f46-4b95-9216-df319de31813","system_id":"levelo_inurba_marseille","lat":43.3013,"lon":5.39867,"is_reserved":false,"is_disabled":false,"rental_uris":{"android":"levelo://app?vid=5f37399e-5f46-4b95-9216-df319de31813","ios":"levelo://app?vid=5f37399e-5f46-4b95-9216-df319de31813"},"vehicle_type_id":"4","last_reported":1746659371,"current_range_meters":10000,"station_id":"ce4bh0h2rcd13ifvqd40","pricing_plan_id":"cebpf4jnsgd1na2vs0mg"},{"bike_id":"9fcf8f94-bd3a-4bcd-a417-322eed8d3454","system_id":"levelo_inurba_marseille","lat":43.30639,"lon":5.40083,"is_reserved":false,"is_disabled":false,"rental_uris":{"android":"levelo://app?vid=9fcf8f94-bd3a-4bcd-a417-322eed8d3454","ios":"levelo://app?vid=9fcf8f94-bd3a-4bcd-a417-322eed8d3454"},"vehicle_type_id":"4","last_reported":1746659371,"current_range_meters":10000,"station_id":"ce4bh112rcd13ifvqda0","pricing_plan_id":"cebpf4jnsgd1na2vs0mg"},{"bike_id":"1d4682d1-043b-4b83-b0f0-445153ebacc8","system_id":"levelo_inurba_marseille","lat":43.28942,"lon":5.36413,"is_reserved":false,"is_disabled":false,"rental_uris":{"android":"levelo://app?vid=1d4682d1-043b-4b83-b0f0-445153ebacc8","ios":"levelo://app?vid=1d4682d1-043b-4b83-b0f0-445153ebacc8"},"vehicle_type_id":"4","last_reported":1746659371,"current_range_meters":10000,"station_id":"ce4bhc92rcd13ifvqetg","pricing_plan_id":"cebpf4jnsgd1na2vs0mg"},{"bike_id":"ebaeac13-7ca4-45aa-b14d-84d4340b9260","system_id":"levelo_inurba_marseille","lat":43.24659,"lon":5.3816,"is_reserved":false,"is_disabled":false,"rental_uris":{"android":"levelo://app?vid=ebaeac13-7ca4-45aa-b14d-84d4340b9260","ios":"levelo://app?vid=ebaeac13-7ca4-45aa-b14d-84d4340b9260"},"vehicle_type_id":"4","last_reported":1746659371,"current_range_meters":10000,"station_id":"ce4bhih2rcd13ifvqfr0","pricing_plan_id":"cebpf4jnsgd1na2vs0mg"},{"bike_id":"b15fe93b-1059-4d75-abd3-040e349ce402","system_id":"levelo_inurba_marseille","lat":43.30122,"lon":5.37027,"is_reserved":false,"is_disabled":false,"rental_uris":{"android":"levelo://app?vid=b15fe93b-1059-4d75-abd3-040e349ce402","ios":"levelo://app?vid=b15fe93b-1059-4d75-abd3-040e349ce402"},"vehicle_type_id":"4","last_reported":1746659371,"current_range_meters":10800,"station_id":"","pricing_plan_id":"cebpf4jnsgd1na2vs0mg"},{"bike_id":"a96833c3-7aad-4769-953e-d8192a324355","system_id":"levelo_inurba_marseille","lat":43.337444,"lon":5.374475,"is_reserved":false,"is_disabled":false,"rental_uris":{"android":"levelo://app?vid=a96833c3-7aad-4769-953e-d8192a324355","ios":"levelo://app?vid=a96833c3-7aad-4769-953e-d8192a324355"},"vehicle_type_id":"4","last_reported":1746659371,"current_range_meters":10800,"station_id":"","pricing_plan_id":"cebpf4jnsgd1na2vs0mg"},{"bike_id":"19101cd0-d2be-4c31-a20c-ac0efea3a4d4","system_id":"levelo_inurba_marseille","lat":43.283478,"lon":5.380992,"is_reserved":false,"is_disabled":false,"rental_uris":{"android":"levelo://app?vid=19101cd0-d2be-4c31-a20c-ac0efea3a4d4","ios":"levelo://app?vid=19101cd0-d2be-4c31-a20c-ac0efea3a4d4"},"vehicle_type_id":"4","last_reported":1746659371,"current_range_meters":10800,"station_id":"ce4bh412rcd13ifvqdr0","pricing_plan_id":"cebpf4jnsgd1na2vs0mg"},{"bike_id":"3f05e42b-9d09-4214-97a4-6c1605095ad4","system_id":"levelo_inurba_marseille","lat":43.28993,"lon":5.35623,"is_reserved":false,"is_disabled":false,"rental_uris":{"android":"levelo://app?vid=3f05e42b-9d09-4214-97a4-6c1605095ad4","ios":"levelo://app?vid=3f05e42b-9d09-4214-97a4-6c1605095ad4"},"vehicle_type_id":"4","last_reported":1746659371,"current_range_meters":10800,"station_id":"ce4bhb92rcd13ifvqen0","pricing_plan_id":"cebpf4jnsgd1na2vs0mg"},{"bike_id":"569154da-5aba-4b6a-9874-971785801a0f","system_id":"levelo_inurba_marseille","lat":43.27812,"lon":5.407083,"is_reserved":false,"is_disabled":false,"rental_uris":{"android":"levelo://app?vid=569154da-5aba-4b6a-9874-971785801a0f","ios":"levelo://app?vid=569154da-5aba-4b6a-9874-971785801a0f"},"vehicle_type_id":"4","last_reported":1746659371,"current_range_meters":10800,"station_id":"ce4bhnh2rcd13ifvqgtg","pricing_plan_id":"cebpf4jnsgd1na2vs0mg"},{"bike_id":"606204f1-5145-42e8-b746-c5c6c08abc5b","system_id":"levelo_inurba_marseille","lat":43.28721,"lon":5.3996,"is_reserved":false,"is_disabled":false,"rental_uris":{"android":"levelo://app?vid=606204f1-5145-42e8-b746-c5c6c08abc5b","ios":"levelo://app?vid=606204f1-5145-42e8-b746-c5c6c08abc5b"},"vehicle_type_id":"4","last_reported":1746659371,"current_range_meters":10800,"station_id":"ce4bho92rcd13ifvqh3g","pricing_plan_id":"cebpf4jnsgd1na2vs0mg"},{"bike_id":"6299ea01-f457-4650-ab4b-3e8fdc6d7d47","system_id":"levelo_inurba_marseille","lat":43.30602,"lon":5.37226,"is_reserved":false,"is_disabled":false,"rental_uris":{"android":"levelo://app?vid=6299ea01-f457-4650-ab4b-3e8fdc6d7d47","ios":"levelo://app?vid=6299ea01-f457-4650-ab4b-3e8fdc6d7d47"},"vehicle_type_id":"4","last_reported":1746659371,"current_range_meters":11200,"station_id":"ce4bgqh2rcd13ifvqc4g","pricing_plan_id":"cebpf4jnsgd1na2vs0mg"},{"bike_id":"be2ea01e-901c-4275-b9a1-758d91918d20","system_id":"levelo_inurba_marseille","lat":43.31076,"lon":5.38352,"is_reserved":false,"is_disabled":false,"rental_uris":{"android":"levelo://app?vid=be2ea01e-901c-4275-b9a1-758d91918d20","ios":"levelo://app?vid=be2ea01e-901c-4275-b9a1-758d91918d20"},"vehicle_type_id":"4","last_reported":1746659371,"current_range_meters":11200,"station_id":"ce4bgv92rcd13ifvqcr0","pricing_plan_id":"cebpf4jnsgd1na2vs0mg"},{"bike_id":"c460d626-46dc-4323-977a-1bf36ca4902b","system_id":"levelo_inurba_marseille","lat":43.28044,"lon":5.3694,"is_reserved":false,"is_disabled":false,"rental_uris":{"android":"levelo://app?vid=c460d626-46dc-4323-977a-1bf36ca4902b","ios":"levelo://app?vid=c460d626-46dc-4323-977a-1bf36ca4902b"},"vehicle_type_id":"4","last_reported":1746659371,"current_range_meters":11200,"station_id":"ce4bha12rcd13ifvqef0","pricing_plan_id":"cebpf4jnsgd1na2vs0mg"},{"bike_id":"7d7777fd-9119-487c-9644-54005f3712a0","system_id":"levelo_inurba_marseille","lat":43.284527,"lon":5.358827,"is_reserved":false,"is_disabled":false,"rental_uris":{"android":"levelo://app?vid=7d7777fd-9119-487c-9644-54005f3712a0","ios":"levelo://app?vid=7d7777fd-9119-487c-9644-54005f3712a0"},"vehicle_type_id":"4","last_reported":1746659371,"current_range_meters":11200,"station_id":"ce4bhah2rcd13ifvqei0","pricing_plan_id":"cebpf4jnsgd1na2vs0mg"},{"bike_id":"15c94903-bff0-448b-a6ba-943a7f56259b","system_id":"levelo_inurba_marseille","lat":43.24659,"lon":5.38147,"is_reserved":false,"is_disabled":false,"rental_uris":{"android":"levelo://app?vid=15c94903-bff0-448b-a6ba-943a7f56259b","ios":"levelo://app?vid=15c94903-bff0-448b-a6ba-943a7f56259b"},"vehicle_type_id":"4","last_reported":1746659371,"current_range_meters":11200,"station_id":"ce4bhih2rcd13ifvqfr0","pricing_plan_id":"cebpf4jnsgd1na2vs0mg"},{"bike_id":"2ffa008f-4045-404e-a632-f92e2b79f62f","system_id":"levelo_inurba_marseille","lat":43.28147,"lon":5.4265,"is_reserved":false,"is_disabled":false,"rental_uris":{"android":"levelo://app?vid=2ffa008f-4045-404e-a632-f92e2b79f62f","ios":"levelo://app?vid=2ffa008f-4045-404e-a632-f92e2b79f62f"},"vehicle_type_id":"4","last_reported":1746659371,"current_range_meters":11200,"station_id":"ce4bhnh2rcd13ifvqgug","pricing_plan_id":"cebpf4jnsgd1na2vs0mg"},{"bike_id":"db823666-8f97-438c-8230-0115db4a7694","system_id":"levelo_inurba_marseille","lat":43.28267,"lon":5.36164,"is_reserved":false,"is_disabled":false,"rental_uris":{"android":"levelo://app?vid=db823666-8f97-438c-8230-0115db4a7694","ios":"levelo://app?vid=db823666-8f97-438c-8230-0115db4a7694"},"vehicle_type_id":"4","last_reported":1746659371,"current_range_meters":11600,"station_id":"","pricing_plan_id":"cebpf4jnsgd1na2vs0mg"},{"bike_id":"e76d81fe-d5f9-4a32-a6f1-5d1811ad56dd","system_id":"levelo_inurba_marseille","lat":43.30531,"lon":5.38415,"is_reserved":false,"is_disabled":false,"rental_uris":{"android":"levelo://app?vid=e76d81fe-d5f9-4a32-a6f1-5d1811ad56dd","ios":"levelo://app?vid=e76d81fe-d5f9-4a32-a6f1-5d1811ad56dd"},"vehicle_type_id":"4","last_reported":1746659371,"current_range_meters":11600,"station_id":"ce4bgg92rcd13ifvqb30","pricing_plan_id":"cebpf4jnsgd1na2vs0mg"},{"bike_id":"92409f35-f287-4cdd-8622-3c17558c463e","system_id":"levelo_inurba_marseille","lat":43.306016,"lon":5.372281,"is_reserved":false,"is_disabled":false,"rental_uris":{"android":"levelo://app?vid=92409f35-f287-4cdd-8622-3c17558c463e","ios":"levelo://app?vid=92409f35-f287-4cdd-8622-3c17558c463e"},"vehicle_type_id":"4","last_reported":1746659371,"current_range_meters":11600,"station_id":"ce4bgqh2rcd13ifvqc4g","pricing_plan_id":"cebpf4jnsgd1na2vs0mg"},{"bike_id":"87b9a829-6d08-4a6d-9a8e-b298b8a08212","system_id":"levelo_inurba_marseille","lat":43.28464,"lon":5.35888,"is_reserved":false,"is_disabled":false,"rental_uris":{"android":"levelo://app?vid=87b9a829-6d08-4a6d-9a8e-b298b8a08212","ios":"levelo://app?vid=87b9a829-6d08-4a6d-9a8e-b298b8a08212"},"vehicle_type_id":"4","last_reported":1746659371,"current_range_meters":11600,"station_id":"ce4bhah2rcd13ifvqei0","pricing_plan_id":"cebpf4jnsgd1na2vs0mg"},{"bike_id":"aee6ec02-002b-4aa4-8755-27e6a4930598","system_id":"levelo_inurba_marseille","lat":43.30791,"lon":5.37641,"is_reserved":false,"is_disabled":false,"rental_uris":{"android":"levelo://app?vid=aee6ec02-002b-4aa4-8755-27e6a4930598","ios":"levelo://app?vid=aee6ec02-002b-4aa4-8755-27e6a4930598"},"vehicle_type_id":"4","last_reported":1746659371,"current_range_meters":12000,"station_id":"ce4bgv92rcd13ifvqcq0","pricing_plan_id":"cebpf4jnsgd1na2vs0mg"},{"bike_id":"eff01a47-9a9f-4a02-be20-e3fd0c3270dd","system_id":"levelo_inurba_marseille","lat":43.30631,"lon":5.40075,"is_reserved":false,"is_disabled":false,"rental_uris":{"android":"levelo://app?vid=eff01a47-9a9f-4a02-be20-e3fd0c3270dd","ios":"levelo://app?vid=eff01a47-9a9f-4a02-be20-e3fd0c3270dd"},"vehicle_type_id":"4","last_reported":1746659371,"current_range_meters":12000,"station_id":"ce4bh112rcd13ifvqda0","pricing_plan_id":"cebpf4jnsgd1na2vs0mg"},{"bike_id":"4de6755a-50c3-4c39-a8c3-401fa684bfb9","system_id":"levelo_inurba_marseille","lat":43.29274,"lon":5.36851,"is_reserved":false,"is_disabled":false,"rental_uris":{"android":"levelo://app?vid=4de6755a-50c3-4c39-a8c3-401fa684bfb9","ios":"levelo://app?vid=4de6755a-50c3-4c39-a8c3-401fa684bfb9"},"vehicle_type_id":"4","last_reported":1746659371,"current_range_meters":12000,"station_id":"ce4bhbp2rcd13ifvqesg","pricing_plan_id":"cebpf4jnsgd1na2vs0mg"},{"bike_id":"4c66ee4b-5844-435d-a800-f4d1b96529a7","system_id":"levelo_inurba_marseille","lat":43.27172,"lon":5.40981,"is_reserved":false,"is_disabled":false,"rental_uris":{"android":"levelo://app?vid=4c66ee4b-5844-435d-a800-f4d1b96529a7","ios":"levelo://app?vid=4c66ee4b-5844-435d-a800-f4d1b96529a7"},"vehicle_type_id":"4","last_reported":1746659371,"current_range_meters":12000,"station_id":"ce4bhl12rcd13ifvqgf0","pricing_plan_id":"cebpf4jnsgd1na2vs0mg"},{"bike_id":"814b049e-86d8-441d-a9b7-533911196968","system_id":"levelo_inurba_marseille","lat":43.313593,"lon":5.384911,"is_reserved":false,"is_disabled":false,"rental_uris":{"android":"levelo://app?vid=814b049e-86d8-441d-a9b7-533911196968","ios":"levelo://app?vid=814b049e-86d8-441d-a9b7-533911196968"},"vehicle_type_id":"4","last_reported":1746659371,"current_range_meters":12400,"station_id":"ce4bgt92rcd13ifvqcf0","pricing_plan_id":"cebpf4jnsgd1na2vs0mg"},{"bike_id":"cb5561fb-3ed2-49bf-bd58-7c8862116c78","system_id":"levelo_inurba_marseille","lat":43.21175,"lon":5.35065,"is_reserved":false,"is_disabled":false,"rental_uris":{"android":"levelo://app?vid=cb5561fb-3ed2-49bf-bd58-7c8862116c78","ios":"levelo://app?vid=cb5561fb-3ed2-49bf-bd58-7c8862116c78"},"vehicle_type_id":"4","last_reported":1746659371,"current_range_meters":12400,"station_id":"st_cvj6sg6p6f1abm77japg","pricing_plan_id":"cebpf4jnsgd1na2vs0mg"},{"bike_id":"09f3ef05-bfe9-44c4-9098-0ca1f9ee1def","system_id":"levelo_inurba_marseille","lat":43.289482,"lon":5.396385,"is_reserved":false,"is_disabled":false,"rental_uris":{"android":"levelo://app?vid=09f3ef05-bfe9-44c4-9098-0ca1f9ee1def","ios":"levelo://app?vid=09f3ef05-bfe9-44c4-9098-0ca1f9ee1def"},"vehicle_type_id":"4","last_reported":1746659371,"current_range_meters":12800,"station_id":"ce4bh3h2rcd13ifvqdn0","pricing_plan_id":"cebpf4jnsgd1na2vs0mg"},{"bike_id":"5453c7c8-d7df-431d-98db-167d3c16d978","system_id":"levelo_inurba_marseille","lat":43.31368,"lon":5.38507,"is_reserved":false,"is_disabled":false,"rental_uris":{"android":"levelo://app?vid=5453c7c8-d7df-431d-98db-167d3c16d978","ios":"levelo://app?vid=5453c7c8-d7df-431d-98db-167d3c16d978"},"vehicle_type_id":"4","last_reported":1746659371,"current_range_meters":13600,"station_id":"ce4bgt92rcd13ifvqcf0","pricing_plan_id":"cebpf4jnsgd1na2vs0mg"},{"bike_id":"94a47784-057f-4aa6-bfa9-3b315aa90d68","system_id":"levelo_inurba_marseille","lat":43.30932,"lon":5.40139,"is_reserved":false,"is_disabled":false,"rental_uris":{"android":"levelo://app?vid=94a47784-057f-4aa6-bfa9-3b315aa90d68","ios":"levelo://app?vid=94a47784-057f-4aa6-bfa9-3b315aa90d68"},"vehicle_type_id":"4","last_reported":1746659371,"current_range_meters":13600,"station_id":"ce4bgvp2rcd13ifvqct0","pricing_plan_id":"cebpf4jnsgd1na2vs0mg"},{"bike_id":"b3dda9f1-e281-4acc-a3e5-f9bdd89841dd","system_id":"levelo_inurba_marseille","lat":43.28404,"lon":5.37499,"is_reserved":false,"is_disabled":false,"rental_uris":{"android":"levelo://app?vid=b3dda9f1-e281-4acc-a3e5-f9bdd89841dd","ios":"levelo://app?vid=b3dda9f1-e281-4acc-a3e5-f9bdd89841dd"},"vehicle_type_id":"4","last_reported":1746659371,"current_range_meters":13600,"station_id":"ce4bh412rcd13ifvqds0","pricing_plan_id":"cebpf4jnsgd1na2vs0mg"},{"bike_id":"e8e5e2ea-d39b-4fae-9996-1c9c8efa61a5","system_id":"levelo_inurba_marseille","lat":43.28616,"lon":5.35101,"is_reserved":false,"is_disabled":false,"rental_uris":{"android":"levelo://app?vid=e8e5e2ea-d39b-4fae-9996-1c9c8efa61a5","ios":"levelo://app?vid=e8e5e2ea-d39b-4fae-9996-1c9c8efa61a5"},"vehicle_type_id":"4","last_reported":1746659371,"current_range_meters":13600,"station_id":"ce4bhch2rcd13ifvqeug","pricing_plan_id":"cebpf4jnsgd1na2vs0mg"},{"bike_id":"9209774a-06b7-47c7-a6eb-adc0c3f47cff","system_id":"levelo_inurba_marseille","lat":43.25593,"lon":5.38266,"is_reserved":false,"is_disabled":false,"rental_uris":{"android":"levelo://app?vid=9209774a-06b7-47c7-a6eb-adc0c3f47cff","ios":"levelo://app?vid=9209774a-06b7-47c7-a6eb-adc0c3f47cff"},"vehicle_type_id":"4","last_reported":1746659371,"current_range_meters":13600,"station_id":"ce4bhih2rcd13ifvqfs0","pricing_plan_id":"cebpf4jnsgd1na2vs0mg"},{"bike_id":"2e151610-7e31-44b1-8af8-0f8e636c5e17","system_id":"levelo_inurba_marseille","lat":43.28477,"lon":5.38409,"is_reserved":false,"is_disabled":false,"rental_uris":{"android":"levelo://app?vid=2e151610-7e31-44b1-8af8-0f8e636c5e17","ios":"levelo://app?vid=2e151610-7e31-44b1-8af8-0f8e636c5e17"},"vehicle_type_id":"4","last_reported":1746659371,"current_range_meters":14000,"station_id":"ce4bh512rcd13ifvqe3g","pricing_plan_id":"cebpf4jnsgd1na2vs0mg"},{"bike_id":"018f7fc3-4ceb-4402-9d8e-2c9568219b26","system_id":"levelo_inurba_marseille","lat":43.28471,"lon":5.3587,"is_reserved":false,"is_disabled":false,"rental_uris":{"android":"levelo://app?vid=018f7fc3-4ceb-4402-9d8e-2c9568219b26","ios":"levelo://app?vid=018f7fc3-4ceb-4402-9d8e-2c9568219b26"},"vehicle_type_id":"4","last_reported":1746659371,"current_range_meters":14000,"station_id":"ce4bhah2rcd13ifvqei0","pricing_plan_id":"cebpf4jnsgd1na2vs0mg"},{"bike_id":"e945a495-d359-4bb7-bb94-1340aff95955","system_id":"levelo_inurba_marseille","lat":43.28145,"lon":5.40605,"is_reserved":false,"is_disabled":false,"rental_uris":{"android":"levelo://app?vid=e945a495-d359-4bb7-bb94-1340aff95955","ios":"levelo://app?vid=e945a495-d359-4bb7-bb94-1340aff95955"},"vehicle_type_id":"4","last_reported":1746659371,"current_range_meters":14400,"station_id":"","pricing_plan_id":"cebpf4jnsgd1na2vs0mg"},{"bike_id":"b393174e-f3bc-4dc4-9c30-726b6070aa06","system_id":"levelo_inurba_marseille","lat":43.3079,"lon":5.38144,"is_reserved":false,"is_disabled":false,"rental_uris":{"android":"levelo://app?vid=b393174e-f3bc-4dc4-9c30-726b6070aa06","ios":"levelo://app?vid=b393174e-f3bc-4dc4-9c30-726b6070aa06"},"vehicle_type_id":"4","last_reported":1746659371,"current_range_meters":14400,"station_id":"ce4bgt12rcd13ifvqce0","pricing_plan_id":"cebpf4jnsgd1na2vs0mg"},{"bike_id":"17b214d6-99b5-4fbd-a65f-6ac3467903ea","system_id":"levelo_inurba_marseille","lat":43.310668,"lon":5.38349,"is_reserved":false,"is_disabled":false,"rental_uris":{"android":"levelo://app?vid=17b214d6-99b5-4fbd-a65f-6ac3467903ea","ios":"levelo://app?vid=17b214d6-99b5-4fbd-a65f-6ac3467903ea"},"vehicle_type_id":"4","last_reported":1746659371,"current_range_meters":14400,"station_id":"ce4bgv92rcd13ifvqcr0","pricing_plan_id":"cebpf4jnsgd1na2vs0mg"},{"bike_id":"3e0bb6ec-7e07-4048-8e69-fba45e371414","system_id":"levelo_inurba_marseille","lat":43.29631,"lon":5.40594,"is_reserved":false,"is_disabled":false,"rental_uris":{"android":"levelo://app?vid=3e0bb6ec-7e07-4048-8e69-fba45e371414","ios":"levelo://app?vid=3e0bb6ec-7e07-4048-8e69-fba45e371414"},"vehicle_type_id":"4","last_reported":1746659371,"current_range_meters":14400,"station_id":"ce4bh0h2rcd13ifvqd60","pricing_plan_id":"cebpf4jnsgd1na2vs0mg"},{"bike_id":"005db74a-6538-4bc2-a810-f239ed18f614","system_id":"levelo_inurba_marseille","lat":43.27944,"lon":5.41035,"is_reserved":false,"is_disabled":false,"rental_uris":{"android":"levelo://app?vid=005db74a-6538-4bc2-a810-f239ed18f614","ios":"levelo://app?vid=005db74a-6538-4bc2-a810-f239ed18f614"},"vehicle_type_id":"4","last_reported":1746659371,"current_range_meters":14400,"station_id":"ce4bhnp2rcd13ifvqh0g","pricing_plan_id":"cebpf4jnsgd1na2vs0mg"},{"bike_id":"f44f1a89-67d8-4c00-9599-b3a2c38876d9","system_id":"levelo_inurba_marseille","lat":43.279964,"lon":5.416576,"is_reserved":false,"is_disabled":false,"rental_uris":{"android":"levelo://app?vid=f44f1a89-67d8-4c00-9599-b3a2c38876d9","ios":"levelo://app?vid=f44f1a89-67d8-4c00-9599-b3a2c38876d9"},"vehicle_type_id":"4","last_reported":1746659371,"current_range_meters":14400,"station_id":"ce4bho12rcd13ifvqh1g","pricing_plan_id":"cebpf4jnsgd1na2vs0mg"},{"bike_id":"1ff298f4-1f0c-4922-8097-818f34a3d794","system_id":"levelo_inurba_marseille","lat":43.336026,"lon":5.41027,"is_reserved":false,"is_disabled":false,"rental_uris":{"android":"levelo://app?vid=1ff298f4-1f0c-4922-8097-818f34a3d794","ios":"levelo://app?vid=1ff298f4-1f0c-4922-8097-818f34a3d794"},"vehicle_type_id":"4","last_reported":1746659371,"current_range_meters":14400,"station_id":"ce4bhqh2rcd13ifvqhmg","pricing_plan_id":"cebpf4jnsgd1na2vs0mg"},{"bike_id":"e6282093-23fb-41a9-859d-c0d9ad966535","system_id":"levelo_inurba_marseille","lat":43.31673,"lon":5.37697,"is_reserved":false,"is_disabled":false,"rental_uris":{"android":"levelo://app?vid=e6282093-23fb-41a9-859d-c0d9ad966535","ios":"levelo://app?vid=e6282093-23fb-41a9-859d-c0d9ad966535"},"vehicle_type_id":"4","last_reported":1746659371,"current_range_meters":14800,"station_id":"","pricing_plan_id":"cebpf4jnsgd1na2vs0mg"},{"bike_id":"1f0ec024-dd17-4e6c-b386-b5410269e547","system_id":"levelo_inurba_marseille","lat":43.30244,"lon":5.40092,"is_reserved":false,"is_disabled":false,"rental_uris":{"android":"levelo://app?vid=1f0ec024-dd17-4e6c-b386-b5410269e547","ios":"levelo://app?vid=1f0ec024-dd17-4e6c-b386-b5410269e547"},"vehicle_type_id":"4","last_reported":1746659371,"current_range_meters":14800,"station_id":"ce4bgvh2rcd13ifvqcs0","pricing_plan_id":"cebpf4jnsgd1na2vs0mg"},{"bike_id":"1916e3c8-cbe8-49aa-8b03-cd6efeec9565","system_id":"levelo_inurba_marseille","lat":43.30111,"lon":5.39852,"is_reserved":false,"is_disabled":false,"rental_uris":{"android":"levelo://app?vid=1916e3c8-cbe8-49aa-8b03-cd6efeec9565","ios":"levelo://app?vid=1916e3c8-cbe8-49aa-8b03-cd6efeec9565"},"vehicle_type_id":"4","last_reported":1746659371,"current_range_meters":14800,"station_id":"ce4bh0h2rcd13ifvqd40","pricing_plan_id":"cebpf4jnsgd1na2vs0mg"},{"bike_id":"5d6a2fd5-907e-408f-850c-103d60d953e5","system_id":"levelo_inurba_marseille","lat":43.25579,"lon":5.38244,"is_reserved":false,"is_disabled":false,"rental_uris":{"android":"levelo://app?vid=5d6a2fd5-907e-408f-850c-103d60d953e5","ios":"levelo://app?vid=5d6a2fd5-907e-408f-850c-103d60d953e5"},"vehicle_type_id":"4","last_reported":1746659371,"current_range_meters":14800,"station_id":"ce4bhih2rcd13ifvqfs0","pricing_plan_id":"cebpf4jnsgd1na2vs0mg"},{"bike_id":"d42e7708-2462-4709-a90e-e844c90247c4","system_id":"levelo_inurba_marseille","lat":43.28446,"lon":5.39196,"is_reserved":false,"is_disabled":false,"rental_uris":{"android":"levelo://app?vid=d42e7708-2462-4709-a90e-e844c90247c4","ios":"levelo://app?vid=d42e7708-2462-4709-a90e-e844c90247c4"},"vehicle_type_id":"4","last_reported":1746659371,"current_range_meters":14800,"station_id":"ce4bhoh2rcd13ifvqh5g","pricing_plan_id":"cebpf4jnsgd1na2vs0mg"},{"bike_id":"492a7a57-4c14-4260-ba62-da55dda4a419","system_id":"levelo_inurba_marseille","lat":43.32338,"lon":5.4062,"is_reserved":false,"is_disabled":false,"rental_uris":{"android":"levelo://app?vid=492a7a57-4c14-4260-ba62-da55dda4a419","ios":"levelo://app?vid=492a7a57-4c14-4260-ba62-da55dda4a419"},"vehicle_type_id":"4","last_reported":1746659371,"current_range_meters":14800,"station_id":"ce4bhq92rcd13ifvqhjg","pricing_plan_id":"cebpf4jnsgd1na2vs0mg"},{"bike_id":"809c8673-c032-46b9-aa07-62c38e26d44e","system_id":"levelo_inurba_marseille","lat":43.25062,"lon":5.38787,"is_reserved":false,"is_disabled":false,"rental_uris":{"android":"levelo://app?vid=809c8673-c032-46b9-aa07-62c38e26d44e","ios":"levelo://app?vid=809c8673-c032-46b9-aa07-62c38e26d44e"},"vehicle_type_id":"4","last_reported":1746659371,"current_range_meters":15200,"station_id":"","pricing_plan_id":"cebpf4jnsgd1na2vs0mg"},{"bike_id":"1f120129-aa16-4bd8-b2c4-6c98c732b3d2","system_id":"levelo_inurba_marseille","lat":43.317096,"lon":5.40454,"is_reserved":false,"is_disabled":false,"rental_uris":{"android":"levelo://app?vid=1f120129-aa16-4bd8-b2c4-6c98c732b3d2","ios":"levelo://app?vid=1f120129-aa16-4bd8-b2c4-6c98c732b3d2"},"vehicle_type_id":"4","last_reported":1746659371,"current_range_meters":15200,"station_id":"ce4bh012rcd13ifvqd00","pricing_plan_id":"cebpf4jnsgd1na2vs0mg"},{"bike_id":"2aace568-ac2f-49c7-9458-5246d5166cd0","system_id":"levelo_inurba_marseille","lat":43.28899,"lon":5.44975,"is_reserved":false,"is_disabled":false,"rental_uris":{"android":"levelo://app?vid=2aace568-ac2f-49c7-9458-5246d5166cd0","ios":"levelo://app?vid=2aace568-ac2f-49c7-9458-5246d5166cd0"},"vehicle_type_id":"4","last_reported":1746659371,"current_range_meters":16000,"station_id":"","pricing_plan_id":"cebpf4jnsgd1na2vs0mg"},{"bike_id":"5090961f-1c7d-4202-8794-ee3f3eb80c81","system_id":"levelo_inurba_marseille","lat":43.30514,"lon":5.39296,"is_reserved":false,"is_disabled":false,"rental_uris":{"android":"levelo://app?vid=5090961f-1c7d-4202-8794-ee3f3eb80c81","ios":"levelo://app?vid=5090961f-1c7d-4202-8794-ee3f3eb80c81"},"vehicle_type_id":"4","last_reported":1746659371,"current_range_meters":16000,"station_id":"","pricing_plan_id":"cebpf4jnsgd1na2vs0mg"},{"bike_id":"47cd9dba-9c5a-4de3-a27d-45ec0de547bc","system_id":"levelo_inurba_marseille","lat":43.28843,"lon":5.43322,"is_reserved":false,"is_disabled":false,"rental_uris":{"android":"levelo://app?vid=47cd9dba-9c5a-4de3-a27d-45ec0de547bc","ios":"levelo://app?vid=47cd9dba-9c5a-4de3-a27d-45ec0de547bc"},"vehicle_type_id":"4","last_reported":1746659371,"current_range_meters":16000,"station_id":"","pricing_plan_id":"cebpf4jnsgd1na2vs0mg"},{"bike_id":"89b9f9d0-7045-4080-9efd-da852036f2f6","system_id":"levelo_inurba_marseille","lat":43.28658,"lon":5.36344,"is_reserved":false,"is_disabled":false,"rental_uris":{"android":"levelo://app?vid=89b9f9d0-7045-4080-9efd-da852036f2f6","ios":"levelo://app?vid=89b9f9d0-7045-4080-9efd-da852036f2f6"},"vehicle_type_id":"4","last_reported":1746659371,"current_range_meters":16000,"station_id":"ce4bhah2rcd13ifvqej0","pricing_plan_id":"cebpf4jnsgd1na2vs0mg"},{"bike_id":"06595f87-dd05-4250-afa5-616247abc561","system_id":"levelo_inurba_marseille","lat":43.27421,"lon":5.39416,"is_reserved":false,"is_disabled":false,"rental_uris":{"android":"levelo://app?vid=06595f87-dd05-4250-afa5-616247abc561","ios":"levelo://app?vid=06595f87-dd05-4250-afa5-616247abc561"},"vehicle_type_id":"4","last_reported":1746659371,"current_range_meters":16000,"station_id":"ce4bhdp2rcd13ifvqf20","pricing_plan_id":"cebpf4jnsgd1na2vs0mg"},{"bike_id":"caccb556-2ad0-45b8-84b8-819024dd44e6","system_id":"levelo_inurba_marseille","lat":43.29787,"lon":5.36793,"is_reserved":false,"is_disabled":false,"rental_uris":{"android":"levelo://app?vid=caccb556-2ad0-45b8-84b8-819024dd44e6","ios":"levelo://app?vid=caccb556-2ad0-45b8-84b8-819024dd44e6"},"vehicle_type_id":"4","last_reported":1746659371,"current_range_meters":16400,"station_id":"","pricing_plan_id":"cebpf4jnsgd1na2vs0mg"},{"bike_id":"de1c4770-4e5b-40bb-bd95-5e7d86e7a8be","system_id":"levelo_inurba_marseille","lat":43.30597,"lon":5.37214,"is_reserved":false,"is_disabled":false,"rental_uris":{"android":"levelo://app?vid=de1c4770-4e5b-40bb-bd95-5e7d86e7a8be","ios":"levelo://app?vid=de1c4770-4e5b-40bb-bd95-5e7d86e7a8be"},"vehicle_type_id":"4","last_reported":1746659371,"current_range_meters":16400,"station_id":"ce4bgqh2rcd13ifvqc4g","pricing_plan_id":"cebpf4jnsgd1na2vs0mg"},{"bike_id":"9cf54e36-7262-492b-9233-846ec2629fb1","system_id":"levelo_inurba_marseille","lat":43.30256,"lon":5.40073,"is_reserved":false,"is_disabled":false,"rental_uris":{"android":"levelo://app?vid=9cf54e36-7262-492b-9233-846ec2629fb1","ios":"levelo://app?vid=9cf54e36-7262-492b-9233-846ec2629fb1"},"vehicle_type_id":"4","last_reported":1746659371,"current_range_meters":16400,"station_id":"ce4bgvh2rcd13ifvqcs0","pricing_plan_id":"cebpf4jnsgd1na2vs0mg"},{"bike_id":"ef7b5cc3-6baa-45d8-808d-68c2899d6f9a","system_id":"levelo_inurba_marseille","lat":43.2417,"lon":5.39727,"is_reserved":false,"is_disabled":false,"rental_uris":{"android":"levelo://app?vid=ef7b5cc3-6baa-45d8-808d-68c2899d6f9a","ios":"levelo://app?vid=ef7b5cc3-6baa-45d8-808d-68c2899d6f9a"},"vehicle_type_id":"4","last_reported":1746659371,"current_range_meters":16400,"station_id":"ce4bhn12rcd13ifvqgpg","pricing_plan_id":"cebpf4jnsgd1na2vs0mg"},{"bike_id":"619780f2-7359-4679-9e96-07be599214a8","system_id":"levelo_inurba_marseille","lat":43.31887,"lon":5.40738,"is_reserved":false,"is_disabled":false,"rental_uris":{"android":"levelo://app?vid=619780f2-7359-4679-9e96-07be599214a8","ios":"levelo://app?vid=619780f2-7359-4679-9e96-07be599214a8"},"vehicle_type_id":"4","last_reported":1746659371,"current_range_meters":16400,"station_id":"ce4bhq12rcd13ifvqhig","pricing_plan_id":"cebpf4jnsgd1na2vs0mg"},{"bike_id":"6971f759-8594-489e-a8f6-9153c9a9c438","system_id":"levelo_inurba_marseille","lat":43.276864,"lon":5.419598,"is_reserved":false,"is_disabled":false,"rental_uris":{"android":"levelo://app?vid=6971f759-8594-489e-a8f6-9153c9a9c438","ios":"levelo://app?vid=6971f759-8594-489e-a8f6-9153c9a9c438"},"vehicle_type_id":"4","last_reported":1746659371,"current_range_meters":16800,"station_id":"","pricing_plan_id":"cebpf4jnsgd1na2vs0mg"},{"bike_id":"a60892ec-d65f-4ea1-a529-725b1e5fe55a","system_id":"levelo_inurba_marseille","lat":43.31062,"lon":5.38347,"is_reserved":false,"is_disabled":false,"rental_uris":{"android":"levelo://app?vid=a60892ec-d65f-4ea1-a529-725b1e5fe55a","ios":"levelo://app?vid=a60892ec-d65f-4ea1-a529-725b1e5fe55a"},"vehicle_type_id":"4","last_reported":1746659371,"current_range_meters":16800,"station_id":"ce4bgv92rcd13ifvqcr0","pricing_plan_id":"cebpf4jnsgd1na2vs0mg"},{"bike_id":"fe7b3733-1ac9-454b-944f-5aad37d6da40","system_id":"levelo_inurba_marseille","lat":43.28704,"lon":5.39971,"is_reserved":false,"is_disabled":false,"rental_uris":{"android":"levelo://app?vid=fe7b3733-1ac9-454b-944f-5aad37d6da40","ios":"levelo://app?vid=fe7b3733-1ac9-454b-944f-5aad37d6da40"},"vehicle_type_id":"4","last_reported":1746659371,"current_range_meters":16800,"station_id":"ce4bho92rcd13ifvqh3g","pricing_plan_id":"cebpf4jnsgd1na2vs0mg"},{"bike_id":"c59addc8-a412-4081-8a5d-85350323e794","system_id":"levelo_inurba_marseille","lat":43.32355,"lon":5.3675,"is_reserved":false,"is_disabled":false,"rental_uris":{"android":"levelo://app?vid=c59addc8-a412-4081-8a5d-85350323e794","ios":"levelo://app?vid=c59addc8-a412-4081-8a5d-85350323e794"},"vehicle_type_id":"4","last_reported":1746659371,"current_range_meters":16800,"station_id":"ce4bhsh2rcd13ifvqi2g","pricing_plan_id":"cebpf4jnsgd1na2vs0mg"},{"bike_id":"f884cd7a-4f4d-4862-a780-0aa77922f3e7","system_id":"levelo_inurba_marseille","lat":43.31341,"lon":5.39718,"is_reserved":false,"is_disabled":false,"rental_uris":{"android":"levelo://app?vid=f884cd7a-4f4d-4862-a780-0aa77922f3e7","ios":"levelo://app?vid=f884cd7a-4f4d-4862-a780-0aa77922f3e7"},"vehicle_type_id":"4","last_reported":1746659371,"current_range_meters":17200,"station_id":"ce4bgvp2rcd13ifvqcu0","pricing_plan_id":"cebpf4jnsgd1na2vs0mg"},{"bike_id":"adc4cb67-6870-430e-8e95-5dfa24834934","system_id":"levelo_inurba_marseille","lat":43.25492,"lon":5.37661,"is_reserved":false,"is_disabled":false,"rental_uris":{"android":"levelo://app?vid=adc4cb67-6870-430e-8e95-5dfa24834934","ios":"levelo://app?vid=adc4cb67-6870-430e-8e95-5dfa24834934"},"vehicle_type_id":"4","last_reported":1746659371,"current_range_meters":17200,"station_id":"ce4bhh12rcd13ifvqff0","pricing_plan_id":"cebpf4jnsgd1na2vs0mg"},{"bike_id":"1ea8714f-9dd1-4b7c-a258-9444b5a947af","system_id":"levelo_inurba_marseille","lat":43.28093,"lon":5.39655,"is_reserved":false,"is_disabled":false,"rental_uris":{"android":"levelo://app?vid=1ea8714f-9dd1-4b7c-a258-9444b5a947af","ios":"levelo://app?vid=1ea8714f-9dd1-4b7c-a258-9444b5a947af"},"vehicle_type_id":"4","last_reported":1746659371,"current_range_meters":17200,"station_id":"ce4bho12rcd13ifvqh2g","pricing_plan_id":"cebpf4jnsgd1na2vs0mg"},{"bike_id":"05dc4990-e4e9-47ec-88a0-d6db56ee509e","system_id":"levelo_inurba_marseille","lat":43.318902,"lon":5.407253,"is_reserved":false,"is_disabled":false,"rental_uris":{"android":"levelo://app?vid=05dc4990-e4e9-47ec-88a0-d6db56ee509e","ios":"levelo://app?vid=05dc4990-e4e9-47ec-88a0-d6db56ee509e"},"vehicle_type_id":"4","last_reported":1746659371,"current_range_meters":17200,"station_id":"ce4bhq12rcd13ifvqhig","pricing_plan_id":"cebpf4jnsgd1na2vs0mg"},{"bike_id":"49e1edb5-3fad-4311-9de7-56cceb654a91","system_id":"levelo_inurba_marseille","lat":43.26804,"lon":5.40257,"is_reserved":false,"is_disabled":false,"rental_uris":{"android":"levelo://app?vid=49e1edb5-3fad-4311-9de7-56cceb654a91","ios":"levelo://app?vid=49e1edb5-3fad-4311-9de7-56cceb654a91"},"vehicle_type_id":"4","last_reported":1746659371,"current_range_meters":17200,"station_id":"ce501612rcd8frsf0b60","pricing_plan_id":"cebpf4jnsgd1na2vs0mg"},{"bike_id":"cd91b6aa-86a7-4378-bed9-d72475161aa5","system_id":"levelo_inurba_marseille","lat":43.29977,"lon":5.38483,"is_reserved":false,"is_disabled":false,"rental_uris":{"android":"levelo://app?vid=cd91b6aa-86a7-4378-bed9-d72475161aa5","ios":"levelo://app?vid=cd91b6aa-86a7-4378-bed9-d72475161aa5"},"vehicle_type_id":"4","last_reported":1746659371,"current_range_meters":17600,"station_id":"ce4bgj92rcd13ifvqbd0","pricing_plan_id":"cebpf4jnsgd1na2vs0mg"},{"bike_id":"9d9b5b16-06f8-43ba-8fde-fc897d99734e","system_id":"levelo_inurba_marseille","lat":43.30775,"lon":5.37647,"is_reserved":false,"is_disabled":false,"rental_uris":{"android":"levelo://app?vid=9d9b5b16-06f8-43ba-8fde-fc897d99734e","ios":"levelo://app?vid=9d9b5b16-06f8-43ba-8fde-fc897d99734e"},"vehicle_type_id":"4","last_reported":1746659371,"current_range_meters":17600,"station_id":"ce4bgv92rcd13ifvqcq0","pricing_plan_id":"cebpf4jnsgd1na2vs0mg"},{"bike_id":"3f41ba14-56e2-4e51-9fba-16da01e41c31","system_id":"levelo_inurba_marseille","lat":43.27669,"lon":5.38862,"is_reserved":false,"is_disabled":false,"rental_uris":{"android":"levelo://app?vid=3f41ba14-56e2-4e51-9fba-16da01e41c31","ios":"levelo://app?vid=3f41ba14-56e2-4e51-9fba-16da01e41c31"},"vehicle_type_id":"4","last_reported":1746659371,"current_range_meters":17600,"station_id":"ce4bhi12rcd13ifvqfo0","pricing_plan_id":"cebpf4jnsgd1na2vs0mg"},{"bike_id":"2c3302d5-a1d6-46cf-9ce0-e3db4a12c976","system_id":"levelo_inurba_marseille","lat":43.30416,"lon":5.41285,"is_reserved":false,"is_disabled":false,"rental_uris":{"android":"levelo://app?vid=2c3302d5-a1d6-46cf-9ce0-e3db4a12c976","ios":"levelo://app?vid=2c3302d5-a1d6-46cf-9ce0-e3db4a12c976"},"vehicle_type_id":"4","last_reported":1746659371,"current_range_meters":17600,"station_id":"ce4bhop2rcd13ifvqh8g","pricing_plan_id":"cebpf4jnsgd1na2vs0mg"},{"bike_id":"7e46a3d9-1e67-4b9a-8636-6f4b1299a1ef","system_id":"levelo_inurba_marseille","lat":43.29627,"lon":5.40597,"is_reserved":false,"is_disabled":false,"rental_uris":{"android":"levelo://app?vid=7e46a3d9-1e67-4b9a-8636-6f4b1299a1ef","ios":"levelo://app?vid=7e46a3d9-1e67-4b9a-8636-6f4b1299a1ef"},"vehicle_type_id":"4","last_reported":1746659371,"current_range_meters":18000,"station_id":"ce4bh0h2rcd13ifvqd60","pricing_plan_id":"cebpf4jnsgd1na2vs0mg"},{"bike_id":"1f8a6139-1c04-40e8-93cd-64b562d91b0c","system_id":"levelo_inurba_marseille","lat":43.27072,"lon":5.42278,"is_reserved":false,"is_disabled":false,"rental_uris":{"android":"levelo://app?vid=1f8a6139-1c04-40e8-93cd-64b562d91b0c","ios":"levelo://app?vid=1f8a6139-1c04-40e8-93cd-64b562d91b0c"},"vehicle_type_id":"4","last_reported":1746659371,"current_range_meters":18000,"station_id":"ce4bhk92rcd13ifvqgb0","pricing_plan_id":"cebpf4jnsgd1na2vs0mg"},{"bike_id":"fc0953ab-6307-4092-9957-be52c434151e","system_id":"levelo_inurba_marseille","lat":43.27495,"lon":5.4245,"is_reserved":false,"is_disabled":false,"rental_uris":{"android":"levelo://app?vid=fc0953ab-6307-4092-9957-be52c434151e","ios":"levelo://app?vid=fc0953ab-6307-4092-9957-be52c434151e"},"vehicle_type_id":"4","last_reported":1746659371,"current_range_meters":18800,"station_id":"ce4bhn92rcd13ifvqgrg","pricing_plan_id":"cebpf4jnsgd1na2vs0mg"},{"bike_id":"0260e567-a895-4700-b31b-24e894a79118","system_id":"levelo_inurba_marseille","lat":43.27943,"lon":5.41041,"is_reserved":false,"is_disabled":false,"rental_uris":{"android":"levelo://app?vid=0260e567-a895-4700-b31b-24e894a79118","ios":"levelo://app?vid=0260e567-a895-4700-b31b-24e894a79118"},"vehicle_type_id":"4","last_reported":1746659371,"current_range_meters":18800,"station_id":"ce4bhnp2rcd13ifvqh0g","pricing_plan_id":"cebpf4jnsgd1na2vs0mg"},{"bike_id":"ad3912e1-02bc-450f-9f15-6e4766049115","system_id":"levelo_inurba_marseille","lat":43.2955,"lon":5.42278,"is_reserved":false,"is_disabled":false,"rental_uris":{"android":"levelo://app?vid=ad3912e1-02bc-450f-9f15-6e4766049115","ios":"levelo://app?vid=ad3912e1-02bc-450f-9f15-6e4766049115"},"vehicle_type_id":"4","last_reported":1746659371,"current_range_meters":18800,"station_id":"ce4bhph2rcd13ifvqhdg","pricing_plan_id":"cebpf4jnsgd1na2vs0mg"},{"bike_id":"70a29a45-574c-4ff1-aca3-740aa0e705be","system_id":"levelo_inurba_marseille","lat":43.24152,"lon":5.3639,"is_reserved":false,"is_disabled":false,"rental_uris":{"android":"levelo://app?vid=70a29a45-574c-4ff1-aca3-740aa0e705be","ios":"levelo://app?vid=70a29a45-574c-4ff1-aca3-740aa0e705be"},"vehicle_type_id":"4","last_reported":1746659371,"current_range_meters":18800,"station_id":"cpo36qri1sfpv3e86is0","pricing_plan_id":"cebpf4jnsgd1na2vs0mg"},{"bike_id":"86faaeb0-89f8-42b9-be93-a34d16b7bcf7","system_id":"levelo_inurba_marseille","lat":43.3009,"lon":5.37058,"is_reserved":false,"is_disabled":false,"rental_uris":{"android":"levelo://app?vid=86faaeb0-89f8-42b9-be93-a34d16b7bcf7","ios":"levelo://app?vid=86faaeb0-89f8-42b9-be93-a34d16b7bcf7"},"vehicle_type_id":"4","last_reported":1746659371,"current_range_meters":19200,"station_id":"","pricing_plan_id":"cebpf4jnsgd1na2vs0mg"},{"bike_id":"084222e8-109d-40e5-bbed-f1d8a90c69e1","system_id":"levelo_inurba_marseille","lat":43.3022,"lon":5.39481,"is_reserved":false,"is_disabled":false,"rental_uris":{"android":"levelo://app?vid=084222e8-109d-40e5-bbed-f1d8a90c69e1","ios":"levelo://app?vid=084222e8-109d-40e5-bbed-f1d8a90c69e1"},"vehicle_type_id":"4","last_reported":1746659371,"current_range_meters":19200,"station_id":"ce4bh0p2rcd13ifvqd70","pricing_plan_id":"cebpf4jnsgd1na2vs0mg"},{"bike_id":"99fde332-20cc-43dc-9efe-63dd5770b720","system_id":"levelo_inurba_marseille","lat":43.269422,"lon":5.40248,"is_reserved":false,"is_disabled":false,"rental_uris":{"android":"levelo://app?vid=99fde332-20cc-43dc-9efe-63dd5770b720","ios":"levelo://app?vid=99fde332-20cc-43dc-9efe-63dd5770b720"},"vehicle_type_id":"4","last_reported":1746659371,"current_range_meters":19200,"station_id":"cjm6bp8fraef2m0cb0m0","pricing_plan_id":"cebpf4jnsgd1na2vs0mg"},{"bike_id":"16d82653-e2e5-4531-a384-7902e244f0cf","system_id":"levelo_inurba_marseille","lat":43.22502,"lon":5.3478,"is_reserved":false,"is_disabled":false,"rental_uris":{"android":"levelo://app?vid=16d82653-e2e5-4531-a384-7902e244f0cf","ios":"levelo://app?vid=16d82653-e2e5-4531-a384-7902e244f0cf"},"vehicle_type_id":"4","last_reported":1746659371,"current_range_meters":19200,"station_id":"st_cvj5dfep6f1abm77gieg","pricing_plan_id":"cebpf4jnsgd1na2vs0mg"},{"bike_id":"89b5c51b-cd9c-475c-ba7a-726b12d22f75","system_id":"levelo_inurba_marseille","lat":43.211911,"lon":5.350719,"is_reserved":false,"is_disabled":false,"rental_uris":{"android":"levelo://app?vid=89b5c51b-cd9c-475c-ba7a-726b12d22f75","ios":"levelo://app?vid=89b5c51b-cd9c-475c-ba7a-726b12d22f75"},"vehicle_type_id":"4","last_reported":1746659371,"current_range_meters":19200,"station_id":"st_cvj6sg6p6f1abm77japg","pricing_plan_id":"cebpf4jnsgd1na2vs0mg"},{"bike_id":"e9905bd5-b7a2-4d8c-9151-885baac3a291","system_id":"levelo_inurba_marseille","lat":43.30461,"lon":5.37899,"is_reserved":false,"is_disabled":false,"rental_uris":{"android":"levelo://app?vid=e9905bd5-b7a2-4d8c-9151-885baac3a291","ios":"levelo://app?vid=e9905bd5-b7a2-4d8c-9151-885baac3a291"},"vehicle_type_id":"4","last_reported":1746659371,"current_range_meters":19600,"station_id":"ce4bgup2rcd13ifvqcn0","pricing_plan_id":"cebpf4jnsgd1na2vs0mg"},{"bike_id":"545f7335-f587-48c6-bdc0-fb5f2925857f","system_id":"levelo_inurba_marseille","lat":43.31074,"lon":5.38347,"is_reserved":false,"is_disabled":false,"rental_uris":{"android":"levelo://app?vid=545f7335-f587-48c6-bdc0-fb5f2925857f","ios":"levelo://app?vid=545f7335-f587-48c6-bdc0-fb5f2925857f"},"vehicle_type_id":"4","last_reported":1746659371,"current_range_meters":19600,"station_id":"ce4bgv92rcd13ifvqcr0","pricing_plan_id":"cebpf4jnsgd1na2vs0mg"},{"bike_id":"ed95ba89-64a8-4bb9-994f-92af2793b9bb","system_id":"levelo_inurba_marseille","lat":43.25825,"lon":5.39419,"is_reserved":false,"is_disabled":false,"rental_uris":{"android":"levelo://app?vid=ed95ba89-64a8-4bb9-994f-92af2793b9bb","ios":"levelo://app?vid=ed95ba89-64a8-4bb9-994f-92af2793b9bb"},"vehicle_type_id":"4","last_reported":1746659371,"current_range_meters":19600,"station_id":"ce4bhip2rcd13ifvqft0","pricing_plan_id":"cebpf4jnsgd1na2vs0mg"},{"bike_id":"3cac0407-9710-44bd-a04a-af262a1048b3","system_id":"levelo_inurba_marseille","lat":43.28158,"lon":5.42631,"is_reserved":false,"is_disabled":false,"rental_uris":{"android":"levelo://app?vid=3cac0407-9710-44bd-a04a-af262a1048b3","ios":"levelo://app?vid=3cac0407-9710-44bd-a04a-af262a1048b3"},"vehicle_type_id":"4","last_reported":1746659371,"current_range_meters":19600,"station_id":"ce4bhnh2rcd13ifvqgug","pricing_plan_id":"cebpf4jnsgd1na2vs0mg"},{"bike_id":"6d767346-d038-46f7-a657-a4a02470e1aa","system_id":"levelo_inurba_marseille","lat":43.29917,"lon":5.37478,"is_reserved":false,"is_disabled":false,"rental_uris":{"android":"levelo://app?vid=6d767346-d038-46f7-a657-a4a02470e1aa","ios":"levelo://app?vid=6d767346-d038-46f7-a657-a4a02470e1aa"},"vehicle_type_id":"4","last_reported":1746659371,"current_range_meters":20000,"station_id":"ce4bgjh2rcd13ifvqbg0","pricing_plan_id":"cebpf4jnsgd1na2vs0mg"},{"bike_id":"8d07c3e4-4780-432f-81a8-525c811272d6","system_id":"levelo_inurba_marseille","lat":43.31485,"lon":5.37304,"is_reserved":false,"is_disabled":false,"rental_uris":{"android":"levelo://app?vid=8d07c3e4-4780-432f-81a8-525c811272d6","ios":"levelo://app?vid=8d07c3e4-4780-432f-81a8-525c811272d6"},"vehicle_type_id":"4","last_reported":1746659371,"current_range_meters":20000,"station_id":"ce4bgt12rcd13ifvqcd0","pricing_plan_id":"cebpf4jnsgd1na2vs0mg"},{"bike_id":"ff1b2b69-d803-4a18-934f-9a60648b115c","system_id":"levelo_inurba_marseille","lat":43.27424,"lon":5.3938,"is_reserved":false,"is_disabled":false,"rental_uris":{"android":"levelo://app?vid=ff1b2b69-d803-4a18-934f-9a60648b115c","ios":"levelo://app?vid=ff1b2b69-d803-4a18-934f-9a60648b115c"},"vehicle_type_id":"4","last_reported":1746659371,"current_range_meters":20000,"station_id":"ce4bhdp2rcd13ifvqf20","pricing_plan_id":"cebpf4jnsgd1na2vs0mg"},{"bike_id":"b0e217c6-2365-400d-8fb1-7610046e5319","system_id":"levelo_inurba_marseille","lat":43.23962,"lon":5.36635,"is_reserved":false,"is_disabled":false,"rental_uris":{"android":"levelo://app?vid=b0e217c6-2365-400d-8fb1-7610046e5319","ios":"levelo://app?vid=b0e217c6-2365-400d-8fb1-7610046e5319"},"vehicle_type_id":"4","last_reported":1746659371,"current_range_meters":20000,"station_id":"ce4bhi12rcd13ifvqfp0","pricing_plan_id":"cebpf4jnsgd1na2vs0mg"},{"bike_id":"ff807334-3ad3-4e40-bbde-648eb2b1c45b","system_id":"levelo_inurba_marseille","lat":43.21232,"lon":5.35037,"is_reserved":false,"is_disabled":false,"rental_uris":{"android":"levelo://app?vid=ff807334-3ad3-4e40-bbde-648eb2b1c45b","ios":"levelo://app?vid=ff807334-3ad3-4e40-bbde-648eb2b1c45b"},"vehicle_type_id":"4","last_reported":1746659371,"current_range_meters":20000,"station_id":"st_cvj6sg6p6f1abm77japg","pricing_plan_id":"cebpf4jnsgd1na2vs0mg"},{"bike_id":"14581aba-b181-4996-ae9c-58bc49578e0e","system_id":"levelo_inurba_marseille","lat":43.2963,"lon":5.40593,"is_reserved":false,"is_disabled":false,"rental_uris":{"android":"levelo://app?vid=14581aba-b181-4996-ae9c-58bc49578e0e","ios":"levelo://app?vid=14581aba-b181-4996-ae9c-58bc49578e0e"},"vehicle_type_id":"4","last_reported":1746659371,"current_range_meters":20400,"station_id":"ce4bh0h2rcd13ifvqd60","pricing_plan_id":"cebpf4jnsgd1na2vs0mg"},{"bike_id":"59ac9fc7-ce16-4669-a053-6aed532d3213","system_id":"levelo_inurba_marseille","lat":43.28852,"lon":5.35856,"is_reserved":false,"is_disabled":false,"rental_uris":{"android":"levelo://app?vid=59ac9fc7-ce16-4669-a053-6aed532d3213","ios":"levelo://app?vid=59ac9fc7-ce16-4669-a053-6aed532d3213"},"vehicle_type_id":"4","last_reported":1746659371,"current_range_meters":20400,"station_id":"ce4bhb12rcd13ifvqem0","pricing_plan_id":"cebpf4jnsgd1na2vs0mg"},{"bike_id":"d937d3d4-2f84-4572-89f6-55b5b0568287","system_id":"levelo_inurba_marseille","lat":43.279475,"lon":5.410405,"is_reserved":false,"is_disabled":false,"rental_uris":{"android":"levelo://app?vid=d937d3d4-2f84-4572-89f6-55b5b0568287","ios":"levelo://app?vid=d937d3d4-2f84-4572-89f6-55b5b0568287"},"vehicle_type_id":"4","last_reported":1746659371,"current_range_meters":20400,"station_id":"ce4bhnp2rcd13ifvqh0g","pricing_plan_id":"cebpf4jnsgd1na2vs0mg"},{"bike_id":"bc19d714-349d-452e-ad06-9e78d9880404","system_id":"levelo_inurba_marseille","lat":43.30539,"lon":5.38424,"is_reserved":false,"is_disabled":false,"rental_uris":{"android":"levelo://app?vid=bc19d714-349d-452e-ad06-9e78d9880404","ios":"levelo://app?vid=bc19d714-349d-452e-ad06-9e78d9880404"},"vehicle_type_id":"4","last_reported":1746659371,"current_range_meters":20800,"station_id":"ce4bgg92rcd13ifvqb30","pricing_plan_id":"cebpf4jnsgd1na2vs0mg"},{"bike_id":"e2c51df9-5bf1-4a21-9f98-80358e78dc3c","system_id":"levelo_inurba_marseille","lat":43.31341,"lon":5.36721,"is_reserved":false,"is_disabled":false,"rental_uris":{"android":"levelo://app?vid=e2c51df9-5bf1-4a21-9f98-80358e78dc3c","ios":"levelo://app?vid=e2c51df9-5bf1-4a21-9f98-80358e78dc3c"},"vehicle_type_id":"4","last_reported":1746659371,"current_range_meters":20800,"station_id":"ce4bgr92rcd13ifvqc6g","pricing_plan_id":"cebpf4jnsgd1na2vs0mg"},{"bike_id":"f597e4b6-c723-45d1-a62d-164b4d4c53ce","system_id":"levelo_inurba_marseille","lat":43.3136,"lon":5.38486,"is_reserved":false,"is_disabled":false,"rental_uris":{"android":"levelo://app?vid=f597e4b6-c723-45d1-a62d-164b4d4c53ce","ios":"levelo://app?vid=f597e4b6-c723-45d1-a62d-164b4d4c53ce"},"vehicle_type_id":"4","last_reported":1746659371,"current_range_meters":20800,"station_id":"ce4bgt92rcd13ifvqcf0","pricing_plan_id":"cebpf4jnsgd1na2vs0mg"},{"bike_id":"ff2138b3-6002-4baa-a4d5-7441f041dff3","system_id":"levelo_inurba_marseille","lat":43.274263,"lon":5.393997,"is_reserved":false,"is_disabled":false,"rental_uris":{"android":"levelo://app?vid=ff2138b3-6002-4baa-a4d5-7441f041dff3","ios":"levelo://app?vid=ff2138b3-6002-4baa-a4d5-7441f041dff3"},"vehicle_type_id":"4","last_reported":1746659371,"current_range_meters":20800,"station_id":"ce4bhdp2rcd13ifvqf20","pricing_plan_id":"cebpf4jnsgd1na2vs0mg"},{"bike_id":"6fdde01e-a516-4f4e-9b9c-d2be2b1f64f9","system_id":"levelo_inurba_marseille","lat":43.26954,"lon":5.38631,"is_reserved":false,"is_disabled":false,"rental_uris":{"android":"levelo://app?vid=6fdde01e-a516-4f4e-9b9c-d2be2b1f64f9","ios":"levelo://app?vid=6fdde01e-a516-4f4e-9b9c-d2be2b1f64f9"},"vehicle_type_id":"4","last_reported":1746659371,"current_range_meters":20800,"station_id":"ce4bhh92rcd13ifvqfh0","pricing_plan_id":"cebpf4jnsgd1na2vs0mg"},{"bike_id":"82b86ea7-e1b8-4f5a-ad95-98f75a17962e","system_id":"levelo_inurba_marseille","lat":43.2795,"lon":5.41019,"is_reserved":false,"is_disabled":false,"rental_uris":{"android":"levelo://app?vid=82b86ea7-e1b8-4f5a-ad95-98f75a17962e","ios":"levelo://app?vid=82b86ea7-e1b8-4f5a-ad95-98f75a17962e"},"vehicle_type_id":"4","last_reported":1746659371,"current_range_meters":20800,"station_id":"ce4bhnp2rcd13ifvqh0g","pricing_plan_id":"cebpf4jnsgd1na2vs0mg"},{"bike_id":"8a868461-332c-4739-8cb3-02de99b2b6ef","system_id":"levelo_inurba_marseille","lat":43.280055,"lon":5.40017,"is_reserved":false,"is_disabled":false,"rental_uris":{"android":"levelo://app?vid=8a868461-332c-4739-8cb3-02de99b2b6ef","ios":"levelo://app?vid=8a868461-332c-4739-8cb3-02de99b2b6ef"},"vehicle_type_id":"4","last_reported":1746659371,"current_range_meters":20800,"station_id":"ce4bho92rcd13ifvqh4g","pricing_plan_id":"cebpf4jnsgd1na2vs0mg"},{"bike_id":"c821e32e-d925-441c-80d2-d5a984744aba","system_id":"levelo_inurba_marseille","lat":43.211968,"lon":5.350722,"is_reserved":false,"is_disabled":false,"rental_uris":{"android":"levelo://app?vid=c821e32e-d925-441c-80d2-d5a984744aba","ios":"levelo://app?vid=c821e32e-d925-441c-80d2-d5a984744aba"},"vehicle_type_id":"4","last_reported":1746659371,"current_range_meters":20800,"station_id":"st_cvj6sg6p6f1abm77japg","pricing_plan_id":"cebpf4jnsgd1na2vs0mg"},{"bike_id":"7ae0d421-ee53-4e33-95a3-7fe34eaa8d40","system_id":"levelo_inurba_marseille","lat":43.29974,"lon":5.37167,"is_reserved":false,"is_disabled":false,"rental_uris":{"android":"levelo://app?vid=7ae0d421-ee53-4e33-95a3-7fe34eaa8d40","ios":"levelo://app?vid=7ae0d421-ee53-4e33-95a3-7fe34eaa8d40"},"vehicle_type_id":"4","last_reported":1746659371,"current_range_meters":21600,"station_id":"ce4bgr92rcd13ifvqc7g","pricing_plan_id":"cebpf4jnsgd1na2vs0mg"},{"bike_id":"09009570-bbd3-4190-af81-08249f69d767","system_id":"levelo_inurba_marseille","lat":43.3014,"lon":5.37418,"is_reserved":false,"is_disabled":false,"rental_uris":{"android":"levelo://app?vid=09009570-bbd3-4190-af81-08249f69d767","ios":"levelo://app?vid=09009570-bbd3-4190-af81-08249f69d767"},"vehicle_type_id":"4","last_reported":1746659371,"current_range_meters":21600,"station_id":"ce4bgs92rcd13ifvqcc0","pricing_plan_id":"cebpf4jnsgd1na2vs0mg"},{"bike_id":"90dd7ece-e0e3-4e3f-8585-4f4f345a0f96","system_id":"levelo_inurba_marseille","lat":43.31712,"lon":5.40459,"is_reserved":false,"is_disabled":false,"rental_uris":{"android":"levelo://app?vid=90dd7ece-e0e3-4e3f-8585-4f4f345a0f96","ios":"levelo://app?vid=90dd7ece-e0e3-4e3f-8585-4f4f345a0f96"},"vehicle_type_id":"4","last_reported":1746659371,"current_range_meters":21600,"station_id":"ce4bh012rcd13ifvqd00","pricing_plan_id":"cebpf4jnsgd1na2vs0mg"},{"bike_id":"c00b4dc3-faff-4d5a-88c8-7b701ca8bbe6","system_id":"levelo_inurba_marseille","lat":43.3169,"lon":5.404813,"is_reserved":false,"is_disabled":false,"rental_uris":{"android":"levelo://app?vid=c00b4dc3-faff-4d5a-88c8-7b701ca8bbe6","ios":"levelo://app?vid=c00b4dc3-faff-4d5a-88c8-7b701ca8bbe6"},"vehicle_type_id":"4","last_reported":1746659371,"current_range_meters":21600,"station_id":"ce4bh012rcd13ifvqd00","pricing_plan_id":"cebpf4jnsgd1na2vs0mg"},{"bike_id":"2a280ce4-5806-4b9c-92fb-f2003f7add80","system_id":"levelo_inurba_marseille","lat":43.26799,"lon":5.39448,"is_reserved":false,"is_disabled":false,"rental_uris":{"android":"levelo://app?vid=2a280ce4-5806-4b9c-92fb-f2003f7add80","ios":"levelo://app?vid=2a280ce4-5806-4b9c-92fb-f2003f7add80"},"vehicle_type_id":"4","last_reported":1746659371,"current_range_meters":21600,"station_id":"ce4bhh12rcd13ifvqfg0","pricing_plan_id":"cebpf4jnsgd1na2vs0mg"},{"bike_id":"17b5d9fc-a9af-4ef7-b57c-f269d43e9280","system_id":"levelo_inurba_marseille","lat":43.32478,"lon":5.36566,"is_reserved":false,"is_disabled":false,"rental_uris":{"android":"levelo://app?vid=17b5d9fc-a9af-4ef7-b57c-f269d43e9280","ios":"levelo://app?vid=17b5d9fc-a9af-4ef7-b57c-f269d43e9280"},"vehicle_type_id":"4","last_reported":1746659371,"current_range_meters":21600,"station_id":"ce4bhs12rcd13ifvqhvg","pricing_plan_id":"cebpf4jnsgd1na2vs0mg"},{"bike_id":"f3e9ab38-3242-4aa5-83f9-529a16ccf936","system_id":"levelo_inurba_marseille","lat":43.22506,"lon":5.34785,"is_reserved":false,"is_disabled":false,"rental_uris":{"android":"levelo://app?vid=f3e9ab38-3242-4aa5-83f9-529a16ccf936","ios":"levelo://app?vid=f3e9ab38-3242-4aa5-83f9-529a16ccf936"},"vehicle_type_id":"4","last_reported":1746659371,"current_range_meters":21600,"station_id":"st_cvj5dfep6f1abm77gieg","pricing_plan_id":"cebpf4jnsgd1na2vs0mg"},{"bike_id":"48f7563e-f77b-41aa-b1e6-1900b3082002","system_id":"levelo_inurba_marseille","lat":43.30879,"lon":5.39646,"is_reserved":false,"is_disabled":false,"rental_uris":{"android":"levelo://app?vid=48f7563e-f77b-41aa-b1e6-1900b3082002","ios":"levelo://app?vid=48f7563e-f77b-41aa-b1e6-1900b3082002"},"vehicle_type_id":"4","last_reported":1746659371,"current_range_meters":22000,"station_id":"ce4bh012rcd13ifvqcv0","pricing_plan_id":"cebpf4jnsgd1na2vs0mg"},{"bike_id":"8a3eaa00-27fe-4586-bc15-e03d248fe1b9","system_id":"levelo_inurba_marseille","lat":43.27945,"lon":5.41042,"is_reserved":false,"is_disabled":false,"rental_uris":{"android":"levelo://app?vid=8a3eaa00-27fe-4586-bc15-e03d248fe1b9","ios":"levelo://app?vid=8a3eaa00-27fe-4586-bc15-e03d248fe1b9"},"vehicle_type_id":"4","last_reported":1746659371,"current_range_meters":22000,"station_id":"ce4bhnp2rcd13ifvqh0g","pricing_plan_id":"cebpf4jnsgd1na2vs0mg"},{"bike_id":"08f13c7a-2eb9-4abf-8400-826a57aabaef","system_id":"levelo_inurba_marseille","lat":43.31686,"lon":5.37225,"is_reserved":false,"is_disabled":false,"rental_uris":{"android":"levelo://app?vid=08f13c7a-2eb9-4abf-8400-826a57aabaef","ios":"levelo://app?vid=08f13c7a-2eb9-4abf-8400-826a57aabaef"},"vehicle_type_id":"4","last_reported":1746659371,"current_range_meters":22400,"station_id":"","pricing_plan_id":"cebpf4jnsgd1na2vs0mg"},{"bike_id":"1fe7b30f-906b-47a3-8e00-6086f6ef91a7","system_id":"levelo_inurba_marseille","lat":43.30216,"lon":5.3946,"is_reserved":false,"is_disabled":false,"rental_uris":{"android":"levelo://app?vid=1fe7b30f-906b-47a3-8e00-6086f6ef91a7","ios":"levelo://app?vid=1fe7b30f-906b-47a3-8e00-6086f6ef91a7"},"vehicle_type_id":"4","last_reported":1746659371,"current_range_meters":22400,"station_id":"ce4bh0p2rcd13ifvqd70","pricing_plan_id":"cebpf4jnsgd1na2vs0mg"},{"bike_id":"1694bc2e-08ff-457d-b538-64074b38a3d4","system_id":"levelo_inurba_marseille","lat":43.27179,"lon":5.40978,"is_reserved":false,"is_disabled":false,"rental_uris":{"android":"levelo://app?vid=1694bc2e-08ff-457d-b538-64074b38a3d4","ios":"levelo://app?vid=1694bc2e-08ff-457d-b538-64074b38a3d4"},"vehicle_type_id":"4","last_reported":1746659371,"current_range_meters":22400,"station_id":"ce4bhl12rcd13ifvqgf0","pricing_plan_id":"cebpf4jnsgd1na2vs0mg"},{"bike_id":"f73d450b-fde6-4898-99b1-916875a407c6","system_id":"levelo_inurba_marseille","lat":43.22505,"lon":5.34786,"is_reserved":false,"is_disabled":false,"rental_uris":{"android":"levelo://app?vid=f73d450b-fde6-4898-99b1-916875a407c6","ios":"levelo://app?vid=f73d450b-fde6-4898-99b1-916875a407c6"},"vehicle_type_id":"4","last_reported":1746659371,"current_range_meters":22400,"station_id":"st_cvj5dfep6f1abm77gieg","pricing_plan_id":"cebpf4jnsgd1na2vs0mg"},{"bike_id":"cd1dd69c-1b2c-404e-b0bf-114f06f0b210","system_id":"levelo_inurba_marseille","lat":43.23287,"lon":5.36086,"is_reserved":false,"is_disabled":false,"rental_uris":{"android":"levelo://app?vid=cd1dd69c-1b2c-404e-b0bf-114f06f0b210","ios":"levelo://app?vid=cd1dd69c-1b2c-404e-b0bf-114f06f0b210"},"vehicle_type_id":"4","last_reported":1746659371,"current_range_meters":22800,"station_id":"","pricing_plan_id":"cebpf4jnsgd1na2vs0mg"},{"bike_id":"2f0cbd38-7746-40cd-aad8-7b6caf605afe","system_id":"levelo_inurba_marseille","lat":43.29756,"lon":5.46008,"is_reserved":false,"is_disabled":false,"rental_uris":{"android":"levelo://app?vid=2f0cbd38-7746-40cd-aad8-7b6caf605afe","ios":"levelo://app?vid=2f0cbd38-7746-40cd-aad8-7b6caf605afe"},"vehicle_type_id":"4","last_reported":1746659371,"current_range_meters":22800,"station_id":"","pricing_plan_id":"cebpf4jnsgd1na2vs0mg"},{"bike_id":"8edaf248-e5a8-46ea-a005-53ebe6e2f2b1","system_id":"levelo_inurba_marseille","lat":43.28458,"lon":5.35888,"is_reserved":false,"is_disabled":false,"rental_uris":{"android":"levelo://app?vid=8edaf248-e5a8-46ea-a005-53ebe6e2f2b1","ios":"levelo://app?vid=8edaf248-e5a8-46ea-a005-53ebe6e2f2b1"},"vehicle_type_id":"4","last_reported":1746659371,"current_range_meters":22800,"station_id":"ce4bhah2rcd13ifvqei0","pricing_plan_id":"cebpf4jnsgd1na2vs0mg"},{"bike_id":"3d131447-c230-47c1-8cec-5adb67f68000","system_id":"levelo_inurba_marseille","lat":43.24804,"lon":5.37455,"is_reserved":false,"is_disabled":false,"rental_uris":{"android":"levelo://app?vid=3d131447-c230-47c1-8cec-5adb67f68000","ios":"levelo://app?vid=3d131447-c230-47c1-8cec-5adb67f68000"},"vehicle_type_id":"4","last_reported":1746659371,"current_range_meters":22800,"station_id":"ce4bhgh2rcd13ifvqfb0","pricing_plan_id":"cebpf4jnsgd1na2vs0mg"},{"bike_id":"b6ef3f00-dd79-48ff-9fc3-86c640ce7218","system_id":"levelo_inurba_marseille","lat":43.25718,"lon":5.41115,"is_reserved":false,"is_disabled":false,"rental_uris":{"android":"levelo://app?vid=b6ef3f00-dd79-48ff-9fc3-86c640ce7218","ios":"levelo://app?vid=b6ef3f00-dd79-48ff-9fc3-86c640ce7218"},"vehicle_type_id":"4","last_reported":1746659371,"current_range_meters":22800,"station_id":"ce4bhkp2rcd13ifvqgd0","pricing_plan_id":"cebpf4jnsgd1na2vs0mg"},{"bike_id":"a270eeb3-ac4c-4af0-98ca-06d8944e27c9","system_id":"levelo_inurba_marseille","lat":43.27942,"lon":5.41046,"is_reserved":false,"is_disabled":false,"rental_uris":{"android":"levelo://app?vid=a270eeb3-ac4c-4af0-98ca-06d8944e27c9","ios":"levelo://app?vid=a270eeb3-ac4c-4af0-98ca-06d8944e27c9"},"vehicle_type_id":"4","last_reported":1746659371,"current_range_meters":22800,"station_id":"ce4bhnp2rcd13ifvqh0g","pricing_plan_id":"cebpf4jnsgd1na2vs0mg"},{"bike_id":"da3aa9b6-280e-441a-9902-7b55cb9fe3a3","system_id":"levelo_inurba_marseille","lat":43.323655,"lon":5.367595,"is_reserved":false,"is_disabled":false,"rental_uris":{"android":"levelo://app?vid=da3aa9b6-280e-441a-9902-7b55cb9fe3a3","ios":"levelo://app?vid=da3aa9b6-280e-441a-9902-7b55cb9fe3a3"},"vehicle_type_id":"4","last_reported":1746659371,"current_range_meters":22800,"station_id":"ce4bhsh2rcd13ifvqi2g","pricing_plan_id":"cebpf4jnsgd1na2vs0mg"},{"bike_id":"5a66b016-8425-4ea9-ad57-b6177cc96802","system_id":"levelo_inurba_marseille","lat":43.315836,"lon":5.388984,"is_reserved":false,"is_disabled":false,"rental_uris":{"android":"levelo://app?vid=5a66b016-8425-4ea9-ad57-b6177cc96802","ios":"levelo://app?vid=5a66b016-8425-4ea9-ad57-b6177cc96802"},"vehicle_type_id":"4","last_reported":1746659371,"current_range_meters":23200,"station_id":"","pricing_plan_id":"cebpf4jnsgd1na2vs0mg"},{"bike_id":"5b9c8f65-a6ba-40fa-9ee7-bdf00e474bc9","system_id":"levelo_inurba_marseille","lat":43.30463,"lon":5.37906,"is_reserved":false,"is_disabled":false,"rental_uris":{"android":"levelo://app?vid=5b9c8f65-a6ba-40fa-9ee7-bdf00e474bc9","ios":"levelo://app?vid=5b9c8f65-a6ba-40fa-9ee7-bdf00e474bc9"},"vehicle_type_id":"4","last_reported":1746659371,"current_range_meters":23200,"station_id":"ce4bgup2rcd13ifvqcn0","pricing_plan_id":"cebpf4jnsgd1na2vs0mg"},{"bike_id":"cdc39687-2a4a-4d99-a5c2-23a5f5b7c5b1","system_id":"levelo_inurba_marseille","lat":43.24798,"lon":5.37446,"is_reserved":false,"is_disabled":false,"rental_uris":{"android":"levelo://app?vid=cdc39687-2a4a-4d99-a5c2-23a5f5b7c5b1","ios":"levelo://app?vid=cdc39687-2a4a-4d99-a5c2-23a5f5b7c5b1"},"vehicle_type_id":"4","last_reported":1746659371,"current_range_meters":23200,"station_id":"ce4bhgh2rcd13ifvqfb0","pricing_plan_id":"cebpf4jnsgd1na2vs0mg"},{"bike_id":"37f2c22e-dc87-4650-ae08-b53837cd376a","system_id":"levelo_inurba_marseille","lat":43.23963,"lon":5.36633,"is_reserved":false,"is_disabled":false,"rental_uris":{"android":"levelo://app?vid=37f2c22e-dc87-4650-ae08-b53837cd376a","ios":"levelo://app?vid=37f2c22e-dc87-4650-ae08-b53837cd376a"},"vehicle_type_id":"4","last_reported":1746659371,"current_range_meters":23200,"station_id":"ce4bhi12rcd13ifvqfp0","pricing_plan_id":"cebpf4jnsgd1na2vs0mg"},{"bike_id":"62b8243e-3968-4877-9f82-a774eb6622ba","system_id":"levelo_inurba_marseille","lat":43.25584,"lon":5.38232,"is_reserved":false,"is_disabled":false,"rental_uris":{"android":"levelo://app?vid=62b8243e-3968-4877-9f82-a774eb6622ba","ios":"levelo://app?vid=62b8243e-3968-4877-9f82-a774eb6622ba"},"vehicle_type_id":"4","last_reported":1746659371,"current_range_meters":23200,"station_id":"ce4bhih2rcd13ifvqfs0","pricing_plan_id":"cebpf4jnsgd1na2vs0mg"},{"bike_id":"6746d09e-ad9a-4b99-b9d9-6d7558933a1f","system_id":"levelo_inurba_marseille","lat":43.29279,"lon":5.40121,"is_reserved":false,"is_disabled":false,"rental_uris":{"android":"levelo://app?vid=6746d09e-ad9a-4b99-b9d9-6d7558933a1f","ios":"levelo://app?vid=6746d09e-ad9a-4b99-b9d9-6d7558933a1f"},"vehicle_type_id":"4","last_reported":1746659371,"current_range_meters":24000,"station_id":"ce4bh312rcd13ifvqdk0","pricing_plan_id":"cebpf4jnsgd1na2vs0mg"},{"bike_id":"8c1f7537-f05c-45e3-8dfe-9a17b81f0d89","system_id":"levelo_inurba_marseille","lat":43.278966,"lon":5.391432,"is_reserved":false,"is_disabled":false,"rental_uris":{"android":"levelo://app?vid=8c1f7537-f05c-45e3-8dfe-9a17b81f0d89","ios":"levelo://app?vid=8c1f7537-f05c-45e3-8dfe-9a17b81f0d89"},"vehicle_type_id":"4","last_reported":1746659371,"current_range_meters":24000,"station_id":"ce4bhjp2rcd13ifvqga0","pricing_plan_id":"cebpf4jnsgd1na2vs0mg"},{"bike_id":"12ab368f-de74-4d61-b967-381bcd4f4359","system_id":"levelo_inurba_marseille","lat":43.27492,"lon":5.42452,"is_reserved":false,"is_disabled":false,"rental_uris":{"android":"levelo://app?vid=12ab368f-de74-4d61-b967-381bcd4f4359","ios":"levelo://app?vid=12ab368f-de74-4d61-b967-381bcd4f4359"},"vehicle_type_id":"4","last_reported":1746659371,"current_range_meters":24000,"station_id":"ce4bhn92rcd13ifvqgrg","pricing_plan_id":"cebpf4jnsgd1na2vs0mg"},{"bike_id":"6536cb6e-d928-4440-9089-a7deb10c7d96","system_id":"levelo_inurba_marseille","lat":43.241703,"lon":5.36388,"is_reserved":false,"is_disabled":false,"rental_uris":{"android":"levelo://app?vid=6536cb6e-d928-4440-9089-a7deb10c7d96","ios":"levelo://app?vid=6536cb6e-d928-4440-9089-a7deb10c7d96"},"vehicle_type_id":"4","last_reported":1746659371,"current_range_meters":24000,"station_id":"cpo36qri1sfpv3e86is0","pricing_plan_id":"cebpf4jnsgd1na2vs0mg"},{"bike_id":"c1041c9f-2085-470a-b13c-f88fd8323115","system_id":"levelo_inurba_marseille","lat":43.277444,"lon":5.386724,"is_reserved":false,"is_disabled":false,"rental_uris":{"android":"levelo://app?vid=c1041c9f-2085-470a-b13c-f88fd8323115","ios":"levelo://app?vid=c1041c9f-2085-470a-b13c-f88fd8323115"},"vehicle_type_id":"4","last_reported":1746659371,"current_range_meters":24400,"station_id":"","pricing_plan_id":"cebpf4jnsgd1na2vs0mg"},{"bike_id":"d555e0d6-19ba-408b-ad9f-2e129d0a634e","system_id":"levelo_inurba_marseille","lat":43.3108,"lon":5.37581,"is_reserved":false,"is_disabled":false,"rental_uris":{"android":"levelo://app?vid=d555e0d6-19ba-408b-ad9f-2e129d0a634e","ios":"levelo://app?vid=d555e0d6-19ba-408b-ad9f-2e129d0a634e"},"vehicle_type_id":"4","last_reported":1746659371,"current_range_meters":24400,"station_id":"","pricing_plan_id":"cebpf4jnsgd1na2vs0mg"},{"bike_id":"9a1c9931-7935-4501-9926-c53ac3815ef0","system_id":"levelo_inurba_marseille","lat":43.31121,"lon":5.37754,"is_reserved":false,"is_disabled":false,"rental_uris":{"android":"levelo://app?vid=9a1c9931-7935-4501-9926-c53ac3815ef0","ios":"levelo://app?vid=9a1c9931-7935-4501-9926-c53ac3815ef0"},"vehicle_type_id":"4","last_reported":1746659371,"current_range_meters":24400,"station_id":"ce4bgt92rcd13ifvqcg0","pricing_plan_id":"cebpf4jnsgd1na2vs0mg"},{"bike_id":"c8b2d811-287f-46df-94bc-173ce92e0159","system_id":"levelo_inurba_marseille","lat":43.30133,"lon":5.39859,"is_reserved":false,"is_disabled":false,"rental_uris":{"android":"levelo://app?vid=c8b2d811-287f-46df-94bc-173ce92e0159","ios":"levelo://app?vid=c8b2d811-287f-46df-94bc-173ce92e0159"},"vehicle_type_id":"4","last_reported":1746659371,"current_range_meters":24400,"station_id":"ce4bh0h2rcd13ifvqd40","pricing_plan_id":"cebpf4jnsgd1na2vs0mg"},{"bike_id":"83a50b95-d68b-4f37-b42f-f4b6d18160f2","system_id":"levelo_inurba_marseille","lat":43.2596,"lon":5.40908,"is_reserved":false,"is_disabled":false,"rental_uris":{"android":"levelo://app?vid=83a50b95-d68b-4f37-b42f-f4b6d18160f2","ios":"levelo://app?vid=83a50b95-d68b-4f37-b42f-f4b6d18160f2"},"vehicle_type_id":"4","last_reported":1746659371,"current_range_meters":24400,"station_id":"ce4bhm92rcd13ifvqglg","pricing_plan_id":"cebpf4jnsgd1na2vs0mg"},