{"last_updated":1761318678,"ttl":60,"version":"2.2","data":{"bikes":[{"bike_id":"f1a3f8da-6674-4723-b12b-95a987b95064","system_id":"levelo_inurba_marseille","lat":43.292478,"lon":5.384569,"is_reserved":false,"is_disabled":false,"rental_uris":{"android":"levelo://app?vid=f1a3f8da-6674-4723-b12b-95a987b95064","ios":"levelo://app?vid=f1a3f8da-6674-4723-b12b-95a987b95064"},"vehicle_type_id":"4","last_reported":1761318678,"current_range_meters":2800,"station_id":"ce4bh692rcd13ifvqea0","pricing_plan_id":"cebpf4jnsgd1na2vs0mg"},{"bike_id":"58d4bb75-adce-4b3f-947f-b326d4938ce0","system_id":"levelo_inurba_marseille","lat":43.28225,"lon":5.37685,"is_reserved":false,"is_disabled":false,"rental_uris":{"android":"levelo://app?vid=58d4bb75-adce-4b3f-947f-b326d4938ce0","ios":"levelo://app?vid=58d4bb75-adce-4b3f-947f-b326d4938ce0"},"vehicle_type_id":"4","last_reported":1761318678,"current_range_meters":3200,"station_id":"ce4bha12rcd13ifvqee0","pricing_plan_id":"cebpf4jnsgd1na2vs0mg"},{"bike_id":"58a144f1-50f9-493e-b519-b74b9bf12516","system_id":"levelo_inurba_marseille","lat":43.305359,"lon":5.365528,"is_reserved":false,"is_disabled":false,"rental_uris":{"android":"levelo://app?vid=58a144f1-50f9-493e-b519-b74b9bf12516","ios":"levelo://app?vid=58a144f1-50f9-493e-b519-b74b9bf12516"},"vehicle_type_id":"4","last_reported":1761318678,"current_range_meters":3200,"station_id":"ce4bgs12rcd13ifvqcag","pricing_plan_id":"cebpf4jnsgd1na2vs0mg"},{"bike_id":"80159c92-11b7-48ff-8d35-cfe054285078","system_id":"levelo_inurba_marseille","lat":43.279127,"lon":5.395751,"is_reserved":false,"is_disabled":false,"rental_uris":{"android":"levelo://app?vid=80159c92-11b7-48ff-8d35-cfe054285078","ios":"levelo://app?vid=80159c92-11b7-48ff-8d35-cfe054285078"},"vehicle_type_id":"4","last_reported":1761318678,"current_range_meters":3200,"station_id":"ce4bhf92rcd13ifvqf40","pricing_plan_id":"cebpf4jnsgd1na2vs0mg"},{"bike_id":"46c5fff7-dca2-4709-af5d-259548b0bf60","system_id":"levelo_inurba_marseille","lat":43.286077,"lon":5.370624,"is_reserved":false,"is_disabled":false,"rental_uris":{"android":"levelo://app?vid=46c5fff7-dca2-4709-af5d-259548b0bf60","ios":"levelo://app?vid=46c5fff7-dca2-4709-af5d-259548b0bf60"},"vehicle_type_id":"4","last_reported":1761318678,"current_range_meters":3200,"station_id":"ce4bht12rcd13ifvqi60","pricing_plan_id":"cebpf4jnsgd1na2vs0mg"},{"bike_id":"37d01fc8-4b4d-4652-a489-1254eb9d4c80","system_id":"levelo_inurba_marseille","lat":43.34076,"lon":5.40411,"is_reserved":false,"is_disabled":false,"rental_uris":{"android":"levelo://app?vid=37d01fc8-4b4d-4652-a489-1254eb9d4c80","ios":"levelo://app?vid=37d01fc8-4b4d-4652-a489-1254eb9d4c80"},"vehicle_type_id":"4","last_reported":1761318678,"current_range_meters":3600,"station_id":"","pricing_plan_id":"cebpf4jnsgd1na2vs0mg"},{"bike_id":"1e38d1ae-a8be-431b-8afe-d7a1602b2f23","system_id":"levelo_inurba_marseille","lat":43.26941,"lon":5.40263,"is_reserved":false,"is_disabled":false,"rental_uris":{"android":"levelo://app?vid=1e38d1ae-a8be-431b-8afe-d7a1602b2f23","ios":"levelo://app?vid=1e38d1ae-a8be-431b-8afe-d7a1602b2f23"},"vehicle_type_id":"4","last_reported":1761318678,"current_range_meters":4000,"station_id":"cjm6bp8fraef2m0cb0m0","pricing_plan_id":"cebpf4jnsgd1na2vs0mg"},{"bike_id":"aa86d86f-e6bf-4f89-aabe-299efb792438","system_id":"levelo_inurba_marseille","lat":43.24401,"lon":5.37048,"is_reserved":false,"is_disabled":false,"rental_uris":{"android":"levelo://app?vid=aa86d86f-e6bf-4f89-aabe-299efb792438","ios":"levelo://app?vid=aa86d86f-e6bf-4f89-aabe-299efb792438"},"vehicle_type_id":"4","last_reported":1761318678,"current_range_meters":4000,"station_id":"ce4bhhh2rcd13ifvqfk0","pricing_plan_id":"cebpf4jnsgd1na2vs0mg"},{"bike_id":"7546f470-e2c9-46ad-b638-733b3092a9dc","system_id":"levelo_inurba_marseille","lat":43.2253,"lon":5.34839,"is_reserved":false,"is_disabled":false,"rental_uris":{"android":"levelo://app?vid=7546f470-e2c9-46ad-b638-733b3092a9dc","ios":"levelo://app?vid=7546f470-e2c9-46ad-b638-733b3092a9dc"},"vehicle_type_id":"4","last_reported":1761318678,"current_range_meters":4400,"station_id":"","pricing_plan_id":"cebpf4jnsgd1na2vs0mg"},{"bike_id":"91bb66ef-5f48-4927-b135-62d2eb81e7ab","system_id":"levelo_inurba_marseille","lat":43.246642,"lon":5.381652,"is_reserved":false,"is_disabled":false,"rental_uris":{"android":"levelo://app?vid=91bb66ef-5f48-4927-b135-62d2eb81e7ab","ios":"levelo://app?vid=91bb66ef-5f48-4927-b135-62d2eb81e7ab"},"vehicle_type_id":"4","last_reported":1761318678,"current_range_meters":4800,"station_id":"ce4bhih2rcd13ifvqfr0","pricing_plan_id":"cebpf4jnsgd1na2vs0mg"},{"bike_id":"d52b92fd-fe14-4119-bd85-6749ba9349ee","system_id":"levelo_inurba_marseille","lat":43.320441,"lon":5.415346,"is_reserved":false,"is_disabled":false,"rental_uris":{"android":"levelo://app?vid=d52b92fd-fe14-4119-bd85-6749ba9349ee","ios":"levelo://app?vid=d52b92fd-fe14-4119-bd85-6749ba9349ee"},"vehicle_type_id":"4","last_reported":1761318678,"current_range_meters":4800,"station_id":"ce4bhq92rcd13ifvqhkg","pricing_plan_id":"cebpf4jnsgd1na2vs0mg"},{"bike_id":"7ba5c3a0-6073-4eca-81f3-bcb155e9168c","system_id":"levelo_inurba_marseille","lat":43.2903,"lon":5.37581,"is_reserved":false,"is_disabled":false,"rental_uris":{"android":"levelo://app?vid=7ba5c3a0-6073-4eca-81f3-bcb155e9168c","ios":"levelo://app?vid=7ba5c3a0-6073-4eca-81f3-bcb155e9168c"},"vehicle_type_id":"4","last_reported":1761318678,"current_range_meters":4800,"station_id":"ce4bh692rcd13ifvqe90","pricing_plan_id":"cebpf4jnsgd1na2vs0mg"},{"bike_id":"c2a45da1-a5fc-4007-b691-1aeae81bd823","system_id":"levelo_inurba_marseille","lat":43.2315,"lon":5.43717,"is_reserved":false,"is_disabled":false,"rental_uris":{"android":"levelo://app?vid=c2a45da1-a5fc-4007-b691-1aeae81bd823","ios":"levelo://app?vid=c2a45da1-a5fc-4007-b691-1aeae81bd823"},"vehicle_type_id":"4","last_reported":1761318678,"current_range_meters":5600,"station_id":"ce4bhmp2rcd13ifvqgog","pricing_plan_id":"cebpf4jnsgd1na2vs0mg"},{"bike_id":"c909445a-60ae-4baa-90dd-fbc6675d196a","system_id":"levelo_inurba_marseille","lat":43.2979,"lon":5.38101,"is_reserved":false,"is_disabled":false,"rental_uris":{"android":"levelo://app?vid=c909445a-60ae-4baa-90dd-fbc6675d196a","ios":"levelo://app?vid=c909445a-60ae-4baa-90dd-fbc6675d196a"},"vehicle_type_id":"4","last_reported":1761318678,"current_range_meters":5600,"station_id":"ce4bgip2rcd13ifvqbb0","pricing_plan_id":"cebpf4jnsgd1na2vs0mg"},{"bike_id":"8bb133d9-b9b5-4bc9-82b3-8fb6a432286c","system_id":"levelo_inurba_marseille","lat":43.21257,"lon":5.35008,"is_reserved":false,"is_disabled":false,"rental_uris":{"android":"levelo://app?vid=8bb133d9-b9b5-4bc9-82b3-8fb6a432286c","ios":"levelo://app?vid=8bb133d9-b9b5-4bc9-82b3-8fb6a432286c"},"vehicle_type_id":"4","last_reported":1761318678,"current_range_meters":5600,"station_id":"","pricing_plan_id":"cebpf4jnsgd1na2vs0mg"},{"bike_id":"51ea134d-df94-4f50-84a6-099716824d0c","system_id":"levelo_inurba_marseille","lat":43.337076,"lon":5.3628,"is_reserved":false,"is_disabled":false,"rental_uris":{"android":"levelo://app?vid=51ea134d-df94-4f50-84a6-099716824d0c","ios":"levelo://app?vid=51ea134d-df94-4f50-84a6-099716824d0c"},"vehicle_type_id":"4","last_reported":1761318678,"current_range_meters":5600,"station_id":"","pricing_plan_id":"cebpf4jnsgd1na2vs0mg"},{"bike_id":"3f61120a-14fe-4d26-8c08-2663677cc695","system_id":"levelo_inurba_marseille","lat":43.2848,"lon":5.38423,"is_reserved":false,"is_disabled":false,"rental_uris":{"android":"levelo://app?vid=3f61120a-14fe-4d26-8c08-2663677cc695","ios":"levelo://app?vid=3f61120a-14fe-4d26-8c08-2663677cc695"},"vehicle_type_id":"4","last_reported":1761318678,"current_range_meters":6000,"station_id":"ce4bh512rcd13ifvqe3g","pricing_plan_id":"cebpf4jnsgd1na2vs0mg"},{"bike_id":"f28e01f3-bdd4-4516-907e-96aa7dac2a79","system_id":"levelo_inurba_marseille","lat":43.29052,"lon":5.37563,"is_reserved":false,"is_disabled":true,"rental_uris":{"android":"levelo://app?vid=f28e01f3-bdd4-4516-907e-96aa7dac2a79","ios":"levelo://app?vid=f28e01f3-bdd4-4516-907e-96aa7dac2a79"},"vehicle_type_id":"4","last_reported":1761318678,"current_range_meters":6000,"station_id":"ce4bh692rcd13ifvqe90","pricing_plan_id":"cebpf4jnsgd1na2vs0mg"},{"bike_id":"c26d9b94-47e3-4f46-ab07-3ad930a1a72c","system_id":"levelo_inurba_marseille","lat":43.29635,"lon":5.37787,"is_reserved":false,"is_disabled":false,"rental_uris":{"android":"levelo://app?vid=c26d9b94-47e3-4f46-ab07-3ad930a1a72c","ios":"levelo://app?vid=c26d9b94-47e3-4f46-ab07-3ad930a1a72c"},"vehicle_type_id":"4","last_reported":1761318678,"current_range_meters":6000,"station_id":"","pricing_plan_id":"cebpf4jnsgd1na2vs0mg"},{"bike_id":"ad9a8166-85b3-49b6-88c7-1c6bdf69b632","system_id":"levelo_inurba_marseille","lat":43.311107,"lon":5.377624,"is_reserved":false,"is_disabled":false,"rental_uris":{"android":"levelo://app?vid=ad9a8166-85b3-49b6-88c7-1c6bdf69b632","ios":"levelo://app?vid=ad9a8166-85b3-49b6-88c7-1c6bdf69b632"},"vehicle_type_id":"4","last_reported":1761318678,"current_range_meters":6000,"station_id":"","pricing_plan_id":"cebpf4jnsgd1na2vs0mg"},{"bike_id":"4eae2ec4-8862-466e-a3d9-395cca4276d0","system_id":"levelo_inurba_marseille","lat":43.30389,"lon":5.37605,"is_reserved":false,"is_disabled":false,"rental_uris":{"android":"levelo://app?vid=4eae2ec4-8862-466e-a3d9-395cca4276d0","ios":"levelo://app?vid=4eae2ec4-8862-466e-a3d9-395cca4276d0"},"vehicle_type_id":"4","last_reported":1761318678,"current_range_meters":6000,"station_id":"","pricing_plan_id":"cebpf4jnsgd1na2vs0mg"},{"bike_id":"c66912b3-d65f-470b-adce-b7b18ddd6cd2","system_id":"levelo_inurba_marseille","lat":43.24653,"lon":5.38896,"is_reserved":false,"is_disabled":false,"rental_uris":{"android":"levelo://app?vid=c66912b3-d65f-470b-adce-b7b18ddd6cd2","ios":"levelo://app?vid=c66912b3-d65f-470b-adce-b7b18ddd6cd2"},"vehicle_type_id":"4","last_reported":1761318678,"current_range_meters":6000,"station_id":"ce4bhg12rcd13ifvqf60","pricing_plan_id":"cebpf4jnsgd1na2vs0mg"},{"bike_id":"2e2afccd-e8bf-4d71-bddc-3ae7e34a3c82","system_id":"levelo_inurba_marseille","lat":43.27429,"lon":5.39423,"is_reserved":false,"is_disabled":false,"rental_uris":{"android":"levelo://app?vid=2e2afccd-e8bf-4d71-bddc-3ae7e34a3c82","ios":"levelo://app?vid=2e2afccd-e8bf-4d71-bddc-3ae7e34a3c82"},"vehicle_type_id":"4","last_reported":1761318678,"current_range_meters":6000,"station_id":"ce4bhdp2rcd13ifvqf20","pricing_plan_id":"cebpf4jnsgd1na2vs0mg"},{"bike_id":"bae08aae-1b5c-426d-ba0e-bdb2f1da955e","system_id":"levelo_inurba_marseille","lat":43.30887,"lon":5.39639,"is_reserved":false,"is_disabled":false,"rental_uris":{"android":"levelo://app?vid=bae08aae-1b5c-426d-ba0e-bdb2f1da955e","ios":"levelo://app?vid=bae08aae-1b5c-426d-ba0e-bdb2f1da955e"},"vehicle_type_id":"4","last_reported":1761318678,"current_range_meters":6000,"station_id":"ce4bh012rcd13ifvqcv0","pricing_plan_id":"cebpf4jnsgd1na2vs0mg"},{"bike_id":"a11dbee9-1903-4d31-8dab-75745c34ef04","system_id":"levelo_inurba_marseille","lat":43.26036,"lon":5.37548,"is_reserved":false,"is_disabled":false,"rental_uris":{"android":"levelo://app?vid=a11dbee9-1903-4d31-8dab-75745c34ef04","ios":"levelo://app?vid=a11dbee9-1903-4d31-8dab-75745c34ef04"},"vehicle_type_id":"4","last_reported":1761318678,"current_range_meters":6400,"station_id":"ce4bhgh2rcd13ifvqfa0","pricing_plan_id":"cebpf4jnsgd1na2vs0mg"},{"bike_id":"c8c0fa58-a519-4343-9887-b0c694f93aef","system_id":"levelo_inurba_marseille","lat":43.28868,"lon":5.42518,"is_reserved":false,"is_disabled":false,"rental_uris":{"android":"levelo://app?vid=c8c0fa58-a519-4343-9887-b0c694f93aef","ios":"levelo://app?vid=c8c0fa58-a519-4343-9887-b0c694f93aef"},"vehicle_type_id":"4","last_reported":1761318678,"current_range_meters":6400,"station_id":"st_d3b462108ojc7389ooeg","pricing_plan_id":"cebpf4jnsgd1na2vs0mg"},{"bike_id":"8ff4d178-642d-4e03-bef7-82bdcbe614cb","system_id":"levelo_inurba_marseille","lat":43.29606,"lon":5.38102,"is_reserved":false,"is_disabled":false,"rental_uris":{"android":"levelo://app?vid=8ff4d178-642d-4e03-bef7-82bdcbe614cb","ios":"levelo://app?vid=8ff4d178-642d-4e03-bef7-82bdcbe614cb"},"vehicle_type_id":"4","last_reported":1761318678,"current_range_meters":6400,"station_id":"ce4bgl12rcd13ifvqbo0","pricing_plan_id":"cebpf4jnsgd1na2vs0mg"},{"bike_id":"3167c122-43fa-497a-bf85-d0a6522abe7a","system_id":"levelo_inurba_marseille","lat":43.32768,"lon":5.37529,"is_reserved":false,"is_disabled":false,"rental_uris":{"android":"levelo://app?vid=3167c122-43fa-497a-bf85-d0a6522abe7a","ios":"levelo://app?vid=3167c122-43fa-497a-bf85-d0a6522abe7a"},"vehicle_type_id":"4","last_reported":1761318678,"current_range_meters":6800,"station_id":"","pricing_plan_id":"cebpf4jnsgd1na2vs0mg"},{"bike_id":"436db91a-2cfd-4347-9de2-cbf2c741bd97","system_id":"levelo_inurba_marseille","lat":43.260596,"lon":5.394066,"is_reserved":false,"is_disabled":false,"rental_uris":{"android":"levelo://app?vid=436db91a-2cfd-4347-9de2-cbf2c741bd97","ios":"levelo://app?vid=436db91a-2cfd-4347-9de2-cbf2c741bd97"},"vehicle_type_id":"4","last_reported":1761318678,"current_range_meters":6800,"station_id":"ce4bhh92rcd13ifvqfj0","pricing_plan_id":"cebpf4jnsgd1na2vs0mg"},{"bike_id":"00fd3c6a-780c-49dc-9993-d4de69c9b57a","system_id":"levelo_inurba_marseille","lat":43.31069,"lon":5.37473,"is_reserved":false,"is_disabled":false,"rental_uris":{"android":"levelo://app?vid=00fd3c6a-780c-49dc-9993-d4de69c9b57a","ios":"levelo://app?vid=00fd3c6a-780c-49dc-9993-d4de69c9b57a"},"vehicle_type_id":"4","last_reported":1761318678,"current_range_meters":6800,"station_id":"","pricing_plan_id":"cebpf4jnsgd1na2vs0mg"},{"bike_id":"27534f8c-d1e5-4007-aa4e-4f13bee06875","system_id":"levelo_inurba_marseille","lat":43.30569,"lon":5.37246,"is_reserved":false,"is_disabled":false,"rental_uris":{"android":"levelo://app?vid=27534f8c-d1e5-4007-aa4e-4f13bee06875","ios":"levelo://app?vid=27534f8c-d1e5-4007-aa4e-4f13bee06875"},"vehicle_type_id":"4","last_reported":1761318678,"current_range_meters":6800,"station_id":"ce4bgqh2rcd13ifvqc4g","pricing_plan_id":"cebpf4jnsgd1na2vs0mg"},{"bike_id":"5df3bb81-4916-4427-8cd1-aaca61ad6031","system_id":"levelo_inurba_marseille","lat":43.29622,"lon":5.38119,"is_reserved":false,"is_disabled":false,"rental_uris":{"android":"levelo://app?vid=5df3bb81-4916-4427-8cd1-aaca61ad6031","ios":"levelo://app?vid=5df3bb81-4916-4427-8cd1-aaca61ad6031"},"vehicle_type_id":"4","last_reported":1761318678,"current_range_meters":6800,"station_id":"ce4bgl12rcd13ifvqbo0","pricing_plan_id":"cebpf4jnsgd1na2vs0mg"},{"bike_id":"0a2ce8ab-6165-4c2b-9e0b-0e95d8e2fd07","system_id":"levelo_inurba_marseille","lat":43.2985,"lon":5.36286,"is_reserved":false,"is_disabled":false,"rental_uris":{"android":"levelo://app?vid=0a2ce8ab-6165-4c2b-9e0b-0e95d8e2fd07","ios":"levelo://app?vid=0a2ce8ab-6165-4c2b-9e0b-0e95d8e2fd07"},"vehicle_type_id":"4","last_reported":1761318678,"current_range_meters":7200,"station_id":"ce4bgpp2rcd13ifvqc3g","pricing_plan_id":"cebpf4jnsgd1na2vs0mg"},{"bike_id":"36aaa3b0-fcfd-4443-84c0-1c719dbeb92a","system_id":"levelo_inurba_marseille","lat":43.2174,"lon":5.34608,"is_reserved":false,"is_disabled":false,"rental_uris":{"android":"levelo://app?vid=36aaa3b0-fcfd-4443-84c0-1c719dbeb92a","ios":"levelo://app?vid=36aaa3b0-fcfd-4443-84c0-1c719dbeb92a"},"vehicle_type_id":"4","last_reported":1761318678,"current_range_meters":7200,"station_id":"st_cvj6r9ubvosntc0bgbag","pricing_plan_id":"cebpf4jnsgd1na2vs0mg"},{"bike_id":"32e7919e-26d8-4f7d-b229-086147816fa4","system_id":"levelo_inurba_marseille","lat":43.301286,"lon":5.38775,"is_reserved":false,"is_disabled":false,"rental_uris":{"android":"levelo://app?vid=32e7919e-26d8-4f7d-b229-086147816fa4","ios":"levelo://app?vid=32e7919e-26d8-4f7d-b229-086147816fa4"},"vehicle_type_id":"4","last_reported":1761318678,"current_range_meters":7200,"station_id":"","pricing_plan_id":"cebpf4jnsgd1na2vs0mg"},{"bike_id":"67703b34-07e2-4018-a5a1-ba22c40326ec","system_id":"levelo_inurba_marseille","lat":43.28723,"lon":5.37933,"is_reserved":false,"is_disabled":false,"rental_uris":{"android":"levelo://app?vid=67703b34-07e2-4018-a5a1-ba22c40326ec","ios":"levelo://app?vid=67703b34-07e2-4018-a5a1-ba22c40326ec"},"vehicle_type_id":"4","last_reported":1761318678,"current_range_meters":7200,"station_id":"ce4bh9p2rcd13ifvqec0","pricing_plan_id":"cebpf4jnsgd1na2vs0mg"},{"bike_id":"78dcb130-bd2c-4bb8-b747-52ee93c4959f","system_id":"levelo_inurba_marseille","lat":43.30545,"lon":5.36556,"is_reserved":false,"is_disabled":false,"rental_uris":{"android":"levelo://app?vid=78dcb130-bd2c-4bb8-b747-52ee93c4959f","ios":"levelo://app?vid=78dcb130-bd2c-4bb8-b747-52ee93c4959f"},"vehicle_type_id":"4","last_reported":1761318678,"current_range_meters":7200,"station_id":"ce4bgs12rcd13ifvqcag","pricing_plan_id":"cebpf4jnsgd1na2vs0mg"},{"bike_id":"9b53f2a6-eadd-40a6-a291-06a89ebc8ccd","system_id":"levelo_inurba_marseille","lat":43.29517,"lon":5.39401,"is_reserved":false,"is_disabled":false,"rental_uris":{"android":"levelo://app?vid=9b53f2a6-eadd-40a6-a291-06a89ebc8ccd","ios":"levelo://app?vid=9b53f2a6-eadd-40a6-a291-06a89ebc8ccd"},"vehicle_type_id":"4","last_reported":1761318678,"current_range_meters":7200,"station_id":"ce4bh292rcd13ifvqdf0","pricing_plan_id":"cebpf4jnsgd1na2vs0mg"},{"bike_id":"0523451d-b11c-4b79-b023-f0eb143c3b3e","system_id":"levelo_inurba_marseille","lat":43.23191,"lon":5.3999,"is_reserved":false,"is_disabled":true,"rental_uris":{"android":"levelo://app?vid=0523451d-b11c-4b79-b023-f0eb143c3b3e","ios":"levelo://app?vid=0523451d-b11c-4b79-b023-f0eb143c3b3e"},"vehicle_type_id":"4","last_reported":1761318678,"current_range_meters":8000,"station_id":"ce4bhn12rcd13ifvqgqg","pricing_plan_id":"cebpf4jnsgd1na2vs0mg"},{"bike_id":"1099873c-71ad-43fe-a75a-e4197fe7048e","system_id":"levelo_inurba_marseille","lat":43.29607,"lon":5.37727,"is_reserved":false,"is_disabled":false,"rental_uris":{"android":"levelo://app?vid=1099873c-71ad-43fe-a75a-e4197fe7048e","ios":"levelo://app?vid=1099873c-71ad-43fe-a75a-e4197fe7048e"},"vehicle_type_id":"4","last_reported":1761318678,"current_range_meters":8000,"station_id":"ce4bgi92rcd13ifvqb90","pricing_plan_id":"cebpf4jnsgd1na2vs0mg"},{"bike_id":"cd98ff0b-12a9-4ef3-9e5c-83646a9581ec","system_id":"levelo_inurba_marseille","lat":43.273419,"lon":5.392726,"is_reserved":false,"is_disabled":false,"rental_uris":{"android":"levelo://app?vid=cd98ff0b-12a9-4ef3-9e5c-83646a9581ec","ios":"levelo://app?vid=cd98ff0b-12a9-4ef3-9e5c-83646a9581ec"},"vehicle_type_id":"4","last_reported":1761318678,"current_range_meters":8000,"station_id":"ce4bhnh2rcd13ifvqgtg","pricing_plan_id":"cebpf4jnsgd1na2vs0mg"},{"bike_id":"ed5592f6-738f-424e-b1c7-4090ab91b445","system_id":"levelo_inurba_marseille","lat":43.21192,"lon":5.35073,"is_reserved":false,"is_disabled":false,"rental_uris":{"android":"levelo://app?vid=ed5592f6-738f-424e-b1c7-4090ab91b445","ios":"levelo://app?vid=ed5592f6-738f-424e-b1c7-4090ab91b445"},"vehicle_type_id":"4","last_reported":1761318678,"current_range_meters":8400,"station_id":"st_cvj6sg6p6f1abm77japg","pricing_plan_id":"cebpf4jnsgd1na2vs0mg"},{"bike_id":"ec9665a2-32ab-42b2-9bdf-cf94d158a9c2","system_id":"levelo_inurba_marseille","lat":43.30129,"lon":5.37114,"is_reserved":false,"is_disabled":false,"rental_uris":{"android":"levelo://app?vid=ec9665a2-32ab-42b2-9bdf-cf94d158a9c2","ios":"levelo://app?vid=ec9665a2-32ab-42b2-9bdf-cf94d158a9c2"},"vehicle_type_id":"4","last_reported":1761318678,"current_range_meters":8400,"station_id":"","pricing_plan_id":"cebpf4jnsgd1na2vs0mg"},{"bike_id":"278459bb-2b39-4daa-a4cc-4497a12bdc75","system_id":"levelo_inurba_marseille","lat":43.25118,"lon":5.40327,"is_reserved":false,"is_disabled":false,"rental_uris":{"android":"levelo://app?vid=278459bb-2b39-4daa-a4cc-4497a12bdc75","ios":"levelo://app?vid=278459bb-2b39-4daa-a4cc-4497a12bdc75"},"vehicle_type_id":"4","last_reported":1761318678,"current_range_meters":8400,"station_id":"ce4bhlh2rcd13ifvqgig","pricing_plan_id":"cebpf4jnsgd1na2vs0mg"},{"bike_id":"bd12c612-fa75-4d90-b97c-143bc6b3063e","system_id":"levelo_inurba_marseille","lat":43.245461,"lon":5.395215,"is_reserved":false,"is_disabled":false,"rental_uris":{"android":"levelo://app?vid=bd12c612-fa75-4d90-b97c-143bc6b3063e","ios":"levelo://app?vid=bd12c612-fa75-4d90-b97c-143bc6b3063e"},"vehicle_type_id":"4","last_reported":1761318678,"current_range_meters":8400,"station_id":"ce4bhlp2rcd13ifvqgjg","pricing_plan_id":"cebpf4jnsgd1na2vs0mg"},{"bike_id":"1d2a85a6-32ac-4fd8-a87b-a570a0b9b624","system_id":"levelo_inurba_marseille","lat":43.290108,"lon":5.356175,"is_reserved":false,"is_disabled":false,"rental_uris":{"android":"levelo://app?vid=1d2a85a6-32ac-4fd8-a87b-a570a0b9b624","ios":"levelo://app?vid=1d2a85a6-32ac-4fd8-a87b-a570a0b9b624"},"vehicle_type_id":"4","last_reported":1761318678,"current_range_meters":8400,"station_id":"","pricing_plan_id":"cebpf4jnsgd1na2vs0mg"},{"bike_id":"7bebdd03-9ccf-401d-8552-72d8cd9213b6","system_id":"levelo_inurba_marseille","lat":43.24068,"lon":5.37764,"is_reserved":false,"is_disabled":false,"rental_uris":{"android":"levelo://app?vid=7bebdd03-9ccf-401d-8552-72d8cd9213b6","ios":"levelo://app?vid=7bebdd03-9ccf-401d-8552-72d8cd9213b6"},"vehicle_type_id":"4","last_reported":1761318678,"current_range_meters":8800,"station_id":"ce4bhnp2rcd13ifvqgvg","pricing_plan_id":"cebpf4jnsgd1na2vs0mg"},{"bike_id":"e96035ce-3f75-42c7-bc07-32e4ba0bd41a","system_id":"levelo_inurba_marseille","lat":43.30498,"lon":5.36946,"is_reserved":false,"is_disabled":false,"rental_uris":{"android":"levelo://app?vid=e96035ce-3f75-42c7-bc07-32e4ba0bd41a","ios":"levelo://app?vid=e96035ce-3f75-42c7-bc07-32e4ba0bd41a"},"vehicle_type_id":"4","last_reported":1761318678,"current_range_meters":8800,"station_id":"","pricing_plan_id":"cebpf4jnsgd1na2vs0mg"},{"bike_id":"4bf2bcf2-1f28-45b0-8dd7-afa7fa72f466","system_id":"levelo_inurba_marseille","lat":43.255901,"lon":5.382434,"is_reserved":false,"is_disabled":false,"rental_uris":{"android":"levelo://app?vid=4bf2bcf2-1f28-45b0-8dd7-afa7fa72f466","ios":"levelo://app?vid=4bf2bcf2-1f28-45b0-8dd7-afa7fa72f466"},"vehicle_type_id":"4","last_reported":1761318678,"current_range_meters":8800,"station_id":"ce4bhih2rcd13ifvqfs0","pricing_plan_id":"cebpf4jnsgd1na2vs0mg"},{"bike_id":"43ee1896-f98f-4f67-aa2f-d0c5c975926c","system_id":"levelo_inurba_marseille","lat":43.29583,"lon":5.37519,"is_reserved":false,"is_disabled":false,"rental_uris":{"android":"levelo://app?vid=43ee1896-f98f-4f67-aa2f-d0c5c975926c","ios":"levelo://app?vid=43ee1896-f98f-4f67-aa2f-d0c5c975926c"},"vehicle_type_id":"4","last_reported":1761318678,"current_range_meters":8800,"station_id":"ce4bgh92rcd13ifvqb50","pricing_plan_id":"cebpf4jnsgd1na2vs0mg"},{"bike_id":"8d8a487c-160d-4abe-adc5-466f51838b3d","system_id":"levelo_inurba_marseille","lat":43.30145,"lon":5.38782,"is_reserved":false,"is_disabled":false,"rental_uris":{"android":"levelo://app?vid=8d8a487c-160d-4abe-adc5-466f51838b3d","ios":"levelo://app?vid=8d8a487c-160d-4abe-adc5-466f51838b3d"},"vehicle_type_id":"4","last_reported":1761318678,"current_range_meters":8800,"station_id":"ce4bghh2rcd13ifvqb60","pricing_plan_id":"cebpf4jnsgd1na2vs0mg"},{"bike_id":"b9ed7788-98cb-4c44-ae1b-15e656e1382a","system_id":"levelo_inurba_marseille","lat":43.25004,"lon":5.38922,"is_reserved":false,"is_disabled":false,"rental_uris":{"android":"levelo://app?vid=b9ed7788-98cb-4c44-ae1b-15e656e1382a","ios":"levelo://app?vid=b9ed7788-98cb-4c44-ae1b-15e656e1382a"},"vehicle_type_id":"4","last_reported":1761318678,"current_range_meters":9200,"station_id":"ce4bhgp2rcd13ifvqfd0","pricing_plan_id":"cebpf4jnsgd1na2vs0mg"},{"bike_id":"3e4783b6-28d8-4737-a4ef-6a1b0da02476","system_id":"levelo_inurba_marseille","lat":43.2944,"lon":5.40735,"is_reserved":false,"is_disabled":false,"rental_uris":{"android":"levelo://app?vid=3e4783b6-28d8-4737-a4ef-6a1b0da02476","ios":"levelo://app?vid=3e4783b6-28d8-4737-a4ef-6a1b0da02476"},"vehicle_type_id":"4","last_reported":1761318678,"current_range_meters":9200,"station_id":"","pricing_plan_id":"cebpf4jnsgd1na2vs0mg"},{"bike_id":"18df7d7e-5c22-4e8f-8de7-2f9e21f3521d","system_id":"levelo_inurba_marseille","lat":43.29586,"lon":5.3961,"is_reserved":false,"is_disabled":false,"rental_uris":{"android":"levelo://app?vid=18df7d7e-5c22-4e8f-8de7-2f9e21f3521d","ios":"levelo://app?vid=18df7d7e-5c22-4e8f-8de7-2f9e21f3521d"},"vehicle_type_id":"4","last_reported":1761318678,"current_range_meters":9200,"station_id":"","pricing_plan_id":"cebpf4jnsgd1na2vs0mg"},{"bike_id":"3f8f749d-98a5-4e65-8d59-301b4758708f","system_id":"levelo_inurba_marseille","lat":43.30522,"lon":5.36709,"is_reserved":false,"is_disabled":false,"rental_uris":{"android":"levelo://app?vid=3f8f749d-98a5-4e65-8d59-301b4758708f","ios":"levelo://app?vid=3f8f749d-98a5-4e65-8d59-301b4758708f"},"vehicle_type_id":"4","last_reported":1761318678,"current_range_meters":9200,"station_id":"ce4bgrp2rcd13ifvqc9g","pricing_plan_id":"cebpf4jnsgd1na2vs0mg"},{"bike_id":"323bf2de-3bb4-4b4c-b330-b19ea807dbf5","system_id":"levelo_inurba_marseille","lat":43.32999,"lon":5.42961,"is_reserved":false,"is_disabled":false,"rental_uris":{"android":"levelo://app?vid=323bf2de-3bb4-4b4c-b330-b19ea807dbf5","ios":"levelo://app?vid=323bf2de-3bb4-4b4c-b330-b19ea807dbf5"},"vehicle_type_id":"4","last_reported":1761318678,"current_range_meters":9200,"station_id":"","pricing_plan_id":"cebpf4jnsgd1na2vs0mg"},{"bike_id":"4418a5ba-f440-4631-9ecf-6f68c3e8a911","system_id":"levelo_inurba_marseille","lat":43.31529,"lon":5.38034,"is_reserved":false,"is_disabled":false,"rental_uris":{"android":"levelo://app?vid=4418a5ba-f440-4631-9ecf-6f68c3e8a911","ios":"levelo://app?vid=4418a5ba-f440-4631-9ecf-6f68c3e8a911"},"vehicle_type_id":"4","last_reported":1761318678,"current_range_meters":9200,"station_id":"ce4bhsp2rcd13ifvqi50","pricing_plan_id":"cebpf4jnsgd1na2vs0mg"},{"bike_id":"5049e304-ff74-4bc7-a9e2-e3253a0afd8d","system_id":"levelo_inurba_marseille","lat":43.25,"lon":5.38934,"is_reserved":false,"is_disabled":false,"rental_uris":{"android":"levelo://app?vid=5049e304-ff74-4bc7-a9e2-e3253a0afd8d","ios":"levelo://app?vid=5049e304-ff74-4bc7-a9e2-e3253a0afd8d"},"vehicle_type_id":"4","last_reported":1761318678,"current_range_meters":9200,"station_id":"ce4bhgp2rcd13ifvqfd0","pricing_plan_id":"cebpf4jnsgd1na2vs0mg"},{"bike_id":"bf52d227-e2e6-4e46-bfde-44cbb96d7d45","system_id":"levelo_inurba_marseille","lat":43.21187,"lon":5.35081,"is_reserved":false,"is_disabled":false,"rental_uris":{"android":"levelo://app?vid=bf52d227-e2e6-4e46-bfde-44cbb96d7d45","ios":"levelo://app?vid=bf52d227-e2e6-4e46-bfde-44cbb96d7d45"},"vehicle_type_id":"4","last_reported":1761318678,"current_range_meters":9600,"station_id":"st_cvj6sg6p6f1abm77japg","pricing_plan_id":"cebpf4jnsgd1na2vs0mg"},{"bike_id":"956e71be-0754-447b-9c1c-d4b1c3451071","system_id":"levelo_inurba_marseille","lat":43.25499,"lon":5.3765,"is_reserved":false,"is_disabled":false,"rental_uris":{"android":"levelo://app?vid=956e71be-0754-447b-9c1c-d4b1c3451071","ios":"levelo://app?vid=956e71be-0754-447b-9c1c-d4b1c3451071"},"vehicle_type_id":"4","last_reported":1761318678,"current_range_meters":9600,"station_id":"ce4bhh12rcd13ifvqff0","pricing_plan_id":"cebpf4jnsgd1na2vs0mg"},{"bike_id":"fe3c883a-017e-412a-b4e9-cdd82024aab9","system_id":"levelo_inurba_marseille","lat":43.29522,"lon":5.3941,"is_reserved":false,"is_disabled":false,"rental_uris":{"android":"levelo://app?vid=fe3c883a-017e-412a-b4e9-cdd82024aab9","ios":"levelo://app?vid=fe3c883a-017e-412a-b4e9-cdd82024aab9"},"vehicle_type_id":"4","last_reported":1761318678,"current_range_meters":9600,"station_id":"ce4bh292rcd13ifvqdf0","pricing_plan_id":"cebpf4jnsgd1na2vs0mg"},{"bike_id":"ce464f60-5dd7-462f-bdf3-3e347cc34b9f","system_id":"levelo_inurba_marseille","lat":43.272117,"lon":5.391889,"is_reserved":false,"is_disabled":false,"rental_uris":{"android":"levelo://app?vid=ce464f60-5dd7-462f-bdf3-3e347cc34b9f","ios":"levelo://app?vid=ce464f60-5dd7-462f-bdf3-3e347cc34b9f"},"vehicle_type_id":"4","last_reported":1761318678,"current_range_meters":10000,"station_id":"ce4bhhp2rcd13ifvqfm0","pricing_plan_id":"cebpf4jnsgd1na2vs0mg"},{"bike_id":"15073330-60f1-48a0-9685-40bd06750126","system_id":"levelo_inurba_marseille","lat":43.2174,"lon":5.34601,"is_reserved":false,"is_disabled":false,"rental_uris":{"android":"levelo://app?vid=15073330-60f1-48a0-9685-40bd06750126","ios":"levelo://app?vid=15073330-60f1-48a0-9685-40bd06750126"},"vehicle_type_id":"4","last_reported":1761318678,"current_range_meters":10000,"station_id":"st_cvj6r9ubvosntc0bgbag","pricing_plan_id":"cebpf4jnsgd1na2vs0mg"},{"bike_id":"72b28b24-1de1-400e-a7fc-4796d56f6ad5","system_id":"levelo_inurba_marseille","lat":43.29517,"lon":5.37506,"is_reserved":false,"is_disabled":false,"rental_uris":{"android":"levelo://app?vid=72b28b24-1de1-400e-a7fc-4796d56f6ad5","ios":"levelo://app?vid=72b28b24-1de1-400e-a7fc-4796d56f6ad5"},"vehicle_type_id":"4","last_reported":1761318678,"current_range_meters":10000,"station_id":"ce4bgkp2rcd13ifvqbmg","pricing_plan_id":"cebpf4jnsgd1na2vs0mg"},{"bike_id":"00bb088b-e6d7-449f-b48f-d88b90c6630d","system_id":"levelo_inurba_marseille","lat":43.279954,"lon":5.400072,"is_reserved":false,"is_disabled":false,"rental_uris":{"android":"levelo://app?vid=00bb088b-e6d7-449f-b48f-d88b90c6630d","ios":"levelo://app?vid=00bb088b-e6d7-449f-b48f-d88b90c6630d"},"vehicle_type_id":"4","last_reported":1761318678,"current_range_meters":10000,"station_id":"ce4bho92rcd13ifvqh4g","pricing_plan_id":"cebpf4jnsgd1na2vs0mg"},{"bike_id":"b917fa65-03c1-4cfc-b575-6321018f26c0","system_id":"levelo_inurba_marseille","lat":43.25582,"lon":5.38235,"is_reserved":false,"is_disabled":false,"rental_uris":{"android":"levelo://app?vid=b917fa65-03c1-4cfc-b575-6321018f26c0","ios":"levelo://app?vid=b917fa65-03c1-4cfc-b575-6321018f26c0"},"vehicle_type_id":"4","last_reported":1761318678,"current_range_meters":10800,"station_id":"ce4bhih2rcd13ifvqfs0","pricing_plan_id":"cebpf4jnsgd1na2vs0mg"},{"bike_id":"7b584194-ee03-4a8f-b25f-0d195f62e513","system_id":"levelo_inurba_marseille","lat":43.295289,"lon":5.385403,"is_reserved":false,"is_disabled":false,"rental_uris":{"android":"levelo://app?vid=7b584194-ee03-4a8f-b25f-0d195f62e513","ios":"levelo://app?vid=7b584194-ee03-4a8f-b25f-0d195f62e513"},"vehicle_type_id":"4","last_reported":1761318678,"current_range_meters":10800,"station_id":"ce4bgih2rcd13ifvqba0","pricing_plan_id":"cebpf4jnsgd1na2vs0mg"},{"bike_id":"8bcacd78-80de-4026-af75-b37ebe3030fe","system_id":"levelo_inurba_marseille","lat":43.334756,"lon":5.404255,"is_reserved":false,"is_disabled":false,"rental_uris":{"android":"levelo://app?vid=8bcacd78-80de-4026-af75-b37ebe3030fe","ios":"levelo://app?vid=8bcacd78-80de-4026-af75-b37ebe3030fe"},"vehicle_type_id":"4","last_reported":1761318678,"current_range_meters":10800,"station_id":"","pricing_plan_id":"cebpf4jnsgd1na2vs0mg"},{"bike_id":"2842f5fd-7b05-4b47-909c-5ee54d7d3bc5","system_id":"levelo_inurba_marseille","lat":43.32458,"lon":5.42785,"is_reserved":false,"is_disabled":false,"rental_uris":{"android":"levelo://app?vid=2842f5fd-7b05-4b47-909c-5ee54d7d3bc5","ios":"levelo://app?vid=2842f5fd-7b05-4b47-909c-5ee54d7d3bc5"},"vehicle_type_id":"4","last_reported":1761318678,"current_range_meters":10800,"station_id":"","pricing_plan_id":"cebpf4jnsgd1na2vs0mg"},{"bike_id":"d3cd6432-7c9e-457b-8cb5-53cf95916f4e","system_id":"levelo_inurba_marseille","lat":43.241613,"lon":5.364054,"is_reserved":false,"is_disabled":false,"rental_uris":{"android":"levelo://app?vid=d3cd6432-7c9e-457b-8cb5-53cf95916f4e","ios":"levelo://app?vid=d3cd6432-7c9e-457b-8cb5-53cf95916f4e"},"vehicle_type_id":"4","last_reported":1761318678,"current_range_meters":10800,"station_id":"ce4bhb12rcd13ifvqel0","pricing_plan_id":"cebpf4jnsgd1na2vs0mg"},{"bike_id":"41d1e9c8-193a-4e64-a1f0-b7037202749b","system_id":"levelo_inurba_marseille","lat":43.30154,"lon":5.37411,"is_reserved":false,"is_disabled":true,"rental_uris":{"android":"levelo://app?vid=41d1e9c8-193a-4e64-a1f0-b7037202749b","ios":"levelo://app?vid=41d1e9c8-193a-4e64-a1f0-b7037202749b"},"vehicle_type_id":"4","last_reported":1761318678,"current_range_meters":10800,"station_id":"ce4bgs92rcd13ifvqcc0","pricing_plan_id":"cebpf4jnsgd1na2vs0mg"},{"bike_id":"9881c788-42a8-46f5-8ccc-580a73583155","system_id":"levelo_inurba_marseille","lat":43.32076,"lon":5.40956,"is_reserved":false,"is_disabled":true,"rental_uris":{"android":"levelo://app?vid=9881c788-42a8-46f5-8ccc-580a73583155","ios":"levelo://app?vid=9881c788-42a8-46f5-8ccc-580a73583155"},"vehicle_type_id":"4","last_reported":1761318678,"current_range_meters":10800,"station_id":"","pricing_plan_id":"cebpf4jnsgd1na2vs0mg"},{"bike_id":"f3656ffe-8aba-462d-84c7-5c2b9fba9c0f","system_id":"levelo_inurba_marseille","lat":43.30544,"lon":5.3843,"is_reserved":false,"is_disabled":false,"rental_uris":{"android":"levelo://app?vid=f3656ffe-8aba-462d-84c7-5c2b9fba9c0f","ios":"levelo://app?vid=f3656ffe-8aba-462d-84c7-5c2b9fba9c0f"},"vehicle_type_id":"4","last_reported":1761318678,"current_range_meters":10800,"station_id":"ce4bgg92rcd13ifvqb30","pricing_plan_id":"cebpf4jnsgd1na2vs0mg"},{"bike_id":"d634fc5c-daf0-4c1e-9075-45631ca3665e","system_id":"levelo_inurba_marseille","lat":43.31756,"lon":5.39018,"is_reserved":false,"is_disabled":false,"rental_uris":{"android":"levelo://app?vid=d634fc5c-daf0-4c1e-9075-45631ca3665e","ios":"levelo://app?vid=d634fc5c-daf0-4c1e-9075-45631ca3665e"},"vehicle_type_id":"4","last_reported":1761318678,"current_range_meters":11200,"station_id":"ce4bhqp2rcd13ifvqhng","pricing_plan_id":"cebpf4jnsgd1na2vs0mg"},{"bike_id":"b9764ed2-f91a-421e-b54e-d7527bd8af22","system_id":"levelo_inurba_marseille","lat":43.29811,"lon":5.36588,"is_reserved":false,"is_disabled":false,"rental_uris":{"android":"levelo://app?vid=b9764ed2-f91a-421e-b54e-d7527bd8af22","ios":"levelo://app?vid=b9764ed2-f91a-421e-b54e-d7527bd8af22"},"vehicle_type_id":"4","last_reported":1761318678,"current_range_meters":11200,"station_id":"","pricing_plan_id":"cebpf4jnsgd1na2vs0mg"},{"bike_id":"c12a786b-d447-4373-876a-58fc20f19148","system_id":"levelo_inurba_marseille","lat":43.298997,"lon":5.436648,"is_reserved":false,"is_disabled":false,"rental_uris":{"android":"levelo://app?vid=c12a786b-d447-4373-876a-58fc20f19148","ios":"levelo://app?vid=c12a786b-d447-4373-876a-58fc20f19148"},"vehicle_type_id":"4","last_reported":1761318678,"current_range_meters":11200,"station_id":"ce4bhpp2rcd13ifvqhfg","pricing_plan_id":"cebpf4jnsgd1na2vs0mg"},{"bike_id":"b8132e4e-54c5-4ee2-9476-d2684321070b","system_id":"levelo_inurba_marseille","lat":43.298965,"lon":5.436665,"is_reserved":false,"is_disabled":false,"rental_uris":{"android":"levelo://app?vid=b8132e4e-54c5-4ee2-9476-d2684321070b","ios":"levelo://app?vid=b8132e4e-54c5-4ee2-9476-d2684321070b"},"vehicle_type_id":"4","last_reported":1761318678,"current_range_meters":11200,"station_id":"ce4bhpp2rcd13ifvqhfg","pricing_plan_id":"cebpf4jnsgd1na2vs0mg"},{"bike_id":"4f6aeb94-868f-41f7-86c9-54210ac9c3be","system_id":"levelo_inurba_marseille","lat":43.30554,"lon":5.36553,"is_reserved":false,"is_disabled":false,"rental_uris":{"android":"levelo://app?vid=4f6aeb94-868f-41f7-86c9-54210ac9c3be","ios":"levelo://app?vid=4f6aeb94-868f-41f7-86c9-54210ac9c3be"},"vehicle_type_id":"4","last_reported":1761318678,"current_range_meters":11200,"station_id":"ce4bgs12rcd13ifvqcag","pricing_plan_id":"cebpf4jnsgd1na2vs0mg"},{"bike_id":"43aa7ff1-cb9b-47cc-91f9-53a4912c8d15","system_id":"levelo_inurba_marseille","lat":43.30877,"lon":5.3965,"is_reserved":false,"is_disabled":false,"rental_uris":{"android":"levelo://app?vid=43aa7ff1-cb9b-47cc-91f9-53a4912c8d15","ios":"levelo://app?vid=43aa7ff1-cb9b-47cc-91f9-53a4912c8d15"},"vehicle_type_id":"4","last_reported":1761318678,"current_range_meters":11600,"station_id":"ce4bh012rcd13ifvqcv0","pricing_plan_id":"cebpf4jnsgd1na2vs0mg"},{"bike_id":"b7eec9ea-16a5-4462-93fe-28bfa87294d0","system_id":"levelo_inurba_marseille","lat":43.28,"lon":5.40016,"is_reserved":false,"is_disabled":false,"rental_uris":{"android":"levelo://app?vid=b7eec9ea-16a5-4462-93fe-28bfa87294d0","ios":"levelo://app?vid=b7eec9ea-16a5-4462-93fe-28bfa87294d0"},"vehicle_type_id":"4","last_reported":1761318678,"current_range_meters":11600,"station_id":"ce4bho92rcd13ifvqh4g","pricing_plan_id":"cebpf4jnsgd1na2vs0mg"},{"bike_id":"3a1f18b7-8257-4d71-a16b-3c987d83f592","system_id":"levelo_inurba_marseille","lat":43.24648,"lon":5.38221,"is_reserved":false,"is_disabled":false,"rental_uris":{"android":"levelo://app?vid=3a1f18b7-8257-4d71-a16b-3c987d83f592","ios":"levelo://app?vid=3a1f18b7-8257-4d71-a16b-3c987d83f592"},"vehicle_type_id":"4","last_reported":1761318678,"current_range_meters":12000,"station_id":"ce4bhih2rcd13ifvqfr0","pricing_plan_id":"cebpf4jnsgd1na2vs0mg"},{"bike_id":"770b9891-d91e-466d-96d6-8ee93310baa6","system_id":"levelo_inurba_marseille","lat":43.28724,"lon":5.36095,"is_reserved":false,"is_disabled":false,"rental_uris":{"android":"levelo://app?vid=770b9891-d91e-466d-96d6-8ee93310baa6","ios":"levelo://app?vid=770b9891-d91e-466d-96d6-8ee93310baa6"},"vehicle_type_id":"4","last_reported":1761318678,"current_range_meters":12000,"station_id":"cki0cbj6b192h4jlfktg","pricing_plan_id":"cebpf4jnsgd1na2vs0mg"},{"bike_id":"c4663614-d5ad-4c8f-abae-71223d084fe5","system_id":"levelo_inurba_marseille","lat":43.2962,"lon":5.37721,"is_reserved":false,"is_disabled":false,"rental_uris":{"android":"levelo://app?vid=c4663614-d5ad-4c8f-abae-71223d084fe5","ios":"levelo://app?vid=c4663614-d5ad-4c8f-abae-71223d084fe5"},"vehicle_type_id":"4","last_reported":1761318678,"current_range_meters":12000,"station_id":"ce4bgi92rcd13ifvqb90","pricing_plan_id":"cebpf4jnsgd1na2vs0mg"},{"bike_id":"aa8ce714-f67c-49f1-a644-9827b75b7151","system_id":"levelo_inurba_marseille","lat":43.32342,"lon":5.36723,"is_reserved":false,"is_disabled":false,"rental_uris":{"android":"levelo://app?vid=aa8ce714-f67c-49f1-a644-9827b75b7151","ios":"levelo://app?vid=aa8ce714-f67c-49f1-a644-9827b75b7151"},"vehicle_type_id":"4","last_reported":1761318678,"current_range_meters":12000,"station_id":"ce4bhsh2rcd13ifvqi2g","pricing_plan_id":"cebpf4jnsgd1na2vs0mg"},{"bike_id":"85194288-bd28-4e4a-9262-15ddf33ebfa7","system_id":"levelo_inurba_marseille","lat":43.29843,"lon":5.40588,"is_reserved":false,"is_disabled":false,"rental_uris":{"android":"levelo://app?vid=85194288-bd28-4e4a-9262-15ddf33ebfa7","ios":"levelo://app?vid=85194288-bd28-4e4a-9262-15ddf33ebfa7"},"vehicle_type_id":"4","last_reported":1761318678,"current_range_meters":12000,"station_id":"","pricing_plan_id":"cebpf4jnsgd1na2vs0mg"},{"bike_id":"d5bd1b0a-88b4-4d9a-9246-b7e42f4ca02b","system_id":"levelo_inurba_marseille","lat":43.28675,"lon":5.38667,"is_reserved":false,"is_disabled":false,"rental_uris":{"android":"levelo://app?vid=d5bd1b0a-88b4-4d9a-9246-b7e42f4ca02b","ios":"levelo://app?vid=d5bd1b0a-88b4-4d9a-9246-b7e42f4ca02b"},"vehicle_type_id":"4","last_reported":1761318678,"current_range_meters":12400,"station_id":"ce4bh492rcd13ifvqdug","pricing_plan_id":"cebpf4jnsgd1na2vs0mg"},{"bike_id":"2e516aa3-da3f-4cd4-8d7a-1dc8bf5d8ddd","system_id":"levelo_inurba_marseille","lat":43.32069,"lon":5.36774,"is_reserved":false,"is_disabled":false,"rental_uris":{"android":"levelo://app?vid=2e516aa3-da3f-4cd4-8d7a-1dc8bf5d8ddd","ios":"levelo://app?vid=2e516aa3-da3f-4cd4-8d7a-1dc8bf5d8ddd"},"vehicle_type_id":"4","last_reported":1761318678,"current_range_meters":12400,"station_id":"ce4bhrh2rcd13ifvqhug","pricing_plan_id":"cebpf4jnsgd1na2vs0mg"},{"bike_id":"49205a8f-4198-4c0b-b7d7-97a9473705ce","system_id":"levelo_inurba_marseille","lat":43.32116,"lon":5.36777,"is_reserved":false,"is_disabled":false,"rental_uris":{"android":"levelo://app?vid=49205a8f-4198-4c0b-b7d7-97a9473705ce","ios":"levelo://app?vid=49205a8f-4198-4c0b-b7d7-97a9473705ce"},"vehicle_type_id":"4","last_reported":1761318678,"current_range_meters":12400,"station_id":"ce4bhrh2rcd13ifvqhug","pricing_plan_id":"cebpf4jnsgd1na2vs0mg"},{"bike_id":"b6432dae-7b8a-40a6-b521-c32099119043","system_id":"levelo_inurba_marseille","lat":43.29266,"lon":5.38438,"is_reserved":false,"is_disabled":false,"rental_uris":{"android":"levelo://app?vid=b6432dae-7b8a-40a6-b521-c32099119043","ios":"levelo://app?vid=b6432dae-7b8a-40a6-b521-c32099119043"},"vehicle_type_id":"4","last_reported":1761318678,"current_range_meters":12400,"station_id":"ce4bh692rcd13ifvqea0","pricing_plan_id":"cebpf4jnsgd1na2vs0mg"},{"bike_id":"3ab510cf-47f2-48e8-a2ce-21bd0b6e2cd7","system_id":"levelo_inurba_marseille","lat":43.297933,"lon":5.407914,"is_reserved":false,"is_disabled":false,"rental_uris":{"android":"levelo://app?vid=3ab510cf-47f2-48e8-a2ce-21bd0b6e2cd7","ios":"levelo://app?vid=3ab510cf-47f2-48e8-a2ce-21bd0b6e2cd7"},"vehicle_type_id":"4","last_reported":1761318678,"current_range_meters":12400,"station_id":"","pricing_plan_id":"cebpf4jnsgd1na2vs0mg"},{"bike_id":"e53a3607-efda-4685-a5e3-bbe81ebfbcda","system_id":"levelo_inurba_marseille","lat":43.29875,"lon":5.39733,"is_reserved":false,"is_disabled":false,"rental_uris":{"android":"levelo://app?vid=e53a3607-efda-4685-a5e3-bbe81ebfbcda","ios":"levelo://app?vid=e53a3607-efda-4685-a5e3-bbe81ebfbcda"},"vehicle_type_id":"4","last_reported":1761318678,"current_range_meters":12400,"station_id":"ce4bh0h2rcd13ifvqd50","pricing_plan_id":"cebpf4jnsgd1na2vs0mg"},{"bike_id":"5f9d2088-08e6-4925-aefd-e9e57e853252","system_id":"levelo_inurba_marseille","lat":43.28474,"lon":5.48392,"is_reserved":false,"is_disabled":false,"rental_uris":{"android":"levelo://app?vid=5f9d2088-08e6-4925-aefd-e9e57e853252","ios":"levelo://app?vid=5f9d2088-08e6-4925-aefd-e9e57e853252"},"vehicle_type_id":"4","last_reported":1761318678,"current_range_meters":12400,"station_id":"st_d3svhcjqgbts73a3dn0g","pricing_plan_id":"cebpf4jnsgd1na2vs0mg"},{"bike_id":"f54799f2-444d-4f52-a0a9-90d66f76b66a","system_id":"levelo_inurba_marseille","lat":43.253373,"lon":5.421745,"is_reserved":false,"is_disabled":false,"rental_uris":{"android":"levelo://app?vid=f54799f2-444d-4f52-a0a9-90d66f76b66a","ios":"levelo://app?vid=f54799f2-444d-4f52-a0a9-90d66f76b66a"},"vehicle_type_id":"4","last_reported":1761318678,"current_range_meters":12400,"station_id":"st_d2m65c5bi1j21697t3ng","pricing_plan_id":"cebpf4jnsgd1na2vs0mg"},{"bike_id":"2af434ba-6176-49ce-9a9d-63765d9b45ca","system_id":"levelo_inurba_marseille","lat":43.301178,"lon":5.398481,"is_reserved":false,"is_disabled":false,"rental_uris":{"android":"levelo://app?vid=2af434ba-6176-49ce-9a9d-63765d9b45ca","ios":"levelo://app?vid=2af434ba-6176-49ce-9a9d-63765d9b45ca"},"vehicle_type_id":"4","last_reported":1761318678,"current_range_meters":12400,"station_id":"ce4bh0h2rcd13ifvqd40","pricing_plan_id":"cebpf4jnsgd1na2vs0mg"},{"bike_id":"ccb140cc-61af-460c-9c74-9b118e13b00f","system_id":"levelo_inurba_marseille","lat":43.253376,"lon":5.421716,"is_reserved":false,"is_disabled":false,"rental_uris":{"android":"levelo://app?vid=ccb140cc-61af-460c-9c74-9b118e13b00f","ios":"levelo://app?vid=ccb140cc-61af-460c-9c74-9b118e13b00f"},"vehicle_type_id":"4","last_reported":1761318678,"current_range_meters":12800,"station_id":"st_d2m65c5bi1j21697t3ng","pricing_plan_id":"cebpf4jnsgd1na2vs0mg"},{"bike_id":"62e195f3-8abc-4821-b11a-12ba932a3e90","system_id":"levelo_inurba_marseille","lat":43.28491,"lon":5.3853,"is_reserved":false,"is_disabled":false,"rental_uris":{"android":"levelo://app?vid=62e195f3-8abc-4821-b11a-12ba932a3e90","ios":"levelo://app?vid=62e195f3-8abc-4821-b11a-12ba932a3e90"},"vehicle_type_id":"4","last_reported":1761318678,"current_range_meters":12800,"station_id":"ce4bh8p2rcd13ifvqeb0","pricing_plan_id":"cebpf4jnsgd1na2vs0mg"},{"bike_id":"de4b8ab5-285e-474a-b521-72ccb626a9fe","system_id":"levelo_inurba_marseille","lat":43.32246,"lon":5.38357,"is_reserved":false,"is_disabled":false,"rental_uris":{"android":"levelo://app?vid=de4b8ab5-285e-474a-b521-72ccb626a9fe","ios":"levelo://app?vid=de4b8ab5-285e-474a-b521-72ccb626a9fe"},"vehicle_type_id":"4","last_reported":1761318678,"current_range_meters":12800,"station_id":"ce4bhr12rcd13ifvqhqg","pricing_plan_id":"cebpf4jnsgd1na2vs0mg"},{"bike_id":"30c20775-7e7c-4dd5-b544-8b63c9979e48","system_id":"levelo_inurba_marseille","lat":43.29229,"lon":5.36063,"is_reserved":false,"is_disabled":false,"rental_uris":{"android":"levelo://app?vid=30c20775-7e7c-4dd5-b544-8b63c9979e48","ios":"levelo://app?vid=30c20775-7e7c-4dd5-b544-8b63c9979e48"},"vehicle_type_id":"4","last_reported":1761318678,"current_range_meters":12800,"station_id":"ce4bhbh2rcd13ifvqeqg","pricing_plan_id":"cebpf4jnsgd1na2vs0mg"},{"bike_id":"9231c9f1-ec2a-4c29-b3ce-756342e2f952","system_id":"levelo_inurba_marseille","lat":43.24643,"lon":5.38906,"is_reserved":false,"is_disabled":false,"rental_uris":{"android":"levelo://app?vid=9231c9f1-ec2a-4c29-b3ce-756342e2f952","ios":"levelo://app?vid=9231c9f1-ec2a-4c29-b3ce-756342e2f952"},"vehicle_type_id":"4","last_reported":1761318678,"current_range_meters":12800,"station_id":"ce4bhg12rcd13ifvqf60","pricing_plan_id":"cebpf4jnsgd1na2vs0mg"},{"bike_id":"2bbaf697-87b8-4c4a-b03c-fe258fb1bbc2","system_id":"levelo_inurba_marseille","lat":43.24993,"lon":5.38934,"is_reserved":false,"is_disabled":false,"rental_uris":{"android":"levelo://app?vid=2bbaf697-87b8-4c4a-b03c-fe258fb1bbc2","ios":"levelo://app?vid=2bbaf697-87b8-4c4a-b03c-fe258fb1bbc2"},"vehicle_type_id":"4","last_reported":1761318678,"current_range_meters":12800,"station_id":"ce4bhgp2rcd13ifvqfd0","pricing_plan_id":"cebpf4jnsgd1na2vs0mg"},{"bike_id":"95f582c0-a57c-44e8-acb9-3c54148aab77","system_id":"levelo_inurba_marseille","lat":43.28572,"lon":5.39498,"is_reserved":false,"is_disabled":false,"rental_uris":{"android":"levelo://app?vid=95f582c0-a57c-44e8-acb9-3c54148aab77","ios":"levelo://app?vid=95f582c0-a57c-44e8-acb9-3c54148aab77"},"vehicle_type_id":"4","last_reported":1761318678,"current_range_meters":13600,"station_id":"ce4bh292rcd13ifvqdg0","pricing_plan_id":"cebpf4jnsgd1na2vs0mg"},{"bike_id":"f8c755d7-1bb8-4fcd-bb3f-74aeb49951cc","system_id":"levelo_inurba_marseille","lat":43.31367,"lon":5.37912,"is_reserved":false,"is_disabled":false,"rental_uris":{"android":"levelo://app?vid=f8c755d7-1bb8-4fcd-bb3f-74aeb49951cc","ios":"levelo://app?vid=f8c755d7-1bb8-4fcd-bb3f-74aeb49951cc"},"vehicle_type_id":"4","last_reported":1761318678,"current_range_meters":13600,"station_id":"","pricing_plan_id":"cebpf4jnsgd1na2vs0mg"},{"bike_id":"42c32ddd-9433-48c1-8229-095a8bcf3eaa","system_id":"levelo_inurba_marseille","lat":43.293019,"lon":5.374615,"is_reserved":false,"is_disabled":false,"rental_uris":{"android":"levelo://app?vid=42c32ddd-9433-48c1-8229-095a8bcf3eaa","ios":"levelo://app?vid=42c32ddd-9433-48c1-8229-095a8bcf3eaa"},"vehicle_type_id":"4","last_reported":1761318678,"current_range_meters":13600,"station_id":"ce4bgi12rcd13ifvqb70","pricing_plan_id":"cebpf4jnsgd1na2vs0mg"},{"bike_id":"7015f80f-78ef-497a-9bcf-4c795d6ca9d7","system_id":"levelo_inurba_marseille","lat":43.24076,"lon":5.37754,"is_reserved":false,"is_disabled":false,"rental_uris":{"android":"levelo://app?vid=7015f80f-78ef-497a-9bcf-4c795d6ca9d7","ios":"levelo://app?vid=7015f80f-78ef-497a-9bcf-4c795d6ca9d7"},"vehicle_type_id":"4","last_reported":1761318678,"current_range_meters":13600,"station_id":"ce4bhnp2rcd13ifvqgvg","pricing_plan_id":"cebpf4jnsgd1na2vs0mg"},{"bike_id":"6f9bf46d-a346-4ecc-8366-50ae45e523f3","system_id":"levelo_inurba_marseille","lat":43.27996,"lon":5.40027,"is_reserved":false,"is_disabled":false,"rental_uris":{"android":"levelo://app?vid=6f9bf46d-a346-4ecc-8366-50ae45e523f3","ios":"levelo://app?vid=6f9bf46d-a346-4ecc-8366-50ae45e523f3"},"vehicle_type_id":"4","last_reported":1761318678,"current_range_meters":13600,"station_id":"ce4bho92rcd13ifvqh4g","pricing_plan_id":"cebpf4jnsgd1na2vs0mg"},{"bike_id":"64d61a35-94c0-4644-ae33-f36ba447effe","system_id":"levelo_inurba_marseille","lat":43.27352,"lon":5.36232,"is_reserved":false,"is_disabled":false,"rental_uris":{"android":"levelo://app?vid=64d61a35-94c0-4644-ae33-f36ba447effe","ios":"levelo://app?vid=64d61a35-94c0-4644-ae33-f36ba447effe"},"vehicle_type_id":"4","last_reported":1761318678,"current_range_meters":13600,"station_id":"ce4bhbh2rcd13ifvqeo0","pricing_plan_id":"cebpf4jnsgd1na2vs0mg"},{"bike_id":"68913c84-342a-4ac5-9ffa-ea0a618c0522","system_id":"levelo_inurba_marseille","lat":43.21207,"lon":5.35071,"is_reserved":false,"is_disabled":false,"rental_uris":{"android":"levelo://app?vid=68913c84-342a-4ac5-9ffa-ea0a618c0522","ios":"levelo://app?vid=68913c84-342a-4ac5-9ffa-ea0a618c0522"},"vehicle_type_id":"4","last_reported":1761318678,"current_range_meters":14000,"station_id":"st_cvj6sg6p6f1abm77japg","pricing_plan_id":"cebpf4jnsgd1na2vs0mg"},{"bike_id":"6de44f81-697f-437d-a1fc-47f27e7feb91","system_id":"levelo_inurba_marseille","lat":43.24548,"lon":5.3952,"is_reserved":false,"is_disabled":false,"rental_uris":{"android":"levelo://app?vid=6de44f81-697f-437d-a1fc-47f27e7feb91","ios":"levelo://app?vid=6de44f81-697f-437d-a1fc-47f27e7feb91"},"vehicle_type_id":"4","last_reported":1761318678,"current_range_meters":14000,"station_id":"ce4bhlp2rcd13ifvqgjg","pricing_plan_id":"cebpf4jnsgd1na2vs0mg"},{"bike_id":"db94d1e3-d6ad-4bc0-b456-0d49f128a641","system_id":"levelo_inurba_marseille","lat":43.310667,"lon":5.370275,"is_reserved":false,"is_disabled":false,"rental_uris":{"android":"levelo://app?vid=db94d1e3-d6ad-4bc0-b456-0d49f128a641","ios":"levelo://app?vid=db94d1e3-d6ad-4bc0-b456-0d49f128a641"},"vehicle_type_id":"4","last_reported":1761318678,"current_range_meters":14000,"station_id":"","pricing_plan_id":"cebpf4jnsgd1na2vs0mg"},{"bike_id":"8be6a47c-9542-4fed-8109-f6d91a0f2b3f","system_id":"levelo_inurba_marseille","lat":43.2923,"lon":5.37152,"is_reserved":false,"is_disabled":false,"rental_uris":{"android":"levelo://app?vid=8be6a47c-9542-4fed-8109-f6d91a0f2b3f","ios":"levelo://app?vid=8be6a47c-9542-4fed-8109-f6d91a0f2b3f"},"vehicle_type_id":"4","last_reported":1761318678,"current_range_meters":14000,"station_id":"","pricing_plan_id":"cebpf4jnsgd1na2vs0mg"},{"bike_id":"bd2dd03a-f854-44f5-ac92-934ae697fa3c","system_id":"levelo_inurba_marseille","lat":43.28947,"lon":5.364,"is_reserved":false,"is_disabled":false,"rental_uris":{"android":"levelo://app?vid=bd2dd03a-f854-44f5-ac92-934ae697fa3c","ios":"levelo://app?vid=bd2dd03a-f854-44f5-ac92-934ae697fa3c"},"vehicle_type_id":"4","last_reported":1761318678,"current_range_meters":14000,"station_id":"ce4bhc92rcd13ifvqetg","pricing_plan_id":"cebpf4jnsgd1na2vs0mg"},{"bike_id":"6b307c52-f33b-4885-85a6-9bac6592bb3d","system_id":"levelo_inurba_marseille","lat":43.21189,"lon":5.35098,"is_reserved":false,"is_disabled":false,"rental_uris":{"android":"levelo://app?vid=6b307c52-f33b-4885-85a6-9bac6592bb3d","ios":"levelo://app?vid=6b307c52-f33b-4885-85a6-9bac6592bb3d"},"vehicle_type_id":"4","last_reported":1761318678,"current_range_meters":14000,"station_id":"st_cvj6sg6p6f1abm77japg","pricing_plan_id":"cebpf4jnsgd1na2vs0mg"},{"bike_id":"6117d059-a746-4730-8fc1-58c8a2514aa9","system_id":"levelo_inurba_marseille","lat":43.3052,"lon":5.36852,"is_reserved":false,"is_disabled":false,"rental_uris":{"android":"levelo://app?vid=6117d059-a746-4730-8fc1-58c8a2514aa9","ios":"levelo://app?vid=6117d059-a746-4730-8fc1-58c8a2514aa9"},"vehicle_type_id":"4","last_reported":1761318678,"current_range_meters":14400,"station_id":"","pricing_plan_id":"cebpf4jnsgd1na2vs0mg"},{"bike_id":"9e4bb339-2aa4-4eb8-a596-aaaf92c61ccf","system_id":"levelo_inurba_marseille","lat":43.28725,"lon":5.36084,"is_reserved":false,"is_disabled":false,"rental_uris":{"android":"levelo://app?vid=9e4bb339-2aa4-4eb8-a596-aaaf92c61ccf","ios":"levelo://app?vid=9e4bb339-2aa4-4eb8-a596-aaaf92c61ccf"},"vehicle_type_id":"4","last_reported":1761318678,"current_range_meters":14400,"station_id":"cki0cbj6b192h4jlfktg","pricing_plan_id":"cebpf4jnsgd1na2vs0mg"},{"bike_id":"6c2c942b-51a4-46e7-b78c-3230a1f4696b","system_id":"levelo_inurba_marseille","lat":43.3171,"lon":5.42406,"is_reserved":false,"is_disabled":false,"rental_uris":{"android":"levelo://app?vid=6c2c942b-51a4-46e7-b78c-3230a1f4696b","ios":"levelo://app?vid=6c2c942b-51a4-46e7-b78c-3230a1f4696b"},"vehicle_type_id":"4","last_reported":1761318678,"current_range_meters":14400,"station_id":"ce4bhp92rcd13ifvqhbg","pricing_plan_id":"cebpf4jnsgd1na2vs0mg"},{"bike_id":"249615da-bae2-4bb3-9506-b338b9fb85b7","system_id":"levelo_inurba_marseille","lat":43.29707,"lon":5.37714,"is_reserved":false,"is_disabled":true,"rental_uris":{"android":"levelo://app?vid=249615da-bae2-4bb3-9506-b338b9fb85b7","ios":"levelo://app?vid=249615da-bae2-4bb3-9506-b338b9fb85b7"},"vehicle_type_id":"4","last_reported":1761318678,"current_range_meters":14800,"station_id":"ce4bgkh2rcd13ifvqbl0","pricing_plan_id":"cebpf4jnsgd1na2vs0mg"},{"bike_id":"01c50735-e9f7-4659-9ce3-b6b1463034a5","system_id":"levelo_inurba_marseille","lat":43.28154,"lon":5.42646,"is_reserved":false,"is_disabled":false,"rental_uris":{"android":"levelo://app?vid=01c50735-e9f7-4659-9ce3-b6b1463034a5","ios":"levelo://app?vid=01c50735-e9f7-4659-9ce3-b6b1463034a5"},"vehicle_type_id":"4","last_reported":1761318678,"current_range_meters":14800,"station_id":"ce4bhnh2rcd13ifvqgug","pricing_plan_id":"cebpf4jnsgd1na2vs0mg"},{"bike_id":"53c6455a-65ef-4c5b-8bb0-56759bb278b5","system_id":"levelo_inurba_marseille","lat":43.28103,"lon":5.37846,"is_reserved":false,"is_disabled":false,"rental_uris":{"android":"levelo://app?vid=53c6455a-65ef-4c5b-8bb0-56759bb278b5","ios":"levelo://app?vid=53c6455a-65ef-4c5b-8bb0-56759bb278b5"},"vehicle_type_id":"4","last_reported":1761318678,"current_range_meters":15200,"station_id":"ce4bha12rcd13ifvqee0","pricing_plan_id":"cebpf4jnsgd1na2vs0mg"},{"bike_id":"7a61c5cf-a09d-4dce-8b8a-ebe5442509c8","system_id":"levelo_inurba_marseille","lat":43.29627,"lon":5.37143,"is_reserved":false,"is_disabled":false,"rental_uris":{"android":"levelo://app?vid=7a61c5cf-a09d-4dce-8b8a-ebe5442509c8","ios":"levelo://app?vid=7a61c5cf-a09d-4dce-8b8a-ebe5442509c8"},"vehicle_type_id":"4","last_reported":1761318678,"current_range_meters":15200,"station_id":"ce4bgnh2rcd13ifvqc0g","pricing_plan_id":"cebpf4jnsgd1na2vs0mg"},{"bike_id":"d7763b65-19fe-4bf8-9029-1d16bbcdd5fe","system_id":"levelo_inurba_marseille","lat":43.29878,"lon":5.3892,"is_reserved":false,"is_disabled":false,"rental_uris":{"android":"levelo://app?vid=d7763b65-19fe-4bf8-9029-1d16bbcdd5fe","ios":"levelo://app?vid=d7763b65-19fe-4bf8-9029-1d16bbcdd5fe"},"vehicle_type_id":"4","last_reported":1761318678,"current_range_meters":15200,"station_id":"ce4bh392rcd13ifvqdl0","pricing_plan_id":"cebpf4jnsgd1na2vs0mg"},{"bike_id":"9cf0739c-a98e-4342-bc79-0bc0c7e49bf1","system_id":"levelo_inurba_marseille","lat":43.30522,"lon":5.36721,"is_reserved":false,"is_disabled":false,"rental_uris":{"android":"levelo://app?vid=9cf0739c-a98e-4342-bc79-0bc0c7e49bf1","ios":"levelo://app?vid=9cf0739c-a98e-4342-bc79-0bc0c7e49bf1"},"vehicle_type_id":"4","last_reported":1761318678,"current_range_meters":15200,"station_id":"","pricing_plan_id":"cebpf4jnsgd1na2vs0mg"},{"bike_id":"a6e4ec3e-e20e-43ef-8a62-98698cb45b3b","system_id":"levelo_inurba_marseille","lat":43.29201,"lon":5.39321,"is_reserved":false,"is_disabled":false,"rental_uris":{"android":"levelo://app?vid=a6e4ec3e-e20e-43ef-8a62-98698cb45b3b","ios":"levelo://app?vid=a6e4ec3e-e20e-43ef-8a62-98698cb45b3b"},"vehicle_type_id":"4","last_reported":1761318678,"current_range_meters":15200,"station_id":"ce4bh192rcd13ifvqdd0","pricing_plan_id":"cebpf4jnsgd1na2vs0mg"},{"bike_id":"4f5c5045-2f2c-4ab7-ad8b-eeba1d52fe66","system_id":"levelo_inurba_marseille","lat":43.31054,"lon":5.37418,"is_reserved":false,"is_disabled":false,"rental_uris":{"android":"levelo://app?vid=4f5c5045-2f2c-4ab7-ad8b-eeba1d52fe66","ios":"levelo://app?vid=4f5c5045-2f2c-4ab7-ad8b-eeba1d52fe66"},"vehicle_type_id":"4","last_reported":1761318678,"current_range_meters":16000,"station_id":"","pricing_plan_id":"cebpf4jnsgd1na2vs0mg"},{"bike_id":"b9c8ced1-4ad2-4529-8b78-c6503294316b","system_id":"levelo_inurba_marseille","lat":43.302179,"lon":5.394717,"is_reserved":false,"is_disabled":false,"rental_uris":{"android":"levelo://app?vid=b9c8ced1-4ad2-4529-8b78-c6503294316b","ios":"levelo://app?vid=b9c8ced1-4ad2-4529-8b78-c6503294316b"},"vehicle_type_id":"4","last_reported":1761318678,"current_range_meters":16000,"station_id":"","pricing_plan_id":"cebpf4jnsgd1na2vs0mg"},{"bike_id":"16c0a730-b783-4ef8-9dc3-8a6ea84fbf95","system_id":"levelo_inurba_marseille","lat":43.280042,"lon":5.400084,"is_reserved":false,"is_disabled":false,"rental_uris":{"android":"levelo://app?vid=16c0a730-b783-4ef8-9dc3-8a6ea84fbf95","ios":"levelo://app?vid=16c0a730-b783-4ef8-9dc3-8a6ea84fbf95"},"vehicle_type_id":"4","last_reported":1761318678,"current_range_meters":16000,"station_id":"ce4bho92rcd13ifvqh4g","pricing_plan_id":"cebpf4jnsgd1na2vs0mg"},{"bike_id":"cd2128c5-97aa-4df9-b97a-4c3632669541","system_id":"levelo_inurba_marseille","lat":43.297062,"lon":5.366079,"is_reserved":false,"is_disabled":false,"rental_uris":{"android":"levelo://app?vid=cd2128c5-97aa-4df9-b97a-4c3632669541","ios":"levelo://app?vid=cd2128c5-97aa-4df9-b97a-4c3632669541"},"vehicle_type_id":"4","last_reported":1761318678,"current_range_meters":16000,"station_id":"ce4bgn12rcd13ifvqbt0","pricing_plan_id":"cebpf4jnsgd1na2vs0mg"},{"bike_id":"e6befb5f-c886-4ed8-801f-20b2a35aee65","system_id":"levelo_inurba_marseille","lat":43.28612,"lon":5.35109,"is_reserved":false,"is_disabled":false,"rental_uris":{"android":"levelo://app?vid=e6befb5f-c886-4ed8-801f-20b2a35aee65","ios":"levelo://app?vid=e6befb5f-c886-4ed8-801f-20b2a35aee65"},"vehicle_type_id":"4","last_reported":1761318678,"current_range_meters":16000,"station_id":"ce4bhch2rcd13ifvqeug","pricing_plan_id":"cebpf4jnsgd1na2vs0mg"},{"bike_id":"a4b425ac-d20b-4acf-bdb5-ba822340ecdc","system_id":"levelo_inurba_marseille","lat":43.29418,"lon":5.38617,"is_reserved":false,"is_disabled":false,"rental_uris":{"android":"levelo://app?vid=a4b425ac-d20b-4acf-bdb5-ba822340ecdc","ios":"levelo://app?vid=a4b425ac-d20b-4acf-bdb5-ba822340ecdc"},"vehicle_type_id":"4","last_reported":1761318678,"current_range_meters":16000,"station_id":"","pricing_plan_id":"cebpf4jnsgd1na2vs0mg"},{"bike_id":"e55ab729-2636-446a-b253-9f8a3270964c","system_id":"levelo_inurba_marseille","lat":43.295161,"lon":5.393997,"is_reserved":false,"is_disabled":false,"rental_uris":{"android":"levelo://app?vid=e55ab729-2636-446a-b253-9f8a3270964c","ios":"levelo://app?vid=e55ab729-2636-446a-b253-9f8a3270964c"},"vehicle_type_id":"4","last_reported":1761318678,"current_range_meters":16000,"station_id":"ce4bh292rcd13ifvqdf0","pricing_plan_id":"cebpf4jnsgd1na2vs0mg"},{"bike_id":"8ac2064c-12fc-42d8-8f26-e3e2b94db2d8","system_id":"levelo_inurba_marseille","lat":43.29797,"lon":5.39345,"is_reserved":false,"is_disabled":false,"rental_uris":{"android":"levelo://app?vid=8ac2064c-12fc-42d8-8f26-e3e2b94db2d8","ios":"levelo://app?vid=8ac2064c-12fc-42d8-8f26-e3e2b94db2d8"},"vehicle_type_id":"4","last_reported":1761318678,"current_range_meters":16000,"station_id":"chh1huq6cuj3fo74tm60","pricing_plan_id":"cebpf4jnsgd1na2vs0mg"},{"bike_id":"fd78ff45-e871-4f4b-889c-ed1e0389959b","system_id":"levelo_inurba_marseille","lat":43.30236,"lon":5.39409,"is_reserved":false,"is_disabled":false,"rental_uris":{"android":"levelo://app?vid=fd78ff45-e871-4f4b-889c-ed1e0389959b","ios":"levelo://app?vid=fd78ff45-e871-4f4b-889c-ed1e0389959b"},"vehicle_type_id":"4","last_reported":1761318678,"current_range_meters":16400,"station_id":"ce4bh0p2rcd13ifvqd70","pricing_plan_id":"cebpf4jnsgd1na2vs0mg"},{"bike_id":"0451bb41-4341-4384-b94e-36694f7babf0","system_id":"levelo_inurba_marseille","lat":43.285751,"lon":5.395071,"is_reserved":false,"is_disabled":false,"rental_uris":{"android":"levelo://app?vid=0451bb41-4341-4384-b94e-36694f7babf0","ios":"levelo://app?vid=0451bb41-4341-4384-b94e-36694f7babf0"},"vehicle_type_id":"4","last_reported":1761318678,"current_range_meters":16400,"station_id":"ce4bh292rcd13ifvqdg0","pricing_plan_id":"cebpf4jnsgd1na2vs0mg"},{"bike_id":"fb992e35-c109-4cb7-96c7-50faefdd00eb","system_id":"levelo_inurba_marseille","lat":43.33027,"lon":5.37278,"is_reserved":false,"is_disabled":false,"rental_uris":{"android":"levelo://app?vid=fb992e35-c109-4cb7-96c7-50faefdd00eb","ios":"levelo://app?vid=fb992e35-c109-4cb7-96c7-50faefdd00eb"},"vehicle_type_id":"4","last_reported":1761318678,"current_range_meters":16400,"station_id":"","pricing_plan_id":"cebpf4jnsgd1na2vs0mg"},{"bike_id":"73edc1b3-46fe-45a3-a6d9-70825c49e591","system_id":"levelo_inurba_marseille","lat":43.29508,"lon":5.37819,"is_reserved":false,"is_disabled":false,"rental_uris":{"android":"levelo://app?vid=73edc1b3-46fe-45a3-a6d9-70825c49e591","ios":"levelo://app?vid=73edc1b3-46fe-45a3-a6d9-70825c49e591"},"vehicle_type_id":"4","last_reported":1761318678,"current_range_meters":16400,"station_id":"","pricing_plan_id":"cebpf4jnsgd1na2vs0mg"},{"bike_id":"69599b97-b573-4868-ae16-9bda40c9248f","system_id":"levelo_inurba_marseille","lat":43.21196,"lon":5.3507,"is_reserved":false,"is_disabled":false,"rental_uris":{"android":"levelo://app?vid=69599b97-b573-4868-ae16-9bda40c9248f","ios":"levelo://app?vid=69599b97-b573-4868-ae16-9bda40c9248f"},"vehicle_type_id":"4","last_reported":1761318678,"current_range_meters":16400,"station_id":"st_cvj6sg6p6f1abm77japg","pricing_plan_id":"cebpf4jnsgd1na2vs0mg"},{"bike_id":"bd3eae83-a40a-4d6d-a7fe-88c9903d01a2","system_id":"levelo_inurba_marseille","lat":43.232056,"lon":5.355356,"is_reserved":false,"is_disabled":false,"rental_uris":{"android":"levelo://app?vid=bd3eae83-a40a-4d6d-a7fe-88c9903d01a2","ios":"levelo://app?vid=bd3eae83-a40a-4d6d-a7fe-88c9903d01a2"},"vehicle_type_id":"4","last_reported":1761318678,"current_range_meters":16400,"station_id":"ce4bhu92rcd13ifvqi70","pricing_plan_id":"cebpf4jnsgd1na2vs0mg"},{"bike_id":"cdce636c-eeb6-47d3-80b6-5fc9004cd274","system_id":"levelo_inurba_marseille","lat":43.274653,"lon":5.394483,"is_reserved":false,"is_disabled":false,"rental_uris":{"android":"levelo://app?vid=cdce636c-eeb6-47d3-80b6-5fc9004cd274","ios":"levelo://app?vid=cdce636c-eeb6-47d3-80b6-5fc9004cd274"},"vehicle_type_id":"4","last_reported":1761318678,"current_range_meters":16400,"station_id":"ce4bh692rcd13ifvqea0","pricing_plan_id":"cebpf4jnsgd1na2vs0mg"},{"bike_id":"9cb82e19-5a85-4215-8496-51467b3a3692","system_id":"levelo_inurba_marseille","lat":43.29542,"lon":5.37491,"is_reserved":false,"is_disabled":false,"rental_uris":{"android":"levelo://app?vid=9cb82e19-5a85-4215-8496-51467b3a3692","ios":"levelo://app?vid=9cb82e19-5a85-4215-8496-51467b3a3692"},"vehicle_type_id":"4","last_reported":1761318678,"current_range_meters":16400,"station_id":"ce4bgkp2rcd13ifvqbmg","pricing_plan_id":"cebpf4jnsgd1na2vs0mg"},{"bike_id":"fadca4ae-b2ac-4723-bdaf-a15096c40cfd","system_id":"levelo_inurba_marseille","lat":43.24387,"lon":5.37052,"is_reserved":false,"is_disabled":false,"rental_uris":{"android":"levelo://app?vid=fadca4ae-b2ac-4723-bdaf-a15096c40cfd","ios":"levelo://app?vid=fadca4ae-b2ac-4723-bdaf-a15096c40cfd"},"vehicle_type_id":"4","last_reported":1761318678,"current_range_meters":16800,"station_id":"ce4bhhh2rcd13ifvqfk0","pricing_plan_id":"cebpf4jnsgd1na2vs0mg"},{"bike_id":"b66262f5-a312-4400-926e-e2f9d4a6160d","system_id":"levelo_inurba_marseille","lat":43.32651,"lon":5.409853,"is_reserved":false,"is_disabled":false,"rental_uris":{"android":"levelo://app?vid=b66262f5-a312-4400-926e-e2f9d4a6160d","ios":"levelo://app?vid=b66262f5-a312-4400-926e-e2f9d4a6160d"},"vehicle_type_id":"4","last_reported":1761318678,"current_range_meters":16800,"station_id":"ce4bhpp2rcd13ifvqhgg","pricing_plan_id":"cebpf4jnsgd1na2vs0mg"},{"bike_id":"5c0e1fad-1092-45f4-930f-73335d46d836","system_id":"levelo_inurba_marseille","lat":43.29782,"lon":5.38112,"is_reserved":false,"is_disabled":true,"rental_uris":{"android":"levelo://app?vid=5c0e1fad-1092-45f4-930f-73335d46d836","ios":"levelo://app?vid=5c0e1fad-1092-45f4-930f-73335d46d836"},"vehicle_type_id":"4","last_reported":1761318678,"current_range_meters":16800,"station_id":"ce4bgip2rcd13ifvqbb0","pricing_plan_id":"cebpf4jnsgd1na2vs0mg"},{"bike_id":"417d2345-c4c6-4ccd-bc5c-2eafc961607b","system_id":"levelo_inurba_marseille","lat":43.25525,"lon":5.37639,"is_reserved":false,"is_disabled":false,"rental_uris":{"android":"levelo://app?vid=417d2345-c4c6-4ccd-bc5c-2eafc961607b","ios":"levelo://app?vid=417d2345-c4c6-4ccd-bc5c-2eafc961607b"},"vehicle_type_id":"4","last_reported":1761318678,"current_range_meters":16800,"station_id":"ce4bhh12rcd13ifvqff0","pricing_plan_id":"cebpf4jnsgd1na2vs0mg"},{"bike_id":"75eebb0f-2447-4bf8-b846-45b5b359059b","system_id":"levelo_inurba_marseille","lat":43.33769,"lon":5.37496,"is_reserved":false,"is_disabled":false,"rental_uris":{"android":"levelo://app?vid=75eebb0f-2447-4bf8-b846-45b5b359059b","ios":"levelo://app?vid=75eebb0f-2447-4bf8-b846-45b5b359059b"},"vehicle_type_id":"4","last_reported":1761318678,"current_range_meters":16800,"station_id":"","pricing_plan_id":"cebpf4jnsgd1na2vs0mg"},{"bike_id":"39cf7eea-63aa-4069-b905-5462ea0731d5","system_id":"levelo_inurba_marseille","lat":43.26704,"lon":5.39424,"is_reserved":false,"is_disabled":false,"rental_uris":{"android":"levelo://app?vid=39cf7eea-63aa-4069-b905-5462ea0731d5","ios":"levelo://app?vid=39cf7eea-63aa-4069-b905-5462ea0731d5"},"vehicle_type_id":"4","last_reported":1761318678,"current_range_meters":16800,"station_id":"","pricing_plan_id":"cebpf4jnsgd1na2vs0mg"},{"bike_id":"1e619442-8921-43e1-9cb4-28734366033c","system_id":"levelo_inurba_marseille","lat":43.28358,"lon":5.38638,"is_reserved":false,"is_disabled":false,"rental_uris":{"android":"levelo://app?vid=1e619442-8921-43e1-9cb4-28734366033c","ios":"levelo://app?vid=1e619442-8921-43e1-9cb4-28734366033c"},"vehicle_type_id":"4","last_reported":1761318678,"current_range_meters":16800,"station_id":"ce4bh492rcd13ifvqdvg","pricing_plan_id":"cebpf4jnsgd1na2vs0mg"},{"bike_id":"9d964ec4-c537-4f1d-b21c-451d3f46b1bf","system_id":"levelo_inurba_marseille","lat":43.29908,"lon":5.3783,"is_reserved":false,"is_disabled":false,"rental_uris":{"android":"levelo://app?vid=9d964ec4-c537-4f1d-b21c-451d3f46b1bf","ios":"levelo://app?vid=9d964ec4-c537-4f1d-b21c-451d3f46b1bf"},"vehicle_type_id":"4","last_reported":1761318678,"current_range_meters":16800,"station_id":"","pricing_plan_id":"cebpf4jnsgd1na2vs0mg"},{"bike_id":"ad5e293e-83f9-428f-aa9e-10c5d143c014","system_id":"levelo_inurba_marseille","lat":43.28611,"lon":5.35109,"is_reserved":false,"is_disabled":false,"rental_uris":{"android":"levelo://app?vid=ad5e293e-83f9-428f-aa9e-10c5d143c014","ios":"levelo://app?vid=ad5e293e-83f9-428f-aa9e-10c5d143c014"},"vehicle_type_id":"4","last_reported":1761318678,"current_range_meters":16800,"station_id":"ce4bhch2rcd13ifvqeug","pricing_plan_id":"cebpf4jnsgd1na2vs0mg"},{"bike_id":"c41e7bd1-2e01-4226-a5e5-d589cdb62a0e","system_id":"levelo_inurba_marseille","lat":43.243868,"lon":5.370743,"is_reserved":false,"is_disabled":false,"rental_uris":{"android":"levelo://app?vid=c41e7bd1-2e01-4226-a5e5-d589cdb62a0e","ios":"levelo://app?vid=c41e7bd1-2e01-4226-a5e5-d589cdb62a0e"},"vehicle_type_id":"4","last_reported":1761318678,"current_range_meters":17200,"station_id":"ce4bhhh2rcd13ifvqfk0","pricing_plan_id":"cebpf4jnsgd1na2vs0mg"},{"bike_id":"94dfb117-253a-4420-9186-27e4a113e46c","system_id":"levelo_inurba_marseille","lat":43.30884,"lon":5.39646,"is_reserved":false,"is_disabled":false,"rental_uris":{"android":"levelo://app?vid=94dfb117-253a-4420-9186-27e4a113e46c","ios":"levelo://app?vid=94dfb117-253a-4420-9186-27e4a113e46c"},"vehicle_type_id":"4","last_reported":1761318678,"current_range_meters":17200,"station_id":"ce4bh012rcd13ifvqcv0","pricing_plan_id":"cebpf4jnsgd1na2vs0mg"},{"bike_id":"d49f7b6d-3274-4909-a75a-fadf9c9e593c","system_id":"levelo_inurba_marseille","lat":43.265869,"lon":5.381333,"is_reserved":false,"is_disabled":false,"rental_uris":{"android":"levelo://app?vid=d49f7b6d-3274-4909-a75a-fadf9c9e593c","ios":"levelo://app?vid=d49f7b6d-3274-4909-a75a-fadf9c9e593c"},"vehicle_type_id":"4","last_reported":1761318678,"current_range_meters":17200,"station_id":"ce4bhg92rcd13ifvqf90","pricing_plan_id":"cebpf4jnsgd1na2vs0mg"},{"bike_id":"2c7f4b30-9d1c-4725-ae74-8b8af82be5bb","system_id":"levelo_inurba_marseille","lat":43.21193,"lon":5.35086,"is_reserved":false,"is_disabled":false,"rental_uris":{"android":"levelo://app?vid=2c7f4b30-9d1c-4725-ae74-8b8af82be5bb","ios":"levelo://app?vid=2c7f4b30-9d1c-4725-ae74-8b8af82be5bb"},"vehicle_type_id":"4","last_reported":1761318678,"current_range_meters":17200,"station_id":"st_cvj6sg6p6f1abm77japg","pricing_plan_id":"cebpf4jnsgd1na2vs0mg"},{"bike_id":"bff1e549-b26a-4a3e-9eb3-e12ec2e6c1f4","system_id":"levelo_inurba_marseille","lat":43.292716,"lon":5.38438,"is_reserved":false,"is_disabled":false,"rental_uris":{"android":"levelo://app?vid=bff1e549-b26a-4a3e-9eb3-e12ec2e6c1f4","ios":"levelo://app?vid=bff1e549-b26a-4a3e-9eb3-e12ec2e6c1f4"},"vehicle_type_id":"4","last_reported":1761318678,"current_range_meters":17200,"station_id":"ce4bh692rcd13ifvqea0","pricing_plan_id":"cebpf4jnsgd1na2vs0mg"},{"bike_id":"277eb0f9-90fe-44d8-9968-5909e1f1345e","system_id":"levelo_inurba_marseille","lat":43.29533,"lon":5.37506,"is_reserved":false,"is_disabled":false,"rental_uris":{"android":"levelo://app?vid=277eb0f9-90fe-44d8-9968-5909e1f1345e","ios":"levelo://app?vid=277eb0f9-90fe-44d8-9968-5909e1f1345e"},"vehicle_type_id":"4","last_reported":1761318678,"current_range_meters":17200,"station_id":"ce4bgkp2rcd13ifvqbmg","pricing_plan_id":"cebpf4jnsgd1na2vs0mg"},{"bike_id":"421fec73-8708-4729-93b3-4ff4611f3eab","system_id":"levelo_inurba_marseille","lat":43.30888,"lon":5.39651,"is_reserved":false,"is_disabled":false,"rental_uris":{"android":"levelo://app?vid=421fec73-8708-4729-93b3-4ff4611f3eab","ios":"levelo://app?vid=421fec73-8708-4729-93b3-4ff4611f3eab"},"vehicle_type_id":"4","last_reported":1761318678,"current_range_meters":17600,"station_id":"ce4bh012rcd13ifvqcv0","pricing_plan_id":"cebpf4jnsgd1na2vs0mg"},{"bike_id":"ddf520e2-9a6c-4697-90ed-0af6771df0a8","system_id":"levelo_inurba_marseille","lat":43.24379,"lon":5.37058,"is_reserved":false,"is_disabled":false,"rental_uris":{"android":"levelo://app?vid=ddf520e2-9a6c-4697-90ed-0af6771df0a8","ios":"levelo://app?vid=ddf520e2-9a6c-4697-90ed-0af6771df0a8"},"vehicle_type_id":"4","last_reported":1761318678,"current_range_meters":17600,"station_id":"ce4bhhh2rcd13ifvqfk0","pricing_plan_id":"cebpf4jnsgd1na2vs0mg"},{"bike_id":"409f5d2e-5a03-4d92-8dc9-e25ed399b80d","system_id":"levelo_inurba_marseille","lat":43.2917,"lon":5.383052,"is_reserved":false,"is_disabled":false,"rental_uris":{"android":"levelo://app?vid=409f5d2e-5a03-4d92-8dc9-e25ed399b80d","ios":"levelo://app?vid=409f5d2e-5a03-4d92-8dc9-e25ed399b80d"},"vehicle_type_id":"4","last_reported":1761318678,"current_range_meters":17600,"station_id":"ce4bh4p2rcd13ifvqe1g","pricing_plan_id":"cebpf4jnsgd1na2vs0mg"},{"bike_id":"b6559af0-e31e-415b-92a3-0988f7fc43ef","system_id":"levelo_inurba_marseille","lat":43.284141,"lon":5.375172,"is_reserved":false,"is_disabled":true,"rental_uris":{"android":"levelo://app?vid=b6559af0-e31e-415b-92a3-0988f7fc43ef","ios":"levelo://app?vid=b6559af0-e31e-415b-92a3-0988f7fc43ef"},"vehicle_type_id":"4","last_reported":1761318678,"current_range_meters":17600,"station_id":"","pricing_plan_id":"cebpf4jnsgd1na2vs0mg"},{"bike_id":"c1284719-fdc1-4c75-80e3-b50a44b46af4","system_id":"levelo_inurba_marseille","lat":43.32366,"lon":5.38884,"is_reserved":false,"is_disabled":false,"rental_uris":{"android":"levelo://app?vid=c1284719-fdc1-4c75-80e3-b50a44b46af4","ios":"levelo://app?vid=c1284719-fdc1-4c75-80e3-b50a44b46af4"},"vehicle_type_id":"4","last_reported":1761318678,"current_range_meters":17600,"station_id":"ce4bhqp2rcd13ifvqhog","pricing_plan_id":"cebpf4jnsgd1na2vs0mg"},{"bike_id":"cba9fe6f-36b8-4b5b-9157-2724679aae2b","system_id":"levelo_inurba_marseille","lat":43.31059,"lon":5.38364,"is_reserved":false,"is_disabled":false,"rental_uris":{"android":"levelo://app?vid=cba9fe6f-36b8-4b5b-9157-2724679aae2b","ios":"levelo://app?vid=cba9fe6f-36b8-4b5b-9157-2724679aae2b"},"vehicle_type_id":"4","last_reported":1761318678,"current_range_meters":17600,"station_id":"ce4bgv92rcd13ifvqcr0","pricing_plan_id":"cebpf4jnsgd1na2vs0mg"},{"bike_id":"11b6d79b-7214-45c5-8167-0e2383b15cda","system_id":"levelo_inurba_marseille","lat":43.24952,"lon":5.40488,"is_reserved":false,"is_disabled":false,"rental_uris":{"android":"levelo://app?vid=11b6d79b-7214-45c5-8167-0e2383b15cda","ios":"levelo://app?vid=11b6d79b-7214-45c5-8167-0e2383b15cda"},"vehicle_type_id":"4","last_reported":1761318678,"current_range_meters":17600,"station_id":"st_d2ngiaodas8pm72gd1h0","pricing_plan_id":"cebpf4jnsgd1na2vs0mg"},{"bike_id":"fc89f734-81cc-4172-87b4-aeeb6b9ffa3a","system_id":"levelo_inurba_marseille","lat":43.29608,"lon":5.38128,"is_reserved":false,"is_disabled":false,"rental_uris":{"android":"levelo://app?vid=fc89f734-81cc-4172-87b4-aeeb6b9ffa3a","ios":"levelo://app?vid=fc89f734-81cc-4172-87b4-aeeb6b9ffa3a"},"vehicle_type_id":"4","last_reported":1761318678,"current_range_meters":17600,"station_id":"ce4bgl12rcd13ifvqbo0","pricing_plan_id":"cebpf4jnsgd1na2vs0mg"},{"bike_id":"5dba0796-7248-48fa-9fd4-f424fa13afde","system_id":"levelo_inurba_marseille","lat":43.302214,"lon":5.394656,"is_reserved":false,"is_disabled":false,"rental_uris":{"android":"levelo://app?vid=5dba0796-7248-48fa-9fd4-f424fa13afde","ios":"levelo://app?vid=5dba0796-7248-48fa-9fd4-f424fa13afde"},"vehicle_type_id":"4","last_reported":1761318678,"current_range_meters":17600,"station_id":"ce4bh0p2rcd13ifvqd70","pricing_plan_id":"cebpf4jnsgd1na2vs0mg"},{"bike_id":"130647a5-9799-4377-8bc6-29bad3f1c6a7","system_id":"levelo_inurba_marseille","lat":43.27374,"lon":5.36256,"is_reserved":false,"is_disabled":false,"rental_uris":{"android":"levelo://app?vid=130647a5-9799-4377-8bc6-29bad3f1c6a7","ios":"levelo://app?vid=130647a5-9799-4377-8bc6-29bad3f1c6a7"},"vehicle_type_id":"4","last_reported":1761318678,"current_range_meters":18000,"station_id":"ce4bhbh2rcd13ifvqeo0","pricing_plan_id":"cebpf4jnsgd1na2vs0mg"},{"bike_id":"5c1a4107-7529-46e5-9b6f-976383539d69","system_id":"levelo_inurba_marseille","lat":43.28104,"lon":5.37837,"is_reserved":false,"is_disabled":false,"rental_uris":{"android":"levelo://app?vid=5c1a4107-7529-46e5-9b6f-976383539d69","ios":"levelo://app?vid=5c1a4107-7529-46e5-9b6f-976383539d69"},"vehicle_type_id":"4","last_reported":1761318678,"current_range_meters":18000,"station_id":"ce4bha12rcd13ifvqee0","pricing_plan_id":"cebpf4jnsgd1na2vs0mg"},{"bike_id":"a6b06441-8557-441d-9939-ec0c17d0da69","system_id":"levelo_inurba_marseille","lat":43.29255,"lon":5.40908,"is_reserved":false,"is_disabled":false,"rental_uris":{"android":"levelo://app?vid=a6b06441-8557-441d-9939-ec0c17d0da69","ios":"levelo://app?vid=a6b06441-8557-441d-9939-ec0c17d0da69"},"vehicle_type_id":"4","last_reported":1761318678,"current_range_meters":18000,"station_id":"ce4bh192rcd13ifvqdc0","pricing_plan_id":"cebpf4jnsgd1na2vs0mg"},{"bike_id":"386a9c87-6707-4c56-9410-3952ef242f20","system_id":"levelo_inurba_marseille","lat":43.2405,"lon":5.37791,"is_reserved":false,"is_disabled":false,"rental_uris":{"android":"levelo://app?vid=386a9c87-6707-4c56-9410-3952ef242f20","ios":"levelo://app?vid=386a9c87-6707-4c56-9410-3952ef242f20"},"vehicle_type_id":"4","last_reported":1761318678,"current_range_meters":18000,"station_id":"ce4bhnp2rcd13ifvqgvg","pricing_plan_id":"cebpf4jnsgd1na2vs0mg"},{"bike_id":"8a100846-f7e0-4e8b-82cc-d5494c1a06c2","system_id":"levelo_inurba_marseille","lat":43.30883,"lon":5.39644,"is_reserved":false,"is_disabled":false,"rental_uris":{"android":"levelo://app?vid=8a100846-f7e0-4e8b-82cc-d5494c1a06c2","ios":"levelo://app?vid=8a100846-f7e0-4e8b-82cc-d5494c1a06c2"},"vehicle_type_id":"4","last_reported":1761318678,"current_range_meters":18000,"station_id":"ce4bh012rcd13ifvqcv0","pricing_plan_id":"cebpf4jnsgd1na2vs0mg"},{"bike_id":"1d91d2c9-29d3-4c7d-a6a8-29c5c39d1cce","system_id":"levelo_inurba_marseille","lat":43.22937,"lon":5.35399,"is_reserved":false,"is_disabled":false,"rental_uris":{"android":"levelo://app?vid=1d91d2c9-29d3-4c7d-a6a8-29c5c39d1cce","ios":"levelo://app?vid=1d91d2c9-29d3-4c7d-a6a8-29c5c39d1cce"},"vehicle_type_id":"4","last_reported":1761318678,"current_range_meters":18000,"station_id":"","pricing_plan_id":"cebpf4jnsgd1na2vs0mg"},{"bike_id":"85831b0c-ac03-4a31-ad4b-6acd383c62ca","system_id":"levelo_inurba_marseille","lat":43.27704,"lon":5.388211,"is_reserved":false,"is_disabled":false,"rental_uris":{"android":"levelo://app?vid=85831b0c-ac03-4a31-ad4b-6acd383c62ca","ios":"levelo://app?vid=85831b0c-ac03-4a31-ad4b-6acd383c62ca"},"vehicle_type_id":"4","last_reported":1761318678,"current_range_meters":18000,"station_id":"","pricing_plan_id":"cebpf4jnsgd1na2vs0mg"},{"bike_id":"73019415-679c-46df-bd2d-1b42534d9724","system_id":"levelo_inurba_marseille","lat":43.266789,"lon":5.382656,"is_reserved":false,"is_disabled":false,"rental_uris":{"android":"levelo://app?vid=73019415-679c-46df-bd2d-1b42534d9724","ios":"levelo://app?vid=73019415-679c-46df-bd2d-1b42534d9724"},"vehicle_type_id":"4","last_reported":1761318678,"current_range_meters":18000,"station_id":"","pricing_plan_id":"cebpf4jnsgd1na2vs0mg"},{"bike_id":"cbcc8ff5-664f-45c1-9dea-3e7541c79bb1","system_id":"levelo_inurba_marseille","lat":43.29525,"lon":5.375,"is_reserved":false,"is_disabled":false,"rental_uris":{"android":"levelo://app?vid=cbcc8ff5-664f-45c1-9dea-3e7541c79bb1","ios":"levelo://app?vid=cbcc8ff5-664f-45c1-9dea-3e7541c79bb1"},"vehicle_type_id":"4","last_reported":1761318678,"current_range_meters":18000,"station_id":"ce4bgkp2rcd13ifvqbmg","pricing_plan_id":"cebpf4jnsgd1na2vs0mg"},{"bike_id":"523cd40c-6b7f-4743-8a61-3b9f446f47a7","system_id":"levelo_inurba_marseille","lat":43.29786,"lon":5.39341,"is_reserved":false,"is_disabled":false,"rental_uris":{"android":"levelo://app?vid=523cd40c-6b7f-4743-8a61-3b9f446f47a7","ios":"levelo://app?vid=523cd40c-6b7f-4743-8a61-3b9f446f47a7"},"vehicle_type_id":"4","last_reported":1761318678,"current_range_meters":18000,"station_id":"chh1huq6cuj3fo74tm60","pricing_plan_id":"cebpf4jnsgd1na2vs0mg"},{"bike_id":"bfaea6f8-ccc6-44a7-83a6-9d7d9a7e60cc","system_id":"levelo_inurba_marseille","lat":43.26371,"lon":5.39766,"is_reserved":false,"is_disabled":false,"rental_uris":{"android":"levelo://app?vid=bfaea6f8-ccc6-44a7-83a6-9d7d9a7e60cc","ios":"levelo://app?vid=bfaea6f8-ccc6-44a7-83a6-9d7d9a7e60cc"},"vehicle_type_id":"4","last_reported":1761318678,"current_range_meters":18800,"station_id":"","pricing_plan_id":"cebpf4jnsgd1na2vs0mg"},{"bike_id":"a329f7c5-e953-43ea-a061-44f0985b08a0","system_id":"levelo_inurba_marseille","lat":43.30885,"lon":5.39657,"is_reserved":false,"is_disabled":false,"rental_uris":{"android":"levelo://app?vid=a329f7c5-e953-43ea-a061-44f0985b08a0","ios":"levelo://app?vid=a329f7c5-e953-43ea-a061-44f0985b08a0"},"vehicle_type_id":"4","last_reported":1761318678,"current_range_meters":18800,"station_id":"ce4bh012rcd13ifvqcv0","pricing_plan_id":"cebpf4jnsgd1na2vs0mg"},{"bike_id":"0bee0626-b9a8-413e-bed7-d82dc19927df","system_id":"levelo_inurba_marseille","lat":43.314887,"lon":5.373192,"is_reserved":false,"is_disabled":false,"rental_uris":{"android":"levelo://app?vid=0bee0626-b9a8-413e-bed7-d82dc19927df","ios":"levelo://app?vid=0bee0626-b9a8-413e-bed7-d82dc19927df"},"vehicle_type_id":"4","last_reported":1761318678,"current_range_meters":18800,"station_id":"","pricing_plan_id":"cebpf4jnsgd1na2vs0mg"},{"bike_id":"bc805b80-3097-410f-b503-9e60f016e0de","system_id":"levelo_inurba_marseille","lat":43.27207,"lon":5.3919,"is_reserved":false,"is_disabled":true,"rental_uris":{"android":"levelo://app?vid=bc805b80-3097-410f-b503-9e60f016e0de","ios":"levelo://app?vid=bc805b80-3097-410f-b503-9e60f016e0de"},"vehicle_type_id":"4","last_reported":1761318678,"current_range_meters":18800,"station_id":"ce4bhhp2rcd13ifvqfm0","pricing_plan_id":"cebpf4jnsgd1na2vs0mg"},{"bike_id":"d4f34596-cd96-4004-af96-068144e0795b","system_id":"levelo_inurba_marseille","lat":43.30677,"lon":5.42283,"is_reserved":false,"is_disabled":false,"rental_uris":{"android":"levelo://app?vid=d4f34596-cd96-4004-af96-068144e0795b","ios":"levelo://app?vid=d4f34596-cd96-4004-af96-068144e0795b"},"vehicle_type_id":"4","last_reported":1761318678,"current_range_meters":18800,"station_id":"","pricing_plan_id":"cebpf4jnsgd1na2vs0mg"},{"bike_id":"8e92164c-deff-4fbd-9f4e-43ff81933572","system_id":"levelo_inurba_marseille","lat":43.29822,"lon":5.42034,"is_reserved":false,"is_disabled":false,"rental_uris":{"android":"levelo://app?vid=8e92164c-deff-4fbd-9f4e-43ff81933572","ios":"levelo://app?vid=8e92164c-deff-4fbd-9f4e-43ff81933572"},"vehicle_type_id":"4","last_reported":1761318678,"current_range_meters":18800,"station_id":"","pricing_plan_id":"cebpf4jnsgd1na2vs0mg"},{"bike_id":"b004209a-3dd3-4704-9a17-b5b49dfea187","system_id":"levelo_inurba_marseille","lat":43.292603,"lon":5.384163,"is_reserved":false,"is_disabled":false,"rental_uris":{"android":"levelo://app?vid=b004209a-3dd3-4704-9a17-b5b49dfea187","ios":"levelo://app?vid=b004209a-3dd3-4704-9a17-b5b49dfea187"},"vehicle_type_id":"4","last_reported":1761318678,"current_range_meters":18800,"station_id":"ce4bh692rcd13ifvqea0","pricing_plan_id":"cebpf4jnsgd1na2vs0mg"},{"bike_id":"665e4320-629c-44e8-b503-f7d0b108e052","system_id":"levelo_inurba_marseille","lat":43.2857,"lon":5.39499,"is_reserved":false,"is_disabled":false,"rental_uris":{"android":"levelo://app?vid=665e4320-629c-44e8-b503-f7d0b108e052","ios":"levelo://app?vid=665e4320-629c-44e8-b503-f7d0b108e052"},"vehicle_type_id":"4","last_reported":1761318678,"current_range_meters":18800,"station_id":"ce4bh292rcd13ifvqdg0","pricing_plan_id":"cebpf4jnsgd1na2vs0mg"},{"bike_id":"4b9ea996-45d6-4c99-b9ff-af19c6118599","system_id":"levelo_inurba_marseille","lat":43.30523,"lon":5.36555,"is_reserved":false,"is_disabled":true,"rental_uris":{"android":"levelo://app?vid=4b9ea996-45d6-4c99-b9ff-af19c6118599","ios":"levelo://app?vid=4b9ea996-45d6-4c99-b9ff-af19c6118599"},"vehicle_type_id":"4","last_reported":1761318678,"current_range_meters":19200,"station_id":"ce4bgs12rcd13ifvqcag","pricing_plan_id":"cebpf4jnsgd1na2vs0mg"},{"bike_id":"2a32e027-5852-4e56-987a-5e8762b087de","system_id":"levelo_inurba_marseille","lat":43.29869,"lon":5.39729,"is_reserved":false,"is_disabled":false,"rental_uris":{"android":"levelo://app?vid=2a32e027-5852-4e56-987a-5e8762b087de","ios":"levelo://app?vid=2a32e027-5852-4e56-987a-5e8762b087de"},"vehicle_type_id":"4","last_reported":1761318678,"current_range_meters":19200,"station_id":"ce4bh0h2rcd13ifvqd50","pricing_plan_id":"cebpf4jnsgd1na2vs0mg"},{"bike_id":"610eea20-3a76-4794-a854-37e7b9414868","system_id":"levelo_inurba_marseille","lat":43.317125,"lon":5.4371,"is_reserved":false,"is_disabled":false,"rental_uris":{"android":"levelo://app?vid=610eea20-3a76-4794-a854-37e7b9414868","ios":"levelo://app?vid=610eea20-3a76-4794-a854-37e7b9414868"},"vehicle_type_id":"4","last_reported":1761318678,"current_range_meters":19200,"station_id":"ce4bhp92rcd13ifvqhcg","pricing_plan_id":"cebpf4jnsgd1na2vs0mg"},{"bike_id":"9489737c-7c2c-4f83-bc76-e520af4d2990","system_id":"levelo_inurba_marseille","lat":43.3236,"lon":5.38889,"is_reserved":false,"is_disabled":false,"rental_uris":{"android":"levelo://app?vid=9489737c-7c2c-4f83-bc76-e520af4d2990","ios":"levelo://app?vid=9489737c-7c2c-4f83-bc76-e520af4d2990"},"vehicle_type_id":"4","last_reported":1761318678,"current_range_meters":19200,"station_id":"ce4bhqp2rcd13ifvqhog","pricing_plan_id":"cebpf4jnsgd1na2vs0mg"},{"bike_id":"8c35a7e4-8378-4fdf-b42f-02e88b6199ca","system_id":"levelo_inurba_marseille","lat":43.32097,"lon":5.36789,"is_reserved":false,"is_disabled":false,"rental_uris":{"android":"levelo://app?vid=8c35a7e4-8378-4fdf-b42f-02e88b6199ca","ios":"levelo://app?vid=8c35a7e4-8378-4fdf-b42f-02e88b6199ca"},"vehicle_type_id":"4","last_reported":1761318678,"current_range_meters":19200,"station_id":"ce4bhrh2rcd13ifvqhug","pricing_plan_id":"cebpf4jnsgd1na2vs0mg"},{"bike_id":"08e243e7-d488-448e-8f9c-a8ef805b3d57","system_id":"levelo_inurba_marseille","lat":43.26941,"lon":5.40258,"is_reserved":false,"is_disabled":false,"rental_uris":{"android":"levelo://app?vid=08e243e7-d488-448e-8f9c-a8ef805b3d57","ios":"levelo://app?vid=08e243e7-d488-448e-8f9c-a8ef805b3d57"},"vehicle_type_id":"4","last_reported":1761318678,"current_range_meters":19600,"station_id":"cjm6bp8fraef2m0cb0m0","pricing_plan_id":"cebpf4jnsgd1na2vs0mg"},{"bike_id":"52918ba2-0655-4e65-8faa-4b118fb02ac2","system_id":"levelo_inurba_marseille","lat":43.30546,"lon":5.3656,"is_reserved":false,"is_disabled":false,"rental_uris":{"android":"levelo://app?vid=52918ba2-0655-4e65-8faa-4b118fb02ac2","ios":"levelo://app?vid=52918ba2-0655-4e65-8faa-4b118fb02ac2"},"vehicle_type_id":"4","last_reported":1761318678,"current_range_meters":19600,"station_id":"ce4bgs12rcd13ifvqcag","pricing_plan_id":"cebpf4jnsgd1na2vs0mg"},{"bike_id":"a48b489a-127e-4aab-97a2-25cf37e655c9","system_id":"levelo_inurba_marseille","lat":43.30964,"lon":5.40286,"is_reserved":false,"is_disabled":false,"rental_uris":{"android":"levelo://app?vid=a48b489a-127e-4aab-97a2-25cf37e655c9","ios":"levelo://app?vid=a48b489a-127e-4aab-97a2-25cf37e655c9"},"vehicle_type_id":"4","last_reported":1761318678,"current_range_meters":19600,"station_id":"","pricing_plan_id":"cebpf4jnsgd1na2vs0mg"},{"bike_id":"b7d15dd4-08cb-4df3-abb0-d667bbd3152a","system_id":"levelo_inurba_marseille","lat":43.24053,"lon":5.3779,"is_reserved":false,"is_disabled":false,"rental_uris":{"android":"levelo://app?vid=b7d15dd4-08cb-4df3-abb0-d667bbd3152a","ios":"levelo://app?vid=b7d15dd4-08cb-4df3-abb0-d667bbd3152a"},"vehicle_type_id":"4","last_reported":1761318678,"current_range_meters":19600,"station_id":"ce4bhnp2rcd13ifvqgvg","pricing_plan_id":"cebpf4jnsgd1na2vs0mg"},{"bike_id":"fbc51a66-9f5b-4793-bf47-376ff7c8c289","system_id":"levelo_inurba_marseille","lat":43.21182,"lon":5.35069,"is_reserved":false,"is_disabled":false,"rental_uris":{"android":"levelo://app?vid=fbc51a66-9f5b-4793-bf47-376ff7c8c289","ios":"levelo://app?vid=fbc51a66-9f5b-4793-bf47-376ff7c8c289"},"vehicle_type_id":"4","last_reported":1761318678,"current_range_meters":19600,"station_id":"st_cvj6sg6p6f1abm77japg","pricing_plan_id":"cebpf4jnsgd1na2vs0mg"},{"bike_id":"11f85f26-b7d2-4f6c-b0b2-a88161abba04","system_id":"levelo_inurba_marseille","lat":43.29576,"lon":5.37623,"is_reserved":false,"is_disabled":false,"rental_uris":{"android":"levelo://app?vid=11f85f26-b7d2-4f6c-b0b2-a88161abba04","ios":"levelo://app?vid=11f85f26-b7d2-4f6c-b0b2-a88161abba04"},"vehicle_type_id":"4","last_reported":1761318678,"current_range_meters":19600,"station_id":"","pricing_plan_id":"cebpf4jnsgd1na2vs0mg"},{"bike_id":"aff68d94-56f5-46ff-93ac-682dc2d94279","system_id":"levelo_inurba_marseille","lat":43.29009,"lon":5.35612,"is_reserved":false,"is_disabled":false,"rental_uris":{"android":"levelo://app?vid=aff68d94-56f5-46ff-93ac-682dc2d94279","ios":"levelo://app?vid=aff68d94-56f5-46ff-93ac-682dc2d94279"},"vehicle_type_id":"4","last_reported":1761318678,"current_range_meters":20000,"station_id":"ce4bhb92rcd13ifvqen0","pricing_plan_id":"cebpf4jnsgd1na2vs0mg"},{"bike_id":"dab36927-4328-48fa-bffb-145a737de07e","system_id":"levelo_inurba_marseille","lat":43.30794,"lon":5.43559,"is_reserved":false,"is_disabled":true,"rental_uris":{"android":"levelo://app?vid=dab36927-4328-48fa-bffb-145a737de07e","ios":"levelo://app?vid=dab36927-4328-48fa-bffb-145a737de07e"},"vehicle_type_id":"4","last_reported":1761318678,"current_range_meters":20000,"station_id":"ce4bhph2rcd13ifvqheg","pricing_plan_id":"cebpf4jnsgd1na2vs0mg"},{"bike_id":"de1370b3-b3eb-4bb2-b2b4-c6e191bc35e9","system_id":"levelo_inurba_marseille","lat":43.29897,"lon":5.37478,"is_reserved":false,"is_disabled":false,"rental_uris":{"android":"levelo://app?vid=de1370b3-b3eb-4bb2-b2b4-c6e191bc35e9","ios":"levelo://app?vid=de1370b3-b3eb-4bb2-b2b4-c6e191bc35e9"},"vehicle_type_id":"4","last_reported":1761318678,"current_range_meters":20000,"station_id":"ce4bgjh2rcd13ifvqbg0","pricing_plan_id":"cebpf4jnsgd1na2vs0mg"},{"bike_id":"36ef565d-595c-4fe5-832e-9069968fcd08","system_id":"levelo_inurba_marseille","lat":43.32558,"lon":5.41445,"is_reserved":false,"is_disabled":true,"rental_uris":{"android":"levelo://app?vid=36ef565d-595c-4fe5-832e-9069968fcd08","ios":"levelo://app?vid=36ef565d-595c-4fe5-832e-9069968fcd08"},"vehicle_type_id":"4","last_reported":1761318678,"current_range_meters":20000,"station_id":"ce4bhq12rcd13ifvqhhg","pricing_plan_id":"cebpf4jnsgd1na2vs0mg"},{"bike_id":"98c7697a-6ee2-495b-a31b-36add881e6d1","system_id":"levelo_inurba_marseille","lat":43.24801,"lon":5.37454,"is_reserved":false,"is_disabled":false,"rental_uris":{"android":"levelo://app?vid=98c7697a-6ee2-495b-a31b-36add881e6d1","ios":"levelo://app?vid=98c7697a-6ee2-495b-a31b-36add881e6d1"},"vehicle_type_id":"4","last_reported":1761318678,"current_range_meters":20000,"station_id":"ce4bhgh2rcd13ifvqfb0","pricing_plan_id":"cebpf4jnsgd1na2vs0mg"},{"bike_id":"4d88dfc3-9d68-4748-950a-5d958c97ca87","system_id":"levelo_inurba_marseille","lat":43.286114,"lon":5.370636,"is_reserved":false,"is_disabled":false,"rental_uris":{"android":"levelo://app?vid=4d88dfc3-9d68-4748-950a-5d958c97ca87","ios":"levelo://app?vid=4d88dfc3-9d68-4748-950a-5d958c97ca87"},"vehicle_type_id":"4","last_reported":1761318678,"current_range_meters":20400,"station_id":"ce4bht12rcd13ifvqi60","pricing_plan_id":"cebpf4jnsgd1na2vs0mg"},{"bike_id":"bc446e6f-2c46-4ffd-b964-4ec396b9684c","system_id":"levelo_inurba_marseille","lat":43.28941,"lon":5.36378,"is_reserved":false,"is_disabled":false,"rental_uris":{"android":"levelo://app?vid=bc446e6f-2c46-4ffd-b964-4ec396b9684c","ios":"levelo://app?vid=bc446e6f-2c46-4ffd-b964-4ec396b9684c"},"vehicle_type_id":"4","last_reported":1761318678,"current_range_meters":20400,"station_id":"ce4bhc92rcd13ifvqetg","pricing_plan_id":"cebpf4jnsgd1na2vs0mg"},{"bike_id":"743dd75a-0d56-45bb-bc42-65b777d9760b","system_id":"levelo_inurba_marseille","lat":43.22532,"lon":5.34827,"is_reserved":false,"is_disabled":false,"rental_uris":{"android":"levelo://app?vid=743dd75a-0d56-45bb-bc42-65b777d9760b","ios":"levelo://app?vid=743dd75a-0d56-45bb-bc42-65b777d9760b"},"vehicle_type_id":"4","last_reported":1761318678,"current_range_meters":20400,"station_id":"","pricing_plan_id":"cebpf4jnsgd1na2vs0mg"},{"bike_id":"bff684fe-8304-415f-b957-057b2990478a","system_id":"levelo_inurba_marseille","lat":43.24677,"lon":5.38185,"is_reserved":false,"is_disabled":false,"rental_uris":{"android":"levelo://app?vid=bff684fe-8304-415f-b957-057b2990478a","ios":"levelo://app?vid=bff684fe-8304-415f-b957-057b2990478a"},"vehicle_type_id":"4","last_reported":1761318678,"current_range_meters":20400,"station_id":"ce4bhih2rcd13ifvqfr0","pricing_plan_id":"cebpf4jnsgd1na2vs0mg"},{"bike_id":"14a0c670-41df-4949-9e27-c5232bae4e17","system_id":"levelo_inurba_marseille","lat":43.29256,"lon":5.38446,"is_reserved":false,"is_disabled":false,"rental_uris":{"android":"levelo://app?vid=14a0c670-41df-4949-9e27-c5232bae4e17","ios":"levelo://app?vid=14a0c670-41df-4949-9e27-c5232bae4e17"},"vehicle_type_id":"4","last_reported":1761318678,"current_range_meters":20400,"station_id":"ce4bh692rcd13ifvqea0","pricing_plan_id":"cebpf4jnsgd1na2vs0mg"},{"bike_id":"49edea08-de8c-4cb5-8fbc-b4c1c838dfc9","system_id":"levelo_inurba_marseille","lat":43.30551,"lon":5.36723,"is_reserved":false,"is_disabled":false,"rental_uris":{"android":"levelo://app?vid=49edea08-de8c-4cb5-8fbc-b4c1c838dfc9","ios":"levelo://app?vid=49edea08-de8c-4cb5-8fbc-b4c1c838dfc9"},"vehicle_type_id":"4","last_reported":1761318678,"current_range_meters":20400,"station_id":"ce4bgrp2rcd13ifvqc9g","pricing_plan_id":"cebpf4jnsgd1na2vs0mg"},{"bike_id":"7dd3d56a-e43e-4ab0-97b2-4e04f6f703ea","system_id":"levelo_inurba_marseille","lat":43.24167,"lon":5.36396,"is_reserved":false,"is_disabled":false,"rental_uris":{"android":"levelo://app?vid=7dd3d56a-e43e-4ab0-97b2-4e04f6f703ea","ios":"levelo://app?vid=7dd3d56a-e43e-4ab0-97b2-4e04f6f703ea"},"vehicle_type_id":"4","last_reported":1761318678,"current_range_meters":20400,"station_id":"cpo36qri1sfpv3e86is0","pricing_plan_id":"cebpf4jnsgd1na2vs0mg"},{"bike_id":"dbd8c1f8-d416-43b9-8224-e883e5eb55ac","system_id":"levelo_inurba_marseille","lat":43.31331,"lon":5.39695,"is_reserved":false,"is_disabled":false,"rental_uris":{"android":"levelo://app?vid=dbd8c1f8-d416-43b9-8224-e883e5eb55ac","ios":"levelo://app?vid=dbd8c1f8-d416-43b9-8224-e883e5eb55ac"},"vehicle_type_id":"4","last_reported":1761318678,"current_range_meters":20400,"station_id":"ce4bgvp2rcd13ifvqcu0","pricing_plan_id":"cebpf4jnsgd1na2vs0mg"},{"bike_id":"f993e9e3-8bbb-410f-8e7b-99f7d16ff2d8","system_id":"levelo_inurba_marseille","lat":43.29704,"lon":5.36589,"is_reserved":false,"is_disabled":false,"rental_uris":{"android":"levelo://app?vid=f993e9e3-8bbb-410f-8e7b-99f7d16ff2d8","ios":"levelo://app?vid=f993e9e3-8bbb-410f-8e7b-99f7d16ff2d8"},"vehicle_type_id":"4","last_reported":1761318678,"current_range_meters":20400,"station_id":"ce4bgn12rcd13ifvqbt0","pricing_plan_id":"cebpf4jnsgd1na2vs0mg"},{"bike_id":"95f1256d-cd6b-4234-a7d4-8bae435ea566","system_id":"levelo_inurba_marseille","lat":43.23964,"lon":5.36634,"is_reserved":false,"is_disabled":false,"rental_uris":{"android":"levelo://app?vid=95f1256d-cd6b-4234-a7d4-8bae435ea566","ios":"levelo://app?vid=95f1256d-cd6b-4234-a7d4-8bae435ea566"},"vehicle_type_id":"4","last_reported":1761318678,"current_range_meters":20800,"station_id":"ce4bhi12rcd13ifvqfp0","pricing_plan_id":"cebpf4jnsgd1na2vs0mg"},{"bike_id":"f8f58036-bb1a-4b83-bb34-e1405ec62b21","system_id":"levelo_inurba_marseille","lat":43.29228,"lon":5.360598,"is_reserved":false,"is_disabled":false,"rental_uris":{"android":"levelo://app?vid=f8f58036-bb1a-4b83-bb34-e1405ec62b21","ios":"levelo://app?vid=f8f58036-bb1a-4b83-bb34-e1405ec62b21"},"vehicle_type_id":"4","last_reported":1761318678,"current_range_meters":20800,"station_id":"","pricing_plan_id":"cebpf4jnsgd1na2vs0mg"},{"bike_id":"62f0a2f8-d352-4580-a096-e8ce56ffccdb","system_id":"levelo_inurba_marseille","lat":43.32111,"lon":5.36746,"is_reserved":false,"is_disabled":false,"rental_uris":{"android":"levelo://app?vid=62f0a2f8-d352-4580-a096-e8ce56ffccdb","ios":"levelo://app?vid=62f0a2f8-d352-4580-a096-e8ce56ffccdb"},"vehicle_type_id":"4","last_reported":1761318678,"current_range_meters":20800,"station_id":"ce4bhrh2rcd13ifvqhug","pricing_plan_id":"cebpf4jnsgd1na2vs0mg"},{"bike_id":"51f6b392-8d0d-41b5-9bf6-76a949608beb","system_id":"levelo_inurba_marseille","lat":43.25333,"lon":5.42166,"is_reserved":false,"is_disabled":false,"rental_uris":{"android":"levelo://app?vid=51f6b392-8d0d-41b5-9bf6-76a949608beb","ios":"levelo://app?vid=51f6b392-8d0d-41b5-9bf6-76a949608beb"},"vehicle_type_id":"4","last_reported":1761318678,"current_range_meters":20800,"station_id":"st_d2m65c5bi1j21697t3ng","pricing_plan_id":"cebpf4jnsgd1na2vs0mg"},{"bike_id":"32385056-f7fe-4c7c-84f8-ea0a6baffd4a","system_id":"levelo_inurba_marseille","lat":43.27941,"lon":5.41048,"is_reserved":false,"is_disabled":false,"rental_uris":{"android":"levelo://app?vid=32385056-f7fe-4c7c-84f8-ea0a6baffd4a","ios":"levelo://app?vid=32385056-f7fe-4c7c-84f8-ea0a6baffd4a"},"vehicle_type_id":"4","last_reported":1761318678,"current_range_meters":20800,"station_id":"ce4bhnp2rcd13ifvqh0g","pricing_plan_id":"cebpf4jnsgd1na2vs0mg"},{"bike_id":"bb135383-ef43-4907-b1fa-637dcd7f60f2","system_id":"levelo_inurba_marseille","lat":43.30178,"lon":5.36608,"is_reserved":false,"is_disabled":false,"rental_uris":{"android":"levelo://app?vid=bb135383-ef43-4907-b1fa-637dcd7f60f2","ios":"levelo://app?vid=bb135383-ef43-4907-b1fa-637dcd7f60f2"},"vehicle_type_id":"4","last_reported":1761318678,"current_range_meters":20800,"station_id":"ce4bgrh2rcd13ifvqc8g","pricing_plan_id":"cebpf4jnsgd1na2vs0mg"},{"bike_id":"875af547-cfd6-4670-9df8-3028f8a67393","system_id":"levelo_inurba_marseille","lat":43.29894,"lon":5.43655,"is_reserved":false,"is_disabled":false,"rental_uris":{"android":"levelo://app?vid=875af547-cfd6-4670-9df8-3028f8a67393","ios":"levelo://app?vid=875af547-cfd6-4670-9df8-3028f8a67393"},"vehicle_type_id":"4","last_reported":1761318678,"current_range_meters":20800,"station_id":"ce4bhpp2rcd13ifvqhfg","pricing_plan_id":"cebpf4jnsgd1na2vs0mg"},{"bike_id":"de4c9d67-aa03-439a-a821-c7b9a613d790","system_id":"levelo_inurba_marseille","lat":43.211857,"lon":5.350755,"is_reserved":false,"is_disabled":false,"rental_uris":{"android":"levelo://app?vid=de4c9d67-aa03-439a-a821-c7b9a613d790","ios":"levelo://app?vid=de4c9d67-aa03-439a-a821-c7b9a613d790"},"vehicle_type_id":"4","last_reported":1761318678,"current_range_meters":20800,"station_id":"st_cvj6sg6p6f1abm77japg","pricing_plan_id":"cebpf4jnsgd1na2vs0mg"},{"bike_id":"65deed68-c832-4dc8-a007-6b9aa2499c60","system_id":"levelo_inurba_marseille","lat":43.22931,"lon":5.35377,"is_reserved":false,"is_disabled":false,"rental_uris":{"android":"levelo://app?vid=65deed68-c832-4dc8-a007-6b9aa2499c60","ios":"levelo://app?vid=65deed68-c832-4dc8-a007-6b9aa2499c60"},"vehicle_type_id":"4","last_reported":1761318678,"current_range_meters":20800,"station_id":"cpo3532slgdg3j2ikp40","pricing_plan_id":"cebpf4jnsgd1na2vs0mg"},{"bike_id":"92b32013-d7c6-4b65-b0cf-50e8b88e0b0b","system_id":"levelo_inurba_marseille","lat":43.25084,"lon":5.39525,"is_reserved":false,"is_disabled":false,"rental_uris":{"android":"levelo://app?vid=92b32013-d7c6-4b65-b0cf-50e8b88e0b0b","ios":"levelo://app?vid=92b32013-d7c6-4b65-b0cf-50e8b88e0b0b"},"vehicle_type_id":"4","last_reported":1761318678,"current_range_meters":20800,"station_id":"ce4bhm12rcd13ifvqgkg","pricing_plan_id":"cebpf4jnsgd1na2vs0mg"},{"bike_id":"3c8d32a8-8e09-4a52-94a0-b9859ab03fb9","system_id":"levelo_inurba_marseille","lat":43.27999,"lon":5.40008,"is_reserved":false,"is_disabled":false,"rental_uris":{"android":"levelo://app?vid=3c8d32a8-8e09-4a52-94a0-b9859ab03fb9","ios":"levelo://app?vid=3c8d32a8-8e09-4a52-94a0-b9859ab03fb9"},"vehicle_type_id":"4","last_reported":1761318678,"current_range_meters":21600,"station_id":"ce4bho92rcd13ifvqh4g","pricing_plan_id":"cebpf4jnsgd1na2vs0mg"},{"bike_id":"29b38a45-3e07-40c1-b8b1-5f85b487711f","system_id":"levelo_inurba_marseille","lat":43.31263,"lon":5.40438,"is_reserved":false,"is_disabled":false,"rental_uris":{"android":"levelo://app?vid=29b38a45-3e07-40c1-b8b1-5f85b487711f","ios":"levelo://app?vid=29b38a45-3e07-40c1-b8b1-5f85b487711f"},"vehicle_type_id":"4","last_reported":1761318678,"current_range_meters":21600,"station_id":"","pricing_plan_id":"cebpf4jnsgd1na2vs0mg"},{"bike_id":"f67db99f-4201-40c3-95e4-f20ee1ad61bc","system_id":"levelo_inurba_marseille","lat":43.30802,"lon":5.38163,"is_reserved":false,"is_disabled":false,"rental_uris":{"android":"levelo://app?vid=f67db99f-4201-40c3-95e4-f20ee1ad61bc","ios":"levelo://app?vid=f67db99f-4201-40c3-95e4-f20ee1ad61bc"},"vehicle_type_id":"4","last_reported":1761318678,"current_range_meters":21600,"station_id":"ce4bgt12rcd13ifvqce0","pricing_plan_id":"cebpf4jnsgd1na2vs0mg"},{"bike_id":"0144bdf2-84a6-45ad-976a-ea6fd3101d41","system_id":"levelo_inurba_marseille","lat":43.32093,"lon":5.36787,"is_reserved":false,"is_disabled":false,"rental_uris":{"android":"levelo://app?vid=0144bdf2-84a6-45ad-976a-ea6fd3101d41","ios":"levelo://app?vid=0144bdf2-84a6-45ad-976a-ea6fd3101d41"},"vehicle_type_id":"4","last_reported":1761318678,"current_range_meters":21600,"station_id":"ce4bhrh2rcd13ifvqhug","pricing_plan_id":"cebpf4jnsgd1na2vs0mg"},{"bike_id":"8dfd96cb-4e16-436b-8416-07a0420efc2f","system_id":"levelo_inurba_marseille","lat":43.29783,"lon":5.38118,"is_reserved":false,"is_disabled":false,"rental_uris":{"android":"levelo://app?vid=8dfd96cb-4e16-436b-8416-07a0420efc2f","ios":"levelo://app?vid=8dfd96cb-4e16-436b-8416-07a0420efc2f"},"vehicle_type_id":"4","last_reported":1761318678,"current_range_meters":21600,"station_id":"ce4bgip2rcd13ifvqbb0","pricing_plan_id":"cebpf4jnsgd1na2vs0mg"},{"bike_id":"db6385dc-4748-44b6-b05f-373dd9e46e42","system_id":"levelo_inurba_marseille","lat":43.24388,"lon":5.37074,"is_reserved":false,"is_disabled":false,"rental_uris":{"android":"levelo://app?vid=db6385dc-4748-44b6-b05f-373dd9e46e42","ios":"levelo://app?vid=db6385dc-4748-44b6-b05f-373dd9e46e42"},