{"last_updated":1722269441,"ttl":30,"version":"2.2","data":{"bikes":[{"bike_id":"def5710e-d266-4f5d-9f1f-fd3103fccbef","system_id":"levelo_inurba_marseille","lat":43.31243,"lon":5.36825,"is_reserved":false,"is_disabled":false,"rental_uris":{"android":"levelo://app?vid=def5710e-d266-4f5d-9f1f-fd3103fccbef","ios":"levelo://app?vid=def5710e-d266-4f5d-9f1f-fd3103fccbef"},"vehicle_type_id":"4","last_reported":1722269441,"current_range_meters":2800,"station_id":"","pricing_plan_id":"cebpf4jnsgd1na2vs0mg"},{"bike_id":"c3888ffc-7cf6-457d-90e3-414fcec879e2","system_id":"levelo_inurba_marseille","lat":43.305989,"lon":5.37225,"is_reserved":false,"is_disabled":false,"rental_uris":{"android":"levelo://app?vid=c3888ffc-7cf6-457d-90e3-414fcec879e2","ios":"levelo://app?vid=c3888ffc-7cf6-457d-90e3-414fcec879e2"},"vehicle_type_id":"4","last_reported":1722269441,"current_range_meters":0,"station_id":"ce4bgqh2rcd13ifvqc4g","pricing_plan_id":"cebpf4jnsgd1na2vs0mg"},{"bike_id":"dd0c037f-1878-433d-a3d4-c976c87af073","system_id":"levelo_inurba_marseille","lat":43.311147,"lon":5.377603,"is_reserved":false,"is_disabled":false,"rental_uris":{"android":"levelo://app?vid=dd0c037f-1878-433d-a3d4-c976c87af073","ios":"levelo://app?vid=dd0c037f-1878-433d-a3d4-c976c87af073"},"vehicle_type_id":"4","last_reported":1722269441,"current_range_meters":0,"station_id":"ce4bgt92rcd13ifvqcg0","pricing_plan_id":"cebpf4jnsgd1na2vs0mg"},{"bike_id":"60309161-19d8-4dab-910c-311ce55e4f71","system_id":"levelo_inurba_marseille","lat":43.308535,"lon":5.376225,"is_reserved":false,"is_disabled":false,"rental_uris":{"android":"levelo://app?vid=60309161-19d8-4dab-910c-311ce55e4f71","ios":"levelo://app?vid=60309161-19d8-4dab-910c-311ce55e4f71"},"vehicle_type_id":"4","last_reported":1722269441,"current_range_meters":13600,"station_id":"","pricing_plan_id":"cebpf4jnsgd1na2vs0mg"},{"bike_id":"9423b3a2-78e8-4865-ac53-13d045ec2137","system_id":"levelo_inurba_marseille","lat":43.311125,"lon":5.377624,"is_reserved":false,"is_disabled":false,"rental_uris":{"android":"levelo://app?vid=9423b3a2-78e8-4865-ac53-13d045ec2137","ios":"levelo://app?vid=9423b3a2-78e8-4865-ac53-13d045ec2137"},"vehicle_type_id":"4","last_reported":1722269441,"current_range_meters":0,"station_id":"ce4bgt92rcd13ifvqcg0","pricing_plan_id":"cebpf4jnsgd1na2vs0mg"},{"bike_id":"97c732ee-d2ba-499b-8f94-ff4015413a8f","system_id":"levelo_inurba_marseille","lat":43.307945,"lon":5.376487,"is_reserved":false,"is_disabled":false,"rental_uris":{"android":"levelo://app?vid=97c732ee-d2ba-499b-8f94-ff4015413a8f","ios":"levelo://app?vid=97c732ee-d2ba-499b-8f94-ff4015413a8f"},"vehicle_type_id":"4","last_reported":1722269441,"current_range_meters":31200,"station_id":"ce4bgv92rcd13ifvqcq0","pricing_plan_id":"cebpf4jnsgd1na2vs0mg"},{"bike_id":"8a2c5eae-ecdf-47b0-97d6-5e8edd806dbb","system_id":"levelo_inurba_marseille","lat":43.31171,"lon":5.37987,"is_reserved":false,"is_disabled":false,"rental_uris":{"android":"levelo://app?vid=8a2c5eae-ecdf-47b0-97d6-5e8edd806dbb","ios":"levelo://app?vid=8a2c5eae-ecdf-47b0-97d6-5e8edd806dbb"},"vehicle_type_id":"4","last_reported":1722269441,"current_range_meters":22000,"station_id":"","pricing_plan_id":"cebpf4jnsgd1na2vs0mg"},{"bike_id":"1e871472-114c-4560-90fa-b6ba7f9ad44c","system_id":"levelo_inurba_marseille","lat":43.31534,"lon":5.38026,"is_reserved":false,"is_disabled":false,"rental_uris":{"android":"levelo://app?vid=1e871472-114c-4560-90fa-b6ba7f9ad44c","ios":"levelo://app?vid=1e871472-114c-4560-90fa-b6ba7f9ad44c"},"vehicle_type_id":"4","last_reported":1722269441,"current_range_meters":0,"station_id":"ce4bhsp2rcd13ifvqi50","pricing_plan_id":"cebpf4jnsgd1na2vs0mg"},{"bike_id":"01791c31-a8e2-4b2d-9423-b6c931619b18","system_id":"levelo_inurba_marseille","lat":43.315289,"lon":5.380349,"is_reserved":false,"is_disabled":false,"rental_uris":{"android":"levelo://app?vid=01791c31-a8e2-4b2d-9423-b6c931619b18","ios":"levelo://app?vid=01791c31-a8e2-4b2d-9423-b6c931619b18"},"vehicle_type_id":"4","last_reported":1722269441,"current_range_meters":4000,"station_id":"ce4bhsp2rcd13ifvqi50","pricing_plan_id":"cebpf4jnsgd1na2vs0mg"},{"bike_id":"4b56de8b-e56c-44c3-a533-ddf71effb792","system_id":"levelo_inurba_marseille","lat":43.308012,"lon":5.381511,"is_reserved":false,"is_disabled":false,"rental_uris":{"android":"levelo://app?vid=4b56de8b-e56c-44c3-a533-ddf71effb792","ios":"levelo://app?vid=4b56de8b-e56c-44c3-a533-ddf71effb792"},"vehicle_type_id":"4","last_reported":1722269441,"current_range_meters":1600,"station_id":"ce4bgt12rcd13ifvqce0","pricing_plan_id":"cebpf4jnsgd1na2vs0mg"},{"bike_id":"1ecb3ab7-e80b-4cbe-b261-3cc318f816af","system_id":"levelo_inurba_marseille","lat":43.324771,"lon":5.36557,"is_reserved":false,"is_disabled":false,"rental_uris":{"android":"levelo://app?vid=1ecb3ab7-e80b-4cbe-b261-3cc318f816af","ios":"levelo://app?vid=1ecb3ab7-e80b-4cbe-b261-3cc318f816af"},"vehicle_type_id":"4","last_reported":1722269441,"current_range_meters":18800,"station_id":"ce4bhs12rcd13ifvqhvg","pricing_plan_id":"cebpf4jnsgd1na2vs0mg"},{"bike_id":"bbc4a081-5d44-4c70-aca6-ba0be4373e40","system_id":"levelo_inurba_marseille","lat":43.324771,"lon":5.36557,"is_reserved":false,"is_disabled":false,"rental_uris":{"android":"levelo://app?vid=bbc4a081-5d44-4c70-aca6-ba0be4373e40","ios":"levelo://app?vid=bbc4a081-5d44-4c70-aca6-ba0be4373e40"},"vehicle_type_id":"4","last_reported":1722269441,"current_range_meters":28000,"station_id":"ce4bhs12rcd13ifvqhvg","pricing_plan_id":"cebpf4jnsgd1na2vs0mg"},{"bike_id":"40ee0094-b220-4bf6-8263-fbc75a01aa8a","system_id":"levelo_inurba_marseille","lat":43.324792,"lon":5.365852,"is_reserved":false,"is_disabled":false,"rental_uris":{"android":"levelo://app?vid=40ee0094-b220-4bf6-8263-fbc75a01aa8a","ios":"levelo://app?vid=40ee0094-b220-4bf6-8263-fbc75a01aa8a"},"vehicle_type_id":"4","last_reported":1722269441,"current_range_meters":24000,"station_id":"ce4bhs12rcd13ifvqhvg","pricing_plan_id":"cebpf4jnsgd1na2vs0mg"},{"bike_id":"655fc802-d0e6-4b06-ab06-21a145e6698f","system_id":"levelo_inurba_marseille","lat":43.324771,"lon":5.36557,"is_reserved":false,"is_disabled":false,"rental_uris":{"android":"levelo://app?vid=655fc802-d0e6-4b06-ab06-21a145e6698f","ios":"levelo://app?vid=655fc802-d0e6-4b06-ab06-21a145e6698f"},"vehicle_type_id":"4","last_reported":1722269441,"current_range_meters":31200,"station_id":"ce4bhs12rcd13ifvqhvg","pricing_plan_id":"cebpf4jnsgd1na2vs0mg"},{"bike_id":"cc299a00-967f-4730-9e52-33f4589166b6","system_id":"levelo_inurba_marseille","lat":43.324771,"lon":5.36557,"is_reserved":false,"is_disabled":false,"rental_uris":{"android":"levelo://app?vid=cc299a00-967f-4730-9e52-33f4589166b6","ios":"levelo://app?vid=cc299a00-967f-4730-9e52-33f4589166b6"},"vehicle_type_id":"4","last_reported":1722269441,"current_range_meters":4000,"station_id":"ce4bhs12rcd13ifvqhvg","pricing_plan_id":"cebpf4jnsgd1na2vs0mg"},{"bike_id":"a1747e0f-f488-465d-ac4e-12e53561eabc","system_id":"levelo_inurba_marseille","lat":43.324771,"lon":5.36557,"is_reserved":false,"is_disabled":false,"rental_uris":{"android":"levelo://app?vid=a1747e0f-f488-465d-ac4e-12e53561eabc","ios":"levelo://app?vid=a1747e0f-f488-465d-ac4e-12e53561eabc"},"vehicle_type_id":"4","last_reported":1722269441,"current_range_meters":31200,"station_id":"ce4bhs12rcd13ifvqhvg","pricing_plan_id":"cebpf4jnsgd1na2vs0mg"},{"bike_id":"38b017ec-053e-4e70-a8ba-873be27e4790","system_id":"levelo_inurba_marseille","lat":43.324771,"lon":5.36557,"is_reserved":false,"is_disabled":false,"rental_uris":{"android":"levelo://app?vid=38b017ec-053e-4e70-a8ba-873be27e4790","ios":"levelo://app?vid=38b017ec-053e-4e70-a8ba-873be27e4790"},"vehicle_type_id":"4","last_reported":1722269441,"current_range_meters":31200,"station_id":"ce4bhs12rcd13ifvqhvg","pricing_plan_id":"cebpf4jnsgd1na2vs0mg"},{"bike_id":"cf2295fe-e9a5-4fa3-992d-424feac9b7ac","system_id":"levelo_inurba_marseille","lat":43.324771,"lon":5.36557,"is_reserved":false,"is_disabled":false,"rental_uris":{"android":"levelo://app?vid=cf2295fe-e9a5-4fa3-992d-424feac9b7ac","ios":"levelo://app?vid=cf2295fe-e9a5-4fa3-992d-424feac9b7ac"},"vehicle_type_id":"4","last_reported":1722269441,"current_range_meters":6800,"station_id":"ce4bhs12rcd13ifvqhvg","pricing_plan_id":"cebpf4jnsgd1na2vs0mg"},{"bike_id":"c27ffc1a-23fe-45c2-9eb7-34bed2f6db4c","system_id":"levelo_inurba_marseille","lat":43.30143,"lon":5.37413,"is_reserved":false,"is_disabled":false,"rental_uris":{"android":"levelo://app?vid=c27ffc1a-23fe-45c2-9eb7-34bed2f6db4c","ios":"levelo://app?vid=c27ffc1a-23fe-45c2-9eb7-34bed2f6db4c"},"vehicle_type_id":"4","last_reported":1722269441,"current_range_meters":31200,"station_id":"ce4bgs92rcd13ifvqcc0","pricing_plan_id":"cebpf4jnsgd1na2vs0mg"},{"bike_id":"ff07c9bb-386f-4df5-a935-f3fe3d87b068","system_id":"levelo_inurba_marseille","lat":43.319935,"lon":5.381699,"is_reserved":false,"is_disabled":false,"rental_uris":{"android":"levelo://app?vid=ff07c9bb-386f-4df5-a935-f3fe3d87b068","ios":"levelo://app?vid=ff07c9bb-386f-4df5-a935-f3fe3d87b068"},"vehicle_type_id":"4","last_reported":1722269441,"current_range_meters":4000,"station_id":"ce4bhr12rcd13ifvqhpg","pricing_plan_id":"cebpf4jnsgd1na2vs0mg"},{"bike_id":"8acaa0c9-1632-490b-b0a0-3c306d5ce092","system_id":"levelo_inurba_marseille","lat":43.298433,"lon":5.362774,"is_reserved":false,"is_disabled":false,"rental_uris":{"android":"levelo://app?vid=8acaa0c9-1632-490b-b0a0-3c306d5ce092","ios":"levelo://app?vid=8acaa0c9-1632-490b-b0a0-3c306d5ce092"},"vehicle_type_id":"4","last_reported":1722269441,"current_range_meters":14400,"station_id":"ce4bgpp2rcd13ifvqc3g","pricing_plan_id":"cebpf4jnsgd1na2vs0mg"},{"bike_id":"694442e2-f8e1-49e1-bccf-28e635fe61fd","system_id":"levelo_inurba_marseille","lat":43.299222,"lon":5.365554,"is_reserved":false,"is_disabled":false,"rental_uris":{"android":"levelo://app?vid=694442e2-f8e1-49e1-bccf-28e635fe61fd","ios":"levelo://app?vid=694442e2-f8e1-49e1-bccf-28e635fe61fd"},"vehicle_type_id":"4","last_reported":1722269441,"current_range_meters":0,"station_id":"ce4bgm92rcd13ifvqbr0","pricing_plan_id":"cebpf4jnsgd1na2vs0mg"},{"bike_id":"ceb8fbaf-5079-42fd-b1e4-b3136c56e0a6","system_id":"levelo_inurba_marseille","lat":43.299724,"lon":5.371829,"is_reserved":false,"is_disabled":false,"rental_uris":{"android":"levelo://app?vid=ceb8fbaf-5079-42fd-b1e4-b3136c56e0a6","ios":"levelo://app?vid=ceb8fbaf-5079-42fd-b1e4-b3136c56e0a6"},"vehicle_type_id":"4","last_reported":1722269441,"current_range_meters":5200,"station_id":"ce4bgr92rcd13ifvqc7g","pricing_plan_id":"cebpf4jnsgd1na2vs0mg"},{"bike_id":"e4409368-3d13-41e8-b599-2af7021c8ccf","system_id":"levelo_inurba_marseille","lat":43.299243,"lon":5.374807,"is_reserved":false,"is_disabled":false,"rental_uris":{"android":"levelo://app?vid=e4409368-3d13-41e8-b599-2af7021c8ccf","ios":"levelo://app?vid=e4409368-3d13-41e8-b599-2af7021c8ccf"},"vehicle_type_id":"4","last_reported":1722269441,"current_range_meters":10800,"station_id":"ce4bgjh2rcd13ifvqbg0","pricing_plan_id":"cebpf4jnsgd1na2vs0mg"},{"bike_id":"9300663c-4b0a-48c7-8e67-f012eeab22fa","system_id":"levelo_inurba_marseille","lat":43.298433,"lon":5.362774,"is_reserved":false,"is_disabled":false,"rental_uris":{"android":"levelo://app?vid=9300663c-4b0a-48c7-8e67-f012eeab22fa","ios":"levelo://app?vid=9300663c-4b0a-48c7-8e67-f012eeab22fa"},"vehicle_type_id":"4","last_reported":1722269441,"current_range_meters":8400,"station_id":"ce4bgpp2rcd13ifvqc3g","pricing_plan_id":"cebpf4jnsgd1na2vs0mg"},{"bike_id":"b4470ea4-8872-45e2-bcc8-19058d387b60","system_id":"levelo_inurba_marseille","lat":43.31167,"lon":5.3871,"is_reserved":false,"is_disabled":false,"rental_uris":{"android":"levelo://app?vid=b4470ea4-8872-45e2-bcc8-19058d387b60","ios":"levelo://app?vid=b4470ea4-8872-45e2-bcc8-19058d387b60"},"vehicle_type_id":"4","last_reported":1722269441,"current_range_meters":0,"station_id":"ce4bgv12rcd13ifvqcp0","pricing_plan_id":"cebpf4jnsgd1na2vs0mg"},{"bike_id":"2b8435d3-2a96-4e20-b541-268eb9a6d68e","system_id":"levelo_inurba_marseille","lat":43.30153,"lon":5.38094,"is_reserved":false,"is_disabled":false,"rental_uris":{"android":"levelo://app?vid=2b8435d3-2a96-4e20-b541-268eb9a6d68e","ios":"levelo://app?vid=2b8435d3-2a96-4e20-b541-268eb9a6d68e"},"vehicle_type_id":"4","last_reported":1722269441,"current_range_meters":0,"station_id":"","pricing_plan_id":"cebpf4jnsgd1na2vs0mg"},{"bike_id":"7b81a626-f2f9-4612-ad70-7118fc386087","system_id":"levelo_inurba_marseille","lat":43.301461,"lon":5.380931,"is_reserved":false,"is_disabled":false,"rental_uris":{"android":"levelo://app?vid=7b81a626-f2f9-4612-ad70-7118fc386087","ios":"levelo://app?vid=7b81a626-f2f9-4612-ad70-7118fc386087"},"vehicle_type_id":"4","last_reported":1722269441,"current_range_meters":0,"station_id":"","pricing_plan_id":"cebpf4jnsgd1na2vs0mg"},{"bike_id":"9d1f21de-decb-49ac-a7eb-ad8874b0bada","system_id":"levelo_inurba_marseille","lat":43.32291,"lon":5.38275,"is_reserved":false,"is_disabled":false,"rental_uris":{"android":"levelo://app?vid=9d1f21de-decb-49ac-a7eb-ad8874b0bada","ios":"levelo://app?vid=9d1f21de-decb-49ac-a7eb-ad8874b0bada"},"vehicle_type_id":"4","last_reported":1722269441,"current_range_meters":5200,"station_id":"ce4bhr12rcd13ifvqhqg","pricing_plan_id":"cebpf4jnsgd1na2vs0mg"},{"bike_id":"8c5aede6-9063-4e03-8a52-9d4778b6a672","system_id":"levelo_inurba_marseille","lat":43.322872,"lon":5.382756,"is_reserved":false,"is_disabled":false,"rental_uris":{"android":"levelo://app?vid=8c5aede6-9063-4e03-8a52-9d4778b6a672","ios":"levelo://app?vid=8c5aede6-9063-4e03-8a52-9d4778b6a672"},"vehicle_type_id":"4","last_reported":1722269441,"current_range_meters":29200,"station_id":"ce4bhr12rcd13ifvqhqg","pricing_plan_id":"cebpf4jnsgd1na2vs0mg"},{"bike_id":"9266143a-9546-4c26-9e06-b1ecc4abae8a","system_id":"levelo_inurba_marseille","lat":43.30075,"lon":5.38124,"is_reserved":false,"is_disabled":false,"rental_uris":{"android":"levelo://app?vid=9266143a-9546-4c26-9e06-b1ecc4abae8a","ios":"levelo://app?vid=9266143a-9546-4c26-9e06-b1ecc4abae8a"},"vehicle_type_id":"4","last_reported":1722269441,"current_range_meters":10400,"station_id":"","pricing_plan_id":"cebpf4jnsgd1na2vs0mg"},{"bike_id":"fb6712f6-e3d2-4e70-9a10-260796e0336d","system_id":"levelo_inurba_marseille","lat":43.325941,"lon":5.379713,"is_reserved":false,"is_disabled":false,"rental_uris":{"android":"levelo://app?vid=fb6712f6-e3d2-4e70-9a10-260796e0336d","ios":"levelo://app?vid=fb6712f6-e3d2-4e70-9a10-260796e0336d"},"vehicle_type_id":"4","last_reported":1722269441,"current_range_meters":11600,"station_id":"","pricing_plan_id":"cebpf4jnsgd1na2vs0mg"},{"bike_id":"5e9380af-3182-424b-a04c-84e22606f4d8","system_id":"levelo_inurba_marseille","lat":43.296129,"lon":5.370777,"is_reserved":false,"is_disabled":false,"rental_uris":{"android":"levelo://app?vid=5e9380af-3182-424b-a04c-84e22606f4d8","ios":"levelo://app?vid=5e9380af-3182-424b-a04c-84e22606f4d8"},"vehicle_type_id":"4","last_reported":1722269441,"current_range_meters":16800,"station_id":"ce4bgnh2rcd13ifvqc0g","pricing_plan_id":"cebpf4jnsgd1na2vs0mg"},{"bike_id":"fd28c297-eb02-4d91-9d7d-8c39d693bfe2","system_id":"levelo_inurba_marseille","lat":43.296131,"lon":5.370791,"is_reserved":false,"is_disabled":false,"rental_uris":{"android":"levelo://app?vid=fd28c297-eb02-4d91-9d7d-8c39d693bfe2","ios":"levelo://app?vid=fd28c297-eb02-4d91-9d7d-8c39d693bfe2"},"vehicle_type_id":"4","last_reported":1722269441,"current_range_meters":0,"station_id":"ce4bgnh2rcd13ifvqc0g","pricing_plan_id":"cebpf4jnsgd1na2vs0mg"},{"bike_id":"3759b4b8-9c8a-4ba2-9df0-f5a466862208","system_id":"levelo_inurba_marseille","lat":43.296129,"lon":5.370777,"is_reserved":false,"is_disabled":false,"rental_uris":{"android":"levelo://app?vid=3759b4b8-9c8a-4ba2-9df0-f5a466862208","ios":"levelo://app?vid=3759b4b8-9c8a-4ba2-9df0-f5a466862208"},"vehicle_type_id":"4","last_reported":1722269441,"current_range_meters":5200,"station_id":"ce4bgnh2rcd13ifvqc0g","pricing_plan_id":"cebpf4jnsgd1na2vs0mg"},{"bike_id":"77e8eb1c-09b5-4531-af4f-08a5afe2190c","system_id":"levelo_inurba_marseille","lat":43.299028,"lon":5.381509,"is_reserved":false,"is_disabled":false,"rental_uris":{"android":"levelo://app?vid=77e8eb1c-09b5-4531-af4f-08a5afe2190c","ios":"levelo://app?vid=77e8eb1c-09b5-4531-af4f-08a5afe2190c"},"vehicle_type_id":"4","last_reported":1722269441,"current_range_meters":26000,"station_id":"ce4bgj12rcd13ifvqbc0","pricing_plan_id":"cebpf4jnsgd1na2vs0mg"},{"bike_id":"77b606c3-c99e-4ad3-b6b2-09542ca4be7f","system_id":"levelo_inurba_marseille","lat":43.296935,"lon":5.376544,"is_reserved":false,"is_disabled":false,"rental_uris":{"android":"levelo://app?vid=77b606c3-c99e-4ad3-b6b2-09542ca4be7f","ios":"levelo://app?vid=77b606c3-c99e-4ad3-b6b2-09542ca4be7f"},"vehicle_type_id":"4","last_reported":1722269441,"current_range_meters":14800,"station_id":"ce4bgkh2rcd13ifvqbl0","pricing_plan_id":"cebpf4jnsgd1na2vs0mg"},{"bike_id":"970ca3ab-15b9-409c-9eeb-0063ed26debc","system_id":"levelo_inurba_marseille","lat":43.231919,"lon":5.355532,"is_reserved":false,"is_disabled":false,"rental_uris":{"android":"levelo://app?vid=970ca3ab-15b9-409c-9eeb-0063ed26debc","ios":"levelo://app?vid=970ca3ab-15b9-409c-9eeb-0063ed26debc"},"vehicle_type_id":"4","last_reported":1722269441,"current_range_meters":31200,"station_id":"ce4bhu92rcd13ifvqi70","pricing_plan_id":"cebpf4jnsgd1na2vs0mg"},{"bike_id":"8babb68f-7625-411f-83ac-a10f29f60f1e","system_id":"levelo_inurba_marseille","lat":43.29721,"lon":5.37895,"is_reserved":false,"is_disabled":false,"rental_uris":{"android":"levelo://app?vid=8babb68f-7625-411f-83ac-a10f29f60f1e","ios":"levelo://app?vid=8babb68f-7625-411f-83ac-a10f29f60f1e"},"vehicle_type_id":"4","last_reported":1722269441,"current_range_meters":18800,"station_id":"","pricing_plan_id":"cebpf4jnsgd1na2vs0mg"},{"bike_id":"b6aeb2e8-0c8e-4098-aabe-25115824dd23","system_id":"levelo_inurba_marseille","lat":43.29577,"lon":5.37513,"is_reserved":false,"is_disabled":false,"rental_uris":{"android":"levelo://app?vid=b6aeb2e8-0c8e-4098-aabe-25115824dd23","ios":"levelo://app?vid=b6aeb2e8-0c8e-4098-aabe-25115824dd23"},"vehicle_type_id":"4","last_reported":1722269441,"current_range_meters":0,"station_id":"ce4bgh92rcd13ifvqb50","pricing_plan_id":"cebpf4jnsgd1na2vs0mg"},{"bike_id":"9645a51e-0c7f-48ae-a67e-f00a32add0b6","system_id":"levelo_inurba_marseille","lat":43.29568,"lon":5.37516,"is_reserved":false,"is_disabled":false,"rental_uris":{"android":"levelo://app?vid=9645a51e-0c7f-48ae-a67e-f00a32add0b6","ios":"levelo://app?vid=9645a51e-0c7f-48ae-a67e-f00a32add0b6"},"vehicle_type_id":"4","last_reported":1722269441,"current_range_meters":0,"station_id":"ce4bgh92rcd13ifvqb50","pricing_plan_id":"cebpf4jnsgd1na2vs0mg"},{"bike_id":"2d45c07e-6d71-4584-aabb-c132799828ec","system_id":"levelo_inurba_marseille","lat":43.292642,"lon":5.384254,"is_reserved":false,"is_disabled":false,"rental_uris":{"android":"levelo://app?vid=2d45c07e-6d71-4584-aabb-c132799828ec","ios":"levelo://app?vid=2d45c07e-6d71-4584-aabb-c132799828ec"},"vehicle_type_id":"4","last_reported":1722269441,"current_range_meters":3600,"station_id":"ce4bh692rcd13ifvqea0","pricing_plan_id":"cebpf4jnsgd1na2vs0mg"},{"bike_id":"4d7fc3f9-e8e8-4d50-ad3e-29732bea3c07","system_id":"levelo_inurba_marseille","lat":43.295279,"lon":5.375048,"is_reserved":false,"is_disabled":false,"rental_uris":{"android":"levelo://app?vid=4d7fc3f9-e8e8-4d50-ad3e-29732bea3c07","ios":"levelo://app?vid=4d7fc3f9-e8e8-4d50-ad3e-29732bea3c07"},"vehicle_type_id":"4","last_reported":1722269441,"current_range_meters":0,"station_id":"ce4bgkp2rcd13ifvqbmg","pricing_plan_id":"cebpf4jnsgd1na2vs0mg"},{"bike_id":"282fa91b-cba7-42a7-889d-bf5303d88c44","system_id":"levelo_inurba_marseille","lat":43.301396,"lon":5.387812,"is_reserved":false,"is_disabled":false,"rental_uris":{"android":"levelo://app?vid=282fa91b-cba7-42a7-889d-bf5303d88c44","ios":"levelo://app?vid=282fa91b-cba7-42a7-889d-bf5303d88c44"},"vehicle_type_id":"4","last_reported":1722269441,"current_range_meters":0,"station_id":"ce4bghh2rcd13ifvqb60","pricing_plan_id":"cebpf4jnsgd1na2vs0mg"},{"bike_id":"00f5b29d-e019-41e6-ba13-d2471ae5e030","system_id":"levelo_inurba_marseille","lat":43.301396,"lon":5.387812,"is_reserved":false,"is_disabled":false,"rental_uris":{"android":"levelo://app?vid=00f5b29d-e019-41e6-ba13-d2471ae5e030","ios":"levelo://app?vid=00f5b29d-e019-41e6-ba13-d2471ae5e030"},"vehicle_type_id":"4","last_reported":1722269441,"current_range_meters":11600,"station_id":"ce4bghh2rcd13ifvqb60","pricing_plan_id":"cebpf4jnsgd1na2vs0mg"},{"bike_id":"e265f7a9-6113-4f33-97de-15a5798c936a","system_id":"levelo_inurba_marseille","lat":43.293009,"lon":5.374584,"is_reserved":false,"is_disabled":false,"rental_uris":{"android":"levelo://app?vid=e265f7a9-6113-4f33-97de-15a5798c936a","ios":"levelo://app?vid=e265f7a9-6113-4f33-97de-15a5798c936a"},"vehicle_type_id":"4","last_reported":1722269441,"current_range_meters":4000,"station_id":"ce4bgi12rcd13ifvqb70","pricing_plan_id":"cebpf4jnsgd1na2vs0mg"},{"bike_id":"4c9b2a69-157c-4d96-9abb-2a7226d78bd9","system_id":"levelo_inurba_marseille","lat":43.323128,"lon":5.389311,"is_reserved":false,"is_disabled":false,"rental_uris":{"android":"levelo://app?vid=4c9b2a69-157c-4d96-9abb-2a7226d78bd9","ios":"levelo://app?vid=4c9b2a69-157c-4d96-9abb-2a7226d78bd9"},"vehicle_type_id":"4","last_reported":1722269441,"current_range_meters":12400,"station_id":"","pricing_plan_id":"cebpf4jnsgd1na2vs0mg"},{"bike_id":"9f760663-dde4-40a9-b502-7e96ac5801b8","system_id":"levelo_inurba_marseille","lat":43.32367,"lon":5.388836,"is_reserved":false,"is_disabled":false,"rental_uris":{"android":"levelo://app?vid=9f760663-dde4-40a9-b502-7e96ac5801b8","ios":"levelo://app?vid=9f760663-dde4-40a9-b502-7e96ac5801b8"},"vehicle_type_id":"4","last_reported":1722269441,"current_range_meters":24400,"station_id":"ce4bhqp2rcd13ifvqhog","pricing_plan_id":"cebpf4jnsgd1na2vs0mg"},{"bike_id":"d13f82b8-f2fc-4182-91ea-1fe51e8b2dc0","system_id":"levelo_inurba_marseille","lat":43.293259,"lon":5.371586,"is_reserved":false,"is_disabled":false,"rental_uris":{"android":"levelo://app?vid=d13f82b8-f2fc-4182-91ea-1fe51e8b2dc0","ios":"levelo://app?vid=d13f82b8-f2fc-4182-91ea-1fe51e8b2dc0"},"vehicle_type_id":"4","last_reported":1722269441,"current_range_meters":6400,"station_id":"ce4bgh92rcd13ifvqb40","pricing_plan_id":"cebpf4jnsgd1na2vs0mg"},{"bike_id":"6dc6e1f8-9df6-437f-ba35-b2b6e866542a","system_id":"levelo_inurba_marseille","lat":43.293259,"lon":5.371586,"is_reserved":false,"is_disabled":false,"rental_uris":{"android":"levelo://app?vid=6dc6e1f8-9df6-437f-ba35-b2b6e866542a","ios":"levelo://app?vid=6dc6e1f8-9df6-437f-ba35-b2b6e866542a"},"vehicle_type_id":"4","last_reported":1722269441,"current_range_meters":5200,"station_id":"ce4bgh92rcd13ifvqb40","pricing_plan_id":"cebpf4jnsgd1na2vs0mg"},{"bike_id":"1a461864-9abd-4deb-9bf3-23c5fa5c6265","system_id":"levelo_inurba_marseille","lat":43.29302,"lon":5.3718,"is_reserved":false,"is_disabled":false,"rental_uris":{"android":"levelo://app?vid=1a461864-9abd-4deb-9bf3-23c5fa5c6265","ios":"levelo://app?vid=1a461864-9abd-4deb-9bf3-23c5fa5c6265"},"vehicle_type_id":"4","last_reported":1722269441,"current_range_meters":0,"station_id":"ce4bgh92rcd13ifvqb40","pricing_plan_id":"cebpf4jnsgd1na2vs0mg"},{"bike_id":"412e41b6-155f-47b7-af00-ccca0d72696c","system_id":"levelo_inurba_marseille","lat":43.30085,"lon":5.390856,"is_reserved":false,"is_disabled":false,"rental_uris":{"android":"levelo://app?vid=412e41b6-155f-47b7-af00-ccca0d72696c","ios":"levelo://app?vid=412e41b6-155f-47b7-af00-ccca0d72696c"},"vehicle_type_id":"4","last_reported":1722269441,"current_range_meters":800,"station_id":"ce4bh192rcd13ifvqdb0","pricing_plan_id":"cebpf4jnsgd1na2vs0mg"},{"bike_id":"38ba1066-58ea-41ea-9478-4741b494751f","system_id":"levelo_inurba_marseille","lat":43.292311,"lon":5.360731,"is_reserved":false,"is_disabled":false,"rental_uris":{"android":"levelo://app?vid=38ba1066-58ea-41ea-9478-4741b494751f","ios":"levelo://app?vid=38ba1066-58ea-41ea-9478-4741b494751f"},"vehicle_type_id":"4","last_reported":1722269441,"current_range_meters":20800,"station_id":"ce4bhbh2rcd13ifvqeqg","pricing_plan_id":"cebpf4jnsgd1na2vs0mg"},{"bike_id":"50fd0fcd-53f3-451c-b60f-f1c373112990","system_id":"levelo_inurba_marseille","lat":43.29273,"lon":5.37636,"is_reserved":false,"is_disabled":false,"rental_uris":{"android":"levelo://app?vid=50fd0fcd-53f3-451c-b60f-f1c373112990","ios":"levelo://app?vid=50fd0fcd-53f3-451c-b60f-f1c373112990"},"vehicle_type_id":"4","last_reported":1722269441,"current_range_meters":4800,"station_id":"ce4bgi12rcd13ifvqb80","pricing_plan_id":"cebpf4jnsgd1na2vs0mg"},{"bike_id":"c523d5d6-1cbd-4d29-b98c-46e253615308","system_id":"levelo_inurba_marseille","lat":43.29269,"lon":5.37633,"is_reserved":false,"is_disabled":false,"rental_uris":{"android":"levelo://app?vid=c523d5d6-1cbd-4d29-b98c-46e253615308","ios":"levelo://app?vid=c523d5d6-1cbd-4d29-b98c-46e253615308"},"vehicle_type_id":"4","last_reported":1722269441,"current_range_meters":2000,"station_id":"ce4bgi12rcd13ifvqb80","pricing_plan_id":"cebpf4jnsgd1na2vs0mg"},{"bike_id":"cd70c33c-476f-4492-9755-c98cfb837d94","system_id":"levelo_inurba_marseille","lat":43.29259,"lon":5.37623,"is_reserved":false,"is_disabled":false,"rental_uris":{"android":"levelo://app?vid=cd70c33c-476f-4492-9755-c98cfb837d94","ios":"levelo://app?vid=cd70c33c-476f-4492-9755-c98cfb837d94"},"vehicle_type_id":"4","last_reported":1722269441,"current_range_meters":2000,"station_id":"ce4bgi12rcd13ifvqb80","pricing_plan_id":"cebpf4jnsgd1na2vs0mg"},{"bike_id":"14d8d4f8-8ed1-45b7-ae29-67121a125c23","system_id":"levelo_inurba_marseille","lat":43.293009,"lon":5.374584,"is_reserved":false,"is_disabled":false,"rental_uris":{"android":"levelo://app?vid=14d8d4f8-8ed1-45b7-ae29-67121a125c23","ios":"levelo://app?vid=14d8d4f8-8ed1-45b7-ae29-67121a125c23"},"vehicle_type_id":"4","last_reported":1722269441,"current_range_meters":16000,"station_id":"ce4bgi12rcd13ifvqb70","pricing_plan_id":"cebpf4jnsgd1na2vs0mg"},{"bike_id":"b8aef630-0b2a-401f-9ae7-dd440021a11d","system_id":"levelo_inurba_marseille","lat":43.291675,"lon":5.371583,"is_reserved":false,"is_disabled":false,"rental_uris":{"android":"levelo://app?vid=b8aef630-0b2a-401f-9ae7-dd440021a11d","ios":"levelo://app?vid=b8aef630-0b2a-401f-9ae7-dd440021a11d"},"vehicle_type_id":"4","last_reported":1722269441,"current_range_meters":0,"station_id":"ce4bha92rcd13ifvqeh0","pricing_plan_id":"cebpf4jnsgd1na2vs0mg"},{"bike_id":"0a486bfe-dd9f-4356-ad3f-f20f9b2398bf","system_id":"levelo_inurba_marseille","lat":43.291671,"lon":5.371575,"is_reserved":false,"is_disabled":false,"rental_uris":{"android":"levelo://app?vid=0a486bfe-dd9f-4356-ad3f-f20f9b2398bf","ios":"levelo://app?vid=0a486bfe-dd9f-4356-ad3f-f20f9b2398bf"},"vehicle_type_id":"4","last_reported":1722269441,"current_range_meters":0,"station_id":"ce4bha92rcd13ifvqeh0","pricing_plan_id":"cebpf4jnsgd1na2vs0mg"},{"bike_id":"e7e80220-f396-4f26-9339-1b828a5943d8","system_id":"levelo_inurba_marseille","lat":43.291994,"lon":5.357886,"is_reserved":false,"is_disabled":false,"rental_uris":{"android":"levelo://app?vid=e7e80220-f396-4f26-9339-1b828a5943d8","ios":"levelo://app?vid=e7e80220-f396-4f26-9339-1b828a5943d8"},"vehicle_type_id":"4","last_reported":1722269441,"current_range_meters":15200,"station_id":"ce4bhb12rcd13ifvqel0","pricing_plan_id":"cebpf4jnsgd1na2vs0mg"},{"bike_id":"2262d678-d4aa-448c-8914-2d404e16ea0b","system_id":"levelo_inurba_marseille","lat":43.29196,"lon":5.3579,"is_reserved":false,"is_disabled":false,"rental_uris":{"android":"levelo://app?vid=2262d678-d4aa-448c-8914-2d404e16ea0b","ios":"levelo://app?vid=2262d678-d4aa-448c-8914-2d404e16ea0b"},"vehicle_type_id":"4","last_reported":1722269441,"current_range_meters":0,"station_id":"","pricing_plan_id":"cebpf4jnsgd1na2vs0mg"},{"bike_id":"6ed2950d-5c78-402a-99e5-67765b222c70","system_id":"levelo_inurba_marseille","lat":43.29529,"lon":5.385581,"is_reserved":false,"is_disabled":false,"rental_uris":{"android":"levelo://app?vid=6ed2950d-5c78-402a-99e5-67765b222c70","ios":"levelo://app?vid=6ed2950d-5c78-402a-99e5-67765b222c70"},"vehicle_type_id":"4","last_reported":1722269441,"current_range_meters":31200,"station_id":"ce4bgih2rcd13ifvqba0","pricing_plan_id":"cebpf4jnsgd1na2vs0mg"},{"bike_id":"627cffa1-219d-4d66-8cdc-5d78c95e90d6","system_id":"levelo_inurba_marseille","lat":43.29527,"lon":5.3854,"is_reserved":false,"is_disabled":false,"rental_uris":{"android":"levelo://app?vid=627cffa1-219d-4d66-8cdc-5d78c95e90d6","ios":"levelo://app?vid=627cffa1-219d-4d66-8cdc-5d78c95e90d6"},"vehicle_type_id":"4","last_reported":1722269441,"current_range_meters":16000,"station_id":"ce4bgih2rcd13ifvqba0","pricing_plan_id":"cebpf4jnsgd1na2vs0mg"},{"bike_id":"e7e533e5-201f-4d33-aff7-eb0f83b9b4ab","system_id":"levelo_inurba_marseille","lat":43.29529,"lon":5.385581,"is_reserved":false,"is_disabled":false,"rental_uris":{"android":"levelo://app?vid=e7e533e5-201f-4d33-aff7-eb0f83b9b4ab","ios":"levelo://app?vid=e7e533e5-201f-4d33-aff7-eb0f83b9b4ab"},"vehicle_type_id":"4","last_reported":1722269441,"current_range_meters":21600,"station_id":"ce4bgih2rcd13ifvqba0","pricing_plan_id":"cebpf4jnsgd1na2vs0mg"},{"bike_id":"214cf02c-53d4-4c08-b2df-84c222b94fec","system_id":"levelo_inurba_marseille","lat":43.290779,"lon":5.371482,"is_reserved":false,"is_disabled":false,"rental_uris":{"android":"levelo://app?vid=214cf02c-53d4-4c08-b2df-84c222b94fec","ios":"levelo://app?vid=214cf02c-53d4-4c08-b2df-84c222b94fec"},"vehicle_type_id":"4","last_reported":1722269441,"current_range_meters":0,"station_id":"ce4bh5p2rcd13ifvqe4g","pricing_plan_id":"cebpf4jnsgd1na2vs0mg"},{"bike_id":"6c0a3226-01c5-470b-8417-bc7dafba6da7","system_id":"levelo_inurba_marseille","lat":43.290631,"lon":5.359244,"is_reserved":false,"is_disabled":false,"rental_uris":{"android":"levelo://app?vid=6c0a3226-01c5-470b-8417-bc7dafba6da7","ios":"levelo://app?vid=6c0a3226-01c5-470b-8417-bc7dafba6da7"},"vehicle_type_id":"4","last_reported":1722269441,"current_range_meters":12800,"station_id":"ce4bha92rcd13ifvqeg0","pricing_plan_id":"cebpf4jnsgd1na2vs0mg"},{"bike_id":"29cafbaf-1acd-4ec2-bf72-de82d388a67d","system_id":"levelo_inurba_marseille","lat":43.29038,"lon":5.37564,"is_reserved":false,"is_disabled":false,"rental_uris":{"android":"levelo://app?vid=29cafbaf-1acd-4ec2-bf72-de82d388a67d","ios":"levelo://app?vid=29cafbaf-1acd-4ec2-bf72-de82d388a67d"},"vehicle_type_id":"4","last_reported":1722269441,"current_range_meters":0,"station_id":"ce4bh692rcd13ifvqe90","pricing_plan_id":"cebpf4jnsgd1na2vs0mg"},{"bike_id":"b4869916-60b7-4882-ab46-17da5c33ac25","system_id":"levelo_inurba_marseille","lat":43.29418,"lon":5.38619,"is_reserved":false,"is_disabled":false,"rental_uris":{"android":"levelo://app?vid=b4869916-60b7-4882-ab46-17da5c33ac25","ios":"levelo://app?vid=b4869916-60b7-4882-ab46-17da5c33ac25"},"vehicle_type_id":"4","last_reported":1722269441,"current_range_meters":0,"station_id":"ce4bh2h2rcd13ifvqdh0","pricing_plan_id":"cebpf4jnsgd1na2vs0mg"},{"bike_id":"7c309694-e9f8-4591-ad1c-84421365f57c","system_id":"levelo_inurba_marseille","lat":43.294153,"lon":5.386305,"is_reserved":false,"is_disabled":false,"rental_uris":{"android":"levelo://app?vid=7c309694-e9f8-4591-ad1c-84421365f57c","ios":"levelo://app?vid=7c309694-e9f8-4591-ad1c-84421365f57c"},"vehicle_type_id":"4","last_reported":1722269441,"current_range_meters":24400,"station_id":"ce4bh2h2rcd13ifvqdh0","pricing_plan_id":"cebpf4jnsgd1na2vs0mg"},{"bike_id":"29e1ce91-8c04-45db-b70c-793cbe6cc86d","system_id":"levelo_inurba_marseille","lat":43.290327,"lon":5.375711,"is_reserved":false,"is_disabled":false,"rental_uris":{"android":"levelo://app?vid=29e1ce91-8c04-45db-b70c-793cbe6cc86d","ios":"levelo://app?vid=29e1ce91-8c04-45db-b70c-793cbe6cc86d"},"vehicle_type_id":"4","last_reported":1722269441,"current_range_meters":0,"station_id":"ce4bh692rcd13ifvqe90","pricing_plan_id":"cebpf4jnsgd1na2vs0mg"},{"bike_id":"579e7bc3-4805-4614-a019-a67e090ff9f6","system_id":"levelo_inurba_marseille","lat":43.289184,"lon":5.366408,"is_reserved":false,"is_disabled":false,"rental_uris":{"android":"levelo://app?vid=579e7bc3-4805-4614-a019-a67e090ff9f6","ios":"levelo://app?vid=579e7bc3-4805-4614-a019-a67e090ff9f6"},"vehicle_type_id":"4","last_reported":1722269441,"current_range_meters":9200,"station_id":"ce4bhap2rcd13ifvqek0","pricing_plan_id":"cebpf4jnsgd1na2vs0mg"},{"bike_id":"914e6fb7-fc1a-420d-85fe-4d73c5518525","system_id":"levelo_inurba_marseille","lat":43.29281,"lon":5.3846,"is_reserved":false,"is_disabled":false,"rental_uris":{"android":"levelo://app?vid=914e6fb7-fc1a-420d-85fe-4d73c5518525","ios":"levelo://app?vid=914e6fb7-fc1a-420d-85fe-4d73c5518525"},"vehicle_type_id":"4","last_reported":1722269441,"current_range_meters":9600,"station_id":"ce4bh692rcd13ifvqea0","pricing_plan_id":"cebpf4jnsgd1na2vs0mg"},{"bike_id":"6a307b78-852a-41c1-a2e6-b8c04fe092fa","system_id":"levelo_inurba_marseille","lat":43.304274,"lon":5.397513,"is_reserved":false,"is_disabled":false,"rental_uris":{"android":"levelo://app?vid=6a307b78-852a-41c1-a2e6-b8c04fe092fa","ios":"levelo://app?vid=6a307b78-852a-41c1-a2e6-b8c04fe092fa"},"vehicle_type_id":"4","last_reported":1722269441,"current_range_meters":1600,"station_id":"ce4bh092rcd13ifvqd20","pricing_plan_id":"cebpf4jnsgd1na2vs0mg"},{"bike_id":"6de242c7-ce8d-4d33-bfcc-dc8bc9c9711d","system_id":"levelo_inurba_marseille","lat":43.304296,"lon":5.397513,"is_reserved":false,"is_disabled":false,"rental_uris":{"android":"levelo://app?vid=6de242c7-ce8d-4d33-bfcc-dc8bc9c9711d","ios":"levelo://app?vid=6de242c7-ce8d-4d33-bfcc-dc8bc9c9711d"},"vehicle_type_id":"4","last_reported":1722269441,"current_range_meters":0,"station_id":"ce4bh092rcd13ifvqd20","pricing_plan_id":"cebpf4jnsgd1na2vs0mg"},{"bike_id":"f33e4429-0d49-473c-b3f4-4f0d7a0836c9","system_id":"levelo_inurba_marseille","lat":43.292657,"lon":5.384453,"is_reserved":false,"is_disabled":false,"rental_uris":{"android":"levelo://app?vid=f33e4429-0d49-473c-b3f4-4f0d7a0836c9","ios":"levelo://app?vid=f33e4429-0d49-473c-b3f4-4f0d7a0836c9"},"vehicle_type_id":"4","last_reported":1722269441,"current_range_meters":800,"station_id":"ce4bh692rcd13ifvqea0","pricing_plan_id":"cebpf4jnsgd1na2vs0mg"},{"bike_id":"c8051b25-9f76-424a-8c9a-48e795e0e396","system_id":"levelo_inurba_marseille","lat":43.290104,"lon":5.356111,"is_reserved":false,"is_disabled":false,"rental_uris":{"android":"levelo://app?vid=c8051b25-9f76-424a-8c9a-48e795e0e396","ios":"levelo://app?vid=c8051b25-9f76-424a-8c9a-48e795e0e396"},"vehicle_type_id":"4","last_reported":1722269441,"current_range_meters":22800,"station_id":"ce4bhb92rcd13ifvqen0","pricing_plan_id":"cebpf4jnsgd1na2vs0mg"},{"bike_id":"ef23cdbf-f89d-44bc-bf37-cc64e6b33ac4","system_id":"levelo_inurba_marseille","lat":43.290104,"lon":5.356111,"is_reserved":false,"is_disabled":false,"rental_uris":{"android":"levelo://app?vid=ef23cdbf-f89d-44bc-bf37-cc64e6b33ac4","ios":"levelo://app?vid=ef23cdbf-f89d-44bc-bf37-cc64e6b33ac4"},"vehicle_type_id":"4","last_reported":1722269441,"current_range_meters":29600,"station_id":"ce4bhb92rcd13ifvqen0","pricing_plan_id":"cebpf4jnsgd1na2vs0mg"},{"bike_id":"69d6bfa0-086a-4335-8f37-29fe1541bc02","system_id":"levelo_inurba_marseille","lat":43.29004,"lon":5.35609,"is_reserved":false,"is_disabled":false,"rental_uris":{"android":"levelo://app?vid=69d6bfa0-086a-4335-8f37-29fe1541bc02","ios":"levelo://app?vid=69d6bfa0-086a-4335-8f37-29fe1541bc02"},"vehicle_type_id":"4","last_reported":1722269441,"current_range_meters":27200,"station_id":"ce4bhb92rcd13ifvqen0","pricing_plan_id":"cebpf4jnsgd1na2vs0mg"},{"bike_id":"3b33e5fe-1627-4dcc-aa1a-d140a4e43a27","system_id":"levelo_inurba_marseille","lat":43.290995,"lon":5.381361,"is_reserved":false,"is_disabled":false,"rental_uris":{"android":"levelo://app?vid=3b33e5fe-1627-4dcc-aa1a-d140a4e43a27","ios":"levelo://app?vid=3b33e5fe-1627-4dcc-aa1a-d140a4e43a27"},"vehicle_type_id":"4","last_reported":1722269441,"current_range_meters":4400,"station_id":"ce4bh512rcd13ifvqe2g","pricing_plan_id":"cebpf4jnsgd1na2vs0mg"},{"bike_id":"25417acb-ba9a-4c21-a366-007de7dcb9de","system_id":"levelo_inurba_marseille","lat":43.297807,"lon":5.393533,"is_reserved":false,"is_disabled":false,"rental_uris":{"android":"levelo://app?vid=25417acb-ba9a-4c21-a366-007de7dcb9de","ios":"levelo://app?vid=25417acb-ba9a-4c21-a366-007de7dcb9de"},"vehicle_type_id":"4","last_reported":1722269441,"current_range_meters":10000,"station_id":"chh1huq6cuj3fo74tm60","pricing_plan_id":"cebpf4jnsgd1na2vs0mg"},{"bike_id":"3ec5e9e7-9f4c-45c4-8750-ada6b1107123","system_id":"levelo_inurba_marseille","lat":43.297815,"lon":5.393548,"is_reserved":false,"is_disabled":false,"rental_uris":{"android":"levelo://app?vid=3ec5e9e7-9f4c-45c4-8750-ada6b1107123","ios":"levelo://app?vid=3ec5e9e7-9f4c-45c4-8750-ada6b1107123"},"vehicle_type_id":"4","last_reported":1722269441,"current_range_meters":21600,"station_id":"chh1huq6cuj3fo74tm60","pricing_plan_id":"cebpf4jnsgd1na2vs0mg"},{"bike_id":"e15f41c8-3304-4005-9db4-ec1c5b16073c","system_id":"levelo_inurba_marseille","lat":43.297815,"lon":5.393548,"is_reserved":false,"is_disabled":false,"rental_uris":{"android":"levelo://app?vid=e15f41c8-3304-4005-9db4-ec1c5b16073c","ios":"levelo://app?vid=e15f41c8-3304-4005-9db4-ec1c5b16073c"},"vehicle_type_id":"4","last_reported":1722269441,"current_range_meters":6000,"station_id":"chh1huq6cuj3fo74tm60","pricing_plan_id":"cebpf4jnsgd1na2vs0mg"},{"bike_id":"3bf2de60-3e0a-491a-ac6c-9c48e1add48d","system_id":"levelo_inurba_marseille","lat":43.330442,"lon":5.389148,"is_reserved":false,"is_disabled":false,"rental_uris":{"android":"levelo://app?vid=3bf2de60-3e0a-491a-ac6c-9c48e1add48d","ios":"levelo://app?vid=3bf2de60-3e0a-491a-ac6c-9c48e1add48d"},"vehicle_type_id":"4","last_reported":1722269441,"current_range_meters":29200,"station_id":"ce4bhr92rcd13ifvqhrg","pricing_plan_id":"cebpf4jnsgd1na2vs0mg"},{"bike_id":"2736567e-7ac5-46e6-8486-c88d86e9547d","system_id":"levelo_inurba_marseille","lat":43.330442,"lon":5.389148,"is_reserved":false,"is_disabled":false,"rental_uris":{"android":"levelo://app?vid=2736567e-7ac5-46e6-8486-c88d86e9547d","ios":"levelo://app?vid=2736567e-7ac5-46e6-8486-c88d86e9547d"},"vehicle_type_id":"4","last_reported":1722269441,"current_range_meters":0,"station_id":"ce4bhr92rcd13ifvqhrg","pricing_plan_id":"cebpf4jnsgd1na2vs0mg"},{"bike_id":"a8eb8ef8-6822-48fd-b48e-1483166754e6","system_id":"levelo_inurba_marseille","lat":43.330442,"lon":5.389148,"is_reserved":false,"is_disabled":false,"rental_uris":{"android":"levelo://app?vid=a8eb8ef8-6822-48fd-b48e-1483166754e6","ios":"levelo://app?vid=a8eb8ef8-6822-48fd-b48e-1483166754e6"},"vehicle_type_id":"4","last_reported":1722269441,"current_range_meters":4400,"station_id":"ce4bhr92rcd13ifvqhrg","pricing_plan_id":"cebpf4jnsgd1na2vs0mg"},{"bike_id":"c5c27897-ef27-4025-9d42-6c2cbf8bfe64","system_id":"levelo_inurba_marseille","lat":43.2901,"lon":5.381269,"is_reserved":false,"is_disabled":false,"rental_uris":{"android":"levelo://app?vid=c5c27897-ef27-4025-9d42-6c2cbf8bfe64","ios":"levelo://app?vid=c5c27897-ef27-4025-9d42-6c2cbf8bfe64"},"vehicle_type_id":"4","last_reported":1722269441,"current_range_meters":30400,"station_id":"ce4bh4p2rcd13ifvqe1g","pricing_plan_id":"cebpf4jnsgd1na2vs0mg"},{"bike_id":"f4cdf6f8-59cc-4926-bbd3-bf830cd7e7b6","system_id":"levelo_inurba_marseille","lat":43.2901,"lon":5.381269,"is_reserved":false,"is_disabled":false,"rental_uris":{"android":"levelo://app?vid=f4cdf6f8-59cc-4926-bbd3-bf830cd7e7b6","ios":"levelo://app?vid=f4cdf6f8-59cc-4926-bbd3-bf830cd7e7b6"},"vehicle_type_id":"4","last_reported":1722269441,"current_range_meters":24800,"station_id":"ce4bh4p2rcd13ifvqe1g","pricing_plan_id":"cebpf4jnsgd1na2vs0mg"},{"bike_id":"01eaa8e0-3fcf-45ee-bb1d-efe63267a715","system_id":"levelo_inurba_marseille","lat":43.310673,"lon":5.400944,"is_reserved":false,"is_disabled":false,"rental_uris":{"android":"levelo://app?vid=01eaa8e0-3fcf-45ee-bb1d-efe63267a715","ios":"levelo://app?vid=01eaa8e0-3fcf-45ee-bb1d-efe63267a715"},"vehicle_type_id":"4","last_reported":1722269441,"current_range_meters":16400,"station_id":"","pricing_plan_id":"cebpf4jnsgd1na2vs0mg"},{"bike_id":"511682c0-c155-4565-ac68-26663266dcfa","system_id":"levelo_inurba_marseille","lat":43.28856,"lon":5.358371,"is_reserved":false,"is_disabled":false,"rental_uris":{"android":"levelo://app?vid=511682c0-c155-4565-ac68-26663266dcfa","ios":"levelo://app?vid=511682c0-c155-4565-ac68-26663266dcfa"},"vehicle_type_id":"4","last_reported":1722269441,"current_range_meters":1200,"station_id":"ce4bhb12rcd13ifvqem0","pricing_plan_id":"cebpf4jnsgd1na2vs0mg"},{"bike_id":"bc139bf4-54fa-4e19-864f-a60b05fdd383","system_id":"levelo_inurba_marseille","lat":43.309371,"lon":5.401449,"is_reserved":false,"is_disabled":false,"rental_uris":{"android":"levelo://app?vid=bc139bf4-54fa-4e19-864f-a60b05fdd383","ios":"levelo://app?vid=bc139bf4-54fa-4e19-864f-a60b05fdd383"},"vehicle_type_id":"4","last_reported":1722269441,"current_range_meters":0,"station_id":"ce4bgvp2rcd13ifvqct0","pricing_plan_id":"cebpf4jnsgd1na2vs0mg"},{"bike_id":"0947d520-5902-43d2-9e61-47bf12ff75f9","system_id":"levelo_inurba_marseille","lat":43.337553,"lon":5.374554,"is_reserved":false,"is_disabled":false,"rental_uris":{"android":"levelo://app?vid=0947d520-5902-43d2-9e61-47bf12ff75f9","ios":"levelo://app?vid=0947d520-5902-43d2-9e61-47bf12ff75f9"},"vehicle_type_id":"4","last_reported":1722269441,"current_range_meters":22000,"station_id":"","pricing_plan_id":"cebpf4jnsgd1na2vs0mg"},{"bike_id":"e3753efd-cf25-45a9-9caf-c2557d1c1212","system_id":"levelo_inurba_marseille","lat":43.301117,"lon":5.398795,"is_reserved":false,"is_disabled":false,"rental_uris":{"android":"levelo://app?vid=e3753efd-cf25-45a9-9caf-c2557d1c1212","ios":"levelo://app?vid=e3753efd-cf25-45a9-9caf-c2557d1c1212"},"vehicle_type_id":"4","last_reported":1722269441,"current_range_meters":0,"station_id":"ce4bh0h2rcd13ifvqd40","pricing_plan_id":"cebpf4jnsgd1na2vs0mg"},{"bike_id":"c0ea79c5-4115-4734-8b22-f8b01bda5f64","system_id":"levelo_inurba_marseille","lat":43.286591,"lon":5.363346,"is_reserved":false,"is_disabled":false,"rental_uris":{"android":"levelo://app?vid=c0ea79c5-4115-4734-8b22-f8b01bda5f64","ios":"levelo://app?vid=c0ea79c5-4115-4734-8b22-f8b01bda5f64"},"vehicle_type_id":"4","last_reported":1722269441,"current_range_meters":400,"station_id":"ce4bhah2rcd13ifvqej0","pricing_plan_id":"cebpf4jnsgd1na2vs0mg"},{"bike_id":"26a1e015-47c6-41fa-a5b6-f54555433dd5","system_id":"levelo_inurba_marseille","lat":43.286593,"lon":5.363346,"is_reserved":false,"is_disabled":false,"rental_uris":{"android":"levelo://app?vid=26a1e015-47c6-41fa-a5b6-f54555433dd5","ios":"levelo://app?vid=26a1e015-47c6-41fa-a5b6-f54555433dd5"},"vehicle_type_id":"4","last_reported":1722269441,"current_range_meters":1200,"station_id":"ce4bhah2rcd13ifvqej0","pricing_plan_id":"cebpf4jnsgd1na2vs0mg"},{"bike_id":"1d83b843-660b-4e92-a71c-2998bfcd81c6","system_id":"levelo_inurba_marseille","lat":43.286591,"lon":5.363346,"is_reserved":false,"is_disabled":false,"rental_uris":{"android":"levelo://app?vid=1d83b843-660b-4e92-a71c-2998bfcd81c6","ios":"levelo://app?vid=1d83b843-660b-4e92-a71c-2998bfcd81c6"},"vehicle_type_id":"4","last_reported":1722269441,"current_range_meters":28000,"station_id":"ce4bhah2rcd13ifvqej0","pricing_plan_id":"cebpf4jnsgd1na2vs0mg"},{"bike_id":"dbacc057-2b19-4c62-9512-cf6968f898ba","system_id":"levelo_inurba_marseille","lat":43.290336,"lon":5.386425,"is_reserved":false,"is_disabled":false,"rental_uris":{"android":"levelo://app?vid=dbacc057-2b19-4c62-9512-cf6968f898ba","ios":"levelo://app?vid=dbacc057-2b19-4c62-9512-cf6968f898ba"},"vehicle_type_id":"4","last_reported":1722269441,"current_range_meters":400,"station_id":"ce4bh4p2rcd13ifvqe0g","pricing_plan_id":"cebpf4jnsgd1na2vs0mg"},{"bike_id":"d77d6941-10e3-40a3-8a42-c8256f83059d","system_id":"levelo_inurba_marseille","lat":43.302759,"lon":5.400793,"is_reserved":false,"is_disabled":false,"rental_uris":{"android":"levelo://app?vid=d77d6941-10e3-40a3-8a42-c8256f83059d","ios":"levelo://app?vid=d77d6941-10e3-40a3-8a42-c8256f83059d"},"vehicle_type_id":"4","last_reported":1722269441,"current_range_meters":0,"station_id":"ce4bgvh2rcd13ifvqcs0","pricing_plan_id":"cebpf4jnsgd1na2vs0mg"},{"bike_id":"2ab545ea-5cd4-481d-9f77-6fca015133f5","system_id":"levelo_inurba_marseille","lat":43.30251,"lon":5.40085,"is_reserved":false,"is_disabled":false,"rental_uris":{"android":"levelo://app?vid=2ab545ea-5cd4-481d-9f77-6fca015133f5","ios":"levelo://app?vid=2ab545ea-5cd4-481d-9f77-6fca015133f5"},"vehicle_type_id":"4","last_reported":1722269441,"current_range_meters":0,"station_id":"ce4bgvh2rcd13ifvqcs0","pricing_plan_id":"cebpf4jnsgd1na2vs0mg"},{"bike_id":"6e264004-61ef-4998-9134-962bc6b70bc1","system_id":"levelo_inurba_marseille","lat":43.286074,"lon":5.370631,"is_reserved":false,"is_disabled":false,"rental_uris":{"android":"levelo://app?vid=6e264004-61ef-4998-9134-962bc6b70bc1","ios":"levelo://app?vid=6e264004-61ef-4998-9134-962bc6b70bc1"},"vehicle_type_id":"4","last_reported":1722269441,"current_range_meters":0,"station_id":"","pricing_plan_id":"cebpf4jnsgd1na2vs0mg"},{"bike_id":"190402e3-b43b-4dc5-ab49-9d4f475def54","system_id":"levelo_inurba_marseille","lat":43.287047,"lon":5.379573,"is_reserved":false,"is_disabled":false,"rental_uris":{"android":"levelo://app?vid=190402e3-b43b-4dc5-ab49-9d4f475def54","ios":"levelo://app?vid=190402e3-b43b-4dc5-ab49-9d4f475def54"},"vehicle_type_id":"4","last_reported":1722269441,"current_range_meters":13200,"station_id":"ce4bh9p2rcd13ifvqec0","pricing_plan_id":"cebpf4jnsgd1na2vs0mg"},{"bike_id":"b84ff4eb-dbe9-44bc-a7fb-aa66d82c340c","system_id":"levelo_inurba_marseille","lat":43.286512,"lon":5.351537,"is_reserved":false,"is_disabled":false,"rental_uris":{"android":"levelo://app?vid=b84ff4eb-dbe9-44bc-a7fb-aa66d82c340c","ios":"levelo://app?vid=b84ff4eb-dbe9-44bc-a7fb-aa66d82c340c"},"vehicle_type_id":"4","last_reported":1722269441,"current_range_meters":12000,"station_id":"","pricing_plan_id":"cebpf4jnsgd1na2vs0mg"},{"bike_id":"da8bde8e-5313-4cce-86ff-815cf6aef072","system_id":"levelo_inurba_marseille","lat":43.294314,"lon":5.397498,"is_reserved":false,"is_disabled":false,"rental_uris":{"android":"levelo://app?vid=da8bde8e-5313-4cce-86ff-815cf6aef072","ios":"levelo://app?vid=da8bde8e-5313-4cce-86ff-815cf6aef072"},"vehicle_type_id":"4","last_reported":1722269441,"current_range_meters":4000,"station_id":"ce4bh3h2rcd13ifvqdo0","pricing_plan_id":"cebpf4jnsgd1na2vs0mg"},{"bike_id":"2e5d8caa-984b-4b88-9608-bf2e8d6891f1","system_id":"levelo_inurba_marseille","lat":43.294314,"lon":5.397498,"is_reserved":false,"is_disabled":false,"rental_uris":{"android":"levelo://app?vid=2e5d8caa-984b-4b88-9608-bf2e8d6891f1","ios":"levelo://app?vid=2e5d8caa-984b-4b88-9608-bf2e8d6891f1"},"vehicle_type_id":"4","last_reported":1722269441,"current_range_meters":0,"station_id":"ce4bh3h2rcd13ifvqdo0","pricing_plan_id":"cebpf4jnsgd1na2vs0mg"},{"bike_id":"11654a26-840e-4de5-a741-e9af9a219c6a","system_id":"levelo_inurba_marseille","lat":43.294314,"lon":5.397498,"is_reserved":false,"is_disabled":false,"rental_uris":{"android":"levelo://app?vid=11654a26-840e-4de5-a741-e9af9a219c6a","ios":"levelo://app?vid=11654a26-840e-4de5-a741-e9af9a219c6a"},"vehicle_type_id":"4","last_reported":1722269441,"current_range_meters":1200,"station_id":"ce4bh3h2rcd13ifvqdo0","pricing_plan_id":"cebpf4jnsgd1na2vs0mg"},{"bike_id":"6fcf59f1-f33c-4537-9a5a-c1d3fef04133","system_id":"levelo_inurba_marseille","lat":43.28623,"lon":5.3511,"is_reserved":false,"is_disabled":false,"rental_uris":{"android":"levelo://app?vid=6fcf59f1-f33c-4537-9a5a-c1d3fef04133","ios":"levelo://app?vid=6fcf59f1-f33c-4537-9a5a-c1d3fef04133"},"vehicle_type_id":"4","last_reported":1722269441,"current_range_meters":16800,"station_id":"ce4bhch2rcd13ifvqeug","pricing_plan_id":"cebpf4jnsgd1na2vs0mg"},{"bike_id":"26ee38cd-a806-4c89-a0df-58a7e608e070","system_id":"levelo_inurba_marseille","lat":43.294314,"lon":5.397498,"is_reserved":false,"is_disabled":false,"rental_uris":{"android":"levelo://app?vid=26ee38cd-a806-4c89-a0df-58a7e608e070","ios":"levelo://app?vid=26ee38cd-a806-4c89-a0df-58a7e608e070"},"vehicle_type_id":"4","last_reported":1722269441,"current_range_meters":23200,"station_id":"ce4bh3h2rcd13ifvqdo0","pricing_plan_id":"cebpf4jnsgd1na2vs0mg"},{"bike_id":"2b572ee7-fbc4-4ba8-b819-b3288c331aa8","system_id":"levelo_inurba_marseille","lat":43.294314,"lon":5.397498,"is_reserved":false,"is_disabled":false,"rental_uris":{"android":"levelo://app?vid=2b572ee7-fbc4-4ba8-b819-b3288c331aa8","ios":"levelo://app?vid=2b572ee7-fbc4-4ba8-b819-b3288c331aa8"},"vehicle_type_id":"4","last_reported":1722269441,"current_range_meters":0,"station_id":"ce4bh3h2rcd13ifvqdo0","pricing_plan_id":"cebpf4jnsgd1na2vs0mg"},{"bike_id":"e5677fc2-f1fe-4e9d-9b62-8c1dff5de1ca","system_id":"levelo_inurba_marseille","lat":43.2862,"lon":5.3511,"is_reserved":false,"is_disabled":false,"rental_uris":{"android":"levelo://app?vid=e5677fc2-f1fe-4e9d-9b62-8c1dff5de1ca","ios":"levelo://app?vid=e5677fc2-f1fe-4e9d-9b62-8c1dff5de1ca"},"vehicle_type_id":"4","last_reported":1722269441,"current_range_meters":12000,"station_id":"ce4bhch2rcd13ifvqeug","pricing_plan_id":"cebpf4jnsgd1na2vs0mg"},{"bike_id":"d0e9d361-f845-4fcc-867e-7473a8a9640f","system_id":"levelo_inurba_marseille","lat":43.28616,"lon":5.35114,"is_reserved":false,"is_disabled":false,"rental_uris":{"android":"levelo://app?vid=d0e9d361-f845-4fcc-867e-7473a8a9640f","ios":"levelo://app?vid=d0e9d361-f845-4fcc-867e-7473a8a9640f"},"vehicle_type_id":"4","last_reported":1722269441,"current_range_meters":16800,"station_id":"ce4bhch2rcd13ifvqeug","pricing_plan_id":"cebpf4jnsgd1na2vs0mg"},{"bike_id":"7d2198a0-f726-4226-9e04-3fe39ae8ac17","system_id":"levelo_inurba_marseille","lat":43.2862,"lon":5.35101,"is_reserved":false,"is_disabled":false,"rental_uris":{"android":"levelo://app?vid=7d2198a0-f726-4226-9e04-3fe39ae8ac17","ios":"levelo://app?vid=7d2198a0-f726-4226-9e04-3fe39ae8ac17"},"vehicle_type_id":"4","last_reported":1722269441,"current_range_meters":12800,"station_id":"ce4bhch2rcd13ifvqeug","pricing_plan_id":"cebpf4jnsgd1na2vs0mg"},{"bike_id":"76580cb6-400e-4fb6-90fc-5afda72aad75","system_id":"levelo_inurba_marseille","lat":43.28617,"lon":5.3511,"is_reserved":false,"is_disabled":false,"rental_uris":{"android":"levelo://app?vid=76580cb6-400e-4fb6-90fc-5afda72aad75","ios":"levelo://app?vid=76580cb6-400e-4fb6-90fc-5afda72aad75"},"vehicle_type_id":"4","last_reported":1722269441,"current_range_meters":0,"station_id":"ce4bhch2rcd13ifvqeug","pricing_plan_id":"cebpf4jnsgd1na2vs0mg"},{"bike_id":"e788bea9-78fa-4bff-a03c-25f95b02bded","system_id":"levelo_inurba_marseille","lat":43.28619,"lon":5.35103,"is_reserved":false,"is_disabled":false,"rental_uris":{"android":"levelo://app?vid=e788bea9-78fa-4bff-a03c-25f95b02bded","ios":"levelo://app?vid=e788bea9-78fa-4bff-a03c-25f95b02bded"},"vehicle_type_id":"4","last_reported":1722269441,"current_range_meters":3200,"station_id":"ce4bhch2rcd13ifvqeug","pricing_plan_id":"cebpf4jnsgd1na2vs0mg"},{"bike_id":"9fbb2d46-1d96-43cb-9505-910878229531","system_id":"levelo_inurba_marseille","lat":43.283494,"lon":5.380945,"is_reserved":false,"is_disabled":false,"rental_uris":{"android":"levelo://app?vid=9fbb2d46-1d96-43cb-9505-910878229531","ios":"levelo://app?vid=9fbb2d46-1d96-43cb-9505-910878229531"},"vehicle_type_id":"4","last_reported":1722269441,"current_range_meters":11200,"station_id":"ce4bh412rcd13ifvqdr0","pricing_plan_id":"cebpf4jnsgd1na2vs0mg"},{"bike_id":"23b9ce9c-59f7-46bd-becb-51f57df9f642","system_id":"levelo_inurba_marseille","lat":43.28616,"lon":5.3511,"is_reserved":false,"is_disabled":false,"rental_uris":{"android":"levelo://app?vid=23b9ce9c-59f7-46bd-becb-51f57df9f642","ios":"levelo://app?vid=23b9ce9c-59f7-46bd-becb-51f57df9f642"},"vehicle_type_id":"4","last_reported":1722269441,"current_range_meters":18800,"station_id":"ce4bhch2rcd13ifvqeug","pricing_plan_id":"cebpf4jnsgd1na2vs0mg"},{"bike_id":"ef4368ab-90bc-496a-886e-1ed793607988","system_id":"levelo_inurba_marseille","lat":43.28616,"lon":5.35109,"is_reserved":false,"is_disabled":false,"rental_uris":{"android":"levelo://app?vid=ef4368ab-90bc-496a-886e-1ed793607988","ios":"levelo://app?vid=ef4368ab-90bc-496a-886e-1ed793607988"},"vehicle_type_id":"4","last_reported":1722269441,"current_range_meters":6400,"station_id":"ce4bhch2rcd13ifvqeug","pricing_plan_id":"cebpf4jnsgd1na2vs0mg"},{"bike_id":"3744bc4c-b0f3-4f1e-b4d1-0f566fa9343e","system_id":"levelo_inurba_marseille","lat":43.28617,"lon":5.35105,"is_reserved":false,"is_disabled":false,"rental_uris":{"android":"levelo://app?vid=3744bc4c-b0f3-4f1e-b4d1-0f566fa9343e","ios":"levelo://app?vid=3744bc4c-b0f3-4f1e-b4d1-0f566fa9343e"},"vehicle_type_id":"4","last_reported":1722269441,"current_range_meters":27600,"station_id":"ce4bhch2rcd13ifvqeug","pricing_plan_id":"cebpf4jnsgd1na2vs0mg"},{"bike_id":"2b0d79d4-6eb5-47c7-a663-09e87be290e0","system_id":"levelo_inurba_marseille","lat":43.28617,"lon":5.35105,"is_reserved":false,"is_disabled":false,"rental_uris":{"android":"levelo://app?vid=2b0d79d4-6eb5-47c7-a663-09e87be290e0","ios":"levelo://app?vid=2b0d79d4-6eb5-47c7-a663-09e87be290e0"},"vehicle_type_id":"4","last_reported":1722269441,"current_range_meters":18800,"station_id":"ce4bhch2rcd13ifvqeug","pricing_plan_id":"cebpf4jnsgd1na2vs0mg"},{"bike_id":"ebdb3013-edf3-443a-9f6f-70d087895fe6","system_id":"levelo_inurba_marseille","lat":43.28616,"lon":5.35108,"is_reserved":false,"is_disabled":false,"rental_uris":{"android":"levelo://app?vid=ebdb3013-edf3-443a-9f6f-70d087895fe6","ios":"levelo://app?vid=ebdb3013-edf3-443a-9f6f-70d087895fe6"},"vehicle_type_id":"4","last_reported":1722269441,"current_range_meters":0,"station_id":"ce4bhch2rcd13ifvqeug","pricing_plan_id":"cebpf4jnsgd1na2vs0mg"},{"bike_id":"06132c2b-f3d1-4dcc-bea9-150a7087c871","system_id":"levelo_inurba_marseille","lat":43.294314,"lon":5.397498,"is_reserved":false,"is_disabled":false,"rental_uris":{"android":"levelo://app?vid=06132c2b-f3d1-4dcc-bea9-150a7087c871","ios":"levelo://app?vid=06132c2b-f3d1-4dcc-bea9-150a7087c871"},"vehicle_type_id":"4","last_reported":1722269441,"current_range_meters":10400,"station_id":"ce4bh3h2rcd13ifvqdo0","pricing_plan_id":"cebpf4jnsgd1na2vs0mg"},{"bike_id":"87914a30-d53d-4fe2-82ee-7f43ad2a14d0","system_id":"levelo_inurba_marseille","lat":43.28613,"lon":5.35115,"is_reserved":false,"is_disabled":false,"rental_uris":{"android":"levelo://app?vid=87914a30-d53d-4fe2-82ee-7f43ad2a14d0","ios":"levelo://app?vid=87914a30-d53d-4fe2-82ee-7f43ad2a14d0"},"vehicle_type_id":"4","last_reported":1722269441,"current_range_meters":11600,"station_id":"ce4bhch2rcd13ifvqeug","pricing_plan_id":"cebpf4jnsgd1na2vs0mg"},{"bike_id":"f15af144-1845-4d82-be89-1fc620b3c906","system_id":"levelo_inurba_marseille","lat":43.28616,"lon":5.35105,"is_reserved":false,"is_disabled":false,"rental_uris":{"android":"levelo://app?vid=f15af144-1845-4d82-be89-1fc620b3c906","ios":"levelo://app?vid=f15af144-1845-4d82-be89-1fc620b3c906"},"vehicle_type_id":"4","last_reported":1722269441,"current_range_meters":17600,"station_id":"ce4bhch2rcd13ifvqeug","pricing_plan_id":"cebpf4jnsgd1na2vs0mg"},{"bike_id":"957e7bd7-c168-4b5c-b1df-db2dbc4d879e","system_id":"levelo_inurba_marseille","lat":43.28618,"lon":5.35098,"is_reserved":false,"is_disabled":false,"rental_uris":{"android":"levelo://app?vid=957e7bd7-c168-4b5c-b1df-db2dbc4d879e","ios":"levelo://app?vid=957e7bd7-c168-4b5c-b1df-db2dbc4d879e"},"vehicle_type_id":"4","last_reported":1722269441,"current_range_meters":0,"station_id":"ce4bhch2rcd13ifvqeug","pricing_plan_id":"cebpf4jnsgd1na2vs0mg"},{"bike_id":"0e40599e-0868-4638-9302-cfb699be11dd","system_id":"levelo_inurba_marseille","lat":43.28617,"lon":5.35101,"is_reserved":false,"is_disabled":false,"rental_uris":{"android":"levelo://app?vid=0e40599e-0868-4638-9302-cfb699be11dd","ios":"levelo://app?vid=0e40599e-0868-4638-9302-cfb699be11dd"},"vehicle_type_id":"4","last_reported":1722269441,"current_range_meters":6400,"station_id":"ce4bhch2rcd13ifvqeug","pricing_plan_id":"cebpf4jnsgd1na2vs0mg"},{"bike_id":"4018fe28-ccc9-4d8b-9d17-7cda76a0e940","system_id":"levelo_inurba_marseille","lat":43.28616,"lon":5.35103,"is_reserved":false,"is_disabled":false,"rental_uris":{"android":"levelo://app?vid=4018fe28-ccc9-4d8b-9d17-7cda76a0e940","ios":"levelo://app?vid=4018fe28-ccc9-4d8b-9d17-7cda76a0e940"},"vehicle_type_id":"4","last_reported":1722269441,"current_range_meters":26000,"station_id":"ce4bhch2rcd13ifvqeug","pricing_plan_id":"cebpf4jnsgd1na2vs0mg"},{"bike_id":"2128bdd9-95ae-47ec-ac2e-6cea44e682f5","system_id":"levelo_inurba_marseille","lat":43.28617,"lon":5.35099,"is_reserved":false,"is_disabled":false,"rental_uris":{"android":"levelo://app?vid=2128bdd9-95ae-47ec-ac2e-6cea44e682f5","ios":"levelo://app?vid=2128bdd9-95ae-47ec-ac2e-6cea44e682f5"},"vehicle_type_id":"4","last_reported":1722269441,"current_range_meters":17600,"station_id":"ce4bhch2rcd13ifvqeug","pricing_plan_id":"cebpf4jnsgd1na2vs0mg"},{"bike_id":"430d6b0a-4ba3-4ace-ade4-67c5514ff2b2","system_id":"levelo_inurba_marseille","lat":43.28613,"lon":5.35111,"is_reserved":false,"is_disabled":false,"rental_uris":{"android":"levelo://app?vid=430d6b0a-4ba3-4ace-ade4-67c5514ff2b2","ios":"levelo://app?vid=430d6b0a-4ba3-4ace-ade4-67c5514ff2b2"},"vehicle_type_id":"4","last_reported":1722269441,"current_range_meters":31200,"station_id":"ce4bhch2rcd13ifvqeug","pricing_plan_id":"cebpf4jnsgd1na2vs0mg"},{"bike_id":"548c2f3b-9a71-491c-859d-e578d604d6b0","system_id":"levelo_inurba_marseille","lat":43.285856,"lon":5.350771,"is_reserved":false,"is_disabled":false,"rental_uris":{"android":"levelo://app?vid=548c2f3b-9a71-491c-859d-e578d604d6b0","ios":"levelo://app?vid=548c2f3b-9a71-491c-859d-e578d604d6b0"},"vehicle_type_id":"4","last_reported":1722269441,"current_range_meters":29600,"station_id":"ce4bhch2rcd13ifvqeug","pricing_plan_id":"cebpf4jnsgd1na2vs0mg"},{"bike_id":"56ac50bb-a600-4366-b659-e9fa91ae410d","system_id":"levelo_inurba_marseille","lat":43.28615,"lon":5.35102,"is_reserved":false,"is_disabled":false,"rental_uris":{"android":"levelo://app?vid=56ac50bb-a600-4366-b659-e9fa91ae410d","ios":"levelo://app?vid=56ac50bb-a600-4366-b659-e9fa91ae410d"},"vehicle_type_id":"4","last_reported":1722269441,"current_range_meters":9200,"station_id":"ce4bhch2rcd13ifvqeug","pricing_plan_id":"cebpf4jnsgd1na2vs0mg"},{"bike_id":"86e0ee2c-a1ac-44c9-952f-ecb2e4fb0cab","system_id":"levelo_inurba_marseille","lat":43.286125,"lon":5.351095,"is_reserved":false,"is_disabled":false,"rental_uris":{"android":"levelo://app?vid=86e0ee2c-a1ac-44c9-952f-ecb2e4fb0cab","ios":"levelo://app?vid=86e0ee2c-a1ac-44c9-952f-ecb2e4fb0cab"},"vehicle_type_id":"4","last_reported":1722269441,"current_range_meters":4000,"station_id":"ce4bhch2rcd13ifvqeug","pricing_plan_id":"cebpf4jnsgd1na2vs0mg"},{"bike_id":"b3d3ea15-c422-4a16-949c-c29058b6a005","system_id":"levelo_inurba_marseille","lat":43.28617,"lon":5.35094,"is_reserved":false,"is_disabled":false,"rental_uris":{"android":"levelo://app?vid=b3d3ea15-c422-4a16-949c-c29058b6a005","ios":"levelo://app?vid=b3d3ea15-c422-4a16-949c-c29058b6a005"},"vehicle_type_id":"4","last_reported":1722269441,"current_range_meters":1600,"station_id":"ce4bhch2rcd13ifvqeug","pricing_plan_id":"cebpf4jnsgd1na2vs0mg"},{"bike_id":"5572c660-4b6a-4cb1-ab3a-b0e3ae1cc9bb","system_id":"levelo_inurba_marseille","lat":43.28615,"lon":5.351,"is_reserved":false,"is_disabled":false,"rental_uris":{"android":"levelo://app?vid=5572c660-4b6a-4cb1-ab3a-b0e3ae1cc9bb","ios":"levelo://app?vid=5572c660-4b6a-4cb1-ab3a-b0e3ae1cc9bb"},"vehicle_type_id":"4","last_reported":1722269441,"current_range_meters":22000,"station_id":"ce4bhch2rcd13ifvqeug","pricing_plan_id":"cebpf4jnsgd1na2vs0mg"},{"bike_id":"7179b9b2-0cb6-443c-9b5e-eb94388aa9e3","system_id":"levelo_inurba_marseille","lat":43.28613,"lon":5.35105,"is_reserved":false,"is_disabled":false,"rental_uris":{"android":"levelo://app?vid=7179b9b2-0cb6-443c-9b5e-eb94388aa9e3","ios":"levelo://app?vid=7179b9b2-0cb6-443c-9b5e-eb94388aa9e3"},"vehicle_type_id":"4","last_reported":1722269441,"current_range_meters":28400,"station_id":"","pricing_plan_id":"cebpf4jnsgd1na2vs0mg"},{"bike_id":"f024b7d7-18f5-48ce-b1b3-00f8fb0e6b0d","system_id":"levelo_inurba_marseille","lat":43.28611,"lon":5.35106,"is_reserved":false,"is_disabled":false,"rental_uris":{"android":"levelo://app?vid=f024b7d7-18f5-48ce-b1b3-00f8fb0e6b0d","ios":"levelo://app?vid=f024b7d7-18f5-48ce-b1b3-00f8fb0e6b0d"},"vehicle_type_id":"4","last_reported":1722269441,"current_range_meters":14000,"station_id":"ce4bhch2rcd13ifvqeug","pricing_plan_id":"cebpf4jnsgd1na2vs0mg"},{"bike_id":"cd7c5792-af43-487b-bccb-bce112664a82","system_id":"levelo_inurba_marseille","lat":43.285856,"lon":5.350771,"is_reserved":false,"is_disabled":false,"rental_uris":{"android":"levelo://app?vid=cd7c5792-af43-487b-bccb-bce112664a82","ios":"levelo://app?vid=cd7c5792-af43-487b-bccb-bce112664a82"},"vehicle_type_id":"4","last_reported":1722269441,"current_range_meters":8000,"station_id":"ce4bhch2rcd13ifvqeug","pricing_plan_id":"cebpf4jnsgd1na2vs0mg"},{"bike_id":"9137cc5b-8bbd-461c-a046-222893d82d49","system_id":"levelo_inurba_marseille","lat":43.28609,"lon":5.35106,"is_reserved":false,"is_disabled":false,"rental_uris":{"android":"levelo://app?vid=9137cc5b-8bbd-461c-a046-222893d82d49","ios":"levelo://app?vid=9137cc5b-8bbd-461c-a046-222893d82d49"},"vehicle_type_id":"4","last_reported":1722269441,"current_range_meters":19600,"station_id":"ce4bhch2rcd13ifvqeug","pricing_plan_id":"cebpf4jnsgd1na2vs0mg"},{"bike_id":"345a88e7-5c27-4d27-9277-0614c056dbc7","system_id":"levelo_inurba_marseille","lat":43.29957,"lon":5.40259,"is_reserved":false,"is_disabled":false,"rental_uris":{"android":"levelo://app?vid=345a88e7-5c27-4d27-9277-0614c056dbc7","ios":"levelo://app?vid=345a88e7-5c27-4d27-9277-0614c056dbc7"},"vehicle_type_id":"4","last_reported":1722269441,"current_range_meters":26000,"station_id":"","pricing_plan_id":"cebpf4jnsgd1na2vs0mg"},{"bike_id":"7dc20b5c-3717-4a4c-b886-98e15b4d9d91","system_id":"levelo_inurba_marseille","lat":43.283998,"lon":5.375062,"is_reserved":false,"is_disabled":false,"rental_uris":{"android":"levelo://app?vid=7dc20b5c-3717-4a4c-b886-98e15b4d9d91","ios":"levelo://app?vid=7dc20b5c-3717-4a4c-b886-98e15b4d9d91"},"vehicle_type_id":"4","last_reported":1722269441,"current_range_meters":0,"station_id":"ce4bh412rcd13ifvqds0","pricing_plan_id":"cebpf4jnsgd1na2vs0mg"},{"bike_id":"8a7f54a0-cd86-416e-81e8-500359c1d769","system_id":"levelo_inurba_marseille","lat":43.299547,"lon":5.40289,"is_reserved":false,"is_disabled":false,"rental_uris":{"android":"levelo://app?vid=8a7f54a0-cd86-416e-81e8-500359c1d769","ios":"levelo://app?vid=8a7f54a0-cd86-416e-81e8-500359c1d769"},"vehicle_type_id":"4","last_reported":1722269441,"current_range_meters":31200,"station_id":"","pricing_plan_id":"cebpf4jnsgd1na2vs0mg"},{"bike_id":"65ced017-f17e-454c-bb87-38a1948265cc","system_id":"levelo_inurba_marseille","lat":43.28402,"lon":5.37516,"is_reserved":false,"is_disabled":false,"rental_uris":{"android":"levelo://app?vid=65ced017-f17e-454c-bb87-38a1948265cc","ios":"levelo://app?vid=65ced017-f17e-454c-bb87-38a1948265cc"},"vehicle_type_id":"4","last_reported":1722269441,"current_range_meters":0,"station_id":"ce4bh412rcd13ifvqds0","pricing_plan_id":"cebpf4jnsgd1na2vs0mg"},{"bike_id":"83818d92-c000-42ca-ad63-6ad802d6085d","system_id":"levelo_inurba_marseille","lat":43.295713,"lon":5.399639,"is_reserved":false,"is_disabled":false,"rental_uris":{"android":"levelo://app?vid=83818d92-c000-42ca-ad63-6ad802d6085d","ios":"levelo://app?vid=83818d92-c000-42ca-ad63-6ad802d6085d"},"vehicle_type_id":"4","last_reported":1722269441,"current_range_meters":25200,"station_id":"ce4bh312rcd13ifvqdj0","pricing_plan_id":"cebpf4jnsgd1na2vs0mg"},{"bike_id":"d3b1f28f-ea9a-4dce-87eb-4b3ba8b25917","system_id":"levelo_inurba_marseille","lat":43.299448,"lon":5.402994,"is_reserved":false,"is_disabled":false,"rental_uris":{"android":"levelo://app?vid=d3b1f28f-ea9a-4dce-87eb-4b3ba8b25917","ios":"levelo://app?vid=d3b1f28f-ea9a-4dce-87eb-4b3ba8b25917"},"vehicle_type_id":"4","last_reported":1722269441,"current_range_meters":31200,"station_id":"","pricing_plan_id":"cebpf4jnsgd1na2vs0mg"},{"bike_id":"7bbe1875-6dc4-422f-8b38-a5aa9ef6fd9b","system_id":"levelo_inurba_marseille","lat":43.286595,"lon":5.386795,"is_reserved":false,"is_disabled":false,"rental_uris":{"android":"levelo://app?vid=7bbe1875-6dc4-422f-8b38-a5aa9ef6fd9b","ios":"levelo://app?vid=7bbe1875-6dc4-422f-8b38-a5aa9ef6fd9b"},"vehicle_type_id":"4","last_reported":1722269441,"current_range_meters":0,"station_id":"ce4bh492rcd13ifvqdug","pricing_plan_id":"cebpf4jnsgd1na2vs0mg"},{"bike_id":"5bdd6bc8-bfc1-4691-8352-1c25377f724c","system_id":"levelo_inurba_marseille","lat":43.323464,"lon":5.406297,"is_reserved":false,"is_disabled":false,"rental_uris":{"android":"levelo://app?vid=5bdd6bc8-bfc1-4691-8352-1c25377f724c","ios":"levelo://app?vid=5bdd6bc8-bfc1-4691-8352-1c25377f724c"},"vehicle_type_id":"4","last_reported":1722269441,"current_range_meters":27200,"station_id":"ce4bhq92rcd13ifvqhjg","pricing_plan_id":"cebpf4jnsgd1na2vs0mg"},{"bike_id":"012e5248-2eba-4058-910f-855904a27898","system_id":"levelo_inurba_marseille","lat":43.2848,"lon":5.38416,"is_reserved":false,"is_disabled":false,"rental_uris":{"android":"levelo://app?vid=012e5248-2eba-4058-910f-855904a27898","ios":"levelo://app?vid=012e5248-2eba-4058-910f-855904a27898"},"vehicle_type_id":"4","last_reported":1722269441,"current_range_meters":0,"station_id":"ce4bh512rcd13ifvqe3g","pricing_plan_id":"cebpf4jnsgd1na2vs0mg"},{"bike_id":"19140e68-652c-4fc7-a454-1c271c99b822","system_id":"levelo_inurba_marseille","lat":43.284787,"lon":5.384116,"is_reserved":false,"is_disabled":false,"rental_uris":{"android":"levelo://app?vid=19140e68-652c-4fc7-a454-1c271c99b822","ios":"levelo://app?vid=19140e68-652c-4fc7-a454-1c271c99b822"},"vehicle_type_id":"4","last_reported":1722269441,"current_range_meters":11600,"station_id":"ce4bh512rcd13ifvqe3g","pricing_plan_id":"cebpf4jnsgd1na2vs0mg"},{"bike_id":"cf09c76a-7609-4815-a213-90e4b757e406","system_id":"levelo_inurba_marseille","lat":43.297946,"lon":5.404063,"is_reserved":false,"is_disabled":false,"rental_uris":{"android":"levelo://app?vid=cf09c76a-7609-4815-a213-90e4b757e406","ios":"levelo://app?vid=cf09c76a-7609-4815-a213-90e4b757e406"},"vehicle_type_id":"4","last_reported":1722269441,"current_range_meters":23600,"station_id":"ce4bh112rcd13ifvqd90","pricing_plan_id":"cebpf4jnsgd1na2vs0mg"},{"bike_id":"ce72fb3d-bcad-4ff9-a913-88e9d895e0c8","system_id":"levelo_inurba_marseille","lat":43.29795,"lon":5.404086,"is_reserved":false,"is_disabled":false,"rental_uris":{"android":"levelo://app?vid=ce72fb3d-bcad-4ff9-a913-88e9d895e0c8","ios":"levelo://app?vid=ce72fb3d-bcad-4ff9-a913-88e9d895e0c8"},"vehicle_type_id":"4","last_reported":1722269441,"current_range_meters":16000,"station_id":"ce4bh112rcd13ifvqd90","pricing_plan_id":"cebpf4jnsgd1na2vs0mg"},{"bike_id":"32426c06-7266-4bad-a678-b1436a04dca5","system_id":"levelo_inurba_marseille","lat":43.284787,"lon":5.384116,"is_reserved":false,"is_disabled":false,"rental_uris":{"android":"levelo://app?vid=32426c06-7266-4bad-a678-b1436a04dca5","ios":"levelo://app?vid=32426c06-7266-4bad-a678-b1436a04dca5"},"vehicle_type_id":"4","last_reported":1722269441,"current_range_meters":3200,"station_id":"ce4bh512rcd13ifvqe3g","pricing_plan_id":"cebpf4jnsgd1na2vs0mg"},{"bike_id":"7ec9f94f-3bff-4e10-9c87-e4357a9838e1","system_id":"levelo_inurba_marseille","lat":43.288501,"lon":5.393087,"is_reserved":false,"is_disabled":false,"rental_uris":{"android":"levelo://app?vid=7ec9f94f-3bff-4e10-9c87-e4357a9838e1","ios":"levelo://app?vid=7ec9f94f-3bff-4e10-9c87-e4357a9838e1"},"vehicle_type_id":"4","last_reported":1722269441,"current_range_meters":30400,"station_id":"ce4bh2p2rcd13ifvqdi0","pricing_plan_id":"cebpf4jnsgd1na2vs0mg"},{"bike_id":"5f6273ff-5d6d-41f5-8287-7eb4bc20d62a","system_id":"levelo_inurba_marseille","lat":43.28491,"lon":5.38561,"is_reserved":false,"is_disabled":false,"rental_uris":{"android":"levelo://app?vid=5f6273ff-5d6d-41f5-8287-7eb4bc20d62a","ios":"levelo://app?vid=5f6273ff-5d6d-41f5-8287-7eb4bc20d62a"},"vehicle_type_id":"4","last_reported":1722269441,"current_range_meters":0,"station_id":"ce4bh8p2rcd13ifvqeb0","pricing_plan_id":"cebpf4jnsgd1na2vs0mg"},{"bike_id":"71b7da71-4d63-4c18-a73f-9a42940d4562","system_id":"levelo_inurba_marseille","lat":43.284219,"lon":5.3497,"is_reserved":false,"is_disabled":false,"rental_uris":{"android":"levelo://app?vid=71b7da71-4d63-4c18-a73f-9a42940d4562","ios":"levelo://app?vid=71b7da71-4d63-4c18-a73f-9a42940d4562"},"vehicle_type_id":"4","last_reported":1722269441,"current_range_meters":27600,"station_id":"ce4bhbh2rcd13ifvqepg","pricing_plan_id":"cebpf4jnsgd1na2vs0mg"},{"bike_id":"657c2aa6-b3db-4aac-a8f6-4a2885e220e6","system_id":"levelo_inurba_marseille","lat":43.284219,"lon":5.3497,"is_reserved":false,"is_disabled":false,"rental_uris":{"android":"levelo://app?vid=657c2aa6-b3db-4aac-a8f6-4a2885e220e6","ios":"levelo://app?vid=657c2aa6-b3db-4aac-a8f6-4a2885e220e6"},"vehicle_type_id":"4","last_reported":1722269441,"current_range_meters":26400,"station_id":"ce4bhbh2rcd13ifvqepg","pricing_plan_id":"cebpf4jnsgd1na2vs0mg"},{"bike_id":"4186ebe8-94d2-4f8f-bd3b-4178a291e493","system_id":"levelo_inurba_marseille","lat":43.284219,"lon":5.3497,"is_reserved":false,"is_disabled":false,"rental_uris":{"android":"levelo://app?vid=4186ebe8-94d2-4f8f-bd3b-4178a291e493","ios":"levelo://app?vid=4186ebe8-94d2-4f8f-bd3b-4178a291e493"},"vehicle_type_id":"4","last_reported":1722269441,"current_range_meters":31200,"station_id":"ce4bhbh2rcd13ifvqepg","pricing_plan_id":"cebpf4jnsgd1na2vs0mg"},{"bike_id":"39a1a0bf-d8fb-4467-86bb-a30e5f469ab9","system_id":"levelo_inurba_marseille","lat":43.284219,"lon":5.3497,"is_reserved":false,"is_disabled":false,"rental_uris":{"android":"levelo://app?vid=39a1a0bf-d8fb-4467-86bb-a30e5f469ab9","ios":"levelo://app?vid=39a1a0bf-d8fb-4467-86bb-a30e5f469ab9"},"vehicle_type_id":"4","last_reported":1722269441,"current_range_meters":30400,"station_id":"ce4bhbh2rcd13ifvqepg","pricing_plan_id":"cebpf4jnsgd1na2vs0mg"},{"bike_id":"0d67de3f-a69a-4647-983a-e22a30d24006","system_id":"levelo_inurba_marseille","lat":43.284214,"lon":5.349706,"is_reserved":false,"is_disabled":false,"rental_uris":{"android":"levelo://app?vid=0d67de3f-a69a-4647-983a-e22a30d24006","ios":"levelo://app?vid=0d67de3f-a69a-4647-983a-e22a30d24006"},"vehicle_type_id":"4","last_reported":1722269441,"current_range_meters":23600,"station_id":"ce4bhbh2rcd13ifvqepg","pricing_plan_id":"cebpf4jnsgd1na2vs0mg"},{"bike_id":"8413fbcd-409f-4252-b183-0f798f90bc1f","system_id":"levelo_inurba_marseille","lat":43.284214,"lon":5.349706,"is_reserved":false,"is_disabled":false,"rental_uris":{"android":"levelo://app?vid=8413fbcd-409f-4252-b183-0f798f90bc1f","ios":"levelo://app?vid=8413fbcd-409f-4252-b183-0f798f90bc1f"},"vehicle_type_id":"4","last_reported":1722269441,"current_range_meters":30800,"station_id":"ce4bhbh2rcd13ifvqepg","pricing_plan_id":"cebpf4jnsgd1na2vs0mg"},{"bike_id":"8e9fad42-6f01-4f6c-a0d5-6493c362e0d9","system_id":"levelo_inurba_marseille","lat":43.284217,"lon":5.349697,"is_reserved":false,"is_disabled":false,"rental_uris":{"android":"levelo://app?vid=8e9fad42-6f01-4f6c-a0d5-6493c362e0d9","ios":"levelo://app?vid=8e9fad42-6f01-4f6c-a0d5-6493c362e0d9"},"vehicle_type_id":"4","last_reported":1722269441,"current_range_meters":21200,"station_id":"ce4bhbh2rcd13ifvqepg","pricing_plan_id":"cebpf4jnsgd1na2vs0mg"},{"bike_id":"33cf43be-6e98-4c55-9581-c71b0ee2c13b","system_id":"levelo_inurba_marseille","lat":43.284214,"lon":5.349706,"is_reserved":false,"is_disabled":false,"rental_uris":{"android":"levelo://app?vid=33cf43be-6e98-4c55-9581-c71b0ee2c13b","ios":"levelo://app?vid=33cf43be-6e98-4c55-9581-c71b0ee2c13b"},"vehicle_type_id":"4","last_reported":1722269441,"current_range_meters":24400,"station_id":"ce4bhbh2rcd13ifvqepg","pricing_plan_id":"cebpf4jnsgd1na2vs0mg"},{"bike_id":"80fd520d-2c23-43c9-b89e-12a1910f7972","system_id":"levelo_inurba_marseille","lat":43.284217,"lon":5.349697,"is_reserved":false,"is_disabled":false,"rental_uris":{"android":"levelo://app?vid=80fd520d-2c23-43c9-b89e-12a1910f7972","ios":"levelo://app?vid=80fd520d-2c23-43c9-b89e-12a1910f7972"},"vehicle_type_id":"4","last_reported":1722269441,"current_range_meters":26400,"station_id":"ce4bhbh2rcd13ifvqepg","pricing_plan_id":"cebpf4jnsgd1na2vs0mg"},{"bike_id":"6c6cc2ec-9f7b-4c04-ab93-95333e938f6a","system_id":"levelo_inurba_marseille","lat":43.284219,"lon":5.3497,"is_reserved":false,"is_disabled":false,"rental_uris":{"android":"levelo://app?vid=6c6cc2ec-9f7b-4c04-ab93-95333e938f6a","ios":"levelo://app?vid=6c6cc2ec-9f7b-4c04-ab93-95333e938f6a"},"vehicle_type_id":"4","last_reported":1722269441,"current_range_meters":24000,"station_id":"ce4bhbh2rcd13ifvqepg","pricing_plan_id":"cebpf4jnsgd1na2vs0mg"},{"bike_id":"cc87d072-7779-40cb-81f8-5a9fb3ebaeb1","system_id":"levelo_inurba_marseille","lat":43.284217,"lon":5.349697,"is_reserved":false,"is_disabled":false,"rental_uris":{"android":"levelo://app?vid=cc87d072-7779-40cb-81f8-5a9fb3ebaeb1","ios":"levelo://app?vid=cc87d072-7779-40cb-81f8-5a9fb3ebaeb1"},"vehicle_type_id":"4","last_reported":1722269441,"current_range_meters":4400,"station_id":"ce4bhbh2rcd13ifvqepg","pricing_plan_id":"cebpf4jnsgd1na2vs0mg"},{"bike_id":"e8c6b70a-b634-4a8d-b990-4301c8c65680","system_id":"levelo_inurba_marseille","lat":43.284219,"lon":5.3497,"is_reserved":false,"is_disabled":false,"rental_uris":{"android":"levelo://app?vid=e8c6b70a-b634-4a8d-b990-4301c8c65680","ios":"levelo://app?vid=e8c6b70a-b634-4a8d-b990-4301c8c65680"},"vehicle_type_id":"4","last_reported":1722269441,"current_range_meters":30800,"station_id":"ce4bhbh2rcd13ifvqepg","pricing_plan_id":"cebpf4jnsgd1na2vs0mg"},{"bike_id":"0ca8ff0f-997a-4e23-a6cd-8b9b271396c8","system_id":"levelo_inurba_marseille","lat":43.28424,"lon":5.34978,"is_reserved":false,"is_disabled":false,"rental_uris":{"android":"levelo://app?vid=0ca8ff0f-997a-4e23-a6cd-8b9b271396c8","ios":"levelo://app?vid=0ca8ff0f-997a-4e23-a6cd-8b9b271396c8"},"vehicle_type_id":"4","last_reported":1722269441,"current_range_meters":14400,"station_id":"ce4bhbh2rcd13ifvqepg","pricing_plan_id":"cebpf4jnsgd1na2vs0mg"},{"bike_id":"63fb993d-33a5-4314-bb3d-fc0d2e0a9272","system_id":"levelo_inurba_marseille","lat":43.284214,"lon":5.349706,"is_reserved":false,"is_disabled":false,"rental_uris":{"android":"levelo://app?vid=63fb993d-33a5-4314-bb3d-fc0d2e0a9272","ios":"levelo://app?vid=63fb993d-33a5-4314-bb3d-fc0d2e0a9272"},"vehicle_type_id":"4","last_reported":1722269441,"current_range_meters":31200,"station_id":"ce4bhbh2rcd13ifvqepg","pricing_plan_id":"cebpf4jnsgd1na2vs0mg"},{"bike_id":"0f7c3bb4-f003-45e8-8ce9-41e6d73d63c2","system_id":"levelo_inurba_marseille","lat":43.284219,"lon":5.3497,"is_reserved":false,"is_disabled":false,"rental_uris":{"android":"levelo://app?vid=0f7c3bb4-f003-45e8-8ce9-41e6d73d63c2","ios":"levelo://app?vid=0f7c3bb4-f003-45e8-8ce9-41e6d73d63c2"},"vehicle_type_id":"4","last_reported":1722269441,"current_range_meters":8000,"station_id":"ce4bhbh2rcd13ifvqepg","pricing_plan_id":"cebpf4jnsgd1na2vs0mg"},{"bike_id":"da796497-2529-4297-9ba6-4cea47bb6cb2","system_id":"levelo_inurba_marseille","lat":43.28422,"lon":5.34981,"is_reserved":false,"is_disabled":false,"rental_uris":{"android":"levelo://app?vid=da796497-2529-4297-9ba6-4cea47bb6cb2","ios":"levelo://app?vid=da796497-2529-4297-9ba6-4cea47bb6cb2"},"vehicle_type_id":"4","last_reported":1722269441,"current_range_meters":18000,"station_id":"ce4bhbh2rcd13ifvqepg","pricing_plan_id":"cebpf4jnsgd1na2vs0mg"},{"bike_id":"a105a624-97f6-4635-b0f0-efca89efdc78","system_id":"levelo_inurba_marseille","lat":43.2842,"lon":5.34987,"is_reserved":false,"is_disabled":false,"rental_uris":{"android":"levelo://app?vid=a105a624-97f6-4635-b0f0-efca89efdc78","ios":"levelo://app?vid=a105a624-97f6-4635-b0f0-efca89efdc78"},"vehicle_type_id":"4","last_reported":1722269441,"current_range_meters":22400,"station_id":"ce4bhbh2rcd13ifvqepg","pricing_plan_id":"cebpf4jnsgd1na2vs0mg"},{"bike_id":"2dc8b9c1-e937-4138-81e3-1254b5fa3ea1","system_id":"levelo_inurba_marseille","lat":43.28423,"lon":5.34977,"is_reserved":false,"is_disabled":false,"rental_uris":{"android":"levelo://app?vid=2dc8b9c1-e937-4138-81e3-1254b5fa3ea1","ios":"levelo://app?vid=2dc8b9c1-e937-4138-81e3-1254b5fa3ea1"},"vehicle_type_id":"4","last_reported":1722269441,"current_range_meters":31200,"station_id":"ce4bhbh2rcd13ifvqepg","pricing_plan_id":"cebpf4jnsgd1na2vs0mg"},{"bike_id":"6aa01dde-8457-4051-939e-029e415d098c","system_id":"levelo_inurba_marseille","lat":43.284219,"lon":5.3497,"is_reserved":false,"is_disabled":false,"rental_uris":{"android":"levelo://app?vid=6aa01dde-8457-4051-939e-029e415d098c","ios":"levelo://app?vid=6aa01dde-8457-4051-939e-029e415d098c"},"vehicle_type_id":"4","last_reported":1722269441,"current_range_meters":30000,"station_id":"ce4bhbh2rcd13ifvqepg","pricing_plan_id":"cebpf4jnsgd1na2vs0mg"},{"bike_id":"6af722e1-a2ea-45d0-a706-43ebc110982a","system_id":"levelo_inurba_marseille","lat":43.284219,"lon":5.3497,"is_reserved":false,"is_disabled":false,"rental_uris":{"android":"levelo://app?vid=6af722e1-a2ea-45d0-a706-43ebc110982a","ios":"levelo://app?vid=6af722e1-a2ea-45d0-a706-43ebc110982a"},"vehicle_type_id":"4","last_reported":1722269441,"current_range_meters":16400,"station_id":"ce4bhbh2rcd13ifvqepg","pricing_plan_id":"cebpf4jnsgd1na2vs0mg"},{"bike_id":"9c928de9-5fa2-4e16-ba4f-270d34f819a0","system_id":"levelo_inurba_marseille","lat":43.284217,"lon":5.349697,"is_reserved":false,"is_disabled":false,"rental_uris":{"android":"levelo://app?vid=9c928de9-5fa2-4e16-ba4f-270d34f819a0","ios":"levelo://app?vid=9c928de9-5fa2-4e16-ba4f-270d34f819a0"},"vehicle_type_id":"4","last_reported":1722269441,"current_range_meters":20400,"station_id":"ce4bhbh2rcd13ifvqepg","pricing_plan_id":"cebpf4jnsgd1na2vs0mg"},{"bike_id":"d146cca2-7f7c-418e-b96d-d81286d46067","system_id":"levelo_inurba_marseille","lat":43.28419,"lon":5.34986,"is_reserved":false,"is_disabled":false,"rental_uris":{"android":"levelo://app?vid=d146cca2-7f7c-418e-b96d-d81286d46067","ios":"levelo://app?vid=d146cca2-7f7c-418e-b96d-d81286d46067"},"vehicle_type_id":"4","last_reported":1722269441,"current_range_meters":30800,"station_id":"ce4bhbh2rcd13ifvqepg","pricing_plan_id":"cebpf4jnsgd1na2vs0mg"},{"bike_id":"562a55a7-1073-4f3a-ac10-e17263c030a1","system_id":"levelo_inurba_marseille","lat":43.284217,"lon":5.349697,"is_reserved":false,"is_disabled":false,"rental_uris":{"android":"levelo://app?vid=562a55a7-1073-4f3a-ac10-e17263c030a1","ios":"levelo://app?vid=562a55a7-1073-4f3a-ac10-e17263c030a1"},"vehicle_type_id":"4","last_reported":1722269441,"current_range_meters":30000,"station_id":"ce4bhbh2rcd13ifvqepg","pricing_plan_id":"cebpf4jnsgd1na2vs0mg"},{"bike_id":"d39145d6-18c0-4ae1-a0aa-c5cc94c4c3c3","system_id":"levelo_inurba_marseille","lat":43.284202,"lon":5.349803,"is_reserved":false,"is_disabled":false,"rental_uris":{"android":"levelo://app?vid=d39145d6-18c0-4ae1-a0aa-c5cc94c4c3c3","ios":"levelo://app?vid=d39145d6-18c0-4ae1-a0aa-c5cc94c4c3c3"},"vehicle_type_id":"4","last_reported":1722269441,"current_range_meters":16000,"station_id":"ce4bhbh2rcd13ifvqepg","pricing_plan_id":"cebpf4jnsgd1na2vs0mg"},{"bike_id":"2ff5e2bd-15a2-4f43-a074-6ec8056515db","system_id":"levelo_inurba_marseille","lat":43.28418,"lon":5.34986,"is_reserved":false,"is_disabled":false,"rental_uris":{"android":"levelo://app?vid=2ff5e2bd-15a2-4f43-a074-6ec8056515db","ios":"levelo://app?vid=2ff5e2bd-15a2-4f43-a074-6ec8056515db"},"vehicle_type_id":"4","last_reported":1722269441,"current_range_meters":4800,"station_id":"ce4bhbh2rcd13ifvqepg","pricing_plan_id":"cebpf4jnsgd1na2vs0mg"},{"bike_id":"feeea4ac-8081-4d0d-a4af-bfa49f6ff79b","system_id":"levelo_inurba_marseille","lat":43.284219,"lon":5.3497,"is_reserved":false,"is_disabled":false,"rental_uris":{"android":"levelo://app?vid=feeea4ac-8081-4d0d-a4af-bfa49f6ff79b","ios":"levelo://app?vid=feeea4ac-8081-4d0d-a4af-bfa49f6ff79b"},"vehicle_type_id":"4","last_reported":1722269441,"current_range_meters":30800,"station_id":"ce4bhbh2rcd13ifvqepg","pricing_plan_id":"cebpf4jnsgd1na2vs0mg"},{"bike_id":"5d44b68d-e120-4757-87b5-a3e139182a89","system_id":"levelo_inurba_marseille","lat":43.284217,"lon":5.349697,"is_reserved":false,"is_disabled":false,"rental_uris":{"android":"levelo://app?vid=5d44b68d-e120-4757-87b5-a3e139182a89","ios":"levelo://app?vid=5d44b68d-e120-4757-87b5-a3e139182a89"},"vehicle_type_id":"4","last_reported":1722269441,"current_range_meters":31600,"station_id":"ce4bhbh2rcd13ifvqepg","pricing_plan_id":"cebpf4jnsgd1na2vs0mg"},{"bike_id":"7653d3a8-ee0c-4b5a-ab4c-25071e10ac10","system_id":"levelo_inurba_marseille","lat":43.284214,"lon":5.349706,"is_reserved":false,"is_disabled":false,"rental_uris":{"android":"levelo://app?vid=7653d3a8-ee0c-4b5a-ab4c-25071e10ac10","ios":"levelo://app?vid=7653d3a8-ee0c-4b5a-ab4c-25071e10ac10"},"vehicle_type_id":"4","last_reported":1722269441,"current_range_meters":30000,"station_id":"ce4bhbh2rcd13ifvqepg","pricing_plan_id":"cebpf4jnsgd1na2vs0mg"},{"bike_id":"241dbcc3-672a-4420-8083-cd6c0365aaf7","system_id":"levelo_inurba_marseille","lat":43.28419,"lon":5.3498,"is_reserved":false,"is_disabled":false,"rental_uris":{"android":"levelo://app?vid=241dbcc3-672a-4420-8083-cd6c0365aaf7","ios":"levelo://app?vid=241dbcc3-672a-4420-8083-cd6c0365aaf7"},"vehicle_type_id":"4","last_reported":1722269441,"current_range_meters":24800,"station_id":"ce4bhbh2rcd13ifvqepg","pricing_plan_id":"cebpf4jnsgd1na2vs0mg"},{"bike_id":"3a7776dd-9403-4c2c-a72d-c0a2129beca3","system_id":"levelo_inurba_marseille","lat":43.284199,"lon":5.349766,"is_reserved":false,"is_disabled":false,"rental_uris":{"android":"levelo://app?vid=3a7776dd-9403-4c2c-a72d-c0a2129beca3","ios":"levelo://app?vid=3a7776dd-9403-4c2c-a72d-c0a2129beca3"},"vehicle_type_id":"4","last_reported":1722269441,"current_range_meters":11200,"station_id":"ce4bhbh2rcd13ifvqepg","pricing_plan_id":"cebpf4jnsgd1na2vs0mg"},{"bike_id":"e886d12b-543b-42ac-9b7b-302fde4ce781","system_id":"levelo_inurba_marseille","lat":43.284219,"lon":5.3497,"is_reserved":false,"is_disabled":false,"rental_uris":{"android":"levelo://app?vid=e886d12b-543b-42ac-9b7b-302fde4ce781","ios":"levelo://app?vid=e886d12b-543b-42ac-9b7b-302fde4ce781"},"vehicle_type_id":"4","last_reported":1722269441,"current_range_meters":13200,"station_id":"ce4bhbh2rcd13ifvqepg","pricing_plan_id":"cebpf4jnsgd1na2vs0mg"},{"bike_id":"a6a2f9bb-474a-4ec1-a4c8-2d129c7bf630","system_id":"levelo_inurba_marseille","lat":43.28418,"lon":5.34982,"is_reserved":false,"is_disabled":false,"rental_uris":{"android":"levelo://app?vid=a6a2f9bb-474a-4ec1-a4c8-2d129c7bf630","ios":"levelo://app?vid=a6a2f9bb-474a-4ec1-a4c8-2d129c7bf630"},"vehicle_type_id":"4","last_reported":1722269441,"current_range_meters":13200,"station_id":"ce4bhbh2rcd13ifvqepg","pricing_plan_id":"cebpf4jnsgd1na2vs0mg"},{"bike_id":"7d74d4e5-9527-4ff0-99e2-67f63578e1ed","system_id":"levelo_inurba_marseille","lat":43.284217,"lon":5.349697,"is_reserved":false,"is_disabled":false,"rental_uris":{"android":"levelo://app?vid=7d74d4e5-9527-4ff0-99e2-67f63578e1ed","ios":"levelo://app?vid=7d74d4e5-9527-4ff0-99e2-67f63578e1ed"},"vehicle_type_id":"4","last_reported":1722269441,"current_range_meters":21600,"station_id":"ce4bhbh2rcd13ifvqepg","pricing_plan_id":"cebpf4jnsgd1na2vs0mg"},{"bike_id":"cd64dfcb-7128-40d1-976d-f690daf9a4ba","system_id":"levelo_inurba_marseille","lat":43.28419,"lon":5.34975,"is_reserved":false,"is_disabled":false,"rental_uris":{"android":"levelo://app?vid=cd64dfcb-7128-40d1-976d-f690daf9a4ba","ios":"levelo://app?vid=cd64dfcb-7128-40d1-976d-f690daf9a4ba"},"vehicle_type_id":"4","last_reported":1722269441,"current_range_meters":17600,"station_id":"ce4bhbh2rcd13ifvqepg","pricing_plan_id":"cebpf4jnsgd1na2vs0mg"},{"bike_id":"3b6af82b-01eb-4948-b863-b711a77ee06a","system_id":"levelo_inurba_marseille","lat":43.28414,"lon":5.34989,"is_reserved":false,"is_disabled":false,"rental_uris":{"android":"levelo://app?vid=3b6af82b-01eb-4948-b863-b711a77ee06a","ios":"levelo://app?vid=3b6af82b-01eb-4948-b863-b711a77ee06a"},"vehicle_type_id":"4","last_reported":1722269441,"current_range_meters":16400,"station_id":"ce4bhbh2rcd13ifvqepg","pricing_plan_id":"cebpf4jnsgd1na2vs0mg"},{"bike_id":"899a0ef9-123a-4051-84b6-99b5d0fd2e3b","system_id":"levelo_inurba_marseille","lat":43.284219,"lon":5.3497,"is_reserved":false,"is_disabled":false,"rental_uris":{"android":"levelo://app?vid=899a0ef9-123a-4051-84b6-99b5d0fd2e3b","ios":"levelo://app?vid=899a0ef9-123a-4051-84b6-99b5d0fd2e3b"},"vehicle_type_id":"4","last_reported":1722269441,"current_range_meters":31200,"station_id":"ce4bhbh2rcd13ifvqepg","pricing_plan_id":"cebpf4jnsgd1na2vs0mg"},{"bike_id":"5c54deab-9a2a-4548-9744-92d1759149f4","system_id":"levelo_inurba_marseille","lat":43.28415,"lon":5.34984,"is_reserved":false,"is_disabled":false,"rental_uris":{"android":"levelo://app?vid=5c54deab-9a2a-4548-9744-92d1759149f4","ios":"levelo://app?vid=5c54deab-9a2a-4548-9744-92d1759149f4"},"vehicle_type_id":"4","last_reported":1722269441,"current_range_meters":24400,"station_id":"ce4bhbh2rcd13ifvqepg","pricing_plan_id":"cebpf4jnsgd1na2vs0mg"},{"bike_id":"94dfd97f-8304-45e3-92e2-6b38e8f62432","system_id":"levelo_inurba_marseille","lat":43.284214,"lon":5.349706,"is_reserved":false,"is_disabled":false,"rental_uris":{"android":"levelo://app?vid=94dfd97f-8304-45e3-92e2-6b38e8f62432","ios":"levelo://app?vid=94dfd97f-8304-45e3-92e2-6b38e8f62432"},"vehicle_type_id":"4","last_reported":1722269441,"current_range_meters":31200,"station_id":"ce4bhbh2rcd13ifvqepg","pricing_plan_id":"cebpf4jnsgd1na2vs0mg"},{"bike_id":"9d769281-e182-4b99-91d9-293bd725037a","system_id":"levelo_inurba_marseille","lat":43.284219,"lon":5.3497,"is_reserved":false,"is_disabled":false,"rental_uris":{"android":"levelo://app?vid=9d769281-e182-4b99-91d9-293bd725037a","ios":"levelo://app?vid=9d769281-e182-4b99-91d9-293bd725037a"},"vehicle_type_id":"4","last_reported":1722269441,"current_range_meters":17200,"station_id":"ce4bhbh2rcd13ifvqepg","pricing_plan_id":"cebpf4jnsgd1na2vs0mg"},{"bike_id":"83acda47-fd65-488c-aa14-4f8decf9dc8e","system_id":"levelo_inurba_marseille","lat":43.284217,"lon":5.349697,"is_reserved":false,"is_disabled":false,"rental_uris":{"android":"levelo://app?vid=83acda47-fd65-488c-aa14-4f8decf9dc8e","ios":"levelo://app?vid=83acda47-fd65-488c-aa14-4f8decf9dc8e"},"vehicle_type_id":"4","last_reported":1722269441,"current_range_meters":0,"station_id":"ce4bhbh2rcd13ifvqepg","pricing_plan_id":"cebpf4jnsgd1na2vs0mg"},{"bike_id":"7287805f-dc8b-4b5b-821c-1c2442565b36","system_id":"levelo_inurba_marseille","lat":43.284217,"lon":5.349697,"is_reserved":false,"is_disabled":false,"rental_uris":{"android":"levelo://app?vid=7287805f-dc8b-4b5b-821c-1c2442565b36","ios":"levelo://app?vid=7287805f-dc8b-4b5b-821c-1c2442565b36"},"vehicle_type_id":"4","last_reported":1722269441,"current_range_meters":31600,"station_id":"ce4bhbh2rcd13ifvqepg","pricing_plan_id":"cebpf4jnsgd1na2vs0mg"},{"bike_id":"deafbe4b-6d03-428a-8a30-ca652a59659f","system_id":"levelo_inurba_marseille","lat":43.284219,"lon":5.3497,"is_reserved":false,"is_disabled":false,"rental_uris":{"android":"levelo://app?vid=deafbe4b-6d03-428a-8a30-ca652a59659f","ios":"levelo://app?vid=deafbe4b-6d03-428a-8a30-ca652a59659f"},"vehicle_type_id":"4","last_reported":1722269441,"current_range_meters":28800,"station_id":"ce4bhbh2rcd13ifvqepg","pricing_plan_id":"cebpf4jnsgd1na2vs0mg"},{"bike_id":"0ae97931-d0af-4c5c-a354-b383e3bd70b3","system_id":"levelo_inurba_marseille","lat":43.284214,"lon":5.349706,"is_reserved":false,"is_disabled":false,"rental_uris":{"android":"levelo://app?vid=0ae97931-d0af-4c5c-a354-b383e3bd70b3","ios":"levelo://app?vid=0ae97931-d0af-4c5c-a354-b383e3bd70b3"},"vehicle_type_id":"4","last_reported":1722269441,"current_range_meters":27200,"station_id":"ce4bhbh2rcd13ifvqepg","pricing_plan_id":"cebpf4jnsgd1na2vs0mg"},{"bike_id":"3f92f338-f22c-4c6a-8aa0-165027e7393f","system_id":"levelo_inurba_marseille","lat":43.28412,"lon":5.34989,"is_reserved":false,"is_disabled":false,"rental_uris":{"android":"levelo://app?vid=3f92f338-f22c-4c6a-8aa0-165027e7393f","ios":"levelo://app?vid=3f92f338-f22c-4c6a-8aa0-165027e7393f"},"vehicle_type_id":"4","last_reported":1722269441,"current_range_meters":12400,"station_id":"ce4bhbh2rcd13ifvqepg","pricing_plan_id":"cebpf4jnsgd1na2vs0mg"},{"bike_id":"d88fc770-789f-445e-ba22-27226a137b41","system_id":"levelo_inurba_marseille","lat":43.284214,"lon":5.349706,"is_reserved":false,"is_disabled":false,"rental_uris":{"android":"levelo://app?vid=d88fc770-789f-445e-ba22-27226a137b41","ios":"levelo://app?vid=d88fc770-789f-445e-ba22-27226a137b41"},"vehicle_type_id":"4","last_reported":1722269441,"current_range_meters":19600,"station_id":"ce4bhbh2rcd13ifvqepg","pricing_plan_id":"cebpf4jnsgd1na2vs0mg"},{"bike_id":"4ed37d39-316e-42fc-b553-40e1fb60f26d","system_id":"levelo_inurba_marseille","lat":43.284117,"lon":5.349877,"is_reserved":false,"is_disabled":false,"rental_uris":{"android":"levelo://app?vid=4ed37d39-316e-42fc-b553-40e1fb60f26d","ios":"levelo://app?vid=4ed37d39-316e-42fc-b553-40e1fb60f26d"},"vehicle_type_id":"4","last_reported":1722269441,"current_range_meters":14000,"station_id":"ce4bhbh2rcd13ifvqepg","pricing_plan_id":"cebpf4jnsgd1na2vs0mg"},{"bike_id":"2e9daa86-e7c2-4f73-a48e-85016a5fd12c","system_id":"levelo_inurba_marseille","lat":43.284217,"lon":5.349697,"is_reserved":false,"is_disabled":false,"rental_uris":{"android":"levelo://app?vid=2e9daa86-e7c2-4f73-a48e-85016a5fd12c","ios":"levelo://app?vid=2e9daa86-e7c2-4f73-a48e-85016a5fd12c"},"vehicle_type_id":"4","last_reported":1722269441,"current_range_meters":13200,"station_id":"ce4bhbh2rcd13ifvqepg","pricing_plan_id":"cebpf4jnsgd1na2vs0mg"},{"bike_id":"a9180c1f-96ac-4798-9b97-dc527502207c","system_id":"levelo_inurba_marseille","lat":43.284217,"lon":5.349697,"is_reserved":false,"is_disabled":false,"rental_uris":{"android":"levelo://app?vid=a9180c1f-96ac-4798-9b97-dc527502207c","ios":"levelo://app?vid=a9180c1f-96ac-4798-9b97-dc527502207c"},"vehicle_type_id":"4","last_reported":1722269441,"current_range_meters":31200,"station_id":"ce4bhbh2rcd13ifvqepg","pricing_plan_id":"cebpf4jnsgd1na2vs0mg"},{"bike_id":"8d3878b9-46db-4949-a6ce-003bd1d70288","system_id":"levelo_inurba_marseille","lat":43.284097,"lon":5.34991,"is_reserved":false,"is_disabled":false,"rental_uris":{"android":"levelo://app?vid=8d3878b9-46db-4949-a6ce-003bd1d70288","ios":"levelo://app?vid=8d3878b9-46db-4949-a6ce-003bd1d70288"},"vehicle_type_id":"4","last_reported":1722269441,"current_range_meters":13200,"station_id":"ce4bhbh2rcd13ifvqepg","pricing_plan_id":"cebpf4jnsgd1na2vs0mg"},{"bike_id":"2fbe623e-c40f-48bd-8924-f152ac8045fb","system_id":"levelo_inurba_marseille","lat":43.284214,"lon":5.349706,"is_reserved":false,"is_disabled":false,"rental_uris":{"android":"levelo://app?vid=2fbe623e-c40f-48bd-8924-f152ac8045fb","ios":"levelo://app?vid=2fbe623e-c40f-48bd-8924-f152ac8045fb"},"vehicle_type_id":"4","last_reported":1722269441,"current_range_meters":31200,"station_id":"ce4bhbh2rcd13ifvqepg","pricing_plan_id":"cebpf4jnsgd1na2vs0mg"},{"bike_id":"dedd7ef8-3c58-41ba-8994-2f106685ff3d","system_id":"levelo_inurba_marseille","lat":43.284214,"lon":5.349706,"is_reserved":false,"is_disabled":false,"rental_uris":{"android":"levelo://app?vid=dedd7ef8-3c58-41ba-8994-2f106685ff3d","ios":"levelo://app?vid=dedd7ef8-3c58-41ba-8994-2f106685ff3d"},"vehicle_type_id":"4","last_reported":1722269441,"current_range_meters":18400,"station_id":"ce4bhbh2rcd13ifvqepg","pricing_plan_id":"cebpf4jnsgd1na2vs0mg"},{"bike_id":"18886220-4cdc-4fb1-8f1f-0915b08f46ef","system_id":"levelo_inurba_marseille","lat":43.284117,"lon":5.349813,"is_reserved":false,"is_disabled":false,"rental_uris":{"android":"levelo://app?vid=18886220-4cdc-4fb1-8f1f-0915b08f46ef","ios":"levelo://app?vid=18886220-4cdc-4fb1-8f1f-0915b08f46ef"},"vehicle_type_id":"4","last_reported":1722269441,"current_range_meters":20000,"station_id":"ce4bhbh2rcd13ifvqepg","pricing_plan_id":"cebpf4jnsgd1na2vs0mg"},{"bike_id":"b4435a7b-4830-4629-a549-4fb287985206","system_id":"levelo_inurba_marseille","lat":43.28409,"lon":5.34989,"is_reserved":false,"is_disabled":false,"rental_uris":{"android":"levelo://app?vid=b4435a7b-4830-4629-a549-4fb287985206","ios":"levelo://app?vid=b4435a7b-4830-4629-a549-4fb287985206"},"vehicle_type_id":"4","last_reported":1722269441,"current_range_meters":0,"station_id":"ce4bhbh2rcd13ifvqepg","pricing_plan_id":"cebpf4jnsgd1na2vs0mg"},{"bike_id":"11bef7ea-7b34-4ebb-a15c-9ce9a55b560e","system_id":"levelo_inurba_marseille","lat":43.284217,"lon":5.349697,"is_reserved":false,"is_disabled":false,"rental_uris":{"android":"levelo://app?vid=11bef7ea-7b34-4ebb-a15c-9ce9a55b560e","ios":"levelo://app?vid=11bef7ea-7b34-4ebb-a15c-9ce9a55b560e"},"vehicle_type_id":"4","last_reported":1722269441,"current_range_meters":14400,"station_id":"ce4bhbh2rcd13ifvqepg","pricing_plan_id":"cebpf4jnsgd1na2vs0mg"},{"bike_id":"831c260b-0f5a-491d-a59a-3d555d4d1adf","system_id":"levelo_inurba_marseille","lat":43.2841,"lon":5.34981,"is_reserved":false,"is_disabled":false,"rental_uris":{"android":"levelo://app?vid=831c260b-0f5a-491d-a59a-3d555d4d1adf","ios":"levelo://app?vid=831c260b-0f5a-491d-a59a-3d555d4d1adf"},"vehicle_type_id":"4","last_reported":1722269441,"current_range_meters":0,"station_id":"ce4bhbh2rcd13ifvqepg","pricing_plan_id":"cebpf4jnsgd1na2vs0mg"},{"bike_id":"8a48b32f-c8d9-43ba-b1cc-4c4ce32f53c7","system_id":"levelo_inurba_marseille","lat":43.284214,"lon":5.349706,"is_reserved":false,"is_disabled":false,"rental_uris":{"android":"levelo://app?vid=8a48b32f-c8d9-43ba-b1cc-4c4ce32f53c7","ios":"levelo://app?vid=8a48b32f-c8d9-43ba-b1cc-4c4ce32f53c7"},"vehicle_type_id":"4","last_reported":1722269441,"current_range_meters":30800,"station_id":"ce4bhbh2rcd13ifvqepg","pricing_plan_id":"cebpf4jnsgd1na2vs0mg"},{"bike_id":"0a343482-cea3-4180-bc40-d8ccdbb038b3","system_id":"levelo_inurba_marseille","lat":43.284214,"lon":5.349706,"is_reserved":false,"is_disabled":false,"rental_uris":{"android":"levelo://app?vid=0a343482-cea3-4180-bc40-d8ccdbb038b3","ios":"levelo://app?vid=0a343482-cea3-4180-bc40-d8ccdbb038b3"},"vehicle_type_id":"4","last_reported":1722269441,"current_range_meters":20000,"station_id":"ce4bhbh2rcd13ifvqepg","pricing_plan_id":"cebpf4jnsgd1na2vs0mg"},{"bike_id":"dc7c147a-cccc-4848-bf76-b0d1371e1cf8","system_id":"levelo_inurba_marseille","lat":43.28403,"lon":5.34981,"is_reserved":false,"is_disabled":false,"rental_uris":{"android":"levelo://app?vid=dc7c147a-cccc-4848-bf76-b0d1371e1cf8","ios":"levelo://app?vid=dc7c147a-cccc-4848-bf76-b0d1371e1cf8"},"vehicle_type_id":"4","last_reported":1722269441,"current_range_meters":0,"station_id":"ce4bhbh2rcd13ifvqepg","pricing_plan_id":"cebpf4jnsgd1na2vs0mg"},{"bike_id":"5f400814-9c6a-401b-9aef-de3682cc4ef3","system_id":"levelo_inurba_marseille","lat":43.289363,"lon":5.396322,"is_reserved":false,"is_disabled":false,"rental_uris":{"android":"levelo://app?vid=5f400814-9c6a-401b-9aef-de3682cc4ef3","ios":"levelo://app?vid=5f400814-9c6a-401b-9aef-de3682cc4ef3"},"vehicle_type_id":"4","last_reported":1722269441,"current_range_meters":10400,"station_id":"ce4bh3h2rcd13ifvqdn0","pricing_plan_id":"cebpf4jnsgd1na2vs0mg"},{"bike_id":"f57ae31d-e2c5-4d46-8b72-e7b8957470ab","system_id":"levelo_inurba_marseille","lat":43.292724,"lon":5.401131,"is_reserved":false,"is_disabled":false,"rental_uris":{"android":"levelo://app?vid=f57ae31d-e2c5-4d46-8b72-e7b8957470ab","ios":"levelo://app?vid=f57ae31d-e2c5-4d46-8b72-e7b8957470ab"},"vehicle_type_id":"4","last_reported":1722269441,"current_range_meters":6800,"station_id":"ce4bh312rcd13ifvqdk0","pricing_plan_id":"cebpf4jnsgd1na2vs0mg"},{"bike_id":"5fbd7f6d-641d-466e-9311-658042ac99d4","system_id":"levelo_inurba_marseille","lat":43.292724,"lon":5.401131,"is_reserved":false,"is_disabled":false,"rental_uris":{"android":"levelo://app?vid=5fbd7f6d-641d-466e-9311-658042ac99d4","ios":"levelo://app?vid=5fbd7f6d-641d-466e-9311-658042ac99d4"},"vehicle_type_id":"4","last_reported":1722269441,"current_range_meters":2000,"station_id":"ce4bh312rcd13ifvqdk0","pricing_plan_id":"cebpf4jnsgd1na2vs0mg"},{"bike_id":"736ec259-b83a-4802-b719-ad3fb4de4a81","system_id":"levelo_inurba_marseille","lat":43.276179,"lon":5.361009,"is_reserved":false,"is_disabled":false,"rental_uris":{"android":"levelo://app?vid=736ec259-b83a-4802-b719-ad3fb4de4a81","ios":"levelo://app?vid=736ec259-b83a-4802-b719-ad3fb4de4a81"},"vehicle_type_id":"4","last_reported":1722269441,"current_range_meters":15600,"station_id":"ce4bgj92rcd13ifvqbe0","pricing_plan_id":"cebpf4jnsgd1na2vs0mg"},{"bike_id":"3da714df-de86-46e7-bfe6-c73a1ad78577","system_id":"levelo_inurba_marseille","lat":43.28276,"lon":5.35069,"is_reserved":false,"is_disabled":false,"rental_uris":{"android":"levelo://app?vid=3da714df-de86-46e7-bfe6-c73a1ad78577","ios":"levelo://app?vid=3da714df-de86-46e7-bfe6-c73a1ad78577"},"vehicle_type_id":"4","last_reported":1722269441,"current_range_meters":6400,"station_id":"ce4bhbp2rcd13ifvqerg","pricing_plan_id":"cebpf4jnsgd1na2vs0mg"},{"bike_id":"a35e4f88-2de5-4daf-9b70-1c585523b148","system_id":"levelo_inurba_marseille","lat":43.28276,"lon":5.35068,"is_reserved":false,"is_disabled":false,"rental_uris":{"android":"levelo://app?vid=a35e4f88-2de5-4daf-9b70-1c585523b148","ios":"levelo://app?vid=a35e4f88-2de5-4daf-9b70-1c585523b148"},"vehicle_type_id":"4","last_reported":1722269441,"current_range_meters":29200,"station_id":"ce4bhbp2rcd13ifvqerg","pricing_plan_id":"cebpf4jnsgd1na2vs0mg"},{"bike_id":"af427c84-3221-4510-8252-2a5006467556","system_id":"levelo_inurba_marseille","lat":43.28275,"lon":5.3507,"is_reserved":false,"is_disabled":false,"rental_uris":{"android":"levelo://app?vid=af427c84-3221-4510-8252-2a5006467556","ios":"levelo://app?vid=af427c84-3221-4510-8252-2a5006467556"},"vehicle_type_id":"4","last_reported":1722269441,"current_range_meters":21200,"station_id":"ce4bhbp2rcd13ifvqerg","pricing_plan_id":"cebpf4jnsgd1na2vs0mg"},{"bike_id":"62de485d-c1fb-40e2-8874-cc016d8d7b72","system_id":"levelo_inurba_marseille","lat":43.28275,"lon":5.35067,"is_reserved":false,"is_disabled":false,"rental_uris":{"android":"levelo://app?vid=62de485d-c1fb-40e2-8874-cc016d8d7b72","ios":"levelo://app?vid=62de485d-c1fb-40e2-8874-cc016d8d7b72"},"vehicle_type_id":"4","last_reported":1722269441,"current_range_meters":8800,"station_id":"ce4bhbp2rcd13ifvqerg","pricing_plan_id":"cebpf4jnsgd1na2vs0mg"},{"bike_id":"a1fbb96f-9729-42f2-a926-40fa3d99bfa6","system_id":"levelo_inurba_marseille","lat":43.28275,"lon":5.35066,"is_reserved":false,"is_disabled":false,"rental_uris":{"android":"levelo://app?vid=a1fbb96f-9729-42f2-a926-40fa3d99bfa6","ios":"levelo://app?vid=a1fbb96f-9729-42f2-a926-40fa3d99bfa6"},"vehicle_type_id":"4","last_reported":1722269441,"current_range_meters":0,"station_id":"ce4bhbp2rcd13ifvqerg","pricing_plan_id":"cebpf4jnsgd1na2vs0mg"},{"bike_id":"d82d7257-04c8-4a4b-a06a-f36919af72f0","system_id":"levelo_inurba_marseille","lat":43.28275,"lon":5.3506,"is_reserved":false,"is_disabled":false,"rental_uris":{"android":"levelo://app?vid=d82d7257-04c8-4a4b-a06a-f36919af72f0","ios":"levelo://app?vid=d82d7257-04c8-4a4b-a06a-f36919af72f0"},"vehicle_type_id":"4","last_reported":1722269441,"current_range_meters":14400,"station_id":"ce4bhbp2rcd13ifvqerg","pricing_plan_id":"cebpf4jnsgd1na2vs0mg"},{"bike_id":"927299ed-3ca4-4a3d-a0c7-99b1506e2d1a","system_id":"levelo_inurba_marseille","lat":43.28272,"lon":5.3507,"is_reserved":false,"is_disabled":false,"rental_uris":{"android":"levelo://app?vid=927299ed-3ca4-4a3d-a0c7-99b1506e2d1a","ios":"levelo://app?vid=927299ed-3ca4-4a3d-a0c7-99b1506e2d1a"},"vehicle_type_id":"4","last_reported":1722269441,"current_range_meters":19200,"station_id":"ce4bhbp2rcd13ifvqerg","pricing_plan_id":"cebpf4jnsgd1na2vs0mg"},