{"last_updated":1732637563,"ttl":60,"version":"2.2","data":{"bikes":[{"bike_id":"5d82b66e-27bb-457d-abff-c909f4250d50","system_id":"levelo_inurba_marseille","lat":43.29713,"lon":5.37695,"is_reserved":false,"is_disabled":false,"rental_uris":{"android":"levelo://app?vid=5d82b66e-27bb-457d-abff-c909f4250d50","ios":"levelo://app?vid=5d82b66e-27bb-457d-abff-c909f4250d50"},"vehicle_type_id":"4","last_reported":1732637563,"current_range_meters":18800,"station_id":"ce4bgkh2rcd13ifvqbl0","pricing_plan_id":"cebpf4jnsgd1na2vs0mg"},{"bike_id":"d9c28aa4-81a4-4d13-8fc9-100bb4e3d7e2","system_id":"levelo_inurba_marseille","lat":43.27397,"lon":5.38957,"is_reserved":false,"is_disabled":true,"rental_uris":{"android":"levelo://app?vid=d9c28aa4-81a4-4d13-8fc9-100bb4e3d7e2","ios":"levelo://app?vid=d9c28aa4-81a4-4d13-8fc9-100bb4e3d7e2"},"vehicle_type_id":"4","last_reported":1732637563,"current_range_meters":0,"station_id":"","pricing_plan_id":"cebpf4jnsgd1na2vs0mg"},{"bike_id":"5ebafbd3-6d1c-424c-8a78-f7ec0a85e090","system_id":"levelo_inurba_marseille","lat":43.27375,"lon":5.36266,"is_reserved":false,"is_disabled":true,"rental_uris":{"android":"levelo://app?vid=5ebafbd3-6d1c-424c-8a78-f7ec0a85e090","ios":"levelo://app?vid=5ebafbd3-6d1c-424c-8a78-f7ec0a85e090"},"vehicle_type_id":"4","last_reported":1732637563,"current_range_meters":1600,"station_id":"ce4bhbh2rcd13ifvqeo0","pricing_plan_id":"cebpf4jnsgd1na2vs0mg"},{"bike_id":"b856c8b4-412d-4c25-bdd4-e6b29aed04cb","system_id":"levelo_inurba_marseille","lat":43.22934,"lon":5.35385,"is_reserved":false,"is_disabled":false,"rental_uris":{"android":"levelo://app?vid=b856c8b4-412d-4c25-bdd4-e6b29aed04cb","ios":"levelo://app?vid=b856c8b4-412d-4c25-bdd4-e6b29aed04cb"},"vehicle_type_id":"4","last_reported":1732637563,"current_range_meters":38800,"station_id":"cpo3532slgdg3j2ikp40","pricing_plan_id":"cebpf4jnsgd1na2vs0mg"},{"bike_id":"10e0cb9d-ef2a-46eb-8679-54babcc87bb9","system_id":"levelo_inurba_marseille","lat":43.27068,"lon":5.42278,"is_reserved":false,"is_disabled":false,"rental_uris":{"android":"levelo://app?vid=10e0cb9d-ef2a-46eb-8679-54babcc87bb9","ios":"levelo://app?vid=10e0cb9d-ef2a-46eb-8679-54babcc87bb9"},"vehicle_type_id":"4","last_reported":1732637563,"current_range_meters":17600,"station_id":"ce4bhk92rcd13ifvqgb0","pricing_plan_id":"cebpf4jnsgd1na2vs0mg"},{"bike_id":"1fe4b7e5-6b12-4636-b8e1-ac7657a96b7d","system_id":"levelo_inurba_marseille","lat":43.33023,"lon":5.3904,"is_reserved":false,"is_disabled":false,"rental_uris":{"android":"levelo://app?vid=1fe4b7e5-6b12-4636-b8e1-ac7657a96b7d","ios":"levelo://app?vid=1fe4b7e5-6b12-4636-b8e1-ac7657a96b7d"},"vehicle_type_id":"4","last_reported":1732637563,"current_range_meters":6800,"station_id":"ce4bhr92rcd13ifvqhrg","pricing_plan_id":"cebpf4jnsgd1na2vs0mg"},{"bike_id":"b8e90378-da68-4550-977a-6e185588923c","system_id":"levelo_inurba_marseille","lat":43.30426,"lon":5.41292,"is_reserved":false,"is_disabled":false,"rental_uris":{"android":"levelo://app?vid=b8e90378-da68-4550-977a-6e185588923c","ios":"levelo://app?vid=b8e90378-da68-4550-977a-6e185588923c"},"vehicle_type_id":"4","last_reported":1732637563,"current_range_meters":32400,"station_id":"ce4bhop2rcd13ifvqh8g","pricing_plan_id":"cebpf4jnsgd1na2vs0mg"},{"bike_id":"f0347ef3-0bf2-4904-8134-c34ce91c6bae","system_id":"levelo_inurba_marseille","lat":43.3054,"lon":5.36715,"is_reserved":false,"is_disabled":true,"rental_uris":{"android":"levelo://app?vid=f0347ef3-0bf2-4904-8134-c34ce91c6bae","ios":"levelo://app?vid=f0347ef3-0bf2-4904-8134-c34ce91c6bae"},"vehicle_type_id":"4","last_reported":1732637563,"current_range_meters":13600,"station_id":"ce4bgrp2rcd13ifvqc9g","pricing_plan_id":"cebpf4jnsgd1na2vs0mg"},{"bike_id":"938efd6e-163f-4dea-98cc-4cf7852276fc","system_id":"levelo_inurba_marseille","lat":43.30567,"lon":5.40147,"is_reserved":false,"is_disabled":false,"rental_uris":{"android":"levelo://app?vid=938efd6e-163f-4dea-98cc-4cf7852276fc","ios":"levelo://app?vid=938efd6e-163f-4dea-98cc-4cf7852276fc"},"vehicle_type_id":"4","last_reported":1732637563,"current_range_meters":28800,"station_id":"","pricing_plan_id":"cebpf4jnsgd1na2vs0mg"},{"bike_id":"9a5276ca-e6f1-482f-9dca-00b9e6e6c198","system_id":"levelo_inurba_marseille","lat":43.28,"lon":5.40016,"is_reserved":false,"is_disabled":false,"rental_uris":{"android":"levelo://app?vid=9a5276ca-e6f1-482f-9dca-00b9e6e6c198","ios":"levelo://app?vid=9a5276ca-e6f1-482f-9dca-00b9e6e6c198"},"vehicle_type_id":"4","last_reported":1732637563,"current_range_meters":28800,"station_id":"ce4bho92rcd13ifvqh4g","pricing_plan_id":"cebpf4jnsgd1na2vs0mg"},{"bike_id":"8e4a8492-636d-470e-9019-0973dcac6c95","system_id":"levelo_inurba_marseille","lat":43.30318,"lon":5.36899,"is_reserved":false,"is_disabled":false,"rental_uris":{"android":"levelo://app?vid=8e4a8492-636d-470e-9019-0973dcac6c95","ios":"levelo://app?vid=8e4a8492-636d-470e-9019-0973dcac6c95"},"vehicle_type_id":"4","last_reported":1732637563,"current_range_meters":18800,"station_id":"ce4bgqh2rcd13ifvqc5g","pricing_plan_id":"cebpf4jnsgd1na2vs0mg"},{"bike_id":"d5b7fbf6-5806-413b-9e51-84bddeff9271","system_id":"levelo_inurba_marseille","lat":43.26496,"lon":5.3954,"is_reserved":false,"is_disabled":true,"rental_uris":{"android":"levelo://app?vid=d5b7fbf6-5806-413b-9e51-84bddeff9271","ios":"levelo://app?vid=d5b7fbf6-5806-413b-9e51-84bddeff9271"},"vehicle_type_id":"4","last_reported":1732637563,"current_range_meters":400,"station_id":"ce4bhi12rcd13ifvqfq0","pricing_plan_id":"cebpf4jnsgd1na2vs0mg"},{"bike_id":"b9863f39-5c31-4a01-ac4a-a74488f0ee16","system_id":"levelo_inurba_marseille","lat":43.2738,"lon":5.36261,"is_reserved":false,"is_disabled":false,"rental_uris":{"android":"levelo://app?vid=b9863f39-5c31-4a01-ac4a-a74488f0ee16","ios":"levelo://app?vid=b9863f39-5c31-4a01-ac4a-a74488f0ee16"},"vehicle_type_id":"4","last_reported":1732637563,"current_range_meters":38800,"station_id":"ce4bhbh2rcd13ifvqeo0","pricing_plan_id":"cebpf4jnsgd1na2vs0mg"},{"bike_id":"37ee09df-8673-47a3-96b4-c2ef618884e5","system_id":"levelo_inurba_marseille","lat":43.337444,"lon":5.374475,"is_reserved":false,"is_disabled":false,"rental_uris":{"android":"levelo://app?vid=37ee09df-8673-47a3-96b4-c2ef618884e5","ios":"levelo://app?vid=37ee09df-8673-47a3-96b4-c2ef618884e5"},"vehicle_type_id":"4","last_reported":1732637563,"current_range_meters":35200,"station_id":"","pricing_plan_id":"cebpf4jnsgd1na2vs0mg"},{"bike_id":"743ca6ad-337e-4553-8556-373129aa6d2c","system_id":"levelo_inurba_marseille","lat":43.26781,"lon":5.39417,"is_reserved":false,"is_disabled":false,"rental_uris":{"android":"levelo://app?vid=743ca6ad-337e-4553-8556-373129aa6d2c","ios":"levelo://app?vid=743ca6ad-337e-4553-8556-373129aa6d2c"},"vehicle_type_id":"4","last_reported":1732637563,"current_range_meters":2000,"station_id":"ce4bhh12rcd13ifvqfg0","pricing_plan_id":"cebpf4jnsgd1na2vs0mg"},{"bike_id":"ea299a22-6dcb-4de5-a382-7a18f4423b28","system_id":"levelo_inurba_marseille","lat":43.28851,"lon":5.35848,"is_reserved":false,"is_disabled":false,"rental_uris":{"android":"levelo://app?vid=ea299a22-6dcb-4de5-a382-7a18f4423b28","ios":"levelo://app?vid=ea299a22-6dcb-4de5-a382-7a18f4423b28"},"vehicle_type_id":"4","last_reported":1732637563,"current_range_meters":16400,"station_id":"ce4bhb12rcd13ifvqem0","pricing_plan_id":"cebpf4jnsgd1na2vs0mg"},{"bike_id":"de8d529e-6a37-4d28-9232-be49f6345371","system_id":"levelo_inurba_marseille","lat":43.29029,"lon":5.38644,"is_reserved":false,"is_disabled":false,"rental_uris":{"android":"levelo://app?vid=de8d529e-6a37-4d28-9232-be49f6345371","ios":"levelo://app?vid=de8d529e-6a37-4d28-9232-be49f6345371"},"vehicle_type_id":"4","last_reported":1732637563,"current_range_meters":38800,"station_id":"ce4bh4p2rcd13ifvqe0g","pricing_plan_id":"cebpf4jnsgd1na2vs0mg"},{"bike_id":"f18c3a2e-597c-4c3c-b789-680e32703023","system_id":"levelo_inurba_marseille","lat":43.24389,"lon":5.37059,"is_reserved":false,"is_disabled":true,"rental_uris":{"android":"levelo://app?vid=f18c3a2e-597c-4c3c-b789-680e32703023","ios":"levelo://app?vid=f18c3a2e-597c-4c3c-b789-680e32703023"},"vehicle_type_id":"4","last_reported":1732637563,"current_range_meters":0,"station_id":"ce4bhhh2rcd13ifvqfk0","pricing_plan_id":"cebpf4jnsgd1na2vs0mg"},{"bike_id":"f7165f07-e923-4579-b202-89b3912a60e2","system_id":"levelo_inurba_marseille","lat":43.25867,"lon":5.39903,"is_reserved":false,"is_disabled":true,"rental_uris":{"android":"levelo://app?vid=f7165f07-e923-4579-b202-89b3912a60e2","ios":"levelo://app?vid=f7165f07-e923-4579-b202-89b3912a60e2"},"vehicle_type_id":"4","last_reported":1732637563,"current_range_meters":1200,"station_id":"ce4bhl92rcd13ifvqghg","pricing_plan_id":"cebpf4jnsgd1na2vs0mg"},{"bike_id":"807d4795-008b-4cf7-a4d7-3f5c33681ea0","system_id":"levelo_inurba_marseille","lat":43.27963,"lon":5.38745,"is_reserved":false,"is_disabled":false,"rental_uris":{"android":"levelo://app?vid=807d4795-008b-4cf7-a4d7-3f5c33681ea0","ios":"levelo://app?vid=807d4795-008b-4cf7-a4d7-3f5c33681ea0"},"vehicle_type_id":"4","last_reported":1732637563,"current_range_meters":33200,"station_id":"ce4bhg12rcd13ifvqf80","pricing_plan_id":"cebpf4jnsgd1na2vs0mg"},{"bike_id":"4c7a58df-9482-4e48-913a-bee78becd678","system_id":"levelo_inurba_marseille","lat":43.24387,"lon":5.37058,"is_reserved":false,"is_disabled":false,"rental_uris":{"android":"levelo://app?vid=4c7a58df-9482-4e48-913a-bee78becd678","ios":"levelo://app?vid=4c7a58df-9482-4e48-913a-bee78becd678"},"vehicle_type_id":"4","last_reported":1732637563,"current_range_meters":38400,"station_id":"ce4bhhh2rcd13ifvqfk0","pricing_plan_id":"cebpf4jnsgd1na2vs0mg"},{"bike_id":"f98cf346-2f95-41c1-a190-288b7ed6e557","system_id":"levelo_inurba_marseille","lat":43.24088,"lon":5.37743,"is_reserved":false,"is_disabled":true,"rental_uris":{"android":"levelo://app?vid=f98cf346-2f95-41c1-a190-288b7ed6e557","ios":"levelo://app?vid=f98cf346-2f95-41c1-a190-288b7ed6e557"},"vehicle_type_id":"4","last_reported":1732637563,"current_range_meters":0,"station_id":"ce4bhnp2rcd13ifvqgvg","pricing_plan_id":"cebpf4jnsgd1na2vs0mg"},{"bike_id":"68770b72-fa44-4940-a1ab-38064ae9c650","system_id":"levelo_inurba_marseille","lat":43.24661,"lon":5.38172,"is_reserved":false,"is_disabled":true,"rental_uris":{"android":"levelo://app?vid=68770b72-fa44-4940-a1ab-38064ae9c650","ios":"levelo://app?vid=68770b72-fa44-4940-a1ab-38064ae9c650"},"vehicle_type_id":"4","last_reported":1732637563,"current_range_meters":0,"station_id":"ce4bhih2rcd13ifvqfr0","pricing_plan_id":"cebpf4jnsgd1na2vs0mg"},{"bike_id":"7a657835-792f-42c8-8f33-4d7d97a5bd87","system_id":"levelo_inurba_marseille","lat":43.24539,"lon":5.39531,"is_reserved":false,"is_disabled":false,"rental_uris":{"android":"levelo://app?vid=7a657835-792f-42c8-8f33-4d7d97a5bd87","ios":"levelo://app?vid=7a657835-792f-42c8-8f33-4d7d97a5bd87"},"vehicle_type_id":"4","last_reported":1732637563,"current_range_meters":35600,"station_id":"ce4bhlp2rcd13ifvqgjg","pricing_plan_id":"cebpf4jnsgd1na2vs0mg"},{"bike_id":"b891d583-603a-49e6-afab-c922f2af192e","system_id":"levelo_inurba_marseille","lat":43.28081,"lon":5.39659,"is_reserved":false,"is_disabled":false,"rental_uris":{"android":"levelo://app?vid=b891d583-603a-49e6-afab-c922f2af192e","ios":"levelo://app?vid=b891d583-603a-49e6-afab-c922f2af192e"},"vehicle_type_id":"4","last_reported":1732637563,"current_range_meters":22800,"station_id":"ce4bho12rcd13ifvqh2g","pricing_plan_id":"cebpf4jnsgd1na2vs0mg"},{"bike_id":"6b080c50-a1ee-49ed-8a65-6277103b00e4","system_id":"levelo_inurba_marseille","lat":43.28937,"lon":5.36397,"is_reserved":false,"is_disabled":false,"rental_uris":{"android":"levelo://app?vid=6b080c50-a1ee-49ed-8a65-6277103b00e4","ios":"levelo://app?vid=6b080c50-a1ee-49ed-8a65-6277103b00e4"},"vehicle_type_id":"4","last_reported":1732637563,"current_range_meters":8400,"station_id":"ce4bhc92rcd13ifvqetg","pricing_plan_id":"cebpf4jnsgd1na2vs0mg"},{"bike_id":"09b89554-b737-4b6e-a9e8-cc238dd55c23","system_id":"levelo_inurba_marseille","lat":43.29024,"lon":5.38126,"is_reserved":false,"is_disabled":true,"rental_uris":{"android":"levelo://app?vid=09b89554-b737-4b6e-a9e8-cc238dd55c23","ios":"levelo://app?vid=09b89554-b737-4b6e-a9e8-cc238dd55c23"},"vehicle_type_id":"4","last_reported":1732637563,"current_range_meters":38800,"station_id":"ce4bh4p2rcd13ifvqe1g","pricing_plan_id":"cebpf4jnsgd1na2vs0mg"},{"bike_id":"188712ad-b78f-41b0-9341-ff62a7a9c9e5","system_id":"levelo_inurba_marseille","lat":43.28725,"lon":5.37936,"is_reserved":false,"is_disabled":false,"rental_uris":{"android":"levelo://app?vid=188712ad-b78f-41b0-9341-ff62a7a9c9e5","ios":"levelo://app?vid=188712ad-b78f-41b0-9341-ff62a7a9c9e5"},"vehicle_type_id":"4","last_reported":1732637563,"current_range_meters":31200,"station_id":"ce4bh9p2rcd13ifvqec0","pricing_plan_id":"cebpf4jnsgd1na2vs0mg"},{"bike_id":"9604c40b-c088-4a47-9606-5669d249b2ee","system_id":"levelo_inurba_marseille","lat":43.27956,"lon":5.40575,"is_reserved":false,"is_disabled":false,"rental_uris":{"android":"levelo://app?vid=9604c40b-c088-4a47-9606-5669d249b2ee","ios":"levelo://app?vid=9604c40b-c088-4a47-9606-5669d249b2ee"},"vehicle_type_id":"4","last_reported":1732637563,"current_range_meters":9600,"station_id":"ce4bh292rcd13ifvqdf0","pricing_plan_id":"cebpf4jnsgd1na2vs0mg"},{"bike_id":"f9cabcfb-6ec0-4d07-8783-28e635991f3d","system_id":"levelo_inurba_marseille","lat":43.29421,"lon":5.38616,"is_reserved":false,"is_disabled":false,"rental_uris":{"android":"levelo://app?vid=f9cabcfb-6ec0-4d07-8783-28e635991f3d","ios":"levelo://app?vid=f9cabcfb-6ec0-4d07-8783-28e635991f3d"},"vehicle_type_id":"4","last_reported":1732637563,"current_range_meters":12000,"station_id":"ce4bh2h2rcd13ifvqdh0","pricing_plan_id":"cebpf4jnsgd1na2vs0mg"},{"bike_id":"d7b4e41b-5ea8-4d2c-9fe2-df65bc6478d3","system_id":"levelo_inurba_marseille","lat":43.24818,"lon":5.37459,"is_reserved":false,"is_disabled":false,"rental_uris":{"android":"levelo://app?vid=d7b4e41b-5ea8-4d2c-9fe2-df65bc6478d3","ios":"levelo://app?vid=d7b4e41b-5ea8-4d2c-9fe2-df65bc6478d3"},"vehicle_type_id":"4","last_reported":1732637563,"current_range_meters":20400,"station_id":"ce4bhgh2rcd13ifvqfb0","pricing_plan_id":"cebpf4jnsgd1na2vs0mg"},{"bike_id":"835a170b-9333-4a62-9af0-a89a87c1a309","system_id":"levelo_inurba_marseille","lat":43.24652,"lon":5.38162,"is_reserved":false,"is_disabled":false,"rental_uris":{"android":"levelo://app?vid=835a170b-9333-4a62-9af0-a89a87c1a309","ios":"levelo://app?vid=835a170b-9333-4a62-9af0-a89a87c1a309"},"vehicle_type_id":"4","last_reported":1732637563,"current_range_meters":10800,"station_id":"ce4bhih2rcd13ifvqfr0","pricing_plan_id":"cebpf4jnsgd1na2vs0mg"},{"bike_id":"caf4734a-4cec-4f34-a39a-93be4dc22192","system_id":"levelo_inurba_marseille","lat":43.29234,"lon":5.37911,"is_reserved":false,"is_disabled":false,"rental_uris":{"android":"levelo://app?vid=caf4734a-4cec-4f34-a39a-93be4dc22192","ios":"levelo://app?vid=caf4734a-4cec-4f34-a39a-93be4dc22192"},"vehicle_type_id":"4","last_reported":1732637563,"current_range_meters":6400,"station_id":"","pricing_plan_id":"cebpf4jnsgd1na2vs0mg"},{"bike_id":"e8ce7360-fbe5-4902-9873-47157c775922","system_id":"levelo_inurba_marseille","lat":43.29039,"lon":5.3997,"is_reserved":false,"is_disabled":false,"rental_uris":{"android":"levelo://app?vid=e8ce7360-fbe5-4902-9873-47157c775922","ios":"levelo://app?vid=e8ce7360-fbe5-4902-9873-47157c775922"},"vehicle_type_id":"4","last_reported":1732637563,"current_range_meters":27200,"station_id":"ce4bh392rcd13ifvqdm0","pricing_plan_id":"cebpf4jnsgd1na2vs0mg"},{"bike_id":"0a2d70bc-b761-4725-9e3d-6717bfcaa6cc","system_id":"levelo_inurba_marseille","lat":43.337444,"lon":5.374475,"is_reserved":false,"is_disabled":false,"rental_uris":{"android":"levelo://app?vid=0a2d70bc-b761-4725-9e3d-6717bfcaa6cc","ios":"levelo://app?vid=0a2d70bc-b761-4725-9e3d-6717bfcaa6cc"},"vehicle_type_id":"4","last_reported":1732637563,"current_range_meters":37600,"station_id":"","pricing_plan_id":"cebpf4jnsgd1na2vs0mg"},{"bike_id":"f4571a07-bbfa-4be3-964f-c4f5135e25df","system_id":"levelo_inurba_marseille","lat":43.30604,"lon":5.37233,"is_reserved":false,"is_disabled":false,"rental_uris":{"android":"levelo://app?vid=f4571a07-bbfa-4be3-964f-c4f5135e25df","ios":"levelo://app?vid=f4571a07-bbfa-4be3-964f-c4f5135e25df"},"vehicle_type_id":"4","last_reported":1732637563,"current_range_meters":2800,"station_id":"ce4bgqh2rcd13ifvqc4g","pricing_plan_id":"cebpf4jnsgd1na2vs0mg"},{"bike_id":"c29462b2-6f03-4354-a0a3-f395b21c5128","system_id":"levelo_inurba_marseille","lat":43.27488,"lon":5.42465,"is_reserved":false,"is_disabled":true,"rental_uris":{"android":"levelo://app?vid=c29462b2-6f03-4354-a0a3-f395b21c5128","ios":"levelo://app?vid=c29462b2-6f03-4354-a0a3-f395b21c5128"},"vehicle_type_id":"4","last_reported":1732637563,"current_range_meters":0,"station_id":"ce4bhn92rcd13ifvqgrg","pricing_plan_id":"cebpf4jnsgd1na2vs0mg"},{"bike_id":"820f12a0-cf28-488c-8a74-3f1b9d2e4db5","system_id":"levelo_inurba_marseille","lat":43.23056,"lon":5.35491,"is_reserved":false,"is_disabled":false,"rental_uris":{"android":"levelo://app?vid=820f12a0-cf28-488c-8a74-3f1b9d2e4db5","ios":"levelo://app?vid=820f12a0-cf28-488c-8a74-3f1b9d2e4db5"},"vehicle_type_id":"4","last_reported":1732637563,"current_range_meters":24000,"station_id":"cpo3342slgdg3j2ifvpg","pricing_plan_id":"cebpf4jnsgd1na2vs0mg"},{"bike_id":"b708b4f4-adaa-45ff-861c-7317b5276dcd","system_id":"levelo_inurba_marseille","lat":43.29411,"lon":5.38616,"is_reserved":false,"is_disabled":false,"rental_uris":{"android":"levelo://app?vid=b708b4f4-adaa-45ff-861c-7317b5276dcd","ios":"levelo://app?vid=b708b4f4-adaa-45ff-861c-7317b5276dcd"},"vehicle_type_id":"4","last_reported":1732637563,"current_range_meters":27600,"station_id":"ce4bh2h2rcd13ifvqdh0","pricing_plan_id":"cebpf4jnsgd1na2vs0mg"},{"bike_id":"e1d63dd7-af57-40db-b964-6575f0f33485","system_id":"levelo_inurba_marseille","lat":43.28569,"lon":5.39498,"is_reserved":false,"is_disabled":false,"rental_uris":{"android":"levelo://app?vid=e1d63dd7-af57-40db-b964-6575f0f33485","ios":"levelo://app?vid=e1d63dd7-af57-40db-b964-6575f0f33485"},"vehicle_type_id":"4","last_reported":1732637563,"current_range_meters":32000,"station_id":"ce4bh292rcd13ifvqdg0","pricing_plan_id":"cebpf4jnsgd1na2vs0mg"},{"bike_id":"aa278969-3e6a-49e6-807a-f4394f60ffe0","system_id":"levelo_inurba_marseille","lat":43.32001,"lon":5.38165,"is_reserved":false,"is_disabled":false,"rental_uris":{"android":"levelo://app?vid=aa278969-3e6a-49e6-807a-f4394f60ffe0","ios":"levelo://app?vid=aa278969-3e6a-49e6-807a-f4394f60ffe0"},"vehicle_type_id":"4","last_reported":1732637563,"current_range_meters":14000,"station_id":"ce4bhr12rcd13ifvqhpg","pricing_plan_id":"cebpf4jnsgd1na2vs0mg"},{"bike_id":"8cab2424-6146-41ea-ab68-8b9ed58cae61","system_id":"levelo_inurba_marseille","lat":43.29586,"lon":5.36742,"is_reserved":false,"is_disabled":false,"rental_uris":{"android":"levelo://app?vid=8cab2424-6146-41ea-ab68-8b9ed58cae61","ios":"levelo://app?vid=8cab2424-6146-41ea-ab68-8b9ed58cae61"},"vehicle_type_id":"4","last_reported":1732637563,"current_range_meters":38800,"station_id":"ce4bgph2rcd13ifvqc2g","pricing_plan_id":"cebpf4jnsgd1na2vs0mg"},{"bike_id":"33b8045d-fd1a-444f-8a40-a4ebaad2413b","system_id":"levelo_inurba_marseille","lat":43.25119,"lon":5.40315,"is_reserved":false,"is_disabled":true,"rental_uris":{"android":"levelo://app?vid=33b8045d-fd1a-444f-8a40-a4ebaad2413b","ios":"levelo://app?vid=33b8045d-fd1a-444f-8a40-a4ebaad2413b"},"vehicle_type_id":"4","last_reported":1732637563,"current_range_meters":0,"station_id":"ce4bhlh2rcd13ifvqgig","pricing_plan_id":"cebpf4jnsgd1na2vs0mg"},{"bike_id":"30d232ab-a2a9-4185-98de-0760683b1708","system_id":"levelo_inurba_marseille","lat":43.2804,"lon":5.36948,"is_reserved":false,"is_disabled":false,"rental_uris":{"android":"levelo://app?vid=30d232ab-a2a9-4185-98de-0760683b1708","ios":"levelo://app?vid=30d232ab-a2a9-4185-98de-0760683b1708"},"vehicle_type_id":"4","last_reported":1732637563,"current_range_meters":7200,"station_id":"ce4bha12rcd13ifvqef0","pricing_plan_id":"cebpf4jnsgd1na2vs0mg"},{"bike_id":"96effde3-4c9e-4a2f-9f26-c4dcdc2bba0a","system_id":"levelo_inurba_marseille","lat":43.28358,"lon":5.38647,"is_reserved":false,"is_disabled":false,"rental_uris":{"android":"levelo://app?vid=96effde3-4c9e-4a2f-9f26-c4dcdc2bba0a","ios":"levelo://app?vid=96effde3-4c9e-4a2f-9f26-c4dcdc2bba0a"},"vehicle_type_id":"4","last_reported":1732637563,"current_range_meters":22000,"station_id":"ce4bh492rcd13ifvqdvg","pricing_plan_id":"cebpf4jnsgd1na2vs0mg"},{"bike_id":"235443a5-ab33-43b8-807e-ac0a11e3b96b","system_id":"levelo_inurba_marseille","lat":43.27815,"lon":5.40709,"is_reserved":false,"is_disabled":false,"rental_uris":{"android":"levelo://app?vid=235443a5-ab33-43b8-807e-ac0a11e3b96b","ios":"levelo://app?vid=235443a5-ab33-43b8-807e-ac0a11e3b96b"},"vehicle_type_id":"4","last_reported":1732637563,"current_range_meters":20000,"station_id":"ce4bhnh2rcd13ifvqgtg","pricing_plan_id":"cebpf4jnsgd1na2vs0mg"},{"bike_id":"62965e1e-ade4-47c8-a5ff-f8c8cd07ca98","system_id":"levelo_inurba_marseille","lat":43.27619,"lon":5.36109,"is_reserved":false,"is_disabled":false,"rental_uris":{"android":"levelo://app?vid=62965e1e-ade4-47c8-a5ff-f8c8cd07ca98","ios":"levelo://app?vid=62965e1e-ade4-47c8-a5ff-f8c8cd07ca98"},"vehicle_type_id":"4","last_reported":1732637563,"current_range_meters":38400,"station_id":"ce4bgj92rcd13ifvqbe0","pricing_plan_id":"cebpf4jnsgd1na2vs0mg"},{"bike_id":"a40985ad-08cb-4134-90f4-e01023042fff","system_id":"levelo_inurba_marseille","lat":43.27208,"lon":5.39189,"is_reserved":false,"is_disabled":false,"rental_uris":{"android":"levelo://app?vid=a40985ad-08cb-4134-90f4-e01023042fff","ios":"levelo://app?vid=a40985ad-08cb-4134-90f4-e01023042fff"},"vehicle_type_id":"4","last_reported":1732637563,"current_range_meters":2800,"station_id":"ce4bhhp2rcd13ifvqfm0","pricing_plan_id":"cebpf4jnsgd1na2vs0mg"},{"bike_id":"47aa10c1-e51e-420d-ad55-2f18caa313f0","system_id":"levelo_inurba_marseille","lat":43.29528,"lon":5.39397,"is_reserved":false,"is_disabled":false,"rental_uris":{"android":"levelo://app?vid=47aa10c1-e51e-420d-ad55-2f18caa313f0","ios":"levelo://app?vid=47aa10c1-e51e-420d-ad55-2f18caa313f0"},"vehicle_type_id":"4","last_reported":1732637563,"current_range_meters":20800,"station_id":"ce4bh292rcd13ifvqdf0","pricing_plan_id":"cebpf4jnsgd1na2vs0mg"},{"bike_id":"68bccc28-ccf7-44a3-be9d-2819e9c31e00","system_id":"levelo_inurba_marseille","lat":43.32352,"lon":5.40619,"is_reserved":false,"is_disabled":false,"rental_uris":{"android":"levelo://app?vid=68bccc28-ccf7-44a3-be9d-2819e9c31e00","ios":"levelo://app?vid=68bccc28-ccf7-44a3-be9d-2819e9c31e00"},"vehicle_type_id":"4","last_reported":1732637563,"current_range_meters":7200,"station_id":"ce4bhq92rcd13ifvqhjg","pricing_plan_id":"cebpf4jnsgd1na2vs0mg"},{"bike_id":"270a5d04-6705-469e-999e-a4470556c3f4","system_id":"levelo_inurba_marseille","lat":43.29917,"lon":5.3652,"is_reserved":false,"is_disabled":false,"rental_uris":{"android":"levelo://app?vid=270a5d04-6705-469e-999e-a4470556c3f4","ios":"levelo://app?vid=270a5d04-6705-469e-999e-a4470556c3f4"},"vehicle_type_id":"4","last_reported":1732637563,"current_range_meters":32800,"station_id":"ce4bgm92rcd13ifvqbr0","pricing_plan_id":"cebpf4jnsgd1na2vs0mg"},{"bike_id":"ec2c977a-ebf7-49a7-8260-e79df0d73670","system_id":"levelo_inurba_marseille","lat":43.25068,"lon":5.38993,"is_reserved":false,"is_disabled":false,"rental_uris":{"android":"levelo://app?vid=ec2c977a-ebf7-49a7-8260-e79df0d73670","ios":"levelo://app?vid=ec2c977a-ebf7-49a7-8260-e79df0d73670"},"vehicle_type_id":"4","last_reported":1732637563,"current_range_meters":36800,"station_id":"","pricing_plan_id":"cebpf4jnsgd1na2vs0mg"},{"bike_id":"e7f02935-ccc8-4ca8-a35c-08e42943387c","system_id":"levelo_inurba_marseille","lat":43.31499,"lon":5.3731,"is_reserved":false,"is_disabled":false,"rental_uris":{"android":"levelo://app?vid=e7f02935-ccc8-4ca8-a35c-08e42943387c","ios":"levelo://app?vid=e7f02935-ccc8-4ca8-a35c-08e42943387c"},"vehicle_type_id":"4","last_reported":1732637563,"current_range_meters":14400,"station_id":"ce4bgt12rcd13ifvqcd0","pricing_plan_id":"cebpf4jnsgd1na2vs0mg"},{"bike_id":"58467648-159c-4b6a-8341-e93297a5df1d","system_id":"levelo_inurba_marseille","lat":43.29322,"lon":5.37186,"is_reserved":false,"is_disabled":false,"rental_uris":{"android":"levelo://app?vid=58467648-159c-4b6a-8341-e93297a5df1d","ios":"levelo://app?vid=58467648-159c-4b6a-8341-e93297a5df1d"},"vehicle_type_id":"4","last_reported":1732637563,"current_range_meters":39200,"station_id":"ce4bgh92rcd13ifvqb40","pricing_plan_id":"cebpf4jnsgd1na2vs0mg"},{"bike_id":"cf7c9153-0dc8-430f-83bc-b3f293869575","system_id":"levelo_inurba_marseille","lat":43.33726,"lon":5.39185,"is_reserved":false,"is_disabled":false,"rental_uris":{"android":"levelo://app?vid=cf7c9153-0dc8-430f-83bc-b3f293869575","ios":"levelo://app?vid=cf7c9153-0dc8-430f-83bc-b3f293869575"},"vehicle_type_id":"4","last_reported":1732637563,"current_range_meters":9200,"station_id":"ce4bhr92rcd13ifvqhsg","pricing_plan_id":"cebpf4jnsgd1na2vs0mg"},{"bike_id":"87bb7cbe-aefe-4e56-aa6b-d384b6df38eb","system_id":"levelo_inurba_marseille","lat":43.3042,"lon":5.41293,"is_reserved":false,"is_disabled":false,"rental_uris":{"android":"levelo://app?vid=87bb7cbe-aefe-4e56-aa6b-d384b6df38eb","ios":"levelo://app?vid=87bb7cbe-aefe-4e56-aa6b-d384b6df38eb"},"vehicle_type_id":"4","last_reported":1732637563,"current_range_meters":9200,"station_id":"ce4bhop2rcd13ifvqh8g","pricing_plan_id":"cebpf4jnsgd1na2vs0mg"},{"bike_id":"7366c76e-46d6-409a-8eaf-0b34e372ef77","system_id":"levelo_inurba_marseille","lat":43.30787,"lon":5.37648,"is_reserved":false,"is_disabled":false,"rental_uris":{"android":"levelo://app?vid=7366c76e-46d6-409a-8eaf-0b34e372ef77","ios":"levelo://app?vid=7366c76e-46d6-409a-8eaf-0b34e372ef77"},"vehicle_type_id":"4","last_reported":1732637563,"current_range_meters":27600,"station_id":"ce4bgv92rcd13ifvqcq0","pricing_plan_id":"cebpf4jnsgd1na2vs0mg"},{"bike_id":"f9ca3389-f0b0-42e9-b890-7ec20aa8d35e","system_id":"levelo_inurba_marseille","lat":43.29276,"lon":5.36839,"is_reserved":false,"is_disabled":true,"rental_uris":{"android":"levelo://app?vid=f9ca3389-f0b0-42e9-b890-7ec20aa8d35e","ios":"levelo://app?vid=f9ca3389-f0b0-42e9-b890-7ec20aa8d35e"},"vehicle_type_id":"4","last_reported":1732637563,"current_range_meters":16400,"station_id":"ce4bhbp2rcd13ifvqesg","pricing_plan_id":"cebpf4jnsgd1na2vs0mg"},{"bike_id":"4d809776-4d2b-4bf5-8aa6-666b5b1fd18f","system_id":"levelo_inurba_marseille","lat":43.33733,"lon":5.39182,"is_reserved":false,"is_disabled":false,"rental_uris":{"android":"levelo://app?vid=4d809776-4d2b-4bf5-8aa6-666b5b1fd18f","ios":"levelo://app?vid=4d809776-4d2b-4bf5-8aa6-666b5b1fd18f"},"vehicle_type_id":"4","last_reported":1732637563,"current_range_meters":39200,"station_id":"ce4bhr92rcd13ifvqhsg","pricing_plan_id":"cebpf4jnsgd1na2vs0mg"},{"bike_id":"5817161f-5d63-41b2-92c0-c94f8059d60c","system_id":"levelo_inurba_marseille","lat":43.337444,"lon":5.374475,"is_reserved":false,"is_disabled":false,"rental_uris":{"android":"levelo://app?vid=5817161f-5d63-41b2-92c0-c94f8059d60c","ios":"levelo://app?vid=5817161f-5d63-41b2-92c0-c94f8059d60c"},"vehicle_type_id":"4","last_reported":1732637563,"current_range_meters":36400,"station_id":"","pricing_plan_id":"cebpf4jnsgd1na2vs0mg"},{"bike_id":"88c80e96-32d0-4054-a0d8-e15b372ae003","system_id":"levelo_inurba_marseille","lat":43.23193,"lon":5.35568,"is_reserved":false,"is_disabled":false,"rental_uris":{"android":"levelo://app?vid=88c80e96-32d0-4054-a0d8-e15b372ae003","ios":"levelo://app?vid=88c80e96-32d0-4054-a0d8-e15b372ae003"},"vehicle_type_id":"4","last_reported":1732637563,"current_range_meters":14000,"station_id":"ce4bhu92rcd13ifvqi70","pricing_plan_id":"cebpf4jnsgd1na2vs0mg"},{"bike_id":"1928669c-c769-4f79-a625-a4b487fd4198","system_id":"levelo_inurba_marseille","lat":43.2926,"lon":5.38436,"is_reserved":false,"is_disabled":false,"rental_uris":{"android":"levelo://app?vid=1928669c-c769-4f79-a625-a4b487fd4198","ios":"levelo://app?vid=1928669c-c769-4f79-a625-a4b487fd4198"},"vehicle_type_id":"4","last_reported":1732637563,"current_range_meters":9600,"station_id":"ce4bh692rcd13ifvqea0","pricing_plan_id":"cebpf4jnsgd1na2vs0mg"},{"bike_id":"3521bfcc-30fe-44e7-b8f0-0de6dad9a866","system_id":"levelo_inurba_marseille","lat":43.29023,"lon":5.38645,"is_reserved":false,"is_disabled":false,"rental_uris":{"android":"levelo://app?vid=3521bfcc-30fe-44e7-b8f0-0de6dad9a866","ios":"levelo://app?vid=3521bfcc-30fe-44e7-b8f0-0de6dad9a866"},"vehicle_type_id":"4","last_reported":1732637563,"current_range_meters":33600,"station_id":"ce4bh4p2rcd13ifvqe0g","pricing_plan_id":"cebpf4jnsgd1na2vs0mg"},{"bike_id":"f96a3923-1d4e-4f83-b670-ad12c27a17fe","system_id":"levelo_inurba_marseille","lat":43.23964,"lon":5.3663,"is_reserved":false,"is_disabled":false,"rental_uris":{"android":"levelo://app?vid=f96a3923-1d4e-4f83-b670-ad12c27a17fe","ios":"levelo://app?vid=f96a3923-1d4e-4f83-b670-ad12c27a17fe"},"vehicle_type_id":"4","last_reported":1732637563,"current_range_meters":6400,"station_id":"ce4bhi12rcd13ifvqfp0","pricing_plan_id":"cebpf4jnsgd1na2vs0mg"},{"bike_id":"75901f46-3752-48e5-99cc-ec26667053f3","system_id":"levelo_inurba_marseille","lat":43.29193,"lon":5.39322,"is_reserved":false,"is_disabled":false,"rental_uris":{"android":"levelo://app?vid=75901f46-3752-48e5-99cc-ec26667053f3","ios":"levelo://app?vid=75901f46-3752-48e5-99cc-ec26667053f3"},"vehicle_type_id":"4","last_reported":1732637563,"current_range_meters":40000,"station_id":"ce4bh192rcd13ifvqdd0","pricing_plan_id":"cebpf4jnsgd1na2vs0mg"},{"bike_id":"6cd7520b-5ade-4b6f-aa0b-89fcdfe1156c","system_id":"levelo_inurba_marseille","lat":43.24654,"lon":5.38168,"is_reserved":false,"is_disabled":true,"rental_uris":{"android":"levelo://app?vid=6cd7520b-5ade-4b6f-aa0b-89fcdfe1156c","ios":"levelo://app?vid=6cd7520b-5ade-4b6f-aa0b-89fcdfe1156c"},"vehicle_type_id":"4","last_reported":1732637563,"current_range_meters":1200,"station_id":"ce4bhih2rcd13ifvqfr0","pricing_plan_id":"cebpf4jnsgd1na2vs0mg"},{"bike_id":"22225a43-71ee-487c-95ed-6006869f6252","system_id":"levelo_inurba_marseille","lat":43.29862,"lon":5.36267,"is_reserved":false,"is_disabled":false,"rental_uris":{"android":"levelo://app?vid=22225a43-71ee-487c-95ed-6006869f6252","ios":"levelo://app?vid=22225a43-71ee-487c-95ed-6006869f6252"},"vehicle_type_id":"4","last_reported":1732637563,"current_range_meters":38800,"station_id":"ce4bgpp2rcd13ifvqc3g","pricing_plan_id":"cebpf4jnsgd1na2vs0mg"},{"bike_id":"537b0ad8-baad-4785-b693-76fefa8af4a9","system_id":"levelo_inurba_marseille","lat":43.24654,"lon":5.38892,"is_reserved":false,"is_disabled":false,"rental_uris":{"android":"levelo://app?vid=537b0ad8-baad-4785-b693-76fefa8af4a9","ios":"levelo://app?vid=537b0ad8-baad-4785-b693-76fefa8af4a9"},"vehicle_type_id":"4","last_reported":1732637563,"current_range_meters":12000,"station_id":"ce4bhg12rcd13ifvqf60","pricing_plan_id":"cebpf4jnsgd1na2vs0mg"},{"bike_id":"0cd7fb1f-f090-4e80-a2fb-03510d2b2219","system_id":"levelo_inurba_marseille","lat":43.29585,"lon":5.37516,"is_reserved":false,"is_disabled":true,"rental_uris":{"android":"levelo://app?vid=0cd7fb1f-f090-4e80-a2fb-03510d2b2219","ios":"levelo://app?vid=0cd7fb1f-f090-4e80-a2fb-03510d2b2219"},"vehicle_type_id":"4","last_reported":1732637563,"current_range_meters":33600,"station_id":"ce4bgh92rcd13ifvqb50","pricing_plan_id":"cebpf4jnsgd1na2vs0mg"},{"bike_id":"d33a5273-2943-4fa7-881b-94fa64c3bbe9","system_id":"levelo_inurba_marseille","lat":43.23963,"lon":5.36645,"is_reserved":false,"is_disabled":false,"rental_uris":{"android":"levelo://app?vid=d33a5273-2943-4fa7-881b-94fa64c3bbe9","ios":"levelo://app?vid=d33a5273-2943-4fa7-881b-94fa64c3bbe9"},"vehicle_type_id":"4","last_reported":1732637563,"current_range_meters":38800,"station_id":"ce4bhi12rcd13ifvqfp0","pricing_plan_id":"cebpf4jnsgd1na2vs0mg"},{"bike_id":"c210e805-bb46-4ca2-9453-a2590b894a30","system_id":"levelo_inurba_marseille","lat":43.26782,"lon":5.39427,"is_reserved":false,"is_disabled":false,"rental_uris":{"android":"levelo://app?vid=c210e805-bb46-4ca2-9453-a2590b894a30","ios":"levelo://app?vid=c210e805-bb46-4ca2-9453-a2590b894a30"},"vehicle_type_id":"4","last_reported":1732637563,"current_range_meters":2000,"station_id":"ce4bhh12rcd13ifvqfg0","pricing_plan_id":"cebpf4jnsgd1na2vs0mg"},{"bike_id":"b243203a-9d90-4b8f-8f29-88467f937808","system_id":"levelo_inurba_marseille","lat":43.29036,"lon":5.3592,"is_reserved":false,"is_disabled":false,"rental_uris":{"android":"levelo://app?vid=b243203a-9d90-4b8f-8f29-88467f937808","ios":"levelo://app?vid=b243203a-9d90-4b8f-8f29-88467f937808"},"vehicle_type_id":"4","last_reported":1732637563,"current_range_meters":32000,"station_id":"ce4bha92rcd13ifvqeg0","pricing_plan_id":"cebpf4jnsgd1na2vs0mg"},{"bike_id":"6a243988-d267-4e1e-bafc-c091870de6a8","system_id":"levelo_inurba_marseille","lat":43.24171,"lon":5.36403,"is_reserved":false,"is_disabled":false,"rental_uris":{"android":"levelo://app?vid=6a243988-d267-4e1e-bafc-c091870de6a8","ios":"levelo://app?vid=6a243988-d267-4e1e-bafc-c091870de6a8"},"vehicle_type_id":"4","last_reported":1732637563,"current_range_meters":38400,"station_id":"cpo36qri1sfpv3e86is0","pricing_plan_id":"cebpf4jnsgd1na2vs0mg"},{"bike_id":"691d64d1-4d4f-4c84-851b-7a35722818f8","system_id":"levelo_inurba_marseille","lat":43.26062,"lon":5.39404,"is_reserved":false,"is_disabled":false,"rental_uris":{"android":"levelo://app?vid=691d64d1-4d4f-4c84-851b-7a35722818f8","ios":"levelo://app?vid=691d64d1-4d4f-4c84-851b-7a35722818f8"},"vehicle_type_id":"4","last_reported":1732637563,"current_range_meters":37600,"station_id":"ce4bhh92rcd13ifvqfj0","pricing_plan_id":"cebpf4jnsgd1na2vs0mg"},{"bike_id":"7e38d160-5d86-42b2-bf0f-9979b0a4e20d","system_id":"levelo_inurba_marseille","lat":43.33023,"lon":5.39048,"is_reserved":false,"is_disabled":false,"rental_uris":{"android":"levelo://app?vid=7e38d160-5d86-42b2-bf0f-9979b0a4e20d","ios":"levelo://app?vid=7e38d160-5d86-42b2-bf0f-9979b0a4e20d"},"vehicle_type_id":"4","last_reported":1732637563,"current_range_meters":20400,"station_id":"ce4bhr92rcd13ifvqhrg","pricing_plan_id":"cebpf4jnsgd1na2vs0mg"},{"bike_id":"2ec18c95-ca10-439c-bddf-51ecb2c1981b","system_id":"levelo_inurba_marseille","lat":43.24651,"lon":5.38897,"is_reserved":false,"is_disabled":false,"rental_uris":{"android":"levelo://app?vid=2ec18c95-ca10-439c-bddf-51ecb2c1981b","ios":"levelo://app?vid=2ec18c95-ca10-439c-bddf-51ecb2c1981b"},"vehicle_type_id":"4","last_reported":1732637563,"current_range_meters":34800,"station_id":"ce4bhg12rcd13ifvqf60","pricing_plan_id":"cebpf4jnsgd1na2vs0mg"},{"bike_id":"39b04c21-6a6a-40a7-a489-741c2b67c9bd","system_id":"levelo_inurba_marseille","lat":43.3373,"lon":5.39191,"is_reserved":false,"is_disabled":false,"rental_uris":{"android":"levelo://app?vid=39b04c21-6a6a-40a7-a489-741c2b67c9bd","ios":"levelo://app?vid=39b04c21-6a6a-40a7-a489-741c2b67c9bd"},"vehicle_type_id":"4","last_reported":1732637563,"current_range_meters":16000,"station_id":"ce4bhr92rcd13ifvqhsg","pricing_plan_id":"cebpf4jnsgd1na2vs0mg"},{"bike_id":"e3a5ad19-5848-4b8d-bd5d-bd10ccff0880","system_id":"levelo_inurba_marseille","lat":43.30316,"lon":5.36913,"is_reserved":false,"is_disabled":false,"rental_uris":{"android":"levelo://app?vid=e3a5ad19-5848-4b8d-bd5d-bd10ccff0880","ios":"levelo://app?vid=e3a5ad19-5848-4b8d-bd5d-bd10ccff0880"},"vehicle_type_id":"4","last_reported":1732637563,"current_range_meters":35200,"station_id":"ce4bgqh2rcd13ifvqc5g","pricing_plan_id":"cebpf4jnsgd1na2vs0mg"},{"bike_id":"91c9aa15-718b-4d5a-ae37-5e51d0cc92b9","system_id":"levelo_inurba_marseille","lat":43.28424,"lon":5.349878,"is_reserved":false,"is_disabled":false,"rental_uris":{"android":"levelo://app?vid=91c9aa15-718b-4d5a-ae37-5e51d0cc92b9","ios":"levelo://app?vid=91c9aa15-718b-4d5a-ae37-5e51d0cc92b9"},"vehicle_type_id":"4","last_reported":1732637563,"current_range_meters":38000,"station_id":"ce4bhbh2rcd13ifvqepg","pricing_plan_id":"cebpf4jnsgd1na2vs0mg"},{"bike_id":"2de7cae5-5ff7-4e8e-b04a-8f63f72fbf93","system_id":"levelo_inurba_marseille","lat":43.31533,"lon":5.38036,"is_reserved":false,"is_disabled":false,"rental_uris":{"android":"levelo://app?vid=2de7cae5-5ff7-4e8e-b04a-8f63f72fbf93","ios":"levelo://app?vid=2de7cae5-5ff7-4e8e-b04a-8f63f72fbf93"},"vehicle_type_id":"4","last_reported":1732637563,"current_range_meters":36800,"station_id":"ce4bhsp2rcd13ifvqi50","pricing_plan_id":"cebpf4jnsgd1na2vs0mg"},{"bike_id":"df6dfede-364c-4a0e-8f22-cb21db50a29f","system_id":"levelo_inurba_marseille","lat":43.23189,"lon":5.39987,"is_reserved":false,"is_disabled":false,"rental_uris":{"android":"levelo://app?vid=df6dfede-364c-4a0e-8f22-cb21db50a29f","ios":"levelo://app?vid=df6dfede-364c-4a0e-8f22-cb21db50a29f"},"vehicle_type_id":"4","last_reported":1732637563,"current_range_meters":38800,"station_id":"ce4bhn12rcd13ifvqgqg","pricing_plan_id":"cebpf4jnsgd1na2vs0mg"},{"bike_id":"f322df79-0242-4db0-ac2e-452d61c9528e","system_id":"levelo_inurba_marseille","lat":43.25569,"lon":5.38239,"is_reserved":false,"is_disabled":false,"rental_uris":{"android":"levelo://app?vid=f322df79-0242-4db0-ac2e-452d61c9528e","ios":"levelo://app?vid=f322df79-0242-4db0-ac2e-452d61c9528e"},"vehicle_type_id":"4","last_reported":1732637563,"current_range_meters":38000,"station_id":"ce4bhih2rcd13ifvqfs0","pricing_plan_id":"cebpf4jnsgd1na2vs0mg"},{"bike_id":"4f7aa767-eb91-4580-8312-45034b7fe78c","system_id":"levelo_inurba_marseille","lat":43.25496,"lon":5.37651,"is_reserved":false,"is_disabled":false,"rental_uris":{"android":"levelo://app?vid=4f7aa767-eb91-4580-8312-45034b7fe78c","ios":"levelo://app?vid=4f7aa767-eb91-4580-8312-45034b7fe78c"},"vehicle_type_id":"4","last_reported":1732637563,"current_range_meters":38800,"station_id":"ce4bhh12rcd13ifvqff0","pricing_plan_id":"cebpf4jnsgd1na2vs0mg"},{"bike_id":"3b2ddd61-7276-4381-b067-2a88d42fe9ff","system_id":"levelo_inurba_marseille","lat":43.28211,"lon":5.35084,"is_reserved":false,"is_disabled":false,"rental_uris":{"android":"levelo://app?vid=3b2ddd61-7276-4381-b067-2a88d42fe9ff","ios":"levelo://app?vid=3b2ddd61-7276-4381-b067-2a88d42fe9ff"},"vehicle_type_id":"4","last_reported":1732637563,"current_range_meters":19200,"station_id":"","pricing_plan_id":"cebpf4jnsgd1na2vs0mg"},{"bike_id":"6c76c8ed-2fd3-4402-aab2-8a16f9768214","system_id":"levelo_inurba_marseille","lat":43.26073,"lon":5.39396,"is_reserved":false,"is_disabled":false,"rental_uris":{"android":"levelo://app?vid=6c76c8ed-2fd3-4402-aab2-8a16f9768214","ios":"levelo://app?vid=6c76c8ed-2fd3-4402-aab2-8a16f9768214"},"vehicle_type_id":"4","last_reported":1732637563,"current_range_meters":4800,"station_id":"ce4bhh92rcd13ifvqfj0","pricing_plan_id":"cebpf4jnsgd1na2vs0mg"},{"bike_id":"36296f5c-0176-4be0-97c8-7930cda9c369","system_id":"levelo_inurba_marseille","lat":43.32103,"lon":5.36771,"is_reserved":false,"is_disabled":false,"rental_uris":{"android":"levelo://app?vid=36296f5c-0176-4be0-97c8-7930cda9c369","ios":"levelo://app?vid=36296f5c-0176-4be0-97c8-7930cda9c369"},"vehicle_type_id":"4","last_reported":1732637563,"current_range_meters":22000,"station_id":"ce4bhrh2rcd13ifvqhug","pricing_plan_id":"cebpf4jnsgd1na2vs0mg"},{"bike_id":"0553f736-692f-4524-9ddf-ba8330263167","system_id":"levelo_inurba_marseille","lat":43.2791,"lon":5.39582,"is_reserved":false,"is_disabled":false,"rental_uris":{"android":"levelo://app?vid=0553f736-692f-4524-9ddf-ba8330263167","ios":"levelo://app?vid=0553f736-692f-4524-9ddf-ba8330263167"},"vehicle_type_id":"4","last_reported":1732637563,"current_range_meters":20400,"station_id":"ce4bhf92rcd13ifvqf40","pricing_plan_id":"cebpf4jnsgd1na2vs0mg"},{"bike_id":"154eb6bc-d0c9-4355-bd8c-4e5e6e872c26","system_id":"levelo_inurba_marseille","lat":43.30559,"lon":5.36561,"is_reserved":false,"is_disabled":false,"rental_uris":{"android":"levelo://app?vid=154eb6bc-d0c9-4355-bd8c-4e5e6e872c26","ios":"levelo://app?vid=154eb6bc-d0c9-4355-bd8c-4e5e6e872c26"},"vehicle_type_id":"4","last_reported":1732637563,"current_range_meters":6000,"station_id":"ce4bgs12rcd13ifvqcag","pricing_plan_id":"cebpf4jnsgd1na2vs0mg"},{"bike_id":"2d3ac0cf-9b0a-4e1a-a923-ea0c3542ce6a","system_id":"levelo_inurba_marseille","lat":43.26027,"lon":5.37553,"is_reserved":false,"is_disabled":false,"rental_uris":{"android":"levelo://app?vid=2d3ac0cf-9b0a-4e1a-a923-ea0c3542ce6a","ios":"levelo://app?vid=2d3ac0cf-9b0a-4e1a-a923-ea0c3542ce6a"},"vehicle_type_id":"4","last_reported":1732637563,"current_range_meters":8800,"station_id":"ce4bhgh2rcd13ifvqfa0","pricing_plan_id":"cebpf4jnsgd1na2vs0mg"},{"bike_id":"1ebc2642-599e-41e5-89df-308a45bbfcfb","system_id":"levelo_inurba_marseille","lat":43.32101,"lon":5.36778,"is_reserved":false,"is_disabled":false,"rental_uris":{"android":"levelo://app?vid=1ebc2642-599e-41e5-89df-308a45bbfcfb","ios":"levelo://app?vid=1ebc2642-599e-41e5-89df-308a45bbfcfb"},"vehicle_type_id":"4","last_reported":1732637563,"current_range_meters":13600,"station_id":"ce4bhrh2rcd13ifvqhug","pricing_plan_id":"cebpf4jnsgd1na2vs0mg"},{"bike_id":"84981e64-dbe1-4ce5-873b-694d856e5c2a","system_id":"levelo_inurba_marseille","lat":43.28156,"lon":5.42639,"is_reserved":false,"is_disabled":false,"rental_uris":{"android":"levelo://app?vid=84981e64-dbe1-4ce5-873b-694d856e5c2a","ios":"levelo://app?vid=84981e64-dbe1-4ce5-873b-694d856e5c2a"},"vehicle_type_id":"4","last_reported":1732637563,"current_range_meters":30800,"station_id":"ce4bhnh2rcd13ifvqgug","pricing_plan_id":"cebpf4jnsgd1na2vs0mg"},{"bike_id":"3b96cfbd-77be-4e1a-868e-ee262e31d956","system_id":"levelo_inurba_marseille","lat":43.29912,"lon":5.3814,"is_reserved":false,"is_disabled":false,"rental_uris":{"android":"levelo://app?vid=3b96cfbd-77be-4e1a-868e-ee262e31d956","ios":"levelo://app?vid=3b96cfbd-77be-4e1a-868e-ee262e31d956"},"vehicle_type_id":"4","last_reported":1732637563,"current_range_meters":19600,"station_id":"ce4bgj12rcd13ifvqbc0","pricing_plan_id":"cebpf4jnsgd1na2vs0mg"},{"bike_id":"9a2fb4f0-7aa8-4269-b473-06ad64711e5a","system_id":"levelo_inurba_marseille","lat":43.28103,"lon":5.37838,"is_reserved":false,"is_disabled":false,"rental_uris":{"android":"levelo://app?vid=9a2fb4f0-7aa8-4269-b473-06ad64711e5a","ios":"levelo://app?vid=9a2fb4f0-7aa8-4269-b473-06ad64711e5a"},"vehicle_type_id":"4","last_reported":1732637563,"current_range_meters":27200,"station_id":"ce4bha12rcd13ifvqee0","pricing_plan_id":"cebpf4jnsgd1na2vs0mg"},{"bike_id":"e8a12a11-eb94-43a1-89dc-1a990d2d11f4","system_id":"levelo_inurba_marseille","lat":43.23147,"lon":5.43732,"is_reserved":false,"is_disabled":false,"rental_uris":{"android":"levelo://app?vid=e8a12a11-eb94-43a1-89dc-1a990d2d11f4","ios":"levelo://app?vid=e8a12a11-eb94-43a1-89dc-1a990d2d11f4"},"vehicle_type_id":"4","last_reported":1732637563,"current_range_meters":37600,"station_id":"ce4bhmp2rcd13ifvqgog","pricing_plan_id":"cebpf4jnsgd1na2vs0mg"},{"bike_id":"9cb3f477-d4e9-4dfc-943a-574258c3c1c4","system_id":"levelo_inurba_marseille","lat":43.27565,"lon":5.38406,"is_reserved":false,"is_disabled":false,"rental_uris":{"android":"levelo://app?vid=9cb3f477-d4e9-4dfc-943a-574258c3c1c4","ios":"levelo://app?vid=9cb3f477-d4e9-4dfc-943a-574258c3c1c4"},"vehicle_type_id":"4","last_reported":1732637563,"current_range_meters":10800,"station_id":"ce4bhh92rcd13ifvqfi0","pricing_plan_id":"cebpf4jnsgd1na2vs0mg"},{"bike_id":"59918b19-0875-41b1-a6b3-7c8e900a1bb8","system_id":"levelo_inurba_marseille","lat":43.27811,"lon":5.4071,"is_reserved":false,"is_disabled":false,"rental_uris":{"android":"levelo://app?vid=59918b19-0875-41b1-a6b3-7c8e900a1bb8","ios":"levelo://app?vid=59918b19-0875-41b1-a6b3-7c8e900a1bb8"},"vehicle_type_id":"4","last_reported":1732637563,"current_range_meters":38800,"station_id":"ce4bhnh2rcd13ifvqgtg","pricing_plan_id":"cebpf4jnsgd1na2vs0mg"},{"bike_id":"51b398f2-b539-440c-917f-0128fd59b7e4","system_id":"levelo_inurba_marseille","lat":43.28459,"lon":5.35889,"is_reserved":false,"is_disabled":false,"rental_uris":{"android":"levelo://app?vid=51b398f2-b539-440c-917f-0128fd59b7e4","ios":"levelo://app?vid=51b398f2-b539-440c-917f-0128fd59b7e4"},"vehicle_type_id":"4","last_reported":1732637563,"current_range_meters":18800,"station_id":"ce4bhah2rcd13ifvqei0","pricing_plan_id":"cebpf4jnsgd1na2vs0mg"},{"bike_id":"1cd78e3c-eca2-430e-a00b-3450b52eb373","system_id":"levelo_inurba_marseille","lat":43.22932,"lon":5.3538,"is_reserved":false,"is_disabled":true,"rental_uris":{"android":"levelo://app?vid=1cd78e3c-eca2-430e-a00b-3450b52eb373","ios":"levelo://app?vid=1cd78e3c-eca2-430e-a00b-3450b52eb373"},"vehicle_type_id":"4","last_reported":1732637563,"current_range_meters":0,"station_id":"cpo3532slgdg3j2ikp40","pricing_plan_id":"cebpf4jnsgd1na2vs0mg"},{"bike_id":"d753b486-4f22-4e01-9739-6a6424def10a","system_id":"levelo_inurba_marseille","lat":43.28272,"lon":5.35061,"is_reserved":false,"is_disabled":false,"rental_uris":{"android":"levelo://app?vid=d753b486-4f22-4e01-9739-6a6424def10a","ios":"levelo://app?vid=d753b486-4f22-4e01-9739-6a6424def10a"},"vehicle_type_id":"4","last_reported":1732637563,"current_range_meters":30000,"station_id":"ce4bhbp2rcd13ifvqerg","pricing_plan_id":"cebpf4jnsgd1na2vs0mg"},{"bike_id":"47fff7f2-5c9d-4c3f-8fe4-c3a5aefbae65","system_id":"levelo_inurba_marseille","lat":43.299065,"lon":5.381532,"is_reserved":false,"is_disabled":false,"rental_uris":{"android":"levelo://app?vid=47fff7f2-5c9d-4c3f-8fe4-c3a5aefbae65","ios":"levelo://app?vid=47fff7f2-5c9d-4c3f-8fe4-c3a5aefbae65"},"vehicle_type_id":"4","last_reported":1732637563,"current_range_meters":26000,"station_id":"ce4bgj12rcd13ifvqbc0","pricing_plan_id":"cebpf4jnsgd1na2vs0mg"},{"bike_id":"6c8f00ee-cd2d-4cfe-aa28-046c03624c0b","system_id":"levelo_inurba_marseille","lat":43.29931,"lon":5.36556,"is_reserved":false,"is_disabled":false,"rental_uris":{"android":"levelo://app?vid=6c8f00ee-cd2d-4cfe-aa28-046c03624c0b","ios":"levelo://app?vid=6c8f00ee-cd2d-4cfe-aa28-046c03624c0b"},"vehicle_type_id":"4","last_reported":1732637563,"current_range_meters":38800,"station_id":"ce4bgm92rcd13ifvqbr0","pricing_plan_id":"cebpf4jnsgd1na2vs0mg"},{"bike_id":"f80c5603-100c-4ff8-a693-c6c541628d7c","system_id":"levelo_inurba_marseille","lat":43.24649,"lon":5.38891,"is_reserved":false,"is_disabled":false,"rental_uris":{"android":"levelo://app?vid=f80c5603-100c-4ff8-a693-c6c541628d7c","ios":"levelo://app?vid=f80c5603-100c-4ff8-a693-c6c541628d7c"},"vehicle_type_id":"4","last_reported":1732637563,"current_range_meters":16400,"station_id":"ce4bhg12rcd13ifvqf60","pricing_plan_id":"cebpf4jnsgd1na2vs0mg"},{"bike_id":"ad147b94-4180-4578-a0fa-c4d1998acb2d","system_id":"levelo_inurba_marseille","lat":43.29047,"lon":5.35923,"is_reserved":false,"is_disabled":true,"rental_uris":{"android":"levelo://app?vid=ad147b94-4180-4578-a0fa-c4d1998acb2d","ios":"levelo://app?vid=ad147b94-4180-4578-a0fa-c4d1998acb2d"},"vehicle_type_id":"4","last_reported":1732637563,"current_range_meters":38800,"station_id":"ce4bha92rcd13ifvqeg0","pricing_plan_id":"cebpf4jnsgd1na2vs0mg"},{"bike_id":"0a9061a0-8df6-4ca0-9c35-7a5c736f006f","system_id":"levelo_inurba_marseille","lat":43.28078,"lon":5.39659,"is_reserved":false,"is_disabled":false,"rental_uris":{"android":"levelo://app?vid=0a9061a0-8df6-4ca0-9c35-7a5c736f006f","ios":"levelo://app?vid=0a9061a0-8df6-4ca0-9c35-7a5c736f006f"},"vehicle_type_id":"4","last_reported":1732637563,"current_range_meters":22800,"station_id":"ce4bho12rcd13ifvqh2g","pricing_plan_id":"cebpf4jnsgd1na2vs0mg"},{"bike_id":"e1023cd0-0598-4752-bca2-87e3d8646e5a","system_id":"levelo_inurba_marseille","lat":43.27376,"lon":5.36257,"is_reserved":false,"is_disabled":true,"rental_uris":{"android":"levelo://app?vid=e1023cd0-0598-4752-bca2-87e3d8646e5a","ios":"levelo://app?vid=e1023cd0-0598-4752-bca2-87e3d8646e5a"},"vehicle_type_id":"4","last_reported":1732637563,"current_range_meters":0,"station_id":"ce4bhbh2rcd13ifvqeo0","pricing_plan_id":"cebpf4jnsgd1na2vs0mg"},{"bike_id":"d6025d49-5c93-4f49-9e85-db3ba94f4197","system_id":"levelo_inurba_marseille","lat":43.23059,"lon":5.35491,"is_reserved":false,"is_disabled":false,"rental_uris":{"android":"levelo://app?vid=d6025d49-5c93-4f49-9e85-db3ba94f4197","ios":"levelo://app?vid=d6025d49-5c93-4f49-9e85-db3ba94f4197"},"vehicle_type_id":"4","last_reported":1732637563,"current_range_meters":31200,"station_id":"cpo3342slgdg3j2ifvpg","pricing_plan_id":"cebpf4jnsgd1na2vs0mg"},{"bike_id":"2e68222f-30cf-465f-9189-69aabdbbd1e6","system_id":"levelo_inurba_marseille","lat":43.3185,"lon":5.38783,"is_reserved":false,"is_disabled":false,"rental_uris":{"android":"levelo://app?vid=2e68222f-30cf-465f-9189-69aabdbbd1e6","ios":"levelo://app?vid=2e68222f-30cf-465f-9189-69aabdbbd1e6"},"vehicle_type_id":"4","last_reported":1732637563,"current_range_meters":30000,"station_id":"","pricing_plan_id":"cebpf4jnsgd1na2vs0mg"},{"bike_id":"f8f210e9-7cfa-4570-97c5-54a656715041","system_id":"levelo_inurba_marseille","lat":43.28611,"lon":5.37067,"is_reserved":false,"is_disabled":false,"rental_uris":{"android":"levelo://app?vid=f8f210e9-7cfa-4570-97c5-54a656715041","ios":"levelo://app?vid=f8f210e9-7cfa-4570-97c5-54a656715041"},"vehicle_type_id":"4","last_reported":1732637563,"current_range_meters":37600,"station_id":"ce4bht12rcd13ifvqi60","pricing_plan_id":"cebpf4jnsgd1na2vs0mg"},{"bike_id":"3c4a72dc-b262-42a9-b143-1ab8cb560762","system_id":"levelo_inurba_marseille","lat":43.23193,"lon":5.35551,"is_reserved":false,"is_disabled":false,"rental_uris":{"android":"levelo://app?vid=3c4a72dc-b262-42a9-b143-1ab8cb560762","ios":"levelo://app?vid=3c4a72dc-b262-42a9-b143-1ab8cb560762"},"vehicle_type_id":"4","last_reported":1732637563,"current_range_meters":18000,"station_id":"ce4bhu92rcd13ifvqi70","pricing_plan_id":"cebpf4jnsgd1na2vs0mg"},{"bike_id":"858b65e1-94fc-4151-a71e-8b168cb19dcb","system_id":"levelo_inurba_marseille","lat":43.32249,"lon":5.39241,"is_reserved":false,"is_disabled":true,"rental_uris":{"android":"levelo://app?vid=858b65e1-94fc-4151-a71e-8b168cb19dcb","ios":"levelo://app?vid=858b65e1-94fc-4151-a71e-8b168cb19dcb"},"vehicle_type_id":"4","last_reported":1732637563,"current_range_meters":0,"station_id":"","pricing_plan_id":"cebpf4jnsgd1na2vs0mg"},{"bike_id":"f3936f42-9569-4a6b-8134-99a6c360929b","system_id":"levelo_inurba_marseille","lat":43.29006,"lon":5.35612,"is_reserved":false,"is_disabled":false,"rental_uris":{"android":"levelo://app?vid=f3936f42-9569-4a6b-8134-99a6c360929b","ios":"levelo://app?vid=f3936f42-9569-4a6b-8134-99a6c360929b"},"vehicle_type_id":"4","last_reported":1732637563,"current_range_meters":30800,"station_id":"ce4bhb92rcd13ifvqen0","pricing_plan_id":"cebpf4jnsgd1na2vs0mg"},{"bike_id":"e51b2acb-d883-446b-9ce9-347608453ece","system_id":"levelo_inurba_marseille","lat":43.22927,"lon":5.35382,"is_reserved":false,"is_disabled":false,"rental_uris":{"android":"levelo://app?vid=e51b2acb-d883-446b-9ce9-347608453ece","ios":"levelo://app?vid=e51b2acb-d883-446b-9ce9-347608453ece"},"vehicle_type_id":"4","last_reported":1732637563,"current_range_meters":38800,"station_id":"cpo3532slgdg3j2ikp40","pricing_plan_id":"cebpf4jnsgd1na2vs0mg"},{"bike_id":"9cdf7ab9-c7ee-446a-a9aa-548296ab1796","system_id":"levelo_inurba_marseille","lat":43.28707,"lon":5.4,"is_reserved":false,"is_disabled":false,"rental_uris":{"android":"levelo://app?vid=9cdf7ab9-c7ee-446a-a9aa-548296ab1796","ios":"levelo://app?vid=9cdf7ab9-c7ee-446a-a9aa-548296ab1796"},"vehicle_type_id":"4","last_reported":1732637563,"current_range_meters":38800,"station_id":"ce4bho92rcd13ifvqh3g","pricing_plan_id":"cebpf4jnsgd1na2vs0mg"},{"bike_id":"bf931dd5-f51c-4e08-a215-d4b67ea18d16","system_id":"levelo_inurba_marseille","lat":43.27372,"lon":5.36243,"is_reserved":false,"is_disabled":false,"rental_uris":{"android":"levelo://app?vid=bf931dd5-f51c-4e08-a215-d4b67ea18d16","ios":"levelo://app?vid=bf931dd5-f51c-4e08-a215-d4b67ea18d16"},"vehicle_type_id":"4","last_reported":1732637563,"current_range_meters":26000,"station_id":"ce4bhbh2rcd13ifvqeo0","pricing_plan_id":"cebpf4jnsgd1na2vs0mg"},{"bike_id":"4a84cbfa-e4ac-4be1-a012-ad9f92038626","system_id":"levelo_inurba_marseille","lat":43.30145,"lon":5.39864,"is_reserved":false,"is_disabled":false,"rental_uris":{"android":"levelo://app?vid=4a84cbfa-e4ac-4be1-a012-ad9f92038626","ios":"levelo://app?vid=4a84cbfa-e4ac-4be1-a012-ad9f92038626"},"vehicle_type_id":"4","last_reported":1732637563,"current_range_meters":24400,"station_id":"ce4bh0h2rcd13ifvqd40","pricing_plan_id":"cebpf4jnsgd1na2vs0mg"},{"bike_id":"e56684af-a751-4c04-bbbf-8c304207b3ae","system_id":"levelo_inurba_marseille","lat":43.23204,"lon":5.35591,"is_reserved":false,"is_disabled":false,"rental_uris":{"android":"levelo://app?vid=e56684af-a751-4c04-bbbf-8c304207b3ae","ios":"levelo://app?vid=e56684af-a751-4c04-bbbf-8c304207b3ae"},"vehicle_type_id":"4","last_reported":1732637563,"current_range_meters":38800,"station_id":"ce4bhu92rcd13ifvqi70","pricing_plan_id":"cebpf4jnsgd1na2vs0mg"},{"bike_id":"bb4a47ae-6e45-4b6b-a736-e2a9fe40cb4a","system_id":"levelo_inurba_marseille","lat":43.24799,"lon":5.37456,"is_reserved":false,"is_disabled":false,"rental_uris":{"android":"levelo://app?vid=bb4a47ae-6e45-4b6b-a736-e2a9fe40cb4a","ios":"levelo://app?vid=bb4a47ae-6e45-4b6b-a736-e2a9fe40cb4a"},"vehicle_type_id":"4","last_reported":1732637563,"current_range_meters":28000,"station_id":"ce4bhgh2rcd13ifvqfb0","pricing_plan_id":"cebpf4jnsgd1na2vs0mg"},{"bike_id":"f7f3756c-1ec7-4782-9c87-6273f87b6774","system_id":"levelo_inurba_marseille","lat":43.337444,"lon":5.374475,"is_reserved":false,"is_disabled":true,"rental_uris":{"android":"levelo://app?vid=f7f3756c-1ec7-4782-9c87-6273f87b6774","ios":"levelo://app?vid=f7f3756c-1ec7-4782-9c87-6273f87b6774"},"vehicle_type_id":"4","last_reported":1732637563,"current_range_meters":18800,"station_id":"","pricing_plan_id":"cebpf4jnsgd1na2vs0mg"},{"bike_id":"f8898f41-5b94-48dc-99b4-4801bf3e01b3","system_id":"levelo_inurba_marseille","lat":43.28839,"lon":5.39333,"is_reserved":false,"is_disabled":false,"rental_uris":{"android":"levelo://app?vid=f8898f41-5b94-48dc-99b4-4801bf3e01b3","ios":"levelo://app?vid=f8898f41-5b94-48dc-99b4-4801bf3e01b3"},"vehicle_type_id":"4","last_reported":1732637563,"current_range_meters":8400,"station_id":"ce4bh2p2rcd13ifvqdi0","pricing_plan_id":"cebpf4jnsgd1na2vs0mg"},{"bike_id":"d192c5d9-ae48-4e30-b170-0593a717b8e8","system_id":"levelo_inurba_marseille","lat":43.29023,"lon":5.38145,"is_reserved":false,"is_disabled":false,"rental_uris":{"android":"levelo://app?vid=d192c5d9-ae48-4e30-b170-0593a717b8e8","ios":"levelo://app?vid=d192c5d9-ae48-4e30-b170-0593a717b8e8"},"vehicle_type_id":"4","last_reported":1732637563,"current_range_meters":16800,"station_id":"ce4bh4p2rcd13ifvqe1g","pricing_plan_id":"cebpf4jnsgd1na2vs0mg"},{"bike_id":"0fc724ac-45c6-4b8d-82c9-3032057c18e3","system_id":"levelo_inurba_marseille","lat":43.28615,"lon":5.370594,"is_reserved":false,"is_disabled":false,"rental_uris":{"android":"levelo://app?vid=0fc724ac-45c6-4b8d-82c9-3032057c18e3","ios":"levelo://app?vid=0fc724ac-45c6-4b8d-82c9-3032057c18e3"},"vehicle_type_id":"4","last_reported":1732637563,"current_range_meters":37600,"station_id":"ce4bht12rcd13ifvqi60","pricing_plan_id":"cebpf4jnsgd1na2vs0mg"},{"bike_id":"1682da76-4bd8-4523-ac17-a8f30d9a9d8c","system_id":"levelo_inurba_marseille","lat":43.29849,"lon":5.36282,"is_reserved":false,"is_disabled":true,"rental_uris":{"android":"levelo://app?vid=1682da76-4bd8-4523-ac17-a8f30d9a9d8c","ios":"levelo://app?vid=1682da76-4bd8-4523-ac17-a8f30d9a9d8c"},"vehicle_type_id":"4","last_reported":1732637563,"current_range_meters":0,"station_id":"ce4bgpp2rcd13ifvqc3g","pricing_plan_id":"cebpf4jnsgd1na2vs0mg"},{"bike_id":"1c89c5b4-083f-4e52-8440-fa52a965f9b3","system_id":"levelo_inurba_marseille","lat":43.3054,"lon":5.36546,"is_reserved":false,"is_disabled":true,"rental_uris":{"android":"levelo://app?vid=1c89c5b4-083f-4e52-8440-fa52a965f9b3","ios":"levelo://app?vid=1c89c5b4-083f-4e52-8440-fa52a965f9b3"},"vehicle_type_id":"4","last_reported":1732637563,"current_range_meters":37600,"station_id":"ce4bgs12rcd13ifvqcag","pricing_plan_id":"cebpf4jnsgd1na2vs0mg"},{"bike_id":"435f1145-f8eb-478d-9a6d-73ff46e4227c","system_id":"levelo_inurba_marseille","lat":43.29206,"lon":5.39311,"is_reserved":false,"is_disabled":false,"rental_uris":{"android":"levelo://app?vid=435f1145-f8eb-478d-9a6d-73ff46e4227c","ios":"levelo://app?vid=435f1145-f8eb-478d-9a6d-73ff46e4227c"},"vehicle_type_id":"4","last_reported":1732637563,"current_range_meters":23200,"station_id":"ce4bh192rcd13ifvqdd0","pricing_plan_id":"cebpf4jnsgd1na2vs0mg"},{"bike_id":"301fed6d-6a94-4b88-b6ea-444f912ea20c","system_id":"levelo_inurba_marseille","lat":43.29519,"lon":5.39065,"is_reserved":false,"is_disabled":false,"rental_uris":{"android":"levelo://app?vid=301fed6d-6a94-4b88-b6ea-444f912ea20c","ios":"levelo://app?vid=301fed6d-6a94-4b88-b6ea-444f912ea20c"},"vehicle_type_id":"4","last_reported":1732637563,"current_range_meters":32400,"station_id":"ce4bh3p2rcd13ifvqdp0","pricing_plan_id":"cebpf4jnsgd1na2vs0mg"},{"bike_id":"0b2d8cd2-176d-4483-9e3c-6eda6f465794","system_id":"levelo_inurba_marseille","lat":43.30238,"lon":5.40062,"is_reserved":false,"is_disabled":false,"rental_uris":{"android":"levelo://app?vid=0b2d8cd2-176d-4483-9e3c-6eda6f465794","ios":"levelo://app?vid=0b2d8cd2-176d-4483-9e3c-6eda6f465794"},"vehicle_type_id":"4","last_reported":1732637563,"current_range_meters":34000,"station_id":"ce4bgvh2rcd13ifvqcs0","pricing_plan_id":"cebpf4jnsgd1na2vs0mg"},{"bike_id":"6f2af52f-4b7a-4c59-bafc-7e3d1cf9a4a4","system_id":"levelo_inurba_marseille","lat":43.29449,"lon":5.39752,"is_reserved":false,"is_disabled":false,"rental_uris":{"android":"levelo://app?vid=6f2af52f-4b7a-4c59-bafc-7e3d1cf9a4a4","ios":"levelo://app?vid=6f2af52f-4b7a-4c59-bafc-7e3d1cf9a4a4"},"vehicle_type_id":"4","last_reported":1732637563,"current_range_meters":34000,"station_id":"ce4bh3h2rcd13ifvqdo0","pricing_plan_id":"cebpf4jnsgd1na2vs0mg"},{"bike_id":"33411be9-8583-420f-b647-b40e5a90aaa7","system_id":"levelo_inurba_marseille","lat":43.2558,"lon":5.38237,"is_reserved":false,"is_disabled":false,"rental_uris":{"android":"levelo://app?vid=33411be9-8583-420f-b647-b40e5a90aaa7","ios":"levelo://app?vid=33411be9-8583-420f-b647-b40e5a90aaa7"},"vehicle_type_id":"4","last_reported":1732637563,"current_range_meters":4000,"station_id":"ce4bhih2rcd13ifvqfs0","pricing_plan_id":"cebpf4jnsgd1na2vs0mg"},{"bike_id":"a5909545-3e09-4859-9fda-9ffe4e6e4883","system_id":"levelo_inurba_marseille","lat":43.23065,"lon":5.35491,"is_reserved":false,"is_disabled":false,"rental_uris":{"android":"levelo://app?vid=a5909545-3e09-4859-9fda-9ffe4e6e4883","ios":"levelo://app?vid=a5909545-3e09-4859-9fda-9ffe4e6e4883"},"vehicle_type_id":"4","last_reported":1732637563,"current_range_meters":30800,"station_id":"cpo3342slgdg3j2ifvpg","pricing_plan_id":"cebpf4jnsgd1na2vs0mg"},{"bike_id":"b50dc91b-c137-48ea-93e1-d453609537ef","system_id":"levelo_inurba_marseille","lat":43.31997,"lon":5.38159,"is_reserved":false,"is_disabled":false,"rental_uris":{"android":"levelo://app?vid=b50dc91b-c137-48ea-93e1-d453609537ef","ios":"levelo://app?vid=b50dc91b-c137-48ea-93e1-d453609537ef"},"vehicle_type_id":"4","last_reported":1732637563,"current_range_meters":10000,"station_id":"ce4bhr12rcd13ifvqhpg","pricing_plan_id":"cebpf4jnsgd1na2vs0mg"},{"bike_id":"8b855d86-2674-4484-ad52-bb485bad7ee1","system_id":"levelo_inurba_marseille","lat":43.30507,"lon":5.36717,"is_reserved":false,"is_disabled":false,"rental_uris":{"android":"levelo://app?vid=8b855d86-2674-4484-ad52-bb485bad7ee1","ios":"levelo://app?vid=8b855d86-2674-4484-ad52-bb485bad7ee1"},"vehicle_type_id":"4","last_reported":1732637563,"current_range_meters":26800,"station_id":"ce4bgrp2rcd13ifvqc9g","pricing_plan_id":"cebpf4jnsgd1na2vs0mg"},{"bike_id":"7415a496-7569-4efa-ae4e-2ea0560918c0","system_id":"levelo_inurba_marseille","lat":43.28039,"lon":5.36957,"is_reserved":false,"is_disabled":false,"rental_uris":{"android":"levelo://app?vid=7415a496-7569-4efa-ae4e-2ea0560918c0","ios":"levelo://app?vid=7415a496-7569-4efa-ae4e-2ea0560918c0"},"vehicle_type_id":"4","last_reported":1732637563,"current_range_meters":38800,"station_id":"ce4bha12rcd13ifvqef0","pricing_plan_id":"cebpf4jnsgd1na2vs0mg"},{"bike_id":"1d5c9c64-8579-4c4c-86cf-b425dd36a40a","system_id":"levelo_inurba_marseille","lat":43.29547,"lon":5.37504,"is_reserved":false,"is_disabled":false,"rental_uris":{"android":"levelo://app?vid=1d5c9c64-8579-4c4c-86cf-b425dd36a40a","ios":"levelo://app?vid=1d5c9c64-8579-4c4c-86cf-b425dd36a40a"},"vehicle_type_id":"4","last_reported":1732637563,"current_range_meters":38800,"station_id":"ce4bgkp2rcd13ifvqbmg","pricing_plan_id":"cebpf4jnsgd1na2vs0mg"},{"bike_id":"e5951ee3-4a5a-4ebb-b469-096c5188dfa3","system_id":"levelo_inurba_marseille","lat":43.23183,"lon":5.35563,"is_reserved":false,"is_disabled":false,"rental_uris":{"android":"levelo://app?vid=e5951ee3-4a5a-4ebb-b469-096c5188dfa3","ios":"levelo://app?vid=e5951ee3-4a5a-4ebb-b469-096c5188dfa3"},"vehicle_type_id":"4","last_reported":1732637563,"current_range_meters":36000,"station_id":"ce4bhu92rcd13ifvqi70","pricing_plan_id":"cebpf4jnsgd1na2vs0mg"},{"bike_id":"09be2bbd-da9c-4914-ab80-c6b0d82834b4","system_id":"levelo_inurba_marseille","lat":43.2681,"lon":5.40278,"is_reserved":false,"is_disabled":false,"rental_uris":{"android":"levelo://app?vid=09be2bbd-da9c-4914-ab80-c6b0d82834b4","ios":"levelo://app?vid=09be2bbd-da9c-4914-ab80-c6b0d82834b4"},"vehicle_type_id":"4","last_reported":1732637563,"current_range_meters":14000,"station_id":"ce501612rcd8frsf0b60","pricing_plan_id":"cebpf4jnsgd1na2vs0mg"},{"bike_id":"b1dc9dd5-c981-4cb6-9a74-f5683ed2467e","system_id":"levelo_inurba_marseille","lat":43.28154,"lon":5.42647,"is_reserved":false,"is_disabled":false,"rental_uris":{"android":"levelo://app?vid=b1dc9dd5-c981-4cb6-9a74-f5683ed2467e","ios":"levelo://app?vid=b1dc9dd5-c981-4cb6-9a74-f5683ed2467e"},"vehicle_type_id":"4","last_reported":1732637563,"current_range_meters":19200,"station_id":"ce4bhnh2rcd13ifvqgug","pricing_plan_id":"cebpf4jnsgd1na2vs0mg"},{"bike_id":"3379f44f-c07d-4ec3-b622-4c7ff9c0b74e","system_id":"levelo_inurba_marseille","lat":43.23197,"lon":5.35556,"is_reserved":false,"is_disabled":false,"rental_uris":{"android":"levelo://app?vid=3379f44f-c07d-4ec3-b622-4c7ff9c0b74e","ios":"levelo://app?vid=3379f44f-c07d-4ec3-b622-4c7ff9c0b74e"},"vehicle_type_id":"4","last_reported":1732637563,"current_range_meters":9600,"station_id":"ce4bhu92rcd13ifvqi70","pricing_plan_id":"cebpf4jnsgd1na2vs0mg"},{"bike_id":"6c948e9c-d5b3-4fe5-a918-1bd2f7c83b02","system_id":"levelo_inurba_marseille","lat":43.32117,"lon":5.36773,"is_reserved":false,"is_disabled":false,"rental_uris":{"android":"levelo://app?vid=6c948e9c-d5b3-4fe5-a918-1bd2f7c83b02","ios":"levelo://app?vid=6c948e9c-d5b3-4fe5-a918-1bd2f7c83b02"},"vehicle_type_id":"4","last_reported":1732637563,"current_range_meters":17600,"station_id":"ce4bhrh2rcd13ifvqhug","pricing_plan_id":"cebpf4jnsgd1na2vs0mg"},{"bike_id":"9e620abf-d324-4f99-84fc-d67e71109f2a","system_id":"levelo_inurba_marseille","lat":43.31077,"lon":5.42435,"is_reserved":false,"is_disabled":true,"rental_uris":{"android":"levelo://app?vid=9e620abf-d324-4f99-84fc-d67e71109f2a","ios":"levelo://app?vid=9e620abf-d324-4f99-84fc-d67e71109f2a"},"vehicle_type_id":"4","last_reported":1732637563,"current_range_meters":0,"station_id":"ce4bhp92rcd13ifvqhag","pricing_plan_id":"cebpf4jnsgd1na2vs0mg"},{"bike_id":"311c22a9-d002-4f76-a390-2ec196f39862","system_id":"levelo_inurba_marseille","lat":43.31025,"lon":5.38342,"is_reserved":false,"is_disabled":true,"rental_uris":{"android":"levelo://app?vid=311c22a9-d002-4f76-a390-2ec196f39862","ios":"levelo://app?vid=311c22a9-d002-4f76-a390-2ec196f39862"},"vehicle_type_id":"4","last_reported":1732637563,"current_range_meters":0,"station_id":"","pricing_plan_id":"cebpf4jnsgd1na2vs0mg"},{"bike_id":"047f1f9d-58af-4872-9794-3b5fe9f3ce18","system_id":"levelo_inurba_marseille","lat":43.31331,"lon":5.3969,"is_reserved":false,"is_disabled":false,"rental_uris":{"android":"levelo://app?vid=047f1f9d-58af-4872-9794-3b5fe9f3ce18","ios":"levelo://app?vid=047f1f9d-58af-4872-9794-3b5fe9f3ce18"},"vehicle_type_id":"4","last_reported":1732637563,"current_range_meters":36800,"station_id":"ce4bgvp2rcd13ifvqcu0","pricing_plan_id":"cebpf4jnsgd1na2vs0mg"},{"bike_id":"991b2b27-c7f1-4024-af16-685c52b8aeac","system_id":"levelo_inurba_marseille","lat":43.27171,"lon":5.40994,"is_reserved":false,"is_disabled":false,"rental_uris":{"android":"levelo://app?vid=991b2b27-c7f1-4024-af16-685c52b8aeac","ios":"levelo://app?vid=991b2b27-c7f1-4024-af16-685c52b8aeac"},"vehicle_type_id":"4","last_reported":1732637563,"current_range_meters":36000,"station_id":"ce4bhl12rcd13ifvqgf0","pricing_plan_id":"cebpf4jnsgd1na2vs0mg"},{"bike_id":"5c53cfbd-2547-413a-b79a-f8cc3b1ca992","system_id":"levelo_inurba_marseille","lat":43.3211,"lon":5.36785,"is_reserved":false,"is_disabled":false,"rental_uris":{"android":"levelo://app?vid=5c53cfbd-2547-413a-b79a-f8cc3b1ca992","ios":"levelo://app?vid=5c53cfbd-2547-413a-b79a-f8cc3b1ca992"},"vehicle_type_id":"4","last_reported":1732637563,"current_range_meters":31200,"station_id":"ce4bhrh2rcd13ifvqhug","pricing_plan_id":"cebpf4jnsgd1na2vs0mg"},{"bike_id":"a42119cb-2889-43e2-aa4f-9707a87e3e28","system_id":"levelo_inurba_marseille","lat":43.24654,"lon":5.389,"is_reserved":false,"is_disabled":false,"rental_uris":{"android":"levelo://app?vid=a42119cb-2889-43e2-aa4f-9707a87e3e28","ios":"levelo://app?vid=a42119cb-2889-43e2-aa4f-9707a87e3e28"},"vehicle_type_id":"4","last_reported":1732637563,"current_range_meters":35200,"station_id":"ce4bhg12rcd13ifvqf60","pricing_plan_id":"cebpf4jnsgd1na2vs0mg"},{"bike_id":"d4bfcfd7-33e3-4a5b-8f7e-3321f76a7702","system_id":"levelo_inurba_marseille","lat":43.25578,"lon":5.38235,"is_reserved":false,"is_disabled":true,"rental_uris":{"android":"levelo://app?vid=d4bfcfd7-33e3-4a5b-8f7e-3321f76a7702","ios":"levelo://app?vid=d4bfcfd7-33e3-4a5b-8f7e-3321f76a7702"},"vehicle_type_id":"4","last_reported":1732637563,"current_range_meters":400,"station_id":"ce4bhih2rcd13ifvqfs0","pricing_plan_id":"cebpf4jnsgd1na2vs0mg"},{"bike_id":"d1d1d892-f61b-4f63-8f1c-2d4a3b3762af","system_id":"levelo_inurba_marseille","lat":43.23959,"lon":5.36632,"is_reserved":false,"is_disabled":false,"rental_uris":{"android":"levelo://app?vid=d1d1d892-f61b-4f63-8f1c-2d4a3b3762af","ios":"levelo://app?vid=d1d1d892-f61b-4f63-8f1c-2d4a3b3762af"},"vehicle_type_id":"4","last_reported":1732637563,"current_range_meters":4400,"station_id":"ce4bhi12rcd13ifvqfp0","pricing_plan_id":"cebpf4jnsgd1na2vs0mg"},{"bike_id":"58b5c67d-6ac9-48ab-a745-cbfe80782bf4","system_id":"levelo_inurba_marseille","lat":43.27973,"lon":5.38748,"is_reserved":false,"is_disabled":true,"rental_uris":{"android":"levelo://app?vid=58b5c67d-6ac9-48ab-a745-cbfe80782bf4","ios":"levelo://app?vid=58b5c67d-6ac9-48ab-a745-cbfe80782bf4"},"vehicle_type_id":"4","last_reported":1732637563,"current_range_meters":800,"station_id":"ce4bhg12rcd13ifvqf80","pricing_plan_id":"cebpf4jnsgd1na2vs0mg"},{"bike_id":"276c8eac-f26f-4d52-8494-1e5f39f12889","system_id":"levelo_inurba_marseille","lat":43.2558,"lon":5.3824,"is_reserved":false,"is_disabled":true,"rental_uris":{"android":"levelo://app?vid=276c8eac-f26f-4d52-8494-1e5f39f12889","ios":"levelo://app?vid=276c8eac-f26f-4d52-8494-1e5f39f12889"},"vehicle_type_id":"4","last_reported":1732637563,"current_range_meters":0,"station_id":"ce4bhih2rcd13ifvqfs0","pricing_plan_id":"cebpf4jnsgd1na2vs0mg"},{"bike_id":"8eeb8d10-d439-4383-83f9-0c746b9f6b8d","system_id":"levelo_inurba_marseille","lat":43.27998,"lon":5.41664,"is_reserved":false,"is_disabled":false,"rental_uris":{"android":"levelo://app?vid=8eeb8d10-d439-4383-83f9-0c746b9f6b8d","ios":"levelo://app?vid=8eeb8d10-d439-4383-83f9-0c746b9f6b8d"},"vehicle_type_id":"4","last_reported":1732637563,"current_range_meters":27600,"station_id":"ce4bho12rcd13ifvqh1g","pricing_plan_id":"cebpf4jnsgd1na2vs0mg"},{"bike_id":"cb7901b7-c174-4223-b92b-8be1e6962981","system_id":"levelo_inurba_marseille","lat":43.27378,"lon":5.36259,"is_reserved":false,"is_disabled":false,"rental_uris":{"android":"levelo://app?vid=cb7901b7-c174-4223-b92b-8be1e6962981","ios":"levelo://app?vid=cb7901b7-c174-4223-b92b-8be1e6962981"},"vehicle_type_id":"4","last_reported":1732637563,"current_range_meters":29600,"station_id":"ce4bhbh2rcd13ifvqeo0","pricing_plan_id":"cebpf4jnsgd1na2vs0mg"},{"bike_id":"40c7ddb8-0e1a-4eb1-9e2f-d3bf1a0f9d1e","system_id":"levelo_inurba_marseille","lat":43.28275,"lon":5.3507,"is_reserved":false,"is_disabled":false,"rental_uris":{"android":"levelo://app?vid=40c7ddb8-0e1a-4eb1-9e2f-d3bf1a0f9d1e","ios":"levelo://app?vid=40c7ddb8-0e1a-4eb1-9e2f-d3bf1a0f9d1e"},"vehicle_type_id":"4","last_reported":1732637563,"current_range_meters":19600,"station_id":"ce4bhbp2rcd13ifvqerg","pricing_plan_id":"cebpf4jnsgd1na2vs0mg"},{"bike_id":"17700844-0f62-4cd3-bc5b-72a98e8e0a87","system_id":"levelo_inurba_marseille","lat":43.29749,"lon":5.38678,"is_reserved":false,"is_disabled":false,"rental_uris":{"android":"levelo://app?vid=17700844-0f62-4cd3-bc5b-72a98e8e0a87","ios":"levelo://app?vid=17700844-0f62-4cd3-bc5b-72a98e8e0a87"},"vehicle_type_id":"4","last_reported":1732637563,"current_range_meters":36800,"station_id":"","pricing_plan_id":"cebpf4jnsgd1na2vs0mg"},{"bike_id":"43746d86-8a13-4845-9faf-ae69b548d714","system_id":"levelo_inurba_marseille","lat":43.29459,"lon":5.37917,"is_reserved":false,"is_disabled":true,"rental_uris":{"android":"levelo://app?vid=43746d86-8a13-4845-9faf-ae69b548d714","ios":"levelo://app?vid=43746d86-8a13-4845-9faf-ae69b548d714"},"vehicle_type_id":"4","last_reported":1732637563,"current_range_meters":0,"station_id":"","pricing_plan_id":"cebpf4jnsgd1na2vs0mg"},{"bike_id":"e6a98e09-efc5-4507-9fb0-a56012aa8712","system_id":"levelo_inurba_marseille","lat":43.28152,"lon":5.42652,"is_reserved":false,"is_disabled":true,"rental_uris":{"android":"levelo://app?vid=e6a98e09-efc5-4507-9fb0-a56012aa8712","ios":"levelo://app?vid=e6a98e09-efc5-4507-9fb0-a56012aa8712"},"vehicle_type_id":"4","last_reported":1732637563,"current_range_meters":0,"station_id":"ce4bhnh2rcd13ifvqgug","pricing_plan_id":"cebpf4jnsgd1na2vs0mg"},{"bike_id":"df76b7bf-b879-4e94-9796-439ee296ef0a","system_id":"levelo_inurba_marseille","lat":43.22932,"lon":5.35379,"is_reserved":false,"is_disabled":false,"rental_uris":{"android":"levelo://app?vid=df76b7bf-b879-4e94-9796-439ee296ef0a","ios":"levelo://app?vid=df76b7bf-b879-4e94-9796-439ee296ef0a"},"vehicle_type_id":"4","last_reported":1732637563,"current_range_meters":3600,"station_id":"cpo3532slgdg3j2ikp40","pricing_plan_id":"cebpf4jnsgd1na2vs0mg"},{"bike_id":"f971abee-70f8-43dc-afe4-4050ccc8c3f7","system_id":"levelo_inurba_marseille","lat":43.25866,"lon":5.39905,"is_reserved":false,"is_disabled":true,"rental_uris":{"android":"levelo://app?vid=f971abee-70f8-43dc-afe4-4050ccc8c3f7","ios":"levelo://app?vid=f971abee-70f8-43dc-afe4-4050ccc8c3f7"},"vehicle_type_id":"4","last_reported":1732637563,"current_range_meters":36000,"station_id":"ce4bhl92rcd13ifvqghg","pricing_plan_id":"cebpf4jnsgd1na2vs0mg"},{"bike_id":"5d58b8ed-73cb-4ae9-b4b1-1a8eac092aca","system_id":"levelo_inurba_marseille","lat":43.32367,"lon":5.38885,"is_reserved":false,"is_disabled":false,"rental_uris":{"android":"levelo://app?vid=5d58b8ed-73cb-4ae9-b4b1-1a8eac092aca","ios":"levelo://app?vid=5d58b8ed-73cb-4ae9-b4b1-1a8eac092aca"},"vehicle_type_id":"4","last_reported":1732637563,"current_range_meters":19200,"station_id":"ce4bhqp2rcd13ifvqhog","pricing_plan_id":"cebpf4jnsgd1na2vs0mg"},{"bike_id":"3faf8b2f-845f-4fd3-8bc7-04d1158d9692","system_id":"levelo_inurba_marseille","lat":43.33025,"lon":5.39048,"is_reserved":false,"is_disabled":false,"rental_uris":{"android":"levelo://app?vid=3faf8b2f-845f-4fd3-8bc7-04d1158d9692","ios":"levelo://app?vid=3faf8b2f-845f-4fd3-8bc7-04d1158d9692"},"vehicle_type_id":"4","last_reported":1732637563,"current_range_meters":27600,"station_id":"ce4bhr92rcd13ifvqhrg","pricing_plan_id":"cebpf4jnsgd1na2vs0mg"},{"bike_id":"a077a7bd-d44b-4ca0-96c1-49693516b3b4","system_id":"levelo_inurba_marseille","lat":43.337678,"lon":5.374294,"is_reserved":false,"is_disabled":false,"rental_uris":{"android":"levelo://app?vid=a077a7bd-d44b-4ca0-96c1-49693516b3b4","ios":"levelo://app?vid=a077a7bd-d44b-4ca0-96c1-49693516b3b4"},"vehicle_type_id":"4","last_reported":1732637563,"current_range_meters":38400,"station_id":"","pricing_plan_id":"cebpf4jnsgd1na2vs0mg"},{"bike_id":"925d9d68-1b01-45a4-af19-d1a58d7476b9","system_id":"levelo_inurba_marseille","lat":43.312042,"lon":5.367348,"is_reserved":false,"is_disabled":true,"rental_uris":{"android":"levelo://app?vid=925d9d68-1b01-45a4-af19-d1a58d7476b9","ios":"levelo://app?vid=925d9d68-1b01-45a4-af19-d1a58d7476b9"},"vehicle_type_id":"4","last_reported":1732637563,"current_range_meters":0,"station_id":"","pricing_plan_id":"cebpf4jnsgd1na2vs0mg"},{"bike_id":"e3a9ff25-e192-4aec-af57-758c56bd5f8b","system_id":"levelo_inurba_marseille","lat":43.26033,"lon":5.37548,"is_reserved":false,"is_disabled":false,"rental_uris":{"android":"levelo://app?vid=e3a9ff25-e192-4aec-af57-758c56bd5f8b","ios":"levelo://app?vid=e3a9ff25-e192-4aec-af57-758c56bd5f8b"},"vehicle_type_id":"4","last_reported":1732637563,"current_range_meters":24400,"station_id":"ce4bhgh2rcd13ifvqfa0","pricing_plan_id":"cebpf4jnsgd1na2vs0mg"},{"bike_id":"0cd06265-3828-421d-b47f-04b342a0b939","system_id":"levelo_inurba_marseille","lat":43.27813,"lon":5.40708,"is_reserved":false,"is_disabled":false,"rental_uris":{"android":"levelo://app?vid=0cd06265-3828-421d-b47f-04b342a0b939","ios":"levelo://app?vid=0cd06265-3828-421d-b47f-04b342a0b939"},"vehicle_type_id":"4","last_reported":1732637563,"current_range_meters":38800,"station_id":"ce4bhnh2rcd13ifvqgtg","pricing_plan_id":"cebpf4jnsgd1na2vs0mg"},{"bike_id":"60366b91-dfba-451c-b2f1-0c2a18308bdf","system_id":"levelo_inurba_marseille","lat":43.22929,"lon":5.35378,"is_reserved":false,"is_disabled":false,"rental_uris":{"android":"levelo://app?vid=60366b91-dfba-451c-b2f1-0c2a18308bdf","ios":"levelo://app?vid=60366b91-dfba-451c-b2f1-0c2a18308bdf"},"vehicle_type_id":"4","last_reported":1732637563,"current_range_meters":39200,"station_id":"cpo3532slgdg3j2ikp40","pricing_plan_id":"cebpf4jnsgd1na2vs0mg"},{"bike_id":"9666ce30-5f2f-4332-a708-df17ba16a1d5","system_id":"levelo_inurba_marseille","lat":43.32482,"lon":5.36564,"is_reserved":false,"is_disabled":false,"rental_uris":{"android":"levelo://app?vid=9666ce30-5f2f-4332-a708-df17ba16a1d5","ios":"levelo://app?vid=9666ce30-5f2f-4332-a708-df17ba16a1d5"},"vehicle_type_id":"4","last_reported":1732637563,"current_range_meters":22800,"station_id":"ce4bhs12rcd13ifvqhvg","pricing_plan_id":"cebpf4jnsgd1na2vs0mg"},{"bike_id":"d9ef5ed5-65f4-4a4b-8dbb-274b0e908852","system_id":"levelo_inurba_marseille","lat":43.2417,"lon":5.36398,"is_reserved":false,"is_disabled":false,"rental_uris":{"android":"levelo://app?vid=d9ef5ed5-65f4-4a4b-8dbb-274b0e908852","ios":"levelo://app?vid=d9ef5ed5-65f4-4a4b-8dbb-274b0e908852"},"vehicle_type_id":"4","last_reported":1732637563,"current_range_meters":28400,"station_id":"cpo36qri1sfpv3e86is0","pricing_plan_id":"cebpf4jnsgd1na2vs0mg"},{"bike_id":"5637ffac-6061-4504-94a5-bbd993e9ac58","system_id":"levelo_inurba_marseille","lat":43.232,"lon":5.35551,"is_reserved":false,"is_disabled":false,"rental_uris":{"android":"levelo://app?vid=5637ffac-6061-4504-94a5-bbd993e9ac58","ios":"levelo://app?vid=5637ffac-6061-4504-94a5-bbd993e9ac58"},"vehicle_type_id":"4","last_reported":1732637563,"current_range_meters":23200,"station_id":"ce4bhu92rcd13ifvqi70","pricing_plan_id":"cebpf4jnsgd1na2vs0mg"},{"bike_id":"bd65ef63-b11f-4434-94d0-b65a0721f25b","system_id":"levelo_inurba_marseille","lat":43.30416,"lon":5.41295,"is_reserved":false,"is_disabled":false,"rental_uris":{"android":"levelo://app?vid=bd65ef63-b11f-4434-94d0-b65a0721f25b","ios":"levelo://app?vid=bd65ef63-b11f-4434-94d0-b65a0721f25b"},"vehicle_type_id":"4","last_reported":1732637563,"current_range_meters":39200,"station_id":"ce4bhop2rcd13ifvqh8g","pricing_plan_id":"cebpf4jnsgd1na2vs0mg"},{"bike_id":"3a19d45d-a757-417c-b54e-92314bcfae61","system_id":"levelo_inurba_marseille","lat":43.26951,"lon":5.38627,"is_reserved":false,"is_disabled":true,"rental_uris":{"android":"levelo://app?vid=3a19d45d-a757-417c-b54e-92314bcfae61","ios":"levelo://app?vid=3a19d45d-a757-417c-b54e-92314bcfae61"},"vehicle_type_id":"4","last_reported":1732637563,"current_range_meters":0,"station_id":"ce4bhh92rcd13ifvqfh0","pricing_plan_id":"cebpf4jnsgd1na2vs0mg"},{"bike_id":"5de651b4-cfde-4a33-b340-c2e2187a0f4d","system_id":"levelo_inurba_marseille","lat":43.26491,"lon":5.39547,"is_reserved":false,"is_disabled":true,"rental_uris":{"android":"levelo://app?vid=5de651b4-cfde-4a33-b340-c2e2187a0f4d","ios":"levelo://app?vid=5de651b4-cfde-4a33-b340-c2e2187a0f4d"},"vehicle_type_id":"4","last_reported":1732637563,"current_range_meters":0,"station_id":"ce4bhi12rcd13ifvqfq0","pricing_plan_id":"cebpf4jnsgd1na2vs0mg"},{"bike_id":"12374fc7-5d05-4497-a57d-c04c009baf58","system_id":"levelo_inurba_marseille","lat":43.26029,"lon":5.37557,"is_reserved":false,"is_disabled":false,"rental_uris":{"android":"levelo://app?vid=12374fc7-5d05-4497-a57d-c04c009baf58","ios":"levelo://app?vid=12374fc7-5d05-4497-a57d-c04c009baf58"},"vehicle_type_id":"4","last_reported":1732637563,"current_range_meters":30400,"station_id":"ce4bhgh2rcd13ifvqfa0","pricing_plan_id":"cebpf4jnsgd1na2vs0mg"},{"bike_id":"781ea710-ac75-4a61-bb20-5db82b936630","system_id":"levelo_inurba_marseille","lat":43.29196,"lon":5.39325,"is_reserved":false,"is_disabled":false,"rental_uris":{"android":"levelo://app?vid=781ea710-ac75-4a61-bb20-5db82b936630","ios":"levelo://app?vid=781ea710-ac75-4a61-bb20-5db82b936630"},"vehicle_type_id":"4","last_reported":1732637563,"current_range_meters":38000,"station_id":"ce4bh192rcd13ifvqdd0","pricing_plan_id":"cebpf4jnsgd1na2vs0mg"},{"bike_id":"dbcd1629-2994-41e2-a86f-23208f8f804a","system_id":"levelo_inurba_marseille","lat":43.29551,"lon":5.42295,"is_reserved":false,"is_disabled":false,"rental_uris":{"android":"levelo://app?vid=dbcd1629-2994-41e2-a86f-23208f8f804a","ios":"levelo://app?vid=dbcd1629-2994-41e2-a86f-23208f8f804a"},"vehicle_type_id":"4","last_reported":1732637563,"current_range_meters":38800,"station_id":"ce4bhph2rcd13ifvqhdg","pricing_plan_id":"cebpf4jnsgd1na2vs0mg"},{"bike_id":"635e628b-f54c-4009-9fea-3aa7ba8953ac","system_id":"levelo_inurba_marseille","lat":43.28666,"lon":5.36354,"is_reserved":false,"is_disabled":false,"rental_uris":{"android":"levelo://app?vid=635e628b-f54c-4009-9fea-3aa7ba8953ac","ios":"levelo://app?vid=635e628b-f54c-4009-9fea-3aa7ba8953ac"},"vehicle_type_id":"4","last_reported":1732637563,"current_range_meters":32000,"station_id":"ce4bhah2rcd13ifvqej0","pricing_plan_id":"cebpf4jnsgd1na2vs0mg"},{"bike_id":"dd771d3c-1bff-451c-9d0a-985d99bb56af","system_id":"levelo_inurba_marseille","lat":43.29587,"lon":5.36996,"is_reserved":false,"is_disabled":false,"rental_uris":{"android":"levelo://app?vid=dd771d3c-1bff-451c-9d0a-985d99bb56af","ios":"levelo://app?vid=dd771d3c-1bff-451c-9d0a-985d99bb56af"},"vehicle_type_id":"4","last_reported":1732637563,"current_range_meters":10000,"station_id":"","pricing_plan_id":"cebpf4jnsgd1na2vs0mg"},{"bike_id":"c3119d11-ef1f-44cf-b2d7-09e415adb754","system_id":"levelo_inurba_marseille","lat":43.28573,"lon":5.39513,"is_reserved":false,"is_disabled":false,"rental_uris":{"android":"levelo://app?vid=c3119d11-ef1f-44cf-b2d7-09e415adb754","ios":"levelo://app?vid=c3119d11-ef1f-44cf-b2d7-09e415adb754"},"vehicle_type_id":"4","last_reported":1732637563,"current_range_meters":36800,"station_id":"ce4bh292rcd13ifvqdg0","pricing_plan_id":"cebpf4jnsgd1na2vs0mg"},{"bike_id":"5b739bbe-6641-42b7-8cd0-17d6fe1b99d1","system_id":"levelo_inurba_marseille","lat":43.2649,"lon":5.39551,"is_reserved":false,"is_disabled":true,"rental_uris":{"android":"levelo://app?vid=5b739bbe-6641-42b7-8cd0-17d6fe1b99d1","ios":"levelo://app?vid=5b739bbe-6641-42b7-8cd0-17d6fe1b99d1"},"vehicle_type_id":"4","last_reported":1732637563,"current_range_meters":0,"station_id":"ce4bhi12rcd13ifvqfq0","pricing_plan_id":"cebpf4jnsgd1na2vs0mg"},{"bike_id":"35721010-0501-4d23-9637-688c6912beae","system_id":"levelo_inurba_marseille","lat":43.26208,"lon":5.37442,"is_reserved":false,"is_disabled":false,"rental_uris":{"android":"levelo://app?vid=35721010-0501-4d23-9637-688c6912beae","ios":"levelo://app?vid=35721010-0501-4d23-9637-688c6912beae"},"vehicle_type_id":"4","last_reported":1732637563,"current_range_meters":36800,"station_id":"ce4bhgp2rcd13ifvqfc0","pricing_plan_id":"cebpf4jnsgd1na2vs0mg"},{"bike_id":"7e04bb67-c24d-44da-93e9-2e0567bf10fa","system_id":"levelo_inurba_marseille","lat":43.23152,"lon":5.43713,"is_reserved":false,"is_disabled":true,"rental_uris":{"android":"levelo://app?vid=7e04bb67-c24d-44da-93e9-2e0567bf10fa","ios":"levelo://app?vid=7e04bb67-c24d-44da-93e9-2e0567bf10fa"},"vehicle_type_id":"4","last_reported":1732637563,"current_range_meters":0,"station_id":"ce4bhmp2rcd13ifvqgog","pricing_plan_id":"cebpf4jnsgd1na2vs0mg"},{"bike_id":"880de77f-8297-4406-89b7-7b1f67750853","system_id":"levelo_inurba_marseille","lat":43.26787,"lon":5.39436,"is_reserved":false,"is_disabled":false,"rental_uris":{"android":"levelo://app?vid=880de77f-8297-4406-89b7-7b1f67750853","ios":"levelo://app?vid=880de77f-8297-4406-89b7-7b1f67750853"},"vehicle_type_id":"4","last_reported":1732637563,"current_range_meters":3600,"station_id":"ce4bhh12rcd13ifvqfg0","pricing_plan_id":"cebpf4jnsgd1na2vs0mg"},{"bike_id":"6db206cb-0668-4eaf-890a-70aa7c08dcaa","system_id":"levelo_inurba_marseille","lat":43.231865,"lon":5.39987,"is_reserved":false,"is_disabled":false,"rental_uris":{"android":"levelo://app?vid=6db206cb-0668-4eaf-890a-70aa7c08dcaa","ios":"levelo://app?vid=6db206cb-0668-4eaf-890a-70aa7c08dcaa"},"vehicle_type_id":"4","last_reported":1732637563,"current_range_meters":39200,"station_id":"ce4bhn12rcd13ifvqgqg","pricing_plan_id":"cebpf4jnsgd1na2vs0mg"},{"bike_id":"193c572d-829a-4feb-96b2-9e682ad2ede5","system_id":"levelo_inurba_marseille","lat":43.28423,"lon":5.34986,"is_reserved":false,"is_disabled":false,"rental_uris":{"android":"levelo://app?vid=193c572d-829a-4feb-96b2-9e682ad2ede5","ios":"levelo://app?vid=193c572d-829a-4feb-96b2-9e682ad2ede5"},"vehicle_type_id":"4","last_reported":1732637563,"current_range_meters":35200,"station_id":"ce4bhbh2rcd13ifvqepg","pricing_plan_id":"cebpf4jnsgd1na2vs0mg"},{"bike_id":"e4395f26-4c0b-4bec-b10e-ec01132237c1","system_id":"levelo_inurba_marseille","lat":43.27171,"lon":5.410007,"is_reserved":false,"is_disabled":true,"rental_uris":{"android":"levelo://app?vid=e4395f26-4c0b-4bec-b10e-ec01132237c1","ios":"levelo://app?vid=e4395f26-4c0b-4bec-b10e-ec01132237c1"},"vehicle_type_id":"4","last_reported":1732637563,"current_range_meters":0,"station_id":"ce4bhl12rcd13ifvqgf0","pricing_plan_id":"cebpf4jnsgd1na2vs0mg"},{"bike_id":"4a844617-b9f9-42f3-bb3f-c731c8be69d3","system_id":"levelo_inurba_marseille","lat":43.31726,"lon":5.42394,"is_reserved":false,"is_disabled":false,"rental_uris":{"android":"levelo://app?vid=4a844617-b9f9-42f3-bb3f-c731c8be69d3","ios":"levelo://app?vid=4a844617-b9f9-42f3-bb3f-c731c8be69d3"},"vehicle_type_id":"4","last_reported":1732637563,"current_range_meters":20400,"station_id":"ce4bhp92rcd13ifvqhbg","pricing_plan_id":"cebpf4jnsgd1na2vs0mg"},{"bike_id":"e3c34a17-44c3-4340-9f1a-9793c3b41521","system_id":"levelo_inurba_marseille","lat":43.28041,"lon":5.36966,"is_reserved":false,"is_disabled":false,"rental_uris":{"android":"levelo://app?vid=e3c34a17-44c3-4340-9f1a-9793c3b41521","ios":"levelo://app?vid=e3c34a17-44c3-4340-9f1a-9793c3b41521"},"vehicle_type_id":"4","last_reported":1732637563,"current_range_meters":37600,"station_id":"ce4bha12rcd13ifvqef0","pricing_plan_id":"cebpf4jnsgd1na2vs0mg"},{"bike_id":"ec115497-35c4-4d58-90a1-8ea243c1de67","system_id":"levelo_inurba_marseille","lat":43.27941,"lon":5.41043,"is_reserved":false,"is_disabled":false,"rental_uris":{"android":"levelo://app?vid=ec115497-35c4-4d58-90a1-8ea243c1de67","ios":"levelo://app?vid=ec115497-35c4-4d58-90a1-8ea243c1de67"},"vehicle_type_id":"4","last_reported":1732637563,"current_range_meters":28000,"station_id":"ce4bhnp2rcd13ifvqh0g","pricing_plan_id":"cebpf4jnsgd1na2vs0mg"},{"bike_id":"63eaf67d-9cc2-4fea-9df3-e96126502a0e","system_id":"levelo_inurba_marseille","lat":43.28996,"lon":5.3785,"is_reserved":false,"is_disabled":true,"rental_uris":{"android":"levelo://app?vid=63eaf67d-9cc2-4fea-9df3-e96126502a0e","ios":"levelo://app?vid=63eaf67d-9cc2-4fea-9df3-e96126502a0e"},"vehicle_type_id":"4","last_reported":1732637563,"current_range_meters":9200,"station_id":"ce4bh9p2rcd13ifvqed0","pricing_plan_id":"cebpf4jnsgd1na2vs0mg"},{"bike_id":"3629a32f-a709-4a11-9106-5e7f0ff28e81","system_id":"levelo_inurba_marseille","lat":43.27035,"lon":5.4068,"is_reserved":false,"is_disabled":true,"rental_uris":{"android":"levelo://app?vid=3629a32f-a709-4a11-9106-5e7f0ff28e81","ios":"levelo://app?vid=3629a32f-a709-4a11-9106-5e7f0ff28e81"},"vehicle_type_id":"4","last_reported":1732637563,"current_range_meters":0,"station_id":"","pricing_plan_id":"cebpf4jnsgd1na2vs0mg"},{"bike_id":"769a7466-89ee-4cad-ad3b-475b7d1aeade","system_id":"levelo_inurba_marseille","lat":43.28431,"lon":5.37507,"is_reserved":false,"is_disabled":false,"rental_uris":{"android":"levelo://app?vid=769a7466-89ee-4cad-ad3b-475b7d1aeade","ios":"levelo://app?vid=769a7466-89ee-4cad-ad3b-475b7d1aeade"},"vehicle_type_id":"4","last_reported":1732637563,"current_range_meters":20000,"station_id":"ce4bh412rcd13ifvqds0","pricing_plan_id":"cebpf4jnsgd1na2vs0mg"},{"bike_id":"c0b23385-0353-43b0-ad05-eb4c1a0ee65d","system_id":"levelo_inurba_marseille","lat":43.25577,"lon":5.38227,"is_reserved":false,"is_disabled":false,"rental_uris":{"android":"levelo://app?vid=c0b23385-0353-43b0-ad05-eb4c1a0ee65d","ios":"levelo://app?vid=c0b23385-0353-43b0-ad05-eb4c1a0ee65d"},"vehicle_type_id":"4","last_reported":1732637563,"current_range_meters":20400,"station_id":"ce4bhih2rcd13ifvqfs0","pricing_plan_id":"cebpf4jnsgd1na2vs0mg"},{"bike_id":"cdd4f8d9-bd5a-4896-97ae-a7584cd5a3d9","system_id":"levelo_inurba_marseille","lat":43.33027,"lon":5.39044,"is_reserved":false,"is_disabled":false,"rental_uris":{"android":"levelo://app?vid=cdd4f8d9-bd5a-4896-97ae-a7584cd5a3d9","ios":"levelo://app?vid=cdd4f8d9-bd5a-4896-97ae-a7584cd5a3d9"},"vehicle_type_id":"4","last_reported":1732637563,"current_range_meters":39200,"station_id":"ce4bhr92rcd13ifvqhrg","pricing_plan_id":"cebpf4jnsgd1na2vs0mg"},{"bike_id":"42569c9c-5646-44a2-9d3e-0e3587bd1755","system_id":"levelo_inurba_marseille","lat":43.25497,"lon":5.37652,"is_reserved":false,"is_disabled":false,"rental_uris":{"android":"levelo://app?vid=42569c9c-5646-44a2-9d3e-0e3587bd1755","ios":"levelo://app?vid=42569c9c-5646-44a2-9d3e-0e3587bd1755"},"vehicle_type_id":"4","last_reported":1732637563,"current_range_meters":16800,"station_id":"ce4bhh12rcd13ifvqff0","pricing_plan_id":"cebpf4jnsgd1na2vs0mg"},{"bike_id":"8242f5ef-ec76-45e0-9f0f-654893bbdc7d","system_id":"levelo_inurba_marseille","lat":43.29715,"lon":5.36882,"is_reserved":false,"is_disabled":false,"rental_uris":{"android":"levelo://app?vid=8242f5ef-ec76-45e0-9f0f-654893bbdc7d","ios":"levelo://app?vid=8242f5ef-ec76-45e0-9f0f-654893bbdc7d"},"vehicle_type_id":"4","last_reported":1732637563,"current_range_meters":5600,"station_id":"","pricing_plan_id":"cebpf4jnsgd1na2vs0mg"},{"bike_id":"a0811b46-472d-47f1-af8a-edeeb3f50253","system_id":"levelo_inurba_marseille","lat":43.29959,"lon":5.41329,"is_reserved":false,"is_disabled":false,"rental_uris":{"android":"levelo://app?vid=a0811b46-472d-47f1-af8a-edeeb3f50253","ios":"levelo://app?vid=a0811b46-472d-47f1-af8a-edeeb3f50253"},"vehicle_type_id":"4","last_reported":1732637563,"current_range_meters":24800,"station_id":"ce4bhp12rcd13ifvqh9g","pricing_plan_id":"cebpf4jnsgd1na2vs0mg"},{"bike_id":"dc4c4e1a-2436-4bc7-81fd-70222ebce8a8","system_id":"levelo_inurba_marseille","lat":43.31186,"lon":5.38715,"is_reserved":false,"is_disabled":true,"rental_uris":{"android":"levelo://app?vid=dc4c4e1a-2436-4bc7-81fd-70222ebce8a8","ios":"levelo://app?vid=dc4c4e1a-2436-4bc7-81fd-70222ebce8a8"},"vehicle_type_id":"4","last_reported":1732637563,"current_range_meters":34000,"station_id":"ce4bgv12rcd13ifvqcp0","pricing_plan_id":"cebpf4jnsgd1na2vs0mg"},{"bike_id":"e41496d1-a408-40b3-8aa4-8eaa7297bf3c","system_id":"levelo_inurba_marseille","lat":43.29268,"lon":5.38447,"is_reserved":false,"is_disabled":false,"rental_uris":{"android":"levelo://app?vid=e41496d1-a408-40b3-8aa4-8eaa7297bf3c","ios":"levelo://app?vid=e41496d1-a408-40b3-8aa4-8eaa7297bf3c"},"vehicle_type_id":"4","last_reported":1732637563,"current_range_meters":27200,"station_id":"ce4bh692rcd13ifvqea0","pricing_plan_id":"cebpf4jnsgd1na2vs0mg"},{"bike_id":"4c586ed6-9be7-44d9-be82-96ff5190086e","system_id":"levelo_inurba_marseille","lat":43.2308,"lon":5.35503,"is_reserved":false,"is_disabled":false,"rental_uris":{"android":"levelo://app?vid=4c586ed6-9be7-44d9-be82-96ff5190086e","ios":"levelo://app?vid=4c586ed6-9be7-44d9-be82-96ff5190086e"},"vehicle_type_id":"4","last_reported":1732637563,"current_range_meters":35200,"station_id":"cpo3342slgdg3j2ifvpg","pricing_plan_id":"cebpf4jnsgd1na2vs0mg"},{"bike_id":"02acfe02-125b-44cb-a5ea-a9442bcf81ea","system_id":"levelo_inurba_marseille","lat":43.3248,"lon":5.36565,"is_reserved":false,"is_disabled":false,"rental_uris":{"android":"levelo://app?vid=02acfe02-125b-44cb-a5ea-a9442bcf81ea","ios":"levelo://app?vid=02acfe02-125b-44cb-a5ea-a9442bcf81ea"},"vehicle_type_id":"4","last_reported":1732637563,"current_range_meters":39200,"station_id":"ce4bhs12rcd13ifvqhvg","pricing_plan_id":"cebpf4jnsgd1na2vs0mg"},{"bike_id":"35248560-48e2-4fbe-bde2-cacb0aad9d71","system_id":"levelo_inurba_marseille","lat":43.27818,"lon":5.40712,"is_reserved":false,"is_disabled":false,"rental_uris":{"android":"levelo://app?vid=35248560-48e2-4fbe-bde2-cacb0aad9d71","ios":"levelo://app?vid=35248560-48e2-4fbe-bde2-cacb0aad9d71"},"vehicle_type_id":"4","last_reported":1732637563,"current_range_meters":31200,"station_id":"ce4bhnh2rcd13ifvqgtg","pricing_plan_id":"cebpf4jnsgd1na2vs0mg"},{"bike_id":"8081eb18-0ea3-4c64-b0f2-c4bc4ed2147b","system_id":"levelo_inurba_marseille","lat":43.23153,"lon":5.43721,"is_reserved":false,"is_disabled":true,"rental_uris":{"android":"levelo://app?vid=8081eb18-0ea3-4c64-b0f2-c4bc4ed2147b","ios":"levelo://app?vid=8081eb18-0ea3-4c64-b0f2-c4bc4ed2147b"},"vehicle_type_id":"4","last_reported":1732637563,"current_range_meters":17200,"station_id":"ce4bhmp2rcd13ifvqgog","pricing_plan_id":"cebpf4jnsgd1na2vs0mg"},{"bike_id":"f35bfafc-f709-4280-8a40-d8b6df059aba","system_id":"levelo_inurba_marseille","lat":43.25503,"lon":5.3769,"is_reserved":false,"is_disabled":false,"rental_uris":{"android":"levelo://app?vid=f35bfafc-f709-4280-8a40-d8b6df059aba","ios":"levelo://app?vid=f35bfafc-f709-4280-8a40-d8b6df059aba"},"vehicle_type_id":"4","last_reported":1732637563,"current_range_meters":36800,"station_id":"ce4bhh12rcd13ifvqff0","pricing_plan_id":"cebpf4jnsgd1na2vs0mg"},{"bike_id":"e9ec8176-02fa-4147-9db4-8735d1f5fa2e","system_id":"levelo_inurba_marseille","lat":43.29532,"lon":5.38553,"is_reserved":false,"is_disabled":false,"rental_uris":{"android":"levelo://app?vid=e9ec8176-02fa-4147-9db4-8735d1f5fa2e","ios":"levelo://app?vid=e9ec8176-02fa-4147-9db4-8735d1f5fa2e"},"vehicle_type_id":"4","last_reported":1732637563,"current_range_meters":28400,"station_id":"ce4bgih2rcd13ifvqba0","pricing_plan_id":"cebpf4jnsgd1na2vs0mg"},{"bike_id":"4fff480f-9194-4389-a98b-cc55080a10d2","system_id":"levelo_inurba_marseille","lat":43.2901,"lon":5.35609,"is_reserved":false,"is_disabled":false,"rental_uris":{"android":"levelo://app?vid=4fff480f-9194-4389-a98b-cc55080a10d2","ios":"levelo://app?vid=4fff480f-9194-4389-a98b-cc55080a10d2"},"vehicle_type_id":"4","last_reported":1732637563,"current_range_meters":30800,"station_id":"ce4bhb92rcd13ifvqen0","pricing_plan_id":"cebpf4jnsgd1na2vs0mg"},{"bike_id":"800be7de-8264-4d7f-8e15-499a353fa52b","system_id":"levelo_inurba_marseille","lat":43.31749,"lon":5.3902,"is_reserved":false,"is_disabled":false,"rental_uris":{"android":"levelo://app?vid=800be7de-8264-4d7f-8e15-499a353fa52b","ios":"levelo://app?vid=800be7de-8264-4d7f-8e15-499a353fa52b"},"vehicle_type_id":"4","last_reported":1732637563,"current_range_meters":14000,"station_id":"ce4bhqp2rcd13ifvqhng","pricing_plan_id":"cebpf4jnsgd1na2vs0mg"},{"bike_id":"384014b8-e95f-4c94-8404-e378f6a6e1d2","system_id":"levelo_inurba_marseille","lat":43.26216,"lon":5.3746,"is_reserved":false,"is_disabled":false,"rental_uris":{"android":"levelo://app?vid=384014b8-e95f-4c94-8404-e378f6a6e1d2","ios":"levelo://app?vid=384014b8-e95f-4c94-8404-e378f6a6e1d2"},"vehicle_type_id":"4","last_reported":1732637563,"current_range_meters":35200,"station_id":"ce4bhgp2rcd13ifvqfc0","pricing_plan_id":"cebpf4jnsgd1na2vs0mg"},{"bike_id":"a7cbc1dc-f0f8-4875-bbb5-195f6fbe1dd8","system_id":"levelo_inurba_marseille","lat":43.337744,"lon":5.374296,"is_reserved":false,"is_disabled":false,"rental_uris":{"android":"levelo://app?vid=a7cbc1dc-f0f8-4875-bbb5-195f6fbe1dd8","ios":"levelo://app?vid=a7cbc1dc-f0f8-4875-bbb5-195f6fbe1dd8"},"vehicle_type_id":"4","last_reported":1732637563,"current_range_meters":35600,"station_id":"","pricing_plan_id":"cebpf4jnsgd1na2vs0mg"},{"bike_id":"0c3720a8-eb37-45c4-ad70-542f232edf05","system_id":"levelo_inurba_marseille","lat":43.27132,"lon":5.40359,"is_reserved":false,"is_disabled":false,"rental_uris":{"android":"levelo://app?vid=0c3720a8-eb37-45c4-ad70-542f232edf05","ios":"levelo://app?vid=0c3720a8-eb37-45c4-ad70-542f232edf05"},"vehicle_type_id":"4","last_reported":1732637563,"current_range_meters":30800,"station_id":"","pricing_plan_id":"cebpf4jnsgd1na2vs0mg"},{"bike_id":"477dcd67-9e7a-45ba-bfa6-35242423de35","system_id":"levelo_inurba_marseille","lat":43.307893,"lon":5.376417,"is_reserved":false,"is_disabled":false,"rental_uris":{"android":"levelo://app?vid=477dcd67-9e7a-45ba-bfa6-35242423de35","ios":"levelo://app?vid=477dcd67-9e7a-45ba-bfa6-35242423de35"},"vehicle_type_id":"4","last_reported":1732637563,"current_range_meters":16800,"station_id":"ce4bgv92rcd13ifvqcq0","pricing_plan_id":"cebpf4jnsgd1na2vs0mg"},{"bike_id":"6cc74a53-cf32-4970-a640-9b8ad4971d33","system_id":"levelo_inurba_marseille","lat":43.27019,"lon":5.38806,"is_reserved":false,"is_disabled":true,"rental_uris":{"android":"levelo://app?vid=6cc74a53-cf32-4970-a640-9b8ad4971d33","ios":"levelo://app?vid=6cc74a53-cf32-4970-a640-9b8ad4971d33"},"vehicle_type_id":"4","last_reported":1732637563,"current_range_meters":0,"station_id":"","pricing_plan_id":"cebpf4jnsgd1na2vs0mg"},{"bike_id":"e42bbe75-69c1-4002-a4f7-451dd0f85a55","system_id":"levelo_inurba_marseille","lat":43.321,"lon":5.36767,"is_reserved":false,"is_disabled":false,"rental_uris":{"android":"levelo://app?vid=e42bbe75-69c1-4002-a4f7-451dd0f85a55","ios":"levelo://app?vid=e42bbe75-69c1-4002-a4f7-451dd0f85a55"},"vehicle_type_id":"4","last_reported":1732637563,"current_range_meters":6400,"station_id":"ce4bhrh2rcd13ifvqhug","pricing_plan_id":"cebpf4jnsgd1na2vs0mg"},{"bike_id":"784deec2-ef58-4c20-9f65-b50895df1b83","system_id":"levelo_inurba_marseille","lat":43.29542,"lon":5.38538,"is_reserved":false,"is_disabled":false,"rental_uris":{"android":"levelo://app?vid=784deec2-ef58-4c20-9f65-b50895df1b83","ios":"levelo://app?vid=784deec2-ef58-4c20-9f65-b50895df1b83"},"vehicle_type_id":"4","last_reported":1732637563,"current_range_meters":20400,"station_id":"ce4bgih2rcd13ifvqba0","pricing_plan_id":"cebpf4jnsgd1na2vs0mg"},{"bike_id":"d7f9afb9-30d7-4d4f-9983-58093e67c1c8","system_id":"levelo_inurba_marseille","lat":43.337444,"lon":5.374475,"is_reserved":false,"is_disabled":false,"rental_uris":{"android":"levelo://app?vid=d7f9afb9-30d7-4d4f-9983-58093e67c1c8","ios":"levelo://app?vid=d7f9afb9-30d7-4d4f-9983-58093e67c1c8"},"vehicle_type_id":"4","last_reported":1732637563,"current_range_meters":36000,"station_id":"","pricing_plan_id":"cebpf4jnsgd1na2vs0mg"},{"bike_id":"ac17dd24-896a-4f5f-9003-ca83680013d9","system_id":"levelo_inurba_marseille","lat":43.28466,"lon":5.35886,"is_reserved":false,"is_disabled":false,"rental_uris":{"android":"levelo://app?vid=ac17dd24-896a-4f5f-9003-ca83680013d9","ios":"levelo://app?vid=ac17dd24-896a-4f5f-9003-ca83680013d9"},"vehicle_type_id":"4","last_reported":1732637563,"current_range_meters":28400,"station_id":"ce4bhah2rcd13ifvqei0","pricing_plan_id":"cebpf4jnsgd1na2vs0mg"},{"bike_id":"00a51608-2443-4379-b92f-a03aefbc0f1a","system_id":"levelo_inurba_marseille","lat":43.28618,"lon":5.37073,"is_reserved":false,"is_disabled":false,"rental_uris":{"android":"levelo://app?vid=00a51608-2443-4379-b92f-a03aefbc0f1a","ios":"levelo://app?vid=00a51608-2443-4379-b92f-a03aefbc0f1a"},"vehicle_type_id":"4","last_reported":1732637563,"current_range_meters":37600,"station_id":"ce4bht12rcd13ifvqi60","pricing_plan_id":"cebpf4jnsgd1na2vs0mg"},{"bike_id":"b31c18f0-d7e5-40c4-b946-432587e22ac8","system_id":"levelo_inurba_marseille","lat":43.28425,"lon":5.34988,"is_reserved":false,"is_disabled":false,"rental_uris":{"android":"levelo://app?vid=b31c18f0-d7e5-40c4-b946-432587e22ac8","ios":"levelo://app?vid=b31c18f0-d7e5-40c4-b946-432587e22ac8"},"vehicle_type_id":"4","last_reported":1732637563,"current_range_meters":4800,"station_id":"ce4bhbh2rcd13ifvqepg","pricing_plan_id":"cebpf4jnsgd1na2vs0mg"},{"bike_id":"6e9ba6dc-c255-4440-9a37-ba257001634c","system_id":"levelo_inurba_marseille","lat":43.31713,"lon":5.43713,"is_reserved":false,"is_disabled":false,"rental_uris":{"android":"levelo://app?vid=6e9ba6dc-c255-4440-9a37-ba257001634c","ios":"levelo://app?vid=6e9ba6dc-c255-4440-9a37-ba257001634c"},"vehicle_type_id":"4","last_reported":1732637563,"current_range_meters":38800,"station_id":"ce4bhp92rcd13ifvqhcg","pricing_plan_id":"cebpf4jnsgd1na2vs0mg"},{"bike_id":"1773d1ff-c673-4a3c-b26e-f847abb586d3","system_id":"levelo_inurba_marseille","lat":43.33765,"lon":5.37474,"is_reserved":false,"is_disabled":true,"rental_uris":{"android":"levelo://app?vid=1773d1ff-c673-4a3c-b26e-f847abb586d3","ios":"levelo://app?vid=1773d1ff-c673-4a3c-b26e-f847abb586d3"},"vehicle_type_id":"4","last_reported":1732637563,"current_range_meters":36400,"station_id":"","pricing_plan_id":"cebpf4jnsgd1na2vs0mg"},{"bike_id":"750d59fe-8605-4a20-8336-6f898026193b","system_id":"levelo_inurba_marseille","lat":43.25554,"lon":5.37617,"is_reserved":false,"is_disabled":false,"rental_uris":{"android":"levelo://app?vid=750d59fe-8605-4a20-8336-6f898026193b","ios":"levelo://app?vid=750d59fe-8605-4a20-8336-6f898026193b"},"vehicle_type_id":"4","last_reported":1732637563,"current_range_meters":16400,"station_id":"ce4bhh12rcd13ifvqff0","pricing_plan_id":"cebpf4jnsgd1na2vs0mg"},{"bike_id":"d9d4feef-579c-4343-91de-8e8aca7f1428","system_id":"levelo_inurba_marseille","lat":43.29947,"lon":5.38505,"is_reserved":false,"is_disabled":true,"rental_uris":{"android":"levelo://app?vid=d9d4feef-579c-4343-91de-8e8aca7f1428","ios":"levelo://app?vid=d9d4feef-579c-4343-91de-8e8aca7f1428"},"vehicle_type_id":"4","last_reported":1732637563,"current_range_meters":400,"station_id":"ce4bgj92rcd13ifvqbd0","pricing_plan_id":"cebpf4jnsgd1na2vs0mg"},{"bike_id":"4f41bf49-d717-4311-8304-d0af9fe161a9","system_id":"levelo_inurba_marseille","lat":43.3047,"lon":5.37905,"is_reserved":false,"is_disabled":false,"rental_uris":{"android":"levelo://app?vid=4f41bf49-d717-4311-8304-d0af9fe161a9","ios":"levelo://app?vid=4f41bf49-d717-4311-8304-d0af9fe161a9"},"vehicle_type_id":"4","last_reported":1732637563,"current_range_meters":32000,"station_id":"ce4bgup2rcd13ifvqcn0","pricing_plan_id":"cebpf4jnsgd1na2vs0mg"},{"bike_id":"64e7ef63-cccc-40e6-a431-6868f1783276","system_id":"levelo_inurba_marseille","lat":43.27177,"lon":5.4099,"is_reserved":false,"is_disabled":false,"rental_uris":{"android":"levelo://app?vid=64e7ef63-cccc-40e6-a431-6868f1783276","ios":"levelo://app?vid=64e7ef63-cccc-40e6-a431-6868f1783276"},"vehicle_type_id":"4","last_reported":1732637563,"current_range_meters":38000,"station_id":"ce4bhl12rcd13ifvqgf0","pricing_plan_id":"cebpf4jnsgd1na2vs0mg"},