{"last_updated":1735412776,"ttl":60,"version":"2.2","data":{"bikes":[{"bike_id":"d844f573-ef6f-45b7-9e20-9e7c330608de","system_id":"levelo_inurba_marseille","lat":43.29025,"lon":5.38638,"is_reserved":false,"is_disabled":false,"rental_uris":{"android":"levelo://app?vid=d844f573-ef6f-45b7-9e20-9e7c330608de","ios":"levelo://app?vid=d844f573-ef6f-45b7-9e20-9e7c330608de"},"vehicle_type_id":"4","last_reported":1735412776,"current_range_meters":15200,"station_id":"ce4bh4p2rcd13ifvqe0g","pricing_plan_id":"cebpf4jnsgd1na2vs0mg"},{"bike_id":"162042db-2005-4b89-a727-1c0579c7a7b4","system_id":"levelo_inurba_marseille","lat":43.291,"lon":5.38157,"is_reserved":false,"is_disabled":false,"rental_uris":{"android":"levelo://app?vid=162042db-2005-4b89-a727-1c0579c7a7b4","ios":"levelo://app?vid=162042db-2005-4b89-a727-1c0579c7a7b4"},"vehicle_type_id":"4","last_reported":1735412776,"current_range_meters":38800,"station_id":"ce4bh512rcd13ifvqe2g","pricing_plan_id":"cebpf4jnsgd1na2vs0mg"},{"bike_id":"5e0adfc4-c70a-40ff-9e8a-0c76899e809b","system_id":"levelo_inurba_marseille","lat":43.2942,"lon":5.38624,"is_reserved":false,"is_disabled":false,"rental_uris":{"android":"levelo://app?vid=5e0adfc4-c70a-40ff-9e8a-0c76899e809b","ios":"levelo://app?vid=5e0adfc4-c70a-40ff-9e8a-0c76899e809b"},"vehicle_type_id":"4","last_reported":1735412776,"current_range_meters":36800,"station_id":"ce4bh2h2rcd13ifvqdh0","pricing_plan_id":"cebpf4jnsgd1na2vs0mg"},{"bike_id":"6c2e2c19-7f75-44cd-a5ff-6f59687fa325","system_id":"levelo_inurba_marseille","lat":43.29978,"lon":5.38488,"is_reserved":false,"is_disabled":false,"rental_uris":{"android":"levelo://app?vid=6c2e2c19-7f75-44cd-a5ff-6f59687fa325","ios":"levelo://app?vid=6c2e2c19-7f75-44cd-a5ff-6f59687fa325"},"vehicle_type_id":"4","last_reported":1735412776,"current_range_meters":14800,"station_id":"ce4bgj92rcd13ifvqbd0","pricing_plan_id":"cebpf4jnsgd1na2vs0mg"},{"bike_id":"3703b8ef-d9a4-46d1-96bc-0159691b2bd4","system_id":"levelo_inurba_marseille","lat":43.26218,"lon":5.37429,"is_reserved":false,"is_disabled":false,"rental_uris":{"android":"levelo://app?vid=3703b8ef-d9a4-46d1-96bc-0159691b2bd4","ios":"levelo://app?vid=3703b8ef-d9a4-46d1-96bc-0159691b2bd4"},"vehicle_type_id":"4","last_reported":1735412776,"current_range_meters":9600,"station_id":"ce4bhgp2rcd13ifvqfc0","pricing_plan_id":"cebpf4jnsgd1na2vs0mg"},{"bike_id":"17467958-a151-40f2-98e4-bb65ea00e49d","system_id":"levelo_inurba_marseille","lat":43.2795,"lon":5.41044,"is_reserved":false,"is_disabled":false,"rental_uris":{"android":"levelo://app?vid=17467958-a151-40f2-98e4-bb65ea00e49d","ios":"levelo://app?vid=17467958-a151-40f2-98e4-bb65ea00e49d"},"vehicle_type_id":"4","last_reported":1735412776,"current_range_meters":36400,"station_id":"ce4bhnp2rcd13ifvqh0g","pricing_plan_id":"cebpf4jnsgd1na2vs0mg"},{"bike_id":"8e3501de-0fdd-4c51-8a37-aa32b9990297","system_id":"levelo_inurba_marseille","lat":43.2857,"lon":5.39491,"is_reserved":false,"is_disabled":false,"rental_uris":{"android":"levelo://app?vid=8e3501de-0fdd-4c51-8a37-aa32b9990297","ios":"levelo://app?vid=8e3501de-0fdd-4c51-8a37-aa32b9990297"},"vehicle_type_id":"4","last_reported":1735412776,"current_range_meters":38800,"station_id":"ce4bh292rcd13ifvqdg0","pricing_plan_id":"cebpf4jnsgd1na2vs0mg"},{"bike_id":"3991aac2-ec7f-43c8-801f-23e11845f2d6","system_id":"levelo_inurba_marseille","lat":43.28153,"lon":5.42633,"is_reserved":false,"is_disabled":false,"rental_uris":{"android":"levelo://app?vid=3991aac2-ec7f-43c8-801f-23e11845f2d6","ios":"levelo://app?vid=3991aac2-ec7f-43c8-801f-23e11845f2d6"},"vehicle_type_id":"4","last_reported":1735412776,"current_range_meters":39200,"station_id":"ce4bhnh2rcd13ifvqgug","pricing_plan_id":"cebpf4jnsgd1na2vs0mg"},{"bike_id":"06450166-35ea-4146-8f52-53bd835ce382","system_id":"levelo_inurba_marseille","lat":43.2961,"lon":5.38099,"is_reserved":false,"is_disabled":false,"rental_uris":{"android":"levelo://app?vid=06450166-35ea-4146-8f52-53bd835ce382","ios":"levelo://app?vid=06450166-35ea-4146-8f52-53bd835ce382"},"vehicle_type_id":"4","last_reported":1735412776,"current_range_meters":22400,"station_id":"ce4bgl12rcd13ifvqbo0","pricing_plan_id":"cebpf4jnsgd1na2vs0mg"},{"bike_id":"aa910906-3ca2-4107-80e1-4fe46d1472a6","system_id":"levelo_inurba_marseille","lat":43.32045,"lon":5.415587,"is_reserved":false,"is_disabled":false,"rental_uris":{"android":"levelo://app?vid=aa910906-3ca2-4107-80e1-4fe46d1472a6","ios":"levelo://app?vid=aa910906-3ca2-4107-80e1-4fe46d1472a6"},"vehicle_type_id":"4","last_reported":1735412776,"current_range_meters":29600,"station_id":"ce4bhq92rcd13ifvqhkg","pricing_plan_id":"cebpf4jnsgd1na2vs0mg"},{"bike_id":"9ca21125-146a-42e5-8ffa-9894839d7b14","system_id":"levelo_inurba_marseille","lat":43.32659,"lon":5.40992,"is_reserved":false,"is_disabled":false,"rental_uris":{"android":"levelo://app?vid=9ca21125-146a-42e5-8ffa-9894839d7b14","ios":"levelo://app?vid=9ca21125-146a-42e5-8ffa-9894839d7b14"},"vehicle_type_id":"4","last_reported":1735412776,"current_range_meters":20000,"station_id":"ce4bhpp2rcd13ifvqhgg","pricing_plan_id":"cebpf4jnsgd1na2vs0mg"},{"bike_id":"bcdcaf9a-998b-4b9f-9624-c8da03994ef5","system_id":"levelo_inurba_marseille","lat":43.29552,"lon":5.37423,"is_reserved":false,"is_disabled":false,"rental_uris":{"android":"levelo://app?vid=bcdcaf9a-998b-4b9f-9624-c8da03994ef5","ios":"levelo://app?vid=bcdcaf9a-998b-4b9f-9624-c8da03994ef5"},"vehicle_type_id":"4","last_reported":1735412776,"current_range_meters":4800,"station_id":"","pricing_plan_id":"cebpf4jnsgd1na2vs0mg"},{"bike_id":"6ad1742e-8bff-4c51-a529-dfe59edb730a","system_id":"levelo_inurba_marseille","lat":43.29912,"lon":5.37474,"is_reserved":false,"is_disabled":false,"rental_uris":{"android":"levelo://app?vid=6ad1742e-8bff-4c51-a529-dfe59edb730a","ios":"levelo://app?vid=6ad1742e-8bff-4c51-a529-dfe59edb730a"},"vehicle_type_id":"4","last_reported":1735412776,"current_range_meters":32000,"station_id":"ce4bgjh2rcd13ifvqbg0","pricing_plan_id":"cebpf4jnsgd1na2vs0mg"},{"bike_id":"3b3d2c75-4195-4f81-af35-afa13ebc8eea","system_id":"levelo_inurba_marseille","lat":43.27382,"lon":5.36248,"is_reserved":false,"is_disabled":true,"rental_uris":{"android":"levelo://app?vid=3b3d2c75-4195-4f81-af35-afa13ebc8eea","ios":"levelo://app?vid=3b3d2c75-4195-4f81-af35-afa13ebc8eea"},"vehicle_type_id":"4","last_reported":1735412776,"current_range_meters":29600,"station_id":"ce4bhbh2rcd13ifvqeo0","pricing_plan_id":"cebpf4jnsgd1na2vs0mg"},{"bike_id":"4dfae491-9961-4f14-9884-a24863ed59ba","system_id":"levelo_inurba_marseille","lat":43.24803,"lon":5.37437,"is_reserved":false,"is_disabled":false,"rental_uris":{"android":"levelo://app?vid=4dfae491-9961-4f14-9884-a24863ed59ba","ios":"levelo://app?vid=4dfae491-9961-4f14-9884-a24863ed59ba"},"vehicle_type_id":"4","last_reported":1735412776,"current_range_meters":32400,"station_id":"ce4bhgh2rcd13ifvqfb0","pricing_plan_id":"cebpf4jnsgd1na2vs0mg"},{"bike_id":"b31b48a8-6b4c-492a-b91c-70d2f6717995","system_id":"levelo_inurba_marseille","lat":43.28921,"lon":5.3839,"is_reserved":false,"is_disabled":false,"rental_uris":{"android":"levelo://app?vid=b31b48a8-6b4c-492a-b91c-70d2f6717995","ios":"levelo://app?vid=b31b48a8-6b4c-492a-b91c-70d2f6717995"},"vehicle_type_id":"4","last_reported":1735412776,"current_range_meters":28000,"station_id":"ce4bh612rcd13ifvqe6g","pricing_plan_id":"cebpf4jnsgd1na2vs0mg"},{"bike_id":"552e19b6-8e7c-4e61-ab86-bb56c6f06187","system_id":"levelo_inurba_marseille","lat":43.32658,"lon":5.40981,"is_reserved":false,"is_disabled":false,"rental_uris":{"android":"levelo://app?vid=552e19b6-8e7c-4e61-ab86-bb56c6f06187","ios":"levelo://app?vid=552e19b6-8e7c-4e61-ab86-bb56c6f06187"},"vehicle_type_id":"4","last_reported":1735412776,"current_range_meters":28400,"station_id":"ce4bhpp2rcd13ifvqhgg","pricing_plan_id":"cebpf4jnsgd1na2vs0mg"},{"bike_id":"a6a5e0d6-7b92-416a-a4a7-1a1f592e618d","system_id":"levelo_inurba_marseille","lat":43.30547,"lon":5.36684,"is_reserved":false,"is_disabled":false,"rental_uris":{"android":"levelo://app?vid=a6a5e0d6-7b92-416a-a4a7-1a1f592e618d","ios":"levelo://app?vid=a6a5e0d6-7b92-416a-a4a7-1a1f592e618d"},"vehicle_type_id":"4","last_reported":1735412776,"current_range_meters":28400,"station_id":"ce4bgrp2rcd13ifvqc9g","pricing_plan_id":"cebpf4jnsgd1na2vs0mg"},{"bike_id":"2a867018-6235-4a4a-9651-60933e0d5bd0","system_id":"levelo_inurba_marseille","lat":43.32568,"lon":5.39307,"is_reserved":false,"is_disabled":true,"rental_uris":{"android":"levelo://app?vid=2a867018-6235-4a4a-9651-60933e0d5bd0","ios":"levelo://app?vid=2a867018-6235-4a4a-9651-60933e0d5bd0"},"vehicle_type_id":"4","last_reported":1735412776,"current_range_meters":1200,"station_id":"","pricing_plan_id":"cebpf4jnsgd1na2vs0mg"},{"bike_id":"117c03bc-16b6-4a35-960b-0e18c8649e2d","system_id":"levelo_inurba_marseille","lat":43.29791,"lon":5.38085,"is_reserved":false,"is_disabled":false,"rental_uris":{"android":"levelo://app?vid=117c03bc-16b6-4a35-960b-0e18c8649e2d","ios":"levelo://app?vid=117c03bc-16b6-4a35-960b-0e18c8649e2d"},"vehicle_type_id":"4","last_reported":1735412776,"current_range_meters":35200,"station_id":"ce4bgip2rcd13ifvqbb0","pricing_plan_id":"cebpf4jnsgd1na2vs0mg"},{"bike_id":"74ff8c72-6307-4530-b048-eb1d07ae5925","system_id":"levelo_inurba_marseille","lat":43.29916,"lon":5.38158,"is_reserved":false,"is_disabled":false,"rental_uris":{"android":"levelo://app?vid=74ff8c72-6307-4530-b048-eb1d07ae5925","ios":"levelo://app?vid=74ff8c72-6307-4530-b048-eb1d07ae5925"},"vehicle_type_id":"4","last_reported":1735412776,"current_range_meters":28000,"station_id":"ce4bgj12rcd13ifvqbc0","pricing_plan_id":"cebpf4jnsgd1na2vs0mg"},{"bike_id":"2eefb247-8d4f-45e9-8c96-c8c17d3c726d","system_id":"levelo_inurba_marseille","lat":43.297825,"lon":5.371083,"is_reserved":false,"is_disabled":false,"rental_uris":{"android":"levelo://app?vid=2eefb247-8d4f-45e9-8c96-c8c17d3c726d","ios":"levelo://app?vid=2eefb247-8d4f-45e9-8c96-c8c17d3c726d"},"vehicle_type_id":"4","last_reported":1735412776,"current_range_meters":35200,"station_id":"ce4bgop2rcd13ifvqc1g","pricing_plan_id":"cebpf4jnsgd1na2vs0mg"},{"bike_id":"dde23100-284b-476d-b6ea-b936ad5ae2e8","system_id":"levelo_inurba_marseille","lat":43.29581,"lon":5.38102,"is_reserved":false,"is_disabled":false,"rental_uris":{"android":"levelo://app?vid=dde23100-284b-476d-b6ea-b936ad5ae2e8","ios":"levelo://app?vid=dde23100-284b-476d-b6ea-b936ad5ae2e8"},"vehicle_type_id":"4","last_reported":1735412776,"current_range_meters":32400,"station_id":"ce4bgl12rcd13ifvqbo0","pricing_plan_id":"cebpf4jnsgd1na2vs0mg"},{"bike_id":"857344dd-6be1-4d34-90e7-6f62afbbef2e","system_id":"levelo_inurba_marseille","lat":43.32104,"lon":5.36776,"is_reserved":false,"is_disabled":false,"rental_uris":{"android":"levelo://app?vid=857344dd-6be1-4d34-90e7-6f62afbbef2e","ios":"levelo://app?vid=857344dd-6be1-4d34-90e7-6f62afbbef2e"},"vehicle_type_id":"4","last_reported":1735412776,"current_range_meters":32000,"station_id":"ce4bhrh2rcd13ifvqhug","pricing_plan_id":"cebpf4jnsgd1na2vs0mg"},{"bike_id":"3d80c9ba-3901-49ec-86c0-d8e260ec78a9","system_id":"levelo_inurba_marseille","lat":43.29295,"lon":5.3747,"is_reserved":false,"is_disabled":false,"rental_uris":{"android":"levelo://app?vid=3d80c9ba-3901-49ec-86c0-d8e260ec78a9","ios":"levelo://app?vid=3d80c9ba-3901-49ec-86c0-d8e260ec78a9"},"vehicle_type_id":"4","last_reported":1735412776,"current_range_meters":33200,"station_id":"ce4bgi12rcd13ifvqb70","pricing_plan_id":"cebpf4jnsgd1na2vs0mg"},{"bike_id":"ebb6d78e-59e9-467c-bd6f-0ce95ca839c8","system_id":"levelo_inurba_marseille","lat":43.292323,"lon":5.360712,"is_reserved":false,"is_disabled":false,"rental_uris":{"android":"levelo://app?vid=ebb6d78e-59e9-467c-bd6f-0ce95ca839c8","ios":"levelo://app?vid=ebb6d78e-59e9-467c-bd6f-0ce95ca839c8"},"vehicle_type_id":"4","last_reported":1735412776,"current_range_meters":22000,"station_id":"ce4bhbh2rcd13ifvqeqg","pricing_plan_id":"cebpf4jnsgd1na2vs0mg"},{"bike_id":"2aeeb016-c0f4-4948-bd59-1c7a9e3cc1c6","system_id":"levelo_inurba_marseille","lat":43.29685,"lon":5.37287,"is_reserved":false,"is_disabled":false,"rental_uris":{"android":"levelo://app?vid=2aeeb016-c0f4-4948-bd59-1c7a9e3cc1c6","ios":"levelo://app?vid=2aeeb016-c0f4-4948-bd59-1c7a9e3cc1c6"},"vehicle_type_id":"4","last_reported":1735412776,"current_range_meters":16400,"station_id":"ce4bgk12rcd13ifvqbj0","pricing_plan_id":"cebpf4jnsgd1na2vs0mg"},{"bike_id":"3c2a68c2-ee7f-47cb-a403-8a77dc24c831","system_id":"levelo_inurba_marseille","lat":43.2749,"lon":5.4246,"is_reserved":false,"is_disabled":false,"rental_uris":{"android":"levelo://app?vid=3c2a68c2-ee7f-47cb-a403-8a77dc24c831","ios":"levelo://app?vid=3c2a68c2-ee7f-47cb-a403-8a77dc24c831"},"vehicle_type_id":"4","last_reported":1735412776,"current_range_meters":8000,"station_id":"ce4bhn92rcd13ifvqgrg","pricing_plan_id":"cebpf4jnsgd1na2vs0mg"},{"bike_id":"ad66ce9d-e2b2-4064-ae7f-fe87403c632b","system_id":"levelo_inurba_marseille","lat":43.230636,"lon":5.354949,"is_reserved":false,"is_disabled":false,"rental_uris":{"android":"levelo://app?vid=ad66ce9d-e2b2-4064-ae7f-fe87403c632b","ios":"levelo://app?vid=ad66ce9d-e2b2-4064-ae7f-fe87403c632b"},"vehicle_type_id":"4","last_reported":1735412776,"current_range_meters":20400,"station_id":"cpo3342slgdg3j2ifvpg","pricing_plan_id":"cebpf4jnsgd1na2vs0mg"},{"bike_id":"afed34f7-2010-4451-b8bc-b3ca5d1fc719","system_id":"levelo_inurba_marseille","lat":43.28343,"lon":5.38112,"is_reserved":false,"is_disabled":false,"rental_uris":{"android":"levelo://app?vid=afed34f7-2010-4451-b8bc-b3ca5d1fc719","ios":"levelo://app?vid=afed34f7-2010-4451-b8bc-b3ca5d1fc719"},"vehicle_type_id":"4","last_reported":1735412776,"current_range_meters":38400,"station_id":"ce4bh412rcd13ifvqdr0","pricing_plan_id":"cebpf4jnsgd1na2vs0mg"},{"bike_id":"4e6a6b09-c29d-4572-bd03-ffe64c36b39b","system_id":"levelo_inurba_marseille","lat":43.24066,"lon":5.37759,"is_reserved":false,"is_disabled":false,"rental_uris":{"android":"levelo://app?vid=4e6a6b09-c29d-4572-bd03-ffe64c36b39b","ios":"levelo://app?vid=4e6a6b09-c29d-4572-bd03-ffe64c36b39b"},"vehicle_type_id":"4","last_reported":1735412776,"current_range_meters":12000,"station_id":"ce4bhnp2rcd13ifvqgvg","pricing_plan_id":"cebpf4jnsgd1na2vs0mg"},{"bike_id":"2e276ef7-feaf-420f-8098-2c7924a8a5cf","system_id":"levelo_inurba_marseille","lat":43.29046,"lon":5.35909,"is_reserved":false,"is_disabled":false,"rental_uris":{"android":"levelo://app?vid=2e276ef7-feaf-420f-8098-2c7924a8a5cf","ios":"levelo://app?vid=2e276ef7-feaf-420f-8098-2c7924a8a5cf"},"vehicle_type_id":"4","last_reported":1735412776,"current_range_meters":38800,"station_id":"ce4bha92rcd13ifvqeg0","pricing_plan_id":"cebpf4jnsgd1na2vs0mg"},{"bike_id":"753fe1a2-6ec1-4d51-9513-13144401ea46","system_id":"levelo_inurba_marseille","lat":43.29169,"lon":5.37157,"is_reserved":false,"is_disabled":false,"rental_uris":{"android":"levelo://app?vid=753fe1a2-6ec1-4d51-9513-13144401ea46","ios":"levelo://app?vid=753fe1a2-6ec1-4d51-9513-13144401ea46"},"vehicle_type_id":"4","last_reported":1735412776,"current_range_meters":34800,"station_id":"ce4bha92rcd13ifvqeh0","pricing_plan_id":"cebpf4jnsgd1na2vs0mg"},{"bike_id":"2924d707-8197-454c-9f11-6f7bb738d897","system_id":"levelo_inurba_marseille","lat":43.25119,"lon":5.40318,"is_reserved":false,"is_disabled":false,"rental_uris":{"android":"levelo://app?vid=2924d707-8197-454c-9f11-6f7bb738d897","ios":"levelo://app?vid=2924d707-8197-454c-9f11-6f7bb738d897"},"vehicle_type_id":"4","last_reported":1735412776,"current_range_meters":39200,"station_id":"ce4bhlh2rcd13ifvqgig","pricing_plan_id":"cebpf4jnsgd1na2vs0mg"},{"bike_id":"d0533ccb-11ce-46dc-9cca-daa9f7a4985a","system_id":"levelo_inurba_marseille","lat":43.29572,"lon":5.42275,"is_reserved":false,"is_disabled":false,"rental_uris":{"android":"levelo://app?vid=d0533ccb-11ce-46dc-9cca-daa9f7a4985a","ios":"levelo://app?vid=d0533ccb-11ce-46dc-9cca-daa9f7a4985a"},"vehicle_type_id":"4","last_reported":1735412776,"current_range_meters":38000,"station_id":"ce4bhph2rcd13ifvqhdg","pricing_plan_id":"cebpf4jnsgd1na2vs0mg"},{"bike_id":"18ed169b-f8e6-48ff-8d23-5f83e81eb63f","system_id":"levelo_inurba_marseille","lat":43.31652,"lon":5.37704,"is_reserved":false,"is_disabled":false,"rental_uris":{"android":"levelo://app?vid=18ed169b-f8e6-48ff-8d23-5f83e81eb63f","ios":"levelo://app?vid=18ed169b-f8e6-48ff-8d23-5f83e81eb63f"},"vehicle_type_id":"4","last_reported":1735412776,"current_range_meters":36400,"station_id":"","pricing_plan_id":"cebpf4jnsgd1na2vs0mg"},{"bike_id":"7f22f8bc-9ad7-4940-bb48-4c7596924792","system_id":"levelo_inurba_marseille","lat":43.2868,"lon":5.38651,"is_reserved":false,"is_disabled":false,"rental_uris":{"android":"levelo://app?vid=7f22f8bc-9ad7-4940-bb48-4c7596924792","ios":"levelo://app?vid=7f22f8bc-9ad7-4940-bb48-4c7596924792"},"vehicle_type_id":"4","last_reported":1735412776,"current_range_meters":32400,"station_id":"ce4bh492rcd13ifvqdug","pricing_plan_id":"cebpf4jnsgd1na2vs0mg"},{"bike_id":"fbe33567-40cb-4184-a603-cfb64e03f8ed","system_id":"levelo_inurba_marseille","lat":43.3178,"lon":5.40576,"is_reserved":false,"is_disabled":false,"rental_uris":{"android":"levelo://app?vid=fbe33567-40cb-4184-a603-cfb64e03f8ed","ios":"levelo://app?vid=fbe33567-40cb-4184-a603-cfb64e03f8ed"},"vehicle_type_id":"4","last_reported":1735412776,"current_range_meters":24400,"station_id":"","pricing_plan_id":"cebpf4jnsgd1na2vs0mg"},{"bike_id":"6ed41f00-4593-4277-baa0-b14438f8ffc8","system_id":"levelo_inurba_marseille","lat":43.28863,"lon":5.39315,"is_reserved":false,"is_disabled":false,"rental_uris":{"android":"levelo://app?vid=6ed41f00-4593-4277-baa0-b14438f8ffc8","ios":"levelo://app?vid=6ed41f00-4593-4277-baa0-b14438f8ffc8"},"vehicle_type_id":"4","last_reported":1735412776,"current_range_meters":22800,"station_id":"ce4bh2p2rcd13ifvqdi0","pricing_plan_id":"cebpf4jnsgd1na2vs0mg"},{"bike_id":"caab34a4-5264-4b72-a12f-e55159fe93b6","system_id":"levelo_inurba_marseille","lat":43.27085,"lon":5.42267,"is_reserved":false,"is_disabled":false,"rental_uris":{"android":"levelo://app?vid=caab34a4-5264-4b72-a12f-e55159fe93b6","ios":"levelo://app?vid=caab34a4-5264-4b72-a12f-e55159fe93b6"},"vehicle_type_id":"4","last_reported":1735412776,"current_range_meters":28000,"station_id":"ce4bhk92rcd13ifvqgb0","pricing_plan_id":"cebpf4jnsgd1na2vs0mg"},{"bike_id":"ae7d3efe-ac8b-40bd-8b10-2185462f6f34","system_id":"levelo_inurba_marseille","lat":43.27962,"lon":5.38725,"is_reserved":false,"is_disabled":false,"rental_uris":{"android":"levelo://app?vid=ae7d3efe-ac8b-40bd-8b10-2185462f6f34","ios":"levelo://app?vid=ae7d3efe-ac8b-40bd-8b10-2185462f6f34"},"vehicle_type_id":"4","last_reported":1735412776,"current_range_meters":32000,"station_id":"ce4bhg12rcd13ifvqf80","pricing_plan_id":"cebpf4jnsgd1na2vs0mg"},{"bike_id":"0cb11ae2-eb21-4c76-882f-f98d8140d4cf","system_id":"levelo_inurba_marseille","lat":43.28693,"lon":5.39979,"is_reserved":false,"is_disabled":false,"rental_uris":{"android":"levelo://app?vid=0cb11ae2-eb21-4c76-882f-f98d8140d4cf","ios":"levelo://app?vid=0cb11ae2-eb21-4c76-882f-f98d8140d4cf"},"vehicle_type_id":"4","last_reported":1735412776,"current_range_meters":18000,"station_id":"ce4bho92rcd13ifvqh3g","pricing_plan_id":"cebpf4jnsgd1na2vs0mg"},{"bike_id":"fc3d6cf0-c2eb-4c9c-81c9-19376942fae5","system_id":"levelo_inurba_marseille","lat":43.28408,"lon":5.37505,"is_reserved":false,"is_disabled":false,"rental_uris":{"android":"levelo://app?vid=fc3d6cf0-c2eb-4c9c-81c9-19376942fae5","ios":"levelo://app?vid=fc3d6cf0-c2eb-4c9c-81c9-19376942fae5"},"vehicle_type_id":"4","last_reported":1735412776,"current_range_meters":16000,"station_id":"ce4bha92rcd13ifvqeh0","pricing_plan_id":"cebpf4jnsgd1na2vs0mg"},{"bike_id":"af24a059-f0b9-4451-8b3e-21219bfba3ca","system_id":"levelo_inurba_marseille","lat":43.32293,"lon":5.38284,"is_reserved":false,"is_disabled":true,"rental_uris":{"android":"levelo://app?vid=af24a059-f0b9-4451-8b3e-21219bfba3ca","ios":"levelo://app?vid=af24a059-f0b9-4451-8b3e-21219bfba3ca"},"vehicle_type_id":"4","last_reported":1735412776,"current_range_meters":1200,"station_id":"ce4bhr12rcd13ifvqhqg","pricing_plan_id":"cebpf4jnsgd1na2vs0mg"},{"bike_id":"2eaf5aab-e12e-4e93-a20d-88a34894165c","system_id":"levelo_inurba_marseille","lat":43.28466,"lon":5.35898,"is_reserved":false,"is_disabled":true,"rental_uris":{"android":"levelo://app?vid=2eaf5aab-e12e-4e93-a20d-88a34894165c","ios":"levelo://app?vid=2eaf5aab-e12e-4e93-a20d-88a34894165c"},"vehicle_type_id":"4","last_reported":1735412776,"current_range_meters":0,"station_id":"ce4bhah2rcd13ifvqei0","pricing_plan_id":"cebpf4jnsgd1na2vs0mg"},{"bike_id":"33e4c278-497a-4992-9269-3f4bd7a2ca60","system_id":"levelo_inurba_marseille","lat":43.2991,"lon":5.37462,"is_reserved":false,"is_disabled":false,"rental_uris":{"android":"levelo://app?vid=33e4c278-497a-4992-9269-3f4bd7a2ca60","ios":"levelo://app?vid=33e4c278-497a-4992-9269-3f4bd7a2ca60"},"vehicle_type_id":"4","last_reported":1735412776,"current_range_meters":38000,"station_id":"ce4bgjh2rcd13ifvqbg0","pricing_plan_id":"cebpf4jnsgd1na2vs0mg"},{"bike_id":"d07ac0e3-849c-44fe-ab38-0273add2ad10","system_id":"levelo_inurba_marseille","lat":43.30882,"lon":5.37189,"is_reserved":false,"is_disabled":false,"rental_uris":{"android":"levelo://app?vid=d07ac0e3-849c-44fe-ab38-0273add2ad10","ios":"levelo://app?vid=d07ac0e3-849c-44fe-ab38-0273add2ad10"},"vehicle_type_id":"4","last_reported":1735412776,"current_range_meters":13600,"station_id":"ce4bguh2rcd13ifvqckg","pricing_plan_id":"cebpf4jnsgd1na2vs0mg"},{"bike_id":"d6b22b82-2ba1-4963-bfff-f54c55c0719c","system_id":"levelo_inurba_marseille","lat":43.31326,"lon":5.39699,"is_reserved":false,"is_disabled":false,"rental_uris":{"android":"levelo://app?vid=d6b22b82-2ba1-4963-bfff-f54c55c0719c","ios":"levelo://app?vid=d6b22b82-2ba1-4963-bfff-f54c55c0719c"},"vehicle_type_id":"4","last_reported":1735412776,"current_range_meters":29600,"station_id":"ce4bgvp2rcd13ifvqcu0","pricing_plan_id":"cebpf4jnsgd1na2vs0mg"},{"bike_id":"b8310779-a1ed-43b8-93c2-4d2a1cabb080","system_id":"levelo_inurba_marseille","lat":43.26496,"lon":5.3954,"is_reserved":false,"is_disabled":false,"rental_uris":{"android":"levelo://app?vid=b8310779-a1ed-43b8-93c2-4d2a1cabb080","ios":"levelo://app?vid=b8310779-a1ed-43b8-93c2-4d2a1cabb080"},"vehicle_type_id":"4","last_reported":1735412776,"current_range_meters":38800,"station_id":"ce4bhi12rcd13ifvqfq0","pricing_plan_id":"cebpf4jnsgd1na2vs0mg"},{"bike_id":"c0c3e5c6-edc3-41c4-8feb-85aaa21b750a","system_id":"levelo_inurba_marseille","lat":43.32018,"lon":5.41585,"is_reserved":false,"is_disabled":false,"rental_uris":{"android":"levelo://app?vid=c0c3e5c6-edc3-41c4-8feb-85aaa21b750a","ios":"levelo://app?vid=c0c3e5c6-edc3-41c4-8feb-85aaa21b750a"},"vehicle_type_id":"4","last_reported":1735412776,"current_range_meters":35600,"station_id":"ce4bhq92rcd13ifvqhkg","pricing_plan_id":"cebpf4jnsgd1na2vs0mg"},{"bike_id":"1614b641-51e8-4939-86a4-49d02c2889c7","system_id":"levelo_inurba_marseille","lat":43.27378,"lon":5.36251,"is_reserved":false,"is_disabled":false,"rental_uris":{"android":"levelo://app?vid=1614b641-51e8-4939-86a4-49d02c2889c7","ios":"levelo://app?vid=1614b641-51e8-4939-86a4-49d02c2889c7"},"vehicle_type_id":"4","last_reported":1735412776,"current_range_meters":8000,"station_id":"ce4bhbh2rcd13ifvqeo0","pricing_plan_id":"cebpf4jnsgd1na2vs0mg"},{"bike_id":"aaaad95a-3362-4c9b-8d93-33b4c6435e21","system_id":"levelo_inurba_marseille","lat":43.29529,"lon":5.38539,"is_reserved":false,"is_disabled":false,"rental_uris":{"android":"levelo://app?vid=aaaad95a-3362-4c9b-8d93-33b4c6435e21","ios":"levelo://app?vid=aaaad95a-3362-4c9b-8d93-33b4c6435e21"},"vehicle_type_id":"4","last_reported":1735412776,"current_range_meters":22000,"station_id":"ce4bgih2rcd13ifvqba0","pricing_plan_id":"cebpf4jnsgd1na2vs0mg"},{"bike_id":"23a7b182-0062-4770-acaf-16367a2d6280","system_id":"levelo_inurba_marseille","lat":43.26926,"lon":5.38889,"is_reserved":false,"is_disabled":false,"rental_uris":{"android":"levelo://app?vid=23a7b182-0062-4770-acaf-16367a2d6280","ios":"levelo://app?vid=23a7b182-0062-4770-acaf-16367a2d6280"},"vehicle_type_id":"4","last_reported":1735412776,"current_range_meters":36400,"station_id":"ce4bhhh2rcd13ifvqfl0","pricing_plan_id":"cebpf4jnsgd1na2vs0mg"},{"bike_id":"d225e49f-de10-470b-90af-648b3c15cce7","system_id":"levelo_inurba_marseille","lat":43.2572,"lon":5.41107,"is_reserved":false,"is_disabled":false,"rental_uris":{"android":"levelo://app?vid=d225e49f-de10-470b-90af-648b3c15cce7","ios":"levelo://app?vid=d225e49f-de10-470b-90af-648b3c15cce7"},"vehicle_type_id":"4","last_reported":1735412776,"current_range_meters":27200,"station_id":"ce4bhkp2rcd13ifvqgd0","pricing_plan_id":"cebpf4jnsgd1na2vs0mg"},{"bike_id":"ffdb2c0d-1337-4b95-a10f-755453ca9eb2","system_id":"levelo_inurba_marseille","lat":43.29302,"lon":5.37152,"is_reserved":false,"is_disabled":false,"rental_uris":{"android":"levelo://app?vid=ffdb2c0d-1337-4b95-a10f-755453ca9eb2","ios":"levelo://app?vid=ffdb2c0d-1337-4b95-a10f-755453ca9eb2"},"vehicle_type_id":"4","last_reported":1735412776,"current_range_meters":33200,"station_id":"ce4bgh92rcd13ifvqb40","pricing_plan_id":"cebpf4jnsgd1na2vs0mg"},{"bike_id":"05fb7452-2e75-415b-85e8-66f72f2a1cf5","system_id":"levelo_inurba_marseille","lat":43.31359,"lon":5.3916,"is_reserved":false,"is_disabled":false,"rental_uris":{"android":"levelo://app?vid=05fb7452-2e75-415b-85e8-66f72f2a1cf5","ios":"levelo://app?vid=05fb7452-2e75-415b-85e8-66f72f2a1cf5"},"vehicle_type_id":"4","last_reported":1735412776,"current_range_meters":23200,"station_id":"","pricing_plan_id":"cebpf4jnsgd1na2vs0mg"},{"bike_id":"414d5a27-9d60-42ed-9942-5f82cd4d23db","system_id":"levelo_inurba_marseille","lat":43.27499,"lon":5.42452,"is_reserved":false,"is_disabled":false,"rental_uris":{"android":"levelo://app?vid=414d5a27-9d60-42ed-9942-5f82cd4d23db","ios":"levelo://app?vid=414d5a27-9d60-42ed-9942-5f82cd4d23db"},"vehicle_type_id":"4","last_reported":1735412776,"current_range_meters":21600,"station_id":"ce4bhn92rcd13ifvqgrg","pricing_plan_id":"cebpf4jnsgd1na2vs0mg"},{"bike_id":"d6144803-d96b-4980-90a1-d59f6d11564c","system_id":"levelo_inurba_marseille","lat":43.28155,"lon":5.42645,"is_reserved":false,"is_disabled":false,"rental_uris":{"android":"levelo://app?vid=d6144803-d96b-4980-90a1-d59f6d11564c","ios":"levelo://app?vid=d6144803-d96b-4980-90a1-d59f6d11564c"},"vehicle_type_id":"4","last_reported":1735412776,"current_range_meters":9600,"station_id":"ce4bhnh2rcd13ifvqgug","pricing_plan_id":"cebpf4jnsgd1na2vs0mg"},{"bike_id":"c74aa9b1-1e0f-46cb-8704-6e5852910a9d","system_id":"levelo_inurba_marseille","lat":43.26569,"lon":5.39009,"is_reserved":false,"is_disabled":false,"rental_uris":{"android":"levelo://app?vid=c74aa9b1-1e0f-46cb-8704-6e5852910a9d","ios":"levelo://app?vid=c74aa9b1-1e0f-46cb-8704-6e5852910a9d"},"vehicle_type_id":"4","last_reported":1735412776,"current_range_meters":18000,"station_id":"ce4bhe12rcd13ifvqf30","pricing_plan_id":"cebpf4jnsgd1na2vs0mg"},{"bike_id":"8ed5a1f5-589e-42ed-8f11-2d154ce6b9eb","system_id":"levelo_inurba_marseille","lat":43.23963,"lon":5.36628,"is_reserved":false,"is_disabled":false,"rental_uris":{"android":"levelo://app?vid=8ed5a1f5-589e-42ed-8f11-2d154ce6b9eb","ios":"levelo://app?vid=8ed5a1f5-589e-42ed-8f11-2d154ce6b9eb"},"vehicle_type_id":"4","last_reported":1735412776,"current_range_meters":38400,"station_id":"ce4bhi12rcd13ifvqfp0","pricing_plan_id":"cebpf4jnsgd1na2vs0mg"},{"bike_id":"901b41f4-7f13-4685-9c39-96eb014224ea","system_id":"levelo_inurba_marseille","lat":43.28267,"lon":5.35073,"is_reserved":false,"is_disabled":false,"rental_uris":{"android":"levelo://app?vid=901b41f4-7f13-4685-9c39-96eb014224ea","ios":"levelo://app?vid=901b41f4-7f13-4685-9c39-96eb014224ea"},"vehicle_type_id":"4","last_reported":1735412776,"current_range_meters":36400,"station_id":"ce4bhbp2rcd13ifvqerg","pricing_plan_id":"cebpf4jnsgd1na2vs0mg"},{"bike_id":"f2771906-c31b-4e20-a9b5-59005e9607b6","system_id":"levelo_inurba_marseille","lat":43.29816,"lon":5.38085,"is_reserved":false,"is_disabled":false,"rental_uris":{"android":"levelo://app?vid=f2771906-c31b-4e20-a9b5-59005e9607b6","ios":"levelo://app?vid=f2771906-c31b-4e20-a9b5-59005e9607b6"},"vehicle_type_id":"4","last_reported":1735412776,"current_range_meters":30000,"station_id":"ce4bgip2rcd13ifvqbb0","pricing_plan_id":"cebpf4jnsgd1na2vs0mg"},{"bike_id":"0648f805-83c3-4f41-94a8-dbc8ddf9855c","system_id":"levelo_inurba_marseille","lat":43.31555,"lon":5.38012,"is_reserved":false,"is_disabled":false,"rental_uris":{"android":"levelo://app?vid=0648f805-83c3-4f41-94a8-dbc8ddf9855c","ios":"levelo://app?vid=0648f805-83c3-4f41-94a8-dbc8ddf9855c"},"vehicle_type_id":"4","last_reported":1735412776,"current_range_meters":37600,"station_id":"ce4bhsp2rcd13ifvqi50","pricing_plan_id":"cebpf4jnsgd1na2vs0mg"},{"bike_id":"8310a048-f699-426e-ab80-e7c0e30f58b3","system_id":"levelo_inurba_marseille","lat":43.304183,"lon":5.389013,"is_reserved":false,"is_disabled":false,"rental_uris":{"android":"levelo://app?vid=8310a048-f699-426e-ab80-e7c0e30f58b3","ios":"levelo://app?vid=8310a048-f699-426e-ab80-e7c0e30f58b3"},"vehicle_type_id":"4","last_reported":1735412776,"current_range_meters":34800,"station_id":"ce4bhoh2rcd13ifvqh6g","pricing_plan_id":"cebpf4jnsgd1na2vs0mg"},{"bike_id":"d2ca31f9-ccc2-441b-96ca-6e6a7b9ca200","system_id":"levelo_inurba_marseille","lat":43.30926,"lon":5.40141,"is_reserved":false,"is_disabled":false,"rental_uris":{"android":"levelo://app?vid=d2ca31f9-ccc2-441b-96ca-6e6a7b9ca200","ios":"levelo://app?vid=d2ca31f9-ccc2-441b-96ca-6e6a7b9ca200"},"vehicle_type_id":"4","last_reported":1735412776,"current_range_meters":22800,"station_id":"ce4bgvp2rcd13ifvqct0","pricing_plan_id":"cebpf4jnsgd1na2vs0mg"},{"bike_id":"c4a9363d-be11-4977-8b7c-2ebd0a11820a","system_id":"levelo_inurba_marseille","lat":43.29911,"lon":5.38151,"is_reserved":false,"is_disabled":false,"rental_uris":{"android":"levelo://app?vid=c4a9363d-be11-4977-8b7c-2ebd0a11820a","ios":"levelo://app?vid=c4a9363d-be11-4977-8b7c-2ebd0a11820a"},"vehicle_type_id":"4","last_reported":1735412776,"current_range_meters":27200,"station_id":"ce4bgj12rcd13ifvqbc0","pricing_plan_id":"cebpf4jnsgd1na2vs0mg"},{"bike_id":"ca396534-4a19-4457-9fdd-68d78bd6d66a","system_id":"levelo_inurba_marseille","lat":43.30543,"lon":5.36683,"is_reserved":false,"is_disabled":false,"rental_uris":{"android":"levelo://app?vid=ca396534-4a19-4457-9fdd-68d78bd6d66a","ios":"levelo://app?vid=ca396534-4a19-4457-9fdd-68d78bd6d66a"},"vehicle_type_id":"4","last_reported":1735412776,"current_range_meters":38000,"station_id":"ce4bgrp2rcd13ifvqc9g","pricing_plan_id":"cebpf4jnsgd1na2vs0mg"},{"bike_id":"09898dd2-84ad-4911-a21d-d1f0823964b3","system_id":"levelo_inurba_marseille","lat":43.296164,"lon":5.377376,"is_reserved":false,"is_disabled":false,"rental_uris":{"android":"levelo://app?vid=09898dd2-84ad-4911-a21d-d1f0823964b3","ios":"levelo://app?vid=09898dd2-84ad-4911-a21d-d1f0823964b3"},"vehicle_type_id":"4","last_reported":1735412776,"current_range_meters":38800,"station_id":"ce4bgi92rcd13ifvqb90","pricing_plan_id":"cebpf4jnsgd1na2vs0mg"},{"bike_id":"691529e2-5b4e-41dc-bfab-8eed8f4cd9f9","system_id":"levelo_inurba_marseille","lat":43.26498,"lon":5.39548,"is_reserved":false,"is_disabled":false,"rental_uris":{"android":"levelo://app?vid=691529e2-5b4e-41dc-bfab-8eed8f4cd9f9","ios":"levelo://app?vid=691529e2-5b4e-41dc-bfab-8eed8f4cd9f9"},"vehicle_type_id":"4","last_reported":1735412776,"current_range_meters":26800,"station_id":"ce4bhi12rcd13ifvqfq0","pricing_plan_id":"cebpf4jnsgd1na2vs0mg"},{"bike_id":"ade8f6ef-b3ee-4321-b0e3-fa2122109c5d","system_id":"levelo_inurba_marseille","lat":43.25006,"lon":5.38911,"is_reserved":false,"is_disabled":false,"rental_uris":{"android":"levelo://app?vid=ade8f6ef-b3ee-4321-b0e3-fa2122109c5d","ios":"levelo://app?vid=ade8f6ef-b3ee-4321-b0e3-fa2122109c5d"},"vehicle_type_id":"4","last_reported":1735412776,"current_range_meters":24400,"station_id":"ce4bhgp2rcd13ifvqfd0","pricing_plan_id":"cebpf4jnsgd1na2vs0mg"},{"bike_id":"22fd7190-4a48-4311-a205-02e98d2bbea1","system_id":"levelo_inurba_marseille","lat":43.33726,"lon":5.391852,"is_reserved":false,"is_disabled":false,"rental_uris":{"android":"levelo://app?vid=22fd7190-4a48-4311-a205-02e98d2bbea1","ios":"levelo://app?vid=22fd7190-4a48-4311-a205-02e98d2bbea1"},"vehicle_type_id":"4","last_reported":1735412776,"current_range_meters":10800,"station_id":"ce4bhr92rcd13ifvqhsg","pricing_plan_id":"cebpf4jnsgd1na2vs0mg"},{"bike_id":"da051a19-83cf-47a8-b9ca-eb9d89fc0c27","system_id":"levelo_inurba_marseille","lat":43.29528,"lon":5.37506,"is_reserved":false,"is_disabled":false,"rental_uris":{"android":"levelo://app?vid=da051a19-83cf-47a8-b9ca-eb9d89fc0c27","ios":"levelo://app?vid=da051a19-83cf-47a8-b9ca-eb9d89fc0c27"},"vehicle_type_id":"4","last_reported":1735412776,"current_range_meters":18000,"station_id":"ce4bgkp2rcd13ifvqbmg","pricing_plan_id":"cebpf4jnsgd1na2vs0mg"},{"bike_id":"db699478-bccd-4d86-9acd-14d0dc88e384","system_id":"levelo_inurba_marseille","lat":43.30309,"lon":5.36903,"is_reserved":false,"is_disabled":false,"rental_uris":{"android":"levelo://app?vid=db699478-bccd-4d86-9acd-14d0dc88e384","ios":"levelo://app?vid=db699478-bccd-4d86-9acd-14d0dc88e384"},"vehicle_type_id":"4","last_reported":1735412776,"current_range_meters":38800,"station_id":"ce4bgqh2rcd13ifvqc5g","pricing_plan_id":"cebpf4jnsgd1na2vs0mg"},{"bike_id":"12b1618d-0fb4-456a-85c6-525a9c9a4a79","system_id":"levelo_inurba_marseille","lat":43.24556,"lon":5.39525,"is_reserved":false,"is_disabled":false,"rental_uris":{"android":"levelo://app?vid=12b1618d-0fb4-456a-85c6-525a9c9a4a79","ios":"levelo://app?vid=12b1618d-0fb4-456a-85c6-525a9c9a4a79"},"vehicle_type_id":"4","last_reported":1735412776,"current_range_meters":39200,"station_id":"ce4bhlp2rcd13ifvqgjg","pricing_plan_id":"cebpf4jnsgd1na2vs0mg"},{"bike_id":"e73e6057-e6e9-407b-a17e-f4e119a96aba","system_id":"levelo_inurba_marseille","lat":43.32112,"lon":5.36781,"is_reserved":false,"is_disabled":false,"rental_uris":{"android":"levelo://app?vid=e73e6057-e6e9-407b-a17e-f4e119a96aba","ios":"levelo://app?vid=e73e6057-e6e9-407b-a17e-f4e119a96aba"},"vehicle_type_id":"4","last_reported":1735412776,"current_range_meters":14000,"station_id":"ce4bhrh2rcd13ifvqhug","pricing_plan_id":"cebpf4jnsgd1na2vs0mg"},{"bike_id":"031dc0ac-f253-4e89-9f68-a0bf92006f1d","system_id":"levelo_inurba_marseille","lat":43.31271,"lon":5.40175,"is_reserved":false,"is_disabled":false,"rental_uris":{"android":"levelo://app?vid=031dc0ac-f253-4e89-9f68-a0bf92006f1d","ios":"levelo://app?vid=031dc0ac-f253-4e89-9f68-a0bf92006f1d"},"vehicle_type_id":"4","last_reported":1735412776,"current_range_meters":4400,"station_id":"ce4bh092rcd13ifvqd30","pricing_plan_id":"cebpf4jnsgd1na2vs0mg"},{"bike_id":"f7c5bc57-cb9a-4b83-bec7-1ac1d80db1c8","system_id":"levelo_inurba_marseille","lat":43.28005,"lon":5.40047,"is_reserved":false,"is_disabled":false,"rental_uris":{"android":"levelo://app?vid=f7c5bc57-cb9a-4b83-bec7-1ac1d80db1c8","ios":"levelo://app?vid=f7c5bc57-cb9a-4b83-bec7-1ac1d80db1c8"},"vehicle_type_id":"4","last_reported":1735412776,"current_range_meters":27200,"station_id":"ce4bh8p2rcd13ifvqeb0","pricing_plan_id":"cebpf4jnsgd1na2vs0mg"},{"bike_id":"9e6d9495-e6fc-46af-bf3a-7dc282e2ba92","system_id":"levelo_inurba_marseille","lat":43.27066,"lon":5.42273,"is_reserved":false,"is_disabled":false,"rental_uris":{"android":"levelo://app?vid=9e6d9495-e6fc-46af-bf3a-7dc282e2ba92","ios":"levelo://app?vid=9e6d9495-e6fc-46af-bf3a-7dc282e2ba92"},"vehicle_type_id":"4","last_reported":1735412776,"current_range_meters":36400,"station_id":"ce4bhk92rcd13ifvqgb0","pricing_plan_id":"cebpf4jnsgd1na2vs0mg"},{"bike_id":"57103b12-06fc-494b-9a1a-1903f8f245d5","system_id":"levelo_inurba_marseille","lat":43.27994,"lon":5.41678,"is_reserved":false,"is_disabled":false,"rental_uris":{"android":"levelo://app?vid=57103b12-06fc-494b-9a1a-1903f8f245d5","ios":"levelo://app?vid=57103b12-06fc-494b-9a1a-1903f8f245d5"},"vehicle_type_id":"4","last_reported":1735412776,"current_range_meters":22000,"station_id":"ce4bho12rcd13ifvqh1g","pricing_plan_id":"cebpf4jnsgd1na2vs0mg"},{"bike_id":"c851116d-99dd-4dac-b2f2-5a1f9d6851a0","system_id":"levelo_inurba_marseille","lat":43.27377,"lon":5.36254,"is_reserved":false,"is_disabled":false,"rental_uris":{"android":"levelo://app?vid=c851116d-99dd-4dac-b2f2-5a1f9d6851a0","ios":"levelo://app?vid=c851116d-99dd-4dac-b2f2-5a1f9d6851a0"},"vehicle_type_id":"4","last_reported":1735412776,"current_range_meters":38800,"station_id":"ce4bhbh2rcd13ifvqeo0","pricing_plan_id":"cebpf4jnsgd1na2vs0mg"},{"bike_id":"d9d97985-8792-47a3-ab8c-09980f6a9900","system_id":"levelo_inurba_marseille","lat":43.29523,"lon":5.3751,"is_reserved":false,"is_disabled":true,"rental_uris":{"android":"levelo://app?vid=d9d97985-8792-47a3-ab8c-09980f6a9900","ios":"levelo://app?vid=d9d97985-8792-47a3-ab8c-09980f6a9900"},"vehicle_type_id":"4","last_reported":1735412776,"current_range_meters":9600,"station_id":"ce4bgkp2rcd13ifvqbmg","pricing_plan_id":"cebpf4jnsgd1na2vs0mg"},{"bike_id":"e1e242d1-2cf6-4a1f-8622-55d7b81af7d8","system_id":"levelo_inurba_marseille","lat":43.27813,"lon":5.40721,"is_reserved":false,"is_disabled":false,"rental_uris":{"android":"levelo://app?vid=e1e242d1-2cf6-4a1f-8622-55d7b81af7d8","ios":"levelo://app?vid=e1e242d1-2cf6-4a1f-8622-55d7b81af7d8"},"vehicle_type_id":"4","last_reported":1735412776,"current_range_meters":35200,"station_id":"ce4bhnh2rcd13ifvqgtg","pricing_plan_id":"cebpf4jnsgd1na2vs0mg"},{"bike_id":"62c6d429-3767-4773-be41-bb492a25ccfa","system_id":"levelo_inurba_marseille","lat":43.27939,"lon":5.41045,"is_reserved":false,"is_disabled":false,"rental_uris":{"android":"levelo://app?vid=62c6d429-3767-4773-be41-bb492a25ccfa","ios":"levelo://app?vid=62c6d429-3767-4773-be41-bb492a25ccfa"},"vehicle_type_id":"4","last_reported":1735412776,"current_range_meters":27200,"station_id":"ce4bhnp2rcd13ifvqh0g","pricing_plan_id":"cebpf4jnsgd1na2vs0mg"},{"bike_id":"bce40b25-28b5-4f04-9880-2b2ee658f4fa","system_id":"levelo_inurba_marseille","lat":43.30154,"lon":5.37405,"is_reserved":false,"is_disabled":false,"rental_uris":{"android":"levelo://app?vid=bce40b25-28b5-4f04-9880-2b2ee658f4fa","ios":"levelo://app?vid=bce40b25-28b5-4f04-9880-2b2ee658f4fa"},"vehicle_type_id":"4","last_reported":1735412776,"current_range_meters":19600,"station_id":"ce4bgs92rcd13ifvqcc0","pricing_plan_id":"cebpf4jnsgd1na2vs0mg"},{"bike_id":"51145a9f-1dd5-49ff-b0a8-9d0e3c399b7d","system_id":"levelo_inurba_marseille","lat":43.29079,"lon":5.37173,"is_reserved":false,"is_disabled":false,"rental_uris":{"android":"levelo://app?vid=51145a9f-1dd5-49ff-b0a8-9d0e3c399b7d","ios":"levelo://app?vid=51145a9f-1dd5-49ff-b0a8-9d0e3c399b7d"},"vehicle_type_id":"4","last_reported":1735412776,"current_range_meters":22000,"station_id":"ce4bh5p2rcd13ifvqe4g","pricing_plan_id":"cebpf4jnsgd1na2vs0mg"},{"bike_id":"482b0b80-c53d-4d05-aa82-218b22575b6c","system_id":"levelo_inurba_marseille","lat":43.23123,"lon":5.43734,"is_reserved":false,"is_disabled":true,"rental_uris":{"android":"levelo://app?vid=482b0b80-c53d-4d05-aa82-218b22575b6c","ios":"levelo://app?vid=482b0b80-c53d-4d05-aa82-218b22575b6c"},"vehicle_type_id":"4","last_reported":1735412776,"current_range_meters":9200,"station_id":"ce4bhmp2rcd13ifvqgog","pricing_plan_id":"cebpf4jnsgd1na2vs0mg"},{"bike_id":"fe3dae03-7212-4aac-aede-3e2d5d91801c","system_id":"levelo_inurba_marseille","lat":43.29874,"lon":5.3892,"is_reserved":false,"is_disabled":false,"rental_uris":{"android":"levelo://app?vid=fe3dae03-7212-4aac-aede-3e2d5d91801c","ios":"levelo://app?vid=fe3dae03-7212-4aac-aede-3e2d5d91801c"},"vehicle_type_id":"4","last_reported":1735412776,"current_range_meters":33200,"station_id":"ce4bh392rcd13ifvqdl0","pricing_plan_id":"cebpf4jnsgd1na2vs0mg"},{"bike_id":"eacaa08a-1d8e-4e15-978d-0999635c358c","system_id":"levelo_inurba_marseille","lat":43.29197,"lon":5.35799,"is_reserved":false,"is_disabled":false,"rental_uris":{"android":"levelo://app?vid=eacaa08a-1d8e-4e15-978d-0999635c358c","ios":"levelo://app?vid=eacaa08a-1d8e-4e15-978d-0999635c358c"},"vehicle_type_id":"4","last_reported":1735412776,"current_range_meters":37600,"station_id":"ce4bhb12rcd13ifvqel0","pricing_plan_id":"cebpf4jnsgd1na2vs0mg"},{"bike_id":"db2c549d-e98a-4769-95fa-52946ad4fb3d","system_id":"levelo_inurba_marseille","lat":43.2985,"lon":5.36283,"is_reserved":false,"is_disabled":false,"rental_uris":{"android":"levelo://app?vid=db2c549d-e98a-4769-95fa-52946ad4fb3d","ios":"levelo://app?vid=db2c549d-e98a-4769-95fa-52946ad4fb3d"},"vehicle_type_id":"4","last_reported":1735412776,"current_range_meters":36000,"station_id":"ce4bgpp2rcd13ifvqc3g","pricing_plan_id":"cebpf4jnsgd1na2vs0mg"},{"bike_id":"8e25cd4c-c9f2-4031-ae39-d92fb2534fb6","system_id":"levelo_inurba_marseille","lat":43.24646,"lon":5.38893,"is_reserved":false,"is_disabled":false,"rental_uris":{"android":"levelo://app?vid=8e25cd4c-c9f2-4031-ae39-d92fb2534fb6","ios":"levelo://app?vid=8e25cd4c-c9f2-4031-ae39-d92fb2534fb6"},"vehicle_type_id":"4","last_reported":1735412776,"current_range_meters":29600,"station_id":"ce4bhg12rcd13ifvqf60","pricing_plan_id":"cebpf4jnsgd1na2vs0mg"},{"bike_id":"2653025f-a1d8-4997-9424-6271ee9b8686","system_id":"levelo_inurba_marseille","lat":43.29518,"lon":5.37501,"is_reserved":false,"is_disabled":false,"rental_uris":{"android":"levelo://app?vid=2653025f-a1d8-4997-9424-6271ee9b8686","ios":"levelo://app?vid=2653025f-a1d8-4997-9424-6271ee9b8686"},"vehicle_type_id":"4","last_reported":1735412776,"current_range_meters":10000,"station_id":"ce4bgkp2rcd13ifvqbmg","pricing_plan_id":"cebpf4jnsgd1na2vs0mg"},{"bike_id":"abca1f06-9c6e-4c70-b6e6-04c4ac8a10d6","system_id":"levelo_inurba_marseille","lat":43.28953,"lon":5.36401,"is_reserved":false,"is_disabled":false,"rental_uris":{"android":"levelo://app?vid=abca1f06-9c6e-4c70-b6e6-04c4ac8a10d6","ios":"levelo://app?vid=abca1f06-9c6e-4c70-b6e6-04c4ac8a10d6"},"vehicle_type_id":"4","last_reported":1735412776,"current_range_meters":34000,"station_id":"ce4bhc92rcd13ifvqetg","pricing_plan_id":"cebpf4jnsgd1na2vs0mg"},{"bike_id":"6a65b5f4-f935-4b10-b393-4853aba7b25b","system_id":"levelo_inurba_marseille","lat":43.26685,"lon":5.38274,"is_reserved":false,"is_disabled":false,"rental_uris":{"android":"levelo://app?vid=6a65b5f4-f935-4b10-b393-4853aba7b25b","ios":"levelo://app?vid=6a65b5f4-f935-4b10-b393-4853aba7b25b"},"vehicle_type_id":"4","last_reported":1735412776,"current_range_meters":10800,"station_id":"ce4bhg92rcd13ifvqf90","pricing_plan_id":"cebpf4jnsgd1na2vs0mg"},{"bike_id":"f5d5b67e-5236-40d0-be13-cafc5b83ddd4","system_id":"levelo_inurba_marseille","lat":43.30527,"lon":5.3843,"is_reserved":false,"is_disabled":false,"rental_uris":{"android":"levelo://app?vid=f5d5b67e-5236-40d0-be13-cafc5b83ddd4","ios":"levelo://app?vid=f5d5b67e-5236-40d0-be13-cafc5b83ddd4"},"vehicle_type_id":"4","last_reported":1735412776,"current_range_meters":38400,"station_id":"ce4bgg92rcd13ifvqb30","pricing_plan_id":"cebpf4jnsgd1na2vs0mg"},{"bike_id":"fbef8b28-5fd6-475b-91f2-fa4e19e2dd2f","system_id":"levelo_inurba_marseille","lat":43.24545,"lon":5.39521,"is_reserved":false,"is_disabled":false,"rental_uris":{"android":"levelo://app?vid=fbef8b28-5fd6-475b-91f2-fa4e19e2dd2f","ios":"levelo://app?vid=fbef8b28-5fd6-475b-91f2-fa4e19e2dd2f"},"vehicle_type_id":"4","last_reported":1735412776,"current_range_meters":21600,"station_id":"ce4bhlp2rcd13ifvqgjg","pricing_plan_id":"cebpf4jnsgd1na2vs0mg"},{"bike_id":"f6a398ba-af8e-4fe3-a6c0-f28cb0077f88","system_id":"levelo_inurba_marseille","lat":43.28193,"lon":5.42654,"is_reserved":false,"is_disabled":false,"rental_uris":{"android":"levelo://app?vid=f6a398ba-af8e-4fe3-a6c0-f28cb0077f88","ios":"levelo://app?vid=f6a398ba-af8e-4fe3-a6c0-f28cb0077f88"},"vehicle_type_id":"4","last_reported":1735412776,"current_range_meters":24400,"station_id":"ce4bhnh2rcd13ifvqgug","pricing_plan_id":"cebpf4jnsgd1na2vs0mg"},{"bike_id":"2a8090a5-258a-42f6-bdf5-1bde1ba8db3e","system_id":"levelo_inurba_marseille","lat":43.24822,"lon":5.37464,"is_reserved":false,"is_disabled":false,"rental_uris":{"android":"levelo://app?vid=2a8090a5-258a-42f6-bdf5-1bde1ba8db3e","ios":"levelo://app?vid=2a8090a5-258a-42f6-bdf5-1bde1ba8db3e"},"vehicle_type_id":"4","last_reported":1735412776,"current_range_meters":8400,"station_id":"ce4bhgh2rcd13ifvqfb0","pricing_plan_id":"cebpf4jnsgd1na2vs0mg"},{"bike_id":"7bd44d09-e872-4291-b548-1cbe40f16cac","system_id":"levelo_inurba_marseille","lat":43.28163,"lon":5.42636,"is_reserved":false,"is_disabled":false,"rental_uris":{"android":"levelo://app?vid=7bd44d09-e872-4291-b548-1cbe40f16cac","ios":"levelo://app?vid=7bd44d09-e872-4291-b548-1cbe40f16cac"},"vehicle_type_id":"4","last_reported":1735412776,"current_range_meters":27200,"station_id":"ce4bhnh2rcd13ifvqgug","pricing_plan_id":"cebpf4jnsgd1na2vs0mg"},{"bike_id":"7532e7f5-03d9-4e59-8d53-9cd261f639df","system_id":"levelo_inurba_marseille","lat":43.29785,"lon":5.38088,"is_reserved":false,"is_disabled":false,"rental_uris":{"android":"levelo://app?vid=7532e7f5-03d9-4e59-8d53-9cd261f639df","ios":"levelo://app?vid=7532e7f5-03d9-4e59-8d53-9cd261f639df"},"vehicle_type_id":"4","last_reported":1735412776,"current_range_meters":19600,"station_id":"ce4bgip2rcd13ifvqbb0","pricing_plan_id":"cebpf4jnsgd1na2vs0mg"},{"bike_id":"d124b3fa-f3a5-4c6d-bebc-2f7ad1a1004e","system_id":"levelo_inurba_marseille","lat":43.26957,"lon":5.38633,"is_reserved":false,"is_disabled":false,"rental_uris":{"android":"levelo://app?vid=d124b3fa-f3a5-4c6d-bebc-2f7ad1a1004e","ios":"levelo://app?vid=d124b3fa-f3a5-4c6d-bebc-2f7ad1a1004e"},"vehicle_type_id":"4","last_reported":1735412776,"current_range_meters":38800,"station_id":"ce4bhh92rcd13ifvqfh0","pricing_plan_id":"cebpf4jnsgd1na2vs0mg"},{"bike_id":"100ef54d-79f8-4689-8411-ae5cedc3c94e","system_id":"levelo_inurba_marseille","lat":43.29079,"lon":5.37177,"is_reserved":false,"is_disabled":false,"rental_uris":{"android":"levelo://app?vid=100ef54d-79f8-4689-8411-ae5cedc3c94e","ios":"levelo://app?vid=100ef54d-79f8-4689-8411-ae5cedc3c94e"},"vehicle_type_id":"4","last_reported":1735412776,"current_range_meters":14400,"station_id":"ce4bh5p2rcd13ifvqe4g","pricing_plan_id":"cebpf4jnsgd1na2vs0mg"},{"bike_id":"98a38826-a83c-4c18-bc58-68fa8c2c0dd9","system_id":"levelo_inurba_marseille","lat":43.29407,"lon":5.37859,"is_reserved":false,"is_disabled":false,"rental_uris":{"android":"levelo://app?vid=98a38826-a83c-4c18-bc58-68fa8c2c0dd9","ios":"levelo://app?vid=98a38826-a83c-4c18-bc58-68fa8c2c0dd9"},"vehicle_type_id":"4","last_reported":1735412776,"current_range_meters":15200,"station_id":"","pricing_plan_id":"cebpf4jnsgd1na2vs0mg"},{"bike_id":"359ddae0-5d3f-4b29-8d32-daa2bb9138da","system_id":"levelo_inurba_marseille","lat":43.29737,"lon":5.37667,"is_reserved":false,"is_disabled":false,"rental_uris":{"android":"levelo://app?vid=359ddae0-5d3f-4b29-8d32-daa2bb9138da","ios":"levelo://app?vid=359ddae0-5d3f-4b29-8d32-daa2bb9138da"},"vehicle_type_id":"4","last_reported":1735412776,"current_range_meters":32800,"station_id":"ce4bgkh2rcd13ifvqbl0","pricing_plan_id":"cebpf4jnsgd1na2vs0mg"},{"bike_id":"1107b56a-98a5-4a01-8449-9eba086fee5a","system_id":"levelo_inurba_marseille","lat":43.29073,"lon":5.39883,"is_reserved":false,"is_disabled":true,"rental_uris":{"android":"levelo://app?vid=1107b56a-98a5-4a01-8449-9eba086fee5a","ios":"levelo://app?vid=1107b56a-98a5-4a01-8449-9eba086fee5a"},"vehicle_type_id":"4","last_reported":1735412776,"current_range_meters":19200,"station_id":"","pricing_plan_id":"cebpf4jnsgd1na2vs0mg"},{"bike_id":"5b1cd6da-e84a-476d-b462-54b1dc0dcd97","system_id":"levelo_inurba_marseille","lat":43.29271,"lon":5.36836,"is_reserved":false,"is_disabled":false,"rental_uris":{"android":"levelo://app?vid=5b1cd6da-e84a-476d-b462-54b1dc0dcd97","ios":"levelo://app?vid=5b1cd6da-e84a-476d-b462-54b1dc0dcd97"},"vehicle_type_id":"4","last_reported":1735412776,"current_range_meters":36800,"station_id":"ce4bhbp2rcd13ifvqesg","pricing_plan_id":"cebpf4jnsgd1na2vs0mg"},{"bike_id":"b26295a2-53a3-4c96-9a49-718cdfe52e77","system_id":"levelo_inurba_marseille","lat":43.28706,"lon":5.37396,"is_reserved":false,"is_disabled":false,"rental_uris":{"android":"levelo://app?vid=b26295a2-53a3-4c96-9a49-718cdfe52e77","ios":"levelo://app?vid=b26295a2-53a3-4c96-9a49-718cdfe52e77"},"vehicle_type_id":"4","last_reported":1735412776,"current_range_meters":38800,"station_id":"ce4bh3p2rcd13ifvqdq0","pricing_plan_id":"cebpf4jnsgd1na2vs0mg"},{"bike_id":"f98f86cd-bd12-4a77-a017-bbfdfb0a17cc","system_id":"levelo_inurba_marseille","lat":43.26493,"lon":5.39544,"is_reserved":false,"is_disabled":false,"rental_uris":{"android":"levelo://app?vid=f98f86cd-bd12-4a77-a017-bbfdfb0a17cc","ios":"levelo://app?vid=f98f86cd-bd12-4a77-a017-bbfdfb0a17cc"},"vehicle_type_id":"4","last_reported":1735412776,"current_range_meters":38000,"station_id":"ce4bhi12rcd13ifvqfq0","pricing_plan_id":"cebpf4jnsgd1na2vs0mg"},{"bike_id":"c9b97fb7-b709-4c26-ae01-dabf637bc152","system_id":"levelo_inurba_marseille","lat":43.27814,"lon":5.40722,"is_reserved":false,"is_disabled":false,"rental_uris":{"android":"levelo://app?vid=c9b97fb7-b709-4c26-ae01-dabf637bc152","ios":"levelo://app?vid=c9b97fb7-b709-4c26-ae01-dabf637bc152"},"vehicle_type_id":"4","last_reported":1735412776,"current_range_meters":27200,"station_id":"ce4bhnh2rcd13ifvqgtg","pricing_plan_id":"cebpf4jnsgd1na2vs0mg"},{"bike_id":"08ec732e-0173-410a-a6c4-ee2b7e87604f","system_id":"levelo_inurba_marseille","lat":43.24995,"lon":5.38931,"is_reserved":false,"is_disabled":false,"rental_uris":{"android":"levelo://app?vid=08ec732e-0173-410a-a6c4-ee2b7e87604f","ios":"levelo://app?vid=08ec732e-0173-410a-a6c4-ee2b7e87604f"},"vehicle_type_id":"4","last_reported":1735412776,"current_range_meters":28000,"station_id":"ce4bhgp2rcd13ifvqfd0","pricing_plan_id":"cebpf4jnsgd1na2vs0mg"},{"bike_id":"1dbdfecf-2cad-4a6a-b2e9-803687afb870","system_id":"levelo_inurba_marseille","lat":43.30892,"lon":5.37182,"is_reserved":false,"is_disabled":false,"rental_uris":{"android":"levelo://app?vid=1dbdfecf-2cad-4a6a-b2e9-803687afb870","ios":"levelo://app?vid=1dbdfecf-2cad-4a6a-b2e9-803687afb870"},"vehicle_type_id":"4","last_reported":1735412776,"current_range_meters":18800,"station_id":"ce4bguh2rcd13ifvqckg","pricing_plan_id":"cebpf4jnsgd1na2vs0mg"},{"bike_id":"5e5f9118-f1a7-4026-8d57-b98e33d5393e","system_id":"levelo_inurba_marseille","lat":43.29572,"lon":5.37516,"is_reserved":false,"is_disabled":false,"rental_uris":{"android":"levelo://app?vid=5e5f9118-f1a7-4026-8d57-b98e33d5393e","ios":"levelo://app?vid=5e5f9118-f1a7-4026-8d57-b98e33d5393e"},"vehicle_type_id":"4","last_reported":1735412776,"current_range_meters":36400,"station_id":"ce4bgh92rcd13ifvqb50","pricing_plan_id":"cebpf4jnsgd1na2vs0mg"},{"bike_id":"ed49c6a3-5e64-485a-beb0-24d7970e5e6b","system_id":"levelo_inurba_marseille","lat":43.26492,"lon":5.39538,"is_reserved":false,"is_disabled":false,"rental_uris":{"android":"levelo://app?vid=ed49c6a3-5e64-485a-beb0-24d7970e5e6b","ios":"levelo://app?vid=ed49c6a3-5e64-485a-beb0-24d7970e5e6b"},"vehicle_type_id":"4","last_reported":1735412776,"current_range_meters":30400,"station_id":"ce4bhi12rcd13ifvqfq0","pricing_plan_id":"cebpf4jnsgd1na2vs0mg"},{"bike_id":"d1679e37-df6f-49ef-859e-44caa5b6c30a","system_id":"levelo_inurba_marseille","lat":43.29053,"lon":5.3593,"is_reserved":false,"is_disabled":false,"rental_uris":{"android":"levelo://app?vid=d1679e37-df6f-49ef-859e-44caa5b6c30a","ios":"levelo://app?vid=d1679e37-df6f-49ef-859e-44caa5b6c30a"},"vehicle_type_id":"4","last_reported":1735412776,"current_range_meters":11600,"station_id":"ce4bha92rcd13ifvqeg0","pricing_plan_id":"cebpf4jnsgd1na2vs0mg"},{"bike_id":"fd9dccc3-920a-4f08-931a-e49fee0b5433","system_id":"levelo_inurba_marseille","lat":43.29262,"lon":5.40915,"is_reserved":false,"is_disabled":false,"rental_uris":{"android":"levelo://app?vid=fd9dccc3-920a-4f08-931a-e49fee0b5433","ios":"levelo://app?vid=fd9dccc3-920a-4f08-931a-e49fee0b5433"},"vehicle_type_id":"4","last_reported":1735412776,"current_range_meters":38800,"station_id":"ce4bh192rcd13ifvqdc0","pricing_plan_id":"cebpf4jnsgd1na2vs0mg"},{"bike_id":"be908b76-4eae-484a-9e50-70911ef84526","system_id":"levelo_inurba_marseille","lat":43.29366,"lon":5.37854,"is_reserved":false,"is_disabled":false,"rental_uris":{"android":"levelo://app?vid=be908b76-4eae-484a-9e50-70911ef84526","ios":"levelo://app?vid=be908b76-4eae-484a-9e50-70911ef84526"},"vehicle_type_id":"4","last_reported":1735412776,"current_range_meters":39200,"station_id":"ce4bgjh2rcd13ifvqbf0","pricing_plan_id":"cebpf4jnsgd1na2vs0mg"},{"bike_id":"cc6dd841-644e-4a08-a277-17bae369bb08","system_id":"levelo_inurba_marseille","lat":43.29796,"lon":5.38092,"is_reserved":false,"is_disabled":false,"rental_uris":{"android":"levelo://app?vid=cc6dd841-644e-4a08-a277-17bae369bb08","ios":"levelo://app?vid=cc6dd841-644e-4a08-a277-17bae369bb08"},"vehicle_type_id":"4","last_reported":1735412776,"current_range_meters":36800,"station_id":"ce4bgip2rcd13ifvqbb0","pricing_plan_id":"cebpf4jnsgd1na2vs0mg"},{"bike_id":"41e441a8-4ad2-4bf0-81ba-96c35feaf6d8","system_id":"levelo_inurba_marseille","lat":43.281482,"lon":5.426461,"is_reserved":false,"is_disabled":false,"rental_uris":{"android":"levelo://app?vid=41e441a8-4ad2-4bf0-81ba-96c35feaf6d8","ios":"levelo://app?vid=41e441a8-4ad2-4bf0-81ba-96c35feaf6d8"},"vehicle_type_id":"4","last_reported":1735412776,"current_range_meters":32800,"station_id":"ce4bhnh2rcd13ifvqgug","pricing_plan_id":"cebpf4jnsgd1na2vs0mg"},{"bike_id":"709ae17d-e4b3-4756-b5f5-c67b4fadf597","system_id":"levelo_inurba_marseille","lat":43.29801,"lon":5.3809,"is_reserved":false,"is_disabled":false,"rental_uris":{"android":"levelo://app?vid=709ae17d-e4b3-4756-b5f5-c67b4fadf597","ios":"levelo://app?vid=709ae17d-e4b3-4756-b5f5-c67b4fadf597"},"vehicle_type_id":"4","last_reported":1735412776,"current_range_meters":38400,"station_id":"ce4bgip2rcd13ifvqbb0","pricing_plan_id":"cebpf4jnsgd1na2vs0mg"},{"bike_id":"f50c2cb8-8acc-494f-9afc-f1b6976a6cad","system_id":"levelo_inurba_marseille","lat":43.25107,"lon":5.40324,"is_reserved":false,"is_disabled":false,"rental_uris":{"android":"levelo://app?vid=f50c2cb8-8acc-494f-9afc-f1b6976a6cad","ios":"levelo://app?vid=f50c2cb8-8acc-494f-9afc-f1b6976a6cad"},"vehicle_type_id":"4","last_reported":1735412776,"current_range_meters":35200,"station_id":"ce4bhlh2rcd13ifvqgig","pricing_plan_id":"cebpf4jnsgd1na2vs0mg"},{"bike_id":"0d66893c-cd33-4011-a321-2b2429932b60","system_id":"levelo_inurba_marseille","lat":43.30546,"lon":5.36709,"is_reserved":false,"is_disabled":true,"rental_uris":{"android":"levelo://app?vid=0d66893c-cd33-4011-a321-2b2429932b60","ios":"levelo://app?vid=0d66893c-cd33-4011-a321-2b2429932b60"},"vehicle_type_id":"4","last_reported":1735412776,"current_range_meters":0,"station_id":"ce4bgrp2rcd13ifvqc9g","pricing_plan_id":"cebpf4jnsgd1na2vs0mg"},{"bike_id":"c9066ac8-6191-4c8a-bae9-235058200cbf","system_id":"levelo_inurba_marseille","lat":43.26853,"lon":5.40945,"is_reserved":false,"is_disabled":false,"rental_uris":{"android":"levelo://app?vid=c9066ac8-6191-4c8a-bae9-235058200cbf","ios":"levelo://app?vid=c9066ac8-6191-4c8a-bae9-235058200cbf"},"vehicle_type_id":"4","last_reported":1735412776,"current_range_meters":17600,"station_id":"","pricing_plan_id":"cebpf4jnsgd1na2vs0mg"},{"bike_id":"5639f52b-1196-4558-b062-4f7891cec443","system_id":"levelo_inurba_marseille","lat":43.28412,"lon":5.3753,"is_reserved":false,"is_disabled":true,"rental_uris":{"android":"levelo://app?vid=5639f52b-1196-4558-b062-4f7891cec443","ios":"levelo://app?vid=5639f52b-1196-4558-b062-4f7891cec443"},"vehicle_type_id":"4","last_reported":1735412776,"current_range_meters":28400,"station_id":"ce4bh412rcd13ifvqds0","pricing_plan_id":"cebpf4jnsgd1na2vs0mg"},{"bike_id":"a03187b8-97b1-4a3f-abb6-98e9bcf30600","system_id":"levelo_inurba_marseille","lat":43.30605,"lon":5.37219,"is_reserved":false,"is_disabled":false,"rental_uris":{"android":"levelo://app?vid=a03187b8-97b1-4a3f-abb6-98e9bcf30600","ios":"levelo://app?vid=a03187b8-97b1-4a3f-abb6-98e9bcf30600"},"vehicle_type_id":"4","last_reported":1735412776,"current_range_meters":38800,"station_id":"ce4bgqh2rcd13ifvqc4g","pricing_plan_id":"cebpf4jnsgd1na2vs0mg"},{"bike_id":"c12091ad-d6e1-4c11-bbd8-2e2e33abd458","system_id":"levelo_inurba_marseille","lat":43.29533,"lon":5.38526,"is_reserved":false,"is_disabled":false,"rental_uris":{"android":"levelo://app?vid=c12091ad-d6e1-4c11-bbd8-2e2e33abd458","ios":"levelo://app?vid=c12091ad-d6e1-4c11-bbd8-2e2e33abd458"},"vehicle_type_id":"4","last_reported":1735412776,"current_range_meters":18000,"station_id":"ce4bgih2rcd13ifvqba0","pricing_plan_id":"cebpf4jnsgd1na2vs0mg"},{"bike_id":"c4464463-92cc-48b8-b950-7ed437f91335","system_id":"levelo_inurba_marseille","lat":43.29219,"lon":5.36048,"is_reserved":false,"is_disabled":false,"rental_uris":{"android":"levelo://app?vid=c4464463-92cc-48b8-b950-7ed437f91335","ios":"levelo://app?vid=c4464463-92cc-48b8-b950-7ed437f91335"},"vehicle_type_id":"4","last_reported":1735412776,"current_range_meters":37600,"station_id":"ce4bhbh2rcd13ifvqeqg","pricing_plan_id":"cebpf4jnsgd1na2vs0mg"},{"bike_id":"b989df4b-91e1-4f92-919e-beb70e8399f2","system_id":"levelo_inurba_marseille","lat":43.29035,"lon":5.37563,"is_reserved":false,"is_disabled":false,"rental_uris":{"android":"levelo://app?vid=b989df4b-91e1-4f92-919e-beb70e8399f2","ios":"levelo://app?vid=b989df4b-91e1-4f92-919e-beb70e8399f2"},"vehicle_type_id":"4","last_reported":1735412776,"current_range_meters":15200,"station_id":"ce4bh692rcd13ifvqe90","pricing_plan_id":"cebpf4jnsgd1na2vs0mg"},{"bike_id":"356fd92d-e963-40e6-b40e-58fc72ac9553","system_id":"levelo_inurba_marseille","lat":43.321061,"lon":5.367678,"is_reserved":false,"is_disabled":false,"rental_uris":{"android":"levelo://app?vid=356fd92d-e963-40e6-b40e-58fc72ac9553","ios":"levelo://app?vid=356fd92d-e963-40e6-b40e-58fc72ac9553"},"vehicle_type_id":"4","last_reported":1735412776,"current_range_meters":12000,"station_id":"ce4bhrh2rcd13ifvqhug","pricing_plan_id":"cebpf4jnsgd1na2vs0mg"},{"bike_id":"b9946797-e770-48ac-9bc5-6937e6a4e5a7","system_id":"levelo_inurba_marseille","lat":43.2552,"lon":5.37629,"is_reserved":false,"is_disabled":false,"rental_uris":{"android":"levelo://app?vid=b9946797-e770-48ac-9bc5-6937e6a4e5a7","ios":"levelo://app?vid=b9946797-e770-48ac-9bc5-6937e6a4e5a7"},"vehicle_type_id":"4","last_reported":1735412776,"current_range_meters":38800,"station_id":"ce4bhh12rcd13ifvqff0","pricing_plan_id":"cebpf4jnsgd1na2vs0mg"},{"bike_id":"12b64bf2-4ce1-4146-af5b-eb3b72f8d5ae","system_id":"levelo_inurba_marseille","lat":43.25718,"lon":5.41104,"is_reserved":false,"is_disabled":false,"rental_uris":{"android":"levelo://app?vid=12b64bf2-4ce1-4146-af5b-eb3b72f8d5ae","ios":"levelo://app?vid=12b64bf2-4ce1-4146-af5b-eb3b72f8d5ae"},"vehicle_type_id":"4","last_reported":1735412776,"current_range_meters":39200,"station_id":"ce4bhkp2rcd13ifvqgd0","pricing_plan_id":"cebpf4jnsgd1na2vs0mg"},{"bike_id":"7e8491fb-bf75-41ad-bbd6-94c41b912f73","system_id":"levelo_inurba_marseille","lat":43.29417,"lon":5.38631,"is_reserved":false,"is_disabled":false,"rental_uris":{"android":"levelo://app?vid=7e8491fb-bf75-41ad-bbd6-94c41b912f73","ios":"levelo://app?vid=7e8491fb-bf75-41ad-bbd6-94c41b912f73"},"vehicle_type_id":"4","last_reported":1735412776,"current_range_meters":18000,"station_id":"ce4bh2h2rcd13ifvqdh0","pricing_plan_id":"cebpf4jnsgd1na2vs0mg"},{"bike_id":"c1eadca5-ee36-4651-974c-0565e239a8e8","system_id":"levelo_inurba_marseille","lat":43.3132,"lon":5.39693,"is_reserved":false,"is_disabled":false,"rental_uris":{"android":"levelo://app?vid=c1eadca5-ee36-4651-974c-0565e239a8e8","ios":"levelo://app?vid=c1eadca5-ee36-4651-974c-0565e239a8e8"},"vehicle_type_id":"4","last_reported":1735412776,"current_range_meters":27600,"station_id":"ce4bgvp2rcd13ifvqcu0","pricing_plan_id":"cebpf4jnsgd1na2vs0mg"},{"bike_id":"a0a23f3e-a7a3-4649-a9f6-4d7c21f4f9e5","system_id":"levelo_inurba_marseille","lat":43.29697,"lon":5.37289,"is_reserved":false,"is_disabled":false,"rental_uris":{"android":"levelo://app?vid=a0a23f3e-a7a3-4649-a9f6-4d7c21f4f9e5","ios":"levelo://app?vid=a0a23f3e-a7a3-4649-a9f6-4d7c21f4f9e5"},"vehicle_type_id":"4","last_reported":1735412776,"current_range_meters":38800,"station_id":"ce4bgk12rcd13ifvqbj0","pricing_plan_id":"cebpf4jnsgd1na2vs0mg"},{"bike_id":"45635fa7-4f6c-482e-aa65-ead13ebf685d","system_id":"levelo_inurba_marseille","lat":43.29526,"lon":5.37496,"is_reserved":false,"is_disabled":false,"rental_uris":{"android":"levelo://app?vid=45635fa7-4f6c-482e-aa65-ead13ebf685d","ios":"levelo://app?vid=45635fa7-4f6c-482e-aa65-ead13ebf685d"},"vehicle_type_id":"4","last_reported":1735412776,"current_range_meters":34000,"station_id":"ce4bgkp2rcd13ifvqbmg","pricing_plan_id":"cebpf4jnsgd1na2vs0mg"},{"bike_id":"7e1dc608-a820-41f3-8381-31f3794c2504","system_id":"levelo_inurba_marseille","lat":43.28001,"lon":5.41652,"is_reserved":false,"is_disabled":false,"rental_uris":{"android":"levelo://app?vid=7e1dc608-a820-41f3-8381-31f3794c2504","ios":"levelo://app?vid=7e1dc608-a820-41f3-8381-31f3794c2504"},"vehicle_type_id":"4","last_reported":1735412776,"current_range_meters":4800,"station_id":"ce4bho12rcd13ifvqh1g","pricing_plan_id":"cebpf4jnsgd1na2vs0mg"},{"bike_id":"12778900-1c2e-4c74-9f02-9ac1df42f123","system_id":"levelo_inurba_marseille","lat":43.25494,"lon":5.3765,"is_reserved":false,"is_disabled":false,"rental_uris":{"android":"levelo://app?vid=12778900-1c2e-4c74-9f02-9ac1df42f123","ios":"levelo://app?vid=12778900-1c2e-4c74-9f02-9ac1df42f123"},"vehicle_type_id":"4","last_reported":1735412776,"current_range_meters":36000,"station_id":"ce4bhh12rcd13ifvqff0","pricing_plan_id":"cebpf4jnsgd1na2vs0mg"},{"bike_id":"8045ef19-cb1d-4f0c-b3f3-2e8015411f38","system_id":"levelo_inurba_marseille","lat":43.29807,"lon":5.38097,"is_reserved":false,"is_disabled":false,"rental_uris":{"android":"levelo://app?vid=8045ef19-cb1d-4f0c-b3f3-2e8015411f38","ios":"levelo://app?vid=8045ef19-cb1d-4f0c-b3f3-2e8015411f38"},"vehicle_type_id":"4","last_reported":1735412776,"current_range_meters":33200,"station_id":"ce4bgip2rcd13ifvqbb0","pricing_plan_id":"cebpf4jnsgd1na2vs0mg"},{"bike_id":"673ed0fe-3027-4e1f-9efc-2804b0e32190","system_id":"levelo_inurba_marseille","lat":43.2668,"lon":5.38266,"is_reserved":false,"is_disabled":false,"rental_uris":{"android":"levelo://app?vid=673ed0fe-3027-4e1f-9efc-2804b0e32190","ios":"levelo://app?vid=673ed0fe-3027-4e1f-9efc-2804b0e32190"},"vehicle_type_id":"4","last_reported":1735412776,"current_range_meters":10800,"station_id":"ce4bhg92rcd13ifvqf90","pricing_plan_id":"cebpf4jnsgd1na2vs0mg"},{"bike_id":"c2b38636-82b3-4c3a-88d2-48449d43e7b0","system_id":"levelo_inurba_marseille","lat":43.30534,"lon":5.38421,"is_reserved":false,"is_disabled":false,"rental_uris":{"android":"levelo://app?vid=c2b38636-82b3-4c3a-88d2-48449d43e7b0","ios":"levelo://app?vid=c2b38636-82b3-4c3a-88d2-48449d43e7b0"},"vehicle_type_id":"4","last_reported":1735412776,"current_range_meters":28400,"station_id":"ce4bgg92rcd13ifvqb30","pricing_plan_id":"cebpf4jnsgd1na2vs0mg"},{"bike_id":"839d9add-f6be-4f14-b54d-e253e7d94bc5","system_id":"levelo_inurba_marseille","lat":43.311212,"lon":5.377649,"is_reserved":false,"is_disabled":false,"rental_uris":{"android":"levelo://app?vid=839d9add-f6be-4f14-b54d-e253e7d94bc5","ios":"levelo://app?vid=839d9add-f6be-4f14-b54d-e253e7d94bc5"},"vehicle_type_id":"4","last_reported":1735412776,"current_range_meters":36800,"station_id":"ce4bgt92rcd13ifvqcg0","pricing_plan_id":"cebpf4jnsgd1na2vs0mg"},{"bike_id":"17281b94-d9ee-4de2-b86b-bf8a41fceb2b","system_id":"levelo_inurba_marseille","lat":43.25007,"lon":5.3891,"is_reserved":false,"is_disabled":false,"rental_uris":{"android":"levelo://app?vid=17281b94-d9ee-4de2-b86b-bf8a41fceb2b","ios":"levelo://app?vid=17281b94-d9ee-4de2-b86b-bf8a41fceb2b"},"vehicle_type_id":"4","last_reported":1735412776,"current_range_meters":24800,"station_id":"ce4bhgp2rcd13ifvqfd0","pricing_plan_id":"cebpf4jnsgd1na2vs0mg"},{"bike_id":"0b30f2be-0b18-431f-b51c-e455b462ac27","system_id":"levelo_inurba_marseille","lat":43.26803,"lon":5.40274,"is_reserved":false,"is_disabled":false,"rental_uris":{"android":"levelo://app?vid=0b30f2be-0b18-431f-b51c-e455b462ac27","ios":"levelo://app?vid=0b30f2be-0b18-431f-b51c-e455b462ac27"},"vehicle_type_id":"4","last_reported":1735412776,"current_range_meters":37600,"station_id":"ce501612rcd8frsf0b60","pricing_plan_id":"cebpf4jnsgd1na2vs0mg"},{"bike_id":"c8d1c33c-78e9-42be-a881-5b72ffd6d815","system_id":"levelo_inurba_marseille","lat":43.29911,"lon":5.3746,"is_reserved":false,"is_disabled":false,"rental_uris":{"android":"levelo://app?vid=c8d1c33c-78e9-42be-a881-5b72ffd6d815","ios":"levelo://app?vid=c8d1c33c-78e9-42be-a881-5b72ffd6d815"},"vehicle_type_id":"4","last_reported":1735412776,"current_range_meters":8800,"station_id":"ce4bgjh2rcd13ifvqbg0","pricing_plan_id":"cebpf4jnsgd1na2vs0mg"},{"bike_id":"182697cb-2219-4e08-8291-846687f91a97","system_id":"levelo_inurba_marseille","lat":43.28161,"lon":5.42642,"is_reserved":false,"is_disabled":false,"rental_uris":{"android":"levelo://app?vid=182697cb-2219-4e08-8291-846687f91a97","ios":"levelo://app?vid=182697cb-2219-4e08-8291-846687f91a97"},"vehicle_type_id":"4","last_reported":1735412776,"current_range_meters":3200,"station_id":"ce4bhnh2rcd13ifvqgug","pricing_plan_id":"cebpf4jnsgd1na2vs0mg"},{"bike_id":"ad7dc43c-a814-4698-b255-a8e67dfbd9e2","system_id":"levelo_inurba_marseille","lat":43.29884,"lon":5.38909,"is_reserved":false,"is_disabled":false,"rental_uris":{"android":"levelo://app?vid=ad7dc43c-a814-4698-b255-a8e67dfbd9e2","ios":"levelo://app?vid=ad7dc43c-a814-4698-b255-a8e67dfbd9e2"},"vehicle_type_id":"4","last_reported":1735412776,"current_range_meters":34800,"station_id":"ce4bh392rcd13ifvqdl0","pricing_plan_id":"cebpf4jnsgd1na2vs0mg"},{"bike_id":"35142cb1-da84-4465-a902-1b70f5829b31","system_id":"levelo_inurba_marseille","lat":43.25744,"lon":5.41107,"is_reserved":false,"is_disabled":false,"rental_uris":{"android":"levelo://app?vid=35142cb1-da84-4465-a902-1b70f5829b31","ios":"levelo://app?vid=35142cb1-da84-4465-a902-1b70f5829b31"},"vehicle_type_id":"4","last_reported":1735412776,"current_range_meters":39200,"station_id":"ce4bhkp2rcd13ifvqgd0","pricing_plan_id":"cebpf4jnsgd1na2vs0mg"},{"bike_id":"622825f4-100c-4370-a3e7-a2ac977f5898","system_id":"levelo_inurba_marseille","lat":43.29901,"lon":5.38146,"is_reserved":false,"is_disabled":false,"rental_uris":{"android":"levelo://app?vid=622825f4-100c-4370-a3e7-a2ac977f5898","ios":"levelo://app?vid=622825f4-100c-4370-a3e7-a2ac977f5898"},"vehicle_type_id":"4","last_reported":1735412776,"current_range_meters":38800,"station_id":"ce4bgj12rcd13ifvqbc0","pricing_plan_id":"cebpf4jnsgd1na2vs0mg"},{"bike_id":"c59703cf-502f-4be2-ab56-c907e22fcac2","system_id":"levelo_inurba_marseille","lat":43.27318,"lon":5.39106,"is_reserved":false,"is_disabled":false,"rental_uris":{"android":"levelo://app?vid=c59703cf-502f-4be2-ab56-c907e22fcac2","ios":"levelo://app?vid=c59703cf-502f-4be2-ab56-c907e22fcac2"},"vehicle_type_id":"4","last_reported":1735412776,"current_range_meters":37600,"station_id":"ce4bhgp2rcd13ifvqfe0","pricing_plan_id":"cebpf4jnsgd1na2vs0mg"},{"bike_id":"a4fd85ee-0425-4e8b-a6a3-a117cb80ed52","system_id":"levelo_inurba_marseille","lat":43.30908,"lon":5.36865,"is_reserved":false,"is_disabled":false,"rental_uris":{"android":"levelo://app?vid=a4fd85ee-0425-4e8b-a6a3-a117cb80ed52","ios":"levelo://app?vid=a4fd85ee-0425-4e8b-a6a3-a117cb80ed52"},"vehicle_type_id":"4","last_reported":1735412776,"current_range_meters":38800,"station_id":"ce4bgn92rcd13ifvqbvg","pricing_plan_id":"cebpf4jnsgd1na2vs0mg"},{"bike_id":"8b2caef2-7af0-44d2-8f46-cb4ab8b932ab","system_id":"levelo_inurba_marseille","lat":43.2606,"lon":5.39396,"is_reserved":false,"is_disabled":false,"rental_uris":{"android":"levelo://app?vid=8b2caef2-7af0-44d2-8f46-cb4ab8b932ab","ios":"levelo://app?vid=8b2caef2-7af0-44d2-8f46-cb4ab8b932ab"},"vehicle_type_id":"4","last_reported":1735412776,"current_range_meters":38800,"station_id":"ce4bhh92rcd13ifvqfj0","pricing_plan_id":"cebpf4jnsgd1na2vs0mg"},{"bike_id":"4dc99df2-6ac2-4b28-b6de-6b0361e41f92","system_id":"levelo_inurba_marseille","lat":43.30213,"lon":5.3947,"is_reserved":false,"is_disabled":false,"rental_uris":{"android":"levelo://app?vid=4dc99df2-6ac2-4b28-b6de-6b0361e41f92","ios":"levelo://app?vid=4dc99df2-6ac2-4b28-b6de-6b0361e41f92"},"vehicle_type_id":"4","last_reported":1735412776,"current_range_meters":28400,"station_id":"ce4bh0p2rcd13ifvqd70","pricing_plan_id":"cebpf4jnsgd1na2vs0mg"},{"bike_id":"309a9554-13e3-4a27-8da4-4d931614d914","system_id":"levelo_inurba_marseille","lat":43.29033,"lon":5.38141,"is_reserved":false,"is_disabled":true,"rental_uris":{"android":"levelo://app?vid=309a9554-13e3-4a27-8da4-4d931614d914","ios":"levelo://app?vid=309a9554-13e3-4a27-8da4-4d931614d914"},"vehicle_type_id":"4","last_reported":1735412776,"current_range_meters":6800,"station_id":"ce4bh4p2rcd13ifvqe1g","pricing_plan_id":"cebpf4jnsgd1na2vs0mg"},{"bike_id":"e70704c8-6b8b-4794-bea5-fcf58a59041c","system_id":"levelo_inurba_marseille","lat":43.2943,"lon":5.38618,"is_reserved":false,"is_disabled":false,"rental_uris":{"android":"levelo://app?vid=e70704c8-6b8b-4794-bea5-fcf58a59041c","ios":"levelo://app?vid=e70704c8-6b8b-4794-bea5-fcf58a59041c"},"vehicle_type_id":"4","last_reported":1735412776,"current_range_meters":7200,"station_id":"ce4bh2h2rcd13ifvqdh0","pricing_plan_id":"cebpf4jnsgd1na2vs0mg"},{"bike_id":"40ef0c55-ab4a-4d1a-bd53-73c7e9dfeb7b","system_id":"levelo_inurba_marseille","lat":43.30334,"lon":5.40418,"is_reserved":false,"is_disabled":false,"rental_uris":{"android":"levelo://app?vid=40ef0c55-ab4a-4d1a-bd53-73c7e9dfeb7b","ios":"levelo://app?vid=40ef0c55-ab4a-4d1a-bd53-73c7e9dfeb7b"},"vehicle_type_id":"4","last_reported":1735412776,"current_range_meters":18800,"station_id":"ce4bh012rcd13ifvqd10","pricing_plan_id":"cebpf4jnsgd1na2vs0mg"},{"bike_id":"2598d78b-c5cd-4ad1-8306-8c58913fa9c2","system_id":"levelo_inurba_marseille","lat":43.265545,"lon":5.422415,"is_reserved":false,"is_disabled":false,"rental_uris":{"android":"levelo://app?vid=2598d78b-c5cd-4ad1-8306-8c58913fa9c2","ios":"levelo://app?vid=2598d78b-c5cd-4ad1-8306-8c58913fa9c2"},"vehicle_type_id":"4","last_reported":1735412776,"current_range_meters":33200,"station_id":"","pricing_plan_id":"cebpf4jnsgd1na2vs0mg"},{"bike_id":"2d76d9f4-5ac3-420c-b7d3-8710df44025b","system_id":"levelo_inurba_marseille","lat":43.29558,"lon":5.42287,"is_reserved":false,"is_disabled":false,"rental_uris":{"android":"levelo://app?vid=2d76d9f4-5ac3-420c-b7d3-8710df44025b","ios":"levelo://app?vid=2d76d9f4-5ac3-420c-b7d3-8710df44025b"},"vehicle_type_id":"4","last_reported":1735412776,"current_range_meters":13600,"station_id":"ce4bhph2rcd13ifvqhdg","pricing_plan_id":"cebpf4jnsgd1na2vs0mg"},{"bike_id":"5477d212-35e2-4622-b27a-bfe5ff434d03","system_id":"levelo_inurba_marseille","lat":43.337603,"lon":5.374424,"is_reserved":false,"is_disabled":false,"rental_uris":{"android":"levelo://app?vid=5477d212-35e2-4622-b27a-bfe5ff434d03","ios":"levelo://app?vid=5477d212-35e2-4622-b27a-bfe5ff434d03"},"vehicle_type_id":"4","last_reported":1735412776,"current_range_meters":24400,"station_id":"","pricing_plan_id":"cebpf4jnsgd1na2vs0mg"},{"bike_id":"254571ce-4bff-437b-8e26-03b746d4984d","system_id":"levelo_inurba_marseille","lat":43.31362,"lon":5.38502,"is_reserved":false,"is_disabled":false,"rental_uris":{"android":"levelo://app?vid=254571ce-4bff-437b-8e26-03b746d4984d","ios":"levelo://app?vid=254571ce-4bff-437b-8e26-03b746d4984d"},"vehicle_type_id":"4","last_reported":1735412776,"current_range_meters":36400,"station_id":"ce4bgt92rcd13ifvqcf0","pricing_plan_id":"cebpf4jnsgd1na2vs0mg"},{"bike_id":"ee8cf5f1-3afc-4c7b-8ed3-ddb81b6ed983","system_id":"levelo_inurba_marseille","lat":43.29935,"lon":5.3654,"is_reserved":false,"is_disabled":false,"rental_uris":{"android":"levelo://app?vid=ee8cf5f1-3afc-4c7b-8ed3-ddb81b6ed983","ios":"levelo://app?vid=ee8cf5f1-3afc-4c7b-8ed3-ddb81b6ed983"},"vehicle_type_id":"4","last_reported":1735412776,"current_range_meters":11200,"station_id":"ce4bgm92rcd13ifvqbr0","pricing_plan_id":"cebpf4jnsgd1na2vs0mg"},{"bike_id":"de258b3b-6d55-4e0f-9242-9df5f39b496e","system_id":"levelo_inurba_marseille","lat":43.29814,"lon":5.38076,"is_reserved":false,"is_disabled":false,"rental_uris":{"android":"levelo://app?vid=de258b3b-6d55-4e0f-9242-9df5f39b496e","ios":"levelo://app?vid=de258b3b-6d55-4e0f-9242-9df5f39b496e"},"vehicle_type_id":"4","last_reported":1735412776,"current_range_meters":36400,"station_id":"ce4bgip2rcd13ifvqbb0","pricing_plan_id":"cebpf4jnsgd1na2vs0mg"},{"bike_id":"02678212-5bfa-4320-88ef-1f46f986154d","system_id":"levelo_inurba_marseille","lat":43.2941,"lon":5.38623,"is_reserved":false,"is_disabled":false,"rental_uris":{"android":"levelo://app?vid=02678212-5bfa-4320-88ef-1f46f986154d","ios":"levelo://app?vid=02678212-5bfa-4320-88ef-1f46f986154d"},"vehicle_type_id":"4","last_reported":1735412776,"current_range_meters":30000,"station_id":"ce4bh2h2rcd13ifvqdh0","pricing_plan_id":"cebpf4jnsgd1na2vs0mg"},{"bike_id":"88b5984c-6754-4288-b0c2-ab7044a16ba7","system_id":"levelo_inurba_marseille","lat":43.29792,"lon":5.39343,"is_reserved":false,"is_disabled":false,"rental_uris":{"android":"levelo://app?vid=88b5984c-6754-4288-b0c2-ab7044a16ba7","ios":"levelo://app?vid=88b5984c-6754-4288-b0c2-ab7044a16ba7"},"vehicle_type_id":"4","last_reported":1735412776,"current_range_meters":38800,"station_id":"chh1huq6cuj3fo74tm60","pricing_plan_id":"cebpf4jnsgd1na2vs0mg"},{"bike_id":"83af42ec-193e-4405-a8a1-121e531a6c22","system_id":"levelo_inurba_marseille","lat":43.29445,"lon":5.38587,"is_reserved":false,"is_disabled":false,"rental_uris":{"android":"levelo://app?vid=83af42ec-193e-4405-a8a1-121e531a6c22","ios":"levelo://app?vid=83af42ec-193e-4405-a8a1-121e531a6c22"},"vehicle_type_id":"4","last_reported":1735412776,"current_range_meters":34000,"station_id":"ce4bh2h2rcd13ifvqdh0","pricing_plan_id":"cebpf4jnsgd1na2vs0mg"},{"bike_id":"9397a9f3-9f96-4b91-ad51-8ffa68a2aeb8","system_id":"levelo_inurba_marseille","lat":43.25929,"lon":5.40904,"is_reserved":false,"is_disabled":true,"rental_uris":{"android":"levelo://app?vid=9397a9f3-9f96-4b91-ad51-8ffa68a2aeb8","ios":"levelo://app?vid=9397a9f3-9f96-4b91-ad51-8ffa68a2aeb8"},"vehicle_type_id":"4","last_reported":1735412776,"current_range_meters":0,"station_id":"ce4bhm92rcd13ifvqglg","pricing_plan_id":"cebpf4jnsgd1na2vs0mg"},{"bike_id":"68dd5d0c-b9bd-4b57-a0f1-943bf2df865b","system_id":"levelo_inurba_marseille","lat":43.26205,"lon":5.37445,"is_reserved":false,"is_disabled":false,"rental_uris":{"android":"levelo://app?vid=68dd5d0c-b9bd-4b57-a0f1-943bf2df865b","ios":"levelo://app?vid=68dd5d0c-b9bd-4b57-a0f1-943bf2df865b"},"vehicle_type_id":"4","last_reported":1735412776,"current_range_meters":18800,"station_id":"ce4bhgp2rcd13ifvqfc0","pricing_plan_id":"cebpf4jnsgd1na2vs0mg"},{"bike_id":"3ec117dc-129e-4a68-bc1b-c4cecba0cef1","system_id":"levelo_inurba_marseille","lat":43.299693,"lon":5.384912,"is_reserved":false,"is_disabled":false,"rental_uris":{"android":"levelo://app?vid=3ec117dc-129e-4a68-bc1b-c4cecba0cef1","ios":"levelo://app?vid=3ec117dc-129e-4a68-bc1b-c4cecba0cef1"},"vehicle_type_id":"4","last_reported":1735412776,"current_range_meters":28000,"station_id":"ce4bgj92rcd13ifvqbd0","pricing_plan_id":"cebpf4jnsgd1na2vs0mg"},{"bike_id":"92dd54a8-6297-48ae-9237-9bdc79ec15c4","system_id":"levelo_inurba_marseille","lat":43.281,"lon":5.37875,"is_reserved":false,"is_disabled":false,"rental_uris":{"android":"levelo://app?vid=92dd54a8-6297-48ae-9237-9bdc79ec15c4","ios":"levelo://app?vid=92dd54a8-6297-48ae-9237-9bdc79ec15c4"},"vehicle_type_id":"4","last_reported":1735412776,"current_range_meters":37600,"station_id":"ce4bha12rcd13ifvqee0","pricing_plan_id":"cebpf4jnsgd1na2vs0mg"},{"bike_id":"5a57ae10-c643-44bb-a2ba-5799bc16dbbf","system_id":"levelo_inurba_marseille","lat":43.26791,"lon":5.40243,"is_reserved":false,"is_disabled":false,"rental_uris":{"android":"levelo://app?vid=5a57ae10-c643-44bb-a2ba-5799bc16dbbf","ios":"levelo://app?vid=5a57ae10-c643-44bb-a2ba-5799bc16dbbf"},"vehicle_type_id":"4","last_reported":1735412776,"current_range_meters":38800,"station_id":"ce501612rcd8frsf0b60","pricing_plan_id":"cebpf4jnsgd1na2vs0mg"},{"bike_id":"7f59bf3a-3b2e-45d2-ba4a-484837f9a2df","system_id":"levelo_inurba_marseille","lat":43.26212,"lon":5.37437,"is_reserved":false,"is_disabled":false,"rental_uris":{"android":"levelo://app?vid=7f59bf3a-3b2e-45d2-ba4a-484837f9a2df","ios":"levelo://app?vid=7f59bf3a-3b2e-45d2-ba4a-484837f9a2df"},"vehicle_type_id":"4","last_reported":1735412776,"current_range_meters":20400,"station_id":"ce4bhgp2rcd13ifvqfc0","pricing_plan_id":"cebpf4jnsgd1na2vs0mg"},{"bike_id":"18f320a9-6607-4d36-8c6f-1652222157dc","system_id":"levelo_inurba_marseille","lat":43.24073,"lon":5.3776,"is_reserved":false,"is_disabled":false,"rental_uris":{"android":"levelo://app?vid=18f320a9-6607-4d36-8c6f-1652222157dc","ios":"levelo://app?vid=18f320a9-6607-4d36-8c6f-1652222157dc"},"vehicle_type_id":"4","last_reported":1735412776,"current_range_meters":23200,"station_id":"ce4bhnp2rcd13ifvqgvg","pricing_plan_id":"cebpf4jnsgd1na2vs0mg"},{"bike_id":"65605a28-90a7-4bb5-b3f6-f1e335ead422","system_id":"levelo_inurba_marseille","lat":43.29101,"lon":5.3814,"is_reserved":false,"is_disabled":false,"rental_uris":{"android":"levelo://app?vid=65605a28-90a7-4bb5-b3f6-f1e335ead422","ios":"levelo://app?vid=65605a28-90a7-4bb5-b3f6-f1e335ead422"},"vehicle_type_id":"4","last_reported":1735412776,"current_range_meters":38800,"station_id":"ce4bh512rcd13ifvqe2g","pricing_plan_id":"cebpf4jnsgd1na2vs0mg"},{"bike_id":"27001726-4b0a-4ba0-8261-5a303bdee373","system_id":"levelo_inurba_marseille","lat":43.27566,"lon":5.38427,"is_reserved":false,"is_disabled":false,"rental_uris":{"android":"levelo://app?vid=27001726-4b0a-4ba0-8261-5a303bdee373","ios":"levelo://app?vid=27001726-4b0a-4ba0-8261-5a303bdee373"},"vehicle_type_id":"4","last_reported":1735412776,"current_range_meters":38800,"station_id":"ce4bhh92rcd13ifvqfi0","pricing_plan_id":"cebpf4jnsgd1na2vs0mg"},{"bike_id":"421c6551-132c-4015-aab8-f2eccc5315e9","system_id":"levelo_inurba_marseille","lat":43.32822,"lon":5.39751,"is_reserved":false,"is_disabled":false,"rental_uris":{"android":"levelo://app?vid=421c6551-132c-4015-aab8-f2eccc5315e9","ios":"levelo://app?vid=421c6551-132c-4015-aab8-f2eccc5315e9"},"vehicle_type_id":"4","last_reported":1735412776,"current_range_meters":15200,"station_id":"","pricing_plan_id":"cebpf4jnsgd1na2vs0mg"},{"bike_id":"fb1f44e9-74b6-49b6-a57c-7c59fd608b50","system_id":"levelo_inurba_marseille","lat":43.2846,"lon":5.35898,"is_reserved":false,"is_disabled":false,"rental_uris":{"android":"levelo://app?vid=fb1f44e9-74b6-49b6-a57c-7c59fd608b50","ios":"levelo://app?vid=fb1f44e9-74b6-49b6-a57c-7c59fd608b50"},"vehicle_type_id":"4","last_reported":1735412776,"current_range_meters":27600,"station_id":"ce4bhah2rcd13ifvqei0","pricing_plan_id":"cebpf4jnsgd1na2vs0mg"},{"bike_id":"9925f51a-d18b-45b4-85cc-29e16c4b5245","system_id":"levelo_inurba_marseille","lat":43.30543,"lon":5.3842,"is_reserved":false,"is_disabled":false,"rental_uris":{"android":"levelo://app?vid=9925f51a-d18b-45b4-85cc-29e16c4b5245","ios":"levelo://app?vid=9925f51a-d18b-45b4-85cc-29e16c4b5245"},"vehicle_type_id":"4","last_reported":1735412776,"current_range_meters":33600,"station_id":"ce4bgg92rcd13ifvqb30","pricing_plan_id":"cebpf4jnsgd1na2vs0mg"},{"bike_id":"d7294cd5-2623-434f-b244-c391219a24d9","system_id":"levelo_inurba_marseille","lat":43.3054,"lon":5.36699,"is_reserved":false,"is_disabled":false,"rental_uris":{"android":"levelo://app?vid=d7294cd5-2623-434f-b244-c391219a24d9","ios":"levelo://app?vid=d7294cd5-2623-434f-b244-c391219a24d9"},"vehicle_type_id":"4","last_reported":1735412776,"current_range_meters":26000,"station_id":"ce4bgrp2rcd13ifvqc9g","pricing_plan_id":"cebpf4jnsgd1na2vs0mg"},{"bike_id":"7d0babd6-e2b2-417a-b537-ce2b4c7e476e","system_id":"levelo_inurba_marseille","lat":43.29803,"lon":5.38101,"is_reserved":false,"is_disabled":false,"rental_uris":{"android":"levelo://app?vid=7d0babd6-e2b2-417a-b537-ce2b4c7e476e","ios":"levelo://app?vid=7d0babd6-e2b2-417a-b537-ce2b4c7e476e"},"vehicle_type_id":"4","last_reported":1735412776,"current_range_meters":27200,"station_id":"ce4bgip2rcd13ifvqbb0","pricing_plan_id":"cebpf4jnsgd1na2vs0mg"},{"bike_id":"77610b5b-bfa2-48d5-834b-8278d8d10c9f","system_id":"levelo_inurba_marseille","lat":43.28852,"lon":5.39305,"is_reserved":false,"is_disabled":false,"rental_uris":{"android":"levelo://app?vid=77610b5b-bfa2-48d5-834b-8278d8d10c9f","ios":"levelo://app?vid=77610b5b-bfa2-48d5-834b-8278d8d10c9f"},"vehicle_type_id":"4","last_reported":1735412776,"current_range_meters":28400,"station_id":"ce4bh2p2rcd13ifvqdi0","pricing_plan_id":"cebpf4jnsgd1na2vs0mg"},{"bike_id":"1560d899-203a-414b-9dd8-6d05efff7eee","system_id":"levelo_inurba_marseille","lat":43.27678,"lon":5.38922,"is_reserved":false,"is_disabled":false,"rental_uris":{"android":"levelo://app?vid=1560d899-203a-414b-9dd8-6d05efff7eee","ios":"levelo://app?vid=1560d899-203a-414b-9dd8-6d05efff7eee"},"vehicle_type_id":"4","last_reported":1735412776,"current_range_meters":8800,"station_id":"ce4bhi12rcd13ifvqfo0","pricing_plan_id":"cebpf4jnsgd1na2vs0mg"},{"bike_id":"f2ec6805-0c9b-431f-98e1-88d6fc8c6565","system_id":"levelo_inurba_marseille","lat":43.29528,"lon":5.38545,"is_reserved":false,"is_disabled":false,"rental_uris":{"android":"levelo://app?vid=f2ec6805-0c9b-431f-98e1-88d6fc8c6565","ios":"levelo://app?vid=f2ec6805-0c9b-431f-98e1-88d6fc8c6565"},"vehicle_type_id":"4","last_reported":1735412776,"current_range_meters":33600,"station_id":"ce4bgih2rcd13ifvqba0","pricing_plan_id":"cebpf4jnsgd1na2vs0mg"},{"bike_id":"e1b4442a-84c1-4594-9ea3-e6b0df5ddd51","system_id":"levelo_inurba_marseille","lat":43.2979,"lon":5.38076,"is_reserved":false,"is_disabled":false,"rental_uris":{"android":"levelo://app?vid=e1b4442a-84c1-4594-9ea3-e6b0df5ddd51","ios":"levelo://app?vid=e1b4442a-84c1-4594-9ea3-e6b0df5ddd51"},"vehicle_type_id":"4","last_reported":1735412776,"current_range_meters":22400,"station_id":"ce4bgip2rcd13ifvqbb0","pricing_plan_id":"cebpf4jnsgd1na2vs0mg"},{"bike_id":"c9e5d6c6-5601-4769-be5c-20fef93ca121","system_id":"levelo_inurba_marseille","lat":43.24169,"lon":5.36385,"is_reserved":false,"is_disabled":false,"rental_uris":{"android":"levelo://app?vid=c9e5d6c6-5601-4769-be5c-20fef93ca121","ios":"levelo://app?vid=c9e5d6c6-5601-4769-be5c-20fef93ca121"},"vehicle_type_id":"4","last_reported":1735412776,"current_range_meters":16400,"station_id":"cpo36qri1sfpv3e86is0","pricing_plan_id":"cebpf4jnsgd1na2vs0mg"},{"bike_id":"e23a7d55-7ce1-4f20-a71a-26c06c907d82","system_id":"levelo_inurba_marseille","lat":43.27945,"lon":5.41043,"is_reserved":false,"is_disabled":false,"rental_uris":{"android":"levelo://app?vid=e23a7d55-7ce1-4f20-a71a-26c06c907d82","ios":"levelo://app?vid=e23a7d55-7ce1-4f20-a71a-26c06c907d82"},"vehicle_type_id":"4","last_reported":1735412776,"current_range_meters":38000,"station_id":"ce4bhnp2rcd13ifvqh0g","pricing_plan_id":"cebpf4jnsgd1na2vs0mg"},{"bike_id":"b0c4d0d6-5451-4daa-af56-54957229db80","system_id":"levelo_inurba_marseille","lat":43.32357,"lon":5.36744,"is_reserved":false,"is_disabled":false,"rental_uris":{"android":"levelo://app?vid=b0c4d0d6-5451-4daa-af56-54957229db80","ios":"levelo://app?vid=b0c4d0d6-5451-4daa-af56-54957229db80"},"vehicle_type_id":"4","last_reported":1735412776,"current_range_meters":38400,"station_id":"ce4bhsh2rcd13ifvqi2g","pricing_plan_id":"cebpf4jnsgd1na2vs0mg"},{"bike_id":"5367a292-5564-4681-91cd-97babb89fc00","system_id":"levelo_inurba_marseille","lat":43.22928,"lon":5.35363,"is_reserved":false,"is_disabled":false,"rental_uris":{"android":"levelo://app?vid=5367a292-5564-4681-91cd-97babb89fc00","ios":"levelo://app?vid=5367a292-5564-4681-91cd-97babb89fc00"},"vehicle_type_id":"4","last_reported":1735412776,"current_range_meters":38800,"station_id":"cpo3532slgdg3j2ikp40","pricing_plan_id":"cebpf4jnsgd1na2vs0mg"},{"bike_id":"b63b9eb6-fafc-4c7c-ad91-57273b105b52","system_id":"levelo_inurba_marseille","lat":43.29904,"lon":5.38156,"is_reserved":false,"is_disabled":false,"rental_uris":{"android":"levelo://app?vid=b63b9eb6-fafc-4c7c-ad91-57273b105b52","ios":"levelo://app?vid=b63b9eb6-fafc-4c7c-ad91-57273b105b52"},"vehicle_type_id":"4","last_reported":1735412776,"current_range_meters":38800,"station_id":"ce4bgj12rcd13ifvqbc0","pricing_plan_id":"cebpf4jnsgd1na2vs0mg"},{"bike_id":"b74edde0-383b-4f8f-8041-34aabf95df9c","system_id":"levelo_inurba_marseille","lat":43.30638,"lon":5.40075,"is_reserved":false,"is_disabled":false,"rental_uris":{"android":"levelo://app?vid=b74edde0-383b-4f8f-8041-34aabf95df9c","ios":"levelo://app?vid=b74edde0-383b-4f8f-8041-34aabf95df9c"},"vehicle_type_id":"4","last_reported":1735412776,"current_range_meters":24800,"station_id":"ce4bh112rcd13ifvqda0","pricing_plan_id":"cebpf4jnsgd1na2vs0mg"},{"bike_id":"5c02046d-1ad7-4bbf-8c51-bc86c793dce3","system_id":"levelo_inurba_marseille","lat":43.24067,"lon":5.3776,"is_reserved":false,"is_disabled":false,"rental_uris":{"android":"levelo://app?vid=5c02046d-1ad7-4bbf-8c51-bc86c793dce3","ios":"levelo://app?vid=5c02046d-1ad7-4bbf-8c51-bc86c793dce3"},"vehicle_type_id":"4","last_reported":1735412776,"current_range_meters":38800,"station_id":"ce4bhnp2rcd13ifvqgvg","pricing_plan_id":"cebpf4jnsgd1na2vs0mg"},{"bike_id":"9ebd4470-0de3-4ec3-9c7d-92948349bd4a","system_id":"levelo_inurba_marseille","lat":43.30161,"lon":5.3808,"is_reserved":false,"is_disabled":false,"rental_uris":{"android":"levelo://app?vid=9ebd4470-0de3-4ec3-9c7d-92948349bd4a","ios":"levelo://app?vid=9ebd4470-0de3-4ec3-9c7d-92948349bd4a"},"vehicle_type_id":"4","last_reported":1735412776,"current_range_meters":37600,"station_id":"ce4bgjp2rcd13ifvqbh0","pricing_plan_id":"cebpf4jnsgd1na2vs0mg"},{"bike_id":"50a3e1ef-3112-43ba-899d-0c8245e0b2c8","system_id":"levelo_inurba_marseille","lat":43.27811,"lon":5.40711,"is_reserved":false,"is_disabled":false,"rental_uris":{"android":"levelo://app?vid=50a3e1ef-3112-43ba-899d-0c8245e0b2c8","ios":"levelo://app?vid=50a3e1ef-3112-43ba-899d-0c8245e0b2c8"},"vehicle_type_id":"4","last_reported":1735412776,"current_range_meters":8400,"station_id":"ce4bhnh2rcd13ifvqgtg","pricing_plan_id":"cebpf4jnsgd1na2vs0mg"},{"bike_id":"95156639-9046-44ca-a5f3-1a2c618bddef","system_id":"levelo_inurba_marseille","lat":43.26569,"lon":5.39008,"is_reserved":false,"is_disabled":false,"rental_uris":{"android":"levelo://app?vid=95156639-9046-44ca-a5f3-1a2c618bddef","ios":"levelo://app?vid=95156639-9046-44ca-a5f3-1a2c618bddef"},"vehicle_type_id":"4","last_reported":1735412776,"current_range_meters":30000,"station_id":"ce4bhe12rcd13ifvqf30","pricing_plan_id":"cebpf4jnsgd1na2vs0mg"},{"bike_id":"22bab7a2-4fab-44bb-a07b-951698534a3b","system_id":"levelo_inurba_marseille","lat":43.32039,"lon":5.41555,"is_reserved":false,"is_disabled":false,"rental_uris":{"android":"levelo://app?vid=22bab7a2-4fab-44bb-a07b-951698534a3b","ios":"levelo://app?vid=22bab7a2-4fab-44bb-a07b-951698534a3b"},"vehicle_type_id":"4","last_reported":1735412776,"current_range_meters":30000,"station_id":"ce4bhq92rcd13ifvqhkg","pricing_plan_id":"cebpf4jnsgd1na2vs0mg"},{"bike_id":"dab31739-bb30-4f58-9e54-bf565c86dd21","system_id":"levelo_inurba_marseille","lat":43.2696,"lon":5.38634,"is_reserved":false,"is_disabled":false,"rental_uris":{"android":"levelo://app?vid=dab31739-bb30-4f58-9e54-bf565c86dd21","ios":"levelo://app?vid=dab31739-bb30-4f58-9e54-bf565c86dd21"},"vehicle_type_id":"4","last_reported":1735412776,"current_range_meters":30000,"station_id":"ce4bhh92rcd13ifvqfh0","pricing_plan_id":"cebpf4jnsgd1na2vs0mg"},{"bike_id":"aee1df5a-e1a7-4198-8e9a-8af139d05686","system_id":"levelo_inurba_marseille","lat":43.29333,"lon":5.37956,"is_reserved":false,"is_disabled":false,"rental_uris":{"android":"levelo://app?vid=aee1df5a-e1a7-4198-8e9a-8af139d05686","ios":"levelo://app?vid=aee1df5a-e1a7-4198-8e9a-8af139d05686"},"vehicle_type_id":"4","last_reported":1735412776,"current_range_meters":38800,"station_id":"","pricing_plan_id":"cebpf4jnsgd1na2vs0mg"},{"bike_id":"52ba3c05-efac-4e4b-ad5e-567da51fbd74","system_id":"levelo_inurba_marseille","lat":43.29796,"lon":5.381,"is_reserved":false,"is_disabled":false,"rental_uris":{"android":"levelo://app?vid=52ba3c05-efac-4e4b-ad5e-567da51fbd74","ios":"levelo://app?vid=52ba3c05-efac-4e4b-ad5e-567da51fbd74"},"vehicle_type_id":"4","last_reported":1735412776,"current_range_meters":31200,"station_id":"ce4bgip2rcd13ifvqbb0","pricing_plan_id":"cebpf4jnsgd1na2vs0mg"},{"bike_id":"deb74dd6-caed-4958-9dd1-d5f6f39c849d","system_id":"levelo_inurba_marseille","lat":43.29855,"lon":5.36269,"is_reserved":false,"is_disabled":false,"rental_uris":{"android":"levelo://app?vid=deb74dd6-caed-4958-9dd1-d5f6f39c849d","ios":"levelo://app?vid=deb74dd6-caed-4958-9dd1-d5f6f39c849d"},"vehicle_type_id":"4","last_reported":1735412776,"current_range_meters":24400,"station_id":"ce4bgpp2rcd13ifvqc3g","pricing_plan_id":"cebpf4jnsgd1na2vs0mg"},{"bike_id":"6a29575b-1e36-49ac-86ce-fd989f52fc91","system_id":"levelo_inurba_marseille","lat":43.25824,"lon":5.39435,"is_reserved":false,"is_disabled":false,"rental_uris":{"android":"levelo://app?vid=6a29575b-1e36-49ac-86ce-fd989f52fc91","ios":"levelo://app?vid=6a29575b-1e36-49ac-86ce-fd989f52fc91"},"vehicle_type_id":"4","last_reported":1735412776,"current_range_meters":32000,"station_id":"ce4bhip2rcd13ifvqft0","pricing_plan_id":"cebpf4jnsgd1na2vs0mg"},{"bike_id":"7fea2f91-cddd-4d25-8f38-f9b435da14de","system_id":"levelo_inurba_marseille","lat":43.29934,"lon":5.36548,"is_reserved":false,"is_disabled":false,"rental_uris":{"android":"levelo://app?vid=7fea2f91-cddd-4d25-8f38-f9b435da14de","ios":"levelo://app?vid=7fea2f91-cddd-4d25-8f38-f9b435da14de"},"vehicle_type_id":"4","last_reported":1735412776,"current_range_meters":24800,"station_id":"ce4bgm92rcd13ifvqbr0","pricing_plan_id":"cebpf4jnsgd1na2vs0mg"},{"bike_id":"339af649-cb7b-4d4d-ae7c-355e4348b631","system_id":"levelo_inurba_marseille","lat":43.31352,"lon":5.36699,"is_reserved":false,"is_disabled":false,"rental_uris":{"android":"levelo://app?vid=339af649-cb7b-4d4d-ae7c-355e4348b631","ios":"levelo://app?vid=339af649-cb7b-4d4d-ae7c-355e4348b631"},"vehicle_type_id":"4","last_reported":1735412776,"current_range_meters":22400,"station_id":"ce4bgr92rcd13ifvqc6g","pricing_plan_id":"cebpf4jnsgd1na2vs0mg"},{"bike_id":"a756775e-8a27-448a-a3f7-0e7a9b00aaa0","system_id":"levelo_inurba_marseille","lat":43.29188,"lon":5.358,"is_reserved":false,"is_disabled":false,"rental_uris":{"android":"levelo://app?vid=a756775e-8a27-448a-a3f7-0e7a9b00aaa0","ios":"levelo://app?vid=a756775e-8a27-448a-a3f7-0e7a9b00aaa0"},"vehicle_type_id":"4","last_reported":1735412776,"current_range_meters":24000,"station_id":"ce4bhb12rcd13ifvqel0","pricing_plan_id":"cebpf4jnsgd1na2vs0mg"},{"bike_id":"684f4b17-5065-47cb-9f02-2099910f4fae","system_id":"levelo_inurba_marseille","lat":43.29303,"lon":5.37461,"is_reserved":false,"is_disabled":true,"rental_uris":{"android":"levelo://app?vid=684f4b17-5065-47cb-9f02-2099910f4fae","ios":"levelo://app?vid=684f4b17-5065-47cb-9f02-2099910f4fae"},"vehicle_type_id":"4","last_reported":1735412776,"current_range_meters":4800,"station_id":"ce4bgi12rcd13ifvqb70","pricing_plan_id":"cebpf4jnsgd1na2vs0mg"},{"bike_id":"0a04b733-cb80-4a76-a378-c32b5b28449c","system_id":"levelo_inurba_marseille","lat":43.32348,"lon":5.40622,"is_reserved":false,"is_disabled":false,"rental_uris":{"android":"levelo://app?vid=0a04b733-cb80-4a76-a378-c32b5b28449c","ios":"levelo://app?vid=0a04b733-cb80-4a76-a378-c32b5b28449c"},"vehicle_type_id":"4","last_reported":1735412776,"current_range_meters":38800,"station_id":"ce4bhq92rcd13ifvqhjg","pricing_plan_id":"cebpf4jnsgd1na2vs0mg"},{"bike_id":"b23c0590-ef54-41cd-8583-62a444448403","system_id":"levelo_inurba_marseille","lat":43.29845,"lon":5.36275,"is_reserved":false,"is_disabled":false,"rental_uris":{"android":"levelo://app?vid=b23c0590-ef54-41cd-8583-62a444448403","ios":"levelo://app?vid=b23c0590-ef54-41cd-8583-62a444448403"},"vehicle_type_id":"4","last_reported":1735412776,"current_range_meters":34800,"station_id":"ce4bgpp2rcd13ifvqc3g","pricing_plan_id":"cebpf4jnsgd1na2vs0mg"},{"bike_id":"dac94ecf-3203-4c89-acc0-21c14e979588","system_id":"levelo_inurba_marseille","lat":43.26701,"lon":5.38252,"is_reserved":false,"is_disabled":false,"rental_uris":{"android":"levelo://app?vid=dac94ecf-3203-4c89-acc0-21c14e979588","ios":"levelo://app?vid=dac94ecf-3203-4c89-acc0-21c14e979588"},"vehicle_type_id":"4","last_reported":1735412776,"current_range_meters":30800,"station_id":"ce4bhg92rcd13ifvqf90","pricing_plan_id":"cebpf4jnsgd1na2vs0mg"},{"bike_id":"647bf5cc-d5f7-4968-9970-1b7c17675e9e","system_id":"levelo_inurba_marseille","lat":43.27946,"lon":5.38699,"is_reserved":false,"is_disabled":false,"rental_uris":{"android":"levelo://app?vid=647bf5cc-d5f7-4968-9970-1b7c17675e9e","ios":"levelo://app?vid=647bf5cc-d5f7-4968-9970-1b7c17675e9e"},"vehicle_type_id":"4","last_reported":1735412776,"current_range_meters":36400,"station_id":"ce4bhg12rcd13ifvqf80","pricing_plan_id":"cebpf4jnsgd1na2vs0mg"},{"bike_id":"bf37a78b-1e85-4b40-afcc-4ef4282c925e","system_id":"levelo_inurba_marseille","lat":43.29715,"lon":5.37696,"is_reserved":false,"is_disabled":false,"rental_uris":{"android":"levelo://app?vid=bf37a78b-1e85-4b40-afcc-4ef4282c925e","ios":"levelo://app?vid=bf37a78b-1e85-4b40-afcc-4ef4282c925e"},"vehicle_type_id":"4","last_reported":1735412776,"current_range_meters":36800,"station_id":"ce4bgkh2rcd13ifvqbl0","pricing_plan_id":"cebpf4jnsgd1na2vs0mg"},{"bike_id":"d787e330-e288-4e1c-926a-5bcb7a236ca2","system_id":"levelo_inurba_marseille","lat":43.28153,"lon":5.42642,"is_reserved":false,"is_disabled":false,"rental_uris":{"android":"levelo://app?vid=d787e330-e288-4e1c-926a-5bcb7a236ca2","ios":"levelo://app?vid=d787e330-e288-4e1c-926a-5bcb7a236ca2"},"vehicle_type_id":"4","last_reported":1735412776,"current_range_meters":27200,"station_id":"ce4bhnh2rcd13ifvqgug","pricing_plan_id":"cebpf4jnsgd1na2vs0mg"},{"bike_id":"eaa77e83-6282-4e1e-8a3a-62f591307ab6","system_id":"levelo_inurba_marseille","lat":43.27909,"lon":5.39586,"is_reserved":false,"is_disabled":false,"rental_uris":{"android":"levelo://app?vid=eaa77e83-6282-4e1e-8a3a-62f591307ab6","ios":"levelo://app?vid=eaa77e83-6282-4e1e-8a3a-62f591307ab6"},"vehicle_type_id":"4","last_reported":1735412776,"current_range_meters":35200,"station_id":"ce4bhf92rcd13ifvqf40","pricing_plan_id":"cebpf4jnsgd1na2vs0mg"},{"bike_id":"ca42594c-4c0a-4080-98d3-9312d00d8df7","system_id":"levelo_inurba_marseille","lat":43.2306,"lon":5.35498,"is_reserved":false,"is_disabled":false,"rental_uris":{"android":"levelo://app?vid=ca42594c-4c0a-4080-98d3-9312d00d8df7","ios":"levelo://app?vid=ca42594c-4c0a-4080-98d3-9312d00d8df7"},"vehicle_type_id":"4","last_reported":1735412776,"current_range_meters":10800,"station_id":"cpo3342slgdg3j2ifvpg","pricing_plan_id":"cebpf4jnsgd1na2vs0mg"},{"bike_id":"c08daccd-9b4c-4b76-a69c-de43c8a37003","system_id":"levelo_inurba_marseille","lat":43.29929,"lon":5.36557,"is_reserved":false,"is_disabled":false,"rental_uris":{"android":"levelo://app?vid=c08daccd-9b4c-4b76-a69c-de43c8a37003","ios":"levelo://app?vid=c08daccd-9b4c-4b76-a69c-de43c8a37003"},"vehicle_type_id":"4","last_reported":1735412776,"current_range_meters":14000,"station_id":"ce4bgm92rcd13ifvqbr0","pricing_plan_id":"cebpf4jnsgd1na2vs0mg"},{"bike_id":"6901170a-d6fb-4c46-a782-4e0999ea4c1f","system_id":"levelo_inurba_marseille","lat":43.30139,"lon":5.37406,"is_reserved":false,"is_disabled":false,"rental_uris":{"android":"levelo://app?vid=6901170a-d6fb-4c46-a782-4e0999ea4c1f","ios":"levelo://app?vid=6901170a-d6fb-4c46-a782-4e0999ea4c1f"},"vehicle_type_id":"4","last_reported":1735412776,"current_range_meters":36800,"station_id":"ce4bgs92rcd13ifvqcc0","pricing_plan_id":"cebpf4jnsgd1na2vs0mg"},{"bike_id":"fe085e81-ac93-4b41-98ed-e6eb2db57abd","system_id":"levelo_inurba_marseille","lat":43.27067,"lon":5.42284,"is_reserved":false,"is_disabled":false,"rental_uris":{"android":"levelo://app?vid=fe085e81-ac93-4b41-98ed-e6eb2db57abd","ios":"levelo://app?vid=fe085e81-ac93-4b41-98ed-e6eb2db57abd"},"vehicle_type_id":"4","last_reported":1735412776,"current_range_meters":13600,"station_id":"ce4bhk92rcd13ifvqgb0","pricing_plan_id":"cebpf4jnsgd1na2vs0mg"},{"bike_id":"79bec974-776f-4b93-8240-3d7167f0162f","system_id":"levelo_inurba_marseille","lat":43.29269,"lon":5.38451,"is_reserved":false,"is_disabled":false,"rental_uris":{"android":"levelo://app?vid=79bec974-776f-4b93-8240-3d7167f0162f","ios":"levelo://app?vid=79bec974-776f-4b93-8240-3d7167f0162f"},"vehicle_type_id":"4","last_reported":1735412776,"current_range_meters":38800,"station_id":"ce4bh692rcd13ifvqea0","pricing_plan_id":"cebpf4jnsgd1na2vs0mg"},{"bike_id":"fc55ee07-cb79-4880-8466-c9fe9e754cca","system_id":"levelo_inurba_marseille","lat":43.323627,"lon":5.36754,"is_reserved":false,"is_disabled":false,"rental_uris":{"android":"levelo://app?vid=fc55ee07-cb79-4880-8466-c9fe9e754cca","ios":"levelo://app?vid=fc55ee07-cb79-4880-8466-c9fe9e754cca"},"vehicle_type_id":"4","last_reported":1735412776,"current_range_meters":22400,"station_id":"ce4bhsh2rcd13ifvqi2g","pricing_plan_id":"cebpf4jnsgd1na2vs0mg"},{"bike_id":"e8fd08c2-91d6-4da8-8266-6dcde65fb6ff","system_id":"levelo_inurba_marseille","lat":43.311675,"lon":5.387143,"is_reserved":false,"is_disabled":false,"rental_uris":{"android":"levelo://app?vid=e8fd08c2-91d6-4da8-8266-6dcde65fb6ff","ios":"levelo://app?vid=e8fd08c2-91d6-4da8-8266-6dcde65fb6ff"},"vehicle_type_id":"4","last_reported":1735412776,"current_range_meters":31200,"station_id":"ce4bgv12rcd13ifvqcp0","pricing_plan_id":"cebpf4jnsgd1na2vs0mg"},{"bike_id":"4edccd67-e391-4b84-b928-68bed8c241ec","system_id":"levelo_inurba_marseille","lat":43.30606,"lon":5.37216,"is_reserved":false,"is_disabled":false,"rental_uris":{"android":"levelo://app?vid=4edccd67-e391-4b84-b928-68bed8c241ec","ios":"levelo://app?vid=4edccd67-e391-4b84-b928-68bed8c241ec"},"vehicle_type_id":"4","last_reported":1735412776,"current_range_meters":36400,"station_id":"ce4bgqh2rcd13ifvqc4g","pricing_plan_id":"cebpf4jnsgd1na2vs0mg"},{"bike_id":"fd5bffcc-934d-4a5b-abe1-37ba321ae7af","system_id":"levelo_inurba_marseille","lat":43.23063,"lon":5.35479,"is_reserved":false,"is_disabled":false,"rental_uris":{"android":"levelo://app?vid=fd5bffcc-934d-4a5b-abe1-37ba321ae7af","ios":"levelo://app?vid=fd5bffcc-934d-4a5b-abe1-37ba321ae7af"},"vehicle_type_id":"4","last_reported":1735412776,"current_range_meters":38800,"station_id":"cpo3342slgdg3j2ifvpg","pricing_plan_id":"cebpf4jnsgd1na2vs0mg"},{"bike_id":"9248ce34-4465-4f81-972d-f8140318bf9f","system_id":"levelo_inurba_marseille","lat":43.29599,"lon":5.38104,"is_reserved":false,"is_disabled":false,"rental_uris":{"android":"levelo://app?vid=9248ce34-4465-4f81-972d-f8140318bf9f","ios":"levelo://app?vid=9248ce34-4465-4f81-972d-f8140318bf9f"},"vehicle_type_id":"4","last_reported":1735412776,"current_range_meters":14400,"station_id":"ce4bgl12rcd13ifvqbo0","pricing_plan_id":"cebpf4jnsgd1na2vs0mg"},{"bike_id":"ead7e6f0-63bf-4675-9ad3-dca8734b0577","system_id":"levelo_inurba_marseille","lat":43.30152,"lon":5.37415,"is_reserved":false,"is_disabled":false,"rental_uris":{"android":"levelo://app?vid=ead7e6f0-63bf-4675-9ad3-dca8734b0577","ios":"levelo://app?vid=ead7e6f0-63bf-4675-9ad3-dca8734b0577"},"vehicle_type_id":"4","last_reported":1735412776,"current_range_meters":14000,"station_id":"ce4bgs92rcd13ifvqcc0","pricing_plan_id":"cebpf4jnsgd1na2vs0mg"},{"bike_id":"3de2bcfe-e943-4b8d-953a-036f83c44790","system_id":"levelo_inurba_marseille","lat":43.30532,"lon":5.38422,"is_reserved":false,"is_disabled":false,"rental_uris":{"android":"levelo://app?vid=3de2bcfe-e943-4b8d-953a-036f83c44790","ios":"levelo://app?vid=3de2bcfe-e943-4b8d-953a-036f83c44790"},"vehicle_type_id":"4","last_reported":1735412776,"current_range_meters":17600,"station_id":"ce4bgg92rcd13ifvqb30","pricing_plan_id":"cebpf4jnsgd1na2vs0mg"},