{"last_updated":1783349852,"ttl":60,"version":"2.2","data":{"bikes":[{"bike_id":"ba0c28b1-8732-48e2-8079-f25b2b3fbc3c","system_id":"levelo_inurba_marseille","lat":43.337444,"lon":5.374475,"is_reserved":false,"is_disabled":false,"rental_uris":{"android":"levelo://app?vid=ba0c28b1-8732-48e2-8079-f25b2b3fbc3c","ios":"levelo://app?vid=ba0c28b1-8732-48e2-8079-f25b2b3fbc3c"},"vehicle_type_id":"4","last_reported":1783349853,"current_range_meters":0,"station_id":"","pricing_plan_id":"cebpf4jnsgd1na2vs0mg"},{"bike_id":"55acc6c8-5920-4f07-9a18-d15f0e6e949a","system_id":"levelo_inurba_marseille","lat":43.26395,"lon":5.41025,"is_reserved":false,"is_disabled":false,"rental_uris":{"android":"levelo://app?vid=55acc6c8-5920-4f07-9a18-d15f0e6e949a","ios":"levelo://app?vid=55acc6c8-5920-4f07-9a18-d15f0e6e949a"},"vehicle_type_id":"4","last_reported":1783349853,"current_range_meters":2800,"station_id":"","pricing_plan_id":"cebpf4jnsgd1na2vs0mg"},{"bike_id":"c33bac24-7d2b-4184-8c4a-db5ab7b94a68","system_id":"levelo_inurba_marseille","lat":43.254,"lon":5.42778,"is_reserved":false,"is_disabled":false,"rental_uris":{"android":"levelo://app?vid=c33bac24-7d2b-4184-8c4a-db5ab7b94a68","ios":"levelo://app?vid=c33bac24-7d2b-4184-8c4a-db5ab7b94a68"},"vehicle_type_id":"4","last_reported":1783349853,"current_range_meters":2800,"station_id":"","pricing_plan_id":"cebpf4jnsgd1na2vs0mg"},{"bike_id":"5cb8aeb9-7e9d-4fac-9aa1-7f9eea91430d","system_id":"levelo_inurba_marseille","lat":43.23184,"lon":5.3555,"is_reserved":false,"is_disabled":true,"rental_uris":{"android":"levelo://app?vid=5cb8aeb9-7e9d-4fac-9aa1-7f9eea91430d","ios":"levelo://app?vid=5cb8aeb9-7e9d-4fac-9aa1-7f9eea91430d"},"vehicle_type_id":"4","last_reported":1783349853,"current_range_meters":2800,"station_id":"ce4bhu92rcd13ifvqi70","pricing_plan_id":"cebpf4jnsgd1na2vs0mg"},{"bike_id":"1bc69c0e-0bef-4dd0-9c32-f25cac91de35","system_id":"levelo_inurba_marseille","lat":43.26749,"lon":5.37198,"is_reserved":false,"is_disabled":false,"rental_uris":{"android":"levelo://app?vid=1bc69c0e-0bef-4dd0-9c32-f25cac91de35","ios":"levelo://app?vid=1bc69c0e-0bef-4dd0-9c32-f25cac91de35"},"vehicle_type_id":"4","last_reported":1783349853,"current_range_meters":2800,"station_id":"","pricing_plan_id":"cebpf4jnsgd1na2vs0mg"},{"bike_id":"87601c6a-f11e-4999-b138-e85c92822115","system_id":"levelo_inurba_marseille","lat":43.27074,"lon":5.42255,"is_reserved":false,"is_disabled":false,"rental_uris":{"android":"levelo://app?vid=87601c6a-f11e-4999-b138-e85c92822115","ios":"levelo://app?vid=87601c6a-f11e-4999-b138-e85c92822115"},"vehicle_type_id":"4","last_reported":1783349853,"current_range_meters":2800,"station_id":"ce4bhk92rcd13ifvqgb0","pricing_plan_id":"cebpf4jnsgd1na2vs0mg"},{"bike_id":"3892050e-cb6a-457e-90e6-5def440715fd","system_id":"levelo_inurba_marseille","lat":43.28703,"lon":5.4669,"is_reserved":false,"is_disabled":false,"rental_uris":{"android":"levelo://app?vid=3892050e-cb6a-457e-90e6-5def440715fd","ios":"levelo://app?vid=3892050e-cb6a-457e-90e6-5def440715fd"},"vehicle_type_id":"4","last_reported":1783349853,"current_range_meters":2800,"station_id":"st_d6tc3vkotcvc738tfjhg","pricing_plan_id":"cebpf4jnsgd1na2vs0mg"},{"bike_id":"9603cf0e-d7dc-47a9-b9de-98433efec8d3","system_id":"levelo_inurba_marseille","lat":43.26866,"lon":5.38832,"is_reserved":false,"is_disabled":false,"rental_uris":{"android":"levelo://app?vid=9603cf0e-d7dc-47a9-b9de-98433efec8d3","ios":"levelo://app?vid=9603cf0e-d7dc-47a9-b9de-98433efec8d3"},"vehicle_type_id":"4","last_reported":1783349853,"current_range_meters":2800,"station_id":"","pricing_plan_id":"cebpf4jnsgd1na2vs0mg"},{"bike_id":"339bbbfe-6e87-41b8-b3db-810e529addc3","system_id":"levelo_inurba_marseille","lat":43.25938,"lon":5.40858,"is_reserved":false,"is_disabled":false,"rental_uris":{"android":"levelo://app?vid=339bbbfe-6e87-41b8-b3db-810e529addc3","ios":"levelo://app?vid=339bbbfe-6e87-41b8-b3db-810e529addc3"},"vehicle_type_id":"4","last_reported":1783349853,"current_range_meters":2800,"station_id":"ce4bhm92rcd13ifvqglg","pricing_plan_id":"cebpf4jnsgd1na2vs0mg"},{"bike_id":"45449cb1-3633-4069-be1c-2bad1a58051c","system_id":"levelo_inurba_marseille","lat":43.27904,"lon":5.38014,"is_reserved":false,"is_disabled":false,"rental_uris":{"android":"levelo://app?vid=45449cb1-3633-4069-be1c-2bad1a58051c","ios":"levelo://app?vid=45449cb1-3633-4069-be1c-2bad1a58051c"},"vehicle_type_id":"4","last_reported":1783349853,"current_range_meters":2800,"station_id":"ce4bhf92rcd13ifvqf50","pricing_plan_id":"cebpf4jnsgd1na2vs0mg"},{"bike_id":"95840e40-9ac4-4fa1-8df4-084684ba1bc1","system_id":"levelo_inurba_marseille","lat":43.30217,"lon":5.39457,"is_reserved":false,"is_disabled":false,"rental_uris":{"android":"levelo://app?vid=95840e40-9ac4-4fa1-8df4-084684ba1bc1","ios":"levelo://app?vid=95840e40-9ac4-4fa1-8df4-084684ba1bc1"},"vehicle_type_id":"4","last_reported":1783349853,"current_range_meters":2800,"station_id":"ce4bh0p2rcd13ifvqd70","pricing_plan_id":"cebpf4jnsgd1na2vs0mg"},{"bike_id":"d37ca474-5428-4e03-992a-c92f0837b0ce","system_id":"levelo_inurba_marseille","lat":43.29533,"lon":5.37498,"is_reserved":false,"is_disabled":false,"rental_uris":{"android":"levelo://app?vid=d37ca474-5428-4e03-992a-c92f0837b0ce","ios":"levelo://app?vid=d37ca474-5428-4e03-992a-c92f0837b0ce"},"vehicle_type_id":"4","last_reported":1783349853,"current_range_meters":3200,"station_id":"ce4bgkp2rcd13ifvqbmg","pricing_plan_id":"cebpf4jnsgd1na2vs0mg"},{"bike_id":"7d202f79-9d14-44bf-a94d-b22548ec4eef","system_id":"levelo_inurba_marseille","lat":43.28615,"lon":5.3511,"is_reserved":false,"is_disabled":false,"rental_uris":{"android":"levelo://app?vid=7d202f79-9d14-44bf-a94d-b22548ec4eef","ios":"levelo://app?vid=7d202f79-9d14-44bf-a94d-b22548ec4eef"},"vehicle_type_id":"4","last_reported":1783349853,"current_range_meters":3200,"station_id":"ce4bhch2rcd13ifvqeug","pricing_plan_id":"cebpf4jnsgd1na2vs0mg"},{"bike_id":"2d3dd4f4-c2be-4315-be3d-f35763bc2c71","system_id":"levelo_inurba_marseille","lat":43.26699,"lon":5.40209,"is_reserved":false,"is_disabled":false,"rental_uris":{"android":"levelo://app?vid=2d3dd4f4-c2be-4315-be3d-f35763bc2c71","ios":"levelo://app?vid=2d3dd4f4-c2be-4315-be3d-f35763bc2c71"},"vehicle_type_id":"4","last_reported":1783349853,"current_range_meters":3200,"station_id":"","pricing_plan_id":"cebpf4jnsgd1na2vs0mg"},{"bike_id":"5b83d9ab-6982-47fc-8f0d-7be955af82b3","system_id":"levelo_inurba_marseille","lat":43.29026,"lon":5.3996,"is_reserved":false,"is_disabled":false,"rental_uris":{"android":"levelo://app?vid=5b83d9ab-6982-47fc-8f0d-7be955af82b3","ios":"levelo://app?vid=5b83d9ab-6982-47fc-8f0d-7be955af82b3"},"vehicle_type_id":"4","last_reported":1783349853,"current_range_meters":3200,"station_id":"ce4bh392rcd13ifvqdm0","pricing_plan_id":"cebpf4jnsgd1na2vs0mg"},{"bike_id":"b99fa2fa-6caa-4e97-a941-8427d6ff2309","system_id":"levelo_inurba_marseille","lat":43.2623,"lon":5.38773,"is_reserved":false,"is_disabled":true,"rental_uris":{"android":"levelo://app?vid=b99fa2fa-6caa-4e97-a941-8427d6ff2309","ios":"levelo://app?vid=b99fa2fa-6caa-4e97-a941-8427d6ff2309"},"vehicle_type_id":"4","last_reported":1783349853,"current_range_meters":3200,"station_id":"st_d8gjfg747rts73coq3b0","pricing_plan_id":"cebpf4jnsgd1na2vs0mg"},{"bike_id":"defe664f-116a-400b-aa68-5aba6647b941","system_id":"levelo_inurba_marseille","lat":43.2929,"lon":5.44567,"is_reserved":false,"is_disabled":false,"rental_uris":{"android":"levelo://app?vid=defe664f-116a-400b-aa68-5aba6647b941","ios":"levelo://app?vid=defe664f-116a-400b-aa68-5aba6647b941"},"vehicle_type_id":"4","last_reported":1783349853,"current_range_meters":3200,"station_id":"","pricing_plan_id":"cebpf4jnsgd1na2vs0mg"},{"bike_id":"66f64495-157d-434d-a3ef-5a17f45e04e3","system_id":"levelo_inurba_marseille","lat":43.24156,"lon":5.40926,"is_reserved":false,"is_disabled":false,"rental_uris":{"android":"levelo://app?vid=66f64495-157d-434d-a3ef-5a17f45e04e3","ios":"levelo://app?vid=66f64495-157d-434d-a3ef-5a17f45e04e3"},"vehicle_type_id":"4","last_reported":1783349853,"current_range_meters":3200,"station_id":"","pricing_plan_id":"cebpf4jnsgd1na2vs0mg"},{"bike_id":"a12a4f83-c050-4064-a9cd-bf7775a31f2f","system_id":"levelo_inurba_marseille","lat":43.24678,"lon":5.3815,"is_reserved":false,"is_disabled":true,"rental_uris":{"android":"levelo://app?vid=a12a4f83-c050-4064-a9cd-bf7775a31f2f","ios":"levelo://app?vid=a12a4f83-c050-4064-a9cd-bf7775a31f2f"},"vehicle_type_id":"4","last_reported":1783349853,"current_range_meters":3200,"station_id":"ce4bhih2rcd13ifvqfr0","pricing_plan_id":"cebpf4jnsgd1na2vs0mg"},{"bike_id":"9196ec85-dde9-4813-b978-793bfb2c8103","system_id":"levelo_inurba_marseille","lat":43.26668,"lon":5.38288,"is_reserved":false,"is_disabled":false,"rental_uris":{"android":"levelo://app?vid=9196ec85-dde9-4813-b978-793bfb2c8103","ios":"levelo://app?vid=9196ec85-dde9-4813-b978-793bfb2c8103"},"vehicle_type_id":"4","last_reported":1783349853,"current_range_meters":3200,"station_id":"ce4bhg92rcd13ifvqf90","pricing_plan_id":"cebpf4jnsgd1na2vs0mg"},{"bike_id":"c4621419-7dad-49ea-a5a9-f420fa23bb92","system_id":"levelo_inurba_marseille","lat":43.295317,"lon":5.385564,"is_reserved":false,"is_disabled":false,"rental_uris":{"android":"levelo://app?vid=c4621419-7dad-49ea-a5a9-f420fa23bb92","ios":"levelo://app?vid=c4621419-7dad-49ea-a5a9-f420fa23bb92"},"vehicle_type_id":"4","last_reported":1783349853,"current_range_meters":3200,"station_id":"ce4bgih2rcd13ifvqba0","pricing_plan_id":"cebpf4jnsgd1na2vs0mg"},{"bike_id":"b05b5418-4f72-4f77-a0b9-f4c3869e90ce","system_id":"levelo_inurba_marseille","lat":43.29799,"lon":5.39354,"is_reserved":false,"is_disabled":false,"rental_uris":{"android":"levelo://app?vid=b05b5418-4f72-4f77-a0b9-f4c3869e90ce","ios":"levelo://app?vid=b05b5418-4f72-4f77-a0b9-f4c3869e90ce"},"vehicle_type_id":"4","last_reported":1783349853,"current_range_meters":3600,"station_id":"chh1huq6cuj3fo74tm60","pricing_plan_id":"cebpf4jnsgd1na2vs0mg"},{"bike_id":"6e28c7de-4432-46c6-8824-5a05812aca65","system_id":"levelo_inurba_marseille","lat":43.22534,"lon":5.3483,"is_reserved":false,"is_disabled":true,"rental_uris":{"android":"levelo://app?vid=6e28c7de-4432-46c6-8824-5a05812aca65","ios":"levelo://app?vid=6e28c7de-4432-46c6-8824-5a05812aca65"},"vehicle_type_id":"4","last_reported":1783349853,"current_range_meters":3600,"station_id":"st_cvj5dfep6f1abm77gieg","pricing_plan_id":"cebpf4jnsgd1na2vs0mg"},{"bike_id":"75fd40b8-a4a5-47d9-990d-1648fc7796ff","system_id":"levelo_inurba_marseille","lat":43.29531,"lon":5.38534,"is_reserved":false,"is_disabled":false,"rental_uris":{"android":"levelo://app?vid=75fd40b8-a4a5-47d9-990d-1648fc7796ff","ios":"levelo://app?vid=75fd40b8-a4a5-47d9-990d-1648fc7796ff"},"vehicle_type_id":"4","last_reported":1783349853,"current_range_meters":3600,"station_id":"ce4bgih2rcd13ifvqba0","pricing_plan_id":"cebpf4jnsgd1na2vs0mg"},{"bike_id":"3fcf6205-f23c-4cee-8363-04389955351d","system_id":"levelo_inurba_marseille","lat":43.22566,"lon":5.41647,"is_reserved":false,"is_disabled":true,"rental_uris":{"android":"levelo://app?vid=3fcf6205-f23c-4cee-8363-04389955351d","ios":"levelo://app?vid=3fcf6205-f23c-4cee-8363-04389955351d"},"vehicle_type_id":"4","last_reported":1783349853,"current_range_meters":3600,"station_id":"st_d2o4gvlbi1j2169b742g","pricing_plan_id":"cebpf4jnsgd1na2vs0mg"},{"bike_id":"1e8a92bc-52ff-4a2f-b6aa-b6d8a87e9493","system_id":"levelo_inurba_marseille","lat":43.25827,"lon":5.39421,"is_reserved":false,"is_disabled":false,"rental_uris":{"android":"levelo://app?vid=1e8a92bc-52ff-4a2f-b6aa-b6d8a87e9493","ios":"levelo://app?vid=1e8a92bc-52ff-4a2f-b6aa-b6d8a87e9493"},"vehicle_type_id":"4","last_reported":1783349853,"current_range_meters":3600,"station_id":"ce4bhip2rcd13ifvqft0","pricing_plan_id":"cebpf4jnsgd1na2vs0mg"},{"bike_id":"f48150ab-bbf7-4a6a-97b8-0a23502e3f9b","system_id":"levelo_inurba_marseille","lat":43.25857,"lon":5.39916,"is_reserved":false,"is_disabled":false,"rental_uris":{"android":"levelo://app?vid=f48150ab-bbf7-4a6a-97b8-0a23502e3f9b","ios":"levelo://app?vid=f48150ab-bbf7-4a6a-97b8-0a23502e3f9b"},"vehicle_type_id":"4","last_reported":1783349853,"current_range_meters":3600,"station_id":"ce4bhl92rcd13ifvqghg","pricing_plan_id":"cebpf4jnsgd1na2vs0mg"},{"bike_id":"4a6418a3-0748-47f9-811e-aee989df84fd","system_id":"levelo_inurba_marseille","lat":43.23151,"lon":5.4372,"is_reserved":false,"is_disabled":false,"rental_uris":{"android":"levelo://app?vid=4a6418a3-0748-47f9-811e-aee989df84fd","ios":"levelo://app?vid=4a6418a3-0748-47f9-811e-aee989df84fd"},"vehicle_type_id":"4","last_reported":1783349853,"current_range_meters":3600,"station_id":"ce4bhmp2rcd13ifvqgog","pricing_plan_id":"cebpf4jnsgd1na2vs0mg"},{"bike_id":"529f8fba-360a-47ff-85eb-2ba99d6f3798","system_id":"levelo_inurba_marseille","lat":43.27326,"lon":5.3909,"is_reserved":false,"is_disabled":false,"rental_uris":{"android":"levelo://app?vid=529f8fba-360a-47ff-85eb-2ba99d6f3798","ios":"levelo://app?vid=529f8fba-360a-47ff-85eb-2ba99d6f3798"},"vehicle_type_id":"4","last_reported":1783349853,"current_range_meters":3600,"station_id":"ce4bhgp2rcd13ifvqfe0","pricing_plan_id":"cebpf4jnsgd1na2vs0mg"},{"bike_id":"768a8573-85d4-4f0a-b45d-98a6f983d0ea","system_id":"levelo_inurba_marseille","lat":43.2874,"lon":5.35212,"is_reserved":false,"is_disabled":false,"rental_uris":{"android":"levelo://app?vid=768a8573-85d4-4f0a-b45d-98a6f983d0ea","ios":"levelo://app?vid=768a8573-85d4-4f0a-b45d-98a6f983d0ea"},"vehicle_type_id":"4","last_reported":1783349853,"current_range_meters":3600,"station_id":"","pricing_plan_id":"cebpf4jnsgd1na2vs0mg"},{"bike_id":"cb0a827c-c917-43be-9ac8-96e48091dd62","system_id":"levelo_inurba_marseille","lat":43.26193,"lon":5.37924,"is_reserved":false,"is_disabled":false,"rental_uris":{"android":"levelo://app?vid=cb0a827c-c917-43be-9ac8-96e48091dd62","ios":"levelo://app?vid=cb0a827c-c917-43be-9ac8-96e48091dd62"},"vehicle_type_id":"4","last_reported":1783349853,"current_range_meters":3600,"station_id":"ce4bhjp2rcd13ifvqg90","pricing_plan_id":"cebpf4jnsgd1na2vs0mg"},{"bike_id":"22cef0e8-c9c8-4b4f-8d17-11ff2f978813","system_id":"levelo_inurba_marseille","lat":43.26225,"lon":5.38769,"is_reserved":false,"is_disabled":false,"rental_uris":{"android":"levelo://app?vid=22cef0e8-c9c8-4b4f-8d17-11ff2f978813","ios":"levelo://app?vid=22cef0e8-c9c8-4b4f-8d17-11ff2f978813"},"vehicle_type_id":"4","last_reported":1783349853,"current_range_meters":3600,"station_id":"st_d8gjfg747rts73coq3b0","pricing_plan_id":"cebpf4jnsgd1na2vs0mg"},{"bike_id":"030265b2-4dd1-44f4-b998-e3903e3adbf1","system_id":"levelo_inurba_marseille","lat":43.28602,"lon":5.37072,"is_reserved":false,"is_disabled":true,"rental_uris":{"android":"levelo://app?vid=030265b2-4dd1-44f4-b998-e3903e3adbf1","ios":"levelo://app?vid=030265b2-4dd1-44f4-b998-e3903e3adbf1"},"vehicle_type_id":"4","last_reported":1783349853,"current_range_meters":3600,"station_id":"ce4bht12rcd13ifvqi60","pricing_plan_id":"cebpf4jnsgd1na2vs0mg"},{"bike_id":"49566762-526b-418a-84e0-7a72cc5aa517","system_id":"levelo_inurba_marseille","lat":43.3021,"lon":5.39474,"is_reserved":false,"is_disabled":false,"rental_uris":{"android":"levelo://app?vid=49566762-526b-418a-84e0-7a72cc5aa517","ios":"levelo://app?vid=49566762-526b-418a-84e0-7a72cc5aa517"},"vehicle_type_id":"4","last_reported":1783349853,"current_range_meters":3600,"station_id":"ce4bh0p2rcd13ifvqd70","pricing_plan_id":"cebpf4jnsgd1na2vs0mg"},{"bike_id":"9aad7fb2-4b68-4ff1-a63e-5832ca4f6501","system_id":"levelo_inurba_marseille","lat":43.26942,"lon":5.38492,"is_reserved":false,"is_disabled":false,"rental_uris":{"android":"levelo://app?vid=9aad7fb2-4b68-4ff1-a63e-5832ca4f6501","ios":"levelo://app?vid=9aad7fb2-4b68-4ff1-a63e-5832ca4f6501"},"vehicle_type_id":"4","last_reported":1783349853,"current_range_meters":3600,"station_id":"","pricing_plan_id":"cebpf4jnsgd1na2vs0mg"},{"bike_id":"80e3d657-c8a6-409e-b66f-a81ed44d5ec6","system_id":"levelo_inurba_marseille","lat":43.3137,"lon":5.3848,"is_reserved":false,"is_disabled":false,"rental_uris":{"android":"levelo://app?vid=80e3d657-c8a6-409e-b66f-a81ed44d5ec6","ios":"levelo://app?vid=80e3d657-c8a6-409e-b66f-a81ed44d5ec6"},"vehicle_type_id":"4","last_reported":1783349853,"current_range_meters":3600,"station_id":"ce4bgt92rcd13ifvqcf0","pricing_plan_id":"cebpf4jnsgd1na2vs0mg"},{"bike_id":"f7826c83-beb8-416f-bc97-d9c1cfbddb0b","system_id":"levelo_inurba_marseille","lat":43.25158,"lon":5.40469,"is_reserved":false,"is_disabled":false,"rental_uris":{"android":"levelo://app?vid=f7826c83-beb8-416f-bc97-d9c1cfbddb0b","ios":"levelo://app?vid=f7826c83-beb8-416f-bc97-d9c1cfbddb0b"},"vehicle_type_id":"4","last_reported":1783349853,"current_range_meters":3600,"station_id":"","pricing_plan_id":"cebpf4jnsgd1na2vs0mg"},{"bike_id":"5a8a187c-c100-434f-9174-be8b11510bc4","system_id":"levelo_inurba_marseille","lat":43.27418,"lon":5.3942,"is_reserved":false,"is_disabled":false,"rental_uris":{"android":"levelo://app?vid=5a8a187c-c100-434f-9174-be8b11510bc4","ios":"levelo://app?vid=5a8a187c-c100-434f-9174-be8b11510bc4"},"vehicle_type_id":"4","last_reported":1783349853,"current_range_meters":4000,"station_id":"ce4bhdp2rcd13ifvqf20","pricing_plan_id":"cebpf4jnsgd1na2vs0mg"},{"bike_id":"7c607609-fa27-48f7-9952-f4b29e136485","system_id":"levelo_inurba_marseille","lat":43.30538,"lon":5.36534,"is_reserved":false,"is_disabled":false,"rental_uris":{"android":"levelo://app?vid=7c607609-fa27-48f7-9952-f4b29e136485","ios":"levelo://app?vid=7c607609-fa27-48f7-9952-f4b29e136485"},"vehicle_type_id":"4","last_reported":1783349853,"current_range_meters":4000,"station_id":"ce4bgs12rcd13ifvqcag","pricing_plan_id":"cebpf4jnsgd1na2vs0mg"},{"bike_id":"f5862b25-8b9f-4511-934a-30eb2d62b473","system_id":"levelo_inurba_marseille","lat":43.23757,"lon":5.36194,"is_reserved":false,"is_disabled":false,"rental_uris":{"android":"levelo://app?vid=f5862b25-8b9f-4511-934a-30eb2d62b473","ios":"levelo://app?vid=f5862b25-8b9f-4511-934a-30eb2d62b473"},"vehicle_type_id":"4","last_reported":1783349853,"current_range_meters":4000,"station_id":"","pricing_plan_id":"cebpf4jnsgd1na2vs0mg"},{"bike_id":"0a0f04d2-8c2b-484b-836b-2f76e8eed297","system_id":"levelo_inurba_marseille","lat":43.28692,"lon":5.46688,"is_reserved":false,"is_disabled":false,"rental_uris":{"android":"levelo://app?vid=0a0f04d2-8c2b-484b-836b-2f76e8eed297","ios":"levelo://app?vid=0a0f04d2-8c2b-484b-836b-2f76e8eed297"},"vehicle_type_id":"4","last_reported":1783349853,"current_range_meters":4000,"station_id":"st_d6tc3vkotcvc738tfjhg","pricing_plan_id":"cebpf4jnsgd1na2vs0mg"},{"bike_id":"d62a5f06-a4d3-43f1-8950-c438f1f04a18","system_id":"levelo_inurba_marseille","lat":43.27483,"lon":5.40531,"is_reserved":false,"is_disabled":false,"rental_uris":{"android":"levelo://app?vid=d62a5f06-a4d3-43f1-8950-c438f1f04a18","ios":"levelo://app?vid=d62a5f06-a4d3-43f1-8950-c438f1f04a18"},"vehicle_type_id":"4","last_reported":1783349853,"current_range_meters":4000,"station_id":"","pricing_plan_id":"cebpf4jnsgd1na2vs0mg"},{"bike_id":"11ab4e40-d38d-42fd-b65a-1ee6253477a9","system_id":"levelo_inurba_marseille","lat":43.27404,"lon":5.393894,"is_reserved":false,"is_disabled":false,"rental_uris":{"android":"levelo://app?vid=11ab4e40-d38d-42fd-b65a-1ee6253477a9","ios":"levelo://app?vid=11ab4e40-d38d-42fd-b65a-1ee6253477a9"},"vehicle_type_id":"4","last_reported":1783349853,"current_range_meters":4000,"station_id":"ce4bhdp2rcd13ifvqf20","pricing_plan_id":"cebpf4jnsgd1na2vs0mg"},{"bike_id":"7a71c416-c3b5-4289-ad0e-531bcb18f06d","system_id":"levelo_inurba_marseille","lat":43.33225,"lon":5.37971,"is_reserved":false,"is_disabled":false,"rental_uris":{"android":"levelo://app?vid=7a71c416-c3b5-4289-ad0e-531bcb18f06d","ios":"levelo://app?vid=7a71c416-c3b5-4289-ad0e-531bcb18f06d"},"vehicle_type_id":"4","last_reported":1783349853,"current_range_meters":4000,"station_id":"","pricing_plan_id":"cebpf4jnsgd1na2vs0mg"},{"bike_id":"ebb69cdb-f57c-486a-9d37-3814132e26e5","system_id":"levelo_inurba_marseille","lat":43.28043,"lon":5.36957,"is_reserved":false,"is_disabled":true,"rental_uris":{"android":"levelo://app?vid=ebb69cdb-f57c-486a-9d37-3814132e26e5","ios":"levelo://app?vid=ebb69cdb-f57c-486a-9d37-3814132e26e5"},"vehicle_type_id":"4","last_reported":1783349853,"current_range_meters":4000,"station_id":"ce4bha12rcd13ifvqef0","pricing_plan_id":"cebpf4jnsgd1na2vs0mg"},{"bike_id":"d542e80b-c621-4744-a175-6c723a1aa866","system_id":"levelo_inurba_marseille","lat":43.29306,"lon":5.44545,"is_reserved":false,"is_disabled":false,"rental_uris":{"android":"levelo://app?vid=d542e80b-c621-4744-a175-6c723a1aa866","ios":"levelo://app?vid=d542e80b-c621-4744-a175-6c723a1aa866"},"vehicle_type_id":"4","last_reported":1783349853,"current_range_meters":4000,"station_id":"","pricing_plan_id":"cebpf4jnsgd1na2vs0mg"},{"bike_id":"c9445652-b236-402b-8ec1-fb5567a22b0f","system_id":"levelo_inurba_marseille","lat":43.24456,"lon":5.40943,"is_reserved":false,"is_disabled":false,"rental_uris":{"android":"levelo://app?vid=c9445652-b236-402b-8ec1-fb5567a22b0f","ios":"levelo://app?vid=c9445652-b236-402b-8ec1-fb5567a22b0f"},"vehicle_type_id":"4","last_reported":1783349853,"current_range_meters":4000,"station_id":"","pricing_plan_id":"cebpf4jnsgd1na2vs0mg"},{"bike_id":"acb6b183-d4d6-4d8e-974e-924b61f91a80","system_id":"levelo_inurba_marseille","lat":43.34407,"lon":5.42047,"is_reserved":false,"is_disabled":false,"rental_uris":{"android":"levelo://app?vid=acb6b183-d4d6-4d8e-974e-924b61f91a80","ios":"levelo://app?vid=acb6b183-d4d6-4d8e-974e-924b61f91a80"},"vehicle_type_id":"4","last_reported":1783349853,"current_range_meters":4000,"station_id":"","pricing_plan_id":"cebpf4jnsgd1na2vs0mg"},{"bike_id":"fc5d7b22-bed1-4640-a4b2-9379b1406486","system_id":"levelo_inurba_marseille","lat":43.29428,"lon":5.38431,"is_reserved":false,"is_disabled":true,"rental_uris":{"android":"levelo://app?vid=fc5d7b22-bed1-4640-a4b2-9379b1406486","ios":"levelo://app?vid=fc5d7b22-bed1-4640-a4b2-9379b1406486"},"vehicle_type_id":"4","last_reported":1783349853,"current_range_meters":4000,"station_id":"","pricing_plan_id":"cebpf4jnsgd1na2vs0mg"},{"bike_id":"b58d7813-ef6c-476b-abd4-3ce1491500c2","system_id":"levelo_inurba_marseille","lat":43.33171,"lon":5.41336,"is_reserved":false,"is_disabled":false,"rental_uris":{"android":"levelo://app?vid=b58d7813-ef6c-476b-abd4-3ce1491500c2","ios":"levelo://app?vid=b58d7813-ef6c-476b-abd4-3ce1491500c2"},"vehicle_type_id":"4","last_reported":1783349853,"current_range_meters":4000,"station_id":"","pricing_plan_id":"cebpf4jnsgd1na2vs0mg"},{"bike_id":"73f593f8-96aa-4777-86db-c509c955768a","system_id":"levelo_inurba_marseille","lat":43.3172,"lon":5.42403,"is_reserved":false,"is_disabled":false,"rental_uris":{"android":"levelo://app?vid=73f593f8-96aa-4777-86db-c509c955768a","ios":"levelo://app?vid=73f593f8-96aa-4777-86db-c509c955768a"},"vehicle_type_id":"4","last_reported":1783349853,"current_range_meters":4000,"station_id":"ce4bhp92rcd13ifvqhbg","pricing_plan_id":"cebpf4jnsgd1na2vs0mg"},{"bike_id":"b00b4e80-ca3d-4b70-95a2-fff2e239e3a4","system_id":"levelo_inurba_marseille","lat":43.31116,"lon":5.37783,"is_reserved":false,"is_disabled":false,"rental_uris":{"android":"levelo://app?vid=b00b4e80-ca3d-4b70-95a2-fff2e239e3a4","ios":"levelo://app?vid=b00b4e80-ca3d-4b70-95a2-fff2e239e3a4"},"vehicle_type_id":"4","last_reported":1783349853,"current_range_meters":4000,"station_id":"ce4bgt92rcd13ifvqcg0","pricing_plan_id":"cebpf4jnsgd1na2vs0mg"},{"bike_id":"e7773203-f5ac-45ca-9e57-a13cef4ba0bd","system_id":"levelo_inurba_marseille","lat":43.28262,"lon":5.35073,"is_reserved":false,"is_disabled":false,"rental_uris":{"android":"levelo://app?vid=e7773203-f5ac-45ca-9e57-a13cef4ba0bd","ios":"levelo://app?vid=e7773203-f5ac-45ca-9e57-a13cef4ba0bd"},"vehicle_type_id":"4","last_reported":1783349853,"current_range_meters":4000,"station_id":"ce4bhbp2rcd13ifvqerg","pricing_plan_id":"cebpf4jnsgd1na2vs0mg"},{"bike_id":"5fb37b7f-53e2-4b0b-8af8-a5bb145efe61","system_id":"levelo_inurba_marseille","lat":43.29973,"lon":5.384872,"is_reserved":false,"is_disabled":false,"rental_uris":{"android":"levelo://app?vid=5fb37b7f-53e2-4b0b-8af8-a5bb145efe61","ios":"levelo://app?vid=5fb37b7f-53e2-4b0b-8af8-a5bb145efe61"},"vehicle_type_id":"4","last_reported":1783349853,"current_range_meters":4000,"station_id":"ce4bhb12rcd13ifvqel0","pricing_plan_id":"cebpf4jnsgd1na2vs0mg"},{"bike_id":"19914a48-7974-4b8e-b8a2-de423df83549","system_id":"levelo_inurba_marseille","lat":43.28704,"lon":5.46685,"is_reserved":false,"is_disabled":false,"rental_uris":{"android":"levelo://app?vid=19914a48-7974-4b8e-b8a2-de423df83549","ios":"levelo://app?vid=19914a48-7974-4b8e-b8a2-de423df83549"},"vehicle_type_id":"4","last_reported":1783349853,"current_range_meters":4400,"station_id":"st_d6tc3vkotcvc738tfjhg","pricing_plan_id":"cebpf4jnsgd1na2vs0mg"},{"bike_id":"1d99ff76-c5ac-41d3-a5ac-32c5927c4f7d","system_id":"levelo_inurba_marseille","lat":43.27681,"lon":5.38862,"is_reserved":false,"is_disabled":false,"rental_uris":{"android":"levelo://app?vid=1d99ff76-c5ac-41d3-a5ac-32c5927c4f7d","ios":"levelo://app?vid=1d99ff76-c5ac-41d3-a5ac-32c5927c4f7d"},"vehicle_type_id":"4","last_reported":1783349853,"current_range_meters":4400,"station_id":"ce4bhi12rcd13ifvqfo0","pricing_plan_id":"cebpf4jnsgd1na2vs0mg"},{"bike_id":"54c69063-9131-466c-867c-ae9ff04c7411","system_id":"levelo_inurba_marseille","lat":43.302,"lon":5.39463,"is_reserved":false,"is_disabled":true,"rental_uris":{"android":"levelo://app?vid=54c69063-9131-466c-867c-ae9ff04c7411","ios":"levelo://app?vid=54c69063-9131-466c-867c-ae9ff04c7411"},"vehicle_type_id":"4","last_reported":1783349853,"current_range_meters":4400,"station_id":"ce4bh0p2rcd13ifvqd70","pricing_plan_id":"cebpf4jnsgd1na2vs0mg"},{"bike_id":"138e49e7-8d22-4832-895c-d97d918d2d72","system_id":"levelo_inurba_marseille","lat":43.2783,"lon":5.36449,"is_reserved":false,"is_disabled":false,"rental_uris":{"android":"levelo://app?vid=138e49e7-8d22-4832-895c-d97d918d2d72","ios":"levelo://app?vid=138e49e7-8d22-4832-895c-d97d918d2d72"},"vehicle_type_id":"4","last_reported":1783349853,"current_range_meters":4400,"station_id":"","pricing_plan_id":"cebpf4jnsgd1na2vs0mg"},{"bike_id":"4d52a61b-5c30-41df-a6ac-71b42f016aed","system_id":"levelo_inurba_marseille","lat":43.25849,"lon":5.3993,"is_reserved":false,"is_disabled":true,"rental_uris":{"android":"levelo://app?vid=4d52a61b-5c30-41df-a6ac-71b42f016aed","ios":"levelo://app?vid=4d52a61b-5c30-41df-a6ac-71b42f016aed"},"vehicle_type_id":"4","last_reported":1783349853,"current_range_meters":4400,"station_id":"ce4bhl92rcd13ifvqghg","pricing_plan_id":"cebpf4jnsgd1na2vs0mg"},{"bike_id":"e40f7e4d-aee3-4c7e-9ab5-4a739fc7a822","system_id":"levelo_inurba_marseille","lat":43.25132,"lon":5.40306,"is_reserved":false,"is_disabled":false,"rental_uris":{"android":"levelo://app?vid=e40f7e4d-aee3-4c7e-9ab5-4a739fc7a822","ios":"levelo://app?vid=e40f7e4d-aee3-4c7e-9ab5-4a739fc7a822"},"vehicle_type_id":"4","last_reported":1783349853,"current_range_meters":4400,"station_id":"ce4bhlh2rcd13ifvqgig","pricing_plan_id":"cebpf4jnsgd1na2vs0mg"},{"bike_id":"6f7a01a8-ee4c-4eed-b676-8bb956e41341","system_id":"levelo_inurba_marseille","lat":43.28973,"lon":5.42475,"is_reserved":false,"is_disabled":false,"rental_uris":{"android":"levelo://app?vid=6f7a01a8-ee4c-4eed-b676-8bb956e41341","ios":"levelo://app?vid=6f7a01a8-ee4c-4eed-b676-8bb956e41341"},"vehicle_type_id":"4","last_reported":1783349853,"current_range_meters":4400,"station_id":"","pricing_plan_id":"cebpf4jnsgd1na2vs0mg"},{"bike_id":"c1c88b11-92f5-437b-85af-b745aa920b32","system_id":"levelo_inurba_marseille","lat":43.26687,"lon":5.38733,"is_reserved":false,"is_disabled":false,"rental_uris":{"android":"levelo://app?vid=c1c88b11-92f5-437b-85af-b745aa920b32","ios":"levelo://app?vid=c1c88b11-92f5-437b-85af-b745aa920b32"},"vehicle_type_id":"4","last_reported":1783349853,"current_range_meters":4400,"station_id":"","pricing_plan_id":"cebpf4jnsgd1na2vs0mg"},{"bike_id":"4ee984c7-9ea7-4d65-b004-0965f9c95932","system_id":"levelo_inurba_marseille","lat":43.23791,"lon":5.36651,"is_reserved":false,"is_disabled":false,"rental_uris":{"android":"levelo://app?vid=4ee984c7-9ea7-4d65-b004-0965f9c95932","ios":"levelo://app?vid=4ee984c7-9ea7-4d65-b004-0965f9c95932"},"vehicle_type_id":"4","last_reported":1783349853,"current_range_meters":4800,"station_id":"st_d3nk18o9ro0c73en2l3g","pricing_plan_id":"cebpf4jnsgd1na2vs0mg"},{"bike_id":"3e6c6bce-5072-4983-bf29-cb65bad52ecf","system_id":"levelo_inurba_marseille","lat":43.2816,"lon":5.42649,"is_reserved":false,"is_disabled":false,"rental_uris":{"android":"levelo://app?vid=3e6c6bce-5072-4983-bf29-cb65bad52ecf","ios":"levelo://app?vid=3e6c6bce-5072-4983-bf29-cb65bad52ecf"},"vehicle_type_id":"4","last_reported":1783349853,"current_range_meters":4800,"station_id":"ce4bhnh2rcd13ifvqgug","pricing_plan_id":"cebpf4jnsgd1na2vs0mg"},{"bike_id":"4a08a9a1-1143-4202-92af-f2bf0379fe84","system_id":"levelo_inurba_marseille","lat":43.28513,"lon":5.35363,"is_reserved":false,"is_disabled":false,"rental_uris":{"android":"levelo://app?vid=4a08a9a1-1143-4202-92af-f2bf0379fe84","ios":"levelo://app?vid=4a08a9a1-1143-4202-92af-f2bf0379fe84"},"vehicle_type_id":"4","last_reported":1783349853,"current_range_meters":4800,"station_id":"","pricing_plan_id":"cebpf4jnsgd1na2vs0mg"},{"bike_id":"4067378f-3132-4c98-bd9d-b2f89326751e","system_id":"levelo_inurba_marseille","lat":43.29033,"lon":5.3757,"is_reserved":false,"is_disabled":false,"rental_uris":{"android":"levelo://app?vid=4067378f-3132-4c98-bd9d-b2f89326751e","ios":"levelo://app?vid=4067378f-3132-4c98-bd9d-b2f89326751e"},"vehicle_type_id":"4","last_reported":1783349853,"current_range_meters":4800,"station_id":"ce4bh692rcd13ifvqe90","pricing_plan_id":"cebpf4jnsgd1na2vs0mg"},{"bike_id":"85375d55-e0d1-447d-809b-18247820754d","system_id":"levelo_inurba_marseille","lat":43.28918,"lon":5.48154,"is_reserved":false,"is_disabled":false,"rental_uris":{"android":"levelo://app?vid=85375d55-e0d1-447d-809b-18247820754d","ios":"levelo://app?vid=85375d55-e0d1-447d-809b-18247820754d"},"vehicle_type_id":"4","last_reported":1783349853,"current_range_meters":4800,"station_id":"","pricing_plan_id":"cebpf4jnsgd1na2vs0mg"},{"bike_id":"db8a891d-01a8-477c-86bb-61f9ddbc2ad3","system_id":"levelo_inurba_marseille","lat":43.24945,"lon":5.40501,"is_reserved":false,"is_disabled":false,"rental_uris":{"android":"levelo://app?vid=db8a891d-01a8-477c-86bb-61f9ddbc2ad3","ios":"levelo://app?vid=db8a891d-01a8-477c-86bb-61f9ddbc2ad3"},"vehicle_type_id":"4","last_reported":1783349853,"current_range_meters":4800,"station_id":"st_d2ngiaodas8pm72gd1h0","pricing_plan_id":"cebpf4jnsgd1na2vs0mg"},{"bike_id":"d5a4aa2d-cb43-47d6-af76-dda19b880491","system_id":"levelo_inurba_marseille","lat":43.28473,"lon":5.48399,"is_reserved":false,"is_disabled":false,"rental_uris":{"android":"levelo://app?vid=d5a4aa2d-cb43-47d6-af76-dda19b880491","ios":"levelo://app?vid=d5a4aa2d-cb43-47d6-af76-dda19b880491"},"vehicle_type_id":"4","last_reported":1783349853,"current_range_meters":4800,"station_id":"st_d3svhcjqgbts73a3dn0g","pricing_plan_id":"cebpf4jnsgd1na2vs0mg"},{"bike_id":"49ab2764-f571-4f43-8b96-23d3b0325d1b","system_id":"levelo_inurba_marseille","lat":43.25371,"lon":5.38207,"is_reserved":false,"is_disabled":false,"rental_uris":{"android":"levelo://app?vid=49ab2764-f571-4f43-8b96-23d3b0325d1b","ios":"levelo://app?vid=49ab2764-f571-4f43-8b96-23d3b0325d1b"},"vehicle_type_id":"4","last_reported":1783349853,"current_range_meters":4800,"station_id":"","pricing_plan_id":"cebpf4jnsgd1na2vs0mg"},{"bike_id":"2d5a3918-eeb6-499c-b19f-16bcaa9b8e90","system_id":"levelo_inurba_marseille","lat":43.25858,"lon":5.3937,"is_reserved":false,"is_disabled":false,"rental_uris":{"android":"levelo://app?vid=2d5a3918-eeb6-499c-b19f-16bcaa9b8e90","ios":"levelo://app?vid=2d5a3918-eeb6-499c-b19f-16bcaa9b8e90"},"vehicle_type_id":"4","last_reported":1783349853,"current_range_meters":4800,"station_id":"","pricing_plan_id":"cebpf4jnsgd1na2vs0mg"},{"bike_id":"24101c5c-8eb7-4f51-a037-e1fbe9f469c5","system_id":"levelo_inurba_marseille","lat":43.25016,"lon":5.37971,"is_reserved":false,"is_disabled":false,"rental_uris":{"android":"levelo://app?vid=24101c5c-8eb7-4f51-a037-e1fbe9f469c5","ios":"levelo://app?vid=24101c5c-8eb7-4f51-a037-e1fbe9f469c5"},"vehicle_type_id":"4","last_reported":1783349853,"current_range_meters":4800,"station_id":"","pricing_plan_id":"cebpf4jnsgd1na2vs0mg"},{"bike_id":"0f4bf674-ba98-4482-b60d-334334901c34","system_id":"levelo_inurba_marseille","lat":43.3312,"lon":5.37748,"is_reserved":false,"is_disabled":false,"rental_uris":{"android":"levelo://app?vid=0f4bf674-ba98-4482-b60d-334334901c34","ios":"levelo://app?vid=0f4bf674-ba98-4482-b60d-334334901c34"},"vehicle_type_id":"4","last_reported":1783349853,"current_range_meters":4800,"station_id":"","pricing_plan_id":"cebpf4jnsgd1na2vs0mg"},{"bike_id":"66296cca-1fb1-4026-b28e-9962b7dd7cfc","system_id":"levelo_inurba_marseille","lat":43.296288,"lon":5.377172,"is_reserved":false,"is_disabled":true,"rental_uris":{"android":"levelo://app?vid=66296cca-1fb1-4026-b28e-9962b7dd7cfc","ios":"levelo://app?vid=66296cca-1fb1-4026-b28e-9962b7dd7cfc"},"vehicle_type_id":"4","last_reported":1783349853,"current_range_meters":4800,"station_id":"ce4bha92rcd13ifvqeh0","pricing_plan_id":"cebpf4jnsgd1na2vs0mg"},{"bike_id":"d381d65c-4b58-4e9c-b46f-e8b93cba1b41","system_id":"levelo_inurba_marseille","lat":43.28595,"lon":5.35102,"is_reserved":false,"is_disabled":false,"rental_uris":{"android":"levelo://app?vid=d381d65c-4b58-4e9c-b46f-e8b93cba1b41","ios":"levelo://app?vid=d381d65c-4b58-4e9c-b46f-e8b93cba1b41"},"vehicle_type_id":"4","last_reported":1783349853,"current_range_meters":4800,"station_id":"ce4bhch2rcd13ifvqeug","pricing_plan_id":"cebpf4jnsgd1na2vs0mg"},{"bike_id":"f74952d6-7a02-4d9a-848e-57ae35f99d60","system_id":"levelo_inurba_marseille","lat":43.27159,"lon":5.39187,"is_reserved":false,"is_disabled":false,"rental_uris":{"android":"levelo://app?vid=f74952d6-7a02-4d9a-848e-57ae35f99d60","ios":"levelo://app?vid=f74952d6-7a02-4d9a-848e-57ae35f99d60"},"vehicle_type_id":"4","last_reported":1783349853,"current_range_meters":4800,"station_id":"","pricing_plan_id":"cebpf4jnsgd1na2vs0mg"},{"bike_id":"6561da10-7a09-4fd9-b043-45bdb7ded2ef","system_id":"levelo_inurba_marseille","lat":43.25102,"lon":5.40322,"is_reserved":false,"is_disabled":true,"rental_uris":{"android":"levelo://app?vid=6561da10-7a09-4fd9-b043-45bdb7ded2ef","ios":"levelo://app?vid=6561da10-7a09-4fd9-b043-45bdb7ded2ef"},"vehicle_type_id":"4","last_reported":1783349853,"current_range_meters":5600,"station_id":"ce4bhlh2rcd13ifvqgig","pricing_plan_id":"cebpf4jnsgd1na2vs0mg"},{"bike_id":"dddfbe02-ba47-418c-afa1-a7e0dbdf5461","system_id":"levelo_inurba_marseille","lat":43.24167,"lon":5.39736,"is_reserved":false,"is_disabled":false,"rental_uris":{"android":"levelo://app?vid=dddfbe02-ba47-418c-afa1-a7e0dbdf5461","ios":"levelo://app?vid=dddfbe02-ba47-418c-afa1-a7e0dbdf5461"},"vehicle_type_id":"4","last_reported":1783349853,"current_range_meters":5600,"station_id":"ce4bhn12rcd13ifvqgpg","pricing_plan_id":"cebpf4jnsgd1na2vs0mg"},{"bike_id":"1414d1d1-d2d3-499c-8e3a-38944ee59148","system_id":"levelo_inurba_marseille","lat":43.25487,"lon":5.37653,"is_reserved":false,"is_disabled":false,"rental_uris":{"android":"levelo://app?vid=1414d1d1-d2d3-499c-8e3a-38944ee59148","ios":"levelo://app?vid=1414d1d1-d2d3-499c-8e3a-38944ee59148"},"vehicle_type_id":"4","last_reported":1783349853,"current_range_meters":5600,"station_id":"ce4bhh12rcd13ifvqff0","pricing_plan_id":"cebpf4jnsgd1na2vs0mg"},{"bike_id":"97de69b1-3237-4d59-aae5-fc51b263349a","system_id":"levelo_inurba_marseille","lat":43.27808,"lon":5.40713,"is_reserved":false,"is_disabled":false,"rental_uris":{"android":"levelo://app?vid=97de69b1-3237-4d59-aae5-fc51b263349a","ios":"levelo://app?vid=97de69b1-3237-4d59-aae5-fc51b263349a"},"vehicle_type_id":"4","last_reported":1783349853,"current_range_meters":5600,"station_id":"ce4bhnh2rcd13ifvqgtg","pricing_plan_id":"cebpf4jnsgd1na2vs0mg"},{"bike_id":"32d0abeb-f517-4264-a904-e5817efbc2f5","system_id":"levelo_inurba_marseille","lat":43.28922,"lon":5.38409,"is_reserved":false,"is_disabled":true,"rental_uris":{"android":"levelo://app?vid=32d0abeb-f517-4264-a904-e5817efbc2f5","ios":"levelo://app?vid=32d0abeb-f517-4264-a904-e5817efbc2f5"},"vehicle_type_id":"4","last_reported":1783349853,"current_range_meters":5600,"station_id":"ce4bh612rcd13ifvqe6g","pricing_plan_id":"cebpf4jnsgd1na2vs0mg"},{"bike_id":"20caa1fc-06d5-4252-9f45-594b25108b35","system_id":"levelo_inurba_marseille","lat":43.28466,"lon":5.48396,"is_reserved":false,"is_disabled":false,"rental_uris":{"android":"levelo://app?vid=20caa1fc-06d5-4252-9f45-594b25108b35","ios":"levelo://app?vid=20caa1fc-06d5-4252-9f45-594b25108b35"},"vehicle_type_id":"4","last_reported":1783349853,"current_range_meters":5600,"station_id":"st_d3svhcjqgbts73a3dn0g","pricing_plan_id":"cebpf4jnsgd1na2vs0mg"},{"bike_id":"c24b0d68-14d9-44af-8b0c-35f8569c6d0c","system_id":"levelo_inurba_marseille","lat":43.2848,"lon":5.38545,"is_reserved":false,"is_disabled":true,"rental_uris":{"android":"levelo://app?vid=c24b0d68-14d9-44af-8b0c-35f8569c6d0c","ios":"levelo://app?vid=c24b0d68-14d9-44af-8b0c-35f8569c6d0c"},"vehicle_type_id":"4","last_reported":1783349853,"current_range_meters":5600,"station_id":"ce4bh8p2rcd13ifvqeb0","pricing_plan_id":"cebpf4jnsgd1na2vs0mg"},{"bike_id":"68f15f16-03e7-4500-a627-dad23dd9e9de","system_id":"levelo_inurba_marseille","lat":43.26055,"lon":5.37489,"is_reserved":false,"is_disabled":false,"rental_uris":{"android":"levelo://app?vid=68f15f16-03e7-4500-a627-dad23dd9e9de","ios":"levelo://app?vid=68f15f16-03e7-4500-a627-dad23dd9e9de"},"vehicle_type_id":"4","last_reported":1783349853,"current_range_meters":5600,"station_id":"","pricing_plan_id":"cebpf4jnsgd1na2vs0mg"},{"bike_id":"6c3a0728-6178-4659-bb9f-d352f1f479a0","system_id":"levelo_inurba_marseille","lat":43.29547,"lon":5.38444,"is_reserved":false,"is_disabled":false,"rental_uris":{"android":"levelo://app?vid=6c3a0728-6178-4659-bb9f-d352f1f479a0","ios":"levelo://app?vid=6c3a0728-6178-4659-bb9f-d352f1f479a0"},"vehicle_type_id":"4","last_reported":1783349853,"current_range_meters":5600,"station_id":"","pricing_plan_id":"cebpf4jnsgd1na2vs0mg"},{"bike_id":"87da481c-7e44-49ce-9617-64ee4bd27ca4","system_id":"levelo_inurba_marseille","lat":43.26427,"lon":5.39897,"is_reserved":false,"is_disabled":false,"rental_uris":{"android":"levelo://app?vid=87da481c-7e44-49ce-9617-64ee4bd27ca4","ios":"levelo://app?vid=87da481c-7e44-49ce-9617-64ee4bd27ca4"},"vehicle_type_id":"4","last_reported":1783349853,"current_range_meters":5600,"station_id":"","pricing_plan_id":"cebpf4jnsgd1na2vs0mg"},{"bike_id":"927f034a-0960-4153-81f1-316c469b9213","system_id":"levelo_inurba_marseille","lat":43.25862,"lon":5.39905,"is_reserved":false,"is_disabled":true,"rental_uris":{"android":"levelo://app?vid=927f034a-0960-4153-81f1-316c469b9213","ios":"levelo://app?vid=927f034a-0960-4153-81f1-316c469b9213"},"vehicle_type_id":"4","last_reported":1783349853,"current_range_meters":5600,"station_id":"ce4bhl92rcd13ifvqghg","pricing_plan_id":"cebpf4jnsgd1na2vs0mg"},{"bike_id":"db4e959b-dc87-46f6-bfc4-36d05c991866","system_id":"levelo_inurba_marseille","lat":43.27083,"lon":5.38334,"is_reserved":false,"is_disabled":false,"rental_uris":{"android":"levelo://app?vid=db4e959b-dc87-46f6-bfc4-36d05c991866","ios":"levelo://app?vid=db4e959b-dc87-46f6-bfc4-36d05c991866"},"vehicle_type_id":"4","last_reported":1783349853,"current_range_meters":5600,"station_id":"st_d3n2fo6cfp8s73cte1j0","pricing_plan_id":"cebpf4jnsgd1na2vs0mg"},{"bike_id":"7c427d21-5ba3-47e9-b621-2ca7d29df3d2","system_id":"levelo_inurba_marseille","lat":43.28382,"lon":5.43542,"is_reserved":false,"is_disabled":false,"rental_uris":{"android":"levelo://app?vid=7c427d21-5ba3-47e9-b621-2ca7d29df3d2","ios":"levelo://app?vid=7c427d21-5ba3-47e9-b621-2ca7d29df3d2"},"vehicle_type_id":"4","last_reported":1783349853,"current_range_meters":5600,"station_id":"","pricing_plan_id":"cebpf4jnsgd1na2vs0mg"},{"bike_id":"da995ece-b413-4ae7-8af4-b3e727781c7e","system_id":"levelo_inurba_marseille","lat":43.28473,"lon":5.4375,"is_reserved":false,"is_disabled":false,"rental_uris":{"android":"levelo://app?vid=da995ece-b413-4ae7-8af4-b3e727781c7e","ios":"levelo://app?vid=da995ece-b413-4ae7-8af4-b3e727781c7e"},"vehicle_type_id":"4","last_reported":1783349853,"current_range_meters":5600,"station_id":"","pricing_plan_id":"cebpf4jnsgd1na2vs0mg"},{"bike_id":"268860b7-a6e7-4b6e-a857-94d1ec5f8071","system_id":"levelo_inurba_marseille","lat":43.29201,"lon":5.35772,"is_reserved":false,"is_disabled":true,"rental_uris":{"android":"levelo://app?vid=268860b7-a6e7-4b6e-a857-94d1ec5f8071","ios":"levelo://app?vid=268860b7-a6e7-4b6e-a857-94d1ec5f8071"},"vehicle_type_id":"4","last_reported":1783349853,"current_range_meters":6000,"station_id":"ce4bhb12rcd13ifvqel0","pricing_plan_id":"cebpf4jnsgd1na2vs0mg"},{"bike_id":"6584fea4-3aeb-4646-91eb-6103f8071261","system_id":"levelo_inurba_marseille","lat":43.31083,"lon":5.40048,"is_reserved":false,"is_disabled":false,"rental_uris":{"android":"levelo://app?vid=6584fea4-3aeb-4646-91eb-6103f8071261","ios":"levelo://app?vid=6584fea4-3aeb-4646-91eb-6103f8071261"},"vehicle_type_id":"4","last_reported":1783349853,"current_range_meters":6000,"station_id":"","pricing_plan_id":"cebpf4jnsgd1na2vs0mg"},{"bike_id":"fb2e8bd1-8803-4d96-b5e9-5618c029fbea","system_id":"levelo_inurba_marseille","lat":43.28701,"lon":5.3794,"is_reserved":false,"is_disabled":true,"rental_uris":{"android":"levelo://app?vid=fb2e8bd1-8803-4d96-b5e9-5618c029fbea","ios":"levelo://app?vid=fb2e8bd1-8803-4d96-b5e9-5618c029fbea"},"vehicle_type_id":"4","last_reported":1783349853,"current_range_meters":6000,"station_id":"ce4bh9p2rcd13ifvqec0","pricing_plan_id":"cebpf4jnsgd1na2vs0mg"},{"bike_id":"4549dd83-ecbf-487d-8def-62011df84d20","system_id":"levelo_inurba_marseille","lat":43.24945,"lon":5.40491,"is_reserved":false,"is_disabled":false,"rental_uris":{"android":"levelo://app?vid=4549dd83-ecbf-487d-8def-62011df84d20","ios":"levelo://app?vid=4549dd83-ecbf-487d-8def-62011df84d20"},"vehicle_type_id":"4","last_reported":1783349853,"current_range_meters":6000,"station_id":"st_d2ngiaodas8pm72gd1h0","pricing_plan_id":"cebpf4jnsgd1na2vs0mg"},{"bike_id":"c3d94bf3-19b7-443d-bc75-2bac8eb17cbe","system_id":"levelo_inurba_marseille","lat":43.33148,"lon":5.39793,"is_reserved":false,"is_disabled":false,"rental_uris":{"android":"levelo://app?vid=c3d94bf3-19b7-443d-bc75-2bac8eb17cbe","ios":"levelo://app?vid=c3d94bf3-19b7-443d-bc75-2bac8eb17cbe"},"vehicle_type_id":"4","last_reported":1783349853,"current_range_meters":6000,"station_id":"","pricing_plan_id":"cebpf4jnsgd1na2vs0mg"},{"bike_id":"5f8491b7-6afe-4763-8c6d-f7eadff0e4de","system_id":"levelo_inurba_marseille","lat":43.26531,"lon":5.36982,"is_reserved":false,"is_disabled":true,"rental_uris":{"android":"levelo://app?vid=5f8491b7-6afe-4763-8c6d-f7eadff0e4de","ios":"levelo://app?vid=5f8491b7-6afe-4763-8c6d-f7eadff0e4de"},"vehicle_type_id":"4","last_reported":1783349853,"current_range_meters":6000,"station_id":"","pricing_plan_id":"cebpf4jnsgd1na2vs0mg"},{"bike_id":"c223056a-cee4-44b0-b411-9e874d6d5516","system_id":"levelo_inurba_marseille","lat":43.29486,"lon":5.39927,"is_reserved":false,"is_disabled":false,"rental_uris":{"android":"levelo://app?vid=c223056a-cee4-44b0-b411-9e874d6d5516","ios":"levelo://app?vid=c223056a-cee4-44b0-b411-9e874d6d5516"},"vehicle_type_id":"4","last_reported":1783349853,"current_range_meters":6000,"station_id":"","pricing_plan_id":"cebpf4jnsgd1na2vs0mg"},{"bike_id":"1b3387d5-b042-4c75-9dea-b2f5bf6f53d4","system_id":"levelo_inurba_marseille","lat":43.24177,"lon":5.39705,"is_reserved":false,"is_disabled":true,"rental_uris":{"android":"levelo://app?vid=1b3387d5-b042-4c75-9dea-b2f5bf6f53d4","ios":"levelo://app?vid=1b3387d5-b042-4c75-9dea-b2f5bf6f53d4"},"vehicle_type_id":"4","last_reported":1783349853,"current_range_meters":6000,"station_id":"ce4bhn12rcd13ifvqgpg","pricing_plan_id":"cebpf4jnsgd1na2vs0mg"},{"bike_id":"25ad02eb-4a14-4f23-a133-822256a2af8e","system_id":"levelo_inurba_marseille","lat":43.30548,"lon":5.36529,"is_reserved":false,"is_disabled":false,"rental_uris":{"android":"levelo://app?vid=25ad02eb-4a14-4f23-a133-822256a2af8e","ios":"levelo://app?vid=25ad02eb-4a14-4f23-a133-822256a2af8e"},"vehicle_type_id":"4","last_reported":1783349853,"current_range_meters":6000,"station_id":"ce4bgs12rcd13ifvqcag","pricing_plan_id":"cebpf4jnsgd1na2vs0mg"},{"bike_id":"e9c7bfa8-5874-4f90-ad84-6bece76dfa23","system_id":"levelo_inurba_marseille","lat":43.29436,"lon":5.35943,"is_reserved":false,"is_disabled":false,"rental_uris":{"android":"levelo://app?vid=e9c7bfa8-5874-4f90-ad84-6bece76dfa23","ios":"levelo://app?vid=e9c7bfa8-5874-4f90-ad84-6bece76dfa23"},"vehicle_type_id":"4","last_reported":1783349853,"current_range_meters":6000,"station_id":"","pricing_plan_id":"cebpf4jnsgd1na2vs0mg"},{"bike_id":"90c7406d-6e55-4166-94bf-6290fab3cc25","system_id":"levelo_inurba_marseille","lat":43.29508,"lon":5.37513,"is_reserved":false,"is_disabled":false,"rental_uris":{"android":"levelo://app?vid=90c7406d-6e55-4166-94bf-6290fab3cc25","ios":"levelo://app?vid=90c7406d-6e55-4166-94bf-6290fab3cc25"},"vehicle_type_id":"4","last_reported":1783349853,"current_range_meters":6000,"station_id":"ce4bgkp2rcd13ifvqbmg","pricing_plan_id":"cebpf4jnsgd1na2vs0mg"},{"bike_id":"13474204-2ad6-4378-8b88-4fb4713bdfdd","system_id":"levelo_inurba_marseille","lat":43.29188,"lon":5.39319,"is_reserved":false,"is_disabled":false,"rental_uris":{"android":"levelo://app?vid=13474204-2ad6-4378-8b88-4fb4713bdfdd","ios":"levelo://app?vid=13474204-2ad6-4378-8b88-4fb4713bdfdd"},"vehicle_type_id":"4","last_reported":1783349853,"current_range_meters":6000,"station_id":"ce4bh192rcd13ifvqdd0","pricing_plan_id":"cebpf4jnsgd1na2vs0mg"},{"bike_id":"bd746d83-0b2e-448c-9630-b706fc0675b5","system_id":"levelo_inurba_marseille","lat":43.3015,"lon":5.38084,"is_reserved":false,"is_disabled":false,"rental_uris":{"android":"levelo://app?vid=bd746d83-0b2e-448c-9630-b706fc0675b5","ios":"levelo://app?vid=bd746d83-0b2e-448c-9630-b706fc0675b5"},"vehicle_type_id":"4","last_reported":1783349853,"current_range_meters":6000,"station_id":"ce4bgjp2rcd13ifvqbh0","pricing_plan_id":"cebpf4jnsgd1na2vs0mg"},{"bike_id":"f4eb42f1-4017-4869-809d-ab0b91df0440","system_id":"levelo_inurba_marseille","lat":43.240764,"lon":5.377593,"is_reserved":false,"is_disabled":false,"rental_uris":{"android":"levelo://app?vid=f4eb42f1-4017-4869-809d-ab0b91df0440","ios":"levelo://app?vid=f4eb42f1-4017-4869-809d-ab0b91df0440"},"vehicle_type_id":"4","last_reported":1783349853,"current_range_meters":6000,"station_id":"ce4bhnp2rcd13ifvqgvg","pricing_plan_id":"cebpf4jnsgd1na2vs0mg"},{"bike_id":"d2974c90-490a-4ce0-82b2-9802a308be0c","system_id":"levelo_inurba_marseille","lat":43.28709,"lon":5.39992,"is_reserved":false,"is_disabled":true,"rental_uris":{"android":"levelo://app?vid=d2974c90-490a-4ce0-82b2-9802a308be0c","ios":"levelo://app?vid=d2974c90-490a-4ce0-82b2-9802a308be0c"},"vehicle_type_id":"4","last_reported":1783349853,"current_range_meters":6000,"station_id":"ce4bho92rcd13ifvqh3g","pricing_plan_id":"cebpf4jnsgd1na2vs0mg"},{"bike_id":"c31ab5a5-0544-4e73-b92f-fed1c156505b","system_id":"levelo_inurba_marseille","lat":43.25,"lon":5.3893,"is_reserved":false,"is_disabled":false,"rental_uris":{"android":"levelo://app?vid=c31ab5a5-0544-4e73-b92f-fed1c156505b","ios":"levelo://app?vid=c31ab5a5-0544-4e73-b92f-fed1c156505b"},"vehicle_type_id":"4","last_reported":1783349853,"current_range_meters":6000,"station_id":"ce4bhgp2rcd13ifvqfd0","pricing_plan_id":"cebpf4jnsgd1na2vs0mg"},{"bike_id":"3dfc206e-1fed-489c-92f6-6d4d609c7f72","system_id":"levelo_inurba_marseille","lat":43.2841,"lon":5.34989,"is_reserved":false,"is_disabled":false,"rental_uris":{"android":"levelo://app?vid=3dfc206e-1fed-489c-92f6-6d4d609c7f72","ios":"levelo://app?vid=3dfc206e-1fed-489c-92f6-6d4d609c7f72"},"vehicle_type_id":"4","last_reported":1783349853,"current_range_meters":6000,"station_id":"ce4bhbh2rcd13ifvqepg","pricing_plan_id":"cebpf4jnsgd1na2vs0mg"},{"bike_id":"5d8766e3-d9fb-46ab-8004-5996e578b658","system_id":"levelo_inurba_marseille","lat":43.31526,"lon":5.38042,"is_reserved":false,"is_disabled":false,"rental_uris":{"android":"levelo://app?vid=5d8766e3-d9fb-46ab-8004-5996e578b658","ios":"levelo://app?vid=5d8766e3-d9fb-46ab-8004-5996e578b658"},"vehicle_type_id":"4","last_reported":1783349853,"current_range_meters":6000,"station_id":"ce4bhsp2rcd13ifvqi50","pricing_plan_id":"cebpf4jnsgd1na2vs0mg"},{"bike_id":"53c3b36a-0c6d-4936-bd34-745f8847a9c1","system_id":"levelo_inurba_marseille","lat":43.31981,"lon":5.38168,"is_reserved":false,"is_disabled":false,"rental_uris":{"android":"levelo://app?vid=53c3b36a-0c6d-4936-bd34-745f8847a9c1","ios":"levelo://app?vid=53c3b36a-0c6d-4936-bd34-745f8847a9c1"},"vehicle_type_id":"4","last_reported":1783349853,"current_range_meters":6000,"station_id":"ce4bhr12rcd13ifvqhpg","pricing_plan_id":"cebpf4jnsgd1na2vs0mg"},{"bike_id":"ba7fd75c-da3e-4bcb-b39b-f4c49be8e437","system_id":"levelo_inurba_marseille","lat":43.2861,"lon":5.39867,"is_reserved":false,"is_disabled":false,"rental_uris":{"android":"levelo://app?vid=ba7fd75c-da3e-4bcb-b39b-f4c49be8e437","ios":"levelo://app?vid=ba7fd75c-da3e-4bcb-b39b-f4c49be8e437"},"vehicle_type_id":"4","last_reported":1783349853,"current_range_meters":6000,"station_id":"st_d4a7ka997mjs738ck50g","pricing_plan_id":"cebpf4jnsgd1na2vs0mg"},{"bike_id":"a2327749-5094-48cb-8a0f-52c7de8de03a","system_id":"levelo_inurba_marseille","lat":43.28705,"lon":5.46685,"is_reserved":false,"is_disabled":false,"rental_uris":{"android":"levelo://app?vid=a2327749-5094-48cb-8a0f-52c7de8de03a","ios":"levelo://app?vid=a2327749-5094-48cb-8a0f-52c7de8de03a"},"vehicle_type_id":"4","last_reported":1783349853,"current_range_meters":6000,"station_id":"st_d6tc3vkotcvc738tfjhg","pricing_plan_id":"cebpf4jnsgd1na2vs0mg"},{"bike_id":"151318e1-1ede-4f1c-8297-71ff21b43437","system_id":"levelo_inurba_marseille","lat":43.28872,"lon":5.37769,"is_reserved":false,"is_disabled":false,"rental_uris":{"android":"levelo://app?vid=151318e1-1ede-4f1c-8297-71ff21b43437","ios":"levelo://app?vid=151318e1-1ede-4f1c-8297-71ff21b43437"},"vehicle_type_id":"4","last_reported":1783349853,"current_range_meters":6000,"station_id":"","pricing_plan_id":"cebpf4jnsgd1na2vs0mg"},{"bike_id":"f0418703-7a27-4dca-9433-bdd8213135dc","system_id":"levelo_inurba_marseille","lat":43.21196,"lon":5.35073,"is_reserved":false,"is_disabled":false,"rental_uris":{"android":"levelo://app?vid=f0418703-7a27-4dca-9433-bdd8213135dc","ios":"levelo://app?vid=f0418703-7a27-4dca-9433-bdd8213135dc"},"vehicle_type_id":"4","last_reported":1783349853,"current_range_meters":6400,"station_id":"st_cvj6sg6p6f1abm77japg","pricing_plan_id":"cebpf4jnsgd1na2vs0mg"},{"bike_id":"85706f81-4982-4276-b755-d4181aa895f9","system_id":"levelo_inurba_marseille","lat":43.2842,"lon":5.38476,"is_reserved":false,"is_disabled":false,"rental_uris":{"android":"levelo://app?vid=85706f81-4982-4276-b755-d4181aa895f9","ios":"levelo://app?vid=85706f81-4982-4276-b755-d4181aa895f9"},"vehicle_type_id":"4","last_reported":1783349853,"current_range_meters":6400,"station_id":"","pricing_plan_id":"cebpf4jnsgd1na2vs0mg"},{"bike_id":"3010767e-f640-42ed-b363-badada237844","system_id":"levelo_inurba_marseille","lat":43.30517,"lon":5.36526,"is_reserved":false,"is_disabled":false,"rental_uris":{"android":"levelo://app?vid=3010767e-f640-42ed-b363-badada237844","ios":"levelo://app?vid=3010767e-f640-42ed-b363-badada237844"},"vehicle_type_id":"4","last_reported":1783349853,"current_range_meters":6400,"station_id":"","pricing_plan_id":"cebpf4jnsgd1na2vs0mg"},{"bike_id":"805ea084-48c4-479e-babf-9fd74aa9c130","system_id":"levelo_inurba_marseille","lat":43.25822,"lon":5.39435,"is_reserved":false,"is_disabled":false,"rental_uris":{"android":"levelo://app?vid=805ea084-48c4-479e-babf-9fd74aa9c130","ios":"levelo://app?vid=805ea084-48c4-479e-babf-9fd74aa9c130"},"vehicle_type_id":"4","last_reported":1783349853,"current_range_meters":6400,"station_id":"ce4bhip2rcd13ifvqft0","pricing_plan_id":"cebpf4jnsgd1na2vs0mg"},{"bike_id":"871f3ed7-a4b0-4e09-9105-27dce2165e99","system_id":"levelo_inurba_marseille","lat":43.29872,"lon":5.38918,"is_reserved":false,"is_disabled":true,"rental_uris":{"android":"levelo://app?vid=871f3ed7-a4b0-4e09-9105-27dce2165e99","ios":"levelo://app?vid=871f3ed7-a4b0-4e09-9105-27dce2165e99"},"vehicle_type_id":"4","last_reported":1783349853,"current_range_meters":6400,"station_id":"ce4bh392rcd13ifvqdl0","pricing_plan_id":"cebpf4jnsgd1na2vs0mg"},{"bike_id":"92a0c0cb-0818-4864-a9ba-8af564118461","system_id":"levelo_inurba_marseille","lat":43.324,"lon":5.37404,"is_reserved":false,"is_disabled":false,"rental_uris":{"android":"levelo://app?vid=92a0c0cb-0818-4864-a9ba-8af564118461","ios":"levelo://app?vid=92a0c0cb-0818-4864-a9ba-8af564118461"},"vehicle_type_id":"4","last_reported":1783349853,"current_range_meters":6400,"station_id":"","pricing_plan_id":"cebpf4jnsgd1na2vs0mg"},{"bike_id":"c080cb97-d429-411b-94f0-5cffa330db91","system_id":"levelo_inurba_marseille","lat":43.24174,"lon":5.39729,"is_reserved":false,"is_disabled":false,"rental_uris":{"android":"levelo://app?vid=c080cb97-d429-411b-94f0-5cffa330db91","ios":"levelo://app?vid=c080cb97-d429-411b-94f0-5cffa330db91"},"vehicle_type_id":"4","last_reported":1783349853,"current_range_meters":6400,"station_id":"ce4bhn12rcd13ifvqgpg","pricing_plan_id":"cebpf4jnsgd1na2vs0mg"},{"bike_id":"740e3abb-7a97-4df1-905d-538654b5ac19","system_id":"levelo_inurba_marseille","lat":43.30121,"lon":5.38786,"is_reserved":false,"is_disabled":true,"rental_uris":{"android":"levelo://app?vid=740e3abb-7a97-4df1-905d-538654b5ac19","ios":"levelo://app?vid=740e3abb-7a97-4df1-905d-538654b5ac19"},"vehicle_type_id":"4","last_reported":1783349853,"current_range_meters":6400,"station_id":"ce4bghh2rcd13ifvqb60","pricing_plan_id":"cebpf4jnsgd1na2vs0mg"},{"bike_id":"ec2af0c4-368d-42f1-99ce-3cfbdfae1d56","system_id":"levelo_inurba_marseille","lat":43.2935,"lon":5.40255,"is_reserved":false,"is_disabled":false,"rental_uris":{"android":"levelo://app?vid=ec2af0c4-368d-42f1-99ce-3cfbdfae1d56","ios":"levelo://app?vid=ec2af0c4-368d-42f1-99ce-3cfbdfae1d56"},"vehicle_type_id":"4","last_reported":1783349853,"current_range_meters":6400,"station_id":"","pricing_plan_id":"cebpf4jnsgd1na2vs0mg"},{"bike_id":"d4c27657-31d1-43b4-bb37-fa58fb3a4672","system_id":"levelo_inurba_marseille","lat":43.23891,"lon":5.37463,"is_reserved":false,"is_disabled":false,"rental_uris":{"android":"levelo://app?vid=d4c27657-31d1-43b4-bb37-fa58fb3a4672","ios":"levelo://app?vid=d4c27657-31d1-43b4-bb37-fa58fb3a4672"},"vehicle_type_id":"4","last_reported":1783349853,"current_range_meters":6400,"station_id":"st_d6sm7csbq4hs73f8fpjg","pricing_plan_id":"cebpf4jnsgd1na2vs0mg"},{"bike_id":"0290895e-ee5d-4903-93dd-8d6f9b0eb675","system_id":"levelo_inurba_marseille","lat":43.28411,"lon":5.37517,"is_reserved":false,"is_disabled":false,"rental_uris":{"android":"levelo://app?vid=0290895e-ee5d-4903-93dd-8d6f9b0eb675","ios":"levelo://app?vid=0290895e-ee5d-4903-93dd-8d6f9b0eb675"},"vehicle_type_id":"4","last_reported":1783349853,"current_range_meters":6400,"station_id":"ce4bh412rcd13ifvqds0","pricing_plan_id":"cebpf4jnsgd1na2vs0mg"},{"bike_id":"0ba407b9-8f7c-4b1d-9764-07d0a46dc2f3","system_id":"levelo_inurba_marseille","lat":43.30546,"lon":5.36703,"is_reserved":false,"is_disabled":false,"rental_uris":{"android":"levelo://app?vid=0ba407b9-8f7c-4b1d-9764-07d0a46dc2f3","ios":"levelo://app?vid=0ba407b9-8f7c-4b1d-9764-07d0a46dc2f3"},"vehicle_type_id":"4","last_reported":1783349853,"current_range_meters":6400,"station_id":"ce4bgrp2rcd13ifvqc9g","pricing_plan_id":"cebpf4jnsgd1na2vs0mg"},{"bike_id":"d7243867-d830-4852-bcaf-39fdde4db026","system_id":"levelo_inurba_marseille","lat":43.25572,"lon":5.38228,"is_reserved":false,"is_disabled":false,"rental_uris":{"android":"levelo://app?vid=d7243867-d830-4852-bcaf-39fdde4db026","ios":"levelo://app?vid=d7243867-d830-4852-bcaf-39fdde4db026"},"vehicle_type_id":"4","last_reported":1783349853,"current_range_meters":6400,"station_id":"ce4bhih2rcd13ifvqfs0","pricing_plan_id":"cebpf4jnsgd1na2vs0mg"},{"bike_id":"ac5142c3-cf44-4ed6-96ac-e5de15b50008","system_id":"levelo_inurba_marseille","lat":43.25731,"lon":5.41109,"is_reserved":false,"is_disabled":false,"rental_uris":{"android":"levelo://app?vid=ac5142c3-cf44-4ed6-96ac-e5de15b50008","ios":"levelo://app?vid=ac5142c3-cf44-4ed6-96ac-e5de15b50008"},"vehicle_type_id":"4","last_reported":1783349853,"current_range_meters":6400,"station_id":"ce4bhkp2rcd13ifvqgd0","pricing_plan_id":"cebpf4jnsgd1na2vs0mg"},{"bike_id":"23427a39-8c19-450f-9658-08c946c4f06b","system_id":"levelo_inurba_marseille","lat":43.28262,"lon":5.35077,"is_reserved":false,"is_disabled":false,"rental_uris":{"android":"levelo://app?vid=23427a39-8c19-450f-9658-08c946c4f06b","ios":"levelo://app?vid=23427a39-8c19-450f-9658-08c946c4f06b"},"vehicle_type_id":"4","last_reported":1783349853,"current_range_meters":6400,"station_id":"ce4bhbp2rcd13ifvqerg","pricing_plan_id":"cebpf4jnsgd1na2vs0mg"},{"bike_id":"8d894f36-7d0a-4a02-a8d1-b9acd9de53d6","system_id":"levelo_inurba_marseille","lat":43.29277,"lon":5.37647,"is_reserved":false,"is_disabled":false,"rental_uris":{"android":"levelo://app?vid=8d894f36-7d0a-4a02-a8d1-b9acd9de53d6","ios":"levelo://app?vid=8d894f36-7d0a-4a02-a8d1-b9acd9de53d6"},"vehicle_type_id":"4","last_reported":1783349853,"current_range_meters":6400,"station_id":"ce4bgi12rcd13ifvqb80","pricing_plan_id":"cebpf4jnsgd1na2vs0mg"},{"bike_id":"14e98b39-b7a8-4608-8aac-1d8635ff8bf5","system_id":"levelo_inurba_marseille","lat":43.28482,"lon":5.48385,"is_reserved":false,"is_disabled":false,"rental_uris":{"android":"levelo://app?vid=14e98b39-b7a8-4608-8aac-1d8635ff8bf5","ios":"levelo://app?vid=14e98b39-b7a8-4608-8aac-1d8635ff8bf5"},"vehicle_type_id":"4","last_reported":1783349853,"current_range_meters":6400,"station_id":"st_d3svhcjqgbts73a3dn0g","pricing_plan_id":"cebpf4jnsgd1na2vs0mg"},{"bike_id":"afe9a566-d8c0-4f06-a183-9935532dd6e0","system_id":"levelo_inurba_marseille","lat":43.25289,"lon":5.37502,"is_reserved":false,"is_disabled":false,"rental_uris":{"android":"levelo://app?vid=afe9a566-d8c0-4f06-a183-9935532dd6e0","ios":"levelo://app?vid=afe9a566-d8c0-4f06-a183-9935532dd6e0"},"vehicle_type_id":"4","last_reported":1783349853,"current_range_meters":6400,"station_id":"","pricing_plan_id":"cebpf4jnsgd1na2vs0mg"},{"bike_id":"dce70b5e-bfa1-48e4-8fe0-9ec162dd1e48","system_id":"levelo_inurba_marseille","lat":43.26202,"lon":5.41537,"is_reserved":false,"is_disabled":false,"rental_uris":{"android":"levelo://app?vid=dce70b5e-bfa1-48e4-8fe0-9ec162dd1e48","ios":"levelo://app?vid=dce70b5e-bfa1-48e4-8fe0-9ec162dd1e48"},"vehicle_type_id":"4","last_reported":1783349853,"current_range_meters":6400,"station_id":"","pricing_plan_id":"cebpf4jnsgd1na2vs0mg"},{"bike_id":"ba464aec-4d57-4537-93a2-53c7df2dd5b1","system_id":"levelo_inurba_marseille","lat":43.27991,"lon":5.41666,"is_reserved":false,"is_disabled":false,"rental_uris":{"android":"levelo://app?vid=ba464aec-4d57-4537-93a2-53c7df2dd5b1","ios":"levelo://app?vid=ba464aec-4d57-4537-93a2-53c7df2dd5b1"},"vehicle_type_id":"4","last_reported":1783349853,"current_range_meters":6400,"station_id":"ce4bho12rcd13ifvqh1g","pricing_plan_id":"cebpf4jnsgd1na2vs0mg"},{"bike_id":"1b5fd56e-4e80-4902-8582-5f138f36b818","system_id":"levelo_inurba_marseille","lat":43.23136,"lon":5.43717,"is_reserved":false,"is_disabled":false,"rental_uris":{"android":"levelo://app?vid=1b5fd56e-4e80-4902-8582-5f138f36b818","ios":"levelo://app?vid=1b5fd56e-4e80-4902-8582-5f138f36b818"},"vehicle_type_id":"4","last_reported":1783349853,"current_range_meters":6800,"station_id":"ce4bhmp2rcd13ifvqgog","pricing_plan_id":"cebpf4jnsgd1na2vs0mg"},{"bike_id":"36161dd8-d7ad-4b71-ba32-e05fad3d31a3","system_id":"levelo_inurba_marseille","lat":43.30127,"lon":5.39884,"is_reserved":false,"is_disabled":false,"rental_uris":{"android":"levelo://app?vid=36161dd8-d7ad-4b71-ba32-e05fad3d31a3","ios":"levelo://app?vid=36161dd8-d7ad-4b71-ba32-e05fad3d31a3"},"vehicle_type_id":"4","last_reported":1783349853,"current_range_meters":6800,"station_id":"ce4bh0h2rcd13ifvqd40","pricing_plan_id":"cebpf4jnsgd1na2vs0mg"},{"bike_id":"454fc3a6-177f-4d4b-abb5-ad5bd27b92a2","system_id":"levelo_inurba_marseille","lat":43.287189,"lon":5.379308,"is_reserved":false,"is_disabled":false,"rental_uris":{"android":"levelo://app?vid=454fc3a6-177f-4d4b-abb5-ad5bd27b92a2","ios":"levelo://app?vid=454fc3a6-177f-4d4b-abb5-ad5bd27b92a2"},"vehicle_type_id":"4","last_reported":1783349853,"current_range_meters":6800,"station_id":"ce4bh9p2rcd13ifvqec0","pricing_plan_id":"cebpf4jnsgd1na2vs0mg"},{"bike_id":"72db5589-dfd0-442a-904d-e9c5bdcd1d4f","system_id":"levelo_inurba_marseille","lat":43.31597,"lon":5.3796,"is_reserved":false,"is_disabled":false,"rental_uris":{"android":"levelo://app?vid=72db5589-dfd0-442a-904d-e9c5bdcd1d4f","ios":"levelo://app?vid=72db5589-dfd0-442a-904d-e9c5bdcd1d4f"},"vehicle_type_id":"4","last_reported":1783349853,"current_range_meters":6800,"station_id":"","pricing_plan_id":"cebpf4jnsgd1na2vs0mg"},{"bike_id":"3800c000-9d4b-4d98-ad34-50fa3f73b0e1","system_id":"levelo_inurba_marseille","lat":43.2846,"lon":5.35893,"is_reserved":false,"is_disabled":false,"rental_uris":{"android":"levelo://app?vid=3800c000-9d4b-4d98-ad34-50fa3f73b0e1","ios":"levelo://app?vid=3800c000-9d4b-4d98-ad34-50fa3f73b0e1"},"vehicle_type_id":"4","last_reported":1783349853,"current_range_meters":6800,"station_id":"ce4bhah2rcd13ifvqei0","pricing_plan_id":"cebpf4jnsgd1na2vs0mg"},{"bike_id":"1f1560f8-bd39-46b2-9919-5ec4fece69f3","system_id":"levelo_inurba_marseille","lat":43.30556,"lon":5.36574,"is_reserved":false,"is_disabled":false,"rental_uris":{"android":"levelo://app?vid=1f1560f8-bd39-46b2-9919-5ec4fece69f3","ios":"levelo://app?vid=1f1560f8-bd39-46b2-9919-5ec4fece69f3"},"vehicle_type_id":"4","last_reported":1783349853,"current_range_meters":6800,"station_id":"ce4bgs12rcd13ifvqcag","pricing_plan_id":"cebpf4jnsgd1na2vs0mg"},{"bike_id":"700367e5-6c87-4c9d-b09c-2b54e001a8c5","system_id":"levelo_inurba_marseille","lat":43.29242,"lon":5.3604,"is_reserved":false,"is_disabled":true,"rental_uris":{"android":"levelo://app?vid=700367e5-6c87-4c9d-b09c-2b54e001a8c5","ios":"levelo://app?vid=700367e5-6c87-4c9d-b09c-2b54e001a8c5"},"vehicle_type_id":"4","last_reported":1783349853,"current_range_meters":6800,"station_id":"ce4bhbh2rcd13ifvqeqg","pricing_plan_id":"cebpf4jnsgd1na2vs0mg"},{"bike_id":"8106ca99-f827-40dd-90a5-a5e8ac3a1d30","system_id":"levelo_inurba_marseille","lat":43.28474,"lon":5.48392,"is_reserved":false,"is_disabled":false,"rental_uris":{"android":"levelo://app?vid=8106ca99-f827-40dd-90a5-a5e8ac3a1d30","ios":"levelo://app?vid=8106ca99-f827-40dd-90a5-a5e8ac3a1d30"},"vehicle_type_id":"4","last_reported":1783349853,"current_range_meters":6800,"station_id":"st_d3svhcjqgbts73a3dn0g","pricing_plan_id":"cebpf4jnsgd1na2vs0mg"},{"bike_id":"9db47c28-d135-4619-b753-4c4fa126f9fd","system_id":"levelo_inurba_marseille","lat":43.2921,"lon":5.36069,"is_reserved":false,"is_disabled":true,"rental_uris":{"android":"levelo://app?vid=9db47c28-d135-4619-b753-4c4fa126f9fd","ios":"levelo://app?vid=9db47c28-d135-4619-b753-4c4fa126f9fd"},"vehicle_type_id":"4","last_reported":1783349853,"current_range_meters":6800,"station_id":"ce4bhbh2rcd13ifvqeqg","pricing_plan_id":"cebpf4jnsgd1na2vs0mg"},{"bike_id":"7b46079b-5fb6-4e7e-bf3e-3b4ab3df27f4","system_id":"levelo_inurba_marseille","lat":43.280543,"lon":5.368584,"is_reserved":false,"is_disabled":false,"rental_uris":{"android":"levelo://app?vid=7b46079b-5fb6-4e7e-bf3e-3b4ab3df27f4","ios":"levelo://app?vid=7b46079b-5fb6-4e7e-bf3e-3b4ab3df27f4"},"vehicle_type_id":"4","last_reported":1783349853,"current_range_meters":6800,"station_id":"ce4bha12rcd13ifvqef0","pricing_plan_id":"cebpf4jnsgd1na2vs0mg"},{"bike_id":"4c2faf4f-2c5e-448a-b2bb-c638ed2105fe","system_id":"levelo_inurba_marseille","lat":43.29186,"lon":5.35801,"is_reserved":false,"is_disabled":false,"rental_uris":{"android":"levelo://app?vid=4c2faf4f-2c5e-448a-b2bb-c638ed2105fe","ios":"levelo://app?vid=4c2faf4f-2c5e-448a-b2bb-c638ed2105fe"},"vehicle_type_id":"4","last_reported":1783349853,"current_range_meters":6800,"station_id":"ce4bhb12rcd13ifvqel0","pricing_plan_id":"cebpf4jnsgd1na2vs0mg"},{"bike_id":"489a3b60-7fdc-49f3-8e39-20342089933f","system_id":"levelo_inurba_marseille","lat":43.30538,"lon":5.3654,"is_reserved":false,"is_disabled":false,"rental_uris":{"android":"levelo://app?vid=489a3b60-7fdc-49f3-8e39-20342089933f","ios":"levelo://app?vid=489a3b60-7fdc-49f3-8e39-20342089933f"},"vehicle_type_id":"4","last_reported":1783349853,"current_range_meters":6800,"station_id":"ce4bgs12rcd13ifvqcag","pricing_plan_id":"cebpf4jnsgd1na2vs0mg"},{"bike_id":"0d9f3a51-bbeb-4140-9fd5-9b76f97d8176","system_id":"levelo_inurba_marseille","lat":43.30318,"lon":5.3689,"is_reserved":false,"is_disabled":false,"rental_uris":{"android":"levelo://app?vid=0d9f3a51-bbeb-4140-9fd5-9b76f97d8176","ios":"levelo://app?vid=0d9f3a51-bbeb-4140-9fd5-9b76f97d8176"},"vehicle_type_id":"4","last_reported":1783349853,"current_range_meters":6800,"station_id":"ce4bgqh2rcd13ifvqc5g","pricing_plan_id":"cebpf4jnsgd1na2vs0mg"},{"bike_id":"1ba6b8d5-a035-4632-bf04-7bde0fa5e7b5","system_id":"levelo_inurba_marseille","lat":43.32466,"lon":5.36581,"is_reserved":false,"is_disabled":false,"rental_uris":{"android":"levelo://app?vid=1ba6b8d5-a035-4632-bf04-7bde0fa5e7b5","ios":"levelo://app?vid=1ba6b8d5-a035-4632-bf04-7bde0fa5e7b5"},"vehicle_type_id":"4","last_reported":1783349853,"current_range_meters":6800,"station_id":"ce4bhs12rcd13ifvqhvg","pricing_plan_id":"cebpf4jnsgd1na2vs0mg"},{"bike_id":"e60cbea0-799c-4f23-83bc-ef742332d93c","system_id":"levelo_inurba_marseille","lat":43.30591,"lon":5.39346,"is_reserved":false,"is_disabled":false,"rental_uris":{"android":"levelo://app?vid=e60cbea0-799c-4f23-83bc-ef742332d93c","ios":"levelo://app?vid=e60cbea0-799c-4f23-83bc-ef742332d93c"},"vehicle_type_id":"4","last_reported":1783349853,"current_range_meters":6800,"station_id":"ce4bh0p2rcd13ifvqd80","pricing_plan_id":"cebpf4jnsgd1na2vs0mg"},{"bike_id":"d7c33e32-1bf6-466d-abaf-8816e2645afe","system_id":"levelo_inurba_marseille","lat":43.31896,"lon":5.40739,"is_reserved":false,"is_disabled":true,"rental_uris":{"android":"levelo://app?vid=d7c33e32-1bf6-466d-abaf-8816e2645afe","ios":"levelo://app?vid=d7c33e32-1bf6-466d-abaf-8816e2645afe"},"vehicle_type_id":"4","last_reported":1783349853,"current_range_meters":7200,"station_id":"ce4bhq12rcd13ifvqhig","pricing_plan_id":"cebpf4jnsgd1na2vs0mg"},{"bike_id":"c7354d93-3c92-4d24-a36c-1ed9d5a94c18","system_id":"levelo_inurba_marseille","lat":43.29199,"lon":5.35808,"is_reserved":false,"is_disabled":false,"rental_uris":{"android":"levelo://app?vid=c7354d93-3c92-4d24-a36c-1ed9d5a94c18","ios":"levelo://app?vid=c7354d93-3c92-4d24-a36c-1ed9d5a94c18"},"vehicle_type_id":"4","last_reported":1783349853,"current_range_meters":7200,"station_id":"ce4bhb12rcd13ifvqel0","pricing_plan_id":"cebpf4jnsgd1na2vs0mg"},{"bike_id":"88b1fcde-e210-4b50-8bb5-7e8d1b94b334","system_id":"levelo_inurba_marseille","lat":43.28385,"lon":5.37512,"is_reserved":false,"is_disabled":false,"rental_uris":{"android":"levelo://app?vid=88b1fcde-e210-4b50-8bb5-7e8d1b94b334","ios":"levelo://app?vid=88b1fcde-e210-4b50-8bb5-7e8d1b94b334"},"vehicle_type_id":"4","last_reported":1783349853,"current_range_meters":7200,"station_id":"ce4bh412rcd13ifvqds0","pricing_plan_id":"cebpf4jnsgd1na2vs0mg"},{"bike_id":"bf2d7064-d908-4505-a138-243bf8aab45d","system_id":"levelo_inurba_marseille","lat":43.27371,"lon":5.36253,"is_reserved":false,"is_disabled":false,"rental_uris":{"android":"levelo://app?vid=bf2d7064-d908-4505-a138-243bf8aab45d","ios":"levelo://app?vid=bf2d7064-d908-4505-a138-243bf8aab45d"},"vehicle_type_id":"4","last_reported":1783349853,"current_range_meters":7200,"station_id":"ce4bhbh2rcd13ifvqeo0","pricing_plan_id":"cebpf4jnsgd1na2vs0mg"},{"bike_id":"f1fa67ea-70e8-494e-90f1-3cd8a54e2aac","system_id":"levelo_inurba_marseille","lat":43.28263,"lon":5.3507,"is_reserved":false,"is_disabled":true,"rental_uris":{"android":"levelo://app?vid=f1fa67ea-70e8-494e-90f1-3cd8a54e2aac","ios":"levelo://app?vid=f1fa67ea-70e8-494e-90f1-3cd8a54e2aac"},"vehicle_type_id":"4","last_reported":1783349853,"current_range_meters":7200,"station_id":"ce4bhbp2rcd13ifvqerg","pricing_plan_id":"cebpf4jnsgd1na2vs0mg"},{"bike_id":"a9de9f06-5ad3-4267-b8e5-66ab81f9e206","system_id":"levelo_inurba_marseille","lat":43.2377,"lon":5.36621,"is_reserved":false,"is_disabled":false,"rental_uris":{"android":"levelo://app?vid=a9de9f06-5ad3-4267-b8e5-66ab81f9e206","ios":"levelo://app?vid=a9de9f06-5ad3-4267-b8e5-66ab81f9e206"},"vehicle_type_id":"4","last_reported":1783349853,"current_range_meters":7200,"station_id":"st_d3nk18o9ro0c73en2l3g","pricing_plan_id":"cebpf4jnsgd1na2vs0mg"},{"bike_id":"df8ce680-348e-47d0-92ea-a06487739a15","system_id":"levelo_inurba_marseille","lat":43.30055,"lon":5.38362,"is_reserved":false,"is_disabled":false,"rental_uris":{"android":"levelo://app?vid=df8ce680-348e-47d0-92ea-a06487739a15","ios":"levelo://app?vid=df8ce680-348e-47d0-92ea-a06487739a15"},"vehicle_type_id":"4","last_reported":1783349853,"current_range_meters":7200,"station_id":"","pricing_plan_id":"cebpf4jnsgd1na2vs0mg"},{"bike_id":"5c27c21d-e49d-4272-89f4-b58751c04dc1","system_id":"levelo_inurba_marseille","lat":43.23394,"lon":5.38141,"is_reserved":false,"is_disabled":false,"rental_uris":{"android":"levelo://app?vid=5c27c21d-e49d-4272-89f4-b58751c04dc1","ios":"levelo://app?vid=5c27c21d-e49d-4272-89f4-b58751c04dc1"},"vehicle_type_id":"4","last_reported":1783349853,"current_range_meters":7200,"station_id":"","pricing_plan_id":"cebpf4jnsgd1na2vs0mg"},{"bike_id":"4bb72506-4f3b-4ca7-992e-20cc9c7bb1d6","system_id":"levelo_inurba_marseille","lat":43.24701,"lon":5.41771,"is_reserved":false,"is_disabled":false,"rental_uris":{"android":"levelo://app?vid=4bb72506-4f3b-4ca7-992e-20cc9c7bb1d6","ios":"levelo://app?vid=4bb72506-4f3b-4ca7-992e-20cc9c7bb1d6"},"vehicle_type_id":"4","last_reported":1783349853,"current_range_meters":7200,"station_id":"","pricing_plan_id":"cebpf4jnsgd1na2vs0mg"},{"bike_id":"773f950c-1a37-4f11-85a7-7cbf338fd285","system_id":"levelo_inurba_marseille","lat":43.24951,"lon":5.40502,"is_reserved":false,"is_disabled":false,"rental_uris":{"android":"levelo://app?vid=773f950c-1a37-4f11-85a7-7cbf338fd285","ios":"levelo://app?vid=773f950c-1a37-4f11-85a7-7cbf338fd285"},"vehicle_type_id":"4","last_reported":1783349853,"current_range_meters":7200,"station_id":"st_d2ngiaodas8pm72gd1h0","pricing_plan_id":"cebpf4jnsgd1na2vs0mg"},{"bike_id":"cc738f32-f811-4e3f-b968-0bc0d7c9be0d","system_id":"levelo_inurba_marseille","lat":43.2927,"lon":5.40929,"is_reserved":false,"is_disabled":true,"rental_uris":{"android":"levelo://app?vid=cc738f32-f811-4e3f-b968-0bc0d7c9be0d","ios":"levelo://app?vid=cc738f32-f811-4e3f-b968-0bc0d7c9be0d"},"vehicle_type_id":"4","last_reported":1783349853,"current_range_meters":7200,"station_id":"ce4bh192rcd13ifvqdc0","pricing_plan_id":"cebpf4jnsgd1na2vs0mg"},{"bike_id":"fa9aa3e9-2325-4f0b-9ec2-063faecb1734","system_id":"levelo_inurba_marseille","lat":43.29142,"lon":5.3717,"is_reserved":false,"is_disabled":false,"rental_uris":{"android":"levelo://app?vid=fa9aa3e9-2325-4f0b-9ec2-063faecb1734","ios":"levelo://app?vid=fa9aa3e9-2325-4f0b-9ec2-063faecb1734"},"vehicle_type_id":"4","last_reported":1783349853,"current_range_meters":7200,"station_id":"ce4bha92rcd13ifvqeh0","pricing_plan_id":"cebpf4jnsgd1na2vs0mg"},{"bike_id":"3112c030-03e7-4ad3-a895-94002cb7d5c7","system_id":"levelo_inurba_marseille","lat":43.23957,"lon":5.3662,"is_reserved":false,"is_disabled":true,"rental_uris":{"android":"levelo://app?vid=3112c030-03e7-4ad3-a895-94002cb7d5c7","ios":"levelo://app?vid=3112c030-03e7-4ad3-a895-94002cb7d5c7"},"vehicle_type_id":"4","last_reported":1783349853,"current_range_meters":7200,"station_id":"ce4bhi12rcd13ifvqfp0","pricing_plan_id":"cebpf4jnsgd1na2vs0mg"},{"bike_id":"4014f91a-ee33-44ef-b529-b234e9656f9c","system_id":"levelo_inurba_marseille","lat":43.26984,"lon":5.4058,"is_reserved":false,"is_disabled":false,"rental_uris":{"android":"levelo://app?vid=4014f91a-ee33-44ef-b529-b234e9656f9c","ios":"levelo://app?vid=4014f91a-ee33-44ef-b529-b234e9656f9c"},"vehicle_type_id":"4","last_reported":1783349853,"current_range_meters":7200,"station_id":"","pricing_plan_id":"cebpf4jnsgd1na2vs0mg"},{"bike_id":"e509462a-e46e-42ad-a0af-98b393921cba","system_id":"levelo_inurba_marseille","lat":43.28398,"lon":5.34988,"is_reserved":false,"is_disabled":false,"rental_uris":{"android":"levelo://app?vid=e509462a-e46e-42ad-a0af-98b393921cba","ios":"levelo://app?vid=e509462a-e46e-42ad-a0af-98b393921cba"},"vehicle_type_id":"4","last_reported":1783349853,"current_range_meters":7200,"station_id":"ce4bhbh2rcd13ifvqepg","pricing_plan_id":"cebpf4jnsgd1na2vs0mg"},{"bike_id":"4e723267-7685-45de-8fae-264773357eb9","system_id":"levelo_inurba_marseille","lat":43.30417,"lon":5.39758,"is_reserved":false,"is_disabled":false,"rental_uris":{"android":"levelo://app?vid=4e723267-7685-45de-8fae-264773357eb9","ios":"levelo://app?vid=4e723267-7685-45de-8fae-264773357eb9"},"vehicle_type_id":"4","last_reported":1783349853,"current_range_meters":7200,"station_id":"ce4bh092rcd13ifvqd20","pricing_plan_id":"cebpf4jnsgd1na2vs0mg"},{"bike_id":"34ed2b61-2d24-44e5-8a59-4c31441ea853","system_id":"levelo_inurba_marseille","lat":43.26229,"lon":5.38773,"is_reserved":false,"is_disabled":false,"rental_uris":{"android":"levelo://app?vid=34ed2b61-2d24-44e5-8a59-4c31441ea853","ios":"levelo://app?vid=34ed2b61-2d24-44e5-8a59-4c31441ea853"},"vehicle_type_id":"4","last_reported":1783349853,"current_range_meters":7200,"station_id":"st_d8gjfg747rts73coq3b0","pricing_plan_id":"cebpf4jnsgd1na2vs0mg"},{"bike_id":"faae4998-2660-4cc6-a836-6400055fc88a","system_id":"levelo_inurba_marseille","lat":43.29863,"lon":5.36285,"is_reserved":false,"is_disabled":true,"rental_uris":{"android":"levelo://app?vid=faae4998-2660-4cc6-a836-6400055fc88a","ios":"levelo://app?vid=faae4998-2660-4cc6-a836-6400055fc88a"},"vehicle_type_id":"4","last_reported":1783349853,"current_range_meters":7200,"station_id":"ce4bgpp2rcd13ifvqc3g","pricing_plan_id":"cebpf4jnsgd1na2vs0mg"},{"bike_id":"46468b74-5455-42c1-b355-213b9be4a89c","system_id":"levelo_inurba_marseille","lat":43.22541,"lon":5.3483,"is_reserved":false,"is_disabled":false,"rental_uris":{"android":"levelo://app?vid=46468b74-5455-42c1-b355-213b9be4a89c","ios":"levelo://app?vid=46468b74-5455-42c1-b355-213b9be4a89c"},"vehicle_type_id":"4","last_reported":1783349853,"current_range_meters":7200,"station_id":"st_cvj5dfep6f1abm77gieg","pricing_plan_id":"cebpf4jnsgd1na2vs0mg"},{"bike_id":"725e086c-61a9-4992-8dee-532eb19e57a5","system_id":"levelo_inurba_marseille","lat":43.27619,"lon":5.36112,"is_reserved":false,"is_disabled":false,"rental_uris":{"android":"levelo://app?vid=725e086c-61a9-4992-8dee-532eb19e57a5","ios":"levelo://app?vid=725e086c-61a9-4992-8dee-532eb19e57a5"},"vehicle_type_id":"4","last_reported":1783349853,"current_range_meters":7200,"station_id":"ce4bgj92rcd13ifvqbe0","pricing_plan_id":"cebpf4jnsgd1na2vs0mg"},{"bike_id":"d0b958a4-0781-4a1e-83d0-28cb0b198006","system_id":"levelo_inurba_marseille","lat":43.29587,"lon":5.38587,"is_reserved":false,"is_disabled":false,"rental_uris":{"android":"levelo://app?vid=d0b958a4-0781-4a1e-83d0-28cb0b198006","ios":"levelo://app?vid=d0b958a4-0781-4a1e-83d0-28cb0b198006"},"vehicle_type_id":"4","last_reported":1783349853,"current_range_meters":7200,"station_id":"","pricing_plan_id":"cebpf4jnsgd1na2vs0mg"},{"bike_id":"46049fbc-c38b-45e7-b015-15d9a4d6dce1","system_id":"levelo_inurba_marseille","lat":43.29267,"lon":5.3789,"is_reserved":false,"is_disabled":false,"rental_uris":{"android":"levelo://app?vid=46049fbc-c38b-45e7-b015-15d9a4d6dce1","ios":"levelo://app?vid=46049fbc-c38b-45e7-b015-15d9a4d6dce1"},"vehicle_type_id":"4","last_reported":1783349853,"current_range_meters":7200,"station_id":"","pricing_plan_id":"cebpf4jnsgd1na2vs0mg"},{"bike_id":"a40fac1c-fdae-4a33-8735-3f7c9c669ebe","system_id":"levelo_inurba_marseille","lat":43.29716,"lon":5.3824,"is_reserved":false,"is_disabled":false,"rental_uris":{"android":"levelo://app?vid=a40fac1c-fdae-4a33-8735-3f7c9c669ebe","ios":"levelo://app?vid=a40fac1c-fdae-4a33-8735-3f7c9c669ebe"},"vehicle_type_id":"4","last_reported":1783349853,"current_range_meters":8000,"station_id":"","pricing_plan_id":"cebpf4jnsgd1na2vs0mg"},{"bike_id":"b7889e1a-d6a9-4bee-950f-b9ab53371ccd","system_id":"levelo_inurba_marseille","lat":43.33016,"lon":5.39049,"is_reserved":false,"is_disabled":false,"rental_uris":{"android":"levelo://app?vid=b7889e1a-d6a9-4bee-950f-b9ab53371ccd","ios":"levelo://app?vid=b7889e1a-d6a9-4bee-950f-b9ab53371ccd"},"vehicle_type_id":"4","last_reported":1783349853,"current_range_meters":8000,"station_id":"ce4bhr92rcd13ifvqhrg","pricing_plan_id":"cebpf4jnsgd1na2vs0mg"},{"bike_id":"4461f359-e578-4853-804a-593f2289f613","system_id":"levelo_inurba_marseille","lat":43.29654,"lon":5.40129,"is_reserved":false,"is_disabled":false,"rental_uris":{"android":"levelo://app?vid=4461f359-e578-4853-804a-593f2289f613","ios":"levelo://app?vid=4461f359-e578-4853-804a-593f2289f613"},"vehicle_type_id":"4","last_reported":1783349853,"current_range_meters":8000,"station_id":"","pricing_plan_id":"cebpf4jnsgd1na2vs0mg"},{"bike_id":"d6dcb6f7-e0af-4be4-a896-463850c7a739","system_id":"levelo_inurba_marseille","lat":43.23888,"lon":5.3745,"is_reserved":false,"is_disabled":true,"rental_uris":{"android":"levelo://app?vid=d6dcb6f7-e0af-4be4-a896-463850c7a739","ios":"levelo://app?vid=d6dcb6f7-e0af-4be4-a896-463850c7a739"},"vehicle_type_id":"4","last_reported":1783349853,"current_range_meters":8000,"station_id":"st_d6sm7csbq4hs73f8fpjg","pricing_plan_id":"cebpf4jnsgd1na2vs0mg"},{"bike_id":"35a8bd52-7911-4107-a9c6-ce1a25e31e7e","system_id":"levelo_inurba_marseille","lat":43.29349,"lon":5.4024,"is_reserved":false,"is_disabled":false,"rental_uris":{"android":"levelo://app?vid=35a8bd52-7911-4107-a9c6-ce1a25e31e7e","ios":"levelo://app?vid=35a8bd52-7911-4107-a9c6-ce1a25e31e7e"},"vehicle_type_id":"4","last_reported":1783349853,"current_range_meters":8000,"station_id":"","pricing_plan_id":"cebpf4jnsgd1na2vs0mg"},{"bike_id":"d0c1e1e8-f57f-4c0d-871c-25556d6c2415","system_id":"levelo_inurba_marseille","lat":43.31199,"lon":5.37117,"is_reserved":false,"is_disabled":false,"rental_uris":{"android":"levelo://app?vid=d0c1e1e8-f57f-4c0d-871c-25556d6c2415","ios":"levelo://app?vid=d0c1e1e8-f57f-4c0d-871c-25556d6c2415"},"vehicle_type_id":"4","last_reported":1783349853,"current_range_meters":8000,"station_id":"","pricing_plan_id":"cebpf4jnsgd1na2vs0mg"},{"bike_id":"7fb54030-81c0-4653-ab50-a6e69be8636f","system_id":"levelo_inurba_marseille","lat":43.26042,"lon":5.37474,"is_reserved":false,"is_disabled":true,"rental_uris":{"android":"levelo://app?vid=7fb54030-81c0-4653-ab50-a6e69be8636f","ios":"levelo://app?vid=7fb54030-81c0-4653-ab50-a6e69be8636f"},"vehicle_type_id":"4","last_reported":1783349853,"current_range_meters":8000,"station_id":"ce4bhgh2rcd13ifvqfa0","pricing_plan_id":"cebpf4jnsgd1na2vs0mg"},{"bike_id":"4b71ea7a-3ffc-4ca2-a5b0-91fcaaf1579c","system_id":"levelo_inurba_marseille","lat":43.30309,"lon":5.3825,"is_reserved":false,"is_disabled":false,"rental_uris":{"android":"levelo://app?vid=4b71ea7a-3ffc-4ca2-a5b0-91fcaaf1579c","ios":"levelo://app?vid=4b71ea7a-3ffc-4ca2-a5b0-91fcaaf1579c"},"vehicle_type_id":"4","last_reported":1783349853,"current_range_meters":8000,"station_id":"","pricing_plan_id":"cebpf4jnsgd1na2vs0mg"},{"bike_id":"cd6e55a4-94c5-4931-bc1c-84fafbc571dc","system_id":"levelo_inurba_marseille","lat":43.3056,"lon":5.36537,"is_reserved":false,"is_disabled":false,"rental_uris":{"android":"levelo://app?vid=cd6e55a4-94c5-4931-bc1c-84fafbc571dc","ios":"levelo://app?vid=cd6e55a4-94c5-4931-bc1c-84fafbc571dc"},"vehicle_type_id":"4","last_reported":1783349853,"current_range_meters":8000,"station_id":"ce4bgs12rcd13ifvqcag","pricing_plan_id":"cebpf4jnsgd1na2vs0mg"},{"bike_id":"1b38264d-b828-4294-b072-9ccc46169fbe","system_id":"levelo_inurba_marseille","lat":43.31118,"lon":5.43851,"is_reserved":false,"is_disabled":false,"rental_uris":{"android":"levelo://app?vid=1b38264d-b828-4294-b072-9ccc46169fbe","ios":"levelo://app?vid=1b38264d-b828-4294-b072-9ccc46169fbe"},"vehicle_type_id":"4","last_reported":1783349853,"current_range_meters":8000,"station_id":"","pricing_plan_id":"cebpf4jnsgd1na2vs0mg"},{"bike_id":"1ba829f8-b1b3-42c4-b7d6-56798fbfb19b","system_id":"levelo_inurba_marseille","lat":43.28452,"lon":5.35012,"is_reserved":false,"is_disabled":false,"rental_uris":{"android":"levelo://app?vid=1ba829f8-b1b3-42c4-b7d6-56798fbfb19b","ios":"levelo://app?vid=1ba829f8-b1b3-42c4-b7d6-56798fbfb19b"},"vehicle_type_id":"4","last_reported":1783349853,"current_range_meters":8000,"station_id":"ce4bhbh2rcd13ifvqepg","pricing_plan_id":"cebpf4jnsgd1na2vs0mg"},{"bike_id":"73e443e1-2477-4b71-bf45-384d41c85381","system_id":"levelo_inurba_marseille","lat":43.30781,"lon":5.38162,"is_reserved":false,"is_disabled":false,"rental_uris":{"android":"levelo://app?vid=73e443e1-2477-4b71-bf45-384d41c85381","ios":"levelo://app?vid=73e443e1-2477-4b71-bf45-384d41c85381"},"vehicle_type_id":"4","last_reported":1783349853,"current_range_meters":8000,"station_id":"ce4bgt12rcd13ifvqce0","pricing_plan_id":"cebpf4jnsgd1na2vs0mg"},{"bike_id":"e15144b4-f925-4d3b-b7a1-59a21d1656ff","system_id":"levelo_inurba_marseille","lat":43.29006,"lon":5.35616,"is_reserved":false,"is_disabled":false,"rental_uris":{"android":"levelo://app?vid=e15144b4-f925-4d3b-b7a1-59a21d1656ff","ios":"levelo://app?vid=e15144b4-f925-4d3b-b7a1-59a21d1656ff"},"vehicle_type_id":"4","last_reported":1783349853,"current_range_meters":8000,"station_id":"ce4bhb92rcd13ifvqen0","pricing_plan_id":"cebpf4jnsgd1na2vs0mg"},{"bike_id":"7df13a42-213a-4adb-bf29-05509243cca5","system_id":"levelo_inurba_marseille","lat":43.28433,"lon":5.35,"is_reserved":false,"is_disabled":false,"rental_uris":{"android":"levelo://app?vid=7df13a42-213a-4adb-bf29-05509243cca5","ios":"levelo://app?vid=7df13a42-213a-4adb-bf29-05509243cca5"},"vehicle_type_id":"4","last_reported":1783349853,"current_range_meters":8000,"station_id":"ce4bhbh2rcd13ifvqepg","pricing_plan_id":"cebpf4jnsgd1na2vs0mg"},{"bike_id":"fad3a5c8-af26-42f0-8125-e7b06c3c902b","system_id":"levelo_inurba_marseille","lat":43.2761,"lon":5.36119,"is_reserved":false,"is_disabled":false,"rental_uris":{"android":"levelo://app?vid=fad3a5c8-af26-42f0-8125-e7b06c3c902b","ios":"levelo://app?vid=fad3a5c8-af26-42f0-8125-e7b06c3c902b"},"vehicle_type_id":"4","last_reported":1783349853,"current_range_meters":8000,"station_id":"ce4bgj92rcd13ifvqbe0","pricing_plan_id":"cebpf4jnsgd1na2vs0mg"},{"bike_id":"73377ad8-1017-4729-947b-411971e4f44b","system_id":"levelo_inurba_marseille","lat":43.27735,"lon":5.41826,"is_reserved":false,"is_disabled":false,"rental_uris":{"android":"levelo://app?vid=73377ad8-1017-4729-947b-411971e4f44b","ios":"levelo://app?vid=73377ad8-1017-4729-947b-411971e4f44b"},"vehicle_type_id":"4","last_reported":1783349853,"current_range_meters":8000,"station_id":"","pricing_plan_id":"cebpf4jnsgd1na2vs0mg"},{"bike_id":"6ed3ba84-affb-4477-bd1b-10a2d5d8ecbf","system_id":"levelo_inurba_marseille","lat":43.24159,"lon":5.39733,"is_reserved":false,"is_disabled":false,"rental_uris":{"android":"levelo://app?vid=6ed3ba84-affb-4477-bd1b-10a2d5d8ecbf","ios":"levelo://app?vid=6ed3ba84-affb-4477-bd1b-10a2d5d8ecbf"},"vehicle_type_id":"4","last_reported":1783349853,"current_range_meters":8000,"station_id":"ce4bhn12rcd13ifvqgpg","pricing_plan_id":"cebpf4jnsgd1na2vs0mg"},{"bike_id":"6488f44b-4a0d-4c48-b396-f90282889bde","system_id":"levelo_inurba_marseille","lat":43.29583,"lon":5.37171,"is_reserved":false,"is_disabled":false,"rental_uris":{"android":"levelo://app?vid=6488f44b-4a0d-4c48-b396-f90282889bde","ios":"levelo://app?vid=6488f44b-4a0d-4c48-b396-f90282889bde"},"vehicle_type_id":"4","last_reported":1783349853,"current_range_meters":8000,"station_id":"","pricing_plan_id":"cebpf4jnsgd1na2vs0mg"},{"bike_id":"209cb0dd-c2b0-4490-883a-c1e5b1020f6f","system_id":"levelo_inurba_marseille","lat":43.2953,"lon":5.39037,"is_reserved":false,"is_disabled":false,"rental_uris":{"android":"levelo://app?vid=209cb0dd-c2b0-4490-883a-c1e5b1020f6f","ios":"levelo://app?vid=209cb0dd-c2b0-4490-883a-c1e5b1020f6f"},"vehicle_type_id":"4","last_reported":1783349853,"current_range_meters":8000,"station_id":"ce4bh3p2rcd13ifvqdp0","pricing_plan_id":"cebpf4jnsgd1na2vs0mg"},{"bike_id":"ddd68219-d816-4053-8fe9-0299395a5cad","system_id":"levelo_inurba_marseille","lat":43.30306,"lon":5.39212,"is_reserved":false,"is_disabled":false,"rental_uris":{"android":"levelo://app?vid=ddd68219-d816-4053-8fe9-0299395a5cad","ios":"levelo://app?vid=ddd68219-d816-4053-8fe9-0299395a5cad"},"vehicle_type_id":"4","last_reported":1783349853,"current_range_meters":8000,"station_id":"ce4bgkh2rcd13ifvqbk0","pricing_plan_id":"cebpf4jnsgd1na2vs0mg"},{"bike_id":"4c59db62-5427-46c6-9d26-5bad55e837ae","system_id":"levelo_inurba_marseille","lat":43.23629,"lon":5.40344,"is_reserved":false,"is_disabled":false,"rental_uris":{"android":"levelo://app?vid=4c59db62-5427-46c6-9d26-5bad55e837ae","ios":"levelo://app?vid=4c59db62-5427-46c6-9d26-5bad55e837ae"},"vehicle_type_id":"4","last_reported":1783349853,"current_range_meters":8000,"station_id":"","pricing_plan_id":"cebpf4jnsgd1na2vs0mg"},{"bike_id":"8f9589bc-5102-48ec-bff3-0aa876684c01","system_id":"levelo_inurba_marseille","lat":43.29812,"lon":5.44076,"is_reserved":false,"is_disabled":true,"rental_uris":{"android":"levelo://app?vid=8f9589bc-5102-48ec-bff3-0aa876684c01","ios":"levelo://app?vid=8f9589bc-5102-48ec-bff3-0aa876684c01"},"vehicle_type_id":"4","last_reported":1783349853,"current_range_meters":8000,"station_id":"st_d3jp68qikq2c7381ktn0","pricing_plan_id":"cebpf4jnsgd1na2vs0mg"},{"bike_id":"9e5a2ef5-40b8-4842-abef-5a9e0877c3d7","system_id":"levelo_inurba_marseille","lat":43.28477,"lon":5.484,"is_reserved":false,"is_disabled":false,"rental_uris":{"android":"levelo://app?vid=9e5a2ef5-40b8-4842-abef-5a9e0877c3d7","ios":"levelo://app?vid=9e5a2ef5-40b8-4842-abef-5a9e0877c3d7"},"vehicle_type_id":"4","last_reported":1783349853,"current_range_meters":8000,"station_id":"st_d3svhcjqgbts73a3dn0g","pricing_plan_id":"cebpf4jnsgd1na2vs0mg"},{"bike_id":"1a8a7f6a-0ee2-4da2-bf39-4449cfc5ab5e","system_id":"levelo_inurba_marseille","lat":43.29164,"lon":5.37154,"is_reserved":false,"is_disabled":false,"rental_uris":{"android":"levelo://app?vid=1a8a7f6a-0ee2-4da2-bf39-4449cfc5ab5e","ios":"levelo://app?vid=1a8a7f6a-0ee2-4da2-bf39-4449cfc5ab5e"},"vehicle_type_id":"4","last_reported":1783349853,"current_range_meters":8000,"station_id":"ce4bha92rcd13ifvqeh0","pricing_plan_id":"cebpf4jnsgd1na2vs0mg"},{"bike_id":"392c3337-6c79-43a2-8793-f52cbbcc2fa9","system_id":"levelo_inurba_marseille","lat":43.26563,"lon":5.42096,"is_reserved":false,"is_disabled":false,"rental_uris":{"android":"levelo://app?vid=392c3337-6c79-43a2-8793-f52cbbcc2fa9","ios":"levelo://app?vid=392c3337-6c79-43a2-8793-f52cbbcc2fa9"},"vehicle_type_id":"4","last_reported":1783349853,"current_range_meters":8000,"station_id":"","pricing_plan_id":"cebpf4jnsgd1na2vs0mg"},{"bike_id":"903a8d73-3e85-4052-8ea2-b67ffb0321fe","system_id":"levelo_inurba_marseille","lat":43.30897,"lon":5.36846,"is_reserved":false,"is_disabled":false,"rental_uris":{"android":"levelo://app?vid=903a8d73-3e85-4052-8ea2-b67ffb0321fe","ios":"levelo://app?vid=903a8d73-3e85-4052-8ea2-b67ffb0321fe"},"vehicle_type_id":"4","last_reported":1783349853,"current_range_meters":8000,"station_id":"ce4bgn92rcd13ifvqbvg","pricing_plan_id":"cebpf4jnsgd1na2vs0mg"},{"bike_id":"19f3fba2-8ddb-4260-9715-049faea429cc","system_id":"levelo_inurba_marseille","lat":43.25511,"lon":5.3765,"is_reserved":false,"is_disabled":false,"rental_uris":{"android":"levelo://app?vid=19f3fba2-8ddb-4260-9715-049faea429cc","ios":"levelo://app?vid=19f3fba2-8ddb-4260-9715-049faea429cc"},"vehicle_type_id":"4","last_reported":1783349853,"current_range_meters":8000,"station_id":"ce4bhh12rcd13ifvqff0","pricing_plan_id":"cebpf4jnsgd1na2vs0mg"},{"bike_id":"6c034547-84ec-496b-b01c-f88b93ca2686","system_id":"levelo_inurba_marseille","lat":43.24946,"lon":5.40494,"is_reserved":false,"is_disabled":false,"rental_uris":{"android":"levelo://app?vid=6c034547-84ec-496b-b01c-f88b93ca2686","ios":"levelo://app?vid=6c034547-84ec-496b-b01c-f88b93ca2686"},"vehicle_type_id":"4","last_reported":1783349853,"current_range_meters":8000,"station_id":"st_d2ngiaodas8pm72gd1h0","pricing_plan_id":"cebpf4jnsgd1na2vs0mg"},{"bike_id":"c499d0de-aed9-4aaf-b4c3-f5758bdb1bd5","system_id":"levelo_inurba_marseille","lat":43.2338,"lon":5.41211,"is_reserved":false,"is_disabled":false,"rental_uris":{"android":"levelo://app?vid=c499d0de-aed9-4aaf-b4c3-f5758bdb1bd5","ios":"levelo://app?vid=c499d0de-aed9-4aaf-b4c3-f5758bdb1bd5"},"vehicle_type_id":"4","last_reported":1783349853,"current_range_meters":8400,"station_id":"st_d75pvndhf9lc73cqq3eg","pricing_plan_id":"cebpf4jnsgd1na2vs0mg"},{"bike_id":"52688b43-18e1-43b3-994b-b8a5739f27b7","system_id":"levelo_inurba_marseille","lat":43.25095,"lon":5.40307,"is_reserved":false,"is_disabled":false,"rental_uris":{"android":"levelo://app?vid=52688b43-18e1-43b3-994b-b8a5739f27b7","ios":"levelo://app?vid=52688b43-18e1-43b3-994b-b8a5739f27b7"},"vehicle_type_id":"4","last_reported":1783349853,"current_range_meters":8400,"station_id":"ce4bhlh2rcd13ifvqgig","pricing_plan_id":"cebpf4jnsgd1na2vs0mg"},{"bike_id":"59abf897-d4a2-4050-b9a6-1fad61502d0c","system_id":"levelo_inurba_marseille","lat":43.25327,"lon":5.42172,"is_reserved":false,"is_disabled":false,"rental_uris":{"android":"levelo://app?vid=59abf897-d4a2-4050-b9a6-1fad61502d0c","ios":"levelo://app?vid=59abf897-d4a2-4050-b9a6-1fad61502d0c"},"vehicle_type_id":"4","last_reported":1783349853,"current_range_meters":8400,"station_id":"st_d2m65c5bi1j21697t3ng","pricing_plan_id":"cebpf4jnsgd1na2vs0mg"},{"bike_id":"36142c0d-ef9d-4fe6-a9f2-047e10afcb2e","system_id":"levelo_inurba_marseille","lat":43.29617,"lon":5.37165,"is_reserved":false,"is_disabled":false,"rental_uris":{"android":"levelo://app?vid=36142c0d-ef9d-4fe6-a9f2-047e10afcb2e","ios":"levelo://app?vid=36142c0d-ef9d-4fe6-a9f2-047e10afcb2e"},"vehicle_type_id":"4","last_reported":1783349853,"current_range_meters":8400,"station_id":"","pricing_plan_id":"cebpf4jnsgd1na2vs0mg"},{"bike_id":"043c2c43-2596-4f30-8123-f69d134d13b1","system_id":"levelo_inurba_marseille","lat":43.27685,"lon":5.38879,"is_reserved":false,"is_disabled":false,"rental_uris":{"android":"levelo://app?vid=043c2c43-2596-4f30-8123-f69d134d13b1","ios":"levelo://app?vid=043c2c43-2596-4f30-8123-f69d134d13b1"},"vehicle_type_id":"4","last_reported":1783349853,"current_range_meters":8400,"station_id":"ce4bhi12rcd13ifvqfo0","pricing_plan_id":"cebpf4jnsgd1na2vs0mg"},{"bike_id":"e08fc74e-e451-4f24-ac5f-579fadc941d9","system_id":"levelo_inurba_marseille","lat":43.33164,"lon":5.37697,"is_reserved":false,"is_disabled":false,"rental_uris":{"android":"levelo://app?vid=e08fc74e-e451-4f24-ac5f-579fadc941d9","ios":"levelo://app?vid=e08fc74e-e451-4f24-ac5f-579fadc941d9"},"vehicle_type_id":"4","last_reported":1783349853,"current_range_meters":8400,"station_id":"st_d46cu089ee8s73dldbu0","pricing_plan_id":"cebpf4jnsgd1na2vs0mg"},{"bike_id":"dd7aa57f-d22a-4904-8112-dc3ec403c36f","system_id":"levelo_inurba_marseille","lat":43.279,"lon":5.38018,"is_reserved":false,"is_disabled":false,"rental_uris":{"android":"levelo://app?vid=dd7aa57f-d22a-4904-8112-dc3ec403c36f","ios":"levelo://app?vid=dd7aa57f-d22a-4904-8112-dc3ec403c36f"},"vehicle_type_id":"4","last_reported":1783349853,"current_range_meters":8400,"station_id":"ce4bhf92rcd13ifvqf50","pricing_plan_id":"cebpf4jnsgd1na2vs0mg"},{"bike_id":"eee1ab4f-0966-4dad-963e-be6cfdcaaa46","system_id":"levelo_inurba_marseille","lat":43.24545,"lon":5.39525,"is_reserved":false,"is_disabled":true,"rental_uris":{"android":"levelo://app?vid=eee1ab4f-0966-4dad-963e-be6cfdcaaa46","ios":"levelo://app?vid=eee1ab4f-0966-4dad-963e-be6cfdcaaa46"},"vehicle_type_id":"4","last_reported":1783349853,"current_range_meters":8400,"station_id":"ce4bhlp2rcd13ifvqgjg","pricing_plan_id":"cebpf4jnsgd1na2vs0mg"},{"bike_id":"24cbbdbc-077b-4506-bc49-ab8c284fea64","system_id":"levelo_inurba_marseille","lat":43.30553,"lon":5.36554,"is_reserved":false,"is_disabled":false,"rental_uris":{"android":"levelo://app?vid=24cbbdbc-077b-4506-bc49-ab8c284fea64","ios":"levelo://app?vid=24cbbdbc-077b-4506-bc49-ab8c284fea64"},"vehicle_type_id":"4","last_reported":1783349853,"current_range_meters":8400,"station_id":"ce4bgs12rcd13ifvqcag","pricing_plan_id":"cebpf4jnsgd1na2vs0mg"},{"bike_id":"ec21b348-a79c-45e5-a2ca-3a10372453e7","system_id":"levelo_inurba_marseille","lat":43.31915,"lon":5.39899,"is_reserved":false,"is_disabled":false,"rental_uris":{"android":"levelo://app?vid=ec21b348-a79c-45e5-a2ca-3a10372453e7","ios":"levelo://app?vid=ec21b348-a79c-45e5-a2ca-3a10372453e7"},"vehicle_type_id":"4","last_reported":1783349853,"current_range_meters":8400,"station_id":"","pricing_plan_id":"cebpf4jnsgd1na2vs0mg"},{"bike_id":"19f607a3-0a54-4eff-a69a-0f6684840ec5","system_id":"levelo_inurba_marseille","lat":43.25005,"lon":5.40503,"is_reserved":false,"is_disabled":false,"rental_uris":{"android":"levelo://app?vid=19f607a3-0a54-4eff-a69a-0f6684840ec5","ios":"levelo://app?vid=19f607a3-0a54-4eff-a69a-0f6684840ec5"},"vehicle_type_id":"4","last_reported":1783349853,"current_range_meters":8400,"station_id":"","pricing_plan_id":"cebpf4jnsgd1na2vs0mg"},{"bike_id":"7cf32376-6200-45ff-ae05-abfa930fbf9e","system_id":"levelo_inurba_marseille","lat":43.26565,"lon":5.40293,"is_reserved":false,"is_disabled":false,"rental_uris":{"android":"levelo://app?vid=7cf32376-6200-45ff-ae05-abfa930fbf9e","ios":"levelo://app?vid=7cf32376-6200-45ff-ae05-abfa930fbf9e"},"vehicle_type_id":"4","last_reported":1783349853,"current_range_meters":8400,"station_id":"ce4bhmp2rcd13ifvqgng","pricing_plan_id":"cebpf4jnsgd1na2vs0mg"},{"bike_id":"b274b0c3-df88-4650-ae41-1a18588c3d47","system_id":"levelo_inurba_marseille","lat":43.28885,"lon":5.42509,"is_reserved":false,"is_disabled":false,"rental_uris":{"android":"levelo://app?vid=b274b0c3-df88-4650-ae41-1a18588c3d47","ios":"levelo://app?vid=b274b0c3-df88-4650-ae41-1a18588c3d47"},"vehicle_type_id":"4","last_reported":1783349853,"current_range_meters":8400,"station_id":"st_d3b462108ojc7389ooeg","pricing_plan_id":"cebpf4jnsgd1na2vs0mg"},{"bike_id":"6c1578a9-cf4e-4dca-8bb8-d3addb11f80a","system_id":"levelo_inurba_marseille","lat":43.25131,"lon":5.38586,"is_reserved":false,"is_disabled":false,"rental_uris":{"android":"levelo://app?vid=6c1578a9-cf4e-4dca-8bb8-d3addb11f80a","ios":"levelo://app?vid=6c1578a9-cf4e-4dca-8bb8-d3addb11f80a"},"vehicle_type_id":"4","last_reported":1783349853,"current_range_meters":8400,"station_id":"","pricing_plan_id":"cebpf4jnsgd1na2vs0mg"},{"bike_id":"923d41a3-8645-4982-974a-5bbaf0465862","system_id":"levelo_inurba_marseille","lat":43.23898,"lon":5.37462,"is_reserved":false,"is_disabled":true,"rental_uris":{"android":"levelo://app?vid=923d41a3-8645-4982-974a-5bbaf0465862","ios":"levelo://app?vid=923d41a3-8645-4982-974a-5bbaf0465862"},"vehicle_type_id":"4","last_reported":1783349853,"current_range_meters":8400,"station_id":"st_d6sm7csbq4hs73f8fpjg","pricing_plan_id":"cebpf4jnsgd1na2vs0mg"},{"bike_id":"7e7db7de-590b-4a1b-a86a-87265c93e888","system_id":"levelo_inurba_marseille","lat":43.31488,"lon":5.3958,"is_reserved":false,"is_disabled":false,"rental_uris":{"android":"levelo://app?vid=7e7db7de-590b-4a1b-a86a-87265c93e888","ios":"levelo://app?vid=7e7db7de-590b-4a1b-a86a-87265c93e888"},"vehicle_type_id":"4","last_reported":1783349853,"current_range_meters":8400,"station_id":"","pricing_plan_id":"cebpf4jnsgd1na2vs0mg"},{"bike_id":"9ac84312-7125-4385-9d1b-f294d86799d9","system_id":"levelo_inurba_marseille","lat":43.24347,"lon":5.40595,"is_reserved":false,"is_disabled":false,"rental_uris":{"android":"levelo://app?vid=9ac84312-7125-4385-9d1b-f294d86799d9","ios":"levelo://app?vid=9ac84312-7125-4385-9d1b-f294d86799d9"},"vehicle_type_id":"4","last_reported":1783349853,"current_range_meters":8400,"station_id":"","pricing_plan_id":"cebpf4jnsgd1na2vs0mg"},{"bike_id":"24ff53ec-892f-4615-b514-84f5b71559d0","system_id":"levelo_inurba_marseille","lat":43.27369,"lon":5.36259,"is_reserved":false,"is_disabled":false,"rental_uris":{"android":"levelo://app?vid=24ff53ec-892f-4615-b514-84f5b71559d0","ios":"levelo://app?vid=24ff53ec-892f-4615-b514-84f5b71559d0"},"vehicle_type_id":"4","last_reported":1783349853,"current_range_meters":8400,"station_id":"ce4bhbh2rcd13ifvqeo0","pricing_plan_id":"cebpf4jnsgd1na2vs0mg"},{"bike_id":"fae412d4-a559-49f1-b442-c646a1c88759","system_id":"levelo_inurba_marseille","lat":43.28266,"lon":5.35076,"is_reserved":false,"is_disabled":false,"rental_uris":{"android":"levelo://app?vid=fae412d4-a559-49f1-b442-c646a1c88759","ios":"levelo://app?vid=fae412d4-a559-49f1-b442-c646a1c88759"},"vehicle_type_id":"4","last_reported":1783349853,"current_range_meters":8400,"station_id":"ce4bhbp2rcd13ifvqerg","pricing_plan_id":"cebpf4jnsgd1na2vs0mg"},{"bike_id":"48e9f399-608e-4ef3-aef5-0ea0fdd27ad4","system_id":"levelo_inurba_marseille","lat":43.29252,"lon":5.40911,"is_reserved":false,"is_disabled":true,"rental_uris":{"android":"levelo://app?vid=48e9f399-608e-4ef3-aef5-0ea0fdd27ad4","ios":"levelo://app?vid=48e9f399-608e-4ef3-aef5-0ea0fdd27ad4"},"vehicle_type_id":"4","last_reported":1783349853,"current_range_meters":8400,"station_id":"ce4bh192rcd13ifvqdc0","pricing_plan_id":"cebpf4jnsgd1na2vs0mg"},{"bike_id":"ce246acd-8c78-4e93-8d68-b477575009da","system_id":"levelo_inurba_marseille","lat":43.25221,"lon":5.3778,"is_reserved":false,"is_disabled":false,"rental_uris":{"android":"levelo://app?vid=ce246acd-8c78-4e93-8d68-b477575009da","ios":"levelo://app?vid=ce246acd-8c78-4e93-8d68-b477575009da"},"vehicle_type_id":"4","last_reported":1783349853,"current_range_meters":8400,"station_id":"","pricing_plan_id":"cebpf4jnsgd1na2vs0mg"},{"bike_id":"92c5886b-5a03-488a-8b5f-50d90d52a970","system_id":"levelo_inurba_marseille","lat":43.29788,"lon":5.37824,"is_reserved":false,"is_disabled":false,"rental_uris":{"android":"levelo://app?vid=92c5886b-5a03-488a-8b5f-50d90d52a970","ios":"levelo://app?vid=92c5886b-5a03-488a-8b5f-50d90d52a970"},"vehicle_type_id":"4","last_reported":1783349853,"current_range_meters":8400,"station_id":"","pricing_plan_id":"cebpf4jnsgd1na2vs0mg"},{"bike_id":"571d29d6-2cf8-4e5f-98a7-2ac3457992e4","system_id":"levelo_inurba_marseille","lat":43.30327,"lon":5.40435,"is_reserved":false,"is_disabled":false,"rental_uris":{"android":"levelo://app?vid=571d29d6-2cf8-4e5f-98a7-2ac3457992e4","ios":"levelo://app?vid=571d29d6-2cf8-4e5f-98a7-2ac3457992e4"},"vehicle_type_id":"4","last_reported":1783349853,"current_range_meters":8400,"station_id":"ce4bh012rcd13ifvqd10","pricing_plan_id":"cebpf4jnsgd1na2vs0mg"},{"bike_id":"0c9ce47f-718c-4d0d-872f-a5d5776397b3","system_id":"levelo_inurba_marseille","lat":43.31901,"lon":5.36813,"is_reserved":false,"is_disabled":false,"rental_uris":{"android":"levelo://app?vid=0c9ce47f-718c-4d0d-872f-a5d5776397b3","ios":"levelo://app?vid=0c9ce47f-718c-4d0d-872f-a5d5776397b3"},"vehicle_type_id":"4","last_reported":1783349853,"current_range_meters":8400,"station_id":"st_d6o2h0d0559c73evc1b0","pricing_plan_id":"cebpf4jnsgd1na2vs0mg"},{"bike_id":"9dbc6b5d-d921-4618-b2d6-4ccd5a1ce15a","system_id":"levelo_inurba_marseille","lat":43.31113,"lon":5.38236,"is_reserved":false,"is_disabled":false,"rental_uris":{"android":"levelo://app?vid=9dbc6b5d-d921-4618-b2d6-4ccd5a1ce15a","ios":"levelo://app?vid=9dbc6b5d-d921-4618-b2d6-4ccd5a1ce15a"},"vehicle_type_id":"4","last_reported":1783349853,"current_range_meters":8800,"station_id":"","pricing_plan_id":"cebpf4jnsgd1na2vs0mg"},