{"last_updated":1779431902,"ttl":60,"version":"2.2","data":{"bikes":[{"bike_id":"7d641315-6110-49cb-a9dd-d637ff032de1","system_id":"levelo_inurba_marseille","lat":43.337444,"lon":5.374475,"is_reserved":false,"is_disabled":false,"rental_uris":{"android":"levelo://app?vid=7d641315-6110-49cb-a9dd-d637ff032de1","ios":"levelo://app?vid=7d641315-6110-49cb-a9dd-d637ff032de1"},"vehicle_type_id":"4","last_reported":1779431903,"current_range_meters":0,"station_id":"","pricing_plan_id":"cebpf4jnsgd1na2vs0mg"},{"bike_id":"375ee5aa-b3a4-4687-9cb5-9ce27e5d544e","system_id":"levelo_inurba_marseille","lat":43.31086,"lon":5.42424,"is_reserved":false,"is_disabled":false,"rental_uris":{"android":"levelo://app?vid=375ee5aa-b3a4-4687-9cb5-9ce27e5d544e","ios":"levelo://app?vid=375ee5aa-b3a4-4687-9cb5-9ce27e5d544e"},"vehicle_type_id":"4","last_reported":1779431903,"current_range_meters":2800,"station_id":"ce4bhp92rcd13ifvqhag","pricing_plan_id":"cebpf4jnsgd1na2vs0mg"},{"bike_id":"d7b1d80e-ee26-4f2a-8580-16b04d1e386f","system_id":"levelo_inurba_marseille","lat":43.28347,"lon":5.38627,"is_reserved":false,"is_disabled":false,"rental_uris":{"android":"levelo://app?vid=d7b1d80e-ee26-4f2a-8580-16b04d1e386f","ios":"levelo://app?vid=d7b1d80e-ee26-4f2a-8580-16b04d1e386f"},"vehicle_type_id":"4","last_reported":1779431903,"current_range_meters":2800,"station_id":"ce4bh492rcd13ifvqdvg","pricing_plan_id":"cebpf4jnsgd1na2vs0mg"},{"bike_id":"15a8d13c-fc9e-4e13-9398-c1cbd662c288","system_id":"levelo_inurba_marseille","lat":43.29645,"lon":5.38559,"is_reserved":false,"is_disabled":false,"rental_uris":{"android":"levelo://app?vid=15a8d13c-fc9e-4e13-9398-c1cbd662c288","ios":"levelo://app?vid=15a8d13c-fc9e-4e13-9398-c1cbd662c288"},"vehicle_type_id":"4","last_reported":1779431903,"current_range_meters":2800,"station_id":"","pricing_plan_id":"cebpf4jnsgd1na2vs0mg"},{"bike_id":"381a1687-3b4c-4e43-ada7-0b296f458493","system_id":"levelo_inurba_marseille","lat":43.28745,"lon":5.46694,"is_reserved":false,"is_disabled":false,"rental_uris":{"android":"levelo://app?vid=381a1687-3b4c-4e43-ada7-0b296f458493","ios":"levelo://app?vid=381a1687-3b4c-4e43-ada7-0b296f458493"},"vehicle_type_id":"4","last_reported":1779431903,"current_range_meters":2800,"station_id":"","pricing_plan_id":"cebpf4jnsgd1na2vs0mg"},{"bike_id":"4eac4cb7-ac0f-4d84-866a-aa96362632a2","system_id":"levelo_inurba_marseille","lat":43.25351,"lon":5.42159,"is_reserved":false,"is_disabled":false,"rental_uris":{"android":"levelo://app?vid=4eac4cb7-ac0f-4d84-866a-aa96362632a2","ios":"levelo://app?vid=4eac4cb7-ac0f-4d84-866a-aa96362632a2"},"vehicle_type_id":"4","last_reported":1779431903,"current_range_meters":2800,"station_id":"st_d2m65c5bi1j21697t3ng","pricing_plan_id":"cebpf4jnsgd1na2vs0mg"},{"bike_id":"b68eb3d2-17fb-4aba-81ac-005281b9fd8e","system_id":"levelo_inurba_marseille","lat":43.30156,"lon":5.38101,"is_reserved":false,"is_disabled":false,"rental_uris":{"android":"levelo://app?vid=b68eb3d2-17fb-4aba-81ac-005281b9fd8e","ios":"levelo://app?vid=b68eb3d2-17fb-4aba-81ac-005281b9fd8e"},"vehicle_type_id":"4","last_reported":1779431903,"current_range_meters":2800,"station_id":"ce4bgjp2rcd13ifvqbh0","pricing_plan_id":"cebpf4jnsgd1na2vs0mg"},{"bike_id":"8a0dc731-2fcb-41f9-8c7d-3c07ea626aeb","system_id":"levelo_inurba_marseille","lat":43.23965,"lon":5.36641,"is_reserved":false,"is_disabled":true,"rental_uris":{"android":"levelo://app?vid=8a0dc731-2fcb-41f9-8c7d-3c07ea626aeb","ios":"levelo://app?vid=8a0dc731-2fcb-41f9-8c7d-3c07ea626aeb"},"vehicle_type_id":"4","last_reported":1779431903,"current_range_meters":2800,"station_id":"ce4bhi12rcd13ifvqfp0","pricing_plan_id":"cebpf4jnsgd1na2vs0mg"},{"bike_id":"edec73d7-ad55-431c-b648-fddf82034d35","system_id":"levelo_inurba_marseille","lat":43.30951,"lon":5.39042,"is_reserved":false,"is_disabled":false,"rental_uris":{"android":"levelo://app?vid=edec73d7-ad55-431c-b648-fddf82034d35","ios":"levelo://app?vid=edec73d7-ad55-431c-b648-fddf82034d35"},"vehicle_type_id":"4","last_reported":1779431903,"current_range_meters":2800,"station_id":"ce4bgup2rcd13ifvqco0","pricing_plan_id":"cebpf4jnsgd1na2vs0mg"},{"bike_id":"8c39b6dd-b754-48e2-823c-6f28d51803e0","system_id":"levelo_inurba_marseille","lat":43.2928,"lon":5.39846,"is_reserved":false,"is_disabled":false,"rental_uris":{"android":"levelo://app?vid=8c39b6dd-b754-48e2-823c-6f28d51803e0","ios":"levelo://app?vid=8c39b6dd-b754-48e2-823c-6f28d51803e0"},"vehicle_type_id":"4","last_reported":1779431903,"current_range_meters":2800,"station_id":"","pricing_plan_id":"cebpf4jnsgd1na2vs0mg"},{"bike_id":"b9b8e9c9-593b-44b2-9da6-20e21abfea1f","system_id":"levelo_inurba_marseille","lat":43.30535,"lon":5.38446,"is_reserved":false,"is_disabled":false,"rental_uris":{"android":"levelo://app?vid=b9b8e9c9-593b-44b2-9da6-20e21abfea1f","ios":"levelo://app?vid=b9b8e9c9-593b-44b2-9da6-20e21abfea1f"},"vehicle_type_id":"4","last_reported":1779431903,"current_range_meters":2800,"station_id":"ce4bgg92rcd13ifvqb30","pricing_plan_id":"cebpf4jnsgd1na2vs0mg"},{"bike_id":"5b4415ad-a4dc-411a-998f-95c741ec1563","system_id":"levelo_inurba_marseille","lat":43.29879,"lon":5.39755,"is_reserved":false,"is_disabled":false,"rental_uris":{"android":"levelo://app?vid=5b4415ad-a4dc-411a-998f-95c741ec1563","ios":"levelo://app?vid=5b4415ad-a4dc-411a-998f-95c741ec1563"},"vehicle_type_id":"4","last_reported":1779431903,"current_range_meters":3200,"station_id":"ce4bh0h2rcd13ifvqd50","pricing_plan_id":"cebpf4jnsgd1na2vs0mg"},{"bike_id":"e71cb309-ac24-426e-93f0-69a0b4b8a422","system_id":"levelo_inurba_marseille","lat":43.28408,"lon":5.39883,"is_reserved":false,"is_disabled":false,"rental_uris":{"android":"levelo://app?vid=e71cb309-ac24-426e-93f0-69a0b4b8a422","ios":"levelo://app?vid=e71cb309-ac24-426e-93f0-69a0b4b8a422"},"vehicle_type_id":"4","last_reported":1779431903,"current_range_meters":3200,"station_id":"","pricing_plan_id":"cebpf4jnsgd1na2vs0mg"},{"bike_id":"e7d55ff2-76c8-4b77-819b-53f9e3aa018a","system_id":"levelo_inurba_marseille","lat":43.23187,"lon":5.35534,"is_reserved":false,"is_disabled":false,"rental_uris":{"android":"levelo://app?vid=e7d55ff2-76c8-4b77-819b-53f9e3aa018a","ios":"levelo://app?vid=e7d55ff2-76c8-4b77-819b-53f9e3aa018a"},"vehicle_type_id":"4","last_reported":1779431903,"current_range_meters":3200,"station_id":"ce4bhu92rcd13ifvqi70","pricing_plan_id":"cebpf4jnsgd1na2vs0mg"},{"bike_id":"78f812ec-bab0-4f50-a516-9757540477a3","system_id":"levelo_inurba_marseille","lat":43.25342,"lon":5.42167,"is_reserved":false,"is_disabled":false,"rental_uris":{"android":"levelo://app?vid=78f812ec-bab0-4f50-a516-9757540477a3","ios":"levelo://app?vid=78f812ec-bab0-4f50-a516-9757540477a3"},"vehicle_type_id":"4","last_reported":1779431903,"current_range_meters":3200,"station_id":"st_d2m65c5bi1j21697t3ng","pricing_plan_id":"cebpf4jnsgd1na2vs0mg"},{"bike_id":"e7b2834d-0414-4c8b-95bb-dbeba87a5cba","system_id":"levelo_inurba_marseille","lat":43.32928,"lon":5.38936,"is_reserved":false,"is_disabled":false,"rental_uris":{"android":"levelo://app?vid=e7b2834d-0414-4c8b-95bb-dbeba87a5cba","ios":"levelo://app?vid=e7b2834d-0414-4c8b-95bb-dbeba87a5cba"},"vehicle_type_id":"4","last_reported":1779431903,"current_range_meters":3200,"station_id":"","pricing_plan_id":"cebpf4jnsgd1na2vs0mg"},{"bike_id":"9f851e0d-2bc6-43e8-9dbb-3054f97344b0","system_id":"levelo_inurba_marseille","lat":43.30092,"lon":5.37263,"is_reserved":false,"is_disabled":false,"rental_uris":{"android":"levelo://app?vid=9f851e0d-2bc6-43e8-9dbb-3054f97344b0","ios":"levelo://app?vid=9f851e0d-2bc6-43e8-9dbb-3054f97344b0"},"vehicle_type_id":"4","last_reported":1779431903,"current_range_meters":3200,"station_id":"","pricing_plan_id":"cebpf4jnsgd1na2vs0mg"},{"bike_id":"cbd7bd04-ae6d-406b-9063-7346633b0d77","system_id":"levelo_inurba_marseille","lat":43.31331,"lon":5.36728,"is_reserved":false,"is_disabled":false,"rental_uris":{"android":"levelo://app?vid=cbd7bd04-ae6d-406b-9063-7346633b0d77","ios":"levelo://app?vid=cbd7bd04-ae6d-406b-9063-7346633b0d77"},"vehicle_type_id":"4","last_reported":1779431903,"current_range_meters":3200,"station_id":"ce4bgr92rcd13ifvqc6g","pricing_plan_id":"cebpf4jnsgd1na2vs0mg"},{"bike_id":"cc19f120-bd86-4a37-a89b-9fc96e21bb8e","system_id":"levelo_inurba_marseille","lat":43.30598,"lon":5.39361,"is_reserved":false,"is_disabled":false,"rental_uris":{"android":"levelo://app?vid=cc19f120-bd86-4a37-a89b-9fc96e21bb8e","ios":"levelo://app?vid=cc19f120-bd86-4a37-a89b-9fc96e21bb8e"},"vehicle_type_id":"4","last_reported":1779431903,"current_range_meters":3200,"station_id":"ce4bh0p2rcd13ifvqd80","pricing_plan_id":"cebpf4jnsgd1na2vs0mg"},{"bike_id":"0321d62e-a49a-4108-9800-eb716aba0f29","system_id":"levelo_inurba_marseille","lat":43.30162,"lon":5.3809,"is_reserved":false,"is_disabled":false,"rental_uris":{"android":"levelo://app?vid=0321d62e-a49a-4108-9800-eb716aba0f29","ios":"levelo://app?vid=0321d62e-a49a-4108-9800-eb716aba0f29"},"vehicle_type_id":"4","last_reported":1779431903,"current_range_meters":3200,"station_id":"ce4bgjp2rcd13ifvqbh0","pricing_plan_id":"cebpf4jnsgd1na2vs0mg"},{"bike_id":"fce1290f-7196-4f55-a35d-2330a9f91fd0","system_id":"levelo_inurba_marseille","lat":43.30159,"lon":5.38085,"is_reserved":false,"is_disabled":false,"rental_uris":{"android":"levelo://app?vid=fce1290f-7196-4f55-a35d-2330a9f91fd0","ios":"levelo://app?vid=fce1290f-7196-4f55-a35d-2330a9f91fd0"},"vehicle_type_id":"4","last_reported":1779431903,"current_range_meters":3200,"station_id":"ce4bgjp2rcd13ifvqbh0","pricing_plan_id":"cebpf4jnsgd1na2vs0mg"},{"bike_id":"0b9fb95c-cf6b-4ed5-8bf4-759fc5a571cc","system_id":"levelo_inurba_marseille","lat":43.26861,"lon":5.40676,"is_reserved":false,"is_disabled":false,"rental_uris":{"android":"levelo://app?vid=0b9fb95c-cf6b-4ed5-8bf4-759fc5a571cc","ios":"levelo://app?vid=0b9fb95c-cf6b-4ed5-8bf4-759fc5a571cc"},"vehicle_type_id":"4","last_reported":1779431903,"current_range_meters":3200,"station_id":"","pricing_plan_id":"cebpf4jnsgd1na2vs0mg"},{"bike_id":"cb07d697-a347-4c99-9a4f-5019252e5bb8","system_id":"levelo_inurba_marseille","lat":43.23192,"lon":5.40002,"is_reserved":false,"is_disabled":true,"rental_uris":{"android":"levelo://app?vid=cb07d697-a347-4c99-9a4f-5019252e5bb8","ios":"levelo://app?vid=cb07d697-a347-4c99-9a4f-5019252e5bb8"},"vehicle_type_id":"4","last_reported":1779431903,"current_range_meters":3200,"station_id":"ce4bhn12rcd13ifvqgqg","pricing_plan_id":"cebpf4jnsgd1na2vs0mg"},{"bike_id":"2417956b-f325-4b75-806c-e42e7b7f598c","system_id":"levelo_inurba_marseille","lat":43.24948,"lon":5.41753,"is_reserved":false,"is_disabled":false,"rental_uris":{"android":"levelo://app?vid=2417956b-f325-4b75-806c-e42e7b7f598c","ios":"levelo://app?vid=2417956b-f325-4b75-806c-e42e7b7f598c"},"vehicle_type_id":"4","last_reported":1779431903,"current_range_meters":3200,"station_id":"","pricing_plan_id":"cebpf4jnsgd1na2vs0mg"},{"bike_id":"dc2fbefa-07ae-49d6-920f-d2512506b1a6","system_id":"levelo_inurba_marseille","lat":43.33134,"lon":5.3771,"is_reserved":false,"is_disabled":false,"rental_uris":{"android":"levelo://app?vid=dc2fbefa-07ae-49d6-920f-d2512506b1a6","ios":"levelo://app?vid=dc2fbefa-07ae-49d6-920f-d2512506b1a6"},"vehicle_type_id":"4","last_reported":1779431903,"current_range_meters":3200,"station_id":"st_d46cu089ee8s73dldbu0","pricing_plan_id":"cebpf4jnsgd1na2vs0mg"},{"bike_id":"a35e1803-3fe9-465f-882b-81cbdf2e22e2","system_id":"levelo_inurba_marseille","lat":43.299242,"lon":5.374721,"is_reserved":false,"is_disabled":false,"rental_uris":{"android":"levelo://app?vid=a35e1803-3fe9-465f-882b-81cbdf2e22e2","ios":"levelo://app?vid=a35e1803-3fe9-465f-882b-81cbdf2e22e2"},"vehicle_type_id":"4","last_reported":1779431903,"current_range_meters":3600,"station_id":"ce4bgjh2rcd13ifvqbg0","pricing_plan_id":"cebpf4jnsgd1na2vs0mg"},{"bike_id":"94c49980-82e9-40c1-8742-79af726fe66b","system_id":"levelo_inurba_marseille","lat":43.29881,"lon":5.42096,"is_reserved":false,"is_disabled":false,"rental_uris":{"android":"levelo://app?vid=94c49980-82e9-40c1-8742-79af726fe66b","ios":"levelo://app?vid=94c49980-82e9-40c1-8742-79af726fe66b"},"vehicle_type_id":"4","last_reported":1779431903,"current_range_meters":3600,"station_id":"st_d6tc004otcvc738tfe70","pricing_plan_id":"cebpf4jnsgd1na2vs0mg"},{"bike_id":"89a2cb0b-bc46-4de2-93af-9c3b592789e0","system_id":"levelo_inurba_marseille","lat":43.308876,"lon":5.368632,"is_reserved":false,"is_disabled":false,"rental_uris":{"android":"levelo://app?vid=89a2cb0b-bc46-4de2-93af-9c3b592789e0","ios":"levelo://app?vid=89a2cb0b-bc46-4de2-93af-9c3b592789e0"},"vehicle_type_id":"4","last_reported":1779431903,"current_range_meters":3600,"station_id":"ce4bgn92rcd13ifvqbvg","pricing_plan_id":"cebpf4jnsgd1na2vs0mg"},{"bike_id":"581ee874-046c-44c0-a971-57097c81dc28","system_id":"levelo_inurba_marseille","lat":43.31719,"lon":5.42402,"is_reserved":false,"is_disabled":false,"rental_uris":{"android":"levelo://app?vid=581ee874-046c-44c0-a971-57097c81dc28","ios":"levelo://app?vid=581ee874-046c-44c0-a971-57097c81dc28"},"vehicle_type_id":"4","last_reported":1779431903,"current_range_meters":3600,"station_id":"ce4bhp92rcd13ifvqhbg","pricing_plan_id":"cebpf4jnsgd1na2vs0mg"},{"bike_id":"a87f939d-d148-421f-86fd-ea6aa199d2e0","system_id":"levelo_inurba_marseille","lat":43.29037,"lon":5.39998,"is_reserved":false,"is_disabled":false,"rental_uris":{"android":"levelo://app?vid=a87f939d-d148-421f-86fd-ea6aa199d2e0","ios":"levelo://app?vid=a87f939d-d148-421f-86fd-ea6aa199d2e0"},"vehicle_type_id":"4","last_reported":1779431903,"current_range_meters":3600,"station_id":"ce4bh392rcd13ifvqdm0","pricing_plan_id":"cebpf4jnsgd1na2vs0mg"},{"bike_id":"8157d7f0-4ca8-4b62-ad2b-8c365be299bf","system_id":"levelo_inurba_marseille","lat":43.29052,"lon":5.3591,"is_reserved":false,"is_disabled":true,"rental_uris":{"android":"levelo://app?vid=8157d7f0-4ca8-4b62-ad2b-8c365be299bf","ios":"levelo://app?vid=8157d7f0-4ca8-4b62-ad2b-8c365be299bf"},"vehicle_type_id":"4","last_reported":1779431903,"current_range_meters":3600,"station_id":"ce4bha92rcd13ifvqeg0","pricing_plan_id":"cebpf4jnsgd1na2vs0mg"},{"bike_id":"8e7115e5-afd0-482b-bfd7-f75a7925e115","system_id":"levelo_inurba_marseille","lat":43.30246,"lon":5.4123,"is_reserved":false,"is_disabled":false,"rental_uris":{"android":"levelo://app?vid=8e7115e5-afd0-482b-bfd7-f75a7925e115","ios":"levelo://app?vid=8e7115e5-afd0-482b-bfd7-f75a7925e115"},"vehicle_type_id":"4","last_reported":1779431903,"current_range_meters":3600,"station_id":"","pricing_plan_id":"cebpf4jnsgd1na2vs0mg"},{"bike_id":"c7554278-e92a-47d0-b30f-de753853036d","system_id":"levelo_inurba_marseille","lat":43.30137,"lon":5.38078,"is_reserved":false,"is_disabled":false,"rental_uris":{"android":"levelo://app?vid=c7554278-e92a-47d0-b30f-de753853036d","ios":"levelo://app?vid=c7554278-e92a-47d0-b30f-de753853036d"},"vehicle_type_id":"4","last_reported":1779431903,"current_range_meters":3600,"station_id":"ce4bgjp2rcd13ifvqbh0","pricing_plan_id":"cebpf4jnsgd1na2vs0mg"},{"bike_id":"d33b09f5-5d77-4626-adec-db377a725ebb","system_id":"levelo_inurba_marseille","lat":43.2827,"lon":5.35065,"is_reserved":false,"is_disabled":false,"rental_uris":{"android":"levelo://app?vid=d33b09f5-5d77-4626-adec-db377a725ebb","ios":"levelo://app?vid=d33b09f5-5d77-4626-adec-db377a725ebb"},"vehicle_type_id":"4","last_reported":1779431903,"current_range_meters":3600,"station_id":"ce4bhbp2rcd13ifvqerg","pricing_plan_id":"cebpf4jnsgd1na2vs0mg"},{"bike_id":"ba500815-2af2-4949-a01a-ce2c02f73453","system_id":"levelo_inurba_marseille","lat":43.26935,"lon":5.38918,"is_reserved":false,"is_disabled":false,"rental_uris":{"android":"levelo://app?vid=ba500815-2af2-4949-a01a-ce2c02f73453","ios":"levelo://app?vid=ba500815-2af2-4949-a01a-ce2c02f73453"},"vehicle_type_id":"4","last_reported":1779431903,"current_range_meters":3600,"station_id":"ce4bhhh2rcd13ifvqfl0","pricing_plan_id":"cebpf4jnsgd1na2vs0mg"},{"bike_id":"5c0266f3-3aa4-40cd-9e77-607330169424","system_id":"levelo_inurba_marseille","lat":43.30591,"lon":5.39335,"is_reserved":false,"is_disabled":false,"rental_uris":{"android":"levelo://app?vid=5c0266f3-3aa4-40cd-9e77-607330169424","ios":"levelo://app?vid=5c0266f3-3aa4-40cd-9e77-607330169424"},"vehicle_type_id":"4","last_reported":1779431903,"current_range_meters":3600,"station_id":"ce4bh0p2rcd13ifvqd80","pricing_plan_id":"cebpf4jnsgd1na2vs0mg"},{"bike_id":"b9886a38-37d7-4c62-a56d-ea966413b93c","system_id":"levelo_inurba_marseille","lat":43.32056,"lon":5.4154,"is_reserved":false,"is_disabled":false,"rental_uris":{"android":"levelo://app?vid=b9886a38-37d7-4c62-a56d-ea966413b93c","ios":"levelo://app?vid=b9886a38-37d7-4c62-a56d-ea966413b93c"},"vehicle_type_id":"4","last_reported":1779431903,"current_range_meters":3600,"station_id":"ce4bhq92rcd13ifvqhkg","pricing_plan_id":"cebpf4jnsgd1na2vs0mg"},{"bike_id":"0d6850ad-21c4-42ea-b16d-4cbd35bf8737","system_id":"levelo_inurba_marseille","lat":43.27498,"lon":5.42455,"is_reserved":false,"is_disabled":false,"rental_uris":{"android":"levelo://app?vid=0d6850ad-21c4-42ea-b16d-4cbd35bf8737","ios":"levelo://app?vid=0d6850ad-21c4-42ea-b16d-4cbd35bf8737"},"vehicle_type_id":"4","last_reported":1779431903,"current_range_meters":3600,"station_id":"ce4bhn92rcd13ifvqgrg","pricing_plan_id":"cebpf4jnsgd1na2vs0mg"},{"bike_id":"54414197-7a79-46ce-891d-758db7720b8c","system_id":"levelo_inurba_marseille","lat":43.2732,"lon":5.39078,"is_reserved":false,"is_disabled":true,"rental_uris":{"android":"levelo://app?vid=54414197-7a79-46ce-891d-758db7720b8c","ios":"levelo://app?vid=54414197-7a79-46ce-891d-758db7720b8c"},"vehicle_type_id":"4","last_reported":1779431903,"current_range_meters":3600,"station_id":"ce4bhgp2rcd13ifvqfe0","pricing_plan_id":"cebpf4jnsgd1na2vs0mg"},{"bike_id":"42e72b46-ea89-4b33-95be-8c38a16c88bd","system_id":"levelo_inurba_marseille","lat":43.28205,"lon":5.39065,"is_reserved":false,"is_disabled":false,"rental_uris":{"android":"levelo://app?vid=42e72b46-ea89-4b33-95be-8c38a16c88bd","ios":"levelo://app?vid=42e72b46-ea89-4b33-95be-8c38a16c88bd"},"vehicle_type_id":"4","last_reported":1779431903,"current_range_meters":3600,"station_id":"ce4bhn92rcd13ifvqgsg","pricing_plan_id":"cebpf4jnsgd1na2vs0mg"},{"bike_id":"bd6864bb-c074-4fe7-b863-12369d6725c5","system_id":"levelo_inurba_marseille","lat":43.31357,"lon":5.3849,"is_reserved":false,"is_disabled":false,"rental_uris":{"android":"levelo://app?vid=bd6864bb-c074-4fe7-b863-12369d6725c5","ios":"levelo://app?vid=bd6864bb-c074-4fe7-b863-12369d6725c5"},"vehicle_type_id":"4","last_reported":1779431903,"current_range_meters":3600,"station_id":"ce4bgt92rcd13ifvqcf0","pricing_plan_id":"cebpf4jnsgd1na2vs0mg"},{"bike_id":"f63221a6-0516-4efb-9f91-f7af95eafadd","system_id":"levelo_inurba_marseille","lat":43.28633,"lon":5.35132,"is_reserved":false,"is_disabled":true,"rental_uris":{"android":"levelo://app?vid=f63221a6-0516-4efb-9f91-f7af95eafadd","ios":"levelo://app?vid=f63221a6-0516-4efb-9f91-f7af95eafadd"},"vehicle_type_id":"4","last_reported":1779431903,"current_range_meters":4000,"station_id":"","pricing_plan_id":"cebpf4jnsgd1na2vs0mg"},{"bike_id":"616259e1-99b9-477f-9be8-a931d2e539ff","system_id":"levelo_inurba_marseille","lat":43.231941,"lon":5.355529,"is_reserved":false,"is_disabled":false,"rental_uris":{"android":"levelo://app?vid=616259e1-99b9-477f-9be8-a931d2e539ff","ios":"levelo://app?vid=616259e1-99b9-477f-9be8-a931d2e539ff"},"vehicle_type_id":"4","last_reported":1779431903,"current_range_meters":4000,"station_id":"ce4bgi92rcd13ifvqb90","pricing_plan_id":"cebpf4jnsgd1na2vs0mg"},{"bike_id":"f7cad48c-5c1a-4d67-94c9-18752e134d03","system_id":"levelo_inurba_marseille","lat":43.23969,"lon":5.36653,"is_reserved":false,"is_disabled":true,"rental_uris":{"android":"levelo://app?vid=f7cad48c-5c1a-4d67-94c9-18752e134d03","ios":"levelo://app?vid=f7cad48c-5c1a-4d67-94c9-18752e134d03"},"vehicle_type_id":"4","last_reported":1779431903,"current_range_meters":4000,"station_id":"ce4bhi12rcd13ifvqfp0","pricing_plan_id":"cebpf4jnsgd1na2vs0mg"},{"bike_id":"431804c1-6f5c-40a6-90f6-7fd181abee7e","system_id":"levelo_inurba_marseille","lat":43.30498,"lon":5.37275,"is_reserved":false,"is_disabled":false,"rental_uris":{"android":"levelo://app?vid=431804c1-6f5c-40a6-90f6-7fd181abee7e","ios":"levelo://app?vid=431804c1-6f5c-40a6-90f6-7fd181abee7e"},"vehicle_type_id":"4","last_reported":1779431903,"current_range_meters":4000,"station_id":"","pricing_plan_id":"cebpf4jnsgd1na2vs0mg"},{"bike_id":"368ed842-ec73-423e-b3fe-0ba03fe9ee90","system_id":"levelo_inurba_marseille","lat":43.28931,"lon":5.36638,"is_reserved":false,"is_disabled":false,"rental_uris":{"android":"levelo://app?vid=368ed842-ec73-423e-b3fe-0ba03fe9ee90","ios":"levelo://app?vid=368ed842-ec73-423e-b3fe-0ba03fe9ee90"},"vehicle_type_id":"4","last_reported":1779431903,"current_range_meters":4000,"station_id":"ce4bhap2rcd13ifvqek0","pricing_plan_id":"cebpf4jnsgd1na2vs0mg"},{"bike_id":"0f4e06d9-e0d2-43b9-9b96-4bccd6151a66","system_id":"levelo_inurba_marseille","lat":43.30314,"lon":5.3688,"is_reserved":false,"is_disabled":false,"rental_uris":{"android":"levelo://app?vid=0f4e06d9-e0d2-43b9-9b96-4bccd6151a66","ios":"levelo://app?vid=0f4e06d9-e0d2-43b9-9b96-4bccd6151a66"},"vehicle_type_id":"4","last_reported":1779431903,"current_range_meters":4000,"station_id":"ce4bgqh2rcd13ifvqc5g","pricing_plan_id":"cebpf4jnsgd1na2vs0mg"},{"bike_id":"cb8fb2ed-c179-4c07-b6b8-57ffb06a659b","system_id":"levelo_inurba_marseille","lat":43.22531,"lon":5.34828,"is_reserved":false,"is_disabled":true,"rental_uris":{"android":"levelo://app?vid=cb8fb2ed-c179-4c07-b6b8-57ffb06a659b","ios":"levelo://app?vid=cb8fb2ed-c179-4c07-b6b8-57ffb06a659b"},"vehicle_type_id":"4","last_reported":1779431903,"current_range_meters":4000,"station_id":"st_cvj5dfep6f1abm77gieg","pricing_plan_id":"cebpf4jnsgd1na2vs0mg"},{"bike_id":"e7fef7d1-f7fd-42b0-b2f9-f9bf87b14d3a","system_id":"levelo_inurba_marseille","lat":43.269983,"lon":5.400933,"is_reserved":false,"is_disabled":false,"rental_uris":{"android":"levelo://app?vid=e7fef7d1-f7fd-42b0-b2f9-f9bf87b14d3a","ios":"levelo://app?vid=e7fef7d1-f7fd-42b0-b2f9-f9bf87b14d3a"},"vehicle_type_id":"4","last_reported":1779431903,"current_range_meters":4000,"station_id":"st_d4e5ca6na9uc73bfl5fg","pricing_plan_id":"cebpf4jnsgd1na2vs0mg"},{"bike_id":"ba5bddae-d022-4b6f-bc9d-4ed194f49218","system_id":"levelo_inurba_marseille","lat":43.29962,"lon":5.41318,"is_reserved":false,"is_disabled":false,"rental_uris":{"android":"levelo://app?vid=ba5bddae-d022-4b6f-bc9d-4ed194f49218","ios":"levelo://app?vid=ba5bddae-d022-4b6f-bc9d-4ed194f49218"},"vehicle_type_id":"4","last_reported":1779431903,"current_range_meters":4000,"station_id":"ce4bhp12rcd13ifvqh9g","pricing_plan_id":"cebpf4jnsgd1na2vs0mg"},{"bike_id":"1a424fb3-63f8-4781-aa25-9a328360cbcd","system_id":"levelo_inurba_marseille","lat":43.30539,"lon":5.36699,"is_reserved":false,"is_disabled":false,"rental_uris":{"android":"levelo://app?vid=1a424fb3-63f8-4781-aa25-9a328360cbcd","ios":"levelo://app?vid=1a424fb3-63f8-4781-aa25-9a328360cbcd"},"vehicle_type_id":"4","last_reported":1779431903,"current_range_meters":4000,"station_id":"ce4bgrp2rcd13ifvqc9g","pricing_plan_id":"cebpf4jnsgd1na2vs0mg"},{"bike_id":"1f23276f-640a-45b0-96ab-5c9b5282ccf4","system_id":"levelo_inurba_marseille","lat":43.31284,"lon":5.38935,"is_reserved":false,"is_disabled":false,"rental_uris":{"android":"levelo://app?vid=1f23276f-640a-45b0-96ab-5c9b5282ccf4","ios":"levelo://app?vid=1f23276f-640a-45b0-96ab-5c9b5282ccf4"},"vehicle_type_id":"4","last_reported":1779431903,"current_range_meters":4400,"station_id":"","pricing_plan_id":"cebpf4jnsgd1na2vs0mg"},{"bike_id":"f28d95d7-2c3e-41a0-b537-9f59ebf5c414","system_id":"levelo_inurba_marseille","lat":43.28107,"lon":5.37812,"is_reserved":false,"is_disabled":false,"rental_uris":{"android":"levelo://app?vid=f28d95d7-2c3e-41a0-b537-9f59ebf5c414","ios":"levelo://app?vid=f28d95d7-2c3e-41a0-b537-9f59ebf5c414"},"vehicle_type_id":"4","last_reported":1779431903,"current_range_meters":4400,"station_id":"ce4bha12rcd13ifvqee0","pricing_plan_id":"cebpf4jnsgd1na2vs0mg"},{"bike_id":"70bd1697-29a9-464f-a79a-74a540437e6e","system_id":"levelo_inurba_marseille","lat":43.33754,"lon":5.37469,"is_reserved":false,"is_disabled":false,"rental_uris":{"android":"levelo://app?vid=70bd1697-29a9-464f-a79a-74a540437e6e","ios":"levelo://app?vid=70bd1697-29a9-464f-a79a-74a540437e6e"},"vehicle_type_id":"4","last_reported":1779431903,"current_range_meters":4400,"station_id":"","pricing_plan_id":"cebpf4jnsgd1na2vs0mg"},{"bike_id":"12481d7b-ca53-44d2-a72d-3641cbe06950","system_id":"levelo_inurba_marseille","lat":43.29913,"lon":5.40973,"is_reserved":false,"is_disabled":false,"rental_uris":{"android":"levelo://app?vid=12481d7b-ca53-44d2-a72d-3641cbe06950","ios":"levelo://app?vid=12481d7b-ca53-44d2-a72d-3641cbe06950"},"vehicle_type_id":"4","last_reported":1779431903,"current_range_meters":4400,"station_id":"","pricing_plan_id":"cebpf4jnsgd1na2vs0mg"},{"bike_id":"37a814dc-f0f2-4acf-8f80-c40b26661db9","system_id":"levelo_inurba_marseille","lat":43.26792,"lon":5.39407,"is_reserved":false,"is_disabled":false,"rental_uris":{"android":"levelo://app?vid=37a814dc-f0f2-4acf-8f80-c40b26661db9","ios":"levelo://app?vid=37a814dc-f0f2-4acf-8f80-c40b26661db9"},"vehicle_type_id":"4","last_reported":1779431903,"current_range_meters":4400,"station_id":"ce4bhh12rcd13ifvqfg0","pricing_plan_id":"cebpf4jnsgd1na2vs0mg"},{"bike_id":"2cefadca-8713-468e-bbf7-fc44902eb94f","system_id":"levelo_inurba_marseille","lat":43.29053,"lon":5.39946,"is_reserved":false,"is_disabled":false,"rental_uris":{"android":"levelo://app?vid=2cefadca-8713-468e-bbf7-fc44902eb94f","ios":"levelo://app?vid=2cefadca-8713-468e-bbf7-fc44902eb94f"},"vehicle_type_id":"4","last_reported":1779431903,"current_range_meters":4400,"station_id":"ce4bh392rcd13ifvqdm0","pricing_plan_id":"cebpf4jnsgd1na2vs0mg"},{"bike_id":"0073b877-2b41-4abd-9b30-b1e9234219f3","system_id":"levelo_inurba_marseille","lat":43.3193,"lon":5.36816,"is_reserved":false,"is_disabled":false,"rental_uris":{"android":"levelo://app?vid=0073b877-2b41-4abd-9b30-b1e9234219f3","ios":"levelo://app?vid=0073b877-2b41-4abd-9b30-b1e9234219f3"},"vehicle_type_id":"4","last_reported":1779431903,"current_range_meters":4400,"station_id":"st_d6o2h0d0559c73evc1b0","pricing_plan_id":"cebpf4jnsgd1na2vs0mg"},{"bike_id":"83f4c99d-28fe-41aa-b4b0-7b0357f8d513","system_id":"levelo_inurba_marseille","lat":43.28482,"lon":5.38415,"is_reserved":false,"is_disabled":false,"rental_uris":{"android":"levelo://app?vid=83f4c99d-28fe-41aa-b4b0-7b0357f8d513","ios":"levelo://app?vid=83f4c99d-28fe-41aa-b4b0-7b0357f8d513"},"vehicle_type_id":"4","last_reported":1779431903,"current_range_meters":4400,"station_id":"ce4bh512rcd13ifvqe3g","pricing_plan_id":"cebpf4jnsgd1na2vs0mg"},{"bike_id":"f30cc7e9-3f3a-4c4c-ac9e-f1d4151053f1","system_id":"levelo_inurba_marseille","lat":43.23198,"lon":5.35543,"is_reserved":false,"is_disabled":false,"rental_uris":{"android":"levelo://app?vid=f30cc7e9-3f3a-4c4c-ac9e-f1d4151053f1","ios":"levelo://app?vid=f30cc7e9-3f3a-4c4c-ac9e-f1d4151053f1"},"vehicle_type_id":"4","last_reported":1779431903,"current_range_meters":4400,"station_id":"ce4bhu92rcd13ifvqi70","pricing_plan_id":"cebpf4jnsgd1na2vs0mg"},{"bike_id":"69a325f9-25e2-4dd6-8297-b29a1b8202a5","system_id":"levelo_inurba_marseille","lat":43.27375,"lon":5.36261,"is_reserved":false,"is_disabled":false,"rental_uris":{"android":"levelo://app?vid=69a325f9-25e2-4dd6-8297-b29a1b8202a5","ios":"levelo://app?vid=69a325f9-25e2-4dd6-8297-b29a1b8202a5"},"vehicle_type_id":"4","last_reported":1779431903,"current_range_meters":4400,"station_id":"ce4bhbh2rcd13ifvqeo0","pricing_plan_id":"cebpf4jnsgd1na2vs0mg"},{"bike_id":"d876f250-8123-419d-a895-9645003d3c01","system_id":"levelo_inurba_marseille","lat":43.27252,"lon":5.41634,"is_reserved":false,"is_disabled":false,"rental_uris":{"android":"levelo://app?vid=d876f250-8123-419d-a895-9645003d3c01","ios":"levelo://app?vid=d876f250-8123-419d-a895-9645003d3c01"},"vehicle_type_id":"4","last_reported":1779431903,"current_range_meters":4400,"station_id":"","pricing_plan_id":"cebpf4jnsgd1na2vs0mg"},{"bike_id":"e27feea1-9bc4-4f71-870f-9ba99b38e6d2","system_id":"levelo_inurba_marseille","lat":43.29159,"lon":5.37247,"is_reserved":false,"is_disabled":false,"rental_uris":{"android":"levelo://app?vid=e27feea1-9bc4-4f71-870f-9ba99b38e6d2","ios":"levelo://app?vid=e27feea1-9bc4-4f71-870f-9ba99b38e6d2"},"vehicle_type_id":"4","last_reported":1779431903,"current_range_meters":4400,"station_id":"","pricing_plan_id":"cebpf4jnsgd1na2vs0mg"},{"bike_id":"6774f205-2ee3-4625-997b-63c588f833ce","system_id":"levelo_inurba_marseille","lat":43.26021,"lon":5.37525,"is_reserved":false,"is_disabled":true,"rental_uris":{"android":"levelo://app?vid=6774f205-2ee3-4625-997b-63c588f833ce","ios":"levelo://app?vid=6774f205-2ee3-4625-997b-63c588f833ce"},"vehicle_type_id":"4","last_reported":1779431903,"current_range_meters":4400,"station_id":"ce4bhgh2rcd13ifvqfa0","pricing_plan_id":"cebpf4jnsgd1na2vs0mg"},{"bike_id":"ad6d8b73-6259-410d-979f-09e40ec16dc9","system_id":"levelo_inurba_marseille","lat":43.3082,"lon":5.37198,"is_reserved":false,"is_disabled":false,"rental_uris":{"android":"levelo://app?vid=ad6d8b73-6259-410d-979f-09e40ec16dc9","ios":"levelo://app?vid=ad6d8b73-6259-410d-979f-09e40ec16dc9"},"vehicle_type_id":"4","last_reported":1779431903,"current_range_meters":4800,"station_id":"","pricing_plan_id":"cebpf4jnsgd1na2vs0mg"},{"bike_id":"8ae01fbd-13ec-4abe-9b2c-1050445b111f","system_id":"levelo_inurba_marseille","lat":43.22535,"lon":5.34831,"is_reserved":false,"is_disabled":false,"rental_uris":{"android":"levelo://app?vid=8ae01fbd-13ec-4abe-9b2c-1050445b111f","ios":"levelo://app?vid=8ae01fbd-13ec-4abe-9b2c-1050445b111f"},"vehicle_type_id":"4","last_reported":1779431903,"current_range_meters":4800,"station_id":"st_cvj5dfep6f1abm77gieg","pricing_plan_id":"cebpf4jnsgd1na2vs0mg"},{"bike_id":"4c73ac5b-f848-44b9-9488-246344552796","system_id":"levelo_inurba_marseille","lat":43.2852,"lon":5.44114,"is_reserved":false,"is_disabled":false,"rental_uris":{"android":"levelo://app?vid=4c73ac5b-f848-44b9-9488-246344552796","ios":"levelo://app?vid=4c73ac5b-f848-44b9-9488-246344552796"},"vehicle_type_id":"4","last_reported":1779431903,"current_range_meters":4800,"station_id":"st_d3j3df2ikq2c7380ej80","pricing_plan_id":"cebpf4jnsgd1na2vs0mg"},{"bike_id":"5bbf293c-f2e4-47be-af57-cab6143e65a7","system_id":"levelo_inurba_marseille","lat":43.26675,"lon":5.38267,"is_reserved":false,"is_disabled":false,"rental_uris":{"android":"levelo://app?vid=5bbf293c-f2e4-47be-af57-cab6143e65a7","ios":"levelo://app?vid=5bbf293c-f2e4-47be-af57-cab6143e65a7"},"vehicle_type_id":"4","last_reported":1779431903,"current_range_meters":4800,"station_id":"ce4bhg92rcd13ifvqf90","pricing_plan_id":"cebpf4jnsgd1na2vs0mg"},{"bike_id":"cd6d3f1a-be33-44a0-8818-8f689961a9c6","system_id":"levelo_inurba_marseille","lat":43.30149,"lon":5.38088,"is_reserved":false,"is_disabled":false,"rental_uris":{"android":"levelo://app?vid=cd6d3f1a-be33-44a0-8818-8f689961a9c6","ios":"levelo://app?vid=cd6d3f1a-be33-44a0-8818-8f689961a9c6"},"vehicle_type_id":"4","last_reported":1779431903,"current_range_meters":4800,"station_id":"ce4bgjp2rcd13ifvqbh0","pricing_plan_id":"cebpf4jnsgd1na2vs0mg"},{"bike_id":"ab8afdb1-6440-465f-9d72-bf186b260819","system_id":"levelo_inurba_marseille","lat":43.29877,"lon":5.3891,"is_reserved":false,"is_disabled":false,"rental_uris":{"android":"levelo://app?vid=ab8afdb1-6440-465f-9d72-bf186b260819","ios":"levelo://app?vid=ab8afdb1-6440-465f-9d72-bf186b260819"},"vehicle_type_id":"4","last_reported":1779431903,"current_range_meters":4800,"station_id":"ce4bh392rcd13ifvqdl0","pricing_plan_id":"cebpf4jnsgd1na2vs0mg"},{"bike_id":"3164d9e8-c839-4029-b458-2d3d9b344e5f","system_id":"levelo_inurba_marseille","lat":43.275716,"lon":5.396434,"is_reserved":false,"is_disabled":false,"rental_uris":{"android":"levelo://app?vid=3164d9e8-c839-4029-b458-2d3d9b344e5f","ios":"levelo://app?vid=3164d9e8-c839-4029-b458-2d3d9b344e5f"},"vehicle_type_id":"4","last_reported":1779431903,"current_range_meters":4800,"station_id":"","pricing_plan_id":"cebpf4jnsgd1na2vs0mg"},{"bike_id":"3a1d42e9-5637-4e1d-a3a8-2914b8a6d228","system_id":"levelo_inurba_marseille","lat":43.305282,"lon":5.373354,"is_reserved":false,"is_disabled":false,"rental_uris":{"android":"levelo://app?vid=3a1d42e9-5637-4e1d-a3a8-2914b8a6d228","ios":"levelo://app?vid=3a1d42e9-5637-4e1d-a3a8-2914b8a6d228"},"vehicle_type_id":"4","last_reported":1779431903,"current_range_meters":4800,"station_id":"ce4bgqh2rcd13ifvqc4g","pricing_plan_id":"cebpf4jnsgd1na2vs0mg"},{"bike_id":"3b3648bc-114e-4573-b5a4-e0750016f792","system_id":"levelo_inurba_marseille","lat":43.2384,"lon":5.41318,"is_reserved":false,"is_disabled":false,"rental_uris":{"android":"levelo://app?vid=3b3648bc-114e-4573-b5a4-e0750016f792","ios":"levelo://app?vid=3b3648bc-114e-4573-b5a4-e0750016f792"},"vehicle_type_id":"4","last_reported":1779431903,"current_range_meters":4800,"station_id":"","pricing_plan_id":"cebpf4jnsgd1na2vs0mg"},{"bike_id":"8c805510-f109-4ef6-8040-1f78a531d5a2","system_id":"levelo_inurba_marseille","lat":43.29842,"lon":5.36269,"is_reserved":false,"is_disabled":false,"rental_uris":{"android":"levelo://app?vid=8c805510-f109-4ef6-8040-1f78a531d5a2","ios":"levelo://app?vid=8c805510-f109-4ef6-8040-1f78a531d5a2"},"vehicle_type_id":"4","last_reported":1779431903,"current_range_meters":4800,"station_id":"ce4bgpp2rcd13ifvqc3g","pricing_plan_id":"cebpf4jnsgd1na2vs0mg"},{"bike_id":"3936af97-ef4d-4f58-a35e-a0221d7e9a6c","system_id":"levelo_inurba_marseille","lat":43.22563,"lon":5.41646,"is_reserved":false,"is_disabled":false,"rental_uris":{"android":"levelo://app?vid=3936af97-ef4d-4f58-a35e-a0221d7e9a6c","ios":"levelo://app?vid=3936af97-ef4d-4f58-a35e-a0221d7e9a6c"},"vehicle_type_id":"4","last_reported":1779431903,"current_range_meters":5600,"station_id":"st_d2o4gvlbi1j2169b742g","pricing_plan_id":"cebpf4jnsgd1na2vs0mg"},{"bike_id":"6ecace9b-c16d-43aa-9c1a-0ebc2e7bcfc4","system_id":"levelo_inurba_marseille","lat":43.32111,"lon":5.36773,"is_reserved":false,"is_disabled":false,"rental_uris":{"android":"levelo://app?vid=6ecace9b-c16d-43aa-9c1a-0ebc2e7bcfc4","ios":"levelo://app?vid=6ecace9b-c16d-43aa-9c1a-0ebc2e7bcfc4"},"vehicle_type_id":"4","last_reported":1779431903,"current_range_meters":5600,"station_id":"ce4bhrh2rcd13ifvqhug","pricing_plan_id":"cebpf4jnsgd1na2vs0mg"},{"bike_id":"678c2486-f208-445a-a253-9dfac60b0dc7","system_id":"levelo_inurba_marseille","lat":43.32432,"lon":5.36908,"is_reserved":false,"is_disabled":false,"rental_uris":{"android":"levelo://app?vid=678c2486-f208-445a-a253-9dfac60b0dc7","ios":"levelo://app?vid=678c2486-f208-445a-a253-9dfac60b0dc7"},"vehicle_type_id":"4","last_reported":1779431903,"current_range_meters":5600,"station_id":"","pricing_plan_id":"cebpf4jnsgd1na2vs0mg"},{"bike_id":"7ec93175-8d9c-4b31-b534-34e06405c4e0","system_id":"levelo_inurba_marseille","lat":43.29605,"lon":5.44692,"is_reserved":false,"is_disabled":false,"rental_uris":{"android":"levelo://app?vid=7ec93175-8d9c-4b31-b534-34e06405c4e0","ios":"levelo://app?vid=7ec93175-8d9c-4b31-b534-34e06405c4e0"},"vehicle_type_id":"4","last_reported":1779431903,"current_range_meters":5600,"station_id":"","pricing_plan_id":"cebpf4jnsgd1na2vs0mg"},{"bike_id":"4a47ee7d-bac8-41af-a3a4-1bdfee9a7fca","system_id":"levelo_inurba_marseille","lat":43.26553,"lon":5.37323,"is_reserved":false,"is_disabled":false,"rental_uris":{"android":"levelo://app?vid=4a47ee7d-bac8-41af-a3a4-1bdfee9a7fca","ios":"levelo://app?vid=4a47ee7d-bac8-41af-a3a4-1bdfee9a7fca"},"vehicle_type_id":"4","last_reported":1779431903,"current_range_meters":5600,"station_id":"ce4bhg12rcd13ifvqf70","pricing_plan_id":"cebpf4jnsgd1na2vs0mg"},{"bike_id":"b04ee6bf-b6e5-441d-82a5-749df314e482","system_id":"levelo_inurba_marseille","lat":43.31449,"lon":5.45144,"is_reserved":false,"is_disabled":false,"rental_uris":{"android":"levelo://app?vid=b04ee6bf-b6e5-441d-82a5-749df314e482","ios":"levelo://app?vid=b04ee6bf-b6e5-441d-82a5-749df314e482"},"vehicle_type_id":"4","last_reported":1779431903,"current_range_meters":5600,"station_id":"","pricing_plan_id":"cebpf4jnsgd1na2vs0mg"},{"bike_id":"21446c33-4740-42f3-9e08-ca64ab9dbcaa","system_id":"levelo_inurba_marseille","lat":43.28422,"lon":5.3751,"is_reserved":false,"is_disabled":false,"rental_uris":{"android":"levelo://app?vid=21446c33-4740-42f3-9e08-ca64ab9dbcaa","ios":"levelo://app?vid=21446c33-4740-42f3-9e08-ca64ab9dbcaa"},"vehicle_type_id":"4","last_reported":1779431903,"current_range_meters":5600,"station_id":"ce4bh412rcd13ifvqds0","pricing_plan_id":"cebpf4jnsgd1na2vs0mg"},{"bike_id":"8d29bbeb-2e7c-4b1d-b9b0-7b1803685f4f","system_id":"levelo_inurba_marseille","lat":43.2648,"lon":5.39537,"is_reserved":false,"is_disabled":false,"rental_uris":{"android":"levelo://app?vid=8d29bbeb-2e7c-4b1d-b9b0-7b1803685f4f","ios":"levelo://app?vid=8d29bbeb-2e7c-4b1d-b9b0-7b1803685f4f"},"vehicle_type_id":"4","last_reported":1779431903,"current_range_meters":5600,"station_id":"ce4bhi12rcd13ifvqfq0","pricing_plan_id":"cebpf4jnsgd1na2vs0mg"},{"bike_id":"a7dcb7e6-59b7-4ada-a9a0-eb00b3467d13","system_id":"levelo_inurba_marseille","lat":43.24648,"lon":5.38931,"is_reserved":false,"is_disabled":true,"rental_uris":{"android":"levelo://app?vid=a7dcb7e6-59b7-4ada-a9a0-eb00b3467d13","ios":"levelo://app?vid=a7dcb7e6-59b7-4ada-a9a0-eb00b3467d13"},"vehicle_type_id":"4","last_reported":1779431903,"current_range_meters":5600,"station_id":"ce4bhg12rcd13ifvqf60","pricing_plan_id":"cebpf4jnsgd1na2vs0mg"},{"bike_id":"e93a01e1-b858-4ef5-89fa-d5a67d0d3ba8","system_id":"levelo_inurba_marseille","lat":43.23186,"lon":5.39994,"is_reserved":false,"is_disabled":false,"rental_uris":{"android":"levelo://app?vid=e93a01e1-b858-4ef5-89fa-d5a67d0d3ba8","ios":"levelo://app?vid=e93a01e1-b858-4ef5-89fa-d5a67d0d3ba8"},"vehicle_type_id":"4","last_reported":1779431903,"current_range_meters":5600,"station_id":"ce4bhn12rcd13ifvqgqg","pricing_plan_id":"cebpf4jnsgd1na2vs0mg"},{"bike_id":"bc0d61dd-c405-4c7b-9098-711229d0032f","system_id":"levelo_inurba_marseille","lat":43.28228,"lon":5.39077,"is_reserved":false,"is_disabled":false,"rental_uris":{"android":"levelo://app?vid=bc0d61dd-c405-4c7b-9098-711229d0032f","ios":"levelo://app?vid=bc0d61dd-c405-4c7b-9098-711229d0032f"},"vehicle_type_id":"4","last_reported":1779431903,"current_range_meters":5600,"station_id":"ce4bhn92rcd13ifvqgsg","pricing_plan_id":"cebpf4jnsgd1na2vs0mg"},{"bike_id":"c1ed57f6-f105-460c-8703-1c2eae17785a","system_id":"levelo_inurba_marseille","lat":43.22525,"lon":5.34831,"is_reserved":false,"is_disabled":false,"rental_uris":{"android":"levelo://app?vid=c1ed57f6-f105-460c-8703-1c2eae17785a","ios":"levelo://app?vid=c1ed57f6-f105-460c-8703-1c2eae17785a"},"vehicle_type_id":"4","last_reported":1779431903,"current_range_meters":5600,"station_id":"st_cvj5dfep6f1abm77gieg","pricing_plan_id":"cebpf4jnsgd1na2vs0mg"},{"bike_id":"54f92a54-181a-4ca1-94ac-4e8012c97aa4","system_id":"levelo_inurba_marseille","lat":43.30165,"lon":5.38077,"is_reserved":false,"is_disabled":false,"rental_uris":{"android":"levelo://app?vid=54f92a54-181a-4ca1-94ac-4e8012c97aa4","ios":"levelo://app?vid=54f92a54-181a-4ca1-94ac-4e8012c97aa4"},"vehicle_type_id":"4","last_reported":1779431903,"current_range_meters":5600,"station_id":"ce4bgjp2rcd13ifvqbh0","pricing_plan_id":"cebpf4jnsgd1na2vs0mg"},{"bike_id":"bcfbd48e-5312-4f28-b02c-ce41d79112f4","system_id":"levelo_inurba_marseille","lat":43.31363,"lon":5.38493,"is_reserved":false,"is_disabled":false,"rental_uris":{"android":"levelo://app?vid=bcfbd48e-5312-4f28-b02c-ce41d79112f4","ios":"levelo://app?vid=bcfbd48e-5312-4f28-b02c-ce41d79112f4"},"vehicle_type_id":"4","last_reported":1779431903,"current_range_meters":5600,"station_id":"ce4bgt92rcd13ifvqcf0","pricing_plan_id":"cebpf4jnsgd1na2vs0mg"},{"bike_id":"3b7c6a7c-8def-4f67-896d-b1ec9dfb83ed","system_id":"levelo_inurba_marseille","lat":43.32332,"lon":5.38471,"is_reserved":false,"is_disabled":true,"rental_uris":{"android":"levelo://app?vid=3b7c6a7c-8def-4f67-896d-b1ec9dfb83ed","ios":"levelo://app?vid=3b7c6a7c-8def-4f67-896d-b1ec9dfb83ed"},"vehicle_type_id":"4","last_reported":1779431903,"current_range_meters":5600,"station_id":"st_d45171o9ee8s73djdqug","pricing_plan_id":"cebpf4jnsgd1na2vs0mg"},{"bike_id":"a6bdbb71-da32-4780-84ff-564227db9aed","system_id":"levelo_inurba_marseille","lat":43.28937,"lon":5.36417,"is_reserved":false,"is_disabled":false,"rental_uris":{"android":"levelo://app?vid=a6bdbb71-da32-4780-84ff-564227db9aed","ios":"levelo://app?vid=a6bdbb71-da32-4780-84ff-564227db9aed"},"vehicle_type_id":"4","last_reported":1779431903,"current_range_meters":6000,"station_id":"ce4bhc92rcd13ifvqetg","pricing_plan_id":"cebpf4jnsgd1na2vs0mg"},{"bike_id":"a92bc90f-44ad-455f-8f30-9ca02fff63af","system_id":"levelo_inurba_marseille","lat":43.30942,"lon":5.40141,"is_reserved":false,"is_disabled":false,"rental_uris":{"android":"levelo://app?vid=a92bc90f-44ad-455f-8f30-9ca02fff63af","ios":"levelo://app?vid=a92bc90f-44ad-455f-8f30-9ca02fff63af"},"vehicle_type_id":"4","last_reported":1779431903,"current_range_meters":6000,"station_id":"ce4bgvp2rcd13ifvqct0","pricing_plan_id":"cebpf4jnsgd1na2vs0mg"},{"bike_id":"6176dd16-a9d7-4120-bf2a-b28a1914c54d","system_id":"levelo_inurba_marseille","lat":43.29585,"lon":5.37528,"is_reserved":false,"is_disabled":true,"rental_uris":{"android":"levelo://app?vid=6176dd16-a9d7-4120-bf2a-b28a1914c54d","ios":"levelo://app?vid=6176dd16-a9d7-4120-bf2a-b28a1914c54d"},"vehicle_type_id":"4","last_reported":1779431903,"current_range_meters":6000,"station_id":"ce4bgh92rcd13ifvqb50","pricing_plan_id":"cebpf4jnsgd1na2vs0mg"},{"bike_id":"9d244530-ec8f-4fb2-b1f3-b032d99eccf7","system_id":"levelo_inurba_marseille","lat":43.30917,"lon":5.3723,"is_reserved":false,"is_disabled":false,"rental_uris":{"android":"levelo://app?vid=9d244530-ec8f-4fb2-b1f3-b032d99eccf7","ios":"levelo://app?vid=9d244530-ec8f-4fb2-b1f3-b032d99eccf7"},"vehicle_type_id":"4","last_reported":1779431903,"current_range_meters":6000,"station_id":"ce4bguh2rcd13ifvqckg","pricing_plan_id":"cebpf4jnsgd1na2vs0mg"},{"bike_id":"b90c4810-bc71-435f-9454-1d991656a084","system_id":"levelo_inurba_marseille","lat":43.32496,"lon":5.38259,"is_reserved":false,"is_disabled":false,"rental_uris":{"android":"levelo://app?vid=b90c4810-bc71-435f-9454-1d991656a084","ios":"levelo://app?vid=b90c4810-bc71-435f-9454-1d991656a084"},"vehicle_type_id":"4","last_reported":1779431903,"current_range_meters":6000,"station_id":"st_d4asgbiv49dc73anf9m0","pricing_plan_id":"cebpf4jnsgd1na2vs0mg"},{"bike_id":"7926970b-b546-4bd9-8ad0-0c1e21624b17","system_id":"levelo_inurba_marseille","lat":43.29583,"lon":5.3811,"is_reserved":false,"is_disabled":true,"rental_uris":{"android":"levelo://app?vid=7926970b-b546-4bd9-8ad0-0c1e21624b17","ios":"levelo://app?vid=7926970b-b546-4bd9-8ad0-0c1e21624b17"},"vehicle_type_id":"4","last_reported":1779431903,"current_range_meters":6000,"station_id":"ce4bgl12rcd13ifvqbo0","pricing_plan_id":"cebpf4jnsgd1na2vs0mg"},{"bike_id":"9d67899c-a584-4514-9cb2-6baec84826c1","system_id":"levelo_inurba_marseille","lat":43.30106,"lon":5.39068,"is_reserved":false,"is_disabled":false,"rental_uris":{"android":"levelo://app?vid=9d67899c-a584-4514-9cb2-6baec84826c1","ios":"levelo://app?vid=9d67899c-a584-4514-9cb2-6baec84826c1"},"vehicle_type_id":"4","last_reported":1779431903,"current_range_meters":6000,"station_id":"ce4bh192rcd13ifvqdb0","pricing_plan_id":"cebpf4jnsgd1na2vs0mg"},{"bike_id":"8a60cce2-9cd1-44df-9ed5-7786eedbf70a","system_id":"levelo_inurba_marseille","lat":43.30139,"lon":5.3809,"is_reserved":false,"is_disabled":false,"rental_uris":{"android":"levelo://app?vid=8a60cce2-9cd1-44df-9ed5-7786eedbf70a","ios":"levelo://app?vid=8a60cce2-9cd1-44df-9ed5-7786eedbf70a"},"vehicle_type_id":"4","last_reported":1779431903,"current_range_meters":6000,"station_id":"ce4bgjp2rcd13ifvqbh0","pricing_plan_id":"cebpf4jnsgd1na2vs0mg"},{"bike_id":"5b70f6f3-d6d7-4f37-8c79-fe8fed7c6d1b","system_id":"levelo_inurba_marseille","lat":43.29785,"lon":5.38097,"is_reserved":false,"is_disabled":false,"rental_uris":{"android":"levelo://app?vid=5b70f6f3-d6d7-4f37-8c79-fe8fed7c6d1b","ios":"levelo://app?vid=5b70f6f3-d6d7-4f37-8c79-fe8fed7c6d1b"},"vehicle_type_id":"4","last_reported":1779431903,"current_range_meters":6000,"station_id":"ce4bgip2rcd13ifvqbb0","pricing_plan_id":"cebpf4jnsgd1na2vs0mg"},{"bike_id":"25567174-0674-4025-8810-54a2d6ca1860","system_id":"levelo_inurba_marseille","lat":43.30541,"lon":5.36704,"is_reserved":false,"is_disabled":false,"rental_uris":{"android":"levelo://app?vid=25567174-0674-4025-8810-54a2d6ca1860","ios":"levelo://app?vid=25567174-0674-4025-8810-54a2d6ca1860"},"vehicle_type_id":"4","last_reported":1779431903,"current_range_meters":6400,"station_id":"ce4bgrp2rcd13ifvqc9g","pricing_plan_id":"cebpf4jnsgd1na2vs0mg"},{"bike_id":"f14b2d37-33da-4abe-b00f-78dc278ca5ed","system_id":"levelo_inurba_marseille","lat":43.30597,"lon":5.37223,"is_reserved":false,"is_disabled":false,"rental_uris":{"android":"levelo://app?vid=f14b2d37-33da-4abe-b00f-78dc278ca5ed","ios":"levelo://app?vid=f14b2d37-33da-4abe-b00f-78dc278ca5ed"},"vehicle_type_id":"4","last_reported":1779431903,"current_range_meters":6400,"station_id":"ce4bgqh2rcd13ifvqc4g","pricing_plan_id":"cebpf4jnsgd1na2vs0mg"},{"bike_id":"67eb7547-a3db-4c45-b1d5-dbbc7268133e","system_id":"levelo_inurba_marseille","lat":43.28948,"lon":5.36634,"is_reserved":false,"is_disabled":true,"rental_uris":{"android":"levelo://app?vid=67eb7547-a3db-4c45-b1d5-dbbc7268133e","ios":"levelo://app?vid=67eb7547-a3db-4c45-b1d5-dbbc7268133e"},"vehicle_type_id":"4","last_reported":1779431903,"current_range_meters":6400,"station_id":"ce4bhap2rcd13ifvqek0","pricing_plan_id":"cebpf4jnsgd1na2vs0mg"},{"bike_id":"d01beb5b-b641-4824-a7d5-59d43c758cbb","system_id":"levelo_inurba_marseille","lat":43.31706,"lon":5.37729,"is_reserved":false,"is_disabled":false,"rental_uris":{"android":"levelo://app?vid=d01beb5b-b641-4824-a7d5-59d43c758cbb","ios":"levelo://app?vid=d01beb5b-b641-4824-a7d5-59d43c758cbb"},"vehicle_type_id":"4","last_reported":1779431903,"current_range_meters":6400,"station_id":"ce4bgth2rcd13ifvqch0","pricing_plan_id":"cebpf4jnsgd1na2vs0mg"},{"bike_id":"3f246bfd-20c7-4833-8aa4-3291b90a11bd","system_id":"levelo_inurba_marseille","lat":43.26365,"lon":5.41068,"is_reserved":false,"is_disabled":false,"rental_uris":{"android":"levelo://app?vid=3f246bfd-20c7-4833-8aa4-3291b90a11bd","ios":"levelo://app?vid=3f246bfd-20c7-4833-8aa4-3291b90a11bd"},"vehicle_type_id":"4","last_reported":1779431903,"current_range_meters":6400,"station_id":"st_d4e5ca6na9uc73bfl5fg","pricing_plan_id":"cebpf4jnsgd1na2vs0mg"},{"bike_id":"fad71679-2dc3-4c61-9034-a8d77542050c","system_id":"levelo_inurba_marseille","lat":43.27056,"lon":5.38305,"is_reserved":false,"is_disabled":true,"rental_uris":{"android":"levelo://app?vid=fad71679-2dc3-4c61-9034-a8d77542050c","ios":"levelo://app?vid=fad71679-2dc3-4c61-9034-a8d77542050c"},"vehicle_type_id":"4","last_reported":1779431903,"current_range_meters":6400,"station_id":"st_d3n2fo6cfp8s73cte1j0","pricing_plan_id":"cebpf4jnsgd1na2vs0mg"},{"bike_id":"2ce323b9-44db-4da7-b01c-34438bd6d7fa","system_id":"levelo_inurba_marseille","lat":43.31991,"lon":5.38167,"is_reserved":false,"is_disabled":false,"rental_uris":{"android":"levelo://app?vid=2ce323b9-44db-4da7-b01c-34438bd6d7fa","ios":"levelo://app?vid=2ce323b9-44db-4da7-b01c-34438bd6d7fa"},"vehicle_type_id":"4","last_reported":1779431903,"current_range_meters":6400,"station_id":"ce4bhr12rcd13ifvqhpg","pricing_plan_id":"cebpf4jnsgd1na2vs0mg"},{"bike_id":"013939bc-c53d-4e6f-be2a-05c79303cd52","system_id":"levelo_inurba_marseille","lat":43.30984,"lon":5.36689,"is_reserved":false,"is_disabled":false,"rental_uris":{"android":"levelo://app?vid=013939bc-c53d-4e6f-be2a-05c79303cd52","ios":"levelo://app?vid=013939bc-c53d-4e6f-be2a-05c79303cd52"},"vehicle_type_id":"4","last_reported":1779431903,"current_range_meters":6400,"station_id":"","pricing_plan_id":"cebpf4jnsgd1na2vs0mg"},{"bike_id":"7796a593-36ed-4c84-981b-4656719fa948","system_id":"levelo_inurba_marseille","lat":43.30481,"lon":5.37887,"is_reserved":false,"is_disabled":false,"rental_uris":{"android":"levelo://app?vid=7796a593-36ed-4c84-981b-4656719fa948","ios":"levelo://app?vid=7796a593-36ed-4c84-981b-4656719fa948"},"vehicle_type_id":"4","last_reported":1779431903,"current_range_meters":6400,"station_id":"ce4bgup2rcd13ifvqcn0","pricing_plan_id":"cebpf4jnsgd1na2vs0mg"},{"bike_id":"977c12c0-cd19-486b-95d7-9309d89d0aaf","system_id":"levelo_inurba_marseille","lat":43.32007,"lon":5.38153,"is_reserved":false,"is_disabled":false,"rental_uris":{"android":"levelo://app?vid=977c12c0-cd19-486b-95d7-9309d89d0aaf","ios":"levelo://app?vid=977c12c0-cd19-486b-95d7-9309d89d0aaf"},"vehicle_type_id":"4","last_reported":1779431903,"current_range_meters":6400,"station_id":"ce4bhr12rcd13ifvqhpg","pricing_plan_id":"cebpf4jnsgd1na2vs0mg"},{"bike_id":"74c19d5b-5d9d-4c83-85dd-b04e2806851d","system_id":"levelo_inurba_marseille","lat":43.24392,"lon":5.37074,"is_reserved":false,"is_disabled":true,"rental_uris":{"android":"levelo://app?vid=74c19d5b-5d9d-4c83-85dd-b04e2806851d","ios":"levelo://app?vid=74c19d5b-5d9d-4c83-85dd-b04e2806851d"},"vehicle_type_id":"4","last_reported":1779431903,"current_range_meters":6400,"station_id":"ce4bhhh2rcd13ifvqfk0","pricing_plan_id":"cebpf4jnsgd1na2vs0mg"},{"bike_id":"cfab8c15-ddf3-4cea-b06b-9ac9dcea75e5","system_id":"levelo_inurba_marseille","lat":43.286973,"lon":5.373754,"is_reserved":false,"is_disabled":false,"rental_uris":{"android":"levelo://app?vid=cfab8c15-ddf3-4cea-b06b-9ac9dcea75e5","ios":"levelo://app?vid=cfab8c15-ddf3-4cea-b06b-9ac9dcea75e5"},"vehicle_type_id":"4","last_reported":1779431903,"current_range_meters":6400,"station_id":"ce4bh9p2rcd13ifvqec0","pricing_plan_id":"cebpf4jnsgd1na2vs0mg"},{"bike_id":"f5ddfd47-1379-40f7-88f5-238af06fb36c","system_id":"levelo_inurba_marseille","lat":43.28874,"lon":5.42512,"is_reserved":false,"is_disabled":false,"rental_uris":{"android":"levelo://app?vid=f5ddfd47-1379-40f7-88f5-238af06fb36c","ios":"levelo://app?vid=f5ddfd47-1379-40f7-88f5-238af06fb36c"},"vehicle_type_id":"4","last_reported":1779431903,"current_range_meters":6400,"station_id":"st_d3b462108ojc7389ooeg","pricing_plan_id":"cebpf4jnsgd1na2vs0mg"},{"bike_id":"129d1c1e-a4ec-4956-9f3f-d6961f012ff9","system_id":"levelo_inurba_marseille","lat":43.2885,"lon":5.36671,"is_reserved":false,"is_disabled":false,"rental_uris":{"android":"levelo://app?vid=129d1c1e-a4ec-4956-9f3f-d6961f012ff9","ios":"levelo://app?vid=129d1c1e-a4ec-4956-9f3f-d6961f012ff9"},"vehicle_type_id":"4","last_reported":1779431903,"current_range_meters":6800,"station_id":"","pricing_plan_id":"cebpf4jnsgd1na2vs0mg"},{"bike_id":"247dfdf4-72a9-4359-a225-da09e14d4384","system_id":"levelo_inurba_marseille","lat":43.337444,"lon":5.374475,"is_reserved":false,"is_disabled":false,"rental_uris":{"android":"levelo://app?vid=247dfdf4-72a9-4359-a225-da09e14d4384","ios":"levelo://app?vid=247dfdf4-72a9-4359-a225-da09e14d4384"},"vehicle_type_id":"4","last_reported":1779431903,"current_range_meters":6800,"station_id":"","pricing_plan_id":"cebpf4jnsgd1na2vs0mg"},{"bike_id":"60a16368-519a-4aa5-889a-f31cdc0a5be1","system_id":"levelo_inurba_marseille","lat":43.32014,"lon":5.41542,"is_reserved":false,"is_disabled":false,"rental_uris":{"android":"levelo://app?vid=60a16368-519a-4aa5-889a-f31cdc0a5be1","ios":"levelo://app?vid=60a16368-519a-4aa5-889a-f31cdc0a5be1"},"vehicle_type_id":"4","last_reported":1779431903,"current_range_meters":6800,"station_id":"ce4bhq92rcd13ifvqhkg","pricing_plan_id":"cebpf4jnsgd1na2vs0mg"},{"bike_id":"87217508-6b31-400b-9e30-3aef98052c0a","system_id":"levelo_inurba_marseille","lat":43.33765,"lon":5.37445,"is_reserved":false,"is_disabled":false,"rental_uris":{"android":"levelo://app?vid=87217508-6b31-400b-9e30-3aef98052c0a","ios":"levelo://app?vid=87217508-6b31-400b-9e30-3aef98052c0a"},"vehicle_type_id":"4","last_reported":1779431903,"current_range_meters":6800,"station_id":"","pricing_plan_id":"cebpf4jnsgd1na2vs0mg"},{"bike_id":"45a243dd-bba9-4611-8b2d-3d08b4cd94e1","system_id":"levelo_inurba_marseille","lat":43.28029,"lon":5.39108,"is_reserved":false,"is_disabled":false,"rental_uris":{"android":"levelo://app?vid=45a243dd-bba9-4611-8b2d-3d08b4cd94e1","ios":"levelo://app?vid=45a243dd-bba9-4611-8b2d-3d08b4cd94e1"},"vehicle_type_id":"4","last_reported":1779431903,"current_range_meters":6800,"station_id":"ce4bhn92rcd13ifvqgsg","pricing_plan_id":"cebpf4jnsgd1na2vs0mg"},{"bike_id":"9b0e1355-cfa6-4246-8dd4-5abd1c2ff8a9","system_id":"levelo_inurba_marseille","lat":43.30949,"lon":5.39047,"is_reserved":false,"is_disabled":true,"rental_uris":{"android":"levelo://app?vid=9b0e1355-cfa6-4246-8dd4-5abd1c2ff8a9","ios":"levelo://app?vid=9b0e1355-cfa6-4246-8dd4-5abd1c2ff8a9"},"vehicle_type_id":"4","last_reported":1779431903,"current_range_meters":6800,"station_id":"ce4bgup2rcd13ifvqco0","pricing_plan_id":"cebpf4jnsgd1na2vs0mg"},{"bike_id":"ae73dd5f-c448-475f-be97-7d9f664d23a6","system_id":"levelo_inurba_marseille","lat":43.2854,"lon":5.38473,"is_reserved":false,"is_disabled":false,"rental_uris":{"android":"levelo://app?vid=ae73dd5f-c448-475f-be97-7d9f664d23a6","ios":"levelo://app?vid=ae73dd5f-c448-475f-be97-7d9f664d23a6"},"vehicle_type_id":"4","last_reported":1779431903,"current_range_meters":6800,"station_id":"","pricing_plan_id":"cebpf4jnsgd1na2vs0mg"},{"bike_id":"eea7f27f-9e90-457d-8281-3f806a24765e","system_id":"levelo_inurba_marseille","lat":43.28194,"lon":5.38961,"is_reserved":false,"is_disabled":false,"rental_uris":{"android":"levelo://app?vid=eea7f27f-9e90-457d-8281-3f806a24765e","ios":"levelo://app?vid=eea7f27f-9e90-457d-8281-3f806a24765e"},"vehicle_type_id":"4","last_reported":1779431903,"current_range_meters":6800,"station_id":"","pricing_plan_id":"cebpf4jnsgd1na2vs0mg"},{"bike_id":"d9253dea-1990-4790-b842-8d9ae5ade1e4","system_id":"levelo_inurba_marseille","lat":43.29964,"lon":5.41311,"is_reserved":false,"is_disabled":false,"rental_uris":{"android":"levelo://app?vid=d9253dea-1990-4790-b842-8d9ae5ade1e4","ios":"levelo://app?vid=d9253dea-1990-4790-b842-8d9ae5ade1e4"},"vehicle_type_id":"4","last_reported":1779431903,"current_range_meters":6800,"station_id":"ce4bhp12rcd13ifvqh9g","pricing_plan_id":"cebpf4jnsgd1na2vs0mg"},{"bike_id":"7eebbda7-66b3-4973-bb8a-7ba5bc875a88","system_id":"levelo_inurba_marseille","lat":43.27186,"lon":5.40987,"is_reserved":false,"is_disabled":false,"rental_uris":{"android":"levelo://app?vid=7eebbda7-66b3-4973-bb8a-7ba5bc875a88","ios":"levelo://app?vid=7eebbda7-66b3-4973-bb8a-7ba5bc875a88"},"vehicle_type_id":"4","last_reported":1779431903,"current_range_meters":6800,"station_id":"ce4bhl12rcd13ifvqgf0","pricing_plan_id":"cebpf4jnsgd1na2vs0mg"},{"bike_id":"63d35d01-5acd-4b8c-b490-4f7436cc53c2","system_id":"levelo_inurba_marseille","lat":43.2618,"lon":5.37516,"is_reserved":false,"is_disabled":false,"rental_uris":{"android":"levelo://app?vid=63d35d01-5acd-4b8c-b490-4f7436cc53c2","ios":"levelo://app?vid=63d35d01-5acd-4b8c-b490-4f7436cc53c2"},"vehicle_type_id":"4","last_reported":1779431903,"current_range_meters":6800,"station_id":"","pricing_plan_id":"cebpf4jnsgd1na2vs0mg"},{"bike_id":"3d436a0d-575b-42d3-8681-5c87057b3b7f","system_id":"levelo_inurba_marseille","lat":43.27963,"lon":5.43617,"is_reserved":false,"is_disabled":false,"rental_uris":{"android":"levelo://app?vid=3d436a0d-575b-42d3-8681-5c87057b3b7f","ios":"levelo://app?vid=3d436a0d-575b-42d3-8681-5c87057b3b7f"},"vehicle_type_id":"4","last_reported":1779431903,"current_range_meters":6800,"station_id":"","pricing_plan_id":"cebpf4jnsgd1na2vs0mg"},{"bike_id":"891bbb3b-d64e-4082-9a23-6ac299a0152f","system_id":"levelo_inurba_marseille","lat":43.29252,"lon":5.40914,"is_reserved":false,"is_disabled":false,"rental_uris":{"android":"levelo://app?vid=891bbb3b-d64e-4082-9a23-6ac299a0152f","ios":"levelo://app?vid=891bbb3b-d64e-4082-9a23-6ac299a0152f"},"vehicle_type_id":"4","last_reported":1779431903,"current_range_meters":6800,"station_id":"ce4bh192rcd13ifvqdc0","pricing_plan_id":"cebpf4jnsgd1na2vs0mg"},{"bike_id":"11fb3071-a202-4b5e-b606-dd07072dff70","system_id":"levelo_inurba_marseille","lat":43.31992,"lon":5.38156,"is_reserved":false,"is_disabled":false,"rental_uris":{"android":"levelo://app?vid=11fb3071-a202-4b5e-b606-dd07072dff70","ios":"levelo://app?vid=11fb3071-a202-4b5e-b606-dd07072dff70"},"vehicle_type_id":"4","last_reported":1779431903,"current_range_meters":7200,"station_id":"ce4bhr12rcd13ifvqhpg","pricing_plan_id":"cebpf4jnsgd1na2vs0mg"},{"bike_id":"b64e9c0d-4003-4ce3-9a77-7ea68878e4b9","system_id":"levelo_inurba_marseille","lat":43.28112,"lon":5.39866,"is_reserved":false,"is_disabled":false,"rental_uris":{"android":"levelo://app?vid=b64e9c0d-4003-4ce3-9a77-7ea68878e4b9","ios":"levelo://app?vid=b64e9c0d-4003-4ce3-9a77-7ea68878e4b9"},"vehicle_type_id":"4","last_reported":1779431903,"current_range_meters":7200,"station_id":"","pricing_plan_id":"cebpf4jnsgd1na2vs0mg"},{"bike_id":"d523bcad-98ea-47e7-a65b-05f23aafd12a","system_id":"levelo_inurba_marseille","lat":43.29803,"lon":5.38041,"is_reserved":false,"is_disabled":false,"rental_uris":{"android":"levelo://app?vid=d523bcad-98ea-47e7-a65b-05f23aafd12a","ios":"levelo://app?vid=d523bcad-98ea-47e7-a65b-05f23aafd12a"},"vehicle_type_id":"4","last_reported":1779431903,"current_range_meters":7200,"station_id":"","pricing_plan_id":"cebpf4jnsgd1na2vs0mg"},{"bike_id":"9fe014d0-384f-464b-a8eb-6d1a0b5d9ec1","system_id":"levelo_inurba_marseille","lat":43.30776,"lon":5.37644,"is_reserved":false,"is_disabled":false,"rental_uris":{"android":"levelo://app?vid=9fe014d0-384f-464b-a8eb-6d1a0b5d9ec1","ios":"levelo://app?vid=9fe014d0-384f-464b-a8eb-6d1a0b5d9ec1"},"vehicle_type_id":"4","last_reported":1779431903,"current_range_meters":7200,"station_id":"ce4bgv92rcd13ifvqcq0","pricing_plan_id":"cebpf4jnsgd1na2vs0mg"},{"bike_id":"b7b1190c-b5c6-4401-98fd-327abc9a6496","system_id":"levelo_inurba_marseille","lat":43.3177,"lon":5.39019,"is_reserved":false,"is_disabled":false,"rental_uris":{"android":"levelo://app?vid=b7b1190c-b5c6-4401-98fd-327abc9a6496","ios":"levelo://app?vid=b7b1190c-b5c6-4401-98fd-327abc9a6496"},"vehicle_type_id":"4","last_reported":1779431903,"current_range_meters":7200,"station_id":"ce4bhqp2rcd13ifvqhng","pricing_plan_id":"cebpf4jnsgd1na2vs0mg"},{"bike_id":"557080a2-b660-4577-abec-8ba286e104aa","system_id":"levelo_inurba_marseille","lat":43.30143,"lon":5.3741,"is_reserved":false,"is_disabled":false,"rental_uris":{"android":"levelo://app?vid=557080a2-b660-4577-abec-8ba286e104aa","ios":"levelo://app?vid=557080a2-b660-4577-abec-8ba286e104aa"},"vehicle_type_id":"4","last_reported":1779431903,"current_range_meters":7200,"station_id":"ce4bgs92rcd13ifvqcc0","pricing_plan_id":"cebpf4jnsgd1na2vs0mg"},{"bike_id":"5c530a9e-7c4a-4aa6-adac-4172a237ef4e","system_id":"levelo_inurba_marseille","lat":43.28596,"lon":5.34994,"is_reserved":false,"is_disabled":false,"rental_uris":{"android":"levelo://app?vid=5c530a9e-7c4a-4aa6-adac-4172a237ef4e","ios":"levelo://app?vid=5c530a9e-7c4a-4aa6-adac-4172a237ef4e"},"vehicle_type_id":"4","last_reported":1779431903,"current_range_meters":7200,"station_id":"","pricing_plan_id":"cebpf4jnsgd1na2vs0mg"},{"bike_id":"23fa46e4-55ce-41df-8541-d2c93a318a28","system_id":"levelo_inurba_marseille","lat":43.30947,"lon":5.39044,"is_reserved":false,"is_disabled":false,"rental_uris":{"android":"levelo://app?vid=23fa46e4-55ce-41df-8541-d2c93a318a28","ios":"levelo://app?vid=23fa46e4-55ce-41df-8541-d2c93a318a28"},"vehicle_type_id":"4","last_reported":1779431903,"current_range_meters":7200,"station_id":"ce4bgup2rcd13ifvqco0","pricing_plan_id":"cebpf4jnsgd1na2vs0mg"},{"bike_id":"bae24b03-b710-4049-9b14-fe506328781c","system_id":"levelo_inurba_marseille","lat":43.29275,"lon":5.40123,"is_reserved":false,"is_disabled":false,"rental_uris":{"android":"levelo://app?vid=bae24b03-b710-4049-9b14-fe506328781c","ios":"levelo://app?vid=bae24b03-b710-4049-9b14-fe506328781c"},"vehicle_type_id":"4","last_reported":1779431903,"current_range_meters":7200,"station_id":"ce4bh312rcd13ifvqdk0","pricing_plan_id":"cebpf4jnsgd1na2vs0mg"},{"bike_id":"aa71664e-fae7-4d97-8515-ddae352558ad","system_id":"levelo_inurba_marseille","lat":43.29287,"lon":5.40126,"is_reserved":false,"is_disabled":true,"rental_uris":{"android":"levelo://app?vid=aa71664e-fae7-4d97-8515-ddae352558ad","ios":"levelo://app?vid=aa71664e-fae7-4d97-8515-ddae352558ad"},"vehicle_type_id":"4","last_reported":1779431903,"current_range_meters":7200,"station_id":"ce4bh312rcd13ifvqdk0","pricing_plan_id":"cebpf4jnsgd1na2vs0mg"},{"bike_id":"c06c182c-305d-47a9-b38d-1891226008f4","system_id":"levelo_inurba_marseille","lat":43.30547,"lon":5.38456,"is_reserved":false,"is_disabled":false,"rental_uris":{"android":"levelo://app?vid=c06c182c-305d-47a9-b38d-1891226008f4","ios":"levelo://app?vid=c06c182c-305d-47a9-b38d-1891226008f4"},"vehicle_type_id":"4","last_reported":1779431903,"current_range_meters":7200,"station_id":"ce4bgg92rcd13ifvqb30","pricing_plan_id":"cebpf4jnsgd1na2vs0mg"},{"bike_id":"74873207-0cd5-492f-a32f-89838d6d4af5","system_id":"levelo_inurba_marseille","lat":43.2906,"lon":5.39954,"is_reserved":false,"is_disabled":false,"rental_uris":{"android":"levelo://app?vid=74873207-0cd5-492f-a32f-89838d6d4af5","ios":"levelo://app?vid=74873207-0cd5-492f-a32f-89838d6d4af5"},"vehicle_type_id":"4","last_reported":1779431903,"current_range_meters":7200,"station_id":"ce4bh392rcd13ifvqdm0","pricing_plan_id":"cebpf4jnsgd1na2vs0mg"},{"bike_id":"311a32a2-9584-4040-a54a-5150e9ba9d1f","system_id":"levelo_inurba_marseille","lat":43.28692,"lon":5.4668,"is_reserved":false,"is_disabled":false,"rental_uris":{"android":"levelo://app?vid=311a32a2-9584-4040-a54a-5150e9ba9d1f","ios":"levelo://app?vid=311a32a2-9584-4040-a54a-5150e9ba9d1f"},"vehicle_type_id":"4","last_reported":1779431903,"current_range_meters":7200,"station_id":"st_d6tc3vkotcvc738tfjhg","pricing_plan_id":"cebpf4jnsgd1na2vs0mg"},{"bike_id":"24a6663e-aab5-4ca0-b0c0-edb7161f38f2","system_id":"levelo_inurba_marseille","lat":43.30949,"lon":5.3903,"is_reserved":false,"is_disabled":false,"rental_uris":{"android":"levelo://app?vid=24a6663e-aab5-4ca0-b0c0-edb7161f38f2","ios":"levelo://app?vid=24a6663e-aab5-4ca0-b0c0-edb7161f38f2"},"vehicle_type_id":"4","last_reported":1779431903,"current_range_meters":7200,"station_id":"ce4bgup2rcd13ifvqco0","pricing_plan_id":"cebpf4jnsgd1na2vs0mg"},{"bike_id":"5d370724-77a2-4752-996e-f01dda7a3379","system_id":"levelo_inurba_marseille","lat":43.2256,"lon":5.41617,"is_reserved":false,"is_disabled":false,"rental_uris":{"android":"levelo://app?vid=5d370724-77a2-4752-996e-f01dda7a3379","ios":"levelo://app?vid=5d370724-77a2-4752-996e-f01dda7a3379"},"vehicle_type_id":"4","last_reported":1779431903,"current_range_meters":7200,"station_id":"st_d2o4gvlbi1j2169b742g","pricing_plan_id":"cebpf4jnsgd1na2vs0mg"},{"bike_id":"e4fd2b5f-8c1e-4148-9edb-b582666b9eac","system_id":"levelo_inurba_marseille","lat":43.31362,"lon":5.3849,"is_reserved":false,"is_disabled":true,"rental_uris":{"android":"levelo://app?vid=e4fd2b5f-8c1e-4148-9edb-b582666b9eac","ios":"levelo://app?vid=e4fd2b5f-8c1e-4148-9edb-b582666b9eac"},"vehicle_type_id":"4","last_reported":1779431903,"current_range_meters":7200,"station_id":"ce4bgt92rcd13ifvqcf0","pricing_plan_id":"cebpf4jnsgd1na2vs0mg"},{"bike_id":"4fa0521d-5744-4365-a06a-c2c83719732e","system_id":"levelo_inurba_marseille","lat":43.28992,"lon":5.35607,"is_reserved":false,"is_disabled":true,"rental_uris":{"android":"levelo://app?vid=4fa0521d-5744-4365-a06a-c2c83719732e","ios":"levelo://app?vid=4fa0521d-5744-4365-a06a-c2c83719732e"},"vehicle_type_id":"4","last_reported":1779431903,"current_range_meters":7200,"station_id":"ce4bhb92rcd13ifvqen0","pricing_plan_id":"cebpf4jnsgd1na2vs0mg"},{"bike_id":"6297d9a8-baa6-4e03-9110-b0e9b855275b","system_id":"levelo_inurba_marseille","lat":43.2694,"lon":5.38639,"is_reserved":false,"is_disabled":false,"rental_uris":{"android":"levelo://app?vid=6297d9a8-baa6-4e03-9110-b0e9b855275b","ios":"levelo://app?vid=6297d9a8-baa6-4e03-9110-b0e9b855275b"},"vehicle_type_id":"4","last_reported":1779431903,"current_range_meters":8000,"station_id":"ce4bhh92rcd13ifvqfh0","pricing_plan_id":"cebpf4jnsgd1na2vs0mg"},{"bike_id":"ca5b8b13-5373-4377-b925-1d87c55b34ee","system_id":"levelo_inurba_marseille","lat":43.27372,"lon":5.36256,"is_reserved":false,"is_disabled":false,"rental_uris":{"android":"levelo://app?vid=ca5b8b13-5373-4377-b925-1d87c55b34ee","ios":"levelo://app?vid=ca5b8b13-5373-4377-b925-1d87c55b34ee"},"vehicle_type_id":"4","last_reported":1779431903,"current_range_meters":8000,"station_id":"ce4bhbh2rcd13ifvqeo0","pricing_plan_id":"cebpf4jnsgd1na2vs0mg"},{"bike_id":"2d09449d-df92-4d3e-9412-ea34f0e8afc0","system_id":"levelo_inurba_marseille","lat":43.29644,"lon":5.38521,"is_reserved":false,"is_disabled":false,"rental_uris":{"android":"levelo://app?vid=2d09449d-df92-4d3e-9412-ea34f0e8afc0","ios":"levelo://app?vid=2d09449d-df92-4d3e-9412-ea34f0e8afc0"},"vehicle_type_id":"4","last_reported":1779431903,"current_range_meters":8000,"station_id":"","pricing_plan_id":"cebpf4jnsgd1na2vs0mg"},{"bike_id":"07813981-dbb7-4f05-b4a1-c6cba5caa2c0","system_id":"levelo_inurba_marseille","lat":43.30649,"lon":5.40028,"is_reserved":false,"is_disabled":true,"rental_uris":{"android":"levelo://app?vid=07813981-dbb7-4f05-b4a1-c6cba5caa2c0","ios":"levelo://app?vid=07813981-dbb7-4f05-b4a1-c6cba5caa2c0"},"vehicle_type_id":"4","last_reported":1779431903,"current_range_meters":8000,"station_id":"ce4bh112rcd13ifvqda0","pricing_plan_id":"cebpf4jnsgd1na2vs0mg"},{"bike_id":"691d522d-8565-4a91-bffc-e987d9a10e4a","system_id":"levelo_inurba_marseille","lat":43.25842,"lon":5.39394,"is_reserved":false,"is_disabled":true,"rental_uris":{"android":"levelo://app?vid=691d522d-8565-4a91-bffc-e987d9a10e4a","ios":"levelo://app?vid=691d522d-8565-4a91-bffc-e987d9a10e4a"},"vehicle_type_id":"4","last_reported":1779431903,"current_range_meters":8000,"station_id":"ce4bhip2rcd13ifvqft0","pricing_plan_id":"cebpf4jnsgd1na2vs0mg"},{"bike_id":"3200b978-002a-4bf0-9ea7-51cc9e75e711","system_id":"levelo_inurba_marseille","lat":43.27178,"lon":5.40992,"is_reserved":false,"is_disabled":false,"rental_uris":{"android":"levelo://app?vid=3200b978-002a-4bf0-9ea7-51cc9e75e711","ios":"levelo://app?vid=3200b978-002a-4bf0-9ea7-51cc9e75e711"},"vehicle_type_id":"4","last_reported":1779431903,"current_range_meters":8000,"station_id":"ce4bhl12rcd13ifvqgf0","pricing_plan_id":"cebpf4jnsgd1na2vs0mg"},{"bike_id":"b86f11cb-c483-42d1-b388-de8e6001699e","system_id":"levelo_inurba_marseille","lat":43.28119,"lon":5.3786,"is_reserved":false,"is_disabled":false,"rental_uris":{"android":"levelo://app?vid=b86f11cb-c483-42d1-b388-de8e6001699e","ios":"levelo://app?vid=b86f11cb-c483-42d1-b388-de8e6001699e"},"vehicle_type_id":"4","last_reported":1779431903,"current_range_meters":8000,"station_id":"ce4bha12rcd13ifvqee0","pricing_plan_id":"cebpf4jnsgd1na2vs0mg"},{"bike_id":"6a572d56-f8a9-43f3-aab7-62e7edcd2b70","system_id":"levelo_inurba_marseille","lat":43.24787,"lon":5.37443,"is_reserved":false,"is_disabled":false,"rental_uris":{"android":"levelo://app?vid=6a572d56-f8a9-43f3-aab7-62e7edcd2b70","ios":"levelo://app?vid=6a572d56-f8a9-43f3-aab7-62e7edcd2b70"},"vehicle_type_id":"4","last_reported":1779431903,"current_range_meters":8000,"station_id":"ce4bhgh2rcd13ifvqfb0","pricing_plan_id":"cebpf4jnsgd1na2vs0mg"},{"bike_id":"8b5d71cc-3c04-4a85-809e-37946cf3deae","system_id":"levelo_inurba_marseille","lat":43.28191,"lon":5.39009,"is_reserved":false,"is_disabled":false,"rental_uris":{"android":"levelo://app?vid=8b5d71cc-3c04-4a85-809e-37946cf3deae","ios":"levelo://app?vid=8b5d71cc-3c04-4a85-809e-37946cf3deae"},"vehicle_type_id":"4","last_reported":1779431903,"current_range_meters":8000,"station_id":"ce4bhn92rcd13ifvqgsg","pricing_plan_id":"cebpf4jnsgd1na2vs0mg"},{"bike_id":"55ff971c-f753-4ef7-83e4-054f84d32949","system_id":"levelo_inurba_marseille","lat":43.29966,"lon":5.36657,"is_reserved":false,"is_disabled":true,"rental_uris":{"android":"levelo://app?vid=55ff971c-f753-4ef7-83e4-054f84d32949","ios":"levelo://app?vid=55ff971c-f753-4ef7-83e4-054f84d32949"},"vehicle_type_id":"4","last_reported":1779431903,"current_range_meters":8000,"station_id":"","pricing_plan_id":"cebpf4jnsgd1na2vs0mg"},{"bike_id":"11233bb7-275d-4756-a959-2e66680ae699","system_id":"levelo_inurba_marseille","lat":43.30791,"lon":5.37671,"is_reserved":false,"is_disabled":false,"rental_uris":{"android":"levelo://app?vid=11233bb7-275d-4756-a959-2e66680ae699","ios":"levelo://app?vid=11233bb7-275d-4756-a959-2e66680ae699"},"vehicle_type_id":"4","last_reported":1779431903,"current_range_meters":8000,"station_id":"ce4bgv92rcd13ifvqcq0","pricing_plan_id":"cebpf4jnsgd1na2vs0mg"},{"bike_id":"ca8270b4-d39a-47bc-a5ba-46cea51aa1f5","system_id":"levelo_inurba_marseille","lat":43.28061,"lon":5.35301,"is_reserved":false,"is_disabled":false,"rental_uris":{"android":"levelo://app?vid=ca8270b4-d39a-47bc-a5ba-46cea51aa1f5","ios":"levelo://app?vid=ca8270b4-d39a-47bc-a5ba-46cea51aa1f5"},"vehicle_type_id":"4","last_reported":1779431903,"current_range_meters":8000,"station_id":"","pricing_plan_id":"cebpf4jnsgd1na2vs0mg"},{"bike_id":"e8917d85-ffa2-4944-9df4-db3d6d9e4491","system_id":"levelo_inurba_marseille","lat":43.249458,"lon":5.404924,"is_reserved":false,"is_disabled":false,"rental_uris":{"android":"levelo://app?vid=e8917d85-ffa2-4944-9df4-db3d6d9e4491","ios":"levelo://app?vid=e8917d85-ffa2-4944-9df4-db3d6d9e4491"},"vehicle_type_id":"4","last_reported":1779431903,"current_range_meters":8000,"station_id":"st_d2ngiaodas8pm72gd1h0","pricing_plan_id":"cebpf4jnsgd1na2vs0mg"},{"bike_id":"ad0ce0a0-b313-407e-b7d9-63b7147a0c85","system_id":"levelo_inurba_marseille","lat":43.2446,"lon":5.42511,"is_reserved":false,"is_disabled":false,"rental_uris":{"android":"levelo://app?vid=ad0ce0a0-b313-407e-b7d9-63b7147a0c85","ios":"levelo://app?vid=ad0ce0a0-b313-407e-b7d9-63b7147a0c85"},"vehicle_type_id":"4","last_reported":1779431903,"current_range_meters":8000,"station_id":"st_d4a3vfp97mjs738cd8kg","pricing_plan_id":"cebpf4jnsgd1na2vs0mg"},{"bike_id":"2ee1d0a2-8338-47d9-ba21-3be29d33cef4","system_id":"levelo_inurba_marseille","lat":43.30786,"lon":5.37641,"is_reserved":false,"is_disabled":false,"rental_uris":{"android":"levelo://app?vid=2ee1d0a2-8338-47d9-ba21-3be29d33cef4","ios":"levelo://app?vid=2ee1d0a2-8338-47d9-ba21-3be29d33cef4"},"vehicle_type_id":"4","last_reported":1779431903,"current_range_meters":8000,"station_id":"ce4bgv92rcd13ifvqcq0","pricing_plan_id":"cebpf4jnsgd1na2vs0mg"},{"bike_id":"125c4d5b-9f0c-4f70-b053-7773cea0e270","system_id":"levelo_inurba_marseille","lat":43.28147,"lon":5.43801,"is_reserved":false,"is_disabled":false,"rental_uris":{"android":"levelo://app?vid=125c4d5b-9f0c-4f70-b053-7773cea0e270","ios":"levelo://app?vid=125c4d5b-9f0c-4f70-b053-7773cea0e270"},"vehicle_type_id":"4","last_reported":1779431903,"current_range_meters":8000,"station_id":"","pricing_plan_id":"cebpf4jnsgd1na2vs0mg"},{"bike_id":"eb674502-a68e-4cc8-ae7a-4c5b7fd5cd17","system_id":"levelo_inurba_marseille","lat":43.26567,"lon":5.40329,"is_reserved":false,"is_disabled":false,"rental_uris":{"android":"levelo://app?vid=eb674502-a68e-4cc8-ae7a-4c5b7fd5cd17","ios":"levelo://app?vid=eb674502-a68e-4cc8-ae7a-4c5b7fd5cd17"},"vehicle_type_id":"4","last_reported":1779431903,"current_range_meters":8000,"station_id":"ce4bhmp2rcd13ifvqgng","pricing_plan_id":"cebpf4jnsgd1na2vs0mg"},{"bike_id":"e53b0bce-f873-42a6-9224-cd186fe4568e","system_id":"levelo_inurba_marseille","lat":43.30734,"lon":5.39282,"is_reserved":false,"is_disabled":false,"rental_uris":{"android":"levelo://app?vid=e53b0bce-f873-42a6-9224-cd186fe4568e","ios":"levelo://app?vid=e53b0bce-f873-42a6-9224-cd186fe4568e"},"vehicle_type_id":"4","last_reported":1779431903,"current_range_meters":8000,"station_id":"","pricing_plan_id":"cebpf4jnsgd1na2vs0mg"},{"bike_id":"8055306c-125c-4cfa-a96f-8a5366e042dd","system_id":"levelo_inurba_marseille","lat":43.32053,"lon":5.41549,"is_reserved":false,"is_disabled":false,"rental_uris":{"android":"levelo://app?vid=8055306c-125c-4cfa-a96f-8a5366e042dd","ios":"levelo://app?vid=8055306c-125c-4cfa-a96f-8a5366e042dd"},"vehicle_type_id":"4","last_reported":1779431903,"current_range_meters":8000,"station_id":"ce4bhq92rcd13ifvqhkg","pricing_plan_id":"cebpf4jnsgd1na2vs0mg"},{"bike_id":"5181c61d-4793-4e85-aca5-65b24261a4d4","system_id":"levelo_inurba_marseille","lat":43.30252,"lon":5.40094,"is_reserved":false,"is_disabled":false,"rental_uris":{"android":"levelo://app?vid=5181c61d-4793-4e85-aca5-65b24261a4d4","ios":"levelo://app?vid=5181c61d-4793-4e85-aca5-65b24261a4d4"},"vehicle_type_id":"4","last_reported":1779431903,"current_range_meters":8000,"station_id":"ce4bgvh2rcd13ifvqcs0","pricing_plan_id":"cebpf4jnsgd1na2vs0mg"},{"bike_id":"16dc5364-6d84-4f48-a006-d86e3dc5bbf0","system_id":"levelo_inurba_marseille","lat":43.28626,"lon":5.40474,"is_reserved":false,"is_disabled":false,"rental_uris":{"android":"levelo://app?vid=16dc5364-6d84-4f48-a006-d86e3dc5bbf0","ios":"levelo://app?vid=16dc5364-6d84-4f48-a006-d86e3dc5bbf0"},"vehicle_type_id":"4","last_reported":1779431903,"current_range_meters":8000,"station_id":"","pricing_plan_id":"cebpf4jnsgd1na2vs0mg"},{"bike_id":"103c3925-0fed-4670-8dde-c29c1ddbe606","system_id":"levelo_inurba_marseille","lat":43.246323,"lon":5.431301,"is_reserved":false,"is_disabled":false,"rental_uris":{"android":"levelo://app?vid=103c3925-0fed-4670-8dde-c29c1ddbe606","ios":"levelo://app?vid=103c3925-0fed-4670-8dde-c29c1ddbe606"},"vehicle_type_id":"4","last_reported":1779431903,"current_range_meters":8000,"station_id":"st_d2m6c4gdas8pm72e190g","pricing_plan_id":"cebpf4jnsgd1na2vs0mg"},{"bike_id":"875ff3ec-3d53-4289-87d8-004996e2dc85","system_id":"levelo_inurba_marseille","lat":43.292646,"lon":5.38435,"is_reserved":false,"is_disabled":false,"rental_uris":{"android":"levelo://app?vid=875ff3ec-3d53-4289-87d8-004996e2dc85","ios":"levelo://app?vid=875ff3ec-3d53-4289-87d8-004996e2dc85"},"vehicle_type_id":"4","last_reported":1779431903,"current_range_meters":8000,"station_id":"ce4bh692rcd13ifvqea0","pricing_plan_id":"cebpf4jnsgd1na2vs0mg"},{"bike_id":"b80a594b-f237-4b95-9be1-2fe1570d6dc3","system_id":"levelo_inurba_marseille","lat":43.28459,"lon":5.35899,"is_reserved":false,"is_disabled":true,"rental_uris":{"android":"levelo://app?vid=b80a594b-f237-4b95-9be1-2fe1570d6dc3","ios":"levelo://app?vid=b80a594b-f237-4b95-9be1-2fe1570d6dc3"},"vehicle_type_id":"4","last_reported":1779431903,"current_range_meters":8000,"station_id":"ce4bhah2rcd13ifvqei0","pricing_plan_id":"cebpf4jnsgd1na2vs0mg"},{"bike_id":"dbf1df3b-7c0e-44cc-a6f4-2ef8960772dd","system_id":"levelo_inurba_marseille","lat":43.22928,"lon":5.35394,"is_reserved":false,"is_disabled":false,"rental_uris":{"android":"levelo://app?vid=dbf1df3b-7c0e-44cc-a6f4-2ef8960772dd","ios":"levelo://app?vid=dbf1df3b-7c0e-44cc-a6f4-2ef8960772dd"},"vehicle_type_id":"4","last_reported":1779431903,"current_range_meters":8000,"station_id":"cpo3532slgdg3j2ikp40","pricing_plan_id":"cebpf4jnsgd1na2vs0mg"},{"bike_id":"d6ef5181-9c65-4b14-a132-bd2560a893a3","system_id":"levelo_inurba_marseille","lat":43.25822,"lon":5.39435,"is_reserved":false,"is_disabled":false,"rental_uris":{"android":"levelo://app?vid=d6ef5181-9c65-4b14-a132-bd2560a893a3","ios":"levelo://app?vid=d6ef5181-9c65-4b14-a132-bd2560a893a3"},"vehicle_type_id":"4","last_reported":1779431903,"current_range_meters":8400,"station_id":"ce4bhip2rcd13ifvqft0","pricing_plan_id":"cebpf4jnsgd1na2vs0mg"},{"bike_id":"fb7fb934-f94b-4436-95ec-72beeebad7b1","system_id":"levelo_inurba_marseille","lat":43.29261,"lon":5.40909,"is_reserved":false,"is_disabled":false,"rental_uris":{"android":"levelo://app?vid=fb7fb934-f94b-4436-95ec-72beeebad7b1","ios":"levelo://app?vid=fb7fb934-f94b-4436-95ec-72beeebad7b1"},"vehicle_type_id":"4","last_reported":1779431903,"current_range_meters":8400,"station_id":"ce4bh192rcd13ifvqdc0","pricing_plan_id":"cebpf4jnsgd1na2vs0mg"},{"bike_id":"85ad43d7-7b0d-4064-92e5-8c42071fdce3","system_id":"levelo_inurba_marseille","lat":43.26932,"lon":5.38668,"is_reserved":false,"is_disabled":false,"rental_uris":{"android":"levelo://app?vid=85ad43d7-7b0d-4064-92e5-8c42071fdce3","ios":"levelo://app?vid=85ad43d7-7b0d-4064-92e5-8c42071fdce3"},"vehicle_type_id":"4","last_reported":1779431903,"current_range_meters":8400,"station_id":"ce4bhh92rcd13ifvqfh0","pricing_plan_id":"cebpf4jnsgd1na2vs0mg"},{"bike_id":"fa4fbea3-00c7-4c52-b9ee-0a2a60c97ef7","system_id":"levelo_inurba_marseille","lat":43.24938,"lon":5.4051,"is_reserved":false,"is_disabled":false,"rental_uris":{"android":"levelo://app?vid=fa4fbea3-00c7-4c52-b9ee-0a2a60c97ef7","ios":"levelo://app?vid=fa4fbea3-00c7-4c52-b9ee-0a2a60c97ef7"},"vehicle_type_id":"4","last_reported":1779431903,"current_range_meters":8400,"station_id":"st_d2ngiaodas8pm72gd1h0","pricing_plan_id":"cebpf4jnsgd1na2vs0mg"},{"bike_id":"7cef59ac-e670-4cc6-9d1c-d823b8a2b396","system_id":"levelo_inurba_marseille","lat":43.30492,"lon":5.379,"is_reserved":false,"is_disabled":false,"rental_uris":{"android":"levelo://app?vid=7cef59ac-e670-4cc6-9d1c-d823b8a2b396","ios":"levelo://app?vid=7cef59ac-e670-4cc6-9d1c-d823b8a2b396"},"vehicle_type_id":"4","last_reported":1779431903,"current_range_meters":8400,"station_id":"ce4bgup2rcd13ifvqcn0","pricing_plan_id":"cebpf4jnsgd1na2vs0mg"},{"bike_id":"3b326105-ca6d-4f73-8cac-8527fdd59fa6","system_id":"levelo_inurba_marseille","lat":43.25013,"lon":5.38907,"is_reserved":false,"is_disabled":true,"rental_uris":{"android":"levelo://app?vid=3b326105-ca6d-4f73-8cac-8527fdd59fa6","ios":"levelo://app?vid=3b326105-ca6d-4f73-8cac-8527fdd59fa6"},"vehicle_type_id":"4","last_reported":1779431903,"current_range_meters":8400,"station_id":"ce4bhgp2rcd13ifvqfd0","pricing_plan_id":"cebpf4jnsgd1na2vs0mg"},{"bike_id":"ca7bec4c-c9ce-4816-988f-528f79a7e440","system_id":"levelo_inurba_marseille","lat":43.32009,"lon":5.41569,"is_reserved":false,"is_disabled":false,"rental_uris":{"android":"levelo://app?vid=ca7bec4c-c9ce-4816-988f-528f79a7e440","ios":"levelo://app?vid=ca7bec4c-c9ce-4816-988f-528f79a7e440"},"vehicle_type_id":"4","last_reported":1779431903,"current_range_meters":8400,"station_id":"ce4bhq92rcd13ifvqhkg","pricing_plan_id":"cebpf4jnsgd1na2vs0mg"},{"bike_id":"b9b84d59-7f7c-47a0-b2b8-055f7224abba","system_id":"levelo_inurba_marseille","lat":43.26943,"lon":5.3863,"is_reserved":false,"is_disabled":false,"rental_uris":{"android":"levelo://app?vid=b9b84d59-7f7c-47a0-b2b8-055f7224abba","ios":"levelo://app?vid=b9b84d59-7f7c-47a0-b2b8-055f7224abba"},"vehicle_type_id":"4","last_reported":1779431903,"current_range_meters":8400,"station_id":"ce4bhh92rcd13ifvqfh0","pricing_plan_id":"cebpf4jnsgd1na2vs0mg"},{"bike_id":"4276ef89-f835-4053-bc32-8536bb2d75bc","system_id":"levelo_inurba_marseille","lat":43.30296,"lon":5.37433,"is_reserved":false,"is_disabled":false,"rental_uris":{"android":"levelo://app?vid=4276ef89-f835-4053-bc32-8536bb2d75bc","ios":"levelo://app?vid=4276ef89-f835-4053-bc32-8536bb2d75bc"},"vehicle_type_id":"4","last_reported":1779431903,"current_range_meters":8400,"station_id":"","pricing_plan_id":"cebpf4jnsgd1na2vs0mg"},{"bike_id":"f2fea1c2-4b61-43eb-8316-459751289416","system_id":"levelo_inurba_marseille","lat":43.32476,"lon":5.3657,"is_reserved":false,"is_disabled":false,"rental_uris":{"android":"levelo://app?vid=f2fea1c2-4b61-43eb-8316-459751289416","ios":"levelo://app?vid=f2fea1c2-4b61-43eb-8316-459751289416"},"vehicle_type_id":"4","last_reported":1779431903,"current_range_meters":8400,"station_id":"ce4bhs12rcd13ifvqhvg","pricing_plan_id":"cebpf4jnsgd1na2vs0mg"},{"bike_id":"4b4ce069-edbb-44f3-951d-6dacdbc5826b","system_id":"levelo_inurba_marseille","lat":43.28462,"lon":5.35886,"is_reserved":false,"is_disabled":true,"rental_uris":{"android":"levelo://app?vid=4b4ce069-edbb-44f3-951d-6dacdbc5826b","ios":"levelo://app?vid=4b4ce069-edbb-44f3-951d-6dacdbc5826b"},"vehicle_type_id":"4","last_reported":1779431903,"current_range_meters":8400,"station_id":"ce4bhah2rcd13ifvqei0","pricing_plan_id":"cebpf4jnsgd1na2vs0mg"},{"bike_id":"2aa43b8a-e8a0-4968-87ae-d3fd74283d5c","system_id":"levelo_inurba_marseille","lat":43.30456,"lon":5.37902,"is_reserved":false,"is_disabled":true,"rental_uris":{"android":"levelo://app?vid=2aa43b8a-e8a0-4968-87ae-d3fd74283d5c","ios":"levelo://app?vid=2aa43b8a-e8a0-4968-87ae-d3fd74283d5c"},"vehicle_type_id":"4","last_reported":1779431903,"current_range_meters":8400,"station_id":"ce4bgup2rcd13ifvqcn0","pricing_plan_id":"cebpf4jnsgd1na2vs0mg"},{"bike_id":"9be77b45-31c0-48c0-a9d2-c3a0fe200233","system_id":"levelo_inurba_marseille","lat":43.2927,"lon":5.40123,"is_reserved":false,"is_disabled":false,"rental_uris":{"android":"levelo://app?vid=9be77b45-31c0-48c0-a9d2-c3a0fe200233","ios":"levelo://app?vid=9be77b45-31c0-48c0-a9d2-c3a0fe200233"},"vehicle_type_id":"4","last_reported":1779431903,"current_range_meters":8400,"station_id":"ce4bh312rcd13ifvqdk0","pricing_plan_id":"cebpf4jnsgd1na2vs0mg"},{"bike_id":"93875b58-f608-40f1-912d-8451b03b102b","system_id":"levelo_inurba_marseille","lat":43.28728,"lon":5.36081,"is_reserved":false,"is_disabled":false,"rental_uris":{"android":"levelo://app?vid=93875b58-f608-40f1-912d-8451b03b102b","ios":"levelo://app?vid=93875b58-f608-40f1-912d-8451b03b102b"},"vehicle_type_id":"4","last_reported":1779431903,"current_range_meters":8400,"station_id":"cki0cbj6b192h4jlfktg","pricing_plan_id":"cebpf4jnsgd1na2vs0mg"},{"bike_id":"6d1d8c53-99bf-4de5-8213-bd07be1f65f7","system_id":"levelo_inurba_marseille","lat":43.24067,"lon":5.3777,"is_reserved":false,"is_disabled":false,"rental_uris":{"android":"levelo://app?vid=6d1d8c53-99bf-4de5-8213-bd07be1f65f7","ios":"levelo://app?vid=6d1d8c53-99bf-4de5-8213-bd07be1f65f7"},"vehicle_type_id":"4","last_reported":1779431903,"current_range_meters":8400,"station_id":"ce4bhnp2rcd13ifvqgvg","pricing_plan_id":"cebpf4jnsgd1na2vs0mg"},{"bike_id":"15abc4bd-ab5b-416c-86fe-eba6fd10907d","system_id":"levelo_inurba_marseille","lat":43.29262,"lon":5.37644,"is_reserved":false,"is_disabled":true,"rental_uris":{"android":"levelo://app?vid=15abc4bd-ab5b-416c-86fe-eba6fd10907d","ios":"levelo://app?vid=15abc4bd-ab5b-416c-86fe-eba6fd10907d"},"vehicle_type_id":"4","last_reported":1779431903,"current_range_meters":8400,"station_id":"ce4bgi12rcd13ifvqb80","pricing_plan_id":"cebpf4jnsgd1na2vs0mg"},{"bike_id":"b780a2b9-54e9-4698-beef-d94b3e3857b7","system_id":"levelo_inurba_marseille","lat":43.29277,"lon":5.40125,"is_reserved":false,"is_disabled":false,"rental_uris":{"android":"levelo://app?vid=b780a2b9-54e9-4698-beef-d94b3e3857b7","ios":"levelo://app?vid=b780a2b9-54e9-4698-beef-d94b3e3857b7"},"vehicle_type_id":"4","last_reported":1779431903,"current_range_meters":8400,"station_id":"ce4bh312rcd13ifvqdk0","pricing_plan_id":"cebpf4jnsgd1na2vs0mg"},{"bike_id":"f5d6aa41-4048-42a0-bffc-d9fe103f855d","system_id":"levelo_inurba_marseille","lat":43.27463,"lon":5.40743,"is_reserved":false,"is_disabled":false,"rental_uris":{"android":"levelo://app?vid=f5d6aa41-4048-42a0-bffc-d9fe103f855d","ios":"levelo://app?vid=f5d6aa41-4048-42a0-bffc-d9fe103f855d"},"vehicle_type_id":"4","last_reported":1779431903,"current_range_meters":8400,"station_id":"","pricing_plan_id":"cebpf4jnsgd1na2vs0mg"},{"bike_id":"5df77e36-21e5-4643-b405-f160908d1200","system_id":"levelo_inurba_marseille","lat":43.24806,"lon":5.37448,"is_reserved":false,"is_disabled":false,"rental_uris":{"android":"levelo://app?vid=5df77e36-21e5-4643-b405-f160908d1200","ios":"levelo://app?vid=5df77e36-21e5-4643-b405-f160908d1200"},"vehicle_type_id":"4","last_reported":1779431903,"current_range_meters":8400,"station_id":"ce4bhgh2rcd13ifvqfb0","pricing_plan_id":"cebpf4jnsgd1na2vs0mg"},{"bike_id":"0da81d3a-1ba7-49d1-8b32-f36bb37a2c17","system_id":"levelo_inurba_marseille","lat":43.31222,"lon":5.36855,"is_reserved":false,"is_disabled":false,"rental_uris":{"android":"levelo://app?vid=0da81d3a-1ba7-49d1-8b32-f36bb37a2c17","ios":"levelo://app?vid=0da81d3a-1ba7-49d1-8b32-f36bb37a2c17"},"vehicle_type_id":"4","last_reported":1779431903,"current_range_meters":8400,"station_id":"ce4bgl92rcd13ifvqbq0","pricing_plan_id":"cebpf4jnsgd1na2vs0mg"},{"bike_id":"4caf3e14-e76f-419a-8078-baf23b01c198","system_id":"levelo_inurba_marseille","lat":43.31334,"lon":5.39699,"is_reserved":false,"is_disabled":true,"rental_uris":{"android":"levelo://app?vid=4caf3e14-e76f-419a-8078-baf23b01c198","ios":"levelo://app?vid=4caf3e14-e76f-419a-8078-baf23b01c198"},"vehicle_type_id":"4","last_reported":1779431903,"current_range_meters":8400,"station_id":"ce4bgvp2rcd13ifvqcu0","pricing_plan_id":"cebpf4jnsgd1na2vs0mg"},{"bike_id":"caff8efd-f900-43b2-b438-664f06709cc9","system_id":"levelo_inurba_marseille","lat":43.2313,"lon":5.43768,"is_reserved":false,"is_disabled":false,"rental_uris":{"android":"levelo://app?vid=caff8efd-f900-43b2-b438-664f06709cc9","ios":"levelo://app?vid=caff8efd-f900-43b2-b438-664f06709cc9"},"vehicle_type_id":"4","last_reported":1779431903,"current_range_meters":8400,"station_id":"ce4bhmp2rcd13ifvqgog","pricing_plan_id":"cebpf4jnsgd1na2vs0mg"},{"bike_id":"e8bd13bf-3fca-4f3b-89e4-0674a7d02d62","system_id":"levelo_inurba_marseille","lat":43.29937,"lon":5.37739,"is_reserved":false,"is_disabled":false,"rental_uris":{"android":"levelo://app?vid=e8bd13bf-3fca-4f3b-89e4-0674a7d02d62","ios":"levelo://app?vid=e8bd13bf-3fca-4f3b-89e4-0674a7d02d62"},"vehicle_type_id":"4","last_reported":1779431903,"current_range_meters":8800,"station_id":"","pricing_plan_id":"cebpf4jnsgd1na2vs0mg"},{"bike_id":"79b6582d-3248-454f-b83d-f107baf981a5","system_id":"levelo_inurba_marseille","lat":43.2418,"lon":5.39724,"is_reserved":false,"is_disabled":false,"rental_uris":{"android":"levelo://app?vid=79b6582d-3248-454f-b83d-f107baf981a5","ios":"levelo://app?vid=79b6582d-3248-454f-b83d-f107baf981a5"},"vehicle_type_id":"4","last_reported":1779431903,"current_range_meters":8800,"station_id":"ce4bhn12rcd13ifvqgpg","pricing_plan_id":"cebpf4jnsgd1na2vs0mg"},{"bike_id":"b4dd30e1-9e04-4d9a-a715-66e3257eefc8","system_id":"levelo_inurba_marseille","lat":43.31696,"lon":5.40442,"is_reserved":false,"is_disabled":false,"rental_uris":{"android":"levelo://app?vid=b4dd30e1-9e04-4d9a-a715-66e3257eefc8","ios":"levelo://app?vid=b4dd30e1-9e04-4d9a-a715-66e3257eefc8"},"vehicle_type_id":"4","last_reported":1779431903,"current_range_meters":8800,"station_id":"ce4bh012rcd13ifvqd00","pricing_plan_id":"cebpf4jnsgd1na2vs0mg"},{"bike_id":"b136b22c-bd11-4f33-ac25-6cd5883b144e","system_id":"levelo_inurba_marseille","lat":43.28524,"lon":5.44095,"is_reserved":false,"is_disabled":false,"rental_uris":{"android":"levelo://app?vid=b136b22c-bd11-4f33-ac25-6cd5883b144e","ios":"levelo://app?vid=b136b22c-bd11-4f33-ac25-6cd5883b144e"},"vehicle_type_id":"4","last_reported":1779431903,"current_range_meters":8800,"station_id":"st_d3j3df2ikq2c7380ej80","pricing_plan_id":"cebpf4jnsgd1na2vs0mg"},{"bike_id":"f4b93e8a-6c21-4a3f-a9cd-234d98fa1d6a","system_id":"levelo_inurba_marseille","lat":43.24487,"lon":5.39967,"is_reserved":false,"is_disabled":false,"rental_uris":{"android":"levelo://app?vid=f4b93e8a-6c21-4a3f-a9cd-234d98fa1d6a","ios":"levelo://app?vid=f4b93e8a-6c21-4a3f-a9cd-234d98fa1d6a"},"vehicle_type_id":"4","last_reported":1779431903,"current_range_meters":8800,"station_id":"","pricing_plan_id":"cebpf4jnsgd1na2vs0mg"},{"bike_id":"ab67fe97-ba2b-407a-8aa4-c49ffd21e3f6","system_id":"levelo_inurba_marseille","lat":43.28427,"lon":5.37516,"is_reserved":false,"is_disabled":false,"rental_uris":{"android":"levelo://app?vid=ab67fe97-ba2b-407a-8aa4-c49ffd21e3f6","ios":"levelo://app?vid=ab67fe97-ba2b-407a-8aa4-c49ffd21e3f6"},"vehicle_type_id":"4","last_reported":1779431903,"current_range_meters":8800,"station_id":"ce4bh412rcd13ifvqds0","pricing_plan_id":"cebpf4jnsgd1na2vs0mg"},{"bike_id":"553e7ebf-53c3-4828-ada1-ce522cbc6f43","system_id":"levelo_inurba_marseille","lat":43.2721,"lon":5.40948,"is_reserved":false,"is_disabled":false,"rental_uris":{"android":"levelo://app?vid=553e7ebf-53c3-4828-ada1-ce522cbc6f43","ios":"levelo://app?vid=553e7ebf-53c3-4828-ada1-ce522cbc6f43"},"vehicle_type_id":"4","last_reported":1779431903,"current_range_meters":8800,"station_id":"","pricing_plan_id":"cebpf4jnsgd1na2vs0mg"},{"bike_id":"21365cae-86d6-4d77-a777-80caf46a8b04","system_id":"levelo_inurba_marseille","lat":43.33764,"lon":5.37465,"is_reserved":false,"is_disabled":false,"rental_uris":{"android":"levelo://app?vid=21365cae-86d6-4d77-a777-80caf46a8b04","ios":"levelo://app?vid=21365cae-86d6-4d77-a777-80caf46a8b04"},"vehicle_type_id":"4","last_reported":1779431903,"current_range_meters":8800,"station_id":"st_d46tts09ee8s73dlu43g","pricing_plan_id":"cebpf4jnsgd1na2vs0mg"},{"bike_id":"d6b90402-43c3-4b00-9636-e57044c349f9","system_id":"levelo_inurba_marseille","lat":43.29709,"lon":5.39804,"is_reserved":false,"is_disabled":false,"rental_uris":{"android":"levelo://app?vid=d6b90402-43c3-4b00-9636-e57044c349f9","ios":"levelo://app?vid=d6b90402-43c3-4b00-9636-e57044c349f9"},"vehicle_type_id":"4","last_reported":1779431903,"current_range_meters":8800,"station_id":"","pricing_plan_id":"cebpf4jnsgd1na2vs0mg"},{"bike_id":"f4c0b23e-43a3-4715-8696-99bddc13e830","system_id":"levelo_inurba_marseille","lat":43.30829,"lon":5.44605,"is_reserved":false,"is_disabled":false,"rental_uris":{"android":"levelo://app?vid=f4c0b23e-43a3-4715-8696-99bddc13e830","ios":"levelo://app?vid=f4c0b23e-43a3-4715-8696-99bddc13e830"},"vehicle_type_id":"4","last_reported":1779431903,"current_range_meters":8800,"station_id":"","pricing_plan_id":"cebpf4jnsgd1na2vs0mg"},{"bike_id":"bdf836a6-2c07-477e-835b-465127acd103","system_id":"levelo_inurba_marseille","lat":43.32101,"lon":5.36785,"is_reserved":false,"is_disabled":false,"rental_uris":{"android":"levelo://app?vid=bdf836a6-2c07-477e-835b-465127acd103","ios":"levelo://app?vid=bdf836a6-2c07-477e-835b-465127acd103"},"vehicle_type_id":"4","last_reported":1779431903,"current_range_meters":8800,"station_id":"ce4bhrh2rcd13ifvqhug","pricing_plan_id":"cebpf4jnsgd1na2vs0mg"},{"bike_id":"e4c1c9a4-f19f-43be-abac-ce47b8bdfa31","system_id":"levelo_inurba_marseille","lat":43.27334,"lon":5.39096,"is_reserved":false,"is_disabled":false,"rental_uris":{"android":"levelo://app?vid=e4c1c9a4-f19f-43be-abac-ce47b8bdfa31","ios":"levelo://app?vid=e4c1c9a4-f19f-43be-abac-ce47b8bdfa31"},"vehicle_type_id":"4","last_reported":1779431903,"current_range_meters":8800,"station_id":"ce4bhgp2rcd13ifvqfe0","pricing_plan_id":"cebpf4jnsgd1na2vs0mg"},{"bike_id":"38d760c7-c3a6-41f1-ba24-4078d6350660","system_id":"levelo_inurba_marseille","lat":43.30299,"lon":5.39222,"is_reserved":false,"is_disabled":false,"rental_uris":{"android":"levelo://app?vid=38d760c7-c3a6-41f1-ba24-4078d6350660","ios":"levelo://app?vid=38d760c7-c3a6-41f1-ba24-4078d6350660"},"vehicle_type_id":"4","last_reported":1779431903,"current_range_meters":8800,"station_id":"ce4bgkh2rcd13ifvqbk0","pricing_plan_id":"cebpf4jnsgd1na2vs0mg"},{"bike_id":"0fb5db5e-d5c1-4557-80fd-2765ca68f93d","system_id":"levelo_inurba_marseille","lat":43.30552,"lon":5.37225,"is_reserved":false,"is_disabled":false,"rental_uris":{"android":"levelo://app?vid=0fb5db5e-d5c1-4557-80fd-2765ca68f93d","ios":"levelo://app?vid=0fb5db5e-d5c1-4557-80fd-2765ca68f93d"},"vehicle_type_id":"4","last_reported":1779431903,"current_range_meters":8800,"station_id":"","pricing_plan_id":"cebpf4jnsgd1na2vs0mg"},{"bike_id":"cc7482e9-f851-457a-b8b3-90e99dedcdb2","system_id":"levelo_inurba_marseille","lat":43.30372,"lon":5.42475,"is_reserved":false,"is_disabled":false,"rental_uris":{"android":"levelo://app?vid=cc7482e9-f851-457a-b8b3-90e99dedcdb2","ios":"levelo://app?vid=cc7482e9-f851-457a-b8b3-90e99dedcdb2"},"vehicle_type_id":"4","last_reported":1779431903,"current_range_meters":8800,"station_id":"ce4bhoh2rcd13ifvqh6g","pricing_plan_id":"cebpf4jnsgd1na2vs0mg"},{"bike_id":"999d3ebd-e3d7-4530-b990-3ec06b375240","system_id":"levelo_inurba_marseille","lat":43.28103,"lon":5.37851,"is_reserved":false,"is_disabled":true,"rental_uris":{"android":"levelo://app?vid=999d3ebd-e3d7-4530-b990-3ec06b375240","ios":"levelo://app?vid=999d3ebd-e3d7-4530-b990-3ec06b375240"},"vehicle_type_id":"4","last_reported":1779431903,"current_range_meters":8800,"station_id":"ce4bha12rcd13ifvqee0","pricing_plan_id":"cebpf4jnsgd1na2vs0mg"},{"bike_id":"9b006e36-24f8-4e78-9b1f-942b956bf9bf","system_id":"levelo_inurba_marseille","lat":43.299821,"lon":5.371715,"is_reserved":false,"is_disabled":true,"rental_uris":{"android":"levelo://app?vid=9b006e36-24f8-4e78-9b1f-942b956bf9bf","ios":"levelo://app?vid=9b006e36-24f8-4e78-9b1f-942b956bf9bf"},"vehicle_type_id":"4","last_reported":1779431903,"current_range_meters":8800,"station_id":"","pricing_plan_id":"cebpf4jnsgd1na2vs0mg"},{"bike_id":"ea1d1b58-4031-4131-9770-689815f2c459","system_id":"levelo_inurba_marseille","lat":43.29861,"lon":5.38906,"is_reserved":false,"is_disabled":false,"rental_uris":{"android":"levelo://app?vid=ea1d1b58-4031-4131-9770-689815f2c459","ios":"levelo://app?vid=ea1d1b58-4031-4131-9770-689815f2c459"},"vehicle_type_id":"4","last_reported":1779431903,"current_range_meters":8800,"station_id":"ce4bh392rcd13ifvqdl0","pricing_plan_id":"cebpf4jnsgd1na2vs0mg"},{"bike_id":"acce8d44-99c5-417c-8ed6-f624dc6aec07","system_id":"levelo_inurba_marseille","lat":43.29043,"lon":5.39963,"is_reserved":false,"is_disabled":false,"rental_uris":{"android":"levelo://app?vid=acce8d44-99c5-417c-8ed6-f624dc6aec07","ios":"levelo://app?vid=acce8d44-99c5-417c-8ed6-f624dc6aec07"},"vehicle_type_id":"4","last_reported":1779431903,"current_range_meters":8800,"station_id":"ce4bh392rcd13ifvqdm0","pricing_plan_id":"cebpf4jnsgd1na2vs0mg"},{"bike_id":"6a94ba67-44c6-4208-b305-a9f0a5c4db3e","system_id":"levelo_inurba_marseille","lat":43.2256,"lon":5.41624,"is_reserved":false,"is_disabled":false,"rental_uris":{"android":"levelo://app?vid=6a94ba67-44c6-4208-b305-a9f0a5c4db3e","ios":"levelo://app?vid=6a94ba67-44c6-4208-b305-a9f0a5c4db3e"},"vehicle_type_id":"4","last_reported":1779431903,"current_range_meters":8800,"station_id":"st_d2o4gvlbi1j2169b742g","pricing_plan_id":"cebpf4jnsgd1na2vs0mg"},{"bike_id":"e4c94e47-39a0-43c1-ab5f-0515505a0edd","system_id":"levelo_inurba_marseille","lat":43.29411,"lon":5.41317,"is_reserved":false,"is_disabled":false,"rental_uris":{"android":"levelo://app?vid=e4c94e47-39a0-43c1-ab5f-0515505a0edd","ios":"levelo://app?vid=e4c94e47-39a0-43c1-ab5f-0515505a0edd"},"vehicle_type_id":"4","last_reported":1779431903,"current_range_meters":8800,"station_id":"","pricing_plan_id":"cebpf4jnsgd1na2vs0mg"},{"bike_id":"0350ae61-9dc5-4eed-a5ab-f3d8e7f48736","system_id":"levelo_inurba_marseille","lat":43.28867,"lon":5.39317,"is_reserved":false,"is_disabled":true,"rental_uris":{"android":"levelo://app?vid=0350ae61-9dc5-4eed-a5ab-f3d8e7f48736","ios":"levelo://app?vid=0350ae61-9dc5-4eed-a5ab-f3d8e7f48736"},"vehicle_type_id":"4","last_reported":1779431903,"current_range_meters":8800,"station_id":"ce4bh2p2rcd13ifvqdi0","pricing_plan_id":"cebpf4jnsgd1na2vs0mg"},{"bike_id":"06ecf77a-7933-4f64-882e-42a51d2f8cec","system_id":"levelo_inurba_marseille","lat":43.33014,"lon":5.39016,"is_reserved":false,"is_disabled":false,"rental_uris":{"android":"levelo://app?vid=06ecf77a-7933-4f64-882e-42a51d2f8cec","ios":"levelo://app?vid=06ecf77a-7933-4f64-882e-42a51d2f8cec"},"vehicle_type_id":"4","last_reported":1779431903,"current_range_meters":8800,"station_id":"ce4bhr92rcd13ifvqhrg","pricing_plan_id":"cebpf4jnsgd1na2vs0mg"},{"bike_id":"29f177f7-be7f-4da8-8bcc-664e10bce6bf","system_id":"levelo_inurba_marseille","lat":43.28533,"lon":5.44128,"is_reserved":false,"is_disabled":false,"rental_uris":{"android":"levelo://app?vid=29f177f7-be7f-4da8-8bcc-664e10bce6bf","ios":"levelo://app?vid=29f177f7-be7f-4da8-8bcc-664e10bce6bf"},"vehicle_type_id":"4","last_reported":1779431903,"current_range_meters":8800,"station_id":"st_d3j3df2ikq2c7380ej80","pricing_plan_id":"cebpf4jnsgd1na2vs0mg"},{"bike_id":"cb64a014-b725-476c-bdd5-35c2e26d1575","system_id":"levelo_inurba_marseille","lat":43.25864,"lon":5.39897,"is_reserved":false,"is_disabled":false,"rental_uris":{"android":"levelo://app?vid=cb64a014-b725-476c-bdd5-35c2e26d1575","ios":"levelo://app?vid=cb64a014-b725-476c-bdd5-35c2e26d1575"},"vehicle_type_id":"4","last_reported":1779431903,"current_range_meters":8800,"station_id":"ce4bhl92rcd13ifvqghg","pricing_plan_id":"cebpf4jnsgd1na2vs0mg"},{"bike_id":"a468becb-cfcc-4425-88fd-08f2a5a23757","system_id":"levelo_inurba_marseille","lat":43.29274,"lon":5.36848,"is_reserved":false,"is_disabled":true,"rental_uris":{"android":"levelo://app?vid=a468becb-cfcc-4425-88fd-08f2a5a23757","ios":"levelo://app?vid=a468becb-cfcc-4425-88fd-08f2a5a23757"},"vehicle_type_id":"4","last_reported":1779431903,"current_range_meters":8800,"station_id":"ce4bhbp2rcd13ifvqesg","pricing_plan_id":"cebpf4jnsgd1na2vs0mg"},{"bike_id":"38782380-39c6-48ec-9d98-d651c8bd5cfd","system_id":"levelo_inurba_marseille","lat":43.26072,"lon":5.39406,"is_reserved":false,"is_disabled":false,"rental_uris":{"android":"levelo://app?vid=38782380-39c6-48ec-9d98-d651c8bd5cfd","ios":"levelo://app?vid=38782380-39c6-48ec-9d98-d651c8bd5cfd"},"vehicle_type_id":"4","last_reported":1779431903,"current_range_meters":8800,"station_id":"ce4bhh92rcd13ifvqfj0","pricing_plan_id":"cebpf4jnsgd1na2vs0mg"},{"bike_id":"dd357c81-d9b4-4717-bad8-2faf75a5ee0a","system_id":"levelo_inurba_marseille","lat":43.28341,"lon":5.38093,"is_reserved":false,"is_disabled":true,"rental_uris":{"android":"levelo://app?vid=dd357c81-d9b4-4717-bad8-2faf75a5ee0a","ios":"levelo://app?vid=dd357c81-d9b4-4717-bad8-2faf75a5ee0a"},"vehicle_type_id":"4","last_reported":1779431903,"current_range_meters":8800,"station_id":"ce4bh412rcd13ifvqdr0","pricing_plan_id":"cebpf4jnsgd1na2vs0mg"},{"bike_id":"a75d69c3-c2a8-4bfc-b1cc-9746ec299f70","system_id":"levelo_inurba_marseille","lat":43.23178,"lon":5.39988,"is_reserved":false,"is_disabled":false,"rental_uris":{"android":"levelo://app?vid=a75d69c3-c2a8-4bfc-b1cc-9746ec299f70","ios":"levelo://app?vid=a75d69c3-c2a8-4bfc-b1cc-9746ec299f70"},"vehicle_type_id":"4","last_reported":1779431903,"current_range_meters":8800,"station_id":"ce4bhn12rcd13ifvqgqg","pricing_plan_id":"cebpf4jnsgd1na2vs0mg"},{"bike_id":"fc2d06ad-8752-4359-a000-05cbff6dafe2","system_id":"levelo_inurba_marseille","lat":43.29815,"lon":5.38057,"is_reserved":false,"is_disabled":false,"rental_uris":{"android":"levelo://app?vid=fc2d06ad-8752-4359-a000-05cbff6dafe2","ios":"levelo://app?vid=fc2d06ad-8752-4359-a000-05cbff6dafe2"},"vehicle_type_id":"4","last_reported":1779431903,"current_range_meters":8800,"station_id":"ce4bgip2rcd13ifvqbb0","pricing_plan_id":"cebpf4jnsgd1na2vs0mg"},{"bike_id":"cb9a4150-4ffd-48ad-bd6f-5ce7c87d7767","system_id":"levelo_inurba_marseille","lat":43.26371,"lon":5.41083,"is_reserved":false,"is_disabled":false,"rental_uris":{"android":"levelo://app?vid=cb9a4150-4ffd-48ad-bd6f-5ce7c87d7767","ios":"levelo://app?vid=cb9a4150-4ffd-48ad-bd6f-5ce7c87d7767"},"vehicle_type_id":"4","last_reported":1779431903,"current_range_meters":8800,"station_id":"st_d4e5ca6na9uc73bfl5fg","pricing_plan_id":"cebpf4jnsgd1na2vs0mg"},{"bike_id":"4044b94c-ecf3-4f1f-89aa-a6fa8cd14126","system_id":"levelo_inurba_marseille","lat":43.30133,"lon":5.3809,"is_reserved":false,"is_disabled":false,"rental_uris":{"android":"levelo://app?vid=4044b94c-ecf3-4f1f-89aa-a6fa8cd14126","ios":"levelo://app?vid=4044b94c-ecf3-4f1f-89aa-a6fa8cd14126"},"vehicle_type_id":"4","last_reported":1779431903,"current_range_meters":8800,"station_id":"ce4bgjp2rcd13ifvqbh0","pricing_plan_id":"cebpf4jnsgd1na2vs0mg"},{"bike_id":"f6ad0d50-7649-46e1-8439-36c820945ccf","system_id":"levelo_inurba_marseille","lat":43.30905,"lon":5.36849,"is_reserved":false,"is_disabled":false,"rental_uris":{"android":"levelo://app?vid=f6ad0d50-7649-46e1-8439-36c820945ccf","ios":"levelo://app?vid=f6ad0d50-7649-46e1-8439-36c820945ccf"},"vehicle_type_id":"4","last_reported":1779431903,"current_range_meters":8800,"station_id":"ce4bgn92rcd13ifvqbvg","pricing_plan_id":"cebpf4jnsgd1na2vs0mg"},