{"last_updated":1770484695,"ttl":60,"version":"2.2","data":{"bikes":[{"bike_id":"bd48415f-2499-4643-b723-6d23e3f963b2","system_id":"levelo_inurba_marseille","lat":43.30952,"lon":5.39026,"is_reserved":false,"is_disabled":false,"rental_uris":{"android":"levelo://app?vid=bd48415f-2499-4643-b723-6d23e3f963b2","ios":"levelo://app?vid=bd48415f-2499-4643-b723-6d23e3f963b2"},"vehicle_type_id":"4","last_reported":1770484696,"current_range_meters":2800,"station_id":"ce4bgup2rcd13ifvqco0","pricing_plan_id":"cebpf4jnsgd1na2vs0mg"},{"bike_id":"b11b5f0f-937d-4efc-b945-b9549ea64c3c","system_id":"levelo_inurba_marseille","lat":43.244594,"lon":5.425358,"is_reserved":false,"is_disabled":false,"rental_uris":{"android":"levelo://app?vid=b11b5f0f-937d-4efc-b945-b9549ea64c3c","ios":"levelo://app?vid=b11b5f0f-937d-4efc-b945-b9549ea64c3c"},"vehicle_type_id":"4","last_reported":1770484696,"current_range_meters":2800,"station_id":"st_d4a3vfp97mjs738cd8kg","pricing_plan_id":"cebpf4jnsgd1na2vs0mg"},{"bike_id":"504b8e91-de43-41bd-81c3-ca783398dfb9","system_id":"levelo_inurba_marseille","lat":43.30885,"lon":5.39663,"is_reserved":false,"is_disabled":false,"rental_uris":{"android":"levelo://app?vid=504b8e91-de43-41bd-81c3-ca783398dfb9","ios":"levelo://app?vid=504b8e91-de43-41bd-81c3-ca783398dfb9"},"vehicle_type_id":"4","last_reported":1770484696,"current_range_meters":2800,"station_id":"ce4bh012rcd13ifvqcv0","pricing_plan_id":"cebpf4jnsgd1na2vs0mg"},{"bike_id":"c4b19063-7b56-4a61-bf60-fb51f8257945","system_id":"levelo_inurba_marseille","lat":43.25831,"lon":5.39433,"is_reserved":false,"is_disabled":false,"rental_uris":{"android":"levelo://app?vid=c4b19063-7b56-4a61-bf60-fb51f8257945","ios":"levelo://app?vid=c4b19063-7b56-4a61-bf60-fb51f8257945"},"vehicle_type_id":"4","last_reported":1770484696,"current_range_meters":2800,"station_id":"ce4bhip2rcd13ifvqft0","pricing_plan_id":"cebpf4jnsgd1na2vs0mg"},{"bike_id":"f0d45e46-9d23-4329-92a4-e4ddc618e990","system_id":"levelo_inurba_marseille","lat":43.22944,"lon":5.35369,"is_reserved":false,"is_disabled":false,"rental_uris":{"android":"levelo://app?vid=f0d45e46-9d23-4329-92a4-e4ddc618e990","ios":"levelo://app?vid=f0d45e46-9d23-4329-92a4-e4ddc618e990"},"vehicle_type_id":"4","last_reported":1770484696,"current_range_meters":2800,"station_id":"cpo3532slgdg3j2ikp40","pricing_plan_id":"cebpf4jnsgd1na2vs0mg"},{"bike_id":"27608b7d-bd97-4add-b2fc-8dd57ab4cb99","system_id":"levelo_inurba_marseille","lat":43.28155,"lon":5.42643,"is_reserved":false,"is_disabled":false,"rental_uris":{"android":"levelo://app?vid=27608b7d-bd97-4add-b2fc-8dd57ab4cb99","ios":"levelo://app?vid=27608b7d-bd97-4add-b2fc-8dd57ab4cb99"},"vehicle_type_id":"4","last_reported":1770484696,"current_range_meters":2800,"station_id":"ce4bhnh2rcd13ifvqgug","pricing_plan_id":"cebpf4jnsgd1na2vs0mg"},{"bike_id":"22290efa-ddcd-4862-aaf2-019243c2e6e7","system_id":"levelo_inurba_marseille","lat":43.29524,"lon":5.37507,"is_reserved":false,"is_disabled":false,"rental_uris":{"android":"levelo://app?vid=22290efa-ddcd-4862-aaf2-019243c2e6e7","ios":"levelo://app?vid=22290efa-ddcd-4862-aaf2-019243c2e6e7"},"vehicle_type_id":"4","last_reported":1770484696,"current_range_meters":2800,"station_id":"ce4bgkp2rcd13ifvqbmg","pricing_plan_id":"cebpf4jnsgd1na2vs0mg"},{"bike_id":"08e88f4a-9892-4f55-8c67-0778609babf5","system_id":"levelo_inurba_marseille","lat":43.28613,"lon":5.39847,"is_reserved":false,"is_disabled":false,"rental_uris":{"android":"levelo://app?vid=08e88f4a-9892-4f55-8c67-0778609babf5","ios":"levelo://app?vid=08e88f4a-9892-4f55-8c67-0778609babf5"},"vehicle_type_id":"4","last_reported":1770484696,"current_range_meters":2800,"station_id":"st_d4a7ka997mjs738ck50g","pricing_plan_id":"cebpf4jnsgd1na2vs0mg"},{"bike_id":"c8db9df5-f162-4acd-b67e-bbefa02b460f","system_id":"levelo_inurba_marseille","lat":43.2466,"lon":5.38153,"is_reserved":false,"is_disabled":false,"rental_uris":{"android":"levelo://app?vid=c8db9df5-f162-4acd-b67e-bbefa02b460f","ios":"levelo://app?vid=c8db9df5-f162-4acd-b67e-bbefa02b460f"},"vehicle_type_id":"4","last_reported":1770484696,"current_range_meters":2800,"station_id":"ce4bhih2rcd13ifvqfr0","pricing_plan_id":"cebpf4jnsgd1na2vs0mg"},{"bike_id":"d7c73c58-3c48-4616-8be8-4b14ffa31da5","system_id":"levelo_inurba_marseille","lat":43.2904,"lon":5.37564,"is_reserved":false,"is_disabled":false,"rental_uris":{"android":"levelo://app?vid=d7c73c58-3c48-4616-8be8-4b14ffa31da5","ios":"levelo://app?vid=d7c73c58-3c48-4616-8be8-4b14ffa31da5"},"vehicle_type_id":"4","last_reported":1770484696,"current_range_meters":2800,"station_id":"ce4bh692rcd13ifvqe90","pricing_plan_id":"cebpf4jnsgd1na2vs0mg"},{"bike_id":"c6782d87-e485-4a2c-b62b-9a52105fb0ef","system_id":"levelo_inurba_marseille","lat":43.24993,"lon":5.38925,"is_reserved":false,"is_disabled":false,"rental_uris":{"android":"levelo://app?vid=c6782d87-e485-4a2c-b62b-9a52105fb0ef","ios":"levelo://app?vid=c6782d87-e485-4a2c-b62b-9a52105fb0ef"},"vehicle_type_id":"4","last_reported":1770484696,"current_range_meters":3200,"station_id":"ce4bhgp2rcd13ifvqfd0","pricing_plan_id":"cebpf4jnsgd1na2vs0mg"},{"bike_id":"28038112-793b-4a40-88c6-af51aa30dc6d","system_id":"levelo_inurba_marseille","lat":43.23201,"lon":5.35553,"is_reserved":false,"is_disabled":false,"rental_uris":{"android":"levelo://app?vid=28038112-793b-4a40-88c6-af51aa30dc6d","ios":"levelo://app?vid=28038112-793b-4a40-88c6-af51aa30dc6d"},"vehicle_type_id":"4","last_reported":1770484696,"current_range_meters":3200,"station_id":"ce4bhu92rcd13ifvqi70","pricing_plan_id":"cebpf4jnsgd1na2vs0mg"},{"bike_id":"36bac8f2-737f-4d23-9ff4-7678e5142d66","system_id":"levelo_inurba_marseille","lat":43.25515,"lon":5.37626,"is_reserved":false,"is_disabled":false,"rental_uris":{"android":"levelo://app?vid=36bac8f2-737f-4d23-9ff4-7678e5142d66","ios":"levelo://app?vid=36bac8f2-737f-4d23-9ff4-7678e5142d66"},"vehicle_type_id":"4","last_reported":1770484696,"current_range_meters":3200,"station_id":"ce4bhh12rcd13ifvqff0","pricing_plan_id":"cebpf4jnsgd1na2vs0mg"},{"bike_id":"29554745-e0e5-4276-b587-71d331cae345","system_id":"levelo_inurba_marseille","lat":43.29532,"lon":5.39031,"is_reserved":false,"is_disabled":true,"rental_uris":{"android":"levelo://app?vid=29554745-e0e5-4276-b587-71d331cae345","ios":"levelo://app?vid=29554745-e0e5-4276-b587-71d331cae345"},"vehicle_type_id":"4","last_reported":1770484696,"current_range_meters":3200,"station_id":"ce4bh3p2rcd13ifvqdp0","pricing_plan_id":"cebpf4jnsgd1na2vs0mg"},{"bike_id":"ee177ce5-5688-4f88-95a6-0e06eb4c248f","system_id":"levelo_inurba_marseille","lat":43.24387,"lon":5.37075,"is_reserved":false,"is_disabled":false,"rental_uris":{"android":"levelo://app?vid=ee177ce5-5688-4f88-95a6-0e06eb4c248f","ios":"levelo://app?vid=ee177ce5-5688-4f88-95a6-0e06eb4c248f"},"vehicle_type_id":"4","last_reported":1770484696,"current_range_meters":3600,"station_id":"ce4bhhh2rcd13ifvqfk0","pricing_plan_id":"cebpf4jnsgd1na2vs0mg"},{"bike_id":"36664c10-f735-40f7-8c1e-548563c4f662","system_id":"levelo_inurba_marseille","lat":43.29028,"lon":5.38652,"is_reserved":false,"is_disabled":false,"rental_uris":{"android":"levelo://app?vid=36664c10-f735-40f7-8c1e-548563c4f662","ios":"levelo://app?vid=36664c10-f735-40f7-8c1e-548563c4f662"},"vehicle_type_id":"4","last_reported":1770484696,"current_range_meters":3600,"station_id":"ce4bh4p2rcd13ifvqe0g","pricing_plan_id":"cebpf4jnsgd1na2vs0mg"},{"bike_id":"49bc0ac4-ec4c-46b4-bcba-c5b87d948aa1","system_id":"levelo_inurba_marseille","lat":43.23957,"lon":5.36629,"is_reserved":false,"is_disabled":false,"rental_uris":{"android":"levelo://app?vid=49bc0ac4-ec4c-46b4-bcba-c5b87d948aa1","ios":"levelo://app?vid=49bc0ac4-ec4c-46b4-bcba-c5b87d948aa1"},"vehicle_type_id":"4","last_reported":1770484696,"current_range_meters":3600,"station_id":"ce4bhi12rcd13ifvqfp0","pricing_plan_id":"cebpf4jnsgd1na2vs0mg"},{"bike_id":"c6e25874-c646-4223-9fb1-4a2c71cb2059","system_id":"levelo_inurba_marseille","lat":43.31276,"lon":5.36806,"is_reserved":false,"is_disabled":false,"rental_uris":{"android":"levelo://app?vid=c6e25874-c646-4223-9fb1-4a2c71cb2059","ios":"levelo://app?vid=c6e25874-c646-4223-9fb1-4a2c71cb2059"},"vehicle_type_id":"4","last_reported":1770484696,"current_range_meters":3600,"station_id":"","pricing_plan_id":"cebpf4jnsgd1na2vs0mg"},{"bike_id":"50cd6faa-aa0a-45ab-8ea9-5a12c7a00ca6","system_id":"levelo_inurba_marseille","lat":43.286126,"lon":5.398751,"is_reserved":false,"is_disabled":false,"rental_uris":{"android":"levelo://app?vid=50cd6faa-aa0a-45ab-8ea9-5a12c7a00ca6","ios":"levelo://app?vid=50cd6faa-aa0a-45ab-8ea9-5a12c7a00ca6"},"vehicle_type_id":"4","last_reported":1770484696,"current_range_meters":3600,"station_id":"st_d4a7ka997mjs738ck50g","pricing_plan_id":"cebpf4jnsgd1na2vs0mg"},{"bike_id":"675ec433-caf3-4517-83f9-75769cd57605","system_id":"levelo_inurba_marseille","lat":43.32107,"lon":5.36783,"is_reserved":false,"is_disabled":false,"rental_uris":{"android":"levelo://app?vid=675ec433-caf3-4517-83f9-75769cd57605","ios":"levelo://app?vid=675ec433-caf3-4517-83f9-75769cd57605"},"vehicle_type_id":"4","last_reported":1770484696,"current_range_meters":3600,"station_id":"ce4bhrh2rcd13ifvqhug","pricing_plan_id":"cebpf4jnsgd1na2vs0mg"},{"bike_id":"142a21c2-9a29-466a-92f6-5ab3ecc5b60d","system_id":"levelo_inurba_marseille","lat":43.23784,"lon":5.36611,"is_reserved":false,"is_disabled":false,"rental_uris":{"android":"levelo://app?vid=142a21c2-9a29-466a-92f6-5ab3ecc5b60d","ios":"levelo://app?vid=142a21c2-9a29-466a-92f6-5ab3ecc5b60d"},"vehicle_type_id":"4","last_reported":1770484696,"current_range_meters":3600,"station_id":"st_d3nk18o9ro0c73en2l3g","pricing_plan_id":"cebpf4jnsgd1na2vs0mg"},{"bike_id":"a5faf7a6-7f2f-419a-b628-e8f939b70083","system_id":"levelo_inurba_marseille","lat":43.285347,"lon":5.441004,"is_reserved":false,"is_disabled":false,"rental_uris":{"android":"levelo://app?vid=a5faf7a6-7f2f-419a-b628-e8f939b70083","ios":"levelo://app?vid=a5faf7a6-7f2f-419a-b628-e8f939b70083"},"vehicle_type_id":"4","last_reported":1770484696,"current_range_meters":3600,"station_id":"st_d3j3df2ikq2c7380ej80","pricing_plan_id":"cebpf4jnsgd1na2vs0mg"},{"bike_id":"7403105f-4bee-4529-9ff8-66d807eb18b2","system_id":"levelo_inurba_marseille","lat":43.319335,"lon":5.380763,"is_reserved":false,"is_disabled":false,"rental_uris":{"android":"levelo://app?vid=7403105f-4bee-4529-9ff8-66d807eb18b2","ios":"levelo://app?vid=7403105f-4bee-4529-9ff8-66d807eb18b2"},"vehicle_type_id":"4","last_reported":1770484696,"current_range_meters":3600,"station_id":"","pricing_plan_id":"cebpf4jnsgd1na2vs0mg"},{"bike_id":"734f2c8d-e45b-43cd-ba5a-232c0e2f3489","system_id":"levelo_inurba_marseille","lat":43.265633,"lon":5.403246,"is_reserved":false,"is_disabled":false,"rental_uris":{"android":"levelo://app?vid=734f2c8d-e45b-43cd-ba5a-232c0e2f3489","ios":"levelo://app?vid=734f2c8d-e45b-43cd-ba5a-232c0e2f3489"},"vehicle_type_id":"4","last_reported":1770484696,"current_range_meters":3600,"station_id":"ce4bhmp2rcd13ifvqgng","pricing_plan_id":"cebpf4jnsgd1na2vs0mg"},{"bike_id":"44df0d6d-61a2-46ab-9bf9-ae3cec90cb8f","system_id":"levelo_inurba_marseille","lat":43.250083,"lon":5.38908,"is_reserved":false,"is_disabled":true,"rental_uris":{"android":"levelo://app?vid=44df0d6d-61a2-46ab-9bf9-ae3cec90cb8f","ios":"levelo://app?vid=44df0d6d-61a2-46ab-9bf9-ae3cec90cb8f"},"vehicle_type_id":"4","last_reported":1770484696,"current_range_meters":3600,"station_id":"ce4bhgp2rcd13ifvqfd0","pricing_plan_id":"cebpf4jnsgd1na2vs0mg"},{"bike_id":"b81cac10-3cba-4975-915d-cb862007dbaf","system_id":"levelo_inurba_marseille","lat":43.27612,"lon":5.36112,"is_reserved":false,"is_disabled":false,"rental_uris":{"android":"levelo://app?vid=b81cac10-3cba-4975-915d-cb862007dbaf","ios":"levelo://app?vid=b81cac10-3cba-4975-915d-cb862007dbaf"},"vehicle_type_id":"4","last_reported":1770484696,"current_range_meters":4000,"station_id":"ce4bgj92rcd13ifvqbe0","pricing_plan_id":"cebpf4jnsgd1na2vs0mg"},{"bike_id":"b89bb04b-1c45-456c-9d14-99e22eb3b4d8","system_id":"levelo_inurba_marseille","lat":43.309248,"lon":5.401445,"is_reserved":false,"is_disabled":false,"rental_uris":{"android":"levelo://app?vid=b89bb04b-1c45-456c-9d14-99e22eb3b4d8","ios":"levelo://app?vid=b89bb04b-1c45-456c-9d14-99e22eb3b4d8"},"vehicle_type_id":"4","last_reported":1770484696,"current_range_meters":4000,"station_id":"ce4bgvp2rcd13ifvqct0","pricing_plan_id":"cebpf4jnsgd1na2vs0mg"},{"bike_id":"5bbff642-0168-44b6-a018-2f4e649b181a","system_id":"levelo_inurba_marseille","lat":43.2904,"lon":5.3687,"is_reserved":false,"is_disabled":false,"rental_uris":{"android":"levelo://app?vid=5bbff642-0168-44b6-a018-2f4e649b181a","ios":"levelo://app?vid=5bbff642-0168-44b6-a018-2f4e649b181a"},"vehicle_type_id":"4","last_reported":1770484696,"current_range_meters":4000,"station_id":"ce4bhah2rcd13ifvqej0","pricing_plan_id":"cebpf4jnsgd1na2vs0mg"},{"bike_id":"98b89a63-b3c9-4748-8f93-0ccb5ab9560d","system_id":"levelo_inurba_marseille","lat":43.26528,"lon":5.37304,"is_reserved":false,"is_disabled":false,"rental_uris":{"android":"levelo://app?vid=98b89a63-b3c9-4748-8f93-0ccb5ab9560d","ios":"levelo://app?vid=98b89a63-b3c9-4748-8f93-0ccb5ab9560d"},"vehicle_type_id":"4","last_reported":1770484696,"current_range_meters":4000,"station_id":"ce4bhg12rcd13ifvqf70","pricing_plan_id":"cebpf4jnsgd1na2vs0mg"},{"bike_id":"eacbf986-f9c3-4f5e-bdf1-bed35f840adf","system_id":"levelo_inurba_marseille","lat":43.29936,"lon":5.36527,"is_reserved":false,"is_disabled":false,"rental_uris":{"android":"levelo://app?vid=eacbf986-f9c3-4f5e-bdf1-bed35f840adf","ios":"levelo://app?vid=eacbf986-f9c3-4f5e-bdf1-bed35f840adf"},"vehicle_type_id":"4","last_reported":1770484696,"current_range_meters":4000,"station_id":"ce4bgm92rcd13ifvqbr0","pricing_plan_id":"cebpf4jnsgd1na2vs0mg"},{"bike_id":"d3ffb776-3288-4573-a959-cb9861fa0caf","system_id":"levelo_inurba_marseille","lat":43.30953,"lon":5.390427,"is_reserved":false,"is_disabled":false,"rental_uris":{"android":"levelo://app?vid=d3ffb776-3288-4573-a959-cb9861fa0caf","ios":"levelo://app?vid=d3ffb776-3288-4573-a959-cb9861fa0caf"},"vehicle_type_id":"4","last_reported":1770484696,"current_range_meters":4000,"station_id":"ce4bgup2rcd13ifvqco0","pricing_plan_id":"cebpf4jnsgd1na2vs0mg"},{"bike_id":"02b84d9a-eaf6-4642-b4ea-c4aa75920743","system_id":"levelo_inurba_marseille","lat":43.27057,"lon":5.38307,"is_reserved":false,"is_disabled":false,"rental_uris":{"android":"levelo://app?vid=02b84d9a-eaf6-4642-b4ea-c4aa75920743","ios":"levelo://app?vid=02b84d9a-eaf6-4642-b4ea-c4aa75920743"},"vehicle_type_id":"4","last_reported":1770484696,"current_range_meters":4000,"station_id":"st_d3n2fo6cfp8s73cte1j0","pricing_plan_id":"cebpf4jnsgd1na2vs0mg"},{"bike_id":"664c63b1-2534-4a56-a629-4c0dacb8efe4","system_id":"levelo_inurba_marseille","lat":43.29761,"lon":5.42786,"is_reserved":false,"is_disabled":false,"rental_uris":{"android":"levelo://app?vid=664c63b1-2534-4a56-a629-4c0dacb8efe4","ios":"levelo://app?vid=664c63b1-2534-4a56-a629-4c0dacb8efe4"},"vehicle_type_id":"4","last_reported":1770484696,"current_range_meters":4000,"station_id":"st_d3md5207bmas73dh9klg","pricing_plan_id":"cebpf4jnsgd1na2vs0mg"},{"bike_id":"31895d8f-72b6-42c3-8c49-0e74b00e9b11","system_id":"levelo_inurba_marseille","lat":43.29616,"lon":5.37715,"is_reserved":false,"is_disabled":false,"rental_uris":{"android":"levelo://app?vid=31895d8f-72b6-42c3-8c49-0e74b00e9b11","ios":"levelo://app?vid=31895d8f-72b6-42c3-8c49-0e74b00e9b11"},"vehicle_type_id":"4","last_reported":1770484696,"current_range_meters":4000,"station_id":"ce4bgi92rcd13ifvqb90","pricing_plan_id":"cebpf4jnsgd1na2vs0mg"},{"bike_id":"66ac484a-7a0c-4d64-bcea-4a863811aeba","system_id":"levelo_inurba_marseille","lat":43.29902,"lon":5.43665,"is_reserved":false,"is_disabled":true,"rental_uris":{"android":"levelo://app?vid=66ac484a-7a0c-4d64-bcea-4a863811aeba","ios":"levelo://app?vid=66ac484a-7a0c-4d64-bcea-4a863811aeba"},"vehicle_type_id":"4","last_reported":1770484696,"current_range_meters":4000,"station_id":"ce4bhpp2rcd13ifvqhfg","pricing_plan_id":"cebpf4jnsgd1na2vs0mg"},{"bike_id":"6713819d-3a97-451d-bbf1-e90c1f67cc71","system_id":"levelo_inurba_marseille","lat":43.241681,"lon":5.363962,"is_reserved":false,"is_disabled":false,"rental_uris":{"android":"levelo://app?vid=6713819d-3a97-451d-bbf1-e90c1f67cc71","ios":"levelo://app?vid=6713819d-3a97-451d-bbf1-e90c1f67cc71"},"vehicle_type_id":"4","last_reported":1770484696,"current_range_meters":4400,"station_id":"cpo36qri1sfpv3e86is0","pricing_plan_id":"cebpf4jnsgd1na2vs0mg"},{"bike_id":"008887d1-b3a2-4aeb-b346-a79dd0b095e2","system_id":"levelo_inurba_marseille","lat":43.24158,"lon":5.39702,"is_reserved":false,"is_disabled":false,"rental_uris":{"android":"levelo://app?vid=008887d1-b3a2-4aeb-b346-a79dd0b095e2","ios":"levelo://app?vid=008887d1-b3a2-4aeb-b346-a79dd0b095e2"},"vehicle_type_id":"4","last_reported":1770484696,"current_range_meters":4400,"station_id":"ce4bhn12rcd13ifvqgpg","pricing_plan_id":"cebpf4jnsgd1na2vs0mg"},{"bike_id":"445447f4-f940-4f85-9727-f1026b8dfb6b","system_id":"levelo_inurba_marseille","lat":43.26372,"lon":5.41071,"is_reserved":false,"is_disabled":false,"rental_uris":{"android":"levelo://app?vid=445447f4-f940-4f85-9727-f1026b8dfb6b","ios":"levelo://app?vid=445447f4-f940-4f85-9727-f1026b8dfb6b"},"vehicle_type_id":"4","last_reported":1770484696,"current_range_meters":4800,"station_id":"st_d4e5ca6na9uc73bfl5fg","pricing_plan_id":"cebpf4jnsgd1na2vs0mg"},{"bike_id":"65a076d3-6a0e-4c35-a56b-4f07ad434e68","system_id":"levelo_inurba_marseille","lat":43.24799,"lon":5.37452,"is_reserved":false,"is_disabled":false,"rental_uris":{"android":"levelo://app?vid=65a076d3-6a0e-4c35-a56b-4f07ad434e68","ios":"levelo://app?vid=65a076d3-6a0e-4c35-a56b-4f07ad434e68"},"vehicle_type_id":"4","last_reported":1770484696,"current_range_meters":4800,"station_id":"ce4bhgh2rcd13ifvqfb0","pricing_plan_id":"cebpf4jnsgd1na2vs0mg"},{"bike_id":"e39977cb-9d22-4c7f-ad64-95d2a2728e04","system_id":"levelo_inurba_marseille","lat":43.28696,"lon":5.373851,"is_reserved":false,"is_disabled":false,"rental_uris":{"android":"levelo://app?vid=e39977cb-9d22-4c7f-ad64-95d2a2728e04","ios":"levelo://app?vid=e39977cb-9d22-4c7f-ad64-95d2a2728e04"},"vehicle_type_id":"4","last_reported":1770484696,"current_range_meters":4800,"station_id":"ce4bh3p2rcd13ifvqdq0","pricing_plan_id":"cebpf4jnsgd1na2vs0mg"},{"bike_id":"6eeb6636-4fb4-498a-8876-0026a50b9567","system_id":"levelo_inurba_marseille","lat":43.241752,"lon":5.397215,"is_reserved":false,"is_disabled":false,"rental_uris":{"android":"levelo://app?vid=6eeb6636-4fb4-498a-8876-0026a50b9567","ios":"levelo://app?vid=6eeb6636-4fb4-498a-8876-0026a50b9567"},"vehicle_type_id":"4","last_reported":1770484696,"current_range_meters":4800,"station_id":"ce4bhn12rcd13ifvqgpg","pricing_plan_id":"cebpf4jnsgd1na2vs0mg"},{"bike_id":"9d9ada7e-8bfb-4948-82e1-5314689a8b39","system_id":"levelo_inurba_marseille","lat":43.33542,"lon":5.37422,"is_reserved":false,"is_disabled":false,"rental_uris":{"android":"levelo://app?vid=9d9ada7e-8bfb-4948-82e1-5314689a8b39","ios":"levelo://app?vid=9d9ada7e-8bfb-4948-82e1-5314689a8b39"},"vehicle_type_id":"4","last_reported":1770484696,"current_range_meters":4800,"station_id":"st_d46tts09ee8s73dlu43g","pricing_plan_id":"cebpf4jnsgd1na2vs0mg"},{"bike_id":"c6f3c761-de0f-456d-aad1-843601547135","system_id":"levelo_inurba_marseille","lat":43.28406,"lon":5.34984,"is_reserved":false,"is_disabled":false,"rental_uris":{"android":"levelo://app?vid=c6f3c761-de0f-456d-aad1-843601547135","ios":"levelo://app?vid=c6f3c761-de0f-456d-aad1-843601547135"},"vehicle_type_id":"4","last_reported":1770484696,"current_range_meters":4800,"station_id":"ce4bhbh2rcd13ifvqepg","pricing_plan_id":"cebpf4jnsgd1na2vs0mg"},{"bike_id":"8f0bc1eb-8c74-4136-bf32-58c43239dfb6","system_id":"levelo_inurba_marseille","lat":43.241784,"lon":5.397286,"is_reserved":false,"is_disabled":false,"rental_uris":{"android":"levelo://app?vid=8f0bc1eb-8c74-4136-bf32-58c43239dfb6","ios":"levelo://app?vid=8f0bc1eb-8c74-4136-bf32-58c43239dfb6"},"vehicle_type_id":"4","last_reported":1770484696,"current_range_meters":4800,"station_id":"ce4bhn12rcd13ifvqgpg","pricing_plan_id":"cebpf4jnsgd1na2vs0mg"},{"bike_id":"16e151cc-2b95-4562-83dc-024e6ede4bf7","system_id":"levelo_inurba_marseille","lat":43.2319,"lon":5.35547,"is_reserved":false,"is_disabled":false,"rental_uris":{"android":"levelo://app?vid=16e151cc-2b95-4562-83dc-024e6ede4bf7","ios":"levelo://app?vid=16e151cc-2b95-4562-83dc-024e6ede4bf7"},"vehicle_type_id":"4","last_reported":1770484696,"current_range_meters":4800,"station_id":"ce4bhu92rcd13ifvqi70","pricing_plan_id":"cebpf4jnsgd1na2vs0mg"},{"bike_id":"f5da9401-db7e-426f-9a0f-2330a30b8658","system_id":"levelo_inurba_marseille","lat":43.24396,"lon":5.37094,"is_reserved":false,"is_disabled":true,"rental_uris":{"android":"levelo://app?vid=f5da9401-db7e-426f-9a0f-2330a30b8658","ios":"levelo://app?vid=f5da9401-db7e-426f-9a0f-2330a30b8658"},"vehicle_type_id":"4","last_reported":1770484696,"current_range_meters":4800,"station_id":"ce4bhhh2rcd13ifvqfk0","pricing_plan_id":"cebpf4jnsgd1na2vs0mg"},{"bike_id":"fbca3884-dc96-440f-8d36-fea821134d2b","system_id":"levelo_inurba_marseille","lat":43.29797,"lon":5.404029,"is_reserved":false,"is_disabled":false,"rental_uris":{"android":"levelo://app?vid=fbca3884-dc96-440f-8d36-fea821134d2b","ios":"levelo://app?vid=fbca3884-dc96-440f-8d36-fea821134d2b"},"vehicle_type_id":"4","last_reported":1770484696,"current_range_meters":4800,"station_id":"ce4bh112rcd13ifvqd90","pricing_plan_id":"cebpf4jnsgd1na2vs0mg"},{"bike_id":"0c612691-dc2e-4b8c-a828-2dec429e0473","system_id":"levelo_inurba_marseille","lat":43.22934,"lon":5.35362,"is_reserved":false,"is_disabled":false,"rental_uris":{"android":"levelo://app?vid=0c612691-dc2e-4b8c-a828-2dec429e0473","ios":"levelo://app?vid=0c612691-dc2e-4b8c-a828-2dec429e0473"},"vehicle_type_id":"4","last_reported":1770484696,"current_range_meters":4800,"station_id":"cpo3532slgdg3j2ikp40","pricing_plan_id":"cebpf4jnsgd1na2vs0mg"},{"bike_id":"287ec1ad-7529-4a47-9046-fa34841bee4b","system_id":"levelo_inurba_marseille","lat":43.281603,"lon":5.383872,"is_reserved":false,"is_disabled":false,"rental_uris":{"android":"levelo://app?vid=287ec1ad-7529-4a47-9046-fa34841bee4b","ios":"levelo://app?vid=287ec1ad-7529-4a47-9046-fa34841bee4b"},"vehicle_type_id":"4","last_reported":1770484696,"current_range_meters":4800,"station_id":"","pricing_plan_id":"cebpf4jnsgd1na2vs0mg"},{"bike_id":"9c39d9f6-d9da-4e77-8458-9331332cbe7c","system_id":"levelo_inurba_marseille","lat":43.279463,"lon":5.410346,"is_reserved":false,"is_disabled":false,"rental_uris":{"android":"levelo://app?vid=9c39d9f6-d9da-4e77-8458-9331332cbe7c","ios":"levelo://app?vid=9c39d9f6-d9da-4e77-8458-9331332cbe7c"},"vehicle_type_id":"4","last_reported":1770484696,"current_range_meters":4800,"station_id":"ce4bhnp2rcd13ifvqh0g","pricing_plan_id":"cebpf4jnsgd1na2vs0mg"},{"bike_id":"cc21637e-36ac-4ec7-8629-0a5b399cddca","system_id":"levelo_inurba_marseille","lat":43.30376,"lon":5.42461,"is_reserved":false,"is_disabled":false,"rental_uris":{"android":"levelo://app?vid=cc21637e-36ac-4ec7-8629-0a5b399cddca","ios":"levelo://app?vid=cc21637e-36ac-4ec7-8629-0a5b399cddca"},"vehicle_type_id":"4","last_reported":1770484696,"current_range_meters":4800,"station_id":"ce4bhoh2rcd13ifvqh6g","pricing_plan_id":"cebpf4jnsgd1na2vs0mg"},{"bike_id":"dce89c31-3506-4de3-a9fd-143b4074c364","system_id":"levelo_inurba_marseille","lat":43.25578,"lon":5.38225,"is_reserved":false,"is_disabled":false,"rental_uris":{"android":"levelo://app?vid=dce89c31-3506-4de3-a9fd-143b4074c364","ios":"levelo://app?vid=dce89c31-3506-4de3-a9fd-143b4074c364"},"vehicle_type_id":"4","last_reported":1770484696,"current_range_meters":4800,"station_id":"ce4bhih2rcd13ifvqfs0","pricing_plan_id":"cebpf4jnsgd1na2vs0mg"},{"bike_id":"3926a99e-82ca-4ee7-a161-a486379736ee","system_id":"levelo_inurba_marseille","lat":43.29872,"lon":5.36877,"is_reserved":false,"is_disabled":false,"rental_uris":{"android":"levelo://app?vid=3926a99e-82ca-4ee7-a161-a486379736ee","ios":"levelo://app?vid=3926a99e-82ca-4ee7-a161-a486379736ee"},"vehicle_type_id":"4","last_reported":1770484696,"current_range_meters":5600,"station_id":"","pricing_plan_id":"cebpf4jnsgd1na2vs0mg"},{"bike_id":"93add877-ee9d-4ae2-87c0-e59246a2e4b1","system_id":"levelo_inurba_marseille","lat":43.22943,"lon":5.35369,"is_reserved":false,"is_disabled":false,"rental_uris":{"android":"levelo://app?vid=93add877-ee9d-4ae2-87c0-e59246a2e4b1","ios":"levelo://app?vid=93add877-ee9d-4ae2-87c0-e59246a2e4b1"},"vehicle_type_id":"4","last_reported":1770484696,"current_range_meters":5600,"station_id":"cpo3532slgdg3j2ikp40","pricing_plan_id":"cebpf4jnsgd1na2vs0mg"},{"bike_id":"ab55cc20-b94d-45e5-879c-71ae04584b70","system_id":"levelo_inurba_marseille","lat":43.2955,"lon":5.42305,"is_reserved":false,"is_disabled":false,"rental_uris":{"android":"levelo://app?vid=ab55cc20-b94d-45e5-879c-71ae04584b70","ios":"levelo://app?vid=ab55cc20-b94d-45e5-879c-71ae04584b70"},"vehicle_type_id":"4","last_reported":1770484696,"current_range_meters":5600,"station_id":"ce4bhph2rcd13ifvqhdg","pricing_plan_id":"cebpf4jnsgd1na2vs0mg"},{"bike_id":"c5955de7-9ab5-4c95-be4c-788242dce2d4","system_id":"levelo_inurba_marseille","lat":43.32118,"lon":5.3677,"is_reserved":false,"is_disabled":false,"rental_uris":{"android":"levelo://app?vid=c5955de7-9ab5-4c95-be4c-788242dce2d4","ios":"levelo://app?vid=c5955de7-9ab5-4c95-be4c-788242dce2d4"},"vehicle_type_id":"4","last_reported":1770484696,"current_range_meters":5600,"station_id":"ce4bhrh2rcd13ifvqhug","pricing_plan_id":"cebpf4jnsgd1na2vs0mg"},{"bike_id":"b47de6ac-7ade-42eb-8f5b-1757155ae306","system_id":"levelo_inurba_marseille","lat":43.3117,"lon":5.38726,"is_reserved":false,"is_disabled":false,"rental_uris":{"android":"levelo://app?vid=b47de6ac-7ade-42eb-8f5b-1757155ae306","ios":"levelo://app?vid=b47de6ac-7ade-42eb-8f5b-1757155ae306"},"vehicle_type_id":"4","last_reported":1770484696,"current_range_meters":5600,"station_id":"ce4bgv12rcd13ifvqcp0","pricing_plan_id":"cebpf4jnsgd1na2vs0mg"},{"bike_id":"762d17af-af27-45ae-8011-3c290ff80fd9","system_id":"levelo_inurba_marseille","lat":43.24178,"lon":5.36396,"is_reserved":false,"is_disabled":false,"rental_uris":{"android":"levelo://app?vid=762d17af-af27-45ae-8011-3c290ff80fd9","ios":"levelo://app?vid=762d17af-af27-45ae-8011-3c290ff80fd9"},"vehicle_type_id":"4","last_reported":1770484696,"current_range_meters":5600,"station_id":"cpo36qri1sfpv3e86is0","pricing_plan_id":"cebpf4jnsgd1na2vs0mg"},{"bike_id":"2e215bae-e2d4-4a81-a07c-a7a4a0c0fd71","system_id":"levelo_inurba_marseille","lat":43.308926,"lon":5.372146,"is_reserved":false,"is_disabled":false,"rental_uris":{"android":"levelo://app?vid=2e215bae-e2d4-4a81-a07c-a7a4a0c0fd71","ios":"levelo://app?vid=2e215bae-e2d4-4a81-a07c-a7a4a0c0fd71"},"vehicle_type_id":"4","last_reported":1770484696,"current_range_meters":5600,"station_id":"ce4bguh2rcd13ifvqckg","pricing_plan_id":"cebpf4jnsgd1na2vs0mg"},{"bike_id":"4826a48d-4f00-4bee-8b54-1698990d0e5c","system_id":"levelo_inurba_marseille","lat":43.29857,"lon":5.36288,"is_reserved":false,"is_disabled":false,"rental_uris":{"android":"levelo://app?vid=4826a48d-4f00-4bee-8b54-1698990d0e5c","ios":"levelo://app?vid=4826a48d-4f00-4bee-8b54-1698990d0e5c"},"vehicle_type_id":"4","last_reported":1770484696,"current_range_meters":6000,"station_id":"ce4bgpp2rcd13ifvqc3g","pricing_plan_id":"cebpf4jnsgd1na2vs0mg"},{"bike_id":"55e6acf3-2487-453e-b1e8-9b4bb25c70bc","system_id":"levelo_inurba_marseille","lat":43.31714,"lon":5.40469,"is_reserved":false,"is_disabled":false,"rental_uris":{"android":"levelo://app?vid=55e6acf3-2487-453e-b1e8-9b4bb25c70bc","ios":"levelo://app?vid=55e6acf3-2487-453e-b1e8-9b4bb25c70bc"},"vehicle_type_id":"4","last_reported":1770484696,"current_range_meters":6000,"station_id":"ce4bh012rcd13ifvqd00","pricing_plan_id":"cebpf4jnsgd1na2vs0mg"},{"bike_id":"acefa8b0-a1ef-4799-b811-f74e5eb1d1ae","system_id":"levelo_inurba_marseille","lat":43.29572,"lon":5.37496,"is_reserved":false,"is_disabled":false,"rental_uris":{"android":"levelo://app?vid=acefa8b0-a1ef-4799-b811-f74e5eb1d1ae","ios":"levelo://app?vid=acefa8b0-a1ef-4799-b811-f74e5eb1d1ae"},"vehicle_type_id":"4","last_reported":1770484696,"current_range_meters":6000,"station_id":"ce4bgh92rcd13ifvqb50","pricing_plan_id":"cebpf4jnsgd1na2vs0mg"},{"bike_id":"1738ba40-3cdd-4711-a845-fa05b7d53e53","system_id":"levelo_inurba_marseille","lat":43.31326,"lon":5.39693,"is_reserved":false,"is_disabled":false,"rental_uris":{"android":"levelo://app?vid=1738ba40-3cdd-4711-a845-fa05b7d53e53","ios":"levelo://app?vid=1738ba40-3cdd-4711-a845-fa05b7d53e53"},"vehicle_type_id":"4","last_reported":1770484696,"current_range_meters":6000,"station_id":"ce4bgvp2rcd13ifvqcu0","pricing_plan_id":"cebpf4jnsgd1na2vs0mg"},{"bike_id":"88b63b60-0a77-4859-b4d2-ee54cca1b9f3","system_id":"levelo_inurba_marseille","lat":43.30538,"lon":5.36563,"is_reserved":false,"is_disabled":false,"rental_uris":{"android":"levelo://app?vid=88b63b60-0a77-4859-b4d2-ee54cca1b9f3","ios":"levelo://app?vid=88b63b60-0a77-4859-b4d2-ee54cca1b9f3"},"vehicle_type_id":"4","last_reported":1770484696,"current_range_meters":6000,"station_id":"ce4bgs12rcd13ifvqcag","pricing_plan_id":"cebpf4jnsgd1na2vs0mg"},{"bike_id":"9c6a8984-8ee8-4ae5-a2ee-ca73b9867831","system_id":"levelo_inurba_marseille","lat":43.299361,"lon":5.365314,"is_reserved":false,"is_disabled":false,"rental_uris":{"android":"levelo://app?vid=9c6a8984-8ee8-4ae5-a2ee-ca73b9867831","ios":"levelo://app?vid=9c6a8984-8ee8-4ae5-a2ee-ca73b9867831"},"vehicle_type_id":"4","last_reported":1770484696,"current_range_meters":6000,"station_id":"ce4bgm92rcd13ifvqbr0","pricing_plan_id":"cebpf4jnsgd1na2vs0mg"},{"bike_id":"4553b9ae-95be-4d03-9d86-2a4c79a4ffcc","system_id":"levelo_inurba_marseille","lat":43.28911,"lon":5.39844,"is_reserved":false,"is_disabled":false,"rental_uris":{"android":"levelo://app?vid=4553b9ae-95be-4d03-9d86-2a4c79a4ffcc","ios":"levelo://app?vid=4553b9ae-95be-4d03-9d86-2a4c79a4ffcc"},"vehicle_type_id":"4","last_reported":1770484696,"current_range_meters":6000,"station_id":"","pricing_plan_id":"cebpf4jnsgd1na2vs0mg"},{"bike_id":"b7e3b18f-a763-4cc5-b158-5f63ba83926d","system_id":"levelo_inurba_marseille","lat":43.292611,"lon":5.376293,"is_reserved":false,"is_disabled":false,"rental_uris":{"android":"levelo://app?vid=b7e3b18f-a763-4cc5-b158-5f63ba83926d","ios":"levelo://app?vid=b7e3b18f-a763-4cc5-b158-5f63ba83926d"},"vehicle_type_id":"4","last_reported":1770484696,"current_range_meters":6000,"station_id":"ce4bgi12rcd13ifvqb80","pricing_plan_id":"cebpf4jnsgd1na2vs0mg"},{"bike_id":"ba1b98b8-d6fd-4ac5-9eda-8035e3140fb6","system_id":"levelo_inurba_marseille","lat":43.21192,"lon":5.35074,"is_reserved":false,"is_disabled":false,"rental_uris":{"android":"levelo://app?vid=ba1b98b8-d6fd-4ac5-9eda-8035e3140fb6","ios":"levelo://app?vid=ba1b98b8-d6fd-4ac5-9eda-8035e3140fb6"},"vehicle_type_id":"4","last_reported":1770484696,"current_range_meters":6000,"station_id":"st_cvj6sg6p6f1abm77japg","pricing_plan_id":"cebpf4jnsgd1na2vs0mg"},{"bike_id":"8f456931-6682-4563-a722-91f6bad4b5cf","system_id":"levelo_inurba_marseille","lat":43.29042,"lon":5.37544,"is_reserved":false,"is_disabled":false,"rental_uris":{"android":"levelo://app?vid=8f456931-6682-4563-a722-91f6bad4b5cf","ios":"levelo://app?vid=8f456931-6682-4563-a722-91f6bad4b5cf"},"vehicle_type_id":"4","last_reported":1770484696,"current_range_meters":6000,"station_id":"","pricing_plan_id":"cebpf4jnsgd1na2vs0mg"},{"bike_id":"427b4afc-b7dd-4e77-a7c1-6686018850e8","system_id":"levelo_inurba_marseille","lat":43.27932,"lon":5.41033,"is_reserved":false,"is_disabled":false,"rental_uris":{"android":"levelo://app?vid=427b4afc-b7dd-4e77-a7c1-6686018850e8","ios":"levelo://app?vid=427b4afc-b7dd-4e77-a7c1-6686018850e8"},"vehicle_type_id":"4","last_reported":1770484696,"current_range_meters":6400,"station_id":"ce4bhnp2rcd13ifvqh0g","pricing_plan_id":"cebpf4jnsgd1na2vs0mg"},{"bike_id":"ee8dbaf5-67a9-4fe1-9f78-97faabf96139","system_id":"levelo_inurba_marseille","lat":43.266813,"lon":5.382977,"is_reserved":false,"is_disabled":false,"rental_uris":{"android":"levelo://app?vid=ee8dbaf5-67a9-4fe1-9f78-97faabf96139","ios":"levelo://app?vid=ee8dbaf5-67a9-4fe1-9f78-97faabf96139"},"vehicle_type_id":"4","last_reported":1770484696,"current_range_meters":6400,"station_id":"ce4bhg92rcd13ifvqf90","pricing_plan_id":"cebpf4jnsgd1na2vs0mg"},{"bike_id":"222003bc-a4d5-426c-9929-b263ad4b0210","system_id":"levelo_inurba_marseille","lat":43.28604,"lon":5.3512,"is_reserved":false,"is_disabled":false,"rental_uris":{"android":"levelo://app?vid=222003bc-a4d5-426c-9929-b263ad4b0210","ios":"levelo://app?vid=222003bc-a4d5-426c-9929-b263ad4b0210"},"vehicle_type_id":"4","last_reported":1770484696,"current_range_meters":6400,"station_id":"ce4bhch2rcd13ifvqeug","pricing_plan_id":"cebpf4jnsgd1na2vs0mg"},{"bike_id":"3123bbb5-61df-43d1-88da-3a7861d03bac","system_id":"levelo_inurba_marseille","lat":43.24169,"lon":5.36399,"is_reserved":false,"is_disabled":false,"rental_uris":{"android":"levelo://app?vid=3123bbb5-61df-43d1-88da-3a7861d03bac","ios":"levelo://app?vid=3123bbb5-61df-43d1-88da-3a7861d03bac"},"vehicle_type_id":"4","last_reported":1770484696,"current_range_meters":6400,"station_id":"cpo36qri1sfpv3e86is0","pricing_plan_id":"cebpf4jnsgd1na2vs0mg"},{"bike_id":"c83db4e2-15a7-4fa6-a03a-6d3ac9b5fffa","system_id":"levelo_inurba_marseille","lat":43.29254,"lon":5.36751,"is_reserved":false,"is_disabled":false,"rental_uris":{"android":"levelo://app?vid=c83db4e2-15a7-4fa6-a03a-6d3ac9b5fffa","ios":"levelo://app?vid=c83db4e2-15a7-4fa6-a03a-6d3ac9b5fffa"},"vehicle_type_id":"4","last_reported":1770484696,"current_range_meters":6400,"station_id":"","pricing_plan_id":"cebpf4jnsgd1na2vs0mg"},{"bike_id":"0d114921-3081-4842-963c-885b6e961311","system_id":"levelo_inurba_marseille","lat":43.29,"lon":5.35607,"is_reserved":false,"is_disabled":false,"rental_uris":{"android":"levelo://app?vid=0d114921-3081-4842-963c-885b6e961311","ios":"levelo://app?vid=0d114921-3081-4842-963c-885b6e961311"},"vehicle_type_id":"4","last_reported":1770484696,"current_range_meters":6400,"station_id":"ce4bhb92rcd13ifvqen0","pricing_plan_id":"cebpf4jnsgd1na2vs0mg"},{"bike_id":"55701a05-0afd-44f2-b5ec-65dd45bfe15c","system_id":"levelo_inurba_marseille","lat":43.23932,"lon":5.36651,"is_reserved":false,"is_disabled":false,"rental_uris":{"android":"levelo://app?vid=55701a05-0afd-44f2-b5ec-65dd45bfe15c","ios":"levelo://app?vid=55701a05-0afd-44f2-b5ec-65dd45bfe15c"},"vehicle_type_id":"4","last_reported":1770484696,"current_range_meters":6400,"station_id":"ce4bhi12rcd13ifvqfp0","pricing_plan_id":"cebpf4jnsgd1na2vs0mg"},{"bike_id":"082c6167-f943-4767-9df3-19b6044ff5f3","system_id":"levelo_inurba_marseille","lat":43.30603,"lon":5.37214,"is_reserved":false,"is_disabled":false,"rental_uris":{"android":"levelo://app?vid=082c6167-f943-4767-9df3-19b6044ff5f3","ios":"levelo://app?vid=082c6167-f943-4767-9df3-19b6044ff5f3"},"vehicle_type_id":"4","last_reported":1770484696,"current_range_meters":6400,"station_id":"ce4bgqh2rcd13ifvqc4g","pricing_plan_id":"cebpf4jnsgd1na2vs0mg"},{"bike_id":"a832ddf3-c616-4d2c-9dd2-c193872b9b01","system_id":"levelo_inurba_marseille","lat":43.273087,"lon":5.3907,"is_reserved":false,"is_disabled":false,"rental_uris":{"android":"levelo://app?vid=a832ddf3-c616-4d2c-9dd2-c193872b9b01","ios":"levelo://app?vid=a832ddf3-c616-4d2c-9dd2-c193872b9b01"},"vehicle_type_id":"4","last_reported":1770484696,"current_range_meters":6400,"station_id":"ce4bhgp2rcd13ifvqfe0","pricing_plan_id":"cebpf4jnsgd1na2vs0mg"},{"bike_id":"84c8699d-c437-4eea-b1ad-8edc224bad99","system_id":"levelo_inurba_marseille","lat":43.24926,"lon":5.40505,"is_reserved":false,"is_disabled":false,"rental_uris":{"android":"levelo://app?vid=84c8699d-c437-4eea-b1ad-8edc224bad99","ios":"levelo://app?vid=84c8699d-c437-4eea-b1ad-8edc224bad99"},"vehicle_type_id":"4","last_reported":1770484696,"current_range_meters":6400,"station_id":"st_d2ngiaodas8pm72gd1h0","pricing_plan_id":"cebpf4jnsgd1na2vs0mg"},{"bike_id":"6622ecdf-5979-47a5-b9a2-8e881f3db9ee","system_id":"levelo_inurba_marseille","lat":43.279963,"lon":5.39995,"is_reserved":false,"is_disabled":false,"rental_uris":{"android":"levelo://app?vid=6622ecdf-5979-47a5-b9a2-8e881f3db9ee","ios":"levelo://app?vid=6622ecdf-5979-47a5-b9a2-8e881f3db9ee"},"vehicle_type_id":"4","last_reported":1770484696,"current_range_meters":6400,"station_id":"ce4bho92rcd13ifvqh4g","pricing_plan_id":"cebpf4jnsgd1na2vs0mg"},{"bike_id":"4fd33ec2-191e-42f6-b2f1-474419accee2","system_id":"levelo_inurba_marseille","lat":43.26049,"lon":5.39396,"is_reserved":false,"is_disabled":false,"rental_uris":{"android":"levelo://app?vid=4fd33ec2-191e-42f6-b2f1-474419accee2","ios":"levelo://app?vid=4fd33ec2-191e-42f6-b2f1-474419accee2"},"vehicle_type_id":"4","last_reported":1770484696,"current_range_meters":6400,"station_id":"ce4bhh92rcd13ifvqfj0","pricing_plan_id":"cebpf4jnsgd1na2vs0mg"},{"bike_id":"b805cbda-0bcb-43b5-8f11-56fc15ee2f84","system_id":"levelo_inurba_marseille","lat":43.26193,"lon":5.3744,"is_reserved":false,"is_disabled":false,"rental_uris":{"android":"levelo://app?vid=b805cbda-0bcb-43b5-8f11-56fc15ee2f84","ios":"levelo://app?vid=b805cbda-0bcb-43b5-8f11-56fc15ee2f84"},"vehicle_type_id":"4","last_reported":1770484696,"current_range_meters":6400,"station_id":"ce4bhgp2rcd13ifvqfc0","pricing_plan_id":"cebpf4jnsgd1na2vs0mg"},{"bike_id":"c4efa3f2-b2c0-4d4d-abfb-c2af7798a8fe","system_id":"levelo_inurba_marseille","lat":43.24171,"lon":5.3972,"is_reserved":false,"is_disabled":false,"rental_uris":{"android":"levelo://app?vid=c4efa3f2-b2c0-4d4d-abfb-c2af7798a8fe","ios":"levelo://app?vid=c4efa3f2-b2c0-4d4d-abfb-c2af7798a8fe"},"vehicle_type_id":"4","last_reported":1770484696,"current_range_meters":6400,"station_id":"ce4bhn12rcd13ifvqgpg","pricing_plan_id":"cebpf4jnsgd1na2vs0mg"},{"bike_id":"2ce20688-0534-4877-aa02-a0d627f2384b","system_id":"levelo_inurba_marseille","lat":43.25869,"lon":5.39895,"is_reserved":false,"is_disabled":false,"rental_uris":{"android":"levelo://app?vid=2ce20688-0534-4877-aa02-a0d627f2384b","ios":"levelo://app?vid=2ce20688-0534-4877-aa02-a0d627f2384b"},"vehicle_type_id":"4","last_reported":1770484696,"current_range_meters":6400,"station_id":"ce4bhl92rcd13ifvqghg","pricing_plan_id":"cebpf4jnsgd1na2vs0mg"},{"bike_id":"e2c09bca-4d3a-4f8d-810c-1ea2152d1fa0","system_id":"levelo_inurba_marseille","lat":43.26931,"lon":5.40261,"is_reserved":false,"is_disabled":false,"rental_uris":{"android":"levelo://app?vid=e2c09bca-4d3a-4f8d-810c-1ea2152d1fa0","ios":"levelo://app?vid=e2c09bca-4d3a-4f8d-810c-1ea2152d1fa0"},"vehicle_type_id":"4","last_reported":1770484696,"current_range_meters":6400,"station_id":"cjm6bp8fraef2m0cb0m0","pricing_plan_id":"cebpf4jnsgd1na2vs0mg"},{"bike_id":"22a18f5a-e84b-4706-acdf-fdede8aeea20","system_id":"levelo_inurba_marseille","lat":43.25876,"lon":5.3987,"is_reserved":false,"is_disabled":false,"rental_uris":{"android":"levelo://app?vid=22a18f5a-e84b-4706-acdf-fdede8aeea20","ios":"levelo://app?vid=22a18f5a-e84b-4706-acdf-fdede8aeea20"},"vehicle_type_id":"4","last_reported":1770484696,"current_range_meters":6400,"station_id":"ce4bhl92rcd13ifvqghg","pricing_plan_id":"cebpf4jnsgd1na2vs0mg"},{"bike_id":"6c2b1cbd-a92c-4746-a2c9-9bbd3ead227d","system_id":"levelo_inurba_marseille","lat":43.24482,"lon":5.42528,"is_reserved":false,"is_disabled":false,"rental_uris":{"android":"levelo://app?vid=6c2b1cbd-a92c-4746-a2c9-9bbd3ead227d","ios":"levelo://app?vid=6c2b1cbd-a92c-4746-a2c9-9bbd3ead227d"},"vehicle_type_id":"4","last_reported":1770484696,"current_range_meters":6400,"station_id":"st_d4a3vfp97mjs738cd8kg","pricing_plan_id":"cebpf4jnsgd1na2vs0mg"},{"bike_id":"5acb17d3-f53d-4f90-8404-b0f032e6585a","system_id":"levelo_inurba_marseille","lat":43.292773,"lon":5.384395,"is_reserved":false,"is_disabled":false,"rental_uris":{"android":"levelo://app?vid=5acb17d3-f53d-4f90-8404-b0f032e6585a","ios":"levelo://app?vid=5acb17d3-f53d-4f90-8404-b0f032e6585a"},"vehicle_type_id":"4","last_reported":1770484696,"current_range_meters":6800,"station_id":"ce4bh692rcd13ifvqea0","pricing_plan_id":"cebpf4jnsgd1na2vs0mg"},{"bike_id":"95ddcd5a-bf89-4af0-8832-e9e870a74381","system_id":"levelo_inurba_marseille","lat":43.26217,"lon":5.38846,"is_reserved":false,"is_disabled":false,"rental_uris":{"android":"levelo://app?vid=95ddcd5a-bf89-4af0-8832-e9e870a74381","ios":"levelo://app?vid=95ddcd5a-bf89-4af0-8832-e9e870a74381"},"vehicle_type_id":"4","last_reported":1770484696,"current_range_meters":6800,"station_id":"","pricing_plan_id":"cebpf4jnsgd1na2vs0mg"},{"bike_id":"a52a256a-24a3-4ac1-b9e5-5949effca4e1","system_id":"levelo_inurba_marseille","lat":43.30647,"lon":5.40095,"is_reserved":false,"is_disabled":false,"rental_uris":{"android":"levelo://app?vid=a52a256a-24a3-4ac1-b9e5-5949effca4e1","ios":"levelo://app?vid=a52a256a-24a3-4ac1-b9e5-5949effca4e1"},"vehicle_type_id":"4","last_reported":1770484696,"current_range_meters":6800,"station_id":"ce4bh112rcd13ifvqda0","pricing_plan_id":"cebpf4jnsgd1na2vs0mg"},{"bike_id":"c2a8a439-33fe-49c7-8bf3-4333c7082516","system_id":"levelo_inurba_marseille","lat":43.27952,"lon":5.41042,"is_reserved":false,"is_disabled":false,"rental_uris":{"android":"levelo://app?vid=c2a8a439-33fe-49c7-8bf3-4333c7082516","ios":"levelo://app?vid=c2a8a439-33fe-49c7-8bf3-4333c7082516"},"vehicle_type_id":"4","last_reported":1770484696,"current_range_meters":6800,"station_id":"ce4bhnp2rcd13ifvqh0g","pricing_plan_id":"cebpf4jnsgd1na2vs0mg"},{"bike_id":"8e38c7b0-e7f3-4c44-b431-ab4a9cb2f7cf","system_id":"levelo_inurba_marseille","lat":43.29534,"lon":5.39039,"is_reserved":false,"is_disabled":false,"rental_uris":{"android":"levelo://app?vid=8e38c7b0-e7f3-4c44-b431-ab4a9cb2f7cf","ios":"levelo://app?vid=8e38c7b0-e7f3-4c44-b431-ab4a9cb2f7cf"},"vehicle_type_id":"4","last_reported":1770484696,"current_range_meters":6800,"station_id":"ce4bh3p2rcd13ifvqdp0","pricing_plan_id":"cebpf4jnsgd1na2vs0mg"},{"bike_id":"34a55f58-a955-4283-bcd6-91c6f2bdcd18","system_id":"levelo_inurba_marseille","lat":43.265365,"lon":5.393688,"is_reserved":false,"is_disabled":false,"rental_uris":{"android":"levelo://app?vid=34a55f58-a955-4283-bcd6-91c6f2bdcd18","ios":"levelo://app?vid=34a55f58-a955-4283-bcd6-91c6f2bdcd18"},"vehicle_type_id":"4","last_reported":1770484696,"current_range_meters":6800,"station_id":"","pricing_plan_id":"cebpf4jnsgd1na2vs0mg"},{"bike_id":"2c09a0f9-e9a0-4d52-b227-0d1dbfce5311","system_id":"levelo_inurba_marseille","lat":43.237879,"lon":5.366261,"is_reserved":false,"is_disabled":false,"rental_uris":{"android":"levelo://app?vid=2c09a0f9-e9a0-4d52-b227-0d1dbfce5311","ios":"levelo://app?vid=2c09a0f9-e9a0-4d52-b227-0d1dbfce5311"},"vehicle_type_id":"4","last_reported":1770484696,"current_range_meters":6800,"station_id":"st_d3nk18o9ro0c73en2l3g","pricing_plan_id":"cebpf4jnsgd1na2vs0mg"},{"bike_id":"699fac07-9b50-471a-988d-02036968b5f7","system_id":"levelo_inurba_marseille","lat":43.29029,"lon":5.38635,"is_reserved":false,"is_disabled":false,"rental_uris":{"android":"levelo://app?vid=699fac07-9b50-471a-988d-02036968b5f7","ios":"levelo://app?vid=699fac07-9b50-471a-988d-02036968b5f7"},"vehicle_type_id":"4","last_reported":1770484696,"current_range_meters":6800,"station_id":"ce4bh4p2rcd13ifvqe0g","pricing_plan_id":"cebpf4jnsgd1na2vs0mg"},{"bike_id":"d4971155-3471-45e8-9836-f40a1dc618f9","system_id":"levelo_inurba_marseille","lat":43.28404,"lon":5.34986,"is_reserved":false,"is_disabled":false,"rental_uris":{"android":"levelo://app?vid=d4971155-3471-45e8-9836-f40a1dc618f9","ios":"levelo://app?vid=d4971155-3471-45e8-9836-f40a1dc618f9"},"vehicle_type_id":"4","last_reported":1770484696,"current_range_meters":6800,"station_id":"ce4bhbh2rcd13ifvqepg","pricing_plan_id":"cebpf4jnsgd1na2vs0mg"},{"bike_id":"8efb4574-340b-4df3-a8c1-1e7cd9ceeacf","system_id":"levelo_inurba_marseille","lat":43.23196,"lon":5.39983,"is_reserved":false,"is_disabled":false,"rental_uris":{"android":"levelo://app?vid=8efb4574-340b-4df3-a8c1-1e7cd9ceeacf","ios":"levelo://app?vid=8efb4574-340b-4df3-a8c1-1e7cd9ceeacf"},"vehicle_type_id":"4","last_reported":1770484696,"current_range_meters":6800,"station_id":"ce4bhn12rcd13ifvqgqg","pricing_plan_id":"cebpf4jnsgd1na2vs0mg"},{"bike_id":"9ba83d1b-f7bb-42d4-9de7-cbaf279c8ab2","system_id":"levelo_inurba_marseille","lat":43.31713,"lon":5.42398,"is_reserved":false,"is_disabled":false,"rental_uris":{"android":"levelo://app?vid=9ba83d1b-f7bb-42d4-9de7-cbaf279c8ab2","ios":"levelo://app?vid=9ba83d1b-f7bb-42d4-9de7-cbaf279c8ab2"},"vehicle_type_id":"4","last_reported":1770484696,"current_range_meters":6800,"station_id":"ce4bhp92rcd13ifvqhbg","pricing_plan_id":"cebpf4jnsgd1na2vs0mg"},{"bike_id":"c3cea571-fb42-4ad7-864e-47ef8f4c3f2d","system_id":"levelo_inurba_marseille","lat":43.23197,"lon":5.35541,"is_reserved":false,"is_disabled":false,"rental_uris":{"android":"levelo://app?vid=c3cea571-fb42-4ad7-864e-47ef8f4c3f2d","ios":"levelo://app?vid=c3cea571-fb42-4ad7-864e-47ef8f4c3f2d"},"vehicle_type_id":"4","last_reported":1770484696,"current_range_meters":6800,"station_id":"ce4bhu92rcd13ifvqi70","pricing_plan_id":"cebpf4jnsgd1na2vs0mg"},{"bike_id":"03414a6d-caa9-4966-8ffd-1cbcbc02f0d6","system_id":"levelo_inurba_marseille","lat":43.24392,"lon":5.37044,"is_reserved":false,"is_disabled":false,"rental_uris":{"android":"levelo://app?vid=03414a6d-caa9-4966-8ffd-1cbcbc02f0d6","ios":"levelo://app?vid=03414a6d-caa9-4966-8ffd-1cbcbc02f0d6"},"vehicle_type_id":"4","last_reported":1770484696,"current_range_meters":6800,"station_id":"ce4bhhh2rcd13ifvqfk0","pricing_plan_id":"cebpf4jnsgd1na2vs0mg"},{"bike_id":"37810020-311e-4142-81ed-743738c6fb89","system_id":"levelo_inurba_marseille","lat":43.30732,"lon":5.42452,"is_reserved":false,"is_disabled":false,"rental_uris":{"android":"levelo://app?vid=37810020-311e-4142-81ed-743738c6fb89","ios":"levelo://app?vid=37810020-311e-4142-81ed-743738c6fb89"},"vehicle_type_id":"4","last_reported":1770484696,"current_range_meters":6800,"station_id":"st_cvj6ca6bvosntc0bfgr0","pricing_plan_id":"cebpf4jnsgd1na2vs0mg"},{"bike_id":"695a138c-9117-4798-9030-e462ffee3fe5","system_id":"levelo_inurba_marseille","lat":43.24798,"lon":5.37491,"is_reserved":false,"is_disabled":false,"rental_uris":{"android":"levelo://app?vid=695a138c-9117-4798-9030-e462ffee3fe5","ios":"levelo://app?vid=695a138c-9117-4798-9030-e462ffee3fe5"},"vehicle_type_id":"4","last_reported":1770484696,"current_range_meters":6800,"station_id":"ce4bhgh2rcd13ifvqfb0","pricing_plan_id":"cebpf4jnsgd1na2vs0mg"},{"bike_id":"5f44f396-44ce-46d4-b0dc-bc28edafbe11","system_id":"levelo_inurba_marseille","lat":43.296483,"lon":5.40599,"is_reserved":false,"is_disabled":false,"rental_uris":{"android":"levelo://app?vid=5f44f396-44ce-46d4-b0dc-bc28edafbe11","ios":"levelo://app?vid=5f44f396-44ce-46d4-b0dc-bc28edafbe11"},"vehicle_type_id":"4","last_reported":1770484696,"current_range_meters":6800,"station_id":"ce4bh0h2rcd13ifvqd60","pricing_plan_id":"cebpf4jnsgd1na2vs0mg"},{"bike_id":"24a260cc-0a50-49b1-9ca9-cce1a2f54d14","system_id":"levelo_inurba_marseille","lat":43.284701,"lon":5.384181,"is_reserved":false,"is_disabled":false,"rental_uris":{"android":"levelo://app?vid=24a260cc-0a50-49b1-9ca9-cce1a2f54d14","ios":"levelo://app?vid=24a260cc-0a50-49b1-9ca9-cce1a2f54d14"},"vehicle_type_id":"4","last_reported":1770484696,"current_range_meters":6800,"station_id":"ce4bh512rcd13ifvqe3g","pricing_plan_id":"cebpf4jnsgd1na2vs0mg"},{"bike_id":"b5ef2479-08bc-4926-bde6-95f0bd6a5a92","system_id":"levelo_inurba_marseille","lat":43.31514,"lon":5.37273,"is_reserved":false,"is_disabled":false,"rental_uris":{"android":"levelo://app?vid=b5ef2479-08bc-4926-bde6-95f0bd6a5a92","ios":"levelo://app?vid=b5ef2479-08bc-4926-bde6-95f0bd6a5a92"},"vehicle_type_id":"4","last_reported":1770484696,"current_range_meters":6800,"station_id":"ce4bgt12rcd13ifvqcd0","pricing_plan_id":"cebpf4jnsgd1na2vs0mg"},{"bike_id":"b7abb832-bbab-4817-9892-03cbb143d18b","system_id":"levelo_inurba_marseille","lat":43.23114,"lon":5.4374,"is_reserved":false,"is_disabled":false,"rental_uris":{"android":"levelo://app?vid=b7abb832-bbab-4817-9892-03cbb143d18b","ios":"levelo://app?vid=b7abb832-bbab-4817-9892-03cbb143d18b"},"vehicle_type_id":"4","last_reported":1770484696,"current_range_meters":7200,"station_id":"","pricing_plan_id":"cebpf4jnsgd1na2vs0mg"},{"bike_id":"dbd1c194-03e4-49d3-b3d8-186d17378327","system_id":"levelo_inurba_marseille","lat":43.30132,"lon":5.38076,"is_reserved":false,"is_disabled":false,"rental_uris":{"android":"levelo://app?vid=dbd1c194-03e4-49d3-b3d8-186d17378327","ios":"levelo://app?vid=dbd1c194-03e4-49d3-b3d8-186d17378327"},"vehicle_type_id":"4","last_reported":1770484696,"current_range_meters":7200,"station_id":"ce4bgjp2rcd13ifvqbh0","pricing_plan_id":"cebpf4jnsgd1na2vs0mg"},{"bike_id":"cc2e70b1-9418-450c-8618-294ac8da0925","system_id":"levelo_inurba_marseille","lat":43.29929,"lon":5.38506,"is_reserved":false,"is_disabled":false,"rental_uris":{"android":"levelo://app?vid=cc2e70b1-9418-450c-8618-294ac8da0925","ios":"levelo://app?vid=cc2e70b1-9418-450c-8618-294ac8da0925"},"vehicle_type_id":"4","last_reported":1770484696,"current_range_meters":7200,"station_id":"","pricing_plan_id":"cebpf4jnsgd1na2vs0mg"},{"bike_id":"7bddda00-b4a3-467e-857f-177f6c856946","system_id":"levelo_inurba_marseille","lat":43.27992,"lon":5.40005,"is_reserved":false,"is_disabled":false,"rental_uris":{"android":"levelo://app?vid=7bddda00-b4a3-467e-857f-177f6c856946","ios":"levelo://app?vid=7bddda00-b4a3-467e-857f-177f6c856946"},"vehicle_type_id":"4","last_reported":1770484696,"current_range_meters":7200,"station_id":"ce4bho92rcd13ifvqh4g","pricing_plan_id":"cebpf4jnsgd1na2vs0mg"},{"bike_id":"3424fe65-7365-4a3d-b40c-9b25ec3af19d","system_id":"levelo_inurba_marseille","lat":43.31322,"lon":5.38722,"is_reserved":false,"is_disabled":false,"rental_uris":{"android":"levelo://app?vid=3424fe65-7365-4a3d-b40c-9b25ec3af19d","ios":"levelo://app?vid=3424fe65-7365-4a3d-b40c-9b25ec3af19d"},"vehicle_type_id":"4","last_reported":1770484696,"current_range_meters":7200,"station_id":"","pricing_plan_id":"cebpf4jnsgd1na2vs0mg"},{"bike_id":"82f38651-b135-48cf-bb30-2efbdc34233b","system_id":"levelo_inurba_marseille","lat":43.29822,"lon":5.44059,"is_reserved":false,"is_disabled":false,"rental_uris":{"android":"levelo://app?vid=82f38651-b135-48cf-bb30-2efbdc34233b","ios":"levelo://app?vid=82f38651-b135-48cf-bb30-2efbdc34233b"},"vehicle_type_id":"4","last_reported":1770484696,"current_range_meters":7200,"station_id":"st_d3jp68qikq2c7381ktn0","pricing_plan_id":"cebpf4jnsgd1na2vs0mg"},{"bike_id":"8aad744d-2c13-491d-a67d-437de1ad5e7f","system_id":"levelo_inurba_marseille","lat":43.24692,"lon":5.40105,"is_reserved":false,"is_disabled":false,"rental_uris":{"android":"levelo://app?vid=8aad744d-2c13-491d-a67d-437de1ad5e7f","ios":"levelo://app?vid=8aad744d-2c13-491d-a67d-437de1ad5e7f"},"vehicle_type_id":"4","last_reported":1770484696,"current_range_meters":7200,"station_id":"","pricing_plan_id":"cebpf4jnsgd1na2vs0mg"},{"bike_id":"07fe9fa6-8ba5-4426-9dc7-81b5cb2cb051","system_id":"levelo_inurba_marseille","lat":43.26588,"lon":5.40344,"is_reserved":false,"is_disabled":false,"rental_uris":{"android":"levelo://app?vid=07fe9fa6-8ba5-4426-9dc7-81b5cb2cb051","ios":"levelo://app?vid=07fe9fa6-8ba5-4426-9dc7-81b5cb2cb051"},"vehicle_type_id":"4","last_reported":1770484696,"current_range_meters":7200,"station_id":"ce4bhmp2rcd13ifvqgng","pricing_plan_id":"cebpf4jnsgd1na2vs0mg"},{"bike_id":"d77b9d55-4ddb-4dc7-9b8e-a0a23a7dc865","system_id":"levelo_inurba_marseille","lat":43.30636,"lon":5.40088,"is_reserved":false,"is_disabled":false,"rental_uris":{"android":"levelo://app?vid=d77b9d55-4ddb-4dc7-9b8e-a0a23a7dc865","ios":"levelo://app?vid=d77b9d55-4ddb-4dc7-9b8e-a0a23a7dc865"},"vehicle_type_id":"4","last_reported":1770484696,"current_range_meters":7200,"station_id":"ce4bh112rcd13ifvqda0","pricing_plan_id":"cebpf4jnsgd1na2vs0mg"},{"bike_id":"6b6b3044-dd0e-4787-8945-aab93fdd08a2","system_id":"levelo_inurba_marseille","lat":43.29807,"lon":5.37406,"is_reserved":false,"is_disabled":false,"rental_uris":{"android":"levelo://app?vid=6b6b3044-dd0e-4787-8945-aab93fdd08a2","ios":"levelo://app?vid=6b6b3044-dd0e-4787-8945-aab93fdd08a2"},"vehicle_type_id":"4","last_reported":1770484696,"current_range_meters":7200,"station_id":"","pricing_plan_id":"cebpf4jnsgd1na2vs0mg"},{"bike_id":"d7b7c118-575b-4f69-a01a-1a37afc992ca","system_id":"levelo_inurba_marseille","lat":43.323644,"lon":5.388852,"is_reserved":false,"is_disabled":false,"rental_uris":{"android":"levelo://app?vid=d7b7c118-575b-4f69-a01a-1a37afc992ca","ios":"levelo://app?vid=d7b7c118-575b-4f69-a01a-1a37afc992ca"},"vehicle_type_id":"4","last_reported":1770484696,"current_range_meters":7200,"station_id":"ce4bhqp2rcd13ifvqhog","pricing_plan_id":"cebpf4jnsgd1na2vs0mg"},{"bike_id":"348640a0-eed2-41c4-9e8a-b981d1bd880b","system_id":"levelo_inurba_marseille","lat":43.29727,"lon":5.37681,"is_reserved":false,"is_disabled":false,"rental_uris":{"android":"levelo://app?vid=348640a0-eed2-41c4-9e8a-b981d1bd880b","ios":"levelo://app?vid=348640a0-eed2-41c4-9e8a-b981d1bd880b"},"vehicle_type_id":"4","last_reported":1770484696,"current_range_meters":7200,"station_id":"ce4bgkh2rcd13ifvqbl0","pricing_plan_id":"cebpf4jnsgd1na2vs0mg"},{"bike_id":"f5b3c0bc-b0db-4532-8e2f-eae93141d573","system_id":"levelo_inurba_marseille","lat":43.33535,"lon":5.37452,"is_reserved":false,"is_disabled":false,"rental_uris":{"android":"levelo://app?vid=f5b3c0bc-b0db-4532-8e2f-eae93141d573","ios":"levelo://app?vid=f5b3c0bc-b0db-4532-8e2f-eae93141d573"},"vehicle_type_id":"4","last_reported":1770484696,"current_range_meters":7200,"station_id":"st_d46tts09ee8s73dlu43g","pricing_plan_id":"cebpf4jnsgd1na2vs0mg"},{"bike_id":"13a66910-aa65-4559-ba7a-e63b61e82f6f","system_id":"levelo_inurba_marseille","lat":43.29567,"lon":5.42284,"is_reserved":false,"is_disabled":false,"rental_uris":{"android":"levelo://app?vid=13a66910-aa65-4559-ba7a-e63b61e82f6f","ios":"levelo://app?vid=13a66910-aa65-4559-ba7a-e63b61e82f6f"},"vehicle_type_id":"4","last_reported":1770484696,"current_range_meters":7200,"station_id":"ce4bhph2rcd13ifvqhdg","pricing_plan_id":"cebpf4jnsgd1na2vs0mg"},{"bike_id":"ff981718-737a-46d1-b7ba-67de65affffe","system_id":"levelo_inurba_marseille","lat":43.25873,"lon":5.39891,"is_reserved":false,"is_disabled":false,"rental_uris":{"android":"levelo://app?vid=ff981718-737a-46d1-b7ba-67de65affffe","ios":"levelo://app?vid=ff981718-737a-46d1-b7ba-67de65affffe"},"vehicle_type_id":"4","last_reported":1770484696,"current_range_meters":7200,"station_id":"ce4bhl92rcd13ifvqghg","pricing_plan_id":"cebpf4jnsgd1na2vs0mg"},{"bike_id":"1780f274-efef-4868-ad51-2e25c5373fc0","system_id":"levelo_inurba_marseille","lat":43.27057,"lon":5.42271,"is_reserved":false,"is_disabled":false,"rental_uris":{"android":"levelo://app?vid=1780f274-efef-4868-ad51-2e25c5373fc0","ios":"levelo://app?vid=1780f274-efef-4868-ad51-2e25c5373fc0"},"vehicle_type_id":"4","last_reported":1770484696,"current_range_meters":7200,"station_id":"ce4bhk92rcd13ifvqgb0","pricing_plan_id":"cebpf4jnsgd1na2vs0mg"},{"bike_id":"30931d54-2ae6-4ac1-9322-353142daff32","system_id":"levelo_inurba_marseille","lat":43.29255,"lon":5.38451,"is_reserved":false,"is_disabled":false,"rental_uris":{"android":"levelo://app?vid=30931d54-2ae6-4ac1-9322-353142daff32","ios":"levelo://app?vid=30931d54-2ae6-4ac1-9322-353142daff32"},"vehicle_type_id":"4","last_reported":1770484696,"current_range_meters":7200,"station_id":"ce4bh692rcd13ifvqea0","pricing_plan_id":"cebpf4jnsgd1na2vs0mg"},{"bike_id":"e28e99f8-7d45-40f8-98b3-b070827fc4f2","system_id":"levelo_inurba_marseille","lat":43.22566,"lon":5.41619,"is_reserved":false,"is_disabled":false,"rental_uris":{"android":"levelo://app?vid=e28e99f8-7d45-40f8-98b3-b070827fc4f2","ios":"levelo://app?vid=e28e99f8-7d45-40f8-98b3-b070827fc4f2"},"vehicle_type_id":"4","last_reported":1770484696,"current_range_meters":7200,"station_id":"st_d2o4gvlbi1j2169b742g","pricing_plan_id":"cebpf4jnsgd1na2vs0mg"},{"bike_id":"3b71a1ad-0888-4e5c-82a0-0dec693b29d4","system_id":"levelo_inurba_marseille","lat":43.310967,"lon":5.381455,"is_reserved":false,"is_disabled":false,"rental_uris":{"android":"levelo://app?vid=3b71a1ad-0888-4e5c-82a0-0dec693b29d4","ios":"levelo://app?vid=3b71a1ad-0888-4e5c-82a0-0dec693b29d4"},"vehicle_type_id":"4","last_reported":1770484696,"current_range_meters":7200,"station_id":"","pricing_plan_id":"cebpf4jnsgd1na2vs0mg"},{"bike_id":"a85d500c-1b7e-4b3f-bba8-c0b38aec10c6","system_id":"levelo_inurba_marseille","lat":43.25927,"lon":5.40908,"is_reserved":false,"is_disabled":false,"rental_uris":{"android":"levelo://app?vid=a85d500c-1b7e-4b3f-bba8-c0b38aec10c6","ios":"levelo://app?vid=a85d500c-1b7e-4b3f-bba8-c0b38aec10c6"},"vehicle_type_id":"4","last_reported":1770484696,"current_range_meters":7200,"station_id":"ce4bhm92rcd13ifvqglg","pricing_plan_id":"cebpf4jnsgd1na2vs0mg"},{"bike_id":"4308129b-6751-4273-bbe8-20208f30cb65","system_id":"levelo_inurba_marseille","lat":43.22941,"lon":5.35371,"is_reserved":false,"is_disabled":false,"rental_uris":{"android":"levelo://app?vid=4308129b-6751-4273-bbe8-20208f30cb65","ios":"levelo://app?vid=4308129b-6751-4273-bbe8-20208f30cb65"},"vehicle_type_id":"4","last_reported":1770484696,"current_range_meters":7200,"station_id":"cpo3532slgdg3j2ikp40","pricing_plan_id":"cebpf4jnsgd1na2vs0mg"},{"bike_id":"3aed5847-38a3-483f-a302-c0e755a4674d","system_id":"levelo_inurba_marseille","lat":43.263845,"lon":5.410714,"is_reserved":false,"is_disabled":false,"rental_uris":{"android":"levelo://app?vid=3aed5847-38a3-483f-a302-c0e755a4674d","ios":"levelo://app?vid=3aed5847-38a3-483f-a302-c0e755a4674d"},"vehicle_type_id":"4","last_reported":1770484696,"current_range_meters":7200,"station_id":"st_d4e5ca6na9uc73bfl5fg","pricing_plan_id":"cebpf4jnsgd1na2vs0mg"},{"bike_id":"c113ee1c-5872-4e38-a005-4eccf2c49e29","system_id":"levelo_inurba_marseille","lat":43.29305,"lon":5.37176,"is_reserved":false,"is_disabled":false,"rental_uris":{"android":"levelo://app?vid=c113ee1c-5872-4e38-a005-4eccf2c49e29","ios":"levelo://app?vid=c113ee1c-5872-4e38-a005-4eccf2c49e29"},"vehicle_type_id":"4","last_reported":1770484696,"current_range_meters":7200,"station_id":"ce4bgh92rcd13ifvqb40","pricing_plan_id":"cebpf4jnsgd1na2vs0mg"},{"bike_id":"b834e44c-7a6b-44e2-8b98-4864f68f72bc","system_id":"levelo_inurba_marseille","lat":43.2585,"lon":5.39427,"is_reserved":false,"is_disabled":false,"rental_uris":{"android":"levelo://app?vid=b834e44c-7a6b-44e2-8b98-4864f68f72bc","ios":"levelo://app?vid=b834e44c-7a6b-44e2-8b98-4864f68f72bc"},"vehicle_type_id":"4","last_reported":1770484696,"current_range_meters":8000,"station_id":"ce4bhip2rcd13ifvqft0","pricing_plan_id":"cebpf4jnsgd1na2vs0mg"},{"bike_id":"7ae6e270-b661-417e-b7cb-8669f7874fe4","system_id":"levelo_inurba_marseille","lat":43.29714,"lon":5.36594,"is_reserved":false,"is_disabled":false,"rental_uris":{"android":"levelo://app?vid=7ae6e270-b661-417e-b7cb-8669f7874fe4","ios":"levelo://app?vid=7ae6e270-b661-417e-b7cb-8669f7874fe4"},"vehicle_type_id":"4","last_reported":1770484696,"current_range_meters":8000,"station_id":"ce4bgn12rcd13ifvqbt0","pricing_plan_id":"cebpf4jnsgd1na2vs0mg"},{"bike_id":"bb5cab08-186f-4af0-9cfa-2f009cafe5c6","system_id":"levelo_inurba_marseille","lat":43.2293,"lon":5.3537,"is_reserved":false,"is_disabled":false,"rental_uris":{"android":"levelo://app?vid=bb5cab08-186f-4af0-9cfa-2f009cafe5c6","ios":"levelo://app?vid=bb5cab08-186f-4af0-9cfa-2f009cafe5c6"},"vehicle_type_id":"4","last_reported":1770484696,"current_range_meters":8000,"station_id":"cpo3532slgdg3j2ikp40","pricing_plan_id":"cebpf4jnsgd1na2vs0mg"},{"bike_id":"fffbd2e5-57b3-4a5a-ba4b-d42da1eefccd","system_id":"levelo_inurba_marseille","lat":43.29031,"lon":5.39956,"is_reserved":false,"is_disabled":false,"rental_uris":{"android":"levelo://app?vid=fffbd2e5-57b3-4a5a-ba4b-d42da1eefccd","ios":"levelo://app?vid=fffbd2e5-57b3-4a5a-ba4b-d42da1eefccd"},"vehicle_type_id":"4","last_reported":1770484696,"current_range_meters":8000,"station_id":"ce4bh392rcd13ifvqdm0","pricing_plan_id":"cebpf4jnsgd1na2vs0mg"},{"bike_id":"a8166b5b-d24f-4bfd-bc3a-e719ac9d4b2e","system_id":"levelo_inurba_marseille","lat":43.280351,"lon":5.408854,"is_reserved":false,"is_disabled":false,"rental_uris":{"android":"levelo://app?vid=a8166b5b-d24f-4bfd-bc3a-e719ac9d4b2e","ios":"levelo://app?vid=a8166b5b-d24f-4bfd-bc3a-e719ac9d4b2e"},"vehicle_type_id":"4","last_reported":1770484696,"current_range_meters":8000,"station_id":"","pricing_plan_id":"cebpf4jnsgd1na2vs0mg"},{"bike_id":"b92cefea-b054-4668-8b8f-6f3d47fab6c0","system_id":"levelo_inurba_marseille","lat":43.32098,"lon":5.36762,"is_reserved":false,"is_disabled":false,"rental_uris":{"android":"levelo://app?vid=b92cefea-b054-4668-8b8f-6f3d47fab6c0","ios":"levelo://app?vid=b92cefea-b054-4668-8b8f-6f3d47fab6c0"},"vehicle_type_id":"4","last_reported":1770484696,"current_range_meters":8000,"station_id":"ce4bhrh2rcd13ifvqhug","pricing_plan_id":"cebpf4jnsgd1na2vs0mg"},{"bike_id":"c9d2bfb2-7471-46bf-97d6-14603771c306","system_id":"levelo_inurba_marseille","lat":43.2439,"lon":5.37056,"is_reserved":false,"is_disabled":false,"rental_uris":{"android":"levelo://app?vid=c9d2bfb2-7471-46bf-97d6-14603771c306","ios":"levelo://app?vid=c9d2bfb2-7471-46bf-97d6-14603771c306"},"vehicle_type_id":"4","last_reported":1770484696,"current_range_meters":8000,"station_id":"ce4bhhh2rcd13ifvqfk0","pricing_plan_id":"cebpf4jnsgd1na2vs0mg"},{"bike_id":"811ecfab-1e6f-4cd1-8960-403c2a502307","system_id":"levelo_inurba_marseille","lat":43.22962,"lon":5.35376,"is_reserved":false,"is_disabled":false,"rental_uris":{"android":"levelo://app?vid=811ecfab-1e6f-4cd1-8960-403c2a502307","ios":"levelo://app?vid=811ecfab-1e6f-4cd1-8960-403c2a502307"},"vehicle_type_id":"4","last_reported":1770484696,"current_range_meters":8000,"station_id":"cpo3532slgdg3j2ikp40","pricing_plan_id":"cebpf4jnsgd1na2vs0mg"},{"bike_id":"e4a0f913-c11d-44fe-9550-8902e8340c94","system_id":"levelo_inurba_marseille","lat":43.24802,"lon":5.37454,"is_reserved":false,"is_disabled":false,"rental_uris":{"android":"levelo://app?vid=e4a0f913-c11d-44fe-9550-8902e8340c94","ios":"levelo://app?vid=e4a0f913-c11d-44fe-9550-8902e8340c94"},"vehicle_type_id":"4","last_reported":1770484696,"current_range_meters":8000,"station_id":"ce4bhgh2rcd13ifvqfb0","pricing_plan_id":"cebpf4jnsgd1na2vs0mg"},{"bike_id":"4940192c-cd9e-43b0-a8dd-fd4c04e7805e","system_id":"levelo_inurba_marseille","lat":43.2255,"lon":5.41636,"is_reserved":false,"is_disabled":false,"rental_uris":{"android":"levelo://app?vid=4940192c-cd9e-43b0-a8dd-fd4c04e7805e","ios":"levelo://app?vid=4940192c-cd9e-43b0-a8dd-fd4c04e7805e"},"vehicle_type_id":"4","last_reported":1770484696,"current_range_meters":8000,"station_id":"st_d2o4gvlbi1j2169b742g","pricing_plan_id":"cebpf4jnsgd1na2vs0mg"},{"bike_id":"ecf28742-2f58-45b2-a2a6-57c4f66b164e","system_id":"levelo_inurba_marseille","lat":43.29264,"lon":5.37624,"is_reserved":false,"is_disabled":false,"rental_uris":{"android":"levelo://app?vid=ecf28742-2f58-45b2-a2a6-57c4f66b164e","ios":"levelo://app?vid=ecf28742-2f58-45b2-a2a6-57c4f66b164e"},"vehicle_type_id":"4","last_reported":1770484696,"current_range_meters":8000,"station_id":"ce4bgi12rcd13ifvqb80","pricing_plan_id":"cebpf4jnsgd1na2vs0mg"},{"bike_id":"ed45abda-ecf5-4137-85bd-6b0bc3b77ddf","system_id":"levelo_inurba_marseille","lat":43.26404,"lon":5.41123,"is_reserved":false,"is_disabled":false,"rental_uris":{"android":"levelo://app?vid=ed45abda-ecf5-4137-85bd-6b0bc3b77ddf","ios":"levelo://app?vid=ed45abda-ecf5-4137-85bd-6b0bc3b77ddf"},"vehicle_type_id":"4","last_reported":1770484696,"current_range_meters":8000,"station_id":"","pricing_plan_id":"cebpf4jnsgd1na2vs0mg"},{"bike_id":"9c27da16-0b95-483f-acc9-aaafd261f73e","system_id":"levelo_inurba_marseille","lat":43.30919,"lon":5.36839,"is_reserved":false,"is_disabled":false,"rental_uris":{"android":"levelo://app?vid=9c27da16-0b95-483f-acc9-aaafd261f73e","ios":"levelo://app?vid=9c27da16-0b95-483f-acc9-aaafd261f73e"},"vehicle_type_id":"4","last_reported":1770484696,"current_range_meters":8000,"station_id":"ce4bgn92rcd13ifvqbvg","pricing_plan_id":"cebpf4jnsgd1na2vs0mg"},{"bike_id":"9d4e2586-e3b9-4297-89a7-d7244631562e","system_id":"levelo_inurba_marseille","lat":43.258194,"lon":5.394404,"is_reserved":false,"is_disabled":false,"rental_uris":{"android":"levelo://app?vid=9d4e2586-e3b9-4297-89a7-d7244631562e","ios":"levelo://app?vid=9d4e2586-e3b9-4297-89a7-d7244631562e"},"vehicle_type_id":"4","last_reported":1770484696,"current_range_meters":8000,"station_id":"ce4bhip2rcd13ifvqft0","pricing_plan_id":"cebpf4jnsgd1na2vs0mg"},{"bike_id":"c41db25e-5f9d-475d-b065-b6b5afb10642","system_id":"levelo_inurba_marseille","lat":43.30924,"lon":5.40137,"is_reserved":false,"is_disabled":false,"rental_uris":{"android":"levelo://app?vid=c41db25e-5f9d-475d-b065-b6b5afb10642","ios":"levelo://app?vid=c41db25e-5f9d-475d-b065-b6b5afb10642"},"vehicle_type_id":"4","last_reported":1770484696,"current_range_meters":8000,"station_id":"ce4bgvp2rcd13ifvqct0","pricing_plan_id":"cebpf4jnsgd1na2vs0mg"},{"bike_id":"b0331170-4722-484f-85fa-ff26f59380f0","system_id":"levelo_inurba_marseille","lat":43.294944,"lon":5.433051,"is_reserved":false,"is_disabled":false,"rental_uris":{"android":"levelo://app?vid=b0331170-4722-484f-85fa-ff26f59380f0","ios":"levelo://app?vid=b0331170-4722-484f-85fa-ff26f59380f0"},"vehicle_type_id":"4","last_reported":1770484696,"current_range_meters":8000,"station_id":"st_d3j5ugp08ojc73fj9d10","pricing_plan_id":"cebpf4jnsgd1na2vs0mg"},{"bike_id":"e8b3f3bc-4896-4dbc-afc4-dfc343612c09","system_id":"levelo_inurba_marseille","lat":43.314387,"lon":5.366947,"is_reserved":false,"is_disabled":false,"rental_uris":{"android":"levelo://app?vid=e8b3f3bc-4896-4dbc-afc4-dfc343612c09","ios":"levelo://app?vid=e8b3f3bc-4896-4dbc-afc4-dfc343612c09"},"vehicle_type_id":"4","last_reported":1770484696,"current_range_meters":8400,"station_id":"","pricing_plan_id":"cebpf4jnsgd1na2vs0mg"},{"bike_id":"36e4a3b1-a5e7-485a-833e-1c68b858e073","system_id":"levelo_inurba_marseille","lat":43.2887,"lon":5.42508,"is_reserved":false,"is_disabled":false,"rental_uris":{"android":"levelo://app?vid=36e4a3b1-a5e7-485a-833e-1c68b858e073","ios":"levelo://app?vid=36e4a3b1-a5e7-485a-833e-1c68b858e073"},"vehicle_type_id":"4","last_reported":1770484696,"current_range_meters":8400,"station_id":"st_d3b462108ojc7389ooeg","pricing_plan_id":"cebpf4jnsgd1na2vs0mg"},{"bike_id":"386b4487-f2a2-455b-8ef5-022f78fae20f","system_id":"levelo_inurba_marseille","lat":43.24813,"lon":5.37454,"is_reserved":false,"is_disabled":false,"rental_uris":{"android":"levelo://app?vid=386b4487-f2a2-455b-8ef5-022f78fae20f","ios":"levelo://app?vid=386b4487-f2a2-455b-8ef5-022f78fae20f"},"vehicle_type_id":"4","last_reported":1770484696,"current_range_meters":8400,"station_id":"ce4bhgh2rcd13ifvqfb0","pricing_plan_id":"cebpf4jnsgd1na2vs0mg"},{"bike_id":"597894f3-7a98-44e6-a514-e2fe50eba60f","system_id":"levelo_inurba_marseille","lat":43.28297,"lon":5.397071,"is_reserved":false,"is_disabled":false,"rental_uris":{"android":"levelo://app?vid=597894f3-7a98-44e6-a514-e2fe50eba60f","ios":"levelo://app?vid=597894f3-7a98-44e6-a514-e2fe50eba60f"},"vehicle_type_id":"4","last_reported":1770484696,"current_range_meters":8400,"station_id":"","pricing_plan_id":"cebpf4jnsgd1na2vs0mg"},{"bike_id":"006f45de-433c-4fe3-81a6-3dac1db63eac","system_id":"levelo_inurba_marseille","lat":43.244636,"lon":5.42535,"is_reserved":false,"is_disabled":false,"rental_uris":{"android":"levelo://app?vid=006f45de-433c-4fe3-81a6-3dac1db63eac","ios":"levelo://app?vid=006f45de-433c-4fe3-81a6-3dac1db63eac"},"vehicle_type_id":"4","last_reported":1770484696,"current_range_meters":8400,"station_id":"st_d4a3vfp97mjs738cd8kg","pricing_plan_id":"cebpf4jnsgd1na2vs0mg"},{"bike_id":"acc30638-1c96-485f-b990-13eedbc70b39","system_id":"levelo_inurba_marseille","lat":43.24661,"lon":5.38169,"is_reserved":false,"is_disabled":false,"rental_uris":{"android":"levelo://app?vid=acc30638-1c96-485f-b990-13eedbc70b39","ios":"levelo://app?vid=acc30638-1c96-485f-b990-13eedbc70b39"},"vehicle_type_id":"4","last_reported":1770484696,"current_range_meters":8400,"station_id":"ce4bhih2rcd13ifvqfr0","pricing_plan_id":"cebpf4jnsgd1na2vs0mg"},{"bike_id":"d0112a68-bd58-48a3-9ea0-c262e146333b","system_id":"levelo_inurba_marseille","lat":43.22926,"lon":5.35381,"is_reserved":false,"is_disabled":false,"rental_uris":{"android":"levelo://app?vid=d0112a68-bd58-48a3-9ea0-c262e146333b","ios":"levelo://app?vid=d0112a68-bd58-48a3-9ea0-c262e146333b"},"vehicle_type_id":"4","last_reported":1770484696,"current_range_meters":8400,"station_id":"cpo3532slgdg3j2ikp40","pricing_plan_id":"cebpf4jnsgd1na2vs0mg"},{"bike_id":"ea8c0580-dee3-43f3-bf01-1aa8969bd163","system_id":"levelo_inurba_marseille","lat":43.24193,"lon":5.36394,"is_reserved":false,"is_disabled":false,"rental_uris":{"android":"levelo://app?vid=ea8c0580-dee3-43f3-bf01-1aa8969bd163","ios":"levelo://app?vid=ea8c0580-dee3-43f3-bf01-1aa8969bd163"},"vehicle_type_id":"4","last_reported":1770484696,"current_range_meters":8400,"station_id":"cpo36qri1sfpv3e86is0","pricing_plan_id":"cebpf4jnsgd1na2vs0mg"},{"bike_id":"6216461a-536b-4362-ac08-815386365ad7","system_id":"levelo_inurba_marseille","lat":43.30127,"lon":5.4312,"is_reserved":false,"is_disabled":false,"rental_uris":{"android":"levelo://app?vid=6216461a-536b-4362-ac08-815386365ad7","ios":"levelo://app?vid=6216461a-536b-4362-ac08-815386365ad7"},"vehicle_type_id":"4","last_reported":1770484696,"current_range_meters":8400,"station_id":"st_d3js3co5814s73ftftug","pricing_plan_id":"cebpf4jnsgd1na2vs0mg"},{"bike_id":"6a144693-7691-4af0-a94f-86308d14d8c0","system_id":"levelo_inurba_marseille","lat":43.25953,"lon":5.40879,"is_reserved":false,"is_disabled":false,"rental_uris":{"android":"levelo://app?vid=6a144693-7691-4af0-a94f-86308d14d8c0","ios":"levelo://app?vid=6a144693-7691-4af0-a94f-86308d14d8c0"},"vehicle_type_id":"4","last_reported":1770484696,"current_range_meters":8400,"station_id":"ce4bhm92rcd13ifvqglg","pricing_plan_id":"cebpf4jnsgd1na2vs0mg"},{"bike_id":"09986119-327c-45bf-b6a8-e15c339167ea","system_id":"levelo_inurba_marseille","lat":43.28499,"lon":5.43963,"is_reserved":false,"is_disabled":false,"rental_uris":{"android":"levelo://app?vid=09986119-327c-45bf-b6a8-e15c339167ea","ios":"levelo://app?vid=09986119-327c-45bf-b6a8-e15c339167ea"},"vehicle_type_id":"4","last_reported":1770484696,"current_range_meters":8400,"station_id":"","pricing_plan_id":"cebpf4jnsgd1na2vs0mg"},{"bike_id":"d9d493c8-2229-4bda-a958-4c19d5464801","system_id":"levelo_inurba_marseille","lat":43.25863,"lon":5.3989,"is_reserved":false,"is_disabled":false,"rental_uris":{"android":"levelo://app?vid=d9d493c8-2229-4bda-a958-4c19d5464801","ios":"levelo://app?vid=d9d493c8-2229-4bda-a958-4c19d5464801"},"vehicle_type_id":"4","last_reported":1770484696,"current_range_meters":8400,"station_id":"ce4bhl92rcd13ifvqghg","pricing_plan_id":"cebpf4jnsgd1na2vs0mg"},{"bike_id":"4c1d817c-2311-4829-b074-c35d06d3a077","system_id":"levelo_inurba_marseille","lat":43.22925,"lon":5.35371,"is_reserved":false,"is_disabled":false,"rental_uris":{"android":"levelo://app?vid=4c1d817c-2311-4829-b074-c35d06d3a077","ios":"levelo://app?vid=4c1d817c-2311-4829-b074-c35d06d3a077"},"vehicle_type_id":"4","last_reported":1770484696,"current_range_meters":8400,"station_id":"cpo3532slgdg3j2ikp40","pricing_plan_id":"cebpf4jnsgd1na2vs0mg"},{"bike_id":"60250f04-faca-4646-a8cc-9315380974dd","system_id":"levelo_inurba_marseille","lat":43.28415,"lon":5.34985,"is_reserved":false,"is_disabled":false,"rental_uris":{"android":"levelo://app?vid=60250f04-faca-4646-a8cc-9315380974dd","ios":"levelo://app?vid=60250f04-faca-4646-a8cc-9315380974dd"},"vehicle_type_id":"4","last_reported":1770484696,"current_range_meters":8400,"station_id":"ce4bhbh2rcd13ifvqepg","pricing_plan_id":"cebpf4jnsgd1na2vs0mg"},{"bike_id":"16c23d1a-50fe-4d4f-b4d6-f4047a8558b8","system_id":"levelo_inurba_marseille","lat":43.31079,"lon":5.38341,"is_reserved":false,"is_disabled":false,"rental_uris":{"android":"levelo://app?vid=16c23d1a-50fe-4d4f-b4d6-f4047a8558b8","ios":"levelo://app?vid=16c23d1a-50fe-4d4f-b4d6-f4047a8558b8"},"vehicle_type_id":"4","last_reported":1770484696,"current_range_meters":8400,"station_id":"ce4bgv92rcd13ifvqcr0","pricing_plan_id":"cebpf4jnsgd1na2vs0mg"},{"bike_id":"11616263-142c-4dd0-a9e9-585090690c40","system_id":"levelo_inurba_marseille","lat":43.2463,"lon":5.43127,"is_reserved":false,"is_disabled":false,"rental_uris":{"android":"levelo://app?vid=11616263-142c-4dd0-a9e9-585090690c40","ios":"levelo://app?vid=11616263-142c-4dd0-a9e9-585090690c40"},"vehicle_type_id":"4","last_reported":1770484696,"current_range_meters":8800,"station_id":"st_d2m6c4gdas8pm72e190g","pricing_plan_id":"cebpf4jnsgd1na2vs0mg"},{"bike_id":"9dadd4c2-97fc-4ce7-a20f-b7c55300a138","system_id":"levelo_inurba_marseille","lat":43.29814,"lon":5.4406,"is_reserved":false,"is_disabled":false,"rental_uris":{"android":"levelo://app?vid=9dadd4c2-97fc-4ce7-a20f-b7c55300a138","ios":"levelo://app?vid=9dadd4c2-97fc-4ce7-a20f-b7c55300a138"},"vehicle_type_id":"4","last_reported":1770484696,"current_range_meters":8800,"station_id":"st_d3jp68qikq2c7381ktn0","pricing_plan_id":"cebpf4jnsgd1na2vs0mg"},{"bike_id":"8c03db7d-1e98-4395-ac5e-39cc828db643","system_id":"levelo_inurba_marseille","lat":43.28017,"lon":5.39975,"is_reserved":false,"is_disabled":false,"rental_uris":{"android":"levelo://app?vid=8c03db7d-1e98-4395-ac5e-39cc828db643","ios":"levelo://app?vid=8c03db7d-1e98-4395-ac5e-39cc828db643"},"vehicle_type_id":"4","last_reported":1770484696,"current_range_meters":8800,"station_id":"ce4bho92rcd13ifvqh4g","pricing_plan_id":"cebpf4jnsgd1na2vs0mg"},{"bike_id":"ec530521-2795-4ff9-af45-352d2124398c","system_id":"levelo_inurba_marseille","lat":43.31406,"lon":5.36653,"is_reserved":false,"is_disabled":false,"rental_uris":{"android":"levelo://app?vid=ec530521-2795-4ff9-af45-352d2124398c","ios":"levelo://app?vid=ec530521-2795-4ff9-af45-352d2124398c"},"vehicle_type_id":"4","last_reported":1770484696,"current_range_meters":8800,"station_id":"","pricing_plan_id":"cebpf4jnsgd1na2vs0mg"},{"bike_id":"781e3167-75c5-4573-807b-ac232a303387","system_id":"levelo_inurba_marseille","lat":43.3234,"lon":5.36751,"is_reserved":false,"is_disabled":false,"rental_uris":{"android":"levelo://app?vid=781e3167-75c5-4573-807b-ac232a303387","ios":"levelo://app?vid=781e3167-75c5-4573-807b-ac232a303387"},"vehicle_type_id":"4","last_reported":1770484696,"current_range_meters":8800,"station_id":"ce4bhsh2rcd13ifvqi2g","pricing_plan_id":"cebpf4jnsgd1na2vs0mg"},{"bike_id":"d854da10-99f6-47d9-a682-de86b0df9682","system_id":"levelo_inurba_marseille","lat":43.29266,"lon":5.36843,"is_reserved":false,"is_disabled":false,"rental_uris":{"android":"levelo://app?vid=d854da10-99f6-47d9-a682-de86b0df9682","ios":"levelo://app?vid=d854da10-99f6-47d9-a682-de86b0df9682"},"vehicle_type_id":"4","last_reported":1770484696,"current_range_meters":8800,"station_id":"ce4bhbp2rcd13ifvqesg","pricing_plan_id":"cebpf4jnsgd1na2vs0mg"},{"bike_id":"508fb8b9-4cee-4799-8b3b-fa3d800ff13e","system_id":"levelo_inurba_marseille","lat":43.33545,"lon":5.37459,"is_reserved":false,"is_disabled":false,"rental_uris":{"android":"levelo://app?vid=508fb8b9-4cee-4799-8b3b-fa3d800ff13e","ios":"levelo://app?vid=508fb8b9-4cee-4799-8b3b-fa3d800ff13e"},"vehicle_type_id":"4","last_reported":1770484696,"current_range_meters":8800,"station_id":"st_d46tts09ee8s73dlu43g","pricing_plan_id":"cebpf4jnsgd1na2vs0mg"},{"bike_id":"e8457bb3-f99d-40e0-aa19-6d3fdf1a5998","system_id":"levelo_inurba_marseille","lat":43.28113,"lon":5.42644,"is_reserved":false,"is_disabled":false,"rental_uris":{"android":"levelo://app?vid=e8457bb3-f99d-40e0-aa19-6d3fdf1a5998","ios":"levelo://app?vid=e8457bb3-f99d-40e0-aa19-6d3fdf1a5998"},"vehicle_type_id":"4","last_reported":1770484696,"current_range_meters":8800,"station_id":"ce4bhnh2rcd13ifvqgug","pricing_plan_id":"cebpf4jnsgd1na2vs0mg"},{"bike_id":"842c1e00-8045-4cb7-854a-9ba7dca849da","system_id":"levelo_inurba_marseille","lat":43.32346,"lon":5.36729,"is_reserved":false,"is_disabled":false,"rental_uris":{"android":"levelo://app?vid=842c1e00-8045-4cb7-854a-9ba7dca849da","ios":"levelo://app?vid=842c1e00-8045-4cb7-854a-9ba7dca849da"},"vehicle_type_id":"4","last_reported":1770484696,"current_range_meters":8800,"station_id":"ce4bhsh2rcd13ifvqi2g","pricing_plan_id":"cebpf4jnsgd1na2vs0mg"},{"bike_id":"7e432d56-4167-484a-a6d0-1b8a4f18fe1c","system_id":"levelo_inurba_marseille","lat":43.22929,"lon":5.35385,"is_reserved":false,"is_disabled":false,"rental_uris":{"android":"levelo://app?vid=7e432d56-4167-484a-a6d0-1b8a4f18fe1c","ios":"levelo://app?vid=7e432d56-4167-484a-a6d0-1b8a4f18fe1c"},"vehicle_type_id":"4","last_reported":1770484696,"current_range_meters":8800,"station_id":"cpo3532slgdg3j2ikp40","pricing_plan_id":"cebpf4jnsgd1na2vs0mg"},{"bike_id":"fe078473-a645-445e-850b-bdedeb5cb47b","system_id":"levelo_inurba_marseille","lat":43.30424,"lon":5.39731,"is_reserved":false,"is_disabled":false,"rental_uris":{"android":"levelo://app?vid=fe078473-a645-445e-850b-bdedeb5cb47b","ios":"levelo://app?vid=fe078473-a645-445e-850b-bdedeb5cb47b"},"vehicle_type_id":"4","last_reported":1770484696,"current_range_meters":8800,"station_id":"ce4bh092rcd13ifvqd20","pricing_plan_id":"cebpf4jnsgd1na2vs0mg"},{"bike_id":"df49d9e7-075a-4ef6-b153-bf943edc8acc","system_id":"levelo_inurba_marseille","lat":43.28725,"lon":5.36084,"is_reserved":false,"is_disabled":false,"rental_uris":{"android":"levelo://app?vid=df49d9e7-075a-4ef6-b153-bf943edc8acc","ios":"levelo://app?vid=df49d9e7-075a-4ef6-b153-bf943edc8acc"},"vehicle_type_id":"4","last_reported":1770484696,"current_range_meters":8800,"station_id":"cki0cbj6b192h4jlfktg","pricing_plan_id":"cebpf4jnsgd1na2vs0mg"},{"bike_id":"6b2d75bd-a616-4242-8764-7ec1da26ea32","system_id":"levelo_inurba_marseille","lat":43.28727,"lon":5.36086,"is_reserved":false,"is_disabled":false,"rental_uris":{"android":"levelo://app?vid=6b2d75bd-a616-4242-8764-7ec1da26ea32","ios":"levelo://app?vid=6b2d75bd-a616-4242-8764-7ec1da26ea32"},"vehicle_type_id":"4","last_reported":1770484696,"current_range_meters":8800,"station_id":"cki0cbj6b192h4jlfktg","pricing_plan_id":"cebpf4jnsgd1na2vs0mg"},{"bike_id":"0034d4fd-4b78-48fc-8d02-62ecd49e55ba","system_id":"levelo_inurba_marseille","lat":43.28908,"lon":5.36642,"is_reserved":false,"is_disabled":false,"rental_uris":{"android":"levelo://app?vid=0034d4fd-4b78-48fc-8d02-62ecd49e55ba","ios":"levelo://app?vid=0034d4fd-4b78-48fc-8d02-62ecd49e55ba"},"vehicle_type_id":"4","last_reported":1770484696,"current_range_meters":9200,"station_id":"ce4bhap2rcd13ifvqek0","pricing_plan_id":"cebpf4jnsgd1na2vs0mg"},{"bike_id":"e6d03073-11a9-495e-8d13-201bb403d1fc","system_id":"levelo_inurba_marseille","lat":43.21191,"lon":5.35076,"is_reserved":false,"is_disabled":false,"rental_uris":{"android":"levelo://app?vid=e6d03073-11a9-495e-8d13-201bb403d1fc","ios":"levelo://app?vid=e6d03073-11a9-495e-8d13-201bb403d1fc"},"vehicle_type_id":"4","last_reported":1770484696,"current_range_meters":9200,"station_id":"st_cvj6sg6p6f1abm77japg","pricing_plan_id":"cebpf4jnsgd1na2vs0mg"},{"bike_id":"50b460de-c01c-40a2-988a-90818412d504","system_id":"levelo_inurba_marseille","lat":43.29076,"lon":5.37149,"is_reserved":false,"is_disabled":false,"rental_uris":{"android":"levelo://app?vid=50b460de-c01c-40a2-988a-90818412d504","ios":"levelo://app?vid=50b460de-c01c-40a2-988a-90818412d504"},"vehicle_type_id":"4","last_reported":1770484696,"current_range_meters":9200,"station_id":"ce4bh5p2rcd13ifvqe4g","pricing_plan_id":"cebpf4jnsgd1na2vs0mg"},{"bike_id":"5d838c73-364e-4951-9977-ba6e1d3db85c","system_id":"levelo_inurba_marseille","lat":43.29198,"lon":5.35792,"is_reserved":false,"is_disabled":false,"rental_uris":{"android":"levelo://app?vid=5d838c73-364e-4951-9977-ba6e1d3db85c","ios":"levelo://app?vid=5d838c73-364e-4951-9977-ba6e1d3db85c"},"vehicle_type_id":"4","last_reported":1770484696,"current_range_meters":9200,"station_id":"ce4bhb12rcd13ifvqel0","pricing_plan_id":"cebpf4jnsgd1na2vs0mg"},{"bike_id":"92c3f1d6-b363-46e4-a098-e4d27c44e3a3","system_id":"levelo_inurba_marseille","lat":43.29369,"lon":5.37839,"is_reserved":false,"is_disabled":false,"rental_uris":{"android":"levelo://app?vid=92c3f1d6-b363-46e4-a098-e4d27c44e3a3","ios":"levelo://app?vid=92c3f1d6-b363-46e4-a098-e4d27c44e3a3"},"vehicle_type_id":"4","last_reported":1770484696,"current_range_meters":9200,"station_id":"ce4bgjh2rcd13ifvqbf0","pricing_plan_id":"cebpf4jnsgd1na2vs0mg"},{"bike_id":"16148a1e-8701-474b-94ba-7fcde78bd916","system_id":"levelo_inurba_marseille","lat":43.31276,"lon":5.40163,"is_reserved":false,"is_disabled":false,"rental_uris":{"android":"levelo://app?vid=16148a1e-8701-474b-94ba-7fcde78bd916","ios":"levelo://app?vid=16148a1e-8701-474b-94ba-7fcde78bd916"},"vehicle_type_id":"4","last_reported":1770484696,"current_range_meters":9200,"station_id":"ce4bh092rcd13ifvqd30","pricing_plan_id":"cebpf4jnsgd1na2vs0mg"},{"bike_id":"61cfb566-ffe7-452b-9dd4-503964e15283","system_id":"levelo_inurba_marseille","lat":43.292634,"lon":5.384372,"is_reserved":false,"is_disabled":false,"rental_uris":{"android":"levelo://app?vid=61cfb566-ffe7-452b-9dd4-503964e15283","ios":"levelo://app?vid=61cfb566-ffe7-452b-9dd4-503964e15283"},"vehicle_type_id":"4","last_reported":1770484696,"current_range_meters":9600,"station_id":"ce4bh692rcd13ifvqea0","pricing_plan_id":"cebpf4jnsgd1na2vs0mg"},{"bike_id":"2285e1f9-a0e8-42e4-ab29-86becd7eb54f","system_id":"levelo_inurba_marseille","lat":43.26956,"lon":5.38632,"is_reserved":false,"is_disabled":false,"rental_uris":{"android":"levelo://app?vid=2285e1f9-a0e8-42e4-ab29-86becd7eb54f","ios":"levelo://app?vid=2285e1f9-a0e8-42e4-ab29-86becd7eb54f"},"vehicle_type_id":"4","last_reported":1770484696,"current_range_meters":9600,"station_id":"ce4bhh92rcd13ifvqfh0","pricing_plan_id":"cebpf4jnsgd1na2vs0mg"},{"bike_id":"3bfbcaa6-9cc7-4f78-9525-559218f7d29d","system_id":"levelo_inurba_marseille","lat":43.24818,"lon":5.37435,"is_reserved":false,"is_disabled":false,"rental_uris":{"android":"levelo://app?vid=3bfbcaa6-9cc7-4f78-9525-559218f7d29d","ios":"levelo://app?vid=3bfbcaa6-9cc7-4f78-9525-559218f7d29d"},"vehicle_type_id":"4","last_reported":1770484696,"current_range_meters":9600,"station_id":"ce4bhgh2rcd13ifvqfb0","pricing_plan_id":"cebpf4jnsgd1na2vs0mg"},{"bike_id":"5eef5f67-2e0f-4003-a91b-95730485af47","system_id":"levelo_inurba_marseille","lat":43.29592,"lon":5.38114,"is_reserved":false,"is_disabled":false,"rental_uris":{"android":"levelo://app?vid=5eef5f67-2e0f-4003-a91b-95730485af47","ios":"levelo://app?vid=5eef5f67-2e0f-4003-a91b-95730485af47"},"vehicle_type_id":"4","last_reported":1770484696,"current_range_meters":9600,"station_id":"ce4bgl12rcd13ifvqbo0","pricing_plan_id":"cebpf4jnsgd1na2vs0mg"},{"bike_id":"27e3548f-2e7f-4c60-a690-48429ad01b98","system_id":"levelo_inurba_marseille","lat":43.2858,"lon":5.38357,"is_reserved":false,"is_disabled":false,"rental_uris":{"android":"levelo://app?vid=27e3548f-2e7f-4c60-a690-48429ad01b98","ios":"levelo://app?vid=27e3548f-2e7f-4c60-a690-48429ad01b98"},"vehicle_type_id":"4","last_reported":1770484696,"current_range_meters":9600,"station_id":"","pricing_plan_id":"cebpf4jnsgd1na2vs0mg"},{"bike_id":"fcd43723-208b-4fb6-8019-8337ccce9d17","system_id":"levelo_inurba_marseille","lat":43.28864,"lon":5.42512,"is_reserved":false,"is_disabled":false,"rental_uris":{"android":"levelo://app?vid=fcd43723-208b-4fb6-8019-8337ccce9d17","ios":"levelo://app?vid=fcd43723-208b-4fb6-8019-8337ccce9d17"},"vehicle_type_id":"4","last_reported":1770484696,"current_range_meters":9600,"station_id":"st_d3b462108ojc7389ooeg","pricing_plan_id":"cebpf4jnsgd1na2vs0mg"},{"bike_id":"65209509-79e4-4876-b979-8e4647641713","system_id":"levelo_inurba_marseille","lat":43.2849,"lon":5.38553,"is_reserved":false,"is_disabled":false,"rental_uris":{"android":"levelo://app?vid=65209509-79e4-4876-b979-8e4647641713","ios":"levelo://app?vid=65209509-79e4-4876-b979-8e4647641713"},"vehicle_type_id":"4","last_reported":1770484696,"current_range_meters":9600,"station_id":"ce4bh8p2rcd13ifvqeb0","pricing_plan_id":"cebpf4jnsgd1na2vs0mg"},{"bike_id":"1a1d969f-bada-4aaa-a461-ec3f4a01601c","system_id":"levelo_inurba_marseille","lat":43.33542,"lon":5.37473,"is_reserved":false,"is_disabled":false,"rental_uris":{"android":"levelo://app?vid=1a1d969f-bada-4aaa-a461-ec3f4a01601c","ios":"levelo://app?vid=1a1d969f-bada-4aaa-a461-ec3f4a01601c"},"vehicle_type_id":"4","last_reported":1770484696,"current_range_meters":9600,"station_id":"st_d46tts09ee8s73dlu43g","pricing_plan_id":"cebpf4jnsgd1na2vs0mg"},{"bike_id":"28ea6fbe-b592-43e0-b4f1-22356d5bc8f9","system_id":"levelo_inurba_marseille","lat":43.3354,"lon":5.37462,"is_reserved":false,"is_disabled":false,"rental_uris":{"android":"levelo://app?vid=28ea6fbe-b592-43e0-b4f1-22356d5bc8f9","ios":"levelo://app?vid=28ea6fbe-b592-43e0-b4f1-22356d5bc8f9"},"vehicle_type_id":"4","last_reported":1770484696,"current_range_meters":9600,"station_id":"st_d46tts09ee8s73dlu43g","pricing_plan_id":"cebpf4jnsgd1na2vs0mg"},{"bike_id":"b8e41160-bb57-4811-bdd6-34ec0ebb1f08","system_id":"levelo_inurba_marseille","lat":43.25333,"lon":5.42172,"is_reserved":false,"is_disabled":false,"rental_uris":{"android":"levelo://app?vid=b8e41160-bb57-4811-bdd6-34ec0ebb1f08","ios":"levelo://app?vid=b8e41160-bb57-4811-bdd6-34ec0ebb1f08"},"vehicle_type_id":"4","last_reported":1770484696,"current_range_meters":10000,"station_id":"st_d2m65c5bi1j21697t3ng","pricing_plan_id":"cebpf4jnsgd1na2vs0mg"},{"bike_id":"0b84e61d-62ba-4706-80f1-3a72823c8089","system_id":"levelo_inurba_marseille","lat":43.25942,"lon":5.40907,"is_reserved":false,"is_disabled":false,"rental_uris":{"android":"levelo://app?vid=0b84e61d-62ba-4706-80f1-3a72823c8089","ios":"levelo://app?vid=0b84e61d-62ba-4706-80f1-3a72823c8089"},"vehicle_type_id":"4","last_reported":1770484696,"current_range_meters":10000,"station_id":"ce4bhm92rcd13ifvqglg","pricing_plan_id":"cebpf4jnsgd1na2vs0mg"},{"bike_id":"0f9398e4-1c51-403f-8553-7aa3b9b52ae1","system_id":"levelo_inurba_marseille","lat":43.2849,"lon":5.3842,"is_reserved":false,"is_disabled":false,"rental_uris":{"android":"levelo://app?vid=0f9398e4-1c51-403f-8553-7aa3b9b52ae1","ios":"levelo://app?vid=0f9398e4-1c51-403f-8553-7aa3b9b52ae1"},"vehicle_type_id":"4","last_reported":1770484696,"current_range_meters":10000,"station_id":"ce4bh512rcd13ifvqe3g","pricing_plan_id":"cebpf4jnsgd1na2vs0mg"},{"bike_id":"5cdd27df-1aa5-4830-b5fc-91672ce179d3","system_id":"levelo_inurba_marseille","lat":43.27948,"lon":5.41031,"is_reserved":false,"is_disabled":true,"rental_uris":{"android":"levelo://app?vid=5cdd27df-1aa5-4830-b5fc-91672ce179d3","ios":"levelo://app?vid=5cdd27df-1aa5-4830-b5fc-91672ce179d3"},"vehicle_type_id":"4","last_reported":1770484696,"current_range_meters":10000,"station_id":"ce4bhnp2rcd13ifvqh0g","pricing_plan_id":"cebpf4jnsgd1na2vs0mg"},{"bike_id":"56893961-8f3b-47c8-a24b-0a12834de0b5","system_id":"levelo_inurba_marseille","lat":43.32295,"lon":5.38253,"is_reserved":false,"is_disabled":false,"rental_uris":{"android":"levelo://app?vid=56893961-8f3b-47c8-a24b-0a12834de0b5","ios":"levelo://app?vid=56893961-8f3b-47c8-a24b-0a12834de0b5"},"vehicle_type_id":"4","last_reported":1770484696,"current_range_meters":10000,"station_id":"ce4bhr12rcd13ifvqhqg","pricing_plan_id":"cebpf4jnsgd1na2vs0mg"},{"bike_id":"c8280ba7-8e63-4edf-848d-dcc323849169","system_id":"levelo_inurba_marseille","lat":43.29594,"lon":5.38105,"is_reserved":false,"is_disabled":false,"rental_uris":{"android":"levelo://app?vid=c8280ba7-8e63-4edf-848d-dcc323849169","ios":"levelo://app?vid=c8280ba7-8e63-4edf-848d-dcc323849169"},"vehicle_type_id":"4","last_reported":1770484696,"current_range_meters":10000,"station_id":"ce4bgl12rcd13ifvqbo0","pricing_plan_id":"cebpf4jnsgd1na2vs0mg"},{"bike_id":"01e4d894-ffad-4064-a3df-cebf79965127","system_id":"levelo_inurba_marseille","lat":43.29739,"lon":5.37697,"is_reserved":false,"is_disabled":false,"rental_uris":{"android":"levelo://app?vid=01e4d894-ffad-4064-a3df-cebf79965127","ios":"levelo://app?vid=01e4d894-ffad-4064-a3df-cebf79965127"},"vehicle_type_id":"4","last_reported":1770484696,"current_range_meters":10000,"station_id":"ce4bgkh2rcd13ifvqbl0","pricing_plan_id":"cebpf4jnsgd1na2vs0mg"},{"bike_id":"640e309d-b7bd-4cd8-b2b7-5423e8cce285","system_id":"levelo_inurba_marseille","lat":43.29569,"lon":5.37529,"is_reserved":false,"is_disabled":false,"rental_uris":{"android":"levelo://app?vid=640e309d-b7bd-4cd8-b2b7-5423e8cce285","ios":"levelo://app?vid=640e309d-b7bd-4cd8-b2b7-5423e8cce285"},"vehicle_type_id":"4","last_reported":1770484696,"current_range_meters":10000,"station_id":"ce4bgh92rcd13ifvqb50","pricing_plan_id":"cebpf4jnsgd1na2vs0mg"},{"bike_id":"131c8bc6-588e-4f5d-851b-303b7978f745","system_id":"levelo_inurba_marseille","lat":43.25951,"lon":5.40896,"is_reserved":false,"is_disabled":false,"rental_uris":{"android":"levelo://app?vid=131c8bc6-588e-4f5d-851b-303b7978f745","ios":"levelo://app?vid=131c8bc6-588e-4f5d-851b-303b7978f745"},"vehicle_type_id":"4","last_reported":1770484696,"current_range_meters":10000,"station_id":"ce4bhm92rcd13ifvqglg","pricing_plan_id":"cebpf4jnsgd1na2vs0mg"},{"bike_id":"f5ff564c-e6fc-4e17-bff4-3941ece84951","system_id":"levelo_inurba_marseille","lat":43.26501,"lon":5.39535,"is_reserved":false,"is_disabled":false,"rental_uris":{"android":"levelo://app?vid=f5ff564c-e6fc-4e17-bff4-3941ece84951","ios":"levelo://app?vid=f5ff564c-e6fc-4e17-bff4-3941ece84951"},"vehicle_type_id":"4","last_reported":1770484696,"current_range_meters":10000,"station_id":"ce4bhi12rcd13ifvqfq0","pricing_plan_id":"cebpf4jnsgd1na2vs0mg"},{"bike_id":"9c9db9d5-0e0c-47a3-a905-8fcf5962983e","system_id":"levelo_inurba_marseille","lat":43.23229,"lon":5.35539,"is_reserved":false,"is_disabled":false,"rental_uris":{"android":"levelo://app?vid=9c9db9d5-0e0c-47a3-a905-8fcf5962983e","ios":"levelo://app?vid=9c9db9d5-0e0c-47a3-a905-8fcf5962983e"},"vehicle_type_id":"4","last_reported":1770484696,"current_range_meters":10000,"station_id":"ce4bhu92rcd13ifvqi70","pricing_plan_id":"cebpf4jnsgd1na2vs0mg"},{"bike_id":"fbd8c4f9-3856-46a2-b291-e190e6907420","system_id":"levelo_inurba_marseille","lat":43.25003,"lon":5.38928,"is_reserved":false,"is_disabled":false,"rental_uris":{"android":"levelo://app?vid=fbd8c4f9-3856-46a2-b291-e190e6907420","ios":"levelo://app?vid=fbd8c4f9-3856-46a2-b291-e190e6907420"},"vehicle_type_id":"4","last_reported":1770484696,"current_range_meters":10000,"station_id":"ce4bhgp2rcd13ifvqfd0","pricing_plan_id":"cebpf4jnsgd1na2vs0mg"},{"bike_id":"2c3dabce-2d5b-4d5e-96e2-9eef2e9da548","system_id":"levelo_inurba_marseille","lat":43.240703,"lon":5.37765,"is_reserved":false,"is_disabled":false,"rental_uris":{"android":"levelo://app?vid=2c3dabce-2d5b-4d5e-96e2-9eef2e9da548","ios":"levelo://app?vid=2c3dabce-2d5b-4d5e-96e2-9eef2e9da548"},"vehicle_type_id":"4","last_reported":1770484696,"current_range_meters":10000,"station_id":"ce4bhnp2rcd13ifvqgvg","pricing_plan_id":"cebpf4jnsgd1na2vs0mg"},{"bike_id":"d8d90210-ebd6-4eed-baf7-b6de012b1d12","system_id":"levelo_inurba_marseille","lat":43.296228,"lon":5.377136,"is_reserved":false,"is_disabled":false,"rental_uris":{"android":"levelo://app?vid=d8d90210-ebd6-4eed-baf7-b6de012b1d12","ios":"levelo://app?vid=d8d90210-ebd6-4eed-baf7-b6de012b1d12"},"vehicle_type_id":"4","last_reported":1770484696,"current_range_meters":10000,"station_id":"","pricing_plan_id":"cebpf4jnsgd1na2vs0mg"},{"bike_id":"dd24189e-0ca5-42b2-a25c-59b99b80cd71","system_id":"levelo_inurba_marseille","lat":43.24688,"lon":5.37391,"is_reserved":false,"is_disabled":false,"rental_uris":{"android":"levelo://app?vid=dd24189e-0ca5-42b2-a25c-59b99b80cd71","ios":"levelo://app?vid=dd24189e-0ca5-42b2-a25c-59b99b80cd71"},"vehicle_type_id":"4","last_reported":1770484696,"current_range_meters":10000,"station_id":"ce4bhgh2rcd13ifvqfb0","pricing_plan_id":"cebpf4jnsgd1na2vs0mg"},{"bike_id":"7a2c796a-2c27-403d-a799-411424496833","system_id":"levelo_inurba_marseille","lat":43.265643,"lon":5.403191,"is_reserved":false,"is_disabled":false,"rental_uris":{"android":"levelo://app?vid=7a2c796a-2c27-403d-a799-411424496833","ios":"levelo://app?vid=7a2c796a-2c27-403d-a799-411424496833"},"vehicle_type_id":"4","last_reported":1770484696,"current_range_meters":10800,"station_id":"ce4bhmp2rcd13ifvqgng","pricing_plan_id":"cebpf4jnsgd1na2vs0mg"},{"bike_id":"2cb5a43b-e623-4a02-b02d-84a79ff3e02e","system_id":"levelo_inurba_marseille","lat":43.22559,"lon":5.41629,"is_reserved":false,"is_disabled":false,"rental_uris":{"android":"levelo://app?vid=2cb5a43b-e623-4a02-b02d-84a79ff3e02e","ios":"levelo://app?vid=2cb5a43b-e623-4a02-b02d-84a79ff3e02e"},"vehicle_type_id":"4","last_reported":1770484696,"current_range_meters":10800,"station_id":"st_d2o4gvlbi1j2169b742g","pricing_plan_id":"cebpf4jnsgd1na2vs0mg"},{"bike_id":"058d7c32-e155-42ec-8096-1257590682eb","system_id":"levelo_inurba_marseille","lat":43.25585,"lon":5.38235,"is_reserved":false,"is_disabled":false,"rental_uris":{"android":"levelo://app?vid=058d7c32-e155-42ec-8096-1257590682eb","ios":"levelo://app?vid=058d7c32-e155-42ec-8096-1257590682eb"},"vehicle_type_id":"4","last_reported":1770484696,"current_range_meters":10800,"station_id":"ce4bhih2rcd13ifvqfs0","pricing_plan_id":"cebpf4jnsgd1na2vs0mg"},{"bike_id":"f8354ddb-017a-4bf2-8668-a39598178e17","system_id":"levelo_inurba_marseille","lat":43.30727,"lon":5.42435,"is_reserved":false,"is_disabled":false,"rental_uris":{"android":"levelo://app?vid=f8354ddb-017a-4bf2-8668-a39598178e17","ios":"levelo://app?vid=f8354ddb-017a-4bf2-8668-a39598178e17"},"vehicle_type_id":"4","last_reported":1770484696,"current_range_meters":10800,"station_id":"st_cvj6ca6bvosntc0bfgr0","pricing_plan_id":"cebpf4jnsgd1na2vs0mg"},{"bike_id":"a5fe7b14-3ced-4d6c-aab3-f34baaf11509","system_id":"levelo_inurba_marseille","lat":43.29865,"lon":5.389,"is_reserved":false,"is_disabled":true,"rental_uris":{"android":"levelo://app?vid=a5fe7b14-3ced-4d6c-aab3-f34baaf11509","ios":"levelo://app?vid=a5fe7b14-3ced-4d6c-aab3-f34baaf11509"},"vehicle_type_id":"4","last_reported":1770484696,"current_range_meters":10800,"station_id":"ce4bh392rcd13ifvqdl0","pricing_plan_id":"cebpf4jnsgd1na2vs0mg"},{"bike_id":"92ceac05-1fb7-4c05-9f7a-f53104e5d648","system_id":"levelo_inurba_marseille","lat":43.24992,"lon":5.3893,"is_reserved":false,"is_disabled":false,"rental_uris":{"android":"levelo://app?vid=92ceac05-1fb7-4c05-9f7a-f53104e5d648","ios":"levelo://app?vid=92ceac05-1fb7-4c05-9f7a-f53104e5d648"},"vehicle_type_id":"4","last_reported":1770484696,"current_range_meters":10800,"station_id":"ce4bhgp2rcd13ifvqfd0","pricing_plan_id":"cebpf4jnsgd1na2vs0mg"},{"bike_id":"b0e7feeb-1416-4406-b174-1e7f94d3553f","system_id":"levelo_inurba_marseille","lat":43.33527,"lon":5.37442,"is_reserved":false,"is_disabled":false,"rental_uris":{"android":"levelo://app?vid=b0e7feeb-1416-4406-b174-1e7f94d3553f","ios":"levelo://app?vid=b0e7feeb-1416-4406-b174-1e7f94d3553f"},"vehicle_type_id":"4","last_reported":1770484696,"current_range_meters":10800,"station_id":"","pricing_plan_id":"cebpf4jnsgd1na2vs0mg"},{"bike_id":"a93a3f3a-fc89-4e32-a1fb-c7685626cbdd","system_id":"levelo_inurba_marseille","lat":43.31165,"lon":5.38562,"is_reserved":false,"is_disabled":false,"rental_uris":{"android":"levelo://app?vid=a93a3f3a-fc89-4e32-a1fb-c7685626cbdd","ios":"levelo://app?vid=a93a3f3a-fc89-4e32-a1fb-c7685626cbdd"},"vehicle_type_id":"4","last_reported":1770484696,"current_range_meters":10800,"station_id":"","pricing_plan_id":"cebpf4jnsgd1na2vs0mg"},{"bike_id":"a74bccc9-dd46-4352-a6fe-4ea5bae4449b","system_id":"levelo_inurba_marseille","lat":43.23785,"lon":5.36619,"is_reserved":false,"is_disabled":false,"rental_uris":{"android":"levelo://app?vid=a74bccc9-dd46-4352-a6fe-4ea5bae4449b","ios":"levelo://app?vid=a74bccc9-dd46-4352-a6fe-4ea5bae4449b"},"vehicle_type_id":"4","last_reported":1770484696,"current_range_meters":10800,"station_id":"st_d3nk18o9ro0c73en2l3g","pricing_plan_id":"cebpf4jnsgd1na2vs0mg"},{"bike_id":"cc15c3f8-a1dd-42d7-b66a-d239b7f484cf","system_id":"levelo_inurba_marseille","lat":43.24077,"lon":5.37765,"is_reserved":false,"is_disabled":false,"rental_uris":{"android":"levelo://app?vid=cc15c3f8-a1dd-42d7-b66a-d239b7f484cf","ios":"levelo://app?vid=cc15c3f8-a1dd-42d7-b66a-d239b7f484cf"},"vehicle_type_id":"4","last_reported":1770484696,"current_range_meters":10800,"station_id":"ce4bhnp2rcd13ifvqgvg","pricing_plan_id":"cebpf4jnsgd1na2vs0mg"},{"bike_id":"4f0b1199-6dfe-4790-aea4-b2fe4d797aea","system_id":"levelo_inurba_marseille","lat":43.25823,"lon":5.39433,"is_reserved":false,"is_disabled":false,"rental_uris":{"android":"levelo://app?vid=4f0b1199-6dfe-4790-aea4-b2fe4d797aea","ios":"levelo://app?vid=4f0b1199-6dfe-4790-aea4-b2fe4d797aea"},"vehicle_type_id":"4","last_reported":1770484696,"current_range_meters":10800,"station_id":"ce4bhip2rcd13ifvqft0","pricing_plan_id":"cebpf4jnsgd1na2vs0mg"},{"bike_id":"0dbab729-d30d-471e-8559-38dc32eda678","system_id":"levelo_inurba_marseille","lat":43.29264,"lon":5.38438,"is_reserved":false,"is_disabled":false,"rental_uris":{"android":"levelo://app?vid=0dbab729-d30d-471e-8559-38dc32eda678","ios":"levelo://app?vid=0dbab729-d30d-471e-8559-38dc32eda678"},"vehicle_type_id":"4","last_reported":1770484696,"current_range_meters":10800,"station_id":"ce4bh692rcd13ifvqea0","pricing_plan_id":"cebpf4jnsgd1na2vs0mg"},{"bike_id":"d8ba07be-4909-4867-9013-61baab37ba2e","system_id":"levelo_inurba_marseille","lat":43.22566,"lon":5.41633,"is_reserved":false,"is_disabled":false,"rental_uris":{"android":"levelo://app?vid=d8ba07be-4909-4867-9013-61baab37ba2e","ios":"levelo://app?vid=d8ba07be-4909-4867-9013-61baab37ba2e"},"vehicle_type_id":"4","last_reported":1770484696,"current_range_meters":10800,"station_id":"st_d2o4gvlbi1j2169b742g","pricing_plan_id":"cebpf4jnsgd1na2vs0mg"},{"bike_id":"a1ed290c-c561-4c4a-99d9-420078b4ab2a","system_id":"levelo_inurba_marseille","lat":43.23066,"lon":5.35488,"is_reserved":false,"is_disabled":false,"rental_uris":{"android":"levelo://app?vid=a1ed290c-c561-4c4a-99d9-420078b4ab2a","ios":"levelo://app?vid=a1ed290c-c561-4c4a-99d9-420078b4ab2a"},"vehicle_type_id":"4","last_reported":1770484696,"current_range_meters":10800,"station_id":"cpo3342slgdg3j2ifvpg","pricing_plan_id":"cebpf4jnsgd1na2vs0mg"},{"bike_id":"1ea60dc0-7a32-4323-9458-3ce0044e2a51","system_id":"levelo_inurba_marseille","lat":43.33538,"lon":5.37459,"is_reserved":false,"is_disabled":false,"rental_uris":{"android":"levelo://app?vid=1ea60dc0-7a32-4323-9458-3ce0044e2a51","ios":"levelo://app?vid=1ea60dc0-7a32-4323-9458-3ce0044e2a51"},"vehicle_type_id":"4","last_reported":1770484696,"current_range_meters":10800,"station_id":"st_d46tts09ee8s73dlu43g","pricing_plan_id":"cebpf4jnsgd1na2vs0mg"},{"bike_id":"d96fa321-cc43-4d28-a99e-b49794bf7b3a","system_id":"levelo_inurba_marseille","lat":43.25935,"lon":5.40922,"is_reserved":false,"is_disabled":false,"rental_uris":{"android":"levelo://app?vid=d96fa321-cc43-4d28-a99e-b49794bf7b3a","ios":"levelo://app?vid=d96fa321-cc43-4d28-a99e-b49794bf7b3a"},"vehicle_type_id":"4","last_reported":1770484696,"current_range_meters":10800,"station_id":"ce4bhm92rcd13ifvqglg","pricing_plan_id":"cebpf4jnsgd1na2vs0mg"},{"bike_id":"54a9192b-0dd6-49f6-978b-5e71126fb367","system_id":"levelo_inurba_marseille","lat":43.26207,"lon":5.37921,"is_reserved":false,"is_disabled":false,"rental_uris":{"android":"levelo://app?vid=54a9192b-0dd6-49f6-978b-5e71126fb367","ios":"levelo://app?vid=54a9192b-0dd6-49f6-978b-5e71126fb367"},"vehicle_type_id":"4","last_reported":1770484696,"current_range_meters":11200,"station_id":"ce4bhjp2rcd13ifvqg90","pricing_plan_id":"cebpf4jnsgd1na2vs0mg"},{"bike_id":"867458d9-c09f-4165-b1af-e2013b3a197e","system_id":"levelo_inurba_marseille","lat":43.24655,"lon":5.38855,"is_reserved":false,"is_disabled":false,"rental_uris":{"android":"levelo://app?vid=867458d9-c09f-4165-b1af-e2013b3a197e","ios":"levelo://app?vid=867458d9-c09f-4165-b1af-e2013b3a197e"},