{"last_updated":1723316764,"ttl":30,"version":"2.2","data":{"bikes":[{"bike_id":"7375f192-c1d1-46e1-88e3-fd9b9a88bd7d","system_id":"levelo_inurba_marseille","lat":43.313391,"lon":5.36706,"is_reserved":false,"is_disabled":false,"rental_uris":{"android":"levelo://app?vid=7375f192-c1d1-46e1-88e3-fd9b9a88bd7d","ios":"levelo://app?vid=7375f192-c1d1-46e1-88e3-fd9b9a88bd7d"},"vehicle_type_id":"4","last_reported":1723316764,"current_range_meters":1600,"station_id":"ce4bgr92rcd13ifvqc6g","pricing_plan_id":"cebpf4jnsgd1na2vs0mg"},{"bike_id":"8d987465-18d9-4ef7-b293-c30f9e1210ad","system_id":"levelo_inurba_marseille","lat":43.313621,"lon":5.366984,"is_reserved":false,"is_disabled":false,"rental_uris":{"android":"levelo://app?vid=8d987465-18d9-4ef7-b293-c30f9e1210ad","ios":"levelo://app?vid=8d987465-18d9-4ef7-b293-c30f9e1210ad"},"vehicle_type_id":"4","last_reported":1723316764,"current_range_meters":0,"station_id":"ce4bgr92rcd13ifvqc6g","pricing_plan_id":"cebpf4jnsgd1na2vs0mg"},{"bike_id":"a0f9a9ff-4683-46b2-83dc-45efd35a2034","system_id":"levelo_inurba_marseille","lat":43.309076,"lon":5.368465,"is_reserved":false,"is_disabled":false,"rental_uris":{"android":"levelo://app?vid=a0f9a9ff-4683-46b2-83dc-45efd35a2034","ios":"levelo://app?vid=a0f9a9ff-4683-46b2-83dc-45efd35a2034"},"vehicle_type_id":"4","last_reported":1723316764,"current_range_meters":24400,"station_id":"ce4bgn92rcd13ifvqbvg","pricing_plan_id":"cebpf4jnsgd1na2vs0mg"},{"bike_id":"001eef89-7aea-42ca-ad18-f0835d36ddd8","system_id":"levelo_inurba_marseille","lat":43.309076,"lon":5.368465,"is_reserved":false,"is_disabled":false,"rental_uris":{"android":"levelo://app?vid=001eef89-7aea-42ca-ad18-f0835d36ddd8","ios":"levelo://app?vid=001eef89-7aea-42ca-ad18-f0835d36ddd8"},"vehicle_type_id":"4","last_reported":1723316764,"current_range_meters":10000,"station_id":"ce4bgn92rcd13ifvqbvg","pricing_plan_id":"cebpf4jnsgd1na2vs0mg"},{"bike_id":"090e4f65-af5b-4dbb-945d-e85594d99d56","system_id":"levelo_inurba_marseille","lat":43.31489,"lon":5.37303,"is_reserved":false,"is_disabled":false,"rental_uris":{"android":"levelo://app?vid=090e4f65-af5b-4dbb-945d-e85594d99d56","ios":"levelo://app?vid=090e4f65-af5b-4dbb-945d-e85594d99d56"},"vehicle_type_id":"4","last_reported":1723316764,"current_range_meters":400,"station_id":"ce4bgt12rcd13ifvqcd0","pricing_plan_id":"cebpf4jnsgd1na2vs0mg"},{"bike_id":"ed0ad45f-7404-43b2-a8cf-9ae82580b1ca","system_id":"levelo_inurba_marseille","lat":43.314811,"lon":5.373103,"is_reserved":false,"is_disabled":false,"rental_uris":{"android":"levelo://app?vid=ed0ad45f-7404-43b2-a8cf-9ae82580b1ca","ios":"levelo://app?vid=ed0ad45f-7404-43b2-a8cf-9ae82580b1ca"},"vehicle_type_id":"4","last_reported":1723316764,"current_range_meters":30400,"station_id":"ce4bgt12rcd13ifvqcd0","pricing_plan_id":"cebpf4jnsgd1na2vs0mg"},{"bike_id":"a76b50de-ca15-4830-900f-6a1e28515025","system_id":"levelo_inurba_marseille","lat":43.3169,"lon":5.37391,"is_reserved":false,"is_disabled":false,"rental_uris":{"android":"levelo://app?vid=a76b50de-ca15-4830-900f-6a1e28515025","ios":"levelo://app?vid=a76b50de-ca15-4830-900f-6a1e28515025"},"vehicle_type_id":"4","last_reported":1723316764,"current_range_meters":0,"station_id":"","pricing_plan_id":"cebpf4jnsgd1na2vs0mg"},{"bike_id":"d6b2913d-c27c-4883-9f67-81df3e520bed","system_id":"levelo_inurba_marseille","lat":43.305714,"lon":5.365633,"is_reserved":false,"is_disabled":false,"rental_uris":{"android":"levelo://app?vid=d6b2913d-c27c-4883-9f67-81df3e520bed","ios":"levelo://app?vid=d6b2913d-c27c-4883-9f67-81df3e520bed"},"vehicle_type_id":"4","last_reported":1723316764,"current_range_meters":26000,"station_id":"ce4bgs12rcd13ifvqcag","pricing_plan_id":"cebpf4jnsgd1na2vs0mg"},{"bike_id":"c10eb5ce-7ee9-4716-b6b8-b0879d1d8f58","system_id":"levelo_inurba_marseille","lat":43.305706,"lon":5.365654,"is_reserved":false,"is_disabled":false,"rental_uris":{"android":"levelo://app?vid=c10eb5ce-7ee9-4716-b6b8-b0879d1d8f58","ios":"levelo://app?vid=c10eb5ce-7ee9-4716-b6b8-b0879d1d8f58"},"vehicle_type_id":"4","last_reported":1723316764,"current_range_meters":20000,"station_id":"ce4bgs12rcd13ifvqcag","pricing_plan_id":"cebpf4jnsgd1na2vs0mg"},{"bike_id":"de93c7e0-c7b6-4248-81d4-c20626fcc92c","system_id":"levelo_inurba_marseille","lat":43.305989,"lon":5.37225,"is_reserved":false,"is_disabled":false,"rental_uris":{"android":"levelo://app?vid=de93c7e0-c7b6-4248-81d4-c20626fcc92c","ios":"levelo://app?vid=de93c7e0-c7b6-4248-81d4-c20626fcc92c"},"vehicle_type_id":"4","last_reported":1723316764,"current_range_meters":18000,"station_id":"ce4bgqh2rcd13ifvqc4g","pricing_plan_id":"cebpf4jnsgd1na2vs0mg"},{"bike_id":"8d35d5a9-f147-452a-a15f-9adc8b030812","system_id":"levelo_inurba_marseille","lat":43.311125,"lon":5.377624,"is_reserved":false,"is_disabled":false,"rental_uris":{"android":"levelo://app?vid=8d35d5a9-f147-452a-a15f-9adc8b030812","ios":"levelo://app?vid=8d35d5a9-f147-452a-a15f-9adc8b030812"},"vehicle_type_id":"4","last_reported":1723316764,"current_range_meters":16000,"station_id":"ce4bgt92rcd13ifvqcg0","pricing_plan_id":"cebpf4jnsgd1na2vs0mg"},{"bike_id":"7097e497-3649-4e2c-8ba6-abc3a0d86b01","system_id":"levelo_inurba_marseille","lat":43.311125,"lon":5.377624,"is_reserved":false,"is_disabled":false,"rental_uris":{"android":"levelo://app?vid=7097e497-3649-4e2c-8ba6-abc3a0d86b01","ios":"levelo://app?vid=7097e497-3649-4e2c-8ba6-abc3a0d86b01"},"vehicle_type_id":"4","last_reported":1723316764,"current_range_meters":10000,"station_id":"ce4bgt92rcd13ifvqcg0","pricing_plan_id":"cebpf4jnsgd1na2vs0mg"},{"bike_id":"a5b16330-72b6-4cf4-a629-12964c859212","system_id":"levelo_inurba_marseille","lat":43.311125,"lon":5.377624,"is_reserved":false,"is_disabled":false,"rental_uris":{"android":"levelo://app?vid=a5b16330-72b6-4cf4-a629-12964c859212","ios":"levelo://app?vid=a5b16330-72b6-4cf4-a629-12964c859212"},"vehicle_type_id":"4","last_reported":1723316764,"current_range_meters":3600,"station_id":"ce4bgt92rcd13ifvqcg0","pricing_plan_id":"cebpf4jnsgd1na2vs0mg"},{"bike_id":"e9314e69-e81f-435d-9610-29f60ad09377","system_id":"levelo_inurba_marseille","lat":43.311125,"lon":5.377624,"is_reserved":false,"is_disabled":false,"rental_uris":{"android":"levelo://app?vid=e9314e69-e81f-435d-9610-29f60ad09377","ios":"levelo://app?vid=e9314e69-e81f-435d-9610-29f60ad09377"},"vehicle_type_id":"4","last_reported":1723316764,"current_range_meters":21600,"station_id":"ce4bgt92rcd13ifvqcg0","pricing_plan_id":"cebpf4jnsgd1na2vs0mg"},{"bike_id":"364e4936-390b-4b9a-bc9a-de6ab697d532","system_id":"levelo_inurba_marseille","lat":43.311125,"lon":5.377624,"is_reserved":false,"is_disabled":false,"rental_uris":{"android":"levelo://app?vid=364e4936-390b-4b9a-bc9a-de6ab697d532","ios":"levelo://app?vid=364e4936-390b-4b9a-bc9a-de6ab697d532"},"vehicle_type_id":"4","last_reported":1723316764,"current_range_meters":10000,"station_id":"ce4bgt92rcd13ifvqcg0","pricing_plan_id":"cebpf4jnsgd1na2vs0mg"},{"bike_id":"fe4f07e0-a3ee-43c2-b0b7-d0e6e8e43789","system_id":"levelo_inurba_marseille","lat":43.304913,"lon":5.369517,"is_reserved":false,"is_disabled":false,"rental_uris":{"android":"levelo://app?vid=fe4f07e0-a3ee-43c2-b0b7-d0e6e8e43789","ios":"levelo://app?vid=fe4f07e0-a3ee-43c2-b0b7-d0e6e8e43789"},"vehicle_type_id":"4","last_reported":1723316764,"current_range_meters":18400,"station_id":"","pricing_plan_id":"cebpf4jnsgd1na2vs0mg"},{"bike_id":"a902c64e-d459-4383-a7d0-02a0b5c12086","system_id":"levelo_inurba_marseille","lat":43.317075,"lon":5.377367,"is_reserved":false,"is_disabled":false,"rental_uris":{"android":"levelo://app?vid=a902c64e-d459-4383-a7d0-02a0b5c12086","ios":"levelo://app?vid=a902c64e-d459-4383-a7d0-02a0b5c12086"},"vehicle_type_id":"4","last_reported":1723316764,"current_range_meters":8400,"station_id":"ce4bgth2rcd13ifvqch0","pricing_plan_id":"cebpf4jnsgd1na2vs0mg"},{"bike_id":"06e5d9d7-35d9-4a0f-9fa7-f6a3297bf26c","system_id":"levelo_inurba_marseille","lat":43.317075,"lon":5.377367,"is_reserved":false,"is_disabled":false,"rental_uris":{"android":"levelo://app?vid=06e5d9d7-35d9-4a0f-9fa7-f6a3297bf26c","ios":"levelo://app?vid=06e5d9d7-35d9-4a0f-9fa7-f6a3297bf26c"},"vehicle_type_id":"4","last_reported":1723316764,"current_range_meters":27200,"station_id":"ce4bgth2rcd13ifvqch0","pricing_plan_id":"cebpf4jnsgd1na2vs0mg"},{"bike_id":"68d76b6e-b8b0-437c-80a8-b0cc039d8bf2","system_id":"levelo_inurba_marseille","lat":43.30348,"lon":5.36506,"is_reserved":false,"is_disabled":false,"rental_uris":{"android":"levelo://app?vid=68d76b6e-b8b0-437c-80a8-b0cc039d8bf2","ios":"levelo://app?vid=68d76b6e-b8b0-437c-80a8-b0cc039d8bf2"},"vehicle_type_id":"4","last_reported":1723316764,"current_range_meters":0,"station_id":"","pricing_plan_id":"cebpf4jnsgd1na2vs0mg"},{"bike_id":"139a1772-d73b-450e-9bcf-de186068ccdd","system_id":"levelo_inurba_marseille","lat":43.315289,"lon":5.380349,"is_reserved":false,"is_disabled":false,"rental_uris":{"android":"levelo://app?vid=139a1772-d73b-450e-9bcf-de186068ccdd","ios":"levelo://app?vid=139a1772-d73b-450e-9bcf-de186068ccdd"},"vehicle_type_id":"4","last_reported":1723316764,"current_range_meters":18800,"station_id":"ce4bhsp2rcd13ifvqi50","pricing_plan_id":"cebpf4jnsgd1na2vs0mg"},{"bike_id":"1d8cd8ae-7f98-4be9-8378-a49954575452","system_id":"levelo_inurba_marseille","lat":43.32008,"lon":5.37687,"is_reserved":false,"is_disabled":false,"rental_uris":{"android":"levelo://app?vid=1d8cd8ae-7f98-4be9-8378-a49954575452","ios":"levelo://app?vid=1d8cd8ae-7f98-4be9-8378-a49954575452"},"vehicle_type_id":"4","last_reported":1723316764,"current_range_meters":14000,"station_id":"","pricing_plan_id":"cebpf4jnsgd1na2vs0mg"},{"bike_id":"8a48976a-bad5-4eba-a388-39f7e7496d22","system_id":"levelo_inurba_marseille","lat":43.308012,"lon":5.381511,"is_reserved":false,"is_disabled":false,"rental_uris":{"android":"levelo://app?vid=8a48976a-bad5-4eba-a388-39f7e7496d22","ios":"levelo://app?vid=8a48976a-bad5-4eba-a388-39f7e7496d22"},"vehicle_type_id":"4","last_reported":1723316764,"current_range_meters":18800,"station_id":"ce4bgt12rcd13ifvqce0","pricing_plan_id":"cebpf4jnsgd1na2vs0mg"},{"bike_id":"192bc778-be1f-402d-b1df-16d7172e5519","system_id":"levelo_inurba_marseille","lat":43.31359,"lon":5.38283,"is_reserved":false,"is_disabled":false,"rental_uris":{"android":"levelo://app?vid=192bc778-be1f-402d-b1df-16d7172e5519","ios":"levelo://app?vid=192bc778-be1f-402d-b1df-16d7172e5519"},"vehicle_type_id":"4","last_reported":1723316764,"current_range_meters":0,"station_id":"","pricing_plan_id":"cebpf4jnsgd1na2vs0mg"},{"bike_id":"a695064f-fbb2-401b-b388-ec6a97122f88","system_id":"levelo_inurba_marseille","lat":43.308012,"lon":5.381511,"is_reserved":false,"is_disabled":false,"rental_uris":{"android":"levelo://app?vid=a695064f-fbb2-401b-b388-ec6a97122f88","ios":"levelo://app?vid=a695064f-fbb2-401b-b388-ec6a97122f88"},"vehicle_type_id":"4","last_reported":1723316764,"current_range_meters":17200,"station_id":"ce4bgt12rcd13ifvqce0","pricing_plan_id":"cebpf4jnsgd1na2vs0mg"},{"bike_id":"0076156e-9290-40ed-9c65-279ad02938cc","system_id":"levelo_inurba_marseille","lat":43.308012,"lon":5.381511,"is_reserved":false,"is_disabled":false,"rental_uris":{"android":"levelo://app?vid=0076156e-9290-40ed-9c65-279ad02938cc","ios":"levelo://app?vid=0076156e-9290-40ed-9c65-279ad02938cc"},"vehicle_type_id":"4","last_reported":1723316764,"current_range_meters":25200,"station_id":"ce4bgt12rcd13ifvqce0","pricing_plan_id":"cebpf4jnsgd1na2vs0mg"},{"bike_id":"2359b088-c6c0-4e6f-b7b4-7df730edaa20","system_id":"levelo_inurba_marseille","lat":43.30115,"lon":5.36401,"is_reserved":false,"is_disabled":false,"rental_uris":{"android":"levelo://app?vid=2359b088-c6c0-4e6f-b7b4-7df730edaa20","ios":"levelo://app?vid=2359b088-c6c0-4e6f-b7b4-7df730edaa20"},"vehicle_type_id":"4","last_reported":1723316764,"current_range_meters":18000,"station_id":"","pricing_plan_id":"cebpf4jnsgd1na2vs0mg"},{"bike_id":"acf5f1e8-de2b-41ca-8aa3-96936cfef668","system_id":"levelo_inurba_marseille","lat":43.31132,"lon":5.38323,"is_reserved":false,"is_disabled":false,"rental_uris":{"android":"levelo://app?vid=acf5f1e8-de2b-41ca-8aa3-96936cfef668","ios":"levelo://app?vid=acf5f1e8-de2b-41ca-8aa3-96936cfef668"},"vehicle_type_id":"4","last_reported":1723316764,"current_range_meters":0,"station_id":"","pricing_plan_id":"cebpf4jnsgd1na2vs0mg"},{"bike_id":"b1733948-b5b9-45d7-af58-2f52b42c90cd","system_id":"levelo_inurba_marseille","lat":43.324771,"lon":5.36557,"is_reserved":false,"is_disabled":false,"rental_uris":{"android":"levelo://app?vid=b1733948-b5b9-45d7-af58-2f52b42c90cd","ios":"levelo://app?vid=b1733948-b5b9-45d7-af58-2f52b42c90cd"},"vehicle_type_id":"4","last_reported":1723316764,"current_range_meters":14400,"station_id":"ce4bhs12rcd13ifvqhvg","pricing_plan_id":"cebpf4jnsgd1na2vs0mg"},{"bike_id":"a7107ef9-55f0-477a-b52b-a987c265ac12","system_id":"levelo_inurba_marseille","lat":43.324771,"lon":5.36557,"is_reserved":false,"is_disabled":false,"rental_uris":{"android":"levelo://app?vid=a7107ef9-55f0-477a-b52b-a987c265ac12","ios":"levelo://app?vid=a7107ef9-55f0-477a-b52b-a987c265ac12"},"vehicle_type_id":"4","last_reported":1723316764,"current_range_meters":14400,"station_id":"ce4bhs12rcd13ifvqhvg","pricing_plan_id":"cebpf4jnsgd1na2vs0mg"},{"bike_id":"f509acdd-4e2b-4412-ba87-b355900b35f8","system_id":"levelo_inurba_marseille","lat":43.324771,"lon":5.36557,"is_reserved":false,"is_disabled":false,"rental_uris":{"android":"levelo://app?vid=f509acdd-4e2b-4412-ba87-b355900b35f8","ios":"levelo://app?vid=f509acdd-4e2b-4412-ba87-b355900b35f8"},"vehicle_type_id":"4","last_reported":1723316764,"current_range_meters":1200,"station_id":"ce4bhs12rcd13ifvqhvg","pricing_plan_id":"cebpf4jnsgd1na2vs0mg"},{"bike_id":"58f29e9f-d298-460a-a286-4b7cdadb6a7f","system_id":"levelo_inurba_marseille","lat":43.324771,"lon":5.36557,"is_reserved":false,"is_disabled":false,"rental_uris":{"android":"levelo://app?vid=58f29e9f-d298-460a-a286-4b7cdadb6a7f","ios":"levelo://app?vid=58f29e9f-d298-460a-a286-4b7cdadb6a7f"},"vehicle_type_id":"4","last_reported":1723316764,"current_range_meters":22400,"station_id":"ce4bhs12rcd13ifvqhvg","pricing_plan_id":"cebpf4jnsgd1na2vs0mg"},{"bike_id":"cd1d298a-3fe6-4fd0-ab9d-543d0134d8e5","system_id":"levelo_inurba_marseille","lat":43.324771,"lon":5.36557,"is_reserved":false,"is_disabled":false,"rental_uris":{"android":"levelo://app?vid=cd1d298a-3fe6-4fd0-ab9d-543d0134d8e5","ios":"levelo://app?vid=cd1d298a-3fe6-4fd0-ab9d-543d0134d8e5"},"vehicle_type_id":"4","last_reported":1723316764,"current_range_meters":24400,"station_id":"ce4bhs12rcd13ifvqhvg","pricing_plan_id":"cebpf4jnsgd1na2vs0mg"},{"bike_id":"8d62cf42-ded4-40b6-a339-928240cb973a","system_id":"levelo_inurba_marseille","lat":43.324771,"lon":5.36557,"is_reserved":false,"is_disabled":false,"rental_uris":{"android":"levelo://app?vid=8d62cf42-ded4-40b6-a339-928240cb973a","ios":"levelo://app?vid=8d62cf42-ded4-40b6-a339-928240cb973a"},"vehicle_type_id":"4","last_reported":1723316764,"current_range_meters":1600,"station_id":"ce4bhs12rcd13ifvqhvg","pricing_plan_id":"cebpf4jnsgd1na2vs0mg"},{"bike_id":"46f42c96-76f2-49d6-8c4d-7471cafe966a","system_id":"levelo_inurba_marseille","lat":43.310804,"lon":5.38359,"is_reserved":false,"is_disabled":false,"rental_uris":{"android":"levelo://app?vid=46f42c96-76f2-49d6-8c4d-7471cafe966a","ios":"levelo://app?vid=46f42c96-76f2-49d6-8c4d-7471cafe966a"},"vehicle_type_id":"4","last_reported":1723316764,"current_range_meters":19600,"station_id":"ce4bgv92rcd13ifvqcr0","pricing_plan_id":"cebpf4jnsgd1na2vs0mg"},{"bike_id":"cfad4716-e765-4ee9-b6a2-9e1c5a05f3f9","system_id":"levelo_inurba_marseille","lat":43.302784,"lon":5.377158,"is_reserved":false,"is_disabled":false,"rental_uris":{"android":"levelo://app?vid=cfad4716-e765-4ee9-b6a2-9e1c5a05f3f9","ios":"levelo://app?vid=cfad4716-e765-4ee9-b6a2-9e1c5a05f3f9"},"vehicle_type_id":"4","last_reported":1723316764,"current_range_meters":0,"station_id":"ce4bguh2rcd13ifvqcj0","pricing_plan_id":"cebpf4jnsgd1na2vs0mg"},{"bike_id":"a77c1d18-da6b-4b68-901e-5e55072864a2","system_id":"levelo_inurba_marseille","lat":43.30143,"lon":5.3741,"is_reserved":false,"is_disabled":false,"rental_uris":{"android":"levelo://app?vid=a77c1d18-da6b-4b68-901e-5e55072864a2","ios":"levelo://app?vid=a77c1d18-da6b-4b68-901e-5e55072864a2"},"vehicle_type_id":"4","last_reported":1723316764,"current_range_meters":30800,"station_id":"ce4bgs92rcd13ifvqcc0","pricing_plan_id":"cebpf4jnsgd1na2vs0mg"},{"bike_id":"992786d8-54f0-4a4c-9cdb-387b2f0eda1c","system_id":"levelo_inurba_marseille","lat":43.30119,"lon":5.37431,"is_reserved":false,"is_disabled":false,"rental_uris":{"android":"levelo://app?vid=992786d8-54f0-4a4c-9cdb-387b2f0eda1c","ios":"levelo://app?vid=992786d8-54f0-4a4c-9cdb-387b2f0eda1c"},"vehicle_type_id":"4","last_reported":1723316764,"current_range_meters":0,"station_id":"ce4bgs92rcd13ifvqcc0","pricing_plan_id":"cebpf4jnsgd1na2vs0mg"},{"bike_id":"41598aff-7486-4b78-b5b0-f67a76fc3110","system_id":"levelo_inurba_marseille","lat":43.319935,"lon":5.381699,"is_reserved":false,"is_disabled":false,"rental_uris":{"android":"levelo://app?vid=41598aff-7486-4b78-b5b0-f67a76fc3110","ios":"levelo://app?vid=41598aff-7486-4b78-b5b0-f67a76fc3110"},"vehicle_type_id":"4","last_reported":1723316764,"current_range_meters":18800,"station_id":"ce4bhr12rcd13ifvqhpg","pricing_plan_id":"cebpf4jnsgd1na2vs0mg"},{"bike_id":"8c79c022-8c18-41a4-8907-6b170d277d74","system_id":"levelo_inurba_marseille","lat":43.31995,"lon":5.381618,"is_reserved":false,"is_disabled":false,"rental_uris":{"android":"levelo://app?vid=8c79c022-8c18-41a4-8907-6b170d277d74","ios":"levelo://app?vid=8c79c022-8c18-41a4-8907-6b170d277d74"},"vehicle_type_id":"4","last_reported":1723316764,"current_range_meters":0,"station_id":"ce4bhr12rcd13ifvqhpg","pricing_plan_id":"cebpf4jnsgd1na2vs0mg"},{"bike_id":"ff39d0c8-ba61-4ae1-abef-c721ee1fd9c8","system_id":"levelo_inurba_marseille","lat":43.31383,"lon":5.38462,"is_reserved":false,"is_disabled":false,"rental_uris":{"android":"levelo://app?vid=ff39d0c8-ba61-4ae1-abef-c721ee1fd9c8","ios":"levelo://app?vid=ff39d0c8-ba61-4ae1-abef-c721ee1fd9c8"},"vehicle_type_id":"4","last_reported":1723316764,"current_range_meters":12000,"station_id":"ce4bgt92rcd13ifvqcf0","pricing_plan_id":"cebpf4jnsgd1na2vs0mg"},{"bike_id":"f3377ded-a916-410f-8bab-1a0175b0e936","system_id":"levelo_inurba_marseille","lat":43.305714,"lon":5.365633,"is_reserved":false,"is_disabled":false,"rental_uris":{"android":"levelo://app?vid=f3377ded-a916-410f-8bab-1a0175b0e936","ios":"levelo://app?vid=f3377ded-a916-410f-8bab-1a0175b0e936"},"vehicle_type_id":"4","last_reported":1723316764,"current_range_meters":5600,"station_id":"ce4bgs12rcd13ifvqcag","pricing_plan_id":"cebpf4jnsgd1na2vs0mg"},{"bike_id":"d46f1b37-702a-47d8-9bbd-94c786928808","system_id":"levelo_inurba_marseille","lat":43.299724,"lon":5.371829,"is_reserved":false,"is_disabled":false,"rental_uris":{"android":"levelo://app?vid=d46f1b37-702a-47d8-9bbd-94c786928808","ios":"levelo://app?vid=d46f1b37-702a-47d8-9bbd-94c786928808"},"vehicle_type_id":"4","last_reported":1723316764,"current_range_meters":29600,"station_id":"ce4bgr92rcd13ifvqc7g","pricing_plan_id":"cebpf4jnsgd1na2vs0mg"},{"bike_id":"7621a262-94a0-4246-9745-65f8d1055f62","system_id":"levelo_inurba_marseille","lat":43.299724,"lon":5.371829,"is_reserved":false,"is_disabled":false,"rental_uris":{"android":"levelo://app?vid=7621a262-94a0-4246-9745-65f8d1055f62","ios":"levelo://app?vid=7621a262-94a0-4246-9745-65f8d1055f62"},"vehicle_type_id":"4","last_reported":1723316764,"current_range_meters":26800,"station_id":"ce4bgr92rcd13ifvqc7g","pricing_plan_id":"cebpf4jnsgd1na2vs0mg"},{"bike_id":"2d06e53a-101e-41d0-b829-27ade08620da","system_id":"levelo_inurba_marseille","lat":43.311203,"lon":5.38623,"is_reserved":false,"is_disabled":false,"rental_uris":{"android":"levelo://app?vid=2d06e53a-101e-41d0-b829-27ade08620da","ios":"levelo://app?vid=2d06e53a-101e-41d0-b829-27ade08620da"},"vehicle_type_id":"4","last_reported":1723316764,"current_range_meters":0,"station_id":"","pricing_plan_id":"cebpf4jnsgd1na2vs0mg"},{"bike_id":"c30afed9-af68-4726-8063-f30054d89dd8","system_id":"levelo_inurba_marseille","lat":43.32069,"lon":5.383,"is_reserved":false,"is_disabled":false,"rental_uris":{"android":"levelo://app?vid=c30afed9-af68-4726-8063-f30054d89dd8","ios":"levelo://app?vid=c30afed9-af68-4726-8063-f30054d89dd8"},"vehicle_type_id":"4","last_reported":1723316764,"current_range_meters":17600,"station_id":"","pricing_plan_id":"cebpf4jnsgd1na2vs0mg"},{"bike_id":"d8fb468e-6689-40bb-84f7-5edb47583155","system_id":"levelo_inurba_marseille","lat":43.305364,"lon":5.384119,"is_reserved":false,"is_disabled":false,"rental_uris":{"android":"levelo://app?vid=d8fb468e-6689-40bb-84f7-5edb47583155","ios":"levelo://app?vid=d8fb468e-6689-40bb-84f7-5edb47583155"},"vehicle_type_id":"4","last_reported":1723316764,"current_range_meters":26800,"station_id":"ce4bgg92rcd13ifvqb30","pricing_plan_id":"cebpf4jnsgd1na2vs0mg"},{"bike_id":"151a06cf-580f-4851-9e33-83409b929c5a","system_id":"levelo_inurba_marseille","lat":43.311722,"lon":5.387247,"is_reserved":false,"is_disabled":false,"rental_uris":{"android":"levelo://app?vid=151a06cf-580f-4851-9e33-83409b929c5a","ios":"levelo://app?vid=151a06cf-580f-4851-9e33-83409b929c5a"},"vehicle_type_id":"4","last_reported":1723316764,"current_range_meters":29600,"station_id":"ce4bgv12rcd13ifvqcp0","pricing_plan_id":"cebpf4jnsgd1na2vs0mg"},{"bike_id":"840f8134-0b4c-482c-8378-3aaab80a12f8","system_id":"levelo_inurba_marseille","lat":43.311722,"lon":5.387247,"is_reserved":false,"is_disabled":false,"rental_uris":{"android":"levelo://app?vid=840f8134-0b4c-482c-8378-3aaab80a12f8","ios":"levelo://app?vid=840f8134-0b4c-482c-8378-3aaab80a12f8"},"vehicle_type_id":"4","last_reported":1723316764,"current_range_meters":5200,"station_id":"ce4bgv12rcd13ifvqcp0","pricing_plan_id":"cebpf4jnsgd1na2vs0mg"},{"bike_id":"c568f253-f437-40d7-91e0-8a0c20115011","system_id":"levelo_inurba_marseille","lat":43.32254,"lon":5.38263,"is_reserved":false,"is_disabled":false,"rental_uris":{"android":"levelo://app?vid=c568f253-f437-40d7-91e0-8a0c20115011","ios":"levelo://app?vid=c568f253-f437-40d7-91e0-8a0c20115011"},"vehicle_type_id":"4","last_reported":1723316764,"current_range_meters":14000,"station_id":"ce4bhr12rcd13ifvqhqg","pricing_plan_id":"cebpf4jnsgd1na2vs0mg"},{"bike_id":"80f9f110-4ffc-4297-bf57-2bf2a710da39","system_id":"levelo_inurba_marseille","lat":43.32249,"lon":5.38269,"is_reserved":false,"is_disabled":false,"rental_uris":{"android":"levelo://app?vid=80f9f110-4ffc-4297-bf57-2bf2a710da39","ios":"levelo://app?vid=80f9f110-4ffc-4297-bf57-2bf2a710da39"},"vehicle_type_id":"4","last_reported":1723316764,"current_range_meters":14400,"station_id":"ce4bhr12rcd13ifvqhqg","pricing_plan_id":"cebpf4jnsgd1na2vs0mg"},{"bike_id":"278fd2e7-b087-4840-bcb6-baa2ac97e8c5","system_id":"levelo_inurba_marseille","lat":43.297774,"lon":5.370875,"is_reserved":false,"is_disabled":false,"rental_uris":{"android":"levelo://app?vid=278fd2e7-b087-4840-bcb6-baa2ac97e8c5","ios":"levelo://app?vid=278fd2e7-b087-4840-bcb6-baa2ac97e8c5"},"vehicle_type_id":"4","last_reported":1723316764,"current_range_meters":6000,"station_id":"ce4bgop2rcd13ifvqc1g","pricing_plan_id":"cebpf4jnsgd1na2vs0mg"},{"bike_id":"d185e7ab-9a4f-438d-b745-b73c8c083a92","system_id":"levelo_inurba_marseille","lat":43.297794,"lon":5.370888,"is_reserved":false,"is_disabled":false,"rental_uris":{"android":"levelo://app?vid=d185e7ab-9a4f-438d-b745-b73c8c083a92","ios":"levelo://app?vid=d185e7ab-9a4f-438d-b745-b73c8c083a92"},"vehicle_type_id":"4","last_reported":1723316764,"current_range_meters":31200,"station_id":"ce4bgop2rcd13ifvqc1g","pricing_plan_id":"cebpf4jnsgd1na2vs0mg"},{"bike_id":"2a86115d-6e3a-4ab7-8bf1-3241a84f6549","system_id":"levelo_inurba_marseille","lat":43.32265,"lon":5.3828,"is_reserved":false,"is_disabled":false,"rental_uris":{"android":"levelo://app?vid=2a86115d-6e3a-4ab7-8bf1-3241a84f6549","ios":"levelo://app?vid=2a86115d-6e3a-4ab7-8bf1-3241a84f6549"},"vehicle_type_id":"4","last_reported":1723316764,"current_range_meters":0,"station_id":"ce4bhr12rcd13ifvqhqg","pricing_plan_id":"cebpf4jnsgd1na2vs0mg"},{"bike_id":"f4d265a0-5139-46d0-9a6a-b1dfc6b81167","system_id":"levelo_inurba_marseille","lat":43.297774,"lon":5.370875,"is_reserved":false,"is_disabled":false,"rental_uris":{"android":"levelo://app?vid=f4d265a0-5139-46d0-9a6a-b1dfc6b81167","ios":"levelo://app?vid=f4d265a0-5139-46d0-9a6a-b1dfc6b81167"},"vehicle_type_id":"4","last_reported":1723316764,"current_range_meters":28000,"station_id":"ce4bgop2rcd13ifvqc1g","pricing_plan_id":"cebpf4jnsgd1na2vs0mg"},{"bike_id":"87bccaca-bef0-41fe-90f8-5fcfd86d0959","system_id":"levelo_inurba_marseille","lat":43.286595,"lon":5.386795,"is_reserved":false,"is_disabled":false,"rental_uris":{"android":"levelo://app?vid=87bccaca-bef0-41fe-90f8-5fcfd86d0959","ios":"levelo://app?vid=87bccaca-bef0-41fe-90f8-5fcfd86d0959"},"vehicle_type_id":"4","last_reported":1723316764,"current_range_meters":15600,"station_id":"ce4bh492rcd13ifvqdug","pricing_plan_id":"cebpf4jnsgd1na2vs0mg"},{"bike_id":"216240ef-238f-48ba-bd26-5d1c9cf540df","system_id":"levelo_inurba_marseille","lat":43.31456,"lon":5.38784,"is_reserved":false,"is_disabled":false,"rental_uris":{"android":"levelo://app?vid=216240ef-238f-48ba-bd26-5d1c9cf540df","ios":"levelo://app?vid=216240ef-238f-48ba-bd26-5d1c9cf540df"},"vehicle_type_id":"4","last_reported":1723316764,"current_range_meters":0,"station_id":"","pricing_plan_id":"cebpf4jnsgd1na2vs0mg"},{"bike_id":"09e5d79b-31ea-46c7-be26-3ef693448c5b","system_id":"levelo_inurba_marseille","lat":43.32536,"lon":5.37893,"is_reserved":false,"is_disabled":false,"rental_uris":{"android":"levelo://app?vid=09e5d79b-31ea-46c7-be26-3ef693448c5b","ios":"levelo://app?vid=09e5d79b-31ea-46c7-be26-3ef693448c5b"},"vehicle_type_id":"4","last_reported":1723316764,"current_range_meters":18800,"station_id":"","pricing_plan_id":"cebpf4jnsgd1na2vs0mg"},{"bike_id":"e405d2d5-f109-4ecd-9a83-41f1e6b49d79","system_id":"levelo_inurba_marseille","lat":43.297163,"lon":5.365866,"is_reserved":false,"is_disabled":false,"rental_uris":{"android":"levelo://app?vid=e405d2d5-f109-4ecd-9a83-41f1e6b49d79","ios":"levelo://app?vid=e405d2d5-f109-4ecd-9a83-41f1e6b49d79"},"vehicle_type_id":"4","last_reported":1723316764,"current_range_meters":30800,"station_id":"ce4bgn12rcd13ifvqbt0","pricing_plan_id":"cebpf4jnsgd1na2vs0mg"},{"bike_id":"66355bbc-9397-4be6-9bf7-4e0621079645","system_id":"levelo_inurba_marseille","lat":43.321023,"lon":5.385907,"is_reserved":false,"is_disabled":false,"rental_uris":{"android":"levelo://app?vid=66355bbc-9397-4be6-9bf7-4e0621079645","ios":"levelo://app?vid=66355bbc-9397-4be6-9bf7-4e0621079645"},"vehicle_type_id":"4","last_reported":1723316764,"current_range_meters":12400,"station_id":"","pricing_plan_id":"cebpf4jnsgd1na2vs0mg"},{"bike_id":"6976cc5f-a770-4979-86d9-62b7b1c2c0cf","system_id":"levelo_inurba_marseille","lat":43.32368,"lon":5.38347,"is_reserved":false,"is_disabled":false,"rental_uris":{"android":"levelo://app?vid=6976cc5f-a770-4979-86d9-62b7b1c2c0cf","ios":"levelo://app?vid=6976cc5f-a770-4979-86d9-62b7b1c2c0cf"},"vehicle_type_id":"4","last_reported":1723316764,"current_range_meters":11600,"station_id":"","pricing_plan_id":"cebpf4jnsgd1na2vs0mg"},{"bike_id":"a9b310b0-76fb-4884-bd5b-b7d92c2b9141","system_id":"levelo_inurba_marseille","lat":43.311722,"lon":5.387247,"is_reserved":false,"is_disabled":false,"rental_uris":{"android":"levelo://app?vid=a9b310b0-76fb-4884-bd5b-b7d92c2b9141","ios":"levelo://app?vid=a9b310b0-76fb-4884-bd5b-b7d92c2b9141"},"vehicle_type_id":"4","last_reported":1723316764,"current_range_meters":22000,"station_id":"ce4bgv12rcd13ifvqcp0","pricing_plan_id":"cebpf4jnsgd1na2vs0mg"},{"bike_id":"d2f1f884-b0fa-4c75-bc64-5267623598e5","system_id":"levelo_inurba_marseille","lat":43.296131,"lon":5.370773,"is_reserved":false,"is_disabled":false,"rental_uris":{"android":"levelo://app?vid=d2f1f884-b0fa-4c75-bc64-5267623598e5","ios":"levelo://app?vid=d2f1f884-b0fa-4c75-bc64-5267623598e5"},"vehicle_type_id":"4","last_reported":1723316764,"current_range_meters":0,"station_id":"ce4bgnh2rcd13ifvqc0g","pricing_plan_id":"cebpf4jnsgd1na2vs0mg"},{"bike_id":"c1dfcb38-ce1d-406d-8cc5-e6ba98595388","system_id":"levelo_inurba_marseille","lat":43.296131,"lon":5.370791,"is_reserved":false,"is_disabled":false,"rental_uris":{"android":"levelo://app?vid=c1dfcb38-ce1d-406d-8cc5-e6ba98595388","ios":"levelo://app?vid=c1dfcb38-ce1d-406d-8cc5-e6ba98595388"},"vehicle_type_id":"4","last_reported":1723316764,"current_range_meters":22000,"station_id":"ce4bgnh2rcd13ifvqc0g","pricing_plan_id":"cebpf4jnsgd1na2vs0mg"},{"bike_id":"ccf53036-5ce6-44af-9f51-6d527832e34f","system_id":"levelo_inurba_marseille","lat":43.29573,"lon":5.367355,"is_reserved":false,"is_disabled":false,"rental_uris":{"android":"levelo://app?vid=ccf53036-5ce6-44af-9f51-6d527832e34f","ios":"levelo://app?vid=ccf53036-5ce6-44af-9f51-6d527832e34f"},"vehicle_type_id":"4","last_reported":1723316764,"current_range_meters":27200,"station_id":"ce4bgph2rcd13ifvqc2g","pricing_plan_id":"cebpf4jnsgd1na2vs0mg"},{"bike_id":"d93a4f8e-fb66-44e0-977e-e43194d3b903","system_id":"levelo_inurba_marseille","lat":43.2958,"lon":5.36744,"is_reserved":false,"is_disabled":false,"rental_uris":{"android":"levelo://app?vid=d93a4f8e-fb66-44e0-977e-e43194d3b903","ios":"levelo://app?vid=d93a4f8e-fb66-44e0-977e-e43194d3b903"},"vehicle_type_id":"4","last_reported":1723316764,"current_range_meters":31200,"station_id":"ce4bgph2rcd13ifvqc2g","pricing_plan_id":"cebpf4jnsgd1na2vs0mg"},{"bike_id":"129a418a-1c07-4688-89d7-6193b75d7791","system_id":"levelo_inurba_marseille","lat":43.29573,"lon":5.367355,"is_reserved":false,"is_disabled":false,"rental_uris":{"android":"levelo://app?vid=129a418a-1c07-4688-89d7-6193b75d7791","ios":"levelo://app?vid=129a418a-1c07-4688-89d7-6193b75d7791"},"vehicle_type_id":"4","last_reported":1723316764,"current_range_meters":17600,"station_id":"ce4bgph2rcd13ifvqc2g","pricing_plan_id":"cebpf4jnsgd1na2vs0mg"},{"bike_id":"98cc245e-74ca-4b76-bc2c-09305532a499","system_id":"levelo_inurba_marseille","lat":43.29573,"lon":5.367355,"is_reserved":false,"is_disabled":false,"rental_uris":{"android":"levelo://app?vid=98cc245e-74ca-4b76-bc2c-09305532a499","ios":"levelo://app?vid=98cc245e-74ca-4b76-bc2c-09305532a499"},"vehicle_type_id":"4","last_reported":1723316764,"current_range_meters":3200,"station_id":"ce4bgph2rcd13ifvqc2g","pricing_plan_id":"cebpf4jnsgd1na2vs0mg"},{"bike_id":"2f765f6e-114a-46e3-b54c-951c91ea91d3","system_id":"levelo_inurba_marseille","lat":43.29573,"lon":5.367355,"is_reserved":false,"is_disabled":false,"rental_uris":{"android":"levelo://app?vid=2f765f6e-114a-46e3-b54c-951c91ea91d3","ios":"levelo://app?vid=2f765f6e-114a-46e3-b54c-951c91ea91d3"},"vehicle_type_id":"4","last_reported":1723316764,"current_range_meters":0,"station_id":"ce4bgph2rcd13ifvqc2g","pricing_plan_id":"cebpf4jnsgd1na2vs0mg"},{"bike_id":"fd1c9ceb-150e-4405-8ad8-561862c66bbc","system_id":"levelo_inurba_marseille","lat":43.29577,"lon":5.36745,"is_reserved":false,"is_disabled":false,"rental_uris":{"android":"levelo://app?vid=fd1c9ceb-150e-4405-8ad8-561862c66bbc","ios":"levelo://app?vid=fd1c9ceb-150e-4405-8ad8-561862c66bbc"},"vehicle_type_id":"4","last_reported":1723316764,"current_range_meters":400,"station_id":"ce4bgph2rcd13ifvqc2g","pricing_plan_id":"cebpf4jnsgd1na2vs0mg"},{"bike_id":"5da65492-2336-4b6e-93c1-9ac1f27f9db8","system_id":"levelo_inurba_marseille","lat":43.29577,"lon":5.36745,"is_reserved":false,"is_disabled":false,"rental_uris":{"android":"levelo://app?vid=5da65492-2336-4b6e-93c1-9ac1f27f9db8","ios":"levelo://app?vid=5da65492-2336-4b6e-93c1-9ac1f27f9db8"},"vehicle_type_id":"4","last_reported":1723316764,"current_range_meters":4000,"station_id":"ce4bgph2rcd13ifvqc2g","pricing_plan_id":"cebpf4jnsgd1na2vs0mg"},{"bike_id":"5bf074e4-d2b5-4879-a5ba-5bbbea0b5aca","system_id":"levelo_inurba_marseille","lat":43.29573,"lon":5.367355,"is_reserved":false,"is_disabled":false,"rental_uris":{"android":"levelo://app?vid=5bf074e4-d2b5-4879-a5ba-5bbbea0b5aca","ios":"levelo://app?vid=5bf074e4-d2b5-4879-a5ba-5bbbea0b5aca"},"vehicle_type_id":"4","last_reported":1723316764,"current_range_meters":18800,"station_id":"ce4bgph2rcd13ifvqc2g","pricing_plan_id":"cebpf4jnsgd1na2vs0mg"},{"bike_id":"6a8dc909-6f8a-4586-a746-9b6d668a32d3","system_id":"levelo_inurba_marseille","lat":43.296921,"lon":5.376579,"is_reserved":false,"is_disabled":false,"rental_uris":{"android":"levelo://app?vid=6a8dc909-6f8a-4586-a746-9b6d668a32d3","ios":"levelo://app?vid=6a8dc909-6f8a-4586-a746-9b6d668a32d3"},"vehicle_type_id":"4","last_reported":1723316764,"current_range_meters":28000,"station_id":"ce4bgkh2rcd13ifvqbl0","pricing_plan_id":"cebpf4jnsgd1na2vs0mg"},{"bike_id":"b4a3d2c7-98ad-4d50-a796-8f6ac26713b5","system_id":"levelo_inurba_marseille","lat":43.309589,"lon":5.390258,"is_reserved":false,"is_disabled":false,"rental_uris":{"android":"levelo://app?vid=b4a3d2c7-98ad-4d50-a796-8f6ac26713b5","ios":"levelo://app?vid=b4a3d2c7-98ad-4d50-a796-8f6ac26713b5"},"vehicle_type_id":"4","last_reported":1723316764,"current_range_meters":2400,"station_id":"ce4bgup2rcd13ifvqco0","pricing_plan_id":"cebpf4jnsgd1na2vs0mg"},{"bike_id":"96a57412-a3bf-4b68-8145-cabfc03bac73","system_id":"levelo_inurba_marseille","lat":43.30957,"lon":5.39026,"is_reserved":false,"is_disabled":false,"rental_uris":{"android":"levelo://app?vid=96a57412-a3bf-4b68-8145-cabfc03bac73","ios":"levelo://app?vid=96a57412-a3bf-4b68-8145-cabfc03bac73"},"vehicle_type_id":"4","last_reported":1723316764,"current_range_meters":16000,"station_id":"ce4bgup2rcd13ifvqco0","pricing_plan_id":"cebpf4jnsgd1na2vs0mg"},{"bike_id":"3a17d33e-f9a3-403e-b782-71fd2d9fdb9e","system_id":"levelo_inurba_marseille","lat":43.30948,"lon":5.39024,"is_reserved":false,"is_disabled":false,"rental_uris":{"android":"levelo://app?vid=3a17d33e-f9a3-403e-b782-71fd2d9fdb9e","ios":"levelo://app?vid=3a17d33e-f9a3-403e-b782-71fd2d9fdb9e"},"vehicle_type_id":"4","last_reported":1723316764,"current_range_meters":5200,"station_id":"ce4bgup2rcd13ifvqco0","pricing_plan_id":"cebpf4jnsgd1na2vs0mg"},{"bike_id":"f1e85753-47e5-45ba-a742-3ff06e39fbd5","system_id":"levelo_inurba_marseille","lat":43.321717,"lon":5.387213,"is_reserved":false,"is_disabled":false,"rental_uris":{"android":"levelo://app?vid=f1e85753-47e5-45ba-a742-3ff06e39fbd5","ios":"levelo://app?vid=f1e85753-47e5-45ba-a742-3ff06e39fbd5"},"vehicle_type_id":"4","last_reported":1723316764,"current_range_meters":14400,"station_id":"","pricing_plan_id":"cebpf4jnsgd1na2vs0mg"},{"bike_id":"9037f6ac-23be-43c8-8e3d-370f4f13b26f","system_id":"levelo_inurba_marseille","lat":43.30958,"lon":5.39027,"is_reserved":false,"is_disabled":false,"rental_uris":{"android":"levelo://app?vid=9037f6ac-23be-43c8-8e3d-370f4f13b26f","ios":"levelo://app?vid=9037f6ac-23be-43c8-8e3d-370f4f13b26f"},"vehicle_type_id":"4","last_reported":1723316764,"current_range_meters":14800,"station_id":"ce4bgup2rcd13ifvqco0","pricing_plan_id":"cebpf4jnsgd1na2vs0mg"},{"bike_id":"32283629-2c7c-49b4-abce-03b0ef181c15","system_id":"levelo_inurba_marseille","lat":43.3095,"lon":5.39025,"is_reserved":false,"is_disabled":false,"rental_uris":{"android":"levelo://app?vid=32283629-2c7c-49b4-abce-03b0ef181c15","ios":"levelo://app?vid=32283629-2c7c-49b4-abce-03b0ef181c15"},"vehicle_type_id":"4","last_reported":1723316764,"current_range_meters":26400,"station_id":"ce4bgup2rcd13ifvqco0","pricing_plan_id":"cebpf4jnsgd1na2vs0mg"},{"bike_id":"2cfe5029-691f-4fce-90d5-78376c717942","system_id":"levelo_inurba_marseille","lat":43.30951,"lon":5.39027,"is_reserved":false,"is_disabled":false,"rental_uris":{"android":"levelo://app?vid=2cfe5029-691f-4fce-90d5-78376c717942","ios":"levelo://app?vid=2cfe5029-691f-4fce-90d5-78376c717942"},"vehicle_type_id":"4","last_reported":1723316764,"current_range_meters":3600,"station_id":"ce4bgup2rcd13ifvqco0","pricing_plan_id":"cebpf4jnsgd1na2vs0mg"},{"bike_id":"814e183f-633f-43af-b00e-ee683b7891da","system_id":"levelo_inurba_marseille","lat":43.309589,"lon":5.390258,"is_reserved":false,"is_disabled":false,"rental_uris":{"android":"levelo://app?vid=814e183f-633f-43af-b00e-ee683b7891da","ios":"levelo://app?vid=814e183f-633f-43af-b00e-ee683b7891da"},"vehicle_type_id":"4","last_reported":1723316764,"current_range_meters":3600,"station_id":"ce4bgup2rcd13ifvqco0","pricing_plan_id":"cebpf4jnsgd1na2vs0mg"},{"bike_id":"eb1d0521-656d-4b1b-978a-a22f4569eac7","system_id":"levelo_inurba_marseille","lat":43.309472,"lon":5.390276,"is_reserved":false,"is_disabled":false,"rental_uris":{"android":"levelo://app?vid=eb1d0521-656d-4b1b-978a-a22f4569eac7","ios":"levelo://app?vid=eb1d0521-656d-4b1b-978a-a22f4569eac7"},"vehicle_type_id":"4","last_reported":1723316764,"current_range_meters":1200,"station_id":"ce4bgup2rcd13ifvqco0","pricing_plan_id":"cebpf4jnsgd1na2vs0mg"},{"bike_id":"66f98e29-af60-4414-9e02-61b0e77e4c5b","system_id":"levelo_inurba_marseille","lat":43.30947,"lon":5.39028,"is_reserved":false,"is_disabled":false,"rental_uris":{"android":"levelo://app?vid=66f98e29-af60-4414-9e02-61b0e77e4c5b","ios":"levelo://app?vid=66f98e29-af60-4414-9e02-61b0e77e4c5b"},"vehicle_type_id":"4","last_reported":1723316764,"current_range_meters":15600,"station_id":"ce4bgup2rcd13ifvqco0","pricing_plan_id":"cebpf4jnsgd1na2vs0mg"},{"bike_id":"45c3e543-5674-4604-8cc8-a4ab729acbf2","system_id":"levelo_inurba_marseille","lat":43.309589,"lon":5.390258,"is_reserved":false,"is_disabled":false,"rental_uris":{"android":"levelo://app?vid=45c3e543-5674-4604-8cc8-a4ab729acbf2","ios":"levelo://app?vid=45c3e543-5674-4604-8cc8-a4ab729acbf2"},"vehicle_type_id":"4","last_reported":1723316764,"current_range_meters":2400,"station_id":"ce4bgup2rcd13ifvqco0","pricing_plan_id":"cebpf4jnsgd1na2vs0mg"},{"bike_id":"505b3f49-ddab-4b72-a31a-8f4dfc263c2d","system_id":"levelo_inurba_marseille","lat":43.3095,"lon":5.3903,"is_reserved":false,"is_disabled":false,"rental_uris":{"android":"levelo://app?vid=505b3f49-ddab-4b72-a31a-8f4dfc263c2d","ios":"levelo://app?vid=505b3f49-ddab-4b72-a31a-8f4dfc263c2d"},"vehicle_type_id":"4","last_reported":1723316764,"current_range_meters":3600,"station_id":"ce4bgup2rcd13ifvqco0","pricing_plan_id":"cebpf4jnsgd1na2vs0mg"},{"bike_id":"9948ce3d-96cf-4a3d-94a1-3208624e7d76","system_id":"levelo_inurba_marseille","lat":43.3095,"lon":5.3903,"is_reserved":false,"is_disabled":false,"rental_uris":{"android":"levelo://app?vid=9948ce3d-96cf-4a3d-94a1-3208624e7d76","ios":"levelo://app?vid=9948ce3d-96cf-4a3d-94a1-3208624e7d76"},"vehicle_type_id":"4","last_reported":1723316764,"current_range_meters":26000,"station_id":"ce4bgup2rcd13ifvqco0","pricing_plan_id":"cebpf4jnsgd1na2vs0mg"},{"bike_id":"0d3c71ef-0be9-447c-a6a1-2b4997f30cdf","system_id":"levelo_inurba_marseille","lat":43.309589,"lon":5.390258,"is_reserved":false,"is_disabled":false,"rental_uris":{"android":"levelo://app?vid=0d3c71ef-0be9-447c-a6a1-2b4997f30cdf","ios":"levelo://app?vid=0d3c71ef-0be9-447c-a6a1-2b4997f30cdf"},"vehicle_type_id":"4","last_reported":1723316764,"current_range_meters":10400,"station_id":"ce4bgup2rcd13ifvqco0","pricing_plan_id":"cebpf4jnsgd1na2vs0mg"},{"bike_id":"f7501d24-b213-47db-a43d-654f4b5ef324","system_id":"levelo_inurba_marseille","lat":43.3095,"lon":5.39031,"is_reserved":false,"is_disabled":false,"rental_uris":{"android":"levelo://app?vid=f7501d24-b213-47db-a43d-654f4b5ef324","ios":"levelo://app?vid=f7501d24-b213-47db-a43d-654f4b5ef324"},"vehicle_type_id":"4","last_reported":1723316764,"current_range_meters":16000,"station_id":"ce4bgup2rcd13ifvqco0","pricing_plan_id":"cebpf4jnsgd1na2vs0mg"},{"bike_id":"fa6c201f-d501-4af4-aecc-e331cdbe3645","system_id":"levelo_inurba_marseille","lat":43.30946,"lon":5.3903,"is_reserved":false,"is_disabled":false,"rental_uris":{"android":"levelo://app?vid=fa6c201f-d501-4af4-aecc-e331cdbe3645","ios":"levelo://app?vid=fa6c201f-d501-4af4-aecc-e331cdbe3645"},"vehicle_type_id":"4","last_reported":1723316764,"current_range_meters":0,"station_id":"ce4bgup2rcd13ifvqco0","pricing_plan_id":"cebpf4jnsgd1na2vs0mg"},{"bike_id":"0d241242-189e-46f1-9bd1-e6d72d0b83d6","system_id":"levelo_inurba_marseille","lat":43.309589,"lon":5.390258,"is_reserved":false,"is_disabled":false,"rental_uris":{"android":"levelo://app?vid=0d241242-189e-46f1-9bd1-e6d72d0b83d6","ios":"levelo://app?vid=0d241242-189e-46f1-9bd1-e6d72d0b83d6"},"vehicle_type_id":"4","last_reported":1723316764,"current_range_meters":6000,"station_id":"ce4bgup2rcd13ifvqco0","pricing_plan_id":"cebpf4jnsgd1na2vs0mg"},{"bike_id":"0468fece-c4e4-415c-af3e-20f42222372b","system_id":"levelo_inurba_marseille","lat":43.309589,"lon":5.390258,"is_reserved":false,"is_disabled":false,"rental_uris":{"android":"levelo://app?vid=0468fece-c4e4-415c-af3e-20f42222372b","ios":"levelo://app?vid=0468fece-c4e4-415c-af3e-20f42222372b"},"vehicle_type_id":"4","last_reported":1723316764,"current_range_meters":8400,"station_id":"ce4bgup2rcd13ifvqco0","pricing_plan_id":"cebpf4jnsgd1na2vs0mg"},{"bike_id":"9bc8238c-df9c-415b-9e36-6c9bb28e536b","system_id":"levelo_inurba_marseille","lat":43.309437,"lon":5.39031,"is_reserved":false,"is_disabled":false,"rental_uris":{"android":"levelo://app?vid=9bc8238c-df9c-415b-9e36-6c9bb28e536b","ios":"levelo://app?vid=9bc8238c-df9c-415b-9e36-6c9bb28e536b"},"vehicle_type_id":"4","last_reported":1723316764,"current_range_meters":10400,"station_id":"ce4bgup2rcd13ifvqco0","pricing_plan_id":"cebpf4jnsgd1na2vs0mg"},{"bike_id":"031a09c0-198a-49f1-9c3d-99ca5619b97f","system_id":"levelo_inurba_marseille","lat":43.3095,"lon":5.39033,"is_reserved":false,"is_disabled":false,"rental_uris":{"android":"levelo://app?vid=031a09c0-198a-49f1-9c3d-99ca5619b97f","ios":"levelo://app?vid=031a09c0-198a-49f1-9c3d-99ca5619b97f"},"vehicle_type_id":"4","last_reported":1723316764,"current_range_meters":0,"station_id":"ce4bgup2rcd13ifvqco0","pricing_plan_id":"cebpf4jnsgd1na2vs0mg"},{"bike_id":"c8eb1942-67a9-4a2d-8723-2ab8682ba668","system_id":"levelo_inurba_marseille","lat":43.309589,"lon":5.390258,"is_reserved":false,"is_disabled":false,"rental_uris":{"android":"levelo://app?vid=c8eb1942-67a9-4a2d-8723-2ab8682ba668","ios":"levelo://app?vid=c8eb1942-67a9-4a2d-8723-2ab8682ba668"},"vehicle_type_id":"4","last_reported":1723316764,"current_range_meters":3600,"station_id":"ce4bgup2rcd13ifvqco0","pricing_plan_id":"cebpf4jnsgd1na2vs0mg"},{"bike_id":"5ad5d1dc-2033-4629-9fe0-84758fcaff6c","system_id":"levelo_inurba_marseille","lat":43.30952,"lon":5.39034,"is_reserved":false,"is_disabled":false,"rental_uris":{"android":"levelo://app?vid=5ad5d1dc-2033-4629-9fe0-84758fcaff6c","ios":"levelo://app?vid=5ad5d1dc-2033-4629-9fe0-84758fcaff6c"},"vehicle_type_id":"4","last_reported":1723316764,"current_range_meters":4000,"station_id":"ce4bgup2rcd13ifvqco0","pricing_plan_id":"cebpf4jnsgd1na2vs0mg"},{"bike_id":"874df5fe-0f22-4516-ac2f-cf69452bccce","system_id":"levelo_inurba_marseille","lat":43.309589,"lon":5.390258,"is_reserved":false,"is_disabled":false,"rental_uris":{"android":"levelo://app?vid=874df5fe-0f22-4516-ac2f-cf69452bccce","ios":"levelo://app?vid=874df5fe-0f22-4516-ac2f-cf69452bccce"},"vehicle_type_id":"4","last_reported":1723316764,"current_range_meters":0,"station_id":"ce4bgup2rcd13ifvqco0","pricing_plan_id":"cebpf4jnsgd1na2vs0mg"},{"bike_id":"40ee44cb-d6c1-451f-b81f-e385396c6d6a","system_id":"levelo_inurba_marseille","lat":43.30957,"lon":5.39036,"is_reserved":false,"is_disabled":false,"rental_uris":{"android":"levelo://app?vid=40ee44cb-d6c1-451f-b81f-e385396c6d6a","ios":"levelo://app?vid=40ee44cb-d6c1-451f-b81f-e385396c6d6a"},"vehicle_type_id":"4","last_reported":1723316764,"current_range_meters":0,"station_id":"ce4bgup2rcd13ifvqco0","pricing_plan_id":"cebpf4jnsgd1na2vs0mg"},{"bike_id":"974a6123-35f6-42a1-b92e-05d23f5cd3ac","system_id":"levelo_inurba_marseille","lat":43.309589,"lon":5.390258,"is_reserved":false,"is_disabled":false,"rental_uris":{"android":"levelo://app?vid=974a6123-35f6-42a1-b92e-05d23f5cd3ac","ios":"levelo://app?vid=974a6123-35f6-42a1-b92e-05d23f5cd3ac"},"vehicle_type_id":"4","last_reported":1723316764,"current_range_meters":6400,"station_id":"ce4bgup2rcd13ifvqco0","pricing_plan_id":"cebpf4jnsgd1na2vs0mg"},{"bike_id":"2da61af8-ddae-4c92-a21b-7bdd9dc599a2","system_id":"levelo_inurba_marseille","lat":43.309589,"lon":5.390258,"is_reserved":false,"is_disabled":false,"rental_uris":{"android":"levelo://app?vid=2da61af8-ddae-4c92-a21b-7bdd9dc599a2","ios":"levelo://app?vid=2da61af8-ddae-4c92-a21b-7bdd9dc599a2"},"vehicle_type_id":"4","last_reported":1723316764,"current_range_meters":1600,"station_id":"ce4bgup2rcd13ifvqco0","pricing_plan_id":"cebpf4jnsgd1na2vs0mg"},{"bike_id":"88c0b240-a931-476f-aaf4-232e8ac025de","system_id":"levelo_inurba_marseille","lat":43.30949,"lon":5.39034,"is_reserved":false,"is_disabled":false,"rental_uris":{"android":"levelo://app?vid=88c0b240-a931-476f-aaf4-232e8ac025de","ios":"levelo://app?vid=88c0b240-a931-476f-aaf4-232e8ac025de"},"vehicle_type_id":"4","last_reported":1723316764,"current_range_meters":26000,"station_id":"ce4bgup2rcd13ifvqco0","pricing_plan_id":"cebpf4jnsgd1na2vs0mg"},{"bike_id":"b10dc069-4cd5-425c-9513-46d273477fcc","system_id":"levelo_inurba_marseille","lat":43.30953,"lon":5.39036,"is_reserved":false,"is_disabled":false,"rental_uris":{"android":"levelo://app?vid=b10dc069-4cd5-425c-9513-46d273477fcc","ios":"levelo://app?vid=b10dc069-4cd5-425c-9513-46d273477fcc"},"vehicle_type_id":"4","last_reported":1723316764,"current_range_meters":25600,"station_id":"ce4bgup2rcd13ifvqco0","pricing_plan_id":"cebpf4jnsgd1na2vs0mg"},{"bike_id":"c565cdfa-266b-4a49-a80c-f71f0c012d8d","system_id":"levelo_inurba_marseille","lat":43.309589,"lon":5.390258,"is_reserved":false,"is_disabled":false,"rental_uris":{"android":"levelo://app?vid=c565cdfa-266b-4a49-a80c-f71f0c012d8d","ios":"levelo://app?vid=c565cdfa-266b-4a49-a80c-f71f0c012d8d"},"vehicle_type_id":"4","last_reported":1723316764,"current_range_meters":11600,"station_id":"ce4bgup2rcd13ifvqco0","pricing_plan_id":"cebpf4jnsgd1na2vs0mg"},{"bike_id":"c5812d42-172c-43c9-bce8-a67683fe85f4","system_id":"levelo_inurba_marseille","lat":43.30947,"lon":5.39035,"is_reserved":false,"is_disabled":false,"rental_uris":{"android":"levelo://app?vid=c5812d42-172c-43c9-bce8-a67683fe85f4","ios":"levelo://app?vid=c5812d42-172c-43c9-bce8-a67683fe85f4"},"vehicle_type_id":"4","last_reported":1723316764,"current_range_meters":23600,"station_id":"ce4bgup2rcd13ifvqco0","pricing_plan_id":"cebpf4jnsgd1na2vs0mg"},{"bike_id":"625cbb1c-6ca1-4827-aa47-e6a33b8b983a","system_id":"levelo_inurba_marseille","lat":43.30946,"lon":5.39035,"is_reserved":false,"is_disabled":false,"rental_uris":{"android":"levelo://app?vid=625cbb1c-6ca1-4827-aa47-e6a33b8b983a","ios":"levelo://app?vid=625cbb1c-6ca1-4827-aa47-e6a33b8b983a"},"vehicle_type_id":"4","last_reported":1723316764,"current_range_meters":17600,"station_id":"ce4bgup2rcd13ifvqco0","pricing_plan_id":"cebpf4jnsgd1na2vs0mg"},{"bike_id":"85e9f77e-b8c8-4c14-bf95-d82b01dd6649","system_id":"levelo_inurba_marseille","lat":43.309589,"lon":5.390258,"is_reserved":false,"is_disabled":false,"rental_uris":{"android":"levelo://app?vid=85e9f77e-b8c8-4c14-bf95-d82b01dd6649","ios":"levelo://app?vid=85e9f77e-b8c8-4c14-bf95-d82b01dd6649"},"vehicle_type_id":"4","last_reported":1723316764,"current_range_meters":9600,"station_id":"ce4bgup2rcd13ifvqco0","pricing_plan_id":"cebpf4jnsgd1na2vs0mg"},{"bike_id":"57c91da2-bb34-4db4-af1d-1224ca1804eb","system_id":"levelo_inurba_marseille","lat":43.30956,"lon":5.39038,"is_reserved":false,"is_disabled":false,"rental_uris":{"android":"levelo://app?vid=57c91da2-bb34-4db4-af1d-1224ca1804eb","ios":"levelo://app?vid=57c91da2-bb34-4db4-af1d-1224ca1804eb"},"vehicle_type_id":"4","last_reported":1723316764,"current_range_meters":4800,"station_id":"ce4bgup2rcd13ifvqco0","pricing_plan_id":"cebpf4jnsgd1na2vs0mg"},{"bike_id":"1149974b-5971-46f0-8b83-8f3f2681896f","system_id":"levelo_inurba_marseille","lat":43.30948,"lon":5.39036,"is_reserved":false,"is_disabled":false,"rental_uris":{"android":"levelo://app?vid=1149974b-5971-46f0-8b83-8f3f2681896f","ios":"levelo://app?vid=1149974b-5971-46f0-8b83-8f3f2681896f"},"vehicle_type_id":"4","last_reported":1723316764,"current_range_meters":14000,"station_id":"ce4bgup2rcd13ifvqco0","pricing_plan_id":"cebpf4jnsgd1na2vs0mg"},{"bike_id":"f80974fe-cb31-4a75-a5fd-83941f570d92","system_id":"levelo_inurba_marseille","lat":43.30943,"lon":5.39036,"is_reserved":false,"is_disabled":false,"rental_uris":{"android":"levelo://app?vid=f80974fe-cb31-4a75-a5fd-83941f570d92","ios":"levelo://app?vid=f80974fe-cb31-4a75-a5fd-83941f570d92"},"vehicle_type_id":"4","last_reported":1723316764,"current_range_meters":0,"station_id":"ce4bgup2rcd13ifvqco0","pricing_plan_id":"cebpf4jnsgd1na2vs0mg"},{"bike_id":"3cfa0e18-e80c-46b4-ab41-e04e7e9d33b2","system_id":"levelo_inurba_marseille","lat":43.309589,"lon":5.390258,"is_reserved":false,"is_disabled":false,"rental_uris":{"android":"levelo://app?vid=3cfa0e18-e80c-46b4-ab41-e04e7e9d33b2","ios":"levelo://app?vid=3cfa0e18-e80c-46b4-ab41-e04e7e9d33b2"},"vehicle_type_id":"4","last_reported":1723316764,"current_range_meters":2400,"station_id":"ce4bgup2rcd13ifvqco0","pricing_plan_id":"cebpf4jnsgd1na2vs0mg"},{"bike_id":"0dc23264-321d-4e06-8344-83139f3b8460","system_id":"levelo_inurba_marseille","lat":43.309589,"lon":5.390258,"is_reserved":false,"is_disabled":false,"rental_uris":{"android":"levelo://app?vid=0dc23264-321d-4e06-8344-83139f3b8460","ios":"levelo://app?vid=0dc23264-321d-4e06-8344-83139f3b8460"},"vehicle_type_id":"4","last_reported":1723316764,"current_range_meters":0,"station_id":"ce4bgup2rcd13ifvqco0","pricing_plan_id":"cebpf4jnsgd1na2vs0mg"},{"bike_id":"00d43f39-f556-4d50-bbb5-dbbfdd456128","system_id":"levelo_inurba_marseille","lat":43.30947,"lon":5.39039,"is_reserved":false,"is_disabled":false,"rental_uris":{"android":"levelo://app?vid=00d43f39-f556-4d50-bbb5-dbbfdd456128","ios":"levelo://app?vid=00d43f39-f556-4d50-bbb5-dbbfdd456128"},"vehicle_type_id":"4","last_reported":1723316764,"current_range_meters":6800,"station_id":"ce4bgup2rcd13ifvqco0","pricing_plan_id":"cebpf4jnsgd1na2vs0mg"},{"bike_id":"488a79c1-bbaa-46d7-bbf3-664d3a8a4315","system_id":"levelo_inurba_marseille","lat":43.30943,"lon":5.39038,"is_reserved":false,"is_disabled":false,"rental_uris":{"android":"levelo://app?vid=488a79c1-bbaa-46d7-bbf3-664d3a8a4315","ios":"levelo://app?vid=488a79c1-bbaa-46d7-bbf3-664d3a8a4315"},"vehicle_type_id":"4","last_reported":1723316764,"current_range_meters":13600,"station_id":"","pricing_plan_id":"cebpf4jnsgd1na2vs0mg"},{"bike_id":"329c1f27-f92c-44bb-b13d-396b40a4289e","system_id":"levelo_inurba_marseille","lat":43.309589,"lon":5.390258,"is_reserved":false,"is_disabled":false,"rental_uris":{"android":"levelo://app?vid=329c1f27-f92c-44bb-b13d-396b40a4289e","ios":"levelo://app?vid=329c1f27-f92c-44bb-b13d-396b40a4289e"},"vehicle_type_id":"4","last_reported":1723316764,"current_range_meters":6000,"station_id":"ce4bgup2rcd13ifvqco0","pricing_plan_id":"cebpf4jnsgd1na2vs0mg"},{"bike_id":"e53450e7-7585-41f2-9065-6d8d000897a6","system_id":"levelo_inurba_marseille","lat":43.309503,"lon":5.390402,"is_reserved":false,"is_disabled":false,"rental_uris":{"android":"levelo://app?vid=e53450e7-7585-41f2-9065-6d8d000897a6","ios":"levelo://app?vid=e53450e7-7585-41f2-9065-6d8d000897a6"},"vehicle_type_id":"4","last_reported":1723316764,"current_range_meters":800,"station_id":"","pricing_plan_id":"cebpf4jnsgd1na2vs0mg"},{"bike_id":"6e02b35c-a056-48b0-a805-1e9b11cacd15","system_id":"levelo_inurba_marseille","lat":43.309589,"lon":5.390258,"is_reserved":false,"is_disabled":false,"rental_uris":{"android":"levelo://app?vid=6e02b35c-a056-48b0-a805-1e9b11cacd15","ios":"levelo://app?vid=6e02b35c-a056-48b0-a805-1e9b11cacd15"},"vehicle_type_id":"4","last_reported":1723316764,"current_range_meters":26800,"station_id":"ce4bgup2rcd13ifvqco0","pricing_plan_id":"cebpf4jnsgd1na2vs0mg"},{"bike_id":"619a7538-8d3b-4716-b49b-095264d17479","system_id":"levelo_inurba_marseille","lat":43.309589,"lon":5.390258,"is_reserved":false,"is_disabled":false,"rental_uris":{"android":"levelo://app?vid=619a7538-8d3b-4716-b49b-095264d17479","ios":"levelo://app?vid=619a7538-8d3b-4716-b49b-095264d17479"},"vehicle_type_id":"4","last_reported":1723316764,"current_range_meters":3600,"station_id":"ce4bgup2rcd13ifvqco0","pricing_plan_id":"cebpf4jnsgd1na2vs0mg"},{"bike_id":"cb1a868d-8392-4ddf-9429-3cc758b85107","system_id":"levelo_inurba_marseille","lat":43.309589,"lon":5.390258,"is_reserved":false,"is_disabled":false,"rental_uris":{"android":"levelo://app?vid=cb1a868d-8392-4ddf-9429-3cc758b85107","ios":"levelo://app?vid=cb1a868d-8392-4ddf-9429-3cc758b85107"},"vehicle_type_id":"4","last_reported":1723316764,"current_range_meters":23600,"station_id":"ce4bgup2rcd13ifvqco0","pricing_plan_id":"cebpf4jnsgd1na2vs0mg"},{"bike_id":"8edfdc0a-fab1-49cb-9cb6-e0142a389875","system_id":"levelo_inurba_marseille","lat":43.309589,"lon":5.390258,"is_reserved":false,"is_disabled":false,"rental_uris":{"android":"levelo://app?vid=8edfdc0a-fab1-49cb-9cb6-e0142a389875","ios":"levelo://app?vid=8edfdc0a-fab1-49cb-9cb6-e0142a389875"},"vehicle_type_id":"4","last_reported":1723316764,"current_range_meters":23600,"station_id":"ce4bgup2rcd13ifvqco0","pricing_plan_id":"cebpf4jnsgd1na2vs0mg"},{"bike_id":"23122c95-2c84-47e9-b652-836c29f900a0","system_id":"levelo_inurba_marseille","lat":43.317557,"lon":5.390173,"is_reserved":false,"is_disabled":false,"rental_uris":{"android":"levelo://app?vid=23122c95-2c84-47e9-b652-836c29f900a0","ios":"levelo://app?vid=23122c95-2c84-47e9-b652-836c29f900a0"},"vehicle_type_id":"4","last_reported":1723316764,"current_range_meters":9600,"station_id":"ce4bhqp2rcd13ifvqhng","pricing_plan_id":"cebpf4jnsgd1na2vs0mg"},{"bike_id":"f88410b2-73f2-44e7-b18b-d730703cd0a7","system_id":"levelo_inurba_marseille","lat":43.317557,"lon":5.390173,"is_reserved":false,"is_disabled":false,"rental_uris":{"android":"levelo://app?vid=f88410b2-73f2-44e7-b18b-d730703cd0a7","ios":"levelo://app?vid=f88410b2-73f2-44e7-b18b-d730703cd0a7"},"vehicle_type_id":"4","last_reported":1723316764,"current_range_meters":29200,"station_id":"ce4bhqp2rcd13ifvqhng","pricing_plan_id":"cebpf4jnsgd1na2vs0mg"},{"bike_id":"8b66f2c7-6560-4ee5-b3b9-204f2c1c6140","system_id":"levelo_inurba_marseille","lat":43.317557,"lon":5.390173,"is_reserved":false,"is_disabled":false,"rental_uris":{"android":"levelo://app?vid=8b66f2c7-6560-4ee5-b3b9-204f2c1c6140","ios":"levelo://app?vid=8b66f2c7-6560-4ee5-b3b9-204f2c1c6140"},"vehicle_type_id":"4","last_reported":1723316764,"current_range_meters":6400,"station_id":"ce4bhqp2rcd13ifvqhng","pricing_plan_id":"cebpf4jnsgd1na2vs0mg"},{"bike_id":"3021a6b7-f7e9-4715-ad89-29a57b1c4d6b","system_id":"levelo_inurba_marseille","lat":43.295748,"lon":5.37522,"is_reserved":false,"is_disabled":false,"rental_uris":{"android":"levelo://app?vid=3021a6b7-f7e9-4715-ad89-29a57b1c4d6b","ios":"levelo://app?vid=3021a6b7-f7e9-4715-ad89-29a57b1c4d6b"},"vehicle_type_id":"4","last_reported":1723316764,"current_range_meters":12800,"station_id":"ce4bgh92rcd13ifvqb50","pricing_plan_id":"cebpf4jnsgd1na2vs0mg"},{"bike_id":"a7a2836d-b3c5-4ddf-a8ea-d33947d98329","system_id":"levelo_inurba_marseille","lat":43.295748,"lon":5.37522,"is_reserved":false,"is_disabled":false,"rental_uris":{"android":"levelo://app?vid=a7a2836d-b3c5-4ddf-a8ea-d33947d98329","ios":"levelo://app?vid=a7a2836d-b3c5-4ddf-a8ea-d33947d98329"},"vehicle_type_id":"4","last_reported":1723316764,"current_range_meters":31600,"station_id":"ce4bgh92rcd13ifvqb50","pricing_plan_id":"cebpf4jnsgd1na2vs0mg"},{"bike_id":"f39518b6-ae1d-4cdd-8ae4-806d9701b98b","system_id":"levelo_inurba_marseille","lat":43.295748,"lon":5.37522,"is_reserved":false,"is_disabled":false,"rental_uris":{"android":"levelo://app?vid=f39518b6-ae1d-4cdd-8ae4-806d9701b98b","ios":"levelo://app?vid=f39518b6-ae1d-4cdd-8ae4-806d9701b98b"},"vehicle_type_id":"4","last_reported":1723316764,"current_range_meters":30400,"station_id":"ce4bgh92rcd13ifvqb50","pricing_plan_id":"cebpf4jnsgd1na2vs0mg"},{"bike_id":"12ab1430-1c89-40c3-8a14-634040e03bb6","system_id":"levelo_inurba_marseille","lat":43.29609,"lon":5.37717,"is_reserved":false,"is_disabled":false,"rental_uris":{"android":"levelo://app?vid=12ab1430-1c89-40c3-8a14-634040e03bb6","ios":"levelo://app?vid=12ab1430-1c89-40c3-8a14-634040e03bb6"},"vehicle_type_id":"4","last_reported":1723316764,"current_range_meters":26800,"station_id":"ce4bgi92rcd13ifvqb90","pricing_plan_id":"cebpf4jnsgd1na2vs0mg"},{"bike_id":"7c5451c2-0b77-4656-9ca7-df81e47a63ea","system_id":"levelo_inurba_marseille","lat":43.295279,"lon":5.375048,"is_reserved":false,"is_disabled":false,"rental_uris":{"android":"levelo://app?vid=7c5451c2-0b77-4656-9ca7-df81e47a63ea","ios":"levelo://app?vid=7c5451c2-0b77-4656-9ca7-df81e47a63ea"},"vehicle_type_id":"4","last_reported":1723316764,"current_range_meters":14000,"station_id":"ce4bgkp2rcd13ifvqbmg","pricing_plan_id":"cebpf4jnsgd1na2vs0mg"},{"bike_id":"8b514307-b2eb-42da-b08e-dc8982f07a14","system_id":"levelo_inurba_marseille","lat":43.29525,"lon":5.37497,"is_reserved":false,"is_disabled":false,"rental_uris":{"android":"levelo://app?vid=8b514307-b2eb-42da-b08e-dc8982f07a14","ios":"levelo://app?vid=8b514307-b2eb-42da-b08e-dc8982f07a14"},"vehicle_type_id":"4","last_reported":1723316764,"current_range_meters":400,"station_id":"ce4bgkp2rcd13ifvqbmg","pricing_plan_id":"cebpf4jnsgd1na2vs0mg"},{"bike_id":"5e787290-b848-42ea-96a5-c44f9816280b","system_id":"levelo_inurba_marseille","lat":43.295279,"lon":5.375048,"is_reserved":false,"is_disabled":false,"rental_uris":{"android":"levelo://app?vid=5e787290-b848-42ea-96a5-c44f9816280b","ios":"levelo://app?vid=5e787290-b848-42ea-96a5-c44f9816280b"},"vehicle_type_id":"4","last_reported":1723316764,"current_range_meters":6800,"station_id":"ce4bgkp2rcd13ifvqbmg","pricing_plan_id":"cebpf4jnsgd1na2vs0mg"},{"bike_id":"f1510690-46d9-4c3d-bd5f-ea63ad39f49d","system_id":"levelo_inurba_marseille","lat":43.299724,"lon":5.384848,"is_reserved":false,"is_disabled":false,"rental_uris":{"android":"levelo://app?vid=f1510690-46d9-4c3d-bd5f-ea63ad39f49d","ios":"levelo://app?vid=f1510690-46d9-4c3d-bd5f-ea63ad39f49d"},"vehicle_type_id":"4","last_reported":1723316764,"current_range_meters":25200,"station_id":"ce4bgj92rcd13ifvqbd0","pricing_plan_id":"cebpf4jnsgd1na2vs0mg"},{"bike_id":"a81ff2d2-3302-40c2-87b7-2e7b4dcc986d","system_id":"levelo_inurba_marseille","lat":43.301396,"lon":5.387812,"is_reserved":false,"is_disabled":false,"rental_uris":{"android":"levelo://app?vid=a81ff2d2-3302-40c2-87b7-2e7b4dcc986d","ios":"levelo://app?vid=a81ff2d2-3302-40c2-87b7-2e7b4dcc986d"},"vehicle_type_id":"4","last_reported":1723316764,"current_range_meters":0,"station_id":"ce4bghh2rcd13ifvqb60","pricing_plan_id":"cebpf4jnsgd1na2vs0mg"},{"bike_id":"a917d4ec-2a29-453d-9d17-bf2cd324783f","system_id":"levelo_inurba_marseille","lat":43.301396,"lon":5.387812,"is_reserved":false,"is_disabled":false,"rental_uris":{"android":"levelo://app?vid=a917d4ec-2a29-453d-9d17-bf2cd324783f","ios":"levelo://app?vid=a917d4ec-2a29-453d-9d17-bf2cd324783f"},"vehicle_type_id":"4","last_reported":1723316764,"current_range_meters":0,"station_id":"ce4bghh2rcd13ifvqb60","pricing_plan_id":"cebpf4jnsgd1na2vs0mg"},{"bike_id":"91daaeea-8eb0-4fc4-a8b7-4ac2e23b5712","system_id":"levelo_inurba_marseille","lat":43.32367,"lon":5.388836,"is_reserved":false,"is_disabled":false,"rental_uris":{"android":"levelo://app?vid=91daaeea-8eb0-4fc4-a8b7-4ac2e23b5712","ios":"levelo://app?vid=91daaeea-8eb0-4fc4-a8b7-4ac2e23b5712"},"vehicle_type_id":"4","last_reported":1723316764,"current_range_meters":26000,"station_id":"ce4bhqp2rcd13ifvqhog","pricing_plan_id":"cebpf4jnsgd1na2vs0mg"},{"bike_id":"d3adaa6d-5d32-4ede-bf47-96d92c6897eb","system_id":"levelo_inurba_marseille","lat":43.32367,"lon":5.388836,"is_reserved":false,"is_disabled":false,"rental_uris":{"android":"levelo://app?vid=d3adaa6d-5d32-4ede-bf47-96d92c6897eb","ios":"levelo://app?vid=d3adaa6d-5d32-4ede-bf47-96d92c6897eb"},"vehicle_type_id":"4","last_reported":1723316764,"current_range_meters":10400,"station_id":"ce4bhqp2rcd13ifvqhog","pricing_plan_id":"cebpf4jnsgd1na2vs0mg"},{"bike_id":"e3201a85-5419-4638-af84-5a7909486569","system_id":"levelo_inurba_marseille","lat":43.32367,"lon":5.388836,"is_reserved":false,"is_disabled":false,"rental_uris":{"android":"levelo://app?vid=e3201a85-5419-4638-af84-5a7909486569","ios":"levelo://app?vid=e3201a85-5419-4638-af84-5a7909486569"},"vehicle_type_id":"4","last_reported":1723316764,"current_range_meters":16400,"station_id":"ce4bhqp2rcd13ifvqhog","pricing_plan_id":"cebpf4jnsgd1na2vs0mg"},{"bike_id":"84e59c42-1cb4-4ab9-83a2-56cfba8fca79","system_id":"levelo_inurba_marseille","lat":43.32367,"lon":5.388836,"is_reserved":false,"is_disabled":false,"rental_uris":{"android":"levelo://app?vid=84e59c42-1cb4-4ab9-83a2-56cfba8fca79","ios":"levelo://app?vid=84e59c42-1cb4-4ab9-83a2-56cfba8fca79"},"vehicle_type_id":"4","last_reported":1723316764,"current_range_meters":21600,"station_id":"ce4bhqp2rcd13ifvqhog","pricing_plan_id":"cebpf4jnsgd1na2vs0mg"},{"bike_id":"e96da904-fdd9-4738-b543-34abe7be90d2","system_id":"levelo_inurba_marseille","lat":43.29602,"lon":5.381084,"is_reserved":false,"is_disabled":false,"rental_uris":{"android":"levelo://app?vid=e96da904-fdd9-4738-b543-34abe7be90d2","ios":"levelo://app?vid=e96da904-fdd9-4738-b543-34abe7be90d2"},"vehicle_type_id":"4","last_reported":1723316764,"current_range_meters":31200,"station_id":"ce4bgl12rcd13ifvqbo0","pricing_plan_id":"cebpf4jnsgd1na2vs0mg"},{"bike_id":"23949995-c082-4641-b949-9d2000457f7a","system_id":"levelo_inurba_marseille","lat":43.32385,"lon":5.38923,"is_reserved":false,"is_disabled":false,"rental_uris":{"android":"levelo://app?vid=23949995-c082-4641-b949-9d2000457f7a","ios":"levelo://app?vid=23949995-c082-4641-b949-9d2000457f7a"},"vehicle_type_id":"4","last_reported":1723316764,"current_range_meters":0,"station_id":"ce4bhqp2rcd13ifvqhog","pricing_plan_id":"cebpf4jnsgd1na2vs0mg"},{"bike_id":"2bf7144e-7177-4bdb-b3c3-f3d139fcd229","system_id":"levelo_inurba_marseille","lat":43.293249,"lon":5.371578,"is_reserved":false,"is_disabled":false,"rental_uris":{"android":"levelo://app?vid=2bf7144e-7177-4bdb-b3c3-f3d139fcd229","ios":"levelo://app?vid=2bf7144e-7177-4bdb-b3c3-f3d139fcd229"},"vehicle_type_id":"4","last_reported":1723316764,"current_range_meters":26800,"station_id":"ce4bgh92rcd13ifvqb40","pricing_plan_id":"cebpf4jnsgd1na2vs0mg"},{"bike_id":"b18e5980-87d0-48a5-9574-f1c4cc89cd0f","system_id":"levelo_inurba_marseille","lat":43.292749,"lon":5.368402,"is_reserved":false,"is_disabled":false,"rental_uris":{"android":"levelo://app?vid=b18e5980-87d0-48a5-9574-f1c4cc89cd0f","ios":"levelo://app?vid=b18e5980-87d0-48a5-9574-f1c4cc89cd0f"},"vehicle_type_id":"4","last_reported":1723316764,"current_range_meters":31200,"station_id":"ce4bhbp2rcd13ifvqesg","pricing_plan_id":"cebpf4jnsgd1na2vs0mg"},{"bike_id":"9071e83b-04cb-4080-9fc9-0b4aaedf649f","system_id":"levelo_inurba_marseille","lat":43.292749,"lon":5.368402,"is_reserved":false,"is_disabled":false,"rental_uris":{"android":"levelo://app?vid=9071e83b-04cb-4080-9fc9-0b4aaedf649f","ios":"levelo://app?vid=9071e83b-04cb-4080-9fc9-0b4aaedf649f"},"vehicle_type_id":"4","last_reported":1723316764,"current_range_meters":0,"station_id":"ce4bhbp2rcd13ifvqesg","pricing_plan_id":"cebpf4jnsgd1na2vs0mg"},{"bike_id":"a58f4f96-be72-435e-b176-503358723f3e","system_id":"levelo_inurba_marseille","lat":43.292749,"lon":5.368402,"is_reserved":false,"is_disabled":false,"rental_uris":{"android":"levelo://app?vid=a58f4f96-be72-435e-b176-503358723f3e","ios":"levelo://app?vid=a58f4f96-be72-435e-b176-503358723f3e"},"vehicle_type_id":"4","last_reported":1723316764,"current_range_meters":31600,"station_id":"ce4bhbp2rcd13ifvqesg","pricing_plan_id":"cebpf4jnsgd1na2vs0mg"},{"bike_id":"70083f60-1aef-451c-b056-18265f60bdb2","system_id":"levelo_inurba_marseille","lat":43.293259,"lon":5.371586,"is_reserved":false,"is_disabled":false,"rental_uris":{"android":"levelo://app?vid=70083f60-1aef-451c-b056-18265f60bdb2","ios":"levelo://app?vid=70083f60-1aef-451c-b056-18265f60bdb2"},"vehicle_type_id":"4","last_reported":1723316764,"current_range_meters":0,"station_id":"ce4bgh92rcd13ifvqb40","pricing_plan_id":"cebpf4jnsgd1na2vs0mg"},{"bike_id":"9cdbc985-4298-4e4f-8811-b1519c3b0de7","system_id":"levelo_inurba_marseille","lat":43.292749,"lon":5.368402,"is_reserved":false,"is_disabled":false,"rental_uris":{"android":"levelo://app?vid=9cdbc985-4298-4e4f-8811-b1519c3b0de7","ios":"levelo://app?vid=9cdbc985-4298-4e4f-8811-b1519c3b0de7"},"vehicle_type_id":"4","last_reported":1723316764,"current_range_meters":8000,"station_id":"ce4bhbp2rcd13ifvqesg","pricing_plan_id":"cebpf4jnsgd1na2vs0mg"},{"bike_id":"b4f290b6-54f7-44e0-9517-3ea5d14a0183","system_id":"levelo_inurba_marseille","lat":43.293259,"lon":5.371586,"is_reserved":false,"is_disabled":false,"rental_uris":{"android":"levelo://app?vid=b4f290b6-54f7-44e0-9517-3ea5d14a0183","ios":"levelo://app?vid=b4f290b6-54f7-44e0-9517-3ea5d14a0183"},"vehicle_type_id":"4","last_reported":1723316764,"current_range_meters":26400,"station_id":"ce4bgh92rcd13ifvqb40","pricing_plan_id":"cebpf4jnsgd1na2vs0mg"},{"bike_id":"9b552e8d-d000-4cb8-b4a4-e2048a3097b6","system_id":"levelo_inurba_marseille","lat":43.292749,"lon":5.368402,"is_reserved":false,"is_disabled":false,"rental_uris":{"android":"levelo://app?vid=9b552e8d-d000-4cb8-b4a4-e2048a3097b6","ios":"levelo://app?vid=9b552e8d-d000-4cb8-b4a4-e2048a3097b6"},"vehicle_type_id":"4","last_reported":1723316764,"current_range_meters":31600,"station_id":"ce4bhbp2rcd13ifvqesg","pricing_plan_id":"cebpf4jnsgd1na2vs0mg"},{"bike_id":"ca65edde-d378-49f0-95db-c84f13bf6bf2","system_id":"levelo_inurba_marseille","lat":43.29459,"lon":5.379325,"is_reserved":false,"is_disabled":false,"rental_uris":{"android":"levelo://app?vid=ca65edde-d378-49f0-95db-c84f13bf6bf2","ios":"levelo://app?vid=ca65edde-d378-49f0-95db-c84f13bf6bf2"},"vehicle_type_id":"4","last_reported":1723316764,"current_range_meters":0,"station_id":"","pricing_plan_id":"cebpf4jnsgd1na2vs0mg"},{"bike_id":"fda699b0-5787-491f-a694-ccad385a9095","system_id":"levelo_inurba_marseille","lat":43.29304,"lon":5.37451,"is_reserved":false,"is_disabled":false,"rental_uris":{"android":"levelo://app?vid=fda699b0-5787-491f-a694-ccad385a9095","ios":"levelo://app?vid=fda699b0-5787-491f-a694-ccad385a9095"},"vehicle_type_id":"4","last_reported":1723316764,"current_range_meters":0,"station_id":"ce4bgi12rcd13ifvqb70","pricing_plan_id":"cebpf4jnsgd1na2vs0mg"},{"bike_id":"e78edcdd-abcc-48f9-a598-5f5d6eca470f","system_id":"levelo_inurba_marseille","lat":43.293057,"lon":5.374612,"is_reserved":false,"is_disabled":false,"rental_uris":{"android":"levelo://app?vid=e78edcdd-abcc-48f9-a598-5f5d6eca470f","ios":"levelo://app?vid=e78edcdd-abcc-48f9-a598-5f5d6eca470f"},"vehicle_type_id":"4","last_reported":1723316764,"current_range_meters":11600,"station_id":"","pricing_plan_id":"cebpf4jnsgd1na2vs0mg"},{"bike_id":"8d37495d-9961-45f8-ba67-ee81725ae3ae","system_id":"levelo_inurba_marseille","lat":43.29228,"lon":5.36363,"is_reserved":false,"is_disabled":false,"rental_uris":{"android":"levelo://app?vid=8d37495d-9961-45f8-ba67-ee81725ae3ae","ios":"levelo://app?vid=8d37495d-9961-45f8-ba67-ee81725ae3ae"},"vehicle_type_id":"4","last_reported":1723316764,"current_range_meters":8000,"station_id":"","pricing_plan_id":"cebpf4jnsgd1na2vs0mg"},{"bike_id":"8f8b31ca-2e02-4469-a21e-e2a5e4979fdc","system_id":"levelo_inurba_marseille","lat":43.29602,"lon":5.381084,"is_reserved":false,"is_disabled":false,"rental_uris":{"android":"levelo://app?vid=8f8b31ca-2e02-4469-a21e-e2a5e4979fdc","ios":"levelo://app?vid=8f8b31ca-2e02-4469-a21e-e2a5e4979fdc"},"vehicle_type_id":"4","last_reported":1723316764,"current_range_meters":8000,"station_id":"ce4bgl12rcd13ifvqbo0","pricing_plan_id":"cebpf4jnsgd1na2vs0mg"},{"bike_id":"5eced76d-43c3-4f17-989d-a1807d7fbabc","system_id":"levelo_inurba_marseille","lat":43.292311,"lon":5.360731,"is_reserved":false,"is_disabled":false,"rental_uris":{"android":"levelo://app?vid=5eced76d-43c3-4f17-989d-a1807d7fbabc","ios":"levelo://app?vid=5eced76d-43c3-4f17-989d-a1807d7fbabc"},"vehicle_type_id":"4","last_reported":1723316764,"current_range_meters":31200,"station_id":"ce4bhbh2rcd13ifvqeqg","pricing_plan_id":"cebpf4jnsgd1na2vs0mg"},{"bike_id":"82d9de31-77bb-4ec9-973a-b556983a943b","system_id":"levelo_inurba_marseille","lat":43.30085,"lon":5.390856,"is_reserved":false,"is_disabled":false,"rental_uris":{"android":"levelo://app?vid=82d9de31-77bb-4ec9-973a-b556983a943b","ios":"levelo://app?vid=82d9de31-77bb-4ec9-973a-b556983a943b"},"vehicle_type_id":"4","last_reported":1723316764,"current_range_meters":0,"station_id":"ce4bh192rcd13ifvqdb0","pricing_plan_id":"cebpf4jnsgd1na2vs0mg"},{"bike_id":"cfd3aa80-687e-42ad-ba8f-044280d27243","system_id":"levelo_inurba_marseille","lat":43.29216,"lon":5.36057,"is_reserved":false,"is_disabled":false,"rental_uris":{"android":"levelo://app?vid=cfd3aa80-687e-42ad-ba8f-044280d27243","ios":"levelo://app?vid=cfd3aa80-687e-42ad-ba8f-044280d27243"},"vehicle_type_id":"4","last_reported":1723316764,"current_range_meters":31600,"station_id":"ce4bhbh2rcd13ifvqeqg","pricing_plan_id":"cebpf4jnsgd1na2vs0mg"},{"bike_id":"9c7933e7-599b-441c-a7da-03b58da57877","system_id":"levelo_inurba_marseille","lat":43.291671,"lon":5.371575,"is_reserved":false,"is_disabled":false,"rental_uris":{"android":"levelo://app?vid=9c7933e7-599b-441c-a7da-03b58da57877","ios":"levelo://app?vid=9c7933e7-599b-441c-a7da-03b58da57877"},"vehicle_type_id":"4","last_reported":1723316764,"current_range_meters":8800,"station_id":"ce4bha92rcd13ifvqeh0","pricing_plan_id":"cebpf4jnsgd1na2vs0mg"},{"bike_id":"8669c215-f64f-4991-918a-38e605b47e3d","system_id":"levelo_inurba_marseille","lat":43.29286,"lon":5.35552,"is_reserved":false,"is_disabled":false,"rental_uris":{"android":"levelo://app?vid=8669c215-f64f-4991-918a-38e605b47e3d","ios":"levelo://app?vid=8669c215-f64f-4991-918a-38e605b47e3d"},"vehicle_type_id":"4","last_reported":1723316764,"current_range_meters":6800,"station_id":"","pricing_plan_id":"cebpf4jnsgd1na2vs0mg"},{"bike_id":"4ff34ef7-ea1d-4a4c-bc84-77db934606fc","system_id":"levelo_inurba_marseille","lat":43.313291,"lon":5.396838,"is_reserved":false,"is_disabled":false,"rental_uris":{"android":"levelo://app?vid=4ff34ef7-ea1d-4a4c-bc84-77db934606fc","ios":"levelo://app?vid=4ff34ef7-ea1d-4a4c-bc84-77db934606fc"},"vehicle_type_id":"4","last_reported":1723316764,"current_range_meters":0,"station_id":"ce4bgvp2rcd13ifvqcu0","pricing_plan_id":"cebpf4jnsgd1na2vs0mg"},{"bike_id":"9d4b68a5-c93f-4844-a235-5ff4a055b660","system_id":"levelo_inurba_marseille","lat":43.292385,"lon":5.37767,"is_reserved":false,"is_disabled":false,"rental_uris":{"android":"levelo://app?vid=9d4b68a5-c93f-4844-a235-5ff4a055b660","ios":"levelo://app?vid=9d4b68a5-c93f-4844-a235-5ff4a055b660"},"vehicle_type_id":"4","last_reported":1723316764,"current_range_meters":10800,"station_id":"","pricing_plan_id":"cebpf4jnsgd1na2vs0mg"},{"bike_id":"655e4107-363e-4173-8ce1-b5a8db0b0aa4","system_id":"levelo_inurba_marseille","lat":43.313291,"lon":5.396838,"is_reserved":false,"is_disabled":false,"rental_uris":{"android":"levelo://app?vid=655e4107-363e-4173-8ce1-b5a8db0b0aa4","ios":"levelo://app?vid=655e4107-363e-4173-8ce1-b5a8db0b0aa4"},"vehicle_type_id":"4","last_reported":1723316764,"current_range_meters":22800,"station_id":"ce4bgvp2rcd13ifvqcu0","pricing_plan_id":"cebpf4jnsgd1na2vs0mg"},{"bike_id":"d4ac3923-1187-4ae8-9e37-511671f1157e","system_id":"levelo_inurba_marseille","lat":43.31323,"lon":5.39691,"is_reserved":false,"is_disabled":false,"rental_uris":{"android":"levelo://app?vid=d4ac3923-1187-4ae8-9e37-511671f1157e","ios":"levelo://app?vid=d4ac3923-1187-4ae8-9e37-511671f1157e"},"vehicle_type_id":"4","last_reported":1723316764,"current_range_meters":0,"station_id":"ce4bgvp2rcd13ifvqcu0","pricing_plan_id":"cebpf4jnsgd1na2vs0mg"},{"bike_id":"f38c3aa4-2e62-4a34-90c1-1a4abe60b461","system_id":"levelo_inurba_marseille","lat":43.313291,"lon":5.396838,"is_reserved":false,"is_disabled":false,"rental_uris":{"android":"levelo://app?vid=f38c3aa4-2e62-4a34-90c1-1a4abe60b461","ios":"levelo://app?vid=f38c3aa4-2e62-4a34-90c1-1a4abe60b461"},"vehicle_type_id":"4","last_reported":1723316764,"current_range_meters":12400,"station_id":"ce4bgvp2rcd13ifvqcu0","pricing_plan_id":"cebpf4jnsgd1na2vs0mg"},{"bike_id":"e1b63c02-c227-47d8-9fa7-af54a4d5a054","system_id":"levelo_inurba_marseille","lat":43.313291,"lon":5.396838,"is_reserved":false,"is_disabled":false,"rental_uris":{"android":"levelo://app?vid=e1b63c02-c227-47d8-9fa7-af54a4d5a054","ios":"levelo://app?vid=e1b63c02-c227-47d8-9fa7-af54a4d5a054"},"vehicle_type_id":"4","last_reported":1723316764,"current_range_meters":31200,"station_id":"ce4bgvp2rcd13ifvqcu0","pricing_plan_id":"cebpf4jnsgd1na2vs0mg"},{"bike_id":"c8e02879-6511-473a-8a32-b81690853efb","system_id":"levelo_inurba_marseille","lat":43.31322,"lon":5.39694,"is_reserved":false,"is_disabled":false,"rental_uris":{"android":"levelo://app?vid=c8e02879-6511-473a-8a32-b81690853efb","ios":"levelo://app?vid=c8e02879-6511-473a-8a32-b81690853efb"},"vehicle_type_id":"4","last_reported":1723316764,"current_range_meters":400,"station_id":"ce4bgvp2rcd13ifvqcu0","pricing_plan_id":"cebpf4jnsgd1na2vs0mg"},{"bike_id":"70c0c86d-04ca-410a-95fb-432a709f92e4","system_id":"levelo_inurba_marseille","lat":43.30889,"lon":5.39649,"is_reserved":false,"is_disabled":false,"rental_uris":{"android":"levelo://app?vid=70c0c86d-04ca-410a-95fb-432a709f92e4","ios":"levelo://app?vid=70c0c86d-04ca-410a-95fb-432a709f92e4"},"vehicle_type_id":"4","last_reported":1723316764,"current_range_meters":2000,"station_id":"ce4bh012rcd13ifvqcv0","pricing_plan_id":"cebpf4jnsgd1na2vs0mg"},{"bike_id":"615cd313-a418-4b30-86b8-f4314460f88a","system_id":"levelo_inurba_marseille","lat":43.309038,"lon":5.396546,"is_reserved":false,"is_disabled":false,"rental_uris":{"android":"levelo://app?vid=615cd313-a418-4b30-86b8-f4314460f88a","ios":"levelo://app?vid=615cd313-a418-4b30-86b8-f4314460f88a"},"vehicle_type_id":"4","last_reported":1723316764,"current_range_meters":22800,"station_id":"ce4bh012rcd13ifvqcv0","pricing_plan_id":"cebpf4jnsgd1na2vs0mg"},{"bike_id":"d6d0f320-87c4-4efb-8f6e-e86fa5c6167b","system_id":"levelo_inurba_marseille","lat":43.309038,"lon":5.396546,"is_reserved":false,"is_disabled":false,"rental_uris":{"android":"levelo://app?vid=d6d0f320-87c4-4efb-8f6e-e86fa5c6167b","ios":"levelo://app?vid=d6d0f320-87c4-4efb-8f6e-e86fa5c6167b"},"vehicle_type_id":"4","last_reported":1723316764,"current_range_meters":24000,"station_id":"ce4bh012rcd13ifvqcv0","pricing_plan_id":"cebpf4jnsgd1na2vs0mg"},{"bike_id":"5928b10f-bf12-441d-b003-65c0a9b6baec","system_id":"levelo_inurba_marseille","lat":43.29529,"lon":5.385581,"is_reserved":false,"is_disabled":false,"rental_uris":{"android":"levelo://app?vid=5928b10f-bf12-441d-b003-65c0a9b6baec","ios":"levelo://app?vid=5928b10f-bf12-441d-b003-65c0a9b6baec"},"vehicle_type_id":"4","last_reported":1723316764,"current_range_meters":9600,"station_id":"ce4bgih2rcd13ifvqba0","pricing_plan_id":"cebpf4jnsgd1na2vs0mg"},{"bike_id":"088573ac-2d2a-4c52-aa7d-c894799de499","system_id":"levelo_inurba_marseille","lat":43.29526,"lon":5.38539,"is_reserved":false,"is_disabled":false,"rental_uris":{"android":"levelo://app?vid=088573ac-2d2a-4c52-aa7d-c894799de499","ios":"levelo://app?vid=088573ac-2d2a-4c52-aa7d-c894799de499"},"vehicle_type_id":"4","last_reported":1723316764,"current_range_meters":12400,"station_id":"ce4bgih2rcd13ifvqba0","pricing_plan_id":"cebpf4jnsgd1na2vs0mg"},{"bike_id":"4a97233f-57d1-4a53-84e6-3a82eac71138","system_id":"levelo_inurba_marseille","lat":43.29066,"lon":5.37169,"is_reserved":false,"is_disabled":false,"rental_uris":{"android":"levelo://app?vid=4a97233f-57d1-4a53-84e6-3a82eac71138","ios":"levelo://app?vid=4a97233f-57d1-4a53-84e6-3a82eac71138"},"vehicle_type_id":"4","last_reported":1723316764,"current_range_meters":0,"station_id":"ce4bh5p2rcd13ifvqe4g","pricing_plan_id":"cebpf4jnsgd1na2vs0mg"},{"bike_id":"53d22d7e-1e11-4170-a12d-ebeb8c201c85","system_id":"levelo_inurba_marseille","lat":43.29419,"lon":5.38622,"is_reserved":false,"is_disabled":false,"rental_uris":{"android":"levelo://app?vid=53d22d7e-1e11-4170-a12d-ebeb8c201c85","ios":"levelo://app?vid=53d22d7e-1e11-4170-a12d-ebeb8c201c85"},"vehicle_type_id":"4","last_reported":1723316764,"current_range_meters":0,"station_id":"ce4bh2h2rcd13ifvqdh0","pricing_plan_id":"cebpf4jnsgd1na2vs0mg"},{"bike_id":"66a3da7c-dfce-48b3-b8ef-690319b97da4","system_id":"levelo_inurba_marseille","lat":43.290327,"lon":5.375711,"is_reserved":false,"is_disabled":false,"rental_uris":{"android":"levelo://app?vid=66a3da7c-dfce-48b3-b8ef-690319b97da4","ios":"levelo://app?vid=66a3da7c-dfce-48b3-b8ef-690319b97da4"},"vehicle_type_id":"4","last_reported":1723316764,"current_range_meters":2000,"station_id":"ce4bh692rcd13ifvqe90","pricing_plan_id":"cebpf4jnsgd1na2vs0mg"},{"bike_id":"577146bb-b5c1-4ddc-a64f-1810d44bfa88","system_id":"levelo_inurba_marseille","lat":43.294162,"lon":5.386292,"is_reserved":false,"is_disabled":false,"rental_uris":{"android":"levelo://app?vid=577146bb-b5c1-4ddc-a64f-1810d44bfa88","ios":"levelo://app?vid=577146bb-b5c1-4ddc-a64f-1810d44bfa88"},"vehicle_type_id":"4","last_reported":1723316764,"current_range_meters":29200,"station_id":"ce4bh2h2rcd13ifvqdh0","pricing_plan_id":"cebpf4jnsgd1na2vs0mg"},{"bike_id":"d6796064-85b9-4b59-baa3-dbb174745834","system_id":"levelo_inurba_marseille","lat":43.294153,"lon":5.386305,"is_reserved":false,"is_disabled":false,"rental_uris":{"android":"levelo://app?vid=d6796064-85b9-4b59-baa3-dbb174745834","ios":"levelo://app?vid=d6796064-85b9-4b59-baa3-dbb174745834"},"vehicle_type_id":"4","last_reported":1723316764,"current_range_meters":28800,"station_id":"ce4bh2h2rcd13ifvqdh0","pricing_plan_id":"cebpf4jnsgd1na2vs0mg"},{"bike_id":"d73f3559-7785-402f-93f6-792141e70747","system_id":"levelo_inurba_marseille","lat":43.294162,"lon":5.386292,"is_reserved":false,"is_disabled":false,"rental_uris":{"android":"levelo://app?vid=d73f3559-7785-402f-93f6-792141e70747","ios":"levelo://app?vid=d73f3559-7785-402f-93f6-792141e70747"},"vehicle_type_id":"4","last_reported":1723316764,"current_range_meters":4400,"station_id":"ce4bh2h2rcd13ifvqdh0","pricing_plan_id":"cebpf4jnsgd1na2vs0mg"},{"bike_id":"6e42b2fd-3570-4390-b837-c76228194173","system_id":"levelo_inurba_marseille","lat":43.294162,"lon":5.386292,"is_reserved":false,"is_disabled":false,"rental_uris":{"android":"levelo://app?vid=6e42b2fd-3570-4390-b837-c76228194173","ios":"levelo://app?vid=6e42b2fd-3570-4390-b837-c76228194173"},"vehicle_type_id":"4","last_reported":1723316764,"current_range_meters":2000,"station_id":"ce4bh2h2rcd13ifvqdh0","pricing_plan_id":"cebpf4jnsgd1na2vs0mg"},{"bike_id":"f6dc3721-a481-47da-b762-01b6483438f1","system_id":"levelo_inurba_marseille","lat":43.294162,"lon":5.386292,"is_reserved":false,"is_disabled":false,"rental_uris":{"android":"levelo://app?vid=f6dc3721-a481-47da-b762-01b6483438f1","ios":"levelo://app?vid=f6dc3721-a481-47da-b762-01b6483438f1"},"vehicle_type_id":"4","last_reported":1723316764,"current_range_meters":9200,"station_id":"ce4bh2h2rcd13ifvqdh0","pricing_plan_id":"cebpf4jnsgd1na2vs0mg"},{"bike_id":"bb973515-b633-4d6e-b911-6c064c0f7c58","system_id":"levelo_inurba_marseille","lat":43.294162,"lon":5.386292,"is_reserved":false,"is_disabled":false,"rental_uris":{"android":"levelo://app?vid=bb973515-b633-4d6e-b911-6c064c0f7c58","ios":"levelo://app?vid=bb973515-b633-4d6e-b911-6c064c0f7c58"},"vehicle_type_id":"4","last_reported":1723316764,"current_range_meters":29200,"station_id":"ce4bh2h2rcd13ifvqdh0","pricing_plan_id":"cebpf4jnsgd1na2vs0mg"},{"bike_id":"6ee0238e-504a-4c1e-b854-4ca57c705113","system_id":"levelo_inurba_marseille","lat":43.294162,"lon":5.386292,"is_reserved":false,"is_disabled":false,"rental_uris":{"android":"levelo://app?vid=6ee0238e-504a-4c1e-b854-4ca57c705113","ios":"levelo://app?vid=6ee0238e-504a-4c1e-b854-4ca57c705113"},"vehicle_type_id":"4","last_reported":1723316764,"current_range_meters":1200,"station_id":"ce4bh2h2rcd13ifvqdh0","pricing_plan_id":"cebpf4jnsgd1na2vs0mg"},{"bike_id":"f987db55-b173-44f4-8c68-44c5225c8f02","system_id":"levelo_inurba_marseille","lat":43.294162,"lon":5.386292,"is_reserved":false,"is_disabled":false,"rental_uris":{"android":"levelo://app?vid=f987db55-b173-44f4-8c68-44c5225c8f02","ios":"levelo://app?vid=f987db55-b173-44f4-8c68-44c5225c8f02"},"vehicle_type_id":"4","last_reported":1723316764,"current_range_meters":0,"station_id":"ce4bh2h2rcd13ifvqdh0","pricing_plan_id":"cebpf4jnsgd1na2vs0mg"},{"bike_id":"b1eaf333-c349-49b3-9705-b5115479f664","system_id":"levelo_inurba_marseille","lat":43.294162,"lon":5.386292,"is_reserved":false,"is_disabled":false,"rental_uris":{"android":"levelo://app?vid=b1eaf333-c349-49b3-9705-b5115479f664","ios":"levelo://app?vid=b1eaf333-c349-49b3-9705-b5115479f664"},"vehicle_type_id":"4","last_reported":1723316764,"current_range_meters":10400,"station_id":"ce4bh2h2rcd13ifvqdh0","pricing_plan_id":"cebpf4jnsgd1na2vs0mg"},{"bike_id":"17730f6d-d66c-4c9b-aacd-084570086340","system_id":"levelo_inurba_marseille","lat":43.289184,"lon":5.366408,"is_reserved":false,"is_disabled":false,"rental_uris":{"android":"levelo://app?vid=17730f6d-d66c-4c9b-aacd-084570086340","ios":"levelo://app?vid=17730f6d-d66c-4c9b-aacd-084570086340"},"vehicle_type_id":"4","last_reported":1723316764,"current_range_meters":1200,"station_id":"ce4bhap2rcd13ifvqek0","pricing_plan_id":"cebpf4jnsgd1na2vs0mg"},{"bike_id":"52f33d5f-3092-47d8-a7eb-2fde3ab283d2","system_id":"levelo_inurba_marseille","lat":43.294153,"lon":5.386305,"is_reserved":false,"is_disabled":false,"rental_uris":{"android":"levelo://app?vid=52f33d5f-3092-47d8-a7eb-2fde3ab283d2","ios":"levelo://app?vid=52f33d5f-3092-47d8-a7eb-2fde3ab283d2"},"vehicle_type_id":"4","last_reported":1723316764,"current_range_meters":2400,"station_id":"ce4bh2h2rcd13ifvqdh0","pricing_plan_id":"cebpf4jnsgd1na2vs0mg"},{"bike_id":"87e2b020-f5a3-4223-82b3-ba3e51f77852","system_id":"levelo_inurba_marseille","lat":43.289184,"lon":5.366408,"is_reserved":false,"is_disabled":false,"rental_uris":{"android":"levelo://app?vid=87e2b020-f5a3-4223-82b3-ba3e51f77852","ios":"levelo://app?vid=87e2b020-f5a3-4223-82b3-ba3e51f77852"},"vehicle_type_id":"4","last_reported":1723316764,"current_range_meters":1200,"station_id":"ce4bhap2rcd13ifvqek0","pricing_plan_id":"cebpf4jnsgd1na2vs0mg"},{"bike_id":"c60b0b1f-a92e-4dd9-88af-b0f1f22443bc","system_id":"levelo_inurba_marseille","lat":43.289184,"lon":5.366408,"is_reserved":false,"is_disabled":false,"rental_uris":{"android":"levelo://app?vid=c60b0b1f-a92e-4dd9-88af-b0f1f22443bc","ios":"levelo://app?vid=c60b0b1f-a92e-4dd9-88af-b0f1f22443bc"},"vehicle_type_id":"4","last_reported":1723316764,"current_range_meters":14000,"station_id":"ce4bhap2rcd13ifvqek0","pricing_plan_id":"cebpf4jnsgd1na2vs0mg"},{"bike_id":"096d4585-3657-49d0-bb33-986625ba1cd9","system_id":"levelo_inurba_marseille","lat":43.289184,"lon":5.366408,"is_reserved":false,"is_disabled":false,"rental_uris":{"android":"levelo://app?vid=096d4585-3657-49d0-bb33-986625ba1cd9","ios":"levelo://app?vid=096d4585-3657-49d0-bb33-986625ba1cd9"},"vehicle_type_id":"4","last_reported":1723316764,"current_range_meters":31200,"station_id":"ce4bhap2rcd13ifvqek0","pricing_plan_id":"cebpf4jnsgd1na2vs0mg"},{"bike_id":"711ac2d9-6860-4e6a-909f-2e7a5c4638d6","system_id":"levelo_inurba_marseille","lat":43.289184,"lon":5.366408,"is_reserved":false,"is_disabled":false,"rental_uris":{"android":"levelo://app?vid=711ac2d9-6860-4e6a-909f-2e7a5c4638d6","ios":"levelo://app?vid=711ac2d9-6860-4e6a-909f-2e7a5c4638d6"},"vehicle_type_id":"4","last_reported":1723316764,"current_range_meters":31600,"station_id":"ce4bhap2rcd13ifvqek0","pricing_plan_id":"cebpf4jnsgd1na2vs0mg"},{"bike_id":"57721df5-2b91-45ba-977d-a73d4bd2e3fa","system_id":"levelo_inurba_marseille","lat":43.289184,"lon":5.366408,"is_reserved":false,"is_disabled":false,"rental_uris":{"android":"levelo://app?vid=57721df5-2b91-45ba-977d-a73d4bd2e3fa","ios":"levelo://app?vid=57721df5-2b91-45ba-977d-a73d4bd2e3fa"},"vehicle_type_id":"4","last_reported":1723316764,"current_range_meters":31200,"station_id":"ce4bhap2rcd13ifvqek0","pricing_plan_id":"cebpf4jnsgd1na2vs0mg"},{"bike_id":"142427ee-28a3-47ea-9e32-286928478c0d","system_id":"levelo_inurba_marseille","lat":43.289184,"lon":5.366408,"is_reserved":false,"is_disabled":false,"rental_uris":{"android":"levelo://app?vid=142427ee-28a3-47ea-9e32-286928478c0d","ios":"levelo://app?vid=142427ee-28a3-47ea-9e32-286928478c0d"},"vehicle_type_id":"4","last_reported":1723316764,"current_range_meters":27200,"station_id":"ce4bhap2rcd13ifvqek0","pricing_plan_id":"cebpf4jnsgd1na2vs0mg"},{"bike_id":"cfb4fec7-d8ef-4166-8c12-787ab7cbfefd","system_id":"levelo_inurba_marseille","lat":43.289184,"lon":5.366408,"is_reserved":false,"is_disabled":false,"rental_uris":{"android":"levelo://app?vid=cfb4fec7-d8ef-4166-8c12-787ab7cbfefd","ios":"levelo://app?vid=cfb4fec7-d8ef-4166-8c12-787ab7cbfefd"},"vehicle_type_id":"4","last_reported":1723316764,"current_range_meters":30000,"station_id":"ce4bhap2rcd13ifvqek0","pricing_plan_id":"cebpf4jnsgd1na2vs0mg"},{"bike_id":"6d2b8661-0c0a-4735-9c39-a02168a468bd","system_id":"levelo_inurba_marseille","lat":43.289184,"lon":5.366408,"is_reserved":false,"is_disabled":false,"rental_uris":{"android":"levelo://app?vid=6d2b8661-0c0a-4735-9c39-a02168a468bd","ios":"levelo://app?vid=6d2b8661-0c0a-4735-9c39-a02168a468bd"},"vehicle_type_id":"4","last_reported":1723316764,"current_range_meters":31600,"station_id":"ce4bhap2rcd13ifvqek0","pricing_plan_id":"cebpf4jnsgd1na2vs0mg"},{"bike_id":"b09b0101-fadf-4949-b4da-09098ddca3c4","system_id":"levelo_inurba_marseille","lat":43.292644,"lon":5.384257,"is_reserved":false,"is_disabled":false,"rental_uris":{"android":"levelo://app?vid=b09b0101-fadf-4949-b4da-09098ddca3c4","ios":"levelo://app?vid=b09b0101-fadf-4949-b4da-09098ddca3c4"},"vehicle_type_id":"4","last_reported":1723316764,"current_range_meters":0,"station_id":"ce4bh692rcd13ifvqea0","pricing_plan_id":"cebpf4jnsgd1na2vs0mg"},{"bike_id":"8b0516a0-02a7-4537-bada-4c1ff41ee09c","system_id":"levelo_inurba_marseille","lat":43.29269,"lon":5.38444,"is_reserved":false,"is_disabled":false,"rental_uris":{"android":"levelo://app?vid=8b0516a0-02a7-4537-bada-4c1ff41ee09c","ios":"levelo://app?vid=8b0516a0-02a7-4537-bada-4c1ff41ee09c"},"vehicle_type_id":"4","last_reported":1723316764,"current_range_meters":0,"station_id":"ce4bh692rcd13ifvqea0","pricing_plan_id":"cebpf4jnsgd1na2vs0mg"},{"bike_id":"72e547d3-a581-43db-ad52-a42dcb097774","system_id":"levelo_inurba_marseille","lat":43.292644,"lon":5.384257,"is_reserved":false,"is_disabled":false,"rental_uris":{"android":"levelo://app?vid=72e547d3-a581-43db-ad52-a42dcb097774","ios":"levelo://app?vid=72e547d3-a581-43db-ad52-a42dcb097774"},"vehicle_type_id":"4","last_reported":1723316764,"current_range_meters":0,"station_id":"ce4bh692rcd13ifvqea0","pricing_plan_id":"cebpf4jnsgd1na2vs0mg"},{"bike_id":"52c9c96b-8860-4fa0-993d-59dbc03b0d35","system_id":"levelo_inurba_marseille","lat":43.292644,"lon":5.384257,"is_reserved":false,"is_disabled":false,"rental_uris":{"android":"levelo://app?vid=52c9c96b-8860-4fa0-993d-59dbc03b0d35","ios":"levelo://app?vid=52c9c96b-8860-4fa0-993d-59dbc03b0d35"},"vehicle_type_id":"4","last_reported":1723316764,"current_range_meters":31200,"station_id":"ce4bh692rcd13ifvqea0","pricing_plan_id":"cebpf4jnsgd1na2vs0mg"},{"bike_id":"6d3b0dc3-b84c-4833-87f8-fce17771e42b","system_id":"levelo_inurba_marseille","lat":43.292642,"lon":5.384254,"is_reserved":false,"is_disabled":false,"rental_uris":{"android":"levelo://app?vid=6d3b0dc3-b84c-4833-87f8-fce17771e42b","ios":"levelo://app?vid=6d3b0dc3-b84c-4833-87f8-fce17771e42b"},"vehicle_type_id":"4","last_reported":1723316764,"current_range_meters":400,"station_id":"ce4bh692rcd13ifvqea0","pricing_plan_id":"cebpf4jnsgd1na2vs0mg"},{"bike_id":"1637ef25-ea9f-4fca-a187-7aeba045ca9e","system_id":"levelo_inurba_marseille","lat":43.29005,"lon":5.356133,"is_reserved":false,"is_disabled":false,"rental_uris":{"android":"levelo://app?vid=1637ef25-ea9f-4fca-a187-7aeba045ca9e","ios":"levelo://app?vid=1637ef25-ea9f-4fca-a187-7aeba045ca9e"},"vehicle_type_id":"4","last_reported":1723316764,"current_range_meters":0,"station_id":"ce4bhb92rcd13ifvqen0","pricing_plan_id":"cebpf4jnsgd1na2vs0mg"},{"bike_id":"ad28b825-75eb-4d47-8bc2-38ad9c63e47f","system_id":"levelo_inurba_marseille","lat":43.290103,"lon":5.356114,"is_reserved":false,"is_disabled":false,"rental_uris":{"android":"levelo://app?vid=ad28b825-75eb-4d47-8bc2-38ad9c63e47f","ios":"levelo://app?vid=ad28b825-75eb-4d47-8bc2-38ad9c63e47f"},"vehicle_type_id":"4","last_reported":1723316764,"current_range_meters":0,"station_id":"ce4bhb92rcd13ifvqen0","pricing_plan_id":"cebpf4jnsgd1na2vs0mg"},{"bike_id":"c8796931-b53e-4905-910a-6b46c837b5e6","system_id":"levelo_inurba_marseille","lat":43.290104,"lon":5.356111,"is_reserved":false,"is_disabled":false,"rental_uris":{"android":"levelo://app?vid=c8796931-b53e-4905-910a-6b46c837b5e6","ios":"levelo://app?vid=c8796931-b53e-4905-910a-6b46c837b5e6"},"vehicle_type_id":"4","last_reported":1723316764,"current_range_meters":0,"station_id":"ce4bhb92rcd13ifvqen0","pricing_plan_id":"cebpf4jnsgd1na2vs0mg"},{"bike_id":"aa9884d1-37e2-4eb2-87d2-70d3dd298fdc","system_id":"levelo_inurba_marseille","lat":43.291013,"lon":5.381506,"is_reserved":false,"is_disabled":false,"rental_uris":{"android":"levelo://app?vid=aa9884d1-37e2-4eb2-87d2-70d3dd298fdc","ios":"levelo://app?vid=aa9884d1-37e2-4eb2-87d2-70d3dd298fdc"},"vehicle_type_id":"4","last_reported":1723316764,"current_range_meters":0,"station_id":"ce4bh512rcd13ifvqe2g","pricing_plan_id":"cebpf4jnsgd1na2vs0mg"},{"bike_id":"560750d2-fe84-40bb-949c-1c89b0d23933","system_id":"levelo_inurba_marseille","lat":43.295169,"lon":5.390426,"is_reserved":false,"is_disabled":false,"rental_uris":{"android":"levelo://app?vid=560750d2-fe84-40bb-949c-1c89b0d23933","ios":"levelo://app?vid=560750d2-fe84-40bb-949c-1c89b0d23933"},"vehicle_type_id":"4","last_reported":1723316764,"current_range_meters":2000,"station_id":"ce4bh3p2rcd13ifvqdp0","pricing_plan_id":"cebpf4jnsgd1na2vs0mg"},{"bike_id":"5d07b028-ea05-4457-bb0d-78c8e31c24f4","system_id":"levelo_inurba_marseille","lat":43.3302,"lon":5.39043,"is_reserved":false,"is_disabled":false,"rental_uris":{"android":"levelo://app?vid=5d07b028-ea05-4457-bb0d-78c8e31c24f4","ios":"levelo://app?vid=5d07b028-ea05-4457-bb0d-78c8e31c24f4"},"vehicle_type_id":"4","last_reported":1723316764,"current_range_meters":13200,"station_id":"ce4bhr92rcd13ifvqhrg","pricing_plan_id":"cebpf4jnsgd1na2vs0mg"},{"bike_id":"96238974-8286-4c91-87fd-d84fa730a06a","system_id":"levelo_inurba_marseille","lat":43.330442,"lon":5.389148,"is_reserved":false,"is_disabled":false,"rental_uris":{"android":"levelo://app?vid=96238974-8286-4c91-87fd-d84fa730a06a","ios":"levelo://app?vid=96238974-8286-4c91-87fd-d84fa730a06a"},"vehicle_type_id":"4","last_reported":1723316764,"current_range_meters":6800,"station_id":"ce4bhr92rcd13ifvqhrg","pricing_plan_id":"cebpf4jnsgd1na2vs0mg"},{"bike_id":"bcb17808-64fa-451e-a1f3-21eb15a8f024","system_id":"levelo_inurba_marseille","lat":43.330442,"lon":5.389148,"is_reserved":false,"is_disabled":false,"rental_uris":{"android":"levelo://app?vid=bcb17808-64fa-451e-a1f3-21eb15a8f024","ios":"levelo://app?vid=bcb17808-64fa-451e-a1f3-21eb15a8f024"},"vehicle_type_id":"4","last_reported":1723316764,"current_range_meters":12000,"station_id":"ce4bhr92rcd13ifvqhrg","pricing_plan_id":"cebpf4jnsgd1na2vs0mg"},{"bike_id":"eb950615-e61f-45ab-a601-4960d01e92e7","system_id":"levelo_inurba_marseille","lat":43.33027,"lon":5.39037,"is_reserved":false,"is_disabled":false,"rental_uris":{"android":"levelo://app?vid=eb950615-e61f-45ab-a601-4960d01e92e7","ios":"levelo://app?vid=eb950615-e61f-45ab-a601-4960d01e92e7"},"vehicle_type_id":"4","last_reported":1723316764,"current_range_meters":0,"station_id":"ce4bhr92rcd13ifvqhrg","pricing_plan_id":"cebpf4jnsgd1na2vs0mg"},{"bike_id":"35002121-fb81-4afd-9964-234fc301c38c","system_id":"levelo_inurba_marseille","lat":43.33026,"lon":5.3904,"is_reserved":false,"is_disabled":false,"rental_uris":{"android":"levelo://app?vid=35002121-fb81-4afd-9964-234fc301c38c","ios":"levelo://app?vid=35002121-fb81-4afd-9964-234fc301c38c"},"vehicle_type_id":"4","last_reported":1723316764,"current_range_meters":9200,"station_id":"ce4bhr92rcd13ifvqhrg","pricing_plan_id":"cebpf4jnsgd1na2vs0mg"},{"bike_id":"2e171096-baa1-4fa0-bda3-770e0307f890","system_id":"levelo_inurba_marseille","lat":43.29521,"lon":5.39046,"is_reserved":false,"is_disabled":false,"rental_uris":{"android":"levelo://app?vid=2e171096-baa1-4fa0-bda3-770e0307f890","ios":"levelo://app?vid=2e171096-baa1-4fa0-bda3-770e0307f890"},"vehicle_type_id":"4","last_reported":1723316764,"current_range_meters":29600,"station_id":"ce4bh3p2rcd13ifvqdp0","pricing_plan_id":"cebpf4jnsgd1na2vs0mg"},{"bike_id":"2aa035e2-53f3-4926-90cc-5510cb47701a","system_id":"levelo_inurba_marseille","lat":43.29027,"lon":5.381274,"is_reserved":false,"is_disabled":false,"rental_uris":{"android":"levelo://app?vid=2aa035e2-53f3-4926-90cc-5510cb47701a","ios":"levelo://app?vid=2aa035e2-53f3-4926-90cc-5510cb47701a"},"vehicle_type_id":"4","last_reported":1723316764,"current_range_meters":0,"station_id":"ce4bh4p2rcd13ifvqe1g","pricing_plan_id":"cebpf4jnsgd1na2vs0mg"},{"bike_id":"cf4ff95d-fda8-459c-9da2-cde821b48686","system_id":"levelo_inurba_marseille","lat":43.290267,"lon":5.381317,"is_reserved":false,"is_disabled":false,"rental_uris":{"android":"levelo://app?vid=cf4ff95d-fda8-459c-9da2-cde821b48686","ios":"levelo://app?vid=cf4ff95d-fda8-459c-9da2-cde821b48686"},"vehicle_type_id":"4","last_reported":1723316764,"current_range_meters":0,"station_id":"ce4bh4p2rcd13ifvqe1g","pricing_plan_id":"cebpf4jnsgd1na2vs0mg"},{"bike_id":"43f21911-683d-4ba4-93d3-8a7e20e1c78c","system_id":"levelo_inurba_marseille","lat":43.33737,"lon":5.37469,"is_reserved":false,"is_disabled":false,"rental_uris":{"android":"levelo://app?vid=43f21911-683d-4ba4-93d3-8a7e20e1c78c","ios":"levelo://app?vid=43f21911-683d-4ba4-93d3-8a7e20e1c78c"},"vehicle_type_id":"4","last_reported":1723316764,"current_range_meters":30400,"station_id":"","pricing_plan_id":"cebpf4jnsgd1na2vs0mg"},{"bike_id":"8b5f6228-3582-497c-9919-c849c8ef0c9b","system_id":"levelo_inurba_marseille","lat":43.337406,"lon":5.374615,"is_reserved":false,"is_disabled":false,"rental_uris":{"android":"levelo://app?vid=8b5f6228-3582-497c-9919-c849c8ef0c9b","ios":"levelo://app?vid=8b5f6228-3582-497c-9919-c849c8ef0c9b"},"vehicle_type_id":"4","last_reported":1723316764,"current_range_meters":1200,"station_id":"","pricing_plan_id":"cebpf4jnsgd1na2vs0mg"},{"bike_id":"ac75d8e5-5139-4e43-a64e-51e7994c2517","system_id":"levelo_inurba_marseille","lat":43.337444,"lon":5.374475,"is_reserved":false,"is_disabled":false,"rental_uris":{"android":"levelo://app?vid=ac75d8e5-5139-4e43-a64e-51e7994c2517","ios":"levelo://app?vid=ac75d8e5-5139-4e43-a64e-51e7994c2517"},"vehicle_type_id":"3","last_reported":1723316764,"current_range_meters":24800,"station_id":"","pricing_plan_id":"cebpf4jnsgd1na2vs0mg"},{"bike_id":"99ff80d6-767c-4ca9-81b5-c19f253f3bd3","system_id":"levelo_inurba_marseille","lat":43.337447,"lon":5.374509,"is_reserved":false,"is_disabled":false,"rental_uris":{"android":"levelo://app?vid=99ff80d6-767c-4ca9-81b5-c19f253f3bd3","ios":"levelo://app?vid=99ff80d6-767c-4ca9-81b5-c19f253f3bd3"},"vehicle_type_id":"4","last_reported":1723316764,"current_range_meters":2800,"station_id":"","pricing_plan_id":"cebpf4jnsgd1na2vs0mg"},{"bike_id":"7553d7c6-8eef-4b21-9dca-534ec43256a6","system_id":"levelo_inurba_marseille","lat":43.33743,"lon":5.37464,"is_reserved":false,"is_disabled":false,"rental_uris":{"android":"levelo://app?vid=7553d7c6-8eef-4b21-9dca-534ec43256a6","ios":"levelo://app?vid=7553d7c6-8eef-4b21-9dca-534ec43256a6"},"vehicle_type_id":"4","last_reported":1723316764,"current_range_meters":13600,"station_id":"","pricing_plan_id":"cebpf4jnsgd1na2vs0mg"},{"bike_id":"c3cf305c-692c-41ed-b07c-7ebbc13f240d","system_id":"levelo_inurba_marseille","lat":43.33745,"lon":5.374601,"is_reserved":false,"is_disabled":false,"rental_uris":{"android":"levelo://app?vid=c3cf305c-692c-41ed-b07c-7ebbc13f240d","ios":"levelo://app?vid=c3cf305c-692c-41ed-b07c-7ebbc13f240d"},"vehicle_type_id":"4","last_reported":1723316764,"current_range_meters":13200,"station_id":"","pricing_plan_id":"cebpf4jnsgd1na2vs0mg"},{"bike_id":"7927f888-9999-4bb1-9670-6c95325c49b3","system_id":"levelo_inurba_marseille","lat":43.30928,"lon":5.40142,"is_reserved":false,"is_disabled":false,"rental_uris":{"android":"levelo://app?vid=7927f888-9999-4bb1-9670-6c95325c49b3","ios":"levelo://app?vid=7927f888-9999-4bb1-9670-6c95325c49b3"},"vehicle_type_id":"4","last_reported":1723316764,"current_range_meters":0,"station_id":"ce4bgvp2rcd13ifvqct0","pricing_plan_id":"cebpf4jnsgd1na2vs0mg"},{"bike_id":"a99690a8-3e4f-41a1-9b6a-5b43249a269f","system_id":"levelo_inurba_marseille","lat":43.33746,"lon":5.37457,"is_reserved":false,"is_disabled":false,"rental_uris":{"android":"levelo://app?vid=a99690a8-3e4f-41a1-9b6a-5b43249a269f","ios":"levelo://app?vid=a99690a8-3e4f-41a1-9b6a-5b43249a269f"},"vehicle_type_id":"4","last_reported":1723316764,"current_range_meters":4000,"station_id":"","pricing_plan_id":"cebpf4jnsgd1na2vs0mg"},{"bike_id":"6137b86e-8de9-4c4f-94ef-bfa372175031","system_id":"levelo_inurba_marseille","lat":43.337513,"lon":5.37454,"is_reserved":false,"is_disabled":false,"rental_uris":{"android":"levelo://app?vid=6137b86e-8de9-4c4f-94ef-bfa372175031","ios":"levelo://app?vid=6137b86e-8de9-4c4f-94ef-bfa372175031"},"vehicle_type_id":"4","last_reported":1723316764,"current_range_meters":14800,"station_id":"","pricing_plan_id":"cebpf4jnsgd1na2vs0mg"},{"bike_id":"1ece39e8-5ec5-465b-b0d5-bdea3554c74d","system_id":"levelo_inurba_marseille","lat":43.337608,"lon":5.374489,"is_reserved":false,"is_disabled":false,"rental_uris":{"android":"levelo://app?vid=1ece39e8-5ec5-465b-b0d5-bdea3554c74d","ios":"levelo://app?vid=1ece39e8-5ec5-465b-b0d5-bdea3554c74d"},"vehicle_type_id":"4","last_reported":1723316764,"current_range_meters":24400,"station_id":"","pricing_plan_id":"cebpf4jnsgd1na2vs0mg"},{"bike_id":"6f8a75ef-cfde-4da5-99c7-85f9ae9b026b","system_id":"levelo_inurba_marseille","lat":43.33764,"lon":5.37433,"is_reserved":false,"is_disabled":false,"rental_uris":{"android":"levelo://app?vid=6f8a75ef-cfde-4da5-99c7-85f9ae9b026b","ios":"levelo://app?vid=6f8a75ef-cfde-4da5-99c7-85f9ae9b026b"},"vehicle_type_id":"4","last_reported":1723316764,"current_range_meters":29600,"station_id":"","pricing_plan_id":"cebpf4jnsgd1na2vs0mg"},{"bike_id":"5cb0d0f3-eacc-40eb-a46e-542fc59e15f6","system_id":"levelo_inurba_marseille","lat":43.33756,"lon":5.3749,"is_reserved":false,"is_disabled":false,"rental_uris":{"android":"levelo://app?vid=5cb0d0f3-eacc-40eb-a46e-542fc59e15f6","ios":"levelo://app?vid=5cb0d0f3-eacc-40eb-a46e-542fc59e15f6"},"vehicle_type_id":"4","last_reported":1723316764,"current_range_meters":29600,"station_id":"","pricing_plan_id":"cebpf4jnsgd1na2vs0mg"},{"bike_id":"ea1cc1bc-b3f0-4093-8f5f-6dfff1fa63d9","system_id":"levelo_inurba_marseille","lat":43.33757,"lon":5.37485,"is_reserved":false,"is_disabled":false,"rental_uris":{"android":"levelo://app?vid=ea1cc1bc-b3f0-4093-8f5f-6dfff1fa63d9","ios":"levelo://app?vid=ea1cc1bc-b3f0-4093-8f5f-6dfff1fa63d9"},"vehicle_type_id":"4","last_reported":1723316764,"current_range_meters":28800,"station_id":"","pricing_plan_id":"cebpf4jnsgd1na2vs0mg"},{"bike_id":"e0da458e-1309-458b-956b-aab617b2ea05","system_id":"levelo_inurba_marseille","lat":43.3376,"lon":5.37473,"is_reserved":false,"is_disabled":false,"rental_uris":{"android":"levelo://app?vid=e0da458e-1309-458b-956b-aab617b2ea05","ios":"levelo://app?vid=e0da458e-1309-458b-956b-aab617b2ea05"},"vehicle_type_id":"4","last_reported":1723316764,"current_range_meters":26400,"station_id":"","pricing_plan_id":"cebpf4jnsgd1na2vs0mg"},