{"last_updated":1683292115,"ttl":30,"version":"2.2","data":{"bikes":[{"bike_id":"78df8ec4-0932-4f79-832e-83001c42e03e","system_id":"levelo_inurba_marseille","lat":43.313391,"lon":5.36706,"is_reserved":false,"is_disabled":false,"rental_uris":{"android":"levelo://app?vid=78df8ec4-0932-4f79-832e-83001c42e03e","ios":"levelo://app?vid=78df8ec4-0932-4f79-832e-83001c42e03e"},"vehicle_type_id":"4","last_reported":1683292115,"current_range_meters":31600,"station_id":"ce4bgr92rcd13ifvqc6g","pricing_plan_id":"free"},{"bike_id":"a41fd82a-a356-447e-885e-a74bcead5247","system_id":"levelo_inurba_marseille","lat":43.313391,"lon":5.36706,"is_reserved":false,"is_disabled":false,"rental_uris":{"android":"levelo://app?vid=a41fd82a-a356-447e-885e-a74bcead5247","ios":"levelo://app?vid=a41fd82a-a356-447e-885e-a74bcead5247"},"vehicle_type_id":"4","last_reported":1683292115,"current_range_meters":29200,"station_id":"ce4bgr92rcd13ifvqc6g","pricing_plan_id":"free"},{"bike_id":"5e07e6be-865e-4dce-afa0-5084fc61d8f2","system_id":"levelo_inurba_marseille","lat":43.313391,"lon":5.36706,"is_reserved":false,"is_disabled":false,"rental_uris":{"android":"levelo://app?vid=5e07e6be-865e-4dce-afa0-5084fc61d8f2","ios":"levelo://app?vid=5e07e6be-865e-4dce-afa0-5084fc61d8f2"},"vehicle_type_id":"4","last_reported":1683292115,"current_range_meters":29600,"station_id":"ce4bgr92rcd13ifvqc6g","pricing_plan_id":"free"},{"bike_id":"17a51c17-a115-46f1-b70a-446e88c3faa3","system_id":"levelo_inurba_marseille","lat":43.313391,"lon":5.36706,"is_reserved":false,"is_disabled":false,"rental_uris":{"android":"levelo://app?vid=17a51c17-a115-46f1-b70a-446e88c3faa3","ios":"levelo://app?vid=17a51c17-a115-46f1-b70a-446e88c3faa3"},"vehicle_type_id":"4","last_reported":1683292115,"current_range_meters":31600,"station_id":"ce4bgr92rcd13ifvqc6g","pricing_plan_id":"free"},{"bike_id":"71345557-53ef-4ed6-892a-4ce9e6656adc","system_id":"levelo_inurba_marseille","lat":43.313391,"lon":5.36706,"is_reserved":false,"is_disabled":false,"rental_uris":{"android":"levelo://app?vid=71345557-53ef-4ed6-892a-4ce9e6656adc","ios":"levelo://app?vid=71345557-53ef-4ed6-892a-4ce9e6656adc"},"vehicle_type_id":"4","last_reported":1683292115,"current_range_meters":31600,"station_id":"ce4bgr92rcd13ifvqc6g","pricing_plan_id":"free"},{"bike_id":"f602e5ec-4299-4767-b8b0-80c1f202410f","system_id":"levelo_inurba_marseille","lat":43.313391,"lon":5.36706,"is_reserved":false,"is_disabled":false,"rental_uris":{"android":"levelo://app?vid=f602e5ec-4299-4767-b8b0-80c1f202410f","ios":"levelo://app?vid=f602e5ec-4299-4767-b8b0-80c1f202410f"},"vehicle_type_id":"4","last_reported":1683292115,"current_range_meters":30000,"station_id":"ce4bgr92rcd13ifvqc6g","pricing_plan_id":"free"},{"bike_id":"c71a97ca-b86b-45d7-b787-0833ddece4c3","system_id":"levelo_inurba_marseille","lat":43.31357,"lon":5.36688,"is_reserved":false,"is_disabled":false,"rental_uris":{"android":"levelo://app?vid=c71a97ca-b86b-45d7-b787-0833ddece4c3","ios":"levelo://app?vid=c71a97ca-b86b-45d7-b787-0833ddece4c3"},"vehicle_type_id":"4","last_reported":1683292115,"current_range_meters":26800,"station_id":"ce4bgr92rcd13ifvqc6g","pricing_plan_id":"free"},{"bike_id":"79d212a3-1816-4069-a274-b15eafa6e7ab","system_id":"levelo_inurba_marseille","lat":43.312239,"lon":5.368562,"is_reserved":false,"is_disabled":false,"rental_uris":{"android":"levelo://app?vid=79d212a3-1816-4069-a274-b15eafa6e7ab","ios":"levelo://app?vid=79d212a3-1816-4069-a274-b15eafa6e7ab"},"vehicle_type_id":"4","last_reported":1683292115,"current_range_meters":29200,"station_id":"ce4bgl92rcd13ifvqbq0","pricing_plan_id":"free"},{"bike_id":"c53fadd2-5a16-43e0-a16f-a88a8e2cde5c","system_id":"levelo_inurba_marseille","lat":43.312239,"lon":5.368562,"is_reserved":false,"is_disabled":false,"rental_uris":{"android":"levelo://app?vid=c53fadd2-5a16-43e0-a16f-a88a8e2cde5c","ios":"levelo://app?vid=c53fadd2-5a16-43e0-a16f-a88a8e2cde5c"},"vehicle_type_id":"4","last_reported":1683292115,"current_range_meters":30800,"station_id":"ce4bgl92rcd13ifvqbq0","pricing_plan_id":"free"},{"bike_id":"556af7c8-884f-4664-9252-35f61d08de9c","system_id":"levelo_inurba_marseille","lat":43.312239,"lon":5.368562,"is_reserved":false,"is_disabled":false,"rental_uris":{"android":"levelo://app?vid=556af7c8-884f-4664-9252-35f61d08de9c","ios":"levelo://app?vid=556af7c8-884f-4664-9252-35f61d08de9c"},"vehicle_type_id":"4","last_reported":1683292115,"current_range_meters":21600,"station_id":"ce4bgl92rcd13ifvqbq0","pricing_plan_id":"free"},{"bike_id":"59e47e13-7d2c-451f-95cb-35a36925f5b5","system_id":"levelo_inurba_marseille","lat":43.312239,"lon":5.368562,"is_reserved":false,"is_disabled":false,"rental_uris":{"android":"levelo://app?vid=59e47e13-7d2c-451f-95cb-35a36925f5b5","ios":"levelo://app?vid=59e47e13-7d2c-451f-95cb-35a36925f5b5"},"vehicle_type_id":"4","last_reported":1683292115,"current_range_meters":25600,"station_id":"ce4bgl92rcd13ifvqbq0","pricing_plan_id":"free"},{"bike_id":"d26482ab-ce0e-4938-92b7-f257f81d8aa3","system_id":"levelo_inurba_marseille","lat":43.312239,"lon":5.368562,"is_reserved":false,"is_disabled":false,"rental_uris":{"android":"levelo://app?vid=d26482ab-ce0e-4938-92b7-f257f81d8aa3","ios":"levelo://app?vid=d26482ab-ce0e-4938-92b7-f257f81d8aa3"},"vehicle_type_id":"4","last_reported":1683292115,"current_range_meters":22800,"station_id":"ce4bgl92rcd13ifvqbq0","pricing_plan_id":"free"},{"bike_id":"d8fd621c-c5e1-4a90-aca1-509bd01f88e3","system_id":"levelo_inurba_marseille","lat":43.312239,"lon":5.368562,"is_reserved":false,"is_disabled":false,"rental_uris":{"android":"levelo://app?vid=d8fd621c-c5e1-4a90-aca1-509bd01f88e3","ios":"levelo://app?vid=d8fd621c-c5e1-4a90-aca1-509bd01f88e3"},"vehicle_type_id":"4","last_reported":1683292115,"current_range_meters":13600,"station_id":"ce4bgl92rcd13ifvqbq0","pricing_plan_id":"free"},{"bike_id":"4a4ffd59-f6d4-408b-ab73-a75c386d8fa7","system_id":"levelo_inurba_marseille","lat":43.309076,"lon":5.368465,"is_reserved":false,"is_disabled":false,"rental_uris":{"android":"levelo://app?vid=4a4ffd59-f6d4-408b-ab73-a75c386d8fa7","ios":"levelo://app?vid=4a4ffd59-f6d4-408b-ab73-a75c386d8fa7"},"vehicle_type_id":"4","last_reported":1683292115,"current_range_meters":31600,"station_id":"ce4bgn92rcd13ifvqbvg","pricing_plan_id":"free"},{"bike_id":"6e0c5501-7cc8-426b-aba2-ddbd2256de61","system_id":"levelo_inurba_marseille","lat":43.309076,"lon":5.368465,"is_reserved":false,"is_disabled":false,"rental_uris":{"android":"levelo://app?vid=6e0c5501-7cc8-426b-aba2-ddbd2256de61","ios":"levelo://app?vid=6e0c5501-7cc8-426b-aba2-ddbd2256de61"},"vehicle_type_id":"4","last_reported":1683292115,"current_range_meters":20400,"station_id":"ce4bgn92rcd13ifvqbvg","pricing_plan_id":"free"},{"bike_id":"65640c10-a103-4bae-97d3-2bf11f483aac","system_id":"levelo_inurba_marseille","lat":43.309076,"lon":5.368465,"is_reserved":false,"is_disabled":false,"rental_uris":{"android":"levelo://app?vid=65640c10-a103-4bae-97d3-2bf11f483aac","ios":"levelo://app?vid=65640c10-a103-4bae-97d3-2bf11f483aac"},"vehicle_type_id":"4","last_reported":1683292115,"current_range_meters":28400,"station_id":"ce4bgn92rcd13ifvqbvg","pricing_plan_id":"free"},{"bike_id":"951cc500-c1c5-4c3c-8dd6-86611d66c2ea","system_id":"levelo_inurba_marseille","lat":43.309076,"lon":5.368465,"is_reserved":false,"is_disabled":false,"rental_uris":{"android":"levelo://app?vid=951cc500-c1c5-4c3c-8dd6-86611d66c2ea","ios":"levelo://app?vid=951cc500-c1c5-4c3c-8dd6-86611d66c2ea"},"vehicle_type_id":"4","last_reported":1683292115,"current_range_meters":11600,"station_id":"ce4bgn92rcd13ifvqbvg","pricing_plan_id":"free"},{"bike_id":"9d99333c-1f0b-49b6-9048-d0b1123639a2","system_id":"levelo_inurba_marseille","lat":43.309076,"lon":5.368465,"is_reserved":false,"is_disabled":false,"rental_uris":{"android":"levelo://app?vid=9d99333c-1f0b-49b6-9048-d0b1123639a2","ios":"levelo://app?vid=9d99333c-1f0b-49b6-9048-d0b1123639a2"},"vehicle_type_id":"4","last_reported":1683292115,"current_range_meters":31600,"station_id":"ce4bgn92rcd13ifvqbvg","pricing_plan_id":"free"},{"bike_id":"574de744-c612-4750-b83c-04b157c94323","system_id":"levelo_inurba_marseille","lat":43.309076,"lon":5.368465,"is_reserved":false,"is_disabled":false,"rental_uris":{"android":"levelo://app?vid=574de744-c612-4750-b83c-04b157c94323","ios":"levelo://app?vid=574de744-c612-4750-b83c-04b157c94323"},"vehicle_type_id":"4","last_reported":1683292115,"current_range_meters":30800,"station_id":"ce4bgn92rcd13ifvqbvg","pricing_plan_id":"free"},{"bike_id":"eae67f55-5099-4688-8573-72e996dce689","system_id":"levelo_inurba_marseille","lat":43.309076,"lon":5.368465,"is_reserved":false,"is_disabled":false,"rental_uris":{"android":"levelo://app?vid=eae67f55-5099-4688-8573-72e996dce689","ios":"levelo://app?vid=eae67f55-5099-4688-8573-72e996dce689"},"vehicle_type_id":"4","last_reported":1683292115,"current_range_meters":25200,"station_id":"ce4bgn92rcd13ifvqbvg","pricing_plan_id":"free"},{"bike_id":"bb857ec2-b654-4b96-adb3-4b0feacf279e","system_id":"levelo_inurba_marseille","lat":43.309076,"lon":5.368465,"is_reserved":false,"is_disabled":false,"rental_uris":{"android":"levelo://app?vid=bb857ec2-b654-4b96-adb3-4b0feacf279e","ios":"levelo://app?vid=bb857ec2-b654-4b96-adb3-4b0feacf279e"},"vehicle_type_id":"4","last_reported":1683292115,"current_range_meters":24000,"station_id":"ce4bgn92rcd13ifvqbvg","pricing_plan_id":"free"},{"bike_id":"7460d98b-094d-41b0-b0e4-089f6b4feaf7","system_id":"levelo_inurba_marseille","lat":43.314811,"lon":5.373103,"is_reserved":false,"is_disabled":false,"rental_uris":{"android":"levelo://app?vid=7460d98b-094d-41b0-b0e4-089f6b4feaf7","ios":"levelo://app?vid=7460d98b-094d-41b0-b0e4-089f6b4feaf7"},"vehicle_type_id":"4","last_reported":1683292115,"current_range_meters":19200,"station_id":"ce4bgt12rcd13ifvqcd0","pricing_plan_id":"free"},{"bike_id":"3b9bd907-ae03-4235-8145-fabbd86f88a1","system_id":"levelo_inurba_marseille","lat":43.314811,"lon":5.373103,"is_reserved":false,"is_disabled":false,"rental_uris":{"android":"levelo://app?vid=3b9bd907-ae03-4235-8145-fabbd86f88a1","ios":"levelo://app?vid=3b9bd907-ae03-4235-8145-fabbd86f88a1"},"vehicle_type_id":"4","last_reported":1683292115,"current_range_meters":27200,"station_id":"ce4bgt12rcd13ifvqcd0","pricing_plan_id":"free"},{"bike_id":"81146cb1-b896-4510-9d71-8ca0991ee5d0","system_id":"levelo_inurba_marseille","lat":43.308614,"lon":5.372098,"is_reserved":false,"is_disabled":false,"rental_uris":{"android":"levelo://app?vid=81146cb1-b896-4510-9d71-8ca0991ee5d0","ios":"levelo://app?vid=81146cb1-b896-4510-9d71-8ca0991ee5d0"},"vehicle_type_id":"4","last_reported":1683292115,"current_range_meters":16400,"station_id":"ce4bguh2rcd13ifvqckg","pricing_plan_id":"free"},{"bike_id":"7ed9b987-948b-498c-a402-d6b94d6405e4","system_id":"levelo_inurba_marseille","lat":43.308614,"lon":5.372098,"is_reserved":false,"is_disabled":false,"rental_uris":{"android":"levelo://app?vid=7ed9b987-948b-498c-a402-d6b94d6405e4","ios":"levelo://app?vid=7ed9b987-948b-498c-a402-d6b94d6405e4"},"vehicle_type_id":"4","last_reported":1683292115,"current_range_meters":14800,"station_id":"ce4bguh2rcd13ifvqckg","pricing_plan_id":"free"},{"bike_id":"e91dd0b0-00be-4dce-858f-69c2f81a65c6","system_id":"levelo_inurba_marseille","lat":43.308614,"lon":5.372098,"is_reserved":false,"is_disabled":false,"rental_uris":{"android":"levelo://app?vid=e91dd0b0-00be-4dce-858f-69c2f81a65c6","ios":"levelo://app?vid=e91dd0b0-00be-4dce-858f-69c2f81a65c6"},"vehicle_type_id":"4","last_reported":1683292115,"current_range_meters":22400,"station_id":"ce4bguh2rcd13ifvqckg","pricing_plan_id":"free"},{"bike_id":"3b205ea0-d128-49f0-b2b2-e4e9baa2835b","system_id":"levelo_inurba_marseille","lat":43.31423,"lon":5.37586,"is_reserved":false,"is_disabled":false,"rental_uris":{"android":"levelo://app?vid=3b205ea0-d128-49f0-b2b2-e4e9baa2835b","ios":"levelo://app?vid=3b205ea0-d128-49f0-b2b2-e4e9baa2835b"},"vehicle_type_id":"4","last_reported":1683292115,"current_range_meters":15200,"station_id":"","pricing_plan_id":"free"},{"bike_id":"caea2489-5a5d-4f00-8e78-8c319f8ed68e","system_id":"levelo_inurba_marseille","lat":43.3057,"lon":5.36553,"is_reserved":false,"is_disabled":false,"rental_uris":{"android":"levelo://app?vid=caea2489-5a5d-4f00-8e78-8c319f8ed68e","ios":"levelo://app?vid=caea2489-5a5d-4f00-8e78-8c319f8ed68e"},"vehicle_type_id":"4","last_reported":1683292115,"current_range_meters":12000,"station_id":"","pricing_plan_id":"free"},{"bike_id":"86e7b173-4af9-4f09-83e2-d5e60eec2070","system_id":"levelo_inurba_marseille","lat":43.305368,"lon":5.367343,"is_reserved":false,"is_disabled":false,"rental_uris":{"android":"levelo://app?vid=86e7b173-4af9-4f09-83e2-d5e60eec2070","ios":"levelo://app?vid=86e7b173-4af9-4f09-83e2-d5e60eec2070"},"vehicle_type_id":"4","last_reported":1683292115,"current_range_meters":17200,"station_id":"ce4bgrp2rcd13ifvqc9g","pricing_plan_id":"free"},{"bike_id":"51cb6812-05de-42a5-813a-12eb1f8443e9","system_id":"levelo_inurba_marseille","lat":43.305706,"lon":5.365654,"is_reserved":false,"is_disabled":false,"rental_uris":{"android":"levelo://app?vid=51cb6812-05de-42a5-813a-12eb1f8443e9","ios":"levelo://app?vid=51cb6812-05de-42a5-813a-12eb1f8443e9"},"vehicle_type_id":"4","last_reported":1683292115,"current_range_meters":12400,"station_id":"ce4bgs12rcd13ifvqcag","pricing_plan_id":"free"},{"bike_id":"e67cb26f-bb48-4302-8b41-138bf2ab64c2","system_id":"levelo_inurba_marseille","lat":43.305368,"lon":5.367343,"is_reserved":false,"is_disabled":false,"rental_uris":{"android":"levelo://app?vid=e67cb26f-bb48-4302-8b41-138bf2ab64c2","ios":"levelo://app?vid=e67cb26f-bb48-4302-8b41-138bf2ab64c2"},"vehicle_type_id":"4","last_reported":1683292115,"current_range_meters":24800,"station_id":"ce4bgrp2rcd13ifvqc9g","pricing_plan_id":"free"},{"bike_id":"6bd0eca0-ce7d-4dd6-94b3-dc7637f45cca","system_id":"levelo_inurba_marseille","lat":43.305706,"lon":5.365654,"is_reserved":false,"is_disabled":false,"rental_uris":{"android":"levelo://app?vid=6bd0eca0-ce7d-4dd6-94b3-dc7637f45cca","ios":"levelo://app?vid=6bd0eca0-ce7d-4dd6-94b3-dc7637f45cca"},"vehicle_type_id":"4","last_reported":1683292115,"current_range_meters":10000,"station_id":"ce4bgs12rcd13ifvqcag","pricing_plan_id":"free"},{"bike_id":"c9d7be70-e566-4f58-9960-d0a570ed2d7d","system_id":"levelo_inurba_marseille","lat":43.305706,"lon":5.365654,"is_reserved":false,"is_disabled":false,"rental_uris":{"android":"levelo://app?vid=c9d7be70-e566-4f58-9960-d0a570ed2d7d","ios":"levelo://app?vid=c9d7be70-e566-4f58-9960-d0a570ed2d7d"},"vehicle_type_id":"4","last_reported":1683292115,"current_range_meters":17200,"station_id":"ce4bgs12rcd13ifvqcag","pricing_plan_id":"free"},{"bike_id":"53ad91f5-a077-4e64-bf78-bb230405d2ac","system_id":"levelo_inurba_marseille","lat":43.30539,"lon":5.367,"is_reserved":false,"is_disabled":false,"rental_uris":{"android":"levelo://app?vid=53ad91f5-a077-4e64-bf78-bb230405d2ac","ios":"levelo://app?vid=53ad91f5-a077-4e64-bf78-bb230405d2ac"},"vehicle_type_id":"4","last_reported":1683292115,"current_range_meters":25600,"station_id":"","pricing_plan_id":"free"},{"bike_id":"e851480c-e1c8-4d8e-85dc-cc1edf544689","system_id":"levelo_inurba_marseille","lat":43.30546,"lon":5.36528,"is_reserved":false,"is_disabled":false,"rental_uris":{"android":"levelo://app?vid=e851480c-e1c8-4d8e-85dc-cc1edf544689","ios":"levelo://app?vid=e851480c-e1c8-4d8e-85dc-cc1edf544689"},"vehicle_type_id":"4","last_reported":1683292115,"current_range_meters":31200,"station_id":"","pricing_plan_id":"free"},{"bike_id":"262503a8-3068-4ba8-82e2-5e7e2a9238e9","system_id":"levelo_inurba_marseille","lat":43.30536,"lon":5.36697,"is_reserved":false,"is_disabled":false,"rental_uris":{"android":"levelo://app?vid=262503a8-3068-4ba8-82e2-5e7e2a9238e9","ios":"levelo://app?vid=262503a8-3068-4ba8-82e2-5e7e2a9238e9"},"vehicle_type_id":"4","last_reported":1683292115,"current_range_meters":5200,"station_id":"","pricing_plan_id":"free"},{"bike_id":"9d0c80e4-1b6e-409e-bd9b-754be55347e3","system_id":"levelo_inurba_marseille","lat":43.30536,"lon":5.36701,"is_reserved":false,"is_disabled":false,"rental_uris":{"android":"levelo://app?vid=9d0c80e4-1b6e-409e-bd9b-754be55347e3","ios":"levelo://app?vid=9d0c80e4-1b6e-409e-bd9b-754be55347e3"},"vehicle_type_id":"4","last_reported":1683292115,"current_range_meters":14800,"station_id":"","pricing_plan_id":"free"},{"bike_id":"b120f0e1-37b9-420c-8af7-27f6edbbf02d","system_id":"levelo_inurba_marseille","lat":43.30535,"lon":5.36706,"is_reserved":false,"is_disabled":false,"rental_uris":{"android":"levelo://app?vid=b120f0e1-37b9-420c-8af7-27f6edbbf02d","ios":"levelo://app?vid=b120f0e1-37b9-420c-8af7-27f6edbbf02d"},"vehicle_type_id":"4","last_reported":1683292115,"current_range_meters":31200,"station_id":"ce4bgrp2rcd13ifvqc9g","pricing_plan_id":"free"},{"bike_id":"c66c5d6c-4944-4e7e-ac16-4f1091b3287a","system_id":"levelo_inurba_marseille","lat":43.305368,"lon":5.367343,"is_reserved":false,"is_disabled":false,"rental_uris":{"android":"levelo://app?vid=c66c5d6c-4944-4e7e-ac16-4f1091b3287a","ios":"levelo://app?vid=c66c5d6c-4944-4e7e-ac16-4f1091b3287a"},"vehicle_type_id":"4","last_reported":1683292115,"current_range_meters":24800,"station_id":"ce4bgrp2rcd13ifvqc9g","pricing_plan_id":"free"},{"bike_id":"9dfb3bc7-4b14-4d99-8410-a185ffe32c66","system_id":"levelo_inurba_marseille","lat":43.305706,"lon":5.365654,"is_reserved":false,"is_disabled":false,"rental_uris":{"android":"levelo://app?vid=9dfb3bc7-4b14-4d99-8410-a185ffe32c66","ios":"levelo://app?vid=9dfb3bc7-4b14-4d99-8410-a185ffe32c66"},"vehicle_type_id":"4","last_reported":1683292115,"current_range_meters":1200,"station_id":"ce4bgs12rcd13ifvqcag","pricing_plan_id":"free"},{"bike_id":"a283ee15-5292-475b-b0b2-342eba0d6ba0","system_id":"levelo_inurba_marseille","lat":43.30542,"lon":5.36535,"is_reserved":false,"is_disabled":false,"rental_uris":{"android":"levelo://app?vid=a283ee15-5292-475b-b0b2-342eba0d6ba0","ios":"levelo://app?vid=a283ee15-5292-475b-b0b2-342eba0d6ba0"},"vehicle_type_id":"4","last_reported":1683292115,"current_range_meters":29600,"station_id":"","pricing_plan_id":"free"},{"bike_id":"1b03ac3b-d0ca-4e80-bf99-8878a46f8b13","system_id":"levelo_inurba_marseille","lat":43.30542,"lon":5.36529,"is_reserved":false,"is_disabled":false,"rental_uris":{"android":"levelo://app?vid=1b03ac3b-d0ca-4e80-bf99-8878a46f8b13","ios":"levelo://app?vid=1b03ac3b-d0ca-4e80-bf99-8878a46f8b13"},"vehicle_type_id":"4","last_reported":1683292115,"current_range_meters":17200,"station_id":"","pricing_plan_id":"free"},{"bike_id":"2dc5fd4e-ec4f-4204-aeab-f05cb91bcf7c","system_id":"levelo_inurba_marseille","lat":43.305706,"lon":5.365654,"is_reserved":false,"is_disabled":false,"rental_uris":{"android":"levelo://app?vid=2dc5fd4e-ec4f-4204-aeab-f05cb91bcf7c","ios":"levelo://app?vid=2dc5fd4e-ec4f-4204-aeab-f05cb91bcf7c"},"vehicle_type_id":"4","last_reported":1683292115,"current_range_meters":12000,"station_id":"ce4bgs12rcd13ifvqcag","pricing_plan_id":"free"},{"bike_id":"dfb409b7-d78c-4fe4-829b-24e8211b3c96","system_id":"levelo_inurba_marseille","lat":43.30532,"lon":5.36707,"is_reserved":false,"is_disabled":false,"rental_uris":{"android":"levelo://app?vid=dfb409b7-d78c-4fe4-829b-24e8211b3c96","ios":"levelo://app?vid=dfb409b7-d78c-4fe4-829b-24e8211b3c96"},"vehicle_type_id":"4","last_reported":1683292115,"current_range_meters":28000,"station_id":"ce4bgrp2rcd13ifvqc9g","pricing_plan_id":"free"},{"bike_id":"599181e1-5548-436c-94bc-cc909cf59054","system_id":"levelo_inurba_marseille","lat":43.305706,"lon":5.365654,"is_reserved":false,"is_disabled":false,"rental_uris":{"android":"levelo://app?vid=599181e1-5548-436c-94bc-cc909cf59054","ios":"levelo://app?vid=599181e1-5548-436c-94bc-cc909cf59054"},"vehicle_type_id":"4","last_reported":1683292115,"current_range_meters":16800,"station_id":"ce4bgs12rcd13ifvqcag","pricing_plan_id":"free"},{"bike_id":"153c7025-3052-4320-abd0-e43d4117ebe1","system_id":"levelo_inurba_marseille","lat":43.3053,"lon":5.36704,"is_reserved":false,"is_disabled":false,"rental_uris":{"android":"levelo://app?vid=153c7025-3052-4320-abd0-e43d4117ebe1","ios":"levelo://app?vid=153c7025-3052-4320-abd0-e43d4117ebe1"},"vehicle_type_id":"4","last_reported":1683292115,"current_range_meters":10000,"station_id":"ce4bgrp2rcd13ifvqc9g","pricing_plan_id":"free"},{"bike_id":"6f8acc4b-f9d6-4727-a315-ab90d98ee727","system_id":"levelo_inurba_marseille","lat":43.305706,"lon":5.365654,"is_reserved":false,"is_disabled":false,"rental_uris":{"android":"levelo://app?vid=6f8acc4b-f9d6-4727-a315-ab90d98ee727","ios":"levelo://app?vid=6f8acc4b-f9d6-4727-a315-ab90d98ee727"},"vehicle_type_id":"4","last_reported":1683292115,"current_range_meters":20800,"station_id":"ce4bgs12rcd13ifvqcag","pricing_plan_id":"free"},{"bike_id":"b479ced6-b96e-4d05-9cbb-6c52eff7b10d","system_id":"levelo_inurba_marseille","lat":43.305706,"lon":5.365654,"is_reserved":false,"is_disabled":false,"rental_uris":{"android":"levelo://app?vid=b479ced6-b96e-4d05-9cbb-6c52eff7b10d","ios":"levelo://app?vid=b479ced6-b96e-4d05-9cbb-6c52eff7b10d"},"vehicle_type_id":"4","last_reported":1683292115,"current_range_meters":13600,"station_id":"ce4bgs12rcd13ifvqcag","pricing_plan_id":"free"},{"bike_id":"b3d868bc-1779-4320-8b61-4fdb2c753d45","system_id":"levelo_inurba_marseille","lat":43.305706,"lon":5.365654,"is_reserved":false,"is_disabled":false,"rental_uris":{"android":"levelo://app?vid=b3d868bc-1779-4320-8b61-4fdb2c753d45","ios":"levelo://app?vid=b3d868bc-1779-4320-8b61-4fdb2c753d45"},"vehicle_type_id":"4","last_reported":1683292115,"current_range_meters":15600,"station_id":"ce4bgs12rcd13ifvqcag","pricing_plan_id":"free"},{"bike_id":"c7f0d2d2-23de-4761-b5ca-ffe461fef0de","system_id":"levelo_inurba_marseille","lat":43.30536,"lon":5.36534,"is_reserved":false,"is_disabled":false,"rental_uris":{"android":"levelo://app?vid=c7f0d2d2-23de-4761-b5ca-ffe461fef0de","ios":"levelo://app?vid=c7f0d2d2-23de-4761-b5ca-ffe461fef0de"},"vehicle_type_id":"4","last_reported":1683292115,"current_range_meters":20000,"station_id":"","pricing_plan_id":"free"},{"bike_id":"23da805f-5254-482f-83ad-7f0df080b4b2","system_id":"levelo_inurba_marseille","lat":43.30536,"lon":5.36531,"is_reserved":false,"is_disabled":false,"rental_uris":{"android":"levelo://app?vid=23da805f-5254-482f-83ad-7f0df080b4b2","ios":"levelo://app?vid=23da805f-5254-482f-83ad-7f0df080b4b2"},"vehicle_type_id":"4","last_reported":1683292115,"current_range_meters":17600,"station_id":"","pricing_plan_id":"free"},{"bike_id":"5d833f2b-eb24-41d7-9be2-11e91b320138","system_id":"levelo_inurba_marseille","lat":43.305706,"lon":5.365654,"is_reserved":false,"is_disabled":false,"rental_uris":{"android":"levelo://app?vid=5d833f2b-eb24-41d7-9be2-11e91b320138","ios":"levelo://app?vid=5d833f2b-eb24-41d7-9be2-11e91b320138"},"vehicle_type_id":"4","last_reported":1683292115,"current_range_meters":31200,"station_id":"ce4bgs12rcd13ifvqcag","pricing_plan_id":"free"},{"bike_id":"a63f8726-e315-41e9-b651-1ab44eec3e61","system_id":"levelo_inurba_marseille","lat":43.305706,"lon":5.365654,"is_reserved":false,"is_disabled":false,"rental_uris":{"android":"levelo://app?vid=a63f8726-e315-41e9-b651-1ab44eec3e61","ios":"levelo://app?vid=a63f8726-e315-41e9-b651-1ab44eec3e61"},"vehicle_type_id":"4","last_reported":1683292115,"current_range_meters":28000,"station_id":"ce4bgs12rcd13ifvqcag","pricing_plan_id":"free"},{"bike_id":"0900bf72-dab0-4848-89e6-086b563a7fa9","system_id":"levelo_inurba_marseille","lat":43.305706,"lon":5.365654,"is_reserved":false,"is_disabled":false,"rental_uris":{"android":"levelo://app?vid=0900bf72-dab0-4848-89e6-086b563a7fa9","ios":"levelo://app?vid=0900bf72-dab0-4848-89e6-086b563a7fa9"},"vehicle_type_id":"4","last_reported":1683292115,"current_range_meters":29600,"station_id":"ce4bgs12rcd13ifvqcag","pricing_plan_id":"free"},{"bike_id":"779156dc-7b56-47e9-8683-bccd33e86eb7","system_id":"levelo_inurba_marseille","lat":43.305989,"lon":5.37225,"is_reserved":false,"is_disabled":false,"rental_uris":{"android":"levelo://app?vid=779156dc-7b56-47e9-8683-bccd33e86eb7","ios":"levelo://app?vid=779156dc-7b56-47e9-8683-bccd33e86eb7"},"vehicle_type_id":"4","last_reported":1683292115,"current_range_meters":21200,"station_id":"ce4bgqh2rcd13ifvqc4g","pricing_plan_id":"free"},{"bike_id":"3940829e-4b32-44c9-b730-9ac52059c3cd","system_id":"levelo_inurba_marseille","lat":43.305989,"lon":5.37225,"is_reserved":false,"is_disabled":false,"rental_uris":{"android":"levelo://app?vid=3940829e-4b32-44c9-b730-9ac52059c3cd","ios":"levelo://app?vid=3940829e-4b32-44c9-b730-9ac52059c3cd"},"vehicle_type_id":"4","last_reported":1683292115,"current_range_meters":21600,"station_id":"ce4bgqh2rcd13ifvqc4g","pricing_plan_id":"free"},{"bike_id":"7341586c-6dda-4796-ad76-3f29425e2122","system_id":"levelo_inurba_marseille","lat":43.305989,"lon":5.37225,"is_reserved":false,"is_disabled":false,"rental_uris":{"android":"levelo://app?vid=7341586c-6dda-4796-ad76-3f29425e2122","ios":"levelo://app?vid=7341586c-6dda-4796-ad76-3f29425e2122"},"vehicle_type_id":"4","last_reported":1683292115,"current_range_meters":30000,"station_id":"ce4bgqh2rcd13ifvqc4g","pricing_plan_id":"free"},{"bike_id":"b49748c7-6fe2-4e88-bfdb-dbcb289918e7","system_id":"levelo_inurba_marseille","lat":43.305989,"lon":5.37225,"is_reserved":false,"is_disabled":false,"rental_uris":{"android":"levelo://app?vid=b49748c7-6fe2-4e88-bfdb-dbcb289918e7","ios":"levelo://app?vid=b49748c7-6fe2-4e88-bfdb-dbcb289918e7"},"vehicle_type_id":"4","last_reported":1683292115,"current_range_meters":28800,"station_id":"ce4bgqh2rcd13ifvqc4g","pricing_plan_id":"free"},{"bike_id":"d472f872-7466-4604-8995-91f6751e2573","system_id":"levelo_inurba_marseille","lat":43.311131,"lon":5.377651,"is_reserved":false,"is_disabled":false,"rental_uris":{"android":"levelo://app?vid=d472f872-7466-4604-8995-91f6751e2573","ios":"levelo://app?vid=d472f872-7466-4604-8995-91f6751e2573"},"vehicle_type_id":"4","last_reported":1683292115,"current_range_meters":19600,"station_id":"ce4bgt92rcd13ifvqcg0","pricing_plan_id":"free"},{"bike_id":"567c4150-3672-4f5c-9c2e-56788dbf8628","system_id":"levelo_inurba_marseille","lat":43.317075,"lon":5.377367,"is_reserved":false,"is_disabled":false,"rental_uris":{"android":"levelo://app?vid=567c4150-3672-4f5c-9c2e-56788dbf8628","ios":"levelo://app?vid=567c4150-3672-4f5c-9c2e-56788dbf8628"},"vehicle_type_id":"4","last_reported":1683292115,"current_range_meters":15600,"station_id":"ce4bgth2rcd13ifvqch0","pricing_plan_id":"free"},{"bike_id":"7d5a1c74-e368-4ea0-9af7-95f27bdc510d","system_id":"levelo_inurba_marseille","lat":43.303046,"lon":5.368981,"is_reserved":false,"is_disabled":false,"rental_uris":{"android":"levelo://app?vid=7d5a1c74-e368-4ea0-9af7-95f27bdc510d","ios":"levelo://app?vid=7d5a1c74-e368-4ea0-9af7-95f27bdc510d"},"vehicle_type_id":"4","last_reported":1683292115,"current_range_meters":30400,"station_id":"ce4bgqh2rcd13ifvqc5g","pricing_plan_id":"free"},{"bike_id":"5478f1b2-9773-4e19-9f17-5523d8178e7d","system_id":"levelo_inurba_marseille","lat":43.303046,"lon":5.368981,"is_reserved":false,"is_disabled":false,"rental_uris":{"android":"levelo://app?vid=5478f1b2-9773-4e19-9f17-5523d8178e7d","ios":"levelo://app?vid=5478f1b2-9773-4e19-9f17-5523d8178e7d"},"vehicle_type_id":"4","last_reported":1683292115,"current_range_meters":31200,"station_id":"ce4bgqh2rcd13ifvqc5g","pricing_plan_id":"free"},{"bike_id":"02d464ad-64f9-499d-b664-2acda4d10419","system_id":"levelo_inurba_marseille","lat":43.303046,"lon":5.368981,"is_reserved":false,"is_disabled":false,"rental_uris":{"android":"levelo://app?vid=02d464ad-64f9-499d-b664-2acda4d10419","ios":"levelo://app?vid=02d464ad-64f9-499d-b664-2acda4d10419"},"vehicle_type_id":"4","last_reported":1683292115,"current_range_meters":31200,"station_id":"ce4bgqh2rcd13ifvqc5g","pricing_plan_id":"free"},{"bike_id":"8d6d356a-fec7-4180-b6ad-c3f974915b76","system_id":"levelo_inurba_marseille","lat":43.303046,"lon":5.368981,"is_reserved":false,"is_disabled":false,"rental_uris":{"android":"levelo://app?vid=8d6d356a-fec7-4180-b6ad-c3f974915b76","ios":"levelo://app?vid=8d6d356a-fec7-4180-b6ad-c3f974915b76"},"vehicle_type_id":"4","last_reported":1683292115,"current_range_meters":26400,"station_id":"ce4bgqh2rcd13ifvqc5g","pricing_plan_id":"free"},{"bike_id":"4266065c-702e-40b7-8cfa-ec37b2aefdde","system_id":"levelo_inurba_marseille","lat":43.303046,"lon":5.368981,"is_reserved":false,"is_disabled":false,"rental_uris":{"android":"levelo://app?vid=4266065c-702e-40b7-8cfa-ec37b2aefdde","ios":"levelo://app?vid=4266065c-702e-40b7-8cfa-ec37b2aefdde"},"vehicle_type_id":"4","last_reported":1683292115,"current_range_meters":31200,"station_id":"ce4bgqh2rcd13ifvqc5g","pricing_plan_id":"free"},{"bike_id":"ae9dc290-5424-4d07-a83f-fae12d025b3f","system_id":"levelo_inurba_marseille","lat":43.303046,"lon":5.368981,"is_reserved":false,"is_disabled":false,"rental_uris":{"android":"levelo://app?vid=ae9dc290-5424-4d07-a83f-fae12d025b3f","ios":"levelo://app?vid=ae9dc290-5424-4d07-a83f-fae12d025b3f"},"vehicle_type_id":"4","last_reported":1683292115,"current_range_meters":24000,"station_id":"ce4bgqh2rcd13ifvqc5g","pricing_plan_id":"free"},{"bike_id":"91e56c21-28fb-4a90-ac24-7f21c2914df2","system_id":"levelo_inurba_marseille","lat":43.301939,"lon":5.366286,"is_reserved":false,"is_disabled":false,"rental_uris":{"android":"levelo://app?vid=91e56c21-28fb-4a90-ac24-7f21c2914df2","ios":"levelo://app?vid=91e56c21-28fb-4a90-ac24-7f21c2914df2"},"vehicle_type_id":"4","last_reported":1683292115,"current_range_meters":7200,"station_id":"ce4bgrh2rcd13ifvqc8g","pricing_plan_id":"free"},{"bike_id":"040aa4eb-500b-41c6-90e1-f9c7b1809c65","system_id":"levelo_inurba_marseille","lat":43.301939,"lon":5.366286,"is_reserved":false,"is_disabled":false,"rental_uris":{"android":"levelo://app?vid=040aa4eb-500b-41c6-90e1-f9c7b1809c65","ios":"levelo://app?vid=040aa4eb-500b-41c6-90e1-f9c7b1809c65"},"vehicle_type_id":"4","last_reported":1683292115,"current_range_meters":3600,"station_id":"ce4bgrh2rcd13ifvqc8g","pricing_plan_id":"free"},{"bike_id":"29913f1f-381b-4f69-b437-e340ceb56074","system_id":"levelo_inurba_marseille","lat":43.31611,"lon":5.38155,"is_reserved":false,"is_disabled":false,"rental_uris":{"android":"levelo://app?vid=29913f1f-381b-4f69-b437-e340ceb56074","ios":"levelo://app?vid=29913f1f-381b-4f69-b437-e340ceb56074"},"vehicle_type_id":"4","last_reported":1683292115,"current_range_meters":25200,"station_id":"","pricing_plan_id":"free"},{"bike_id":"5ddfb00a-0375-42eb-a7ea-038dd280a82f","system_id":"levelo_inurba_marseille","lat":43.308012,"lon":5.381511,"is_reserved":false,"is_disabled":false,"rental_uris":{"android":"levelo://app?vid=5ddfb00a-0375-42eb-a7ea-038dd280a82f","ios":"levelo://app?vid=5ddfb00a-0375-42eb-a7ea-038dd280a82f"},"vehicle_type_id":"4","last_reported":1683292115,"current_range_meters":26400,"station_id":"ce4bgt12rcd13ifvqce0","pricing_plan_id":"free"},{"bike_id":"694d1378-3ccb-4c05-95a9-f733890dfdcc","system_id":"levelo_inurba_marseille","lat":43.308012,"lon":5.381511,"is_reserved":false,"is_disabled":false,"rental_uris":{"android":"levelo://app?vid=694d1378-3ccb-4c05-95a9-f733890dfdcc","ios":"levelo://app?vid=694d1378-3ccb-4c05-95a9-f733890dfdcc"},"vehicle_type_id":"4","last_reported":1683292115,"current_range_meters":4000,"station_id":"ce4bgt12rcd13ifvqce0","pricing_plan_id":"free"},{"bike_id":"6668a91b-e74a-447f-b62e-4e07c1f5e08f","system_id":"levelo_inurba_marseille","lat":43.308012,"lon":5.381511,"is_reserved":false,"is_disabled":false,"rental_uris":{"android":"levelo://app?vid=6668a91b-e74a-447f-b62e-4e07c1f5e08f","ios":"levelo://app?vid=6668a91b-e74a-447f-b62e-4e07c1f5e08f"},"vehicle_type_id":"4","last_reported":1683292115,"current_range_meters":16000,"station_id":"ce4bgt12rcd13ifvqce0","pricing_plan_id":"free"},{"bike_id":"5ae07b7d-f4c3-4b80-9a3a-b8e23e07047a","system_id":"levelo_inurba_marseille","lat":43.30462,"lon":5.37898,"is_reserved":false,"is_disabled":false,"rental_uris":{"android":"levelo://app?vid=5ae07b7d-f4c3-4b80-9a3a-b8e23e07047a","ios":"levelo://app?vid=5ae07b7d-f4c3-4b80-9a3a-b8e23e07047a"},"vehicle_type_id":"4","last_reported":1683292115,"current_range_meters":12400,"station_id":"ce4bgup2rcd13ifvqcn0","pricing_plan_id":"free"},{"bike_id":"2d2451d5-57c0-437a-a263-dcb63962d5ff","system_id":"levelo_inurba_marseille","lat":43.304606,"lon":5.379026,"is_reserved":false,"is_disabled":false,"rental_uris":{"android":"levelo://app?vid=2d2451d5-57c0-437a-a263-dcb63962d5ff","ios":"levelo://app?vid=2d2451d5-57c0-437a-a263-dcb63962d5ff"},"vehicle_type_id":"4","last_reported":1683292115,"current_range_meters":31200,"station_id":"ce4bgup2rcd13ifvqcn0","pricing_plan_id":"free"},{"bike_id":"82a7ff34-dd03-424b-9958-b03a5436936a","system_id":"levelo_inurba_marseille","lat":43.30461,"lon":5.37899,"is_reserved":false,"is_disabled":false,"rental_uris":{"android":"levelo://app?vid=82a7ff34-dd03-424b-9958-b03a5436936a","ios":"levelo://app?vid=82a7ff34-dd03-424b-9958-b03a5436936a"},"vehicle_type_id":"4","last_reported":1683292115,"current_range_meters":17600,"station_id":"ce4bgup2rcd13ifvqcn0","pricing_plan_id":"free"},{"bike_id":"27f0cd8a-3a3c-4a0c-8f90-c818d011796f","system_id":"levelo_inurba_marseille","lat":43.304606,"lon":5.379026,"is_reserved":false,"is_disabled":false,"rental_uris":{"android":"levelo://app?vid=27f0cd8a-3a3c-4a0c-8f90-c818d011796f","ios":"levelo://app?vid=27f0cd8a-3a3c-4a0c-8f90-c818d011796f"},"vehicle_type_id":"4","last_reported":1683292115,"current_range_meters":31200,"station_id":"ce4bgup2rcd13ifvqcn0","pricing_plan_id":"free"},{"bike_id":"69fb9770-1301-4789-b67f-f76cdd55c7fd","system_id":"levelo_inurba_marseille","lat":43.30465,"lon":5.37905,"is_reserved":false,"is_disabled":false,"rental_uris":{"android":"levelo://app?vid=69fb9770-1301-4789-b67f-f76cdd55c7fd","ios":"levelo://app?vid=69fb9770-1301-4789-b67f-f76cdd55c7fd"},"vehicle_type_id":"4","last_reported":1683292115,"current_range_meters":26800,"station_id":"ce4bgup2rcd13ifvqcn0","pricing_plan_id":"free"},{"bike_id":"3bb0af25-38f4-455c-9e28-de815f11bf6e","system_id":"levelo_inurba_marseille","lat":43.3046,"lon":5.37899,"is_reserved":false,"is_disabled":false,"rental_uris":{"android":"levelo://app?vid=3bb0af25-38f4-455c-9e28-de815f11bf6e","ios":"levelo://app?vid=3bb0af25-38f4-455c-9e28-de815f11bf6e"},"vehicle_type_id":"4","last_reported":1683292115,"current_range_meters":31200,"station_id":"ce4bgup2rcd13ifvqcn0","pricing_plan_id":"free"},{"bike_id":"d93dd5d3-1881-4866-a684-a73bd4f59654","system_id":"levelo_inurba_marseille","lat":43.30464,"lon":5.37908,"is_reserved":false,"is_disabled":false,"rental_uris":{"android":"levelo://app?vid=d93dd5d3-1881-4866-a684-a73bd4f59654","ios":"levelo://app?vid=d93dd5d3-1881-4866-a684-a73bd4f59654"},"vehicle_type_id":"4","last_reported":1683292115,"current_range_meters":29200,"station_id":"ce4bgup2rcd13ifvqcn0","pricing_plan_id":"free"},{"bike_id":"43be12f9-1aa5-4ac8-8a78-b8f0df9ce2b9","system_id":"levelo_inurba_marseille","lat":43.304606,"lon":5.379026,"is_reserved":false,"is_disabled":false,"rental_uris":{"android":"levelo://app?vid=43be12f9-1aa5-4ac8-8a78-b8f0df9ce2b9","ios":"levelo://app?vid=43be12f9-1aa5-4ac8-8a78-b8f0df9ce2b9"},"vehicle_type_id":"4","last_reported":1683292115,"current_range_meters":23600,"station_id":"ce4bgup2rcd13ifvqcn0","pricing_plan_id":"free"},{"bike_id":"7a5ccf04-f1c8-407e-bd24-3a630f2a881f","system_id":"levelo_inurba_marseille","lat":43.30465,"lon":5.37913,"is_reserved":false,"is_disabled":false,"rental_uris":{"android":"levelo://app?vid=7a5ccf04-f1c8-407e-bd24-3a630f2a881f","ios":"levelo://app?vid=7a5ccf04-f1c8-407e-bd24-3a630f2a881f"},"vehicle_type_id":"4","last_reported":1683292115,"current_range_meters":29200,"station_id":"ce4bgup2rcd13ifvqcn0","pricing_plan_id":"free"},{"bike_id":"0bc08b09-0795-4a5b-8e5c-60844feb12a6","system_id":"levelo_inurba_marseille","lat":43.304606,"lon":5.379026,"is_reserved":false,"is_disabled":false,"rental_uris":{"android":"levelo://app?vid=0bc08b09-0795-4a5b-8e5c-60844feb12a6","ios":"levelo://app?vid=0bc08b09-0795-4a5b-8e5c-60844feb12a6"},"vehicle_type_id":"4","last_reported":1683292115,"current_range_meters":29200,"station_id":"ce4bgup2rcd13ifvqcn0","pricing_plan_id":"free"},{"bike_id":"9758999e-f982-40e0-a707-51ffca637544","system_id":"levelo_inurba_marseille","lat":43.304606,"lon":5.379026,"is_reserved":false,"is_disabled":false,"rental_uris":{"android":"levelo://app?vid=9758999e-f982-40e0-a707-51ffca637544","ios":"levelo://app?vid=9758999e-f982-40e0-a707-51ffca637544"},"vehicle_type_id":"4","last_reported":1683292115,"current_range_meters":30400,"station_id":"ce4bgup2rcd13ifvqcn0","pricing_plan_id":"free"},{"bike_id":"c844bfad-8927-4a17-86ce-114a6ef36468","system_id":"levelo_inurba_marseille","lat":43.30148,"lon":5.37422,"is_reserved":false,"is_disabled":false,"rental_uris":{"android":"levelo://app?vid=c844bfad-8927-4a17-86ce-114a6ef36468","ios":"levelo://app?vid=c844bfad-8927-4a17-86ce-114a6ef36468"},"vehicle_type_id":"4","last_reported":1683292115,"current_range_meters":23200,"station_id":"ce4bgs92rcd13ifvqcc0","pricing_plan_id":"free"},{"bike_id":"e4173a25-058f-4759-be27-293ff28620dc","system_id":"levelo_inurba_marseille","lat":43.30145,"lon":5.37415,"is_reserved":false,"is_disabled":false,"rental_uris":{"android":"levelo://app?vid=e4173a25-058f-4759-be27-293ff28620dc","ios":"levelo://app?vid=e4173a25-058f-4759-be27-293ff28620dc"},"vehicle_type_id":"4","last_reported":1683292115,"current_range_meters":19200,"station_id":"ce4bgs92rcd13ifvqcc0","pricing_plan_id":"free"},{"bike_id":"2492fe24-3208-413e-a00b-6dc5b777ab6d","system_id":"levelo_inurba_marseille","lat":43.301429,"lon":5.37413,"is_reserved":false,"is_disabled":false,"rental_uris":{"android":"levelo://app?vid=2492fe24-3208-413e-a00b-6dc5b777ab6d","ios":"levelo://app?vid=2492fe24-3208-413e-a00b-6dc5b777ab6d"},"vehicle_type_id":"4","last_reported":1683292115,"current_range_meters":26000,"station_id":"ce4bgs92rcd13ifvqcc0","pricing_plan_id":"free"},{"bike_id":"26c52862-3dca-462d-b75f-e34f6c80dee9","system_id":"levelo_inurba_marseille","lat":43.301429,"lon":5.37413,"is_reserved":false,"is_disabled":false,"rental_uris":{"android":"levelo://app?vid=26c52862-3dca-462d-b75f-e34f6c80dee9","ios":"levelo://app?vid=26c52862-3dca-462d-b75f-e34f6c80dee9"},"vehicle_type_id":"4","last_reported":1683292115,"current_range_meters":2000,"station_id":"ce4bgs92rcd13ifvqcc0","pricing_plan_id":"free"},{"bike_id":"e8b1c0df-cbec-4431-8b35-2100808eb62f","system_id":"levelo_inurba_marseille","lat":43.30135,"lon":5.37422,"is_reserved":false,"is_disabled":false,"rental_uris":{"android":"levelo://app?vid=e8b1c0df-cbec-4431-8b35-2100808eb62f","ios":"levelo://app?vid=e8b1c0df-cbec-4431-8b35-2100808eb62f"},"vehicle_type_id":"4","last_reported":1683292115,"current_range_meters":11200,"station_id":"ce4bgs92rcd13ifvqcc0","pricing_plan_id":"free"},{"bike_id":"183450b5-701f-4013-9e8f-c6074dacbf84","system_id":"levelo_inurba_marseille","lat":43.30139,"lon":5.37441,"is_reserved":false,"is_disabled":false,"rental_uris":{"android":"levelo://app?vid=183450b5-701f-4013-9e8f-c6074dacbf84","ios":"levelo://app?vid=183450b5-701f-4013-9e8f-c6074dacbf84"},"vehicle_type_id":"4","last_reported":1683292115,"current_range_meters":21200,"station_id":"ce4bgs92rcd13ifvqcc0","pricing_plan_id":"free"},{"bike_id":"ae9c1d7b-705e-4de0-81ad-34fc5b96da31","system_id":"levelo_inurba_marseille","lat":43.313571,"lon":5.384829,"is_reserved":false,"is_disabled":false,"rental_uris":{"android":"levelo://app?vid=ae9c1d7b-705e-4de0-81ad-34fc5b96da31","ios":"levelo://app?vid=ae9c1d7b-705e-4de0-81ad-34fc5b96da31"},"vehicle_type_id":"4","last_reported":1683292115,"current_range_meters":30400,"station_id":"ce4bgt92rcd13ifvqcf0","pricing_plan_id":"free"},{"bike_id":"9d697f79-1537-4009-9301-b9441997e011","system_id":"levelo_inurba_marseille","lat":43.313571,"lon":5.384829,"is_reserved":false,"is_disabled":false,"rental_uris":{"android":"levelo://app?vid=9d697f79-1537-4009-9301-b9441997e011","ios":"levelo://app?vid=9d697f79-1537-4009-9301-b9441997e011"},"vehicle_type_id":"4","last_reported":1683292115,"current_range_meters":31200,"station_id":"ce4bgt92rcd13ifvqcf0","pricing_plan_id":"free"},{"bike_id":"c2a4e29d-03fe-4bfa-8e67-671f2dc1839b","system_id":"levelo_inurba_marseille","lat":43.313571,"lon":5.384829,"is_reserved":false,"is_disabled":false,"rental_uris":{"android":"levelo://app?vid=c2a4e29d-03fe-4bfa-8e67-671f2dc1839b","ios":"levelo://app?vid=c2a4e29d-03fe-4bfa-8e67-671f2dc1839b"},"vehicle_type_id":"4","last_reported":1683292115,"current_range_meters":21200,"station_id":"ce4bgt92rcd13ifvqcf0","pricing_plan_id":"free"},{"bike_id":"f76102e6-2f8b-4b32-99e5-09ccbe171e12","system_id":"levelo_inurba_marseille","lat":43.313577,"lon":5.384885,"is_reserved":false,"is_disabled":false,"rental_uris":{"android":"levelo://app?vid=f76102e6-2f8b-4b32-99e5-09ccbe171e12","ios":"levelo://app?vid=f76102e6-2f8b-4b32-99e5-09ccbe171e12"},"vehicle_type_id":"4","last_reported":1683292115,"current_range_meters":31200,"station_id":"ce4bgt92rcd13ifvqcf0","pricing_plan_id":"free"},{"bike_id":"929c8487-e961-4c42-8958-16e9333c758c","system_id":"levelo_inurba_marseille","lat":43.313569,"lon":5.384897,"is_reserved":false,"is_disabled":false,"rental_uris":{"android":"levelo://app?vid=929c8487-e961-4c42-8958-16e9333c758c","ios":"levelo://app?vid=929c8487-e961-4c42-8958-16e9333c758c"},"vehicle_type_id":"4","last_reported":1683292115,"current_range_meters":31200,"station_id":"ce4bgt92rcd13ifvqcf0","pricing_plan_id":"free"},{"bike_id":"7012d690-87e1-457f-9bc0-65d92c07d91c","system_id":"levelo_inurba_marseille","lat":43.31365,"lon":5.38502,"is_reserved":false,"is_disabled":false,"rental_uris":{"android":"levelo://app?vid=7012d690-87e1-457f-9bc0-65d92c07d91c","ios":"levelo://app?vid=7012d690-87e1-457f-9bc0-65d92c07d91c"},"vehicle_type_id":"4","last_reported":1683292115,"current_range_meters":13200,"station_id":"ce4bgt92rcd13ifvqcf0","pricing_plan_id":"free"},{"bike_id":"b3bf9492-5d6f-41c4-88e4-667e5aaf8f87","system_id":"levelo_inurba_marseille","lat":43.299222,"lon":5.365554,"is_reserved":false,"is_disabled":false,"rental_uris":{"android":"levelo://app?vid=b3bf9492-5d6f-41c4-88e4-667e5aaf8f87","ios":"levelo://app?vid=b3bf9492-5d6f-41c4-88e4-667e5aaf8f87"},"vehicle_type_id":"4","last_reported":1683292115,"current_range_meters":26000,"station_id":"ce4bgm92rcd13ifvqbr0","pricing_plan_id":"free"},{"bike_id":"5144bcd2-5dc3-47f6-a2a7-4196c8e96721","system_id":"levelo_inurba_marseille","lat":43.299209,"lon":5.365547,"is_reserved":false,"is_disabled":false,"rental_uris":{"android":"levelo://app?vid=5144bcd2-5dc3-47f6-a2a7-4196c8e96721","ios":"levelo://app?vid=5144bcd2-5dc3-47f6-a2a7-4196c8e96721"},"vehicle_type_id":"4","last_reported":1683292115,"current_range_meters":11600,"station_id":"ce4bgm92rcd13ifvqbr0","pricing_plan_id":"free"},{"bike_id":"8b509f65-6cd4-4abb-a464-a56dfeb93a33","system_id":"levelo_inurba_marseille","lat":43.299209,"lon":5.365547,"is_reserved":false,"is_disabled":false,"rental_uris":{"android":"levelo://app?vid=8b509f65-6cd4-4abb-a464-a56dfeb93a33","ios":"levelo://app?vid=8b509f65-6cd4-4abb-a464-a56dfeb93a33"},"vehicle_type_id":"4","last_reported":1683292115,"current_range_meters":21200,"station_id":"ce4bgm92rcd13ifvqbr0","pricing_plan_id":"free"},{"bike_id":"e50a4c0f-6c90-4297-984c-b4ab881d109a","system_id":"levelo_inurba_marseille","lat":43.30018,"lon":5.37448,"is_reserved":false,"is_disabled":false,"rental_uris":{"android":"levelo://app?vid=e50a4c0f-6c90-4297-984c-b4ab881d109a","ios":"levelo://app?vid=e50a4c0f-6c90-4297-984c-b4ab881d109a"},"vehicle_type_id":"4","last_reported":1683292115,"current_range_meters":18800,"station_id":"","pricing_plan_id":"free"},{"bike_id":"bcf12486-4d40-4884-969b-2c19f244a968","system_id":"levelo_inurba_marseille","lat":43.29869,"lon":5.36712,"is_reserved":false,"is_disabled":false,"rental_uris":{"android":"levelo://app?vid=bcf12486-4d40-4884-969b-2c19f244a968","ios":"levelo://app?vid=bcf12486-4d40-4884-969b-2c19f244a968"},"vehicle_type_id":"4","last_reported":1683292115,"current_range_meters":4400,"station_id":"","pricing_plan_id":"free"},{"bike_id":"d5227791-26e9-4af7-b1f5-120598963ceb","system_id":"levelo_inurba_marseille","lat":43.30544,"lon":5.38422,"is_reserved":false,"is_disabled":false,"rental_uris":{"android":"levelo://app?vid=d5227791-26e9-4af7-b1f5-120598963ceb","ios":"levelo://app?vid=d5227791-26e9-4af7-b1f5-120598963ceb"},"vehicle_type_id":"4","last_reported":1683292115,"current_range_meters":16800,"station_id":"ce4bgg92rcd13ifvqb30","pricing_plan_id":"free"},{"bike_id":"0d976b5c-1d39-43ea-9091-cbddd9b50c69","system_id":"levelo_inurba_marseille","lat":43.305349,"lon":5.384151,"is_reserved":false,"is_disabled":false,"rental_uris":{"android":"levelo://app?vid=0d976b5c-1d39-43ea-9091-cbddd9b50c69","ios":"levelo://app?vid=0d976b5c-1d39-43ea-9091-cbddd9b50c69"},"vehicle_type_id":"4","last_reported":1683292115,"current_range_meters":4800,"station_id":"ce4bgg92rcd13ifvqb30","pricing_plan_id":"free"},{"bike_id":"fca266fe-c1d3-4b41-b5b8-96515421f955","system_id":"levelo_inurba_marseille","lat":43.305364,"lon":5.384119,"is_reserved":false,"is_disabled":false,"rental_uris":{"android":"levelo://app?vid=fca266fe-c1d3-4b41-b5b8-96515421f955","ios":"levelo://app?vid=fca266fe-c1d3-4b41-b5b8-96515421f955"},"vehicle_type_id":"4","last_reported":1683292115,"current_range_meters":20000,"station_id":"ce4bgg92rcd13ifvqb30","pricing_plan_id":"free"},{"bike_id":"aef382e4-250d-4606-9c07-c006220651df","system_id":"levelo_inurba_marseille","lat":43.305364,"lon":5.384119,"is_reserved":false,"is_disabled":false,"rental_uris":{"android":"levelo://app?vid=aef382e4-250d-4606-9c07-c006220651df","ios":"levelo://app?vid=aef382e4-250d-4606-9c07-c006220651df"},"vehicle_type_id":"4","last_reported":1683292115,"current_range_meters":21600,"station_id":"ce4bgg92rcd13ifvqb30","pricing_plan_id":"free"},{"bike_id":"7f9fc6de-7b7f-40f0-a1db-d750ad925b6d","system_id":"levelo_inurba_marseille","lat":43.305309,"lon":5.384164,"is_reserved":false,"is_disabled":false,"rental_uris":{"android":"levelo://app?vid=7f9fc6de-7b7f-40f0-a1db-d750ad925b6d","ios":"levelo://app?vid=7f9fc6de-7b7f-40f0-a1db-d750ad925b6d"},"vehicle_type_id":"4","last_reported":1683292115,"current_range_meters":20000,"station_id":"ce4bgg92rcd13ifvqb30","pricing_plan_id":"free"},{"bike_id":"6ba2aee0-e906-48da-be1e-51e16bf4fb48","system_id":"levelo_inurba_marseille","lat":43.298433,"lon":5.362774,"is_reserved":false,"is_disabled":false,"rental_uris":{"android":"levelo://app?vid=6ba2aee0-e906-48da-be1e-51e16bf4fb48","ios":"levelo://app?vid=6ba2aee0-e906-48da-be1e-51e16bf4fb48"},"vehicle_type_id":"4","last_reported":1683292115,"current_range_meters":14400,"station_id":"ce4bgpp2rcd13ifvqc3g","pricing_plan_id":"free"},{"bike_id":"d11c6e0a-065a-40f3-abe6-f592c901610a","system_id":"levelo_inurba_marseille","lat":43.305364,"lon":5.384119,"is_reserved":false,"is_disabled":false,"rental_uris":{"android":"levelo://app?vid=d11c6e0a-065a-40f3-abe6-f592c901610a","ios":"levelo://app?vid=d11c6e0a-065a-40f3-abe6-f592c901610a"},"vehicle_type_id":"4","last_reported":1683292115,"current_range_meters":31200,"station_id":"ce4bgg92rcd13ifvqb30","pricing_plan_id":"free"},{"bike_id":"0fefe66c-5159-44fa-a513-bf0e94c9582c","system_id":"levelo_inurba_marseille","lat":43.305364,"lon":5.384119,"is_reserved":false,"is_disabled":false,"rental_uris":{"android":"levelo://app?vid=0fefe66c-5159-44fa-a513-bf0e94c9582c","ios":"levelo://app?vid=0fefe66c-5159-44fa-a513-bf0e94c9582c"},"vehicle_type_id":"4","last_reported":1683292115,"current_range_meters":31200,"station_id":"ce4bgg92rcd13ifvqb30","pricing_plan_id":"free"},{"bike_id":"007644db-764f-4bce-942a-f940e433db6d","system_id":"levelo_inurba_marseille","lat":43.298433,"lon":5.362774,"is_reserved":false,"is_disabled":false,"rental_uris":{"android":"levelo://app?vid=007644db-764f-4bce-942a-f940e433db6d","ios":"levelo://app?vid=007644db-764f-4bce-942a-f940e433db6d"},"vehicle_type_id":"4","last_reported":1683292115,"current_range_meters":31200,"station_id":"ce4bgpp2rcd13ifvqc3g","pricing_plan_id":"free"},{"bike_id":"b573a9ce-3475-4274-bdbc-e2634a5003c2","system_id":"levelo_inurba_marseille","lat":43.30536,"lon":5.38428,"is_reserved":false,"is_disabled":false,"rental_uris":{"android":"levelo://app?vid=b573a9ce-3475-4274-bdbc-e2634a5003c2","ios":"levelo://app?vid=b573a9ce-3475-4274-bdbc-e2634a5003c2"},"vehicle_type_id":"4","last_reported":1683292115,"current_range_meters":16000,"station_id":"ce4bgg92rcd13ifvqb30","pricing_plan_id":"free"},{"bike_id":"21629ca4-f553-4aa8-8497-ffc431b7fbdc","system_id":"levelo_inurba_marseille","lat":43.305364,"lon":5.384119,"is_reserved":false,"is_disabled":false,"rental_uris":{"android":"levelo://app?vid=21629ca4-f553-4aa8-8497-ffc431b7fbdc","ios":"levelo://app?vid=21629ca4-f553-4aa8-8497-ffc431b7fbdc"},"vehicle_type_id":"4","last_reported":1683292115,"current_range_meters":15200,"station_id":"ce4bgg92rcd13ifvqb30","pricing_plan_id":"free"},{"bike_id":"60bdba77-d0ff-4b9a-a6a0-5bec1553dbf5","system_id":"levelo_inurba_marseille","lat":43.311722,"lon":5.387247,"is_reserved":false,"is_disabled":false,"rental_uris":{"android":"levelo://app?vid=60bdba77-d0ff-4b9a-a6a0-5bec1553dbf5","ios":"levelo://app?vid=60bdba77-d0ff-4b9a-a6a0-5bec1553dbf5"},"vehicle_type_id":"4","last_reported":1683292115,"current_range_meters":19600,"station_id":"ce4bgv12rcd13ifvqcp0","pricing_plan_id":"free"},{"bike_id":"2b57b360-a17b-4b31-a91c-462579ec52a8","system_id":"levelo_inurba_marseille","lat":43.299243,"lon":5.37481,"is_reserved":false,"is_disabled":false,"rental_uris":{"android":"levelo://app?vid=2b57b360-a17b-4b31-a91c-462579ec52a8","ios":"levelo://app?vid=2b57b360-a17b-4b31-a91c-462579ec52a8"},"vehicle_type_id":"4","last_reported":1683292115,"current_range_meters":0,"station_id":"ce4bgjh2rcd13ifvqbg0","pricing_plan_id":"free"},{"bike_id":"74cc5bd1-1474-428e-95f0-15c569daf026","system_id":"levelo_inurba_marseille","lat":43.311722,"lon":5.387247,"is_reserved":false,"is_disabled":false,"rental_uris":{"android":"levelo://app?vid=74cc5bd1-1474-428e-95f0-15c569daf026","ios":"levelo://app?vid=74cc5bd1-1474-428e-95f0-15c569daf026"},"vehicle_type_id":"4","last_reported":1683292115,"current_range_meters":28400,"station_id":"ce4bgv12rcd13ifvqcp0","pricing_plan_id":"free"},{"bike_id":"858d4932-bc37-45be-8092-ba40a6ffea9b","system_id":"levelo_inurba_marseille","lat":43.311722,"lon":5.387247,"is_reserved":false,"is_disabled":false,"rental_uris":{"android":"levelo://app?vid=858d4932-bc37-45be-8092-ba40a6ffea9b","ios":"levelo://app?vid=858d4932-bc37-45be-8092-ba40a6ffea9b"},"vehicle_type_id":"4","last_reported":1683292115,"current_range_meters":27600,"station_id":"ce4bgv12rcd13ifvqcp0","pricing_plan_id":"free"},{"bike_id":"ba5db858-af31-4cfe-99ff-47f4995f3617","system_id":"levelo_inurba_marseille","lat":43.328371,"lon":5.366909,"is_reserved":false,"is_disabled":false,"rental_uris":{"android":"levelo://app?vid=ba5db858-af31-4cfe-99ff-47f4995f3617","ios":"levelo://app?vid=ba5db858-af31-4cfe-99ff-47f4995f3617"},"vehicle_type_id":"4","last_reported":1683292115,"current_range_meters":19200,"station_id":"ce4bhs92rcd13ifvqi0g","pricing_plan_id":"free"},{"bike_id":"9f8e3a9b-22d0-4019-9a73-4dcf0ba03bca","system_id":"levelo_inurba_marseille","lat":43.328371,"lon":5.366909,"is_reserved":false,"is_disabled":false,"rental_uris":{"android":"levelo://app?vid=9f8e3a9b-22d0-4019-9a73-4dcf0ba03bca","ios":"levelo://app?vid=9f8e3a9b-22d0-4019-9a73-4dcf0ba03bca"},"vehicle_type_id":"4","last_reported":1683292115,"current_range_meters":26400,"station_id":"ce4bhs92rcd13ifvqi0g","pricing_plan_id":"free"},{"bike_id":"1886fcb6-c856-40e4-9d68-95e9cecf7514","system_id":"levelo_inurba_marseille","lat":43.328371,"lon":5.366909,"is_reserved":false,"is_disabled":false,"rental_uris":{"android":"levelo://app?vid=1886fcb6-c856-40e4-9d68-95e9cecf7514","ios":"levelo://app?vid=1886fcb6-c856-40e4-9d68-95e9cecf7514"},"vehicle_type_id":"4","last_reported":1683292115,"current_range_meters":16800,"station_id":"ce4bhs92rcd13ifvqi0g","pricing_plan_id":"free"},{"bike_id":"552d195b-8276-4461-8817-9bef832a3301","system_id":"levelo_inurba_marseille","lat":43.328371,"lon":5.366909,"is_reserved":false,"is_disabled":false,"rental_uris":{"android":"levelo://app?vid=552d195b-8276-4461-8817-9bef832a3301","ios":"levelo://app?vid=552d195b-8276-4461-8817-9bef832a3301"},"vehicle_type_id":"4","last_reported":1683292115,"current_range_meters":29600,"station_id":"ce4bhs92rcd13ifvqi0g","pricing_plan_id":"free"},{"bike_id":"89c78c5e-1ab1-4b09-b442-d5135e1e8ef6","system_id":"levelo_inurba_marseille","lat":43.328371,"lon":5.366909,"is_reserved":false,"is_disabled":false,"rental_uris":{"android":"levelo://app?vid=89c78c5e-1ab1-4b09-b442-d5135e1e8ef6","ios":"levelo://app?vid=89c78c5e-1ab1-4b09-b442-d5135e1e8ef6"},"vehicle_type_id":"4","last_reported":1683292115,"current_range_meters":19600,"station_id":"ce4bhs92rcd13ifvqi0g","pricing_plan_id":"free"},{"bike_id":"f01ec473-7fe9-47ec-852c-f195da583b5a","system_id":"levelo_inurba_marseille","lat":43.328371,"lon":5.366909,"is_reserved":false,"is_disabled":false,"rental_uris":{"android":"levelo://app?vid=f01ec473-7fe9-47ec-852c-f195da583b5a","ios":"levelo://app?vid=f01ec473-7fe9-47ec-852c-f195da583b5a"},"vehicle_type_id":"4","last_reported":1683292115,"current_range_meters":23200,"station_id":"ce4bhs92rcd13ifvqi0g","pricing_plan_id":"free"},{"bike_id":"4041bc08-01f9-4fd0-a187-5c37df3d239c","system_id":"levelo_inurba_marseille","lat":43.2968,"lon":5.37291,"is_reserved":false,"is_disabled":false,"rental_uris":{"android":"levelo://app?vid=4041bc08-01f9-4fd0-a187-5c37df3d239c","ios":"levelo://app?vid=4041bc08-01f9-4fd0-a187-5c37df3d239c"},"vehicle_type_id":"4","last_reported":1683292115,"current_range_meters":2800,"station_id":"ce4bgk12rcd13ifvqbj0","pricing_plan_id":"free"},{"bike_id":"6c0f82f6-745c-4088-a5c1-c38c12100a22","system_id":"levelo_inurba_marseille","lat":43.2968,"lon":5.37291,"is_reserved":false,"is_disabled":false,"rental_uris":{"android":"levelo://app?vid=6c0f82f6-745c-4088-a5c1-c38c12100a22","ios":"levelo://app?vid=6c0f82f6-745c-4088-a5c1-c38c12100a22"},"vehicle_type_id":"4","last_reported":1683292115,"current_range_meters":12000,"station_id":"ce4bgk12rcd13ifvqbj0","pricing_plan_id":"free"},{"bike_id":"8190803f-3fc1-49f4-b577-3bf79c96dec7","system_id":"levelo_inurba_marseille","lat":43.2968,"lon":5.37291,"is_reserved":false,"is_disabled":false,"rental_uris":{"android":"levelo://app?vid=8190803f-3fc1-49f4-b577-3bf79c96dec7","ios":"levelo://app?vid=8190803f-3fc1-49f4-b577-3bf79c96dec7"},"vehicle_type_id":"4","last_reported":1683292115,"current_range_meters":14800,"station_id":"ce4bgk12rcd13ifvqbj0","pricing_plan_id":"free"},{"bike_id":"aafcc005-5e38-4c52-a10d-6d0f89f0012b","system_id":"levelo_inurba_marseille","lat":43.302008,"lon":5.394694,"is_reserved":false,"is_disabled":false,"rental_uris":{"android":"levelo://app?vid=aafcc005-5e38-4c52-a10d-6d0f89f0012b","ios":"levelo://app?vid=aafcc005-5e38-4c52-a10d-6d0f89f0012b"},"vehicle_type_id":"4","last_reported":1683292115,"current_range_meters":10000,"station_id":"ce4bh0p2rcd13ifvqd70","pricing_plan_id":"free"},{"bike_id":"5938f070-323c-4131-9c5f-b89bfbbea50c","system_id":"levelo_inurba_marseille","lat":43.296131,"lon":5.370791,"is_reserved":false,"is_disabled":false,"rental_uris":{"android":"levelo://app?vid=5938f070-323c-4131-9c5f-b89bfbbea50c","ios":"levelo://app?vid=5938f070-323c-4131-9c5f-b89bfbbea50c"},"vehicle_type_id":"4","last_reported":1683292115,"current_range_meters":31200,"station_id":"ce4bgnh2rcd13ifvqc0g","pricing_plan_id":"free"},{"bike_id":"7c61eab2-8b71-4c2f-83c4-563833262e3a","system_id":"levelo_inurba_marseille","lat":43.296131,"lon":5.370791,"is_reserved":false,"is_disabled":false,"rental_uris":{"android":"levelo://app?vid=7c61eab2-8b71-4c2f-83c4-563833262e3a","ios":"levelo://app?vid=7c61eab2-8b71-4c2f-83c4-563833262e3a"},"vehicle_type_id":"4","last_reported":1683292115,"current_range_meters":26000,"station_id":"ce4bgnh2rcd13ifvqc0g","pricing_plan_id":"free"},{"bike_id":"0a8b0190-6386-4afb-a4c2-c9b52e57438e","system_id":"levelo_inurba_marseille","lat":43.296131,"lon":5.370791,"is_reserved":false,"is_disabled":false,"rental_uris":{"android":"levelo://app?vid=0a8b0190-6386-4afb-a4c2-c9b52e57438e","ios":"levelo://app?vid=0a8b0190-6386-4afb-a4c2-c9b52e57438e"},"vehicle_type_id":"4","last_reported":1683292115,"current_range_meters":31600,"station_id":"ce4bgnh2rcd13ifvqc0g","pricing_plan_id":"free"},{"bike_id":"cfb4482d-344c-4153-8489-a059a1f37ee0","system_id":"levelo_inurba_marseille","lat":43.296131,"lon":5.370791,"is_reserved":false,"is_disabled":false,"rental_uris":{"android":"levelo://app?vid=cfb4482d-344c-4153-8489-a059a1f37ee0","ios":"levelo://app?vid=cfb4482d-344c-4153-8489-a059a1f37ee0"},"vehicle_type_id":"4","last_reported":1683292115,"current_range_meters":31200,"station_id":"ce4bgnh2rcd13ifvqc0g","pricing_plan_id":"free"},{"bike_id":"b54b990a-aa34-4442-b865-45a173df29f7","system_id":"levelo_inurba_marseille","lat":43.296131,"lon":5.370773,"is_reserved":false,"is_disabled":false,"rental_uris":{"android":"levelo://app?vid=b54b990a-aa34-4442-b865-45a173df29f7","ios":"levelo://app?vid=b54b990a-aa34-4442-b865-45a173df29f7"},"vehicle_type_id":"4","last_reported":1683292115,"current_range_meters":6000,"station_id":"ce4bgnh2rcd13ifvqc0g","pricing_plan_id":"free"},{"bike_id":"888bd6c9-7d07-41c1-95c2-ef3d69762f2d","system_id":"levelo_inurba_marseille","lat":43.296131,"lon":5.370791,"is_reserved":false,"is_disabled":false,"rental_uris":{"android":"levelo://app?vid=888bd6c9-7d07-41c1-95c2-ef3d69762f2d","ios":"levelo://app?vid=888bd6c9-7d07-41c1-95c2-ef3d69762f2d"},"vehicle_type_id":"4","last_reported":1683292115,"current_range_meters":22000,"station_id":"ce4bgnh2rcd13ifvqc0g","pricing_plan_id":"free"},{"bike_id":"1539498b-8327-4c2e-ac07-a81937e4ed66","system_id":"levelo_inurba_marseille","lat":43.29622,"lon":5.3716,"is_reserved":false,"is_disabled":false,"rental_uris":{"android":"levelo://app?vid=1539498b-8327-4c2e-ac07-a81937e4ed66","ios":"levelo://app?vid=1539498b-8327-4c2e-ac07-a81937e4ed66"},"vehicle_type_id":"4","last_reported":1683292115,"current_range_meters":31200,"station_id":"","pricing_plan_id":"free"},{"bike_id":"1bae8fa0-73bd-476c-b71b-4a22db2ede4a","system_id":"levelo_inurba_marseille","lat":43.296131,"lon":5.370791,"is_reserved":false,"is_disabled":false,"rental_uris":{"android":"levelo://app?vid=1bae8fa0-73bd-476c-b71b-4a22db2ede4a","ios":"levelo://app?vid=1bae8fa0-73bd-476c-b71b-4a22db2ede4a"},"vehicle_type_id":"4","last_reported":1683292115,"current_range_meters":18400,"station_id":"ce4bgnh2rcd13ifvqc0g","pricing_plan_id":"free"},{"bike_id":"b7e051cc-936e-44c6-b2dc-9a16c0f8fb70","system_id":"levelo_inurba_marseille","lat":43.309532,"lon":5.39023,"is_reserved":false,"is_disabled":false,"rental_uris":{"android":"levelo://app?vid=b7e051cc-936e-44c6-b2dc-9a16c0f8fb70","ios":"levelo://app?vid=b7e051cc-936e-44c6-b2dc-9a16c0f8fb70"},"vehicle_type_id":"4","last_reported":1683292115,"current_range_meters":2400,"station_id":"ce4bgup2rcd13ifvqco0","pricing_plan_id":"free"},{"bike_id":"fe42813c-2e36-4099-91b8-62e69441d695","system_id":"levelo_inurba_marseille","lat":43.309589,"lon":5.390258,"is_reserved":false,"is_disabled":false,"rental_uris":{"android":"levelo://app?vid=fe42813c-2e36-4099-91b8-62e69441d695","ios":"levelo://app?vid=fe42813c-2e36-4099-91b8-62e69441d695"},"vehicle_type_id":"4","last_reported":1683292115,"current_range_meters":29600,"station_id":"ce4bgup2rcd13ifvqco0","pricing_plan_id":"free"},{"bike_id":"48d0a126-9783-4196-8120-786209568673","system_id":"levelo_inurba_marseille","lat":43.309494,"lon":5.390244,"is_reserved":false,"is_disabled":false,"rental_uris":{"android":"levelo://app?vid=48d0a126-9783-4196-8120-786209568673","ios":"levelo://app?vid=48d0a126-9783-4196-8120-786209568673"},"vehicle_type_id":"4","last_reported":1683292115,"current_range_meters":30800,"station_id":"ce4bgup2rcd13ifvqco0","pricing_plan_id":"free"},{"bike_id":"ea50a50a-3520-4e8f-938a-3702470703ee","system_id":"levelo_inurba_marseille","lat":43.309507,"lon":5.390267,"is_reserved":false,"is_disabled":false,"rental_uris":{"android":"levelo://app?vid=ea50a50a-3520-4e8f-938a-3702470703ee","ios":"levelo://app?vid=ea50a50a-3520-4e8f-938a-3702470703ee"},"vehicle_type_id":"4","last_reported":1683292115,"current_range_meters":21600,"station_id":"","pricing_plan_id":"free"},{"bike_id":"0ddbd4c4-0a4b-4865-b0c5-05817d4c1ab9","system_id":"levelo_inurba_marseille","lat":43.309475,"lon":5.390285,"is_reserved":false,"is_disabled":false,"rental_uris":{"android":"levelo://app?vid=0ddbd4c4-0a4b-4865-b0c5-05817d4c1ab9","ios":"levelo://app?vid=0ddbd4c4-0a4b-4865-b0c5-05817d4c1ab9"},"vehicle_type_id":"4","last_reported":1683292115,"current_range_meters":23600,"station_id":"ce4bgup2rcd13ifvqco0","pricing_plan_id":"free"},{"bike_id":"25c77aaa-8393-4e37-9e10-f68c0c5b6915","system_id":"levelo_inurba_marseille","lat":43.309589,"lon":5.390258,"is_reserved":false,"is_disabled":false,"rental_uris":{"android":"levelo://app?vid=25c77aaa-8393-4e37-9e10-f68c0c5b6915","ios":"levelo://app?vid=25c77aaa-8393-4e37-9e10-f68c0c5b6915"},"vehicle_type_id":"4","last_reported":1683292115,"current_range_meters":27200,"station_id":"ce4bgup2rcd13ifvqco0","pricing_plan_id":"free"},{"bike_id":"44275bf3-490c-43ba-a638-5b06390be0e2","system_id":"levelo_inurba_marseille","lat":43.309589,"lon":5.390258,"is_reserved":false,"is_disabled":false,"rental_uris":{"android":"levelo://app?vid=44275bf3-490c-43ba-a638-5b06390be0e2","ios":"levelo://app?vid=44275bf3-490c-43ba-a638-5b06390be0e2"},"vehicle_type_id":"4","last_reported":1683292115,"current_range_meters":30400,"station_id":"ce4bgup2rcd13ifvqco0","pricing_plan_id":"free"},{"bike_id":"d2c95a59-42d4-4155-a9c8-6e8a29f0823a","system_id":"levelo_inurba_marseille","lat":43.309589,"lon":5.390258,"is_reserved":false,"is_disabled":false,"rental_uris":{"android":"levelo://app?vid=d2c95a59-42d4-4155-a9c8-6e8a29f0823a","ios":"levelo://app?vid=d2c95a59-42d4-4155-a9c8-6e8a29f0823a"},"vehicle_type_id":"4","last_reported":1683292115,"current_range_meters":31200,"station_id":"ce4bgup2rcd13ifvqco0","pricing_plan_id":"free"},{"bike_id":"5ace3b92-3489-4c71-a6cc-5e5c79da59e5","system_id":"levelo_inurba_marseille","lat":43.309589,"lon":5.390258,"is_reserved":false,"is_disabled":false,"rental_uris":{"android":"levelo://app?vid=5ace3b92-3489-4c71-a6cc-5e5c79da59e5","ios":"levelo://app?vid=5ace3b92-3489-4c71-a6cc-5e5c79da59e5"},"vehicle_type_id":"4","last_reported":1683292115,"current_range_meters":22000,"station_id":"ce4bgup2rcd13ifvqco0","pricing_plan_id":"free"},{"bike_id":"0165dee6-5e1c-4fee-8cb8-9b2d677c108f","system_id":"levelo_inurba_marseille","lat":43.296935,"lon":5.376544,"is_reserved":false,"is_disabled":false,"rental_uris":{"android":"levelo://app?vid=0165dee6-5e1c-4fee-8cb8-9b2d677c108f","ios":"levelo://app?vid=0165dee6-5e1c-4fee-8cb8-9b2d677c108f"},"vehicle_type_id":"4","last_reported":1683292115,"current_range_meters":12400,"station_id":"ce4bgkh2rcd13ifvqbl0","pricing_plan_id":"free"},{"bike_id":"d3bded05-295a-4e27-816d-28fd9af6ceed","system_id":"levelo_inurba_marseille","lat":43.317557,"lon":5.390173,"is_reserved":false,"is_disabled":false,"rental_uris":{"android":"levelo://app?vid=d3bded05-295a-4e27-816d-28fd9af6ceed","ios":"levelo://app?vid=d3bded05-295a-4e27-816d-28fd9af6ceed"},"vehicle_type_id":"4","last_reported":1683292115,"current_range_meters":31200,"station_id":"ce4bhqp2rcd13ifvqhng","pricing_plan_id":"free"},{"bike_id":"77f34d79-51d0-4db3-ab3a-5aec4d75e78b","system_id":"levelo_inurba_marseille","lat":43.317557,"lon":5.390173,"is_reserved":false,"is_disabled":false,"rental_uris":{"android":"levelo://app?vid=77f34d79-51d0-4db3-ab3a-5aec4d75e78b","ios":"levelo://app?vid=77f34d79-51d0-4db3-ab3a-5aec4d75e78b"},"vehicle_type_id":"4","last_reported":1683292115,"current_range_meters":22400,"station_id":"ce4bhqp2rcd13ifvqhng","pricing_plan_id":"free"},{"bike_id":"e00888f6-99e1-4c69-986f-1e3669edea53","system_id":"levelo_inurba_marseille","lat":43.317557,"lon":5.390173,"is_reserved":false,"is_disabled":false,"rental_uris":{"android":"levelo://app?vid=e00888f6-99e1-4c69-986f-1e3669edea53","ios":"levelo://app?vid=e00888f6-99e1-4c69-986f-1e3669edea53"},"vehicle_type_id":"4","last_reported":1683292115,"current_range_meters":20400,"station_id":"ce4bhqp2rcd13ifvqhng","pricing_plan_id":"free"},{"bike_id":"75083129-cb37-4ae1-868b-cd09b5374176","system_id":"levelo_inurba_marseille","lat":43.317557,"lon":5.390173,"is_reserved":false,"is_disabled":false,"rental_uris":{"android":"levelo://app?vid=75083129-cb37-4ae1-868b-cd09b5374176","ios":"levelo://app?vid=75083129-cb37-4ae1-868b-cd09b5374176"},"vehicle_type_id":"4","last_reported":1683292115,"current_range_meters":19200,"station_id":"ce4bhqp2rcd13ifvqhng","pricing_plan_id":"free"},{"bike_id":"648b28d6-f324-4c3d-9b1b-608923df5df8","system_id":"levelo_inurba_marseille","lat":43.317557,"lon":5.390173,"is_reserved":false,"is_disabled":false,"rental_uris":{"android":"levelo://app?vid=648b28d6-f324-4c3d-9b1b-608923df5df8","ios":"levelo://app?vid=648b28d6-f324-4c3d-9b1b-608923df5df8"},"vehicle_type_id":"4","last_reported":1683292115,"current_range_meters":22000,"station_id":"ce4bhqp2rcd13ifvqhng","pricing_plan_id":"free"},{"bike_id":"60ef946b-9459-4a60-b71e-9a93871770e0","system_id":"levelo_inurba_marseille","lat":43.317573,"lon":5.390157,"is_reserved":false,"is_disabled":false,"rental_uris":{"android":"levelo://app?vid=60ef946b-9459-4a60-b71e-9a93871770e0","ios":"levelo://app?vid=60ef946b-9459-4a60-b71e-9a93871770e0"},"vehicle_type_id":"4","last_reported":1683292115,"current_range_meters":16400,"station_id":"ce4bhqp2rcd13ifvqhng","pricing_plan_id":"free"},{"bike_id":"c3b8210a-d4a1-4a25-8bb3-7ad7f39115f7","system_id":"levelo_inurba_marseille","lat":43.317579,"lon":5.390156,"is_reserved":false,"is_disabled":false,"rental_uris":{"android":"levelo://app?vid=c3b8210a-d4a1-4a25-8bb3-7ad7f39115f7","ios":"levelo://app?vid=c3b8210a-d4a1-4a25-8bb3-7ad7f39115f7"},"vehicle_type_id":"4","last_reported":1683292115,"current_range_meters":24800,"station_id":"ce4bhqp2rcd13ifvqhng","pricing_plan_id":"free"},{"bike_id":"8ccb50f4-bac1-4e8d-ac41-0c4d73f8c6dc","system_id":"levelo_inurba_marseille","lat":43.317557,"lon":5.390173,"is_reserved":false,"is_disabled":false,"rental_uris":{"android":"levelo://app?vid=8ccb50f4-bac1-4e8d-ac41-0c4d73f8c6dc","ios":"levelo://app?vid=8ccb50f4-bac1-4e8d-ac41-0c4d73f8c6dc"},"vehicle_type_id":"4","last_reported":1683292115,"current_range_meters":27200,"station_id":"ce4bhqp2rcd13ifvqhng","pricing_plan_id":"free"},{"bike_id":"e356fbd8-f7f1-4627-9302-872e2e86936d","system_id":"levelo_inurba_marseille","lat":43.29582,"lon":5.37509,"is_reserved":false,"is_disabled":false,"rental_uris":{"android":"levelo://app?vid=e356fbd8-f7f1-4627-9302-872e2e86936d","ios":"levelo://app?vid=e356fbd8-f7f1-4627-9302-872e2e86936d"},"vehicle_type_id":"4","last_reported":1683292115,"current_range_meters":20000,"station_id":"ce4bgh92rcd13ifvqb50","pricing_plan_id":"free"},{"bike_id":"f0a0ac05-ba26-4434-8a3a-7d3bc4dacf04","system_id":"levelo_inurba_marseille","lat":43.295748,"lon":5.37522,"is_reserved":false,"is_disabled":false,"rental_uris":{"android":"levelo://app?vid=f0a0ac05-ba26-4434-8a3a-7d3bc4dacf04","ios":"levelo://app?vid=f0a0ac05-ba26-4434-8a3a-7d3bc4dacf04"},"vehicle_type_id":"4","last_reported":1683292115,"current_range_meters":31200,"station_id":"ce4bgh92rcd13ifvqb50","pricing_plan_id":"free"},{"bike_id":"49613caf-9ea9-4bad-891c-89d6a04e5fc1","system_id":"levelo_inurba_marseille","lat":43.295748,"lon":5.37522,"is_reserved":false,"is_disabled":false,"rental_uris":{"android":"levelo://app?vid=49613caf-9ea9-4bad-891c-89d6a04e5fc1","ios":"levelo://app?vid=49613caf-9ea9-4bad-891c-89d6a04e5fc1"},"vehicle_type_id":"4","last_reported":1683292115,"current_range_meters":31600,"station_id":"ce4bgh92rcd13ifvqb50","pricing_plan_id":"free"},{"bike_id":"8f00f603-4ab0-4d68-b98d-2b9b282f40ec","system_id":"levelo_inurba_marseille","lat":43.295748,"lon":5.37522,"is_reserved":false,"is_disabled":false,"rental_uris":{"android":"levelo://app?vid=8f00f603-4ab0-4d68-b98d-2b9b282f40ec","ios":"levelo://app?vid=8f00f603-4ab0-4d68-b98d-2b9b282f40ec"},"vehicle_type_id":"4","last_reported":1683292115,"current_range_meters":30000,"station_id":"ce4bgh92rcd13ifvqb50","pricing_plan_id":"free"},{"bike_id":"270e37a2-5686-4f81-9d4a-9e9508a10a2b","system_id":"levelo_inurba_marseille","lat":43.295748,"lon":5.37522,"is_reserved":false,"is_disabled":false,"rental_uris":{"android":"levelo://app?vid=270e37a2-5686-4f81-9d4a-9e9508a10a2b","ios":"levelo://app?vid=270e37a2-5686-4f81-9d4a-9e9508a10a2b"},"vehicle_type_id":"4","last_reported":1683292115,"current_range_meters":30400,"station_id":"ce4bgh92rcd13ifvqb50","pricing_plan_id":"free"},{"bike_id":"3eff520c-63b2-41da-a46d-82d9e33a1a3e","system_id":"levelo_inurba_marseille","lat":43.304278,"lon":5.388868,"is_reserved":false,"is_disabled":false,"rental_uris":{"android":"levelo://app?vid=3eff520c-63b2-41da-a46d-82d9e33a1a3e","ios":"levelo://app?vid=3eff520c-63b2-41da-a46d-82d9e33a1a3e"},"vehicle_type_id":"4","last_reported":1683292115,"current_range_meters":400,"station_id":"ce4bgk12rcd13ifvqbi0","pricing_plan_id":"free"},{"bike_id":"0a01e641-5936-497b-ab05-e856ce119c17","system_id":"levelo_inurba_marseille","lat":43.29793,"lon":5.38107,"is_reserved":false,"is_disabled":false,"rental_uris":{"android":"levelo://app?vid=0a01e641-5936-497b-ab05-e856ce119c17","ios":"levelo://app?vid=0a01e641-5936-497b-ab05-e856ce119c17"},"vehicle_type_id":"4","last_reported":1683292115,"current_range_meters":0,"station_id":"ce4bgip2rcd13ifvqbb0","pricing_plan_id":"free"},{"bike_id":"8b0377b2-989f-4c91-a248-fb649f321d31","system_id":"levelo_inurba_marseille","lat":43.295748,"lon":5.37522,"is_reserved":false,"is_disabled":false,"rental_uris":{"android":"levelo://app?vid=8b0377b2-989f-4c91-a248-fb649f321d31","ios":"levelo://app?vid=8b0377b2-989f-4c91-a248-fb649f321d31"},"vehicle_type_id":"4","last_reported":1683292115,"current_range_meters":28000,"station_id":"ce4bgh92rcd13ifvqb50","pricing_plan_id":"free"},{"bike_id":"decb8700-7238-47db-986e-94b98cdb4bc4","system_id":"levelo_inurba_marseille","lat":43.295748,"lon":5.37522,"is_reserved":false,"is_disabled":false,"rental_uris":{"android":"levelo://app?vid=decb8700-7238-47db-986e-94b98cdb4bc4","ios":"levelo://app?vid=decb8700-7238-47db-986e-94b98cdb4bc4"},"vehicle_type_id":"4","last_reported":1683292115,"current_range_meters":31200,"station_id":"ce4bgh92rcd13ifvqb50","pricing_plan_id":"free"},{"bike_id":"31b5f0ba-202c-49db-90d9-15254ae910e5","system_id":"levelo_inurba_marseille","lat":43.304278,"lon":5.388868,"is_reserved":false,"is_disabled":false,"rental_uris":{"android":"levelo://app?vid=31b5f0ba-202c-49db-90d9-15254ae910e5","ios":"levelo://app?vid=31b5f0ba-202c-49db-90d9-15254ae910e5"},"vehicle_type_id":"4","last_reported":1683292115,"current_range_meters":14000,"station_id":"ce4bgk12rcd13ifvqbi0","pricing_plan_id":"free"},{"bike_id":"c3f96fa3-a9d4-40a7-a04d-4323029994cd","system_id":"levelo_inurba_marseille","lat":43.296263,"lon":5.377094,"is_reserved":false,"is_disabled":false,"rental_uris":{"android":"levelo://app?vid=c3f96fa3-a9d4-40a7-a04d-4323029994cd","ios":"levelo://app?vid=c3f96fa3-a9d4-40a7-a04d-4323029994cd"},"vehicle_type_id":"4","last_reported":1683292115,"current_range_meters":28800,"station_id":"ce4bgi92rcd13ifvqb90","pricing_plan_id":"free"},{"bike_id":"9808b3bd-4fde-4f48-92d4-c956eac50d3e","system_id":"levelo_inurba_marseille","lat":43.299697,"lon":5.384721,"is_reserved":false,"is_disabled":false,"rental_uris":{"android":"levelo://app?vid=9808b3bd-4fde-4f48-92d4-c956eac50d3e","ios":"levelo://app?vid=9808b3bd-4fde-4f48-92d4-c956eac50d3e"},"vehicle_type_id":"4","last_reported":1683292115,"current_range_meters":14000,"station_id":"","pricing_plan_id":"free"},{"bike_id":"25fe0b67-fd43-44e0-ab3b-5be00b0f8bba","system_id":"levelo_inurba_marseille","lat":43.295279,"lon":5.375048,"is_reserved":false,"is_disabled":false,"rental_uris":{"android":"levelo://app?vid=25fe0b67-fd43-44e0-ab3b-5be00b0f8bba","ios":"levelo://app?vid=25fe0b67-fd43-44e0-ab3b-5be00b0f8bba"},"vehicle_type_id":"4","last_reported":1683292115,"current_range_meters":2400,"station_id":"ce4bgkp2rcd13ifvqbmg","pricing_plan_id":"free"},{"bike_id":"f67f86a6-1848-4de8-b3f9-805dcd6d77d4","system_id":"levelo_inurba_marseille","lat":43.295279,"lon":5.375048,"is_reserved":false,"is_disabled":false,"rental_uris":{"android":"levelo://app?vid=f67f86a6-1848-4de8-b3f9-805dcd6d77d4","ios":"levelo://app?vid=f67f86a6-1848-4de8-b3f9-805dcd6d77d4"},"vehicle_type_id":"4","last_reported":1683292115,"current_range_meters":400,"station_id":"ce4bgkp2rcd13ifvqbmg","pricing_plan_id":"free"},{"bike_id":"23ce8570-1d11-42a7-8253-b908850b7d5c","system_id":"levelo_inurba_marseille","lat":43.295279,"lon":5.375048,"is_reserved":false,"is_disabled":false,"rental_uris":{"android":"levelo://app?vid=23ce8570-1d11-42a7-8253-b908850b7d5c","ios":"levelo://app?vid=23ce8570-1d11-42a7-8253-b908850b7d5c"},"vehicle_type_id":"4","last_reported":1683292115,"current_range_meters":5200,"station_id":"ce4bgkp2rcd13ifvqbmg","pricing_plan_id":"free"},{"bike_id":"b2b2d9a1-e337-49b9-a8b8-2499e6bebfc9","system_id":"levelo_inurba_marseille","lat":43.29965,"lon":5.38486,"is_reserved":false,"is_disabled":false,"rental_uris":{"android":"levelo://app?vid=b2b2d9a1-e337-49b9-a8b8-2499e6bebfc9","ios":"levelo://app?vid=b2b2d9a1-e337-49b9-a8b8-2499e6bebfc9"},"vehicle_type_id":"4","last_reported":1683292115,"current_range_meters":30800,"station_id":"ce4bgj92rcd13ifvqbd0","pricing_plan_id":"free"},{"bike_id":"c5310b64-3848-4bf3-9470-e034e826e562","system_id":"levelo_inurba_marseille","lat":43.299724,"lon":5.384848,"is_reserved":false,"is_disabled":false,"rental_uris":{"android":"levelo://app?vid=c5310b64-3848-4bf3-9470-e034e826e562","ios":"levelo://app?vid=c5310b64-3848-4bf3-9470-e034e826e562"},"vehicle_type_id":"4","last_reported":1683292115,"current_range_meters":12000,"station_id":"ce4bgj92rcd13ifvqbd0","pricing_plan_id":"free"},{"bike_id":"277a00ba-a99c-4ad3-a267-927f68ce12ac","system_id":"levelo_inurba_marseille","lat":43.299724,"lon":5.384848,"is_reserved":false,"is_disabled":false,"rental_uris":{"android":"levelo://app?vid=277a00ba-a99c-4ad3-a267-927f68ce12ac","ios":"levelo://app?vid=277a00ba-a99c-4ad3-a267-927f68ce12ac"},"vehicle_type_id":"4","last_reported":1683292115,"current_range_meters":22400,"station_id":"ce4bgj92rcd13ifvqbd0","pricing_plan_id":"free"},{"bike_id":"d089e967-f129-4644-9177-0b542a5f3933","system_id":"levelo_inurba_marseille","lat":43.29601,"lon":5.381084,"is_reserved":false,"is_disabled":false,"rental_uris":{"android":"levelo://app?vid=d089e967-f129-4644-9177-0b542a5f3933","ios":"levelo://app?vid=d089e967-f129-4644-9177-0b542a5f3933"},"vehicle_type_id":"4","last_reported":1683292115,"current_range_meters":26400,"station_id":"ce4bgl12rcd13ifvqbo0","pricing_plan_id":"free"},{"bike_id":"db3a3c93-d761-4898-a2ea-8b18947af866","system_id":"levelo_inurba_marseille","lat":43.293249,"lon":5.371578,"is_reserved":false,"is_disabled":false,"rental_uris":{"android":"levelo://app?vid=db3a3c93-d761-4898-a2ea-8b18947af866","ios":"levelo://app?vid=db3a3c93-d761-4898-a2ea-8b18947af866"},"vehicle_type_id":"4","last_reported":1683292115,"current_range_meters":27200,"station_id":"ce4bgh92rcd13ifvqb40","pricing_plan_id":"free"},{"bike_id":"12355ed4-ec17-4df0-8762-7474a864739e","system_id":"levelo_inurba_marseille","lat":43.292749,"lon":5.368402,"is_reserved":false,"is_disabled":false,"rental_uris":{"android":"levelo://app?vid=12355ed4-ec17-4df0-8762-7474a864739e","ios":"levelo://app?vid=12355ed4-ec17-4df0-8762-7474a864739e"},"vehicle_type_id":"4","last_reported":1683292115,"current_range_meters":23200,"station_id":"ce4bhbp2rcd13ifvqesg","pricing_plan_id":"free"},{"bike_id":"96fdde61-2e23-45f5-b3e4-649547b05d54","system_id":"levelo_inurba_marseille","lat":43.292749,"lon":5.368402,"is_reserved":false,"is_disabled":false,"rental_uris":{"android":"levelo://app?vid=96fdde61-2e23-45f5-b3e4-649547b05d54","ios":"levelo://app?vid=96fdde61-2e23-45f5-b3e4-649547b05d54"},"vehicle_type_id":"4","last_reported":1683292115,"current_range_meters":25200,"station_id":"ce4bhbp2rcd13ifvqesg","pricing_plan_id":"free"},{"bike_id":"d6faf34b-b11b-4b70-bde1-72d07cd40214","system_id":"levelo_inurba_marseille","lat":43.29269,"lon":5.36841,"is_reserved":false,"is_disabled":false,"rental_uris":{"android":"levelo://app?vid=d6faf34b-b11b-4b70-bde1-72d07cd40214","ios":"levelo://app?vid=d6faf34b-b11b-4b70-bde1-72d07cd40214"},"vehicle_type_id":"4","last_reported":1683292115,"current_range_meters":19600,"station_id":"ce4bhbp2rcd13ifvqesg","pricing_plan_id":"free"},{"bike_id":"de5a86fc-fe08-4cb5-bc6e-bf5c21229128","system_id":"levelo_inurba_marseille","lat":43.29309,"lon":5.37454,"is_reserved":false,"is_disabled":false,"rental_uris":{"android":"levelo://app?vid=de5a86fc-fe08-4cb5-bc6e-bf5c21229128","ios":"levelo://app?vid=de5a86fc-fe08-4cb5-bc6e-bf5c21229128"},"vehicle_type_id":"4","last_reported":1683292115,"current_range_meters":19600,"station_id":"ce4bgi12rcd13ifvqb70","pricing_plan_id":"free"},{"bike_id":"f2a1fde5-7d02-4e77-b961-2f8393c78a77","system_id":"levelo_inurba_marseille","lat":43.29302,"lon":5.37462,"is_reserved":false,"is_disabled":false,"rental_uris":{"android":"levelo://app?vid=f2a1fde5-7d02-4e77-b961-2f8393c78a77","ios":"levelo://app?vid=f2a1fde5-7d02-4e77-b961-2f8393c78a77"},"vehicle_type_id":"4","last_reported":1683292115,"current_range_meters":8400,"station_id":"ce4bgi12rcd13ifvqb70","pricing_plan_id":"free"},{"bike_id":"507ab2af-21e1-4a06-b6f6-1808577eb8c8","system_id":"levelo_inurba_marseille","lat":43.305994,"lon":5.393687,"is_reserved":false,"is_disabled":false,"rental_uris":{"android":"levelo://app?vid=507ab2af-21e1-4a06-b6f6-1808577eb8c8","ios":"levelo://app?vid=507ab2af-21e1-4a06-b6f6-1808577eb8c8"},"vehicle_type_id":"4","last_reported":1683292115,"current_range_meters":24800,"station_id":"ce4bh0p2rcd13ifvqd80","pricing_plan_id":"free"},{"bike_id":"ab9bf215-75ab-46f4-b6c6-1f963eabc50b","system_id":"levelo_inurba_marseille","lat":43.305994,"lon":5.393687,"is_reserved":false,"is_disabled":false,"rental_uris":{"android":"levelo://app?vid=ab9bf215-75ab-46f4-b6c6-1f963eabc50b","ios":"levelo://app?vid=ab9bf215-75ab-46f4-b6c6-1f963eabc50b"},"vehicle_type_id":"4","last_reported":1683292115,"current_range_meters":29200,"station_id":"ce4bh0p2rcd13ifvqd80","pricing_plan_id":"free"},{"bike_id":"96201fd0-4c39-4462-bcae-af1b741cb400","system_id":"levelo_inurba_marseille","lat":43.30591,"lon":5.393605,"is_reserved":false,"is_disabled":false,"rental_uris":{"android":"levelo://app?vid=96201fd0-4c39-4462-bcae-af1b741cb400","ios":"levelo://app?vid=96201fd0-4c39-4462-bcae-af1b741cb400"},"vehicle_type_id":"4","last_reported":1683292115,"current_range_meters":22000,"station_id":"","pricing_plan_id":"free"},{"bike_id":"6dba8ed5-e0f4-44f2-af8d-e5b79ede8fc3","system_id":"levelo_inurba_marseille","lat":43.303002,"lon":5.392142,"is_reserved":false,"is_disabled":false,"rental_uris":{"android":"levelo://app?vid=6dba8ed5-e0f4-44f2-af8d-e5b79ede8fc3","ios":"levelo://app?vid=6dba8ed5-e0f4-44f2-af8d-e5b79ede8fc3"},"vehicle_type_id":"4","last_reported":1683292115,"current_range_meters":4000,"station_id":"ce4bgkh2rcd13ifvqbk0","pricing_plan_id":"free"},{"bike_id":"68fc3bbb-82d9-4781-8203-33c34d6f999f","system_id":"levelo_inurba_marseille","lat":43.2936,"lon":5.37835,"is_reserved":false,"is_disabled":false,"rental_uris":{"android":"levelo://app?vid=68fc3bbb-82d9-4781-8203-33c34d6f999f","ios":"levelo://app?vid=68fc3bbb-82d9-4781-8203-33c34d6f999f"},"vehicle_type_id":"4","last_reported":1683292115,"current_range_meters":30800,"station_id":"ce4bgjh2rcd13ifvqbf0","pricing_plan_id":"free"},{"bike_id":"11be469e-7825-46b9-9976-64086f6414a0","system_id":"levelo_inurba_marseille","lat":43.2936,"lon":5.37835,"is_reserved":false,"is_disabled":false,"rental_uris":{"android":"levelo://app?vid=11be469e-7825-46b9-9976-64086f6414a0","ios":"levelo://app?vid=11be469e-7825-46b9-9976-64086f6414a0"},"vehicle_type_id":"4","last_reported":1683292115,"current_range_meters":8400,"station_id":"ce4bgjh2rcd13ifvqbf0","pricing_plan_id":"free"},{"bike_id":"2ca2d39a-a35b-48dc-b52c-1260a05585f9","system_id":"levelo_inurba_marseille","lat":43.302992,"lon":5.392136,"is_reserved":false,"is_disabled":false,"rental_uris":{"android":"levelo://app?vid=2ca2d39a-a35b-48dc-b52c-1260a05585f9","ios":"levelo://app?vid=2ca2d39a-a35b-48dc-b52c-1260a05585f9"},"vehicle_type_id":"4","last_reported":1683292115,"current_range_meters":26000,"station_id":"ce4bgkh2rcd13ifvqbk0","pricing_plan_id":"free"},{"bike_id":"72fb49a2-135e-44a1-be0d-e68a09e6d889","system_id":"levelo_inurba_marseille","lat":43.2936,"lon":5.37835,"is_reserved":false,"is_disabled":false,"rental_uris":{"android":"levelo://app?vid=72fb49a2-135e-44a1-be0d-e68a09e6d889","ios":"levelo://app?vid=72fb49a2-135e-44a1-be0d-e68a09e6d889"},"vehicle_type_id":"4","last_reported":1683292115,"current_range_meters":27200,"station_id":"ce4bgjh2rcd13ifvqbf0","pricing_plan_id":"free"},{"bike_id":"4e738334-5c2a-4792-9ed8-ac93edcc42bb","system_id":"levelo_inurba_marseille","lat":43.2936,"lon":5.37835,"is_reserved":false,"is_disabled":false,"rental_uris":{"android":"levelo://app?vid=4e738334-5c2a-4792-9ed8-ac93edcc42bb","ios":"levelo://app?vid=4e738334-5c2a-4792-9ed8-ac93edcc42bb"},"vehicle_type_id":"4","last_reported":1683292115,"current_range_meters":5600,"station_id":"ce4bgjh2rcd13ifvqbf0","pricing_plan_id":"free"},{"bike_id":"80f238c2-ecec-4d25-9f1b-29d5a7ae2ddd","system_id":"levelo_inurba_marseille","lat":43.2936,"lon":5.37835,"is_reserved":false,"is_disabled":false,"rental_uris":{"android":"levelo://app?vid=80f238c2-ecec-4d25-9f1b-29d5a7ae2ddd","ios":"levelo://app?vid=80f238c2-ecec-4d25-9f1b-29d5a7ae2ddd"},"vehicle_type_id":"4","last_reported":1683292115,"current_range_meters":15200,"station_id":"ce4bgjh2rcd13ifvqbf0","pricing_plan_id":"free"},{"bike_id":"827cfdaa-38fa-4a64-9e5f-3e247aa3676e","system_id":"levelo_inurba_marseille","lat":43.300852,"lon":5.390859,"is_reserved":false,"is_disabled":false,"rental_uris":{"android":"levelo://app?vid=827cfdaa-38fa-4a64-9e5f-3e247aa3676e","ios":"levelo://app?vid=827cfdaa-38fa-4a64-9e5f-3e247aa3676e"},"vehicle_type_id":"4","last_reported":1683292115,"current_range_meters":26800,"station_id":"ce4bh192rcd13ifvqdb0","pricing_plan_id":"free"},{"bike_id":"787e570c-8daa-410f-8b0c-a775927fd18a","system_id":"levelo_inurba_marseille","lat":43.298764,"lon":5.388973,"is_reserved":false,"is_disabled":false,"rental_uris":{"android":"levelo://app?vid=787e570c-8daa-410f-8b0c-a775927fd18a","ios":"levelo://app?vid=787e570c-8daa-410f-8b0c-a775927fd18a"},"vehicle_type_id":"4","last_reported":1683292115,"current_range_meters":12000,"station_id":"ce4bh392rcd13ifvqdl0","pricing_plan_id":"free"},{"bike_id":"271e4896-819a-45f8-9f1a-5c3a11d0dc3f","system_id":"levelo_inurba_marseille","lat":43.2926,"lon":5.37634,"is_reserved":false,"is_disabled":false,"rental_uris":{"android":"levelo://app?vid=271e4896-819a-45f8-9f1a-5c3a11d0dc3f","ios":"levelo://app?vid=271e4896-819a-45f8-9f1a-5c3a11d0dc3f"},"vehicle_type_id":"4","last_reported":1683292115,"current_range_meters":29200,"station_id":"ce4bgi12rcd13ifvqb80","pricing_plan_id":"free"},{"bike_id":"64d7e25d-b407-4f64-af20-22f93d4f8be9","system_id":"levelo_inurba_marseille","lat":43.298764,"lon":5.388973,"is_reserved":false,"is_disabled":false,"rental_uris":{"android":"levelo://app?vid=64d7e25d-b407-4f64-af20-22f93d4f8be9","ios":"levelo://app?vid=64d7e25d-b407-4f64-af20-22f93d4f8be9"},"vehicle_type_id":"4","last_reported":1683292115,"current_range_meters":25600,"station_id":"ce4bh392rcd13ifvqdl0","pricing_plan_id":"free"},{"bike_id":"2ea103ab-0672-432f-89ef-378f03bd15b5","system_id":"levelo_inurba_marseille","lat":43.29254,"lon":5.37621,"is_reserved":false,"is_disabled":false,"rental_uris":{"android":"levelo://app?vid=2ea103ab-0672-432f-89ef-378f03bd15b5","ios":"levelo://app?vid=2ea103ab-0672-432f-89ef-378f03bd15b5"},"vehicle_type_id":"4","last_reported":1683292115,"current_range_meters":4400,"station_id":"ce4bgi12rcd13ifvqb80","pricing_plan_id":"free"},{"bike_id":"555a31e1-73d7-4968-9de4-b5cbba9470f8","system_id":"levelo_inurba_marseille","lat":43.313291,"lon":5.396838,"is_reserved":false,"is_disabled":false,"rental_uris":{"android":"levelo://app?vid=555a31e1-73d7-4968-9de4-b5cbba9470f8","ios":"levelo://app?vid=555a31e1-73d7-4968-9de4-b5cbba9470f8"},"vehicle_type_id":"4","last_reported":1683292115,"current_range_meters":10800,"station_id":"ce4bgvp2rcd13ifvqcu0","pricing_plan_id":"free"},{"bike_id":"bcd8cb56-a10f-4efa-ba5a-cc99cf174d42","system_id":"levelo_inurba_marseille","lat":43.29541,"lon":5.38546,"is_reserved":false,"is_disabled":false,"rental_uris":{"android":"levelo://app?vid=bcd8cb56-a10f-4efa-ba5a-cc99cf174d42","ios":"levelo://app?vid=bcd8cb56-a10f-4efa-ba5a-cc99cf174d42"},"vehicle_type_id":"4","last_reported":1683292115,"current_range_meters":23600,"station_id":"ce4bgih2rcd13ifvqba0","pricing_plan_id":"free"},{"bike_id":"1d1c5a49-35cb-4452-856e-2988e24f82b5","system_id":"levelo_inurba_marseille","lat":43.29529,"lon":5.385581,"is_reserved":false,"is_disabled":false,"rental_uris":{"android":"levelo://app?vid=1d1c5a49-35cb-4452-856e-2988e24f82b5","ios":"levelo://app?vid=1d1c5a49-35cb-4452-856e-2988e24f82b5"},"vehicle_type_id":"4","last_reported":1683292115,"current_range_meters":5200,"station_id":"ce4bgih2rcd13ifvqba0","pricing_plan_id":"free"},{"bike_id":"772b73ac-5bcc-4afb-9346-dedcbec8a04d","system_id":"levelo_inurba_marseille","lat":43.29529,"lon":5.385581,"is_reserved":false,"is_disabled":false,"rental_uris":{"android":"levelo://app?vid=772b73ac-5bcc-4afb-9346-dedcbec8a04d","ios":"levelo://app?vid=772b73ac-5bcc-4afb-9346-dedcbec8a04d"},"vehicle_type_id":"4","last_reported":1683292115,"current_range_meters":9200,"station_id":"ce4bgih2rcd13ifvqba0","pricing_plan_id":"free"},{"bike_id":"fefe2f52-df69-4ff8-8c87-f7a8e06c2f07","system_id":"levelo_inurba_marseille","lat":43.290779,"lon":5.371482,"is_reserved":false,"is_disabled":false,"rental_uris":{"android":"levelo://app?vid=fefe2f52-df69-4ff8-8c87-f7a8e06c2f07","ios":"levelo://app?vid=fefe2f52-df69-4ff8-8c87-f7a8e06c2f07"},"vehicle_type_id":"4","last_reported":1683292115,"current_range_meters":29600,"station_id":"ce4bh5p2rcd13ifvqe4g","pricing_plan_id":"free"},{"bike_id":"c12c0d63-06af-4b27-aaf1-bd1e643bb4d8","system_id":"levelo_inurba_marseille","lat":43.290779,"lon":5.371482,"is_reserved":false,"is_disabled":false,"rental_uris":{"android":"levelo://app?vid=c12c0d63-06af-4b27-aaf1-bd1e643bb4d8","ios":"levelo://app?vid=c12c0d63-06af-4b27-aaf1-bd1e643bb4d8"},"vehicle_type_id":"4","last_reported":1683292115,"current_range_meters":2400,"station_id":"ce4bh5p2rcd13ifvqe4g","pricing_plan_id":"free"},{"bike_id":"30622b2e-6000-4e9b-ad29-5a400012031b","system_id":"levelo_inurba_marseille","lat":43.290779,"lon":5.371482,"is_reserved":false,"is_disabled":false,"rental_uris":{"android":"levelo://app?vid=30622b2e-6000-4e9b-ad29-5a400012031b","ios":"levelo://app?vid=30622b2e-6000-4e9b-ad29-5a400012031b"},"vehicle_type_id":"4","last_reported":1683292115,"current_range_meters":20800,"station_id":"ce4bh5p2rcd13ifvqe4g","pricing_plan_id":"free"},{"bike_id":"37bf965e-0394-4289-98c5-880a8428a256","system_id":"levelo_inurba_marseille","lat":43.302008,"lon":5.394694,"is_reserved":false,"is_disabled":false,"rental_uris":{"android":"levelo://app?vid=37bf965e-0394-4289-98c5-880a8428a256","ios":"levelo://app?vid=37bf965e-0394-4289-98c5-880a8428a256"},"vehicle_type_id":"4","last_reported":1683292115,"current_range_meters":18800,"station_id":"ce4bh0p2rcd13ifvqd70","pricing_plan_id":"free"},{"bike_id":"a802d097-ae9a-4547-b85f-a53e0ad8bf23","system_id":"levelo_inurba_marseille","lat":43.302008,"lon":5.394694,"is_reserved":false,"is_disabled":false,"rental_uris":{"android":"levelo://app?vid=a802d097-ae9a-4547-b85f-a53e0ad8bf23","ios":"levelo://app?vid=a802d097-ae9a-4547-b85f-a53e0ad8bf23"},"vehicle_type_id":"4","last_reported":1683292115,"current_range_meters":18400,"station_id":"ce4bh0p2rcd13ifvqd70","pricing_plan_id":"free"},{"bike_id":"0171e4ef-0b5e-4879-8787-899e3b31e07a","system_id":"levelo_inurba_marseille","lat":43.302008,"lon":5.394694,"is_reserved":false,"is_disabled":false,"rental_uris":{"android":"levelo://app?vid=0171e4ef-0b5e-4879-8787-899e3b31e07a","ios":"levelo://app?vid=0171e4ef-0b5e-4879-8787-899e3b31e07a"},"vehicle_type_id":"4","last_reported":1683292115,"current_range_meters":28800,"station_id":"ce4bh0p2rcd13ifvqd70","pricing_plan_id":"free"},{"bike_id":"c065e6b3-106b-41dc-bfbe-20d793965df2","system_id":"levelo_inurba_marseille","lat":43.302008,"lon":5.394694,"is_reserved":false,"is_disabled":false,"rental_uris":{"android":"levelo://app?vid=c065e6b3-106b-41dc-bfbe-20d793965df2","ios":"levelo://app?vid=c065e6b3-106b-41dc-bfbe-20d793965df2"},"vehicle_type_id":"4","last_reported":1683292115,"current_range_meters":24000,"station_id":"ce4bh0p2rcd13ifvqd70","pricing_plan_id":"free"},{"bike_id":"e087b5ad-0d46-4cfe-ac4e-a511bb9fe405","system_id":"levelo_inurba_marseille","lat":43.302008,"lon":5.394694,"is_reserved":false,"is_disabled":false,"rental_uris":{"android":"levelo://app?vid=e087b5ad-0d46-4cfe-ac4e-a511bb9fe405","ios":"levelo://app?vid=e087b5ad-0d46-4cfe-ac4e-a511bb9fe405"},"vehicle_type_id":"4","last_reported":1683292115,"current_range_meters":31200,"station_id":"ce4bh0p2rcd13ifvqd70","pricing_plan_id":"free"},{"bike_id":"defef94d-9f7f-4963-867b-7f8eb6d2f4c7","system_id":"levelo_inurba_marseille","lat":43.302008,"lon":5.394694,"is_reserved":false,"is_disabled":false,"rental_uris":{"android":"levelo://app?vid=defef94d-9f7f-4963-867b-7f8eb6d2f4c7","ios":"levelo://app?vid=defef94d-9f7f-4963-867b-7f8eb6d2f4c7"},"vehicle_type_id":"4","last_reported":1683292115,"current_range_meters":24800,"station_id":"ce4bh0p2rcd13ifvqd70","pricing_plan_id":"free"},{"bike_id":"4147221d-420a-4647-8e63-613f7428175d","system_id":"levelo_inurba_marseille","lat":43.302008,"lon":5.394694,"is_reserved":false,"is_disabled":false,"rental_uris":{"android":"levelo://app?vid=4147221d-420a-4647-8e63-613f7428175d","ios":"levelo://app?vid=4147221d-420a-4647-8e63-613f7428175d"},"vehicle_type_id":"4","last_reported":1683292115,"current_range_meters":26400,"station_id":"ce4bh0p2rcd13ifvqd70","pricing_plan_id":"free"},{"bike_id":"3dc0a2de-ed7e-4aab-b95e-60232de198a6","system_id":"levelo_inurba_marseille","lat":43.302008,"lon":5.394694,"is_reserved":false,"is_disabled":false,"rental_uris":{"android":"levelo://app?vid=3dc0a2de-ed7e-4aab-b95e-60232de198a6","ios":"levelo://app?vid=3dc0a2de-ed7e-4aab-b95e-60232de198a6"},"vehicle_type_id":"4","last_reported":1683292115,"current_range_meters":28400,"station_id":"ce4bh0p2rcd13ifvqd70","pricing_plan_id":"free"},{"bike_id":"8aaaa9d1-bb86-4f85-a889-f7fe33d86a00","system_id":"levelo_inurba_marseille","lat":43.302008,"lon":5.394694,"is_reserved":false,"is_disabled":false,"rental_uris":{"android":"levelo://app?vid=8aaaa9d1-bb86-4f85-a889-f7fe33d86a00","ios":"levelo://app?vid=8aaaa9d1-bb86-4f85-a889-f7fe33d86a00"},"vehicle_type_id":"4","last_reported":1683292115,"current_range_meters":20400,"station_id":"ce4bh0p2rcd13ifvqd70","pricing_plan_id":"free"},{"bike_id":"fdefa3d9-004f-40ff-9943-0c66b4bc67d8","system_id":"levelo_inurba_marseille","lat":43.30219,"lon":5.3948,"is_reserved":false,"is_disabled":false,"rental_uris":{"android":"levelo://app?vid=fdefa3d9-004f-40ff-9943-0c66b4bc67d8","ios":"levelo://app?vid=fdefa3d9-004f-40ff-9943-0c66b4bc67d8"},"vehicle_type_id":"4","last_reported":1683292115,"current_range_meters":0,"station_id":"ce4bh0p2rcd13ifvqd70","pricing_plan_id":"free"},{"bike_id":"eb909b40-af1b-4d95-86c9-57d1cfa13462","system_id":"levelo_inurba_marseille","lat":43.302008,"lon":5.394694,"is_reserved":false,"is_disabled":false,"rental_uris":{"android":"levelo://app?vid=eb909b40-af1b-4d95-86c9-57d1cfa13462","ios":"levelo://app?vid=eb909b40-af1b-4d95-86c9-57d1cfa13462"},"vehicle_type_id":"4","last_reported":1683292115,"current_range_meters":26400,"station_id":"ce4bh0p2rcd13ifvqd70","pricing_plan_id":"free"},{"bike_id":"dfd72921-3ca6-4e43-af5e-1aaaa2f587ea","system_id":"levelo_inurba_marseille","lat":43.290319,"lon":5.375732,"is_reserved":false,"is_disabled":false,"rental_uris":{"android":"levelo://app?vid=dfd72921-3ca6-4e43-af5e-1aaaa2f587ea","ios":"levelo://app?vid=dfd72921-3ca6-4e43-af5e-1aaaa2f587ea"},"vehicle_type_id":"4","last_reported":1683292115,"current_range_meters":29600,"station_id":"ce4bh692rcd13ifvqe90","pricing_plan_id":"free"},{"bike_id":"69bccb42-a5c9-488a-96dd-f093a2378d91","system_id":"levelo_inurba_marseille","lat":43.290327,"lon":5.375711,"is_reserved":false,"is_disabled":false,"rental_uris":{"android":"levelo://app?vid=69bccb42-a5c9-488a-96dd-f093a2378d91","ios":"levelo://app?vid=69bccb42-a5c9-488a-96dd-f093a2378d91"},"vehicle_type_id":"4","last_reported":1683292115,"current_range_meters":24400,"station_id":"ce4bh692rcd13ifvqe90","pricing_plan_id":"free"},{"bike_id":"e11c7a42-c945-4545-be65-895498c306d1","system_id":"levelo_inurba_marseille","lat":43.290319,"lon":5.375732,"is_reserved":false,"is_disabled":false,"rental_uris":{"android":"levelo://app?vid=e11c7a42-c945-4545-be65-895498c306d1","ios":"levelo://app?vid=e11c7a42-c945-4545-be65-895498c306d1"},"vehicle_type_id":"4","last_reported":1683292115,"current_range_meters":9600,"station_id":"ce4bh692rcd13ifvqe90","pricing_plan_id":"free"},{"bike_id":"0eda9052-65fa-4475-8ea9-1d3aebc17334","system_id":"levelo_inurba_marseille","lat":43.289468,"lon":5.363719,"is_reserved":false,"is_disabled":false,"rental_uris":{"android":"levelo://app?vid=0eda9052-65fa-4475-8ea9-1d3aebc17334","ios":"levelo://app?vid=0eda9052-65fa-4475-8ea9-1d3aebc17334"},"vehicle_type_id":"4","last_reported":1683292115,"current_range_meters":28400,"station_id":"ce4bhc92rcd13ifvqetg","pricing_plan_id":"free"},{"bike_id":"8df0dd6e-3168-4ed1-be20-0f41019445c5","system_id":"levelo_inurba_marseille","lat":43.289468,"lon":5.363719,"is_reserved":false,"is_disabled":false,"rental_uris":{"android":"levelo://app?vid=8df0dd6e-3168-4ed1-be20-0f41019445c5","ios":"levelo://app?vid=8df0dd6e-3168-4ed1-be20-0f41019445c5"},"vehicle_type_id":"4","last_reported":1683292115,"current_range_meters":12400,"station_id":"ce4bhc92rcd13ifvqetg","pricing_plan_id":"free"},{"bike_id":"5fb278d8-9f9e-4ba4-a772-07eb84371ab4","system_id":"levelo_inurba_marseille","lat":43.292644,"lon":5.384257,"is_reserved":false,"is_disabled":false,"rental_uris":{"android":"levelo://app?vid=5fb278d8-9f9e-4ba4-a772-07eb84371ab4","ios":"levelo://app?vid=5fb278d8-9f9e-4ba4-a772-07eb84371ab4"},"vehicle_type_id":"4","last_reported":1683292115,"current_range_meters":25600,"station_id":"ce4bh692rcd13ifvqea0","pricing_plan_id":"free"},{"bike_id":"4bca9f5b-b6db-4c9f-8882-9b2cca580d03","system_id":"levelo_inurba_marseille","lat":43.304296,"lon":5.397513,"is_reserved":false,"is_disabled":false,"rental_uris":{"android":"levelo://app?vid=4bca9f5b-b6db-4c9f-8882-9b2cca580d03","ios":"levelo://app?vid=4bca9f5b-b6db-4c9f-8882-9b2cca580d03"},"vehicle_type_id":"4","last_reported":1683292115,"current_range_meters":13200,"station_id":"ce4bh092rcd13ifvqd20","pricing_plan_id":"free"},{"bike_id":"aaab6319-e843-44e8-b7bb-612eff28d27d","system_id":"levelo_inurba_marseille","lat":43.290779,"lon":5.371482,"is_reserved":false,"is_disabled":false,"rental_uris":{"android":"levelo://app?vid=aaab6319-e843-44e8-b7bb-612eff28d27d","ios":"levelo://app?vid=aaab6319-e843-44e8-b7bb-612eff28d27d"},"vehicle_type_id":"4","last_reported":1683292115,"current_range_meters":24000,"station_id":"ce4bh5p2rcd13ifvqe4g","pricing_plan_id":"free"},{"bike_id":"29ff7ff3-40bc-4366-85b9-227a54c94b34","system_id":"levelo_inurba_marseille","lat":43.33039,"lon":5.38917,"is_reserved":false,"is_disabled":false,"rental_uris":{"android":"levelo://app?vid=29ff7ff3-40bc-4366-85b9-227a54c94b34","ios":"levelo://app?vid=29ff7ff3-40bc-4366-85b9-227a54c94b34"},"vehicle_type_id":"4","last_reported":1683292115,"current_range_meters":30000,"station_id":"ce4bhr92rcd13ifvqhrg","pricing_plan_id":"free"},{"bike_id":"d6233f8b-531d-433b-b8e9-589e3920c098","system_id":"levelo_inurba_marseille","lat":43.3304,"lon":5.38916,"is_reserved":false,"is_disabled":false,"rental_uris":{"android":"levelo://app?vid=d6233f8b-531d-433b-b8e9-589e3920c098","ios":"levelo://app?vid=d6233f8b-531d-433b-b8e9-589e3920c098"},"vehicle_type_id":"4","last_reported":1683292115,"current_range_meters":26000,"station_id":"ce4bhr92rcd13ifvqhrg","pricing_plan_id":"free"},{"bike_id":"496fc879-c6a2-4335-9eab-2fdd6a6f8bf1","system_id":"levelo_inurba_marseille","lat":43.33037,"lon":5.38922,"is_reserved":false,"is_disabled":false,"rental_uris":{"android":"levelo://app?vid=496fc879-c6a2-4335-9eab-2fdd6a6f8bf1","ios":"levelo://app?vid=496fc879-c6a2-4335-9eab-2fdd6a6f8bf1"},"vehicle_type_id":"4","last_reported":1683292115,"current_range_meters":21600,"station_id":"ce4bhr92rcd13ifvqhrg","pricing_plan_id":"free"},{"bike_id":"c0b39783-7886-4047-9a8d-355fea0e4444","system_id":"levelo_inurba_marseille","lat":43.33044,"lon":5.38916,"is_reserved":false,"is_disabled":false,"rental_uris":{"android":"levelo://app?vid=c0b39783-7886-4047-9a8d-355fea0e4444","ios":"levelo://app?vid=c0b39783-7886-4047-9a8d-355fea0e4444"},"vehicle_type_id":"4","last_reported":1683292115,"current_range_meters":26000,"station_id":"ce4bhr92rcd13ifvqhrg","pricing_plan_id":"free"},{"bike_id":"10a8eeb7-4f93-4e8d-81bd-f27d3d4ef515","system_id":"levelo_inurba_marseille","lat":43.33038,"lon":5.38926,"is_reserved":false,"is_disabled":false,"rental_uris":{"android":"levelo://app?vid=10a8eeb7-4f93-4e8d-81bd-f27d3d4ef515","ios":"levelo://app?vid=10a8eeb7-4f93-4e8d-81bd-f27d3d4ef515"},"vehicle_type_id":"4","last_reported":1683292115,"current_range_meters":16800,"station_id":"ce4bhr92rcd13ifvqhrg","pricing_plan_id":"free"},{"bike_id":"da86836b-d020-456b-ad95-a73c452d8db8","system_id":"levelo_inurba_marseille","lat":43.33045,"lon":5.38916,"is_reserved":false,"is_disabled":false,"rental_uris":{"android":"levelo://app?vid=da86836b-d020-456b-ad95-a73c452d8db8","ios":"levelo://app?vid=da86836b-d020-456b-ad95-a73c452d8db8"},"vehicle_type_id":"4","last_reported":1683292115,"current_range_meters":20800,"station_id":"ce4bhr92rcd13ifvqhrg","pricing_plan_id":"free"},{"bike_id":"00be3557-ac1f-4fde-a779-2daea9bd3559","system_id":"levelo_inurba_marseille","lat":43.33042,"lon":5.38921,"is_reserved":false,"is_disabled":false,"rental_uris":{"android":"levelo://app?vid=00be3557-ac1f-4fde-a779-2daea9bd3559","ios":"levelo://app?vid=00be3557-ac1f-4fde-a779-2daea9bd3559"},"vehicle_type_id":"4","last_reported":1683292115,"current_range_meters":29600,"station_id":"ce4bhr92rcd13ifvqhrg","pricing_plan_id":"free"},{"bike_id":"9714825d-a95b-4dcd-88dc-74c8919c0bbe","system_id":"levelo_inurba_marseille","lat":43.33041,"lon":5.38924,"is_reserved":false,"is_disabled":false,"rental_uris":{"android":"levelo://app?vid=9714825d-a95b-4dcd-88dc-74c8919c0bbe","ios":"levelo://app?vid=9714825d-a95b-4dcd-88dc-74c8919c0bbe"},"vehicle_type_id":"4","last_reported":1683292115,"current_range_meters":21200,"station_id":"ce4bhr92rcd13ifvqhrg","pricing_plan_id":"free"},{"bike_id":"4987cb15-6e26-42c3-a668-f474bf406788","system_id":"levelo_inurba_marseille","lat":43.290995,"lon":5.381361,"is_reserved":false,"is_disabled":false,"rental_uris":{"android":"levelo://app?vid=4987cb15-6e26-42c3-a668-f474bf406788","ios":"levelo://app?vid=4987cb15-6e26-42c3-a668-f474bf406788"},"vehicle_type_id":"4","last_reported":1683292115,"current_range_meters":27200,"station_id":"ce4bh512rcd13ifvqe2g","pricing_plan_id":"free"},{"bike_id":"753f1f85-5c41-4555-a46a-3d2174a5c018","system_id":"levelo_inurba_marseille","lat":43.290995,"lon":5.381361,"is_reserved":false,"is_disabled":false,"rental_uris":{"android":"levelo://app?vid=753f1f85-5c41-4555-a46a-3d2174a5c018","ios":"levelo://app?vid=753f1f85-5c41-4555-a46a-3d2174a5c018"},