{"last_updated":1745455971,"ttl":60,"version":"2.2","data":{"bikes":[{"bike_id":"a8313e07-fc7d-46da-a852-e2be5019fefd","system_id":"levelo_inurba_marseille","lat":43.28924,"lon":5.38384,"is_reserved":false,"is_disabled":true,"rental_uris":{"android":"levelo://app?vid=a8313e07-fc7d-46da-a852-e2be5019fefd","ios":"levelo://app?vid=a8313e07-fc7d-46da-a852-e2be5019fefd"},"vehicle_type_id":"4","last_reported":1745455971,"current_range_meters":2800,"station_id":"ce4bh612rcd13ifvqe6g","pricing_plan_id":"cebpf4jnsgd1na2vs0mg"},{"bike_id":"55797dbb-c59c-483a-8055-bf5cecbaceb2","system_id":"levelo_inurba_marseille","lat":43.27817,"lon":5.40709,"is_reserved":false,"is_disabled":false,"rental_uris":{"android":"levelo://app?vid=55797dbb-c59c-483a-8055-bf5cecbaceb2","ios":"levelo://app?vid=55797dbb-c59c-483a-8055-bf5cecbaceb2"},"vehicle_type_id":"4","last_reported":1745455971,"current_range_meters":2800,"station_id":"ce4bhnh2rcd13ifvqgtg","pricing_plan_id":"cebpf4jnsgd1na2vs0mg"},{"bike_id":"2ff50662-85e1-49cb-995a-b397492c2839","system_id":"levelo_inurba_marseille","lat":43.287107,"lon":5.37396,"is_reserved":false,"is_disabled":false,"rental_uris":{"android":"levelo://app?vid=2ff50662-85e1-49cb-995a-b397492c2839","ios":"levelo://app?vid=2ff50662-85e1-49cb-995a-b397492c2839"},"vehicle_type_id":"4","last_reported":1745455971,"current_range_meters":3200,"station_id":"ce4bh3p2rcd13ifvqdq0","pricing_plan_id":"cebpf4jnsgd1na2vs0mg"},{"bike_id":"f96a0008-b171-45ef-9bb6-60e88eff0378","system_id":"levelo_inurba_marseille","lat":43.27993,"lon":5.40024,"is_reserved":false,"is_disabled":false,"rental_uris":{"android":"levelo://app?vid=f96a0008-b171-45ef-9bb6-60e88eff0378","ios":"levelo://app?vid=f96a0008-b171-45ef-9bb6-60e88eff0378"},"vehicle_type_id":"4","last_reported":1745455971,"current_range_meters":3600,"station_id":"ce4bho92rcd13ifvqh4g","pricing_plan_id":"cebpf4jnsgd1na2vs0mg"},{"bike_id":"023dc62e-0acd-4e96-932b-01918b80e05f","system_id":"levelo_inurba_marseille","lat":43.30025,"lon":5.38284,"is_reserved":false,"is_disabled":false,"rental_uris":{"android":"levelo://app?vid=023dc62e-0acd-4e96-932b-01918b80e05f","ios":"levelo://app?vid=023dc62e-0acd-4e96-932b-01918b80e05f"},"vehicle_type_id":"4","last_reported":1745455971,"current_range_meters":3600,"station_id":"","pricing_plan_id":"cebpf4jnsgd1na2vs0mg"},{"bike_id":"53e76e69-542e-498c-be3c-54ee74e28889","system_id":"levelo_inurba_marseille","lat":43.29706,"lon":5.36612,"is_reserved":false,"is_disabled":true,"rental_uris":{"android":"levelo://app?vid=53e76e69-542e-498c-be3c-54ee74e28889","ios":"levelo://app?vid=53e76e69-542e-498c-be3c-54ee74e28889"},"vehicle_type_id":"4","last_reported":1745455971,"current_range_meters":3600,"station_id":"ce4bgn12rcd13ifvqbt0","pricing_plan_id":"cebpf4jnsgd1na2vs0mg"},{"bike_id":"8ce6e918-c045-4ee6-a981-d95d3d378534","system_id":"levelo_inurba_marseille","lat":43.29935,"lon":5.36501,"is_reserved":false,"is_disabled":false,"rental_uris":{"android":"levelo://app?vid=8ce6e918-c045-4ee6-a981-d95d3d378534","ios":"levelo://app?vid=8ce6e918-c045-4ee6-a981-d95d3d378534"},"vehicle_type_id":"4","last_reported":1745455971,"current_range_meters":4000,"station_id":"ce4bgm92rcd13ifvqbr0","pricing_plan_id":"cebpf4jnsgd1na2vs0mg"},{"bike_id":"3bdfca34-d042-4767-90fd-4abcfe58205f","system_id":"levelo_inurba_marseille","lat":43.2871,"lon":5.37393,"is_reserved":false,"is_disabled":false,"rental_uris":{"android":"levelo://app?vid=3bdfca34-d042-4767-90fd-4abcfe58205f","ios":"levelo://app?vid=3bdfca34-d042-4767-90fd-4abcfe58205f"},"vehicle_type_id":"4","last_reported":1745455971,"current_range_meters":4000,"station_id":"ce4bh3p2rcd13ifvqdq0","pricing_plan_id":"cebpf4jnsgd1na2vs0mg"},{"bike_id":"67682fcc-bcb6-4aa9-944e-6887169df522","system_id":"levelo_inurba_marseille","lat":43.289379,"lon":5.363926,"is_reserved":false,"is_disabled":false,"rental_uris":{"android":"levelo://app?vid=67682fcc-bcb6-4aa9-944e-6887169df522","ios":"levelo://app?vid=67682fcc-bcb6-4aa9-944e-6887169df522"},"vehicle_type_id":"4","last_reported":1745455971,"current_range_meters":4400,"station_id":"ce4bhc92rcd13ifvqetg","pricing_plan_id":"cebpf4jnsgd1na2vs0mg"},{"bike_id":"8d2789be-d356-436f-bee5-111c80e6604e","system_id":"levelo_inurba_marseille","lat":43.24166,"lon":5.36398,"is_reserved":false,"is_disabled":false,"rental_uris":{"android":"levelo://app?vid=8d2789be-d356-436f-bee5-111c80e6604e","ios":"levelo://app?vid=8d2789be-d356-436f-bee5-111c80e6604e"},"vehicle_type_id":"4","last_reported":1745455971,"current_range_meters":4400,"station_id":"cpo36qri1sfpv3e86is0","pricing_plan_id":"cebpf4jnsgd1na2vs0mg"},{"bike_id":"0e956a52-9f1c-4373-9fd9-05b1de4dc5a0","system_id":"levelo_inurba_marseille","lat":43.30886,"lon":5.39649,"is_reserved":false,"is_disabled":true,"rental_uris":{"android":"levelo://app?vid=0e956a52-9f1c-4373-9fd9-05b1de4dc5a0","ios":"levelo://app?vid=0e956a52-9f1c-4373-9fd9-05b1de4dc5a0"},"vehicle_type_id":"4","last_reported":1745455971,"current_range_meters":4800,"station_id":"ce4bh012rcd13ifvqcv0","pricing_plan_id":"cebpf4jnsgd1na2vs0mg"},{"bike_id":"e88ac0aa-172e-418f-9134-2e3c247b5863","system_id":"levelo_inurba_marseille","lat":43.23965,"lon":5.36639,"is_reserved":false,"is_disabled":false,"rental_uris":{"android":"levelo://app?vid=e88ac0aa-172e-418f-9134-2e3c247b5863","ios":"levelo://app?vid=e88ac0aa-172e-418f-9134-2e3c247b5863"},"vehicle_type_id":"4","last_reported":1745455971,"current_range_meters":5600,"station_id":"ce4bhi12rcd13ifvqfp0","pricing_plan_id":"cebpf4jnsgd1na2vs0mg"},{"bike_id":"c94e26c1-7575-4802-86ec-0bd6f82482cc","system_id":"levelo_inurba_marseille","lat":43.28595,"lon":5.37099,"is_reserved":false,"is_disabled":false,"rental_uris":{"android":"levelo://app?vid=c94e26c1-7575-4802-86ec-0bd6f82482cc","ios":"levelo://app?vid=c94e26c1-7575-4802-86ec-0bd6f82482cc"},"vehicle_type_id":"4","last_reported":1745455971,"current_range_meters":6000,"station_id":"ce4bht12rcd13ifvqi60","pricing_plan_id":"cebpf4jnsgd1na2vs0mg"},{"bike_id":"f7889748-d9da-4a0d-a4b5-6ffb90fef077","system_id":"levelo_inurba_marseille","lat":43.31758,"lon":5.39023,"is_reserved":false,"is_disabled":true,"rental_uris":{"android":"levelo://app?vid=f7889748-d9da-4a0d-a4b5-6ffb90fef077","ios":"levelo://app?vid=f7889748-d9da-4a0d-a4b5-6ffb90fef077"},"vehicle_type_id":"4","last_reported":1745455971,"current_range_meters":6400,"station_id":"ce4bhqp2rcd13ifvqhng","pricing_plan_id":"cebpf4jnsgd1na2vs0mg"},{"bike_id":"0b7a9109-7668-4db4-9724-d01cac3cc1a1","system_id":"levelo_inurba_marseille","lat":43.29161,"lon":5.40997,"is_reserved":false,"is_disabled":false,"rental_uris":{"android":"levelo://app?vid=0b7a9109-7668-4db4-9724-d01cac3cc1a1","ios":"levelo://app?vid=0b7a9109-7668-4db4-9724-d01cac3cc1a1"},"vehicle_type_id":"4","last_reported":1745455971,"current_range_meters":6400,"station_id":"","pricing_plan_id":"cebpf4jnsgd1na2vs0mg"},{"bike_id":"e37792a6-f349-4512-8625-113ccd6f5c99","system_id":"levelo_inurba_marseille","lat":43.2799,"lon":5.40009,"is_reserved":false,"is_disabled":true,"rental_uris":{"android":"levelo://app?vid=e37792a6-f349-4512-8625-113ccd6f5c99","ios":"levelo://app?vid=e37792a6-f349-4512-8625-113ccd6f5c99"},"vehicle_type_id":"4","last_reported":1745455971,"current_range_meters":6400,"station_id":"ce4bho92rcd13ifvqh4g","pricing_plan_id":"cebpf4jnsgd1na2vs0mg"},{"bike_id":"3db46211-c999-430c-8329-f6c40a08ce14","system_id":"levelo_inurba_marseille","lat":43.31358,"lon":5.38498,"is_reserved":false,"is_disabled":false,"rental_uris":{"android":"levelo://app?vid=3db46211-c999-430c-8329-f6c40a08ce14","ios":"levelo://app?vid=3db46211-c999-430c-8329-f6c40a08ce14"},"vehicle_type_id":"4","last_reported":1745455971,"current_range_meters":6400,"station_id":"ce4bgt92rcd13ifvqcf0","pricing_plan_id":"cebpf4jnsgd1na2vs0mg"},{"bike_id":"fe198ad5-3ed5-4a50-a120-80605df2593b","system_id":"levelo_inurba_marseille","lat":43.25576,"lon":5.38266,"is_reserved":false,"is_disabled":false,"rental_uris":{"android":"levelo://app?vid=fe198ad5-3ed5-4a50-a120-80605df2593b","ios":"levelo://app?vid=fe198ad5-3ed5-4a50-a120-80605df2593b"},"vehicle_type_id":"4","last_reported":1745455971,"current_range_meters":6400,"station_id":"ce4bhih2rcd13ifvqfs0","pricing_plan_id":"cebpf4jnsgd1na2vs0mg"},{"bike_id":"ee6fe346-129a-4352-b7c7-aefa1e451c7a","system_id":"levelo_inurba_marseille","lat":43.306607,"lon":5.400914,"is_reserved":false,"is_disabled":true,"rental_uris":{"android":"levelo://app?vid=ee6fe346-129a-4352-b7c7-aefa1e451c7a","ios":"levelo://app?vid=ee6fe346-129a-4352-b7c7-aefa1e451c7a"},"vehicle_type_id":"4","last_reported":1745455971,"current_range_meters":7200,"station_id":"ce4bh112rcd13ifvqda0","pricing_plan_id":"cebpf4jnsgd1na2vs0mg"},{"bike_id":"adf4021e-176e-4b13-ac10-6ebb8cb1e100","system_id":"levelo_inurba_marseille","lat":43.2869,"lon":5.37383,"is_reserved":false,"is_disabled":false,"rental_uris":{"android":"levelo://app?vid=adf4021e-176e-4b13-ac10-6ebb8cb1e100","ios":"levelo://app?vid=adf4021e-176e-4b13-ac10-6ebb8cb1e100"},"vehicle_type_id":"4","last_reported":1745455971,"current_range_meters":6800,"station_id":"ce4bh3p2rcd13ifvqdq0","pricing_plan_id":"cebpf4jnsgd1na2vs0mg"},{"bike_id":"2fabdb6d-99b5-4a93-94eb-6e9251c3dc2d","system_id":"levelo_inurba_marseille","lat":43.28453,"lon":5.35881,"is_reserved":false,"is_disabled":false,"rental_uris":{"android":"levelo://app?vid=2fabdb6d-99b5-4a93-94eb-6e9251c3dc2d","ios":"levelo://app?vid=2fabdb6d-99b5-4a93-94eb-6e9251c3dc2d"},"vehicle_type_id":"4","last_reported":1745455971,"current_range_meters":6800,"station_id":"ce4bhah2rcd13ifvqei0","pricing_plan_id":"cebpf4jnsgd1na2vs0mg"},{"bike_id":"b7e3549c-066f-4860-82c6-ec049a468f26","system_id":"levelo_inurba_marseille","lat":43.30657,"lon":5.40102,"is_reserved":false,"is_disabled":false,"rental_uris":{"android":"levelo://app?vid=b7e3549c-066f-4860-82c6-ec049a468f26","ios":"levelo://app?vid=b7e3549c-066f-4860-82c6-ec049a468f26"},"vehicle_type_id":"4","last_reported":1745455971,"current_range_meters":6800,"station_id":"ce4bh112rcd13ifvqda0","pricing_plan_id":"cebpf4jnsgd1na2vs0mg"},{"bike_id":"c57f642b-1ae5-4a44-94e3-924f21538523","system_id":"levelo_inurba_marseille","lat":43.30892,"lon":5.39651,"is_reserved":false,"is_disabled":false,"rental_uris":{"android":"levelo://app?vid=c57f642b-1ae5-4a44-94e3-924f21538523","ios":"levelo://app?vid=c57f642b-1ae5-4a44-94e3-924f21538523"},"vehicle_type_id":"4","last_reported":1745455971,"current_range_meters":6800,"station_id":"ce4bh012rcd13ifvqcv0","pricing_plan_id":"cebpf4jnsgd1na2vs0mg"},{"bike_id":"0f36c06d-b34a-4b6a-9c76-b87640418fc7","system_id":"levelo_inurba_marseille","lat":43.23067,"lon":5.35507,"is_reserved":false,"is_disabled":false,"rental_uris":{"android":"levelo://app?vid=0f36c06d-b34a-4b6a-9c76-b87640418fc7","ios":"levelo://app?vid=0f36c06d-b34a-4b6a-9c76-b87640418fc7"},"vehicle_type_id":"4","last_reported":1745455971,"current_range_meters":6800,"station_id":"cpo3342slgdg3j2ifvpg","pricing_plan_id":"cebpf4jnsgd1na2vs0mg"},{"bike_id":"1c5ec038-935d-45d4-ab05-1768d5c6745a","system_id":"levelo_inurba_marseille","lat":43.24068,"lon":5.37743,"is_reserved":false,"is_disabled":false,"rental_uris":{"android":"levelo://app?vid=1c5ec038-935d-45d4-ab05-1768d5c6745a","ios":"levelo://app?vid=1c5ec038-935d-45d4-ab05-1768d5c6745a"},"vehicle_type_id":"4","last_reported":1745455971,"current_range_meters":6800,"station_id":"ce4bhnp2rcd13ifvqgvg","pricing_plan_id":"cebpf4jnsgd1na2vs0mg"},{"bike_id":"3dd50929-80e8-4861-abf3-0cc06f516279","system_id":"levelo_inurba_marseille","lat":43.24058,"lon":5.37743,"is_reserved":false,"is_disabled":false,"rental_uris":{"android":"levelo://app?vid=3dd50929-80e8-4861-abf3-0cc06f516279","ios":"levelo://app?vid=3dd50929-80e8-4861-abf3-0cc06f516279"},"vehicle_type_id":"4","last_reported":1745455971,"current_range_meters":6800,"station_id":"ce4bhnp2rcd13ifvqgvg","pricing_plan_id":"cebpf4jnsgd1na2vs0mg"},{"bike_id":"b6553d69-feb1-4f55-99dc-e45ef526cd58","system_id":"levelo_inurba_marseille","lat":43.29555,"lon":5.42281,"is_reserved":false,"is_disabled":true,"rental_uris":{"android":"levelo://app?vid=b6553d69-feb1-4f55-99dc-e45ef526cd58","ios":"levelo://app?vid=b6553d69-feb1-4f55-99dc-e45ef526cd58"},"vehicle_type_id":"4","last_reported":1745455971,"current_range_meters":7200,"station_id":"ce4bhph2rcd13ifvqhdg","pricing_plan_id":"cebpf4jnsgd1na2vs0mg"},{"bike_id":"66ad86ce-fc20-4e27-ae09-168f203aa7c0","system_id":"levelo_inurba_marseille","lat":43.29267,"lon":5.40911,"is_reserved":false,"is_disabled":false,"rental_uris":{"android":"levelo://app?vid=66ad86ce-fc20-4e27-ae09-168f203aa7c0","ios":"levelo://app?vid=66ad86ce-fc20-4e27-ae09-168f203aa7c0"},"vehicle_type_id":"4","last_reported":1745455971,"current_range_meters":7200,"station_id":"ce4bh192rcd13ifvqdc0","pricing_plan_id":"cebpf4jnsgd1na2vs0mg"},{"bike_id":"f881a57b-9c07-4d1f-b146-fc55e427d03d","system_id":"levelo_inurba_marseille","lat":43.29561,"lon":5.39996,"is_reserved":false,"is_disabled":false,"rental_uris":{"android":"levelo://app?vid=f881a57b-9c07-4d1f-b146-fc55e427d03d","ios":"levelo://app?vid=f881a57b-9c07-4d1f-b146-fc55e427d03d"},"vehicle_type_id":"4","last_reported":1745455971,"current_range_meters":8000,"station_id":"ce4bh312rcd13ifvqdj0","pricing_plan_id":"cebpf4jnsgd1na2vs0mg"},{"bike_id":"d96f749b-28d5-4c2b-b6b0-c40c35e72009","system_id":"levelo_inurba_marseille","lat":43.28718,"lon":5.39989,"is_reserved":false,"is_disabled":false,"rental_uris":{"android":"levelo://app?vid=d96f749b-28d5-4c2b-b6b0-c40c35e72009","ios":"levelo://app?vid=d96f749b-28d5-4c2b-b6b0-c40c35e72009"},"vehicle_type_id":"4","last_reported":1745455971,"current_range_meters":8000,"station_id":"ce4bho92rcd13ifvqh3g","pricing_plan_id":"cebpf4jnsgd1na2vs0mg"},{"bike_id":"9e413059-7cf1-4bcb-94d0-d441a1bc78ba","system_id":"levelo_inurba_marseille","lat":43.28712,"lon":5.37403,"is_reserved":false,"is_disabled":false,"rental_uris":{"android":"levelo://app?vid=9e413059-7cf1-4bcb-94d0-d441a1bc78ba","ios":"levelo://app?vid=9e413059-7cf1-4bcb-94d0-d441a1bc78ba"},"vehicle_type_id":"4","last_reported":1745455971,"current_range_meters":8000,"station_id":"ce4bh3p2rcd13ifvqdq0","pricing_plan_id":"cebpf4jnsgd1na2vs0mg"},{"bike_id":"6d85eac8-2807-47cf-9f6e-8094fefcf027","system_id":"levelo_inurba_marseille","lat":43.30495,"lon":5.38469,"is_reserved":false,"is_disabled":false,"rental_uris":{"android":"levelo://app?vid=6d85eac8-2807-47cf-9f6e-8094fefcf027","ios":"levelo://app?vid=6d85eac8-2807-47cf-9f6e-8094fefcf027"},"vehicle_type_id":"4","last_reported":1745455971,"current_range_meters":8000,"station_id":"ce4bgg92rcd13ifvqb30","pricing_plan_id":"cebpf4jnsgd1na2vs0mg"},{"bike_id":"49c0f902-eac7-4a79-adf0-d142aff51e11","system_id":"levelo_inurba_marseille","lat":43.24168,"lon":5.36394,"is_reserved":false,"is_disabled":false,"rental_uris":{"android":"levelo://app?vid=49c0f902-eac7-4a79-adf0-d142aff51e11","ios":"levelo://app?vid=49c0f902-eac7-4a79-adf0-d142aff51e11"},"vehicle_type_id":"4","last_reported":1745455971,"current_range_meters":8000,"station_id":"cpo36qri1sfpv3e86is0","pricing_plan_id":"cebpf4jnsgd1na2vs0mg"},{"bike_id":"b7f1465a-6f26-4295-b5e3-c42d825d4220","system_id":"levelo_inurba_marseille","lat":43.28418,"lon":5.34973,"is_reserved":false,"is_disabled":false,"rental_uris":{"android":"levelo://app?vid=b7f1465a-6f26-4295-b5e3-c42d825d4220","ios":"levelo://app?vid=b7f1465a-6f26-4295-b5e3-c42d825d4220"},"vehicle_type_id":"4","last_reported":1745455971,"current_range_meters":8000,"station_id":"ce4bhbh2rcd13ifvqepg","pricing_plan_id":"cebpf4jnsgd1na2vs0mg"},{"bike_id":"2e084519-ee49-419e-abb9-0d7b32653da5","system_id":"levelo_inurba_marseille","lat":43.31324,"lon":5.39705,"is_reserved":false,"is_disabled":false,"rental_uris":{"android":"levelo://app?vid=2e084519-ee49-419e-abb9-0d7b32653da5","ios":"levelo://app?vid=2e084519-ee49-419e-abb9-0d7b32653da5"},"vehicle_type_id":"4","last_reported":1745455971,"current_range_meters":8400,"station_id":"ce4bgvp2rcd13ifvqcu0","pricing_plan_id":"cebpf4jnsgd1na2vs0mg"},{"bike_id":"67e80e12-0df0-47a3-a76c-955808049931","system_id":"levelo_inurba_marseille","lat":43.23194,"lon":5.39989,"is_reserved":false,"is_disabled":false,"rental_uris":{"android":"levelo://app?vid=67e80e12-0df0-47a3-a76c-955808049931","ios":"levelo://app?vid=67e80e12-0df0-47a3-a76c-955808049931"},"vehicle_type_id":"4","last_reported":1745455971,"current_range_meters":8400,"station_id":"ce4bhn12rcd13ifvqgqg","pricing_plan_id":"cebpf4jnsgd1na2vs0mg"},{"bike_id":"2444db48-73b9-4f67-9dc6-6e8bcceff093","system_id":"levelo_inurba_marseille","lat":43.29793,"lon":5.38118,"is_reserved":false,"is_disabled":true,"rental_uris":{"android":"levelo://app?vid=2444db48-73b9-4f67-9dc6-6e8bcceff093","ios":"levelo://app?vid=2444db48-73b9-4f67-9dc6-6e8bcceff093"},"vehicle_type_id":"4","last_reported":1745455971,"current_range_meters":8400,"station_id":"ce4bgip2rcd13ifvqbb0","pricing_plan_id":"cebpf4jnsgd1na2vs0mg"},{"bike_id":"7fc52449-6a37-4f24-930b-7b666a0972f0","system_id":"levelo_inurba_marseille","lat":43.28706,"lon":5.39984,"is_reserved":false,"is_disabled":false,"rental_uris":{"android":"levelo://app?vid=7fc52449-6a37-4f24-930b-7b666a0972f0","ios":"levelo://app?vid=7fc52449-6a37-4f24-930b-7b666a0972f0"},"vehicle_type_id":"4","last_reported":1745455971,"current_range_meters":8400,"station_id":"ce4bho92rcd13ifvqh3g","pricing_plan_id":"cebpf4jnsgd1na2vs0mg"},{"bike_id":"805ea2d5-ec08-4b13-ba23-87cc0a37bf03","system_id":"levelo_inurba_marseille","lat":43.24075,"lon":5.37767,"is_reserved":false,"is_disabled":false,"rental_uris":{"android":"levelo://app?vid=805ea2d5-ec08-4b13-ba23-87cc0a37bf03","ios":"levelo://app?vid=805ea2d5-ec08-4b13-ba23-87cc0a37bf03"},"vehicle_type_id":"4","last_reported":1745455971,"current_range_meters":8400,"station_id":"ce4bhnp2rcd13ifvqgvg","pricing_plan_id":"cebpf4jnsgd1na2vs0mg"},{"bike_id":"fbb6be43-75ac-4697-af84-df6581464ee0","system_id":"levelo_inurba_marseille","lat":43.23963,"lon":5.36637,"is_reserved":false,"is_disabled":false,"rental_uris":{"android":"levelo://app?vid=fbb6be43-75ac-4697-af84-df6581464ee0","ios":"levelo://app?vid=fbb6be43-75ac-4697-af84-df6581464ee0"},"vehicle_type_id":"4","last_reported":1745455971,"current_range_meters":8400,"station_id":"ce4bhi12rcd13ifvqfp0","pricing_plan_id":"cebpf4jnsgd1na2vs0mg"},{"bike_id":"bbdf6de1-1a4a-4137-864f-aa21238b58db","system_id":"levelo_inurba_marseille","lat":43.26811,"lon":5.40262,"is_reserved":false,"is_disabled":false,"rental_uris":{"android":"levelo://app?vid=bbdf6de1-1a4a-4137-864f-aa21238b58db","ios":"levelo://app?vid=bbdf6de1-1a4a-4137-864f-aa21238b58db"},"vehicle_type_id":"4","last_reported":1745455971,"current_range_meters":8800,"station_id":"ce501612rcd8frsf0b60","pricing_plan_id":"cebpf4jnsgd1na2vs0mg"},{"bike_id":"235f2bae-0a04-4484-8459-9c3ece0a1b2c","system_id":"levelo_inurba_marseille","lat":43.30737,"lon":5.42449,"is_reserved":false,"is_disabled":false,"rental_uris":{"android":"levelo://app?vid=235f2bae-0a04-4484-8459-9c3ece0a1b2c","ios":"levelo://app?vid=235f2bae-0a04-4484-8459-9c3ece0a1b2c"},"vehicle_type_id":"4","last_reported":1745455971,"current_range_meters":8800,"station_id":"st_cvj6ca6bvosntc0bfgr0","pricing_plan_id":"cebpf4jnsgd1na2vs0mg"},{"bike_id":"24db7984-1359-45eb-baef-06faf93e6ff6","system_id":"levelo_inurba_marseille","lat":43.34693,"lon":5.34542,"is_reserved":false,"is_disabled":false,"rental_uris":{"android":"levelo://app?vid=24db7984-1359-45eb-baef-06faf93e6ff6","ios":"levelo://app?vid=24db7984-1359-45eb-baef-06faf93e6ff6"},"vehicle_type_id":"4","last_reported":1745455971,"current_range_meters":8800,"station_id":"","pricing_plan_id":"cebpf4jnsgd1na2vs0mg"},{"bike_id":"4b5ad419-2a9e-4292-b343-3486796c2a93","system_id":"levelo_inurba_marseille","lat":43.287084,"lon":5.373954,"is_reserved":false,"is_disabled":false,"rental_uris":{"android":"levelo://app?vid=4b5ad419-2a9e-4292-b343-3486796c2a93","ios":"levelo://app?vid=4b5ad419-2a9e-4292-b343-3486796c2a93"},"vehicle_type_id":"4","last_reported":1745455971,"current_range_meters":8800,"station_id":"ce4bh3p2rcd13ifvqdq0","pricing_plan_id":"cebpf4jnsgd1na2vs0mg"},{"bike_id":"baf16995-e7d6-40d5-afca-58467ccd3dd8","system_id":"levelo_inurba_marseille","lat":43.27998,"lon":5.4002,"is_reserved":false,"is_disabled":false,"rental_uris":{"android":"levelo://app?vid=baf16995-e7d6-40d5-afca-58467ccd3dd8","ios":"levelo://app?vid=baf16995-e7d6-40d5-afca-58467ccd3dd8"},"vehicle_type_id":"4","last_reported":1745455971,"current_range_meters":8800,"station_id":"ce4bho92rcd13ifvqh4g","pricing_plan_id":"cebpf4jnsgd1na2vs0mg"},{"bike_id":"cbd0f7e4-e0e7-4c85-bfb0-0f7fd19ee508","system_id":"levelo_inurba_marseille","lat":43.28452,"lon":5.35878,"is_reserved":false,"is_disabled":false,"rental_uris":{"android":"levelo://app?vid=cbd0f7e4-e0e7-4c85-bfb0-0f7fd19ee508","ios":"levelo://app?vid=cbd0f7e4-e0e7-4c85-bfb0-0f7fd19ee508"},"vehicle_type_id":"4","last_reported":1745455971,"current_range_meters":8800,"station_id":"ce4bhah2rcd13ifvqei0","pricing_plan_id":"cebpf4jnsgd1na2vs0mg"},{"bike_id":"80066cef-5d64-4a49-9561-7e2ce806f875","system_id":"levelo_inurba_marseille","lat":43.31391,"lon":5.38513,"is_reserved":false,"is_disabled":false,"rental_uris":{"android":"levelo://app?vid=80066cef-5d64-4a49-9561-7e2ce806f875","ios":"levelo://app?vid=80066cef-5d64-4a49-9561-7e2ce806f875"},"vehicle_type_id":"4","last_reported":1745455971,"current_range_meters":8800,"station_id":"ce4bgt92rcd13ifvqcf0","pricing_plan_id":"cebpf4jnsgd1na2vs0mg"},{"bike_id":"009ef8fd-65f7-40c3-90d3-7dca1597284b","system_id":"levelo_inurba_marseille","lat":43.31176,"lon":5.38714,"is_reserved":false,"is_disabled":false,"rental_uris":{"android":"levelo://app?vid=009ef8fd-65f7-40c3-90d3-7dca1597284b","ios":"levelo://app?vid=009ef8fd-65f7-40c3-90d3-7dca1597284b"},"vehicle_type_id":"4","last_reported":1745455971,"current_range_meters":9200,"station_id":"ce4bgv12rcd13ifvqcp0","pricing_plan_id":"cebpf4jnsgd1na2vs0mg"},{"bike_id":"28388528-8a23-4283-8e69-993639e56162","system_id":"levelo_inurba_marseille","lat":43.313619,"lon":5.384965,"is_reserved":false,"is_disabled":false,"rental_uris":{"android":"levelo://app?vid=28388528-8a23-4283-8e69-993639e56162","ios":"levelo://app?vid=28388528-8a23-4283-8e69-993639e56162"},"vehicle_type_id":"4","last_reported":1745455971,"current_range_meters":9200,"station_id":"ce4bgt92rcd13ifvqcf0","pricing_plan_id":"cebpf4jnsgd1na2vs0mg"},{"bike_id":"7e9d26b8-b748-4e10-b3e2-977d9fd05087","system_id":"levelo_inurba_marseille","lat":43.31715,"lon":5.36893,"is_reserved":false,"is_disabled":false,"rental_uris":{"android":"levelo://app?vid=7e9d26b8-b748-4e10-b3e2-977d9fd05087","ios":"levelo://app?vid=7e9d26b8-b748-4e10-b3e2-977d9fd05087"},"vehicle_type_id":"4","last_reported":1745455971,"current_range_meters":9200,"station_id":"","pricing_plan_id":"cebpf4jnsgd1na2vs0mg"},{"bike_id":"9c325fd4-f154-4a48-857e-569f4cc367f9","system_id":"levelo_inurba_marseille","lat":43.22927,"lon":5.35384,"is_reserved":false,"is_disabled":false,"rental_uris":{"android":"levelo://app?vid=9c325fd4-f154-4a48-857e-569f4cc367f9","ios":"levelo://app?vid=9c325fd4-f154-4a48-857e-569f4cc367f9"},"vehicle_type_id":"4","last_reported":1745455971,"current_range_meters":9200,"station_id":"cpo3532slgdg3j2ikp40","pricing_plan_id":"cebpf4jnsgd1na2vs0mg"},{"bike_id":"b5937484-6cf8-47d6-aa9f-590a6cb6bc39","system_id":"levelo_inurba_marseille","lat":43.30224,"lon":5.40009,"is_reserved":false,"is_disabled":false,"rental_uris":{"android":"levelo://app?vid=b5937484-6cf8-47d6-aa9f-590a6cb6bc39","ios":"levelo://app?vid=b5937484-6cf8-47d6-aa9f-590a6cb6bc39"},"vehicle_type_id":"4","last_reported":1745455971,"current_range_meters":9200,"station_id":"ce4bgvh2rcd13ifvqcs0","pricing_plan_id":"cebpf4jnsgd1na2vs0mg"},{"bike_id":"4f5ac7c4-fae3-469d-a49f-999fe327ce77","system_id":"levelo_inurba_marseille","lat":43.319908,"lon":5.381624,"is_reserved":false,"is_disabled":false,"rental_uris":{"android":"levelo://app?vid=4f5ac7c4-fae3-469d-a49f-999fe327ce77","ios":"levelo://app?vid=4f5ac7c4-fae3-469d-a49f-999fe327ce77"},"vehicle_type_id":"4","last_reported":1745455971,"current_range_meters":9200,"station_id":"ce4bhr12rcd13ifvqhpg","pricing_plan_id":"cebpf4jnsgd1na2vs0mg"},{"bike_id":"c480a7af-8fff-44a4-9689-bb0d0443c7fb","system_id":"levelo_inurba_marseille","lat":43.28709,"lon":5.39981,"is_reserved":false,"is_disabled":false,"rental_uris":{"android":"levelo://app?vid=c480a7af-8fff-44a4-9689-bb0d0443c7fb","ios":"levelo://app?vid=c480a7af-8fff-44a4-9689-bb0d0443c7fb"},"vehicle_type_id":"4","last_reported":1745455971,"current_range_meters":9200,"station_id":"ce4bho92rcd13ifvqh3g","pricing_plan_id":"cebpf4jnsgd1na2vs0mg"},{"bike_id":"9ac3ef30-659b-4bfa-be03-8c5d23f92efb","system_id":"levelo_inurba_marseille","lat":43.2174,"lon":5.34609,"is_reserved":false,"is_disabled":false,"rental_uris":{"android":"levelo://app?vid=9ac3ef30-659b-4bfa-be03-8c5d23f92efb","ios":"levelo://app?vid=9ac3ef30-659b-4bfa-be03-8c5d23f92efb"},"vehicle_type_id":"4","last_reported":1745455971,"current_range_meters":9200,"station_id":"st_cvj6r9ubvosntc0bgbag","pricing_plan_id":"cebpf4jnsgd1na2vs0mg"},{"bike_id":"4cd052ba-32ce-49df-a7f0-6ff1ef572466","system_id":"levelo_inurba_marseille","lat":43.28408,"lon":5.37533,"is_reserved":false,"is_disabled":false,"rental_uris":{"android":"levelo://app?vid=4cd052ba-32ce-49df-a7f0-6ff1ef572466","ios":"levelo://app?vid=4cd052ba-32ce-49df-a7f0-6ff1ef572466"},"vehicle_type_id":"4","last_reported":1745455971,"current_range_meters":9200,"station_id":"ce4bh412rcd13ifvqds0","pricing_plan_id":"cebpf4jnsgd1na2vs0mg"},{"bike_id":"ec350b30-9b32-4c5f-aa22-3a10fc683fe2","system_id":"levelo_inurba_marseille","lat":43.29322,"lon":5.43457,"is_reserved":false,"is_disabled":false,"rental_uris":{"android":"levelo://app?vid=ec350b30-9b32-4c5f-aa22-3a10fc683fe2","ios":"levelo://app?vid=ec350b30-9b32-4c5f-aa22-3a10fc683fe2"},"vehicle_type_id":"4","last_reported":1745455971,"current_range_meters":9200,"station_id":"","pricing_plan_id":"cebpf4jnsgd1na2vs0mg"},{"bike_id":"92c3b340-d069-4f1c-b55b-44c52f19597b","system_id":"levelo_inurba_marseille","lat":43.28252,"lon":5.37793,"is_reserved":false,"is_disabled":false,"rental_uris":{"android":"levelo://app?vid=92c3b340-d069-4f1c-b55b-44c52f19597b","ios":"levelo://app?vid=92c3b340-d069-4f1c-b55b-44c52f19597b"},"vehicle_type_id":"4","last_reported":1745455971,"current_range_meters":9600,"station_id":"","pricing_plan_id":"cebpf4jnsgd1na2vs0mg"},{"bike_id":"c2af1cc3-8c6b-4f7b-a9e5-deaee2e35eee","system_id":"levelo_inurba_marseille","lat":43.31067,"lon":5.38356,"is_reserved":false,"is_disabled":false,"rental_uris":{"android":"levelo://app?vid=c2af1cc3-8c6b-4f7b-a9e5-deaee2e35eee","ios":"levelo://app?vid=c2af1cc3-8c6b-4f7b-a9e5-deaee2e35eee"},"vehicle_type_id":"4","last_reported":1745455971,"current_range_meters":9600,"station_id":"ce4bgv92rcd13ifvqcr0","pricing_plan_id":"cebpf4jnsgd1na2vs0mg"},{"bike_id":"0d0d4c78-11e2-4258-b6e0-5e2418b7432e","system_id":"levelo_inurba_marseille","lat":43.28699,"lon":5.37394,"is_reserved":false,"is_disabled":false,"rental_uris":{"android":"levelo://app?vid=0d0d4c78-11e2-4258-b6e0-5e2418b7432e","ios":"levelo://app?vid=0d0d4c78-11e2-4258-b6e0-5e2418b7432e"},"vehicle_type_id":"4","last_reported":1745455971,"current_range_meters":9600,"station_id":"ce4bh3p2rcd13ifvqdq0","pricing_plan_id":"cebpf4jnsgd1na2vs0mg"},{"bike_id":"b96d48d5-fc65-423b-9a30-5d2c864e8939","system_id":"levelo_inurba_marseille","lat":43.22504,"lon":5.34796,"is_reserved":false,"is_disabled":false,"rental_uris":{"android":"levelo://app?vid=b96d48d5-fc65-423b-9a30-5d2c864e8939","ios":"levelo://app?vid=b96d48d5-fc65-423b-9a30-5d2c864e8939"},"vehicle_type_id":"4","last_reported":1745455971,"current_range_meters":9600,"station_id":"st_cvj5dfep6f1abm77gieg","pricing_plan_id":"cebpf4jnsgd1na2vs0mg"},{"bike_id":"7affd995-e96b-402e-86ac-a786554a4a0f","system_id":"levelo_inurba_marseille","lat":43.30795,"lon":5.37645,"is_reserved":false,"is_disabled":false,"rental_uris":{"android":"levelo://app?vid=7affd995-e96b-402e-86ac-a786554a4a0f","ios":"levelo://app?vid=7affd995-e96b-402e-86ac-a786554a4a0f"},"vehicle_type_id":"4","last_reported":1745455971,"current_range_meters":9600,"station_id":"ce4bgv92rcd13ifvqcq0","pricing_plan_id":"cebpf4jnsgd1na2vs0mg"},{"bike_id":"363e2595-b8c3-401e-8e09-27303f712a69","system_id":"levelo_inurba_marseille","lat":43.3091,"lon":5.3965,"is_reserved":false,"is_disabled":false,"rental_uris":{"android":"levelo://app?vid=363e2595-b8c3-401e-8e09-27303f712a69","ios":"levelo://app?vid=363e2595-b8c3-401e-8e09-27303f712a69"},"vehicle_type_id":"4","last_reported":1745455971,"current_range_meters":9600,"station_id":"ce4bh012rcd13ifvqcv0","pricing_plan_id":"cebpf4jnsgd1na2vs0mg"},{"bike_id":"433e3771-4c74-457f-96d1-baa3b6ea0d40","system_id":"levelo_inurba_marseille","lat":43.28733,"lon":5.36079,"is_reserved":false,"is_disabled":false,"rental_uris":{"android":"levelo://app?vid=433e3771-4c74-457f-96d1-baa3b6ea0d40","ios":"levelo://app?vid=433e3771-4c74-457f-96d1-baa3b6ea0d40"},"vehicle_type_id":"4","last_reported":1745455971,"current_range_meters":9600,"station_id":"cki0cbj6b192h4jlfktg","pricing_plan_id":"cebpf4jnsgd1na2vs0mg"},{"bike_id":"af42016f-15d4-422d-8074-f1c07d23aae2","system_id":"levelo_inurba_marseille","lat":43.30324,"lon":5.40438,"is_reserved":false,"is_disabled":false,"rental_uris":{"android":"levelo://app?vid=af42016f-15d4-422d-8074-f1c07d23aae2","ios":"levelo://app?vid=af42016f-15d4-422d-8074-f1c07d23aae2"},"vehicle_type_id":"4","last_reported":1745455971,"current_range_meters":9600,"station_id":"ce4bh012rcd13ifvqd10","pricing_plan_id":"cebpf4jnsgd1na2vs0mg"},{"bike_id":"8c7cba96-a3d5-439a-9e64-c18b09dd7aa5","system_id":"levelo_inurba_marseille","lat":43.29555,"lon":5.42285,"is_reserved":false,"is_disabled":false,"rental_uris":{"android":"levelo://app?vid=8c7cba96-a3d5-439a-9e64-c18b09dd7aa5","ios":"levelo://app?vid=8c7cba96-a3d5-439a-9e64-c18b09dd7aa5"},"vehicle_type_id":"4","last_reported":1745455971,"current_range_meters":9600,"station_id":"ce4bhph2rcd13ifvqhdg","pricing_plan_id":"cebpf4jnsgd1na2vs0mg"},{"bike_id":"5cec985c-475e-4a47-afd7-2118745a458f","system_id":"levelo_inurba_marseille","lat":43.22932,"lon":5.35367,"is_reserved":false,"is_disabled":false,"rental_uris":{"android":"levelo://app?vid=5cec985c-475e-4a47-afd7-2118745a458f","ios":"levelo://app?vid=5cec985c-475e-4a47-afd7-2118745a458f"},"vehicle_type_id":"4","last_reported":1745455971,"current_range_meters":9600,"station_id":"cpo3532slgdg3j2ikp40","pricing_plan_id":"cebpf4jnsgd1na2vs0mg"},{"bike_id":"3a3bedf2-0adb-4d0d-9782-0a51518983df","system_id":"levelo_inurba_marseille","lat":43.289212,"lon":5.383923,"is_reserved":false,"is_disabled":true,"rental_uris":{"android":"levelo://app?vid=3a3bedf2-0adb-4d0d-9782-0a51518983df","ios":"levelo://app?vid=3a3bedf2-0adb-4d0d-9782-0a51518983df"},"vehicle_type_id":"4","last_reported":1745455971,"current_range_meters":10000,"station_id":"ce4bh612rcd13ifvqe6g","pricing_plan_id":"cebpf4jnsgd1na2vs0mg"},{"bike_id":"d6a00241-8f25-44db-ac6d-8e84872db2a8","system_id":"levelo_inurba_marseille","lat":43.33729,"lon":5.39162,"is_reserved":false,"is_disabled":false,"rental_uris":{"android":"levelo://app?vid=d6a00241-8f25-44db-ac6d-8e84872db2a8","ios":"levelo://app?vid=d6a00241-8f25-44db-ac6d-8e84872db2a8"},"vehicle_type_id":"4","last_reported":1745455971,"current_range_meters":10000,"station_id":"ce4bhr92rcd13ifvqhsg","pricing_plan_id":"cebpf4jnsgd1na2vs0mg"},{"bike_id":"61034bff-863b-4f17-b306-04653b14a109","system_id":"levelo_inurba_marseille","lat":43.30922,"lon":5.40158,"is_reserved":false,"is_disabled":true,"rental_uris":{"android":"levelo://app?vid=61034bff-863b-4f17-b306-04653b14a109","ios":"levelo://app?vid=61034bff-863b-4f17-b306-04653b14a109"},"vehicle_type_id":"4","last_reported":1745455971,"current_range_meters":10000,"station_id":"ce4bgvp2rcd13ifvqct0","pricing_plan_id":"cebpf4jnsgd1na2vs0mg"},{"bike_id":"d11778d2-405c-4d2c-baa1-e9db1690a962","system_id":"levelo_inurba_marseille","lat":43.28467,"lon":5.35889,"is_reserved":false,"is_disabled":false,"rental_uris":{"android":"levelo://app?vid=d11778d2-405c-4d2c-baa1-e9db1690a962","ios":"levelo://app?vid=d11778d2-405c-4d2c-baa1-e9db1690a962"},"vehicle_type_id":"4","last_reported":1745455971,"current_range_meters":10000,"station_id":"ce4bhah2rcd13ifvqei0","pricing_plan_id":"cebpf4jnsgd1na2vs0mg"},{"bike_id":"abd226a8-d003-4133-b9d2-b7c952b7ead1","system_id":"levelo_inurba_marseille","lat":43.230594,"lon":5.354913,"is_reserved":false,"is_disabled":false,"rental_uris":{"android":"levelo://app?vid=abd226a8-d003-4133-b9d2-b7c952b7ead1","ios":"levelo://app?vid=abd226a8-d003-4133-b9d2-b7c952b7ead1"},"vehicle_type_id":"4","last_reported":1745455971,"current_range_meters":10000,"station_id":"cpo3342slgdg3j2ifvpg","pricing_plan_id":"cebpf4jnsgd1na2vs0mg"},{"bike_id":"9e4499ec-11e0-4420-aa9c-7cd35460907d","system_id":"levelo_inurba_marseille","lat":43.25831,"lon":5.3941,"is_reserved":false,"is_disabled":false,"rental_uris":{"android":"levelo://app?vid=9e4499ec-11e0-4420-aa9c-7cd35460907d","ios":"levelo://app?vid=9e4499ec-11e0-4420-aa9c-7cd35460907d"},"vehicle_type_id":"4","last_reported":1745455971,"current_range_meters":10000,"station_id":"ce4bhip2rcd13ifvqft0","pricing_plan_id":"cebpf4jnsgd1na2vs0mg"},{"bike_id":"eb1f00ba-611e-4063-ab2a-863b8c85e10c","system_id":"levelo_inurba_marseille","lat":43.28562,"lon":5.39498,"is_reserved":false,"is_disabled":false,"rental_uris":{"android":"levelo://app?vid=eb1f00ba-611e-4063-ab2a-863b8c85e10c","ios":"levelo://app?vid=eb1f00ba-611e-4063-ab2a-863b8c85e10c"},"vehicle_type_id":"4","last_reported":1745455971,"current_range_meters":10000,"station_id":"","pricing_plan_id":"cebpf4jnsgd1na2vs0mg"},{"bike_id":"eac018cc-4244-4d34-9a05-c2e523bb3c57","system_id":"levelo_inurba_marseille","lat":43.28631,"lon":5.35656,"is_reserved":false,"is_disabled":false,"rental_uris":{"android":"levelo://app?vid=eac018cc-4244-4d34-9a05-c2e523bb3c57","ios":"levelo://app?vid=eac018cc-4244-4d34-9a05-c2e523bb3c57"},"vehicle_type_id":"4","last_reported":1745455971,"current_range_meters":10000,"station_id":"","pricing_plan_id":"cebpf4jnsgd1na2vs0mg"},{"bike_id":"730c7476-95c4-4e18-a1b3-3a935e74be04","system_id":"levelo_inurba_marseille","lat":43.29018,"lon":5.37554,"is_reserved":false,"is_disabled":true,"rental_uris":{"android":"levelo://app?vid=730c7476-95c4-4e18-a1b3-3a935e74be04","ios":"levelo://app?vid=730c7476-95c4-4e18-a1b3-3a935e74be04"},"vehicle_type_id":"4","last_reported":1745455971,"current_range_meters":10800,"station_id":"ce4bh692rcd13ifvqe90","pricing_plan_id":"cebpf4jnsgd1na2vs0mg"},{"bike_id":"1ed15132-6d7d-4abe-b136-71017b50be10","system_id":"levelo_inurba_marseille","lat":43.23962,"lon":5.36635,"is_reserved":false,"is_disabled":false,"rental_uris":{"android":"levelo://app?vid=1ed15132-6d7d-4abe-b136-71017b50be10","ios":"levelo://app?vid=1ed15132-6d7d-4abe-b136-71017b50be10"},"vehicle_type_id":"4","last_reported":1745455971,"current_range_meters":10800,"station_id":"ce4bhi12rcd13ifvqfp0","pricing_plan_id":"cebpf4jnsgd1na2vs0mg"},{"bike_id":"8fb44261-49c3-4680-b8bd-36f293c27199","system_id":"levelo_inurba_marseille","lat":43.240663,"lon":5.377592,"is_reserved":false,"is_disabled":false,"rental_uris":{"android":"levelo://app?vid=8fb44261-49c3-4680-b8bd-36f293c27199","ios":"levelo://app?vid=8fb44261-49c3-4680-b8bd-36f293c27199"},"vehicle_type_id":"4","last_reported":1745455971,"current_range_meters":10800,"station_id":"ce4bhnp2rcd13ifvqgvg","pricing_plan_id":"cebpf4jnsgd1na2vs0mg"},{"bike_id":"e6f3e4ad-958f-47a4-8f7f-a8c75c5becc3","system_id":"levelo_inurba_marseille","lat":43.29531,"lon":5.39401,"is_reserved":false,"is_disabled":false,"rental_uris":{"android":"levelo://app?vid=e6f3e4ad-958f-47a4-8f7f-a8c75c5becc3","ios":"levelo://app?vid=e6f3e4ad-958f-47a4-8f7f-a8c75c5becc3"},"vehicle_type_id":"4","last_reported":1745455971,"current_range_meters":10800,"station_id":"ce4bh292rcd13ifvqdf0","pricing_plan_id":"cebpf4jnsgd1na2vs0mg"},{"bike_id":"66d3f2a2-5910-443a-9c4a-b4c3a7c14e40","system_id":"levelo_inurba_marseille","lat":43.30026,"lon":5.40948,"is_reserved":false,"is_disabled":false,"rental_uris":{"android":"levelo://app?vid=66d3f2a2-5910-443a-9c4a-b4c3a7c14e40","ios":"levelo://app?vid=66d3f2a2-5910-443a-9c4a-b4c3a7c14e40"},"vehicle_type_id":"4","last_reported":1745455971,"current_range_meters":10800,"station_id":"","pricing_plan_id":"cebpf4jnsgd1na2vs0mg"},{"bike_id":"1b8b7145-49a7-4fe1-96a2-72a1d6e84a54","system_id":"levelo_inurba_marseille","lat":43.23062,"lon":5.3549,"is_reserved":false,"is_disabled":false,"rental_uris":{"android":"levelo://app?vid=1b8b7145-49a7-4fe1-96a2-72a1d6e84a54","ios":"levelo://app?vid=1b8b7145-49a7-4fe1-96a2-72a1d6e84a54"},"vehicle_type_id":"4","last_reported":1745455971,"current_range_meters":10800,"station_id":"cpo3342slgdg3j2ifvpg","pricing_plan_id":"cebpf4jnsgd1na2vs0mg"},{"bike_id":"f4240832-be75-486f-be90-a38ce111aeef","system_id":"levelo_inurba_marseille","lat":43.30743,"lon":5.37644,"is_reserved":false,"is_disabled":false,"rental_uris":{"android":"levelo://app?vid=f4240832-be75-486f-be90-a38ce111aeef","ios":"levelo://app?vid=f4240832-be75-486f-be90-a38ce111aeef"},"vehicle_type_id":"4","last_reported":1745455971,"current_range_meters":11200,"station_id":"ce4bgv92rcd13ifvqcq0","pricing_plan_id":"cebpf4jnsgd1na2vs0mg"},{"bike_id":"fd329d73-d91a-41c7-89cf-ed671cee0a8f","system_id":"levelo_inurba_marseille","lat":43.25584,"lon":5.38229,"is_reserved":false,"is_disabled":true,"rental_uris":{"android":"levelo://app?vid=fd329d73-d91a-41c7-89cf-ed671cee0a8f","ios":"levelo://app?vid=fd329d73-d91a-41c7-89cf-ed671cee0a8f"},"vehicle_type_id":"4","last_reported":1745455971,"current_range_meters":11200,"station_id":"ce4bhih2rcd13ifvqfs0","pricing_plan_id":"cebpf4jnsgd1na2vs0mg"},{"bike_id":"ebd60230-852f-4552-befa-36dd36cec448","system_id":"levelo_inurba_marseille","lat":43.29267,"lon":5.38195,"is_reserved":false,"is_disabled":false,"rental_uris":{"android":"levelo://app?vid=ebd60230-852f-4552-befa-36dd36cec448","ios":"levelo://app?vid=ebd60230-852f-4552-befa-36dd36cec448"},"vehicle_type_id":"4","last_reported":1745455971,"current_range_meters":11200,"station_id":"","pricing_plan_id":"cebpf4jnsgd1na2vs0mg"},{"bike_id":"55cfd899-1002-4506-8659-42ac23e45317","system_id":"levelo_inurba_marseille","lat":43.29246,"lon":5.40887,"is_reserved":false,"is_disabled":false,"rental_uris":{"android":"levelo://app?vid=55cfd899-1002-4506-8659-42ac23e45317","ios":"levelo://app?vid=55cfd899-1002-4506-8659-42ac23e45317"},"vehicle_type_id":"4","last_reported":1745455971,"current_range_meters":11200,"station_id":"ce4bh192rcd13ifvqdc0","pricing_plan_id":"cebpf4jnsgd1na2vs0mg"},{"bike_id":"e80d6036-1913-47ec-a939-60ef7b86907e","system_id":"levelo_inurba_marseille","lat":43.31989,"lon":5.38142,"is_reserved":false,"is_disabled":false,"rental_uris":{"android":"levelo://app?vid=e80d6036-1913-47ec-a939-60ef7b86907e","ios":"levelo://app?vid=e80d6036-1913-47ec-a939-60ef7b86907e"},"vehicle_type_id":"4","last_reported":1745455971,"current_range_meters":11200,"station_id":"ce4bhr12rcd13ifvqhpg","pricing_plan_id":"cebpf4jnsgd1na2vs0mg"},{"bike_id":"27c05df6-8a91-4ca8-984f-88f6525a00cd","system_id":"levelo_inurba_marseille","lat":43.247903,"lon":5.373447,"is_reserved":false,"is_disabled":false,"rental_uris":{"android":"levelo://app?vid=27c05df6-8a91-4ca8-984f-88f6525a00cd","ios":"levelo://app?vid=27c05df6-8a91-4ca8-984f-88f6525a00cd"},"vehicle_type_id":"4","last_reported":1745455971,"current_range_meters":11600,"station_id":"","pricing_plan_id":"cebpf4jnsgd1na2vs0mg"},{"bike_id":"813b8eef-27cc-4149-ab25-6bfc307f8052","system_id":"levelo_inurba_marseille","lat":43.28936,"lon":5.3663,"is_reserved":false,"is_disabled":false,"rental_uris":{"android":"levelo://app?vid=813b8eef-27cc-4149-ab25-6bfc307f8052","ios":"levelo://app?vid=813b8eef-27cc-4149-ab25-6bfc307f8052"},"vehicle_type_id":"4","last_reported":1745455971,"current_range_meters":11600,"station_id":"ce4bhap2rcd13ifvqek0","pricing_plan_id":"cebpf4jnsgd1na2vs0mg"},{"bike_id":"527ab9af-1602-4e3b-a3d5-77f5acec1ebf","system_id":"levelo_inurba_marseille","lat":43.26185,"lon":5.37429,"is_reserved":false,"is_disabled":true,"rental_uris":{"android":"levelo://app?vid=527ab9af-1602-4e3b-a3d5-77f5acec1ebf","ios":"levelo://app?vid=527ab9af-1602-4e3b-a3d5-77f5acec1ebf"},"vehicle_type_id":"4","last_reported":1745455971,"current_range_meters":11600,"station_id":"ce4bhgp2rcd13ifvqfc0","pricing_plan_id":"cebpf4jnsgd1na2vs0mg"},{"bike_id":"79d55ae0-47d8-4607-8864-96cad0709c9e","system_id":"levelo_inurba_marseille","lat":43.28451,"lon":5.35889,"is_reserved":false,"is_disabled":false,"rental_uris":{"android":"levelo://app?vid=79d55ae0-47d8-4607-8864-96cad0709c9e","ios":"levelo://app?vid=79d55ae0-47d8-4607-8864-96cad0709c9e"},"vehicle_type_id":"4","last_reported":1745455971,"current_range_meters":12000,"station_id":"ce4bhah2rcd13ifvqei0","pricing_plan_id":"cebpf4jnsgd1na2vs0mg"},{"bike_id":"012b9d59-47c7-4faa-ac0c-d91c09e3e027","system_id":"levelo_inurba_marseille","lat":43.28471,"lon":5.3588,"is_reserved":false,"is_disabled":false,"rental_uris":{"android":"levelo://app?vid=012b9d59-47c7-4faa-ac0c-d91c09e3e027","ios":"levelo://app?vid=012b9d59-47c7-4faa-ac0c-d91c09e3e027"},"vehicle_type_id":"4","last_reported":1745455971,"current_range_meters":12400,"station_id":"ce4bhah2rcd13ifvqei0","pricing_plan_id":"cebpf4jnsgd1na2vs0mg"},{"bike_id":"e1035640-cbde-4956-9c7c-825d447b0c44","system_id":"levelo_inurba_marseille","lat":43.27912,"lon":5.39567,"is_reserved":false,"is_disabled":false,"rental_uris":{"android":"levelo://app?vid=e1035640-cbde-4956-9c7c-825d447b0c44","ios":"levelo://app?vid=e1035640-cbde-4956-9c7c-825d447b0c44"},"vehicle_type_id":"4","last_reported":1745455971,"current_range_meters":12400,"station_id":"ce4bhf92rcd13ifvqf40","pricing_plan_id":"cebpf4jnsgd1na2vs0mg"},{"bike_id":"6590828e-60a6-4c06-80e1-9a44bd6f3a16","system_id":"levelo_inurba_marseille","lat":43.31352,"lon":5.38492,"is_reserved":false,"is_disabled":false,"rental_uris":{"android":"levelo://app?vid=6590828e-60a6-4c06-80e1-9a44bd6f3a16","ios":"levelo://app?vid=6590828e-60a6-4c06-80e1-9a44bd6f3a16"},"vehicle_type_id":"4","last_reported":1745455971,"current_range_meters":12800,"station_id":"ce4bgt92rcd13ifvqcf0","pricing_plan_id":"cebpf4jnsgd1na2vs0mg"},{"bike_id":"7e168725-4d64-4302-a96b-dfc8d5097467","system_id":"levelo_inurba_marseille","lat":43.31191,"lon":5.38703,"is_reserved":false,"is_disabled":false,"rental_uris":{"android":"levelo://app?vid=7e168725-4d64-4302-a96b-dfc8d5097467","ios":"levelo://app?vid=7e168725-4d64-4302-a96b-dfc8d5097467"},"vehicle_type_id":"4","last_reported":1745455971,"current_range_meters":12800,"station_id":"ce4bgv12rcd13ifvqcp0","pricing_plan_id":"cebpf4jnsgd1na2vs0mg"},{"bike_id":"716b8428-36de-4a4e-bede-3f01e8feff4d","system_id":"levelo_inurba_marseille","lat":43.28,"lon":5.40024,"is_reserved":false,"is_disabled":false,"rental_uris":{"android":"levelo://app?vid=716b8428-36de-4a4e-bede-3f01e8feff4d","ios":"levelo://app?vid=716b8428-36de-4a4e-bede-3f01e8feff4d"},"vehicle_type_id":"4","last_reported":1745455971,"current_range_meters":13600,"station_id":"ce4bho92rcd13ifvqh4g","pricing_plan_id":"cebpf4jnsgd1na2vs0mg"},{"bike_id":"11ce02ec-5de1-4d28-b35b-b9d2498a4135","system_id":"levelo_inurba_marseille","lat":43.23066,"lon":5.35503,"is_reserved":false,"is_disabled":false,"rental_uris":{"android":"levelo://app?vid=11ce02ec-5de1-4d28-b35b-b9d2498a4135","ios":"levelo://app?vid=11ce02ec-5de1-4d28-b35b-b9d2498a4135"},"vehicle_type_id":"4","last_reported":1745455971,"current_range_meters":13600,"station_id":"cpo3342slgdg3j2ifvpg","pricing_plan_id":"cebpf4jnsgd1na2vs0mg"},{"bike_id":"30e08c8c-a2b6-45d6-9704-9460af4f4d07","system_id":"levelo_inurba_marseille","lat":43.31082,"lon":5.42419,"is_reserved":false,"is_disabled":false,"rental_uris":{"android":"levelo://app?vid=30e08c8c-a2b6-45d6-9704-9460af4f4d07","ios":"levelo://app?vid=30e08c8c-a2b6-45d6-9704-9460af4f4d07"},"vehicle_type_id":"4","last_reported":1745455971,"current_range_meters":13600,"station_id":"ce4bhp92rcd13ifvqhag","pricing_plan_id":"cebpf4jnsgd1na2vs0mg"},{"bike_id":"46374c49-3adc-4c5a-8966-e00f056c0d57","system_id":"levelo_inurba_marseille","lat":43.27846,"lon":5.35442,"is_reserved":false,"is_disabled":false,"rental_uris":{"android":"levelo://app?vid=46374c49-3adc-4c5a-8966-e00f056c0d57","ios":"levelo://app?vid=46374c49-3adc-4c5a-8966-e00f056c0d57"},"vehicle_type_id":"4","last_reported":1745455971,"current_range_meters":14000,"station_id":"","pricing_plan_id":"cebpf4jnsgd1na2vs0mg"},{"bike_id":"162104c9-c9c3-41e8-9022-0f16a6a968c6","system_id":"levelo_inurba_marseille","lat":43.33022,"lon":5.3904,"is_reserved":false,"is_disabled":false,"rental_uris":{"android":"levelo://app?vid=162104c9-c9c3-41e8-9022-0f16a6a968c6","ios":"levelo://app?vid=162104c9-c9c3-41e8-9022-0f16a6a968c6"},"vehicle_type_id":"4","last_reported":1745455971,"current_range_meters":14000,"station_id":"ce4bhr92rcd13ifvqhrg","pricing_plan_id":"cebpf4jnsgd1na2vs0mg"},{"bike_id":"eaedb804-0e7c-4c63-a1b3-fcbc9ec36df3","system_id":"levelo_inurba_marseille","lat":43.28705,"lon":5.37385,"is_reserved":false,"is_disabled":false,"rental_uris":{"android":"levelo://app?vid=eaedb804-0e7c-4c63-a1b3-fcbc9ec36df3","ios":"levelo://app?vid=eaedb804-0e7c-4c63-a1b3-fcbc9ec36df3"},"vehicle_type_id":"4","last_reported":1745455971,"current_range_meters":14400,"station_id":"ce4bh3p2rcd13ifvqdq0","pricing_plan_id":"cebpf4jnsgd1na2vs0mg"},{"bike_id":"29b27eb8-5b29-494c-b20a-f027c7d38195","system_id":"levelo_inurba_marseille","lat":43.313255,"lon":5.396953,"is_reserved":false,"is_disabled":false,"rental_uris":{"android":"levelo://app?vid=29b27eb8-5b29-494c-b20a-f027c7d38195","ios":"levelo://app?vid=29b27eb8-5b29-494c-b20a-f027c7d38195"},"vehicle_type_id":"4","last_reported":1745455971,"current_range_meters":14400,"station_id":"ce4bgvp2rcd13ifvqcu0","pricing_plan_id":"cebpf4jnsgd1na2vs0mg"},{"bike_id":"535ce4a1-1af3-4cbb-aa98-06d91ac25ff9","system_id":"levelo_inurba_marseille","lat":43.28727,"lon":5.36075,"is_reserved":false,"is_disabled":false,"rental_uris":{"android":"levelo://app?vid=535ce4a1-1af3-4cbb-aa98-06d91ac25ff9","ios":"levelo://app?vid=535ce4a1-1af3-4cbb-aa98-06d91ac25ff9"},"vehicle_type_id":"4","last_reported":1745455971,"current_range_meters":14000,"station_id":"cki0cbj6b192h4jlfktg","pricing_plan_id":"cebpf4jnsgd1na2vs0mg"},{"bike_id":"bd4f0b28-c324-459c-8482-b4d9162923c5","system_id":"levelo_inurba_marseille","lat":43.28094,"lon":5.37802,"is_reserved":false,"is_disabled":false,"rental_uris":{"android":"levelo://app?vid=bd4f0b28-c324-459c-8482-b4d9162923c5","ios":"levelo://app?vid=bd4f0b28-c324-459c-8482-b4d9162923c5"},"vehicle_type_id":"4","last_reported":1745455971,"current_range_meters":14800,"station_id":"ce4bha12rcd13ifvqee0","pricing_plan_id":"cebpf4jnsgd1na2vs0mg"},{"bike_id":"c31fa7a6-3bef-4b6b-b437-db20cf09ba13","system_id":"levelo_inurba_marseille","lat":43.28947,"lon":5.36624,"is_reserved":false,"is_disabled":false,"rental_uris":{"android":"levelo://app?vid=c31fa7a6-3bef-4b6b-b437-db20cf09ba13","ios":"levelo://app?vid=c31fa7a6-3bef-4b6b-b437-db20cf09ba13"},"vehicle_type_id":"4","last_reported":1745455971,"current_range_meters":14800,"station_id":"ce4bhap2rcd13ifvqek0","pricing_plan_id":"cebpf4jnsgd1na2vs0mg"},{"bike_id":"755abc1a-f797-479c-8e88-5f59f436c9d9","system_id":"levelo_inurba_marseille","lat":43.23961,"lon":5.36633,"is_reserved":false,"is_disabled":true,"rental_uris":{"android":"levelo://app?vid=755abc1a-f797-479c-8e88-5f59f436c9d9","ios":"levelo://app?vid=755abc1a-f797-479c-8e88-5f59f436c9d9"},"vehicle_type_id":"4","last_reported":1745455971,"current_range_meters":14800,"station_id":"ce4bhi12rcd13ifvqfp0","pricing_plan_id":"cebpf4jnsgd1na2vs0mg"},{"bike_id":"ffba0ba4-4b22-400f-b823-14c1532b754c","system_id":"levelo_inurba_marseille","lat":43.21737,"lon":5.34603,"is_reserved":false,"is_disabled":false,"rental_uris":{"android":"levelo://app?vid=ffba0ba4-4b22-400f-b823-14c1532b754c","ios":"levelo://app?vid=ffba0ba4-4b22-400f-b823-14c1532b754c"},"vehicle_type_id":"4","last_reported":1745455971,"current_range_meters":15200,"station_id":"","pricing_plan_id":"cebpf4jnsgd1na2vs0mg"},{"bike_id":"29c27f6c-b172-4d99-add3-c74bdfc6be20","system_id":"levelo_inurba_marseille","lat":43.33021,"lon":5.39029,"is_reserved":false,"is_disabled":false,"rental_uris":{"android":"levelo://app?vid=29c27f6c-b172-4d99-add3-c74bdfc6be20","ios":"levelo://app?vid=29c27f6c-b172-4d99-add3-c74bdfc6be20"},"vehicle_type_id":"4","last_reported":1745455971,"current_range_meters":15200,"station_id":"ce4bhr92rcd13ifvqhrg","pricing_plan_id":"cebpf4jnsgd1na2vs0mg"},{"bike_id":"305a8662-bc62-4326-b66d-c6d8c543cba5","system_id":"levelo_inurba_marseille","lat":43.31171,"lon":5.387,"is_reserved":false,"is_disabled":false,"rental_uris":{"android":"levelo://app?vid=305a8662-bc62-4326-b66d-c6d8c543cba5","ios":"levelo://app?vid=305a8662-bc62-4326-b66d-c6d8c543cba5"},"vehicle_type_id":"4","last_reported":1745455971,"current_range_meters":15200,"station_id":"ce4bgv12rcd13ifvqcp0","pricing_plan_id":"cebpf4jnsgd1na2vs0mg"},{"bike_id":"35b85307-9a55-4a0e-890f-04ab631e7fc2","system_id":"levelo_inurba_marseille","lat":43.30883,"lon":5.39655,"is_reserved":false,"is_disabled":false,"rental_uris":{"android":"levelo://app?vid=35b85307-9a55-4a0e-890f-04ab631e7fc2","ios":"levelo://app?vid=35b85307-9a55-4a0e-890f-04ab631e7fc2"},"vehicle_type_id":"4","last_reported":1745455971,"current_range_meters":16000,"station_id":"ce4bh012rcd13ifvqcv0","pricing_plan_id":"cebpf4jnsgd1na2vs0mg"},{"bike_id":"7d2633a5-2cb0-46eb-8c00-357bd5fadfef","system_id":"levelo_inurba_marseille","lat":43.25487,"lon":5.37651,"is_reserved":false,"is_disabled":true,"rental_uris":{"android":"levelo://app?vid=7d2633a5-2cb0-46eb-8c00-357bd5fadfef","ios":"levelo://app?vid=7d2633a5-2cb0-46eb-8c00-357bd5fadfef"},"vehicle_type_id":"4","last_reported":1745455971,"current_range_meters":15200,"station_id":"ce4bhh12rcd13ifvqff0","pricing_plan_id":"cebpf4jnsgd1na2vs0mg"},{"bike_id":"4c4334fd-83c9-4afe-b055-16cf90ed58e3","system_id":"levelo_inurba_marseille","lat":43.31332,"lon":5.39698,"is_reserved":false,"is_disabled":false,"rental_uris":{"android":"levelo://app?vid=4c4334fd-83c9-4afe-b055-16cf90ed58e3","ios":"levelo://app?vid=4c4334fd-83c9-4afe-b055-16cf90ed58e3"},"vehicle_type_id":"4","last_reported":1745455971,"current_range_meters":15200,"station_id":"ce4bgvp2rcd13ifvqcu0","pricing_plan_id":"cebpf4jnsgd1na2vs0mg"},{"bike_id":"9c3f0281-0921-4b75-a287-6453fbb59048","system_id":"levelo_inurba_marseille","lat":43.302,"lon":5.40039,"is_reserved":false,"is_disabled":false,"rental_uris":{"android":"levelo://app?vid=9c3f0281-0921-4b75-a287-6453fbb59048","ios":"levelo://app?vid=9c3f0281-0921-4b75-a287-6453fbb59048"},"vehicle_type_id":"4","last_reported":1745455971,"current_range_meters":15200,"station_id":"ce4bgvh2rcd13ifvqcs0","pricing_plan_id":"cebpf4jnsgd1na2vs0mg"},{"bike_id":"9740a091-e2db-490f-b412-51cbb432f73e","system_id":"levelo_inurba_marseille","lat":43.28938,"lon":5.39633,"is_reserved":false,"is_disabled":false,"rental_uris":{"android":"levelo://app?vid=9740a091-e2db-490f-b412-51cbb432f73e","ios":"levelo://app?vid=9740a091-e2db-490f-b412-51cbb432f73e"},"vehicle_type_id":"4","last_reported":1745455971,"current_range_meters":15200,"station_id":"ce4bh3h2rcd13ifvqdn0","pricing_plan_id":"cebpf4jnsgd1na2vs0mg"},{"bike_id":"13306d83-ed88-476f-bce6-7a18094c5170","system_id":"levelo_inurba_marseille","lat":43.31066,"lon":5.38347,"is_reserved":false,"is_disabled":false,"rental_uris":{"android":"levelo://app?vid=13306d83-ed88-476f-bce6-7a18094c5170","ios":"levelo://app?vid=13306d83-ed88-476f-bce6-7a18094c5170"},"vehicle_type_id":"4","last_reported":1745455971,"current_range_meters":16000,"station_id":"ce4bgv92rcd13ifvqcr0","pricing_plan_id":"cebpf4jnsgd1na2vs0mg"},{"bike_id":"dfd69b24-961c-414b-a74c-3d3f365a3276","system_id":"levelo_inurba_marseille","lat":43.2584,"lon":5.39422,"is_reserved":false,"is_disabled":false,"rental_uris":{"android":"levelo://app?vid=dfd69b24-961c-414b-a74c-3d3f365a3276","ios":"levelo://app?vid=dfd69b24-961c-414b-a74c-3d3f365a3276"},"vehicle_type_id":"4","last_reported":1745455971,"current_range_meters":16000,"station_id":"ce4bhip2rcd13ifvqft0","pricing_plan_id":"cebpf4jnsgd1na2vs0mg"},{"bike_id":"415b2609-c0ae-472a-aa20-d8c246fb2a5e","system_id":"levelo_inurba_marseille","lat":43.31709,"lon":5.37807,"is_reserved":false,"is_disabled":false,"rental_uris":{"android":"levelo://app?vid=415b2609-c0ae-472a-aa20-d8c246fb2a5e","ios":"levelo://app?vid=415b2609-c0ae-472a-aa20-d8c246fb2a5e"},"vehicle_type_id":"4","last_reported":1745455971,"current_range_meters":16000,"station_id":"","pricing_plan_id":"cebpf4jnsgd1na2vs0mg"},{"bike_id":"06dd8ac2-a46a-4aa4-ad9c-eafec922adfd","system_id":"levelo_inurba_marseille","lat":43.33059,"lon":5.39071,"is_reserved":false,"is_disabled":false,"rental_uris":{"android":"levelo://app?vid=06dd8ac2-a46a-4aa4-ad9c-eafec922adfd","ios":"levelo://app?vid=06dd8ac2-a46a-4aa4-ad9c-eafec922adfd"},"vehicle_type_id":"4","last_reported":1745455971,"current_range_meters":16000,"station_id":"","pricing_plan_id":"cebpf4jnsgd1na2vs0mg"},{"bike_id":"ebf1b236-2bb7-44a9-a6ad-9eab96bd4a12","system_id":"levelo_inurba_marseille","lat":43.28459,"lon":5.3588,"is_reserved":false,"is_disabled":false,"rental_uris":{"android":"levelo://app?vid=ebf1b236-2bb7-44a9-a6ad-9eab96bd4a12","ios":"levelo://app?vid=ebf1b236-2bb7-44a9-a6ad-9eab96bd4a12"},"vehicle_type_id":"4","last_reported":1745455971,"current_range_meters":16000,"station_id":"ce4bhah2rcd13ifvqei0","pricing_plan_id":"cebpf4jnsgd1na2vs0mg"},{"bike_id":"08d8024f-ca85-4aea-8a41-bf3abb5d15c0","system_id":"levelo_inurba_marseille","lat":43.2844,"lon":5.3916,"is_reserved":false,"is_disabled":false,"rental_uris":{"android":"levelo://app?vid=08d8024f-ca85-4aea-8a41-bf3abb5d15c0","ios":"levelo://app?vid=08d8024f-ca85-4aea-8a41-bf3abb5d15c0"},"vehicle_type_id":"4","last_reported":1745455971,"current_range_meters":16000,"station_id":"ce4bhoh2rcd13ifvqh5g","pricing_plan_id":"cebpf4jnsgd1na2vs0mg"},{"bike_id":"8ab2ed8d-364c-4252-a36f-2dad9a4f2a15","system_id":"levelo_inurba_marseille","lat":43.23962,"lon":5.36641,"is_reserved":false,"is_disabled":false,"rental_uris":{"android":"levelo://app?vid=8ab2ed8d-364c-4252-a36f-2dad9a4f2a15","ios":"levelo://app?vid=8ab2ed8d-364c-4252-a36f-2dad9a4f2a15"},"vehicle_type_id":"4","last_reported":1745455971,"current_range_meters":16400,"station_id":"ce4bhi12rcd13ifvqfp0","pricing_plan_id":"cebpf4jnsgd1na2vs0mg"},{"bike_id":"6b11b64e-78f5-4f05-8c63-c592e726ebe8","system_id":"levelo_inurba_marseille","lat":43.25128,"lon":5.40319,"is_reserved":false,"is_disabled":false,"rental_uris":{"android":"levelo://app?vid=6b11b64e-78f5-4f05-8c63-c592e726ebe8","ios":"levelo://app?vid=6b11b64e-78f5-4f05-8c63-c592e726ebe8"},"vehicle_type_id":"4","last_reported":1745455971,"current_range_meters":16400,"station_id":"ce4bhlh2rcd13ifvqgig","pricing_plan_id":"cebpf4jnsgd1na2vs0mg"},{"bike_id":"d2f9ab38-d77b-417d-8e17-1403be698e41","system_id":"levelo_inurba_marseille","lat":43.2408,"lon":5.37748,"is_reserved":false,"is_disabled":false,"rental_uris":{"android":"levelo://app?vid=d2f9ab38-d77b-417d-8e17-1403be698e41","ios":"levelo://app?vid=d2f9ab38-d77b-417d-8e17-1403be698e41"},"vehicle_type_id":"4","last_reported":1745455971,"current_range_meters":16400,"station_id":"ce4bhnp2rcd13ifvqgvg","pricing_plan_id":"cebpf4jnsgd1na2vs0mg"},{"bike_id":"8d45bee7-bfce-433b-98c1-8f404b9b27b1","system_id":"levelo_inurba_marseille","lat":43.29878,"lon":5.39723,"is_reserved":false,"is_disabled":false,"rental_uris":{"android":"levelo://app?vid=8d45bee7-bfce-433b-98c1-8f404b9b27b1","ios":"levelo://app?vid=8d45bee7-bfce-433b-98c1-8f404b9b27b1"},"vehicle_type_id":"4","last_reported":1745455971,"current_range_meters":16400,"station_id":"ce4bh0h2rcd13ifvqd50","pricing_plan_id":"cebpf4jnsgd1na2vs0mg"},{"bike_id":"fa8a552a-d2d3-4e8d-8d8e-02bdba037836","system_id":"levelo_inurba_marseille","lat":43.230677,"lon":5.35492,"is_reserved":false,"is_disabled":false,"rental_uris":{"android":"levelo://app?vid=fa8a552a-d2d3-4e8d-8d8e-02bdba037836","ios":"levelo://app?vid=fa8a552a-d2d3-4e8d-8d8e-02bdba037836"},"vehicle_type_id":"4","last_reported":1745455971,"current_range_meters":16400,"station_id":"cpo3342slgdg3j2ifvpg","pricing_plan_id":"cebpf4jnsgd1na2vs0mg"},{"bike_id":"708f6555-490b-40d4-a032-87f825a452ce","system_id":"levelo_inurba_marseille","lat":43.28036,"lon":5.36948,"is_reserved":false,"is_disabled":false,"rental_uris":{"android":"levelo://app?vid=708f6555-490b-40d4-a032-87f825a452ce","ios":"levelo://app?vid=708f6555-490b-40d4-a032-87f825a452ce"},"vehicle_type_id":"4","last_reported":1745455971,"current_range_meters":16800,"station_id":"ce4bha12rcd13ifvqef0","pricing_plan_id":"cebpf4jnsgd1na2vs0mg"},{"bike_id":"8dff3327-c704-4870-8401-73b9c1029785","system_id":"levelo_inurba_marseille","lat":43.25871,"lon":5.39899,"is_reserved":false,"is_disabled":true,"rental_uris":{"android":"levelo://app?vid=8dff3327-c704-4870-8401-73b9c1029785","ios":"levelo://app?vid=8dff3327-c704-4870-8401-73b9c1029785"},"vehicle_type_id":"4","last_reported":1745455971,"current_range_meters":16800,"station_id":"ce4bhl92rcd13ifvqghg","pricing_plan_id":"cebpf4jnsgd1na2vs0mg"},{"bike_id":"87873093-27f5-49a2-8c34-ddd2205add84","system_id":"levelo_inurba_marseille","lat":43.28484,"lon":5.38436,"is_reserved":false,"is_disabled":true,"rental_uris":{"android":"levelo://app?vid=87873093-27f5-49a2-8c34-ddd2205add84","ios":"levelo://app?vid=87873093-27f5-49a2-8c34-ddd2205add84"},"vehicle_type_id":"4","last_reported":1745455971,"current_range_meters":16800,"station_id":"ce4bh512rcd13ifvqe3g","pricing_plan_id":"cebpf4jnsgd1na2vs0mg"},{"bike_id":"a0fcf741-0877-46cb-8bb2-153eaab23e98","system_id":"levelo_inurba_marseille","lat":43.30808,"lon":5.43527,"is_reserved":false,"is_disabled":false,"rental_uris":{"android":"levelo://app?vid=a0fcf741-0877-46cb-8bb2-153eaab23e98","ios":"levelo://app?vid=a0fcf741-0877-46cb-8bb2-153eaab23e98"},"vehicle_type_id":"4","last_reported":1745455971,"current_range_meters":16800,"station_id":"ce4bhph2rcd13ifvqheg","pricing_plan_id":"cebpf4jnsgd1na2vs0mg"},{"bike_id":"bd14c086-b21e-4360-b45c-7cb79e1d9f0e","system_id":"levelo_inurba_marseille","lat":43.31082,"lon":5.38348,"is_reserved":false,"is_disabled":false,"rental_uris":{"android":"levelo://app?vid=bd14c086-b21e-4360-b45c-7cb79e1d9f0e","ios":"levelo://app?vid=bd14c086-b21e-4360-b45c-7cb79e1d9f0e"},"vehicle_type_id":"4","last_reported":1745455971,"current_range_meters":16800,"station_id":"ce4bgv92rcd13ifvqcr0","pricing_plan_id":"cebpf4jnsgd1na2vs0mg"},{"bike_id":"788f87a8-7cec-4429-95b8-581f88103984","system_id":"levelo_inurba_marseille","lat":43.31333,"lon":5.39681,"is_reserved":false,"is_disabled":false,"rental_uris":{"android":"levelo://app?vid=788f87a8-7cec-4429-95b8-581f88103984","ios":"levelo://app?vid=788f87a8-7cec-4429-95b8-581f88103984"},"vehicle_type_id":"4","last_reported":1745455971,"current_range_meters":16800,"station_id":"ce4bgvp2rcd13ifvqcu0","pricing_plan_id":"cebpf4jnsgd1na2vs0mg"},{"bike_id":"b217c7a4-92b6-4872-91fa-f2c2827250cc","system_id":"levelo_inurba_marseille","lat":43.2884,"lon":5.39228,"is_reserved":false,"is_disabled":false,"rental_uris":{"android":"levelo://app?vid=b217c7a4-92b6-4872-91fa-f2c2827250cc","ios":"levelo://app?vid=b217c7a4-92b6-4872-91fa-f2c2827250cc"},"vehicle_type_id":"4","last_reported":1745455971,"current_range_meters":16800,"station_id":"","pricing_plan_id":"cebpf4jnsgd1na2vs0mg"},{"bike_id":"bb64812a-8229-4b0a-ac25-77aa4fd66202","system_id":"levelo_inurba_marseille","lat":43.28734,"lon":5.36067,"is_reserved":false,"is_disabled":false,"rental_uris":{"android":"levelo://app?vid=bb64812a-8229-4b0a-ac25-77aa4fd66202","ios":"levelo://app?vid=bb64812a-8229-4b0a-ac25-77aa4fd66202"},"vehicle_type_id":"4","last_reported":1745455971,"current_range_meters":16800,"station_id":"cki0cbj6b192h4jlfktg","pricing_plan_id":"cebpf4jnsgd1na2vs0mg"},{"bike_id":"6a1b385f-4c37-4399-89d8-2a1bce2af65b","system_id":"levelo_inurba_marseille","lat":43.33713,"lon":5.39218,"is_reserved":false,"is_disabled":false,"rental_uris":{"android":"levelo://app?vid=6a1b385f-4c37-4399-89d8-2a1bce2af65b","ios":"levelo://app?vid=6a1b385f-4c37-4399-89d8-2a1bce2af65b"},"vehicle_type_id":"4","last_reported":1745455971,"current_range_meters":17200,"station_id":"ce4bhr92rcd13ifvqhsg","pricing_plan_id":"cebpf4jnsgd1na2vs0mg"},{"bike_id":"caef2552-e2e3-41e9-a827-ac546470c0d7","system_id":"levelo_inurba_marseille","lat":43.23153,"lon":5.43726,"is_reserved":false,"is_disabled":false,"rental_uris":{"android":"levelo://app?vid=caef2552-e2e3-41e9-a827-ac546470c0d7","ios":"levelo://app?vid=caef2552-e2e3-41e9-a827-ac546470c0d7"},"vehicle_type_id":"4","last_reported":1745455971,"current_range_meters":17200,"station_id":"ce4bhmp2rcd13ifvqgog","pricing_plan_id":"cebpf4jnsgd1na2vs0mg"},{"bike_id":"70f58000-b46f-4dea-9403-90f0fe1a02d2","system_id":"levelo_inurba_marseille","lat":43.28702,"lon":5.37391,"is_reserved":false,"is_disabled":false,"rental_uris":{"android":"levelo://app?vid=70f58000-b46f-4dea-9403-90f0fe1a02d2","ios":"levelo://app?vid=70f58000-b46f-4dea-9403-90f0fe1a02d2"},"vehicle_type_id":"4","last_reported":1745455971,"current_range_meters":17200,"station_id":"ce4bh3p2rcd13ifvqdq0","pricing_plan_id":"cebpf4jnsgd1na2vs0mg"},{"bike_id":"6d4d4cae-c0ce-4d66-94ac-cdce6c4dcd48","system_id":"levelo_inurba_marseille","lat":43.25678,"lon":5.41023,"is_reserved":false,"is_disabled":false,"rental_uris":{"android":"levelo://app?vid=6d4d4cae-c0ce-4d66-94ac-cdce6c4dcd48","ios":"levelo://app?vid=6d4d4cae-c0ce-4d66-94ac-cdce6c4dcd48"},"vehicle_type_id":"4","last_reported":1745455971,"current_range_meters":17600,"station_id":"ce4bhkp2rcd13ifvqgd0","pricing_plan_id":"cebpf4jnsgd1na2vs0mg"},{"bike_id":"4f68919f-000c-4a19-8495-0f5b6db98860","system_id":"levelo_inurba_marseille","lat":43.246661,"lon":5.381572,"is_reserved":false,"is_disabled":false,"rental_uris":{"android":"levelo://app?vid=4f68919f-000c-4a19-8495-0f5b6db98860","ios":"levelo://app?vid=4f68919f-000c-4a19-8495-0f5b6db98860"},"vehicle_type_id":"4","last_reported":1745455971,"current_range_meters":17600,"station_id":"ce4bhih2rcd13ifvqfr0","pricing_plan_id":"cebpf4jnsgd1na2vs0mg"},{"bike_id":"007b8d99-d89d-47a6-9fef-850944abb7db","system_id":"levelo_inurba_marseille","lat":43.31161,"lon":5.3873,"is_reserved":false,"is_disabled":false,"rental_uris":{"android":"levelo://app?vid=007b8d99-d89d-47a6-9fef-850944abb7db","ios":"levelo://app?vid=007b8d99-d89d-47a6-9fef-850944abb7db"},"vehicle_type_id":"4","last_reported":1745455971,"current_range_meters":17600,"station_id":"ce4bgv12rcd13ifvqcp0","pricing_plan_id":"cebpf4jnsgd1na2vs0mg"},{"bike_id":"ff5e3259-b0d8-4d18-89aa-2d5e9dc3e1ce","system_id":"levelo_inurba_marseille","lat":43.29197,"lon":5.358,"is_reserved":false,"is_disabled":false,"rental_uris":{"android":"levelo://app?vid=ff5e3259-b0d8-4d18-89aa-2d5e9dc3e1ce","ios":"levelo://app?vid=ff5e3259-b0d8-4d18-89aa-2d5e9dc3e1ce"},"vehicle_type_id":"4","last_reported":1745455971,"current_range_meters":17600,"station_id":"ce4bhb12rcd13ifvqel0","pricing_plan_id":"cebpf4jnsgd1na2vs0mg"},{"bike_id":"5dd12b3b-eef7-4dab-a6de-2ed4ff99da38","system_id":"levelo_inurba_marseille","lat":43.29024,"lon":5.37556,"is_reserved":false,"is_disabled":true,"rental_uris":{"android":"levelo://app?vid=5dd12b3b-eef7-4dab-a6de-2ed4ff99da38","ios":"levelo://app?vid=5dd12b3b-eef7-4dab-a6de-2ed4ff99da38"},"vehicle_type_id":"4","last_reported":1745455971,"current_range_meters":17600,"station_id":"ce4bh692rcd13ifvqe90","pricing_plan_id":"cebpf4jnsgd1na2vs0mg"},{"bike_id":"ab660249-0742-4ee6-9f3c-cbf7eabd0145","system_id":"levelo_inurba_marseille","lat":43.28549,"lon":5.37071,"is_reserved":false,"is_disabled":false,"rental_uris":{"android":"levelo://app?vid=ab660249-0742-4ee6-9f3c-cbf7eabd0145","ios":"levelo://app?vid=ab660249-0742-4ee6-9f3c-cbf7eabd0145"},"vehicle_type_id":"4","last_reported":1745455971,"current_range_meters":17600,"station_id":"","pricing_plan_id":"cebpf4jnsgd1na2vs0mg"},{"bike_id":"890ad4cd-fa56-473a-9b75-9a62637c50dc","system_id":"levelo_inurba_marseille","lat":43.32662,"lon":5.36716,"is_reserved":false,"is_disabled":false,"rental_uris":{"android":"levelo://app?vid=890ad4cd-fa56-473a-9b75-9a62637c50dc","ios":"levelo://app?vid=890ad4cd-fa56-473a-9b75-9a62637c50dc"},"vehicle_type_id":"4","last_reported":1745455971,"current_range_meters":17600,"station_id":"","pricing_plan_id":"cebpf4jnsgd1na2vs0mg"},{"bike_id":"6fa93a30-9477-472b-911d-f334fbcc0d65","system_id":"levelo_inurba_marseille","lat":43.30151,"lon":5.38776,"is_reserved":false,"is_disabled":true,"rental_uris":{"android":"levelo://app?vid=6fa93a30-9477-472b-911d-f334fbcc0d65","ios":"levelo://app?vid=6fa93a30-9477-472b-911d-f334fbcc0d65"},"vehicle_type_id":"4","last_reported":1745455971,"current_range_meters":17600,"station_id":"ce4bghh2rcd13ifvqb60","pricing_plan_id":"cebpf4jnsgd1na2vs0mg"},{"bike_id":"d99abc64-fc5e-4365-b2fd-7591e88627e8","system_id":"levelo_inurba_marseille","lat":43.31375,"lon":5.38483,"is_reserved":false,"is_disabled":false,"rental_uris":{"android":"levelo://app?vid=d99abc64-fc5e-4365-b2fd-7591e88627e8","ios":"levelo://app?vid=d99abc64-fc5e-4365-b2fd-7591e88627e8"},"vehicle_type_id":"4","last_reported":1745455971,"current_range_meters":17600,"station_id":"ce4bgt92rcd13ifvqcf0","pricing_plan_id":"cebpf4jnsgd1na2vs0mg"},{"bike_id":"19b1e669-c0ec-46a9-8c21-4f491a13468c","system_id":"levelo_inurba_marseille","lat":43.29537,"lon":5.38535,"is_reserved":false,"is_disabled":true,"rental_uris":{"android":"levelo://app?vid=19b1e669-c0ec-46a9-8c21-4f491a13468c","ios":"levelo://app?vid=19b1e669-c0ec-46a9-8c21-4f491a13468c"},"vehicle_type_id":"4","last_reported":1745455971,"current_range_meters":18000,"station_id":"ce4bgih2rcd13ifvqba0","pricing_plan_id":"cebpf4jnsgd1na2vs0mg"},{"bike_id":"226ffe90-da23-4800-ae5f-00f65faa00f9","system_id":"levelo_inurba_marseille","lat":43.31355,"lon":5.38492,"is_reserved":false,"is_disabled":false,"rental_uris":{"android":"levelo://app?vid=226ffe90-da23-4800-ae5f-00f65faa00f9","ios":"levelo://app?vid=226ffe90-da23-4800-ae5f-00f65faa00f9"},"vehicle_type_id":"4","last_reported":1745455971,"current_range_meters":18000,"station_id":"ce4bgt92rcd13ifvqcf0","pricing_plan_id":"cebpf4jnsgd1na2vs0mg"},{"bike_id":"6d51da42-143e-4c42-8c35-29bec0272d31","system_id":"levelo_inurba_marseille","lat":43.27999,"lon":5.40015,"is_reserved":false,"is_disabled":false,"rental_uris":{"android":"levelo://app?vid=6d51da42-143e-4c42-8c35-29bec0272d31","ios":"levelo://app?vid=6d51da42-143e-4c42-8c35-29bec0272d31"},"vehicle_type_id":"4","last_reported":1745455971,"current_range_meters":18000,"station_id":"ce4bho92rcd13ifvqh4g","pricing_plan_id":"cebpf4jnsgd1na2vs0mg"},{"bike_id":"2655adba-5bd9-4da0-8cd3-5bc0123170f2","system_id":"levelo_inurba_marseille","lat":43.31355,"lon":5.38483,"is_reserved":false,"is_disabled":false,"rental_uris":{"android":"levelo://app?vid=2655adba-5bd9-4da0-8cd3-5bc0123170f2","ios":"levelo://app?vid=2655adba-5bd9-4da0-8cd3-5bc0123170f2"},"vehicle_type_id":"4","last_reported":1745455971,"current_range_meters":18000,"station_id":"ce4bgt92rcd13ifvqcf0","pricing_plan_id":"cebpf4jnsgd1na2vs0mg"},{"bike_id":"c8cc5bc6-4aee-4811-8513-2b242b7ce89b","system_id":"levelo_inurba_marseille","lat":43.23194,"lon":5.3555,"is_reserved":false,"is_disabled":false,"rental_uris":{"android":"levelo://app?vid=c8cc5bc6-4aee-4811-8513-2b242b7ce89b","ios":"levelo://app?vid=c8cc5bc6-4aee-4811-8513-2b242b7ce89b"},"vehicle_type_id":"4","last_reported":1745455971,"current_range_meters":18000,"station_id":"ce4bhu92rcd13ifvqi70","pricing_plan_id":"cebpf4jnsgd1na2vs0mg"},{"bike_id":"c5260414-53ea-4c4b-84bd-1a38f855ebd9","system_id":"levelo_inurba_marseille","lat":43.31067,"lon":5.38358,"is_reserved":false,"is_disabled":true,"rental_uris":{"android":"levelo://app?vid=c5260414-53ea-4c4b-84bd-1a38f855ebd9","ios":"levelo://app?vid=c5260414-53ea-4c4b-84bd-1a38f855ebd9"},"vehicle_type_id":"4","last_reported":1745455971,"current_range_meters":18000,"station_id":"ce4bgv92rcd13ifvqcr0","pricing_plan_id":"cebpf4jnsgd1na2vs0mg"},{"bike_id":"e139658a-7edf-4768-8598-e719cf4aa58a","system_id":"levelo_inurba_marseille","lat":43.29246,"lon":5.40906,"is_reserved":false,"is_disabled":false,"rental_uris":{"android":"levelo://app?vid=e139658a-7edf-4768-8598-e719cf4aa58a","ios":"levelo://app?vid=e139658a-7edf-4768-8598-e719cf4aa58a"},"vehicle_type_id":"4","last_reported":1745455971,"current_range_meters":18000,"station_id":"ce4bh192rcd13ifvqdc0","pricing_plan_id":"cebpf4jnsgd1na2vs0mg"},{"bike_id":"0a2f3df2-be5d-47f7-97b1-3871d48b5243","system_id":"levelo_inurba_marseille","lat":43.28458,"lon":5.35898,"is_reserved":false,"is_disabled":false,"rental_uris":{"android":"levelo://app?vid=0a2f3df2-be5d-47f7-97b1-3871d48b5243","ios":"levelo://app?vid=0a2f3df2-be5d-47f7-97b1-3871d48b5243"},"vehicle_type_id":"4","last_reported":1745455971,"current_range_meters":18000,"station_id":"ce4bhah2rcd13ifvqei0","pricing_plan_id":"cebpf4jnsgd1na2vs0mg"},{"bike_id":"cd906bce-52be-45be-8f08-cdeb623de131","system_id":"levelo_inurba_marseille","lat":43.28182,"lon":5.4036,"is_reserved":false,"is_disabled":false,"rental_uris":{"android":"levelo://app?vid=cd906bce-52be-45be-8f08-cdeb623de131","ios":"levelo://app?vid=cd906bce-52be-45be-8f08-cdeb623de131"},"vehicle_type_id":"4","last_reported":1745455971,"current_range_meters":18800,"station_id":"","pricing_plan_id":"cebpf4jnsgd1na2vs0mg"},{"bike_id":"ab8406b2-4f8d-4381-8821-3db52b0a4d4d","system_id":"levelo_inurba_marseille","lat":43.27357,"lon":5.37831,"is_reserved":false,"is_disabled":false,"rental_uris":{"android":"levelo://app?vid=ab8406b2-4f8d-4381-8821-3db52b0a4d4d","ios":"levelo://app?vid=ab8406b2-4f8d-4381-8821-3db52b0a4d4d"},"vehicle_type_id":"4","last_reported":1745455971,"current_range_meters":18800,"station_id":"","pricing_plan_id":"cebpf4jnsgd1na2vs0mg"},{"bike_id":"05789d63-1a14-4489-aad6-4361ab4352d6","system_id":"levelo_inurba_marseille","lat":43.31318,"lon":5.39705,"is_reserved":false,"is_disabled":false,"rental_uris":{"android":"levelo://app?vid=05789d63-1a14-4489-aad6-4361ab4352d6","ios":"levelo://app?vid=05789d63-1a14-4489-aad6-4361ab4352d6"},"vehicle_type_id":"4","last_reported":1745455971,"current_range_meters":18800,"station_id":"ce4bgvp2rcd13ifvqcu0","pricing_plan_id":"cebpf4jnsgd1na2vs0mg"},{"bike_id":"cadd2a19-c37c-493d-b003-1c5753f859f2","system_id":"levelo_inurba_marseille","lat":43.30533,"lon":5.38424,"is_reserved":false,"is_disabled":true,"rental_uris":{"android":"levelo://app?vid=cadd2a19-c37c-493d-b003-1c5753f859f2","ios":"levelo://app?vid=cadd2a19-c37c-493d-b003-1c5753f859f2"},"vehicle_type_id":"4","last_reported":1745455971,"current_range_meters":19200,"station_id":"ce4bgg92rcd13ifvqb30","pricing_plan_id":"cebpf4jnsgd1na2vs0mg"},{"bike_id":"47190e3f-b500-4537-a213-0b80afe51449","system_id":"levelo_inurba_marseille","lat":43.24667,"lon":5.38143,"is_reserved":false,"is_disabled":false,"rental_uris":{"android":"levelo://app?vid=47190e3f-b500-4537-a213-0b80afe51449","ios":"levelo://app?vid=47190e3f-b500-4537-a213-0b80afe51449"},"vehicle_type_id":"4","last_reported":1745455971,"current_range_meters":19200,"station_id":"ce4bhih2rcd13ifvqfr0","pricing_plan_id":"cebpf4jnsgd1na2vs0mg"},{"bike_id":"f91a33e0-c093-4eda-8d2d-0b7850edc5d9","system_id":"levelo_inurba_marseille","lat":43.31172,"lon":5.38715,"is_reserved":false,"is_disabled":false,"rental_uris":{"android":"levelo://app?vid=f91a33e0-c093-4eda-8d2d-0b7850edc5d9","ios":"levelo://app?vid=f91a33e0-c093-4eda-8d2d-0b7850edc5d9"},"vehicle_type_id":"4","last_reported":1745455971,"current_range_meters":19200,"station_id":"ce4bgv12rcd13ifvqcp0","pricing_plan_id":"cebpf4jnsgd1na2vs0mg"},{"bike_id":"83ce8635-e014-4d4b-b4bb-5f7a1fac789e","system_id":"levelo_inurba_marseille","lat":43.26689,"lon":5.3828,"is_reserved":false,"is_disabled":true,"rental_uris":{"android":"levelo://app?vid=83ce8635-e014-4d4b-b4bb-5f7a1fac789e","ios":"levelo://app?vid=83ce8635-e014-4d4b-b4bb-5f7a1fac789e"},"vehicle_type_id":"4","last_reported":1745455971,"current_range_meters":19200,"station_id":"ce4bhg92rcd13ifvqf90","pricing_plan_id":"cebpf4jnsgd1na2vs0mg"},{"bike_id":"62c12a23-5b5c-4b4a-b4b2-c1678789d880","system_id":"levelo_inurba_marseille","lat":43.22941,"lon":5.3536,"is_reserved":false,"is_disabled":false,"rental_uris":{"android":"levelo://app?vid=62c12a23-5b5c-4b4a-b4b2-c1678789d880","ios":"levelo://app?vid=62c12a23-5b5c-4b4a-b4b2-c1678789d880"},"vehicle_type_id":"4","last_reported":1745455971,"current_range_meters":19200,"station_id":"cpo3532slgdg3j2ikp40","pricing_plan_id":"cebpf4jnsgd1na2vs0mg"},{"bike_id":"fbae3d13-4305-4309-b90d-8310a9527283","system_id":"levelo_inurba_marseille","lat":43.30783,"lon":5.37654,"is_reserved":false,"is_disabled":false,"rental_uris":{"android":"levelo://app?vid=fbae3d13-4305-4309-b90d-8310a9527283","ios":"levelo://app?vid=fbae3d13-4305-4309-b90d-8310a9527283"},"vehicle_type_id":"4","last_reported":1745455971,"current_range_meters":19200,"station_id":"ce4bgv92rcd13ifvqcq0","pricing_plan_id":"cebpf4jnsgd1na2vs0mg"},{"bike_id":"96f95ec8-2ec8-4f85-847e-9992741b9ee1","system_id":"levelo_inurba_marseille","lat":43.31072,"lon":5.38345,"is_reserved":false,"is_disabled":false,"rental_uris":{"android":"levelo://app?vid=96f95ec8-2ec8-4f85-847e-9992741b9ee1","ios":"levelo://app?vid=96f95ec8-2ec8-4f85-847e-9992741b9ee1"},"vehicle_type_id":"4","last_reported":1745455971,"current_range_meters":19200,"station_id":"ce4bgv92rcd13ifvqcr0","pricing_plan_id":"cebpf4jnsgd1na2vs0mg"},{"bike_id":"7a38cd50-7a93-4627-806c-1a69d66aceb3","system_id":"levelo_inurba_marseille","lat":43.307968,"lon":5.435287,"is_reserved":false,"is_disabled":false,"rental_uris":{"android":"levelo://app?vid=7a38cd50-7a93-4627-806c-1a69d66aceb3","ios":"levelo://app?vid=7a38cd50-7a93-4627-806c-1a69d66aceb3"},"vehicle_type_id":"4","last_reported":1745455971,"current_range_meters":19200,"station_id":"ce4bhph2rcd13ifvqheg","pricing_plan_id":"cebpf4jnsgd1na2vs0mg"},{"bike_id":"e0475622-ca3c-4cc9-8273-63b58a33d69d","system_id":"levelo_inurba_marseille","lat":43.317125,"lon":5.437015,"is_reserved":false,"is_disabled":false,"rental_uris":{"android":"levelo://app?vid=e0475622-ca3c-4cc9-8273-63b58a33d69d","ios":"levelo://app?vid=e0475622-ca3c-4cc9-8273-63b58a33d69d"},"vehicle_type_id":"4","last_reported":1745455971,"current_range_meters":19600,"station_id":"ce4bhp92rcd13ifvqhcg","pricing_plan_id":"cebpf4jnsgd1na2vs0mg"},{"bike_id":"371d6345-ea86-4502-aa1e-73f213dac220","system_id":"levelo_inurba_marseille","lat":43.27922,"lon":5.38015,"is_reserved":false,"is_disabled":false,"rental_uris":{"android":"levelo://app?vid=371d6345-ea86-4502-aa1e-73f213dac220","ios":"levelo://app?vid=371d6345-ea86-4502-aa1e-73f213dac220"},"vehicle_type_id":"4","last_reported":1745455971,"current_range_meters":19600,"station_id":"ce4bhf92rcd13ifvqf50","pricing_plan_id":"cebpf4jnsgd1na2vs0mg"},{"bike_id":"129ea9c4-35d8-4d8a-97f1-d90eefdd4cf8","system_id":"levelo_inurba_marseille","lat":43.29203,"lon":5.39314,"is_reserved":false,"is_disabled":true,"rental_uris":{"android":"levelo://app?vid=129ea9c4-35d8-4d8a-97f1-d90eefdd4cf8","ios":"levelo://app?vid=129ea9c4-35d8-4d8a-97f1-d90eefdd4cf8"},"vehicle_type_id":"4","last_reported":1745455971,"current_range_meters":19600,"station_id":"ce4bh192rcd13ifvqdd0","pricing_plan_id":"cebpf4jnsgd1na2vs0mg"},{"bike_id":"e7ceb111-ad1a-4f31-a96a-46e4b911a670","system_id":"levelo_inurba_marseille","lat":43.306,"lon":5.37226,"is_reserved":false,"is_disabled":false,"rental_uris":{"android":"levelo://app?vid=e7ceb111-ad1a-4f31-a96a-46e4b911a670","ios":"levelo://app?vid=e7ceb111-ad1a-4f31-a96a-46e4b911a670"},"vehicle_type_id":"4","last_reported":1745455971,"current_range_meters":19600,"station_id":"ce4bgqh2rcd13ifvqc4g","pricing_plan_id":"cebpf4jnsgd1na2vs0mg"},{"bike_id":"bd275b38-e8fc-4a7f-8937-8231591542c2","system_id":"levelo_inurba_marseille","lat":43.29706,"lon":5.36612,"is_reserved":false,"is_disabled":false,"rental_uris":{"android":"levelo://app?vid=bd275b38-e8fc-4a7f-8937-8231591542c2","ios":"levelo://app?vid=bd275b38-e8fc-4a7f-8937-8231591542c2"},"vehicle_type_id":"4","last_reported":1745455971,"current_range_meters":19200,"station_id":"ce4bgn12rcd13ifvqbt0","pricing_plan_id":"cebpf4jnsgd1na2vs0mg"},{"bike_id":"c161f46b-a115-44df-a29c-1b13c406a93f","system_id":"levelo_inurba_marseille","lat":43.31717,"lon":5.42393,"is_reserved":false,"is_disabled":false,"rental_uris":{"android":"levelo://app?vid=c161f46b-a115-44df-a29c-1b13c406a93f","ios":"levelo://app?vid=c161f46b-a115-44df-a29c-1b13c406a93f"},"vehicle_type_id":"4","last_reported":1745455971,"current_range_meters":20000,"station_id":"ce4bhp92rcd13ifvqhbg","pricing_plan_id":"cebpf4jnsgd1na2vs0mg"},{"bike_id":"a5ccf778-40c7-43d1-8d46-99c2c68b3f38","system_id":"levelo_inurba_marseille","lat":43.28465,"lon":5.35899,"is_reserved":false,"is_disabled":false,"rental_uris":{"android":"levelo://app?vid=a5ccf778-40c7-43d1-8d46-99c2c68b3f38","ios":"levelo://app?vid=a5ccf778-40c7-43d1-8d46-99c2c68b3f38"},"vehicle_type_id":"4","last_reported":1745455971,"current_range_meters":20000,"station_id":"ce4bhah2rcd13ifvqei0","pricing_plan_id":"cebpf4jnsgd1na2vs0mg"},{"bike_id":"9ce9ed10-eeed-4d45-8f84-41863276a87d","system_id":"levelo_inurba_marseille","lat":43.28851,"lon":5.35849,"is_reserved":false,"is_disabled":false,"rental_uris":{"android":"levelo://app?vid=9ce9ed10-eeed-4d45-8f84-41863276a87d","ios":"levelo://app?vid=9ce9ed10-eeed-4d45-8f84-41863276a87d"},"vehicle_type_id":"4","last_reported":1745455971,"current_range_meters":20000,"station_id":"ce4bhb12rcd13ifvqem0","pricing_plan_id":"cebpf4jnsgd1na2vs0mg"},{"bike_id":"30da752e-5450-4da3-965e-773778ce5d7d","system_id":"levelo_inurba_marseille","lat":43.24161,"lon":5.36377,"is_reserved":false,"is_disabled":false,"rental_uris":{"android":"levelo://app?vid=30da752e-5450-4da3-965e-773778ce5d7d","ios":"levelo://app?vid=30da752e-5450-4da3-965e-773778ce5d7d"},"vehicle_type_id":"4","last_reported":1745455971,"current_range_meters":20000,"station_id":"cpo36qri1sfpv3e86is0","pricing_plan_id":"cebpf4jnsgd1na2vs0mg"},{"bike_id":"6f8110d9-0891-4a33-8a98-df34fa3c7719","system_id":"levelo_inurba_marseille","lat":43.29549,"lon":5.42288,"is_reserved":false,"is_disabled":false,"rental_uris":{"android":"levelo://app?vid=6f8110d9-0891-4a33-8a98-df34fa3c7719","ios":"levelo://app?vid=6f8110d9-0891-4a33-8a98-df34fa3c7719"},"vehicle_type_id":"4","last_reported":1745455971,"current_range_meters":20000,"station_id":"ce4bhph2rcd13ifvqhdg","pricing_plan_id":"cebpf4jnsgd1na2vs0mg"},{"bike_id":"13817c42-5d7c-4abd-9f12-b8cd3470f622","system_id":"levelo_inurba_marseille","lat":43.25826,"lon":5.39437,"is_reserved":false,"is_disabled":false,"rental_uris":{"android":"levelo://app?vid=13817c42-5d7c-4abd-9f12-b8cd3470f622","ios":"levelo://app?vid=13817c42-5d7c-4abd-9f12-b8cd3470f622"},"vehicle_type_id":"4","last_reported":1745455971,"current_range_meters":20400,"station_id":"ce4bhip2rcd13ifvqft0","pricing_plan_id":"cebpf4jnsgd1na2vs0mg"},{"bike_id":"3e17723d-5d2c-43fb-a55f-770e9c1b3f7b","system_id":"levelo_inurba_marseille","lat":43.3107,"lon":5.38346,"is_reserved":false,"is_disabled":false,"rental_uris":{"android":"levelo://app?vid=3e17723d-5d2c-43fb-a55f-770e9c1b3f7b","ios":"levelo://app?vid=3e17723d-5d2c-43fb-a55f-770e9c1b3f7b"},"vehicle_type_id":"4","last_reported":1745455971,"current_range_meters":20400,"station_id":"ce4bgv92rcd13ifvqcr0","pricing_plan_id":"cebpf4jnsgd1na2vs0mg"},{"bike_id":"13d4cd46-5da1-42c1-abad-7159ca180f03","system_id":"levelo_inurba_marseille","lat":43.25725,"lon":5.41108,"is_reserved":false,"is_disabled":false,"rental_uris":{"android":"levelo://app?vid=13d4cd46-5da1-42c1-abad-7159ca180f03","ios":"levelo://app?vid=13d4cd46-5da1-42c1-abad-7159ca180f03"},"vehicle_type_id":"4","last_reported":1745455971,"current_range_meters":20000,"station_id":"ce4bhkp2rcd13ifvqgd0","pricing_plan_id":"cebpf4jnsgd1na2vs0mg"},{"bike_id":"73f40cff-bb71-4b7a-8ad7-f06c69fb0596","system_id":"levelo_inurba_marseille","lat":43.211994,"lon":5.35072,"is_reserved":false,"is_disabled":false,"rental_uris":{"android":"levelo://app?vid=73f40cff-bb71-4b7a-8ad7-f06c69fb0596","ios":"levelo://app?vid=73f40cff-bb71-4b7a-8ad7-f06c69fb0596"},"vehicle_type_id":"4","last_reported":1745455971,"current_range_meters":20400,"station_id":"st_cvj6sg6p6f1abm77japg","pricing_plan_id":"cebpf4jnsgd1na2vs0mg"},{"bike_id":"e2dcabcf-64d8-4394-bb9a-ff877bee611a","system_id":"levelo_inurba_marseille","lat":43.32064,"lon":5.41531,"is_reserved":false,"is_disabled":false,"rental_uris":{"android":"levelo://app?vid=e2dcabcf-64d8-4394-bb9a-ff877bee611a","ios":"levelo://app?vid=e2dcabcf-64d8-4394-bb9a-ff877bee611a"},"vehicle_type_id":"4","last_reported":1745455971,"current_range_meters":20400,"station_id":"ce4bhq92rcd13ifvqhkg","pricing_plan_id":"cebpf4jnsgd1na2vs0mg"},{"bike_id":"ca3fcb8d-28dd-4840-84f5-f4c297b535ce","system_id":"levelo_inurba_marseille","lat":43.31716,"lon":5.42393,"is_reserved":false,"is_disabled":false,"rental_uris":{"android":"levelo://app?vid=ca3fcb8d-28dd-4840-84f5-f4c297b535ce","ios":"levelo://app?vid=ca3fcb8d-28dd-4840-84f5-f4c297b535ce"},"vehicle_type_id":"4","last_reported":1745455971,"current_range_meters":20800,"station_id":"ce4bhp92rcd13ifvqhbg","pricing_plan_id":"cebpf4jnsgd1na2vs0mg"},{"bike_id":"18497f24-2e2c-47ad-a0e9-9c3c47a82942","system_id":"levelo_inurba_marseille","lat":43.28036,"lon":5.36946,"is_reserved":false,"is_disabled":false,"rental_uris":{"android":"levelo://app?vid=18497f24-2e2c-47ad-a0e9-9c3c47a82942","ios":"levelo://app?vid=18497f24-2e2c-47ad-a0e9-9c3c47a82942"},"vehicle_type_id":"4","last_reported":1745455971,"current_range_meters":20400,"station_id":"ce4bha12rcd13ifvqef0","pricing_plan_id":"cebpf4jnsgd1na2vs0mg"},{"bike_id":"1c4beace-94f7-4427-b96b-a2041fdab0c0","system_id":"levelo_inurba_marseille","lat":43.28709,"lon":5.39974,"is_reserved":false,"is_disabled":false,"rental_uris":{"android":"levelo://app?vid=1c4beace-94f7-4427-b96b-a2041fdab0c0","ios":"levelo://app?vid=1c4beace-94f7-4427-b96b-a2041fdab0c0"},"vehicle_type_id":"4","last_reported":1745455971,"current_range_meters":20800,"station_id":"ce4bho92rcd13ifvqh3g","pricing_plan_id":"cebpf4jnsgd1na2vs0mg"},{"bike_id":"a823ec9d-7d2e-4894-8bcc-79b308d25452","system_id":"levelo_inurba_marseille","lat":43.33714,"lon":5.39174,"is_reserved":false,"is_disabled":false,"rental_uris":{"android":"levelo://app?vid=a823ec9d-7d2e-4894-8bcc-79b308d25452","ios":"levelo://app?vid=a823ec9d-7d2e-4894-8bcc-79b308d25452"},"vehicle_type_id":"4","last_reported":1745455971,"current_range_meters":20800,"station_id":"ce4bhr92rcd13ifvqhsg","pricing_plan_id":"cebpf4jnsgd1na2vs0mg"},{"bike_id":"dc44daf3-15ba-4ec8-a038-6b6b7f6a4d2b","system_id":"levelo_inurba_marseille","lat":43.27493,"lon":5.42485,"is_reserved":false,"is_disabled":false,"rental_uris":{"android":"levelo://app?vid=dc44daf3-15ba-4ec8-a038-6b6b7f6a4d2b","ios":"levelo://app?vid=dc44daf3-15ba-4ec8-a038-6b6b7f6a4d2b"},"vehicle_type_id":"4","last_reported":1745455971,"current_range_meters":20800,"station_id":"ce4bhn92rcd13ifvqgrg","pricing_plan_id":"cebpf4jnsgd1na2vs0mg"},{"bike_id":"2ddb7626-06dc-4abf-976e-19ce121be91c","system_id":"levelo_inurba_marseille","lat":43.31715,"lon":5.37777,"is_reserved":false,"is_disabled":false,"rental_uris":{"android":"levelo://app?vid=2ddb7626-06dc-4abf-976e-19ce121be91c","ios":"levelo://app?vid=2ddb7626-06dc-4abf-976e-19ce121be91c"},"vehicle_type_id":"4","last_reported":1745455971,"current_range_meters":20800,"station_id":"ce4bgth2rcd13ifvqch0","pricing_plan_id":"cebpf4jnsgd1na2vs0mg"},{"bike_id":"b7e51116-544c-4b2b-8b83-00d19e97e2b5","system_id":"levelo_inurba_marseille","lat":43.2867,"lon":5.36337,"is_reserved":false,"is_disabled":false,"rental_uris":{"android":"levelo://app?vid=b7e51116-544c-4b2b-8b83-00d19e97e2b5","ios":"levelo://app?vid=b7e51116-544c-4b2b-8b83-00d19e97e2b5"},"vehicle_type_id":"4","last_reported":1745455971,"current_range_meters":20800,"station_id":"ce4bhah2rcd13ifvqej0","pricing_plan_id":"cebpf4jnsgd1na2vs0mg"},{"bike_id":"afb47f80-30d4-4ee2-a29e-7947a831a09d","system_id":"levelo_inurba_marseille","lat":43.31169,"lon":5.38696,"is_reserved":false,"is_disabled":false,"rental_uris":{"android":"levelo://app?vid=afb47f80-30d4-4ee2-a29e-7947a831a09d","ios":"levelo://app?vid=afb47f80-30d4-4ee2-a29e-7947a831a09d"},"vehicle_type_id":"4","last_reported":1745455971,"current_range_meters":21600,"station_id":"ce4bgv12rcd13ifvqcp0","pricing_plan_id":"cebpf4jnsgd1na2vs0mg"},{"bike_id":"59d7b2f9-eef7-446f-93d2-cbed6ac37ae4","system_id":"levelo_inurba_marseille","lat":43.287201,"lon":5.360811,"is_reserved":false,"is_disabled":false,"rental_uris":{"android":"levelo://app?vid=59d7b2f9-eef7-446f-93d2-cbed6ac37ae4","ios":"levelo://app?vid=59d7b2f9-eef7-446f-93d2-cbed6ac37ae4"},"vehicle_type_id":"4","last_reported":1745455971,"current_range_meters":21600,"station_id":"cki0cbj6b192h4jlfktg","pricing_plan_id":"cebpf4jnsgd1na2vs0mg"},{"bike_id":"016d1c33-236f-4281-bd30-10c7bc88d5ce","system_id":"levelo_inurba_marseille","lat":43.24075,"lon":5.37758,"is_reserved":false,"is_disabled":false,"rental_uris":{"android":"levelo://app?vid=016d1c33-236f-4281-bd30-10c7bc88d5ce","ios":"levelo://app?vid=016d1c33-236f-4281-bd30-10c7bc88d5ce"},"vehicle_type_id":"4","last_reported":1745455971,"current_range_meters":21600,"station_id":"ce4bhnp2rcd13ifvqgvg","pricing_plan_id":"cebpf4jnsgd1na2vs0mg"},{"bike_id":"28523f24-26a0-45f9-8b34-f1fdb346c3d5","system_id":"levelo_inurba_marseille","lat":43.31114,"lon":5.37766,"is_reserved":false,"is_disabled":false,"rental_uris":{"android":"levelo://app?vid=28523f24-26a0-45f9-8b34-f1fdb346c3d5","ios":"levelo://app?vid=28523f24-26a0-45f9-8b34-f1fdb346c3d5"},"vehicle_type_id":"4","last_reported":1745455971,"current_range_meters":21600,"station_id":"ce4bgt92rcd13ifvqcg0","pricing_plan_id":"cebpf4jnsgd1na2vs0mg"},{"bike_id":"0bfff189-ec6a-4439-b345-e9dd168ab867","system_id":"levelo_inurba_marseille","lat":43.337275,"lon":5.391785,"is_reserved":false,"is_disabled":false,"rental_uris":{"android":"levelo://app?vid=0bfff189-ec6a-4439-b345-e9dd168ab867","ios":"levelo://app?vid=0bfff189-ec6a-4439-b345-e9dd168ab867"},"vehicle_type_id":"4","last_reported":1745455971,"current_range_meters":21600,"station_id":"ce4bhr92rcd13ifvqhsg","pricing_plan_id":"cebpf4jnsgd1na2vs0mg"},{"bike_id":"151574eb-8589-4a05-a78a-7ee9d99a1265","system_id":"levelo_inurba_marseille","lat":43.31355,"lon":5.38488,"is_reserved":false,"is_disabled":false,"rental_uris":{"android":"levelo://app?vid=151574eb-8589-4a05-a78a-7ee9d99a1265","ios":"levelo://app?vid=151574eb-8589-4a05-a78a-7ee9d99a1265"},"vehicle_type_id":"4","last_reported":1745455971,"current_range_meters":22000,"station_id":"ce4bgt92rcd13ifvqcf0","pricing_plan_id":"cebpf4jnsgd1na2vs0mg"},{"bike_id":"4d322af7-44ba-44ca-a5a4-8cf73450d35e","system_id":"levelo_inurba_marseille","lat":43.31758,"lon":5.39015,"is_reserved":false,"is_disabled":false,"rental_uris":{"android":"levelo://app?vid=4d322af7-44ba-44ca-a5a4-8cf73450d35e","ios":"levelo://app?vid=4d322af7-44ba-44ca-a5a4-8cf73450d35e"},"vehicle_type_id":"4","last_reported":1745455971,"current_range_meters":22000,"station_id":"ce4bhqp2rcd13ifvqhng","pricing_plan_id":"cebpf4jnsgd1na2vs0mg"},{"bike_id":"fd14a39e-21e9-4f3d-afc3-293579399255","system_id":"levelo_inurba_marseille","lat":43.27198,"lon":5.39191,"is_reserved":false,"is_disabled":true,"rental_uris":{"android":"levelo://app?vid=fd14a39e-21e9-4f3d-afc3-293579399255","ios":"levelo://app?vid=fd14a39e-21e9-4f3d-afc3-293579399255"},"vehicle_type_id":"4","last_reported":1745455971,"current_range_meters":22000,"station_id":"ce4bhhp2rcd13ifvqfm0","pricing_plan_id":"cebpf4jnsgd1na2vs0mg"},{"bike_id":"e7093a55-c5e1-4525-90b8-4f083a9c5863","system_id":"levelo_inurba_marseille","lat":43.28702,"lon":5.37953,"is_reserved":false,"is_disabled":true,"rental_uris":{"android":"levelo://app?vid=e7093a55-c5e1-4525-90b8-4f083a9c5863","ios":"levelo://app?vid=e7093a55-c5e1-4525-90b8-4f083a9c5863"},"vehicle_type_id":"4","last_reported":1745455971,"current_range_meters":22000,"station_id":"ce4bh9p2rcd13ifvqec0","pricing_plan_id":"cebpf4jnsgd1na2vs0mg"},{"bike_id":"ff16a10f-da96-4b70-9252-081a26a08cec","system_id":"levelo_inurba_marseille","lat":43.2988,"lon":5.39737,"is_reserved":false,"is_disabled":false,"rental_uris":{"android":"levelo://app?vid=ff16a10f-da96-4b70-9252-081a26a08cec","ios":"levelo://app?vid=ff16a10f-da96-4b70-9252-081a26a08cec"},"vehicle_type_id":"4","last_reported":1745455971,"current_range_meters":22000,"station_id":"ce4bh0h2rcd13ifvqd50","pricing_plan_id":"cebpf4jnsgd1na2vs0mg"},{"bike_id":"74c29d04-5ede-4cb2-99de-40d66ea3223f","system_id":"levelo_inurba_marseille","lat":43.313236,"lon":5.396985,"is_reserved":false,"is_disabled":false,"rental_uris":{"android":"levelo://app?vid=74c29d04-5ede-4cb2-99de-40d66ea3223f","ios":"levelo://app?vid=74c29d04-5ede-4cb2-99de-40d66ea3223f"},"vehicle_type_id":"4","last_reported":1745455971,"current_range_meters":22000,"station_id":"ce4bgvp2rcd13ifvqcu0","pricing_plan_id":"cebpf4jnsgd1na2vs0mg"},{"bike_id":"a8f81d52-5e6c-4c5e-b13b-df55b6989d86","system_id":"levelo_inurba_marseille","lat":43.29427,"lon":5.38083,"is_reserved":false,"is_disabled":true,"rental_uris":{"android":"levelo://app?vid=a8f81d52-5e6c-4c5e-b13b-df55b6989d86","ios":"levelo://app?vid=a8f81d52-5e6c-4c5e-b13b-df55b6989d86"},"vehicle_type_id":"4","last_reported":1745455971,"current_range_meters":22400,"station_id":"","pricing_plan_id":"cebpf4jnsgd1na2vs0mg"},{"bike_id":"91cfd69c-81a8-4198-9933-925b7f349505","system_id":"levelo_inurba_marseille","lat":43.29,"lon":5.35735,"is_reserved":false,"is_disabled":false,"rental_uris":{"android":"levelo://app?vid=91cfd69c-81a8-4198-9933-925b7f349505","ios":"levelo://app?vid=91cfd69c-81a8-4198-9933-925b7f349505"},"vehicle_type_id":"4","last_reported":1745455971,"current_range_meters":22400,"station_id":"","pricing_plan_id":"cebpf4jnsgd1na2vs0mg"},{"bike_id":"0353cfa8-d8fd-4689-b182-812735861369","system_id":"levelo_inurba_marseille","lat":43.31528,"lon":5.38023,"is_reserved":false,"is_disabled":false,"rental_uris":{"android":"levelo://app?vid=0353cfa8-d8fd-4689-b182-812735861369","ios":"levelo://app?vid=0353cfa8-d8fd-4689-b182-812735861369"},"vehicle_type_id":"4","last_reported":1745455971,"current_range_meters":22400,"station_id":"ce4bhsp2rcd13ifvqi50","pricing_plan_id":"cebpf4jnsgd1na2vs0mg"},{"bike_id":"e38d750a-9751-4fde-b0fa-7bdc14d4ae1c","system_id":"levelo_inurba_marseille","lat":43.29254,"lon":5.40905,"is_reserved":false,"is_disabled":false,"rental_uris":{"android":"levelo://app?vid=e38d750a-9751-4fde-b0fa-7bdc14d4ae1c","ios":"levelo://app?vid=e38d750a-9751-4fde-b0fa-7bdc14d4ae1c"},"vehicle_type_id":"4","last_reported":1745455971,"current_range_meters":22400,"station_id":"ce4bh192rcd13ifvqdc0","pricing_plan_id":"cebpf4jnsgd1na2vs0mg"},{"bike_id":"78fdb1f2-201c-401d-9b37-2e0ecd708fff","system_id":"levelo_inurba_marseille","lat":43.299361,"lon":5.39468,"is_reserved":false,"is_disabled":false,"rental_uris":{"android":"levelo://app?vid=78fdb1f2-201c-401d-9b37-2e0ecd708fff","ios":"levelo://app?vid=78fdb1f2-201c-401d-9b37-2e0ecd708fff"},"vehicle_type_id":"4","last_reported":1745455971,"current_range_meters":22400,"station_id":"","pricing_plan_id":"cebpf4jnsgd1na2vs0mg"},{"bike_id":"26809cdf-3245-4961-ab86-c959b8271db8","system_id":"levelo_inurba_marseille","lat":43.28278,"lon":5.35076,"is_reserved":false,"is_disabled":false,"rental_uris":{"android":"levelo://app?vid=26809cdf-3245-4961-ab86-c959b8271db8","ios":"levelo://app?vid=26809cdf-3245-4961-ab86-c959b8271db8"},"vehicle_type_id":"4","last_reported":1745455971,"current_range_meters":22800,"station_id":"","pricing_plan_id":"cebpf4jnsgd1na2vs0mg"},{"bike_id":"a697414b-0612-4f3e-8926-96de714115f6","system_id":"levelo_inurba_marseille","lat":43.29231,"lon":5.36841,"is_reserved":false,"is_disabled":false,"rental_uris":{"android":"levelo://app?vid=a697414b-0612-4f3e-8926-96de714115f6","ios":"levelo://app?vid=a697414b-0612-4f3e-8926-96de714115f6"},"vehicle_type_id":"4","last_reported":1745455971,"current_range_meters":22800,"station_id":"ce4bhbp2rcd13ifvqesg","pricing_plan_id":"cebpf4jnsgd1na2vs0mg"},{"bike_id":"5f669bf7-7759-4af1-9771-fb2f61cb56a8","system_id":"levelo_inurba_marseille","lat":43.28705,"lon":5.37401,"is_reserved":false,"is_disabled":false,"rental_uris":{"android":"levelo://app?vid=5f669bf7-7759-4af1-9771-fb2f61cb56a8","ios":"levelo://app?vid=5f669bf7-7759-4af1-9771-fb2f61cb56a8"},"vehicle_type_id":"4","last_reported":1745455971,"current_range_meters":22800,"station_id":"ce4bh3p2rcd13ifvqdq0","pricing_plan_id":"cebpf4jnsgd1na2vs0mg"},{"bike_id":"900032bf-b5df-495b-b826-170effbd2d99","system_id":"levelo_inurba_marseille","lat":43.30721,"lon":5.42436,"is_reserved":false,"is_disabled":false,"rental_uris":{"android":"levelo://app?vid=900032bf-b5df-495b-b826-170effbd2d99","ios":"levelo://app?vid=900032bf-b5df-495b-b826-170effbd2d99"},"vehicle_type_id":"4","last_reported":1745455971,"current_range_meters":22800,"station_id":"st_cvj6ca6bvosntc0bfgr0","pricing_plan_id":"cebpf4jnsgd1na2vs0mg"},{"bike_id":"9a1c0be7-bd1a-4081-ab84-3ef05258b407","system_id":"levelo_inurba_marseille","lat":43.23188,"lon":5.35562,"is_reserved":false,"is_disabled":false,"rental_uris":{"android":"levelo://app?vid=9a1c0be7-bd1a-4081-ab84-3ef05258b407","ios":"levelo://app?vid=9a1c0be7-bd1a-4081-ab84-3ef05258b407"},"vehicle_type_id":"4","last_reported":1745455971,"current_range_meters":22800,"station_id":"ce4bhu92rcd13ifvqi70","pricing_plan_id":"cebpf4jnsgd1na2vs0mg"},{"bike_id":"0511eaef-e620-4443-8c39-8b9425063ec4","system_id":"levelo_inurba_marseille","lat":43.29092,"lon":5.38157,"is_reserved":false,"is_disabled":true,"rental_uris":{"android":"levelo://app?vid=0511eaef-e620-4443-8c39-8b9425063ec4","ios":"levelo://app?vid=0511eaef-e620-4443-8c39-8b9425063ec4"},"vehicle_type_id":"4","last_reported":1745455971,"current_range_meters":22800,"station_id":"ce4bh512rcd13ifvqe2g","pricing_plan_id":"cebpf4jnsgd1na2vs0mg"},{"bike_id":"768baad3-7a55-4e3d-bc60-96f799eee7b3","system_id":"levelo_inurba_marseille","lat":43.27953,"lon":5.4103,"is_reserved":false,"is_disabled":false,"rental_uris":{"android":"levelo://app?vid=768baad3-7a55-4e3d-bc60-96f799eee7b3","ios":"levelo://app?vid=768baad3-7a55-4e3d-bc60-96f799eee7b3"},"vehicle_type_id":"4","last_reported":1745455971,"current_range_meters":22800,"station_id":"ce4bhnp2rcd13ifvqh0g","pricing_plan_id":"cebpf4jnsgd1na2vs0mg"},{"bike_id":"cfa3005a-e229-4b19-ba9e-16ba83623768","system_id":"levelo_inurba_marseille","lat":43.28029,"lon":5.36944,"is_reserved":false,"is_disabled":false,"rental_uris":{"android":"levelo://app?vid=cfa3005a-e229-4b19-ba9e-16ba83623768","ios":"levelo://app?vid=cfa3005a-e229-4b19-ba9e-16ba83623768"},"vehicle_type_id":"4","last_reported":1745455971,"current_range_meters":22800,"station_id":"ce4bha12rcd13ifvqef0","pricing_plan_id":"cebpf4jnsgd1na2vs0mg"},{"bike_id":"06a6ec8d-f1b4-4120-8203-729d3c0a21f3","system_id":"levelo_inurba_marseille","lat":43.24046,"lon":5.37744,"is_reserved":false,"is_disabled":false,"rental_uris":{"android":"levelo://app?vid=06a6ec8d-f1b4-4120-8203-729d3c0a21f3","ios":"levelo://app?vid=06a6ec8d-f1b4-4120-8203-729d3c0a21f3"},"vehicle_type_id":"4","last_reported":1745455971,"current_range_meters":23200,"station_id":"ce4bhnp2rcd13ifvqgvg","pricing_plan_id":"cebpf4jnsgd1na2vs0mg"},{"bike_id":"b9a0b8e1-f49f-4b78-864f-be5e25d4a18c","system_id":"levelo_inurba_marseille","lat":43.330723,"lon":5.408137,"is_reserved":false,"is_disabled":false,"rental_uris":{"android":"levelo://app?vid=b9a0b8e1-f49f-4b78-864f-be5e25d4a18c","ios":"levelo://app?vid=b9a0b8e1-f49f-4b78-864f-be5e25d4a18c"},"vehicle_type_id":"4","last_reported":1745455971,"current_range_meters":23200,"station_id":"","pricing_plan_id":"cebpf4jnsgd1na2vs0mg"},{"bike_id":"de176d11-fc50-43f3-85f2-db96c4b6be15","system_id":"levelo_inurba_marseille","lat":43.21192,"lon":5.35088,"is_reserved":false,"is_disabled":false,"rental_uris":{"android":"levelo://app?vid=de176d11-fc50-43f3-85f2-db96c4b6be15","ios":"levelo://app?vid=de176d11-fc50-43f3-85f2-db96c4b6be15"},"vehicle_type_id":"4","last_reported":1745455971,"current_range_meters":23200,"station_id":"st_cvj6sg6p6f1abm77japg","pricing_plan_id":"cebpf4jnsgd1na2vs0mg"},{"bike_id":"356be3c1-6b57-4778-9e55-546ba6e0b379","system_id":"levelo_inurba_marseille","lat":43.31067,"lon":5.38355,"is_reserved":false,"is_disabled":false,"rental_uris":{"android":"levelo://app?vid=356be3c1-6b57-4778-9e55-546ba6e0b379","ios":"levelo://app?vid=356be3c1-6b57-4778-9e55-546ba6e0b379"},"vehicle_type_id":"4","last_reported":1745455971,"current_range_meters":23200,"station_id":"ce4bgv92rcd13ifvqcr0","pricing_plan_id":"cebpf4jnsgd1na2vs0mg"},{"bike_id":"0e8a9765-9123-400a-9dde-c10a67829f39","system_id":"levelo_inurba_marseille","lat":43.2903,"lon":5.38645,"is_reserved":false,"is_disabled":true,"rental_uris":{"android":"levelo://app?vid=0e8a9765-9123-400a-9dde-c10a67829f39","ios":"levelo://app?vid=0e8a9765-9123-400a-9dde-c10a67829f39"},"vehicle_type_id":"4","last_reported":1745455971,"current_range_meters":23200,"station_id":"ce4bh4p2rcd13ifvqe0g","pricing_plan_id":"cebpf4jnsgd1na2vs0mg"},{"bike_id":"6a50dadf-61fa-4e55-90df-3d649022b8e1","system_id":"levelo_inurba_marseille","lat":43.24163,"lon":5.39727,"is_reserved":false,"is_disabled":false,"rental_uris":{"android":"levelo://app?vid=6a50dadf-61fa-4e55-90df-3d649022b8e1","ios":"levelo://app?vid=6a50dadf-61fa-4e55-90df-3d649022b8e1"},"vehicle_type_id":"4","last_reported":1745455971,"current_range_meters":24000,"station_id":"ce4bhn12rcd13ifvqgpg","pricing_plan_id":"cebpf4jnsgd1na2vs0mg"},{"bike_id":"829e6027-c98c-4052-9336-7fe801b0bc22","system_id":"levelo_inurba_marseille","lat":43.23155,"lon":5.43686,"is_reserved":false,"is_disabled":true,"rental_uris":{"android":"levelo://app?vid=829e6027-c98c-4052-9336-7fe801b0bc22","ios":"levelo://app?vid=829e6027-c98c-4052-9336-7fe801b0bc22"},"vehicle_type_id":"4","last_reported":1745455971,"current_range_meters":24000,"station_id":"ce4bhmp2rcd13ifvqgog","pricing_plan_id":"cebpf4jnsgd1na2vs0mg"},{"bike_id":"24cc67cc-7c2f-416f-a41f-d6e69cf810ec","system_id":"levelo_inurba_marseille","lat":43.29641,"lon":5.40584,"is_reserved":false,"is_disabled":true,"rental_uris":{"android":"levelo://app?vid=24cc67cc-7c2f-416f-a41f-d6e69cf810ec","ios":"levelo://app?vid=24cc67cc-7c2f-416f-a41f-d6e69cf810ec"},"vehicle_type_id":"4","last_reported":1745455971,"current_range_meters":24000,"station_id":"ce4bh0h2rcd13ifvqd60","pricing_plan_id":"cebpf4jnsgd1na2vs0mg"},{"bike_id":"c1b304ff-56de-48e1-b027-d417ac8be7e3","system_id":"levelo_inurba_marseille","lat":43.2856,"lon":5.39486,"is_reserved":false,"is_disabled":false,"rental_uris":{"android":"levelo://app?vid=c1b304ff-56de-48e1-b027-d417ac8be7e3","ios":"levelo://app?vid=c1b304ff-56de-48e1-b027-d417ac8be7e3"},"vehicle_type_id":"4","last_reported":1745455971,"current_range_meters":24000,"station_id":"ce4bh292rcd13ifvqdg0","pricing_plan_id":"cebpf4jnsgd1na2vs0mg"},{"bike_id":"73440a16-6c9f-449d-a186-2b6ff81fe2a3","system_id":"levelo_inurba_marseille","lat":43.28722,"lon":5.36078,"is_reserved":false,"is_disabled":false,"rental_uris":{"android":"levelo://app?vid=73440a16-6c9f-449d-a186-2b6ff81fe2a3","ios":"levelo://app?vid=73440a16-6c9f-449d-a186-2b6ff81fe2a3"},"vehicle_type_id":"4","last_reported":1745455971,"current_range_meters":24000,"station_id":"cki0cbj6b192h4jlfktg","pricing_plan_id":"cebpf4jnsgd1na2vs0mg"},{"bike_id":"f5a8b649-464c-4728-acfc-59e70b6abaf2","system_id":"levelo_inurba_marseille","lat":43.30927,"lon":5.4015,"is_reserved":false,"is_disabled":false,"rental_uris":{"android":"levelo://app?vid=f5a8b649-464c-4728-acfc-59e70b6abaf2","ios":"levelo://app?vid=f5a8b649-464c-4728-acfc-59e70b6abaf2"},