{"last_updated":1747436995,"ttl":60,"version":"2.2","data":{"bikes":[{"bike_id":"c0b9fd4f-e181-46ce-b0bf-f5119973334f","system_id":"levelo_inurba_marseille","lat":43.33771,"lon":5.37424,"is_reserved":false,"is_disabled":false,"rental_uris":{"android":"levelo://app?vid=c0b9fd4f-e181-46ce-b0bf-f5119973334f","ios":"levelo://app?vid=c0b9fd4f-e181-46ce-b0bf-f5119973334f"},"vehicle_type_id":"4","last_reported":1747436995,"current_range_meters":8400,"station_id":"","pricing_plan_id":"cebpf4jnsgd1na2vs0mg"},{"bike_id":"fc2577e7-1497-425b-9d4f-ab8d7dc843c6","system_id":"levelo_inurba_marseille","lat":43.33771,"lon":5.37485,"is_reserved":false,"is_disabled":true,"rental_uris":{"android":"levelo://app?vid=fc2577e7-1497-425b-9d4f-ab8d7dc843c6","ios":"levelo://app?vid=fc2577e7-1497-425b-9d4f-ab8d7dc843c6"},"vehicle_type_id":"4","last_reported":1747436995,"current_range_meters":0,"station_id":"","pricing_plan_id":"cebpf4jnsgd1na2vs0mg"},{"bike_id":"0322f8c0-478a-4036-9bba-8fce70858e9a","system_id":"levelo_inurba_marseille","lat":43.2822,"lon":5.34895,"is_reserved":false,"is_disabled":true,"rental_uris":{"android":"levelo://app?vid=0322f8c0-478a-4036-9bba-8fce70858e9a","ios":"levelo://app?vid=0322f8c0-478a-4036-9bba-8fce70858e9a"},"vehicle_type_id":"4","last_reported":1747436995,"current_range_meters":0,"station_id":"","pricing_plan_id":"cebpf4jnsgd1na2vs0mg"},{"bike_id":"ce4325af-2448-4172-bdec-81d552ee0b62","system_id":"levelo_inurba_marseille","lat":43.26204,"lon":5.42249,"is_reserved":false,"is_disabled":true,"rental_uris":{"android":"levelo://app?vid=ce4325af-2448-4172-bdec-81d552ee0b62","ios":"levelo://app?vid=ce4325af-2448-4172-bdec-81d552ee0b62"},"vehicle_type_id":"4","last_reported":1747436995,"current_range_meters":0,"station_id":"","pricing_plan_id":"cebpf4jnsgd1na2vs0mg"},{"bike_id":"2b8fbf5f-4106-421b-bd48-29543ccb14db","system_id":"levelo_inurba_marseille","lat":43.237024,"lon":5.362985,"is_reserved":false,"is_disabled":true,"rental_uris":{"android":"levelo://app?vid=2b8fbf5f-4106-421b-bd48-29543ccb14db","ios":"levelo://app?vid=2b8fbf5f-4106-421b-bd48-29543ccb14db"},"vehicle_type_id":"4","last_reported":1747436995,"current_range_meters":0,"station_id":"","pricing_plan_id":"cebpf4jnsgd1na2vs0mg"},{"bike_id":"5de4311e-acc0-4747-9be3-06bcfa4d137e","system_id":"levelo_inurba_marseille","lat":43.31983,"lon":5.38725,"is_reserved":false,"is_disabled":true,"rental_uris":{"android":"levelo://app?vid=5de4311e-acc0-4747-9be3-06bcfa4d137e","ios":"levelo://app?vid=5de4311e-acc0-4747-9be3-06bcfa4d137e"},"vehicle_type_id":"4","last_reported":1747436995,"current_range_meters":0,"station_id":"","pricing_plan_id":"cebpf4jnsgd1na2vs0mg"},{"bike_id":"792567c6-0442-4011-aff0-9c05e25deb48","system_id":"levelo_inurba_marseille","lat":43.337444,"lon":5.374475,"is_reserved":false,"is_disabled":true,"rental_uris":{"android":"levelo://app?vid=792567c6-0442-4011-aff0-9c05e25deb48","ios":"levelo://app?vid=792567c6-0442-4011-aff0-9c05e25deb48"},"vehicle_type_id":"4","last_reported":1747436995,"current_range_meters":0,"station_id":"","pricing_plan_id":"cebpf4jnsgd1na2vs0mg"},{"bike_id":"fc4c81c1-d472-4cad-a313-517d54fe18f4","system_id":"levelo_inurba_marseille","lat":43.293455,"lon":5.371183,"is_reserved":false,"is_disabled":true,"rental_uris":{"android":"levelo://app?vid=fc4c81c1-d472-4cad-a313-517d54fe18f4","ios":"levelo://app?vid=fc4c81c1-d472-4cad-a313-517d54fe18f4"},"vehicle_type_id":"4","last_reported":1747436995,"current_range_meters":0,"station_id":"","pricing_plan_id":"cebpf4jnsgd1na2vs0mg"},{"bike_id":"0b36a789-c27d-4c68-804a-0bdd278c9aae","system_id":"levelo_inurba_marseille","lat":43.29881,"lon":5.38901,"is_reserved":false,"is_disabled":true,"rental_uris":{"android":"levelo://app?vid=0b36a789-c27d-4c68-804a-0bdd278c9aae","ios":"levelo://app?vid=0b36a789-c27d-4c68-804a-0bdd278c9aae"},"vehicle_type_id":"4","last_reported":1747436995,"current_range_meters":0,"station_id":"ce4bh392rcd13ifvqdl0","pricing_plan_id":"cebpf4jnsgd1na2vs0mg"},{"bike_id":"f5de18f7-f4f4-4034-98c7-e1d4e8c6396f","system_id":"levelo_inurba_marseille","lat":43.27207,"lon":5.39182,"is_reserved":false,"is_disabled":true,"rental_uris":{"android":"levelo://app?vid=f5de18f7-f4f4-4034-98c7-e1d4e8c6396f","ios":"levelo://app?vid=f5de18f7-f4f4-4034-98c7-e1d4e8c6396f"},"vehicle_type_id":"4","last_reported":1747436995,"current_range_meters":0,"station_id":"ce4bhhp2rcd13ifvqfm0","pricing_plan_id":"cebpf4jnsgd1na2vs0mg"},{"bike_id":"6be6d6ae-fe03-4cc4-841e-6f8234aa3e90","system_id":"levelo_inurba_marseille","lat":43.2784,"lon":5.39198,"is_reserved":false,"is_disabled":true,"rental_uris":{"android":"levelo://app?vid=6be6d6ae-fe03-4cc4-841e-6f8234aa3e90","ios":"levelo://app?vid=6be6d6ae-fe03-4cc4-841e-6f8234aa3e90"},"vehicle_type_id":"4","last_reported":1747436995,"current_range_meters":0,"station_id":"ce4bhjp2rcd13ifvqga0","pricing_plan_id":"cebpf4jnsgd1na2vs0mg"},{"bike_id":"fb77d77e-bf43-459d-b35b-df2b6d9a472c","system_id":"levelo_inurba_marseille","lat":43.28694,"lon":5.39978,"is_reserved":false,"is_disabled":true,"rental_uris":{"android":"levelo://app?vid=fb77d77e-bf43-459d-b35b-df2b6d9a472c","ios":"levelo://app?vid=fb77d77e-bf43-459d-b35b-df2b6d9a472c"},"vehicle_type_id":"4","last_reported":1747436995,"current_range_meters":0,"station_id":"ce4bho92rcd13ifvqh3g","pricing_plan_id":"cebpf4jnsgd1na2vs0mg"},{"bike_id":"c33000dc-eade-4881-af6f-7b82a1af4de2","system_id":"levelo_inurba_marseille","lat":43.30377,"lon":5.42481,"is_reserved":false,"is_disabled":true,"rental_uris":{"android":"levelo://app?vid=c33000dc-eade-4881-af6f-7b82a1af4de2","ios":"levelo://app?vid=c33000dc-eade-4881-af6f-7b82a1af4de2"},"vehicle_type_id":"4","last_reported":1747436995,"current_range_meters":0,"station_id":"ce4bhoh2rcd13ifvqh6g","pricing_plan_id":"cebpf4jnsgd1na2vs0mg"},{"bike_id":"c651a58a-693c-4942-980b-6d1c6ed6a73e","system_id":"levelo_inurba_marseille","lat":43.23171,"lon":5.35589,"is_reserved":false,"is_disabled":true,"rental_uris":{"android":"levelo://app?vid=c651a58a-693c-4942-980b-6d1c6ed6a73e","ios":"levelo://app?vid=c651a58a-693c-4942-980b-6d1c6ed6a73e"},"vehicle_type_id":"4","last_reported":1747436995,"current_range_meters":0,"station_id":"ce4bhu92rcd13ifvqi70","pricing_plan_id":"cebpf4jnsgd1na2vs0mg"},{"bike_id":"8bc59f09-925c-43ab-a1e2-397aabbe4e01","system_id":"levelo_inurba_marseille","lat":43.28289,"lon":5.40486,"is_reserved":false,"is_disabled":true,"rental_uris":{"android":"levelo://app?vid=8bc59f09-925c-43ab-a1e2-397aabbe4e01","ios":"levelo://app?vid=8bc59f09-925c-43ab-a1e2-397aabbe4e01"},"vehicle_type_id":"4","last_reported":1747436995,"current_range_meters":400,"station_id":"","pricing_plan_id":"cebpf4jnsgd1na2vs0mg"},{"bike_id":"ed494c3b-82bd-4e5e-8492-ea4c0e0044b9","system_id":"levelo_inurba_marseille","lat":43.30103,"lon":5.39073,"is_reserved":false,"is_disabled":true,"rental_uris":{"android":"levelo://app?vid=ed494c3b-82bd-4e5e-8492-ea4c0e0044b9","ios":"levelo://app?vid=ed494c3b-82bd-4e5e-8492-ea4c0e0044b9"},"vehicle_type_id":"4","last_reported":1747436995,"current_range_meters":400,"station_id":"ce4bh192rcd13ifvqdb0","pricing_plan_id":"cebpf4jnsgd1na2vs0mg"},{"bike_id":"ebf28731-5698-45a1-a156-29a15938f4df","system_id":"levelo_inurba_marseille","lat":43.28668,"lon":5.36331,"is_reserved":false,"is_disabled":true,"rental_uris":{"android":"levelo://app?vid=ebf28731-5698-45a1-a156-29a15938f4df","ios":"levelo://app?vid=ebf28731-5698-45a1-a156-29a15938f4df"},"vehicle_type_id":"4","last_reported":1747436995,"current_range_meters":400,"station_id":"ce4bhah2rcd13ifvqej0","pricing_plan_id":"cebpf4jnsgd1na2vs0mg"},{"bike_id":"d1234234-a669-442a-8d6e-6abc48f89739","system_id":"levelo_inurba_marseille","lat":43.2991,"lon":5.37485,"is_reserved":false,"is_disabled":true,"rental_uris":{"android":"levelo://app?vid=d1234234-a669-442a-8d6e-6abc48f89739","ios":"levelo://app?vid=d1234234-a669-442a-8d6e-6abc48f89739"},"vehicle_type_id":"4","last_reported":1747436995,"current_range_meters":800,"station_id":"ce4bgjh2rcd13ifvqbg0","pricing_plan_id":"cebpf4jnsgd1na2vs0mg"},{"bike_id":"36511589-6b2c-48c7-989e-53d7b47cf982","system_id":"levelo_inurba_marseille","lat":43.28576,"lon":5.39495,"is_reserved":false,"is_disabled":true,"rental_uris":{"android":"levelo://app?vid=36511589-6b2c-48c7-989e-53d7b47cf982","ios":"levelo://app?vid=36511589-6b2c-48c7-989e-53d7b47cf982"},"vehicle_type_id":"4","last_reported":1747436995,"current_range_meters":800,"station_id":"ce4bh292rcd13ifvqdg0","pricing_plan_id":"cebpf4jnsgd1na2vs0mg"},{"bike_id":"655df705-a196-4c6b-95eb-635ebd4c2e0c","system_id":"levelo_inurba_marseille","lat":43.29002,"lon":5.35617,"is_reserved":false,"is_disabled":true,"rental_uris":{"android":"levelo://app?vid=655df705-a196-4c6b-95eb-635ebd4c2e0c","ios":"levelo://app?vid=655df705-a196-4c6b-95eb-635ebd4c2e0c"},"vehicle_type_id":"4","last_reported":1747436995,"current_range_meters":800,"station_id":"ce4bhb92rcd13ifvqen0","pricing_plan_id":"cebpf4jnsgd1na2vs0mg"},{"bike_id":"610a7ca5-7649-44e5-913e-926d4d7778bb","system_id":"levelo_inurba_marseille","lat":43.28471,"lon":5.39854,"is_reserved":false,"is_disabled":true,"rental_uris":{"android":"levelo://app?vid=610a7ca5-7649-44e5-913e-926d4d7778bb","ios":"levelo://app?vid=610a7ca5-7649-44e5-913e-926d4d7778bb"},"vehicle_type_id":"4","last_reported":1747436995,"current_range_meters":1200,"station_id":"","pricing_plan_id":"cebpf4jnsgd1na2vs0mg"},{"bike_id":"45ba2fe5-bb59-4b8d-a9e2-11d23c46fb21","system_id":"levelo_inurba_marseille","lat":43.30462,"lon":5.37905,"is_reserved":false,"is_disabled":true,"rental_uris":{"android":"levelo://app?vid=45ba2fe5-bb59-4b8d-a9e2-11d23c46fb21","ios":"levelo://app?vid=45ba2fe5-bb59-4b8d-a9e2-11d23c46fb21"},"vehicle_type_id":"4","last_reported":1747436995,"current_range_meters":1200,"station_id":"ce4bgup2rcd13ifvqcn0","pricing_plan_id":"cebpf4jnsgd1na2vs0mg"},{"bike_id":"ac6a61e4-2d7b-4657-bedc-2bb07a337831","system_id":"levelo_inurba_marseille","lat":43.30326,"lon":5.40428,"is_reserved":false,"is_disabled":true,"rental_uris":{"android":"levelo://app?vid=ac6a61e4-2d7b-4657-bedc-2bb07a337831","ios":"levelo://app?vid=ac6a61e4-2d7b-4657-bedc-2bb07a337831"},"vehicle_type_id":"4","last_reported":1747436995,"current_range_meters":1200,"station_id":"ce4bh012rcd13ifvqd10","pricing_plan_id":"cebpf4jnsgd1na2vs0mg"},{"bike_id":"c8107b40-4e78-47e4-a23d-10a935f8e353","system_id":"levelo_inurba_marseille","lat":43.26872,"lon":5.37041,"is_reserved":false,"is_disabled":true,"rental_uris":{"android":"levelo://app?vid=c8107b40-4e78-47e4-a23d-10a935f8e353","ios":"levelo://app?vid=c8107b40-4e78-47e4-a23d-10a935f8e353"},"vehicle_type_id":"4","last_reported":1747436995,"current_range_meters":1600,"station_id":"","pricing_plan_id":"cebpf4jnsgd1na2vs0mg"},{"bike_id":"a653d092-b831-4c97-84c6-8b670d798318","system_id":"levelo_inurba_marseille","lat":43.28217,"lon":5.39054,"is_reserved":false,"is_disabled":true,"rental_uris":{"android":"levelo://app?vid=a653d092-b831-4c97-84c6-8b670d798318","ios":"levelo://app?vid=a653d092-b831-4c97-84c6-8b670d798318"},"vehicle_type_id":"4","last_reported":1747436995,"current_range_meters":1600,"station_id":"","pricing_plan_id":"cebpf4jnsgd1na2vs0mg"},{"bike_id":"e3187970-ad7d-470b-b162-8a17656ea247","system_id":"levelo_inurba_marseille","lat":43.29277,"lon":5.40905,"is_reserved":false,"is_disabled":true,"rental_uris":{"android":"levelo://app?vid=e3187970-ad7d-470b-b162-8a17656ea247","ios":"levelo://app?vid=e3187970-ad7d-470b-b162-8a17656ea247"},"vehicle_type_id":"4","last_reported":1747436995,"current_range_meters":1600,"station_id":"ce4bh192rcd13ifvqdc0","pricing_plan_id":"cebpf4jnsgd1na2vs0mg"},{"bike_id":"a2fbdedf-3659-48f8-a356-a837b69a4dff","system_id":"levelo_inurba_marseille","lat":43.25578,"lon":5.382303,"is_reserved":false,"is_disabled":true,"rental_uris":{"android":"levelo://app?vid=a2fbdedf-3659-48f8-a356-a837b69a4dff","ios":"levelo://app?vid=a2fbdedf-3659-48f8-a356-a837b69a4dff"},"vehicle_type_id":"4","last_reported":1747436995,"current_range_meters":1600,"station_id":"ce4bhih2rcd13ifvqfs0","pricing_plan_id":"cebpf4jnsgd1na2vs0mg"},{"bike_id":"1f540334-b749-4628-a519-256ac78ef68c","system_id":"levelo_inurba_marseille","lat":43.2987,"lon":5.39745,"is_reserved":false,"is_disabled":false,"rental_uris":{"android":"levelo://app?vid=1f540334-b749-4628-a519-256ac78ef68c","ios":"levelo://app?vid=1f540334-b749-4628-a519-256ac78ef68c"},"vehicle_type_id":"4","last_reported":1747436995,"current_range_meters":2800,"station_id":"ce4bh0h2rcd13ifvqd50","pricing_plan_id":"cebpf4jnsgd1na2vs0mg"},{"bike_id":"eddb1938-f556-4e44-927d-18713da67bed","system_id":"levelo_inurba_marseille","lat":43.29261,"lon":5.37607,"is_reserved":false,"is_disabled":false,"rental_uris":{"android":"levelo://app?vid=eddb1938-f556-4e44-927d-18713da67bed","ios":"levelo://app?vid=eddb1938-f556-4e44-927d-18713da67bed"},"vehicle_type_id":"4","last_reported":1747436995,"current_range_meters":3200,"station_id":"ce4bgi12rcd13ifvqb80","pricing_plan_id":"cebpf4jnsgd1na2vs0mg"},{"bike_id":"2fe6891e-a3a6-48f8-b783-dea05da84b85","system_id":"levelo_inurba_marseille","lat":43.29197,"lon":5.3581,"is_reserved":false,"is_disabled":false,"rental_uris":{"android":"levelo://app?vid=2fe6891e-a3a6-48f8-b783-dea05da84b85","ios":"levelo://app?vid=2fe6891e-a3a6-48f8-b783-dea05da84b85"},"vehicle_type_id":"4","last_reported":1747436995,"current_range_meters":3200,"station_id":"ce4bhb12rcd13ifvqel0","pricing_plan_id":"cebpf4jnsgd1na2vs0mg"},{"bike_id":"80d0d83f-909d-4568-b4e7-8a3ef4eed2de","system_id":"levelo_inurba_marseille","lat":43.25388,"lon":5.41912,"is_reserved":false,"is_disabled":false,"rental_uris":{"android":"levelo://app?vid=80d0d83f-909d-4568-b4e7-8a3ef4eed2de","ios":"levelo://app?vid=80d0d83f-909d-4568-b4e7-8a3ef4eed2de"},"vehicle_type_id":"4","last_reported":1747436995,"current_range_meters":3600,"station_id":"","pricing_plan_id":"cebpf4jnsgd1na2vs0mg"},{"bike_id":"2e83611d-2ae6-4afe-96eb-6f1395b40d5d","system_id":"levelo_inurba_marseille","lat":43.28405,"lon":5.37515,"is_reserved":false,"is_disabled":false,"rental_uris":{"android":"levelo://app?vid=2e83611d-2ae6-4afe-96eb-6f1395b40d5d","ios":"levelo://app?vid=2e83611d-2ae6-4afe-96eb-6f1395b40d5d"},"vehicle_type_id":"4","last_reported":1747436995,"current_range_meters":3600,"station_id":"ce4bh412rcd13ifvqds0","pricing_plan_id":"cebpf4jnsgd1na2vs0mg"},{"bike_id":"738913b9-b6e5-47fe-9e14-55fba01163ef","system_id":"levelo_inurba_marseille","lat":43.28171,"lon":5.42622,"is_reserved":false,"is_disabled":false,"rental_uris":{"android":"levelo://app?vid=738913b9-b6e5-47fe-9e14-55fba01163ef","ios":"levelo://app?vid=738913b9-b6e5-47fe-9e14-55fba01163ef"},"vehicle_type_id":"4","last_reported":1747436995,"current_range_meters":3600,"station_id":"ce4bhnh2rcd13ifvqgug","pricing_plan_id":"cebpf4jnsgd1na2vs0mg"},{"bike_id":"491ba879-746c-4e21-bc8b-10358cd5998d","system_id":"levelo_inurba_marseille","lat":43.29919,"lon":5.37488,"is_reserved":false,"is_disabled":false,"rental_uris":{"android":"levelo://app?vid=491ba879-746c-4e21-bc8b-10358cd5998d","ios":"levelo://app?vid=491ba879-746c-4e21-bc8b-10358cd5998d"},"vehicle_type_id":"4","last_reported":1747436995,"current_range_meters":4000,"station_id":"ce4bgjh2rcd13ifvqbg0","pricing_plan_id":"cebpf4jnsgd1na2vs0mg"},{"bike_id":"3e31f45f-d28e-4a99-86d4-6f4078437609","system_id":"levelo_inurba_marseille","lat":43.272073,"lon":5.391857,"is_reserved":false,"is_disabled":false,"rental_uris":{"android":"levelo://app?vid=3e31f45f-d28e-4a99-86d4-6f4078437609","ios":"levelo://app?vid=3e31f45f-d28e-4a99-86d4-6f4078437609"},"vehicle_type_id":"4","last_reported":1747436995,"current_range_meters":4000,"station_id":"ce4bhhp2rcd13ifvqfm0","pricing_plan_id":"cebpf4jnsgd1na2vs0mg"},{"bike_id":"8eb1f58f-aa4f-4974-816f-c27c18b7dfee","system_id":"levelo_inurba_marseille","lat":43.24654,"lon":5.38888,"is_reserved":false,"is_disabled":false,"rental_uris":{"android":"levelo://app?vid=8eb1f58f-aa4f-4974-816f-c27c18b7dfee","ios":"levelo://app?vid=8eb1f58f-aa4f-4974-816f-c27c18b7dfee"},"vehicle_type_id":"4","last_reported":1747436995,"current_range_meters":4400,"station_id":"ce4bhg12rcd13ifvqf60","pricing_plan_id":"cebpf4jnsgd1na2vs0mg"},{"bike_id":"b4b7b148-cc4b-409c-a19c-3d61035f85b8","system_id":"levelo_inurba_marseille","lat":43.28725,"lon":5.36087,"is_reserved":false,"is_disabled":false,"rental_uris":{"android":"levelo://app?vid=b4b7b148-cc4b-409c-a19c-3d61035f85b8","ios":"levelo://app?vid=b4b7b148-cc4b-409c-a19c-3d61035f85b8"},"vehicle_type_id":"4","last_reported":1747436995,"current_range_meters":4400,"station_id":"cki0cbj6b192h4jlfktg","pricing_plan_id":"cebpf4jnsgd1na2vs0mg"},{"bike_id":"aec5af64-5758-4d49-b2f9-eff089336aac","system_id":"levelo_inurba_marseille","lat":43.28085,"lon":5.39645,"is_reserved":false,"is_disabled":false,"rental_uris":{"android":"levelo://app?vid=aec5af64-5758-4d49-b2f9-eff089336aac","ios":"levelo://app?vid=aec5af64-5758-4d49-b2f9-eff089336aac"},"vehicle_type_id":"4","last_reported":1747436995,"current_range_meters":4800,"station_id":"ce4bho12rcd13ifvqh2g","pricing_plan_id":"cebpf4jnsgd1na2vs0mg"},{"bike_id":"7eb7be2d-3eec-4648-b495-0d532492ed4d","system_id":"levelo_inurba_marseille","lat":43.23184,"lon":5.35563,"is_reserved":false,"is_disabled":false,"rental_uris":{"android":"levelo://app?vid=7eb7be2d-3eec-4648-b495-0d532492ed4d","ios":"levelo://app?vid=7eb7be2d-3eec-4648-b495-0d532492ed4d"},"vehicle_type_id":"4","last_reported":1747436995,"current_range_meters":4800,"station_id":"ce4bhu92rcd13ifvqi70","pricing_plan_id":"cebpf4jnsgd1na2vs0mg"},{"bike_id":"da36a3f9-3171-4d1c-85c5-8d3c32a7bc01","system_id":"levelo_inurba_marseille","lat":43.311264,"lon":5.377629,"is_reserved":false,"is_disabled":false,"rental_uris":{"android":"levelo://app?vid=da36a3f9-3171-4d1c-85c5-8d3c32a7bc01","ios":"levelo://app?vid=da36a3f9-3171-4d1c-85c5-8d3c32a7bc01"},"vehicle_type_id":"4","last_reported":1747436995,"current_range_meters":5600,"station_id":"ce4bgt92rcd13ifvqcg0","pricing_plan_id":"cebpf4jnsgd1na2vs0mg"},{"bike_id":"93b7313b-e798-456c-a2fd-2fca3cd105de","system_id":"levelo_inurba_marseille","lat":43.30257,"lon":5.40065,"is_reserved":false,"is_disabled":false,"rental_uris":{"android":"levelo://app?vid=93b7313b-e798-456c-a2fd-2fca3cd105de","ios":"levelo://app?vid=93b7313b-e798-456c-a2fd-2fca3cd105de"},"vehicle_type_id":"4","last_reported":1747436995,"current_range_meters":5600,"station_id":"ce4bgvh2rcd13ifvqcs0","pricing_plan_id":"cebpf4jnsgd1na2vs0mg"},{"bike_id":"0cf4e4c4-7230-47ef-a92e-c18856ef991b","system_id":"levelo_inurba_marseille","lat":43.31721,"lon":5.405678,"is_reserved":false,"is_disabled":false,"rental_uris":{"android":"levelo://app?vid=0cf4e4c4-7230-47ef-a92e-c18856ef991b","ios":"levelo://app?vid=0cf4e4c4-7230-47ef-a92e-c18856ef991b"},"vehicle_type_id":"4","last_reported":1747436995,"current_range_meters":5600,"station_id":"ce4bh012rcd13ifvqd00","pricing_plan_id":"cebpf4jnsgd1na2vs0mg"},{"bike_id":"da1e6129-1d19-4904-bc4e-62fece13081e","system_id":"levelo_inurba_marseille","lat":43.28485,"lon":5.38415,"is_reserved":false,"is_disabled":false,"rental_uris":{"android":"levelo://app?vid=da1e6129-1d19-4904-bc4e-62fece13081e","ios":"levelo://app?vid=da1e6129-1d19-4904-bc4e-62fece13081e"},"vehicle_type_id":"4","last_reported":1747436995,"current_range_meters":5600,"station_id":"ce4bh512rcd13ifvqe3g","pricing_plan_id":"cebpf4jnsgd1na2vs0mg"},{"bike_id":"ec82b09f-348b-46ef-919d-f478aa787858","system_id":"levelo_inurba_marseille","lat":43.22927,"lon":5.35382,"is_reserved":false,"is_disabled":false,"rental_uris":{"android":"levelo://app?vid=ec82b09f-348b-46ef-919d-f478aa787858","ios":"levelo://app?vid=ec82b09f-348b-46ef-919d-f478aa787858"},"vehicle_type_id":"4","last_reported":1747436995,"current_range_meters":5600,"station_id":"cpo3532slgdg3j2ikp40","pricing_plan_id":"cebpf4jnsgd1na2vs0mg"},{"bike_id":"275a6892-a4f6-46a3-b906-dca1d9f4c5f2","system_id":"levelo_inurba_marseille","lat":43.29802,"lon":5.40398,"is_reserved":false,"is_disabled":false,"rental_uris":{"android":"levelo://app?vid=275a6892-a4f6-46a3-b906-dca1d9f4c5f2","ios":"levelo://app?vid=275a6892-a4f6-46a3-b906-dca1d9f4c5f2"},"vehicle_type_id":"4","last_reported":1747436995,"current_range_meters":6000,"station_id":"ce4bh112rcd13ifvqd90","pricing_plan_id":"cebpf4jnsgd1na2vs0mg"},{"bike_id":"6fa9e772-3d07-48cc-af00-0a04d4ffa1a2","system_id":"levelo_inurba_marseille","lat":43.25116,"lon":5.40332,"is_reserved":false,"is_disabled":false,"rental_uris":{"android":"levelo://app?vid=6fa9e772-3d07-48cc-af00-0a04d4ffa1a2","ios":"levelo://app?vid=6fa9e772-3d07-48cc-af00-0a04d4ffa1a2"},"vehicle_type_id":"4","last_reported":1747436995,"current_range_meters":6000,"station_id":"ce4bhlh2rcd13ifvqgig","pricing_plan_id":"cebpf4jnsgd1na2vs0mg"},{"bike_id":"2ac390ba-0a92-49a8-9540-04d5ee3b1e4e","system_id":"levelo_inurba_marseille","lat":43.28441,"lon":5.39184,"is_reserved":false,"is_disabled":false,"rental_uris":{"android":"levelo://app?vid=2ac390ba-0a92-49a8-9540-04d5ee3b1e4e","ios":"levelo://app?vid=2ac390ba-0a92-49a8-9540-04d5ee3b1e4e"},"vehicle_type_id":"4","last_reported":1747436995,"current_range_meters":6000,"station_id":"ce4bhoh2rcd13ifvqh5g","pricing_plan_id":"cebpf4jnsgd1na2vs0mg"},{"bike_id":"deb72f86-18c7-4059-b066-9e7105249bc3","system_id":"levelo_inurba_marseille","lat":43.326601,"lon":5.409917,"is_reserved":false,"is_disabled":false,"rental_uris":{"android":"levelo://app?vid=deb72f86-18c7-4059-b066-9e7105249bc3","ios":"levelo://app?vid=deb72f86-18c7-4059-b066-9e7105249bc3"},"vehicle_type_id":"4","last_reported":1747436995,"current_range_meters":6000,"station_id":"ce4bhpp2rcd13ifvqhgg","pricing_plan_id":"cebpf4jnsgd1na2vs0mg"},{"bike_id":"ec2cf44a-d2ce-40ed-aaeb-ddb24e07b8b0","system_id":"levelo_inurba_marseille","lat":43.23196,"lon":5.39972,"is_reserved":false,"is_disabled":false,"rental_uris":{"android":"levelo://app?vid=ec2cf44a-d2ce-40ed-aaeb-ddb24e07b8b0","ios":"levelo://app?vid=ec2cf44a-d2ce-40ed-aaeb-ddb24e07b8b0"},"vehicle_type_id":"4","last_reported":1747436995,"current_range_meters":6400,"station_id":"ce4bhn12rcd13ifvqgqg","pricing_plan_id":"cebpf4jnsgd1na2vs0mg"},{"bike_id":"d93d0c6d-be90-4a1f-bc81-4d02d1453c4b","system_id":"levelo_inurba_marseille","lat":43.22514,"lon":5.34775,"is_reserved":false,"is_disabled":false,"rental_uris":{"android":"levelo://app?vid=d93d0c6d-be90-4a1f-bc81-4d02d1453c4b","ios":"levelo://app?vid=d93d0c6d-be90-4a1f-bc81-4d02d1453c4b"},"vehicle_type_id":"4","last_reported":1747436995,"current_range_meters":6400,"station_id":"st_cvj5dfep6f1abm77gieg","pricing_plan_id":"cebpf4jnsgd1na2vs0mg"},{"bike_id":"06e20113-a5f1-4fe5-b188-f647ff408cc7","system_id":"levelo_inurba_marseille","lat":43.276918,"lon":5.419598,"is_reserved":false,"is_disabled":false,"rental_uris":{"android":"levelo://app?vid=06e20113-a5f1-4fe5-b188-f647ff408cc7","ios":"levelo://app?vid=06e20113-a5f1-4fe5-b188-f647ff408cc7"},"vehicle_type_id":"4","last_reported":1747436995,"current_range_meters":6800,"station_id":"","pricing_plan_id":"cebpf4jnsgd1na2vs0mg"},{"bike_id":"f768f02c-a770-46ed-b9fb-ed1e435a3c0f","system_id":"levelo_inurba_marseille","lat":43.329387,"lon":5.390013,"is_reserved":false,"is_disabled":false,"rental_uris":{"android":"levelo://app?vid=f768f02c-a770-46ed-b9fb-ed1e435a3c0f","ios":"levelo://app?vid=f768f02c-a770-46ed-b9fb-ed1e435a3c0f"},"vehicle_type_id":"4","last_reported":1747436995,"current_range_meters":6800,"station_id":"","pricing_plan_id":"cebpf4jnsgd1na2vs0mg"},{"bike_id":"519a3c0e-40a7-4efc-b3d1-b28e4afef009","system_id":"levelo_inurba_marseille","lat":43.30601,"lon":5.3936,"is_reserved":false,"is_disabled":false,"rental_uris":{"android":"levelo://app?vid=519a3c0e-40a7-4efc-b3d1-b28e4afef009","ios":"levelo://app?vid=519a3c0e-40a7-4efc-b3d1-b28e4afef009"},"vehicle_type_id":"4","last_reported":1747436995,"current_range_meters":6800,"station_id":"ce4bh0p2rcd13ifvqd80","pricing_plan_id":"cebpf4jnsgd1na2vs0mg"},{"bike_id":"f8bef29a-1c6c-4a23-8f6a-4b760357c234","system_id":"levelo_inurba_marseille","lat":43.29257,"lon":5.40902,"is_reserved":false,"is_disabled":false,"rental_uris":{"android":"levelo://app?vid=f8bef29a-1c6c-4a23-8f6a-4b760357c234","ios":"levelo://app?vid=f8bef29a-1c6c-4a23-8f6a-4b760357c234"},"vehicle_type_id":"4","last_reported":1747436995,"current_range_meters":6800,"station_id":"ce4bh192rcd13ifvqdc0","pricing_plan_id":"cebpf4jnsgd1na2vs0mg"},{"bike_id":"c43a58fc-765e-406d-b0e8-87f6c11c793d","system_id":"levelo_inurba_marseille","lat":43.28702,"lon":5.39983,"is_reserved":false,"is_disabled":false,"rental_uris":{"android":"levelo://app?vid=c43a58fc-765e-406d-b0e8-87f6c11c793d","ios":"levelo://app?vid=c43a58fc-765e-406d-b0e8-87f6c11c793d"},"vehicle_type_id":"4","last_reported":1747436995,"current_range_meters":6800,"station_id":"ce4bho92rcd13ifvqh3g","pricing_plan_id":"cebpf4jnsgd1na2vs0mg"},{"bike_id":"10a03f29-c19b-490f-8867-3dc944fbed36","system_id":"levelo_inurba_marseille","lat":43.30428,"lon":5.39747,"is_reserved":false,"is_disabled":false,"rental_uris":{"android":"levelo://app?vid=10a03f29-c19b-490f-8867-3dc944fbed36","ios":"levelo://app?vid=10a03f29-c19b-490f-8867-3dc944fbed36"},"vehicle_type_id":"4","last_reported":1747436995,"current_range_meters":7200,"station_id":"ce4bh092rcd13ifvqd20","pricing_plan_id":"cebpf4jnsgd1na2vs0mg"},{"bike_id":"6d485413-0a5b-4296-862c-2c19c83ee78f","system_id":"levelo_inurba_marseille","lat":43.32397,"lon":5.40659,"is_reserved":false,"is_disabled":false,"rental_uris":{"android":"levelo://app?vid=6d485413-0a5b-4296-862c-2c19c83ee78f","ios":"levelo://app?vid=6d485413-0a5b-4296-862c-2c19c83ee78f"},"vehicle_type_id":"4","last_reported":1747436995,"current_range_meters":8000,"station_id":"","pricing_plan_id":"cebpf4jnsgd1na2vs0mg"},{"bike_id":"b15acf99-a4c0-4a0e-8ffe-93213d16b527","system_id":"levelo_inurba_marseille","lat":43.3547,"lon":5.35715,"is_reserved":false,"is_disabled":false,"rental_uris":{"android":"levelo://app?vid=b15acf99-a4c0-4a0e-8ffe-93213d16b527","ios":"levelo://app?vid=b15acf99-a4c0-4a0e-8ffe-93213d16b527"},"vehicle_type_id":"4","last_reported":1747436995,"current_range_meters":8000,"station_id":"","pricing_plan_id":"cebpf4jnsgd1na2vs0mg"},{"bike_id":"b89a24e6-5078-471a-88fa-2c70cdf078ca","system_id":"levelo_inurba_marseille","lat":43.31007,"lon":5.37545,"is_reserved":false,"is_disabled":false,"rental_uris":{"android":"levelo://app?vid=b89a24e6-5078-471a-88fa-2c70cdf078ca","ios":"levelo://app?vid=b89a24e6-5078-471a-88fa-2c70cdf078ca"},"vehicle_type_id":"4","last_reported":1747436995,"current_range_meters":8000,"station_id":"","pricing_plan_id":"cebpf4jnsgd1na2vs0mg"},{"bike_id":"f8e4732a-2ecf-431c-8f66-abc7aabb8aa1","system_id":"levelo_inurba_marseille","lat":43.32906,"lon":5.38991,"is_reserved":false,"is_disabled":false,"rental_uris":{"android":"levelo://app?vid=f8e4732a-2ecf-431c-8f66-abc7aabb8aa1","ios":"levelo://app?vid=f8e4732a-2ecf-431c-8f66-abc7aabb8aa1"},"vehicle_type_id":"4","last_reported":1747436995,"current_range_meters":8000,"station_id":"","pricing_plan_id":"cebpf4jnsgd1na2vs0mg"},{"bike_id":"405c5b0d-c372-4c5d-955e-58459733cd0d","system_id":"levelo_inurba_marseille","lat":43.30433,"lon":5.38898,"is_reserved":false,"is_disabled":false,"rental_uris":{"android":"levelo://app?vid=405c5b0d-c372-4c5d-955e-58459733cd0d","ios":"levelo://app?vid=405c5b0d-c372-4c5d-955e-58459733cd0d"},"vehicle_type_id":"4","last_reported":1747436995,"current_range_meters":8000,"station_id":"","pricing_plan_id":"cebpf4jnsgd1na2vs0mg"},{"bike_id":"6dd57cf4-65e0-489e-905f-ab0dc1fdf6dd","system_id":"levelo_inurba_marseille","lat":43.32966,"lon":5.39412,"is_reserved":false,"is_disabled":false,"rental_uris":{"android":"levelo://app?vid=6dd57cf4-65e0-489e-905f-ab0dc1fdf6dd","ios":"levelo://app?vid=6dd57cf4-65e0-489e-905f-ab0dc1fdf6dd"},"vehicle_type_id":"4","last_reported":1747436995,"current_range_meters":8000,"station_id":"","pricing_plan_id":"cebpf4jnsgd1na2vs0mg"},{"bike_id":"333db57a-2233-45ee-b28b-6f97e0553633","system_id":"levelo_inurba_marseille","lat":43.307983,"lon":5.38163,"is_reserved":false,"is_disabled":false,"rental_uris":{"android":"levelo://app?vid=333db57a-2233-45ee-b28b-6f97e0553633","ios":"levelo://app?vid=333db57a-2233-45ee-b28b-6f97e0553633"},"vehicle_type_id":"4","last_reported":1747436995,"current_range_meters":8000,"station_id":"ce4bgt12rcd13ifvqce0","pricing_plan_id":"cebpf4jnsgd1na2vs0mg"},{"bike_id":"78683b89-a50a-4769-a4c6-0da81ccf13df","system_id":"levelo_inurba_marseille","lat":43.27925,"lon":5.3957,"is_reserved":false,"is_disabled":false,"rental_uris":{"android":"levelo://app?vid=78683b89-a50a-4769-a4c6-0da81ccf13df","ios":"levelo://app?vid=78683b89-a50a-4769-a4c6-0da81ccf13df"},"vehicle_type_id":"4","last_reported":1747436995,"current_range_meters":8000,"station_id":"ce4bhf92rcd13ifvqf40","pricing_plan_id":"cebpf4jnsgd1na2vs0mg"},{"bike_id":"e64e4484-2db6-41f4-beb8-e0c0ae1263cd","system_id":"levelo_inurba_marseille","lat":43.28524,"lon":5.43029,"is_reserved":false,"is_disabled":false,"rental_uris":{"android":"levelo://app?vid=e64e4484-2db6-41f4-beb8-e0c0ae1263cd","ios":"levelo://app?vid=e64e4484-2db6-41f4-beb8-e0c0ae1263cd"},"vehicle_type_id":"4","last_reported":1747436995,"current_range_meters":8400,"station_id":"","pricing_plan_id":"cebpf4jnsgd1na2vs0mg"},{"bike_id":"d7c28a5b-bfdb-4b24-bdb4-045314a2e674","system_id":"levelo_inurba_marseille","lat":43.34039,"lon":5.37481,"is_reserved":false,"is_disabled":false,"rental_uris":{"android":"levelo://app?vid=d7c28a5b-bfdb-4b24-bdb4-045314a2e674","ios":"levelo://app?vid=d7c28a5b-bfdb-4b24-bdb4-045314a2e674"},"vehicle_type_id":"4","last_reported":1747436995,"current_range_meters":8400,"station_id":"","pricing_plan_id":"cebpf4jnsgd1na2vs0mg"},{"bike_id":"3224f0ee-acc8-4707-b410-444ec1d36b44","system_id":"levelo_inurba_marseille","lat":43.2962,"lon":5.37717,"is_reserved":false,"is_disabled":false,"rental_uris":{"android":"levelo://app?vid=3224f0ee-acc8-4707-b410-444ec1d36b44","ios":"levelo://app?vid=3224f0ee-acc8-4707-b410-444ec1d36b44"},"vehicle_type_id":"4","last_reported":1747436995,"current_range_meters":8400,"station_id":"ce4bgi92rcd13ifvqb90","pricing_plan_id":"cebpf4jnsgd1na2vs0mg"},{"bike_id":"b83840fc-e8b5-4516-afbe-00694cb37051","system_id":"levelo_inurba_marseille","lat":43.24397,"lon":5.37064,"is_reserved":false,"is_disabled":false,"rental_uris":{"android":"levelo://app?vid=b83840fc-e8b5-4516-afbe-00694cb37051","ios":"levelo://app?vid=b83840fc-e8b5-4516-afbe-00694cb37051"},"vehicle_type_id":"4","last_reported":1747436995,"current_range_meters":8400,"station_id":"ce4bhhh2rcd13ifvqfk0","pricing_plan_id":"cebpf4jnsgd1na2vs0mg"},{"bike_id":"51141148-eb6c-4bc5-a4e3-9e87ff555165","system_id":"levelo_inurba_marseille","lat":43.278387,"lon":5.392044,"is_reserved":false,"is_disabled":false,"rental_uris":{"android":"levelo://app?vid=51141148-eb6c-4bc5-a4e3-9e87ff555165","ios":"levelo://app?vid=51141148-eb6c-4bc5-a4e3-9e87ff555165"},"vehicle_type_id":"4","last_reported":1747436995,"current_range_meters":8400,"station_id":"ce4bhjp2rcd13ifvqga0","pricing_plan_id":"cebpf4jnsgd1na2vs0mg"},{"bike_id":"f497d22f-e0a8-41a5-a1a9-d9203687ab69","system_id":"levelo_inurba_marseille","lat":43.23154,"lon":5.43707,"is_reserved":false,"is_disabled":false,"rental_uris":{"android":"levelo://app?vid=f497d22f-e0a8-41a5-a1a9-d9203687ab69","ios":"levelo://app?vid=f497d22f-e0a8-41a5-a1a9-d9203687ab69"},"vehicle_type_id":"4","last_reported":1747436995,"current_range_meters":8400,"station_id":"ce4bhmp2rcd13ifvqgog","pricing_plan_id":"cebpf4jnsgd1na2vs0mg"},{"bike_id":"a7fd0861-fa86-48c1-a42f-40fb1b26955e","system_id":"levelo_inurba_marseille","lat":43.27977,"lon":5.41657,"is_reserved":false,"is_disabled":false,"rental_uris":{"android":"levelo://app?vid=a7fd0861-fa86-48c1-a42f-40fb1b26955e","ios":"levelo://app?vid=a7fd0861-fa86-48c1-a42f-40fb1b26955e"},"vehicle_type_id":"4","last_reported":1747436995,"current_range_meters":8400,"station_id":"ce4bho12rcd13ifvqh1g","pricing_plan_id":"cebpf4jnsgd1na2vs0mg"},{"bike_id":"13302bee-f815-4369-81f7-9966c09f11d0","system_id":"levelo_inurba_marseille","lat":43.30368,"lon":5.42481,"is_reserved":false,"is_disabled":false,"rental_uris":{"android":"levelo://app?vid=13302bee-f815-4369-81f7-9966c09f11d0","ios":"levelo://app?vid=13302bee-f815-4369-81f7-9966c09f11d0"},"vehicle_type_id":"4","last_reported":1747436995,"current_range_meters":8400,"station_id":"ce4bhoh2rcd13ifvqh6g","pricing_plan_id":"cebpf4jnsgd1na2vs0mg"},{"bike_id":"2781ef4e-3651-4ce5-9a2e-f1d46595d329","system_id":"levelo_inurba_marseille","lat":43.32111,"lon":5.36778,"is_reserved":false,"is_disabled":false,"rental_uris":{"android":"levelo://app?vid=2781ef4e-3651-4ce5-9a2e-f1d46595d329","ios":"levelo://app?vid=2781ef4e-3651-4ce5-9a2e-f1d46595d329"},"vehicle_type_id":"4","last_reported":1747436995,"current_range_meters":8400,"station_id":"ce4bhrh2rcd13ifvqhug","pricing_plan_id":"cebpf4jnsgd1na2vs0mg"},{"bike_id":"6d36ce03-b344-4b5e-9465-9800cf819cb5","system_id":"levelo_inurba_marseille","lat":43.21196,"lon":5.35089,"is_reserved":false,"is_disabled":false,"rental_uris":{"android":"levelo://app?vid=6d36ce03-b344-4b5e-9465-9800cf819cb5","ios":"levelo://app?vid=6d36ce03-b344-4b5e-9465-9800cf819cb5"},"vehicle_type_id":"4","last_reported":1747436995,"current_range_meters":8400,"station_id":"st_cvj6sg6p6f1abm77japg","pricing_plan_id":"cebpf4jnsgd1na2vs0mg"},{"bike_id":"02288632-79f4-483c-92bd-91cd61a950da","system_id":"levelo_inurba_marseille","lat":43.296417,"lon":5.36215,"is_reserved":false,"is_disabled":false,"rental_uris":{"android":"levelo://app?vid=02288632-79f4-483c-92bd-91cd61a950da","ios":"levelo://app?vid=02288632-79f4-483c-92bd-91cd61a950da"},"vehicle_type_id":"4","last_reported":1747436995,"current_range_meters":8800,"station_id":"","pricing_plan_id":"cebpf4jnsgd1na2vs0mg"},{"bike_id":"fabb6282-2271-42be-af10-acea6050920b","system_id":"levelo_inurba_marseille","lat":43.29877,"lon":5.39727,"is_reserved":false,"is_disabled":false,"rental_uris":{"android":"levelo://app?vid=fabb6282-2271-42be-af10-acea6050920b","ios":"levelo://app?vid=fabb6282-2271-42be-af10-acea6050920b"},"vehicle_type_id":"4","last_reported":1747436995,"current_range_meters":8800,"station_id":"ce4bh0h2rcd13ifvqd50","pricing_plan_id":"cebpf4jnsgd1na2vs0mg"},{"bike_id":"7e65f78b-ee64-41c1-95d5-c591550b4980","system_id":"levelo_inurba_marseille","lat":43.28987,"lon":5.37845,"is_reserved":false,"is_disabled":false,"rental_uris":{"android":"levelo://app?vid=7e65f78b-ee64-41c1-95d5-c591550b4980","ios":"levelo://app?vid=7e65f78b-ee64-41c1-95d5-c591550b4980"},"vehicle_type_id":"4","last_reported":1747436995,"current_range_meters":8800,"station_id":"ce4bh9p2rcd13ifvqed0","pricing_plan_id":"cebpf4jnsgd1na2vs0mg"},{"bike_id":"4a07484a-afe5-412c-b3c0-444a3bb6c3c7","system_id":"levelo_inurba_marseille","lat":43.32668,"lon":5.40997,"is_reserved":false,"is_disabled":false,"rental_uris":{"android":"levelo://app?vid=4a07484a-afe5-412c-b3c0-444a3bb6c3c7","ios":"levelo://app?vid=4a07484a-afe5-412c-b3c0-444a3bb6c3c7"},"vehicle_type_id":"4","last_reported":1747436995,"current_range_meters":8800,"station_id":"ce4bhpp2rcd13ifvqhgg","pricing_plan_id":"cebpf4jnsgd1na2vs0mg"},{"bike_id":"06fd2653-cc45-4799-9fd7-38fea29c613b","system_id":"levelo_inurba_marseille","lat":43.29905,"lon":5.38141,"is_reserved":false,"is_disabled":false,"rental_uris":{"android":"levelo://app?vid=06fd2653-cc45-4799-9fd7-38fea29c613b","ios":"levelo://app?vid=06fd2653-cc45-4799-9fd7-38fea29c613b"},"vehicle_type_id":"4","last_reported":1747436995,"current_range_meters":9200,"station_id":"","pricing_plan_id":"cebpf4jnsgd1na2vs0mg"},{"bike_id":"a35ef56b-63be-4a96-9de7-814693a5818a","system_id":"levelo_inurba_marseille","lat":43.31739,"lon":5.37302,"is_reserved":false,"is_disabled":false,"rental_uris":{"android":"levelo://app?vid=a35ef56b-63be-4a96-9de7-814693a5818a","ios":"levelo://app?vid=a35ef56b-63be-4a96-9de7-814693a5818a"},"vehicle_type_id":"4","last_reported":1747436995,"current_range_meters":9200,"station_id":"","pricing_plan_id":"cebpf4jnsgd1na2vs0mg"},{"bike_id":"86535726-a494-4969-8257-997591a430f4","system_id":"levelo_inurba_marseille","lat":43.28577,"lon":5.39491,"is_reserved":false,"is_disabled":false,"rental_uris":{"android":"levelo://app?vid=86535726-a494-4969-8257-997591a430f4","ios":"levelo://app?vid=86535726-a494-4969-8257-997591a430f4"},"vehicle_type_id":"4","last_reported":1747436995,"current_range_meters":9200,"station_id":"ce4bh292rcd13ifvqdg0","pricing_plan_id":"cebpf4jnsgd1na2vs0mg"},{"bike_id":"554c411d-ebee-4d6c-b475-791ec99e2e12","system_id":"levelo_inurba_marseille","lat":43.2737,"lon":5.36263,"is_reserved":false,"is_disabled":false,"rental_uris":{"android":"levelo://app?vid=554c411d-ebee-4d6c-b475-791ec99e2e12","ios":"levelo://app?vid=554c411d-ebee-4d6c-b475-791ec99e2e12"},"vehicle_type_id":"4","last_reported":1747436995,"current_range_meters":9200,"station_id":"ce4bhbh2rcd13ifvqeo0","pricing_plan_id":"cebpf4jnsgd1na2vs0mg"},{"bike_id":"5deb8060-b584-45ba-8ee7-be227a41b5a4","system_id":"levelo_inurba_marseille","lat":43.24653,"lon":5.3815,"is_reserved":false,"is_disabled":false,"rental_uris":{"android":"levelo://app?vid=5deb8060-b584-45ba-8ee7-be227a41b5a4","ios":"levelo://app?vid=5deb8060-b584-45ba-8ee7-be227a41b5a4"},"vehicle_type_id":"4","last_reported":1747436995,"current_range_meters":9200,"station_id":"ce4bhih2rcd13ifvqfr0","pricing_plan_id":"cebpf4jnsgd1na2vs0mg"},{"bike_id":"8cf75296-6b59-4787-bf18-cfee7fac28e0","system_id":"levelo_inurba_marseille","lat":43.24178,"lon":5.39726,"is_reserved":false,"is_disabled":false,"rental_uris":{"android":"levelo://app?vid=8cf75296-6b59-4787-bf18-cfee7fac28e0","ios":"levelo://app?vid=8cf75296-6b59-4787-bf18-cfee7fac28e0"},"vehicle_type_id":"4","last_reported":1747436995,"current_range_meters":9200,"station_id":"ce4bhn12rcd13ifvqgpg","pricing_plan_id":"cebpf4jnsgd1na2vs0mg"},{"bike_id":"f0f7ca87-7ffb-46bd-ab65-ff44d1578193","system_id":"levelo_inurba_marseille","lat":43.323454,"lon":5.406232,"is_reserved":false,"is_disabled":false,"rental_uris":{"android":"levelo://app?vid=f0f7ca87-7ffb-46bd-ab65-ff44d1578193","ios":"levelo://app?vid=f0f7ca87-7ffb-46bd-ab65-ff44d1578193"},"vehicle_type_id":"4","last_reported":1747436995,"current_range_meters":9200,"station_id":"ce4bhq92rcd13ifvqhjg","pricing_plan_id":"cebpf4jnsgd1na2vs0mg"},{"bike_id":"8e1eb183-c00d-4646-a924-2a4f9123def5","system_id":"levelo_inurba_marseille","lat":43.321072,"lon":5.367693,"is_reserved":false,"is_disabled":false,"rental_uris":{"android":"levelo://app?vid=8e1eb183-c00d-4646-a924-2a4f9123def5","ios":"levelo://app?vid=8e1eb183-c00d-4646-a924-2a4f9123def5"},"vehicle_type_id":"4","last_reported":1747436995,"current_range_meters":9200,"station_id":"ce4bhrh2rcd13ifvqhug","pricing_plan_id":"cebpf4jnsgd1na2vs0mg"},{"bike_id":"3d6b5b36-a314-45fa-8bc0-68e5f98a5dde","system_id":"levelo_inurba_marseille","lat":43.22939,"lon":5.35377,"is_reserved":false,"is_disabled":false,"rental_uris":{"android":"levelo://app?vid=3d6b5b36-a314-45fa-8bc0-68e5f98a5dde","ios":"levelo://app?vid=3d6b5b36-a314-45fa-8bc0-68e5f98a5dde"},"vehicle_type_id":"4","last_reported":1747436995,"current_range_meters":9200,"station_id":"cpo3532slgdg3j2ikp40","pricing_plan_id":"cebpf4jnsgd1na2vs0mg"},{"bike_id":"94f0c13c-e647-4c7a-bbee-c165d50fd6d6","system_id":"levelo_inurba_marseille","lat":43.24171,"lon":5.364,"is_reserved":false,"is_disabled":false,"rental_uris":{"android":"levelo://app?vid=94f0c13c-e647-4c7a-bbee-c165d50fd6d6","ios":"levelo://app?vid=94f0c13c-e647-4c7a-bbee-c165d50fd6d6"},"vehicle_type_id":"4","last_reported":1747436995,"current_range_meters":9200,"station_id":"cpo36qri1sfpv3e86is0","pricing_plan_id":"cebpf4jnsgd1na2vs0mg"},{"bike_id":"a488853e-8708-42f9-a9f1-40f4dc62e03d","system_id":"levelo_inurba_marseille","lat":43.305653,"lon":5.373167,"is_reserved":false,"is_disabled":false,"rental_uris":{"android":"levelo://app?vid=a488853e-8708-42f9-a9f1-40f4dc62e03d","ios":"levelo://app?vid=a488853e-8708-42f9-a9f1-40f4dc62e03d"},"vehicle_type_id":"4","last_reported":1747436995,"current_range_meters":9600,"station_id":"","pricing_plan_id":"cebpf4jnsgd1na2vs0mg"},{"bike_id":"3e480d2f-8011-45e8-bab5-26452b394142","system_id":"levelo_inurba_marseille","lat":43.28666,"lon":5.36344,"is_reserved":false,"is_disabled":false,"rental_uris":{"android":"levelo://app?vid=3e480d2f-8011-45e8-bab5-26452b394142","ios":"levelo://app?vid=3e480d2f-8011-45e8-bab5-26452b394142"},"vehicle_type_id":"4","last_reported":1747436995,"current_range_meters":9600,"station_id":"ce4bhah2rcd13ifvqej0","pricing_plan_id":"cebpf4jnsgd1na2vs0mg"},{"bike_id":"25102c3b-2fbb-400c-8820-f98bbff5bece","system_id":"levelo_inurba_marseille","lat":43.27915,"lon":5.39591,"is_reserved":false,"is_disabled":false,"rental_uris":{"android":"levelo://app?vid=25102c3b-2fbb-400c-8820-f98bbff5bece","ios":"levelo://app?vid=25102c3b-2fbb-400c-8820-f98bbff5bece"},"vehicle_type_id":"4","last_reported":1747436995,"current_range_meters":9600,"station_id":"ce4bhf92rcd13ifvqf40","pricing_plan_id":"cebpf4jnsgd1na2vs0mg"},{"bike_id":"5bd7c68d-bffc-45e6-bca1-d02bf7a1c1bb","system_id":"levelo_inurba_marseille","lat":43.25865,"lon":5.39887,"is_reserved":false,"is_disabled":false,"rental_uris":{"android":"levelo://app?vid=5bd7c68d-bffc-45e6-bca1-d02bf7a1c1bb","ios":"levelo://app?vid=5bd7c68d-bffc-45e6-bca1-d02bf7a1c1bb"},"vehicle_type_id":"4","last_reported":1747436995,"current_range_meters":9600,"station_id":"ce4bhl92rcd13ifvqghg","pricing_plan_id":"cebpf4jnsgd1na2vs0mg"},{"bike_id":"cc997091-761a-4004-b43e-d05e1c15efff","system_id":"levelo_inurba_marseille","lat":43.231908,"lon":5.399795,"is_reserved":false,"is_disabled":false,"rental_uris":{"android":"levelo://app?vid=cc997091-761a-4004-b43e-d05e1c15efff","ios":"levelo://app?vid=cc997091-761a-4004-b43e-d05e1c15efff"},"vehicle_type_id":"4","last_reported":1747436995,"current_range_meters":9600,"station_id":"ce4bhn12rcd13ifvqgqg","pricing_plan_id":"cebpf4jnsgd1na2vs0mg"},{"bike_id":"71abf16d-0037-4503-8336-9084f9a4a4ec","system_id":"levelo_inurba_marseille","lat":43.30948,"lon":5.40155,"is_reserved":false,"is_disabled":false,"rental_uris":{"android":"levelo://app?vid=71abf16d-0037-4503-8336-9084f9a4a4ec","ios":"levelo://app?vid=71abf16d-0037-4503-8336-9084f9a4a4ec"},"vehicle_type_id":"4","last_reported":1747436995,"current_range_meters":10000,"station_id":"ce4bgvp2rcd13ifvqct0","pricing_plan_id":"cebpf4jnsgd1na2vs0mg"},{"bike_id":"ad5f9cf6-9c88-49f6-b4d6-7ea60bde5bb4","system_id":"levelo_inurba_marseille","lat":43.30896,"lon":5.39656,"is_reserved":false,"is_disabled":false,"rental_uris":{"android":"levelo://app?vid=ad5f9cf6-9c88-49f6-b4d6-7ea60bde5bb4","ios":"levelo://app?vid=ad5f9cf6-9c88-49f6-b4d6-7ea60bde5bb4"},"vehicle_type_id":"4","last_reported":1747436995,"current_range_meters":10000,"station_id":"ce4bh012rcd13ifvqcv0","pricing_plan_id":"cebpf4jnsgd1na2vs0mg"},{"bike_id":"f91a55b2-04dd-472d-8bf8-1d04698601c4","system_id":"levelo_inurba_marseille","lat":43.29574,"lon":5.39965,"is_reserved":false,"is_disabled":false,"rental_uris":{"android":"levelo://app?vid=f91a55b2-04dd-472d-8bf8-1d04698601c4","ios":"levelo://app?vid=f91a55b2-04dd-472d-8bf8-1d04698601c4"},"vehicle_type_id":"4","last_reported":1747436995,"current_range_meters":10000,"station_id":"ce4bh312rcd13ifvqdj0","pricing_plan_id":"cebpf4jnsgd1na2vs0mg"},{"bike_id":"a0e9d505-cf02-46ac-8830-1ac6326a531c","system_id":"levelo_inurba_marseille","lat":43.28699,"lon":5.39982,"is_reserved":false,"is_disabled":false,"rental_uris":{"android":"levelo://app?vid=a0e9d505-cf02-46ac-8830-1ac6326a531c","ios":"levelo://app?vid=a0e9d505-cf02-46ac-8830-1ac6326a531c"},"vehicle_type_id":"4","last_reported":1747436995,"current_range_meters":10000,"station_id":"ce4bho92rcd13ifvqh3g","pricing_plan_id":"cebpf4jnsgd1na2vs0mg"},{"bike_id":"5cf74a5b-3237-4306-8708-835ce896cf40","system_id":"levelo_inurba_marseille","lat":43.319973,"lon":5.381481,"is_reserved":false,"is_disabled":false,"rental_uris":{"android":"levelo://app?vid=5cf74a5b-3237-4306-8708-835ce896cf40","ios":"levelo://app?vid=5cf74a5b-3237-4306-8708-835ce896cf40"},"vehicle_type_id":"4","last_reported":1747436995,"current_range_meters":10000,"station_id":"ce4bhr12rcd13ifvqhpg","pricing_plan_id":"cebpf4jnsgd1na2vs0mg"},{"bike_id":"af4d8ae5-b5e3-4ba4-bb1f-49c4a5ed79fd","system_id":"levelo_inurba_marseille","lat":43.2889,"lon":5.449238,"is_reserved":false,"is_disabled":false,"rental_uris":{"android":"levelo://app?vid=af4d8ae5-b5e3-4ba4-bb1f-49c4a5ed79fd","ios":"levelo://app?vid=af4d8ae5-b5e3-4ba4-bb1f-49c4a5ed79fd"},"vehicle_type_id":"4","last_reported":1747436995,"current_range_meters":10800,"station_id":"","pricing_plan_id":"cebpf4jnsgd1na2vs0mg"},{"bike_id":"8a61a1bc-5a2c-4409-b911-e09287002183","system_id":"levelo_inurba_marseille","lat":43.3099,"lon":5.37929,"is_reserved":false,"is_disabled":false,"rental_uris":{"android":"levelo://app?vid=8a61a1bc-5a2c-4409-b911-e09287002183","ios":"levelo://app?vid=8a61a1bc-5a2c-4409-b911-e09287002183"},"vehicle_type_id":"4","last_reported":1747436995,"current_range_meters":10800,"station_id":"","pricing_plan_id":"cebpf4jnsgd1na2vs0mg"},{"bike_id":"f25fbb4e-ed21-436e-870e-98f400d15677","system_id":"levelo_inurba_marseille","lat":43.28924,"lon":5.38399,"is_reserved":false,"is_disabled":false,"rental_uris":{"android":"levelo://app?vid=f25fbb4e-ed21-436e-870e-98f400d15677","ios":"levelo://app?vid=f25fbb4e-ed21-436e-870e-98f400d15677"},"vehicle_type_id":"4","last_reported":1747436995,"current_range_meters":10800,"station_id":"ce4bh612rcd13ifvqe6g","pricing_plan_id":"cebpf4jnsgd1na2vs0mg"},{"bike_id":"ec2adc05-c675-4624-8ed7-f8c2369f6eaa","system_id":"levelo_inurba_marseille","lat":43.290375,"lon":5.375585,"is_reserved":false,"is_disabled":false,"rental_uris":{"android":"levelo://app?vid=ec2adc05-c675-4624-8ed7-f8c2369f6eaa","ios":"levelo://app?vid=ec2adc05-c675-4624-8ed7-f8c2369f6eaa"},"vehicle_type_id":"4","last_reported":1747436995,"current_range_meters":10800,"station_id":"ce4bh692rcd13ifvqe90","pricing_plan_id":"cebpf4jnsgd1na2vs0mg"},{"bike_id":"44b99538-fb26-4f4c-9469-128b12406ff3","system_id":"levelo_inurba_marseille","lat":43.286713,"lon":5.363312,"is_reserved":false,"is_disabled":false,"rental_uris":{"android":"levelo://app?vid=44b99538-fb26-4f4c-9469-128b12406ff3","ios":"levelo://app?vid=44b99538-fb26-4f4c-9469-128b12406ff3"},"vehicle_type_id":"4","last_reported":1747436995,"current_range_meters":10800,"station_id":"ce4bhah2rcd13ifvqej0","pricing_plan_id":"cebpf4jnsgd1na2vs0mg"},{"bike_id":"fd36f2b2-ab3f-4773-a649-0c532c529c78","system_id":"levelo_inurba_marseille","lat":43.265483,"lon":5.373003,"is_reserved":false,"is_disabled":false,"rental_uris":{"android":"levelo://app?vid=fd36f2b2-ab3f-4773-a649-0c532c529c78","ios":"levelo://app?vid=fd36f2b2-ab3f-4773-a649-0c532c529c78"},"vehicle_type_id":"4","last_reported":1747436995,"current_range_meters":10800,"station_id":"ce4bhg12rcd13ifvqf70","pricing_plan_id":"cebpf4jnsgd1na2vs0mg"},{"bike_id":"4bb33cf8-ba2b-4943-9e07-00506ea3cdca","system_id":"levelo_inurba_marseille","lat":43.24807,"lon":5.37477,"is_reserved":false,"is_disabled":false,"rental_uris":{"android":"levelo://app?vid=4bb33cf8-ba2b-4943-9e07-00506ea3cdca","ios":"levelo://app?vid=4bb33cf8-ba2b-4943-9e07-00506ea3cdca"},"vehicle_type_id":"4","last_reported":1747436995,"current_range_meters":10800,"station_id":"ce4bhgh2rcd13ifvqfb0","pricing_plan_id":"cebpf4jnsgd1na2vs0mg"},{"bike_id":"61cd8d20-b5ec-47a2-860a-9776c1cc615e","system_id":"levelo_inurba_marseille","lat":43.25119,"lon":5.40319,"is_reserved":false,"is_disabled":false,"rental_uris":{"android":"levelo://app?vid=61cd8d20-b5ec-47a2-860a-9776c1cc615e","ios":"levelo://app?vid=61cd8d20-b5ec-47a2-860a-9776c1cc615e"},"vehicle_type_id":"4","last_reported":1747436995,"current_range_meters":10800,"station_id":"ce4bhlh2rcd13ifvqgig","pricing_plan_id":"cebpf4jnsgd1na2vs0mg"},{"bike_id":"8daf4cda-515a-44e7-a2a4-3a34e4d9354c","system_id":"levelo_inurba_marseille","lat":43.29207,"lon":5.3932,"is_reserved":false,"is_disabled":false,"rental_uris":{"android":"levelo://app?vid=8daf4cda-515a-44e7-a2a4-3a34e4d9354c","ios":"levelo://app?vid=8daf4cda-515a-44e7-a2a4-3a34e4d9354c"},"vehicle_type_id":"4","last_reported":1747436995,"current_range_meters":11200,"station_id":"ce4bh192rcd13ifvqdd0","pricing_plan_id":"cebpf4jnsgd1na2vs0mg"},{"bike_id":"b4e0e14e-e323-4652-8cb4-3c87f1c50859","system_id":"levelo_inurba_marseille","lat":43.27831,"lon":5.39208,"is_reserved":false,"is_disabled":false,"rental_uris":{"android":"levelo://app?vid=b4e0e14e-e323-4652-8cb4-3c87f1c50859","ios":"levelo://app?vid=b4e0e14e-e323-4652-8cb4-3c87f1c50859"},"vehicle_type_id":"4","last_reported":1747436995,"current_range_meters":11200,"station_id":"ce4bhjp2rcd13ifvqga0","pricing_plan_id":"cebpf4jnsgd1na2vs0mg"},{"bike_id":"47dbe2ce-5590-48b2-b483-982f1e574096","system_id":"levelo_inurba_marseille","lat":43.31721,"lon":5.42392,"is_reserved":false,"is_disabled":false,"rental_uris":{"android":"levelo://app?vid=47dbe2ce-5590-48b2-b483-982f1e574096","ios":"levelo://app?vid=47dbe2ce-5590-48b2-b483-982f1e574096"},"vehicle_type_id":"4","last_reported":1747436995,"current_range_meters":11200,"station_id":"ce4bhp92rcd13ifvqhbg","pricing_plan_id":"cebpf4jnsgd1na2vs0mg"},{"bike_id":"f29a82b1-b1c6-469a-ad31-486669e75362","system_id":"levelo_inurba_marseille","lat":43.282103,"lon":5.390578,"is_reserved":false,"is_disabled":false,"rental_uris":{"android":"levelo://app?vid=f29a82b1-b1c6-469a-ad31-486669e75362","ios":"levelo://app?vid=f29a82b1-b1c6-469a-ad31-486669e75362"},"vehicle_type_id":"4","last_reported":1747436995,"current_range_meters":11600,"station_id":"","pricing_plan_id":"cebpf4jnsgd1na2vs0mg"},{"bike_id":"78199755-afb1-469f-8ef9-e063bff7ffe2","system_id":"levelo_inurba_marseille","lat":43.31167,"lon":5.38722,"is_reserved":false,"is_disabled":false,"rental_uris":{"android":"levelo://app?vid=78199755-afb1-469f-8ef9-e063bff7ffe2","ios":"levelo://app?vid=78199755-afb1-469f-8ef9-e063bff7ffe2"},"vehicle_type_id":"4","last_reported":1747436995,"current_range_meters":11600,"station_id":"ce4bgv12rcd13ifvqcp0","pricing_plan_id":"cebpf4jnsgd1na2vs0mg"},{"bike_id":"36e412fc-5676-428c-8273-57542e182c3f","system_id":"levelo_inurba_marseille","lat":43.30645,"lon":5.40081,"is_reserved":false,"is_disabled":false,"rental_uris":{"android":"levelo://app?vid=36e412fc-5676-428c-8273-57542e182c3f","ios":"levelo://app?vid=36e412fc-5676-428c-8273-57542e182c3f"},"vehicle_type_id":"4","last_reported":1747436995,"current_range_meters":11600,"station_id":"ce4bh112rcd13ifvqda0","pricing_plan_id":"cebpf4jnsgd1na2vs0mg"},{"bike_id":"0373c9a2-9b2a-4d57-b104-2d14961208ac","system_id":"levelo_inurba_marseille","lat":43.297138,"lon":5.365954,"is_reserved":false,"is_disabled":false,"rental_uris":{"android":"levelo://app?vid=0373c9a2-9b2a-4d57-b104-2d14961208ac","ios":"levelo://app?vid=0373c9a2-9b2a-4d57-b104-2d14961208ac"},"vehicle_type_id":"4","last_reported":1747436995,"current_range_meters":12000,"station_id":"ce4bgn12rcd13ifvqbt0","pricing_plan_id":"cebpf4jnsgd1na2vs0mg"},{"bike_id":"1b515eb5-f42d-4825-abba-489a6df3bcaa","system_id":"levelo_inurba_marseille","lat":43.27972,"lon":5.38723,"is_reserved":false,"is_disabled":false,"rental_uris":{"android":"levelo://app?vid=1b515eb5-f42d-4825-abba-489a6df3bcaa","ios":"levelo://app?vid=1b515eb5-f42d-4825-abba-489a6df3bcaa"},"vehicle_type_id":"4","last_reported":1747436995,"current_range_meters":12000,"station_id":"ce4bhg12rcd13ifvqf80","pricing_plan_id":"cebpf4jnsgd1na2vs0mg"},{"bike_id":"af44d4a3-d6a4-4f2a-9ee4-ed38f31a9dc5","system_id":"levelo_inurba_marseille","lat":43.248043,"lon":5.374465,"is_reserved":false,"is_disabled":false,"rental_uris":{"android":"levelo://app?vid=af44d4a3-d6a4-4f2a-9ee4-ed38f31a9dc5","ios":"levelo://app?vid=af44d4a3-d6a4-4f2a-9ee4-ed38f31a9dc5"},"vehicle_type_id":"4","last_reported":1747436995,"current_range_meters":12000,"station_id":"ce4bhgh2rcd13ifvqfb0","pricing_plan_id":"cebpf4jnsgd1na2vs0mg"},{"bike_id":"bdc8bdbe-3ce3-4b00-972b-939510c5fec8","system_id":"levelo_inurba_marseille","lat":43.26061,"lon":5.39397,"is_reserved":false,"is_disabled":false,"rental_uris":{"android":"levelo://app?vid=bdc8bdbe-3ce3-4b00-972b-939510c5fec8","ios":"levelo://app?vid=bdc8bdbe-3ce3-4b00-972b-939510c5fec8"},"vehicle_type_id":"4","last_reported":1747436995,"current_range_meters":12000,"station_id":"ce4bhh92rcd13ifvqfj0","pricing_plan_id":"cebpf4jnsgd1na2vs0mg"},{"bike_id":"dd8c66ca-d773-4748-bce1-7bf7f85dfaca","system_id":"levelo_inurba_marseille","lat":43.30648,"lon":5.40099,"is_reserved":false,"is_disabled":false,"rental_uris":{"android":"levelo://app?vid=dd8c66ca-d773-4748-bce1-7bf7f85dfaca","ios":"levelo://app?vid=dd8c66ca-d773-4748-bce1-7bf7f85dfaca"},"vehicle_type_id":"4","last_reported":1747436995,"current_range_meters":12400,"station_id":"ce4bh112rcd13ifvqda0","pricing_plan_id":"cebpf4jnsgd1na2vs0mg"},{"bike_id":"6b22d085-5486-4c2f-8819-3b8733106875","system_id":"levelo_inurba_marseille","lat":43.2928,"lon":5.40133,"is_reserved":false,"is_disabled":false,"rental_uris":{"android":"levelo://app?vid=6b22d085-5486-4c2f-8819-3b8733106875","ios":"levelo://app?vid=6b22d085-5486-4c2f-8819-3b8733106875"},"vehicle_type_id":"4","last_reported":1747436995,"current_range_meters":12400,"station_id":"ce4bh312rcd13ifvqdk0","pricing_plan_id":"cebpf4jnsgd1na2vs0mg"},{"bike_id":"e5a2b069-efb7-48e5-8628-944f65ddff23","system_id":"levelo_inurba_marseille","lat":43.28412,"lon":5.37516,"is_reserved":false,"is_disabled":false,"rental_uris":{"android":"levelo://app?vid=e5a2b069-efb7-48e5-8628-944f65ddff23","ios":"levelo://app?vid=e5a2b069-efb7-48e5-8628-944f65ddff23"},"vehicle_type_id":"4","last_reported":1747436995,"current_range_meters":12400,"station_id":"ce4bh412rcd13ifvqds0","pricing_plan_id":"cebpf4jnsgd1na2vs0mg"},{"bike_id":"04a18447-2884-4855-b162-74adb2e2d419","system_id":"levelo_inurba_marseille","lat":43.24546,"lon":5.39522,"is_reserved":false,"is_disabled":false,"rental_uris":{"android":"levelo://app?vid=04a18447-2884-4855-b162-74adb2e2d419","ios":"levelo://app?vid=04a18447-2884-4855-b162-74adb2e2d419"},"vehicle_type_id":"4","last_reported":1747436995,"current_range_meters":12400,"station_id":"ce4bhlp2rcd13ifvqgjg","pricing_plan_id":"cebpf4jnsgd1na2vs0mg"},{"bike_id":"8c096d36-b301-47ce-bf2e-0dfaa371183c","system_id":"levelo_inurba_marseille","lat":43.32287,"lon":5.38269,"is_reserved":false,"is_disabled":false,"rental_uris":{"android":"levelo://app?vid=8c096d36-b301-47ce-bf2e-0dfaa371183c","ios":"levelo://app?vid=8c096d36-b301-47ce-bf2e-0dfaa371183c"},"vehicle_type_id":"4","last_reported":1747436995,"current_range_meters":12400,"station_id":"ce4bhr12rcd13ifvqhqg","pricing_plan_id":"cebpf4jnsgd1na2vs0mg"},{"bike_id":"6607c119-7e9d-4010-acf9-000516b3fab2","system_id":"levelo_inurba_marseille","lat":43.28411,"lon":5.37511,"is_reserved":false,"is_disabled":false,"rental_uris":{"android":"levelo://app?vid=6607c119-7e9d-4010-acf9-000516b3fab2","ios":"levelo://app?vid=6607c119-7e9d-4010-acf9-000516b3fab2"},"vehicle_type_id":"4","last_reported":1747436995,"current_range_meters":12800,"station_id":"ce4bh412rcd13ifvqds0","pricing_plan_id":"cebpf4jnsgd1na2vs0mg"},{"bike_id":"ea0f1347-e44f-441b-92ab-c6214413c0cc","system_id":"levelo_inurba_marseille","lat":43.32093,"lon":5.36775,"is_reserved":false,"is_disabled":false,"rental_uris":{"android":"levelo://app?vid=ea0f1347-e44f-441b-92ab-c6214413c0cc","ios":"levelo://app?vid=ea0f1347-e44f-441b-92ab-c6214413c0cc"},"vehicle_type_id":"4","last_reported":1747436995,"current_range_meters":12800,"station_id":"ce4bhrh2rcd13ifvqhug","pricing_plan_id":"cebpf4jnsgd1na2vs0mg"},{"bike_id":"7f0f0eb1-eb6a-48f0-b4c4-ba8877209c3a","system_id":"levelo_inurba_marseille","lat":43.27198,"lon":5.36507,"is_reserved":false,"is_disabled":false,"rental_uris":{"android":"levelo://app?vid=7f0f0eb1-eb6a-48f0-b4c4-ba8877209c3a","ios":"levelo://app?vid=7f0f0eb1-eb6a-48f0-b4c4-ba8877209c3a"},"vehicle_type_id":"4","last_reported":1747436995,"current_range_meters":13600,"station_id":"","pricing_plan_id":"cebpf4jnsgd1na2vs0mg"},{"bike_id":"51b14f2c-a860-4537-9033-48a7ce05506e","system_id":"levelo_inurba_marseille","lat":43.30954,"lon":5.40133,"is_reserved":false,"is_disabled":false,"rental_uris":{"android":"levelo://app?vid=51b14f2c-a860-4537-9033-48a7ce05506e","ios":"levelo://app?vid=51b14f2c-a860-4537-9033-48a7ce05506e"},"vehicle_type_id":"4","last_reported":1747436995,"current_range_meters":13600,"station_id":"ce4bgvp2rcd13ifvqct0","pricing_plan_id":"cebpf4jnsgd1na2vs0mg"},{"bike_id":"2cb34ab9-9440-4d26-b571-cf1ac3e82926","system_id":"levelo_inurba_marseille","lat":43.29029,"lon":5.38134,"is_reserved":false,"is_disabled":false,"rental_uris":{"android":"levelo://app?vid=2cb34ab9-9440-4d26-b571-cf1ac3e82926","ios":"levelo://app?vid=2cb34ab9-9440-4d26-b571-cf1ac3e82926"},"vehicle_type_id":"4","last_reported":1747436995,"current_range_meters":13600,"station_id":"ce4bh4p2rcd13ifvqe1g","pricing_plan_id":"cebpf4jnsgd1na2vs0mg"},{"bike_id":"6da655b8-0421-4e8a-ae32-6637af746f6a","system_id":"levelo_inurba_marseille","lat":43.268206,"lon":5.411103,"is_reserved":false,"is_disabled":false,"rental_uris":{"android":"levelo://app?vid=6da655b8-0421-4e8a-ae32-6637af746f6a","ios":"levelo://app?vid=6da655b8-0421-4e8a-ae32-6637af746f6a"},"vehicle_type_id":"4","last_reported":1747436995,"current_range_meters":14000,"station_id":"","pricing_plan_id":"cebpf4jnsgd1na2vs0mg"},{"bike_id":"650f386c-46d8-4102-9c4a-a8fad70ae39c","system_id":"levelo_inurba_marseille","lat":43.28039,"lon":5.36946,"is_reserved":false,"is_disabled":false,"rental_uris":{"android":"levelo://app?vid=650f386c-46d8-4102-9c4a-a8fad70ae39c","ios":"levelo://app?vid=650f386c-46d8-4102-9c4a-a8fad70ae39c"},"vehicle_type_id":"4","last_reported":1747436995,"current_range_meters":14400,"station_id":"ce4bha12rcd13ifvqef0","pricing_plan_id":"cebpf4jnsgd1na2vs0mg"},{"bike_id":"aeca2e96-8dc6-4af9-a31e-df7f2249e0ec","system_id":"levelo_inurba_marseille","lat":43.27982,"lon":5.38745,"is_reserved":false,"is_disabled":false,"rental_uris":{"android":"levelo://app?vid=aeca2e96-8dc6-4af9-a31e-df7f2249e0ec","ios":"levelo://app?vid=aeca2e96-8dc6-4af9-a31e-df7f2249e0ec"},"vehicle_type_id":"4","last_reported":1747436995,"current_range_meters":14400,"station_id":"ce4bhg12rcd13ifvqf80","pricing_plan_id":"cebpf4jnsgd1na2vs0mg"},{"bike_id":"852ea9ac-6507-488a-87c5-b27d54b34b2e","system_id":"levelo_inurba_marseille","lat":43.28166,"lon":5.42635,"is_reserved":false,"is_disabled":false,"rental_uris":{"android":"levelo://app?vid=852ea9ac-6507-488a-87c5-b27d54b34b2e","ios":"levelo://app?vid=852ea9ac-6507-488a-87c5-b27d54b34b2e"},"vehicle_type_id":"4","last_reported":1747436995,"current_range_meters":14400,"station_id":"ce4bhnh2rcd13ifvqgug","pricing_plan_id":"cebpf4jnsgd1na2vs0mg"},{"bike_id":"b9c75e31-0dec-4268-a32d-5866a7675c28","system_id":"levelo_inurba_marseille","lat":43.31123,"lon":5.37762,"is_reserved":false,"is_disabled":false,"rental_uris":{"android":"levelo://app?vid=b9c75e31-0dec-4268-a32d-5866a7675c28","ios":"levelo://app?vid=b9c75e31-0dec-4268-a32d-5866a7675c28"},"vehicle_type_id":"4","last_reported":1747436995,"current_range_meters":14800,"station_id":"ce4bgt92rcd13ifvqcg0","pricing_plan_id":"cebpf4jnsgd1na2vs0mg"},{"bike_id":"c343620f-f5c8-4ef9-be99-1453cc9c3cae","system_id":"levelo_inurba_marseille","lat":43.28937,"lon":5.39623,"is_reserved":false,"is_disabled":false,"rental_uris":{"android":"levelo://app?vid=c343620f-f5c8-4ef9-be99-1453cc9c3cae","ios":"levelo://app?vid=c343620f-f5c8-4ef9-be99-1453cc9c3cae"},"vehicle_type_id":"4","last_reported":1747436995,"current_range_meters":14800,"station_id":"ce4bh3h2rcd13ifvqdn0","pricing_plan_id":"cebpf4jnsgd1na2vs0mg"},{"bike_id":"5859aa69-92a8-4d08-a554-05f544a7c60e","system_id":"levelo_inurba_marseille","lat":43.24393,"lon":5.37051,"is_reserved":false,"is_disabled":false,"rental_uris":{"android":"levelo://app?vid=5859aa69-92a8-4d08-a554-05f544a7c60e","ios":"levelo://app?vid=5859aa69-92a8-4d08-a554-05f544a7c60e"},"vehicle_type_id":"4","last_reported":1747436995,"current_range_meters":15200,"station_id":"ce4bhhh2rcd13ifvqfk0","pricing_plan_id":"cebpf4jnsgd1na2vs0mg"},{"bike_id":"1f93231d-057a-4c7a-8964-38cbc85d9eff","system_id":"levelo_inurba_marseille","lat":43.30306,"lon":5.39201,"is_reserved":false,"is_disabled":false,"rental_uris":{"android":"levelo://app?vid=1f93231d-057a-4c7a-8964-38cbc85d9eff","ios":"levelo://app?vid=1f93231d-057a-4c7a-8964-38cbc85d9eff"},"vehicle_type_id":"4","last_reported":1747436995,"current_range_meters":16000,"station_id":"ce4bgkh2rcd13ifvqbk0","pricing_plan_id":"cebpf4jnsgd1na2vs0mg"},{"bike_id":"e3b99155-a26a-490d-a8a8-2724e84f936b","system_id":"levelo_inurba_marseille","lat":43.30601,"lon":5.37205,"is_reserved":false,"is_disabled":false,"rental_uris":{"android":"levelo://app?vid=e3b99155-a26a-490d-a8a8-2724e84f936b","ios":"levelo://app?vid=e3b99155-a26a-490d-a8a8-2724e84f936b"},"vehicle_type_id":"4","last_reported":1747436995,"current_range_meters":16000,"station_id":"ce4bgqh2rcd13ifvqc4g","pricing_plan_id":"cebpf4jnsgd1na2vs0mg"},{"bike_id":"31ac10be-31e2-42e0-8404-c447f64c32ec","system_id":"levelo_inurba_marseille","lat":43.29973,"lon":5.37176,"is_reserved":false,"is_disabled":false,"rental_uris":{"android":"levelo://app?vid=31ac10be-31e2-42e0-8404-c447f64c32ec","ios":"levelo://app?vid=31ac10be-31e2-42e0-8404-c447f64c32ec"},"vehicle_type_id":"4","last_reported":1747436995,"current_range_meters":16000,"station_id":"ce4bgr92rcd13ifvqc7g","pricing_plan_id":"cebpf4jnsgd1na2vs0mg"},{"bike_id":"844e0845-2667-404b-9f3a-f80940d0cad3","system_id":"levelo_inurba_marseille","lat":43.248193,"lon":5.374453,"is_reserved":false,"is_disabled":false,"rental_uris":{"android":"levelo://app?vid=844e0845-2667-404b-9f3a-f80940d0cad3","ios":"levelo://app?vid=844e0845-2667-404b-9f3a-f80940d0cad3"},"vehicle_type_id":"4","last_reported":1747436995,"current_range_meters":16000,"station_id":"ce4bhgh2rcd13ifvqfb0","pricing_plan_id":"cebpf4jnsgd1na2vs0mg"},{"bike_id":"a8bc66e8-c1fd-41ab-803c-e8def4475c43","system_id":"levelo_inurba_marseille","lat":43.26787,"lon":5.39414,"is_reserved":false,"is_disabled":false,"rental_uris":{"android":"levelo://app?vid=a8bc66e8-c1fd-41ab-803c-e8def4475c43","ios":"levelo://app?vid=a8bc66e8-c1fd-41ab-803c-e8def4475c43"},"vehicle_type_id":"4","last_reported":1747436995,"current_range_meters":16000,"station_id":"ce4bhh12rcd13ifvqfg0","pricing_plan_id":"cebpf4jnsgd1na2vs0mg"},{"bike_id":"c96873c1-07ae-4fa5-9d39-77223fea8e8c","system_id":"levelo_inurba_marseille","lat":43.24068,"lon":5.37753,"is_reserved":false,"is_disabled":false,"rental_uris":{"android":"levelo://app?vid=c96873c1-07ae-4fa5-9d39-77223fea8e8c","ios":"levelo://app?vid=c96873c1-07ae-4fa5-9d39-77223fea8e8c"},"vehicle_type_id":"4","last_reported":1747436995,"current_range_meters":16000,"station_id":"ce4bhnp2rcd13ifvqgvg","pricing_plan_id":"cebpf4jnsgd1na2vs0mg"},{"bike_id":"b8e6468b-87db-4ff6-8122-ef13bf5b7c8c","system_id":"levelo_inurba_marseille","lat":43.306091,"lon":5.372397,"is_reserved":false,"is_disabled":false,"rental_uris":{"android":"levelo://app?vid=b8e6468b-87db-4ff6-8122-ef13bf5b7c8c","ios":"levelo://app?vid=b8e6468b-87db-4ff6-8122-ef13bf5b7c8c"},"vehicle_type_id":"4","last_reported":1747436995,"current_range_meters":16400,"station_id":"ce4bgqh2rcd13ifvqc4g","pricing_plan_id":"cebpf4jnsgd1na2vs0mg"},{"bike_id":"7c8d35e7-9d1b-4a08-bc78-84a12855942a","system_id":"levelo_inurba_marseille","lat":43.2841,"lon":5.37533,"is_reserved":false,"is_disabled":false,"rental_uris":{"android":"levelo://app?vid=7c8d35e7-9d1b-4a08-bc78-84a12855942a","ios":"levelo://app?vid=7c8d35e7-9d1b-4a08-bc78-84a12855942a"},"vehicle_type_id":"4","last_reported":1747436995,"current_range_meters":16400,"station_id":"ce4bh412rcd13ifvqds0","pricing_plan_id":"cebpf4jnsgd1na2vs0mg"},{"bike_id":"ff73f50f-d4f6-452f-b8c5-c3e016c11039","system_id":"levelo_inurba_marseille","lat":43.265748,"lon":5.390073,"is_reserved":false,"is_disabled":false,"rental_uris":{"android":"levelo://app?vid=ff73f50f-d4f6-452f-b8c5-c3e016c11039","ios":"levelo://app?vid=ff73f50f-d4f6-452f-b8c5-c3e016c11039"},"vehicle_type_id":"4","last_reported":1747436995,"current_range_meters":16400,"station_id":"ce4bhe12rcd13ifvqf30","pricing_plan_id":"cebpf4jnsgd1na2vs0mg"},{"bike_id":"0f8a2e98-c290-4d12-8506-ca420a043e1a","system_id":"levelo_inurba_marseille","lat":43.24073,"lon":5.37762,"is_reserved":false,"is_disabled":false,"rental_uris":{"android":"levelo://app?vid=0f8a2e98-c290-4d12-8506-ca420a043e1a","ios":"levelo://app?vid=0f8a2e98-c290-4d12-8506-ca420a043e1a"},"vehicle_type_id":"4","last_reported":1747436995,"current_range_meters":16400,"station_id":"ce4bhnp2rcd13ifvqgvg","pricing_plan_id":"cebpf4jnsgd1na2vs0mg"},{"bike_id":"6fe716ec-3e66-40a0-90cd-a86ee2fdef59","system_id":"levelo_inurba_marseille","lat":43.321108,"lon":5.36766,"is_reserved":false,"is_disabled":false,"rental_uris":{"android":"levelo://app?vid=6fe716ec-3e66-40a0-90cd-a86ee2fdef59","ios":"levelo://app?vid=6fe716ec-3e66-40a0-90cd-a86ee2fdef59"},"vehicle_type_id":"4","last_reported":1747436995,"current_range_meters":16400,"station_id":"ce4bhrh2rcd13ifvqhug","pricing_plan_id":"cebpf4jnsgd1na2vs0mg"},{"bike_id":"c10184a0-7467-4592-952f-14b5c01dfbb9","system_id":"levelo_inurba_marseille","lat":43.314418,"lon":5.368695,"is_reserved":false,"is_disabled":false,"rental_uris":{"android":"levelo://app?vid=c10184a0-7467-4592-952f-14b5c01dfbb9","ios":"levelo://app?vid=c10184a0-7467-4592-952f-14b5c01dfbb9"},"vehicle_type_id":"4","last_reported":1747436995,"current_range_meters":16800,"station_id":"","pricing_plan_id":"cebpf4jnsgd1na2vs0mg"},{"bike_id":"d9b504ee-8007-4760-a4a1-f54f52b040ce","system_id":"levelo_inurba_marseille","lat":43.3028,"lon":5.37289,"is_reserved":false,"is_disabled":false,"rental_uris":{"android":"levelo://app?vid=d9b504ee-8007-4760-a4a1-f54f52b040ce","ios":"levelo://app?vid=d9b504ee-8007-4760-a4a1-f54f52b040ce"},"vehicle_type_id":"4","last_reported":1747436995,"current_range_meters":16800,"station_id":"","pricing_plan_id":"cebpf4jnsgd1na2vs0mg"},{"bike_id":"67b00094-886a-431d-9eb8-6e2bba58dcc0","system_id":"levelo_inurba_marseille","lat":43.30539,"lon":5.38428,"is_reserved":false,"is_disabled":false,"rental_uris":{"android":"levelo://app?vid=67b00094-886a-431d-9eb8-6e2bba58dcc0","ios":"levelo://app?vid=67b00094-886a-431d-9eb8-6e2bba58dcc0"},"vehicle_type_id":"4","last_reported":1747436995,"current_range_meters":16800,"station_id":"ce4bgg92rcd13ifvqb30","pricing_plan_id":"cebpf4jnsgd1na2vs0mg"},{"bike_id":"5acf340b-6759-408a-bc95-c1ff6941a68b","system_id":"levelo_inurba_marseille","lat":43.30929,"lon":5.40136,"is_reserved":false,"is_disabled":false,"rental_uris":{"android":"levelo://app?vid=5acf340b-6759-408a-bc95-c1ff6941a68b","ios":"levelo://app?vid=5acf340b-6759-408a-bc95-c1ff6941a68b"},"vehicle_type_id":"4","last_reported":1747436995,"current_range_meters":16800,"station_id":"ce4bgvp2rcd13ifvqct0","pricing_plan_id":"cebpf4jnsgd1na2vs0mg"},{"bike_id":"89a181da-cf58-4e01-8d31-9d0050f4aa81","system_id":"levelo_inurba_marseille","lat":43.28937,"lon":5.39631,"is_reserved":false,"is_disabled":false,"rental_uris":{"android":"levelo://app?vid=89a181da-cf58-4e01-8d31-9d0050f4aa81","ios":"levelo://app?vid=89a181da-cf58-4e01-8d31-9d0050f4aa81"},"vehicle_type_id":"4","last_reported":1747436995,"current_range_meters":16800,"station_id":"ce4bh3h2rcd13ifvqdn0","pricing_plan_id":"cebpf4jnsgd1na2vs0mg"},{"bike_id":"a2192772-bb68-4f45-8d35-03c690a0ee7a","system_id":"levelo_inurba_marseille","lat":43.27071,"lon":5.42281,"is_reserved":false,"is_disabled":false,"rental_uris":{"android":"levelo://app?vid=a2192772-bb68-4f45-8d35-03c690a0ee7a","ios":"levelo://app?vid=a2192772-bb68-4f45-8d35-03c690a0ee7a"},"vehicle_type_id":"4","last_reported":1747436995,"current_range_meters":16800,"station_id":"ce4bhk92rcd13ifvqgb0","pricing_plan_id":"cebpf4jnsgd1na2vs0mg"},{"bike_id":"194f17c8-93f0-4ff7-9d7b-60238225a3ec","system_id":"levelo_inurba_marseille","lat":43.26173,"lon":5.42073,"is_reserved":false,"is_disabled":false,"rental_uris":{"android":"levelo://app?vid=194f17c8-93f0-4ff7-9d7b-60238225a3ec","ios":"levelo://app?vid=194f17c8-93f0-4ff7-9d7b-60238225a3ec"},"vehicle_type_id":"4","last_reported":1747436995,"current_range_meters":17200,"station_id":"","pricing_plan_id":"cebpf4jnsgd1na2vs0mg"},{"bike_id":"a70005ac-0a15-4886-8a0b-5c42247a7114","system_id":"levelo_inurba_marseille","lat":43.308,"lon":5.3814,"is_reserved":false,"is_disabled":false,"rental_uris":{"android":"levelo://app?vid=a70005ac-0a15-4886-8a0b-5c42247a7114","ios":"levelo://app?vid=a70005ac-0a15-4886-8a0b-5c42247a7114"},"vehicle_type_id":"4","last_reported":1747436995,"current_range_meters":17200,"station_id":"ce4bgt12rcd13ifvqce0","pricing_plan_id":"cebpf4jnsgd1na2vs0mg"},{"bike_id":"a374d103-bcfd-4b5c-8984-8439fee50d64","system_id":"levelo_inurba_marseille","lat":43.27377,"lon":5.36258,"is_reserved":false,"is_disabled":false,"rental_uris":{"android":"levelo://app?vid=a374d103-bcfd-4b5c-8984-8439fee50d64","ios":"levelo://app?vid=a374d103-bcfd-4b5c-8984-8439fee50d64"},"vehicle_type_id":"4","last_reported":1747436995,"current_range_meters":17200,"station_id":"ce4bhbh2rcd13ifvqeo0","pricing_plan_id":"cebpf4jnsgd1na2vs0mg"},{"bike_id":"c721b5a3-2e8c-48be-86db-c2b48bfbe8c0","system_id":"levelo_inurba_marseille","lat":43.23193,"lon":5.39981,"is_reserved":false,"is_disabled":false,"rental_uris":{"android":"levelo://app?vid=c721b5a3-2e8c-48be-86db-c2b48bfbe8c0","ios":"levelo://app?vid=c721b5a3-2e8c-48be-86db-c2b48bfbe8c0"},"vehicle_type_id":"4","last_reported":1747436995,"current_range_meters":17200,"station_id":"ce4bhn12rcd13ifvqgqg","pricing_plan_id":"cebpf4jnsgd1na2vs0mg"},{"bike_id":"3f1f80f2-74b8-4b50-8e33-883290c5e268","system_id":"levelo_inurba_marseille","lat":43.231765,"lon":5.399849,"is_reserved":false,"is_disabled":false,"rental_uris":{"android":"levelo://app?vid=3f1f80f2-74b8-4b50-8e33-883290c5e268","ios":"levelo://app?vid=3f1f80f2-74b8-4b50-8e33-883290c5e268"},"vehicle_type_id":"4","last_reported":1747436995,"current_range_meters":17200,"station_id":"ce4bhn12rcd13ifvqgqg","pricing_plan_id":"cebpf4jnsgd1na2vs0mg"},{"bike_id":"8f600fbf-ec68-4624-9822-6cce2bd50be5","system_id":"levelo_inurba_marseille","lat":43.325314,"lon":5.428364,"is_reserved":false,"is_disabled":false,"rental_uris":{"android":"levelo://app?vid=8f600fbf-ec68-4624-9822-6cce2bd50be5","ios":"levelo://app?vid=8f600fbf-ec68-4624-9822-6cce2bd50be5"},"vehicle_type_id":"4","last_reported":1747436995,"current_range_meters":17600,"station_id":"","pricing_plan_id":"cebpf4jnsgd1na2vs0mg"},{"bike_id":"512db903-9559-40c7-8902-6a98e3c8c53c","system_id":"levelo_inurba_marseille","lat":43.32928,"lon":5.38987,"is_reserved":false,"is_disabled":false,"rental_uris":{"android":"levelo://app?vid=512db903-9559-40c7-8902-6a98e3c8c53c","ios":"levelo://app?vid=512db903-9559-40c7-8902-6a98e3c8c53c"},"vehicle_type_id":"4","last_reported":1747436995,"current_range_meters":17600,"station_id":"","pricing_plan_id":"cebpf4jnsgd1na2vs0mg"},{"bike_id":"6329a58b-8710-4203-87ea-f28ed4d467c7","system_id":"levelo_inurba_marseille","lat":43.299787,"lon":5.384992,"is_reserved":false,"is_disabled":false,"rental_uris":{"android":"levelo://app?vid=6329a58b-8710-4203-87ea-f28ed4d467c7","ios":"levelo://app?vid=6329a58b-8710-4203-87ea-f28ed4d467c7"},"vehicle_type_id":"4","last_reported":1747436995,"current_range_meters":17600,"station_id":"ce4bgj92rcd13ifvqbd0","pricing_plan_id":"cebpf4jnsgd1na2vs0mg"},{"bike_id":"6a232314-5021-4775-9bcd-999efbac5a48","system_id":"levelo_inurba_marseille","lat":43.307937,"lon":5.381488,"is_reserved":false,"is_disabled":false,"rental_uris":{"android":"levelo://app?vid=6a232314-5021-4775-9bcd-999efbac5a48","ios":"levelo://app?vid=6a232314-5021-4775-9bcd-999efbac5a48"},"vehicle_type_id":"4","last_reported":1747436995,"current_range_meters":17600,"station_id":"ce4bgt12rcd13ifvqce0","pricing_plan_id":"cebpf4jnsgd1na2vs0mg"},{"bike_id":"86c832c5-9a03-4a84-82ff-03a412f37003","system_id":"levelo_inurba_marseille","lat":43.30299,"lon":5.40434,"is_reserved":false,"is_disabled":false,"rental_uris":{"android":"levelo://app?vid=86c832c5-9a03-4a84-82ff-03a412f37003","ios":"levelo://app?vid=86c832c5-9a03-4a84-82ff-03a412f37003"},"vehicle_type_id":"4","last_reported":1747436995,"current_range_meters":17600,"station_id":"ce4bh012rcd13ifvqd10","pricing_plan_id":"cebpf4jnsgd1na2vs0mg"},{"bike_id":"067bca96-6705-47ed-8ae6-7d8747768adc","system_id":"levelo_inurba_marseille","lat":43.28481,"lon":5.38421,"is_reserved":false,"is_disabled":false,"rental_uris":{"android":"levelo://app?vid=067bca96-6705-47ed-8ae6-7d8747768adc","ios":"levelo://app?vid=067bca96-6705-47ed-8ae6-7d8747768adc"},"vehicle_type_id":"4","last_reported":1747436995,"current_range_meters":17600,"station_id":"ce4bh512rcd13ifvqe3g","pricing_plan_id":"cebpf4jnsgd1na2vs0mg"},{"bike_id":"75bd9022-9f87-4926-95a9-dac52e53c545","system_id":"levelo_inurba_marseille","lat":43.28469,"lon":5.38393,"is_reserved":false,"is_disabled":false,"rental_uris":{"android":"levelo://app?vid=75bd9022-9f87-4926-95a9-dac52e53c545","ios":"levelo://app?vid=75bd9022-9f87-4926-95a9-dac52e53c545"},"vehicle_type_id":"4","last_reported":1747436995,"current_range_meters":17600,"station_id":"ce4bh512rcd13ifvqe3g","pricing_plan_id":"cebpf4jnsgd1na2vs0mg"},{"bike_id":"465ca380-6a0b-4a53-aac8-6d66ff8ad361","system_id":"levelo_inurba_marseille","lat":43.27917,"lon":5.39581,"is_reserved":false,"is_disabled":false,"rental_uris":{"android":"levelo://app?vid=465ca380-6a0b-4a53-aac8-6d66ff8ad361","ios":"levelo://app?vid=465ca380-6a0b-4a53-aac8-6d66ff8ad361"},"vehicle_type_id":"4","last_reported":1747436995,"current_range_meters":17600,"station_id":"ce4bhf92rcd13ifvqf40","pricing_plan_id":"cebpf4jnsgd1na2vs0mg"},{"bike_id":"35b63b59-2aa3-4698-b2d6-fe9115e9b103","system_id":"levelo_inurba_marseille","lat":43.24996,"lon":5.38933,"is_reserved":false,"is_disabled":false,"rental_uris":{"android":"levelo://app?vid=35b63b59-2aa3-4698-b2d6-fe9115e9b103","ios":"levelo://app?vid=35b63b59-2aa3-4698-b2d6-fe9115e9b103"},"vehicle_type_id":"4","last_reported":1747436995,"current_range_meters":17600,"station_id":"ce4bhgp2rcd13ifvqfd0","pricing_plan_id":"cebpf4jnsgd1na2vs0mg"},{"bike_id":"e3f7c77e-c417-4c26-8074-4dc1b56b6d5c","system_id":"levelo_inurba_marseille","lat":43.2721,"lon":5.39178,"is_reserved":false,"is_disabled":false,"rental_uris":{"android":"levelo://app?vid=e3f7c77e-c417-4c26-8074-4dc1b56b6d5c","ios":"levelo://app?vid=e3f7c77e-c417-4c26-8074-4dc1b56b6d5c"},"vehicle_type_id":"4","last_reported":1747436995,"current_range_meters":17600,"station_id":"ce4bhhp2rcd13ifvqfm0","pricing_plan_id":"cebpf4jnsgd1na2vs0mg"},{"bike_id":"aafe78a6-692c-4e55-8bb8-4da8ee7b3518","system_id":"levelo_inurba_marseille","lat":43.28703,"lon":5.39961,"is_reserved":false,"is_disabled":false,"rental_uris":{"android":"levelo://app?vid=aafe78a6-692c-4e55-8bb8-4da8ee7b3518","ios":"levelo://app?vid=aafe78a6-692c-4e55-8bb8-4da8ee7b3518"},"vehicle_type_id":"4","last_reported":1747436995,"current_range_meters":17600,"station_id":"ce4bho92rcd13ifvqh3g","pricing_plan_id":"cebpf4jnsgd1na2vs0mg"},{"bike_id":"5ac1061c-4318-41ed-a1d3-de7eaee4b73f","system_id":"levelo_inurba_marseille","lat":43.31887,"lon":5.40727,"is_reserved":false,"is_disabled":false,"rental_uris":{"android":"levelo://app?vid=5ac1061c-4318-41ed-a1d3-de7eaee4b73f","ios":"levelo://app?vid=5ac1061c-4318-41ed-a1d3-de7eaee4b73f"},"vehicle_type_id":"4","last_reported":1747436995,"current_range_meters":17600,"station_id":"ce4bhq12rcd13ifvqhig","pricing_plan_id":"cebpf4jnsgd1na2vs0mg"},{"bike_id":"43896152-0da0-44f5-82ac-50c8d1157d2f","system_id":"levelo_inurba_marseille","lat":43.30541,"lon":5.38428,"is_reserved":false,"is_disabled":false,"rental_uris":{"android":"levelo://app?vid=43896152-0da0-44f5-82ac-50c8d1157d2f","ios":"levelo://app?vid=43896152-0da0-44f5-82ac-50c8d1157d2f"},"vehicle_type_id":"4","last_reported":1747436995,"current_range_meters":18000,"station_id":"ce4bgg92rcd13ifvqb30","pricing_plan_id":"cebpf4jnsgd1na2vs0mg"},{"bike_id":"712f1c4d-f153-4002-ad59-f4eda49ba117","system_id":"levelo_inurba_marseille","lat":43.23187,"lon":5.39987,"is_reserved":false,"is_disabled":false,"rental_uris":{"android":"levelo://app?vid=712f1c4d-f153-4002-ad59-f4eda49ba117","ios":"levelo://app?vid=712f1c4d-f153-4002-ad59-f4eda49ba117"},"vehicle_type_id":"4","last_reported":1747436995,"current_range_meters":18000,"station_id":"ce4bhn12rcd13ifvqgqg","pricing_plan_id":"cebpf4jnsgd1na2vs0mg"},{"bike_id":"6959522a-bd59-4233-a378-b798da685450","system_id":"levelo_inurba_marseille","lat":43.241695,"lon":5.363835,"is_reserved":false,"is_disabled":false,"rental_uris":{"android":"levelo://app?vid=6959522a-bd59-4233-a378-b798da685450","ios":"levelo://app?vid=6959522a-bd59-4233-a378-b798da685450"},"vehicle_type_id":"4","last_reported":1747436995,"current_range_meters":18000,"station_id":"cpo36qri1sfpv3e86is0","pricing_plan_id":"cebpf4jnsgd1na2vs0mg"},{"bike_id":"eeba79b8-1813-484e-b68c-4c7a8dea3f27","system_id":"levelo_inurba_marseille","lat":43.30006,"lon":5.37215,"is_reserved":false,"is_disabled":false,"rental_uris":{"android":"levelo://app?vid=eeba79b8-1813-484e-b68c-4c7a8dea3f27","ios":"levelo://app?vid=eeba79b8-1813-484e-b68c-4c7a8dea3f27"},"vehicle_type_id":"4","last_reported":1747436995,"current_range_meters":18800,"station_id":"ce4bgr92rcd13ifvqc7g","pricing_plan_id":"cebpf4jnsgd1na2vs0mg"},{"bike_id":"3a49fb96-1d0c-4469-9683-5397ce9e2b1d","system_id":"levelo_inurba_marseille","lat":43.3081,"lon":5.38165,"is_reserved":false,"is_disabled":false,"rental_uris":{"android":"levelo://app?vid=3a49fb96-1d0c-4469-9683-5397ce9e2b1d","ios":"levelo://app?vid=3a49fb96-1d0c-4469-9683-5397ce9e2b1d"},"vehicle_type_id":"4","last_reported":1747436995,"current_range_meters":18800,"station_id":"ce4bgt12rcd13ifvqce0","pricing_plan_id":"cebpf4jnsgd1na2vs0mg"},{"bike_id":"ffacb92f-e7c4-4fb2-af44-92ebc0f906c1","system_id":"levelo_inurba_marseille","lat":43.30887,"lon":5.39633,"is_reserved":false,"is_disabled":false,"rental_uris":{"android":"levelo://app?vid=ffacb92f-e7c4-4fb2-af44-92ebc0f906c1","ios":"levelo://app?vid=ffacb92f-e7c4-4fb2-af44-92ebc0f906c1"},"vehicle_type_id":"4","last_reported":1747436995,"current_range_meters":18800,"station_id":"ce4bh012rcd13ifvqcv0","pricing_plan_id":"cebpf4jnsgd1na2vs0mg"},{"bike_id":"386c7031-2256-424f-8cc5-7a04f4b822a9","system_id":"levelo_inurba_marseille","lat":43.27811,"lon":5.40715,"is_reserved":false,"is_disabled":false,"rental_uris":{"android":"levelo://app?vid=386c7031-2256-424f-8cc5-7a04f4b822a9","ios":"levelo://app?vid=386c7031-2256-424f-8cc5-7a04f4b822a9"},"vehicle_type_id":"4","last_reported":1747436995,"current_range_meters":18800,"station_id":"ce4bhnh2rcd13ifvqgtg","pricing_plan_id":"cebpf4jnsgd1na2vs0mg"},{"bike_id":"b26a0dd7-cbdc-4ab7-8def-31c4b88b224a","system_id":"levelo_inurba_marseille","lat":43.312162,"lon":5.392528,"is_reserved":false,"is_disabled":false,"rental_uris":{"android":"levelo://app?vid=b26a0dd7-cbdc-4ab7-8def-31c4b88b224a","ios":"levelo://app?vid=b26a0dd7-cbdc-4ab7-8def-31c4b88b224a"},"vehicle_type_id":"4","last_reported":1747436995,"current_range_meters":19200,"station_id":"","pricing_plan_id":"cebpf4jnsgd1na2vs0mg"},{"bike_id":"4f12897c-2286-4ff6-8b08-c0a318ab8550","system_id":"levelo_inurba_marseille","lat":43.31356,"lon":5.38489,"is_reserved":false,"is_disabled":false,"rental_uris":{"android":"levelo://app?vid=4f12897c-2286-4ff6-8b08-c0a318ab8550","ios":"levelo://app?vid=4f12897c-2286-4ff6-8b08-c0a318ab8550"},"vehicle_type_id":"4","last_reported":1747436995,"current_range_meters":19200,"station_id":"ce4bgt92rcd13ifvqcf0","pricing_plan_id":"cebpf4jnsgd1na2vs0mg"},{"bike_id":"4066fdf3-46a2-423f-b67c-f7ea3f7a68df","system_id":"levelo_inurba_marseille","lat":43.29187,"lon":5.39324,"is_reserved":false,"is_disabled":false,"rental_uris":{"android":"levelo://app?vid=4066fdf3-46a2-423f-b67c-f7ea3f7a68df","ios":"levelo://app?vid=4066fdf3-46a2-423f-b67c-f7ea3f7a68df"},"vehicle_type_id":"4","last_reported":1747436995,"current_range_meters":19200,"station_id":"ce4bh192rcd13ifvqdd0","pricing_plan_id":"cebpf4jnsgd1na2vs0mg"},{"bike_id":"f23c03c4-aed8-4944-8056-7d8af96ab709","system_id":"levelo_inurba_marseille","lat":43.28728,"lon":5.37948,"is_reserved":false,"is_disabled":false,"rental_uris":{"android":"levelo://app?vid=f23c03c4-aed8-4944-8056-7d8af96ab709","ios":"levelo://app?vid=f23c03c4-aed8-4944-8056-7d8af96ab709"},"vehicle_type_id":"4","last_reported":1747436995,"current_range_meters":19200,"station_id":"ce4bh9p2rcd13ifvqec0","pricing_plan_id":"cebpf4jnsgd1na2vs0mg"},{"bike_id":"89052c1b-e95c-422c-8ad1-9f017da0c226","system_id":"levelo_inurba_marseille","lat":43.28668,"lon":5.36337,"is_reserved":false,"is_disabled":false,"rental_uris":{"android":"levelo://app?vid=89052c1b-e95c-422c-8ad1-9f017da0c226","ios":"levelo://app?vid=89052c1b-e95c-422c-8ad1-9f017da0c226"},"vehicle_type_id":"4","last_reported":1747436995,"current_range_meters":19200,"station_id":"ce4bhah2rcd13ifvqej0","pricing_plan_id":"cebpf4jnsgd1na2vs0mg"},{"bike_id":"cbf5a926-a14e-49e1-ac53-9e81acb40398","system_id":"levelo_inurba_marseille","lat":43.248111,"lon":5.374581,"is_reserved":false,"is_disabled":false,"rental_uris":{"android":"levelo://app?vid=cbf5a926-a14e-49e1-ac53-9e81acb40398","ios":"levelo://app?vid=cbf5a926-a14e-49e1-ac53-9e81acb40398"},"vehicle_type_id":"4","last_reported":1747436995,"current_range_meters":19200,"station_id":"ce4bhgh2rcd13ifvqfb0","pricing_plan_id":"cebpf4jnsgd1na2vs0mg"},{"bike_id":"770e5e16-de24-4200-8062-b84849f44714","system_id":"levelo_inurba_marseille","lat":43.2708,"lon":5.42299,"is_reserved":false,"is_disabled":false,"rental_uris":{"android":"levelo://app?vid=770e5e16-de24-4200-8062-b84849f44714","ios":"levelo://app?vid=770e5e16-de24-4200-8062-b84849f44714"},"vehicle_type_id":"4","last_reported":1747436995,"current_range_meters":19200,"station_id":"ce4bhk92rcd13ifvqgb0","pricing_plan_id":"cebpf4jnsgd1na2vs0mg"},{"bike_id":"6cb55c6a-3061-4444-a142-bd775762e933","system_id":"levelo_inurba_marseille","lat":43.24069,"lon":5.37765,"is_reserved":false,"is_disabled":false,"rental_uris":{"android":"levelo://app?vid=6cb55c6a-3061-4444-a142-bd775762e933","ios":"levelo://app?vid=6cb55c6a-3061-4444-a142-bd775762e933"},"vehicle_type_id":"4","last_reported":1747436995,"current_range_meters":19200,"station_id":"ce4bhnp2rcd13ifvqgvg","pricing_plan_id":"cebpf4jnsgd1na2vs0mg"},{"bike_id":"0686446c-29e6-4b35-8de0-d8a954e6484d","system_id":"levelo_inurba_marseille","lat":43.320427,"lon":5.371889,"is_reserved":false,"is_disabled":false,"rental_uris":{"android":"levelo://app?vid=0686446c-29e6-4b35-8de0-d8a954e6484d","ios":"levelo://app?vid=0686446c-29e6-4b35-8de0-d8a954e6484d"},"vehicle_type_id":"4","last_reported":1747436995,"current_range_meters":19600,"station_id":"","pricing_plan_id":"cebpf4jnsgd1na2vs0mg"},{"bike_id":"30fb0418-2587-40f6-8bd7-c829579e7d5a","system_id":"levelo_inurba_marseille","lat":43.30441,"lon":5.38883,"is_reserved":false,"is_disabled":false,"rental_uris":{"android":"levelo://app?vid=30fb0418-2587-40f6-8bd7-c829579e7d5a","ios":"levelo://app?vid=30fb0418-2587-40f6-8bd7-c829579e7d5a"},"vehicle_type_id":"4","last_reported":1747436995,"current_range_meters":19600,"station_id":"ce4bgk12rcd13ifvqbi0","pricing_plan_id":"cebpf4jnsgd1na2vs0mg"},{"bike_id":"69c27f8d-2b61-45af-b736-4f242e3299a2","system_id":"levelo_inurba_marseille","lat":43.312227,"lon":5.36862,"is_reserved":false,"is_disabled":false,"rental_uris":{"android":"levelo://app?vid=69c27f8d-2b61-45af-b736-4f242e3299a2","ios":"levelo://app?vid=69c27f8d-2b61-45af-b736-4f242e3299a2"},"vehicle_type_id":"4","last_reported":1747436995,"current_range_meters":19600,"station_id":"ce4bgl92rcd13ifvqbq0","pricing_plan_id":"cebpf4jnsgd1na2vs0mg"},{"bike_id":"f30a9611-cada-44fd-b78d-eb49cd053e3f","system_id":"levelo_inurba_marseille","lat":43.309857,"lon":5.398794,"is_reserved":false,"is_disabled":false,"rental_uris":{"android":"levelo://app?vid=f30a9611-cada-44fd-b78d-eb49cd053e3f","ios":"levelo://app?vid=f30a9611-cada-44fd-b78d-eb49cd053e3f"},"vehicle_type_id":"4","last_reported":1747436995,"current_range_meters":19600,"station_id":"ce4bh012rcd13ifvqd00","pricing_plan_id":"cebpf4jnsgd1na2vs0mg"},{"bike_id":"9e0ea32e-120a-41fc-9bc5-9eb8cf559b41","system_id":"levelo_inurba_marseille","lat":43.30127,"lon":5.398617,"is_reserved":false,"is_disabled":false,"rental_uris":{"android":"levelo://app?vid=9e0ea32e-120a-41fc-9bc5-9eb8cf559b41","ios":"levelo://app?vid=9e0ea32e-120a-41fc-9bc5-9eb8cf559b41"},"vehicle_type_id":"4","last_reported":1747436995,"current_range_meters":19600,"station_id":"ce4bh0h2rcd13ifvqd40","pricing_plan_id":"cebpf4jnsgd1na2vs0mg"},{"bike_id":"a6384e5e-9153-42fd-90e4-39fb7517fb4f","system_id":"levelo_inurba_marseille","lat":43.2858,"lon":5.395,"is_reserved":false,"is_disabled":false,"rental_uris":{"android":"levelo://app?vid=a6384e5e-9153-42fd-90e4-39fb7517fb4f","ios":"levelo://app?vid=a6384e5e-9153-42fd-90e4-39fb7517fb4f"},"vehicle_type_id":"4","last_reported":1747436995,"current_range_meters":19600,"station_id":"ce4bh292rcd13ifvqdg0","pricing_plan_id":"cebpf4jnsgd1na2vs0mg"},{"bike_id":"2df91c1e-bae9-4f77-8ed6-a464e92c0f2d","system_id":"levelo_inurba_marseille","lat":43.284407,"lon":5.392118,"is_reserved":false,"is_disabled":false,"rental_uris":{"android":"levelo://app?vid=2df91c1e-bae9-4f77-8ed6-a464e92c0f2d","ios":"levelo://app?vid=2df91c1e-bae9-4f77-8ed6-a464e92c0f2d"},"vehicle_type_id":"4","last_reported":1747436995,"current_range_meters":19600,"station_id":"ce4bhoh2rcd13ifvqh5g","pricing_plan_id":"cebpf4jnsgd1na2vs0mg"},{"bike_id":"b071020f-c99f-46ed-97ba-db34ed9f69b9","system_id":"levelo_inurba_marseille","lat":43.32995,"lon":5.43853,"is_reserved":false,"is_disabled":false,"rental_uris":{"android":"levelo://app?vid=b071020f-c99f-46ed-97ba-db34ed9f69b9","ios":"levelo://app?vid=b071020f-c99f-46ed-97ba-db34ed9f69b9"},"vehicle_type_id":"4","last_reported":1747436995,"current_range_meters":20000,"station_id":"","pricing_plan_id":"cebpf4jnsgd1na2vs0mg"},{"bike_id":"2bc05503-3ae8-4d3d-bf7f-768cd28b5222","system_id":"levelo_inurba_marseille","lat":43.29828,"lon":5.36267,"is_reserved":false,"is_disabled":false,"rental_uris":{"android":"levelo://app?vid=2bc05503-3ae8-4d3d-bf7f-768cd28b5222","ios":"levelo://app?vid=2bc05503-3ae8-4d3d-bf7f-768cd28b5222"},"vehicle_type_id":"4","last_reported":1747436995,"current_range_meters":20000,"station_id":"ce4bgpp2rcd13ifvqc3g","pricing_plan_id":"cebpf4jnsgd1na2vs0mg"},{"bike_id":"5b22c96d-1b61-436e-a53c-3fef0e6c3965","system_id":"levelo_inurba_marseille","lat":43.3092,"lon":5.40143,"is_reserved":false,"is_disabled":false,"rental_uris":{"android":"levelo://app?vid=5b22c96d-1b61-436e-a53c-3fef0e6c3965","ios":"levelo://app?vid=5b22c96d-1b61-436e-a53c-3fef0e6c3965"},"vehicle_type_id":"4","last_reported":1747436995,"current_range_meters":20000,"station_id":"ce4bgvp2rcd13ifvqct0","pricing_plan_id":"cebpf4jnsgd1na2vs0mg"},{"bike_id":"d199364e-35af-4b3a-a007-99d1c3c37fdc","system_id":"levelo_inurba_marseille","lat":43.29869,"lon":5.39739,"is_reserved":false,"is_disabled":false,"rental_uris":{"android":"levelo://app?vid=d199364e-35af-4b3a-a007-99d1c3c37fdc","ios":"levelo://app?vid=d199364e-35af-4b3a-a007-99d1c3c37fdc"},"vehicle_type_id":"4","last_reported":1747436995,"current_range_meters":20000,"station_id":"ce4bh0h2rcd13ifvqd50","pricing_plan_id":"cebpf4jnsgd1na2vs0mg"},{"bike_id":"6cc6e4c8-8c85-4b94-86d2-be3d819c5558","system_id":"levelo_inurba_marseille","lat":43.29262,"lon":5.40914,"is_reserved":false,"is_disabled":false,"rental_uris":{"android":"levelo://app?vid=6cc6e4c8-8c85-4b94-86d2-be3d819c5558","ios":"levelo://app?vid=6cc6e4c8-8c85-4b94-86d2-be3d819c5558"},"vehicle_type_id":"4","last_reported":1747436995,"current_range_meters":20000,"station_id":"ce4bh192rcd13ifvqdc0","pricing_plan_id":"cebpf4jnsgd1na2vs0mg"},{"bike_id":"0f83cc98-af73-46f0-89c1-2dc91177d168","system_id":"levelo_inurba_marseille","lat":43.29521,"lon":5.39395,"is_reserved":false,"is_disabled":false,"rental_uris":{"android":"levelo://app?vid=0f83cc98-af73-46f0-89c1-2dc91177d168","ios":"levelo://app?vid=0f83cc98-af73-46f0-89c1-2dc91177d168"},"vehicle_type_id":"4","last_reported":1747436995,"current_range_meters":20000,"station_id":"ce4bh292rcd13ifvqdf0","pricing_plan_id":"cebpf4jnsgd1na2vs0mg"},{"bike_id":"45fb3a0f-8435-40d2-8a15-1f48c6563dc8","system_id":"levelo_inurba_marseille","lat":43.29194,"lon":5.35802,"is_reserved":false,"is_disabled":false,"rental_uris":{"android":"levelo://app?vid=45fb3a0f-8435-40d2-8a15-1f48c6563dc8","ios":"levelo://app?vid=45fb3a0f-8435-40d2-8a15-1f48c6563dc8"},"vehicle_type_id":"4","last_reported":1747436995,"current_range_meters":20000,"station_id":"ce4bhb12rcd13ifvqel0","pricing_plan_id":"cebpf4jnsgd1na2vs0mg"},{"bike_id":"1e9197c8-426e-4553-9d33-2496074d4420","system_id":"levelo_inurba_marseille","lat":43.248079,"lon":5.374491,"is_reserved":false,"is_disabled":false,"rental_uris":{"android":"levelo://app?vid=1e9197c8-426e-4553-9d33-2496074d4420","ios":"levelo://app?vid=1e9197c8-426e-4553-9d33-2496074d4420"},"vehicle_type_id":"4","last_reported":1747436995,"current_range_meters":20000,"station_id":"ce4bhgh2rcd13ifvqfb0","pricing_plan_id":"cebpf4jnsgd1na2vs0mg"},{"bike_id":"fcaeefda-0dda-417a-bcc1-0a4dbdcf45c9","system_id":"levelo_inurba_marseille","lat":43.27073,"lon":5.42277,"is_reserved":false,"is_disabled":false,"rental_uris":{"android":"levelo://app?vid=fcaeefda-0dda-417a-bcc1-0a4dbdcf45c9","ios":"levelo://app?vid=fcaeefda-0dda-417a-bcc1-0a4dbdcf45c9"},"vehicle_type_id":"4","last_reported":1747436995,"current_range_meters":20000,"station_id":"ce4bhk92rcd13ifvqgb0","pricing_plan_id":"cebpf4jnsgd1na2vs0mg"},{"bike_id":"8f3e1b73-13b1-41ed-a38e-5ae08ebea216","system_id":"levelo_inurba_marseille","lat":43.25721,"lon":5.41102,"is_reserved":false,"is_disabled":false,"rental_uris":{"android":"levelo://app?vid=8f3e1b73-13b1-41ed-a38e-5ae08ebea216","ios":"levelo://app?vid=8f3e1b73-13b1-41ed-a38e-5ae08ebea216"},"vehicle_type_id":"4","last_reported":1747436995,"current_range_meters":20000,"station_id":"ce4bhkp2rcd13ifvqgd0","pricing_plan_id":"cebpf4jnsgd1na2vs0mg"},{"bike_id":"288f89f4-8eed-4a41-a712-962b892f85ce","system_id":"levelo_inurba_marseille","lat":43.29214,"lon":5.39327,"is_reserved":false,"is_disabled":false,"rental_uris":{"android":"levelo://app?vid=288f89f4-8eed-4a41-a712-962b892f85ce","ios":"levelo://app?vid=288f89f4-8eed-4a41-a712-962b892f85ce"},"vehicle_type_id":"4","last_reported":1747436995,"current_range_meters":20400,"station_id":"ce4bh192rcd13ifvqdd0","pricing_plan_id":"cebpf4jnsgd1na2vs0mg"},{"bike_id":"e1291dda-99b5-4759-85d1-03c344292341","system_id":"levelo_inurba_marseille","lat":43.31765,"lon":5.39039,"is_reserved":false,"is_disabled":false,"rental_uris":{"android":"levelo://app?vid=e1291dda-99b5-4759-85d1-03c344292341","ios":"levelo://app?vid=e1291dda-99b5-4759-85d1-03c344292341"},"vehicle_type_id":"4","last_reported":1747436995,"current_range_meters":20400,"station_id":"ce4bhqp2rcd13ifvqhng","pricing_plan_id":"cebpf4jnsgd1na2vs0mg"},{"bike_id":"4c26f8b7-1960-435f-871f-6204ac47421c","system_id":"levelo_inurba_marseille","lat":43.29972,"lon":5.38528,"is_reserved":false,"is_disabled":false,"rental_uris":{"android":"levelo://app?vid=4c26f8b7-1960-435f-871f-6204ac47421c","ios":"levelo://app?vid=4c26f8b7-1960-435f-871f-6204ac47421c"},"vehicle_type_id":"4","last_reported":1747436995,"current_range_meters":20800,"station_id":"ce4bgj92rcd13ifvqbd0","pricing_plan_id":"cebpf4jnsgd1na2vs0mg"},{"bike_id":"a0ac4423-715a-40c9-bc6f-79593492d236","system_id":"levelo_inurba_marseille","lat":43.313271,"lon":5.396887,"is_reserved":false,"is_disabled":false,"rental_uris":{"android":"levelo://app?vid=a0ac4423-715a-40c9-bc6f-79593492d236","ios":"levelo://app?vid=a0ac4423-715a-40c9-bc6f-79593492d236"},"vehicle_type_id":"4","last_reported":1747436995,"current_range_meters":20800,"station_id":"ce4bgvp2rcd13ifvqcu0","pricing_plan_id":"cebpf4jnsgd1na2vs0mg"},{"bike_id":"3eacf02e-f6f6-4d58-9549-81b9dd836990","system_id":"levelo_inurba_marseille","lat":43.30888,"lon":5.39652,"is_reserved":false,"is_disabled":false,"rental_uris":{"android":"levelo://app?vid=3eacf02e-f6f6-4d58-9549-81b9dd836990","ios":"levelo://app?vid=3eacf02e-f6f6-4d58-9549-81b9dd836990"},"vehicle_type_id":"4","last_reported":1747436995,"current_range_meters":20800,"station_id":"ce4bh012rcd13ifvqcv0","pricing_plan_id":"cebpf4jnsgd1na2vs0mg"},{"bike_id":"90014d97-06db-4bc1-ab3f-97e958703dbb","system_id":"levelo_inurba_marseille","lat":43.3168,"lon":5.40484,"is_reserved":false,"is_disabled":false,"rental_uris":{"android":"levelo://app?vid=90014d97-06db-4bc1-ab3f-97e958703dbb","ios":"levelo://app?vid=90014d97-06db-4bc1-ab3f-97e958703dbb"},"vehicle_type_id":"4","last_reported":1747436995,"current_range_meters":20800,"station_id":"ce4bh012rcd13ifvqd00","pricing_plan_id":"cebpf4jnsgd1na2vs0mg"},{"bike_id":"68c6ce24-2964-4326-8c24-df69ca1a7a5d","system_id":"levelo_inurba_marseille","lat":43.27974,"lon":5.3873,"is_reserved":false,"is_disabled":false,"rental_uris":{"android":"levelo://app?vid=68c6ce24-2964-4326-8c24-df69ca1a7a5d","ios":"levelo://app?vid=68c6ce24-2964-4326-8c24-df69ca1a7a5d"},"vehicle_type_id":"4","last_reported":1747436995,"current_range_meters":20800,"station_id":"ce4bhg12rcd13ifvqf80","pricing_plan_id":"cebpf4jnsgd1na2vs0mg"},{"bike_id":"6b1abcef-f479-494a-8266-ea626fd9ee18","system_id":"levelo_inurba_marseille","lat":43.24658,"lon":5.38159,"is_reserved":false,"is_disabled":false,"rental_uris":{"android":"levelo://app?vid=6b1abcef-f479-494a-8266-ea626fd9ee18","ios":"levelo://app?vid=6b1abcef-f479-494a-8266-ea626fd9ee18"},"vehicle_type_id":"4","last_reported":1747436995,"current_range_meters":20800,"station_id":"ce4bhih2rcd13ifvqfr0","pricing_plan_id":"cebpf4jnsgd1na2vs0mg"},{"bike_id":"392869e9-ed4a-4455-841c-24d69bd07e03","system_id":"levelo_inurba_marseille","lat":43.250903,"lon":5.395157,"is_reserved":false,"is_disabled":false,"rental_uris":{"android":"levelo://app?vid=392869e9-ed4a-4455-841c-24d69bd07e03","ios":"levelo://app?vid=392869e9-ed4a-4455-841c-24d69bd07e03"},"vehicle_type_id":"4","last_reported":1747436995,"current_range_meters":20800,"station_id":"ce4bhm12rcd13ifvqgkg","pricing_plan_id":"cebpf4jnsgd1na2vs0mg"},{"bike_id":"d8cc98e7-d848-49ae-961d-a112acbe6a37","system_id":"levelo_inurba_marseille","lat":43.26228,"lon":5.40452,"is_reserved":false,"is_disabled":false,"rental_uris":{"android":"levelo://app?vid=d8cc98e7-d848-49ae-961d-a112acbe6a37","ios":"levelo://app?vid=d8cc98e7-d848-49ae-961d-a112acbe6a37"},"vehicle_type_id":"4","last_reported":1747436995,"current_range_meters":20800,"station_id":"ce4bhmh2rcd13ifvqgmg","pricing_plan_id":"cebpf4jnsgd1na2vs0mg"},{"bike_id":"56897df8-bf67-489a-b146-24860c15e342","system_id":"levelo_inurba_marseille","lat":43.32085,"lon":5.44076,"is_reserved":false,"is_disabled":false,"rental_uris":{"android":"levelo://app?vid=56897df8-bf67-489a-b146-24860c15e342","ios":"levelo://app?vid=56897df8-bf67-489a-b146-24860c15e342"},"vehicle_type_id":"4","last_reported":1747436995,"current_range_meters":21600,"station_id":"","pricing_plan_id":"cebpf4jnsgd1na2vs0mg"},{"bike_id":"edb0daeb-d049-47ac-94c9-0c4278125b2b","system_id":"levelo_inurba_marseille","lat":43.31075,"lon":5.38353,"is_reserved":false,"is_disabled":false,"rental_uris":{"android":"levelo://app?vid=edb0daeb-d049-47ac-94c9-0c4278125b2b","ios":"levelo://app?vid=edb0daeb-d049-47ac-94c9-0c4278125b2b"},"vehicle_type_id":"4","last_reported":1747436995,"current_range_meters":21600,"station_id":"ce4bgv92rcd13ifvqcr0","pricing_plan_id":"cebpf4jnsgd1na2vs0mg"},{"bike_id":"2fc95a66-3c1b-4097-86c8-a57cc29ed218","system_id":"levelo_inurba_marseille","lat":43.30245,"lon":5.40036,"is_reserved":false,"is_disabled":false,"rental_uris":{"android":"levelo://app?vid=2fc95a66-3c1b-4097-86c8-a57cc29ed218","ios":"levelo://app?vid=2fc95a66-3c1b-4097-86c8-a57cc29ed218"},"vehicle_type_id":"4","last_reported":1747436995,"current_range_meters":21600,"station_id":"ce4bgvh2rcd13ifvqcs0","pricing_plan_id":"cebpf4jnsgd1na2vs0mg"},{"bike_id":"a4156300-0486-419f-8347-9dc0ee8b7106","system_id":"levelo_inurba_marseille","lat":43.309384,"lon":5.40145,"is_reserved":false,"is_disabled":false,"rental_uris":{"android":"levelo://app?vid=a4156300-0486-419f-8347-9dc0ee8b7106","ios":"levelo://app?vid=a4156300-0486-419f-8347-9dc0ee8b7106"},"vehicle_type_id":"4","last_reported":1747436995,"current_range_meters":21600,"station_id":"ce4bgvp2rcd13ifvqct0","pricing_plan_id":"cebpf4jnsgd1na2vs0mg"},{"bike_id":"fb0348d8-5579-4c31-8112-75233ae7088d","system_id":"levelo_inurba_marseille","lat":43.32555,"lon":5.42984,"is_reserved":false,"is_disabled":false,"rental_uris":{"android":"levelo://app?vid=fb0348d8-5579-4c31-8112-75233ae7088d","ios":"levelo://app?vid=fb0348d8-5579-4c31-8112-75233ae7088d"},"vehicle_type_id":"4","last_reported":1747436995,"current_range_meters":22000,"station_id":"","pricing_plan_id":"cebpf4jnsgd1na2vs0mg"},{"bike_id":"5d48371b-6b96-4c68-9312-b692d66827c9","system_id":"levelo_inurba_marseille","lat":43.30928,"lon":5.4013,"is_reserved":false,"is_disabled":false,"rental_uris":{"android":"levelo://app?vid=5d48371b-6b96-4c68-9312-b692d66827c9","ios":"levelo://app?vid=5d48371b-6b96-4c68-9312-b692d66827c9"},"vehicle_type_id":"4","last_reported":1747436995,"current_range_meters":22000,"station_id":"ce4bgvp2rcd13ifvqct0","pricing_plan_id":"cebpf4jnsgd1na2vs0mg"},{"bike_id":"d9484bc6-cded-4892-b91b-62c4ddcf7e0d","system_id":"levelo_inurba_marseille","lat":43.30871,"lon":5.39644,"is_reserved":false,"is_disabled":false,"rental_uris":{"android":"levelo://app?vid=d9484bc6-cded-4892-b91b-62c4ddcf7e0d","ios":"levelo://app?vid=d9484bc6-cded-4892-b91b-62c4ddcf7e0d"},"vehicle_type_id":"4","last_reported":1747436995,"current_range_meters":22000,"station_id":"ce4bh012rcd13ifvqcv0","pricing_plan_id":"cebpf4jnsgd1na2vs0mg"},{"bike_id":"23939faf-d206-4b93-ade4-199417584041","system_id":"levelo_inurba_marseille","lat":43.290065,"lon":5.356345,"is_reserved":false,"is_disabled":false,"rental_uris":{"android":"levelo://app?vid=23939faf-d206-4b93-ade4-199417584041","ios":"levelo://app?vid=23939faf-d206-4b93-ade4-199417584041"},"vehicle_type_id":"4","last_reported":1747436995,"current_range_meters":22800,"station_id":"","pricing_plan_id":"cebpf4jnsgd1na2vs0mg"},{"bike_id":"8ce98679-07ff-4368-b901-86fca7f335b3","system_id":"levelo_inurba_marseille","lat":43.35574,"lon":5.35672,"is_reserved":false,"is_disabled":false,"rental_uris":{"android":"levelo://app?vid=8ce98679-07ff-4368-b901-86fca7f335b3","ios":"levelo://app?vid=8ce98679-07ff-4368-b901-86fca7f335b3"},"vehicle_type_id":"4","last_reported":1747436995,"current_range_meters":22800,"station_id":"","pricing_plan_id":"cebpf4jnsgd1na2vs0mg"},{"bike_id":"86603db7-b462-4e72-8622-a2dee8bb2920","system_id":"levelo_inurba_marseille","lat":43.337444,"lon":5.374475,"is_reserved":false,"is_disabled":false,"rental_uris":{"android":"levelo://app?vid=86603db7-b462-4e72-8622-a2dee8bb2920","ios":"levelo://app?vid=86603db7-b462-4e72-8622-a2dee8bb2920"},"vehicle_type_id":"4","last_reported":1747436995,"current_range_meters":22800,"station_id":"","pricing_plan_id":"cebpf4jnsgd1na2vs0mg"},{"bike_id":"de395387-3719-4338-8762-150bf424eba2","system_id":"levelo_inurba_marseille","lat":43.31038,"lon":5.39368,"is_reserved":false,"is_disabled":false,"rental_uris":{"android":"levelo://app?vid=de395387-3719-4338-8762-150bf424eba2","ios":"levelo://app?vid=de395387-3719-4338-8762-150bf424eba2"},"vehicle_type_id":"4","last_reported":1747436995,"current_range_meters":22800,"station_id":"","pricing_plan_id":"cebpf4jnsgd1na2vs0mg"},{"bike_id":"b4211028-2814-485a-a764-aeb88826c04a","system_id":"levelo_inurba_marseille","lat":43.30787,"lon":5.37658,"is_reserved":false,"is_disabled":false,"rental_uris":{"android":"levelo://app?vid=b4211028-2814-485a-a764-aeb88826c04a","ios":"levelo://app?vid=b4211028-2814-485a-a764-aeb88826c04a"},