{"last_updated":1734703722,"ttl":60,"version":"2.2","data":{"bikes":[{"bike_id":"eb156c91-5c91-4664-a66b-8fb17c1b7811","system_id":"levelo_inurba_marseille","lat":43.2844,"lon":5.39186,"is_reserved":false,"is_disabled":false,"rental_uris":{"android":"levelo://app?vid=eb156c91-5c91-4664-a66b-8fb17c1b7811","ios":"levelo://app?vid=eb156c91-5c91-4664-a66b-8fb17c1b7811"},"vehicle_type_id":"4","last_reported":1734703722,"current_range_meters":36800,"station_id":"ce4bhoh2rcd13ifvqh5g","pricing_plan_id":"cebpf4jnsgd1na2vs0mg"},{"bike_id":"37a1ed14-f19c-4eba-a962-2b78459d63a3","system_id":"levelo_inurba_marseille","lat":43.28931,"lon":5.38416,"is_reserved":false,"is_disabled":false,"rental_uris":{"android":"levelo://app?vid=37a1ed14-f19c-4eba-a962-2b78459d63a3","ios":"levelo://app?vid=37a1ed14-f19c-4eba-a962-2b78459d63a3"},"vehicle_type_id":"4","last_reported":1734703722,"current_range_meters":10000,"station_id":"ce4bh612rcd13ifvqe6g","pricing_plan_id":"cebpf4jnsgd1na2vs0mg"},{"bike_id":"c20c717d-c827-41e6-9454-3f93a777b421","system_id":"levelo_inurba_marseille","lat":43.27831,"lon":5.39216,"is_reserved":false,"is_disabled":true,"rental_uris":{"android":"levelo://app?vid=c20c717d-c827-41e6-9454-3f93a777b421","ios":"levelo://app?vid=c20c717d-c827-41e6-9454-3f93a777b421"},"vehicle_type_id":"4","last_reported":1734703722,"current_range_meters":1600,"station_id":"ce4bhjp2rcd13ifvqga0","pricing_plan_id":"cebpf4jnsgd1na2vs0mg"},{"bike_id":"b8d0e431-551e-42b8-b8f0-e2dfb3ae76df","system_id":"levelo_inurba_marseille","lat":43.27422,"lon":5.39416,"is_reserved":false,"is_disabled":false,"rental_uris":{"android":"levelo://app?vid=b8d0e431-551e-42b8-b8f0-e2dfb3ae76df","ios":"levelo://app?vid=b8d0e431-551e-42b8-b8f0-e2dfb3ae76df"},"vehicle_type_id":"4","last_reported":1734703722,"current_range_meters":36400,"station_id":"ce4bhdp2rcd13ifvqf20","pricing_plan_id":"cebpf4jnsgd1na2vs0mg"},{"bike_id":"0b3c962c-40d1-4375-b60d-644d72aaacf1","system_id":"levelo_inurba_marseille","lat":43.280101,"lon":5.404028,"is_reserved":false,"is_disabled":true,"rental_uris":{"android":"levelo://app?vid=0b3c962c-40d1-4375-b60d-644d72aaacf1","ios":"levelo://app?vid=0b3c962c-40d1-4375-b60d-644d72aaacf1"},"vehicle_type_id":"4","last_reported":1734703722,"current_range_meters":0,"station_id":"","pricing_plan_id":"cebpf4jnsgd1na2vs0mg"},{"bike_id":"bb8a7f7b-b3a9-42f7-80d9-b15024d74ec2","system_id":"levelo_inurba_marseille","lat":43.28686,"lon":5.3609,"is_reserved":false,"is_disabled":false,"rental_uris":{"android":"levelo://app?vid=bb8a7f7b-b3a9-42f7-80d9-b15024d74ec2","ios":"levelo://app?vid=bb8a7f7b-b3a9-42f7-80d9-b15024d74ec2"},"vehicle_type_id":"4","last_reported":1734703722,"current_range_meters":30800,"station_id":"cki0cbj6b192h4jlfktg","pricing_plan_id":"cebpf4jnsgd1na2vs0mg"},{"bike_id":"50ac1214-7a60-45bf-8d99-d647c53bd8a2","system_id":"levelo_inurba_marseille","lat":43.27347,"lon":5.398981,"is_reserved":false,"is_disabled":false,"rental_uris":{"android":"levelo://app?vid=50ac1214-7a60-45bf-8d99-d647c53bd8a2","ios":"levelo://app?vid=50ac1214-7a60-45bf-8d99-d647c53bd8a2"},"vehicle_type_id":"4","last_reported":1734703722,"current_range_meters":27600,"station_id":"ce4bhk92rcd13ifvqgc0","pricing_plan_id":"cebpf4jnsgd1na2vs0mg"},{"bike_id":"15ed6a07-7e68-4f02-bebc-e1c212f665f3","system_id":"levelo_inurba_marseille","lat":43.24661,"lon":5.3816,"is_reserved":false,"is_disabled":false,"rental_uris":{"android":"levelo://app?vid=15ed6a07-7e68-4f02-bebc-e1c212f665f3","ios":"levelo://app?vid=15ed6a07-7e68-4f02-bebc-e1c212f665f3"},"vehicle_type_id":"4","last_reported":1734703722,"current_range_meters":8400,"station_id":"ce4bhih2rcd13ifvqfr0","pricing_plan_id":"cebpf4jnsgd1na2vs0mg"},{"bike_id":"dae4111a-1c3d-45f4-8835-f110251605a8","system_id":"levelo_inurba_marseille","lat":43.2927,"lon":5.36853,"is_reserved":false,"is_disabled":false,"rental_uris":{"android":"levelo://app?vid=dae4111a-1c3d-45f4-8835-f110251605a8","ios":"levelo://app?vid=dae4111a-1c3d-45f4-8835-f110251605a8"},"vehicle_type_id":"4","last_reported":1734703722,"current_range_meters":35200,"station_id":"ce4bhbp2rcd13ifvqesg","pricing_plan_id":"cebpf4jnsgd1na2vs0mg"},{"bike_id":"b5c13e58-9eda-45bb-85bb-9c9a7b4602b5","system_id":"levelo_inurba_marseille","lat":43.29285,"lon":5.37441,"is_reserved":false,"is_disabled":false,"rental_uris":{"android":"levelo://app?vid=b5c13e58-9eda-45bb-85bb-9c9a7b4602b5","ios":"levelo://app?vid=b5c13e58-9eda-45bb-85bb-9c9a7b4602b5"},"vehicle_type_id":"4","last_reported":1734703722,"current_range_meters":38800,"station_id":"ce4bh9p2rcd13ifvqec0","pricing_plan_id":"cebpf4jnsgd1na2vs0mg"},{"bike_id":"1c7bee34-3735-4b6e-bce4-352db6125a44","system_id":"levelo_inurba_marseille","lat":43.29262,"lon":5.36848,"is_reserved":false,"is_disabled":false,"rental_uris":{"android":"levelo://app?vid=1c7bee34-3735-4b6e-bce4-352db6125a44","ios":"levelo://app?vid=1c7bee34-3735-4b6e-bce4-352db6125a44"},"vehicle_type_id":"4","last_reported":1734703722,"current_range_meters":27600,"station_id":"ce4bhbp2rcd13ifvqesg","pricing_plan_id":"cebpf4jnsgd1na2vs0mg"},{"bike_id":"93cd12d2-ee52-454b-a1c6-a2a94b1185da","system_id":"levelo_inurba_marseille","lat":43.248067,"lon":5.374559,"is_reserved":false,"is_disabled":false,"rental_uris":{"android":"levelo://app?vid=93cd12d2-ee52-454b-a1c6-a2a94b1185da","ios":"levelo://app?vid=93cd12d2-ee52-454b-a1c6-a2a94b1185da"},"vehicle_type_id":"4","last_reported":1734703722,"current_range_meters":38800,"station_id":"ce4bhgh2rcd13ifvqfb0","pricing_plan_id":"cebpf4jnsgd1na2vs0mg"},{"bike_id":"5bc88b62-2b1b-4d97-b50f-97b9cca62e2f","system_id":"levelo_inurba_marseille","lat":43.30435,"lon":5.39757,"is_reserved":false,"is_disabled":false,"rental_uris":{"android":"levelo://app?vid=5bc88b62-2b1b-4d97-b50f-97b9cca62e2f","ios":"levelo://app?vid=5bc88b62-2b1b-4d97-b50f-97b9cca62e2f"},"vehicle_type_id":"4","last_reported":1734703722,"current_range_meters":38800,"station_id":"ce4bh092rcd13ifvqd20","pricing_plan_id":"cebpf4jnsgd1na2vs0mg"},{"bike_id":"c68d5f0e-be1a-4a1f-934b-b6bb5b1ff9cf","system_id":"levelo_inurba_marseille","lat":43.25111,"lon":5.40332,"is_reserved":false,"is_disabled":false,"rental_uris":{"android":"levelo://app?vid=c68d5f0e-be1a-4a1f-934b-b6bb5b1ff9cf","ios":"levelo://app?vid=c68d5f0e-be1a-4a1f-934b-b6bb5b1ff9cf"},"vehicle_type_id":"4","last_reported":1734703722,"current_range_meters":38800,"station_id":"ce4bhlh2rcd13ifvqgig","pricing_plan_id":"cebpf4jnsgd1na2vs0mg"},{"bike_id":"a6b29f44-fdb7-43b4-aa0a-03a46febd127","system_id":"levelo_inurba_marseille","lat":43.308863,"lon":5.378124,"is_reserved":false,"is_disabled":true,"rental_uris":{"android":"levelo://app?vid=a6b29f44-fdb7-43b4-aa0a-03a46febd127","ios":"levelo://app?vid=a6b29f44-fdb7-43b4-aa0a-03a46febd127"},"vehicle_type_id":"4","last_reported":1734703722,"current_range_meters":17600,"station_id":"","pricing_plan_id":"cebpf4jnsgd1na2vs0mg"},{"bike_id":"67b63791-69a8-4d5b-bf8d-97af1279ba1f","system_id":"levelo_inurba_marseille","lat":43.3046,"lon":5.37913,"is_reserved":false,"is_disabled":false,"rental_uris":{"android":"levelo://app?vid=67b63791-69a8-4d5b-bf8d-97af1279ba1f","ios":"levelo://app?vid=67b63791-69a8-4d5b-bf8d-97af1279ba1f"},"vehicle_type_id":"4","last_reported":1734703722,"current_range_meters":19600,"station_id":"ce4bgup2rcd13ifvqcn0","pricing_plan_id":"cebpf4jnsgd1na2vs0mg"},{"bike_id":"c7f24469-1136-4e21-b84a-0a12ce3b4eea","system_id":"levelo_inurba_marseille","lat":43.317,"lon":5.40471,"is_reserved":false,"is_disabled":false,"rental_uris":{"android":"levelo://app?vid=c7f24469-1136-4e21-b84a-0a12ce3b4eea","ios":"levelo://app?vid=c7f24469-1136-4e21-b84a-0a12ce3b4eea"},"vehicle_type_id":"4","last_reported":1734703722,"current_range_meters":38800,"station_id":"ce4bh012rcd13ifvqd00","pricing_plan_id":"cebpf4jnsgd1na2vs0mg"},{"bike_id":"7ec8621a-9726-4d85-b602-b2b6b4a16cb4","system_id":"levelo_inurba_marseille","lat":43.29616,"lon":5.37729,"is_reserved":false,"is_disabled":false,"rental_uris":{"android":"levelo://app?vid=7ec8621a-9726-4d85-b602-b2b6b4a16cb4","ios":"levelo://app?vid=7ec8621a-9726-4d85-b602-b2b6b4a16cb4"},"vehicle_type_id":"4","last_reported":1734703722,"current_range_meters":38800,"station_id":"ce4bgi92rcd13ifvqb90","pricing_plan_id":"cebpf4jnsgd1na2vs0mg"},{"bike_id":"3091d709-3c11-43a1-a95d-31c0908ceed1","system_id":"levelo_inurba_marseille","lat":43.2927,"lon":5.36856,"is_reserved":false,"is_disabled":false,"rental_uris":{"android":"levelo://app?vid=3091d709-3c11-43a1-a95d-31c0908ceed1","ios":"levelo://app?vid=3091d709-3c11-43a1-a95d-31c0908ceed1"},"vehicle_type_id":"4","last_reported":1734703722,"current_range_meters":27200,"station_id":"ce4bhbp2rcd13ifvqesg","pricing_plan_id":"cebpf4jnsgd1na2vs0mg"},{"bike_id":"f2fca4b0-6d09-4b8b-ac93-ff1931bdad1c","system_id":"levelo_inurba_marseille","lat":43.27942,"lon":5.41048,"is_reserved":false,"is_disabled":false,"rental_uris":{"android":"levelo://app?vid=f2fca4b0-6d09-4b8b-ac93-ff1931bdad1c","ios":"levelo://app?vid=f2fca4b0-6d09-4b8b-ac93-ff1931bdad1c"},"vehicle_type_id":"4","last_reported":1734703722,"current_range_meters":26800,"station_id":"ce4bhnp2rcd13ifvqh0g","pricing_plan_id":"cebpf4jnsgd1na2vs0mg"},{"bike_id":"fc0bac7d-4628-4dfe-85ed-63093eeb85d8","system_id":"levelo_inurba_marseille","lat":43.30145,"lon":5.37419,"is_reserved":false,"is_disabled":false,"rental_uris":{"android":"levelo://app?vid=fc0bac7d-4628-4dfe-85ed-63093eeb85d8","ios":"levelo://app?vid=fc0bac7d-4628-4dfe-85ed-63093eeb85d8"},"vehicle_type_id":"4","last_reported":1734703722,"current_range_meters":24000,"station_id":"ce4bgs92rcd13ifvqcc0","pricing_plan_id":"cebpf4jnsgd1na2vs0mg"},{"bike_id":"e54c3fa3-f9e8-43fa-97ab-12f5b2a3bfae","system_id":"levelo_inurba_marseille","lat":43.27823,"lon":5.39214,"is_reserved":false,"is_disabled":false,"rental_uris":{"android":"levelo://app?vid=e54c3fa3-f9e8-43fa-97ab-12f5b2a3bfae","ios":"levelo://app?vid=e54c3fa3-f9e8-43fa-97ab-12f5b2a3bfae"},"vehicle_type_id":"4","last_reported":1734703722,"current_range_meters":26800,"station_id":"ce4bhjp2rcd13ifvqga0","pricing_plan_id":"cebpf4jnsgd1na2vs0mg"},{"bike_id":"85f27a5d-9af7-4b09-a20c-f802a8f11d6d","system_id":"levelo_inurba_marseille","lat":43.32659,"lon":5.40985,"is_reserved":false,"is_disabled":false,"rental_uris":{"android":"levelo://app?vid=85f27a5d-9af7-4b09-a20c-f802a8f11d6d","ios":"levelo://app?vid=85f27a5d-9af7-4b09-a20c-f802a8f11d6d"},"vehicle_type_id":"4","last_reported":1734703722,"current_range_meters":10000,"station_id":"ce4bhpp2rcd13ifvqhgg","pricing_plan_id":"cebpf4jnsgd1na2vs0mg"},{"bike_id":"d34bdf4f-71bc-4ae4-b273-f3852ddc692a","system_id":"levelo_inurba_marseille","lat":43.33756,"lon":5.37472,"is_reserved":false,"is_disabled":false,"rental_uris":{"android":"levelo://app?vid=d34bdf4f-71bc-4ae4-b273-f3852ddc692a","ios":"levelo://app?vid=d34bdf4f-71bc-4ae4-b273-f3852ddc692a"},"vehicle_type_id":"4","last_reported":1734703722,"current_range_meters":32800,"station_id":"","pricing_plan_id":"cebpf4jnsgd1na2vs0mg"},{"bike_id":"f892a8d7-aa95-4d28-b5aa-2d16ed394fe4","system_id":"levelo_inurba_marseille","lat":43.30185,"lon":5.36619,"is_reserved":false,"is_disabled":false,"rental_uris":{"android":"levelo://app?vid=f892a8d7-aa95-4d28-b5aa-2d16ed394fe4","ios":"levelo://app?vid=f892a8d7-aa95-4d28-b5aa-2d16ed394fe4"},"vehicle_type_id":"4","last_reported":1734703722,"current_range_meters":19600,"station_id":"ce4bgrh2rcd13ifvqc8g","pricing_plan_id":"cebpf4jnsgd1na2vs0mg"},{"bike_id":"e179d50b-086e-45cb-a7d9-da9036539d17","system_id":"levelo_inurba_marseille","lat":43.27999,"lon":5.40018,"is_reserved":false,"is_disabled":false,"rental_uris":{"android":"levelo://app?vid=e179d50b-086e-45cb-a7d9-da9036539d17","ios":"levelo://app?vid=e179d50b-086e-45cb-a7d9-da9036539d17"},"vehicle_type_id":"4","last_reported":1734703722,"current_range_meters":24800,"station_id":"ce4bho92rcd13ifvqh4g","pricing_plan_id":"cebpf4jnsgd1na2vs0mg"},{"bike_id":"d10625b5-f363-403b-be48-8bd4b27deea1","system_id":"levelo_inurba_marseille","lat":43.30899,"lon":5.3721,"is_reserved":false,"is_disabled":false,"rental_uris":{"android":"levelo://app?vid=d10625b5-f363-403b-be48-8bd4b27deea1","ios":"levelo://app?vid=d10625b5-f363-403b-be48-8bd4b27deea1"},"vehicle_type_id":"4","last_reported":1734703722,"current_range_meters":28400,"station_id":"ce4bguh2rcd13ifvqckg","pricing_plan_id":"cebpf4jnsgd1na2vs0mg"},{"bike_id":"c7a472ed-6dc3-4cde-83b8-4deb8af0b49b","system_id":"levelo_inurba_marseille","lat":43.2439,"lon":5.37074,"is_reserved":false,"is_disabled":false,"rental_uris":{"android":"levelo://app?vid=c7a472ed-6dc3-4cde-83b8-4deb8af0b49b","ios":"levelo://app?vid=c7a472ed-6dc3-4cde-83b8-4deb8af0b49b"},"vehicle_type_id":"4","last_reported":1734703722,"current_range_meters":22400,"station_id":"ce4bhhh2rcd13ifvqfk0","pricing_plan_id":"cebpf4jnsgd1na2vs0mg"},{"bike_id":"4278cb44-4a04-425c-8bea-695edaa3f630","system_id":"levelo_inurba_marseille","lat":43.28937,"lon":5.39633,"is_reserved":false,"is_disabled":false,"rental_uris":{"android":"levelo://app?vid=4278cb44-4a04-425c-8bea-695edaa3f630","ios":"levelo://app?vid=4278cb44-4a04-425c-8bea-695edaa3f630"},"vehicle_type_id":"4","last_reported":1734703722,"current_range_meters":33600,"station_id":"ce4bh3h2rcd13ifvqdn0","pricing_plan_id":"cebpf4jnsgd1na2vs0mg"},{"bike_id":"af375b95-98ed-4d0c-a1db-a5220a0cbfa9","system_id":"levelo_inurba_marseille","lat":43.31682,"lon":5.40474,"is_reserved":false,"is_disabled":false,"rental_uris":{"android":"levelo://app?vid=af375b95-98ed-4d0c-a1db-a5220a0cbfa9","ios":"levelo://app?vid=af375b95-98ed-4d0c-a1db-a5220a0cbfa9"},"vehicle_type_id":"4","last_reported":1734703722,"current_range_meters":37600,"station_id":"ce4bh012rcd13ifvqd00","pricing_plan_id":"cebpf4jnsgd1na2vs0mg"},{"bike_id":"b59bd7d0-750f-47b7-b5dd-c7d64f2ce8dd","system_id":"levelo_inurba_marseille","lat":43.30317,"lon":5.36909,"is_reserved":false,"is_disabled":false,"rental_uris":{"android":"levelo://app?vid=b59bd7d0-750f-47b7-b5dd-c7d64f2ce8dd","ios":"levelo://app?vid=b59bd7d0-750f-47b7-b5dd-c7d64f2ce8dd"},"vehicle_type_id":"4","last_reported":1734703722,"current_range_meters":36400,"station_id":"ce4bgqh2rcd13ifvqc5g","pricing_plan_id":"cebpf4jnsgd1na2vs0mg"},{"bike_id":"8f7404be-a7fd-44b1-965d-fad36bf50ce8","system_id":"levelo_inurba_marseille","lat":43.26196,"lon":5.37915,"is_reserved":false,"is_disabled":false,"rental_uris":{"android":"levelo://app?vid=8f7404be-a7fd-44b1-965d-fad36bf50ce8","ios":"levelo://app?vid=8f7404be-a7fd-44b1-965d-fad36bf50ce8"},"vehicle_type_id":"4","last_reported":1734703722,"current_range_meters":38800,"station_id":"ce4bhjp2rcd13ifvqg90","pricing_plan_id":"cebpf4jnsgd1na2vs0mg"},{"bike_id":"dd52cea9-6fe3-460c-a4fc-255f18d6f38c","system_id":"levelo_inurba_marseille","lat":43.25004,"lon":5.38928,"is_reserved":false,"is_disabled":false,"rental_uris":{"android":"levelo://app?vid=dd52cea9-6fe3-460c-a4fc-255f18d6f38c","ios":"levelo://app?vid=dd52cea9-6fe3-460c-a4fc-255f18d6f38c"},"vehicle_type_id":"4","last_reported":1734703722,"current_range_meters":29600,"station_id":"ce4bhgp2rcd13ifvqfd0","pricing_plan_id":"cebpf4jnsgd1na2vs0mg"},{"bike_id":"714703e4-4373-45a0-8859-0524fe8e8d54","system_id":"levelo_inurba_marseille","lat":43.30158,"lon":5.3741,"is_reserved":false,"is_disabled":false,"rental_uris":{"android":"levelo://app?vid=714703e4-4373-45a0-8859-0524fe8e8d54","ios":"levelo://app?vid=714703e4-4373-45a0-8859-0524fe8e8d54"},"vehicle_type_id":"4","last_reported":1734703722,"current_range_meters":36800,"station_id":"ce4bgs92rcd13ifvqcc0","pricing_plan_id":"cebpf4jnsgd1na2vs0mg"},{"bike_id":"dbfa572c-48d2-40b7-9e4a-c067a654725a","system_id":"levelo_inurba_marseille","lat":43.29703,"lon":5.36608,"is_reserved":false,"is_disabled":false,"rental_uris":{"android":"levelo://app?vid=dbfa572c-48d2-40b7-9e4a-c067a654725a","ios":"levelo://app?vid=dbfa572c-48d2-40b7-9e4a-c067a654725a"},"vehicle_type_id":"4","last_reported":1734703722,"current_range_meters":39200,"station_id":"ce4bgn12rcd13ifvqbt0","pricing_plan_id":"cebpf4jnsgd1na2vs0mg"},{"bike_id":"b7231bf9-aa26-48fc-a6d7-06da80e61ed9","system_id":"levelo_inurba_marseille","lat":43.28853,"lon":5.39311,"is_reserved":false,"is_disabled":false,"rental_uris":{"android":"levelo://app?vid=b7231bf9-aa26-48fc-a6d7-06da80e61ed9","ios":"levelo://app?vid=b7231bf9-aa26-48fc-a6d7-06da80e61ed9"},"vehicle_type_id":"4","last_reported":1734703722,"current_range_meters":19200,"station_id":"ce4bh2p2rcd13ifvqdi0","pricing_plan_id":"cebpf4jnsgd1na2vs0mg"},{"bike_id":"a3490aca-cd3e-423c-b291-413d54e7a9b6","system_id":"levelo_inurba_marseille","lat":43.29739,"lon":5.37685,"is_reserved":false,"is_disabled":false,"rental_uris":{"android":"levelo://app?vid=a3490aca-cd3e-423c-b291-413d54e7a9b6","ios":"levelo://app?vid=a3490aca-cd3e-423c-b291-413d54e7a9b6"},"vehicle_type_id":"4","last_reported":1734703722,"current_range_meters":36800,"station_id":"ce4bgkh2rcd13ifvqbl0","pricing_plan_id":"cebpf4jnsgd1na2vs0mg"},{"bike_id":"897e83d4-47e9-4759-95cb-be7dcc401779","system_id":"levelo_inurba_marseille","lat":43.28655,"lon":5.36364,"is_reserved":false,"is_disabled":false,"rental_uris":{"android":"levelo://app?vid=897e83d4-47e9-4759-95cb-be7dcc401779","ios":"levelo://app?vid=897e83d4-47e9-4759-95cb-be7dcc401779"},"vehicle_type_id":"4","last_reported":1734703722,"current_range_meters":39200,"station_id":"ce4bhah2rcd13ifvqej0","pricing_plan_id":"cebpf4jnsgd1na2vs0mg"},{"bike_id":"ffa33252-93c5-4b4b-850a-5a87bb71bdc9","system_id":"levelo_inurba_marseille","lat":43.28366,"lon":5.38108,"is_reserved":false,"is_disabled":false,"rental_uris":{"android":"levelo://app?vid=ffa33252-93c5-4b4b-850a-5a87bb71bdc9","ios":"levelo://app?vid=ffa33252-93c5-4b4b-850a-5a87bb71bdc9"},"vehicle_type_id":"4","last_reported":1734703722,"current_range_meters":27600,"station_id":"ce4bh412rcd13ifvqdr0","pricing_plan_id":"cebpf4jnsgd1na2vs0mg"},{"bike_id":"6728802e-c3c6-4f8f-ade5-af96b0024ae1","system_id":"levelo_inurba_marseille","lat":43.25712,"lon":5.41125,"is_reserved":false,"is_disabled":false,"rental_uris":{"android":"levelo://app?vid=6728802e-c3c6-4f8f-ade5-af96b0024ae1","ios":"levelo://app?vid=6728802e-c3c6-4f8f-ade5-af96b0024ae1"},"vehicle_type_id":"4","last_reported":1734703722,"current_range_meters":38800,"station_id":"ce4bhkp2rcd13ifvqgd0","pricing_plan_id":"cebpf4jnsgd1na2vs0mg"},{"bike_id":"f20cd36c-a895-444d-b8aa-a67ddb893a61","system_id":"levelo_inurba_marseille","lat":43.30649,"lon":5.40083,"is_reserved":false,"is_disabled":false,"rental_uris":{"android":"levelo://app?vid=f20cd36c-a895-444d-b8aa-a67ddb893a61","ios":"levelo://app?vid=f20cd36c-a895-444d-b8aa-a67ddb893a61"},"vehicle_type_id":"4","last_reported":1734703722,"current_range_meters":4000,"station_id":"ce4bh112rcd13ifvqda0","pricing_plan_id":"cebpf4jnsgd1na2vs0mg"},{"bike_id":"666223cf-f963-4676-a2c3-13c4383f763c","system_id":"levelo_inurba_marseille","lat":43.31714,"lon":5.42402,"is_reserved":false,"is_disabled":false,"rental_uris":{"android":"levelo://app?vid=666223cf-f963-4676-a2c3-13c4383f763c","ios":"levelo://app?vid=666223cf-f963-4676-a2c3-13c4383f763c"},"vehicle_type_id":"4","last_reported":1734703722,"current_range_meters":27600,"station_id":"ce4bhp92rcd13ifvqhbg","pricing_plan_id":"cebpf4jnsgd1na2vs0mg"},{"bike_id":"6840d155-4ad1-41f0-8aba-5b39be5e42db","system_id":"levelo_inurba_marseille","lat":43.34143,"lon":5.40901,"is_reserved":false,"is_disabled":true,"rental_uris":{"android":"levelo://app?vid=6840d155-4ad1-41f0-8aba-5b39be5e42db","ios":"levelo://app?vid=6840d155-4ad1-41f0-8aba-5b39be5e42db"},"vehicle_type_id":"4","last_reported":1734703722,"current_range_meters":30400,"station_id":"ce4bhqh2rcd13ifvqhlg","pricing_plan_id":"cebpf4jnsgd1na2vs0mg"},{"bike_id":"49afe83b-abb5-4be5-a10f-e37f6b41e94f","system_id":"levelo_inurba_marseille","lat":43.29898,"lon":5.43674,"is_reserved":false,"is_disabled":false,"rental_uris":{"android":"levelo://app?vid=49afe83b-abb5-4be5-a10f-e37f6b41e94f","ios":"levelo://app?vid=49afe83b-abb5-4be5-a10f-e37f6b41e94f"},"vehicle_type_id":"4","last_reported":1734703722,"current_range_meters":32400,"station_id":"ce4bhpp2rcd13ifvqhfg","pricing_plan_id":"cebpf4jnsgd1na2vs0mg"},{"bike_id":"fe187b0f-abff-4fa7-8a20-0462e6c79208","system_id":"levelo_inurba_marseille","lat":43.24386,"lon":5.37063,"is_reserved":false,"is_disabled":false,"rental_uris":{"android":"levelo://app?vid=fe187b0f-abff-4fa7-8a20-0462e6c79208","ios":"levelo://app?vid=fe187b0f-abff-4fa7-8a20-0462e6c79208"},"vehicle_type_id":"4","last_reported":1734703722,"current_range_meters":23200,"station_id":"ce4bhhh2rcd13ifvqfk0","pricing_plan_id":"cebpf4jnsgd1na2vs0mg"},{"bike_id":"561376ac-ef9f-43d8-821b-6a19eab172c5","system_id":"levelo_inurba_marseille","lat":43.28349,"lon":5.38114,"is_reserved":false,"is_disabled":false,"rental_uris":{"android":"levelo://app?vid=561376ac-ef9f-43d8-821b-6a19eab172c5","ios":"levelo://app?vid=561376ac-ef9f-43d8-821b-6a19eab172c5"},"vehicle_type_id":"4","last_reported":1734703722,"current_range_meters":34800,"station_id":"ce4bh412rcd13ifvqdr0","pricing_plan_id":"cebpf4jnsgd1na2vs0mg"},{"bike_id":"6be06396-7842-46ec-a270-3e8d410abdb0","system_id":"levelo_inurba_marseille","lat":43.30137,"lon":5.37423,"is_reserved":false,"is_disabled":false,"rental_uris":{"android":"levelo://app?vid=6be06396-7842-46ec-a270-3e8d410abdb0","ios":"levelo://app?vid=6be06396-7842-46ec-a270-3e8d410abdb0"},"vehicle_type_id":"4","last_reported":1734703722,"current_range_meters":38000,"station_id":"ce4bgs92rcd13ifvqcc0","pricing_plan_id":"cebpf4jnsgd1na2vs0mg"},{"bike_id":"aceb3676-6ea7-42ff-8547-5be9aca19066","system_id":"levelo_inurba_marseille","lat":43.30094,"lon":5.38063,"is_reserved":false,"is_disabled":false,"rental_uris":{"android":"levelo://app?vid=aceb3676-6ea7-42ff-8547-5be9aca19066","ios":"levelo://app?vid=aceb3676-6ea7-42ff-8547-5be9aca19066"},"vehicle_type_id":"4","last_reported":1734703722,"current_range_meters":25600,"station_id":"","pricing_plan_id":"cebpf4jnsgd1na2vs0mg"},{"bike_id":"328f96e6-9ac3-47ae-8329-225b0409ed3e","system_id":"levelo_inurba_marseille","lat":43.29275,"lon":5.36849,"is_reserved":false,"is_disabled":false,"rental_uris":{"android":"levelo://app?vid=328f96e6-9ac3-47ae-8329-225b0409ed3e","ios":"levelo://app?vid=328f96e6-9ac3-47ae-8329-225b0409ed3e"},"vehicle_type_id":"4","last_reported":1734703722,"current_range_meters":28000,"station_id":"ce4bhbp2rcd13ifvqesg","pricing_plan_id":"cebpf4jnsgd1na2vs0mg"},{"bike_id":"c36f9794-db64-4a07-823f-b590f113a19f","system_id":"levelo_inurba_marseille","lat":43.27941,"lon":5.41064,"is_reserved":false,"is_disabled":false,"rental_uris":{"android":"levelo://app?vid=c36f9794-db64-4a07-823f-b590f113a19f","ios":"levelo://app?vid=c36f9794-db64-4a07-823f-b590f113a19f"},"vehicle_type_id":"4","last_reported":1734703722,"current_range_meters":10000,"station_id":"ce4bhnp2rcd13ifvqh0g","pricing_plan_id":"cebpf4jnsgd1na2vs0mg"},{"bike_id":"6b1c02dd-ff4d-4960-9056-ebf73c481a95","system_id":"levelo_inurba_marseille","lat":43.30168,"lon":5.38084,"is_reserved":false,"is_disabled":false,"rental_uris":{"android":"levelo://app?vid=6b1c02dd-ff4d-4960-9056-ebf73c481a95","ios":"levelo://app?vid=6b1c02dd-ff4d-4960-9056-ebf73c481a95"},"vehicle_type_id":"4","last_reported":1734703722,"current_range_meters":38400,"station_id":"ce4bgjp2rcd13ifvqbh0","pricing_plan_id":"cebpf4jnsgd1na2vs0mg"},{"bike_id":"cecce55d-f960-4a9d-9a27-129b3c1f3cc3","system_id":"levelo_inurba_marseille","lat":43.27921,"lon":5.39578,"is_reserved":false,"is_disabled":false,"rental_uris":{"android":"levelo://app?vid=cecce55d-f960-4a9d-9a27-129b3c1f3cc3","ios":"levelo://app?vid=cecce55d-f960-4a9d-9a27-129b3c1f3cc3"},"vehicle_type_id":"4","last_reported":1734703722,"current_range_meters":35200,"station_id":"ce4bhf92rcd13ifvqf40","pricing_plan_id":"cebpf4jnsgd1na2vs0mg"},{"bike_id":"5c843cdc-98d4-48d2-9db1-fa1b91059a7e","system_id":"levelo_inurba_marseille","lat":43.24079,"lon":5.37763,"is_reserved":false,"is_disabled":false,"rental_uris":{"android":"levelo://app?vid=5c843cdc-98d4-48d2-9db1-fa1b91059a7e","ios":"levelo://app?vid=5c843cdc-98d4-48d2-9db1-fa1b91059a7e"},"vehicle_type_id":"4","last_reported":1734703722,"current_range_meters":30000,"station_id":"ce4bhnp2rcd13ifvqgvg","pricing_plan_id":"cebpf4jnsgd1na2vs0mg"},{"bike_id":"f111cf8c-c88f-4078-b751-43b0b653fb0e","system_id":"levelo_inurba_marseille","lat":43.28716,"lon":5.39997,"is_reserved":false,"is_disabled":false,"rental_uris":{"android":"levelo://app?vid=f111cf8c-c88f-4078-b751-43b0b653fb0e","ios":"levelo://app?vid=f111cf8c-c88f-4078-b751-43b0b653fb0e"},"vehicle_type_id":"4","last_reported":1734703722,"current_range_meters":28800,"station_id":"ce4bho92rcd13ifvqh3g","pricing_plan_id":"cebpf4jnsgd1na2vs0mg"},{"bike_id":"b5436064-4838-4a21-99fb-87553b534de1","system_id":"levelo_inurba_marseille","lat":43.29283,"lon":5.36852,"is_reserved":false,"is_disabled":false,"rental_uris":{"android":"levelo://app?vid=b5436064-4838-4a21-99fb-87553b534de1","ios":"levelo://app?vid=b5436064-4838-4a21-99fb-87553b534de1"},"vehicle_type_id":"4","last_reported":1734703722,"current_range_meters":33600,"station_id":"ce4bhbp2rcd13ifvqesg","pricing_plan_id":"cebpf4jnsgd1na2vs0mg"},{"bike_id":"58f0b9f9-a272-42d0-b951-06c5f40ee63f","system_id":"levelo_inurba_marseille","lat":43.29013,"lon":5.35609,"is_reserved":false,"is_disabled":false,"rental_uris":{"android":"levelo://app?vid=58f0b9f9-a272-42d0-b951-06c5f40ee63f","ios":"levelo://app?vid=58f0b9f9-a272-42d0-b951-06c5f40ee63f"},"vehicle_type_id":"4","last_reported":1734703722,"current_range_meters":38800,"station_id":"ce4bhb92rcd13ifvqen0","pricing_plan_id":"cebpf4jnsgd1na2vs0mg"},{"bike_id":"1f84512c-4bd7-4e9a-8ae9-c58538d6e275","system_id":"levelo_inurba_marseille","lat":43.28662,"lon":5.36356,"is_reserved":false,"is_disabled":false,"rental_uris":{"android":"levelo://app?vid=1f84512c-4bd7-4e9a-8ae9-c58538d6e275","ios":"levelo://app?vid=1f84512c-4bd7-4e9a-8ae9-c58538d6e275"},"vehicle_type_id":"4","last_reported":1734703722,"current_range_meters":22800,"station_id":"ce4bhah2rcd13ifvqej0","pricing_plan_id":"cebpf4jnsgd1na2vs0mg"},{"bike_id":"72492ff3-d3e5-4b81-822b-1d3357339451","system_id":"levelo_inurba_marseille","lat":43.29303,"lon":5.40004,"is_reserved":false,"is_disabled":true,"rental_uris":{"android":"levelo://app?vid=72492ff3-d3e5-4b81-822b-1d3357339451","ios":"levelo://app?vid=72492ff3-d3e5-4b81-822b-1d3357339451"},"vehicle_type_id":"4","last_reported":1734703722,"current_range_meters":31200,"station_id":"","pricing_plan_id":"cebpf4jnsgd1na2vs0mg"},{"bike_id":"ac35e660-89e6-4739-9d9a-129983f77756","system_id":"levelo_inurba_marseille","lat":43.303997,"lon":5.368067,"is_reserved":false,"is_disabled":false,"rental_uris":{"android":"levelo://app?vid=ac35e660-89e6-4739-9d9a-129983f77756","ios":"levelo://app?vid=ac35e660-89e6-4739-9d9a-129983f77756"},"vehicle_type_id":"4","last_reported":1734703722,"current_range_meters":15200,"station_id":"","pricing_plan_id":"cebpf4jnsgd1na2vs0mg"},{"bike_id":"68cc3280-8c90-422e-b1e6-051d15979724","system_id":"levelo_inurba_marseille","lat":43.23186,"lon":5.39998,"is_reserved":false,"is_disabled":false,"rental_uris":{"android":"levelo://app?vid=68cc3280-8c90-422e-b1e6-051d15979724","ios":"levelo://app?vid=68cc3280-8c90-422e-b1e6-051d15979724"},"vehicle_type_id":"4","last_reported":1734703722,"current_range_meters":17200,"station_id":"ce4bhn12rcd13ifvqgqg","pricing_plan_id":"cebpf4jnsgd1na2vs0mg"},{"bike_id":"2f3ffe14-db03-4fbe-b9e8-6285c689975c","system_id":"levelo_inurba_marseille","lat":43.31325,"lon":5.39704,"is_reserved":false,"is_disabled":true,"rental_uris":{"android":"levelo://app?vid=2f3ffe14-db03-4fbe-b9e8-6285c689975c","ios":"levelo://app?vid=2f3ffe14-db03-4fbe-b9e8-6285c689975c"},"vehicle_type_id":"4","last_reported":1734703722,"current_range_meters":14800,"station_id":"ce4bgvp2rcd13ifvqcu0","pricing_plan_id":"cebpf4jnsgd1na2vs0mg"},{"bike_id":"882e0f33-c985-49f5-9128-ec5a374b2cc1","system_id":"levelo_inurba_marseille","lat":43.25914,"lon":5.40913,"is_reserved":false,"is_disabled":false,"rental_uris":{"android":"levelo://app?vid=882e0f33-c985-49f5-9128-ec5a374b2cc1","ios":"levelo://app?vid=882e0f33-c985-49f5-9128-ec5a374b2cc1"},"vehicle_type_id":"4","last_reported":1734703722,"current_range_meters":30400,"station_id":"ce4bhm92rcd13ifvqglg","pricing_plan_id":"cebpf4jnsgd1na2vs0mg"},{"bike_id":"79bc2550-b3b7-49db-a0e2-c1dd34ad5402","system_id":"levelo_inurba_marseille","lat":43.25874,"lon":5.39905,"is_reserved":false,"is_disabled":false,"rental_uris":{"android":"levelo://app?vid=79bc2550-b3b7-49db-a0e2-c1dd34ad5402","ios":"levelo://app?vid=79bc2550-b3b7-49db-a0e2-c1dd34ad5402"},"vehicle_type_id":"4","last_reported":1734703722,"current_range_meters":39200,"station_id":"ce4bhl92rcd13ifvqghg","pricing_plan_id":"cebpf4jnsgd1na2vs0mg"},{"bike_id":"c274133e-2bf8-41e2-8ab1-78d227b156bd","system_id":"levelo_inurba_marseille","lat":43.31495,"lon":5.37313,"is_reserved":false,"is_disabled":false,"rental_uris":{"android":"levelo://app?vid=c274133e-2bf8-41e2-8ab1-78d227b156bd","ios":"levelo://app?vid=c274133e-2bf8-41e2-8ab1-78d227b156bd"},"vehicle_type_id":"4","last_reported":1734703722,"current_range_meters":27600,"station_id":"ce4bgt12rcd13ifvqcd0","pricing_plan_id":"cebpf4jnsgd1na2vs0mg"},{"bike_id":"b3c94148-282c-49ef-bed3-a778d2e917e9","system_id":"levelo_inurba_marseille","lat":43.3016,"lon":5.38089,"is_reserved":false,"is_disabled":false,"rental_uris":{"android":"levelo://app?vid=b3c94148-282c-49ef-bed3-a778d2e917e9","ios":"levelo://app?vid=b3c94148-282c-49ef-bed3-a778d2e917e9"},"vehicle_type_id":"4","last_reported":1734703722,"current_range_meters":34800,"station_id":"ce4bgjp2rcd13ifvqbh0","pricing_plan_id":"cebpf4jnsgd1na2vs0mg"},{"bike_id":"2730abdc-5420-40fa-b9b6-8ffc1ee46c92","system_id":"levelo_inurba_marseille","lat":43.2799,"lon":5.41664,"is_reserved":false,"is_disabled":false,"rental_uris":{"android":"levelo://app?vid=2730abdc-5420-40fa-b9b6-8ffc1ee46c92","ios":"levelo://app?vid=2730abdc-5420-40fa-b9b6-8ffc1ee46c92"},"vehicle_type_id":"4","last_reported":1734703722,"current_range_meters":35600,"station_id":"ce4bho12rcd13ifvqh1g","pricing_plan_id":"cebpf4jnsgd1na2vs0mg"},{"bike_id":"a0b13504-4db3-4c1c-85c9-95caada3e30d","system_id":"levelo_inurba_marseille","lat":43.25932,"lon":5.40913,"is_reserved":false,"is_disabled":false,"rental_uris":{"android":"levelo://app?vid=a0b13504-4db3-4c1c-85c9-95caada3e30d","ios":"levelo://app?vid=a0b13504-4db3-4c1c-85c9-95caada3e30d"},"vehicle_type_id":"4","last_reported":1734703722,"current_range_meters":30000,"station_id":"ce4bhm92rcd13ifvqglg","pricing_plan_id":"cebpf4jnsgd1na2vs0mg"},{"bike_id":"c438a646-b482-4ae8-a441-38ede34475dd","system_id":"levelo_inurba_marseille","lat":43.29801,"lon":5.38097,"is_reserved":false,"is_disabled":false,"rental_uris":{"android":"levelo://app?vid=c438a646-b482-4ae8-a441-38ede34475dd","ios":"levelo://app?vid=c438a646-b482-4ae8-a441-38ede34475dd"},"vehicle_type_id":"4","last_reported":1734703722,"current_range_meters":35200,"station_id":"ce4bgip2rcd13ifvqbb0","pricing_plan_id":"cebpf4jnsgd1na2vs0mg"},{"bike_id":"0389d3f3-c55f-4412-ae76-1d66146421e5","system_id":"levelo_inurba_marseille","lat":43.30269,"lon":5.37713,"is_reserved":false,"is_disabled":false,"rental_uris":{"android":"levelo://app?vid=0389d3f3-c55f-4412-ae76-1d66146421e5","ios":"levelo://app?vid=0389d3f3-c55f-4412-ae76-1d66146421e5"},"vehicle_type_id":"4","last_reported":1734703722,"current_range_meters":37600,"station_id":"ce4bguh2rcd13ifvqcj0","pricing_plan_id":"cebpf4jnsgd1na2vs0mg"},{"bike_id":"1a0d11f0-028d-46a4-9578-bf3d63abb59e","system_id":"levelo_inurba_marseille","lat":43.279623,"lon":5.387338,"is_reserved":false,"is_disabled":false,"rental_uris":{"android":"levelo://app?vid=1a0d11f0-028d-46a4-9578-bf3d63abb59e","ios":"levelo://app?vid=1a0d11f0-028d-46a4-9578-bf3d63abb59e"},"vehicle_type_id":"4","last_reported":1734703722,"current_range_meters":38800,"station_id":"ce4bhg12rcd13ifvqf80","pricing_plan_id":"cebpf4jnsgd1na2vs0mg"},{"bike_id":"782bcbf2-b7de-4b04-bebc-aaa0329dd90c","system_id":"levelo_inurba_marseille","lat":43.23194,"lon":5.35552,"is_reserved":false,"is_disabled":false,"rental_uris":{"android":"levelo://app?vid=782bcbf2-b7de-4b04-bebc-aaa0329dd90c","ios":"levelo://app?vid=782bcbf2-b7de-4b04-bebc-aaa0329dd90c"},"vehicle_type_id":"4","last_reported":1734703722,"current_range_meters":36400,"station_id":"ce4bhu92rcd13ifvqi70","pricing_plan_id":"cebpf4jnsgd1na2vs0mg"},{"bike_id":"613c31c6-dc5d-46dd-9f53-76f92d972d40","system_id":"levelo_inurba_marseille","lat":43.29587,"lon":5.38105,"is_reserved":false,"is_disabled":false,"rental_uris":{"android":"levelo://app?vid=613c31c6-dc5d-46dd-9f53-76f92d972d40","ios":"levelo://app?vid=613c31c6-dc5d-46dd-9f53-76f92d972d40"},"vehicle_type_id":"4","last_reported":1734703722,"current_range_meters":22400,"station_id":"ce4bgl12rcd13ifvqbo0","pricing_plan_id":"cebpf4jnsgd1na2vs0mg"},{"bike_id":"ea68ca5c-b72d-4044-b811-63a97fe46076","system_id":"levelo_inurba_marseille","lat":43.29098,"lon":5.38123,"is_reserved":false,"is_disabled":false,"rental_uris":{"android":"levelo://app?vid=ea68ca5c-b72d-4044-b811-63a97fe46076","ios":"levelo://app?vid=ea68ca5c-b72d-4044-b811-63a97fe46076"},"vehicle_type_id":"4","last_reported":1734703722,"current_range_meters":9200,"station_id":"ce4bh512rcd13ifvqe2g","pricing_plan_id":"cebpf4jnsgd1na2vs0mg"},{"bike_id":"57e34d55-7cb0-4342-b1dd-efbbca33005f","system_id":"levelo_inurba_marseille","lat":43.3378,"lon":5.37432,"is_reserved":false,"is_disabled":false,"rental_uris":{"android":"levelo://app?vid=57e34d55-7cb0-4342-b1dd-efbbca33005f","ios":"levelo://app?vid=57e34d55-7cb0-4342-b1dd-efbbca33005f"},"vehicle_type_id":"4","last_reported":1734703722,"current_range_meters":38800,"station_id":"","pricing_plan_id":"cebpf4jnsgd1na2vs0mg"},{"bike_id":"1897ad2d-5c02-4d9f-ba4c-937899dfbdc3","system_id":"levelo_inurba_marseille","lat":43.24395,"lon":5.370455,"is_reserved":false,"is_disabled":false,"rental_uris":{"android":"levelo://app?vid=1897ad2d-5c02-4d9f-ba4c-937899dfbdc3","ios":"levelo://app?vid=1897ad2d-5c02-4d9f-ba4c-937899dfbdc3"},"vehicle_type_id":"4","last_reported":1734703722,"current_range_meters":38800,"station_id":"ce4bhhh2rcd13ifvqfk0","pricing_plan_id":"cebpf4jnsgd1na2vs0mg"},{"bike_id":"e9e5d726-62e1-4b6b-a23c-0a4951c24076","system_id":"levelo_inurba_marseille","lat":43.24067,"lon":5.39715,"is_reserved":false,"is_disabled":true,"rental_uris":{"android":"levelo://app?vid=e9e5d726-62e1-4b6b-a23c-0a4951c24076","ios":"levelo://app?vid=e9e5d726-62e1-4b6b-a23c-0a4951c24076"},"vehicle_type_id":"4","last_reported":1734703722,"current_range_meters":0,"station_id":"","pricing_plan_id":"cebpf4jnsgd1na2vs0mg"},{"bike_id":"d532bafb-9e8b-4cf7-90e8-b135eb98500d","system_id":"levelo_inurba_marseille","lat":43.30543,"lon":5.36711,"is_reserved":false,"is_disabled":false,"rental_uris":{"android":"levelo://app?vid=d532bafb-9e8b-4cf7-90e8-b135eb98500d","ios":"levelo://app?vid=d532bafb-9e8b-4cf7-90e8-b135eb98500d"},"vehicle_type_id":"4","last_reported":1734703722,"current_range_meters":38000,"station_id":"ce4bgrp2rcd13ifvqc9g","pricing_plan_id":"cebpf4jnsgd1na2vs0mg"},{"bike_id":"ea300bb5-9ab8-4102-825a-14e36fff0270","system_id":"levelo_inurba_marseille","lat":43.3061,"lon":5.37096,"is_reserved":false,"is_disabled":false,"rental_uris":{"android":"levelo://app?vid=ea300bb5-9ab8-4102-825a-14e36fff0270","ios":"levelo://app?vid=ea300bb5-9ab8-4102-825a-14e36fff0270"},"vehicle_type_id":"4","last_reported":1734703722,"current_range_meters":38800,"station_id":"","pricing_plan_id":"cebpf4jnsgd1na2vs0mg"},{"bike_id":"59d5d8ee-66b8-4d5e-bd66-d37b86808077","system_id":"levelo_inurba_marseille","lat":43.30542,"lon":5.38426,"is_reserved":false,"is_disabled":false,"rental_uris":{"android":"levelo://app?vid=59d5d8ee-66b8-4d5e-bd66-d37b86808077","ios":"levelo://app?vid=59d5d8ee-66b8-4d5e-bd66-d37b86808077"},"vehicle_type_id":"4","last_reported":1734703722,"current_range_meters":15200,"station_id":"ce4bgg92rcd13ifvqb30","pricing_plan_id":"cebpf4jnsgd1na2vs0mg"},{"bike_id":"f6dac326-16a7-4f94-a047-a3b7f98beaac","system_id":"levelo_inurba_marseille","lat":43.28673,"lon":5.38673,"is_reserved":false,"is_disabled":false,"rental_uris":{"android":"levelo://app?vid=f6dac326-16a7-4f94-a047-a3b7f98beaac","ios":"levelo://app?vid=f6dac326-16a7-4f94-a047-a3b7f98beaac"},"vehicle_type_id":"4","last_reported":1734703722,"current_range_meters":36800,"station_id":"ce4bh492rcd13ifvqdug","pricing_plan_id":"cebpf4jnsgd1na2vs0mg"},{"bike_id":"da47edb6-6b7d-48ce-8360-5fd99f41974c","system_id":"levelo_inurba_marseille","lat":43.2318,"lon":5.3999,"is_reserved":false,"is_disabled":false,"rental_uris":{"android":"levelo://app?vid=da47edb6-6b7d-48ce-8360-5fd99f41974c","ios":"levelo://app?vid=da47edb6-6b7d-48ce-8360-5fd99f41974c"},"vehicle_type_id":"4","last_reported":1734703722,"current_range_meters":30000,"station_id":"ce4bhn12rcd13ifvqgqg","pricing_plan_id":"cebpf4jnsgd1na2vs0mg"},{"bike_id":"6654c90b-f1aa-417f-91e2-539aba1adffd","system_id":"levelo_inurba_marseille","lat":43.30077,"lon":5.39085,"is_reserved":false,"is_disabled":false,"rental_uris":{"android":"levelo://app?vid=6654c90b-f1aa-417f-91e2-539aba1adffd","ios":"levelo://app?vid=6654c90b-f1aa-417f-91e2-539aba1adffd"},"vehicle_type_id":"4","last_reported":1734703722,"current_range_meters":28800,"station_id":"ce4bh192rcd13ifvqdb0","pricing_plan_id":"cebpf4jnsgd1na2vs0mg"},{"bike_id":"8121ea70-bcea-4330-bf34-8839e068416d","system_id":"levelo_inurba_marseille","lat":43.30484,"lon":5.36723,"is_reserved":false,"is_disabled":false,"rental_uris":{"android":"levelo://app?vid=8121ea70-bcea-4330-bf34-8839e068416d","ios":"levelo://app?vid=8121ea70-bcea-4330-bf34-8839e068416d"},"vehicle_type_id":"4","last_reported":1734703722,"current_range_meters":38800,"station_id":"","pricing_plan_id":"cebpf4jnsgd1na2vs0mg"},{"bike_id":"e96afc68-6981-43c2-9227-f49a1a6968b1","system_id":"levelo_inurba_marseille","lat":43.29269,"lon":5.40147,"is_reserved":false,"is_disabled":false,"rental_uris":{"android":"levelo://app?vid=e96afc68-6981-43c2-9227-f49a1a6968b1","ios":"levelo://app?vid=e96afc68-6981-43c2-9227-f49a1a6968b1"},"vehicle_type_id":"4","last_reported":1734703722,"current_range_meters":36800,"station_id":"ce4bh312rcd13ifvqdk0","pricing_plan_id":"cebpf4jnsgd1na2vs0mg"},{"bike_id":"44127e4e-8e84-4a38-89f7-8f4efb63f7a5","system_id":"levelo_inurba_marseille","lat":43.31197,"lon":5.36757,"is_reserved":false,"is_disabled":true,"rental_uris":{"android":"levelo://app?vid=44127e4e-8e84-4a38-89f7-8f4efb63f7a5","ios":"levelo://app?vid=44127e4e-8e84-4a38-89f7-8f4efb63f7a5"},"vehicle_type_id":"4","last_reported":1734703722,"current_range_meters":0,"station_id":"","pricing_plan_id":"cebpf4jnsgd1na2vs0mg"},{"bike_id":"bb39e43a-d2b6-47cd-a930-53d80e854feb","system_id":"levelo_inurba_marseille","lat":43.28039,"lon":5.36951,"is_reserved":false,"is_disabled":false,"rental_uris":{"android":"levelo://app?vid=bb39e43a-d2b6-47cd-a930-53d80e854feb","ios":"levelo://app?vid=bb39e43a-d2b6-47cd-a930-53d80e854feb"},"vehicle_type_id":"4","last_reported":1734703722,"current_range_meters":30800,"station_id":"ce4bha12rcd13ifvqef0","pricing_plan_id":"cebpf4jnsgd1na2vs0mg"},{"bike_id":"6f29f217-6748-401a-804d-645011e99ed4","system_id":"levelo_inurba_marseille","lat":43.29361,"lon":5.37848,"is_reserved":false,"is_disabled":false,"rental_uris":{"android":"levelo://app?vid=6f29f217-6748-401a-804d-645011e99ed4","ios":"levelo://app?vid=6f29f217-6748-401a-804d-645011e99ed4"},"vehicle_type_id":"4","last_reported":1734703722,"current_range_meters":39200,"station_id":"ce4bgjh2rcd13ifvqbf0","pricing_plan_id":"cebpf4jnsgd1na2vs0mg"},{"bike_id":"3a30e876-8712-4492-807a-5140faa58140","system_id":"levelo_inurba_marseille","lat":43.29282,"lon":5.36841,"is_reserved":false,"is_disabled":false,"rental_uris":{"android":"levelo://app?vid=3a30e876-8712-4492-807a-5140faa58140","ios":"levelo://app?vid=3a30e876-8712-4492-807a-5140faa58140"},"vehicle_type_id":"4","last_reported":1734703722,"current_range_meters":36400,"station_id":"ce4bhbp2rcd13ifvqesg","pricing_plan_id":"cebpf4jnsgd1na2vs0mg"},{"bike_id":"16aed697-4c3c-4b8d-becb-29bd4ba293bc","system_id":"levelo_inurba_marseille","lat":43.29642,"lon":5.37144,"is_reserved":false,"is_disabled":false,"rental_uris":{"android":"levelo://app?vid=16aed697-4c3c-4b8d-becb-29bd4ba293bc","ios":"levelo://app?vid=16aed697-4c3c-4b8d-becb-29bd4ba293bc"},"vehicle_type_id":"4","last_reported":1734703722,"current_range_meters":37600,"station_id":"ce4bgnh2rcd13ifvqc0g","pricing_plan_id":"cebpf4jnsgd1na2vs0mg"},{"bike_id":"4c1fd80c-e9fb-42bb-9ee8-77cae5913cbe","system_id":"levelo_inurba_marseille","lat":43.28611,"lon":5.37067,"is_reserved":false,"is_disabled":false,"rental_uris":{"android":"levelo://app?vid=4c1fd80c-e9fb-42bb-9ee8-77cae5913cbe","ios":"levelo://app?vid=4c1fd80c-e9fb-42bb-9ee8-77cae5913cbe"},"vehicle_type_id":"4","last_reported":1734703722,"current_range_meters":36800,"station_id":"ce4bht12rcd13ifvqi60","pricing_plan_id":"cebpf4jnsgd1na2vs0mg"},{"bike_id":"08ba35e3-491e-4f40-b4f3-6a3ecb410a8c","system_id":"levelo_inurba_marseille","lat":43.2927,"lon":5.38452,"is_reserved":false,"is_disabled":false,"rental_uris":{"android":"levelo://app?vid=08ba35e3-491e-4f40-b4f3-6a3ecb410a8c","ios":"levelo://app?vid=08ba35e3-491e-4f40-b4f3-6a3ecb410a8c"},"vehicle_type_id":"4","last_reported":1734703722,"current_range_meters":38000,"station_id":"ce4bh692rcd13ifvqea0","pricing_plan_id":"cebpf4jnsgd1na2vs0mg"},{"bike_id":"5ccf4016-43de-40ec-b7cb-18f36b051f59","system_id":"levelo_inurba_marseille","lat":43.28155,"lon":5.42659,"is_reserved":false,"is_disabled":true,"rental_uris":{"android":"levelo://app?vid=5ccf4016-43de-40ec-b7cb-18f36b051f59","ios":"levelo://app?vid=5ccf4016-43de-40ec-b7cb-18f36b051f59"},"vehicle_type_id":"4","last_reported":1734703722,"current_range_meters":1600,"station_id":"ce4bhnh2rcd13ifvqgug","pricing_plan_id":"cebpf4jnsgd1na2vs0mg"},{"bike_id":"c8ca40dd-c3e6-4f58-8734-c7b0423d84e8","system_id":"levelo_inurba_marseille","lat":43.33023,"lon":5.39041,"is_reserved":false,"is_disabled":false,"rental_uris":{"android":"levelo://app?vid=c8ca40dd-c3e6-4f58-8734-c7b0423d84e8","ios":"levelo://app?vid=c8ca40dd-c3e6-4f58-8734-c7b0423d84e8"},"vehicle_type_id":"4","last_reported":1734703722,"current_range_meters":27200,"station_id":"ce4bhr92rcd13ifvqhrg","pricing_plan_id":"cebpf4jnsgd1na2vs0mg"},{"bike_id":"c5448d7c-ce1b-4976-a816-9c8571bd467a","system_id":"levelo_inurba_marseille","lat":43.29532,"lon":5.37497,"is_reserved":false,"is_disabled":false,"rental_uris":{"android":"levelo://app?vid=c5448d7c-ce1b-4976-a816-9c8571bd467a","ios":"levelo://app?vid=c5448d7c-ce1b-4976-a816-9c8571bd467a"},"vehicle_type_id":"4","last_reported":1734703722,"current_range_meters":27200,"station_id":"ce4bgkp2rcd13ifvqbmg","pricing_plan_id":"cebpf4jnsgd1na2vs0mg"},{"bike_id":"82d04b50-e48e-48de-9086-622bd99590fe","system_id":"levelo_inurba_marseille","lat":43.31709,"lon":5.4046,"is_reserved":false,"is_disabled":false,"rental_uris":{"android":"levelo://app?vid=82d04b50-e48e-48de-9086-622bd99590fe","ios":"levelo://app?vid=82d04b50-e48e-48de-9086-622bd99590fe"},"vehicle_type_id":"4","last_reported":1734703722,"current_range_meters":38800,"station_id":"ce4bh012rcd13ifvqd00","pricing_plan_id":"cebpf4jnsgd1na2vs0mg"},{"bike_id":"88d0fca1-50cd-440e-a583-785fe0c07914","system_id":"levelo_inurba_marseille","lat":43.33022,"lon":5.39034,"is_reserved":false,"is_disabled":false,"rental_uris":{"android":"levelo://app?vid=88d0fca1-50cd-440e-a583-785fe0c07914","ios":"levelo://app?vid=88d0fca1-50cd-440e-a583-785fe0c07914"},"vehicle_type_id":"4","last_reported":1734703722,"current_range_meters":3600,"station_id":"ce4bhr92rcd13ifvqhrg","pricing_plan_id":"cebpf4jnsgd1na2vs0mg"},{"bike_id":"584b817f-1a7d-4e53-8e6b-a260280bc97e","system_id":"levelo_inurba_marseille","lat":43.27816,"lon":5.4072,"is_reserved":false,"is_disabled":false,"rental_uris":{"android":"levelo://app?vid=584b817f-1a7d-4e53-8e6b-a260280bc97e","ios":"levelo://app?vid=584b817f-1a7d-4e53-8e6b-a260280bc97e"},"vehicle_type_id":"4","last_reported":1734703722,"current_range_meters":22000,"station_id":"ce4bhnh2rcd13ifvqgtg","pricing_plan_id":"cebpf4jnsgd1na2vs0mg"},{"bike_id":"77dd45bd-8318-4b15-b271-d6ad3042584d","system_id":"levelo_inurba_marseille","lat":43.28606,"lon":5.37075,"is_reserved":false,"is_disabled":false,"rental_uris":{"android":"levelo://app?vid=77dd45bd-8318-4b15-b271-d6ad3042584d","ios":"levelo://app?vid=77dd45bd-8318-4b15-b271-d6ad3042584d"},"vehicle_type_id":"4","last_reported":1734703722,"current_range_meters":36800,"station_id":"ce4bht12rcd13ifvqi60","pricing_plan_id":"cebpf4jnsgd1na2vs0mg"},{"bike_id":"62159b96-70de-4225-a341-fe8203f1c374","system_id":"levelo_inurba_marseille","lat":43.28943,"lon":5.39636,"is_reserved":false,"is_disabled":true,"rental_uris":{"android":"levelo://app?vid=62159b96-70de-4225-a341-fe8203f1c374","ios":"levelo://app?vid=62159b96-70de-4225-a341-fe8203f1c374"},"vehicle_type_id":"4","last_reported":1734703722,"current_range_meters":28400,"station_id":"ce4bh3h2rcd13ifvqdn0","pricing_plan_id":"cebpf4jnsgd1na2vs0mg"},{"bike_id":"9d8d96cd-f44d-496d-9144-a510e102939b","system_id":"levelo_inurba_marseille","lat":43.27337,"lon":5.39098,"is_reserved":false,"is_disabled":false,"rental_uris":{"android":"levelo://app?vid=9d8d96cd-f44d-496d-9144-a510e102939b","ios":"levelo://app?vid=9d8d96cd-f44d-496d-9144-a510e102939b"},"vehicle_type_id":"4","last_reported":1734703722,"current_range_meters":38000,"station_id":"ce4bhgp2rcd13ifvqfe0","pricing_plan_id":"cebpf4jnsgd1na2vs0mg"},{"bike_id":"4ce5df16-d3d9-4bcd-bd7b-5456cdfb6471","system_id":"levelo_inurba_marseille","lat":43.29622,"lon":5.37164,"is_reserved":false,"is_disabled":false,"rental_uris":{"android":"levelo://app?vid=4ce5df16-d3d9-4bcd-bd7b-5456cdfb6471","ios":"levelo://app?vid=4ce5df16-d3d9-4bcd-bd7b-5456cdfb6471"},"vehicle_type_id":"4","last_reported":1734703722,"current_range_meters":38000,"station_id":"ce4bgnh2rcd13ifvqc0g","pricing_plan_id":"cebpf4jnsgd1na2vs0mg"},{"bike_id":"f05bc1cd-1388-4df0-b1fe-3062406a5436","system_id":"levelo_inurba_marseille","lat":43.29427,"lon":5.38627,"is_reserved":false,"is_disabled":false,"rental_uris":{"android":"levelo://app?vid=f05bc1cd-1388-4df0-b1fe-3062406a5436","ios":"levelo://app?vid=f05bc1cd-1388-4df0-b1fe-3062406a5436"},"vehicle_type_id":"4","last_reported":1734703722,"current_range_meters":13600,"station_id":"ce4bh2h2rcd13ifvqdh0","pricing_plan_id":"cebpf4jnsgd1na2vs0mg"},{"bike_id":"0c9a1202-8e72-4c9a-bd45-c006f8854121","system_id":"levelo_inurba_marseille","lat":43.301545,"lon":5.380833,"is_reserved":false,"is_disabled":false,"rental_uris":{"android":"levelo://app?vid=0c9a1202-8e72-4c9a-bd45-c006f8854121","ios":"levelo://app?vid=0c9a1202-8e72-4c9a-bd45-c006f8854121"},"vehicle_type_id":"4","last_reported":1734703722,"current_range_meters":20000,"station_id":"ce4bgjp2rcd13ifvqbh0","pricing_plan_id":"cebpf4jnsgd1na2vs0mg"},{"bike_id":"ab05cc35-7958-43e3-8ad1-6f9630a6a31a","system_id":"levelo_inurba_marseille","lat":43.27848,"lon":5.39217,"is_reserved":false,"is_disabled":false,"rental_uris":{"android":"levelo://app?vid=ab05cc35-7958-43e3-8ad1-6f9630a6a31a","ios":"levelo://app?vid=ab05cc35-7958-43e3-8ad1-6f9630a6a31a"},"vehicle_type_id":"4","last_reported":1734703722,"current_range_meters":28800,"station_id":"ce4bhjp2rcd13ifvqga0","pricing_plan_id":"cebpf4jnsgd1na2vs0mg"},{"bike_id":"e7c94e5e-53f6-4b73-a8f7-2a2d3b6b112a","system_id":"levelo_inurba_marseille","lat":43.27989,"lon":5.40018,"is_reserved":false,"is_disabled":false,"rental_uris":{"android":"levelo://app?vid=e7c94e5e-53f6-4b73-a8f7-2a2d3b6b112a","ios":"levelo://app?vid=e7c94e5e-53f6-4b73-a8f7-2a2d3b6b112a"},"vehicle_type_id":"4","last_reported":1734703722,"current_range_meters":38400,"station_id":"ce4bho92rcd13ifvqh4g","pricing_plan_id":"cebpf4jnsgd1na2vs0mg"},{"bike_id":"eeb165cd-0850-4135-b307-a7a2de607d7b","system_id":"levelo_inurba_marseille","lat":43.28611,"lon":5.37061,"is_reserved":false,"is_disabled":false,"rental_uris":{"android":"levelo://app?vid=eeb165cd-0850-4135-b307-a7a2de607d7b","ios":"levelo://app?vid=eeb165cd-0850-4135-b307-a7a2de607d7b"},"vehicle_type_id":"4","last_reported":1734703722,"current_range_meters":38800,"station_id":"ce4bht12rcd13ifvqi60","pricing_plan_id":"cebpf4jnsgd1na2vs0mg"},{"bike_id":"f390ce75-9004-41a9-b255-fe8dab0d3b94","system_id":"levelo_inurba_marseille","lat":43.30353,"lon":5.4188,"is_reserved":false,"is_disabled":false,"rental_uris":{"android":"levelo://app?vid=f390ce75-9004-41a9-b255-fe8dab0d3b94","ios":"levelo://app?vid=f390ce75-9004-41a9-b255-fe8dab0d3b94"},"vehicle_type_id":"4","last_reported":1734703722,"current_range_meters":38800,"station_id":"ce4bhop2rcd13ifvqh7g","pricing_plan_id":"cebpf4jnsgd1na2vs0mg"},{"bike_id":"6e8a83fd-773b-41f4-aad3-93d792b685d7","system_id":"levelo_inurba_marseille","lat":43.26677,"lon":5.38269,"is_reserved":false,"is_disabled":false,"rental_uris":{"android":"levelo://app?vid=6e8a83fd-773b-41f4-aad3-93d792b685d7","ios":"levelo://app?vid=6e8a83fd-773b-41f4-aad3-93d792b685d7"},"vehicle_type_id":"4","last_reported":1734703722,"current_range_meters":6800,"station_id":"ce4bhg92rcd13ifvqf90","pricing_plan_id":"cebpf4jnsgd1na2vs0mg"},{"bike_id":"bde16004-2a0c-4fc8-acdd-f812d033bf70","system_id":"levelo_inurba_marseille","lat":43.26065,"lon":5.39388,"is_reserved":false,"is_disabled":false,"rental_uris":{"android":"levelo://app?vid=bde16004-2a0c-4fc8-acdd-f812d033bf70","ios":"levelo://app?vid=bde16004-2a0c-4fc8-acdd-f812d033bf70"},"vehicle_type_id":"4","last_reported":1734703722,"current_range_meters":8000,"station_id":"ce4bhh92rcd13ifvqfj0","pricing_plan_id":"cebpf4jnsgd1na2vs0mg"},{"bike_id":"df227d23-afec-4906-8b5a-7364725bbe5b","system_id":"levelo_inurba_marseille","lat":43.26495,"lon":5.39567,"is_reserved":false,"is_disabled":false,"rental_uris":{"android":"levelo://app?vid=df227d23-afec-4906-8b5a-7364725bbe5b","ios":"levelo://app?vid=df227d23-afec-4906-8b5a-7364725bbe5b"},"vehicle_type_id":"4","last_reported":1734703722,"current_range_meters":25600,"station_id":"ce4bhi12rcd13ifvqfq0","pricing_plan_id":"cebpf4jnsgd1na2vs0mg"},{"bike_id":"67aaf09e-bdab-4574-9974-a539d44162c7","system_id":"levelo_inurba_marseille","lat":43.29066,"lon":5.37108,"is_reserved":false,"is_disabled":false,"rental_uris":{"android":"levelo://app?vid=67aaf09e-bdab-4574-9974-a539d44162c7","ios":"levelo://app?vid=67aaf09e-bdab-4574-9974-a539d44162c7"},"vehicle_type_id":"4","last_reported":1734703722,"current_range_meters":38400,"station_id":"ce4bh5p2rcd13ifvqe4g","pricing_plan_id":"cebpf4jnsgd1na2vs0mg"},{"bike_id":"bd05d971-b29e-4d8f-9114-954dc7d95104","system_id":"levelo_inurba_marseille","lat":43.29277,"lon":5.36847,"is_reserved":false,"is_disabled":false,"rental_uris":{"android":"levelo://app?vid=bd05d971-b29e-4d8f-9114-954dc7d95104","ios":"levelo://app?vid=bd05d971-b29e-4d8f-9114-954dc7d95104"},"vehicle_type_id":"4","last_reported":1734703722,"current_range_meters":35200,"station_id":"ce4bhbp2rcd13ifvqesg","pricing_plan_id":"cebpf4jnsgd1na2vs0mg"},{"bike_id":"b97de283-c1e2-4a6a-a5f9-a7d1e36ef5dd","system_id":"levelo_inurba_marseille","lat":43.29626,"lon":5.37146,"is_reserved":false,"is_disabled":false,"rental_uris":{"android":"levelo://app?vid=b97de283-c1e2-4a6a-a5f9-a7d1e36ef5dd","ios":"levelo://app?vid=b97de283-c1e2-4a6a-a5f9-a7d1e36ef5dd"},"vehicle_type_id":"4","last_reported":1734703722,"current_range_meters":39200,"station_id":"ce4bgnh2rcd13ifvqc0g","pricing_plan_id":"cebpf4jnsgd1na2vs0mg"},{"bike_id":"9f50244a-d38a-491a-9f70-c23a46404b46","system_id":"levelo_inurba_marseille","lat":43.28606,"lon":5.37048,"is_reserved":false,"is_disabled":false,"rental_uris":{"android":"levelo://app?vid=9f50244a-d38a-491a-9f70-c23a46404b46","ios":"levelo://app?vid=9f50244a-d38a-491a-9f70-c23a46404b46"},"vehicle_type_id":"4","last_reported":1734703722,"current_range_meters":38800,"station_id":"ce4bht12rcd13ifvqi60","pricing_plan_id":"cebpf4jnsgd1na2vs0mg"},{"bike_id":"d49e9901-0be3-493d-8b2e-09dfce392707","system_id":"levelo_inurba_marseille","lat":43.27374,"lon":5.36254,"is_reserved":false,"is_disabled":false,"rental_uris":{"android":"levelo://app?vid=d49e9901-0be3-493d-8b2e-09dfce392707","ios":"levelo://app?vid=d49e9901-0be3-493d-8b2e-09dfce392707"},"vehicle_type_id":"4","last_reported":1734703722,"current_range_meters":38800,"station_id":"ce4bhbh2rcd13ifvqeo0","pricing_plan_id":"cebpf4jnsgd1na2vs0mg"},{"bike_id":"fdf39e5a-2938-40c7-adf0-aa570bdbf689","system_id":"levelo_inurba_marseille","lat":43.2962,"lon":5.38108,"is_reserved":false,"is_disabled":false,"rental_uris":{"android":"levelo://app?vid=fdf39e5a-2938-40c7-adf0-aa570bdbf689","ios":"levelo://app?vid=fdf39e5a-2938-40c7-adf0-aa570bdbf689"},"vehicle_type_id":"4","last_reported":1734703722,"current_range_meters":24000,"station_id":"ce4bgl12rcd13ifvqbo0","pricing_plan_id":"cebpf4jnsgd1na2vs0mg"},{"bike_id":"8f6798f2-4f69-4fa3-8218-4b173e6d6bad","system_id":"levelo_inurba_marseille","lat":43.27963,"lon":5.38717,"is_reserved":false,"is_disabled":false,"rental_uris":{"android":"levelo://app?vid=8f6798f2-4f69-4fa3-8218-4b173e6d6bad","ios":"levelo://app?vid=8f6798f2-4f69-4fa3-8218-4b173e6d6bad"},"vehicle_type_id":"4","last_reported":1734703722,"current_range_meters":38800,"station_id":"ce4bhg12rcd13ifvqf80","pricing_plan_id":"cebpf4jnsgd1na2vs0mg"},{"bike_id":"c7f3790f-1be1-459d-8fd5-eb3dc47d8f4c","system_id":"levelo_inurba_marseille","lat":43.29836,"lon":5.36266,"is_reserved":false,"is_disabled":false,"rental_uris":{"android":"levelo://app?vid=c7f3790f-1be1-459d-8fd5-eb3dc47d8f4c","ios":"levelo://app?vid=c7f3790f-1be1-459d-8fd5-eb3dc47d8f4c"},"vehicle_type_id":"4","last_reported":1734703722,"current_range_meters":38800,"station_id":"ce4bgpp2rcd13ifvqc3g","pricing_plan_id":"cebpf4jnsgd1na2vs0mg"},{"bike_id":"fdedeb22-25f3-437c-93c3-0cffa7be6e4d","system_id":"levelo_inurba_marseille","lat":43.28456,"lon":5.35894,"is_reserved":false,"is_disabled":false,"rental_uris":{"android":"levelo://app?vid=fdedeb22-25f3-437c-93c3-0cffa7be6e4d","ios":"levelo://app?vid=fdedeb22-25f3-437c-93c3-0cffa7be6e4d"},"vehicle_type_id":"4","last_reported":1734703722,"current_range_meters":39200,"station_id":"ce4bhah2rcd13ifvqei0","pricing_plan_id":"cebpf4jnsgd1na2vs0mg"},{"bike_id":"062c202e-7a49-4084-9515-41436b3e1b42","system_id":"levelo_inurba_marseille","lat":43.30132,"lon":5.39857,"is_reserved":false,"is_disabled":false,"rental_uris":{"android":"levelo://app?vid=062c202e-7a49-4084-9515-41436b3e1b42","ios":"levelo://app?vid=062c202e-7a49-4084-9515-41436b3e1b42"},"vehicle_type_id":"4","last_reported":1734703722,"current_range_meters":25600,"station_id":"ce4bh0h2rcd13ifvqd40","pricing_plan_id":"cebpf4jnsgd1na2vs0mg"},{"bike_id":"c8b30424-050c-4dd3-9931-fa2ff9468c28","system_id":"levelo_inurba_marseille","lat":43.303,"lon":5.377,"is_reserved":false,"is_disabled":false,"rental_uris":{"android":"levelo://app?vid=c8b30424-050c-4dd3-9931-fa2ff9468c28","ios":"levelo://app?vid=c8b30424-050c-4dd3-9931-fa2ff9468c28"},"vehicle_type_id":"4","last_reported":1734703722,"current_range_meters":38800,"station_id":"ce4bguh2rcd13ifvqcj0","pricing_plan_id":"cebpf4jnsgd1na2vs0mg"},{"bike_id":"be8dff32-f6aa-4122-b4f6-e999ce11b319","system_id":"levelo_inurba_marseille","lat":43.29598,"lon":5.38105,"is_reserved":false,"is_disabled":false,"rental_uris":{"android":"levelo://app?vid=be8dff32-f6aa-4122-b4f6-e999ce11b319","ios":"levelo://app?vid=be8dff32-f6aa-4122-b4f6-e999ce11b319"},"vehicle_type_id":"4","last_reported":1734703722,"current_range_meters":28400,"station_id":"ce4bgl12rcd13ifvqbo0","pricing_plan_id":"cebpf4jnsgd1na2vs0mg"},{"bike_id":"a7053f8c-b657-4929-95e3-080c0ef9f617","system_id":"levelo_inurba_marseille","lat":43.27943,"lon":5.41059,"is_reserved":false,"is_disabled":false,"rental_uris":{"android":"levelo://app?vid=a7053f8c-b657-4929-95e3-080c0ef9f617","ios":"levelo://app?vid=a7053f8c-b657-4929-95e3-080c0ef9f617"},"vehicle_type_id":"4","last_reported":1734703722,"current_range_meters":24000,"station_id":"ce4bhnp2rcd13ifvqh0g","pricing_plan_id":"cebpf4jnsgd1na2vs0mg"},{"bike_id":"8fb1bad3-a121-4eb1-a55f-687f99cf68d1","system_id":"levelo_inurba_marseille","lat":43.255,"lon":5.37675,"is_reserved":false,"is_disabled":false,"rental_uris":{"android":"levelo://app?vid=8fb1bad3-a121-4eb1-a55f-687f99cf68d1","ios":"levelo://app?vid=8fb1bad3-a121-4eb1-a55f-687f99cf68d1"},"vehicle_type_id":"4","last_reported":1734703722,"current_range_meters":38800,"station_id":"ce4bhh12rcd13ifvqff0","pricing_plan_id":"cebpf4jnsgd1na2vs0mg"},{"bike_id":"09bec947-4c4d-46e1-81b7-d95e087b0d9f","system_id":"levelo_inurba_marseille","lat":43.25492,"lon":5.37651,"is_reserved":false,"is_disabled":false,"rental_uris":{"android":"levelo://app?vid=09bec947-4c4d-46e1-81b7-d95e087b0d9f","ios":"levelo://app?vid=09bec947-4c4d-46e1-81b7-d95e087b0d9f"},"vehicle_type_id":"4","last_reported":1734703722,"current_range_meters":38800,"station_id":"ce4bhh12rcd13ifvqff0","pricing_plan_id":"cebpf4jnsgd1na2vs0mg"},{"bike_id":"5336d7a6-42c9-4b0e-bd88-48bd00b22755","system_id":"levelo_inurba_marseille","lat":43.25494,"lon":5.37654,"is_reserved":false,"is_disabled":false,"rental_uris":{"android":"levelo://app?vid=5336d7a6-42c9-4b0e-bd88-48bd00b22755","ios":"levelo://app?vid=5336d7a6-42c9-4b0e-bd88-48bd00b22755"},"vehicle_type_id":"4","last_reported":1734703722,"current_range_meters":38000,"station_id":"ce4bhh12rcd13ifvqff0","pricing_plan_id":"cebpf4jnsgd1na2vs0mg"},{"bike_id":"6b9cb4b7-081a-4688-aa4c-fe83ccb2d64e","system_id":"levelo_inurba_marseille","lat":43.30596,"lon":5.37232,"is_reserved":false,"is_disabled":false,"rental_uris":{"android":"levelo://app?vid=6b9cb4b7-081a-4688-aa4c-fe83ccb2d64e","ios":"levelo://app?vid=6b9cb4b7-081a-4688-aa4c-fe83ccb2d64e"},"vehicle_type_id":"4","last_reported":1734703722,"current_range_meters":22800,"station_id":"ce4bgqh2rcd13ifvqc4g","pricing_plan_id":"cebpf4jnsgd1na2vs0mg"},{"bike_id":"e589d504-5473-4130-9711-25f6f8359021","system_id":"levelo_inurba_marseille","lat":43.30463,"lon":5.3886,"is_reserved":false,"is_disabled":false,"rental_uris":{"android":"levelo://app?vid=e589d504-5473-4130-9711-25f6f8359021","ios":"levelo://app?vid=e589d504-5473-4130-9711-25f6f8359021"},"vehicle_type_id":"4","last_reported":1734703722,"current_range_meters":26000,"station_id":"ce4bgk12rcd13ifvqbi0","pricing_plan_id":"cebpf4jnsgd1na2vs0mg"},{"bike_id":"70819d6c-3617-4e48-a1ff-45276a1c2e22","system_id":"levelo_inurba_marseille","lat":43.26918,"lon":5.4028,"is_reserved":false,"is_disabled":false,"rental_uris":{"android":"levelo://app?vid=70819d6c-3617-4e48-a1ff-45276a1c2e22","ios":"levelo://app?vid=70819d6c-3617-4e48-a1ff-45276a1c2e22"},"vehicle_type_id":"4","last_reported":1734703722,"current_range_meters":37600,"station_id":"cjm6bp8fraef2m0cb0m0","pricing_plan_id":"cebpf4jnsgd1na2vs0mg"},{"bike_id":"fc4ff347-ef4d-4a4d-ae09-babf618fedb6","system_id":"levelo_inurba_marseille","lat":43.24169,"lon":5.36403,"is_reserved":false,"is_disabled":false,"rental_uris":{"android":"levelo://app?vid=fc4ff347-ef4d-4a4d-ae09-babf618fedb6","ios":"levelo://app?vid=fc4ff347-ef4d-4a4d-ae09-babf618fedb6"},"vehicle_type_id":"4","last_reported":1734703722,"current_range_meters":38800,"station_id":"cpo36qri1sfpv3e86is0","pricing_plan_id":"cebpf4jnsgd1na2vs0mg"},{"bike_id":"4e1c702f-4fec-4a09-a45d-af1848f5ba3b","system_id":"levelo_inurba_marseille","lat":43.25577,"lon":5.38239,"is_reserved":false,"is_disabled":false,"rental_uris":{"android":"levelo://app?vid=4e1c702f-4fec-4a09-a45d-af1848f5ba3b","ios":"levelo://app?vid=4e1c702f-4fec-4a09-a45d-af1848f5ba3b"},"vehicle_type_id":"4","last_reported":1734703722,"current_range_meters":38800,"station_id":"ce4bhih2rcd13ifvqfs0","pricing_plan_id":"cebpf4jnsgd1na2vs0mg"},{"bike_id":"b6754738-1b9b-4589-9897-8737ed749c93","system_id":"levelo_inurba_marseille","lat":43.29198,"lon":5.3581,"is_reserved":false,"is_disabled":false,"rental_uris":{"android":"levelo://app?vid=b6754738-1b9b-4589-9897-8737ed749c93","ios":"levelo://app?vid=b6754738-1b9b-4589-9897-8737ed749c93"},"vehicle_type_id":"4","last_reported":1734703722,"current_range_meters":12400,"station_id":"ce4bhb12rcd13ifvqel0","pricing_plan_id":"cebpf4jnsgd1na2vs0mg"},{"bike_id":"f0598eeb-6636-4202-bc3a-c35fdb37b2a3","system_id":"levelo_inurba_marseille","lat":43.30156,"lon":5.3809,"is_reserved":false,"is_disabled":false,"rental_uris":{"android":"levelo://app?vid=f0598eeb-6636-4202-bc3a-c35fdb37b2a3","ios":"levelo://app?vid=f0598eeb-6636-4202-bc3a-c35fdb37b2a3"},"vehicle_type_id":"4","last_reported":1734703722,"current_range_meters":23200,"station_id":"ce4bgjp2rcd13ifvqbh0","pricing_plan_id":"cebpf4jnsgd1na2vs0mg"},{"bike_id":"10cebee1-8e53-4504-8dc6-92f59059f295","system_id":"levelo_inurba_marseille","lat":43.27808,"lon":5.40708,"is_reserved":false,"is_disabled":false,"rental_uris":{"android":"levelo://app?vid=10cebee1-8e53-4504-8dc6-92f59059f295","ios":"levelo://app?vid=10cebee1-8e53-4504-8dc6-92f59059f295"},"vehicle_type_id":"4","last_reported":1734703722,"current_range_meters":39200,"station_id":"ce4bhnh2rcd13ifvqgtg","pricing_plan_id":"cebpf4jnsgd1na2vs0mg"},{"bike_id":"8fc9df2f-6f94-498a-bf0e-89a6800b59f4","system_id":"levelo_inurba_marseille","lat":43.29789,"lon":5.3934,"is_reserved":false,"is_disabled":false,"rental_uris":{"android":"levelo://app?vid=8fc9df2f-6f94-498a-bf0e-89a6800b59f4","ios":"levelo://app?vid=8fc9df2f-6f94-498a-bf0e-89a6800b59f4"},"vehicle_type_id":"4","last_reported":1734703722,"current_range_meters":38800,"station_id":"chh1huq6cuj3fo74tm60","pricing_plan_id":"cebpf4jnsgd1na2vs0mg"},{"bike_id":"b1ab1b85-1e06-4b69-af43-48dd77a5a847","system_id":"levelo_inurba_marseille","lat":43.31692,"lon":5.40479,"is_reserved":false,"is_disabled":false,"rental_uris":{"android":"levelo://app?vid=b1ab1b85-1e06-4b69-af43-48dd77a5a847","ios":"levelo://app?vid=b1ab1b85-1e06-4b69-af43-48dd77a5a847"},"vehicle_type_id":"4","last_reported":1734703722,"current_range_meters":27600,"station_id":"ce4bh012rcd13ifvqd00","pricing_plan_id":"cebpf4jnsgd1na2vs0mg"},{"bike_id":"4695cff2-e8a9-4cfc-a059-a1678fa39cf5","system_id":"levelo_inurba_marseille","lat":43.27805,"lon":5.40709,"is_reserved":false,"is_disabled":false,"rental_uris":{"android":"levelo://app?vid=4695cff2-e8a9-4cfc-a059-a1678fa39cf5","ios":"levelo://app?vid=4695cff2-e8a9-4cfc-a059-a1678fa39cf5"},"vehicle_type_id":"4","last_reported":1734703722,"current_range_meters":32000,"station_id":"ce4bhnh2rcd13ifvqgtg","pricing_plan_id":"cebpf4jnsgd1na2vs0mg"},{"bike_id":"47b0ab5e-d500-4c65-8aaa-676c147017a7","system_id":"levelo_inurba_marseille","lat":43.31536,"lon":5.38033,"is_reserved":false,"is_disabled":false,"rental_uris":{"android":"levelo://app?vid=47b0ab5e-d500-4c65-8aaa-676c147017a7","ios":"levelo://app?vid=47b0ab5e-d500-4c65-8aaa-676c147017a7"},"vehicle_type_id":"4","last_reported":1734703722,"current_range_meters":39200,"station_id":"ce4bhsp2rcd13ifvqi50","pricing_plan_id":"cebpf4jnsgd1na2vs0mg"},{"bike_id":"05929ef6-9ef2-4752-a127-101b7fed8eb1","system_id":"levelo_inurba_marseille","lat":43.295694,"lon":5.375044,"is_reserved":false,"is_disabled":false,"rental_uris":{"android":"levelo://app?vid=05929ef6-9ef2-4752-a127-101b7fed8eb1","ios":"levelo://app?vid=05929ef6-9ef2-4752-a127-101b7fed8eb1"},"vehicle_type_id":"4","last_reported":1734703722,"current_range_meters":34800,"station_id":"ce4bgh92rcd13ifvqb50","pricing_plan_id":"cebpf4jnsgd1na2vs0mg"},{"bike_id":"6b311879-2bde-4ef4-b466-fe69eb768b43","system_id":"levelo_inurba_marseille","lat":43.2668,"lon":5.38271,"is_reserved":false,"is_disabled":false,"rental_uris":{"android":"levelo://app?vid=6b311879-2bde-4ef4-b466-fe69eb768b43","ios":"levelo://app?vid=6b311879-2bde-4ef4-b466-fe69eb768b43"},"vehicle_type_id":"4","last_reported":1734703722,"current_range_meters":39200,"station_id":"ce4bhg92rcd13ifvqf90","pricing_plan_id":"cebpf4jnsgd1na2vs0mg"},{"bike_id":"4d7a228f-4e0b-48fe-a576-0bd3e50315a1","system_id":"levelo_inurba_marseille","lat":43.2842,"lon":5.34992,"is_reserved":false,"is_disabled":false,"rental_uris":{"android":"levelo://app?vid=4d7a228f-4e0b-48fe-a576-0bd3e50315a1","ios":"levelo://app?vid=4d7a228f-4e0b-48fe-a576-0bd3e50315a1"},"vehicle_type_id":"4","last_reported":1734703722,"current_range_meters":20800,"station_id":"ce4bhbh2rcd13ifvqepg","pricing_plan_id":"cebpf4jnsgd1na2vs0mg"},{"bike_id":"c1508a77-baa1-4943-a261-0ce9db44ba22","system_id":"levelo_inurba_marseille","lat":43.29388,"lon":5.37858,"is_reserved":false,"is_disabled":false,"rental_uris":{"android":"levelo://app?vid=c1508a77-baa1-4943-a261-0ce9db44ba22","ios":"levelo://app?vid=c1508a77-baa1-4943-a261-0ce9db44ba22"},"vehicle_type_id":"4","last_reported":1734703722,"current_range_meters":39200,"station_id":"ce4bgjh2rcd13ifvqbf0","pricing_plan_id":"cebpf4jnsgd1na2vs0mg"},{"bike_id":"98fc733f-5d91-435e-ad0c-b71f46f528b9","system_id":"levelo_inurba_marseille","lat":43.2962,"lon":5.37726,"is_reserved":false,"is_disabled":false,"rental_uris":{"android":"levelo://app?vid=98fc733f-5d91-435e-ad0c-b71f46f528b9","ios":"levelo://app?vid=98fc733f-5d91-435e-ad0c-b71f46f528b9"},"vehicle_type_id":"4","last_reported":1734703722,"current_range_meters":25200,"station_id":"ce4bgi92rcd13ifvqb90","pricing_plan_id":"cebpf4jnsgd1na2vs0mg"},{"bike_id":"04251412-591f-4936-bca7-1dc4aa87eeae","system_id":"levelo_inurba_marseille","lat":43.29836,"lon":5.36268,"is_reserved":false,"is_disabled":false,"rental_uris":{"android":"levelo://app?vid=04251412-591f-4936-bca7-1dc4aa87eeae","ios":"levelo://app?vid=04251412-591f-4936-bca7-1dc4aa87eeae"},"vehicle_type_id":"4","last_reported":1734703722,"current_range_meters":38000,"station_id":"ce4bgpp2rcd13ifvqc3g","pricing_plan_id":"cebpf4jnsgd1na2vs0mg"},{"bike_id":"46d9bce4-7cd3-4cd2-8a82-ea387b2db957","system_id":"levelo_inurba_marseille","lat":43.2871,"lon":5.3793,"is_reserved":false,"is_disabled":false,"rental_uris":{"android":"levelo://app?vid=46d9bce4-7cd3-4cd2-8a82-ea387b2db957","ios":"levelo://app?vid=46d9bce4-7cd3-4cd2-8a82-ea387b2db957"},"vehicle_type_id":"4","last_reported":1734703722,"current_range_meters":13600,"station_id":"ce4bh9p2rcd13ifvqec0","pricing_plan_id":"cebpf4jnsgd1na2vs0mg"},{"bike_id":"14f5776d-afdf-499f-b223-c5bc03271a4c","system_id":"levelo_inurba_marseille","lat":43.32663,"lon":5.40995,"is_reserved":false,"is_disabled":false,"rental_uris":{"android":"levelo://app?vid=14f5776d-afdf-499f-b223-c5bc03271a4c","ios":"levelo://app?vid=14f5776d-afdf-499f-b223-c5bc03271a4c"},"vehicle_type_id":"4","last_reported":1734703722,"current_range_meters":19200,"station_id":"ce4bhpp2rcd13ifvqhgg","pricing_plan_id":"cebpf4jnsgd1na2vs0mg"},{"bike_id":"ebdab804-34af-42e1-bc63-c568a323e71b","system_id":"levelo_inurba_marseille","lat":43.30279,"lon":5.37703,"is_reserved":false,"is_disabled":false,"rental_uris":{"android":"levelo://app?vid=ebdab804-34af-42e1-bc63-c568a323e71b","ios":"levelo://app?vid=ebdab804-34af-42e1-bc63-c568a323e71b"},"vehicle_type_id":"4","last_reported":1734703722,"current_range_meters":36400,"station_id":"ce4bguh2rcd13ifvqcj0","pricing_plan_id":"cebpf4jnsgd1na2vs0mg"},{"bike_id":"b6566dc7-8f34-49e8-ad9b-8ac04fe415f2","system_id":"levelo_inurba_marseille","lat":43.289368,"lon":5.3963,"is_reserved":false,"is_disabled":false,"rental_uris":{"android":"levelo://app?vid=b6566dc7-8f34-49e8-ad9b-8ac04fe415f2","ios":"levelo://app?vid=b6566dc7-8f34-49e8-ad9b-8ac04fe415f2"},"vehicle_type_id":"4","last_reported":1734703722,"current_range_meters":24800,"station_id":"ce4bh3h2rcd13ifvqdn0","pricing_plan_id":"cebpf4jnsgd1na2vs0mg"},{"bike_id":"2a12bde8-ca1e-4ca8-8cbb-8dbf9a638106","system_id":"levelo_inurba_marseille","lat":43.23189,"lon":5.35564,"is_reserved":false,"is_disabled":false,"rental_uris":{"android":"levelo://app?vid=2a12bde8-ca1e-4ca8-8cbb-8dbf9a638106","ios":"levelo://app?vid=2a12bde8-ca1e-4ca8-8cbb-8dbf9a638106"},"vehicle_type_id":"4","last_reported":1734703722,"current_range_meters":25200,"station_id":"ce4bhu92rcd13ifvqi70","pricing_plan_id":"cebpf4jnsgd1na2vs0mg"},{"bike_id":"82b98b08-cf84-40f3-a0a4-1136038c5b5f","system_id":"levelo_inurba_marseille","lat":43.288515,"lon":5.358554,"is_reserved":false,"is_disabled":false,"rental_uris":{"android":"levelo://app?vid=82b98b08-cf84-40f3-a0a4-1136038c5b5f","ios":"levelo://app?vid=82b98b08-cf84-40f3-a0a4-1136038c5b5f"},"vehicle_type_id":"4","last_reported":1734703722,"current_range_meters":35200,"station_id":"ce4bhb12rcd13ifvqem0","pricing_plan_id":"cebpf4jnsgd1na2vs0mg"},{"bike_id":"c4f01ca7-28f1-454d-ba01-b7f6f6e2db1f","system_id":"levelo_inurba_marseille","lat":43.24806,"lon":5.37457,"is_reserved":false,"is_disabled":false,"rental_uris":{"android":"levelo://app?vid=c4f01ca7-28f1-454d-ba01-b7f6f6e2db1f","ios":"levelo://app?vid=c4f01ca7-28f1-454d-ba01-b7f6f6e2db1f"},"vehicle_type_id":"4","last_reported":1734703722,"current_range_meters":15200,"station_id":"ce4bhgh2rcd13ifvqfb0","pricing_plan_id":"cebpf4jnsgd1na2vs0mg"},{"bike_id":"434fc0df-6295-4be1-949d-a77a16929ec8","system_id":"levelo_inurba_marseille","lat":43.26212,"lon":5.3792,"is_reserved":false,"is_disabled":false,"rental_uris":{"android":"levelo://app?vid=434fc0df-6295-4be1-949d-a77a16929ec8","ios":"levelo://app?vid=434fc0df-6295-4be1-949d-a77a16929ec8"},"vehicle_type_id":"4","last_reported":1734703722,"current_range_meters":38800,"station_id":"ce4bhjp2rcd13ifvqg90","pricing_plan_id":"cebpf4jnsgd1na2vs0mg"},{"bike_id":"f0bcbb45-555d-4c5b-8534-084b0fafc4e9","system_id":"levelo_inurba_marseille","lat":43.29159,"lon":5.37159,"is_reserved":false,"is_disabled":true,"rental_uris":{"android":"levelo://app?vid=f0bcbb45-555d-4c5b-8534-084b0fafc4e9","ios":"levelo://app?vid=f0bcbb45-555d-4c5b-8534-084b0fafc4e9"},"vehicle_type_id":"4","last_reported":1734703722,"current_range_meters":11600,"station_id":"ce4bha92rcd13ifvqeh0","pricing_plan_id":"cebpf4jnsgd1na2vs0mg"},{"bike_id":"6db66f00-ef2a-483f-bac3-d3e1888059d9","system_id":"levelo_inurba_marseille","lat":43.30616,"lon":5.37224,"is_reserved":false,"is_disabled":false,"rental_uris":{"android":"levelo://app?vid=6db66f00-ef2a-483f-bac3-d3e1888059d9","ios":"levelo://app?vid=6db66f00-ef2a-483f-bac3-d3e1888059d9"},"vehicle_type_id":"4","last_reported":1734703722,"current_range_meters":20800,"station_id":"ce4bgqh2rcd13ifvqc4g","pricing_plan_id":"cebpf4jnsgd1na2vs0mg"},{"bike_id":"b002d028-e42c-46e2-93ce-a18a7a90546e","system_id":"levelo_inurba_marseille","lat":43.32294,"lon":5.38308,"is_reserved":false,"is_disabled":false,"rental_uris":{"android":"levelo://app?vid=b002d028-e42c-46e2-93ce-a18a7a90546e","ios":"levelo://app?vid=b002d028-e42c-46e2-93ce-a18a7a90546e"},"vehicle_type_id":"4","last_reported":1734703722,"current_range_meters":17200,"station_id":"ce4bhr12rcd13ifvqhqg","pricing_plan_id":"cebpf4jnsgd1na2vs0mg"},{"bike_id":"e05215ef-24c4-43b6-82be-b4cf78f0b452","system_id":"levelo_inurba_marseille","lat":43.28463,"lon":5.3843,"is_reserved":false,"is_disabled":false,"rental_uris":{"android":"levelo://app?vid=e05215ef-24c4-43b6-82be-b4cf78f0b452","ios":"levelo://app?vid=e05215ef-24c4-43b6-82be-b4cf78f0b452"},"vehicle_type_id":"4","last_reported":1734703722,"current_range_meters":38000,"station_id":"ce4bh512rcd13ifvqe3g","pricing_plan_id":"cebpf4jnsgd1na2vs0mg"},{"bike_id":"3501d90e-eae1-4d8f-b35b-e6f7b62a0e74","system_id":"levelo_inurba_marseille","lat":43.30208,"lon":5.39469,"is_reserved":false,"is_disabled":false,"rental_uris":{"android":"levelo://app?vid=3501d90e-eae1-4d8f-b35b-e6f7b62a0e74","ios":"levelo://app?vid=3501d90e-eae1-4d8f-b35b-e6f7b62a0e74"},"vehicle_type_id":"4","last_reported":1734703722,"current_range_meters":37600,"station_id":"ce4bh0p2rcd13ifvqd70","pricing_plan_id":"cebpf4jnsgd1na2vs0mg"},{"bike_id":"2b0ada48-6876-42bd-81fc-86ee940c751b","system_id":"levelo_inurba_marseille","lat":43.30208,"lon":5.39465,"is_reserved":false,"is_disabled":false,"rental_uris":{"android":"levelo://app?vid=2b0ada48-6876-42bd-81fc-86ee940c751b","ios":"levelo://app?vid=2b0ada48-6876-42bd-81fc-86ee940c751b"},"vehicle_type_id":"4","last_reported":1734703722,"current_range_meters":30800,"station_id":"ce4bh0p2rcd13ifvqd70","pricing_plan_id":"cebpf4jnsgd1na2vs0mg"},{"bike_id":"40a10b34-f461-43ca-bf6c-38122655f7e6","system_id":"levelo_inurba_marseille","lat":43.25005,"lon":5.38925,"is_reserved":false,"is_disabled":false,"rental_uris":{"android":"levelo://app?vid=40a10b34-f461-43ca-bf6c-38122655f7e6","ios":"levelo://app?vid=40a10b34-f461-43ca-bf6c-38122655f7e6"},"vehicle_type_id":"4","last_reported":1734703722,"current_range_meters":25600,"station_id":"ce4bhgp2rcd13ifvqfd0","pricing_plan_id":"cebpf4jnsgd1na2vs0mg"},{"bike_id":"4094ac40-fe97-4483-91f4-bc4b6a97b4f3","system_id":"levelo_inurba_marseille","lat":43.25835,"lon":5.3944,"is_reserved":false,"is_disabled":false,"rental_uris":{"android":"levelo://app?vid=4094ac40-fe97-4483-91f4-bc4b6a97b4f3","ios":"levelo://app?vid=4094ac40-fe97-4483-91f4-bc4b6a97b4f3"},"vehicle_type_id":"4","last_reported":1734703722,"current_range_meters":9600,"station_id":"ce4bhip2rcd13ifvqft0","pricing_plan_id":"cebpf4jnsgd1na2vs0mg"},{"bike_id":"b44f9236-c33f-43b3-ab7e-0f32e9951c9e","system_id":"levelo_inurba_marseille","lat":43.23194,"lon":5.35554,"is_reserved":false,"is_disabled":false,"rental_uris":{"android":"levelo://app?vid=b44f9236-c33f-43b3-ab7e-0f32e9951c9e","ios":"levelo://app?vid=b44f9236-c33f-43b3-ab7e-0f32e9951c9e"},"vehicle_type_id":"4","last_reported":1734703722,"current_range_meters":6800,"station_id":"ce4bhu92rcd13ifvqi70","pricing_plan_id":"cebpf4jnsgd1na2vs0mg"},{"bike_id":"7cdaab41-d6a9-411c-91af-08e1cd111a45","system_id":"levelo_inurba_marseille","lat":43.30771,"lon":5.40257,"is_reserved":false,"is_disabled":false,"rental_uris":{"android":"levelo://app?vid=7cdaab41-d6a9-411c-91af-08e1cd111a45","ios":"levelo://app?vid=7cdaab41-d6a9-411c-91af-08e1cd111a45"},"vehicle_type_id":"4","last_reported":1734703722,"current_range_meters":11200,"station_id":"","pricing_plan_id":"cebpf4jnsgd1na2vs0mg"},{"bike_id":"ccc6602e-98be-4003-8018-85b6210ad28c","system_id":"levelo_inurba_marseille","lat":43.27672,"lon":5.38865,"is_reserved":false,"is_disabled":false,"rental_uris":{"android":"levelo://app?vid=ccc6602e-98be-4003-8018-85b6210ad28c","ios":"levelo://app?vid=ccc6602e-98be-4003-8018-85b6210ad28c"},"vehicle_type_id":"4","last_reported":1734703722,"current_range_meters":28000,"station_id":"ce4bhi12rcd13ifvqfo0","pricing_plan_id":"cebpf4jnsgd1na2vs0mg"},{"bike_id":"bc957a83-7285-4dfc-8fd2-fd6117410c51","system_id":"levelo_inurba_marseille","lat":43.27424,"lon":5.3942,"is_reserved":false,"is_disabled":false,"rental_uris":{"android":"levelo://app?vid=bc957a83-7285-4dfc-8fd2-fd6117410c51","ios":"levelo://app?vid=bc957a83-7285-4dfc-8fd2-fd6117410c51"},"vehicle_type_id":"4","last_reported":1734703722,"current_range_meters":31200,"station_id":"ce4bhdp2rcd13ifvqf20","pricing_plan_id":"cebpf4jnsgd1na2vs0mg"},{"bike_id":"b152beff-460f-416e-9e7c-554e402210ef","system_id":"levelo_inurba_marseille","lat":43.24666,"lon":5.38174,"is_reserved":false,"is_disabled":false,"rental_uris":{"android":"levelo://app?vid=b152beff-460f-416e-9e7c-554e402210ef","ios":"levelo://app?vid=b152beff-460f-416e-9e7c-554e402210ef"},"vehicle_type_id":"4","last_reported":1734703722,"current_range_meters":38800,"station_id":"ce4bhih2rcd13ifvqfr0","pricing_plan_id":"cebpf4jnsgd1na2vs0mg"},{"bike_id":"a75b08f1-37cc-41c5-95db-2b9ed81dc942","system_id":"levelo_inurba_marseille","lat":43.29734,"lon":5.37693,"is_reserved":false,"is_disabled":false,"rental_uris":{"android":"levelo://app?vid=a75b08f1-37cc-41c5-95db-2b9ed81dc942","ios":"levelo://app?vid=a75b08f1-37cc-41c5-95db-2b9ed81dc942"},"vehicle_type_id":"4","last_reported":1734703722,"current_range_meters":24400,"station_id":"ce4bgkh2rcd13ifvqbl0","pricing_plan_id":"cebpf4jnsgd1na2vs0mg"},{"bike_id":"7f26a9f5-a8ad-47b3-9fb1-698bff1dae74","system_id":"levelo_inurba_marseille","lat":43.302803,"lon":5.377079,"is_reserved":false,"is_disabled":false,"rental_uris":{"android":"levelo://app?vid=7f26a9f5-a8ad-47b3-9fb1-698bff1dae74","ios":"levelo://app?vid=7f26a9f5-a8ad-47b3-9fb1-698bff1dae74"},"vehicle_type_id":"4","last_reported":1734703722,"current_range_meters":38800,"station_id":"ce4bguh2rcd13ifvqcj0","pricing_plan_id":"cebpf4jnsgd1na2vs0mg"},{"bike_id":"64229b70-221f-4057-87fe-de5b125293ff","system_id":"levelo_inurba_marseille","lat":43.3018,"lon":5.36606,"is_reserved":false,"is_disabled":false,"rental_uris":{"android":"levelo://app?vid=64229b70-221f-4057-87fe-de5b125293ff","ios":"levelo://app?vid=64229b70-221f-4057-87fe-de5b125293ff"},"vehicle_type_id":"4","last_reported":1734703722,"current_range_meters":38800,"station_id":"ce4bgrh2rcd13ifvqc8g","pricing_plan_id":"cebpf4jnsgd1na2vs0mg"},{"bike_id":"9bb85159-9b97-48c7-8b70-a5ba1a6e19c5","system_id":"levelo_inurba_marseille","lat":43.32481,"lon":5.3656,"is_reserved":false,"is_disabled":false,"rental_uris":{"android":"levelo://app?vid=9bb85159-9b97-48c7-8b70-a5ba1a6e19c5","ios":"levelo://app?vid=9bb85159-9b97-48c7-8b70-a5ba1a6e19c5"},"vehicle_type_id":"4","last_reported":1734703722,"current_range_meters":24000,"station_id":"ce4bhs12rcd13ifvqhvg","pricing_plan_id":"cebpf4jnsgd1na2vs0mg"},{"bike_id":"59edd089-7379-4180-ab91-a07c47a59c06","system_id":"levelo_inurba_marseille","lat":43.31084,"lon":5.42432,"is_reserved":false,"is_disabled":false,"rental_uris":{"android":"levelo://app?vid=59edd089-7379-4180-ab91-a07c47a59c06","ios":"levelo://app?vid=59edd089-7379-4180-ab91-a07c47a59c06"},"vehicle_type_id":"4","last_reported":1734703722,"current_range_meters":26000,"station_id":"ce4bhp92rcd13ifvqhag","pricing_plan_id":"cebpf4jnsgd1na2vs0mg"},{"bike_id":"61d6996d-3290-4ff0-9ef3-387b57fcacbb","system_id":"levelo_inurba_marseille","lat":43.301268,"lon":5.374343,"is_reserved":false,"is_disabled":false,"rental_uris":{"android":"levelo://app?vid=61d6996d-3290-4ff0-9ef3-387b57fcacbb","ios":"levelo://app?vid=61d6996d-3290-4ff0-9ef3-387b57fcacbb"},"vehicle_type_id":"4","last_reported":1734703722,"current_range_meters":33200,"station_id":"ce4bgs92rcd13ifvqcc0","pricing_plan_id":"cebpf4jnsgd1na2vs0mg"},{"bike_id":"cf7ee5da-8f20-4e0c-9be2-887033ef8c21","system_id":"levelo_inurba_marseille","lat":43.29937,"lon":5.36566,"is_reserved":false,"is_disabled":false,"rental_uris":{"android":"levelo://app?vid=cf7ee5da-8f20-4e0c-9be2-887033ef8c21","ios":"levelo://app?vid=cf7ee5da-8f20-4e0c-9be2-887033ef8c21"},"vehicle_type_id":"4","last_reported":1734703722,"current_range_meters":28800,"station_id":"ce4bgm92rcd13ifvqbr0","pricing_plan_id":"cebpf4jnsgd1na2vs0mg"},{"bike_id":"758af6d3-edf0-406a-bc10-190e811c81d4","system_id":"levelo_inurba_marseille","lat":43.26213,"lon":5.37443,"is_reserved":false,"is_disabled":false,"rental_uris":{"android":"levelo://app?vid=758af6d3-edf0-406a-bc10-190e811c81d4","ios":"levelo://app?vid=758af6d3-edf0-406a-bc10-190e811c81d4"},"vehicle_type_id":"4","last_reported":1734703722,"current_range_meters":38000,"station_id":"ce4bhgp2rcd13ifvqfc0","pricing_plan_id":"cebpf4jnsgd1na2vs0mg"},{"bike_id":"b179d739-dd2d-40f1-abeb-7e96a65f6e4f","system_id":"levelo_inurba_marseille","lat":43.26951,"lon":5.38632,"is_reserved":false,"is_disabled":false,"rental_uris":{"android":"levelo://app?vid=b179d739-dd2d-40f1-abeb-7e96a65f6e4f","ios":"levelo://app?vid=b179d739-dd2d-40f1-abeb-7e96a65f6e4f"},"vehicle_type_id":"4","last_reported":1734703722,"current_range_meters":39200,"station_id":"ce4bhh92rcd13ifvqfh0","pricing_plan_id":"cebpf4jnsgd1na2vs0mg"},{"bike_id":"145b4131-68e1-411d-ba4a-4016be63f7bf","system_id":"levelo_inurba_marseille","lat":43.26552,"lon":5.37285,"is_reserved":false,"is_disabled":false,"rental_uris":{"android":"levelo://app?vid=145b4131-68e1-411d-ba4a-4016be63f7bf","ios":"levelo://app?vid=145b4131-68e1-411d-ba4a-4016be63f7bf"},"vehicle_type_id":"4","last_reported":1734703722,"current_range_meters":36000,"station_id":"ce4bhg12rcd13ifvqf70","pricing_plan_id":"cebpf4jnsgd1na2vs0mg"},{"bike_id":"a9a8602a-1485-4cc0-a1ec-83af02453f84","system_id":"levelo_inurba_marseille","lat":43.30288,"lon":5.37701,"is_reserved":false,"is_disabled":false,"rental_uris":{"android":"levelo://app?vid=a9a8602a-1485-4cc0-a1ec-83af02453f84","ios":"levelo://app?vid=a9a8602a-1485-4cc0-a1ec-83af02453f84"},"vehicle_type_id":"4","last_reported":1734703722,"current_range_meters":36800,"station_id":"ce4bguh2rcd13ifvqcj0","pricing_plan_id":"cebpf4jnsgd1na2vs0mg"},{"bike_id":"522ebddf-020e-4164-a0fa-4e6f6d68e6b9","system_id":"levelo_inurba_marseille","lat":43.27813,"lon":5.40714,"is_reserved":false,"is_disabled":false,"rental_uris":{"android":"levelo://app?vid=522ebddf-020e-4164-a0fa-4e6f6d68e6b9","ios":"levelo://app?vid=522ebddf-020e-4164-a0fa-4e6f6d68e6b9"},"vehicle_type_id":"4","last_reported":1734703722,"current_range_meters":22800,"station_id":"ce4bhnh2rcd13ifvqgtg","pricing_plan_id":"cebpf4jnsgd1na2vs0mg"},{"bike_id":"d7a9a039-2919-4498-94bc-85df69bbf9b4","system_id":"levelo_inurba_marseille","lat":43.25086,"lon":5.3948,"is_reserved":false,"is_disabled":false,"rental_uris":{"android":"levelo://app?vid=d7a9a039-2919-4498-94bc-85df69bbf9b4","ios":"levelo://app?vid=d7a9a039-2919-4498-94bc-85df69bbf9b4"},"vehicle_type_id":"4","last_reported":1734703722,"current_range_meters":6400,"station_id":"ce4bhm12rcd13ifvqgkg","pricing_plan_id":"cebpf4jnsgd1na2vs0mg"},{"bike_id":"bc2638d4-a872-4186-be0b-dc70fe624cda","system_id":"levelo_inurba_marseille","lat":43.29688,"lon":5.373,"is_reserved":false,"is_disabled":false,"rental_uris":{"android":"levelo://app?vid=bc2638d4-a872-4186-be0b-dc70fe624cda","ios":"levelo://app?vid=bc2638d4-a872-4186-be0b-dc70fe624cda"},"vehicle_type_id":"4","last_reported":1734703722,"current_range_meters":38800,"station_id":"ce4bgk12rcd13ifvqbj0","pricing_plan_id":"cebpf4jnsgd1na2vs0mg"},{"bike_id":"2e0a4273-9b64-4eb1-8d1b-b8e55991eb0a","system_id":"levelo_inurba_marseille","lat":43.27268,"lon":5.4007,"is_reserved":false,"is_disabled":true,"rental_uris":{"android":"levelo://app?vid=2e0a4273-9b64-4eb1-8d1b-b8e55991eb0a","ios":"levelo://app?vid=2e0a4273-9b64-4eb1-8d1b-b8e55991eb0a"},"vehicle_type_id":"4","last_reported":1734703722,"current_range_meters":0,"station_id":"","pricing_plan_id":"cebpf4jnsgd1na2vs0mg"},{"bike_id":"7ee84231-526a-4cfc-8bf0-822ca2e74b71","system_id":"levelo_inurba_marseille","lat":43.3019,"lon":5.36619,"is_reserved":false,"is_disabled":false,"rental_uris":{"android":"levelo://app?vid=7ee84231-526a-4cfc-8bf0-822ca2e74b71","ios":"levelo://app?vid=7ee84231-526a-4cfc-8bf0-822ca2e74b71"},"vehicle_type_id":"4","last_reported":1734703722,"current_range_meters":37600,"station_id":"ce4bgrh2rcd13ifvqc8g","pricing_plan_id":"cebpf4jnsgd1na2vs0mg"},{"bike_id":"f957ffa3-7b76-4b18-bb62-81627d313cf8","system_id":"levelo_inurba_marseille","lat":43.23194,"lon":5.35574,"is_reserved":false,"is_disabled":false,"rental_uris":{"android":"levelo://app?vid=f957ffa3-7b76-4b18-bb62-81627d313cf8","ios":"levelo://app?vid=f957ffa3-7b76-4b18-bb62-81627d313cf8"},"vehicle_type_id":"4","last_reported":1734703722,"current_range_meters":29600,"station_id":"ce4bhu92rcd13ifvqi70","pricing_plan_id":"cebpf4jnsgd1na2vs0mg"},{"bike_id":"932503eb-bf11-4422-ba53-f863128f792c","system_id":"levelo_inurba_marseille","lat":43.28738,"lon":5.3795,"is_reserved":false,"is_disabled":false,"rental_uris":{"android":"levelo://app?vid=932503eb-bf11-4422-ba53-f863128f792c","ios":"levelo://app?vid=932503eb-bf11-4422-ba53-f863128f792c"},"vehicle_type_id":"4","last_reported":1734703722,"current_range_meters":25200,"station_id":"ce4bh9p2rcd13ifvqec0","pricing_plan_id":"cebpf4jnsgd1na2vs0mg"},{"bike_id":"5dd95ec7-a282-40a6-a0fe-4e2e61de4064","system_id":"levelo_inurba_marseille","lat":43.26348,"lon":5.40141,"is_reserved":false,"is_disabled":true,"rental_uris":{"android":"levelo://app?vid=5dd95ec7-a282-40a6-a0fe-4e2e61de4064","ios":"levelo://app?vid=5dd95ec7-a282-40a6-a0fe-4e2e61de4064"},"vehicle_type_id":"4","last_reported":1734703722,"current_range_meters":8000,"station_id":"","pricing_plan_id":"cebpf4jnsgd1na2vs0mg"},{"bike_id":"a86ec51d-9767-48f5-9411-073a7de5a6cb","system_id":"levelo_inurba_marseille","lat":43.29842,"lon":5.36277,"is_reserved":false,"is_disabled":false,"rental_uris":{"android":"levelo://app?vid=a86ec51d-9767-48f5-9411-073a7de5a6cb","ios":"levelo://app?vid=a86ec51d-9767-48f5-9411-073a7de5a6cb"},"vehicle_type_id":"4","last_reported":1734703722,"current_range_meters":22000,"station_id":"ce4bgpp2rcd13ifvqc3g","pricing_plan_id":"cebpf4jnsgd1na2vs0mg"},{"bike_id":"3c1b48d9-0ee0-4fb8-a73a-93122fd465f2","system_id":"levelo_inurba_marseille","lat":43.27945,"lon":5.41047,"is_reserved":false,"is_disabled":false,"rental_uris":{"android":"levelo://app?vid=3c1b48d9-0ee0-4fb8-a73a-93122fd465f2","ios":"levelo://app?vid=3c1b48d9-0ee0-4fb8-a73a-93122fd465f2"},"vehicle_type_id":"4","last_reported":1734703722,"current_range_meters":19200,"station_id":"ce4bhnp2rcd13ifvqh0g","pricing_plan_id":"cebpf4jnsgd1na2vs0mg"},{"bike_id":"56fd960d-6abf-4fb2-b39b-42c74ef93da3","system_id":"levelo_inurba_marseille","lat":43.279672,"lon":5.386861,"is_reserved":false,"is_disabled":false,"rental_uris":{"android":"levelo://app?vid=56fd960d-6abf-4fb2-b39b-42c74ef93da3","ios":"levelo://app?vid=56fd960d-6abf-4fb2-b39b-42c74ef93da3"},"vehicle_type_id":"4","last_reported":1734703722,"current_range_meters":29600,"station_id":"ce4bhg12rcd13ifvqf80","pricing_plan_id":"cebpf4jnsgd1na2vs0mg"},{"bike_id":"2256e953-e04c-4a1a-96b7-b03d74e4d2b6","system_id":"levelo_inurba_marseille","lat":43.24808,"lon":5.37457,"is_reserved":false,"is_disabled":false,"rental_uris":{"android":"levelo://app?vid=2256e953-e04c-4a1a-96b7-b03d74e4d2b6","ios":"levelo://app?vid=2256e953-e04c-4a1a-96b7-b03d74e4d2b6"},"vehicle_type_id":"4","last_reported":1734703722,"current_range_meters":38800,"station_id":"ce4bhgh2rcd13ifvqfb0","pricing_plan_id":"cebpf4jnsgd1na2vs0mg"},{"bike_id":"260171d1-5388-4de2-8f1f-acb7e571567f","system_id":"levelo_inurba_marseille","lat":43.297137,"lon":5.37687,"is_reserved":false,"is_disabled":false,"rental_uris":{"android":"levelo://app?vid=260171d1-5388-4de2-8f1f-acb7e571567f","ios":"levelo://app?vid=260171d1-5388-4de2-8f1f-acb7e571567f"},"vehicle_type_id":"4","last_reported":1734703722,"current_range_meters":16800,"station_id":"ce4bgkh2rcd13ifvqbl0","pricing_plan_id":"cebpf4jnsgd1na2vs0mg"},{"bike_id":"618d3d5b-020c-4852-8b7f-30a93cbe2a59","system_id":"levelo_inurba_marseille","lat":43.28722,"lon":5.3795,"is_reserved":false,"is_disabled":false,"rental_uris":{"android":"levelo://app?vid=618d3d5b-020c-4852-8b7f-30a93cbe2a59","ios":"levelo://app?vid=618d3d5b-020c-4852-8b7f-30a93cbe2a59"},"vehicle_type_id":"4","last_reported":1734703722,"current_range_meters":38400,"station_id":"ce4bh9p2rcd13ifvqec0","pricing_plan_id":"cebpf4jnsgd1na2vs0mg"},{"bike_id":"2fdc3292-7478-4713-ad1d-204237e84084","system_id":"levelo_inurba_marseille","lat":43.31368,"lon":5.38363,"is_reserved":false,"is_disabled":false,"rental_uris":{"android":"levelo://app?vid=2fdc3292-7478-4713-ad1d-204237e84084","ios":"levelo://app?vid=2fdc3292-7478-4713-ad1d-204237e84084"},"vehicle_type_id":"4","last_reported":1734703722,"current_range_meters":36800,"station_id":"","pricing_plan_id":"cebpf4jnsgd1na2vs0mg"},{"bike_id":"19f34006-1dba-4c03-b59a-0511830589aa","system_id":"levelo_inurba_marseille","lat":43.24815,"lon":5.37483,"is_reserved":false,"is_disabled":false,"rental_uris":{"android":"levelo://app?vid=19f34006-1dba-4c03-b59a-0511830589aa","ios":"levelo://app?vid=19f34006-1dba-4c03-b59a-0511830589aa"},"vehicle_type_id":"4","last_reported":1734703722,"current_range_meters":25600,"station_id":"ce4bhgh2rcd13ifvqfb0","pricing_plan_id":"cebpf4jnsgd1na2vs0mg"},{"bike_id":"5a81334d-3e2b-4322-919f-5369e046a084","system_id":"levelo_inurba_marseille","lat":43.30552,"lon":5.36708,"is_reserved":false,"is_disabled":false,"rental_uris":{"android":"levelo://app?vid=5a81334d-3e2b-4322-919f-5369e046a084","ios":"levelo://app?vid=5a81334d-3e2b-4322-919f-5369e046a084"},"vehicle_type_id":"4","last_reported":1734703722,"current_range_meters":24800,"station_id":"ce4bgrp2rcd13ifvqc9g","pricing_plan_id":"cebpf4jnsgd1na2vs0mg"},{"bike_id":"382098e6-b9d6-4b29-a58c-eda57338dcdf","system_id":"levelo_inurba_marseille","lat":43.29886,"lon":5.38149,"is_reserved":false,"is_disabled":false,"rental_uris":{"android":"levelo://app?vid=382098e6-b9d6-4b29-a58c-eda57338dcdf","ios":"levelo://app?vid=382098e6-b9d6-4b29-a58c-eda57338dcdf"},"vehicle_type_id":"4","last_reported":1734703722,"current_range_meters":38800,"station_id":"ce4bgj12rcd13ifvqbc0","pricing_plan_id":"cebpf4jnsgd1na2vs0mg"},{"bike_id":"f8fdf67c-4a0a-4a59-acd1-778c7e85267e","system_id":"levelo_inurba_marseille","lat":43.24549,"lon":5.39526,"is_reserved":false,"is_disabled":false,"rental_uris":{"android":"levelo://app?vid=f8fdf67c-4a0a-4a59-acd1-778c7e85267e","ios":"levelo://app?vid=f8fdf67c-4a0a-4a59-acd1-778c7e85267e"},"vehicle_type_id":"4","last_reported":1734703722,"current_range_meters":38800,"station_id":"ce4bhlp2rcd13ifvqgjg","pricing_plan_id":"cebpf4jnsgd1na2vs0mg"},{"bike_id":"ecd4c19a-13b1-46dd-989f-561a4e5ae385","system_id":"levelo_inurba_marseille","lat":43.2679,"lon":5.3942,"is_reserved":false,"is_disabled":false,"rental_uris":{"android":"levelo://app?vid=ecd4c19a-13b1-46dd-989f-561a4e5ae385","ios":"levelo://app?vid=ecd4c19a-13b1-46dd-989f-561a4e5ae385"},"vehicle_type_id":"4","last_reported":1734703722,"current_range_meters":24400,"station_id":"ce4bhh12rcd13ifvqfg0","pricing_plan_id":"cebpf4jnsgd1na2vs0mg"},{"bike_id":"73089af4-8bef-4c4e-9573-8a8f768947b4","system_id":"levelo_inurba_marseille","lat":43.310821,"lon":5.424334,"is_reserved":false,"is_disabled":false,"rental_uris":{"android":"levelo://app?vid=73089af4-8bef-4c4e-9573-8a8f768947b4","ios":"levelo://app?vid=73089af4-8bef-4c4e-9573-8a8f768947b4"},"vehicle_type_id":"4","last_reported":1734703722,"current_range_meters":38800,"station_id":"ce4bhp92rcd13ifvqhag","pricing_plan_id":"cebpf4jnsgd1na2vs0mg"},{"bike_id":"b87262d6-dd15-48b6-a098-4762007ac742","system_id":"levelo_inurba_marseille","lat":43.30135,"lon":5.39884,"is_reserved":false,"is_disabled":false,"rental_uris":{"android":"levelo://app?vid=b87262d6-dd15-48b6-a098-4762007ac742","ios":"levelo://app?vid=b87262d6-dd15-48b6-a098-4762007ac742"},"vehicle_type_id":"4","last_reported":1734703722,"current_range_meters":33600,"station_id":"ce4bh0h2rcd13ifvqd40","pricing_plan_id":"cebpf4jnsgd1na2vs0mg"},{"bike_id":"f2f6aaf7-105d-4d04-83f7-012739cdfa7e","system_id":"levelo_inurba_marseille","lat":43.30761,"lon":5.36816,"is_reserved":false,"is_disabled":false,"rental_uris":{"android":"levelo://app?vid=f2f6aaf7-105d-4d04-83f7-012739cdfa7e","ios":"levelo://app?vid=f2f6aaf7-105d-4d04-83f7-012739cdfa7e"},"vehicle_type_id":"4","last_reported":1734703722,"current_range_meters":11200,"station_id":"","pricing_plan_id":"cebpf4jnsgd1na2vs0mg"},{"bike_id":"bca9654d-7082-4d91-a456-28b18d242573","system_id":"levelo_inurba_marseille","lat":43.31121,"lon":5.37762,"is_reserved":false,"is_disabled":false,"rental_uris":{"android":"levelo://app?vid=bca9654d-7082-4d91-a456-28b18d242573","ios":"levelo://app?vid=bca9654d-7082-4d91-a456-28b18d242573"},"vehicle_type_id":"4","last_reported":1734703722,"current_range_meters":30000,"station_id":"ce4bgt92rcd13ifvqcg0","pricing_plan_id":"cebpf4jnsgd1na2vs0mg"},{"bike_id":"18b21dc8-9cbb-45a7-b829-dbc87a621342","system_id":"levelo_inurba_marseille","lat":43.31245,"lon":5.36865,"is_reserved":false,"is_disabled":false,"rental_uris":{"android":"levelo://app?vid=18b21dc8-9cbb-45a7-b829-dbc87a621342","ios":"levelo://app?vid=18b21dc8-9cbb-45a7-b829-dbc87a621342"},"vehicle_type_id":"4","last_reported":1734703722,"current_range_meters":28400,"station_id":"ce4bgl92rcd13ifvqbq0","pricing_plan_id":"cebpf4jnsgd1na2vs0mg"},{"bike_id":"4cd0fbc8-8e21-4f71-bea1-1e5fd2198e58","system_id":"levelo_inurba_marseille","lat":43.29377,"lon":5.37858,"is_reserved":false,"is_disabled":false,"rental_uris":{"android":"levelo://app?vid=4cd0fbc8-8e21-4f71-bea1-1e5fd2198e58","ios":"levelo://app?vid=4cd0fbc8-8e21-4f71-bea1-1e5fd2198e58"},"vehicle_type_id":"4","last_reported":1734703722,"current_range_meters":14800,"station_id":"ce4bgjh2rcd13ifvqbf0","pricing_plan_id":"cebpf4jnsgd1na2vs0mg"},{"bike_id":"cc414c34-265e-4dca-beaa-6c84c5588df6","system_id":"levelo_inurba_marseille","lat":43.2869,"lon":5.38654,"is_reserved":false,"is_disabled":false,"rental_uris":{"android":"levelo://app?vid=cc414c34-265e-4dca-beaa-6c84c5588df6","ios":"levelo://app?vid=cc414c34-265e-4dca-beaa-6c84c5588df6"},"vehicle_type_id":"4","last_reported":1734703722,"current_range_meters":36800,"station_id":"ce4bh492rcd13ifvqdug","pricing_plan_id":"cebpf4jnsgd1na2vs0mg"},{"bike_id":"cc91e18c-31a1-4d61-8bec-2d478014f9b7","system_id":"levelo_inurba_marseille","lat":43.27379,"lon":5.36258,"is_reserved":false,"is_disabled":false,"rental_uris":{"android":"levelo://app?vid=cc91e18c-31a1-4d61-8bec-2d478014f9b7","ios":"levelo://app?vid=cc91e18c-31a1-4d61-8bec-2d478014f9b7"},"vehicle_type_id":"4","last_reported":1734703722,"current_range_meters":28400,"station_id":"ce4bhbh2rcd13ifvqeo0","pricing_plan_id":"cebpf4jnsgd1na2vs0mg"},{"bike_id":"7758b63e-d7e6-4cf6-a730-dfb31a3005df","system_id":"levelo_inurba_marseille","lat":43.27744,"lon":5.38886,"is_reserved":false,"is_disabled":false,"rental_uris":{"android":"levelo://app?vid=7758b63e-d7e6-4cf6-a730-dfb31a3005df","ios":"levelo://app?vid=7758b63e-d7e6-4cf6-a730-dfb31a3005df"},"vehicle_type_id":"4","last_reported":1734703722,"current_range_meters":39200,"station_id":"ce4bhi12rcd13ifvqfo0","pricing_plan_id":"cebpf4jnsgd1na2vs0mg"},{"bike_id":"fdfb3580-1002-4881-8a39-36cd06d2a7b8","system_id":"levelo_inurba_marseille","lat":43.28263,"lon":5.35083,"is_reserved":false,"is_disabled":false,"rental_uris":{"android":"levelo://app?vid=fdfb3580-1002-4881-8a39-36cd06d2a7b8","ios":"levelo://app?vid=fdfb3580-1002-4881-8a39-36cd06d2a7b8"},"vehicle_type_id":"4","last_reported":1734703722,"current_range_meters":34000,"station_id":"ce4bhbp2rcd13ifvqerg","pricing_plan_id":"cebpf4jnsgd1na2vs0mg"},{"bike_id":"494c8398-822e-42ee-a7f1-dfd664d1fba7","system_id":"levelo_inurba_marseille","lat":43.23204,"lon":5.35551,"is_reserved":false,"is_disabled":false,"rental_uris":{"android":"levelo://app?vid=494c8398-822e-42ee-a7f1-dfd664d1fba7","ios":"levelo://app?vid=494c8398-822e-42ee-a7f1-dfd664d1fba7"},"vehicle_type_id":"4","last_reported":1734703722,"current_range_meters":35200,"station_id":"ce4bhu92rcd13ifvqi70","pricing_plan_id":"cebpf4jnsgd1na2vs0mg"},{"bike_id":"fbdf6156-8014-4f46-9b80-f7f54ff1d0c7","system_id":"levelo_inurba_marseille","lat":43.29999,"lon":5.37197,"is_reserved":false,"is_disabled":false,"rental_uris":{"android":"levelo://app?vid=fbdf6156-8014-4f46-9b80-f7f54ff1d0c7","ios":"levelo://app?vid=fbdf6156-8014-4f46-9b80-f7f54ff1d0c7"},"vehicle_type_id":"4","last_reported":1734703722,"current_range_meters":3600,"station_id":"ce4bgr92rcd13ifvqc7g","pricing_plan_id":"cebpf4jnsgd1na2vs0mg"},{"bike_id":"c782be4b-818b-4cb4-830c-89e6e8de2966","system_id":"levelo_inurba_marseille","lat":43.27823,"lon":5.4072,"is_reserved":false,"is_disabled":false,"rental_uris":{"android":"levelo://app?vid=c782be4b-818b-4cb4-830c-89e6e8de2966","ios":"levelo://app?vid=c782be4b-818b-4cb4-830c-89e6e8de2966"},"vehicle_type_id":"4","last_reported":1734703722,"current_range_meters":33200,"station_id":"ce4bhnh2rcd13ifvqgtg","pricing_plan_id":"cebpf4jnsgd1na2vs0mg"},{"bike_id":"065482c1-6701-46f7-baef-8ac59f524df7","system_id":"levelo_inurba_marseille","lat":43.29282,"lon":5.36851,"is_reserved":false,"is_disabled":false,"rental_uris":{"android":"levelo://app?vid=065482c1-6701-46f7-baef-8ac59f524df7","ios":"levelo://app?vid=065482c1-6701-46f7-baef-8ac59f524df7"},"vehicle_type_id":"4","last_reported":1734703722,"current_range_meters":33600,"station_id":"ce4bhbp2rcd13ifvqesg","pricing_plan_id":"cebpf4jnsgd1na2vs0mg"},{"bike_id":"32b41dfa-1326-4bcd-a58f-e5f8b3af80a9","system_id":"levelo_inurba_marseille","lat":43.28935,"lon":5.36648,"is_reserved":false,"is_disabled":false,"rental_uris":{"android":"levelo://app?vid=32b41dfa-1326-4bcd-a58f-e5f8b3af80a9","ios":"levelo://app?vid=32b41dfa-1326-4bcd-a58f-e5f8b3af80a9"},"vehicle_type_id":"4","last_reported":1734703722,"current_range_meters":30000,"station_id":"ce4bhap2rcd13ifvqek0","pricing_plan_id":"cebpf4jnsgd1na2vs0mg"},{"bike_id":"55fa967f-e3e3-42c4-9dd1-2bcbb5fc2d4d","system_id":"levelo_inurba_marseille","lat":43.27191,"lon":5.39206,"is_reserved":false,"is_disabled":false,"rental_uris":{"android":"levelo://app?vid=55fa967f-e3e3-42c4-9dd1-2bcbb5fc2d4d","ios":"levelo://app?vid=55fa967f-e3e3-42c4-9dd1-2bcbb5fc2d4d"},"vehicle_type_id":"4","last_reported":1734703722,"current_range_meters":24000,"station_id":"ce4bhhp2rcd13ifvqfm0","pricing_plan_id":"cebpf4jnsgd1na2vs0mg"},{"bike_id":"88ffa229-d8b6-4242-ab01-887270997353","system_id":"levelo_inurba_marseille","lat":43.27316,"lon":5.39094,"is_reserved":false,"is_disabled":true,"rental_uris":{"android":"levelo://app?vid=88ffa229-d8b6-4242-ab01-887270997353","ios":"levelo://app?vid=88ffa229-d8b6-4242-ab01-887270997353"},"vehicle_type_id":"4","last_reported":1734703722,"current_range_meters":38800,"station_id":"ce4bhgp2rcd13ifvqfe0","pricing_plan_id":"cebpf4jnsgd1na2vs0mg"},{"bike_id":"93a82e60-314a-4cb0-a5cf-a19515d4fc75","system_id":"levelo_inurba_marseille","lat":43.29571,"lon":5.37507,"is_reserved":false,"is_disabled":false,"rental_uris":{"android":"levelo://app?vid=93a82e60-314a-4cb0-a5cf-a19515d4fc75","ios":"levelo://app?vid=93a82e60-314a-4cb0-a5cf-a19515d4fc75"},"vehicle_type_id":"4","last_reported":1734703722,"current_range_meters":25200,"station_id":"ce4bgh92rcd13ifvqb50","pricing_plan_id":"cebpf4jnsgd1na2vs0mg"},{"bike_id":"41bae790-615f-4b0c-be69-d64b154c07d1","system_id":"levelo_inurba_marseille","lat":43.28929,"lon":5.38405,"is_reserved":false,"is_disabled":false,"rental_uris":{"android":"levelo://app?vid=41bae790-615f-4b0c-be69-d64b154c07d1","ios":"levelo://app?vid=41bae790-615f-4b0c-be69-d64b154c07d1"},"vehicle_type_id":"4","last_reported":1734703722,"current_range_meters":39200,"station_id":"ce4bh612rcd13ifvqe6g","pricing_plan_id":"cebpf4jnsgd1na2vs0mg"},{"bike_id":"a2eba22b-b0ee-4005-9bf3-576bb458d391","system_id":"levelo_inurba_marseille","lat":43.279651,"lon":5.387544,"is_reserved":false,"is_disabled":true,"rental_uris":{"android":"levelo://app?vid=a2eba22b-b0ee-4005-9bf3-576bb458d391","ios":"levelo://app?vid=a2eba22b-b0ee-4005-9bf3-576bb458d391"},"vehicle_type_id":"4","last_reported":1734703722,"current_range_meters":0,"station_id":"","pricing_plan_id":"cebpf4jnsgd1na2vs0mg"},{"bike_id":"a831f63f-54e4-483b-b7e3-c00e270282f2","system_id":"levelo_inurba_marseille","lat":43.2917,"lon":5.37149,"is_reserved":false,"is_disabled":false,"rental_uris":{"android":"levelo://app?vid=a831f63f-54e4-483b-b7e3-c00e270282f2","ios":"levelo://app?vid=a831f63f-54e4-483b-b7e3-c00e270282f2"},"vehicle_type_id":"4","last_reported":1734703722,"current_range_meters":32800,"station_id":"ce4bha92rcd13ifvqeh0","pricing_plan_id":"cebpf4jnsgd1na2vs0mg"},{"bike_id":"fcf6f42c-9492-49dd-a9e6-322a50636e12","system_id":"levelo_inurba_marseille","lat":43.31727,"lon":5.37756,"is_reserved":false,"is_disabled":false,"rental_uris":{"android":"levelo://app?vid=fcf6f42c-9492-49dd-a9e6-322a50636e12","ios":"levelo://app?vid=fcf6f42c-9492-49dd-a9e6-322a50636e12"},"vehicle_type_id":"4","last_reported":1734703722,"current_range_meters":9600,"station_id":"ce4bgth2rcd13ifvqch0","pricing_plan_id":"cebpf4jnsgd1na2vs0mg"},{"bike_id":"af8c9b76-b52b-4aa1-b4a0-71ab73adbfae","system_id":"levelo_inurba_marseille","lat":43.28734,"lon":5.37957,"is_reserved":false,"is_disabled":false,"rental_uris":{"android":"levelo://app?vid=af8c9b76-b52b-4aa1-b4a0-71ab73adbfae","ios":"levelo://app?vid=af8c9b76-b52b-4aa1-b4a0-71ab73adbfae"},"vehicle_type_id":"4","last_reported":1734703722,"current_range_meters":35600,"station_id":"ce4bh9p2rcd13ifvqec0","pricing_plan_id":"cebpf4jnsgd1na2vs0mg"},