{"last_updated":1747671177,"ttl":60,"version":"2.2","data":{"bikes":[{"bike_id":"c0b9fd4f-e181-46ce-b0bf-f5119973334f","system_id":"levelo_inurba_marseille","lat":43.33771,"lon":5.37424,"is_reserved":false,"is_disabled":true,"rental_uris":{"android":"levelo://app?vid=c0b9fd4f-e181-46ce-b0bf-f5119973334f","ios":"levelo://app?vid=c0b9fd4f-e181-46ce-b0bf-f5119973334f"},"vehicle_type_id":"4","last_reported":1747671177,"current_range_meters":0,"station_id":"","pricing_plan_id":"cebpf4jnsgd1na2vs0mg"},{"bike_id":"25b4f69a-1726-4c58-a89d-ca45327456b0","system_id":"levelo_inurba_marseille","lat":43.27281,"lon":5.36289,"is_reserved":false,"is_disabled":true,"rental_uris":{"android":"levelo://app?vid=25b4f69a-1726-4c58-a89d-ca45327456b0","ios":"levelo://app?vid=25b4f69a-1726-4c58-a89d-ca45327456b0"},"vehicle_type_id":"4","last_reported":1747671177,"current_range_meters":0,"station_id":"","pricing_plan_id":"cebpf4jnsgd1na2vs0mg"},{"bike_id":"fc2577e7-1497-425b-9d4f-ab8d7dc843c6","system_id":"levelo_inurba_marseille","lat":43.33771,"lon":5.37485,"is_reserved":false,"is_disabled":true,"rental_uris":{"android":"levelo://app?vid=fc2577e7-1497-425b-9d4f-ab8d7dc843c6","ios":"levelo://app?vid=fc2577e7-1497-425b-9d4f-ab8d7dc843c6"},"vehicle_type_id":"4","last_reported":1747671177,"current_range_meters":0,"station_id":"","pricing_plan_id":"cebpf4jnsgd1na2vs0mg"},{"bike_id":"522a6fa9-3b0f-41ae-92d4-659155b9e6e8","system_id":"levelo_inurba_marseille","lat":43.239272,"lon":5.36185,"is_reserved":false,"is_disabled":true,"rental_uris":{"android":"levelo://app?vid=522a6fa9-3b0f-41ae-92d4-659155b9e6e8","ios":"levelo://app?vid=522a6fa9-3b0f-41ae-92d4-659155b9e6e8"},"vehicle_type_id":"4","last_reported":1747671177,"current_range_meters":0,"station_id":"","pricing_plan_id":"cebpf4jnsgd1na2vs0mg"},{"bike_id":"8f3685e3-183d-4c98-9513-bfeeb8fbc041","system_id":"levelo_inurba_marseille","lat":43.27943,"lon":5.4124,"is_reserved":false,"is_disabled":true,"rental_uris":{"android":"levelo://app?vid=8f3685e3-183d-4c98-9513-bfeeb8fbc041","ios":"levelo://app?vid=8f3685e3-183d-4c98-9513-bfeeb8fbc041"},"vehicle_type_id":"4","last_reported":1747671177,"current_range_meters":0,"station_id":"","pricing_plan_id":"cebpf4jnsgd1na2vs0mg"},{"bike_id":"54255574-d73a-48d1-85ed-ee6fbfc41d57","system_id":"levelo_inurba_marseille","lat":43.26416,"lon":5.37343,"is_reserved":false,"is_disabled":true,"rental_uris":{"android":"levelo://app?vid=54255574-d73a-48d1-85ed-ee6fbfc41d57","ios":"levelo://app?vid=54255574-d73a-48d1-85ed-ee6fbfc41d57"},"vehicle_type_id":"4","last_reported":1747671177,"current_range_meters":0,"station_id":"","pricing_plan_id":"cebpf4jnsgd1na2vs0mg"},{"bike_id":"80b49949-2015-46f6-95ad-3d3616eb898e","system_id":"levelo_inurba_marseille","lat":43.33742,"lon":5.37415,"is_reserved":false,"is_disabled":true,"rental_uris":{"android":"levelo://app?vid=80b49949-2015-46f6-95ad-3d3616eb898e","ios":"levelo://app?vid=80b49949-2015-46f6-95ad-3d3616eb898e"},"vehicle_type_id":"4","last_reported":1747671177,"current_range_meters":0,"station_id":"","pricing_plan_id":"cebpf4jnsgd1na2vs0mg"},{"bike_id":"e9dd3aa4-b5e7-4480-926d-d7f537719bfa","system_id":"levelo_inurba_marseille","lat":43.23037,"lon":5.40209,"is_reserved":false,"is_disabled":true,"rental_uris":{"android":"levelo://app?vid=e9dd3aa4-b5e7-4480-926d-d7f537719bfa","ios":"levelo://app?vid=e9dd3aa4-b5e7-4480-926d-d7f537719bfa"},"vehicle_type_id":"4","last_reported":1747671177,"current_range_meters":0,"station_id":"","pricing_plan_id":"cebpf4jnsgd1na2vs0mg"},{"bike_id":"830d992e-4536-48ea-9197-b784f4e986d6","system_id":"levelo_inurba_marseille","lat":43.29968,"lon":5.38487,"is_reserved":false,"is_disabled":true,"rental_uris":{"android":"levelo://app?vid=830d992e-4536-48ea-9197-b784f4e986d6","ios":"levelo://app?vid=830d992e-4536-48ea-9197-b784f4e986d6"},"vehicle_type_id":"4","last_reported":1747671177,"current_range_meters":0,"station_id":"ce4bgj92rcd13ifvqbd0","pricing_plan_id":"cebpf4jnsgd1na2vs0mg"},{"bike_id":"1b361903-6eb2-473f-9226-47131b7770c7","system_id":"levelo_inurba_marseille","lat":43.29971,"lon":5.37179,"is_reserved":false,"is_disabled":true,"rental_uris":{"android":"levelo://app?vid=1b361903-6eb2-473f-9226-47131b7770c7","ios":"levelo://app?vid=1b361903-6eb2-473f-9226-47131b7770c7"},"vehicle_type_id":"4","last_reported":1747671177,"current_range_meters":0,"station_id":"ce4bgr92rcd13ifvqc7g","pricing_plan_id":"cebpf4jnsgd1na2vs0mg"},{"bike_id":"1c14d417-279c-4b3e-b403-f687e664a831","system_id":"levelo_inurba_marseille","lat":43.31071,"lon":5.38354,"is_reserved":false,"is_disabled":true,"rental_uris":{"android":"levelo://app?vid=1c14d417-279c-4b3e-b403-f687e664a831","ios":"levelo://app?vid=1c14d417-279c-4b3e-b403-f687e664a831"},"vehicle_type_id":"4","last_reported":1747671177,"current_range_meters":0,"station_id":"ce4bgv92rcd13ifvqcr0","pricing_plan_id":"cebpf4jnsgd1na2vs0mg"},{"bike_id":"4988fd67-af8d-4d30-a5dd-9b9e00226fcc","system_id":"levelo_inurba_marseille","lat":43.27383,"lon":5.36257,"is_reserved":false,"is_disabled":true,"rental_uris":{"android":"levelo://app?vid=4988fd67-af8d-4d30-a5dd-9b9e00226fcc","ios":"levelo://app?vid=4988fd67-af8d-4d30-a5dd-9b9e00226fcc"},"vehicle_type_id":"4","last_reported":1747671177,"current_range_meters":0,"station_id":"ce4bhbh2rcd13ifvqeo0","pricing_plan_id":"cebpf4jnsgd1na2vs0mg"},{"bike_id":"1ecaec0c-db02-441e-8a92-a3f750e2a6bd","system_id":"levelo_inurba_marseille","lat":43.26679,"lon":5.38269,"is_reserved":false,"is_disabled":true,"rental_uris":{"android":"levelo://app?vid=1ecaec0c-db02-441e-8a92-a3f750e2a6bd","ios":"levelo://app?vid=1ecaec0c-db02-441e-8a92-a3f750e2a6bd"},"vehicle_type_id":"4","last_reported":1747671177,"current_range_meters":0,"station_id":"ce4bhg92rcd13ifvqf90","pricing_plan_id":"cebpf4jnsgd1na2vs0mg"},{"bike_id":"c2242f8c-fc61-487f-ab01-a1a888f3f8d9","system_id":"levelo_inurba_marseille","lat":43.24801,"lon":5.37459,"is_reserved":false,"is_disabled":true,"rental_uris":{"android":"levelo://app?vid=c2242f8c-fc61-487f-ab01-a1a888f3f8d9","ios":"levelo://app?vid=c2242f8c-fc61-487f-ab01-a1a888f3f8d9"},"vehicle_type_id":"4","last_reported":1747671177,"current_range_meters":0,"station_id":"ce4bhgh2rcd13ifvqfb0","pricing_plan_id":"cebpf4jnsgd1na2vs0mg"},{"bike_id":"29c610a1-23c1-4dba-830b-a6795f2fdfe2","system_id":"levelo_inurba_marseille","lat":43.2549,"lon":5.37648,"is_reserved":false,"is_disabled":true,"rental_uris":{"android":"levelo://app?vid=29c610a1-23c1-4dba-830b-a6795f2fdfe2","ios":"levelo://app?vid=29c610a1-23c1-4dba-830b-a6795f2fdfe2"},"vehicle_type_id":"4","last_reported":1747671177,"current_range_meters":0,"station_id":"ce4bhh12rcd13ifvqff0","pricing_plan_id":"cebpf4jnsgd1na2vs0mg"},{"bike_id":"8d04f546-9082-46d1-92d2-618ac61dfc49","system_id":"levelo_inurba_marseille","lat":43.254974,"lon":5.376503,"is_reserved":false,"is_disabled":true,"rental_uris":{"android":"levelo://app?vid=8d04f546-9082-46d1-92d2-618ac61dfc49","ios":"levelo://app?vid=8d04f546-9082-46d1-92d2-618ac61dfc49"},"vehicle_type_id":"4","last_reported":1747671177,"current_range_meters":0,"station_id":"ce4bhh12rcd13ifvqff0","pricing_plan_id":"cebpf4jnsgd1na2vs0mg"},{"bike_id":"e8715d36-dc84-44f2-a5a0-8e13e3251236","system_id":"levelo_inurba_marseille","lat":43.27666,"lon":5.3886,"is_reserved":false,"is_disabled":true,"rental_uris":{"android":"levelo://app?vid=e8715d36-dc84-44f2-a5a0-8e13e3251236","ios":"levelo://app?vid=e8715d36-dc84-44f2-a5a0-8e13e3251236"},"vehicle_type_id":"4","last_reported":1747671177,"current_range_meters":0,"station_id":"ce4bhi12rcd13ifvqfo0","pricing_plan_id":"cebpf4jnsgd1na2vs0mg"},{"bike_id":"ffda14b9-5cf8-491b-8ce5-832acadf1c83","system_id":"levelo_inurba_marseille","lat":43.27171,"lon":5.40977,"is_reserved":false,"is_disabled":true,"rental_uris":{"android":"levelo://app?vid=ffda14b9-5cf8-491b-8ce5-832acadf1c83","ios":"levelo://app?vid=ffda14b9-5cf8-491b-8ce5-832acadf1c83"},"vehicle_type_id":"4","last_reported":1747671177,"current_range_meters":0,"station_id":"ce4bhl12rcd13ifvqgf0","pricing_plan_id":"cebpf4jnsgd1na2vs0mg"},{"bike_id":"e6705cab-7d0a-4769-af92-2a1502f18da3","system_id":"levelo_inurba_marseille","lat":43.25113,"lon":5.40322,"is_reserved":false,"is_disabled":true,"rental_uris":{"android":"levelo://app?vid=e6705cab-7d0a-4769-af92-2a1502f18da3","ios":"levelo://app?vid=e6705cab-7d0a-4769-af92-2a1502f18da3"},"vehicle_type_id":"4","last_reported":1747671177,"current_range_meters":0,"station_id":"ce4bhlh2rcd13ifvqgig","pricing_plan_id":"cebpf4jnsgd1na2vs0mg"},{"bike_id":"cabc3ba3-d79c-44f0-b71f-3932a2db2e48","system_id":"levelo_inurba_marseille","lat":43.2316,"lon":5.4375,"is_reserved":false,"is_disabled":true,"rental_uris":{"android":"levelo://app?vid=cabc3ba3-d79c-44f0-b71f-3932a2db2e48","ios":"levelo://app?vid=cabc3ba3-d79c-44f0-b71f-3932a2db2e48"},"vehicle_type_id":"4","last_reported":1747671177,"current_range_meters":0,"station_id":"ce4bhmp2rcd13ifvqgog","pricing_plan_id":"cebpf4jnsgd1na2vs0mg"},{"bike_id":"69778add-bd7d-42bb-b498-2159daf53d6a","system_id":"levelo_inurba_marseille","lat":43.29769,"lon":5.39331,"is_reserved":false,"is_disabled":true,"rental_uris":{"android":"levelo://app?vid=69778add-bd7d-42bb-b498-2159daf53d6a","ios":"levelo://app?vid=69778add-bd7d-42bb-b498-2159daf53d6a"},"vehicle_type_id":"4","last_reported":1747671177,"current_range_meters":0,"station_id":"chh1huq6cuj3fo74tm60","pricing_plan_id":"cebpf4jnsgd1na2vs0mg"},{"bike_id":"4bcc0618-8ea2-4afc-9f93-00b1ee759891","system_id":"levelo_inurba_marseille","lat":43.24167,"lon":5.36393,"is_reserved":false,"is_disabled":true,"rental_uris":{"android":"levelo://app?vid=4bcc0618-8ea2-4afc-9f93-00b1ee759891","ios":"levelo://app?vid=4bcc0618-8ea2-4afc-9f93-00b1ee759891"},"vehicle_type_id":"4","last_reported":1747671177,"current_range_meters":0,"station_id":"cpo36qri1sfpv3e86is0","pricing_plan_id":"cebpf4jnsgd1na2vs0mg"},{"bike_id":"dd5def48-7fee-4bd1-963b-8d6beff237a4","system_id":"levelo_inurba_marseille","lat":43.28407,"lon":5.37513,"is_reserved":false,"is_disabled":true,"rental_uris":{"android":"levelo://app?vid=dd5def48-7fee-4bd1-963b-8d6beff237a4","ios":"levelo://app?vid=dd5def48-7fee-4bd1-963b-8d6beff237a4"},"vehicle_type_id":"4","last_reported":1747671177,"current_range_meters":400,"station_id":"ce4bh412rcd13ifvqds0","pricing_plan_id":"cebpf4jnsgd1na2vs0mg"},{"bike_id":"14b1d1eb-d3da-46a5-afd2-acb638203e44","system_id":"levelo_inurba_marseille","lat":43.28961,"lon":5.37832,"is_reserved":false,"is_disabled":true,"rental_uris":{"android":"levelo://app?vid=14b1d1eb-d3da-46a5-afd2-acb638203e44","ios":"levelo://app?vid=14b1d1eb-d3da-46a5-afd2-acb638203e44"},"vehicle_type_id":"4","last_reported":1747671177,"current_range_meters":400,"station_id":"ce4bh9p2rcd13ifvqed0","pricing_plan_id":"cebpf4jnsgd1na2vs0mg"},{"bike_id":"cbadb5af-5745-44cb-be5c-83ddc37b4378","system_id":"levelo_inurba_marseille","lat":43.28854,"lon":5.358441,"is_reserved":false,"is_disabled":true,"rental_uris":{"android":"levelo://app?vid=cbadb5af-5745-44cb-be5c-83ddc37b4378","ios":"levelo://app?vid=cbadb5af-5745-44cb-be5c-83ddc37b4378"},"vehicle_type_id":"4","last_reported":1747671177,"current_range_meters":400,"station_id":"ce4bhb12rcd13ifvqem0","pricing_plan_id":"cebpf4jnsgd1na2vs0mg"},{"bike_id":"73306b91-810f-4a7b-bd8c-ecbc9fd3bc7b","system_id":"levelo_inurba_marseille","lat":43.25095,"lon":5.40322,"is_reserved":false,"is_disabled":true,"rental_uris":{"android":"levelo://app?vid=73306b91-810f-4a7b-bd8c-ecbc9fd3bc7b","ios":"levelo://app?vid=73306b91-810f-4a7b-bd8c-ecbc9fd3bc7b"},"vehicle_type_id":"4","last_reported":1747671177,"current_range_meters":400,"station_id":"ce4bhlh2rcd13ifvqgig","pricing_plan_id":"cebpf4jnsgd1na2vs0mg"},{"bike_id":"f7ab5d51-fa2a-470a-b0ac-c51e699ce2a1","system_id":"levelo_inurba_marseille","lat":43.24832,"lon":5.37471,"is_reserved":false,"is_disabled":true,"rental_uris":{"android":"levelo://app?vid=f7ab5d51-fa2a-470a-b0ac-c51e699ce2a1","ios":"levelo://app?vid=f7ab5d51-fa2a-470a-b0ac-c51e699ce2a1"},"vehicle_type_id":"4","last_reported":1747671177,"current_range_meters":800,"station_id":"","pricing_plan_id":"cebpf4jnsgd1na2vs0mg"},{"bike_id":"b252203b-06bc-436b-9b97-1c876dbea541","system_id":"levelo_inurba_marseille","lat":43.309509,"lon":5.390312,"is_reserved":false,"is_disabled":true,"rental_uris":{"android":"levelo://app?vid=b252203b-06bc-436b-9b97-1c876dbea541","ios":"levelo://app?vid=b252203b-06bc-436b-9b97-1c876dbea541"},"vehicle_type_id":"4","last_reported":1747671177,"current_range_meters":800,"station_id":"ce4bgup2rcd13ifvqco0","pricing_plan_id":"cebpf4jnsgd1na2vs0mg"},{"bike_id":"78b2e577-4002-41c7-8e5b-4b856d79f9c1","system_id":"levelo_inurba_marseille","lat":43.28354,"lon":5.38622,"is_reserved":false,"is_disabled":true,"rental_uris":{"android":"levelo://app?vid=78b2e577-4002-41c7-8e5b-4b856d79f9c1","ios":"levelo://app?vid=78b2e577-4002-41c7-8e5b-4b856d79f9c1"},"vehicle_type_id":"4","last_reported":1747671177,"current_range_meters":800,"station_id":"ce4bh492rcd13ifvqdvg","pricing_plan_id":"cebpf4jnsgd1na2vs0mg"},{"bike_id":"490f3a85-84b0-4e4e-8d02-1d880ea5b481","system_id":"levelo_inurba_marseille","lat":43.28939,"lon":5.3873,"is_reserved":false,"is_disabled":true,"rental_uris":{"android":"levelo://app?vid=490f3a85-84b0-4e4e-8d02-1d880ea5b481","ios":"levelo://app?vid=490f3a85-84b0-4e4e-8d02-1d880ea5b481"},"vehicle_type_id":"4","last_reported":1747671177,"current_range_meters":800,"station_id":"ce4bh4p2rcd13ifvqe0g","pricing_plan_id":"cebpf4jnsgd1na2vs0mg"},{"bike_id":"493fef86-dd4d-4a0b-bbbc-f0ef8e344899","system_id":"levelo_inurba_marseille","lat":43.25502,"lon":5.37649,"is_reserved":false,"is_disabled":true,"rental_uris":{"android":"levelo://app?vid=493fef86-dd4d-4a0b-bbbc-f0ef8e344899","ios":"levelo://app?vid=493fef86-dd4d-4a0b-bbbc-f0ef8e344899"},"vehicle_type_id":"4","last_reported":1747671177,"current_range_meters":800,"station_id":"ce4bhh12rcd13ifvqff0","pricing_plan_id":"cebpf4jnsgd1na2vs0mg"},{"bike_id":"07ea78aa-c396-4148-89bb-4c5f478082fb","system_id":"levelo_inurba_marseille","lat":43.26787,"lon":5.39412,"is_reserved":false,"is_disabled":true,"rental_uris":{"android":"levelo://app?vid=07ea78aa-c396-4148-89bb-4c5f478082fb","ios":"levelo://app?vid=07ea78aa-c396-4148-89bb-4c5f478082fb"},"vehicle_type_id":"4","last_reported":1747671177,"current_range_meters":800,"station_id":"ce4bhh12rcd13ifvqfg0","pricing_plan_id":"cebpf4jnsgd1na2vs0mg"},{"bike_id":"f209436c-cf03-43e8-877d-9b828e8b2287","system_id":"levelo_inurba_marseille","lat":43.25106,"lon":5.40334,"is_reserved":false,"is_disabled":true,"rental_uris":{"android":"levelo://app?vid=f209436c-cf03-43e8-877d-9b828e8b2287","ios":"levelo://app?vid=f209436c-cf03-43e8-877d-9b828e8b2287"},"vehicle_type_id":"4","last_reported":1747671177,"current_range_meters":800,"station_id":"ce4bhlh2rcd13ifvqgig","pricing_plan_id":"cebpf4jnsgd1na2vs0mg"},{"bike_id":"252dba7f-9bbd-48d2-a90d-e1c85b5e3d0c","system_id":"levelo_inurba_marseille","lat":43.26567,"lon":5.40325,"is_reserved":false,"is_disabled":true,"rental_uris":{"android":"levelo://app?vid=252dba7f-9bbd-48d2-a90d-e1c85b5e3d0c","ios":"levelo://app?vid=252dba7f-9bbd-48d2-a90d-e1c85b5e3d0c"},"vehicle_type_id":"4","last_reported":1747671177,"current_range_meters":1200,"station_id":"","pricing_plan_id":"cebpf4jnsgd1na2vs0mg"},{"bike_id":"06c4f154-95ef-407e-9a51-8935b179df2f","system_id":"levelo_inurba_marseille","lat":43.25103,"lon":5.4032,"is_reserved":false,"is_disabled":true,"rental_uris":{"android":"levelo://app?vid=06c4f154-95ef-407e-9a51-8935b179df2f","ios":"levelo://app?vid=06c4f154-95ef-407e-9a51-8935b179df2f"},"vehicle_type_id":"4","last_reported":1747671177,"current_range_meters":1200,"station_id":"ce4bhlh2rcd13ifvqgig","pricing_plan_id":"cebpf4jnsgd1na2vs0mg"},{"bike_id":"86c1a186-f998-4720-96dd-19ebdbb145e2","system_id":"levelo_inurba_marseille","lat":43.27938,"lon":5.41046,"is_reserved":false,"is_disabled":true,"rental_uris":{"android":"levelo://app?vid=86c1a186-f998-4720-96dd-19ebdbb145e2","ios":"levelo://app?vid=86c1a186-f998-4720-96dd-19ebdbb145e2"},"vehicle_type_id":"4","last_reported":1747671177,"current_range_meters":1200,"station_id":"ce4bhnp2rcd13ifvqh0g","pricing_plan_id":"cebpf4jnsgd1na2vs0mg"},{"bike_id":"84b5671a-23b6-4388-a364-e349a993e3cf","system_id":"levelo_inurba_marseille","lat":43.29735,"lon":5.3769,"is_reserved":false,"is_disabled":true,"rental_uris":{"android":"levelo://app?vid=84b5671a-23b6-4388-a364-e349a993e3cf","ios":"levelo://app?vid=84b5671a-23b6-4388-a364-e349a993e3cf"},"vehicle_type_id":"4","last_reported":1747671177,"current_range_meters":1600,"station_id":"ce4bgkh2rcd13ifvqbl0","pricing_plan_id":"cebpf4jnsgd1na2vs0mg"},{"bike_id":"a0ab9de4-5263-4000-9dde-453ae1861a05","system_id":"levelo_inurba_marseille","lat":43.31069,"lon":5.38351,"is_reserved":false,"is_disabled":true,"rental_uris":{"android":"levelo://app?vid=a0ab9de4-5263-4000-9dde-453ae1861a05","ios":"levelo://app?vid=a0ab9de4-5263-4000-9dde-453ae1861a05"},"vehicle_type_id":"4","last_reported":1747671177,"current_range_meters":1600,"station_id":"ce4bgv92rcd13ifvqcr0","pricing_plan_id":"cebpf4jnsgd1na2vs0mg"},{"bike_id":"bb690e2a-8a05-43a0-8fbc-83c0ad237049","system_id":"levelo_inurba_marseille","lat":43.25715,"lon":5.41103,"is_reserved":false,"is_disabled":true,"rental_uris":{"android":"levelo://app?vid=bb690e2a-8a05-43a0-8fbc-83c0ad237049","ios":"levelo://app?vid=bb690e2a-8a05-43a0-8fbc-83c0ad237049"},"vehicle_type_id":"4","last_reported":1747671177,"current_range_meters":1600,"station_id":"ce4bhkp2rcd13ifvqgd0","pricing_plan_id":"cebpf4jnsgd1na2vs0mg"},{"bike_id":"6985b769-f9ff-46c0-94cb-903602d08ef6","system_id":"levelo_inurba_marseille","lat":43.29037,"lon":5.38149,"is_reserved":false,"is_disabled":true,"rental_uris":{"android":"levelo://app?vid=6985b769-f9ff-46c0-94cb-903602d08ef6","ios":"levelo://app?vid=6985b769-f9ff-46c0-94cb-903602d08ef6"},"vehicle_type_id":"4","last_reported":1747671177,"current_range_meters":2000,"station_id":"","pricing_plan_id":"cebpf4jnsgd1na2vs0mg"},{"bike_id":"b4b15575-a401-4b8c-b577-39a250ba6f7f","system_id":"levelo_inurba_marseille","lat":43.287168,"lon":5.373858,"is_reserved":false,"is_disabled":true,"rental_uris":{"android":"levelo://app?vid=b4b15575-a401-4b8c-b577-39a250ba6f7f","ios":"levelo://app?vid=b4b15575-a401-4b8c-b577-39a250ba6f7f"},"vehicle_type_id":"4","last_reported":1747671177,"current_range_meters":2000,"station_id":"ce4bh3p2rcd13ifvqdq0","pricing_plan_id":"cebpf4jnsgd1na2vs0mg"},{"bike_id":"028c95bb-2982-4f7f-bf75-1f34e72dabff","system_id":"levelo_inurba_marseille","lat":43.26548,"lon":5.37291,"is_reserved":false,"is_disabled":true,"rental_uris":{"android":"levelo://app?vid=028c95bb-2982-4f7f-bf75-1f34e72dabff","ios":"levelo://app?vid=028c95bb-2982-4f7f-bf75-1f34e72dabff"},"vehicle_type_id":"4","last_reported":1747671177,"current_range_meters":2000,"station_id":"ce4bhg12rcd13ifvqf70","pricing_plan_id":"cebpf4jnsgd1na2vs0mg"},{"bike_id":"c63e3850-ea70-463a-93bf-298d7a2a5232","system_id":"levelo_inurba_marseille","lat":43.29038,"lon":5.38609,"is_reserved":false,"is_disabled":false,"rental_uris":{"android":"levelo://app?vid=c63e3850-ea70-463a-93bf-298d7a2a5232","ios":"levelo://app?vid=c63e3850-ea70-463a-93bf-298d7a2a5232"},"vehicle_type_id":"4","last_reported":1747671177,"current_range_meters":2800,"station_id":"ce4bh4p2rcd13ifvqe0g","pricing_plan_id":"cebpf4jnsgd1na2vs0mg"},{"bike_id":"92918252-07ab-46e1-bd30-dff05107fbcf","system_id":"levelo_inurba_marseille","lat":43.28421,"lon":5.34982,"is_reserved":false,"is_disabled":false,"rental_uris":{"android":"levelo://app?vid=92918252-07ab-46e1-bd30-dff05107fbcf","ios":"levelo://app?vid=92918252-07ab-46e1-bd30-dff05107fbcf"},"vehicle_type_id":"4","last_reported":1747671177,"current_range_meters":2800,"station_id":"ce4bhbh2rcd13ifvqepg","pricing_plan_id":"cebpf4jnsgd1na2vs0mg"},{"bike_id":"cf631a0a-b0c4-4049-a65f-422c6fc462ca","system_id":"levelo_inurba_marseille","lat":43.244529,"lon":5.367495,"is_reserved":false,"is_disabled":false,"rental_uris":{"android":"levelo://app?vid=cf631a0a-b0c4-4049-a65f-422c6fc462ca","ios":"levelo://app?vid=cf631a0a-b0c4-4049-a65f-422c6fc462ca"},"vehicle_type_id":"4","last_reported":1747671177,"current_range_meters":2800,"station_id":"ce4bhi12rcd13ifvqfp0","pricing_plan_id":"cebpf4jnsgd1na2vs0mg"},{"bike_id":"11df1229-a6f0-4193-82a1-eeeb8d9b3fff","system_id":"levelo_inurba_marseille","lat":43.23178,"lon":5.39991,"is_reserved":false,"is_disabled":false,"rental_uris":{"android":"levelo://app?vid=11df1229-a6f0-4193-82a1-eeeb8d9b3fff","ios":"levelo://app?vid=11df1229-a6f0-4193-82a1-eeeb8d9b3fff"},"vehicle_type_id":"4","last_reported":1747671177,"current_range_meters":2800,"station_id":"ce4bhn12rcd13ifvqgqg","pricing_plan_id":"cebpf4jnsgd1na2vs0mg"},{"bike_id":"05e8c375-7a3c-4425-b819-2a917b67dc08","system_id":"levelo_inurba_marseille","lat":43.28144,"lon":5.42648,"is_reserved":false,"is_disabled":false,"rental_uris":{"android":"levelo://app?vid=05e8c375-7a3c-4425-b819-2a917b67dc08","ios":"levelo://app?vid=05e8c375-7a3c-4425-b819-2a917b67dc08"},"vehicle_type_id":"4","last_reported":1747671177,"current_range_meters":2800,"station_id":"ce4bhnh2rcd13ifvqgug","pricing_plan_id":"cebpf4jnsgd1na2vs0mg"},{"bike_id":"865f5018-85e5-4f15-8636-4ebaf7eb272d","system_id":"levelo_inurba_marseille","lat":43.30883,"lon":5.39658,"is_reserved":false,"is_disabled":false,"rental_uris":{"android":"levelo://app?vid=865f5018-85e5-4f15-8636-4ebaf7eb272d","ios":"levelo://app?vid=865f5018-85e5-4f15-8636-4ebaf7eb272d"},"vehicle_type_id":"4","last_reported":1747671177,"current_range_meters":3200,"station_id":"ce4bh012rcd13ifvqcv0","pricing_plan_id":"cebpf4jnsgd1na2vs0mg"},{"bike_id":"3d711fde-bfcf-4b6f-8953-52a4209a1797","system_id":"levelo_inurba_marseille","lat":43.29001,"lon":5.35613,"is_reserved":false,"is_disabled":false,"rental_uris":{"android":"levelo://app?vid=3d711fde-bfcf-4b6f-8953-52a4209a1797","ios":"levelo://app?vid=3d711fde-bfcf-4b6f-8953-52a4209a1797"},"vehicle_type_id":"4","last_reported":1747671177,"current_range_meters":3200,"station_id":"ce4bhb92rcd13ifvqen0","pricing_plan_id":"cebpf4jnsgd1na2vs0mg"},{"bike_id":"a23c9c0d-605b-4ce1-8fc5-86d2c65b44bd","system_id":"levelo_inurba_marseille","lat":43.26547,"lon":5.37284,"is_reserved":false,"is_disabled":false,"rental_uris":{"android":"levelo://app?vid=a23c9c0d-605b-4ce1-8fc5-86d2c65b44bd","ios":"levelo://app?vid=a23c9c0d-605b-4ce1-8fc5-86d2c65b44bd"},"vehicle_type_id":"4","last_reported":1747671177,"current_range_meters":3200,"station_id":"ce4bhg12rcd13ifvqf70","pricing_plan_id":"cebpf4jnsgd1na2vs0mg"},{"bike_id":"61ce73c1-42d1-46c9-b097-0fbe0b5f5081","system_id":"levelo_inurba_marseille","lat":43.26494,"lon":5.3954,"is_reserved":false,"is_disabled":false,"rental_uris":{"android":"levelo://app?vid=61ce73c1-42d1-46c9-b097-0fbe0b5f5081","ios":"levelo://app?vid=61ce73c1-42d1-46c9-b097-0fbe0b5f5081"},"vehicle_type_id":"4","last_reported":1747671177,"current_range_meters":3200,"station_id":"ce4bhi12rcd13ifvqfq0","pricing_plan_id":"cebpf4jnsgd1na2vs0mg"},{"bike_id":"88c0e8cd-9cd6-4d5d-b486-57ac96b93460","system_id":"levelo_inurba_marseille","lat":43.27943,"lon":5.41051,"is_reserved":false,"is_disabled":false,"rental_uris":{"android":"levelo://app?vid=88c0e8cd-9cd6-4d5d-b486-57ac96b93460","ios":"levelo://app?vid=88c0e8cd-9cd6-4d5d-b486-57ac96b93460"},"vehicle_type_id":"4","last_reported":1747671177,"current_range_meters":3200,"station_id":"ce4bhnp2rcd13ifvqh0g","pricing_plan_id":"cebpf4jnsgd1na2vs0mg"},{"bike_id":"25efd7d8-fd8b-4c49-b03c-fe55321b94d4","system_id":"levelo_inurba_marseille","lat":43.30906,"lon":5.37279,"is_reserved":false,"is_disabled":false,"rental_uris":{"android":"levelo://app?vid=25efd7d8-fd8b-4c49-b03c-fe55321b94d4","ios":"levelo://app?vid=25efd7d8-fd8b-4c49-b03c-fe55321b94d4"},"vehicle_type_id":"4","last_reported":1747671177,"current_range_meters":3600,"station_id":"","pricing_plan_id":"cebpf4jnsgd1na2vs0mg"},{"bike_id":"f40652e2-30a0-431e-b1f1-4d9fe84a8149","system_id":"levelo_inurba_marseille","lat":43.27396,"lon":5.36276,"is_reserved":false,"is_disabled":false,"rental_uris":{"android":"levelo://app?vid=f40652e2-30a0-431e-b1f1-4d9fe84a8149","ios":"levelo://app?vid=f40652e2-30a0-431e-b1f1-4d9fe84a8149"},"vehicle_type_id":"4","last_reported":1747671177,"current_range_meters":3600,"station_id":"ce4bhbh2rcd13ifvqeo0","pricing_plan_id":"cebpf4jnsgd1na2vs0mg"},{"bike_id":"32b87b51-5301-4a90-bffb-6dfc5b11b244","system_id":"levelo_inurba_marseille","lat":43.25105,"lon":5.40331,"is_reserved":false,"is_disabled":false,"rental_uris":{"android":"levelo://app?vid=32b87b51-5301-4a90-bffb-6dfc5b11b244","ios":"levelo://app?vid=32b87b51-5301-4a90-bffb-6dfc5b11b244"},"vehicle_type_id":"4","last_reported":1747671177,"current_range_meters":3600,"station_id":"ce4bhlh2rcd13ifvqgig","pricing_plan_id":"cebpf4jnsgd1na2vs0mg"},{"bike_id":"27c69e90-6a8d-4dc8-9366-939726c095d0","system_id":"levelo_inurba_marseille","lat":43.32486,"lon":5.36569,"is_reserved":false,"is_disabled":false,"rental_uris":{"android":"levelo://app?vid=27c69e90-6a8d-4dc8-9366-939726c095d0","ios":"levelo://app?vid=27c69e90-6a8d-4dc8-9366-939726c095d0"},"vehicle_type_id":"4","last_reported":1747671177,"current_range_meters":3600,"station_id":"ce4bhs12rcd13ifvqhvg","pricing_plan_id":"cebpf4jnsgd1na2vs0mg"},{"bike_id":"0fb02880-5c6e-4026-9e4a-07529c572b44","system_id":"levelo_inurba_marseille","lat":43.25494,"lon":5.37389,"is_reserved":false,"is_disabled":false,"rental_uris":{"android":"levelo://app?vid=0fb02880-5c6e-4026-9e4a-07529c572b44","ios":"levelo://app?vid=0fb02880-5c6e-4026-9e4a-07529c572b44"},"vehicle_type_id":"4","last_reported":1747671177,"current_range_meters":4400,"station_id":"","pricing_plan_id":"cebpf4jnsgd1na2vs0mg"},{"bike_id":"14603e41-b2dd-4757-a53c-2e366aa4f983","system_id":"levelo_inurba_marseille","lat":43.2701,"lon":5.4283,"is_reserved":false,"is_disabled":false,"rental_uris":{"android":"levelo://app?vid=14603e41-b2dd-4757-a53c-2e366aa4f983","ios":"levelo://app?vid=14603e41-b2dd-4757-a53c-2e366aa4f983"},"vehicle_type_id":"4","last_reported":1747671177,"current_range_meters":4400,"station_id":"","pricing_plan_id":"cebpf4jnsgd1na2vs0mg"},{"bike_id":"5be19a9b-8d2c-40f9-8ff8-3e7645188799","system_id":"levelo_inurba_marseille","lat":43.28715,"lon":5.37922,"is_reserved":false,"is_disabled":false,"rental_uris":{"android":"levelo://app?vid=5be19a9b-8d2c-40f9-8ff8-3e7645188799","ios":"levelo://app?vid=5be19a9b-8d2c-40f9-8ff8-3e7645188799"},"vehicle_type_id":"4","last_reported":1747671177,"current_range_meters":4400,"station_id":"ce4bh9p2rcd13ifvqec0","pricing_plan_id":"cebpf4jnsgd1na2vs0mg"},{"bike_id":"128b228a-579b-4814-a56b-46d7da257e2e","system_id":"levelo_inurba_marseille","lat":43.30142,"lon":5.37418,"is_reserved":false,"is_disabled":false,"rental_uris":{"android":"levelo://app?vid=128b228a-579b-4814-a56b-46d7da257e2e","ios":"levelo://app?vid=128b228a-579b-4814-a56b-46d7da257e2e"},"vehicle_type_id":"4","last_reported":1747671177,"current_range_meters":4800,"station_id":"ce4bgs92rcd13ifvqcc0","pricing_plan_id":"cebpf4jnsgd1na2vs0mg"},{"bike_id":"5f58ac10-b8f7-4fb6-aa08-8430b89ff662","system_id":"levelo_inurba_marseille","lat":43.28816,"lon":5.3591,"is_reserved":false,"is_disabled":false,"rental_uris":{"android":"levelo://app?vid=5f58ac10-b8f7-4fb6-aa08-8430b89ff662","ios":"levelo://app?vid=5f58ac10-b8f7-4fb6-aa08-8430b89ff662"},"vehicle_type_id":"4","last_reported":1747671177,"current_range_meters":4800,"station_id":"ce4bhb12rcd13ifvqem0","pricing_plan_id":"cebpf4jnsgd1na2vs0mg"},{"bike_id":"d00b780d-9380-41ad-91a0-ba69663c8ab4","system_id":"levelo_inurba_marseille","lat":43.27382,"lon":5.36262,"is_reserved":false,"is_disabled":false,"rental_uris":{"android":"levelo://app?vid=d00b780d-9380-41ad-91a0-ba69663c8ab4","ios":"levelo://app?vid=d00b780d-9380-41ad-91a0-ba69663c8ab4"},"vehicle_type_id":"4","last_reported":1747671177,"current_range_meters":4800,"station_id":"ce4bhbh2rcd13ifvqeo0","pricing_plan_id":"cebpf4jnsgd1na2vs0mg"},{"bike_id":"cba5ee50-87f1-49b7-b373-54abb830d812","system_id":"levelo_inurba_marseille","lat":43.246267,"lon":5.388827,"is_reserved":false,"is_disabled":false,"rental_uris":{"android":"levelo://app?vid=cba5ee50-87f1-49b7-b373-54abb830d812","ios":"levelo://app?vid=cba5ee50-87f1-49b7-b373-54abb830d812"},"vehicle_type_id":"4","last_reported":1747671177,"current_range_meters":4800,"station_id":"ce4bhg12rcd13ifvqf60","pricing_plan_id":"cebpf4jnsgd1na2vs0mg"},{"bike_id":"256f491e-4b7e-4a15-a7bf-b72dbdd2f9fc","system_id":"levelo_inurba_marseille","lat":43.29197,"lon":5.39309,"is_reserved":false,"is_disabled":false,"rental_uris":{"android":"levelo://app?vid=256f491e-4b7e-4a15-a7bf-b72dbdd2f9fc","ios":"levelo://app?vid=256f491e-4b7e-4a15-a7bf-b72dbdd2f9fc"},"vehicle_type_id":"4","last_reported":1747671177,"current_range_meters":5600,"station_id":"ce4bh192rcd13ifvqdd0","pricing_plan_id":"cebpf4jnsgd1na2vs0mg"},{"bike_id":"f240ffe1-cc72-404b-ae58-f3bd0b6da58a","system_id":"levelo_inurba_marseille","lat":43.28933,"lon":5.36641,"is_reserved":false,"is_disabled":false,"rental_uris":{"android":"levelo://app?vid=f240ffe1-cc72-404b-ae58-f3bd0b6da58a","ios":"levelo://app?vid=f240ffe1-cc72-404b-ae58-f3bd0b6da58a"},"vehicle_type_id":"4","last_reported":1747671177,"current_range_meters":5600,"station_id":"ce4bhap2rcd13ifvqek0","pricing_plan_id":"cebpf4jnsgd1na2vs0mg"},{"bike_id":"59c4e672-6014-4ab1-9d3e-34c83cf8eec9","system_id":"levelo_inurba_marseille","lat":43.27985,"lon":5.41608,"is_reserved":false,"is_disabled":false,"rental_uris":{"android":"levelo://app?vid=59c4e672-6014-4ab1-9d3e-34c83cf8eec9","ios":"levelo://app?vid=59c4e672-6014-4ab1-9d3e-34c83cf8eec9"},"vehicle_type_id":"4","last_reported":1747671177,"current_range_meters":5600,"station_id":"ce4bho12rcd13ifvqh1g","pricing_plan_id":"cebpf4jnsgd1na2vs0mg"},{"bike_id":"7d427685-f1e5-455f-9020-f03381749bda","system_id":"levelo_inurba_marseille","lat":43.29602,"lon":5.38117,"is_reserved":false,"is_disabled":false,"rental_uris":{"android":"levelo://app?vid=7d427685-f1e5-455f-9020-f03381749bda","ios":"levelo://app?vid=7d427685-f1e5-455f-9020-f03381749bda"},"vehicle_type_id":"4","last_reported":1747671177,"current_range_meters":6000,"station_id":"ce4bgl12rcd13ifvqbo0","pricing_plan_id":"cebpf4jnsgd1na2vs0mg"},{"bike_id":"2ccdd669-4b09-4543-97a3-fb7d59b9769d","system_id":"levelo_inurba_marseille","lat":43.27987,"lon":5.41658,"is_reserved":false,"is_disabled":false,"rental_uris":{"android":"levelo://app?vid=2ccdd669-4b09-4543-97a3-fb7d59b9769d","ios":"levelo://app?vid=2ccdd669-4b09-4543-97a3-fb7d59b9769d"},"vehicle_type_id":"4","last_reported":1747671177,"current_range_meters":6000,"station_id":"ce4bho12rcd13ifvqh1g","pricing_plan_id":"cebpf4jnsgd1na2vs0mg"},{"bike_id":"2a4b7d86-c4df-4a46-9b9e-8c46b604cb80","system_id":"levelo_inurba_marseille","lat":43.29844,"lon":5.36276,"is_reserved":false,"is_disabled":false,"rental_uris":{"android":"levelo://app?vid=2a4b7d86-c4df-4a46-9b9e-8c46b604cb80","ios":"levelo://app?vid=2a4b7d86-c4df-4a46-9b9e-8c46b604cb80"},"vehicle_type_id":"4","last_reported":1747671177,"current_range_meters":6400,"station_id":"ce4bgpp2rcd13ifvqc3g","pricing_plan_id":"cebpf4jnsgd1na2vs0mg"},{"bike_id":"c360bf12-5a4e-4549-ad5b-c9b0f7763941","system_id":"levelo_inurba_marseille","lat":43.2842,"lon":5.34979,"is_reserved":false,"is_disabled":false,"rental_uris":{"android":"levelo://app?vid=c360bf12-5a4e-4549-ad5b-c9b0f7763941","ios":"levelo://app?vid=c360bf12-5a4e-4549-ad5b-c9b0f7763941"},"vehicle_type_id":"4","last_reported":1747671177,"current_range_meters":6400,"station_id":"ce4bhbh2rcd13ifvqepg","pricing_plan_id":"cebpf4jnsgd1na2vs0mg"},{"bike_id":"153cd2bc-bbd6-41db-bd30-cd66cdff651d","system_id":"levelo_inurba_marseille","lat":43.27068,"lon":5.40269,"is_reserved":false,"is_disabled":false,"rental_uris":{"android":"levelo://app?vid=153cd2bc-bbd6-41db-bd30-cd66cdff651d","ios":"levelo://app?vid=153cd2bc-bbd6-41db-bd30-cd66cdff651d"},"vehicle_type_id":"4","last_reported":1747671177,"current_range_meters":6400,"station_id":"ce4bhk92rcd13ifvqgc0","pricing_plan_id":"cebpf4jnsgd1na2vs0mg"},{"bike_id":"4be1ac7a-aa01-4c7a-abb6-24af70692d62","system_id":"levelo_inurba_marseille","lat":43.231808,"lon":5.399878,"is_reserved":false,"is_disabled":false,"rental_uris":{"android":"levelo://app?vid=4be1ac7a-aa01-4c7a-abb6-24af70692d62","ios":"levelo://app?vid=4be1ac7a-aa01-4c7a-abb6-24af70692d62"},"vehicle_type_id":"4","last_reported":1747671177,"current_range_meters":6400,"station_id":"ce4bhn12rcd13ifvqgqg","pricing_plan_id":"cebpf4jnsgd1na2vs0mg"},{"bike_id":"0eb7f958-813c-4599-a947-cc188a070eb3","system_id":"levelo_inurba_marseille","lat":43.25107,"lon":5.40325,"is_reserved":false,"is_disabled":false,"rental_uris":{"android":"levelo://app?vid=0eb7f958-813c-4599-a947-cc188a070eb3","ios":"levelo://app?vid=0eb7f958-813c-4599-a947-cc188a070eb3"},"vehicle_type_id":"4","last_reported":1747671177,"current_range_meters":6800,"station_id":"ce4bhlh2rcd13ifvqgig","pricing_plan_id":"cebpf4jnsgd1na2vs0mg"},{"bike_id":"a5069c23-eea7-40f4-9d9a-11b963aa48ad","system_id":"levelo_inurba_marseille","lat":43.23187,"lon":5.39992,"is_reserved":false,"is_disabled":false,"rental_uris":{"android":"levelo://app?vid=a5069c23-eea7-40f4-9d9a-11b963aa48ad","ios":"levelo://app?vid=a5069c23-eea7-40f4-9d9a-11b963aa48ad"},"vehicle_type_id":"4","last_reported":1747671177,"current_range_meters":6800,"station_id":"ce4bhn12rcd13ifvqgqg","pricing_plan_id":"cebpf4jnsgd1na2vs0mg"},{"bike_id":"7c2f31a5-29a4-4b38-92a3-a37e6e9acbd5","system_id":"levelo_inurba_marseille","lat":43.25755,"lon":5.4108,"is_reserved":false,"is_disabled":false,"rental_uris":{"android":"levelo://app?vid=7c2f31a5-29a4-4b38-92a3-a37e6e9acbd5","ios":"levelo://app?vid=7c2f31a5-29a4-4b38-92a3-a37e6e9acbd5"},"vehicle_type_id":"4","last_reported":1747671177,"current_range_meters":7200,"station_id":"","pricing_plan_id":"cebpf4jnsgd1na2vs0mg"},{"bike_id":"c128680d-745d-4b9f-be45-236f87f058ca","system_id":"levelo_inurba_marseille","lat":43.29866,"lon":5.38907,"is_reserved":false,"is_disabled":false,"rental_uris":{"android":"levelo://app?vid=c128680d-745d-4b9f-be45-236f87f058ca","ios":"levelo://app?vid=c128680d-745d-4b9f-be45-236f87f058ca"},"vehicle_type_id":"4","last_reported":1747671177,"current_range_meters":7200,"station_id":"ce4bh392rcd13ifvqdl0","pricing_plan_id":"cebpf4jnsgd1na2vs0mg"},{"bike_id":"6c7bc523-00e8-403b-801b-0f700a84dac3","system_id":"levelo_inurba_marseille","lat":43.28893,"lon":5.360867,"is_reserved":false,"is_disabled":false,"rental_uris":{"android":"levelo://app?vid=6c7bc523-00e8-403b-801b-0f700a84dac3","ios":"levelo://app?vid=6c7bc523-00e8-403b-801b-0f700a84dac3"},"vehicle_type_id":"4","last_reported":1747671177,"current_range_meters":7200,"station_id":"ce4bhb12rcd13ifvqem0","pricing_plan_id":"cebpf4jnsgd1na2vs0mg"},{"bike_id":"701310e5-77ae-41cf-97e4-ac93fc0f35cf","system_id":"levelo_inurba_marseille","lat":43.27176,"lon":5.40998,"is_reserved":false,"is_disabled":false,"rental_uris":{"android":"levelo://app?vid=701310e5-77ae-41cf-97e4-ac93fc0f35cf","ios":"levelo://app?vid=701310e5-77ae-41cf-97e4-ac93fc0f35cf"},"vehicle_type_id":"4","last_reported":1747671177,"current_range_meters":7200,"station_id":"ce4bhl12rcd13ifvqgf0","pricing_plan_id":"cebpf4jnsgd1na2vs0mg"},{"bike_id":"d44e7665-a2ca-4912-ae60-ef67f0e438ac","system_id":"levelo_inurba_marseille","lat":43.27984,"lon":5.4166,"is_reserved":false,"is_disabled":false,"rental_uris":{"android":"levelo://app?vid=d44e7665-a2ca-4912-ae60-ef67f0e438ac","ios":"levelo://app?vid=d44e7665-a2ca-4912-ae60-ef67f0e438ac"},"vehicle_type_id":"4","last_reported":1747671177,"current_range_meters":7200,"station_id":"ce4bho12rcd13ifvqh1g","pricing_plan_id":"cebpf4jnsgd1na2vs0mg"},{"bike_id":"ad0cb55d-ea97-4d7c-a65f-3c6814347cb0","system_id":"levelo_inurba_marseille","lat":43.29532,"lon":5.385482,"is_reserved":false,"is_disabled":false,"rental_uris":{"android":"levelo://app?vid=ad0cb55d-ea97-4d7c-a65f-3c6814347cb0","ios":"levelo://app?vid=ad0cb55d-ea97-4d7c-a65f-3c6814347cb0"},"vehicle_type_id":"4","last_reported":1747671177,"current_range_meters":8000,"station_id":"ce4bgih2rcd13ifvqba0","pricing_plan_id":"cebpf4jnsgd1na2vs0mg"},{"bike_id":"d25111a6-480a-42ab-a8c4-a42d5a418806","system_id":"levelo_inurba_marseille","lat":43.2961,"lon":5.38105,"is_reserved":false,"is_disabled":false,"rental_uris":{"android":"levelo://app?vid=d25111a6-480a-42ab-a8c4-a42d5a418806","ios":"levelo://app?vid=d25111a6-480a-42ab-a8c4-a42d5a418806"},"vehicle_type_id":"4","last_reported":1747671177,"current_range_meters":8000,"station_id":"ce4bgl12rcd13ifvqbo0","pricing_plan_id":"cebpf4jnsgd1na2vs0mg"},{"bike_id":"cde7e66e-ce29-42a6-9356-65ed12e539a7","system_id":"levelo_inurba_marseille","lat":43.27397,"lon":5.36274,"is_reserved":false,"is_disabled":false,"rental_uris":{"android":"levelo://app?vid=cde7e66e-ce29-42a6-9356-65ed12e539a7","ios":"levelo://app?vid=cde7e66e-ce29-42a6-9356-65ed12e539a7"},"vehicle_type_id":"4","last_reported":1747671177,"current_range_meters":8000,"station_id":"ce4bhbh2rcd13ifvqeo0","pricing_plan_id":"cebpf4jnsgd1na2vs0mg"},{"bike_id":"d0658014-ae79-4072-ab98-5fe628ae2900","system_id":"levelo_inurba_marseille","lat":43.273773,"lon":5.362602,"is_reserved":false,"is_disabled":false,"rental_uris":{"android":"levelo://app?vid=d0658014-ae79-4072-ab98-5fe628ae2900","ios":"levelo://app?vid=d0658014-ae79-4072-ab98-5fe628ae2900"},"vehicle_type_id":"4","last_reported":1747671177,"current_range_meters":8000,"station_id":"ce4bhbh2rcd13ifvqeo0","pricing_plan_id":"cebpf4jnsgd1na2vs0mg"},{"bike_id":"97b70cf9-8044-48ed-93a1-0d759ff32bc0","system_id":"levelo_inurba_marseille","lat":43.26557,"lon":5.37324,"is_reserved":false,"is_disabled":false,"rental_uris":{"android":"levelo://app?vid=97b70cf9-8044-48ed-93a1-0d759ff32bc0","ios":"levelo://app?vid=97b70cf9-8044-48ed-93a1-0d759ff32bc0"},"vehicle_type_id":"4","last_reported":1747671177,"current_range_meters":8000,"station_id":"ce4bhg12rcd13ifvqf70","pricing_plan_id":"cebpf4jnsgd1na2vs0mg"},{"bike_id":"0feb9683-37b3-4990-9027-a76903c7e87b","system_id":"levelo_inurba_marseille","lat":43.27966,"lon":5.38745,"is_reserved":false,"is_disabled":false,"rental_uris":{"android":"levelo://app?vid=0feb9683-37b3-4990-9027-a76903c7e87b","ios":"levelo://app?vid=0feb9683-37b3-4990-9027-a76903c7e87b"},"vehicle_type_id":"4","last_reported":1747671177,"current_range_meters":8000,"station_id":"ce4bhg12rcd13ifvqf80","pricing_plan_id":"cebpf4jnsgd1na2vs0mg"},{"bike_id":"bde564e2-333a-45c0-848b-4ff0142d7c37","system_id":"levelo_inurba_marseille","lat":43.25826,"lon":5.39437,"is_reserved":false,"is_disabled":false,"rental_uris":{"android":"levelo://app?vid=bde564e2-333a-45c0-848b-4ff0142d7c37","ios":"levelo://app?vid=bde564e2-333a-45c0-848b-4ff0142d7c37"},"vehicle_type_id":"4","last_reported":1747671177,"current_range_meters":8000,"station_id":"ce4bhip2rcd13ifvqft0","pricing_plan_id":"cebpf4jnsgd1na2vs0mg"},{"bike_id":"e57573ee-de11-4cc4-b0dc-28dd911126ff","system_id":"levelo_inurba_marseille","lat":43.25113,"lon":5.40319,"is_reserved":false,"is_disabled":false,"rental_uris":{"android":"levelo://app?vid=e57573ee-de11-4cc4-b0dc-28dd911126ff","ios":"levelo://app?vid=e57573ee-de11-4cc4-b0dc-28dd911126ff"},"vehicle_type_id":"4","last_reported":1747671177,"current_range_meters":8000,"station_id":"ce4bhlh2rcd13ifvqgig","pricing_plan_id":"cebpf4jnsgd1na2vs0mg"},{"bike_id":"92a6af25-c13e-41f1-9234-7144ec89b7a9","system_id":"levelo_inurba_marseille","lat":43.23186,"lon":5.39978,"is_reserved":false,"is_disabled":false,"rental_uris":{"android":"levelo://app?vid=92a6af25-c13e-41f1-9234-7144ec89b7a9","ios":"levelo://app?vid=92a6af25-c13e-41f1-9234-7144ec89b7a9"},"vehicle_type_id":"4","last_reported":1747671177,"current_range_meters":8000,"station_id":"ce4bhn12rcd13ifvqgqg","pricing_plan_id":"cebpf4jnsgd1na2vs0mg"},{"bike_id":"1ea9ca98-0332-4755-ae43-d6b075047d78","system_id":"levelo_inurba_marseille","lat":43.28001,"lon":5.40033,"is_reserved":false,"is_disabled":false,"rental_uris":{"android":"levelo://app?vid=1ea9ca98-0332-4755-ae43-d6b075047d78","ios":"levelo://app?vid=1ea9ca98-0332-4755-ae43-d6b075047d78"},"vehicle_type_id":"4","last_reported":1747671177,"current_range_meters":8000,"station_id":"ce4bho92rcd13ifvqh4g","pricing_plan_id":"cebpf4jnsgd1na2vs0mg"},{"bike_id":"18e159ff-ab45-4952-87fc-1429618233f7","system_id":"levelo_inurba_marseille","lat":43.27614,"lon":5.36102,"is_reserved":false,"is_disabled":false,"rental_uris":{"android":"levelo://app?vid=18e159ff-ab45-4952-87fc-1429618233f7","ios":"levelo://app?vid=18e159ff-ab45-4952-87fc-1429618233f7"},"vehicle_type_id":"4","last_reported":1747671177,"current_range_meters":8400,"station_id":"ce4bgj92rcd13ifvqbe0","pricing_plan_id":"cebpf4jnsgd1na2vs0mg"},{"bike_id":"74689e35-e4d2-41e2-938b-2929cabd84ff","system_id":"levelo_inurba_marseille","lat":43.30254,"lon":5.40073,"is_reserved":false,"is_disabled":false,"rental_uris":{"android":"levelo://app?vid=74689e35-e4d2-41e2-938b-2929cabd84ff","ios":"levelo://app?vid=74689e35-e4d2-41e2-938b-2929cabd84ff"},"vehicle_type_id":"4","last_reported":1747671177,"current_range_meters":8400,"station_id":"ce4bgvh2rcd13ifvqcs0","pricing_plan_id":"cebpf4jnsgd1na2vs0mg"},{"bike_id":"4dc29447-e460-42a1-a775-e6666a1560ec","system_id":"levelo_inurba_marseille","lat":43.30628,"lon":5.40114,"is_reserved":false,"is_disabled":false,"rental_uris":{"android":"levelo://app?vid=4dc29447-e460-42a1-a775-e6666a1560ec","ios":"levelo://app?vid=4dc29447-e460-42a1-a775-e6666a1560ec"},"vehicle_type_id":"4","last_reported":1747671177,"current_range_meters":8400,"station_id":"ce4bh112rcd13ifvqda0","pricing_plan_id":"cebpf4jnsgd1na2vs0mg"},{"bike_id":"801275e0-7453-44f3-8b15-d27446f4c8b1","system_id":"levelo_inurba_marseille","lat":43.2893,"lon":5.36642,"is_reserved":false,"is_disabled":false,"rental_uris":{"android":"levelo://app?vid=801275e0-7453-44f3-8b15-d27446f4c8b1","ios":"levelo://app?vid=801275e0-7453-44f3-8b15-d27446f4c8b1"},"vehicle_type_id":"4","last_reported":1747671177,"current_range_meters":8400,"station_id":"ce4bhap2rcd13ifvqek0","pricing_plan_id":"cebpf4jnsgd1na2vs0mg"},{"bike_id":"d9090cda-5b81-447f-829a-dd86382e9b77","system_id":"levelo_inurba_marseille","lat":43.273712,"lon":5.362588,"is_reserved":false,"is_disabled":false,"rental_uris":{"android":"levelo://app?vid=d9090cda-5b81-447f-829a-dd86382e9b77","ios":"levelo://app?vid=d9090cda-5b81-447f-829a-dd86382e9b77"},"vehicle_type_id":"4","last_reported":1747671177,"current_range_meters":8400,"station_id":"ce4bhbh2rcd13ifvqeo0","pricing_plan_id":"cebpf4jnsgd1na2vs0mg"},{"bike_id":"a0ce1796-904b-404f-a3a2-78c940e95b15","system_id":"levelo_inurba_marseille","lat":43.28617,"lon":5.35106,"is_reserved":false,"is_disabled":false,"rental_uris":{"android":"levelo://app?vid=a0ce1796-904b-404f-a3a2-78c940e95b15","ios":"levelo://app?vid=a0ce1796-904b-404f-a3a2-78c940e95b15"},"vehicle_type_id":"4","last_reported":1747671177,"current_range_meters":8400,"station_id":"ce4bhch2rcd13ifvqeug","pricing_plan_id":"cebpf4jnsgd1na2vs0mg"},{"bike_id":"40cea486-a092-40f7-b5f7-c2ff62a7199a","system_id":"levelo_inurba_marseille","lat":43.26563,"lon":5.39011,"is_reserved":false,"is_disabled":false,"rental_uris":{"android":"levelo://app?vid=40cea486-a092-40f7-b5f7-c2ff62a7199a","ios":"levelo://app?vid=40cea486-a092-40f7-b5f7-c2ff62a7199a"},"vehicle_type_id":"4","last_reported":1747671177,"current_range_meters":8400,"station_id":"ce4bhe12rcd13ifvqf30","pricing_plan_id":"cebpf4jnsgd1na2vs0mg"},{"bike_id":"7a303045-b456-4d96-acf6-d5a38ab6054c","system_id":"levelo_inurba_marseille","lat":43.29975,"lon":5.37177,"is_reserved":false,"is_disabled":false,"rental_uris":{"android":"levelo://app?vid=7a303045-b456-4d96-acf6-d5a38ab6054c","ios":"levelo://app?vid=7a303045-b456-4d96-acf6-d5a38ab6054c"},"vehicle_type_id":"4","last_reported":1747671177,"current_range_meters":8800,"station_id":"ce4bgr92rcd13ifvqc7g","pricing_plan_id":"cebpf4jnsgd1na2vs0mg"},{"bike_id":"57d868ee-ea14-4118-8093-254181b25d01","system_id":"levelo_inurba_marseille","lat":43.27371,"lon":5.36256,"is_reserved":false,"is_disabled":false,"rental_uris":{"android":"levelo://app?vid=57d868ee-ea14-4118-8093-254181b25d01","ios":"levelo://app?vid=57d868ee-ea14-4118-8093-254181b25d01"},"vehicle_type_id":"4","last_reported":1747671177,"current_range_meters":8800,"station_id":"ce4bhbh2rcd13ifvqeo0","pricing_plan_id":"cebpf4jnsgd1na2vs0mg"},{"bike_id":"8372d15c-478f-4697-b890-7598b8e11b2c","system_id":"levelo_inurba_marseille","lat":43.304152,"lon":5.412848,"is_reserved":false,"is_disabled":false,"rental_uris":{"android":"levelo://app?vid=8372d15c-478f-4697-b890-7598b8e11b2c","ios":"levelo://app?vid=8372d15c-478f-4697-b890-7598b8e11b2c"},"vehicle_type_id":"4","last_reported":1747671177,"current_range_meters":8800,"station_id":"ce4bhop2rcd13ifvqh8g","pricing_plan_id":"cebpf4jnsgd1na2vs0mg"},{"bike_id":"c548eeed-04fb-4c22-95b2-4cec82ad3238","system_id":"levelo_inurba_marseille","lat":43.25485,"lon":5.37579,"is_reserved":false,"is_disabled":false,"rental_uris":{"android":"levelo://app?vid=c548eeed-04fb-4c22-95b2-4cec82ad3238","ios":"levelo://app?vid=c548eeed-04fb-4c22-95b2-4cec82ad3238"},"vehicle_type_id":"4","last_reported":1747671177,"current_range_meters":9200,"station_id":"","pricing_plan_id":"cebpf4jnsgd1na2vs0mg"},{"bike_id":"df7224c1-80c0-481e-88f6-ffb01e316f9f","system_id":"levelo_inurba_marseille","lat":43.30134,"lon":5.38786,"is_reserved":false,"is_disabled":false,"rental_uris":{"android":"levelo://app?vid=df7224c1-80c0-481e-88f6-ffb01e316f9f","ios":"levelo://app?vid=df7224c1-80c0-481e-88f6-ffb01e316f9f"},"vehicle_type_id":"4","last_reported":1747671177,"current_range_meters":9200,"station_id":"ce4bghh2rcd13ifvqb60","pricing_plan_id":"cebpf4jnsgd1na2vs0mg"},{"bike_id":"fe2ec05d-05da-4973-966a-c38921d28ba4","system_id":"levelo_inurba_marseille","lat":43.30927,"lon":5.40141,"is_reserved":false,"is_disabled":false,"rental_uris":{"android":"levelo://app?vid=fe2ec05d-05da-4973-966a-c38921d28ba4","ios":"levelo://app?vid=fe2ec05d-05da-4973-966a-c38921d28ba4"},"vehicle_type_id":"4","last_reported":1747671177,"current_range_meters":9200,"station_id":"ce4bgvp2rcd13ifvqct0","pricing_plan_id":"cebpf4jnsgd1na2vs0mg"},{"bike_id":"70348216-a6e8-46ef-b897-6d08144393fa","system_id":"levelo_inurba_marseille","lat":43.29794,"lon":5.40401,"is_reserved":false,"is_disabled":false,"rental_uris":{"android":"levelo://app?vid=70348216-a6e8-46ef-b897-6d08144393fa","ios":"levelo://app?vid=70348216-a6e8-46ef-b897-6d08144393fa"},"vehicle_type_id":"4","last_reported":1747671177,"current_range_meters":9200,"station_id":"ce4bh112rcd13ifvqd90","pricing_plan_id":"cebpf4jnsgd1na2vs0mg"},{"bike_id":"1c1d8103-fef7-401b-996a-0bc72cc88269","system_id":"levelo_inurba_marseille","lat":43.29197,"lon":5.39322,"is_reserved":false,"is_disabled":false,"rental_uris":{"android":"levelo://app?vid=1c1d8103-fef7-401b-996a-0bc72cc88269","ios":"levelo://app?vid=1c1d8103-fef7-401b-996a-0bc72cc88269"},"vehicle_type_id":"4","last_reported":1747671177,"current_range_meters":9200,"station_id":"ce4bh192rcd13ifvqdd0","pricing_plan_id":"cebpf4jnsgd1na2vs0mg"},{"bike_id":"faf131ab-4341-4f76-bd17-85aaf1a23e25","system_id":"levelo_inurba_marseille","lat":43.27177,"lon":5.40996,"is_reserved":false,"is_disabled":false,"rental_uris":{"android":"levelo://app?vid=faf131ab-4341-4f76-bd17-85aaf1a23e25","ios":"levelo://app?vid=faf131ab-4341-4f76-bd17-85aaf1a23e25"},"vehicle_type_id":"4","last_reported":1747671177,"current_range_meters":9200,"station_id":"ce4bhl12rcd13ifvqgf0","pricing_plan_id":"cebpf4jnsgd1na2vs0mg"},{"bike_id":"71817c77-e9f1-483d-89c1-16ca77de3122","system_id":"levelo_inurba_marseille","lat":43.25086,"lon":5.39523,"is_reserved":false,"is_disabled":false,"rental_uris":{"android":"levelo://app?vid=71817c77-e9f1-483d-89c1-16ca77de3122","ios":"levelo://app?vid=71817c77-e9f1-483d-89c1-16ca77de3122"},"vehicle_type_id":"4","last_reported":1747671177,"current_range_meters":9200,"station_id":"ce4bhm12rcd13ifvqgkg","pricing_plan_id":"cebpf4jnsgd1na2vs0mg"},{"bike_id":"06e452b4-00bd-4194-8cf0-97e51cbae02e","system_id":"levelo_inurba_marseille","lat":43.23231,"lon":5.39972,"is_reserved":false,"is_disabled":false,"rental_uris":{"android":"levelo://app?vid=06e452b4-00bd-4194-8cf0-97e51cbae02e","ios":"levelo://app?vid=06e452b4-00bd-4194-8cf0-97e51cbae02e"},"vehicle_type_id":"4","last_reported":1747671177,"current_range_meters":9600,"station_id":"","pricing_plan_id":"cebpf4jnsgd1na2vs0mg"},{"bike_id":"0fedf3a6-4b7f-4f1d-8441-ed64d8f5e751","system_id":"levelo_inurba_marseille","lat":43.31126,"lon":5.38764,"is_reserved":false,"is_disabled":false,"rental_uris":{"android":"levelo://app?vid=0fedf3a6-4b7f-4f1d-8441-ed64d8f5e751","ios":"levelo://app?vid=0fedf3a6-4b7f-4f1d-8441-ed64d8f5e751"},"vehicle_type_id":"4","last_reported":1747671177,"current_range_meters":9600,"station_id":"","pricing_plan_id":"cebpf4jnsgd1na2vs0mg"},{"bike_id":"775766d1-5760-43d2-a645-a5bc123c0c4f","system_id":"levelo_inurba_marseille","lat":43.31327,"lon":5.39691,"is_reserved":false,"is_disabled":false,"rental_uris":{"android":"levelo://app?vid=775766d1-5760-43d2-a645-a5bc123c0c4f","ios":"levelo://app?vid=775766d1-5760-43d2-a645-a5bc123c0c4f"},"vehicle_type_id":"4","last_reported":1747671177,"current_range_meters":9600,"station_id":"ce4bgvp2rcd13ifvqcu0","pricing_plan_id":"cebpf4jnsgd1na2vs0mg"},{"bike_id":"65602c49-2aaf-4a2d-9db8-6585aa3ae9d1","system_id":"levelo_inurba_marseille","lat":43.28944,"lon":5.36402,"is_reserved":false,"is_disabled":false,"rental_uris":{"android":"levelo://app?vid=65602c49-2aaf-4a2d-9db8-6585aa3ae9d1","ios":"levelo://app?vid=65602c49-2aaf-4a2d-9db8-6585aa3ae9d1"},"vehicle_type_id":"4","last_reported":1747671177,"current_range_meters":9600,"station_id":"ce4bhc92rcd13ifvqetg","pricing_plan_id":"cebpf4jnsgd1na2vs0mg"},{"bike_id":"58ad445d-65e4-48be-acfd-b0b6ce71d615","system_id":"levelo_inurba_marseille","lat":43.25002,"lon":5.38924,"is_reserved":false,"is_disabled":false,"rental_uris":{"android":"levelo://app?vid=58ad445d-65e4-48be-acfd-b0b6ce71d615","ios":"levelo://app?vid=58ad445d-65e4-48be-acfd-b0b6ce71d615"},"vehicle_type_id":"4","last_reported":1747671177,"current_range_meters":9600,"station_id":"ce4bhgp2rcd13ifvqfd0","pricing_plan_id":"cebpf4jnsgd1na2vs0mg"},{"bike_id":"b6b20f75-c943-4ffd-99fc-5e5360dace84","system_id":"levelo_inurba_marseille","lat":43.279302,"lon":5.391093,"is_reserved":false,"is_disabled":false,"rental_uris":{"android":"levelo://app?vid=b6b20f75-c943-4ffd-99fc-5e5360dace84","ios":"levelo://app?vid=b6b20f75-c943-4ffd-99fc-5e5360dace84"},"vehicle_type_id":"4","last_reported":1747671177,"current_range_meters":9600,"station_id":"ce4bhjp2rcd13ifvqga0","pricing_plan_id":"cebpf4jnsgd1na2vs0mg"},{"bike_id":"57d49cee-197d-434e-8012-8c8b17132997","system_id":"levelo_inurba_marseille","lat":43.32345,"lon":5.40622,"is_reserved":false,"is_disabled":false,"rental_uris":{"android":"levelo://app?vid=57d49cee-197d-434e-8012-8c8b17132997","ios":"levelo://app?vid=57d49cee-197d-434e-8012-8c8b17132997"},"vehicle_type_id":"4","last_reported":1747671177,"current_range_meters":9600,"station_id":"ce4bhq92rcd13ifvqhjg","pricing_plan_id":"cebpf4jnsgd1na2vs0mg"},{"bike_id":"54ed3ccf-e375-482f-aea4-5fd77f445852","system_id":"levelo_inurba_marseille","lat":43.29261,"lon":5.3761,"is_reserved":false,"is_disabled":false,"rental_uris":{"android":"levelo://app?vid=54ed3ccf-e375-482f-aea4-5fd77f445852","ios":"levelo://app?vid=54ed3ccf-e375-482f-aea4-5fd77f445852"},"vehicle_type_id":"4","last_reported":1747671177,"current_range_meters":10000,"station_id":"ce4bgi12rcd13ifvqb80","pricing_plan_id":"cebpf4jnsgd1na2vs0mg"},{"bike_id":"93345b33-8b9a-4142-8933-01d8f530695c","system_id":"levelo_inurba_marseille","lat":43.30547,"lon":5.36564,"is_reserved":false,"is_disabled":false,"rental_uris":{"android":"levelo://app?vid=93345b33-8b9a-4142-8933-01d8f530695c","ios":"levelo://app?vid=93345b33-8b9a-4142-8933-01d8f530695c"},"vehicle_type_id":"4","last_reported":1747671177,"current_range_meters":10000,"station_id":"ce4bgs12rcd13ifvqcag","pricing_plan_id":"cebpf4jnsgd1na2vs0mg"},{"bike_id":"e5c582ac-ab8d-4dee-b018-e6b9d8a156af","system_id":"levelo_inurba_marseille","lat":43.28932,"lon":5.36636,"is_reserved":false,"is_disabled":false,"rental_uris":{"android":"levelo://app?vid=e5c582ac-ab8d-4dee-b018-e6b9d8a156af","ios":"levelo://app?vid=e5c582ac-ab8d-4dee-b018-e6b9d8a156af"},"vehicle_type_id":"4","last_reported":1747671177,"current_range_meters":10000,"station_id":"ce4bhap2rcd13ifvqek0","pricing_plan_id":"cebpf4jnsgd1na2vs0mg"},{"bike_id":"341b073e-0cc3-4810-ab3e-c86591a0a258","system_id":"levelo_inurba_marseille","lat":43.28632,"lon":5.35092,"is_reserved":false,"is_disabled":false,"rental_uris":{"android":"levelo://app?vid=341b073e-0cc3-4810-ab3e-c86591a0a258","ios":"levelo://app?vid=341b073e-0cc3-4810-ab3e-c86591a0a258"},"vehicle_type_id":"4","last_reported":1747671177,"current_range_meters":10000,"station_id":"ce4bhch2rcd13ifvqeug","pricing_plan_id":"cebpf4jnsgd1na2vs0mg"},{"bike_id":"dbf8222a-eea0-42f0-80c2-a4791ac4ed58","system_id":"levelo_inurba_marseille","lat":43.250031,"lon":5.38925,"is_reserved":false,"is_disabled":false,"rental_uris":{"android":"levelo://app?vid=dbf8222a-eea0-42f0-80c2-a4791ac4ed58","ios":"levelo://app?vid=dbf8222a-eea0-42f0-80c2-a4791ac4ed58"},"vehicle_type_id":"4","last_reported":1747671177,"current_range_meters":10000,"station_id":"ce4bhgp2rcd13ifvqfd0","pricing_plan_id":"cebpf4jnsgd1na2vs0mg"},{"bike_id":"ffe6d238-6026-4e0e-a599-949c46ef6d5a","system_id":"levelo_inurba_marseille","lat":43.251065,"lon":5.403282,"is_reserved":false,"is_disabled":false,"rental_uris":{"android":"levelo://app?vid=ffe6d238-6026-4e0e-a599-949c46ef6d5a","ios":"levelo://app?vid=ffe6d238-6026-4e0e-a599-949c46ef6d5a"},"vehicle_type_id":"4","last_reported":1747671177,"current_range_meters":10000,"station_id":"ce4bhlh2rcd13ifvqgig","pricing_plan_id":"cebpf4jnsgd1na2vs0mg"},{"bike_id":"41d6d43b-cdd6-43a9-a37f-11682e05448d","system_id":"levelo_inurba_marseille","lat":43.268054,"lon":5.402593,"is_reserved":false,"is_disabled":false,"rental_uris":{"android":"levelo://app?vid=41d6d43b-cdd6-43a9-a37f-11682e05448d","ios":"levelo://app?vid=41d6d43b-cdd6-43a9-a37f-11682e05448d"},"vehicle_type_id":"4","last_reported":1747671177,"current_range_meters":10000,"station_id":"ce501612rcd8frsf0b60","pricing_plan_id":"cebpf4jnsgd1na2vs0mg"},{"bike_id":"1304491c-9598-4f85-b166-545686317b13","system_id":"levelo_inurba_marseille","lat":43.23201,"lon":5.43741,"is_reserved":false,"is_disabled":false,"rental_uris":{"android":"levelo://app?vid=1304491c-9598-4f85-b166-545686317b13","ios":"levelo://app?vid=1304491c-9598-4f85-b166-545686317b13"},"vehicle_type_id":"4","last_reported":1747671177,"current_range_meters":10800,"station_id":"","pricing_plan_id":"cebpf4jnsgd1na2vs0mg"},{"bike_id":"bcbdbd69-7be8-42f8-a855-a4358565de8f","system_id":"levelo_inurba_marseille","lat":43.27729,"lon":5.41395,"is_reserved":false,"is_disabled":false,"rental_uris":{"android":"levelo://app?vid=bcbdbd69-7be8-42f8-a855-a4358565de8f","ios":"levelo://app?vid=bcbdbd69-7be8-42f8-a855-a4358565de8f"},"vehicle_type_id":"4","last_reported":1747671177,"current_range_meters":10800,"station_id":"","pricing_plan_id":"cebpf4jnsgd1na2vs0mg"},{"bike_id":"ca2ec4db-6c6f-4140-9ca9-e731b5bf5b97","system_id":"levelo_inurba_marseille","lat":43.311183,"lon":5.377783,"is_reserved":false,"is_disabled":false,"rental_uris":{"android":"levelo://app?vid=ca2ec4db-6c6f-4140-9ca9-e731b5bf5b97","ios":"levelo://app?vid=ca2ec4db-6c6f-4140-9ca9-e731b5bf5b97"},"vehicle_type_id":"4","last_reported":1747671177,"current_range_meters":10800,"station_id":"ce4bgt92rcd13ifvqcg0","pricing_plan_id":"cebpf4jnsgd1na2vs0mg"},{"bike_id":"2995f5cf-ced2-4f74-a517-d5914e26322d","system_id":"levelo_inurba_marseille","lat":43.28696,"lon":5.3739,"is_reserved":false,"is_disabled":false,"rental_uris":{"android":"levelo://app?vid=2995f5cf-ced2-4f74-a517-d5914e26322d","ios":"levelo://app?vid=2995f5cf-ced2-4f74-a517-d5914e26322d"},"vehicle_type_id":"4","last_reported":1747671177,"current_range_meters":10800,"station_id":"ce4bh3p2rcd13ifvqdq0","pricing_plan_id":"cebpf4jnsgd1na2vs0mg"},{"bike_id":"6d4f8e70-10d6-4666-a0bf-57586ed2d375","system_id":"levelo_inurba_marseille","lat":43.26555,"lon":5.37284,"is_reserved":false,"is_disabled":false,"rental_uris":{"android":"levelo://app?vid=6d4f8e70-10d6-4666-a0bf-57586ed2d375","ios":"levelo://app?vid=6d4f8e70-10d6-4666-a0bf-57586ed2d375"},"vehicle_type_id":"4","last_reported":1747671177,"current_range_meters":10800,"station_id":"ce4bhg12rcd13ifvqf70","pricing_plan_id":"cebpf4jnsgd1na2vs0mg"},{"bike_id":"b2604218-9b7a-4262-ab2b-f89d78b3b785","system_id":"levelo_inurba_marseille","lat":43.29882,"lon":5.38896,"is_reserved":false,"is_disabled":false,"rental_uris":{"android":"levelo://app?vid=b2604218-9b7a-4262-ab2b-f89d78b3b785","ios":"levelo://app?vid=b2604218-9b7a-4262-ab2b-f89d78b3b785"},"vehicle_type_id":"4","last_reported":1747671177,"current_range_meters":11200,"station_id":"ce4bh392rcd13ifvqdl0","pricing_plan_id":"cebpf4jnsgd1na2vs0mg"},{"bike_id":"1781678f-9f63-4862-9053-a58939843977","system_id":"levelo_inurba_marseille","lat":43.27364,"lon":5.36268,"is_reserved":false,"is_disabled":false,"rental_uris":{"android":"levelo://app?vid=1781678f-9f63-4862-9053-a58939843977","ios":"levelo://app?vid=1781678f-9f63-4862-9053-a58939843977"},"vehicle_type_id":"4","last_reported":1747671177,"current_range_meters":11200,"station_id":"ce4bhbh2rcd13ifvqeo0","pricing_plan_id":"cebpf4jnsgd1na2vs0mg"},{"bike_id":"5fbc1e7a-a641-41a8-8487-50b908e3b4db","system_id":"levelo_inurba_marseille","lat":43.27945,"lon":5.41041,"is_reserved":false,"is_disabled":false,"rental_uris":{"android":"levelo://app?vid=5fbc1e7a-a641-41a8-8487-50b908e3b4db","ios":"levelo://app?vid=5fbc1e7a-a641-41a8-8487-50b908e3b4db"},"vehicle_type_id":"4","last_reported":1747671177,"current_range_meters":11200,"station_id":"ce4bhnp2rcd13ifvqh0g","pricing_plan_id":"cebpf4jnsgd1na2vs0mg"},{"bike_id":"c076ad54-d589-4eeb-ac51-e1376a33ec39","system_id":"levelo_inurba_marseille","lat":43.29552,"lon":5.4229,"is_reserved":false,"is_disabled":false,"rental_uris":{"android":"levelo://app?vid=c076ad54-d589-4eeb-ac51-e1376a33ec39","ios":"levelo://app?vid=c076ad54-d589-4eeb-ac51-e1376a33ec39"},"vehicle_type_id":"4","last_reported":1747671177,"current_range_meters":11200,"station_id":"ce4bhph2rcd13ifvqhdg","pricing_plan_id":"cebpf4jnsgd1na2vs0mg"},{"bike_id":"7c95edc2-f1e4-4d16-b6e0-f9ab2e067284","system_id":"levelo_inurba_marseille","lat":43.27376,"lon":5.36255,"is_reserved":false,"is_disabled":false,"rental_uris":{"android":"levelo://app?vid=7c95edc2-f1e4-4d16-b6e0-f9ab2e067284","ios":"levelo://app?vid=7c95edc2-f1e4-4d16-b6e0-f9ab2e067284"},"vehicle_type_id":"4","last_reported":1747671177,"current_range_meters":11600,"station_id":"ce4bhbh2rcd13ifvqeo0","pricing_plan_id":"cebpf4jnsgd1na2vs0mg"},{"bike_id":"ebd82ad1-cf72-44b9-af2d-acfb8b004c9f","system_id":"levelo_inurba_marseille","lat":43.278095,"lon":5.407128,"is_reserved":false,"is_disabled":false,"rental_uris":{"android":"levelo://app?vid=ebd82ad1-cf72-44b9-af2d-acfb8b004c9f","ios":"levelo://app?vid=ebd82ad1-cf72-44b9-af2d-acfb8b004c9f"},"vehicle_type_id":"4","last_reported":1747671177,"current_range_meters":11600,"station_id":"ce4bhnh2rcd13ifvqgtg","pricing_plan_id":"cebpf4jnsgd1na2vs0mg"},{"bike_id":"3845a9e9-4c9c-4879-bcb2-14c39c74186e","system_id":"levelo_inurba_marseille","lat":43.29789,"lon":5.37105,"is_reserved":false,"is_disabled":false,"rental_uris":{"android":"levelo://app?vid=3845a9e9-4c9c-4879-bcb2-14c39c74186e","ios":"levelo://app?vid=3845a9e9-4c9c-4879-bcb2-14c39c74186e"},"vehicle_type_id":"4","last_reported":1747671177,"current_range_meters":12000,"station_id":"ce4bgop2rcd13ifvqc1g","pricing_plan_id":"cebpf4jnsgd1na2vs0mg"},{"bike_id":"0eebeb2b-dba7-4dfc-85c3-89e8a8799c37","system_id":"levelo_inurba_marseille","lat":43.27996,"lon":5.40005,"is_reserved":false,"is_disabled":false,"rental_uris":{"android":"levelo://app?vid=0eebeb2b-dba7-4dfc-85c3-89e8a8799c37","ios":"levelo://app?vid=0eebeb2b-dba7-4dfc-85c3-89e8a8799c37"},"vehicle_type_id":"4","last_reported":1747671177,"current_range_meters":12000,"station_id":"ce4bho92rcd13ifvqh4g","pricing_plan_id":"cebpf4jnsgd1na2vs0mg"},{"bike_id":"60393716-8180-42eb-a367-cc5098e8bc92","system_id":"levelo_inurba_marseille","lat":43.27998,"lon":5.40011,"is_reserved":false,"is_disabled":false,"rental_uris":{"android":"levelo://app?vid=60393716-8180-42eb-a367-cc5098e8bc92","ios":"levelo://app?vid=60393716-8180-42eb-a367-cc5098e8bc92"},"vehicle_type_id":"4","last_reported":1747671177,"current_range_meters":12000,"station_id":"ce4bho92rcd13ifvqh4g","pricing_plan_id":"cebpf4jnsgd1na2vs0mg"},{"bike_id":"1ef9344f-9c1a-410e-bf6e-03f9dc8de8db","system_id":"levelo_inurba_marseille","lat":43.29562,"lon":5.42297,"is_reserved":false,"is_disabled":false,"rental_uris":{"android":"levelo://app?vid=1ef9344f-9c1a-410e-bf6e-03f9dc8de8db","ios":"levelo://app?vid=1ef9344f-9c1a-410e-bf6e-03f9dc8de8db"},"vehicle_type_id":"4","last_reported":1747671177,"current_range_meters":12000,"station_id":"ce4bhph2rcd13ifvqhdg","pricing_plan_id":"cebpf4jnsgd1na2vs0mg"},{"bike_id":"22a47c08-6910-4897-996b-b64bb92961d5","system_id":"levelo_inurba_marseille","lat":43.29797,"lon":5.38105,"is_reserved":false,"is_disabled":false,"rental_uris":{"android":"levelo://app?vid=22a47c08-6910-4897-996b-b64bb92961d5","ios":"levelo://app?vid=22a47c08-6910-4897-996b-b64bb92961d5"},"vehicle_type_id":"4","last_reported":1747671177,"current_range_meters":12400,"station_id":"ce4bgip2rcd13ifvqbb0","pricing_plan_id":"cebpf4jnsgd1na2vs0mg"},{"bike_id":"9b0a9e58-48c1-4800-88b1-e86859e043e6","system_id":"levelo_inurba_marseille","lat":43.29864,"lon":5.36257,"is_reserved":false,"is_disabled":false,"rental_uris":{"android":"levelo://app?vid=9b0a9e58-48c1-4800-88b1-e86859e043e6","ios":"levelo://app?vid=9b0a9e58-48c1-4800-88b1-e86859e043e6"},"vehicle_type_id":"4","last_reported":1747671177,"current_range_meters":12400,"station_id":"ce4bgpp2rcd13ifvqc3g","pricing_plan_id":"cebpf4jnsgd1na2vs0mg"},{"bike_id":"40d5f946-42f0-423c-82a6-7cd8e3c0679d","system_id":"levelo_inurba_marseille","lat":43.2841,"lon":5.37513,"is_reserved":false,"is_disabled":false,"rental_uris":{"android":"levelo://app?vid=40d5f946-42f0-423c-82a6-7cd8e3c0679d","ios":"levelo://app?vid=40d5f946-42f0-423c-82a6-7cd8e3c0679d"},"vehicle_type_id":"4","last_reported":1747671177,"current_range_meters":12400,"station_id":"ce4bh412rcd13ifvqds0","pricing_plan_id":"cebpf4jnsgd1na2vs0mg"},{"bike_id":"330f30c4-f99e-40fb-864d-8d6b6e8d7857","system_id":"levelo_inurba_marseille","lat":43.273748,"lon":5.362585,"is_reserved":false,"is_disabled":false,"rental_uris":{"android":"levelo://app?vid=330f30c4-f99e-40fb-864d-8d6b6e8d7857","ios":"levelo://app?vid=330f30c4-f99e-40fb-864d-8d6b6e8d7857"},"vehicle_type_id":"4","last_reported":1747671177,"current_range_meters":12400,"station_id":"ce4bhbh2rcd13ifvqeo0","pricing_plan_id":"cebpf4jnsgd1na2vs0mg"},{"bike_id":"661e636a-338c-4876-b803-296cf201cec2","system_id":"levelo_inurba_marseille","lat":43.28152,"lon":5.42637,"is_reserved":false,"is_disabled":false,"rental_uris":{"android":"levelo://app?vid=661e636a-338c-4876-b803-296cf201cec2","ios":"levelo://app?vid=661e636a-338c-4876-b803-296cf201cec2"},"vehicle_type_id":"4","last_reported":1747671177,"current_range_meters":12400,"station_id":"ce4bhnh2rcd13ifvqgug","pricing_plan_id":"cebpf4jnsgd1na2vs0mg"},{"bike_id":"baf0d7cb-2afc-4f37-ac00-80ce5005e5b9","system_id":"levelo_inurba_marseille","lat":43.28443,"lon":5.39202,"is_reserved":false,"is_disabled":false,"rental_uris":{"android":"levelo://app?vid=baf0d7cb-2afc-4f37-ac00-80ce5005e5b9","ios":"levelo://app?vid=baf0d7cb-2afc-4f37-ac00-80ce5005e5b9"},"vehicle_type_id":"4","last_reported":1747671177,"current_range_meters":12400,"station_id":"ce4bhoh2rcd13ifvqh5g","pricing_plan_id":"cebpf4jnsgd1na2vs0mg"},{"bike_id":"38b5c13c-ecfe-476a-abb0-33b1528de2bb","system_id":"levelo_inurba_marseille","lat":43.29934,"lon":5.41367,"is_reserved":false,"is_disabled":false,"rental_uris":{"android":"levelo://app?vid=38b5c13c-ecfe-476a-abb0-33b1528de2bb","ios":"levelo://app?vid=38b5c13c-ecfe-476a-abb0-33b1528de2bb"},"vehicle_type_id":"4","last_reported":1747671177,"current_range_meters":12400,"station_id":"ce4bhp12rcd13ifvqh9g","pricing_plan_id":"cebpf4jnsgd1na2vs0mg"},{"bike_id":"da140bbc-1d4b-4ec2-b8be-aef794126774","system_id":"levelo_inurba_marseille","lat":43.29712,"lon":5.37692,"is_reserved":false,"is_disabled":false,"rental_uris":{"android":"levelo://app?vid=da140bbc-1d4b-4ec2-b8be-aef794126774","ios":"levelo://app?vid=da140bbc-1d4b-4ec2-b8be-aef794126774"},"vehicle_type_id":"4","last_reported":1747671177,"current_range_meters":12800,"station_id":"","pricing_plan_id":"cebpf4jnsgd1na2vs0mg"},{"bike_id":"61c95692-d314-4ad3-bc91-1cb053416298","system_id":"levelo_inurba_marseille","lat":43.29701,"lon":5.36605,"is_reserved":false,"is_disabled":false,"rental_uris":{"android":"levelo://app?vid=61c95692-d314-4ad3-bc91-1cb053416298","ios":"levelo://app?vid=61c95692-d314-4ad3-bc91-1cb053416298"},"vehicle_type_id":"4","last_reported":1747671177,"current_range_meters":12800,"station_id":"ce4bgn12rcd13ifvqbt0","pricing_plan_id":"cebpf4jnsgd1na2vs0mg"},{"bike_id":"f0be192c-ae4f-446a-8b5a-34019ce7051f","system_id":"levelo_inurba_marseille","lat":43.29835,"lon":5.36287,"is_reserved":false,"is_disabled":false,"rental_uris":{"android":"levelo://app?vid=f0be192c-ae4f-446a-8b5a-34019ce7051f","ios":"levelo://app?vid=f0be192c-ae4f-446a-8b5a-34019ce7051f"},"vehicle_type_id":"4","last_reported":1747671177,"current_range_meters":12800,"station_id":"ce4bgpp2rcd13ifvqc3g","pricing_plan_id":"cebpf4jnsgd1na2vs0mg"},{"bike_id":"dd716423-e959-4fcf-ad4b-a11c97766549","system_id":"levelo_inurba_marseille","lat":43.27188,"lon":5.40986,"is_reserved":false,"is_disabled":false,"rental_uris":{"android":"levelo://app?vid=dd716423-e959-4fcf-ad4b-a11c97766549","ios":"levelo://app?vid=dd716423-e959-4fcf-ad4b-a11c97766549"},"vehicle_type_id":"4","last_reported":1747671177,"current_range_meters":12800,"station_id":"ce4bhl12rcd13ifvqgf0","pricing_plan_id":"cebpf4jnsgd1na2vs0mg"},{"bike_id":"027e1fb9-8ab2-4245-a791-27e9dcd17185","system_id":"levelo_inurba_marseille","lat":43.29553,"lon":5.42281,"is_reserved":false,"is_disabled":false,"rental_uris":{"android":"levelo://app?vid=027e1fb9-8ab2-4245-a791-27e9dcd17185","ios":"levelo://app?vid=027e1fb9-8ab2-4245-a791-27e9dcd17185"},"vehicle_type_id":"4","last_reported":1747671177,"current_range_meters":12800,"station_id":"ce4bhph2rcd13ifvqhdg","pricing_plan_id":"cebpf4jnsgd1na2vs0mg"},{"bike_id":"cfef367e-eb52-4536-abea-b1c739499c43","system_id":"levelo_inurba_marseille","lat":43.28603,"lon":5.37069,"is_reserved":false,"is_disabled":false,"rental_uris":{"android":"levelo://app?vid=cfef367e-eb52-4536-abea-b1c739499c43","ios":"levelo://app?vid=cfef367e-eb52-4536-abea-b1c739499c43"},"vehicle_type_id":"4","last_reported":1747671177,"current_range_meters":12800,"station_id":"ce4bht12rcd13ifvqi60","pricing_plan_id":"cebpf4jnsgd1na2vs0mg"},{"bike_id":"bffbaf88-357a-4e87-a68c-a9a27a6e01e6","system_id":"levelo_inurba_marseille","lat":43.26267,"lon":5.42153,"is_reserved":false,"is_disabled":false,"rental_uris":{"android":"levelo://app?vid=bffbaf88-357a-4e87-a68c-a9a27a6e01e6","ios":"levelo://app?vid=bffbaf88-357a-4e87-a68c-a9a27a6e01e6"},"vehicle_type_id":"4","last_reported":1747671177,"current_range_meters":13600,"station_id":"","pricing_plan_id":"cebpf4jnsgd1na2vs0mg"},{"bike_id":"3828d3bd-fdee-47a8-aad5-0614b4815308","system_id":"levelo_inurba_marseille","lat":43.289317,"lon":5.396249,"is_reserved":false,"is_disabled":false,"rental_uris":{"android":"levelo://app?vid=3828d3bd-fdee-47a8-aad5-0614b4815308","ios":"levelo://app?vid=3828d3bd-fdee-47a8-aad5-0614b4815308"},"vehicle_type_id":"4","last_reported":1747671177,"current_range_meters":13600,"station_id":"ce4bh3h2rcd13ifvqdn0","pricing_plan_id":"cebpf4jnsgd1na2vs0mg"},{"bike_id":"d49062f1-2aa4-45a7-89de-65f7f814a8f3","system_id":"levelo_inurba_marseille","lat":43.28418,"lon":5.34978,"is_reserved":false,"is_disabled":false,"rental_uris":{"android":"levelo://app?vid=d49062f1-2aa4-45a7-89de-65f7f814a8f3","ios":"levelo://app?vid=d49062f1-2aa4-45a7-89de-65f7f814a8f3"},"vehicle_type_id":"4","last_reported":1747671177,"current_range_meters":13600,"station_id":"ce4bhbh2rcd13ifvqepg","pricing_plan_id":"cebpf4jnsgd1na2vs0mg"},{"bike_id":"ca51947a-d1b7-4f5e-b01b-015df89c772e","system_id":"levelo_inurba_marseille","lat":43.27813,"lon":5.40686,"is_reserved":false,"is_disabled":false,"rental_uris":{"android":"levelo://app?vid=ca51947a-d1b7-4f5e-b01b-015df89c772e","ios":"levelo://app?vid=ca51947a-d1b7-4f5e-b01b-015df89c772e"},"vehicle_type_id":"4","last_reported":1747671177,"current_range_meters":13600,"station_id":"ce4bhnh2rcd13ifvqgtg","pricing_plan_id":"cebpf4jnsgd1na2vs0mg"},{"bike_id":"9764d64f-0f5a-4e28-855f-fb9774594893","system_id":"levelo_inurba_marseille","lat":43.279823,"lon":5.400033,"is_reserved":false,"is_disabled":false,"rental_uris":{"android":"levelo://app?vid=9764d64f-0f5a-4e28-855f-fb9774594893","ios":"levelo://app?vid=9764d64f-0f5a-4e28-855f-fb9774594893"},"vehicle_type_id":"4","last_reported":1747671177,"current_range_meters":13600,"station_id":"ce4bho92rcd13ifvqh4g","pricing_plan_id":"cebpf4jnsgd1na2vs0mg"},{"bike_id":"0bbeb343-86c9-40d0-bcd9-50fc56862d6d","system_id":"levelo_inurba_marseille","lat":43.29781,"lon":5.39336,"is_reserved":false,"is_disabled":false,"rental_uris":{"android":"levelo://app?vid=0bbeb343-86c9-40d0-bcd9-50fc56862d6d","ios":"levelo://app?vid=0bbeb343-86c9-40d0-bcd9-50fc56862d6d"},"vehicle_type_id":"4","last_reported":1747671177,"current_range_meters":13600,"station_id":"chh1huq6cuj3fo74tm60","pricing_plan_id":"cebpf4jnsgd1na2vs0mg"},{"bike_id":"2e961d0f-4425-47f6-a4d0-a91ac525cc7b","system_id":"levelo_inurba_marseille","lat":43.27615,"lon":5.36103,"is_reserved":false,"is_disabled":false,"rental_uris":{"android":"levelo://app?vid=2e961d0f-4425-47f6-a4d0-a91ac525cc7b","ios":"levelo://app?vid=2e961d0f-4425-47f6-a4d0-a91ac525cc7b"},"vehicle_type_id":"4","last_reported":1747671177,"current_range_meters":14000,"station_id":"ce4bgj92rcd13ifvqbe0","pricing_plan_id":"cebpf4jnsgd1na2vs0mg"},{"bike_id":"2eeecc4f-369c-406a-9e7b-fe927f968ff9","system_id":"levelo_inurba_marseille","lat":43.30584,"lon":5.39343,"is_reserved":false,"is_disabled":false,"rental_uris":{"android":"levelo://app?vid=2eeecc4f-369c-406a-9e7b-fe927f968ff9","ios":"levelo://app?vid=2eeecc4f-369c-406a-9e7b-fe927f968ff9"},"vehicle_type_id":"4","last_reported":1747671177,"current_range_meters":14000,"station_id":"ce4bh0p2rcd13ifvqd80","pricing_plan_id":"cebpf4jnsgd1na2vs0mg"},{"bike_id":"56b0ed36-22a3-4ab7-9131-57c87683a9a9","system_id":"levelo_inurba_marseille","lat":43.250018,"lon":5.389374,"is_reserved":false,"is_disabled":false,"rental_uris":{"android":"levelo://app?vid=56b0ed36-22a3-4ab7-9131-57c87683a9a9","ios":"levelo://app?vid=56b0ed36-22a3-4ab7-9131-57c87683a9a9"},"vehicle_type_id":"4","last_reported":1747671177,"current_range_meters":14000,"station_id":"ce4bhgp2rcd13ifvqfd0","pricing_plan_id":"cebpf4jnsgd1na2vs0mg"},{"bike_id":"cc251202-a371-4134-842f-070caab3e988","system_id":"levelo_inurba_marseille","lat":43.27186,"lon":5.40991,"is_reserved":false,"is_disabled":false,"rental_uris":{"android":"levelo://app?vid=cc251202-a371-4134-842f-070caab3e988","ios":"levelo://app?vid=cc251202-a371-4134-842f-070caab3e988"},"vehicle_type_id":"4","last_reported":1747671177,"current_range_meters":14000,"station_id":"ce4bhl12rcd13ifvqgf0","pricing_plan_id":"cebpf4jnsgd1na2vs0mg"},{"bike_id":"bb33921f-4178-42b6-853a-14fb77a6ae52","system_id":"levelo_inurba_marseille","lat":43.21748,"lon":5.3461,"is_reserved":false,"is_disabled":false,"rental_uris":{"android":"levelo://app?vid=bb33921f-4178-42b6-853a-14fb77a6ae52","ios":"levelo://app?vid=bb33921f-4178-42b6-853a-14fb77a6ae52"},"vehicle_type_id":"4","last_reported":1747671177,"current_range_meters":14000,"station_id":"st_cvj6r9ubvosntc0bgbag","pricing_plan_id":"cebpf4jnsgd1na2vs0mg"},{"bike_id":"bbb73f92-5a79-41c5-88f3-f92bbcb6c04f","system_id":"levelo_inurba_marseille","lat":43.295717,"lon":5.375252,"is_reserved":false,"is_disabled":false,"rental_uris":{"android":"levelo://app?vid=bbb73f92-5a79-41c5-88f3-f92bbcb6c04f","ios":"levelo://app?vid=bbb73f92-5a79-41c5-88f3-f92bbcb6c04f"},"vehicle_type_id":"4","last_reported":1747671177,"current_range_meters":14400,"station_id":"ce4bgh92rcd13ifvqb50","pricing_plan_id":"cebpf4jnsgd1na2vs0mg"},{"bike_id":"8e18df44-4504-4f5a-98d7-01e98406007c","system_id":"levelo_inurba_marseille","lat":43.29702,"lon":5.37685,"is_reserved":false,"is_disabled":false,"rental_uris":{"android":"levelo://app?vid=8e18df44-4504-4f5a-98d7-01e98406007c","ios":"levelo://app?vid=8e18df44-4504-4f5a-98d7-01e98406007c"},"vehicle_type_id":"4","last_reported":1747671177,"current_range_meters":14400,"station_id":"ce4bgkh2rcd13ifvqbl0","pricing_plan_id":"cebpf4jnsgd1na2vs0mg"},{"bike_id":"f1d2bc06-a8f7-4d88-8b27-2fba28873d72","system_id":"levelo_inurba_marseille","lat":43.28267,"lon":5.35061,"is_reserved":false,"is_disabled":false,"rental_uris":{"android":"levelo://app?vid=f1d2bc06-a8f7-4d88-8b27-2fba28873d72","ios":"levelo://app?vid=f1d2bc06-a8f7-4d88-8b27-2fba28873d72"},"vehicle_type_id":"4","last_reported":1747671177,"current_range_meters":14400,"station_id":"ce4bhbp2rcd13ifvqerg","pricing_plan_id":"cebpf4jnsgd1na2vs0mg"},{"bike_id":"5dfcaf87-fe9d-4422-ae00-4cb3ae8b48ad","system_id":"levelo_inurba_marseille","lat":43.248,"lon":5.37457,"is_reserved":false,"is_disabled":false,"rental_uris":{"android":"levelo://app?vid=5dfcaf87-fe9d-4422-ae00-4cb3ae8b48ad","ios":"levelo://app?vid=5dfcaf87-fe9d-4422-ae00-4cb3ae8b48ad"},"vehicle_type_id":"4","last_reported":1747671177,"current_range_meters":14400,"station_id":"ce4bhgh2rcd13ifvqfb0","pricing_plan_id":"cebpf4jnsgd1na2vs0mg"},{"bike_id":"08129706-0840-4cc7-a7e9-4dbc2d7407ba","system_id":"levelo_inurba_marseille","lat":43.232,"lon":5.39978,"is_reserved":false,"is_disabled":false,"rental_uris":{"android":"levelo://app?vid=08129706-0840-4cc7-a7e9-4dbc2d7407ba","ios":"levelo://app?vid=08129706-0840-4cc7-a7e9-4dbc2d7407ba"},"vehicle_type_id":"4","last_reported":1747671177,"current_range_meters":14400,"station_id":"ce4bhn12rcd13ifvqgqg","pricing_plan_id":"cebpf4jnsgd1na2vs0mg"},{"bike_id":"19effa6c-245a-45c0-85c7-695f9fbcafed","system_id":"levelo_inurba_marseille","lat":43.28852,"lon":5.35864,"is_reserved":false,"is_disabled":false,"rental_uris":{"android":"levelo://app?vid=19effa6c-245a-45c0-85c7-695f9fbcafed","ios":"levelo://app?vid=19effa6c-245a-45c0-85c7-695f9fbcafed"},"vehicle_type_id":"4","last_reported":1747671177,"current_range_meters":14800,"station_id":"ce4bhb12rcd13ifvqem0","pricing_plan_id":"cebpf4jnsgd1na2vs0mg"},{"bike_id":"4994d4a0-cf60-44fd-a117-9176e7c29082","system_id":"levelo_inurba_marseille","lat":43.2512,"lon":5.40308,"is_reserved":false,"is_disabled":false,"rental_uris":{"android":"levelo://app?vid=4994d4a0-cf60-44fd-a117-9176e7c29082","ios":"levelo://app?vid=4994d4a0-cf60-44fd-a117-9176e7c29082"},"vehicle_type_id":"4","last_reported":1747671177,"current_range_meters":14800,"station_id":"ce4bhlh2rcd13ifvqgig","pricing_plan_id":"cebpf4jnsgd1na2vs0mg"},{"bike_id":"e1d57822-ecc8-4c43-b3f2-6f5adecafb55","system_id":"levelo_inurba_marseille","lat":43.25084,"lon":5.39522,"is_reserved":false,"is_disabled":false,"rental_uris":{"android":"levelo://app?vid=e1d57822-ecc8-4c43-b3f2-6f5adecafb55","ios":"levelo://app?vid=e1d57822-ecc8-4c43-b3f2-6f5adecafb55"},"vehicle_type_id":"4","last_reported":1747671177,"current_range_meters":14800,"station_id":"ce4bhm12rcd13ifvqgkg","pricing_plan_id":"cebpf4jnsgd1na2vs0mg"},{"bike_id":"f06de0f9-0422-4886-b49c-24870ef1b389","system_id":"levelo_inurba_marseille","lat":43.31717,"lon":5.42393,"is_reserved":false,"is_disabled":false,"rental_uris":{"android":"levelo://app?vid=f06de0f9-0422-4886-b49c-24870ef1b389","ios":"levelo://app?vid=f06de0f9-0422-4886-b49c-24870ef1b389"},"vehicle_type_id":"4","last_reported":1747671177,"current_range_meters":14800,"station_id":"ce4bhp92rcd13ifvqhbg","pricing_plan_id":"cebpf4jnsgd1na2vs0mg"},{"bike_id":"efad5284-d7e3-4eb9-b747-59ab577ea934","system_id":"levelo_inurba_marseille","lat":43.29786,"lon":5.39342,"is_reserved":false,"is_disabled":false,"rental_uris":{"android":"levelo://app?vid=efad5284-d7e3-4eb9-b747-59ab577ea934","ios":"levelo://app?vid=efad5284-d7e3-4eb9-b747-59ab577ea934"},"vehicle_type_id":"4","last_reported":1747671177,"current_range_meters":14800,"station_id":"chh1huq6cuj3fo74tm60","pricing_plan_id":"cebpf4jnsgd1na2vs0mg"},{"bike_id":"49ba40d6-bb26-40dd-acdb-c806670504a2","system_id":"levelo_inurba_marseille","lat":43.28568,"lon":5.39501,"is_reserved":false,"is_disabled":false,"rental_uris":{"android":"levelo://app?vid=49ba40d6-bb26-40dd-acdb-c806670504a2","ios":"levelo://app?vid=49ba40d6-bb26-40dd-acdb-c806670504a2"},"vehicle_type_id":"4","last_reported":1747671177,"current_range_meters":15200,"station_id":"ce4bh292rcd13ifvqdg0","pricing_plan_id":"cebpf4jnsgd1na2vs0mg"},{"bike_id":"58edc354-c183-4da4-b527-1ba0f2d395e0","system_id":"levelo_inurba_marseille","lat":43.27684,"lon":5.35747,"is_reserved":false,"is_disabled":false,"rental_uris":{"android":"levelo://app?vid=58edc354-c183-4da4-b527-1ba0f2d395e0","ios":"levelo://app?vid=58edc354-c183-4da4-b527-1ba0f2d395e0"},"vehicle_type_id":"4","last_reported":1747671177,"current_range_meters":16000,"station_id":"","pricing_plan_id":"cebpf4jnsgd1na2vs0mg"},{"bike_id":"e8162579-a5ad-485f-ad83-fec8a2ebe7e1","system_id":"levelo_inurba_marseille","lat":43.26826,"lon":5.39099,"is_reserved":false,"is_disabled":false,"rental_uris":{"android":"levelo://app?vid=e8162579-a5ad-485f-ad83-fec8a2ebe7e1","ios":"levelo://app?vid=e8162579-a5ad-485f-ad83-fec8a2ebe7e1"},"vehicle_type_id":"4","last_reported":1747671177,"current_range_meters":16000,"station_id":"","pricing_plan_id":"cebpf4jnsgd1na2vs0mg"},{"bike_id":"52dc2851-4cf4-4ebf-9888-72b9d3dfcbd3","system_id":"levelo_inurba_marseille","lat":43.297817,"lon":5.371028,"is_reserved":false,"is_disabled":false,"rental_uris":{"android":"levelo://app?vid=52dc2851-4cf4-4ebf-9888-72b9d3dfcbd3","ios":"levelo://app?vid=52dc2851-4cf4-4ebf-9888-72b9d3dfcbd3"},"vehicle_type_id":"4","last_reported":1747671177,"current_range_meters":16000,"station_id":"ce4bgop2rcd13ifvqc1g","pricing_plan_id":"cebpf4jnsgd1na2vs0mg"},{"bike_id":"0f013243-0249-48a3-8084-80d0c0fe9899","system_id":"levelo_inurba_marseille","lat":43.24652,"lon":5.38896,"is_reserved":false,"is_disabled":false,"rental_uris":{"android":"levelo://app?vid=0f013243-0249-48a3-8084-80d0c0fe9899","ios":"levelo://app?vid=0f013243-0249-48a3-8084-80d0c0fe9899"},"vehicle_type_id":"4","last_reported":1747671177,"current_range_meters":16000,"station_id":"ce4bhg12rcd13ifvqf60","pricing_plan_id":"cebpf4jnsgd1na2vs0mg"},{"bike_id":"f9bd452a-300d-4454-890a-c716cf8ab1c5","system_id":"levelo_inurba_marseille","lat":43.249973,"lon":5.389318,"is_reserved":false,"is_disabled":false,"rental_uris":{"android":"levelo://app?vid=f9bd452a-300d-4454-890a-c716cf8ab1c5","ios":"levelo://app?vid=f9bd452a-300d-4454-890a-c716cf8ab1c5"},"vehicle_type_id":"4","last_reported":1747671177,"current_range_meters":16000,"station_id":"ce4bhgp2rcd13ifvqfd0","pricing_plan_id":"cebpf4jnsgd1na2vs0mg"},{"bike_id":"dfb2470b-629c-47b8-b6f7-461c0e3eb94b","system_id":"levelo_inurba_marseille","lat":43.2781,"lon":5.40719,"is_reserved":false,"is_disabled":false,"rental_uris":{"android":"levelo://app?vid=dfb2470b-629c-47b8-b6f7-461c0e3eb94b","ios":"levelo://app?vid=dfb2470b-629c-47b8-b6f7-461c0e3eb94b"},"vehicle_type_id":"4","last_reported":1747671177,"current_range_meters":16000,"station_id":"ce4bhnh2rcd13ifvqgtg","pricing_plan_id":"cebpf4jnsgd1na2vs0mg"},{"bike_id":"6ab5d886-0cbb-4fe8-b3b2-de82e3969847","system_id":"levelo_inurba_marseille","lat":43.29556,"lon":5.42292,"is_reserved":false,"is_disabled":false,"rental_uris":{"android":"levelo://app?vid=6ab5d886-0cbb-4fe8-b3b2-de82e3969847","ios":"levelo://app?vid=6ab5d886-0cbb-4fe8-b3b2-de82e3969847"},"vehicle_type_id":"4","last_reported":1747671177,"current_range_meters":16000,"station_id":"ce4bhph2rcd13ifvqhdg","pricing_plan_id":"cebpf4jnsgd1na2vs0mg"},{"bike_id":"ef90ca27-c17e-4ce0-b6f3-ca058ddeeb1a","system_id":"levelo_inurba_marseille","lat":43.254562,"lon":5.375787,"is_reserved":false,"is_disabled":false,"rental_uris":{"android":"levelo://app?vid=ef90ca27-c17e-4ce0-b6f3-ca058ddeeb1a","ios":"levelo://app?vid=ef90ca27-c17e-4ce0-b6f3-ca058ddeeb1a"},"vehicle_type_id":"4","last_reported":1747671177,"current_range_meters":16400,"station_id":"","pricing_plan_id":"cebpf4jnsgd1na2vs0mg"},{"bike_id":"7c85f882-d0cd-418d-8cb6-3c409040baa9","system_id":"levelo_inurba_marseille","lat":43.29416,"lon":5.38624,"is_reserved":false,"is_disabled":false,"rental_uris":{"android":"levelo://app?vid=7c85f882-d0cd-418d-8cb6-3c409040baa9","ios":"levelo://app?vid=7c85f882-d0cd-418d-8cb6-3c409040baa9"},"vehicle_type_id":"4","last_reported":1747671177,"current_range_meters":16400,"station_id":"ce4bh2h2rcd13ifvqdh0","pricing_plan_id":"cebpf4jnsgd1na2vs0mg"},{"bike_id":"0f9d6bdf-1d4f-466e-aa63-557c75d3adc2","system_id":"levelo_inurba_marseille","lat":43.28024,"lon":5.36951,"is_reserved":false,"is_disabled":false,"rental_uris":{"android":"levelo://app?vid=0f9d6bdf-1d4f-466e-aa63-557c75d3adc2","ios":"levelo://app?vid=0f9d6bdf-1d4f-466e-aa63-557c75d3adc2"},"vehicle_type_id":"4","last_reported":1747671177,"current_range_meters":16400,"station_id":"ce4bha12rcd13ifvqef0","pricing_plan_id":"cebpf4jnsgd1na2vs0mg"},{"bike_id":"5e6845a3-1bdf-4d4f-a71d-a2bec649ddad","system_id":"levelo_inurba_marseille","lat":43.27372,"lon":5.36267,"is_reserved":false,"is_disabled":false,"rental_uris":{"android":"levelo://app?vid=5e6845a3-1bdf-4d4f-a71d-a2bec649ddad","ios":"levelo://app?vid=5e6845a3-1bdf-4d4f-a71d-a2bec649ddad"},"vehicle_type_id":"4","last_reported":1747671177,"current_range_meters":16400,"station_id":"ce4bhbh2rcd13ifvqeo0","pricing_plan_id":"cebpf4jnsgd1na2vs0mg"},{"bike_id":"c14d73f5-63cc-472d-8022-f19a13e28fa6","system_id":"levelo_inurba_marseille","lat":43.265607,"lon":5.372815,"is_reserved":false,"is_disabled":false,"rental_uris":{"android":"levelo://app?vid=c14d73f5-63cc-472d-8022-f19a13e28fa6","ios":"levelo://app?vid=c14d73f5-63cc-472d-8022-f19a13e28fa6"},"vehicle_type_id":"4","last_reported":1747671177,"current_range_meters":16400,"station_id":"ce4bhg12rcd13ifvqf70","pricing_plan_id":"cebpf4jnsgd1na2vs0mg"},{"bike_id":"e2e3a6f6-0f08-4185-b27b-75bc9500a96d","system_id":"levelo_inurba_marseille","lat":43.211934,"lon":5.350683,"is_reserved":false,"is_disabled":false,"rental_uris":{"android":"levelo://app?vid=e2e3a6f6-0f08-4185-b27b-75bc9500a96d","ios":"levelo://app?vid=e2e3a6f6-0f08-4185-b27b-75bc9500a96d"},"vehicle_type_id":"4","last_reported":1747671177,"current_range_meters":16400,"station_id":"st_cvj6sg6p6f1abm77japg","pricing_plan_id":"cebpf4jnsgd1na2vs0mg"},{"bike_id":"3552fbf2-b43a-446f-93f5-d695fc251b73","system_id":"levelo_inurba_marseille","lat":43.251677,"lon":5.37512,"is_reserved":false,"is_disabled":false,"rental_uris":{"android":"levelo://app?vid=3552fbf2-b43a-446f-93f5-d695fc251b73","ios":"levelo://app?vid=3552fbf2-b43a-446f-93f5-d695fc251b73"},"vehicle_type_id":"4","last_reported":1747671177,"current_range_meters":16800,"station_id":"","pricing_plan_id":"cebpf4jnsgd1na2vs0mg"},{"bike_id":"fea79987-37a8-41d3-9c9a-4ca299531a53","system_id":"levelo_inurba_marseille","lat":43.275373,"lon":5.359983,"is_reserved":false,"is_disabled":false,"rental_uris":{"android":"levelo://app?vid=fea79987-37a8-41d3-9c9a-4ca299531a53","ios":"levelo://app?vid=fea79987-37a8-41d3-9c9a-4ca299531a53"},"vehicle_type_id":"4","last_reported":1747671177,"current_range_meters":16800,"station_id":"ce4bgj92rcd13ifvqbe0","pricing_plan_id":"cebpf4jnsgd1na2vs0mg"},{"bike_id":"089a35ec-9fed-408f-abb3-4827463ccc7b","system_id":"levelo_inurba_marseille","lat":43.29678,"lon":5.37286,"is_reserved":false,"is_disabled":false,"rental_uris":{"android":"levelo://app?vid=089a35ec-9fed-408f-abb3-4827463ccc7b","ios":"levelo://app?vid=089a35ec-9fed-408f-abb3-4827463ccc7b"},"vehicle_type_id":"4","last_reported":1747671177,"current_range_meters":16800,"station_id":"ce4bgk12rcd13ifvqbj0","pricing_plan_id":"cebpf4jnsgd1na2vs0mg"},{"bike_id":"8dbe363c-8315-481e-8f86-fb9293261bb9","system_id":"levelo_inurba_marseille","lat":43.29867,"lon":5.36302,"is_reserved":false,"is_disabled":false,"rental_uris":{"android":"levelo://app?vid=8dbe363c-8315-481e-8f86-fb9293261bb9","ios":"levelo://app?vid=8dbe363c-8315-481e-8f86-fb9293261bb9"},"vehicle_type_id":"4","last_reported":1747671177,"current_range_meters":16800,"station_id":"ce4bgpp2rcd13ifvqc3g","pricing_plan_id":"cebpf4jnsgd1na2vs0mg"},{"bike_id":"785c10fc-b9ba-4cdb-8e20-f643c5d8f215","system_id":"levelo_inurba_marseille","lat":43.30189,"lon":5.36613,"is_reserved":false,"is_disabled":false,"rental_uris":{"android":"levelo://app?vid=785c10fc-b9ba-4cdb-8e20-f643c5d8f215","ios":"levelo://app?vid=785c10fc-b9ba-4cdb-8e20-f643c5d8f215"},"vehicle_type_id":"4","last_reported":1747671177,"current_range_meters":16800,"station_id":"ce4bgrh2rcd13ifvqc8g","pricing_plan_id":"cebpf4jnsgd1na2vs0mg"},{"bike_id":"95987bdd-9c80-45b1-88e9-1c05ce07ef43","system_id":"levelo_inurba_marseille","lat":43.3117,"lon":5.38724,"is_reserved":false,"is_disabled":false,"rental_uris":{"android":"levelo://app?vid=95987bdd-9c80-45b1-88e9-1c05ce07ef43","ios":"levelo://app?vid=95987bdd-9c80-45b1-88e9-1c05ce07ef43"},"vehicle_type_id":"4","last_reported":1747671177,"current_range_meters":16800,"station_id":"ce4bgv12rcd13ifvqcp0","pricing_plan_id":"cebpf4jnsgd1na2vs0mg"},{"bike_id":"7be10b5b-2265-4a7f-8924-e1547a41e59c","system_id":"levelo_inurba_marseille","lat":43.28928,"lon":5.36639,"is_reserved":false,"is_disabled":false,"rental_uris":{"android":"levelo://app?vid=7be10b5b-2265-4a7f-8924-e1547a41e59c","ios":"levelo://app?vid=7be10b5b-2265-4a7f-8924-e1547a41e59c"},"vehicle_type_id":"4","last_reported":1747671177,"current_range_meters":16800,"station_id":"ce4bhap2rcd13ifvqek0","pricing_plan_id":"cebpf4jnsgd1na2vs0mg"},{"bike_id":"a7a1097f-e3c9-4ce8-9cea-325cf06edacf","system_id":"levelo_inurba_marseille","lat":43.29227,"lon":5.36073,"is_reserved":false,"is_disabled":false,"rental_uris":{"android":"levelo://app?vid=a7a1097f-e3c9-4ce8-9cea-325cf06edacf","ios":"levelo://app?vid=a7a1097f-e3c9-4ce8-9cea-325cf06edacf"},"vehicle_type_id":"4","last_reported":1747671177,"current_range_meters":16800,"station_id":"ce4bhbh2rcd13ifvqeqg","pricing_plan_id":"cebpf4jnsgd1na2vs0mg"},{"bike_id":"b4092363-ce05-481e-b8a5-74f257327df5","system_id":"levelo_inurba_marseille","lat":43.250869,"lon":5.395242,"is_reserved":false,"is_disabled":false,"rental_uris":{"android":"levelo://app?vid=b4092363-ce05-481e-b8a5-74f257327df5","ios":"levelo://app?vid=b4092363-ce05-481e-b8a5-74f257327df5"},"vehicle_type_id":"4","last_reported":1747671177,"current_range_meters":16800,"station_id":"ce4bhm12rcd13ifvqgkg","pricing_plan_id":"cebpf4jnsgd1na2vs0mg"},{"bike_id":"c3c11b11-8507-45b4-bd48-1e3bdd46fbbe","system_id":"levelo_inurba_marseille","lat":43.23183,"lon":5.39976,"is_reserved":false,"is_disabled":false,"rental_uris":{"android":"levelo://app?vid=c3c11b11-8507-45b4-bd48-1e3bdd46fbbe","ios":"levelo://app?vid=c3c11b11-8507-45b4-bd48-1e3bdd46fbbe"},"vehicle_type_id":"4","last_reported":1747671177,"current_range_meters":16800,"station_id":"ce4bhn12rcd13ifvqgqg","pricing_plan_id":"cebpf4jnsgd1na2vs0mg"},{"bike_id":"a77299a9-0afc-4000-817b-f97ca1eaadca","system_id":"levelo_inurba_marseille","lat":43.2882,"lon":5.45953,"is_reserved":false,"is_disabled":false,"rental_uris":{"android":"levelo://app?vid=a77299a9-0afc-4000-817b-f97ca1eaadca","ios":"levelo://app?vid=a77299a9-0afc-4000-817b-f97ca1eaadca"},"vehicle_type_id":"4","last_reported":1747671177,"current_range_meters":17200,"station_id":"","pricing_plan_id":"cebpf4jnsgd1na2vs0mg"},{"bike_id":"6386b301-5c5b-41dc-9be6-064d845d26a2","system_id":"levelo_inurba_marseille","lat":43.28611,"lon":5.40654,"is_reserved":false,"is_disabled":false,"rental_uris":{"android":"levelo://app?vid=6386b301-5c5b-41dc-9be6-064d845d26a2","ios":"levelo://app?vid=6386b301-5c5b-41dc-9be6-064d845d26a2"},"vehicle_type_id":"4","last_reported":1747671177,"current_range_meters":17200,"station_id":"","pricing_plan_id":"cebpf4jnsgd1na2vs0mg"},{"bike_id":"a0cb7c29-ee8e-4cc4-a596-90cab1760504","system_id":"levelo_inurba_marseille","lat":43.29679,"lon":5.37298,"is_reserved":false,"is_disabled":false,"rental_uris":{"android":"levelo://app?vid=a0cb7c29-ee8e-4cc4-a596-90cab1760504","ios":"levelo://app?vid=a0cb7c29-ee8e-4cc4-a596-90cab1760504"},"vehicle_type_id":"4","last_reported":1747671177,"current_range_meters":17200,"station_id":"ce4bgk12rcd13ifvqbj0","pricing_plan_id":"cebpf4jnsgd1na2vs0mg"},{"bike_id":"652c5e1b-5b4c-48a8-88ea-73daa42645c7","system_id":"levelo_inurba_marseille","lat":43.29628,"lon":5.4059,"is_reserved":false,"is_disabled":false,"rental_uris":{"android":"levelo://app?vid=652c5e1b-5b4c-48a8-88ea-73daa42645c7","ios":"levelo://app?vid=652c5e1b-5b4c-48a8-88ea-73daa42645c7"},"vehicle_type_id":"4","last_reported":1747671177,"current_range_meters":17200,"station_id":"ce4bh0h2rcd13ifvqd60","pricing_plan_id":"cebpf4jnsgd1na2vs0mg"},{"bike_id":"776f3aec-1ae4-4b42-8e6a-42e8fdd5b468","system_id":"levelo_inurba_marseille","lat":43.27948,"lon":5.41045,"is_reserved":false,"is_disabled":false,"rental_uris":{"android":"levelo://app?vid=776f3aec-1ae4-4b42-8e6a-42e8fdd5b468","ios":"levelo://app?vid=776f3aec-1ae4-4b42-8e6a-42e8fdd5b468"},"vehicle_type_id":"4","last_reported":1747671177,"current_range_meters":17200,"station_id":"ce4bhnp2rcd13ifvqh0g","pricing_plan_id":"cebpf4jnsgd1na2vs0mg"},{"bike_id":"b2ef8ff9-d97d-4670-9142-58fc46f5340b","system_id":"levelo_inurba_marseille","lat":43.28,"lon":5.40024,"is_reserved":false,"is_disabled":false,"rental_uris":{"android":"levelo://app?vid=b2ef8ff9-d97d-4670-9142-58fc46f5340b","ios":"levelo://app?vid=b2ef8ff9-d97d-4670-9142-58fc46f5340b"},"vehicle_type_id":"4","last_reported":1747671177,"current_range_meters":17200,"station_id":"ce4bho92rcd13ifvqh4g","pricing_plan_id":"cebpf4jnsgd1na2vs0mg"},{"bike_id":"906fe159-989f-40af-8692-9d1d39f4da90","system_id":"levelo_inurba_marseille","lat":43.298435,"lon":5.362718,"is_reserved":false,"is_disabled":false,"rental_uris":{"android":"levelo://app?vid=906fe159-989f-40af-8692-9d1d39f4da90","ios":"levelo://app?vid=906fe159-989f-40af-8692-9d1d39f4da90"},"vehicle_type_id":"4","last_reported":1747671177,"current_range_meters":17600,"station_id":"ce4bgpp2rcd13ifvqc3g","pricing_plan_id":"cebpf4jnsgd1na2vs0mg"},{"bike_id":"8b69dd5b-4ecd-4b96-b1d7-f60ad82bd3a2","system_id":"levelo_inurba_marseille","lat":43.29519,"lon":5.39022,"is_reserved":false,"is_disabled":false,"rental_uris":{"android":"levelo://app?vid=8b69dd5b-4ecd-4b96-b1d7-f60ad82bd3a2","ios":"levelo://app?vid=8b69dd5b-4ecd-4b96-b1d7-f60ad82bd3a2"},"vehicle_type_id":"4","last_reported":1747671177,"current_range_meters":17600,"station_id":"ce4bh3p2rcd13ifvqdp0","pricing_plan_id":"cebpf4jnsgd1na2vs0mg"},{"bike_id":"0c75e290-2f49-4428-9202-02a35670787a","system_id":"levelo_inurba_marseille","lat":43.23188,"lon":5.39983,"is_reserved":false,"is_disabled":false,"rental_uris":{"android":"levelo://app?vid=0c75e290-2f49-4428-9202-02a35670787a","ios":"levelo://app?vid=0c75e290-2f49-4428-9202-02a35670787a"},"vehicle_type_id":"4","last_reported":1747671177,"current_range_meters":17600,"station_id":"ce4bhn12rcd13ifvqgqg","pricing_plan_id":"cebpf4jnsgd1na2vs0mg"},{"bike_id":"dc80936a-51b4-4ef9-b71e-e259b58f2ac3","system_id":"levelo_inurba_marseille","lat":43.23179,"lon":5.39993,"is_reserved":false,"is_disabled":false,"rental_uris":{"android":"levelo://app?vid=dc80936a-51b4-4ef9-b71e-e259b58f2ac3","ios":"levelo://app?vid=dc80936a-51b4-4ef9-b71e-e259b58f2ac3"},"vehicle_type_id":"4","last_reported":1747671177,"current_range_meters":17600,"station_id":"ce4bhn12rcd13ifvqgqg","pricing_plan_id":"cebpf4jnsgd1na2vs0mg"},{"bike_id":"75dee7d2-0f48-4cd8-b326-0e219910beed","system_id":"levelo_inurba_marseille","lat":43.30793,"lon":5.4353,"is_reserved":false,"is_disabled":false,"rental_uris":{"android":"levelo://app?vid=75dee7d2-0f48-4cd8-b326-0e219910beed","ios":"levelo://app?vid=75dee7d2-0f48-4cd8-b326-0e219910beed"},"vehicle_type_id":"4","last_reported":1747671177,"current_range_meters":17600,"station_id":"ce4bhph2rcd13ifvqheg","pricing_plan_id":"cebpf4jnsgd1na2vs0mg"},{"bike_id":"f6c3cf61-e581-4157-b8c6-aaeab90268b7","system_id":"levelo_inurba_marseille","lat":43.33011,"lon":5.39017,"is_reserved":false,"is_disabled":false,"rental_uris":{"android":"levelo://app?vid=f6c3cf61-e581-4157-b8c6-aaeab90268b7","ios":"levelo://app?vid=f6c3cf61-e581-4157-b8c6-aaeab90268b7"},"vehicle_type_id":"4","last_reported":1747671177,"current_range_meters":17600,"station_id":"ce4bhr92rcd13ifvqhrg","pricing_plan_id":"cebpf4jnsgd1na2vs0mg"},{"bike_id":"fe5f4ae0-5b93-433e-bb52-f13f56f9a1a9","system_id":"levelo_inurba_marseille","lat":43.3079,"lon":5.37635,"is_reserved":false,"is_disabled":false,"rental_uris":{"android":"levelo://app?vid=fe5f4ae0-5b93-433e-bb52-f13f56f9a1a9","ios":"levelo://app?vid=fe5f4ae0-5b93-433e-bb52-f13f56f9a1a9"},"vehicle_type_id":"4","last_reported":1747671177,"current_range_meters":18000,"station_id":"ce4bgv92rcd13ifvqcq0","pricing_plan_id":"cebpf4jnsgd1na2vs0mg"},{"bike_id":"52e5a0fd-9a82-4a4a-8f0b-b92665327644","system_id":"levelo_inurba_marseille","lat":43.30799,"lon":5.43531,"is_reserved":false,"is_disabled":false,"rental_uris":{"android":"levelo://app?vid=52e5a0fd-9a82-4a4a-8f0b-b92665327644","ios":"levelo://app?vid=52e5a0fd-9a82-4a4a-8f0b-b92665327644"},"vehicle_type_id":"4","last_reported":1747671177,"current_range_meters":18000,"station_id":"ce4bhph2rcd13ifvqheg","pricing_plan_id":"cebpf4jnsgd1na2vs0mg"},{"bike_id":"8b98c258-6cd5-4aaf-abea-c43656d348e0","system_id":"levelo_inurba_marseille","lat":43.29576,"lon":5.3674,"is_reserved":false,"is_disabled":false,"rental_uris":{"android":"levelo://app?vid=8b98c258-6cd5-4aaf-abea-c43656d348e0","ios":"levelo://app?vid=8b98c258-6cd5-4aaf-abea-c43656d348e0"},"vehicle_type_id":"4","last_reported":1747671177,"current_range_meters":18800,"station_id":"ce4bgph2rcd13ifvqc2g","pricing_plan_id":"cebpf4jnsgd1na2vs0mg"},{"bike_id":"04013626-6257-480e-84da-bc7790b75387","system_id":"levelo_inurba_marseille","lat":43.28569,"lon":5.39501,"is_reserved":false,"is_disabled":false,"rental_uris":{"android":"levelo://app?vid=04013626-6257-480e-84da-bc7790b75387","ios":"levelo://app?vid=04013626-6257-480e-84da-bc7790b75387"},"vehicle_type_id":"4","last_reported":1747671177,"current_range_meters":18800,"station_id":"ce4bh292rcd13ifvqdg0","pricing_plan_id":"cebpf4jnsgd1na2vs0mg"},{"bike_id":"d1a837ed-9250-4fb0-b395-ae9675ade668","system_id":"levelo_inurba_marseille","lat":43.29098,"lon":5.381301,"is_reserved":false,"is_disabled":false,"rental_uris":{"android":"levelo://app?vid=d1a837ed-9250-4fb0-b395-ae9675ade668","ios":"levelo://app?vid=d1a837ed-9250-4fb0-b395-ae9675ade668"},"vehicle_type_id":"4","last_reported":1747671177,"current_range_meters":18800,"station_id":"ce4bh512rcd13ifvqe2g","pricing_plan_id":"cebpf4jnsgd1na2vs0mg"},{"bike_id":"d33ff261-bb93-4e54-a563-fd4eb50abe78","system_id":"levelo_inurba_marseille","lat":43.28496,"lon":5.38553,"is_reserved":false,"is_disabled":false,"rental_uris":{"android":"levelo://app?vid=d33ff261-bb93-4e54-a563-fd4eb50abe78","ios":"levelo://app?vid=d33ff261-bb93-4e54-a563-fd4eb50abe78"},"vehicle_type_id":"4","last_reported":1747671177,"current_range_meters":18800,"station_id":"ce4bh8p2rcd13ifvqeb0","pricing_plan_id":"cebpf4jnsgd1na2vs0mg"},{"bike_id":"355fa922-9f86-4264-9051-ad322d8753e8","system_id":"levelo_inurba_marseille","lat":43.2893,"lon":5.36638,"is_reserved":false,"is_disabled":false,"rental_uris":{"android":"levelo://app?vid=355fa922-9f86-4264-9051-ad322d8753e8","ios":"levelo://app?vid=355fa922-9f86-4264-9051-ad322d8753e8"},"vehicle_type_id":"4","last_reported":1747671177,"current_range_meters":18800,"station_id":"ce4bhap2rcd13ifvqek0","pricing_plan_id":"cebpf4jnsgd1na2vs0mg"},{"bike_id":"b1a88595-e31d-4b4c-bf46-b558eede5aee","system_id":"levelo_inurba_marseille","lat":43.25085,"lon":5.39519,"is_reserved":false,"is_disabled":false,"rental_uris":{"android":"levelo://app?vid=b1a88595-e31d-4b4c-bf46-b558eede5aee","ios":"levelo://app?vid=b1a88595-e31d-4b4c-bf46-b558eede5aee"},"vehicle_type_id":"4","last_reported":1747671177,"current_range_meters":18800,"station_id":"ce4bhm12rcd13ifvqgkg","pricing_plan_id":"cebpf4jnsgd1na2vs0mg"},{"bike_id":"8003f1f1-aabc-4a95-af5a-f8124d5a7728","system_id":"levelo_inurba_marseille","lat":43.231901,"lon":5.39977,"is_reserved":false,"is_disabled":false,"rental_uris":{"android":"levelo://app?vid=8003f1f1-aabc-4a95-af5a-f8124d5a7728","ios":"levelo://app?vid=8003f1f1-aabc-4a95-af5a-f8124d5a7728"},"vehicle_type_id":"4","last_reported":1747671177,"current_range_meters":18800,"station_id":"ce4bhn12rcd13ifvqgqg","pricing_plan_id":"cebpf4jnsgd1na2vs0mg"},{"bike_id":"225f3cea-db27-4174-a5ef-9d9d69f7434c","system_id":"levelo_inurba_marseille","lat":43.29847,"lon":5.3628,"is_reserved":false,"is_disabled":false,"rental_uris":{"android":"levelo://app?vid=225f3cea-db27-4174-a5ef-9d9d69f7434c","ios":"levelo://app?vid=225f3cea-db27-4174-a5ef-9d9d69f7434c"},"vehicle_type_id":"4","last_reported":1747671177,"current_range_meters":19200,"station_id":"ce4bgpp2rcd13ifvqc3g","pricing_plan_id":"cebpf4jnsgd1na2vs0mg"},{"bike_id":"461cc07f-7475-43c2-bb07-48d141d3d104","system_id":"levelo_inurba_marseille","lat":43.28407,"lon":5.37508,"is_reserved":false,"is_disabled":false,"rental_uris":{"android":"levelo://app?vid=461cc07f-7475-43c2-bb07-48d141d3d104","ios":"levelo://app?vid=461cc07f-7475-43c2-bb07-48d141d3d104"},"vehicle_type_id":"4","last_reported":1747671177,"current_range_meters":19200,"station_id":"ce4bh412rcd13ifvqds0","pricing_plan_id":"cebpf4jnsgd1na2vs0mg"},{"bike_id":"cb997ef7-7ae0-49e1-be70-9a5aab26352a","system_id":"levelo_inurba_marseille","lat":43.2927,"lon":5.38445,"is_reserved":false,"is_disabled":false,"rental_uris":{"android":"levelo://app?vid=cb997ef7-7ae0-49e1-be70-9a5aab26352a","ios":"levelo://app?vid=cb997ef7-7ae0-49e1-be70-9a5aab26352a"},"vehicle_type_id":"4","last_reported":1747671177,"current_range_meters":19200,"station_id":"ce4bh692rcd13ifvqea0","pricing_plan_id":"cebpf4jnsgd1na2vs0mg"},{"bike_id":"16e2ea1d-7dfd-4970-a5a7-8adc76b6f5f3","system_id":"levelo_inurba_marseille","lat":43.25117,"lon":5.40317,"is_reserved":false,"is_disabled":false,"rental_uris":{"android":"levelo://app?vid=16e2ea1d-7dfd-4970-a5a7-8adc76b6f5f3","ios":"levelo://app?vid=16e2ea1d-7dfd-4970-a5a7-8adc76b6f5f3"},"vehicle_type_id":"4","last_reported":1747671177,"current_range_meters":19200,"station_id":"ce4bhlh2rcd13ifvqgig","pricing_plan_id":"cebpf4jnsgd1na2vs0mg"},{"bike_id":"2c1f2711-ec30-4167-8adb-3e1529e1a29a","system_id":"levelo_inurba_marseille","lat":43.27819,"lon":5.40714,"is_reserved":false,"is_disabled":false,"rental_uris":{"android":"levelo://app?vid=2c1f2711-ec30-4167-8adb-3e1529e1a29a","ios":"levelo://app?vid=2c1f2711-ec30-4167-8adb-3e1529e1a29a"},"vehicle_type_id":"4","last_reported":1747671177,"current_range_meters":19200,"station_id":"ce4bhnh2rcd13ifvqgtg","pricing_plan_id":"cebpf4jnsgd1na2vs0mg"},{"bike_id":"8112385f-309e-415a-a184-6310016f48ae","system_id":"levelo_inurba_marseille","lat":43.27824,"lon":5.40717,"is_reserved":false,"is_disabled":false,"rental_uris":{"android":"levelo://app?vid=8112385f-309e-415a-a184-6310016f48ae","ios":"levelo://app?vid=8112385f-309e-415a-a184-6310016f48ae"},"vehicle_type_id":"4","last_reported":1747671177,"current_range_meters":19200,"station_id":"ce4bhnh2rcd13ifvqgtg","pricing_plan_id":"cebpf4jnsgd1na2vs0mg"},