{"last_updated":1761830690,"ttl":60,"version":"2.2","data":{"bikes":[{"bike_id":"aacc01e3-6d9f-491a-b1ed-d10f639e29e2","system_id":"levelo_inurba_marseille","lat":43.337444,"lon":5.374475,"is_reserved":false,"is_disabled":false,"rental_uris":{"android":"levelo://app?vid=aacc01e3-6d9f-491a-b1ed-d10f639e29e2","ios":"levelo://app?vid=aacc01e3-6d9f-491a-b1ed-d10f639e29e2"},"vehicle_type_id":"4","last_reported":1761830690,"current_range_meters":0,"station_id":"","pricing_plan_id":"cebpf4jnsgd1na2vs0mg"},{"bike_id":"35ef2eb9-fe09-4124-a7ab-f792dcbd6ddc","system_id":"levelo_inurba_marseille","lat":43.337444,"lon":5.374475,"is_reserved":false,"is_disabled":false,"rental_uris":{"android":"levelo://app?vid=35ef2eb9-fe09-4124-a7ab-f792dcbd6ddc","ios":"levelo://app?vid=35ef2eb9-fe09-4124-a7ab-f792dcbd6ddc"},"vehicle_type_id":"4","last_reported":1761830690,"current_range_meters":0,"station_id":"","pricing_plan_id":"cebpf4jnsgd1na2vs0mg"},{"bike_id":"49ddb7e7-127c-434c-8992-2e05f2e3428d","system_id":"levelo_inurba_marseille","lat":43.337444,"lon":5.374475,"is_reserved":false,"is_disabled":false,"rental_uris":{"android":"levelo://app?vid=49ddb7e7-127c-434c-8992-2e05f2e3428d","ios":"levelo://app?vid=49ddb7e7-127c-434c-8992-2e05f2e3428d"},"vehicle_type_id":"4","last_reported":1761830690,"current_range_meters":0,"station_id":"","pricing_plan_id":"cebpf4jnsgd1na2vs0mg"},{"bike_id":"b3b460c5-2faa-45c2-8fde-7b54e8b4eaf5","system_id":"levelo_inurba_marseille","lat":43.337444,"lon":5.374475,"is_reserved":false,"is_disabled":false,"rental_uris":{"android":"levelo://app?vid=b3b460c5-2faa-45c2-8fde-7b54e8b4eaf5","ios":"levelo://app?vid=b3b460c5-2faa-45c2-8fde-7b54e8b4eaf5"},"vehicle_type_id":"4","last_reported":1761830690,"current_range_meters":0,"station_id":"","pricing_plan_id":"cebpf4jnsgd1na2vs0mg"},{"bike_id":"6b8eeff3-ec31-445f-be43-f1e3ba63fb37","system_id":"levelo_inurba_marseille","lat":43.337416,"lon":5.374586,"is_reserved":false,"is_disabled":false,"rental_uris":{"android":"levelo://app?vid=6b8eeff3-ec31-445f-be43-f1e3ba63fb37","ios":"levelo://app?vid=6b8eeff3-ec31-445f-be43-f1e3ba63fb37"},"vehicle_type_id":"4","last_reported":1761830690,"current_range_meters":0,"station_id":"","pricing_plan_id":"cebpf4jnsgd1na2vs0mg"},{"bike_id":"e0e86d10-d79a-47b9-82ad-a00ae7a62a8a","system_id":"levelo_inurba_marseille","lat":43.337444,"lon":5.374475,"is_reserved":false,"is_disabled":false,"rental_uris":{"android":"levelo://app?vid=e0e86d10-d79a-47b9-82ad-a00ae7a62a8a","ios":"levelo://app?vid=e0e86d10-d79a-47b9-82ad-a00ae7a62a8a"},"vehicle_type_id":"4","last_reported":1761830690,"current_range_meters":0,"station_id":"","pricing_plan_id":"cebpf4jnsgd1na2vs0mg"},{"bike_id":"548f1c45-4f2a-4cfe-b981-5bc1daecb21b","system_id":"levelo_inurba_marseille","lat":43.337444,"lon":5.374475,"is_reserved":false,"is_disabled":false,"rental_uris":{"android":"levelo://app?vid=548f1c45-4f2a-4cfe-b981-5bc1daecb21b","ios":"levelo://app?vid=548f1c45-4f2a-4cfe-b981-5bc1daecb21b"},"vehicle_type_id":"4","last_reported":1761830690,"current_range_meters":0,"station_id":"","pricing_plan_id":"cebpf4jnsgd1na2vs0mg"},{"bike_id":"5260dce0-6ede-4de4-b006-1466527b5fbe","system_id":"levelo_inurba_marseille","lat":43.337444,"lon":5.374475,"is_reserved":false,"is_disabled":false,"rental_uris":{"android":"levelo://app?vid=5260dce0-6ede-4de4-b006-1466527b5fbe","ios":"levelo://app?vid=5260dce0-6ede-4de4-b006-1466527b5fbe"},"vehicle_type_id":"4","last_reported":1761830690,"current_range_meters":0,"station_id":"","pricing_plan_id":"cebpf4jnsgd1na2vs0mg"},{"bike_id":"fb1816a3-8e74-463a-88d2-d6b63cf0a426","system_id":"levelo_inurba_marseille","lat":43.337444,"lon":5.374475,"is_reserved":false,"is_disabled":false,"rental_uris":{"android":"levelo://app?vid=fb1816a3-8e74-463a-88d2-d6b63cf0a426","ios":"levelo://app?vid=fb1816a3-8e74-463a-88d2-d6b63cf0a426"},"vehicle_type_id":"4","last_reported":1761830690,"current_range_meters":0,"station_id":"","pricing_plan_id":"cebpf4jnsgd1na2vs0mg"},{"bike_id":"3c881d8d-608f-4c39-9df3-b2aa54f8afcf","system_id":"levelo_inurba_marseille","lat":43.337444,"lon":5.374475,"is_reserved":false,"is_disabled":false,"rental_uris":{"android":"levelo://app?vid=3c881d8d-608f-4c39-9df3-b2aa54f8afcf","ios":"levelo://app?vid=3c881d8d-608f-4c39-9df3-b2aa54f8afcf"},"vehicle_type_id":"4","last_reported":1761830690,"current_range_meters":0,"station_id":"","pricing_plan_id":"cebpf4jnsgd1na2vs0mg"},{"bike_id":"a26e4937-215f-44d2-a8de-a7d3ec75d32b","system_id":"levelo_inurba_marseille","lat":43.337444,"lon":5.374475,"is_reserved":false,"is_disabled":false,"rental_uris":{"android":"levelo://app?vid=a26e4937-215f-44d2-a8de-a7d3ec75d32b","ios":"levelo://app?vid=a26e4937-215f-44d2-a8de-a7d3ec75d32b"},"vehicle_type_id":"4","last_reported":1761830690,"current_range_meters":0,"station_id":"","pricing_plan_id":"cebpf4jnsgd1na2vs0mg"},{"bike_id":"fadc4e19-b9ad-4402-a5bc-a0eff5c2b634","system_id":"levelo_inurba_marseille","lat":43.337444,"lon":5.374475,"is_reserved":false,"is_disabled":false,"rental_uris":{"android":"levelo://app?vid=fadc4e19-b9ad-4402-a5bc-a0eff5c2b634","ios":"levelo://app?vid=fadc4e19-b9ad-4402-a5bc-a0eff5c2b634"},"vehicle_type_id":"4","last_reported":1761830690,"current_range_meters":0,"station_id":"","pricing_plan_id":"cebpf4jnsgd1na2vs0mg"},{"bike_id":"e294c151-4441-4e4a-a116-13c66dfb9429","system_id":"levelo_inurba_marseille","lat":43.337444,"lon":5.374475,"is_reserved":false,"is_disabled":false,"rental_uris":{"android":"levelo://app?vid=e294c151-4441-4e4a-a116-13c66dfb9429","ios":"levelo://app?vid=e294c151-4441-4e4a-a116-13c66dfb9429"},"vehicle_type_id":"4","last_reported":1761830690,"current_range_meters":0,"station_id":"","pricing_plan_id":"cebpf4jnsgd1na2vs0mg"},{"bike_id":"0baff1cc-f548-40f7-a934-77958566d6a5","system_id":"levelo_inurba_marseille","lat":43.337444,"lon":5.374475,"is_reserved":false,"is_disabled":false,"rental_uris":{"android":"levelo://app?vid=0baff1cc-f548-40f7-a934-77958566d6a5","ios":"levelo://app?vid=0baff1cc-f548-40f7-a934-77958566d6a5"},"vehicle_type_id":"4","last_reported":1761830690,"current_range_meters":0,"station_id":"","pricing_plan_id":"cebpf4jnsgd1na2vs0mg"},{"bike_id":"1310c5d0-e39d-4b9c-84d7-1872f297ff18","system_id":"levelo_inurba_marseille","lat":43.337444,"lon":5.374475,"is_reserved":false,"is_disabled":false,"rental_uris":{"android":"levelo://app?vid=1310c5d0-e39d-4b9c-84d7-1872f297ff18","ios":"levelo://app?vid=1310c5d0-e39d-4b9c-84d7-1872f297ff18"},"vehicle_type_id":"4","last_reported":1761830690,"current_range_meters":0,"station_id":"","pricing_plan_id":"cebpf4jnsgd1na2vs0mg"},{"bike_id":"01eaacf7-8682-4054-bf38-52456d06e6f6","system_id":"levelo_inurba_marseille","lat":43.337444,"lon":5.374475,"is_reserved":false,"is_disabled":false,"rental_uris":{"android":"levelo://app?vid=01eaacf7-8682-4054-bf38-52456d06e6f6","ios":"levelo://app?vid=01eaacf7-8682-4054-bf38-52456d06e6f6"},"vehicle_type_id":"4","last_reported":1761830690,"current_range_meters":0,"station_id":"","pricing_plan_id":"cebpf4jnsgd1na2vs0mg"},{"bike_id":"4dbab57a-b708-409a-b815-3b9a5d92f753","system_id":"levelo_inurba_marseille","lat":43.337444,"lon":5.374475,"is_reserved":false,"is_disabled":false,"rental_uris":{"android":"levelo://app?vid=4dbab57a-b708-409a-b815-3b9a5d92f753","ios":"levelo://app?vid=4dbab57a-b708-409a-b815-3b9a5d92f753"},"vehicle_type_id":"4","last_reported":1761830690,"current_range_meters":0,"station_id":"","pricing_plan_id":"cebpf4jnsgd1na2vs0mg"},{"bike_id":"00f1260a-63f9-4663-ac1e-51258f9213bd","system_id":"levelo_inurba_marseille","lat":43.337444,"lon":5.374475,"is_reserved":false,"is_disabled":false,"rental_uris":{"android":"levelo://app?vid=00f1260a-63f9-4663-ac1e-51258f9213bd","ios":"levelo://app?vid=00f1260a-63f9-4663-ac1e-51258f9213bd"},"vehicle_type_id":"4","last_reported":1761830690,"current_range_meters":0,"station_id":"","pricing_plan_id":"cebpf4jnsgd1na2vs0mg"},{"bike_id":"50aa746e-d71a-437c-bb7a-ed648a03f81b","system_id":"levelo_inurba_marseille","lat":43.337444,"lon":5.374475,"is_reserved":false,"is_disabled":false,"rental_uris":{"android":"levelo://app?vid=50aa746e-d71a-437c-bb7a-ed648a03f81b","ios":"levelo://app?vid=50aa746e-d71a-437c-bb7a-ed648a03f81b"},"vehicle_type_id":"4","last_reported":1761830690,"current_range_meters":0,"station_id":"","pricing_plan_id":"cebpf4jnsgd1na2vs0mg"},{"bike_id":"3e68cf6e-17b6-46f5-8b08-d049449e0ca4","system_id":"levelo_inurba_marseille","lat":43.337444,"lon":5.374475,"is_reserved":false,"is_disabled":false,"rental_uris":{"android":"levelo://app?vid=3e68cf6e-17b6-46f5-8b08-d049449e0ca4","ios":"levelo://app?vid=3e68cf6e-17b6-46f5-8b08-d049449e0ca4"},"vehicle_type_id":"4","last_reported":1761830690,"current_range_meters":0,"station_id":"","pricing_plan_id":"cebpf4jnsgd1na2vs0mg"},{"bike_id":"b06c4997-7e4f-467a-922f-92f2f2e27e9d","system_id":"levelo_inurba_marseille","lat":43.337444,"lon":5.374475,"is_reserved":false,"is_disabled":false,"rental_uris":{"android":"levelo://app?vid=b06c4997-7e4f-467a-922f-92f2f2e27e9d","ios":"levelo://app?vid=b06c4997-7e4f-467a-922f-92f2f2e27e9d"},"vehicle_type_id":"4","last_reported":1761830690,"current_range_meters":0,"station_id":"","pricing_plan_id":"cebpf4jnsgd1na2vs0mg"},{"bike_id":"bb49b980-4cfb-49a5-9add-f3f9d4fc6db5","system_id":"levelo_inurba_marseille","lat":43.337444,"lon":5.374475,"is_reserved":false,"is_disabled":false,"rental_uris":{"android":"levelo://app?vid=bb49b980-4cfb-49a5-9add-f3f9d4fc6db5","ios":"levelo://app?vid=bb49b980-4cfb-49a5-9add-f3f9d4fc6db5"},"vehicle_type_id":"4","last_reported":1761830690,"current_range_meters":0,"station_id":"","pricing_plan_id":"cebpf4jnsgd1na2vs0mg"},{"bike_id":"b97206fc-6c94-4378-926a-a788d4f71c09","system_id":"levelo_inurba_marseille","lat":43.337444,"lon":5.374475,"is_reserved":false,"is_disabled":false,"rental_uris":{"android":"levelo://app?vid=b97206fc-6c94-4378-926a-a788d4f71c09","ios":"levelo://app?vid=b97206fc-6c94-4378-926a-a788d4f71c09"},"vehicle_type_id":"4","last_reported":1761830690,"current_range_meters":0,"station_id":"","pricing_plan_id":"cebpf4jnsgd1na2vs0mg"},{"bike_id":"37d7ebf5-2b3d-4af3-a7cd-4f29f464d5a0","system_id":"levelo_inurba_marseille","lat":43.337444,"lon":5.374475,"is_reserved":false,"is_disabled":false,"rental_uris":{"android":"levelo://app?vid=37d7ebf5-2b3d-4af3-a7cd-4f29f464d5a0","ios":"levelo://app?vid=37d7ebf5-2b3d-4af3-a7cd-4f29f464d5a0"},"vehicle_type_id":"4","last_reported":1761830690,"current_range_meters":0,"station_id":"","pricing_plan_id":"cebpf4jnsgd1na2vs0mg"},{"bike_id":"4ce4318f-b763-4325-8589-2aecbcc80add","system_id":"levelo_inurba_marseille","lat":43.337444,"lon":5.374475,"is_reserved":false,"is_disabled":false,"rental_uris":{"android":"levelo://app?vid=4ce4318f-b763-4325-8589-2aecbcc80add","ios":"levelo://app?vid=4ce4318f-b763-4325-8589-2aecbcc80add"},"vehicle_type_id":"4","last_reported":1761830690,"current_range_meters":0,"station_id":"","pricing_plan_id":"cebpf4jnsgd1na2vs0mg"},{"bike_id":"a6a3a590-5c2a-4683-a516-e9f5572de0f8","system_id":"levelo_inurba_marseille","lat":43.337444,"lon":5.374475,"is_reserved":false,"is_disabled":false,"rental_uris":{"android":"levelo://app?vid=a6a3a590-5c2a-4683-a516-e9f5572de0f8","ios":"levelo://app?vid=a6a3a590-5c2a-4683-a516-e9f5572de0f8"},"vehicle_type_id":"4","last_reported":1761830690,"current_range_meters":0,"station_id":"","pricing_plan_id":"cebpf4jnsgd1na2vs0mg"},{"bike_id":"111bdd74-3ae9-48f5-979c-2e177e7747d9","system_id":"levelo_inurba_marseille","lat":43.337444,"lon":5.374475,"is_reserved":false,"is_disabled":false,"rental_uris":{"android":"levelo://app?vid=111bdd74-3ae9-48f5-979c-2e177e7747d9","ios":"levelo://app?vid=111bdd74-3ae9-48f5-979c-2e177e7747d9"},"vehicle_type_id":"4","last_reported":1761830690,"current_range_meters":0,"station_id":"","pricing_plan_id":"cebpf4jnsgd1na2vs0mg"},{"bike_id":"b9d871b8-65b0-40af-afa3-0bf2492a45a9","system_id":"levelo_inurba_marseille","lat":43.337444,"lon":5.374475,"is_reserved":false,"is_disabled":false,"rental_uris":{"android":"levelo://app?vid=b9d871b8-65b0-40af-afa3-0bf2492a45a9","ios":"levelo://app?vid=b9d871b8-65b0-40af-afa3-0bf2492a45a9"},"vehicle_type_id":"4","last_reported":1761830690,"current_range_meters":0,"station_id":"","pricing_plan_id":"cebpf4jnsgd1na2vs0mg"},{"bike_id":"5bec735e-fcf4-48c7-8bdc-29590fc410b1","system_id":"levelo_inurba_marseille","lat":43.337444,"lon":5.374475,"is_reserved":false,"is_disabled":false,"rental_uris":{"android":"levelo://app?vid=5bec735e-fcf4-48c7-8bdc-29590fc410b1","ios":"levelo://app?vid=5bec735e-fcf4-48c7-8bdc-29590fc410b1"},"vehicle_type_id":"4","last_reported":1761830690,"current_range_meters":0,"station_id":"","pricing_plan_id":"cebpf4jnsgd1na2vs0mg"},{"bike_id":"026e76ec-bb30-48a3-8407-a17635ff5e4d","system_id":"levelo_inurba_marseille","lat":43.337444,"lon":5.374475,"is_reserved":false,"is_disabled":false,"rental_uris":{"android":"levelo://app?vid=026e76ec-bb30-48a3-8407-a17635ff5e4d","ios":"levelo://app?vid=026e76ec-bb30-48a3-8407-a17635ff5e4d"},"vehicle_type_id":"4","last_reported":1761830690,"current_range_meters":0,"station_id":"","pricing_plan_id":"cebpf4jnsgd1na2vs0mg"},{"bike_id":"46d34bff-7ac4-476c-bd3e-8e7dba53c807","system_id":"levelo_inurba_marseille","lat":43.337444,"lon":5.374475,"is_reserved":false,"is_disabled":false,"rental_uris":{"android":"levelo://app?vid=46d34bff-7ac4-476c-bd3e-8e7dba53c807","ios":"levelo://app?vid=46d34bff-7ac4-476c-bd3e-8e7dba53c807"},"vehicle_type_id":"4","last_reported":1761830690,"current_range_meters":0,"station_id":"","pricing_plan_id":"cebpf4jnsgd1na2vs0mg"},{"bike_id":"2c7e37d6-d4ca-47ae-a0e0-a648dd4e1706","system_id":"levelo_inurba_marseille","lat":43.337444,"lon":5.374475,"is_reserved":false,"is_disabled":false,"rental_uris":{"android":"levelo://app?vid=2c7e37d6-d4ca-47ae-a0e0-a648dd4e1706","ios":"levelo://app?vid=2c7e37d6-d4ca-47ae-a0e0-a648dd4e1706"},"vehicle_type_id":"4","last_reported":1761830690,"current_range_meters":0,"station_id":"","pricing_plan_id":"cebpf4jnsgd1na2vs0mg"},{"bike_id":"94eee6a6-2463-4d2a-b222-3ef19356212a","system_id":"levelo_inurba_marseille","lat":43.337444,"lon":5.374475,"is_reserved":false,"is_disabled":false,"rental_uris":{"android":"levelo://app?vid=94eee6a6-2463-4d2a-b222-3ef19356212a","ios":"levelo://app?vid=94eee6a6-2463-4d2a-b222-3ef19356212a"},"vehicle_type_id":"4","last_reported":1761830690,"current_range_meters":0,"station_id":"","pricing_plan_id":"cebpf4jnsgd1na2vs0mg"},{"bike_id":"4592e008-320c-4bcd-ae3b-d140e613f684","system_id":"levelo_inurba_marseille","lat":43.337444,"lon":5.374475,"is_reserved":false,"is_disabled":false,"rental_uris":{"android":"levelo://app?vid=4592e008-320c-4bcd-ae3b-d140e613f684","ios":"levelo://app?vid=4592e008-320c-4bcd-ae3b-d140e613f684"},"vehicle_type_id":"4","last_reported":1761830690,"current_range_meters":0,"station_id":"","pricing_plan_id":"cebpf4jnsgd1na2vs0mg"},{"bike_id":"5807ce94-1b62-42db-8c77-9488accc83d5","system_id":"levelo_inurba_marseille","lat":43.337444,"lon":5.374475,"is_reserved":false,"is_disabled":false,"rental_uris":{"android":"levelo://app?vid=5807ce94-1b62-42db-8c77-9488accc83d5","ios":"levelo://app?vid=5807ce94-1b62-42db-8c77-9488accc83d5"},"vehicle_type_id":"4","last_reported":1761830690,"current_range_meters":0,"station_id":"","pricing_plan_id":"cebpf4jnsgd1na2vs0mg"},{"bike_id":"7e937c41-45d5-4d3b-8e8f-665d3e5c39b8","system_id":"levelo_inurba_marseille","lat":43.23198,"lon":5.35555,"is_reserved":false,"is_disabled":false,"rental_uris":{"android":"levelo://app?vid=7e937c41-45d5-4d3b-8e8f-665d3e5c39b8","ios":"levelo://app?vid=7e937c41-45d5-4d3b-8e8f-665d3e5c39b8"},"vehicle_type_id":"4","last_reported":1761830690,"current_range_meters":2800,"station_id":"ce4bhu92rcd13ifvqi70","pricing_plan_id":"cebpf4jnsgd1na2vs0mg"},{"bike_id":"a12e4e0c-40c9-4f7e-9615-d934d1cade83","system_id":"levelo_inurba_marseille","lat":43.21749,"lon":5.34608,"is_reserved":false,"is_disabled":false,"rental_uris":{"android":"levelo://app?vid=a12e4e0c-40c9-4f7e-9615-d934d1cade83","ios":"levelo://app?vid=a12e4e0c-40c9-4f7e-9615-d934d1cade83"},"vehicle_type_id":"4","last_reported":1761830690,"current_range_meters":2800,"station_id":"st_cvj6r9ubvosntc0bgbag","pricing_plan_id":"cebpf4jnsgd1na2vs0mg"},{"bike_id":"41f41c53-c84d-4534-a1c0-58783d76d033","system_id":"levelo_inurba_marseille","lat":43.26558,"lon":5.37291,"is_reserved":false,"is_disabled":false,"rental_uris":{"android":"levelo://app?vid=41f41c53-c84d-4534-a1c0-58783d76d033","ios":"levelo://app?vid=41f41c53-c84d-4534-a1c0-58783d76d033"},"vehicle_type_id":"4","last_reported":1761830690,"current_range_meters":3200,"station_id":"ce4bhg12rcd13ifvqf70","pricing_plan_id":"cebpf4jnsgd1na2vs0mg"},{"bike_id":"eb8f13ff-065d-4e4e-b5e0-9c6d6156824b","system_id":"levelo_inurba_marseille","lat":43.21195,"lon":5.35076,"is_reserved":false,"is_disabled":false,"rental_uris":{"android":"levelo://app?vid=eb8f13ff-065d-4e4e-b5e0-9c6d6156824b","ios":"levelo://app?vid=eb8f13ff-065d-4e4e-b5e0-9c6d6156824b"},"vehicle_type_id":"4","last_reported":1761830690,"current_range_meters":3600,"station_id":"st_cvj6sg6p6f1abm77japg","pricing_plan_id":"cebpf4jnsgd1na2vs0mg"},{"bike_id":"d5ca831f-8041-403e-ada8-7b4196c3d5be","system_id":"levelo_inurba_marseille","lat":43.293714,"lon":5.379385,"is_reserved":false,"is_disabled":false,"rental_uris":{"android":"levelo://app?vid=d5ca831f-8041-403e-ada8-7b4196c3d5be","ios":"levelo://app?vid=d5ca831f-8041-403e-ada8-7b4196c3d5be"},"vehicle_type_id":"4","last_reported":1761830690,"current_range_meters":4000,"station_id":"","pricing_plan_id":"cebpf4jnsgd1na2vs0mg"},{"bike_id":"01ab473d-5f2f-46b2-9345-61e5b0a0aaf1","system_id":"levelo_inurba_marseille","lat":43.27327,"lon":5.39078,"is_reserved":false,"is_disabled":false,"rental_uris":{"android":"levelo://app?vid=01ab473d-5f2f-46b2-9345-61e5b0a0aaf1","ios":"levelo://app?vid=01ab473d-5f2f-46b2-9345-61e5b0a0aaf1"},"vehicle_type_id":"4","last_reported":1761830690,"current_range_meters":4400,"station_id":"ce4bhgp2rcd13ifvqfe0","pricing_plan_id":"cebpf4jnsgd1na2vs0mg"},{"bike_id":"d1fb6de2-fba1-47b5-8c68-ea836b76d865","system_id":"levelo_inurba_marseille","lat":43.27625,"lon":5.36116,"is_reserved":false,"is_disabled":false,"rental_uris":{"android":"levelo://app?vid=d1fb6de2-fba1-47b5-8c68-ea836b76d865","ios":"levelo://app?vid=d1fb6de2-fba1-47b5-8c68-ea836b76d865"},"vehicle_type_id":"4","last_reported":1761830690,"current_range_meters":4400,"station_id":"","pricing_plan_id":"cebpf4jnsgd1na2vs0mg"},{"bike_id":"f9c57ef3-9142-4447-9b5a-bb1e9920711c","system_id":"levelo_inurba_marseille","lat":43.254342,"lon":5.37655,"is_reserved":false,"is_disabled":false,"rental_uris":{"android":"levelo://app?vid=f9c57ef3-9142-4447-9b5a-bb1e9920711c","ios":"levelo://app?vid=f9c57ef3-9142-4447-9b5a-bb1e9920711c"},"vehicle_type_id":"4","last_reported":1761830690,"current_range_meters":4400,"station_id":"ce4bhu92rcd13ifvqi70","pricing_plan_id":"cebpf4jnsgd1na2vs0mg"},{"bike_id":"ac946ba3-bed7-4ce9-9935-8e6983fc75c4","system_id":"levelo_inurba_marseille","lat":43.231515,"lon":5.437251,"is_reserved":false,"is_disabled":false,"rental_uris":{"android":"levelo://app?vid=ac946ba3-bed7-4ce9-9935-8e6983fc75c4","ios":"levelo://app?vid=ac946ba3-bed7-4ce9-9935-8e6983fc75c4"},"vehicle_type_id":"4","last_reported":1761830690,"current_range_meters":4400,"station_id":"ce4bhmp2rcd13ifvqgog","pricing_plan_id":"cebpf4jnsgd1na2vs0mg"},{"bike_id":"bf838397-5dca-46e4-b963-564225dd8a64","system_id":"levelo_inurba_marseille","lat":43.2408,"lon":5.37762,"is_reserved":false,"is_disabled":false,"rental_uris":{"android":"levelo://app?vid=bf838397-5dca-46e4-b963-564225dd8a64","ios":"levelo://app?vid=bf838397-5dca-46e4-b963-564225dd8a64"},"vehicle_type_id":"4","last_reported":1761830690,"current_range_meters":4400,"station_id":"ce4bhnp2rcd13ifvqgvg","pricing_plan_id":"cebpf4jnsgd1na2vs0mg"},{"bike_id":"d864b028-0589-4521-8b04-ba3066e13c93","system_id":"levelo_inurba_marseille","lat":43.21744,"lon":5.34614,"is_reserved":false,"is_disabled":false,"rental_uris":{"android":"levelo://app?vid=d864b028-0589-4521-8b04-ba3066e13c93","ios":"levelo://app?vid=d864b028-0589-4521-8b04-ba3066e13c93"},"vehicle_type_id":"4","last_reported":1761830690,"current_range_meters":5600,"station_id":"st_cvj6r9ubvosntc0bgbag","pricing_plan_id":"cebpf4jnsgd1na2vs0mg"},{"bike_id":"81ca8b54-c7ea-4416-8c8d-cb945792bc5b","system_id":"levelo_inurba_marseille","lat":43.22571,"lon":5.41624,"is_reserved":false,"is_disabled":false,"rental_uris":{"android":"levelo://app?vid=81ca8b54-c7ea-4416-8c8d-cb945792bc5b","ios":"levelo://app?vid=81ca8b54-c7ea-4416-8c8d-cb945792bc5b"},"vehicle_type_id":"4","last_reported":1761830690,"current_range_meters":5600,"station_id":"st_d2o4gvlbi1j2169b742g","pricing_plan_id":"cebpf4jnsgd1na2vs0mg"},{"bike_id":"0ee244c4-df1c-47d3-bb68-b52c4994e75a","system_id":"levelo_inurba_marseille","lat":43.31335,"lon":5.36752,"is_reserved":false,"is_disabled":false,"rental_uris":{"android":"levelo://app?vid=0ee244c4-df1c-47d3-bb68-b52c4994e75a","ios":"levelo://app?vid=0ee244c4-df1c-47d3-bb68-b52c4994e75a"},"vehicle_type_id":"4","last_reported":1761830690,"current_range_meters":5600,"station_id":"ce4bgr92rcd13ifvqc6g","pricing_plan_id":"cebpf4jnsgd1na2vs0mg"},{"bike_id":"4c90a383-9ca2-4fbf-8137-7359106e9da8","system_id":"levelo_inurba_marseille","lat":43.22933,"lon":5.35385,"is_reserved":false,"is_disabled":false,"rental_uris":{"android":"levelo://app?vid=4c90a383-9ca2-4fbf-8137-7359106e9da8","ios":"levelo://app?vid=4c90a383-9ca2-4fbf-8137-7359106e9da8"},"vehicle_type_id":"4","last_reported":1761830690,"current_range_meters":5600,"station_id":"cpo3532slgdg3j2ikp40","pricing_plan_id":"cebpf4jnsgd1na2vs0mg"},{"bike_id":"b5e2ad27-d321-41f1-bdf0-42a779991602","system_id":"levelo_inurba_marseille","lat":43.275533,"lon":5.359599,"is_reserved":false,"is_disabled":false,"rental_uris":{"android":"levelo://app?vid=b5e2ad27-d321-41f1-bdf0-42a779991602","ios":"levelo://app?vid=b5e2ad27-d321-41f1-bdf0-42a779991602"},"vehicle_type_id":"4","last_reported":1761830690,"current_range_meters":5600,"station_id":"ce4bgj92rcd13ifvqbe0","pricing_plan_id":"cebpf4jnsgd1na2vs0mg"},{"bike_id":"519a2e94-6493-4644-a67f-8c251b7fe560","system_id":"levelo_inurba_marseille","lat":43.22562,"lon":5.41628,"is_reserved":false,"is_disabled":false,"rental_uris":{"android":"levelo://app?vid=519a2e94-6493-4644-a67f-8c251b7fe560","ios":"levelo://app?vid=519a2e94-6493-4644-a67f-8c251b7fe560"},"vehicle_type_id":"4","last_reported":1761830690,"current_range_meters":5600,"station_id":"st_d2o4gvlbi1j2169b742g","pricing_plan_id":"cebpf4jnsgd1na2vs0mg"},{"bike_id":"f6adb9c1-4a78-4322-baec-aa5f6f5d93b6","system_id":"levelo_inurba_marseille","lat":43.337896,"lon":5.374361,"is_reserved":false,"is_disabled":false,"rental_uris":{"android":"levelo://app?vid=f6adb9c1-4a78-4322-baec-aa5f6f5d93b6","ios":"levelo://app?vid=f6adb9c1-4a78-4322-baec-aa5f6f5d93b6"},"vehicle_type_id":"4","last_reported":1761830690,"current_range_meters":5600,"station_id":"","pricing_plan_id":"cebpf4jnsgd1na2vs0mg"},{"bike_id":"14be1110-66c8-45b3-9f1f-9fb345831690","system_id":"levelo_inurba_marseille","lat":43.292988,"lon":5.374665,"is_reserved":false,"is_disabled":false,"rental_uris":{"android":"levelo://app?vid=14be1110-66c8-45b3-9f1f-9fb345831690","ios":"levelo://app?vid=14be1110-66c8-45b3-9f1f-9fb345831690"},"vehicle_type_id":"4","last_reported":1761830690,"current_range_meters":6000,"station_id":"ce4bgi12rcd13ifvqb70","pricing_plan_id":"cebpf4jnsgd1na2vs0mg"},{"bike_id":"1884d5c9-bd91-4658-bea4-a53682273fa1","system_id":"levelo_inurba_marseille","lat":43.27982,"lon":5.40061,"is_reserved":false,"is_disabled":false,"rental_uris":{"android":"levelo://app?vid=1884d5c9-bd91-4658-bea4-a53682273fa1","ios":"levelo://app?vid=1884d5c9-bd91-4658-bea4-a53682273fa1"},"vehicle_type_id":"4","last_reported":1761830690,"current_range_meters":6400,"station_id":"ce4bho92rcd13ifvqh4g","pricing_plan_id":"cebpf4jnsgd1na2vs0mg"},{"bike_id":"df4a7072-9a99-4388-960f-688f83a92f17","system_id":"levelo_inurba_marseille","lat":43.29564,"lon":5.42307,"is_reserved":false,"is_disabled":false,"rental_uris":{"android":"levelo://app?vid=df4a7072-9a99-4388-960f-688f83a92f17","ios":"levelo://app?vid=df4a7072-9a99-4388-960f-688f83a92f17"},"vehicle_type_id":"4","last_reported":1761830690,"current_range_meters":6400,"station_id":"ce4bhph2rcd13ifvqhdg","pricing_plan_id":"cebpf4jnsgd1na2vs0mg"},{"bike_id":"5cfae916-3da1-4126-93c5-a404799e0817","system_id":"levelo_inurba_marseille","lat":43.24997,"lon":5.38938,"is_reserved":false,"is_disabled":false,"rental_uris":{"android":"levelo://app?vid=5cfae916-3da1-4126-93c5-a404799e0817","ios":"levelo://app?vid=5cfae916-3da1-4126-93c5-a404799e0817"},"vehicle_type_id":"4","last_reported":1761830690,"current_range_meters":6400,"station_id":"ce4bhgp2rcd13ifvqfd0","pricing_plan_id":"cebpf4jnsgd1na2vs0mg"},{"bike_id":"5a69a8d3-00cf-4272-87a3-dc22b7a01341","system_id":"levelo_inurba_marseille","lat":43.22931,"lon":5.35377,"is_reserved":false,"is_disabled":false,"rental_uris":{"android":"levelo://app?vid=5a69a8d3-00cf-4272-87a3-dc22b7a01341","ios":"levelo://app?vid=5a69a8d3-00cf-4272-87a3-dc22b7a01341"},"vehicle_type_id":"4","last_reported":1761830690,"current_range_meters":6400,"station_id":"cpo3532slgdg3j2ikp40","pricing_plan_id":"cebpf4jnsgd1na2vs0mg"},{"bike_id":"ae8ebe94-fc0f-4409-8f77-39eb5c613a67","system_id":"levelo_inurba_marseille","lat":43.337444,"lon":5.374475,"is_reserved":false,"is_disabled":false,"rental_uris":{"android":"levelo://app?vid=ae8ebe94-fc0f-4409-8f77-39eb5c613a67","ios":"levelo://app?vid=ae8ebe94-fc0f-4409-8f77-39eb5c613a67"},"vehicle_type_id":"4","last_reported":1761830690,"current_range_meters":6800,"station_id":"","pricing_plan_id":"cebpf4jnsgd1na2vs0mg"},{"bike_id":"93a31e57-600a-478a-9e22-f09fbb6b10ba","system_id":"levelo_inurba_marseille","lat":43.26895,"lon":5.36826,"is_reserved":false,"is_disabled":false,"rental_uris":{"android":"levelo://app?vid=93a31e57-600a-478a-9e22-f09fbb6b10ba","ios":"levelo://app?vid=93a31e57-600a-478a-9e22-f09fbb6b10ba"},"vehicle_type_id":"4","last_reported":1761830690,"current_range_meters":6800,"station_id":"","pricing_plan_id":"cebpf4jnsgd1na2vs0mg"},{"bike_id":"0d613edc-7f54-49d1-b12c-2bfcde9ff9e3","system_id":"levelo_inurba_marseille","lat":43.22538,"lon":5.41614,"is_reserved":false,"is_disabled":false,"rental_uris":{"android":"levelo://app?vid=0d613edc-7f54-49d1-b12c-2bfcde9ff9e3","ios":"levelo://app?vid=0d613edc-7f54-49d1-b12c-2bfcde9ff9e3"},"vehicle_type_id":"4","last_reported":1761830690,"current_range_meters":6800,"station_id":"st_d2o4gvlbi1j2169b742g","pricing_plan_id":"cebpf4jnsgd1na2vs0mg"},{"bike_id":"d7501644-af29-4949-85a6-6fb0d170cf4f","system_id":"levelo_inurba_marseille","lat":43.21197,"lon":5.35074,"is_reserved":false,"is_disabled":false,"rental_uris":{"android":"levelo://app?vid=d7501644-af29-4949-85a6-6fb0d170cf4f","ios":"levelo://app?vid=d7501644-af29-4949-85a6-6fb0d170cf4f"},"vehicle_type_id":"4","last_reported":1761830690,"current_range_meters":6800,"station_id":"st_cvj6sg6p6f1abm77japg","pricing_plan_id":"cebpf4jnsgd1na2vs0mg"},{"bike_id":"e3c50aa6-6386-41c8-a55d-eaf1343e5af1","system_id":"levelo_inurba_marseille","lat":43.30965,"lon":5.39021,"is_reserved":false,"is_disabled":false,"rental_uris":{"android":"levelo://app?vid=e3c50aa6-6386-41c8-a55d-eaf1343e5af1","ios":"levelo://app?vid=e3c50aa6-6386-41c8-a55d-eaf1343e5af1"},"vehicle_type_id":"4","last_reported":1761830690,"current_range_meters":7200,"station_id":"ce4bgup2rcd13ifvqco0","pricing_plan_id":"cebpf4jnsgd1na2vs0mg"},{"bike_id":"522b4eff-46db-447a-b5bc-41661d6504c7","system_id":"levelo_inurba_marseille","lat":43.23143,"lon":5.43726,"is_reserved":false,"is_disabled":false,"rental_uris":{"android":"levelo://app?vid=522b4eff-46db-447a-b5bc-41661d6504c7","ios":"levelo://app?vid=522b4eff-46db-447a-b5bc-41661d6504c7"},"vehicle_type_id":"4","last_reported":1761830690,"current_range_meters":7200,"station_id":"ce4bhmp2rcd13ifvqgog","pricing_plan_id":"cebpf4jnsgd1na2vs0mg"},{"bike_id":"da928932-c0be-4d4d-ba6d-3f9098a44465","system_id":"levelo_inurba_marseille","lat":43.27676,"lon":5.38873,"is_reserved":false,"is_disabled":false,"rental_uris":{"android":"levelo://app?vid=da928932-c0be-4d4d-ba6d-3f9098a44465","ios":"levelo://app?vid=da928932-c0be-4d4d-ba6d-3f9098a44465"},"vehicle_type_id":"4","last_reported":1761830690,"current_range_meters":7200,"station_id":"ce4bhi12rcd13ifvqfo0","pricing_plan_id":"cebpf4jnsgd1na2vs0mg"},{"bike_id":"052198e3-a8fa-4bb1-9e88-130c77886f82","system_id":"levelo_inurba_marseille","lat":43.29719,"lon":5.37696,"is_reserved":false,"is_disabled":false,"rental_uris":{"android":"levelo://app?vid=052198e3-a8fa-4bb1-9e88-130c77886f82","ios":"levelo://app?vid=052198e3-a8fa-4bb1-9e88-130c77886f82"},"vehicle_type_id":"4","last_reported":1761830690,"current_range_meters":8000,"station_id":"ce4bgkh2rcd13ifvqbl0","pricing_plan_id":"cebpf4jnsgd1na2vs0mg"},{"bike_id":"2bf01c7f-496b-49a0-b2af-9ae1143682ed","system_id":"levelo_inurba_marseille","lat":43.22913,"lon":5.35362,"is_reserved":false,"is_disabled":false,"rental_uris":{"android":"levelo://app?vid=2bf01c7f-496b-49a0-b2af-9ae1143682ed","ios":"levelo://app?vid=2bf01c7f-496b-49a0-b2af-9ae1143682ed"},"vehicle_type_id":"4","last_reported":1761830690,"current_range_meters":8000,"station_id":"cpo3532slgdg3j2ikp40","pricing_plan_id":"cebpf4jnsgd1na2vs0mg"},{"bike_id":"774a8cb9-4992-4578-988f-dd2b91701650","system_id":"levelo_inurba_marseille","lat":43.29844,"lon":5.36331,"is_reserved":false,"is_disabled":false,"rental_uris":{"android":"levelo://app?vid=774a8cb9-4992-4578-988f-dd2b91701650","ios":"levelo://app?vid=774a8cb9-4992-4578-988f-dd2b91701650"},"vehicle_type_id":"4","last_reported":1761830690,"current_range_meters":8400,"station_id":"ce4bgpp2rcd13ifvqc3g","pricing_plan_id":"cebpf4jnsgd1na2vs0mg"},{"bike_id":"f186889b-7fdc-4d4c-9c7d-20e6f270d9c3","system_id":"levelo_inurba_marseille","lat":43.29623,"lon":5.38101,"is_reserved":false,"is_disabled":false,"rental_uris":{"android":"levelo://app?vid=f186889b-7fdc-4d4c-9c7d-20e6f270d9c3","ios":"levelo://app?vid=f186889b-7fdc-4d4c-9c7d-20e6f270d9c3"},"vehicle_type_id":"4","last_reported":1761830690,"current_range_meters":9200,"station_id":"ce4bgl12rcd13ifvqbo0","pricing_plan_id":"cebpf4jnsgd1na2vs0mg"},{"bike_id":"faee4aed-34d1-4e59-9f3e-bc2337688920","system_id":"levelo_inurba_marseille","lat":43.31711,"lon":5.43697,"is_reserved":false,"is_disabled":true,"rental_uris":{"android":"levelo://app?vid=faee4aed-34d1-4e59-9f3e-bc2337688920","ios":"levelo://app?vid=faee4aed-34d1-4e59-9f3e-bc2337688920"},"vehicle_type_id":"4","last_reported":1761830690,"current_range_meters":9200,"station_id":"ce4bhp92rcd13ifvqhcg","pricing_plan_id":"cebpf4jnsgd1na2vs0mg"},{"bike_id":"e3260d53-1f31-4048-a6b1-57d9b1375877","system_id":"levelo_inurba_marseille","lat":43.28528,"lon":5.44103,"is_reserved":false,"is_disabled":false,"rental_uris":{"android":"levelo://app?vid=e3260d53-1f31-4048-a6b1-57d9b1375877","ios":"levelo://app?vid=e3260d53-1f31-4048-a6b1-57d9b1375877"},"vehicle_type_id":"4","last_reported":1761830690,"current_range_meters":9600,"station_id":"st_d3j3df2ikq2c7380ej80","pricing_plan_id":"cebpf4jnsgd1na2vs0mg"},{"bike_id":"4644b8ac-affa-4d50-b2ae-974d32d38290","system_id":"levelo_inurba_marseille","lat":43.307964,"lon":5.43521,"is_reserved":false,"is_disabled":false,"rental_uris":{"android":"levelo://app?vid=4644b8ac-affa-4d50-b2ae-974d32d38290","ios":"levelo://app?vid=4644b8ac-affa-4d50-b2ae-974d32d38290"},"vehicle_type_id":"4","last_reported":1761830690,"current_range_meters":9600,"station_id":"","pricing_plan_id":"cebpf4jnsgd1na2vs0mg"},{"bike_id":"2425811b-6e68-4721-8b6f-533a2492c719","system_id":"levelo_inurba_marseille","lat":43.31342,"lon":5.36776,"is_reserved":false,"is_disabled":false,"rental_uris":{"android":"levelo://app?vid=2425811b-6e68-4721-8b6f-533a2492c719","ios":"levelo://app?vid=2425811b-6e68-4721-8b6f-533a2492c719"},"vehicle_type_id":"4","last_reported":1761830690,"current_range_meters":9600,"station_id":"","pricing_plan_id":"cebpf4jnsgd1na2vs0mg"},{"bike_id":"8c830576-9a11-4ace-905f-fcf50c13e22a","system_id":"levelo_inurba_marseille","lat":43.31253,"lon":5.3685,"is_reserved":false,"is_disabled":false,"rental_uris":{"android":"levelo://app?vid=8c830576-9a11-4ace-905f-fcf50c13e22a","ios":"levelo://app?vid=8c830576-9a11-4ace-905f-fcf50c13e22a"},"vehicle_type_id":"4","last_reported":1761830690,"current_range_meters":9600,"station_id":"ce4bgl92rcd13ifvqbq0","pricing_plan_id":"cebpf4jnsgd1na2vs0mg"},{"bike_id":"c56a68e0-035e-4d6b-92ac-165a4859959a","system_id":"levelo_inurba_marseille","lat":43.28273,"lon":5.35065,"is_reserved":false,"is_disabled":false,"rental_uris":{"android":"levelo://app?vid=c56a68e0-035e-4d6b-92ac-165a4859959a","ios":"levelo://app?vid=c56a68e0-035e-4d6b-92ac-165a4859959a"},"vehicle_type_id":"4","last_reported":1761830690,"current_range_meters":9600,"station_id":"ce4bhbp2rcd13ifvqerg","pricing_plan_id":"cebpf4jnsgd1na2vs0mg"},{"bike_id":"5bd9b63b-f791-4aac-8e03-7624fe98058f","system_id":"levelo_inurba_marseille","lat":43.29711,"lon":5.36601,"is_reserved":false,"is_disabled":false,"rental_uris":{"android":"levelo://app?vid=5bd9b63b-f791-4aac-8e03-7624fe98058f","ios":"levelo://app?vid=5bd9b63b-f791-4aac-8e03-7624fe98058f"},"vehicle_type_id":"4","last_reported":1761830690,"current_range_meters":9600,"station_id":"ce4bgn12rcd13ifvqbt0","pricing_plan_id":"cebpf4jnsgd1na2vs0mg"},{"bike_id":"e0c2d043-6a62-44df-939a-c38bc4d5da8f","system_id":"levelo_inurba_marseille","lat":43.29784,"lon":5.39348,"is_reserved":false,"is_disabled":false,"rental_uris":{"android":"levelo://app?vid=e0c2d043-6a62-44df-939a-c38bc4d5da8f","ios":"levelo://app?vid=e0c2d043-6a62-44df-939a-c38bc4d5da8f"},"vehicle_type_id":"4","last_reported":1761830690,"current_range_meters":10000,"station_id":"chh1huq6cuj3fo74tm60","pricing_plan_id":"cebpf4jnsgd1na2vs0mg"},{"bike_id":"38b57c98-f633-4f62-b1d9-ddf66aacc15e","system_id":"levelo_inurba_marseille","lat":43.2669,"lon":5.38277,"is_reserved":false,"is_disabled":false,"rental_uris":{"android":"levelo://app?vid=38b57c98-f633-4f62-b1d9-ddf66aacc15e","ios":"levelo://app?vid=38b57c98-f633-4f62-b1d9-ddf66aacc15e"},"vehicle_type_id":"4","last_reported":1761830690,"current_range_meters":10000,"station_id":"ce4bhg92rcd13ifvqf90","pricing_plan_id":"cebpf4jnsgd1na2vs0mg"},{"bike_id":"f3c6a068-988f-40a6-b238-8e3025db2725","system_id":"levelo_inurba_marseille","lat":43.280888,"lon":5.399053,"is_reserved":false,"is_disabled":false,"rental_uris":{"android":"levelo://app?vid=f3c6a068-988f-40a6-b238-8e3025db2725","ios":"levelo://app?vid=f3c6a068-988f-40a6-b238-8e3025db2725"},"vehicle_type_id":"4","last_reported":1761830690,"current_range_meters":10800,"station_id":"ce4bho92rcd13ifvqh3g","pricing_plan_id":"cebpf4jnsgd1na2vs0mg"},{"bike_id":"018742f4-ffd8-4694-a1fe-61683d7b7382","system_id":"levelo_inurba_marseille","lat":43.26775,"lon":5.39422,"is_reserved":false,"is_disabled":false,"rental_uris":{"android":"levelo://app?vid=018742f4-ffd8-4694-a1fe-61683d7b7382","ios":"levelo://app?vid=018742f4-ffd8-4694-a1fe-61683d7b7382"},"vehicle_type_id":"4","last_reported":1761830690,"current_range_meters":10800,"station_id":"ce4bhh12rcd13ifvqfg0","pricing_plan_id":"cebpf4jnsgd1na2vs0mg"},{"bike_id":"ae14d741-3bf3-4505-aacf-ae9acf1b4e38","system_id":"levelo_inurba_marseille","lat":43.24997,"lon":5.38933,"is_reserved":false,"is_disabled":false,"rental_uris":{"android":"levelo://app?vid=ae14d741-3bf3-4505-aacf-ae9acf1b4e38","ios":"levelo://app?vid=ae14d741-3bf3-4505-aacf-ae9acf1b4e38"},"vehicle_type_id":"4","last_reported":1761830690,"current_range_meters":10800,"station_id":"ce4bhgp2rcd13ifvqfd0","pricing_plan_id":"cebpf4jnsgd1na2vs0mg"},{"bike_id":"8f8bc35f-4914-4b7a-8d83-31c1009102ce","system_id":"levelo_inurba_marseille","lat":43.24622,"lon":5.43143,"is_reserved":false,"is_disabled":false,"rental_uris":{"android":"levelo://app?vid=8f8bc35f-4914-4b7a-8d83-31c1009102ce","ios":"levelo://app?vid=8f8bc35f-4914-4b7a-8d83-31c1009102ce"},"vehicle_type_id":"4","last_reported":1761830690,"current_range_meters":11200,"station_id":"st_d2m6c4gdas8pm72e190g","pricing_plan_id":"cebpf4jnsgd1na2vs0mg"},{"bike_id":"83b1d436-ff80-40a9-bafc-8737c49d1970","system_id":"levelo_inurba_marseille","lat":43.27059,"lon":5.38297,"is_reserved":false,"is_disabled":false,"rental_uris":{"android":"levelo://app?vid=83b1d436-ff80-40a9-bafc-8737c49d1970","ios":"levelo://app?vid=83b1d436-ff80-40a9-bafc-8737c49d1970"},"vehicle_type_id":"4","last_reported":1761830690,"current_range_meters":11200,"station_id":"st_d3n2fo6cfp8s73cte1j0","pricing_plan_id":"cebpf4jnsgd1na2vs0mg"},{"bike_id":"53fe9431-0315-4c72-b98d-a356e163a3bd","system_id":"levelo_inurba_marseille","lat":43.23149,"lon":5.43704,"is_reserved":false,"is_disabled":false,"rental_uris":{"android":"levelo://app?vid=53fe9431-0315-4c72-b98d-a356e163a3bd","ios":"levelo://app?vid=53fe9431-0315-4c72-b98d-a356e163a3bd"},"vehicle_type_id":"4","last_reported":1761830690,"current_range_meters":11200,"station_id":"ce4bhmp2rcd13ifvqgog","pricing_plan_id":"cebpf4jnsgd1na2vs0mg"},{"bike_id":"ad122228-a54d-4f08-8be5-9477dbb1227e","system_id":"levelo_inurba_marseille","lat":43.29516,"lon":5.39038,"is_reserved":false,"is_disabled":false,"rental_uris":{"android":"levelo://app?vid=ad122228-a54d-4f08-8be5-9477dbb1227e","ios":"levelo://app?vid=ad122228-a54d-4f08-8be5-9477dbb1227e"},"vehicle_type_id":"4","last_reported":1761830690,"current_range_meters":11200,"station_id":"ce4bh3p2rcd13ifvqdp0","pricing_plan_id":"cebpf4jnsgd1na2vs0mg"},{"bike_id":"569160a4-e207-4db9-b243-c638f0330d62","system_id":"levelo_inurba_marseille","lat":43.32109,"lon":5.3678,"is_reserved":false,"is_disabled":false,"rental_uris":{"android":"levelo://app?vid=569160a4-e207-4db9-b243-c638f0330d62","ios":"levelo://app?vid=569160a4-e207-4db9-b243-c638f0330d62"},"vehicle_type_id":"4","last_reported":1761830690,"current_range_meters":11200,"station_id":"ce4bhrh2rcd13ifvqhug","pricing_plan_id":"cebpf4jnsgd1na2vs0mg"},{"bike_id":"e671f4da-ae38-4741-ac49-c7dc0bd573f8","system_id":"levelo_inurba_marseille","lat":43.22929,"lon":5.35378,"is_reserved":false,"is_disabled":false,"rental_uris":{"android":"levelo://app?vid=e671f4da-ae38-4741-ac49-c7dc0bd573f8","ios":"levelo://app?vid=e671f4da-ae38-4741-ac49-c7dc0bd573f8"},"vehicle_type_id":"4","last_reported":1761830690,"current_range_meters":11200,"station_id":"cpo3532slgdg3j2ikp40","pricing_plan_id":"cebpf4jnsgd1na2vs0mg"},{"bike_id":"37377a57-32a3-443b-bc5a-76fa269d796d","system_id":"levelo_inurba_marseille","lat":43.29043,"lon":5.3756,"is_reserved":false,"is_disabled":false,"rental_uris":{"android":"levelo://app?vid=37377a57-32a3-443b-bc5a-76fa269d796d","ios":"levelo://app?vid=37377a57-32a3-443b-bc5a-76fa269d796d"},"vehicle_type_id":"4","last_reported":1761830690,"current_range_meters":11600,"station_id":"ce4bh692rcd13ifvqe90","pricing_plan_id":"cebpf4jnsgd1na2vs0mg"},{"bike_id":"73f5bf66-d287-4ec5-aa0c-83614cc0c9cf","system_id":"levelo_inurba_marseille","lat":43.28427,"lon":5.34989,"is_reserved":false,"is_disabled":false,"rental_uris":{"android":"levelo://app?vid=73f5bf66-d287-4ec5-aa0c-83614cc0c9cf","ios":"levelo://app?vid=73f5bf66-d287-4ec5-aa0c-83614cc0c9cf"},"vehicle_type_id":"4","last_reported":1761830690,"current_range_meters":11600,"station_id":"ce4bhbh2rcd13ifvqepg","pricing_plan_id":"cebpf4jnsgd1na2vs0mg"},{"bike_id":"6fff56e2-dc33-4322-9554-e738206d1bc0","system_id":"levelo_inurba_marseille","lat":43.21195,"lon":5.35076,"is_reserved":false,"is_disabled":false,"rental_uris":{"android":"levelo://app?vid=6fff56e2-dc33-4322-9554-e738206d1bc0","ios":"levelo://app?vid=6fff56e2-dc33-4322-9554-e738206d1bc0"},"vehicle_type_id":"4","last_reported":1761830690,"current_range_meters":12000,"station_id":"st_cvj6sg6p6f1abm77japg","pricing_plan_id":"cebpf4jnsgd1na2vs0mg"},{"bike_id":"b01217a6-f9fc-478c-8217-19dc5753c034","system_id":"levelo_inurba_marseille","lat":43.29259,"lon":5.40898,"is_reserved":false,"is_disabled":false,"rental_uris":{"android":"levelo://app?vid=b01217a6-f9fc-478c-8217-19dc5753c034","ios":"levelo://app?vid=b01217a6-f9fc-478c-8217-19dc5753c034"},"vehicle_type_id":"4","last_reported":1761830690,"current_range_meters":12000,"station_id":"ce4bh192rcd13ifvqdc0","pricing_plan_id":"cebpf4jnsgd1na2vs0mg"},{"bike_id":"d33b5f04-f0c2-4e43-9df0-b53b6f2e4e1a","system_id":"levelo_inurba_marseille","lat":43.28278,"lon":5.35059,"is_reserved":false,"is_disabled":false,"rental_uris":{"android":"levelo://app?vid=d33b5f04-f0c2-4e43-9df0-b53b6f2e4e1a","ios":"levelo://app?vid=d33b5f04-f0c2-4e43-9df0-b53b6f2e4e1a"},"vehicle_type_id":"4","last_reported":1761830690,"current_range_meters":12000,"station_id":"ce4bhbp2rcd13ifvqerg","pricing_plan_id":"cebpf4jnsgd1na2vs0mg"},{"bike_id":"5e687a70-4005-452e-bc09-3b209b87c2ee","system_id":"levelo_inurba_marseille","lat":43.291054,"lon":5.381359,"is_reserved":false,"is_disabled":false,"rental_uris":{"android":"levelo://app?vid=5e687a70-4005-452e-bc09-3b209b87c2ee","ios":"levelo://app?vid=5e687a70-4005-452e-bc09-3b209b87c2ee"},"vehicle_type_id":"4","last_reported":1761830690,"current_range_meters":12400,"station_id":"ce4bh512rcd13ifvqe2g","pricing_plan_id":"cebpf4jnsgd1na2vs0mg"},{"bike_id":"300fb684-92c3-47db-9955-01f07fe7fc73","system_id":"levelo_inurba_marseille","lat":43.2721,"lon":5.39181,"is_reserved":false,"is_disabled":false,"rental_uris":{"android":"levelo://app?vid=300fb684-92c3-47db-9955-01f07fe7fc73","ios":"levelo://app?vid=300fb684-92c3-47db-9955-01f07fe7fc73"},"vehicle_type_id":"4","last_reported":1761830690,"current_range_meters":12400,"station_id":"ce4bhhp2rcd13ifvqfm0","pricing_plan_id":"cebpf4jnsgd1na2vs0mg"},{"bike_id":"3126ce35-4101-4b06-a7b2-19548fb25089","system_id":"levelo_inurba_marseille","lat":43.21195,"lon":5.3507,"is_reserved":false,"is_disabled":false,"rental_uris":{"android":"levelo://app?vid=3126ce35-4101-4b06-a7b2-19548fb25089","ios":"levelo://app?vid=3126ce35-4101-4b06-a7b2-19548fb25089"},"vehicle_type_id":"4","last_reported":1761830690,"current_range_meters":12400,"station_id":"st_cvj6sg6p6f1abm77japg","pricing_plan_id":"cebpf4jnsgd1na2vs0mg"},{"bike_id":"f07cd2ba-00a6-48e1-8119-507baf168aae","system_id":"levelo_inurba_marseille","lat":43.26195,"lon":5.37446,"is_reserved":false,"is_disabled":false,"rental_uris":{"android":"levelo://app?vid=f07cd2ba-00a6-48e1-8119-507baf168aae","ios":"levelo://app?vid=f07cd2ba-00a6-48e1-8119-507baf168aae"},"vehicle_type_id":"4","last_reported":1761830690,"current_range_meters":12400,"station_id":"ce4bhgp2rcd13ifvqfc0","pricing_plan_id":"cebpf4jnsgd1na2vs0mg"},{"bike_id":"c96a737d-e808-4fcd-8365-8006392cdee5","system_id":"levelo_inurba_marseille","lat":43.31274,"lon":5.40169,"is_reserved":false,"is_disabled":false,"rental_uris":{"android":"levelo://app?vid=c96a737d-e808-4fcd-8365-8006392cdee5","ios":"levelo://app?vid=c96a737d-e808-4fcd-8365-8006392cdee5"},"vehicle_type_id":"4","last_reported":1761830690,"current_range_meters":12400,"station_id":"ce4bh092rcd13ifvqd30","pricing_plan_id":"cebpf4jnsgd1na2vs0mg"},{"bike_id":"c94ecbf9-cfe5-465b-999b-49fc88c67e84","system_id":"levelo_inurba_marseille","lat":43.22561,"lon":5.41628,"is_reserved":false,"is_disabled":false,"rental_uris":{"android":"levelo://app?vid=c94ecbf9-cfe5-465b-999b-49fc88c67e84","ios":"levelo://app?vid=c94ecbf9-cfe5-465b-999b-49fc88c67e84"},"vehicle_type_id":"4","last_reported":1761830690,"current_range_meters":12800,"station_id":"st_d2o4gvlbi1j2169b742g","pricing_plan_id":"cebpf4jnsgd1na2vs0mg"},{"bike_id":"a82e7080-be6f-4609-8a2f-89c25390d857","system_id":"levelo_inurba_marseille","lat":43.28254,"lon":5.35077,"is_reserved":false,"is_disabled":false,"rental_uris":{"android":"levelo://app?vid=a82e7080-be6f-4609-8a2f-89c25390d857","ios":"levelo://app?vid=a82e7080-be6f-4609-8a2f-89c25390d857"},"vehicle_type_id":"4","last_reported":1761830690,"current_range_meters":12800,"station_id":"ce4bhbp2rcd13ifvqerg","pricing_plan_id":"cebpf4jnsgd1na2vs0mg"},{"bike_id":"b0ebcac1-5b71-453f-9054-296b0c1eb846","system_id":"levelo_inurba_marseille","lat":43.28979,"lon":5.37845,"is_reserved":false,"is_disabled":false,"rental_uris":{"android":"levelo://app?vid=b0ebcac1-5b71-453f-9054-296b0c1eb846","ios":"levelo://app?vid=b0ebcac1-5b71-453f-9054-296b0c1eb846"},"vehicle_type_id":"4","last_reported":1761830690,"current_range_meters":12800,"station_id":"ce4bh9p2rcd13ifvqed0","pricing_plan_id":"cebpf4jnsgd1na2vs0mg"},{"bike_id":"9e27a133-27cb-441a-a656-ccac6386c4d0","system_id":"levelo_inurba_marseille","lat":43.29868,"lon":5.3974,"is_reserved":false,"is_disabled":false,"rental_uris":{"android":"levelo://app?vid=9e27a133-27cb-441a-a656-ccac6386c4d0","ios":"levelo://app?vid=9e27a133-27cb-441a-a656-ccac6386c4d0"},"vehicle_type_id":"4","last_reported":1761830690,"current_range_meters":12800,"station_id":"ce4bh0h2rcd13ifvqd50","pricing_plan_id":"cebpf4jnsgd1na2vs0mg"},{"bike_id":"ed13730a-3ba9-4dd0-9694-3922e9b991f1","system_id":"levelo_inurba_marseille","lat":43.26198,"lon":5.37453,"is_reserved":false,"is_disabled":false,"rental_uris":{"android":"levelo://app?vid=ed13730a-3ba9-4dd0-9694-3922e9b991f1","ios":"levelo://app?vid=ed13730a-3ba9-4dd0-9694-3922e9b991f1"},"vehicle_type_id":"4","last_reported":1761830690,"current_range_meters":12800,"station_id":"ce4bhgp2rcd13ifvqfc0","pricing_plan_id":"cebpf4jnsgd1na2vs0mg"},{"bike_id":"3c1d3cfd-193c-42cb-af4d-d787aea6ab3c","system_id":"levelo_inurba_marseille","lat":43.25941,"lon":5.4091,"is_reserved":false,"is_disabled":false,"rental_uris":{"android":"levelo://app?vid=3c1d3cfd-193c-42cb-af4d-d787aea6ab3c","ios":"levelo://app?vid=3c1d3cfd-193c-42cb-af4d-d787aea6ab3c"},"vehicle_type_id":"4","last_reported":1761830690,"current_range_meters":12800,"station_id":"ce4bhm92rcd13ifvqglg","pricing_plan_id":"cebpf4jnsgd1na2vs0mg"},{"bike_id":"a4a81a3a-b1a5-4e69-b8f2-fc130ffc3362","system_id":"levelo_inurba_marseille","lat":43.26554,"lon":5.37293,"is_reserved":false,"is_disabled":false,"rental_uris":{"android":"levelo://app?vid=a4a81a3a-b1a5-4e69-b8f2-fc130ffc3362","ios":"levelo://app?vid=a4a81a3a-b1a5-4e69-b8f2-fc130ffc3362"},"vehicle_type_id":"4","last_reported":1761830690,"current_range_meters":12800,"station_id":"ce4bhg12rcd13ifvqf70","pricing_plan_id":"cebpf4jnsgd1na2vs0mg"},{"bike_id":"7168787f-424e-4fa3-a19a-a58bbe8bc4c9","system_id":"levelo_inurba_marseille","lat":43.3053,"lon":5.3671,"is_reserved":false,"is_disabled":false,"rental_uris":{"android":"levelo://app?vid=7168787f-424e-4fa3-a19a-a58bbe8bc4c9","ios":"levelo://app?vid=7168787f-424e-4fa3-a19a-a58bbe8bc4c9"},"vehicle_type_id":"4","last_reported":1761830690,"current_range_meters":12800,"station_id":"ce4bgrp2rcd13ifvqc9g","pricing_plan_id":"cebpf4jnsgd1na2vs0mg"},{"bike_id":"63914de2-844e-4870-92dd-678c91a05c94","system_id":"levelo_inurba_marseille","lat":43.27564,"lon":5.38432,"is_reserved":false,"is_disabled":false,"rental_uris":{"android":"levelo://app?vid=63914de2-844e-4870-92dd-678c91a05c94","ios":"levelo://app?vid=63914de2-844e-4870-92dd-678c91a05c94"},"vehicle_type_id":"4","last_reported":1761830690,"current_range_meters":12800,"station_id":"ce4bhh92rcd13ifvqfi0","pricing_plan_id":"cebpf4jnsgd1na2vs0mg"},{"bike_id":"86c193ed-e97a-463b-a260-c4a737ea768c","system_id":"levelo_inurba_marseille","lat":43.2534,"lon":5.42172,"is_reserved":false,"is_disabled":false,"rental_uris":{"android":"levelo://app?vid=86c193ed-e97a-463b-a260-c4a737ea768c","ios":"levelo://app?vid=86c193ed-e97a-463b-a260-c4a737ea768c"},"vehicle_type_id":"4","last_reported":1761830690,"current_range_meters":13600,"station_id":"st_d2m65c5bi1j21697t3ng","pricing_plan_id":"cebpf4jnsgd1na2vs0mg"},{"bike_id":"75df00d1-b79d-4514-b45c-0d363788a217","system_id":"levelo_inurba_marseille","lat":43.32105,"lon":5.367758,"is_reserved":false,"is_disabled":false,"rental_uris":{"android":"levelo://app?vid=75df00d1-b79d-4514-b45c-0d363788a217","ios":"levelo://app?vid=75df00d1-b79d-4514-b45c-0d363788a217"},"vehicle_type_id":"4","last_reported":1761830690,"current_range_meters":13600,"station_id":"ce4bhrh2rcd13ifvqhug","pricing_plan_id":"cebpf4jnsgd1na2vs0mg"},{"bike_id":"7978f145-69d9-4185-9f5d-5e890c8bfd83","system_id":"levelo_inurba_marseille","lat":43.29779,"lon":5.37135,"is_reserved":false,"is_disabled":false,"rental_uris":{"android":"levelo://app?vid=7978f145-69d9-4185-9f5d-5e890c8bfd83","ios":"levelo://app?vid=7978f145-69d9-4185-9f5d-5e890c8bfd83"},"vehicle_type_id":"4","last_reported":1761830690,"current_range_meters":13600,"station_id":"ce4bgop2rcd13ifvqc1g","pricing_plan_id":"cebpf4jnsgd1na2vs0mg"},{"bike_id":"fcb4b3a8-e2e3-4af1-af0e-9c8d6eaa56fd","system_id":"levelo_inurba_marseille","lat":43.29582,"lon":5.36746,"is_reserved":false,"is_disabled":false,"rental_uris":{"android":"levelo://app?vid=fcb4b3a8-e2e3-4af1-af0e-9c8d6eaa56fd","ios":"levelo://app?vid=fcb4b3a8-e2e3-4af1-af0e-9c8d6eaa56fd"},"vehicle_type_id":"4","last_reported":1761830690,"current_range_meters":13600,"station_id":"ce4bgph2rcd13ifvqc2g","pricing_plan_id":"cebpf4jnsgd1na2vs0mg"},{"bike_id":"de06682a-6170-4bf8-8a24-7c599400699f","system_id":"levelo_inurba_marseille","lat":43.29081,"lon":5.37154,"is_reserved":false,"is_disabled":false,"rental_uris":{"android":"levelo://app?vid=de06682a-6170-4bf8-8a24-7c599400699f","ios":"levelo://app?vid=de06682a-6170-4bf8-8a24-7c599400699f"},"vehicle_type_id":"4","last_reported":1761830690,"current_range_meters":13600,"station_id":"ce4bh5p2rcd13ifvqe4g","pricing_plan_id":"cebpf4jnsgd1na2vs0mg"},{"bike_id":"3a499934-9140-435e-968f-fa10dd280f36","system_id":"levelo_inurba_marseille","lat":43.24624,"lon":5.43192,"is_reserved":false,"is_disabled":false,"rental_uris":{"android":"levelo://app?vid=3a499934-9140-435e-968f-fa10dd280f36","ios":"levelo://app?vid=3a499934-9140-435e-968f-fa10dd280f36"},"vehicle_type_id":"4","last_reported":1761830690,"current_range_meters":14000,"station_id":"st_d2m6c4gdas8pm72e190g","pricing_plan_id":"cebpf4jnsgd1na2vs0mg"},{"bike_id":"a61b4572-9954-40d8-9831-b0de7d1fc47b","system_id":"levelo_inurba_marseille","lat":43.296296,"lon":5.377194,"is_reserved":false,"is_disabled":false,"rental_uris":{"android":"levelo://app?vid=a61b4572-9954-40d8-9831-b0de7d1fc47b","ios":"levelo://app?vid=a61b4572-9954-40d8-9831-b0de7d1fc47b"},"vehicle_type_id":"4","last_reported":1761830690,"current_range_meters":14000,"station_id":"","pricing_plan_id":"cebpf4jnsgd1na2vs0mg"},{"bike_id":"15e2c5dd-bae1-46fb-906a-d29fa37d6e53","system_id":"levelo_inurba_marseille","lat":43.31321,"lon":5.37281,"is_reserved":false,"is_disabled":false,"rental_uris":{"android":"levelo://app?vid=15e2c5dd-bae1-46fb-906a-d29fa37d6e53","ios":"levelo://app?vid=15e2c5dd-bae1-46fb-906a-d29fa37d6e53"},"vehicle_type_id":"4","last_reported":1761830690,"current_range_meters":14000,"station_id":"","pricing_plan_id":"cebpf4jnsgd1na2vs0mg"},{"bike_id":"ac44c3cb-1474-47c8-9c7f-5eb4155ef2f9","system_id":"levelo_inurba_marseille","lat":43.24649,"lon":5.38898,"is_reserved":false,"is_disabled":false,"rental_uris":{"android":"levelo://app?vid=ac44c3cb-1474-47c8-9c7f-5eb4155ef2f9","ios":"levelo://app?vid=ac44c3cb-1474-47c8-9c7f-5eb4155ef2f9"},"vehicle_type_id":"4","last_reported":1761830690,"current_range_meters":14400,"station_id":"ce4bhg12rcd13ifvqf60","pricing_plan_id":"cebpf4jnsgd1na2vs0mg"},{"bike_id":"0c003ebf-0f85-4149-8935-7c08c6a5cd23","system_id":"levelo_inurba_marseille","lat":43.24175,"lon":5.364,"is_reserved":false,"is_disabled":false,"rental_uris":{"android":"levelo://app?vid=0c003ebf-0f85-4149-8935-7c08c6a5cd23","ios":"levelo://app?vid=0c003ebf-0f85-4149-8935-7c08c6a5cd23"},"vehicle_type_id":"4","last_reported":1761830690,"current_range_meters":14400,"station_id":"cpo36qri1sfpv3e86is0","pricing_plan_id":"cebpf4jnsgd1na2vs0mg"},{"bike_id":"ece027da-824a-47d0-bc54-5da75c26caf2","system_id":"levelo_inurba_marseille","lat":43.3054,"lon":5.36703,"is_reserved":false,"is_disabled":false,"rental_uris":{"android":"levelo://app?vid=ece027da-824a-47d0-bc54-5da75c26caf2","ios":"levelo://app?vid=ece027da-824a-47d0-bc54-5da75c26caf2"},"vehicle_type_id":"4","last_reported":1761830690,"current_range_meters":14400,"station_id":"ce4bgrp2rcd13ifvqc9g","pricing_plan_id":"cebpf4jnsgd1na2vs0mg"},{"bike_id":"87f07427-7afa-4c61-8863-cee86bfb2232","system_id":"levelo_inurba_marseille","lat":43.27197,"lon":5.4099,"is_reserved":false,"is_disabled":false,"rental_uris":{"android":"levelo://app?vid=87f07427-7afa-4c61-8863-cee86bfb2232","ios":"levelo://app?vid=87f07427-7afa-4c61-8863-cee86bfb2232"},"vehicle_type_id":"4","last_reported":1761830690,"current_range_meters":14400,"station_id":"ce4bhl12rcd13ifvqgf0","pricing_plan_id":"cebpf4jnsgd1na2vs0mg"},{"bike_id":"868c9f67-46db-40c2-8054-2388a5f9841e","system_id":"levelo_inurba_marseille","lat":43.32367,"lon":5.36736,"is_reserved":false,"is_disabled":false,"rental_uris":{"android":"levelo://app?vid=868c9f67-46db-40c2-8054-2388a5f9841e","ios":"levelo://app?vid=868c9f67-46db-40c2-8054-2388a5f9841e"},"vehicle_type_id":"4","last_reported":1761830690,"current_range_meters":14400,"station_id":"ce4bhsh2rcd13ifvqi2g","pricing_plan_id":"cebpf4jnsgd1na2vs0mg"},{"bike_id":"f6946de9-6fd5-486c-846e-6aac0ac8e59f","system_id":"levelo_inurba_marseille","lat":43.21194,"lon":5.35076,"is_reserved":false,"is_disabled":false,"rental_uris":{"android":"levelo://app?vid=f6946de9-6fd5-486c-846e-6aac0ac8e59f","ios":"levelo://app?vid=f6946de9-6fd5-486c-846e-6aac0ac8e59f"},"vehicle_type_id":"4","last_reported":1761830690,"current_range_meters":14400,"station_id":"st_cvj6sg6p6f1abm77japg","pricing_plan_id":"cebpf4jnsgd1na2vs0mg"},{"bike_id":"b9d9dba1-2937-49d0-ae3f-073d6a94b728","system_id":"levelo_inurba_marseille","lat":43.302277,"lon":5.395111,"is_reserved":false,"is_disabled":false,"rental_uris":{"android":"levelo://app?vid=b9d9dba1-2937-49d0-ae3f-073d6a94b728","ios":"levelo://app?vid=b9d9dba1-2937-49d0-ae3f-073d6a94b728"},"vehicle_type_id":"4","last_reported":1761830690,"current_range_meters":14800,"station_id":"","pricing_plan_id":"cebpf4jnsgd1na2vs0mg"},{"bike_id":"a18dbf48-2c4d-4fa4-a4c5-c9871d73c9a0","system_id":"levelo_inurba_marseille","lat":43.301994,"lon":5.383462,"is_reserved":false,"is_disabled":false,"rental_uris":{"android":"levelo://app?vid=a18dbf48-2c4d-4fa4-a4c5-c9871d73c9a0","ios":"levelo://app?vid=a18dbf48-2c4d-4fa4-a4c5-c9871d73c9a0"},"vehicle_type_id":"4","last_reported":1761830690,"current_range_meters":14800,"station_id":"ce4bgup2rcd13ifvqcn0","pricing_plan_id":"cebpf4jnsgd1na2vs0mg"},{"bike_id":"f7bf2b65-fe3a-488d-9335-b98fa635ad13","system_id":"levelo_inurba_marseille","lat":43.27059,"lon":5.40268,"is_reserved":false,"is_disabled":false,"rental_uris":{"android":"levelo://app?vid=f7bf2b65-fe3a-488d-9335-b98fa635ad13","ios":"levelo://app?vid=f7bf2b65-fe3a-488d-9335-b98fa635ad13"},"vehicle_type_id":"4","last_reported":1761830690,"current_range_meters":14800,"station_id":"ce4bhk92rcd13ifvqgc0","pricing_plan_id":"cebpf4jnsgd1na2vs0mg"},{"bike_id":"14714d93-c04e-43cb-b803-62fe0b7aab38","system_id":"levelo_inurba_marseille","lat":43.28265,"lon":5.3506,"is_reserved":false,"is_disabled":false,"rental_uris":{"android":"levelo://app?vid=14714d93-c04e-43cb-b803-62fe0b7aab38","ios":"levelo://app?vid=14714d93-c04e-43cb-b803-62fe0b7aab38"},"vehicle_type_id":"4","last_reported":1761830690,"current_range_meters":14800,"station_id":"ce4bhbp2rcd13ifvqerg","pricing_plan_id":"cebpf4jnsgd1na2vs0mg"},{"bike_id":"6e24cad3-9399-4551-85f8-ff3e0dd147bd","system_id":"levelo_inurba_marseille","lat":43.267736,"lon":5.393999,"is_reserved":false,"is_disabled":false,"rental_uris":{"android":"levelo://app?vid=6e24cad3-9399-4551-85f8-ff3e0dd147bd","ios":"levelo://app?vid=6e24cad3-9399-4551-85f8-ff3e0dd147bd"},"vehicle_type_id":"4","last_reported":1761830690,"current_range_meters":15200,"station_id":"ce4bhh12rcd13ifvqfg0","pricing_plan_id":"cebpf4jnsgd1na2vs0mg"},{"bike_id":"092c4099-4149-48b1-85f7-36ede0238c2b","system_id":"levelo_inurba_marseille","lat":43.273801,"lon":5.362358,"is_reserved":false,"is_disabled":true,"rental_uris":{"android":"levelo://app?vid=092c4099-4149-48b1-85f7-36ede0238c2b","ios":"levelo://app?vid=092c4099-4149-48b1-85f7-36ede0238c2b"},"vehicle_type_id":"4","last_reported":1761830690,"current_range_meters":15200,"station_id":"","pricing_plan_id":"cebpf4jnsgd1na2vs0mg"},{"bike_id":"79ab418a-79c0-4a6e-993b-761280f132d6","system_id":"levelo_inurba_marseille","lat":43.284839,"lon":5.485351,"is_reserved":false,"is_disabled":false,"rental_uris":{"android":"levelo://app?vid=79ab418a-79c0-4a6e-993b-761280f132d6","ios":"levelo://app?vid=79ab418a-79c0-4a6e-993b-761280f132d6"},"vehicle_type_id":"4","last_reported":1761830690,"current_range_meters":16000,"station_id":"","pricing_plan_id":"cebpf4jnsgd1na2vs0mg"},{"bike_id":"270e153b-82b6-4dce-acea-37ee94b03dc9","system_id":"levelo_inurba_marseille","lat":43.29102,"lon":5.38145,"is_reserved":false,"is_disabled":false,"rental_uris":{"android":"levelo://app?vid=270e153b-82b6-4dce-acea-37ee94b03dc9","ios":"levelo://app?vid=270e153b-82b6-4dce-acea-37ee94b03dc9"},"vehicle_type_id":"4","last_reported":1761830690,"current_range_meters":16000,"station_id":"ce4bh512rcd13ifvqe2g","pricing_plan_id":"cebpf4jnsgd1na2vs0mg"},{"bike_id":"52a753d3-3ac4-4caa-88bc-c038122b2bbb","system_id":"levelo_inurba_marseille","lat":43.2622,"lon":5.40442,"is_reserved":false,"is_disabled":false,"rental_uris":{"android":"levelo://app?vid=52a753d3-3ac4-4caa-88bc-c038122b2bbb","ios":"levelo://app?vid=52a753d3-3ac4-4caa-88bc-c038122b2bbb"},"vehicle_type_id":"4","last_reported":1761830690,"current_range_meters":16000,"station_id":"ce4bhmh2rcd13ifvqgmg","pricing_plan_id":"cebpf4jnsgd1na2vs0mg"},{"bike_id":"e1252454-a1ba-426b-a8ba-f03e55e94a38","system_id":"levelo_inurba_marseille","lat":43.31279,"lon":5.40179,"is_reserved":false,"is_disabled":false,"rental_uris":{"android":"levelo://app?vid=e1252454-a1ba-426b-a8ba-f03e55e94a38","ios":"levelo://app?vid=e1252454-a1ba-426b-a8ba-f03e55e94a38"},"vehicle_type_id":"4","last_reported":1761830690,"current_range_meters":16000,"station_id":"ce4bh092rcd13ifvqd30","pricing_plan_id":"cebpf4jnsgd1na2vs0mg"},{"bike_id":"8aefa4c0-8c17-4097-a24f-1a812a4b9734","system_id":"levelo_inurba_marseille","lat":43.287212,"lon":5.360834,"is_reserved":false,"is_disabled":false,"rental_uris":{"android":"levelo://app?vid=8aefa4c0-8c17-4097-a24f-1a812a4b9734","ios":"levelo://app?vid=8aefa4c0-8c17-4097-a24f-1a812a4b9734"},"vehicle_type_id":"4","last_reported":1761830690,"current_range_meters":16400,"station_id":"cki0cbj6b192h4jlfktg","pricing_plan_id":"cebpf4jnsgd1na2vs0mg"},{"bike_id":"9b93b5e1-c939-4745-bf85-2d21945442dc","system_id":"levelo_inurba_marseille","lat":43.29996,"lon":5.36406,"is_reserved":false,"is_disabled":false,"rental_uris":{"android":"levelo://app?vid=9b93b5e1-c939-4745-bf85-2d21945442dc","ios":"levelo://app?vid=9b93b5e1-c939-4745-bf85-2d21945442dc"},"vehicle_type_id":"4","last_reported":1761830690,"current_range_meters":16400,"station_id":"","pricing_plan_id":"cebpf4jnsgd1na2vs0mg"},{"bike_id":"932ad1c2-4305-4dbf-ad9d-624ed36a7479","system_id":"levelo_inurba_marseille","lat":43.30107,"lon":5.38753,"is_reserved":false,"is_disabled":false,"rental_uris":{"android":"levelo://app?vid=932ad1c2-4305-4dbf-ad9d-624ed36a7479","ios":"levelo://app?vid=932ad1c2-4305-4dbf-ad9d-624ed36a7479"},"vehicle_type_id":"4","last_reported":1761830690,"current_range_meters":16400,"station_id":"","pricing_plan_id":"cebpf4jnsgd1na2vs0mg"},{"bike_id":"943e6ccb-7e0e-4389-97d3-f143ef36a9cc","system_id":"levelo_inurba_marseille","lat":43.29226,"lon":5.36061,"is_reserved":false,"is_disabled":false,"rental_uris":{"android":"levelo://app?vid=943e6ccb-7e0e-4389-97d3-f143ef36a9cc","ios":"levelo://app?vid=943e6ccb-7e0e-4389-97d3-f143ef36a9cc"},"vehicle_type_id":"4","last_reported":1761830690,"current_range_meters":16400,"station_id":"ce4bhbh2rcd13ifvqeqg","pricing_plan_id":"cebpf4jnsgd1na2vs0mg"},{"bike_id":"2066940c-fadd-42d2-838f-906688eff7c5","system_id":"levelo_inurba_marseille","lat":43.2798,"lon":5.3875,"is_reserved":false,"is_disabled":false,"rental_uris":{"android":"levelo://app?vid=2066940c-fadd-42d2-838f-906688eff7c5","ios":"levelo://app?vid=2066940c-fadd-42d2-838f-906688eff7c5"},"vehicle_type_id":"4","last_reported":1761830690,"current_range_meters":16400,"station_id":"ce4bhg12rcd13ifvqf80","pricing_plan_id":"cebpf4jnsgd1na2vs0mg"},{"bike_id":"667a4a8e-bd76-4fb1-b40f-6d82b3d1d948","system_id":"levelo_inurba_marseille","lat":43.31563,"lon":5.38769,"is_reserved":false,"is_disabled":false,"rental_uris":{"android":"levelo://app?vid=667a4a8e-bd76-4fb1-b40f-6d82b3d1d948","ios":"levelo://app?vid=667a4a8e-bd76-4fb1-b40f-6d82b3d1d948"},"vehicle_type_id":"4","last_reported":1761830690,"current_range_meters":16400,"station_id":"","pricing_plan_id":"cebpf4jnsgd1na2vs0mg"},{"bike_id":"655ccb14-dcef-4daa-8efd-f53d4afb1d70","system_id":"levelo_inurba_marseille","lat":43.30609,"lon":5.37225,"is_reserved":false,"is_disabled":false,"rental_uris":{"android":"levelo://app?vid=655ccb14-dcef-4daa-8efd-f53d4afb1d70","ios":"levelo://app?vid=655ccb14-dcef-4daa-8efd-f53d4afb1d70"},"vehicle_type_id":"4","last_reported":1761830690,"current_range_meters":16400,"station_id":"ce4bgqh2rcd13ifvqc4g","pricing_plan_id":"cebpf4jnsgd1na2vs0mg"},{"bike_id":"7059abfa-bba6-43b2-8c14-96f92d7be186","system_id":"levelo_inurba_marseille","lat":43.309143,"lon":5.368475,"is_reserved":false,"is_disabled":false,"rental_uris":{"android":"levelo://app?vid=7059abfa-bba6-43b2-8c14-96f92d7be186","ios":"levelo://app?vid=7059abfa-bba6-43b2-8c14-96f92d7be186"},"vehicle_type_id":"4","last_reported":1761830690,"current_range_meters":16400,"station_id":"ce4bgn92rcd13ifvqbvg","pricing_plan_id":"cebpf4jnsgd1na2vs0mg"},{"bike_id":"e1dbd190-5267-4d72-befa-df28aabbe041","system_id":"levelo_inurba_marseille","lat":43.26893,"lon":5.36825,"is_reserved":false,"is_disabled":false,"rental_uris":{"android":"levelo://app?vid=e1dbd190-5267-4d72-befa-df28aabbe041","ios":"levelo://app?vid=e1dbd190-5267-4d72-befa-df28aabbe041"},"vehicle_type_id":"4","last_reported":1761830690,"current_range_meters":16400,"station_id":"","pricing_plan_id":"cebpf4jnsgd1na2vs0mg"},{"bike_id":"2fd86c53-d195-4ab3-a5e6-984f6c0f4c38","system_id":"levelo_inurba_marseille","lat":43.26572,"lon":5.37291,"is_reserved":false,"is_disabled":false,"rental_uris":{"android":"levelo://app?vid=2fd86c53-d195-4ab3-a5e6-984f6c0f4c38","ios":"levelo://app?vid=2fd86c53-d195-4ab3-a5e6-984f6c0f4c38"},"vehicle_type_id":"4","last_reported":1761830690,"current_range_meters":16800,"station_id":"ce4bhg12rcd13ifvqf70","pricing_plan_id":"cebpf4jnsgd1na2vs0mg"},{"bike_id":"13b5bebc-2277-4643-9efc-b419c3a09bbd","system_id":"levelo_inurba_marseille","lat":43.22935,"lon":5.35374,"is_reserved":false,"is_disabled":false,"rental_uris":{"android":"levelo://app?vid=13b5bebc-2277-4643-9efc-b419c3a09bbd","ios":"levelo://app?vid=13b5bebc-2277-4643-9efc-b419c3a09bbd"},"vehicle_type_id":"4","last_reported":1761830690,"current_range_meters":16800,"station_id":"cpo3532slgdg3j2ikp40","pricing_plan_id":"cebpf4jnsgd1na2vs0mg"},{"bike_id":"97794487-3da7-498c-a86f-07b00b4bb17f","system_id":"levelo_inurba_marseille","lat":43.24966,"lon":5.38929,"is_reserved":false,"is_disabled":false,"rental_uris":{"android":"levelo://app?vid=97794487-3da7-498c-a86f-07b00b4bb17f","ios":"levelo://app?vid=97794487-3da7-498c-a86f-07b00b4bb17f"},"vehicle_type_id":"4","last_reported":1761830690,"current_range_meters":16800,"station_id":"ce4bhgp2rcd13ifvqfd0","pricing_plan_id":"cebpf4jnsgd1na2vs0mg"},{"bike_id":"c2b29e2a-9ddf-4599-9569-ebeda3771708","system_id":"levelo_inurba_marseille","lat":43.2118,"lon":5.35099,"is_reserved":false,"is_disabled":false,"rental_uris":{"android":"levelo://app?vid=c2b29e2a-9ddf-4599-9569-ebeda3771708","ios":"levelo://app?vid=c2b29e2a-9ddf-4599-9569-ebeda3771708"},"vehicle_type_id":"4","last_reported":1761830690,"current_range_meters":16800,"station_id":"st_cvj6sg6p6f1abm77japg","pricing_plan_id":"cebpf4jnsgd1na2vs0mg"},{"bike_id":"8bd76c8d-f5a7-49ff-b58b-3b6e9febc7f1","system_id":"levelo_inurba_marseille","lat":43.28533,"lon":5.44103,"is_reserved":false,"is_disabled":false,"rental_uris":{"android":"levelo://app?vid=8bd76c8d-f5a7-49ff-b58b-3b6e9febc7f1","ios":"levelo://app?vid=8bd76c8d-f5a7-49ff-b58b-3b6e9febc7f1"},"vehicle_type_id":"4","last_reported":1761830690,"current_range_meters":16800,"station_id":"st_d3j3df2ikq2c7380ej80","pricing_plan_id":"cebpf4jnsgd1na2vs0mg"},{"bike_id":"43602c37-7763-4b0c-9efc-820bd499d789","system_id":"levelo_inurba_marseille","lat":43.26704,"lon":5.38218,"is_reserved":false,"is_disabled":false,"rental_uris":{"android":"levelo://app?vid=43602c37-7763-4b0c-9efc-820bd499d789","ios":"levelo://app?vid=43602c37-7763-4b0c-9efc-820bd499d789"},"vehicle_type_id":"4","last_reported":1761830690,"current_range_meters":16800,"station_id":"ce4bhg92rcd13ifvqf90","pricing_plan_id":"cebpf4jnsgd1na2vs0mg"},{"bike_id":"c1b80a2d-4c09-4897-a6de-d7dc582f3acd","system_id":"levelo_inurba_marseille","lat":43.30293,"lon":5.37713,"is_reserved":false,"is_disabled":false,"rental_uris":{"android":"levelo://app?vid=c1b80a2d-4c09-4897-a6de-d7dc582f3acd","ios":"levelo://app?vid=c1b80a2d-4c09-4897-a6de-d7dc582f3acd"},"vehicle_type_id":"4","last_reported":1761830690,"current_range_meters":16800,"station_id":"ce4bguh2rcd13ifvqcj0","pricing_plan_id":"cebpf4jnsgd1na2vs0mg"},{"bike_id":"201e2a4c-73e3-4f87-93fe-8854747b415c","system_id":"levelo_inurba_marseille","lat":43.30181,"lon":5.3745,"is_reserved":false,"is_disabled":false,"rental_uris":{"android":"levelo://app?vid=201e2a4c-73e3-4f87-93fe-8854747b415c","ios":"levelo://app?vid=201e2a4c-73e3-4f87-93fe-8854747b415c"},"vehicle_type_id":"4","last_reported":1761830690,"current_range_meters":16800,"station_id":"","pricing_plan_id":"cebpf4jnsgd1na2vs0mg"},{"bike_id":"9a8c6b52-40de-40a8-961b-f25b9a19491b","system_id":"levelo_inurba_marseille","lat":43.27055,"lon":5.42315,"is_reserved":false,"is_disabled":false,"rental_uris":{"android":"levelo://app?vid=9a8c6b52-40de-40a8-961b-f25b9a19491b","ios":"levelo://app?vid=9a8c6b52-40de-40a8-961b-f25b9a19491b"},"vehicle_type_id":"4","last_reported":1761830690,"current_range_meters":17200,"station_id":"ce4bhk92rcd13ifvqgb0","pricing_plan_id":"cebpf4jnsgd1na2vs0mg"},{"bike_id":"5d317c75-5640-4a39-9b5f-c239e3feaeb6","system_id":"levelo_inurba_marseille","lat":43.23143,"lon":5.43736,"is_reserved":false,"is_disabled":false,"rental_uris":{"android":"levelo://app?vid=5d317c75-5640-4a39-9b5f-c239e3feaeb6","ios":"levelo://app?vid=5d317c75-5640-4a39-9b5f-c239e3feaeb6"},"vehicle_type_id":"4","last_reported":1761830690,"current_range_meters":17200,"station_id":"ce4bhmp2rcd13ifvqgog","pricing_plan_id":"cebpf4jnsgd1na2vs0mg"},{"bike_id":"da8f56d5-8503-4e9c-a707-120b62152f8f","system_id":"levelo_inurba_marseille","lat":43.30483,"lon":5.37892,"is_reserved":false,"is_disabled":false,"rental_uris":{"android":"levelo://app?vid=da8f56d5-8503-4e9c-a707-120b62152f8f","ios":"levelo://app?vid=da8f56d5-8503-4e9c-a707-120b62152f8f"},"vehicle_type_id":"4","last_reported":1761830690,"current_range_meters":17200,"station_id":"ce4bgup2rcd13ifvqcn0","pricing_plan_id":"cebpf4jnsgd1na2vs0mg"},{"bike_id":"562b7e74-2065-4a33-8ea3-3cb60ad24f49","system_id":"levelo_inurba_marseille","lat":43.30151,"lon":5.38101,"is_reserved":false,"is_disabled":false,"rental_uris":{"android":"levelo://app?vid=562b7e74-2065-4a33-8ea3-3cb60ad24f49","ios":"levelo://app?vid=562b7e74-2065-4a33-8ea3-3cb60ad24f49"},"vehicle_type_id":"4","last_reported":1761830690,"current_range_meters":17200,"station_id":"ce4bgjp2rcd13ifvqbh0","pricing_plan_id":"cebpf4jnsgd1na2vs0mg"},{"bike_id":"6132fbb0-fb1f-4c42-a930-257bf68886c2","system_id":"levelo_inurba_marseille","lat":43.30889,"lon":5.36873,"is_reserved":false,"is_disabled":false,"rental_uris":{"android":"levelo://app?vid=6132fbb0-fb1f-4c42-a930-257bf68886c2","ios":"levelo://app?vid=6132fbb0-fb1f-4c42-a930-257bf68886c2"},"vehicle_type_id":"4","last_reported":1761830690,"current_range_meters":17200,"station_id":"ce4bgn92rcd13ifvqbvg","pricing_plan_id":"cebpf4jnsgd1na2vs0mg"},{"bike_id":"88327406-ba65-4ce0-831c-3da476dbb691","system_id":"levelo_inurba_marseille","lat":43.2384,"lon":5.36692,"is_reserved":false,"is_disabled":false,"rental_uris":{"android":"levelo://app?vid=88327406-ba65-4ce0-831c-3da476dbb691","ios":"levelo://app?vid=88327406-ba65-4ce0-831c-3da476dbb691"},"vehicle_type_id":"4","last_reported":1761830690,"current_range_meters":17200,"station_id":"st_d3nk18o9ro0c73en2l3g","pricing_plan_id":"cebpf4jnsgd1na2vs0mg"},{"bike_id":"da0420b8-69e2-4ddf-9915-f492ed723756","system_id":"levelo_inurba_marseille","lat":43.30175,"lon":5.36619,"is_reserved":false,"is_disabled":false,"rental_uris":{"android":"levelo://app?vid=da0420b8-69e2-4ddf-9915-f492ed723756","ios":"levelo://app?vid=da0420b8-69e2-4ddf-9915-f492ed723756"},"vehicle_type_id":"4","last_reported":1761830690,"current_range_meters":17200,"station_id":"ce4bgrh2rcd13ifvqc8g","pricing_plan_id":"cebpf4jnsgd1na2vs0mg"},{"bike_id":"9ea9f5b7-d963-4546-b85c-1d443d48cac7","system_id":"levelo_inurba_marseille","lat":43.27209,"lon":5.39188,"is_reserved":false,"is_disabled":true,"rental_uris":{"android":"levelo://app?vid=9ea9f5b7-d963-4546-b85c-1d443d48cac7","ios":"levelo://app?vid=9ea9f5b7-d963-4546-b85c-1d443d48cac7"},"vehicle_type_id":"4","last_reported":1761830690,"current_range_meters":17200,"station_id":"ce4bhhp2rcd13ifvqfm0","pricing_plan_id":"cebpf4jnsgd1na2vs0mg"},{"bike_id":"023d82d1-0cbb-48b4-aa62-09df23f032ec","system_id":"levelo_inurba_marseille","lat":43.25504,"lon":5.37673,"is_reserved":false,"is_disabled":false,"rental_uris":{"android":"levelo://app?vid=023d82d1-0cbb-48b4-aa62-09df23f032ec","ios":"levelo://app?vid=023d82d1-0cbb-48b4-aa62-09df23f032ec"},"vehicle_type_id":"4","last_reported":1761830690,"current_range_meters":17200,"station_id":"ce4bhh12rcd13ifvqff0","pricing_plan_id":"cebpf4jnsgd1na2vs0mg"},{"bike_id":"f3102c00-09da-4802-aeb1-9a3fd79fc2a1","system_id":"levelo_inurba_marseille","lat":43.30333,"lon":5.40435,"is_reserved":false,"is_disabled":false,"rental_uris":{"android":"levelo://app?vid=f3102c00-09da-4802-aeb1-9a3fd79fc2a1","ios":"levelo://app?vid=f3102c00-09da-4802-aeb1-9a3fd79fc2a1"},"vehicle_type_id":"4","last_reported":1761830690,"current_range_meters":17200,"station_id":"ce4bh012rcd13ifvqd10","pricing_plan_id":"cebpf4jnsgd1na2vs0mg"},{"bike_id":"554f1e7c-3bf8-4dca-9530-f74bddc64a48","system_id":"levelo_inurba_marseille","lat":43.30557,"lon":5.36534,"is_reserved":false,"is_disabled":false,"rental_uris":{"android":"levelo://app?vid=554f1e7c-3bf8-4dca-9530-f74bddc64a48","ios":"levelo://app?vid=554f1e7c-3bf8-4dca-9530-f74bddc64a48"},"vehicle_type_id":"4","last_reported":1761830690,"current_range_meters":17200,"station_id":"ce4bgs12rcd13ifvqcag","pricing_plan_id":"cebpf4jnsgd1na2vs0mg"},{"bike_id":"216e46ca-be00-4e8e-a1e1-fb94531ee1ae","system_id":"levelo_inurba_marseille","lat":43.29549,"lon":5.42261,"is_reserved":false,"is_disabled":true,"rental_uris":{"android":"levelo://app?vid=216e46ca-be00-4e8e-a1e1-fb94531ee1ae","ios":"levelo://app?vid=216e46ca-be00-4e8e-a1e1-fb94531ee1ae"},"vehicle_type_id":"4","last_reported":1761830690,"current_range_meters":17600,"station_id":"ce4bhph2rcd13ifvqhdg","pricing_plan_id":"cebpf4jnsgd1na2vs0mg"},{"bike_id":"5daf93ab-fa83-4ab5-813b-60e2a25ae534","system_id":"levelo_inurba_marseille","lat":43.295314,"lon":5.385373,"is_reserved":false,"is_disabled":false,"rental_uris":{"android":"levelo://app?vid=5daf93ab-fa83-4ab5-813b-60e2a25ae534","ios":"levelo://app?vid=5daf93ab-fa83-4ab5-813b-60e2a25ae534"},"vehicle_type_id":"4","last_reported":1761830690,"current_range_meters":17600,"station_id":"ce4bgih2rcd13ifvqba0","pricing_plan_id":"cebpf4jnsgd1na2vs0mg"},{"bike_id":"20f4b636-0263-461f-8528-cd153df38e8b","system_id":"levelo_inurba_marseille","lat":43.24989,"lon":5.38972,"is_reserved":false,"is_disabled":false,"rental_uris":{"android":"levelo://app?vid=20f4b636-0263-461f-8528-cd153df38e8b","ios":"levelo://app?vid=20f4b636-0263-461f-8528-cd153df38e8b"},"vehicle_type_id":"4","last_reported":1761830690,"current_range_meters":17600,"station_id":"ce4bhgp2rcd13ifvqfd0","pricing_plan_id":"cebpf4jnsgd1na2vs0mg"},{"bike_id":"05986b28-4ed8-4668-a9d9-55ba6965e46a","system_id":"levelo_inurba_marseille","lat":43.304605,"lon":5.379006,"is_reserved":false,"is_disabled":false,"rental_uris":{"android":"levelo://app?vid=05986b28-4ed8-4668-a9d9-55ba6965e46a","ios":"levelo://app?vid=05986b28-4ed8-4668-a9d9-55ba6965e46a"},"vehicle_type_id":"4","last_reported":1761830690,"current_range_meters":17600,"station_id":"ce4bgup2rcd13ifvqcn0","pricing_plan_id":"cebpf4jnsgd1na2vs0mg"},{"bike_id":"c06b9c1d-7930-4ba5-a9ef-a57806682170","system_id":"levelo_inurba_marseille","lat":43.29297,"lon":5.37468,"is_reserved":false,"is_disabled":false,"rental_uris":{"android":"levelo://app?vid=c06b9c1d-7930-4ba5-a9ef-a57806682170","ios":"levelo://app?vid=c06b9c1d-7930-4ba5-a9ef-a57806682170"},"vehicle_type_id":"4","last_reported":1761830690,"current_range_meters":17600,"station_id":"ce4bgi12rcd13ifvqb70","pricing_plan_id":"cebpf4jnsgd1na2vs0mg"},{"bike_id":"c26370fd-25b9-4b08-8280-459064a8233f","system_id":"levelo_inurba_marseille","lat":43.28351,"lon":5.38106,"is_reserved":false,"is_disabled":false,"rental_uris":{"android":"levelo://app?vid=c26370fd-25b9-4b08-8280-459064a8233f","ios":"levelo://app?vid=c26370fd-25b9-4b08-8280-459064a8233f"},"vehicle_type_id":"4","last_reported":1761830690,"current_range_meters":17600,"station_id":"ce4bh412rcd13ifvqdr0","pricing_plan_id":"cebpf4jnsgd1na2vs0mg"},{"bike_id":"05a47c24-c74d-4482-aade-5974399cb310","system_id":"levelo_inurba_marseille","lat":43.29606,"lon":5.37672,"is_reserved":false,"is_disabled":false,"rental_uris":{"android":"levelo://app?vid=05a47c24-c74d-4482-aade-5974399cb310","ios":"levelo://app?vid=05a47c24-c74d-4482-aade-5974399cb310"},"vehicle_type_id":"4","last_reported":1761830690,"current_range_meters":17600,"station_id":"ce4bgi92rcd13ifvqb90","pricing_plan_id":"cebpf4jnsgd1na2vs0mg"},{"bike_id":"68845c0a-a304-4575-9364-ead1cd9124fb","system_id":"levelo_inurba_marseille","lat":43.231962,"lon":5.355558,"is_reserved":false,"is_disabled":false,"rental_uris":{"android":"levelo://app?vid=68845c0a-a304-4575-9364-ead1cd9124fb","ios":"levelo://app?vid=68845c0a-a304-4575-9364-ead1cd9124fb"},"vehicle_type_id":"4","last_reported":1761830690,"current_range_meters":17600,"station_id":"ce4bhu92rcd13ifvqi70","pricing_plan_id":"cebpf4jnsgd1na2vs0mg"},{"bike_id":"df533327-51ae-4f30-a8e7-4b7230134568","system_id":"levelo_inurba_marseille","lat":43.25116,"lon":5.40325,"is_reserved":false,"is_disabled":false,"rental_uris":{"android":"levelo://app?vid=df533327-51ae-4f30-a8e7-4b7230134568","ios":"levelo://app?vid=df533327-51ae-4f30-a8e7-4b7230134568"},"vehicle_type_id":"4","last_reported":1761830690,"current_range_meters":17600,"station_id":"ce4bhlh2rcd13ifvqgig","pricing_plan_id":"cebpf4jnsgd1na2vs0mg"},{"bike_id":"f6e41c21-0e74-476c-8273-8a6a7b44e6bc","system_id":"levelo_inurba_marseille","lat":43.30742,"lon":5.42453,"is_reserved":false,"is_disabled":false,"rental_uris":{"android":"levelo://app?vid=f6e41c21-0e74-476c-8273-8a6a7b44e6bc","ios":"levelo://app?vid=f6e41c21-0e74-476c-8273-8a6a7b44e6bc"},"vehicle_type_id":"4","last_reported":1761830690,"current_range_meters":17600,"station_id":"st_cvj6ca6bvosntc0bfgr0","pricing_plan_id":"cebpf4jnsgd1na2vs0mg"},{"bike_id":"bc2ee551-d659-405e-8eae-87be1b08ac1a","system_id":"levelo_inurba_marseille","lat":43.29853,"lon":5.3628,"is_reserved":false,"is_disabled":false,"rental_uris":{"android":"levelo://app?vid=bc2ee551-d659-405e-8eae-87be1b08ac1a","ios":"levelo://app?vid=bc2ee551-d659-405e-8eae-87be1b08ac1a"},"vehicle_type_id":"4","last_reported":1761830690,"current_range_meters":18000,"station_id":"ce4bgpp2rcd13ifvqc3g","pricing_plan_id":"cebpf4jnsgd1na2vs0mg"},{"bike_id":"6424d1da-295a-4bbc-8c9a-9242419308e7","system_id":"levelo_inurba_marseille","lat":43.29061,"lon":5.3718,"is_reserved":false,"is_disabled":false,"rental_uris":{"android":"levelo://app?vid=6424d1da-295a-4bbc-8c9a-9242419308e7","ios":"levelo://app?vid=6424d1da-295a-4bbc-8c9a-9242419308e7"},"vehicle_type_id":"4","last_reported":1761830690,"current_range_meters":18000,"station_id":"","pricing_plan_id":"cebpf4jnsgd1na2vs0mg"},{"bike_id":"a4dac4fa-66e6-48be-a654-6e17cdc7ca0b","system_id":"levelo_inurba_marseille","lat":43.337571,"lon":5.374323,"is_reserved":false,"is_disabled":false,"rental_uris":{"android":"levelo://app?vid=a4dac4fa-66e6-48be-a654-6e17cdc7ca0b","ios":"levelo://app?vid=a4dac4fa-66e6-48be-a654-6e17cdc7ca0b"},"vehicle_type_id":"4","last_reported":1761830690,"current_range_meters":18000,"station_id":"","pricing_plan_id":"cebpf4jnsgd1na2vs0mg"},{"bike_id":"49eabeb8-91e9-4fed-9256-a94ef104e5f4","system_id":"levelo_inurba_marseille","lat":43.29574,"lon":5.36726,"is_reserved":false,"is_disabled":false,"rental_uris":{"android":"levelo://app?vid=49eabeb8-91e9-4fed-9256-a94ef104e5f4","ios":"levelo://app?vid=49eabeb8-91e9-4fed-9256-a94ef104e5f4"},"vehicle_type_id":"4","last_reported":1761830690,"current_range_meters":18000,"station_id":"ce4bgph2rcd13ifvqc2g","pricing_plan_id":"cebpf4jnsgd1na2vs0mg"},{"bike_id":"eced031c-b967-4225-a20e-a12cfd923a58","system_id":"levelo_inurba_marseille","lat":43.28618,"lon":5.35108,"is_reserved":false,"is_disabled":false,"rental_uris":{"android":"levelo://app?vid=eced031c-b967-4225-a20e-a12cfd923a58","ios":"levelo://app?vid=eced031c-b967-4225-a20e-a12cfd923a58"},"vehicle_type_id":"4","last_reported":1761830690,"current_range_meters":18000,"station_id":"ce4bhch2rcd13ifvqeug","pricing_plan_id":"cebpf4jnsgd1na2vs0mg"},{"bike_id":"7cafee62-7add-44a0-8c10-40ab0cae5342","system_id":"levelo_inurba_marseille","lat":43.32004,"lon":5.38164,"is_reserved":false,"is_disabled":false,"rental_uris":{"android":"levelo://app?vid=7cafee62-7add-44a0-8c10-40ab0cae5342","ios":"levelo://app?vid=7cafee62-7add-44a0-8c10-40ab0cae5342"},"vehicle_type_id":"4","last_reported":1761830690,"current_range_meters":18000,"station_id":"ce4bhr12rcd13ifvqhpg","pricing_plan_id":"cebpf4jnsgd1na2vs0mg"},{"bike_id":"ac054415-4e37-4567-b95e-73970b5e64bc","system_id":"levelo_inurba_marseille","lat":43.32488,"lon":5.36565,"is_reserved":false,"is_disabled":false,"rental_uris":{"android":"levelo://app?vid=ac054415-4e37-4567-b95e-73970b5e64bc","ios":"levelo://app?vid=ac054415-4e37-4567-b95e-73970b5e64bc"},"vehicle_type_id":"4","last_reported":1761830690,"current_range_meters":18000,"station_id":"ce4bhs12rcd13ifvqhvg","pricing_plan_id":"cebpf4jnsgd1na2vs0mg"},{"bike_id":"8a0ff850-cf9f-4e75-bc3f-994489f28f31","system_id":"levelo_inurba_marseille","lat":43.22568,"lon":5.41619,"is_reserved":false,"is_disabled":false,"rental_uris":{"android":"levelo://app?vid=8a0ff850-cf9f-4e75-bc3f-994489f28f31","ios":"levelo://app?vid=8a0ff850-cf9f-4e75-bc3f-994489f28f31"},"vehicle_type_id":"4","last_reported":1761830690,"current_range_meters":18000,"station_id":"st_d2o4gvlbi1j2169b742g","pricing_plan_id":"cebpf4jnsgd1na2vs0mg"},{"bike_id":"9852e0a1-4995-4628-84f2-0d56389f5aef","system_id":"levelo_inurba_marseille","lat":43.317182,"lon":5.423972,"is_reserved":false,"is_disabled":false,"rental_uris":{"android":"levelo://app?vid=9852e0a1-4995-4628-84f2-0d56389f5aef","ios":"levelo://app?vid=9852e0a1-4995-4628-84f2-0d56389f5aef"},"vehicle_type_id":"4","last_reported":1761830690,"current_range_meters":18000,"station_id":"ce4bhp92rcd13ifvqhbg","pricing_plan_id":"cebpf4jnsgd1na2vs0mg"},{"bike_id":"be5dc9a0-296e-4118-b389-9163b038165e","system_id":"levelo_inurba_marseille","lat":43.25722,"lon":5.4112,"is_reserved":false,"is_disabled":false,"rental_uris":{"android":"levelo://app?vid=be5dc9a0-296e-4118-b389-9163b038165e","ios":"levelo://app?vid=be5dc9a0-296e-4118-b389-9163b038165e"},"vehicle_type_id":"4","last_reported":1761830690,"current_range_meters":18000,"station_id":"ce4bhkp2rcd13ifvqgd0","pricing_plan_id":"cebpf4jnsgd1na2vs0mg"},{"bike_id":"b8f404d3-62c4-4489-a471-d37212346558","system_id":"levelo_inurba_marseille","lat":43.310466,"lon":5.378789,"is_reserved":false,"is_disabled":false,"rental_uris":{"android":"levelo://app?vid=b8f404d3-62c4-4489-a471-d37212346558","ios":"levelo://app?vid=b8f404d3-62c4-4489-a471-d37212346558"},"vehicle_type_id":"4","last_reported":1761830690,"current_range_meters":18000,"station_id":"","pricing_plan_id":"cebpf4jnsgd1na2vs0mg"},{"bike_id":"e35cd5de-6e10-427c-89f3-59b2503e667d","system_id":"levelo_inurba_marseille","lat":43.30252,"lon":5.37869,"is_reserved":false,"is_disabled":false,"rental_uris":{"android":"levelo://app?vid=e35cd5de-6e10-427c-89f3-59b2503e667d","ios":"levelo://app?vid=e35cd5de-6e10-427c-89f3-59b2503e667d"},"vehicle_type_id":"4","last_reported":1761830690,"current_range_meters":18000,"station_id":"ce4bguh2rcd13ifvqcj0","pricing_plan_id":"cebpf4jnsgd1na2vs0mg"},{"bike_id":"9253884b-da0a-42fe-b387-53412c34e492","system_id":"levelo_inurba_marseille","lat":43.289703,"lon":5.378356,"is_reserved":false,"is_disabled":false,"rental_uris":{"android":"levelo://app?vid=9253884b-da0a-42fe-b387-53412c34e492","ios":"levelo://app?vid=9253884b-da0a-42fe-b387-53412c34e492"},"vehicle_type_id":"4","last_reported":1761830690,"current_range_meters":18000,"station_id":"ce4bh9p2rcd13ifvqed0","pricing_plan_id":"cebpf4jnsgd1na2vs0mg"},{"bike_id":"32a35b9b-6aca-4b70-9bd2-e6acde4ddbcc","system_id":"levelo_inurba_marseille","lat":43.22931,"lon":5.35376,"is_reserved":false,"is_disabled":false,"rental_uris":{"android":"levelo://app?vid=32a35b9b-6aca-4b70-9bd2-e6acde4ddbcc","ios":"levelo://app?vid=32a35b9b-6aca-4b70-9bd2-e6acde4ddbcc"},"vehicle_type_id":"4","last_reported":1761830690,"current_range_meters":18000,"station_id":"cpo3532slgdg3j2ikp40","pricing_plan_id":"cebpf4jnsgd1na2vs0mg"},{"bike_id":"900f5ea8-f264-4963-a30a-5ca294ff2a86","system_id":"levelo_inurba_marseille","lat":43.267851,"lon":5.394127,"is_reserved":false,"is_disabled":false,"rental_uris":{"android":"levelo://app?vid=900f5ea8-f264-4963-a30a-5ca294ff2a86","ios":"levelo://app?vid=900f5ea8-f264-4963-a30a-5ca294ff2a86"},"vehicle_type_id":"4","last_reported":1761830690,"current_range_meters":18800,"station_id":"ce4bhh12rcd13ifvqfg0","pricing_plan_id":"cebpf4jnsgd1na2vs0mg"},{"bike_id":"20c1c26d-be2a-4cac-8028-038f5ffc2f00","system_id":"levelo_inurba_marseille","lat":43.292744,"lon":5.368532,"is_reserved":false,"is_disabled":false,"rental_uris":{"android":"levelo://app?vid=20c1c26d-be2a-4cac-8028-038f5ffc2f00","ios":"levelo://app?vid=20c1c26d-be2a-4cac-8028-038f5ffc2f00"},"vehicle_type_id":"4","last_reported":1761830690,"current_range_meters":18800,"station_id":"ce4bhbp2rcd13ifvqesg","pricing_plan_id":"cebpf4jnsgd1na2vs0mg"},{"bike_id":"684cf959-7a1f-4f7a-b35c-25f537af23bf","system_id":"levelo_inurba_marseille","lat":43.29538,"lon":5.38543,"is_reserved":false,"is_disabled":false,"rental_uris":{"android":"levelo://app?vid=684cf959-7a1f-4f7a-b35c-25f537af23bf","ios":"levelo://app?vid=684cf959-7a1f-4f7a-b35c-25f537af23bf"},"vehicle_type_id":"4","last_reported":1761830690,"current_range_meters":18800,"station_id":"ce4bgih2rcd13ifvqba0","pricing_plan_id":"cebpf4jnsgd1na2vs0mg"},{"bike_id":"48d3b96f-8416-4329-ac85-a1ebb32987c2","system_id":"levelo_inurba_marseille","lat":43.276635,"lon":5.388816,"is_reserved":false,"is_disabled":false,"rental_uris":{"android":"levelo://app?vid=48d3b96f-8416-4329-ac85-a1ebb32987c2","ios":"levelo://app?vid=48d3b96f-8416-4329-ac85-a1ebb32987c2"},"vehicle_type_id":"4","last_reported":1761830690,"current_range_meters":18800,"station_id":"ce4bhi12rcd13ifvqfo0","pricing_plan_id":"cebpf4jnsgd1na2vs0mg"},{"bike_id":"9ac8df58-676e-4fc2-9f8b-0af9e67b316e","system_id":"levelo_inurba_marseille","lat":43.295725,"lon":5.375146,"is_reserved":false,"is_disabled":false,"rental_uris":{"android":"levelo://app?vid=9ac8df58-676e-4fc2-9f8b-0af9e67b316e","ios":"levelo://app?vid=9ac8df58-676e-4fc2-9f8b-0af9e67b316e"},"vehicle_type_id":"4","last_reported":1761830690,"current_range_meters":18800,"station_id":"","pricing_plan_id":"cebpf4jnsgd1na2vs0mg"},{"bike_id":"a221d709-0686-475a-bda9-1f1d51101278","system_id":"levelo_inurba_marseille","lat":43.29606,"lon":5.381111,"is_reserved":false,"is_disabled":false,"rental_uris":{"android":"levelo://app?vid=a221d709-0686-475a-bda9-1f1d51101278","ios":"levelo://app?vid=a221d709-0686-475a-bda9-1f1d51101278"},"vehicle_type_id":"4","last_reported":1761830690,"current_range_meters":18800,"station_id":"ce4bgl12rcd13ifvqbo0","pricing_plan_id":"cebpf4jnsgd1na2vs0mg"},{"bike_id":"44c90097-aa77-42e0-8b1d-55738f74951f","system_id":"levelo_inurba_marseille","lat":43.27175,"lon":5.40994,"is_reserved":false,"is_disabled":false,"rental_uris":{"android":"levelo://app?vid=44c90097-aa77-42e0-8b1d-55738f74951f","ios":"levelo://app?vid=44c90097-aa77-42e0-8b1d-55738f74951f"},"vehicle_type_id":"4","last_reported":1761830690,"current_range_meters":18800,"station_id":"ce4bhl12rcd13ifvqgf0","pricing_plan_id":"cebpf4jnsgd1na2vs0mg"},{"bike_id":"ad554042-17be-4e7a-abcb-5142fefcc30a","system_id":"levelo_inurba_marseille","lat":43.25639,"lon":5.41882,"is_reserved":false,"is_disabled":false,"rental_uris":{"android":"levelo://app?vid=ad554042-17be-4e7a-abcb-5142fefcc30a","ios":"levelo://app?vid=ad554042-17be-4e7a-abcb-5142fefcc30a"},"vehicle_type_id":"4","last_reported":1761830690,"current_range_meters":18800,"station_id":"","pricing_plan_id":"cebpf4jnsgd1na2vs0mg"},{"bike_id":"a14db5c9-c9f2-4d36-97e2-a7b2385a794a","system_id":"levelo_inurba_marseille","lat":43.24997,"lon":5.38935,"is_reserved":false,"is_disabled":false,"rental_uris":{"android":"levelo://app?vid=a14db5c9-c9f2-4d36-97e2-a7b2385a794a","ios":"levelo://app?vid=a14db5c9-c9f2-4d36-97e2-a7b2385a794a"},"vehicle_type_id":"4","last_reported":1761830690,"current_range_meters":18800,"station_id":"ce4bhgp2rcd13ifvqfd0","pricing_plan_id":"cebpf4jnsgd1na2vs0mg"},{"bike_id":"a27ea015-9d73-41b0-aa36-b3953f30b56d","system_id":"levelo_inurba_marseille","lat":43.24634,"lon":5.38906,"is_reserved":false,"is_disabled":false,"rental_uris":{"android":"levelo://app?vid=a27ea015-9d73-41b0-aa36-b3953f30b56d","ios":"levelo://app?vid=a27ea015-9d73-41b0-aa36-b3953f30b56d"},"vehicle_type_id":"4","last_reported":1761830690,"current_range_meters":19200,"station_id":"ce4bhg12rcd13ifvqf60","pricing_plan_id":"cebpf4jnsgd1na2vs0mg"},{"bike_id":"b4d4ba91-7a2d-4e17-98d5-9f02048264b1","system_id":"levelo_inurba_marseille","lat":43.30906,"lon":5.36845,"is_reserved":false,"is_disabled":false,"rental_uris":{"android":"levelo://app?vid=b4d4ba91-7a2d-4e17-98d5-9f02048264b1","ios":"levelo://app?vid=b4d4ba91-7a2d-4e17-98d5-9f02048264b1"},"vehicle_type_id":"4","last_reported":1761830690,"current_range_meters":19200,"station_id":"ce4bgn92rcd13ifvqbvg","pricing_plan_id":"cebpf4jnsgd1na2vs0mg"},{"bike_id":"c0a1ab8d-72ff-4114-b274-fdab8f1c3cb0","system_id":"levelo_inurba_marseille","lat":43.24182,"lon":5.39719,"is_reserved":false,"is_disabled":false,"rental_uris":{"android":"levelo://app?vid=c0a1ab8d-72ff-4114-b274-fdab8f1c3cb0","ios":"levelo://app?vid=c0a1ab8d-72ff-4114-b274-fdab8f1c3cb0"},"vehicle_type_id":"4","last_reported":1761830690,"current_range_meters":19200,"station_id":"ce4bhn12rcd13ifvqgpg","pricing_plan_id":"cebpf4jnsgd1na2vs0mg"},{"bike_id":"50b299dd-eb04-4ec0-b13c-36fb80431a45","system_id":"levelo_inurba_marseille","lat":43.31707,"lon":5.43696,"is_reserved":false,"is_disabled":false,"rental_uris":{"android":"levelo://app?vid=50b299dd-eb04-4ec0-b13c-36fb80431a45","ios":"levelo://app?vid=50b299dd-eb04-4ec0-b13c-36fb80431a45"},"vehicle_type_id":"4","last_reported":1761830690,"current_range_meters":19200,"station_id":"ce4bhp92rcd13ifvqhcg","pricing_plan_id":"cebpf4jnsgd1na2vs0mg"},{"bike_id":"3cdb08b0-77c7-4e1f-ba18-06cdf855b596","system_id":"levelo_inurba_marseille","lat":43.29796,"lon":5.37106,"is_reserved":false,"is_disabled":false,"rental_uris":{"android":"levelo://app?vid=3cdb08b0-77c7-4e1f-ba18-06cdf855b596","ios":"levelo://app?vid=3cdb08b0-77c7-4e1f-ba18-06cdf855b596"},"vehicle_type_id":"4","last_reported":1761830690,"current_range_meters":19200,"station_id":"ce4bgop2rcd13ifvqc1g","pricing_plan_id":"cebpf4jnsgd1na2vs0mg"},{"bike_id":"ee261a32-9de1-4b9e-a923-6c91e1e26176","system_id":"levelo_inurba_marseille","lat":43.28478,"lon":5.48393,"is_reserved":false,"is_disabled":false,"rental_uris":{"android":"levelo://app?vid=ee261a32-9de1-4b9e-a923-6c91e1e26176","ios":"levelo://app?vid=ee261a32-9de1-4b9e-a923-6c91e1e26176"},"vehicle_type_id":"4","last_reported":1761830690,"current_range_meters":19200,"station_id":"st_d3svhcjqgbts73a3dn0g","pricing_plan_id":"cebpf4jnsgd1na2vs0mg"},{"bike_id":"0a9abdf5-79f0-47db-9743-c4be71bd0ac0","system_id":"levelo_inurba_marseille","lat":43.30161,"lon":5.43086,"is_reserved":false,"is_disabled":false,"rental_uris":{"android":"levelo://app?vid=0a9abdf5-79f0-47db-9743-c4be71bd0ac0","ios":"levelo://app?vid=0a9abdf5-79f0-47db-9743-c4be71bd0ac0"},"vehicle_type_id":"4","last_reported":1761830690,"current_range_meters":19200,"station_id":"st_d3js3co5814s73ftftug","pricing_plan_id":"cebpf4jnsgd1na2vs0mg"},{"bike_id":"aafb70ec-a77b-46a3-b6fe-dfc7c656bf67","system_id":"levelo_inurba_marseille","lat":43.2962,"lon":5.38106,"is_reserved":false,"is_disabled":false,"rental_uris":{"android":"levelo://app?vid=aafb70ec-a77b-46a3-b6fe-dfc7c656bf67","ios":"levelo://app?vid=aafb70ec-a77b-46a3-b6fe-dfc7c656bf67"},"vehicle_type_id":"4","last_reported":1761830690,"current_range_meters":19200,"station_id":"ce4bgl12rcd13ifvqbo0","pricing_plan_id":"cebpf4jnsgd1na2vs0mg"},{"bike_id":"4c7df9e5-7b07-484f-bae3-75095ca4be64","system_id":"levelo_inurba_marseille","lat":43.29213,"lon":5.36114,"is_reserved":false,"is_disabled":false,"rental_uris":{"android":"levelo://app?vid=4c7df9e5-7b07-484f-bae3-75095ca4be64","ios":"levelo://app?vid=4c7df9e5-7b07-484f-bae3-75095ca4be64"},"vehicle_type_id":"4","last_reported":1761830690,"current_range_meters":19200,"station_id":"ce4bhbh2rcd13ifvqeqg","pricing_plan_id":"cebpf4jnsgd1na2vs0mg"},{"bike_id":"15507044-afe8-410c-91fe-cb05509a6590","system_id":"levelo_inurba_marseille","lat":43.30325,"lon":5.40442,"is_reserved":false,"is_disabled":false,"rental_uris":{"android":"levelo://app?vid=15507044-afe8-410c-91fe-cb05509a6590","ios":"levelo://app?vid=15507044-afe8-410c-91fe-cb05509a6590"},"vehicle_type_id":"4","last_reported":1761830690,"current_range_meters":19200,"station_id":"ce4bh012rcd13ifvqd10","pricing_plan_id":"cebpf4jnsgd1na2vs0mg"},{"bike_id":"420c6014-3dda-497a-bf80-db8c7dfa6d9c","system_id":"levelo_inurba_marseille","lat":43.301138,"lon":5.43129,"is_reserved":false,"is_disabled":false,"rental_uris":{"android":"levelo://app?vid=420c6014-3dda-497a-bf80-db8c7dfa6d9c","ios":"levelo://app?vid=420c6014-3dda-497a-bf80-db8c7dfa6d9c"},"vehicle_type_id":"4","last_reported":1761830690,"current_range_meters":19600,"station_id":"ce4bh9p2rcd13ifvqec0","pricing_plan_id":"cebpf4jnsgd1na2vs0mg"},{"bike_id":"657a35d8-b09c-4f1d-9b50-4c0ccb75e06c","system_id":"levelo_inurba_marseille","lat":43.26681,"lon":5.3827,"is_reserved":false,"is_disabled":false,"rental_uris":{"android":"levelo://app?vid=657a35d8-b09c-4f1d-9b50-4c0ccb75e06c","ios":"levelo://app?vid=657a35d8-b09c-4f1d-9b50-4c0ccb75e06c"},"vehicle_type_id":"4","last_reported":1761830690,"current_range_meters":19600,"station_id":"ce4bh612rcd13ifvqe6g","pricing_plan_id":"cebpf4jnsgd1na2vs0mg"},{"bike_id":"f7986849-5488-47e8-b8c2-0ebfdf9d8390","system_id":"levelo_inurba_marseille","lat":43.24664,"lon":5.38176,"is_reserved":false,"is_disabled":false,"rental_uris":{"android":"levelo://app?vid=f7986849-5488-47e8-b8c2-0ebfdf9d8390","ios":"levelo://app?vid=f7986849-5488-47e8-b8c2-0ebfdf9d8390"},"vehicle_type_id":"4","last_reported":1761830690,"current_range_meters":19600,"station_id":"ce4bhih2rcd13ifvqfr0","pricing_plan_id":"cebpf4jnsgd1na2vs0mg"},{"bike_id":"7d25d21d-1831-4eba-9168-89d3ade37c3e","system_id":"levelo_inurba_marseille","lat":43.30262,"lon":5.37737,"is_reserved":false,"is_disabled":false,"rental_uris":{"android":"levelo://app?vid=7d25d21d-1831-4eba-9168-89d3ade37c3e","ios":"levelo://app?vid=7d25d21d-1831-4eba-9168-89d3ade37c3e"},"vehicle_type_id":"4","last_reported":1761830690,"current_range_meters":19600,"station_id":"ce4bguh2rcd13ifvqcj0","pricing_plan_id":"cebpf4jnsgd1na2vs0mg"},{"bike_id":"1c802c1d-7ff6-4edb-84f8-3bbe55b9f164","system_id":"levelo_inurba_marseille","lat":43.28431,"lon":5.34987,"is_reserved":false,"is_disabled":false,"rental_uris":{"android":"levelo://app?vid=1c802c1d-7ff6-4edb-84f8-3bbe55b9f164","ios":"levelo://app?vid=1c802c1d-7ff6-4edb-84f8-3bbe55b9f164"},"vehicle_type_id":"4","last_reported":1761830690,"current_range_meters":19600,"station_id":"ce4bhbh2rcd13ifvqepg","pricing_plan_id":"cebpf4jnsgd1na2vs0mg"},{"bike_id":"d09d98ee-bea7-4a20-b7b9-bff4910302ec","system_id":"levelo_inurba_marseille","lat":43.3135,"lon":5.36729,"is_reserved":false,"is_disabled":false,"rental_uris":{"android":"levelo://app?vid=d09d98ee-bea7-4a20-b7b9-bff4910302ec","ios":"levelo://app?vid=d09d98ee-bea7-4a20-b7b9-bff4910302ec"},"vehicle_type_id":"4","last_reported":1761830690,"current_range_meters":19600,"station_id":"ce4bgr92rcd13ifvqc6g","pricing_plan_id":"cebpf4jnsgd1na2vs0mg"},{"bike_id":"36a11609-9db6-4801-a4a3-7b3568932d85","system_id":"levelo_inurba_marseille","lat":43.29276,"lon":5.36843,"is_reserved":false,"is_disabled":false,"rental_uris":{"android":"levelo://app?vid=36a11609-9db6-4801-a4a3-7b3568932d85","ios":"levelo://app?vid=36a11609-9db6-4801-a4a3-7b3568932d85"},"vehicle_type_id":"4","last_reported":1761830690,"current_range_meters":19600,"station_id":"ce4bhbp2rcd13ifvqesg","pricing_plan_id":"cebpf4jnsgd1na2vs0mg"},{"bike_id":"bda1cf16-91bb-49ee-a178-d588354faf1b","system_id":"levelo_inurba_marseille","lat":43.26551,"lon":5.37288,"is_reserved":false,"is_disabled":false,"rental_uris":{"android":"levelo://app?vid=bda1cf16-91bb-49ee-a178-d588354faf1b","ios":"levelo://app?vid=bda1cf16-91bb-49ee-a178-d588354faf1b"},"vehicle_type_id":"4","last_reported":1761830690,"current_range_meters":19600,"station_id":"ce4bhg12rcd13ifvqf70","pricing_plan_id":"cebpf4jnsgd1na2vs0mg"},{"bike_id":"dedb4f63-ea54-40fc-9c19-5ff9807fc89a","system_id":"levelo_inurba_marseille","lat":43.27374,"lon":5.36261,"is_reserved":false,"is_disabled":false,"rental_uris":{"android":"levelo://app?vid=dedb4f63-ea54-40fc-9c19-5ff9807fc89a","ios":"levelo://app?vid=dedb4f63-ea54-40fc-9c19-5ff9807fc89a"},"vehicle_type_id":"4","last_reported":1761830690,"current_range_meters":19600,"station_id":"ce4bhbh2rcd13ifvqeo0","pricing_plan_id":"cebpf4jnsgd1na2vs0mg"},{"bike_id":"91fab070-569c-458a-b7a9-ce203c556e30","system_id":"levelo_inurba_marseille","lat":43.21191,"lon":5.35053,"is_reserved":false,"is_disabled":false,"rental_uris":{"android":"levelo://app?vid=91fab070-569c-458a-b7a9-ce203c556e30","ios":"levelo://app?vid=91fab070-569c-458a-b7a9-ce203c556e30"},"vehicle_type_id":"4","last_reported":1761830690,"current_range_meters":19600,"station_id":"st_cvj6sg6p6f1abm77japg","pricing_plan_id":"cebpf4jnsgd1na2vs0mg"},{"bike_id":"dc019d93-95a9-47c6-b72a-c76434025334","system_id":"levelo_inurba_marseille","lat":43.30173,"lon":5.3661,"is_reserved":false,"is_disabled":false,"rental_uris":{"android":"levelo://app?vid=dc019d93-95a9-47c6-b72a-c76434025334","ios":"levelo://app?vid=dc019d93-95a9-47c6-b72a-c76434025334"},"vehicle_type_id":"4","last_reported":1761830690,"current_range_meters":20000,"station_id":"ce4bgrh2rcd13ifvqc8g","pricing_plan_id":"cebpf4jnsgd1na2vs0mg"},{"bike_id":"4dfe3a7a-891b-4a3a-a7d8-8b0c8654af30","system_id":"levelo_inurba_marseille","lat":43.260404,"lon":5.37568,"is_reserved":false,"is_disabled":false,"rental_uris":{"android":"levelo://app?vid=4dfe3a7a-891b-4a3a-a7d8-8b0c8654af30","ios":"levelo://app?vid=4dfe3a7a-891b-4a3a-a7d8-8b0c8654af30"},"vehicle_type_id":"4","last_reported":1761830690,"current_range_meters":20000,"station_id":"ce4bhgh2rcd13ifvqfa0","pricing_plan_id":"cebpf4jnsgd1na2vs0mg"},{"bike_id":"4dfda3f6-0107-4abe-9691-c087da796c03","system_id":"levelo_inurba_marseille","lat":43.29042,"lon":5.37581,"is_reserved":false,"is_disabled":false,"rental_uris":{"android":"levelo://app?vid=4dfda3f6-0107-4abe-9691-c087da796c03","ios":"levelo://app?vid=4dfda3f6-0107-4abe-9691-c087da796c03"},"vehicle_type_id":"4","last_reported":1761830690,"current_range_meters":20000,"station_id":"ce4bh692rcd13ifvqe90","pricing_plan_id":"cebpf4jnsgd1na2vs0mg"},{"bike_id":"e02b8061-ba2d-4d7c-8048-3c9472854eb0","system_id":"levelo_inurba_marseille","lat":43.2734,"lon":5.39131,"is_reserved":false,"is_disabled":false,"rental_uris":{"android":"levelo://app?vid=e02b8061-ba2d-4d7c-8048-3c9472854eb0","ios":"levelo://app?vid=e02b8061-ba2d-4d7c-8048-3c9472854eb0"},"vehicle_type_id":"4","last_reported":1761830690,"current_range_meters":20000,"station_id":"ce4bhgp2rcd13ifvqfe0","pricing_plan_id":"cebpf4jnsgd1na2vs0mg"},{"bike_id":"179ce6e6-2ed9-442e-92a4-9e439bdae226","system_id":"levelo_inurba_marseille","lat":43.31236,"lon":5.36885,"is_reserved":false,"is_disabled":false,"rental_uris":{"android":"levelo://app?vid=179ce6e6-2ed9-442e-92a4-9e439bdae226","ios":"levelo://app?vid=179ce6e6-2ed9-442e-92a4-9e439bdae226"},"vehicle_type_id":"4","last_reported":1761830690,"current_range_meters":20000,"station_id":"ce4bgl92rcd13ifvqbq0","pricing_plan_id":"cebpf4jnsgd1na2vs0mg"},{"bike_id":"8addfb9c-68d4-4b75-8da3-df90ea7c453f","system_id":"levelo_inurba_marseille","lat":43.3095,"lon":5.39043,"is_reserved":false,"is_disabled":false,"rental_uris":{"android":"levelo://app?vid=8addfb9c-68d4-4b75-8da3-df90ea7c453f","ios":"levelo://app?vid=8addfb9c-68d4-4b75-8da3-df90ea7c453f"},"vehicle_type_id":"4","last_reported":1761830690,"current_range_meters":20000,"station_id":"ce4bgup2rcd13ifvqco0","pricing_plan_id":"cebpf4jnsgd1na2vs0mg"},{"bike_id":"53e66290-0ede-4a08-8fbe-aadbd1038f64","system_id":"levelo_inurba_marseille","lat":43.32116,"lon":5.36778,"is_reserved":false,"is_disabled":false,"rental_uris":{"android":"levelo://app?vid=53e66290-0ede-4a08-8fbe-aadbd1038f64","ios":"levelo://app?vid=53e66290-0ede-4a08-8fbe-aadbd1038f64"},"vehicle_type_id":"4","last_reported":1761830690,"current_range_meters":20000,"station_id":"ce4bhrh2rcd13ifvqhug","pricing_plan_id":"cebpf4jnsgd1na2vs0mg"},{"bike_id":"3e147cc7-1c05-4c10-88db-3d10fe34fe3a","system_id":"levelo_inurba_marseille","lat":43.24626,"lon":5.43135,"is_reserved":false,"is_disabled":false,"rental_uris":{"android":"levelo://app?vid=3e147cc7-1c05-4c10-88db-3d10fe34fe3a","ios":"levelo://app?vid=3e147cc7-1c05-4c10-88db-3d10fe34fe3a"},"vehicle_type_id":"4","last_reported":1761830690,"current_range_meters":20000,"station_id":"st_d2m6c4gdas8pm72e190g","pricing_plan_id":"cebpf4jnsgd1na2vs0mg"},{"bike_id":"90cc4e35-1e9a-4d48-878d-a3997094c0ce","system_id":"levelo_inurba_marseille","lat":43.24635,"lon":5.43149,"is_reserved":false,"is_disabled":false,"rental_uris":{"android":"levelo://app?vid=90cc4e35-1e9a-4d48-878d-a3997094c0ce","ios":"levelo://app?vid=90cc4e35-1e9a-4d48-878d-a3997094c0ce"},"vehicle_type_id":"4","last_reported":1761830690,"current_range_meters":20000,"station_id":"st_d2m6c4gdas8pm72e190g","pricing_plan_id":"cebpf4jnsgd1na2vs0mg"},{"bike_id":"e974006c-e3c8-4c1a-9a8d-ea5c7e7acb49","system_id":"levelo_inurba_marseille","lat":43.28536,"lon":5.44093,"is_reserved":false,"is_disabled":false,"rental_uris":{"android":"levelo://app?vid=e974006c-e3c8-4c1a-9a8d-ea5c7e7acb49","ios":"levelo://app?vid=e974006c-e3c8-4c1a-9a8d-ea5c7e7acb49"},"vehicle_type_id":"4","last_reported":1761830690,"current_range_meters":20400,"station_id":"st_d3j3df2ikq2c7380ej80","pricing_plan_id":"cebpf4jnsgd1na2vs0mg"},{"bike_id":"184d28e3-b90a-4f94-9392-6703a8d0a131","system_id":"levelo_inurba_marseille","lat":43.303742,"lon":5.424833,"is_reserved":false,"is_disabled":false,"rental_uris":{"android":"levelo://app?vid=184d28e3-b90a-4f94-9392-6703a8d0a131","ios":"levelo://app?vid=184d28e3-b90a-4f94-9392-6703a8d0a131"},"vehicle_type_id":"4","last_reported":1761830690,"current_range_meters":20400,"station_id":"ce4bhoh2rcd13ifvqh6g","pricing_plan_id":"cebpf4jnsgd1na2vs0mg"},