{"last_updated":1690402022,"ttl":30,"version":"2.2","data":{"bikes":[{"bike_id":"e526d4e2-849c-44ae-a0d7-5572a62df909","system_id":"levelo_inurba_marseille","lat":43.312239,"lon":5.368562,"is_reserved":false,"is_disabled":false,"rental_uris":{"android":"levelo://app?vid=e526d4e2-849c-44ae-a0d7-5572a62df909","ios":"levelo://app?vid=e526d4e2-849c-44ae-a0d7-5572a62df909"},"vehicle_type_id":"4","last_reported":1690402022,"current_range_meters":31200,"station_id":"ce4bgl92rcd13ifvqbq0","pricing_plan_id":"free"},{"bike_id":"0e45fbc0-5bdf-4c8d-9622-f24baf77b4e4","system_id":"levelo_inurba_marseille","lat":43.309076,"lon":5.368465,"is_reserved":false,"is_disabled":false,"rental_uris":{"android":"levelo://app?vid=0e45fbc0-5bdf-4c8d-9622-f24baf77b4e4","ios":"levelo://app?vid=0e45fbc0-5bdf-4c8d-9622-f24baf77b4e4"},"vehicle_type_id":"4","last_reported":1690402022,"current_range_meters":31200,"station_id":"ce4bgn92rcd13ifvqbvg","pricing_plan_id":"free"},{"bike_id":"18975978-f741-4949-9537-197a6c75903a","system_id":"levelo_inurba_marseille","lat":43.309076,"lon":5.368465,"is_reserved":false,"is_disabled":false,"rental_uris":{"android":"levelo://app?vid=18975978-f741-4949-9537-197a6c75903a","ios":"levelo://app?vid=18975978-f741-4949-9537-197a6c75903a"},"vehicle_type_id":"4","last_reported":1690402022,"current_range_meters":6400,"station_id":"ce4bgn92rcd13ifvqbvg","pricing_plan_id":"free"},{"bike_id":"8da8c6b4-7560-44c4-b635-d360f8c676f6","system_id":"levelo_inurba_marseille","lat":43.309076,"lon":5.368465,"is_reserved":false,"is_disabled":false,"rental_uris":{"android":"levelo://app?vid=8da8c6b4-7560-44c4-b635-d360f8c676f6","ios":"levelo://app?vid=8da8c6b4-7560-44c4-b635-d360f8c676f6"},"vehicle_type_id":"4","last_reported":1690402022,"current_range_meters":11600,"station_id":"ce4bgn92rcd13ifvqbvg","pricing_plan_id":"free"},{"bike_id":"f48de34b-498a-4f87-9029-b3778bb9ec67","system_id":"levelo_inurba_marseille","lat":43.314811,"lon":5.373103,"is_reserved":false,"is_disabled":false,"rental_uris":{"android":"levelo://app?vid=f48de34b-498a-4f87-9029-b3778bb9ec67","ios":"levelo://app?vid=f48de34b-498a-4f87-9029-b3778bb9ec67"},"vehicle_type_id":"4","last_reported":1690402022,"current_range_meters":31200,"station_id":"ce4bgt12rcd13ifvqcd0","pricing_plan_id":"free"},{"bike_id":"dc4a37f5-212a-487b-bb22-e0d985026ec4","system_id":"levelo_inurba_marseille","lat":43.314811,"lon":5.373103,"is_reserved":false,"is_disabled":false,"rental_uris":{"android":"levelo://app?vid=dc4a37f5-212a-487b-bb22-e0d985026ec4","ios":"levelo://app?vid=dc4a37f5-212a-487b-bb22-e0d985026ec4"},"vehicle_type_id":"4","last_reported":1690402022,"current_range_meters":16000,"station_id":"ce4bgt12rcd13ifvqcd0","pricing_plan_id":"free"},{"bike_id":"66d5ac9c-d5a0-4dab-872c-22fc68321ad5","system_id":"levelo_inurba_marseille","lat":43.314811,"lon":5.373103,"is_reserved":false,"is_disabled":false,"rental_uris":{"android":"levelo://app?vid=66d5ac9c-d5a0-4dab-872c-22fc68321ad5","ios":"levelo://app?vid=66d5ac9c-d5a0-4dab-872c-22fc68321ad5"},"vehicle_type_id":"4","last_reported":1690402022,"current_range_meters":27200,"station_id":"ce4bgt12rcd13ifvqcd0","pricing_plan_id":"free"},{"bike_id":"12ff6974-db49-42e5-a6d0-8f68039fc4bb","system_id":"levelo_inurba_marseille","lat":43.314811,"lon":5.373103,"is_reserved":false,"is_disabled":false,"rental_uris":{"android":"levelo://app?vid=12ff6974-db49-42e5-a6d0-8f68039fc4bb","ios":"levelo://app?vid=12ff6974-db49-42e5-a6d0-8f68039fc4bb"},"vehicle_type_id":"4","last_reported":1690402022,"current_range_meters":18000,"station_id":"ce4bgt12rcd13ifvqcd0","pricing_plan_id":"free"},{"bike_id":"fac9895c-3e69-4b6a-9c1f-8e7cb5549bb6","system_id":"levelo_inurba_marseille","lat":43.31392,"lon":5.37404,"is_reserved":false,"is_disabled":false,"rental_uris":{"android":"levelo://app?vid=fac9895c-3e69-4b6a-9c1f-8e7cb5549bb6","ios":"levelo://app?vid=fac9895c-3e69-4b6a-9c1f-8e7cb5549bb6"},"vehicle_type_id":"4","last_reported":1690402022,"current_range_meters":30000,"station_id":"","pricing_plan_id":"free"},{"bike_id":"2d03556e-9858-405b-b392-a2789c8268f0","system_id":"levelo_inurba_marseille","lat":43.31585,"lon":5.37315,"is_reserved":false,"is_disabled":false,"rental_uris":{"android":"levelo://app?vid=2d03556e-9858-405b-b392-a2789c8268f0","ios":"levelo://app?vid=2d03556e-9858-405b-b392-a2789c8268f0"},"vehicle_type_id":"4","last_reported":1690402022,"current_range_meters":24400,"station_id":"","pricing_plan_id":"free"},{"bike_id":"737e36f8-b3bd-4e07-8acd-81d5a4bc85a0","system_id":"levelo_inurba_marseille","lat":43.30697,"lon":5.3655,"is_reserved":false,"is_disabled":false,"rental_uris":{"android":"levelo://app?vid=737e36f8-b3bd-4e07-8acd-81d5a4bc85a0","ios":"levelo://app?vid=737e36f8-b3bd-4e07-8acd-81d5a4bc85a0"},"vehicle_type_id":"4","last_reported":1690402022,"current_range_meters":15600,"station_id":"","pricing_plan_id":"free"},{"bike_id":"607f7da1-dcb7-4916-8614-93aa4190932a","system_id":"levelo_inurba_marseille","lat":43.31673,"lon":5.3747,"is_reserved":false,"is_disabled":false,"rental_uris":{"android":"levelo://app?vid=607f7da1-dcb7-4916-8614-93aa4190932a","ios":"levelo://app?vid=607f7da1-dcb7-4916-8614-93aa4190932a"},"vehicle_type_id":"4","last_reported":1690402022,"current_range_meters":2400,"station_id":"","pricing_plan_id":"free"},{"bike_id":"50dcae35-b31e-46f2-9afa-169c329aaa64","system_id":"levelo_inurba_marseille","lat":43.30539,"lon":5.36709,"is_reserved":false,"is_disabled":false,"rental_uris":{"android":"levelo://app?vid=50dcae35-b31e-46f2-9afa-169c329aaa64","ios":"levelo://app?vid=50dcae35-b31e-46f2-9afa-169c329aaa64"},"vehicle_type_id":"4","last_reported":1690402022,"current_range_meters":5200,"station_id":"ce4bgrp2rcd13ifvqc9g","pricing_plan_id":"free"},{"bike_id":"c66b6259-5b3a-4bd5-b055-81caf613169c","system_id":"levelo_inurba_marseille","lat":43.305706,"lon":5.365654,"is_reserved":false,"is_disabled":false,"rental_uris":{"android":"levelo://app?vid=c66b6259-5b3a-4bd5-b055-81caf613169c","ios":"levelo://app?vid=c66b6259-5b3a-4bd5-b055-81caf613169c"},"vehicle_type_id":"4","last_reported":1690402022,"current_range_meters":0,"station_id":"ce4bgs12rcd13ifvqcag","pricing_plan_id":"free"},{"bike_id":"9e7cf632-a32d-41b3-87ec-d7b8250f34c6","system_id":"levelo_inurba_marseille","lat":43.30542,"lon":5.36525,"is_reserved":false,"is_disabled":false,"rental_uris":{"android":"levelo://app?vid=9e7cf632-a32d-41b3-87ec-d7b8250f34c6","ios":"levelo://app?vid=9e7cf632-a32d-41b3-87ec-d7b8250f34c6"},"vehicle_type_id":"4","last_reported":1690402022,"current_range_meters":22000,"station_id":"ce4bgs12rcd13ifvqcag","pricing_plan_id":"free"},{"bike_id":"bd57b9fe-f32a-45be-87da-2c64d30b9a57","system_id":"levelo_inurba_marseille","lat":43.305368,"lon":5.367343,"is_reserved":false,"is_disabled":false,"rental_uris":{"android":"levelo://app?vid=bd57b9fe-f32a-45be-87da-2c64d30b9a57","ios":"levelo://app?vid=bd57b9fe-f32a-45be-87da-2c64d30b9a57"},"vehicle_type_id":"4","last_reported":1690402022,"current_range_meters":11600,"station_id":"ce4bgrp2rcd13ifvqc9g","pricing_plan_id":"free"},{"bike_id":"6ca20d4b-d63c-4793-9a03-e8dde618c46d","system_id":"levelo_inurba_marseille","lat":43.305368,"lon":5.367343,"is_reserved":false,"is_disabled":false,"rental_uris":{"android":"levelo://app?vid=6ca20d4b-d63c-4793-9a03-e8dde618c46d","ios":"levelo://app?vid=6ca20d4b-d63c-4793-9a03-e8dde618c46d"},"vehicle_type_id":"4","last_reported":1690402022,"current_range_meters":29600,"station_id":"ce4bgrp2rcd13ifvqc9g","pricing_plan_id":"free"},{"bike_id":"3cee355e-2c1b-4f01-8d8c-c5fe4e45d1f6","system_id":"levelo_inurba_marseille","lat":43.311125,"lon":5.377624,"is_reserved":false,"is_disabled":false,"rental_uris":{"android":"levelo://app?vid=3cee355e-2c1b-4f01-8d8c-c5fe4e45d1f6","ios":"levelo://app?vid=3cee355e-2c1b-4f01-8d8c-c5fe4e45d1f6"},"vehicle_type_id":"4","last_reported":1690402022,"current_range_meters":21200,"station_id":"ce4bgt92rcd13ifvqcg0","pricing_plan_id":"free"},{"bike_id":"0d6fb9a1-4dc3-4ff1-a5f6-c29b39489958","system_id":"levelo_inurba_marseille","lat":43.311125,"lon":5.377624,"is_reserved":false,"is_disabled":false,"rental_uris":{"android":"levelo://app?vid=0d6fb9a1-4dc3-4ff1-a5f6-c29b39489958","ios":"levelo://app?vid=0d6fb9a1-4dc3-4ff1-a5f6-c29b39489958"},"vehicle_type_id":"4","last_reported":1690402022,"current_range_meters":6800,"station_id":"ce4bgt92rcd13ifvqcg0","pricing_plan_id":"free"},{"bike_id":"d2ccbc1f-3a6b-4a6c-b554-7caf6614fa6f","system_id":"levelo_inurba_marseille","lat":43.311125,"lon":5.377624,"is_reserved":false,"is_disabled":false,"rental_uris":{"android":"levelo://app?vid=d2ccbc1f-3a6b-4a6c-b554-7caf6614fa6f","ios":"levelo://app?vid=d2ccbc1f-3a6b-4a6c-b554-7caf6614fa6f"},"vehicle_type_id":"4","last_reported":1690402022,"current_range_meters":9200,"station_id":"ce4bgt92rcd13ifvqcg0","pricing_plan_id":"free"},{"bike_id":"2d6c78ea-27e4-4695-8205-9a3a63649f35","system_id":"levelo_inurba_marseille","lat":43.3081,"lon":5.37663,"is_reserved":false,"is_disabled":false,"rental_uris":{"android":"levelo://app?vid=2d6c78ea-27e4-4695-8205-9a3a63649f35","ios":"levelo://app?vid=2d6c78ea-27e4-4695-8205-9a3a63649f35"},"vehicle_type_id":"4","last_reported":1690402022,"current_range_meters":5200,"station_id":"ce4bgv92rcd13ifvqcq0","pricing_plan_id":"free"},{"bike_id":"2f9acb54-817d-48a1-813a-4d509233d464","system_id":"levelo_inurba_marseille","lat":43.307945,"lon":5.376487,"is_reserved":false,"is_disabled":false,"rental_uris":{"android":"levelo://app?vid=2f9acb54-817d-48a1-813a-4d509233d464","ios":"levelo://app?vid=2f9acb54-817d-48a1-813a-4d509233d464"},"vehicle_type_id":"4","last_reported":1690402022,"current_range_meters":800,"station_id":"ce4bgv92rcd13ifvqcq0","pricing_plan_id":"free"},{"bike_id":"bb6026bc-dfe9-4099-a747-1d9bf6c5bc30","system_id":"levelo_inurba_marseille","lat":43.3081,"lon":5.37664,"is_reserved":false,"is_disabled":false,"rental_uris":{"android":"levelo://app?vid=bb6026bc-dfe9-4099-a747-1d9bf6c5bc30","ios":"levelo://app?vid=bb6026bc-dfe9-4099-a747-1d9bf6c5bc30"},"vehicle_type_id":"4","last_reported":1690402022,"current_range_meters":5200,"station_id":"ce4bgv92rcd13ifvqcq0","pricing_plan_id":"free"},{"bike_id":"61031a22-6ad4-4f2a-9ce0-1574a82bb89a","system_id":"levelo_inurba_marseille","lat":43.317075,"lon":5.377367,"is_reserved":false,"is_disabled":false,"rental_uris":{"android":"levelo://app?vid=61031a22-6ad4-4f2a-9ce0-1574a82bb89a","ios":"levelo://app?vid=61031a22-6ad4-4f2a-9ce0-1574a82bb89a"},"vehicle_type_id":"4","last_reported":1690402022,"current_range_meters":28000,"station_id":"ce4bgth2rcd13ifvqch0","pricing_plan_id":"free"},{"bike_id":"7adb652a-f9fd-44cc-93b1-1afa58394305","system_id":"levelo_inurba_marseille","lat":43.303046,"lon":5.368981,"is_reserved":false,"is_disabled":false,"rental_uris":{"android":"levelo://app?vid=7adb652a-f9fd-44cc-93b1-1afa58394305","ios":"levelo://app?vid=7adb652a-f9fd-44cc-93b1-1afa58394305"},"vehicle_type_id":"4","last_reported":1690402022,"current_range_meters":30400,"station_id":"ce4bgqh2rcd13ifvqc5g","pricing_plan_id":"free"},{"bike_id":"a3a74561-6f4e-480c-a560-5b72f5829dcb","system_id":"levelo_inurba_marseille","lat":43.30302,"lon":5.36913,"is_reserved":false,"is_disabled":false,"rental_uris":{"android":"levelo://app?vid=a3a74561-6f4e-480c-a560-5b72f5829dcb","ios":"levelo://app?vid=a3a74561-6f4e-480c-a560-5b72f5829dcb"},"vehicle_type_id":"4","last_reported":1690402022,"current_range_meters":22800,"station_id":"ce4bgqh2rcd13ifvqc5g","pricing_plan_id":"free"},{"bike_id":"072638f2-5a37-42c8-ac25-3488742cfb9c","system_id":"levelo_inurba_marseille","lat":43.315293,"lon":5.380349,"is_reserved":false,"is_disabled":false,"rental_uris":{"android":"levelo://app?vid=072638f2-5a37-42c8-ac25-3488742cfb9c","ios":"levelo://app?vid=072638f2-5a37-42c8-ac25-3488742cfb9c"},"vehicle_type_id":"4","last_reported":1690402022,"current_range_meters":18000,"station_id":"ce4bhsp2rcd13ifvqi50","pricing_plan_id":"free"},{"bike_id":"3051dde6-8f28-4891-a2e2-2bc1d62d7e98","system_id":"levelo_inurba_marseille","lat":43.315293,"lon":5.380349,"is_reserved":false,"is_disabled":false,"rental_uris":{"android":"levelo://app?vid=3051dde6-8f28-4891-a2e2-2bc1d62d7e98","ios":"levelo://app?vid=3051dde6-8f28-4891-a2e2-2bc1d62d7e98"},"vehicle_type_id":"4","last_reported":1690402022,"current_range_meters":22400,"station_id":"ce4bhsp2rcd13ifvqi50","pricing_plan_id":"free"},{"bike_id":"eaf3ea46-48e6-4926-bad0-c2b9b9aa6d99","system_id":"levelo_inurba_marseille","lat":43.30184,"lon":5.36617,"is_reserved":false,"is_disabled":false,"rental_uris":{"android":"levelo://app?vid=eaf3ea46-48e6-4926-bad0-c2b9b9aa6d99","ios":"levelo://app?vid=eaf3ea46-48e6-4926-bad0-c2b9b9aa6d99"},"vehicle_type_id":"4","last_reported":1690402022,"current_range_meters":2400,"station_id":"ce4bgrh2rcd13ifvqc8g","pricing_plan_id":"free"},{"bike_id":"90a54f04-309f-4beb-8f56-a4bbaad38641","system_id":"levelo_inurba_marseille","lat":43.319935,"lon":5.381699,"is_reserved":false,"is_disabled":false,"rental_uris":{"android":"levelo://app?vid=90a54f04-309f-4beb-8f56-a4bbaad38641","ios":"levelo://app?vid=90a54f04-309f-4beb-8f56-a4bbaad38641"},"vehicle_type_id":"4","last_reported":1690402022,"current_range_meters":18800,"station_id":"ce4bhr12rcd13ifvqhpg","pricing_plan_id":"free"},{"bike_id":"b25041cd-cf00-49f6-857a-7e4cb81e50f3","system_id":"levelo_inurba_marseille","lat":43.319935,"lon":5.381699,"is_reserved":false,"is_disabled":false,"rental_uris":{"android":"levelo://app?vid=b25041cd-cf00-49f6-857a-7e4cb81e50f3","ios":"levelo://app?vid=b25041cd-cf00-49f6-857a-7e4cb81e50f3"},"vehicle_type_id":"4","last_reported":1690402022,"current_range_meters":22800,"station_id":"ce4bhr12rcd13ifvqhpg","pricing_plan_id":"free"},{"bike_id":"6cd76382-0e37-4667-be42-0d577f2b4f40","system_id":"levelo_inurba_marseille","lat":43.31356,"lon":5.38493,"is_reserved":false,"is_disabled":false,"rental_uris":{"android":"levelo://app?vid=6cd76382-0e37-4667-be42-0d577f2b4f40","ios":"levelo://app?vid=6cd76382-0e37-4667-be42-0d577f2b4f40"},"vehicle_type_id":"4","last_reported":1690402022,"current_range_meters":800,"station_id":"ce4bgt92rcd13ifvqcf0","pricing_plan_id":"free"},{"bike_id":"ce227099-3046-4626-a375-b7407dfd0d60","system_id":"levelo_inurba_marseille","lat":43.31359,"lon":5.38498,"is_reserved":false,"is_disabled":false,"rental_uris":{"android":"levelo://app?vid=ce227099-3046-4626-a375-b7407dfd0d60","ios":"levelo://app?vid=ce227099-3046-4626-a375-b7407dfd0d60"},"vehicle_type_id":"4","last_reported":1690402022,"current_range_meters":29600,"station_id":"ce4bgt92rcd13ifvqcf0","pricing_plan_id":"free"},{"bike_id":"9084d732-434b-48a2-8dbc-31cb1810e2c3","system_id":"levelo_inurba_marseille","lat":43.31357,"lon":5.38499,"is_reserved":false,"is_disabled":false,"rental_uris":{"android":"levelo://app?vid=9084d732-434b-48a2-8dbc-31cb1810e2c3","ios":"levelo://app?vid=9084d732-434b-48a2-8dbc-31cb1810e2c3"},"vehicle_type_id":"4","last_reported":1690402022,"current_range_meters":1200,"station_id":"ce4bgt92rcd13ifvqcf0","pricing_plan_id":"free"},{"bike_id":"11ccee0e-7c24-4701-9e9c-f861d8a63018","system_id":"levelo_inurba_marseille","lat":43.31363,"lon":5.38501,"is_reserved":false,"is_disabled":false,"rental_uris":{"android":"levelo://app?vid=11ccee0e-7c24-4701-9e9c-f861d8a63018","ios":"levelo://app?vid=11ccee0e-7c24-4701-9e9c-f861d8a63018"},"vehicle_type_id":"4","last_reported":1690402022,"current_range_meters":12000,"station_id":"ce4bgt92rcd13ifvqcf0","pricing_plan_id":"free"},{"bike_id":"39768b2a-bf64-440b-8140-e3577cb3f0b9","system_id":"levelo_inurba_marseille","lat":43.313571,"lon":5.384829,"is_reserved":false,"is_disabled":false,"rental_uris":{"android":"levelo://app?vid=39768b2a-bf64-440b-8140-e3577cb3f0b9","ios":"levelo://app?vid=39768b2a-bf64-440b-8140-e3577cb3f0b9"},"vehicle_type_id":"4","last_reported":1690402022,"current_range_meters":31200,"station_id":"ce4bgt92rcd13ifvqcf0","pricing_plan_id":"free"},{"bike_id":"38f277f6-bbea-4f97-ad34-b7e14228c287","system_id":"levelo_inurba_marseille","lat":43.299724,"lon":5.371829,"is_reserved":false,"is_disabled":false,"rental_uris":{"android":"levelo://app?vid=38f277f6-bbea-4f97-ad34-b7e14228c287","ios":"levelo://app?vid=38f277f6-bbea-4f97-ad34-b7e14228c287"},"vehicle_type_id":"4","last_reported":1690402022,"current_range_meters":2800,"station_id":"ce4bgr92rcd13ifvqc7g","pricing_plan_id":"free"},{"bike_id":"6536afcb-9a9e-4cee-97e8-76f268c63aad","system_id":"levelo_inurba_marseille","lat":43.299724,"lon":5.371829,"is_reserved":false,"is_disabled":false,"rental_uris":{"android":"levelo://app?vid=6536afcb-9a9e-4cee-97e8-76f268c63aad","ios":"levelo://app?vid=6536afcb-9a9e-4cee-97e8-76f268c63aad"},"vehicle_type_id":"4","last_reported":1690402022,"current_range_meters":6400,"station_id":"ce4bgr92rcd13ifvqc7g","pricing_plan_id":"free"},{"bike_id":"f705cc15-ea0f-4d48-aca8-1536ed78a82c","system_id":"levelo_inurba_marseille","lat":43.299315,"lon":5.365566,"is_reserved":false,"is_disabled":false,"rental_uris":{"android":"levelo://app?vid=f705cc15-ea0f-4d48-aca8-1536ed78a82c","ios":"levelo://app?vid=f705cc15-ea0f-4d48-aca8-1536ed78a82c"},"vehicle_type_id":"4","last_reported":1690402022,"current_range_meters":14400,"station_id":"ce4bgm92rcd13ifvqbr0","pricing_plan_id":"free"},{"bike_id":"ac01e221-421b-480e-8ba8-8e351c3216df","system_id":"levelo_inurba_marseille","lat":43.299222,"lon":5.365554,"is_reserved":false,"is_disabled":false,"rental_uris":{"android":"levelo://app?vid=ac01e221-421b-480e-8ba8-8e351c3216df","ios":"levelo://app?vid=ac01e221-421b-480e-8ba8-8e351c3216df"},"vehicle_type_id":"4","last_reported":1690402022,"current_range_meters":16800,"station_id":"ce4bgm92rcd13ifvqbr0","pricing_plan_id":"free"},{"bike_id":"878f884c-03d4-49de-911f-1f9eb9cc2b39","system_id":"levelo_inurba_marseille","lat":43.30549,"lon":5.38423,"is_reserved":false,"is_disabled":false,"rental_uris":{"android":"levelo://app?vid=878f884c-03d4-49de-911f-1f9eb9cc2b39","ios":"levelo://app?vid=878f884c-03d4-49de-911f-1f9eb9cc2b39"},"vehicle_type_id":"4","last_reported":1690402022,"current_range_meters":14800,"station_id":"ce4bgg92rcd13ifvqb30","pricing_plan_id":"free"},{"bike_id":"acabd608-1cb7-49bc-9096-9279341a37b5","system_id":"levelo_inurba_marseille","lat":43.30548,"lon":5.38426,"is_reserved":false,"is_disabled":false,"rental_uris":{"android":"levelo://app?vid=acabd608-1cb7-49bc-9096-9279341a37b5","ios":"levelo://app?vid=acabd608-1cb7-49bc-9096-9279341a37b5"},"vehicle_type_id":"4","last_reported":1690402022,"current_range_meters":5200,"station_id":"ce4bgg92rcd13ifvqb30","pricing_plan_id":"free"},{"bike_id":"51ede15b-fc11-430c-a77e-1935fb191fcb","system_id":"levelo_inurba_marseille","lat":43.30533,"lon":5.38419,"is_reserved":false,"is_disabled":false,"rental_uris":{"android":"levelo://app?vid=51ede15b-fc11-430c-a77e-1935fb191fcb","ios":"levelo://app?vid=51ede15b-fc11-430c-a77e-1935fb191fcb"},"vehicle_type_id":"4","last_reported":1690402022,"current_range_meters":20000,"station_id":"ce4bgg92rcd13ifvqb30","pricing_plan_id":"free"},{"bike_id":"89f95ff9-05e2-4a3b-960a-321f141156ba","system_id":"levelo_inurba_marseille","lat":43.298433,"lon":5.362774,"is_reserved":false,"is_disabled":false,"rental_uris":{"android":"levelo://app?vid=89f95ff9-05e2-4a3b-960a-321f141156ba","ios":"levelo://app?vid=89f95ff9-05e2-4a3b-960a-321f141156ba"},"vehicle_type_id":"4","last_reported":1690402022,"current_range_meters":6000,"station_id":"ce4bgpp2rcd13ifvqc3g","pricing_plan_id":"free"},{"bike_id":"eb83178f-9611-4538-b3ea-6bdf579914fc","system_id":"levelo_inurba_marseille","lat":43.31166,"lon":5.38708,"is_reserved":false,"is_disabled":false,"rental_uris":{"android":"levelo://app?vid=eb83178f-9611-4538-b3ea-6bdf579914fc","ios":"levelo://app?vid=eb83178f-9611-4538-b3ea-6bdf579914fc"},"vehicle_type_id":"4","last_reported":1690402022,"current_range_meters":12000,"station_id":"ce4bgv12rcd13ifvqcp0","pricing_plan_id":"free"},{"bike_id":"1f397139-9cea-4cbf-9340-92e34eb60a0c","system_id":"levelo_inurba_marseille","lat":43.31179,"lon":5.38714,"is_reserved":false,"is_disabled":false,"rental_uris":{"android":"levelo://app?vid=1f397139-9cea-4cbf-9340-92e34eb60a0c","ios":"levelo://app?vid=1f397139-9cea-4cbf-9340-92e34eb60a0c"},"vehicle_type_id":"4","last_reported":1690402022,"current_range_meters":5600,"station_id":"ce4bgv12rcd13ifvqcp0","pricing_plan_id":"free"},{"bike_id":"cfbe370f-48c2-4029-bea2-7f0b999dc9cc","system_id":"levelo_inurba_marseille","lat":43.31169,"lon":5.38716,"is_reserved":false,"is_disabled":false,"rental_uris":{"android":"levelo://app?vid=cfbe370f-48c2-4029-bea2-7f0b999dc9cc","ios":"levelo://app?vid=cfbe370f-48c2-4029-bea2-7f0b999dc9cc"},"vehicle_type_id":"4","last_reported":1690402022,"current_range_meters":18000,"station_id":"","pricing_plan_id":"free"},{"bike_id":"beed16f7-cc9f-4e68-8f58-302036c20d44","system_id":"levelo_inurba_marseille","lat":43.311722,"lon":5.387247,"is_reserved":false,"is_disabled":false,"rental_uris":{"android":"levelo://app?vid=beed16f7-cc9f-4e68-8f58-302036c20d44","ios":"levelo://app?vid=beed16f7-cc9f-4e68-8f58-302036c20d44"},"vehicle_type_id":"4","last_reported":1690402022,"current_range_meters":27600,"station_id":"ce4bgv12rcd13ifvqcp0","pricing_plan_id":"free"},{"bike_id":"e367e5fe-9735-4c36-baac-ecd247b389d0","system_id":"levelo_inurba_marseille","lat":43.311722,"lon":5.387247,"is_reserved":false,"is_disabled":false,"rental_uris":{"android":"levelo://app?vid=e367e5fe-9735-4c36-baac-ecd247b389d0","ios":"levelo://app?vid=e367e5fe-9735-4c36-baac-ecd247b389d0"},"vehicle_type_id":"4","last_reported":1690402022,"current_range_meters":15600,"station_id":"ce4bgv12rcd13ifvqcp0","pricing_plan_id":"free"},{"bike_id":"3e8ef0cd-a22a-4d15-895c-9372b436ccc5","system_id":"levelo_inurba_marseille","lat":43.311722,"lon":5.387247,"is_reserved":false,"is_disabled":false,"rental_uris":{"android":"levelo://app?vid=3e8ef0cd-a22a-4d15-895c-9372b436ccc5","ios":"levelo://app?vid=3e8ef0cd-a22a-4d15-895c-9372b436ccc5"},"vehicle_type_id":"4","last_reported":1690402022,"current_range_meters":20000,"station_id":"ce4bgv12rcd13ifvqcp0","pricing_plan_id":"free"},{"bike_id":"9fb51c04-a4b6-4bcf-aa07-b2aecac2369f","system_id":"levelo_inurba_marseille","lat":43.311722,"lon":5.387247,"is_reserved":false,"is_disabled":false,"rental_uris":{"android":"levelo://app?vid=9fb51c04-a4b6-4bcf-aa07-b2aecac2369f","ios":"levelo://app?vid=9fb51c04-a4b6-4bcf-aa07-b2aecac2369f"},"vehicle_type_id":"4","last_reported":1690402022,"current_range_meters":23200,"station_id":"ce4bgv12rcd13ifvqcp0","pricing_plan_id":"free"},{"bike_id":"5c17c5c3-81c5-4f24-b8e8-822f577ccb0f","system_id":"levelo_inurba_marseille","lat":43.32286,"lon":5.38276,"is_reserved":false,"is_disabled":false,"rental_uris":{"android":"levelo://app?vid=5c17c5c3-81c5-4f24-b8e8-822f577ccb0f","ios":"levelo://app?vid=5c17c5c3-81c5-4f24-b8e8-822f577ccb0f"},"vehicle_type_id":"4","last_reported":1690402022,"current_range_meters":800,"station_id":"ce4bhr12rcd13ifvqhqg","pricing_plan_id":"free"},{"bike_id":"316e88fb-cba0-48b8-840b-7e1881569755","system_id":"levelo_inurba_marseille","lat":43.32291,"lon":5.3827,"is_reserved":false,"is_disabled":false,"rental_uris":{"android":"levelo://app?vid=316e88fb-cba0-48b8-840b-7e1881569755","ios":"levelo://app?vid=316e88fb-cba0-48b8-840b-7e1881569755"},"vehicle_type_id":"4","last_reported":1690402022,"current_range_meters":20400,"station_id":"ce4bhr12rcd13ifvqhqg","pricing_plan_id":"free"},{"bike_id":"cce47f54-795a-455b-bc38-bc1eb9d02f03","system_id":"levelo_inurba_marseille","lat":43.32286,"lon":5.38277,"is_reserved":false,"is_disabled":false,"rental_uris":{"android":"levelo://app?vid=cce47f54-795a-455b-bc38-bc1eb9d02f03","ios":"levelo://app?vid=cce47f54-795a-455b-bc38-bc1eb9d02f03"},"vehicle_type_id":"4","last_reported":1690402022,"current_range_meters":12400,"station_id":"ce4bhr12rcd13ifvqhqg","pricing_plan_id":"free"},{"bike_id":"1ddfe248-918b-4110-9c81-ca8a913d4717","system_id":"levelo_inurba_marseille","lat":43.32826,"lon":5.36682,"is_reserved":false,"is_disabled":false,"rental_uris":{"android":"levelo://app?vid=1ddfe248-918b-4110-9c81-ca8a913d4717","ios":"levelo://app?vid=1ddfe248-918b-4110-9c81-ca8a913d4717"},"vehicle_type_id":"4","last_reported":1690402022,"current_range_meters":29600,"station_id":"ce4bhs92rcd13ifvqi0g","pricing_plan_id":"free"},{"bike_id":"f0aa9365-f8de-4a00-a5ed-32d30ea68b1a","system_id":"levelo_inurba_marseille","lat":43.328371,"lon":5.366909,"is_reserved":false,"is_disabled":false,"rental_uris":{"android":"levelo://app?vid=f0aa9365-f8de-4a00-a5ed-32d30ea68b1a","ios":"levelo://app?vid=f0aa9365-f8de-4a00-a5ed-32d30ea68b1a"},"vehicle_type_id":"4","last_reported":1690402022,"current_range_meters":3600,"station_id":"ce4bhs92rcd13ifvqi0g","pricing_plan_id":"free"},{"bike_id":"0152df97-6f5b-423a-983e-b5c5759143c2","system_id":"levelo_inurba_marseille","lat":43.32828,"lon":5.36688,"is_reserved":false,"is_disabled":false,"rental_uris":{"android":"levelo://app?vid=0152df97-6f5b-423a-983e-b5c5759143c2","ios":"levelo://app?vid=0152df97-6f5b-423a-983e-b5c5759143c2"},"vehicle_type_id":"4","last_reported":1690402022,"current_range_meters":18000,"station_id":"ce4bhs92rcd13ifvqi0g","pricing_plan_id":"free"},{"bike_id":"08b697a2-755d-447c-a0f5-ab9896732714","system_id":"levelo_inurba_marseille","lat":43.3283,"lon":5.36691,"is_reserved":false,"is_disabled":false,"rental_uris":{"android":"levelo://app?vid=08b697a2-755d-447c-a0f5-ab9896732714","ios":"levelo://app?vid=08b697a2-755d-447c-a0f5-ab9896732714"},"vehicle_type_id":"4","last_reported":1690402022,"current_range_meters":10800,"station_id":"ce4bhs92rcd13ifvqi0g","pricing_plan_id":"free"},{"bike_id":"df87d501-5ab3-473c-89b3-a784852638b8","system_id":"levelo_inurba_marseille","lat":43.328371,"lon":5.366909,"is_reserved":false,"is_disabled":false,"rental_uris":{"android":"levelo://app?vid=df87d501-5ab3-473c-89b3-a784852638b8","ios":"levelo://app?vid=df87d501-5ab3-473c-89b3-a784852638b8"},"vehicle_type_id":"4","last_reported":1690402022,"current_range_meters":11200,"station_id":"ce4bhs92rcd13ifvqi0g","pricing_plan_id":"free"},{"bike_id":"f6aff320-0521-4413-9c31-5c65f268910d","system_id":"levelo_inurba_marseille","lat":43.297163,"lon":5.365866,"is_reserved":false,"is_disabled":false,"rental_uris":{"android":"levelo://app?vid=f6aff320-0521-4413-9c31-5c65f268910d","ios":"levelo://app?vid=f6aff320-0521-4413-9c31-5c65f268910d"},"vehicle_type_id":"4","last_reported":1690402022,"current_range_meters":30800,"station_id":"ce4bgn12rcd13ifvqbt0","pricing_plan_id":"free"},{"bike_id":"b86e59c3-10b6-4e7b-abf2-b1aa7f327e47","system_id":"levelo_inurba_marseille","lat":43.297163,"lon":5.365866,"is_reserved":false,"is_disabled":false,"rental_uris":{"android":"levelo://app?vid=b86e59c3-10b6-4e7b-abf2-b1aa7f327e47","ios":"levelo://app?vid=b86e59c3-10b6-4e7b-abf2-b1aa7f327e47"},"vehicle_type_id":"4","last_reported":1690402022,"current_range_meters":19600,"station_id":"ce4bgn12rcd13ifvqbt0","pricing_plan_id":"free"},{"bike_id":"78fbeed0-43d3-40ed-8f06-7b9127213316","system_id":"levelo_inurba_marseille","lat":43.297163,"lon":5.365866,"is_reserved":false,"is_disabled":false,"rental_uris":{"android":"levelo://app?vid=78fbeed0-43d3-40ed-8f06-7b9127213316","ios":"levelo://app?vid=78fbeed0-43d3-40ed-8f06-7b9127213316"},"vehicle_type_id":"4","last_reported":1690402022,"current_range_meters":27600,"station_id":"ce4bgn12rcd13ifvqbt0","pricing_plan_id":"free"},{"bike_id":"dd789220-e7b5-42c1-b9dc-dc4243148021","system_id":"levelo_inurba_marseille","lat":43.297163,"lon":5.365866,"is_reserved":false,"is_disabled":false,"rental_uris":{"android":"levelo://app?vid=dd789220-e7b5-42c1-b9dc-dc4243148021","ios":"levelo://app?vid=dd789220-e7b5-42c1-b9dc-dc4243148021"},"vehicle_type_id":"4","last_reported":1690402022,"current_range_meters":31200,"station_id":"ce4bgn12rcd13ifvqbt0","pricing_plan_id":"free"},{"bike_id":"ba870197-9bf7-4c54-a86b-e0c48da29170","system_id":"levelo_inurba_marseille","lat":43.296131,"lon":5.370773,"is_reserved":false,"is_disabled":false,"rental_uris":{"android":"levelo://app?vid=ba870197-9bf7-4c54-a86b-e0c48da29170","ios":"levelo://app?vid=ba870197-9bf7-4c54-a86b-e0c48da29170"},"vehicle_type_id":"4","last_reported":1690402022,"current_range_meters":4400,"station_id":"ce4bgnh2rcd13ifvqc0g","pricing_plan_id":"free"},{"bike_id":"b9a2356e-c6c3-4293-9df1-0efd2dd2fa50","system_id":"levelo_inurba_marseille","lat":43.296921,"lon":5.376579,"is_reserved":false,"is_disabled":false,"rental_uris":{"android":"levelo://app?vid=b9a2356e-c6c3-4293-9df1-0efd2dd2fa50","ios":"levelo://app?vid=b9a2356e-c6c3-4293-9df1-0efd2dd2fa50"},"vehicle_type_id":"4","last_reported":1690402022,"current_range_meters":14400,"station_id":"ce4bgkh2rcd13ifvqbl0","pricing_plan_id":"free"},{"bike_id":"77339177-0399-4282-8027-8929dcb6a61e","system_id":"levelo_inurba_marseille","lat":43.309589,"lon":5.390258,"is_reserved":false,"is_disabled":false,"rental_uris":{"android":"levelo://app?vid=77339177-0399-4282-8027-8929dcb6a61e","ios":"levelo://app?vid=77339177-0399-4282-8027-8929dcb6a61e"},"vehicle_type_id":"4","last_reported":1690402022,"current_range_meters":18400,"station_id":"ce4bgup2rcd13ifvqco0","pricing_plan_id":"free"},{"bike_id":"80996baf-8597-4552-b66a-a0139bedf903","system_id":"levelo_inurba_marseille","lat":43.309502,"lon":5.390365,"is_reserved":false,"is_disabled":false,"rental_uris":{"android":"levelo://app?vid=80996baf-8597-4552-b66a-a0139bedf903","ios":"levelo://app?vid=80996baf-8597-4552-b66a-a0139bedf903"},"vehicle_type_id":"4","last_reported":1690402022,"current_range_meters":12800,"station_id":"","pricing_plan_id":"free"},{"bike_id":"e9b506d7-fd80-4639-8587-f1f50e7e7a6f","system_id":"levelo_inurba_marseille","lat":43.30949,"lon":5.39042,"is_reserved":false,"is_disabled":false,"rental_uris":{"android":"levelo://app?vid=e9b506d7-fd80-4639-8587-f1f50e7e7a6f","ios":"levelo://app?vid=e9b506d7-fd80-4639-8587-f1f50e7e7a6f"},"vehicle_type_id":"4","last_reported":1690402022,"current_range_meters":5600,"station_id":"ce4bgup2rcd13ifvqco0","pricing_plan_id":"free"},{"bike_id":"f0b1921d-8fc5-42f6-8214-26455e772ce5","system_id":"levelo_inurba_marseille","lat":43.309589,"lon":5.390258,"is_reserved":false,"is_disabled":false,"rental_uris":{"android":"levelo://app?vid=f0b1921d-8fc5-42f6-8214-26455e772ce5","ios":"levelo://app?vid=f0b1921d-8fc5-42f6-8214-26455e772ce5"},"vehicle_type_id":"4","last_reported":1690402022,"current_range_meters":28800,"station_id":"ce4bgup2rcd13ifvqco0","pricing_plan_id":"free"},{"bike_id":"c3ee1d91-a578-4d23-861d-61fd7032beae","system_id":"levelo_inurba_marseille","lat":43.317557,"lon":5.390173,"is_reserved":false,"is_disabled":false,"rental_uris":{"android":"levelo://app?vid=c3ee1d91-a578-4d23-861d-61fd7032beae","ios":"levelo://app?vid=c3ee1d91-a578-4d23-861d-61fd7032beae"},"vehicle_type_id":"4","last_reported":1690402022,"current_range_meters":24400,"station_id":"ce4bhqp2rcd13ifvqhng","pricing_plan_id":"free"},{"bike_id":"427d6827-e706-48f9-8e67-d6891386c489","system_id":"levelo_inurba_marseille","lat":43.30426,"lon":5.3888,"is_reserved":false,"is_disabled":false,"rental_uris":{"android":"levelo://app?vid=427d6827-e706-48f9-8e67-d6891386c489","ios":"levelo://app?vid=427d6827-e706-48f9-8e67-d6891386c489"},"vehicle_type_id":"4","last_reported":1690402022,"current_range_meters":20800,"station_id":"ce4bgk12rcd13ifvqbi0","pricing_plan_id":"free"},{"bike_id":"2dc7d700-0036-405d-a3b5-7bd4c5afaf33","system_id":"levelo_inurba_marseille","lat":43.304294,"lon":5.388884,"is_reserved":false,"is_disabled":false,"rental_uris":{"android":"levelo://app?vid=2dc7d700-0036-405d-a3b5-7bd4c5afaf33","ios":"levelo://app?vid=2dc7d700-0036-405d-a3b5-7bd4c5afaf33"},"vehicle_type_id":"4","last_reported":1690402022,"current_range_meters":7600,"station_id":"ce4bgk12rcd13ifvqbi0","pricing_plan_id":"free"},{"bike_id":"590e3508-9cf6-4d78-8d48-9b6acff0c9e6","system_id":"levelo_inurba_marseille","lat":43.304274,"lon":5.388873,"is_reserved":false,"is_disabled":false,"rental_uris":{"android":"levelo://app?vid=590e3508-9cf6-4d78-8d48-9b6acff0c9e6","ios":"levelo://app?vid=590e3508-9cf6-4d78-8d48-9b6acff0c9e6"},"vehicle_type_id":"4","last_reported":1690402022,"current_range_meters":21200,"station_id":"ce4bgk12rcd13ifvqbi0","pricing_plan_id":"free"},{"bike_id":"4176dd16-90d3-4528-bdbd-d3e1e1b70ff2","system_id":"levelo_inurba_marseille","lat":43.30429,"lon":5.38895,"is_reserved":false,"is_disabled":false,"rental_uris":{"android":"levelo://app?vid=4176dd16-90d3-4528-bdbd-d3e1e1b70ff2","ios":"levelo://app?vid=4176dd16-90d3-4528-bdbd-d3e1e1b70ff2"},"vehicle_type_id":"4","last_reported":1690402022,"current_range_meters":0,"station_id":"ce4bgk12rcd13ifvqbi0","pricing_plan_id":"free"},{"bike_id":"3abb1167-90a4-49ea-a0fe-0cd3592e1a71","system_id":"levelo_inurba_marseille","lat":43.30426,"lon":5.38897,"is_reserved":false,"is_disabled":false,"rental_uris":{"android":"levelo://app?vid=3abb1167-90a4-49ea-a0fe-0cd3592e1a71","ios":"levelo://app?vid=3abb1167-90a4-49ea-a0fe-0cd3592e1a71"},"vehicle_type_id":"4","last_reported":1690402022,"current_range_meters":2800,"station_id":"ce4bgk12rcd13ifvqbi0","pricing_plan_id":"free"},{"bike_id":"7c2253f6-13ce-494e-85e4-291276419dac","system_id":"levelo_inurba_marseille","lat":43.299707,"lon":5.384859,"is_reserved":false,"is_disabled":false,"rental_uris":{"android":"levelo://app?vid=7c2253f6-13ce-494e-85e4-291276419dac","ios":"levelo://app?vid=7c2253f6-13ce-494e-85e4-291276419dac"},"vehicle_type_id":"4","last_reported":1690402022,"current_range_meters":18400,"station_id":"ce4bgj92rcd13ifvqbd0","pricing_plan_id":"free"},{"bike_id":"8341b695-7aa2-4828-af6e-dbf7712b40a9","system_id":"levelo_inurba_marseille","lat":43.299707,"lon":5.384859,"is_reserved":false,"is_disabled":false,"rental_uris":{"android":"levelo://app?vid=8341b695-7aa2-4828-af6e-dbf7712b40a9","ios":"levelo://app?vid=8341b695-7aa2-4828-af6e-dbf7712b40a9"},"vehicle_type_id":"4","last_reported":1690402022,"current_range_meters":23200,"station_id":"ce4bgj92rcd13ifvqbd0","pricing_plan_id":"free"},{"bike_id":"9c18db74-635f-4cd9-a4e6-273c6fffd86f","system_id":"levelo_inurba_marseille","lat":43.299717,"lon":5.384845,"is_reserved":false,"is_disabled":false,"rental_uris":{"android":"levelo://app?vid=9c18db74-635f-4cd9-a4e6-273c6fffd86f","ios":"levelo://app?vid=9c18db74-635f-4cd9-a4e6-273c6fffd86f"},"vehicle_type_id":"4","last_reported":1690402022,"current_range_meters":12400,"station_id":"ce4bgj92rcd13ifvqbd0","pricing_plan_id":"free"},{"bike_id":"985c07ab-40c4-4f03-bbaa-e744764d50d4","system_id":"levelo_inurba_marseille","lat":43.299724,"lon":5.384848,"is_reserved":false,"is_disabled":false,"rental_uris":{"android":"levelo://app?vid=985c07ab-40c4-4f03-bbaa-e744764d50d4","ios":"levelo://app?vid=985c07ab-40c4-4f03-bbaa-e744764d50d4"},"vehicle_type_id":"4","last_reported":1690402022,"current_range_meters":18400,"station_id":"ce4bgj92rcd13ifvqbd0","pricing_plan_id":"free"},{"bike_id":"37d441a3-1f90-439d-a218-b560fd39bdbe","system_id":"levelo_inurba_marseille","lat":43.295279,"lon":5.375048,"is_reserved":false,"is_disabled":false,"rental_uris":{"android":"levelo://app?vid=37d441a3-1f90-439d-a218-b560fd39bdbe","ios":"levelo://app?vid=37d441a3-1f90-439d-a218-b560fd39bdbe"},"vehicle_type_id":"4","last_reported":1690402022,"current_range_meters":25600,"station_id":"ce4bgkp2rcd13ifvqbmg","pricing_plan_id":"free"},{"bike_id":"f3e28bd1-baf2-42e3-935e-dba476f77d18","system_id":"levelo_inurba_marseille","lat":43.295279,"lon":5.375048,"is_reserved":false,"is_disabled":false,"rental_uris":{"android":"levelo://app?vid=f3e28bd1-baf2-42e3-935e-dba476f77d18","ios":"levelo://app?vid=f3e28bd1-baf2-42e3-935e-dba476f77d18"},"vehicle_type_id":"4","last_reported":1690402022,"current_range_meters":800,"station_id":"ce4bgkp2rcd13ifvqbmg","pricing_plan_id":"free"},{"bike_id":"415dd828-2383-4ea1-ba76-10a98f24c382","system_id":"levelo_inurba_marseille","lat":43.295279,"lon":5.375048,"is_reserved":false,"is_disabled":false,"rental_uris":{"android":"levelo://app?vid=415dd828-2383-4ea1-ba76-10a98f24c382","ios":"levelo://app?vid=415dd828-2383-4ea1-ba76-10a98f24c382"},"vehicle_type_id":"4","last_reported":1690402022,"current_range_meters":18800,"station_id":"ce4bgkp2rcd13ifvqbmg","pricing_plan_id":"free"},{"bike_id":"8e2b40f5-9c96-4cd1-8734-96589289c122","system_id":"levelo_inurba_marseille","lat":43.29633,"lon":5.37995,"is_reserved":false,"is_disabled":false,"rental_uris":{"android":"levelo://app?vid=8e2b40f5-9c96-4cd1-8734-96589289c122","ios":"levelo://app?vid=8e2b40f5-9c96-4cd1-8734-96589289c122"},"vehicle_type_id":"4","last_reported":1690402022,"current_range_meters":20400,"station_id":"","pricing_plan_id":"free"},{"bike_id":"a54f115c-50ac-405f-b497-99b46db14d2e","system_id":"levelo_inurba_marseille","lat":43.29599,"lon":5.38084,"is_reserved":false,"is_disabled":false,"rental_uris":{"android":"levelo://app?vid=a54f115c-50ac-405f-b497-99b46db14d2e","ios":"levelo://app?vid=a54f115c-50ac-405f-b497-99b46db14d2e"},"vehicle_type_id":"4","last_reported":1690402022,"current_range_meters":12800,"station_id":"ce4bgl12rcd13ifvqbo0","pricing_plan_id":"free"},{"bike_id":"84a7cc89-372a-4782-b017-0a9ba59624d6","system_id":"levelo_inurba_marseille","lat":43.29602,"lon":5.381084,"is_reserved":false,"is_disabled":false,"rental_uris":{"android":"levelo://app?vid=84a7cc89-372a-4782-b017-0a9ba59624d6","ios":"levelo://app?vid=84a7cc89-372a-4782-b017-0a9ba59624d6"},"vehicle_type_id":"4","last_reported":1690402022,"current_range_meters":4800,"station_id":"ce4bgl12rcd13ifvqbo0","pricing_plan_id":"free"},{"bike_id":"62e64be0-ff38-4d70-89c0-a8ac7c3d8c9a","system_id":"levelo_inurba_marseille","lat":43.29601,"lon":5.381084,"is_reserved":false,"is_disabled":false,"rental_uris":{"android":"levelo://app?vid=62e64be0-ff38-4d70-89c0-a8ac7c3d8c9a","ios":"levelo://app?vid=62e64be0-ff38-4d70-89c0-a8ac7c3d8c9a"},"vehicle_type_id":"4","last_reported":1690402022,"current_range_meters":17600,"station_id":"ce4bgl12rcd13ifvqbo0","pricing_plan_id":"free"},{"bike_id":"5461571f-1ec2-4bcb-befd-69cc6f4d1084","system_id":"levelo_inurba_marseille","lat":43.29601,"lon":5.381084,"is_reserved":false,"is_disabled":false,"rental_uris":{"android":"levelo://app?vid=5461571f-1ec2-4bcb-befd-69cc6f4d1084","ios":"levelo://app?vid=5461571f-1ec2-4bcb-befd-69cc6f4d1084"},"vehicle_type_id":"4","last_reported":1690402022,"current_range_meters":8800,"station_id":"ce4bgl12rcd13ifvqbo0","pricing_plan_id":"free"},{"bike_id":"d8b6cae6-3337-44d5-9333-16b4db9ae55c","system_id":"levelo_inurba_marseille","lat":43.29602,"lon":5.381084,"is_reserved":false,"is_disabled":false,"rental_uris":{"android":"levelo://app?vid=d8b6cae6-3337-44d5-9333-16b4db9ae55c","ios":"levelo://app?vid=d8b6cae6-3337-44d5-9333-16b4db9ae55c"},"vehicle_type_id":"4","last_reported":1690402022,"current_range_meters":8000,"station_id":"ce4bgl12rcd13ifvqbo0","pricing_plan_id":"free"},{"bike_id":"fa556f77-ce95-4ef1-92f7-a6d09d2c4a9c","system_id":"levelo_inurba_marseille","lat":43.29602,"lon":5.381084,"is_reserved":false,"is_disabled":false,"rental_uris":{"android":"levelo://app?vid=fa556f77-ce95-4ef1-92f7-a6d09d2c4a9c","ios":"levelo://app?vid=fa556f77-ce95-4ef1-92f7-a6d09d2c4a9c"},"vehicle_type_id":"4","last_reported":1690402022,"current_range_meters":30400,"station_id":"ce4bgl12rcd13ifvqbo0","pricing_plan_id":"free"},{"bike_id":"9e00bda1-3d3d-41af-8a70-350281e56244","system_id":"levelo_inurba_marseille","lat":43.29602,"lon":5.381084,"is_reserved":false,"is_disabled":false,"rental_uris":{"android":"levelo://app?vid=9e00bda1-3d3d-41af-8a70-350281e56244","ios":"levelo://app?vid=9e00bda1-3d3d-41af-8a70-350281e56244"},"vehicle_type_id":"4","last_reported":1690402022,"current_range_meters":24400,"station_id":"ce4bgl12rcd13ifvqbo0","pricing_plan_id":"free"},{"bike_id":"d5528a51-981e-4372-857c-4152be687c84","system_id":"levelo_inurba_marseille","lat":43.292749,"lon":5.368398,"is_reserved":false,"is_disabled":false,"rental_uris":{"android":"levelo://app?vid=d5528a51-981e-4372-857c-4152be687c84","ios":"levelo://app?vid=d5528a51-981e-4372-857c-4152be687c84"},"vehicle_type_id":"4","last_reported":1690402022,"current_range_meters":18400,"station_id":"ce4bhbp2rcd13ifvqesg","pricing_plan_id":"free"},{"bike_id":"630f452b-7a9f-419c-873b-be4967a4280d","system_id":"levelo_inurba_marseille","lat":43.293249,"lon":5.371578,"is_reserved":false,"is_disabled":false,"rental_uris":{"android":"levelo://app?vid=630f452b-7a9f-419c-873b-be4967a4280d","ios":"levelo://app?vid=630f452b-7a9f-419c-873b-be4967a4280d"},"vehicle_type_id":"4","last_reported":1690402022,"current_range_meters":13200,"station_id":"ce4bgh92rcd13ifvqb40","pricing_plan_id":"free"},{"bike_id":"81e0f12b-54f9-46a2-9300-402103956cce","system_id":"levelo_inurba_marseille","lat":43.293057,"lon":5.37172,"is_reserved":false,"is_disabled":false,"rental_uris":{"android":"levelo://app?vid=81e0f12b-54f9-46a2-9300-402103956cce","ios":"levelo://app?vid=81e0f12b-54f9-46a2-9300-402103956cce"},"vehicle_type_id":"4","last_reported":1690402022,"current_range_meters":4400,"station_id":"ce4bgh92rcd13ifvqb40","pricing_plan_id":"free"},{"bike_id":"c256f255-bc47-4f61-90d5-19986be55e3d","system_id":"levelo_inurba_marseille","lat":43.292749,"lon":5.368402,"is_reserved":false,"is_disabled":false,"rental_uris":{"android":"levelo://app?vid=c256f255-bc47-4f61-90d5-19986be55e3d","ios":"levelo://app?vid=c256f255-bc47-4f61-90d5-19986be55e3d"},"vehicle_type_id":"4","last_reported":1690402022,"current_range_meters":10800,"station_id":"ce4bhbp2rcd13ifvqesg","pricing_plan_id":"free"},{"bike_id":"dd5692f5-3c77-40cd-8890-2bc6aeeaace4","system_id":"levelo_inurba_marseille","lat":43.292749,"lon":5.368398,"is_reserved":false,"is_disabled":false,"rental_uris":{"android":"levelo://app?vid=dd5692f5-3c77-40cd-8890-2bc6aeeaace4","ios":"levelo://app?vid=dd5692f5-3c77-40cd-8890-2bc6aeeaace4"},"vehicle_type_id":"4","last_reported":1690402022,"current_range_meters":13600,"station_id":"ce4bhbp2rcd13ifvqesg","pricing_plan_id":"free"},{"bike_id":"6baae829-724e-4d6c-849a-9bd7585f18d7","system_id":"levelo_inurba_marseille","lat":43.292749,"lon":5.368398,"is_reserved":false,"is_disabled":false,"rental_uris":{"android":"levelo://app?vid=6baae829-724e-4d6c-849a-9bd7585f18d7","ios":"levelo://app?vid=6baae829-724e-4d6c-849a-9bd7585f18d7"},"vehicle_type_id":"4","last_reported":1690402022,"current_range_meters":2400,"station_id":"ce4bhbp2rcd13ifvqesg","pricing_plan_id":"free"},{"bike_id":"0c1e5f26-42c3-4a75-ad30-e921043d3777","system_id":"levelo_inurba_marseille","lat":43.292749,"lon":5.368402,"is_reserved":false,"is_disabled":false,"rental_uris":{"android":"levelo://app?vid=0c1e5f26-42c3-4a75-ad30-e921043d3777","ios":"levelo://app?vid=0c1e5f26-42c3-4a75-ad30-e921043d3777"},"vehicle_type_id":"4","last_reported":1690402022,"current_range_meters":18000,"station_id":"ce4bhbp2rcd13ifvqesg","pricing_plan_id":"free"},{"bike_id":"9768aa6e-648c-4b74-9b2c-a6815a97d5f1","system_id":"levelo_inurba_marseille","lat":43.292749,"lon":5.368402,"is_reserved":false,"is_disabled":false,"rental_uris":{"android":"levelo://app?vid=9768aa6e-648c-4b74-9b2c-a6815a97d5f1","ios":"levelo://app?vid=9768aa6e-648c-4b74-9b2c-a6815a97d5f1"},"vehicle_type_id":"4","last_reported":1690402022,"current_range_meters":12800,"station_id":"ce4bhbp2rcd13ifvqesg","pricing_plan_id":"free"},{"bike_id":"65b0c013-842b-407b-8539-d8664a806a02","system_id":"levelo_inurba_marseille","lat":43.292749,"lon":5.368402,"is_reserved":false,"is_disabled":false,"rental_uris":{"android":"levelo://app?vid=65b0c013-842b-407b-8539-d8664a806a02","ios":"levelo://app?vid=65b0c013-842b-407b-8539-d8664a806a02"},"vehicle_type_id":"4","last_reported":1690402022,"current_range_meters":7600,"station_id":"ce4bhbp2rcd13ifvqesg","pricing_plan_id":"free"},{"bike_id":"9fa001c3-b938-4667-a901-d35463bad404","system_id":"levelo_inurba_marseille","lat":43.29301,"lon":5.3717,"is_reserved":false,"is_disabled":false,"rental_uris":{"android":"levelo://app?vid=9fa001c3-b938-4667-a901-d35463bad404","ios":"levelo://app?vid=9fa001c3-b938-4667-a901-d35463bad404"},"vehicle_type_id":"4","last_reported":1690402022,"current_range_meters":29200,"station_id":"ce4bgh92rcd13ifvqb40","pricing_plan_id":"free"},{"bike_id":"65406277-b71d-4493-9500-450395307761","system_id":"levelo_inurba_marseille","lat":43.292749,"lon":5.368402,"is_reserved":false,"is_disabled":false,"rental_uris":{"android":"levelo://app?vid=65406277-b71d-4493-9500-450395307761","ios":"levelo://app?vid=65406277-b71d-4493-9500-450395307761"},"vehicle_type_id":"4","last_reported":1690402022,"current_range_meters":4800,"station_id":"ce4bhbp2rcd13ifvqesg","pricing_plan_id":"free"},{"bike_id":"a3ff3945-a425-4689-8475-aa08fea63f4d","system_id":"levelo_inurba_marseille","lat":43.292749,"lon":5.368398,"is_reserved":false,"is_disabled":false,"rental_uris":{"android":"levelo://app?vid=a3ff3945-a425-4689-8475-aa08fea63f4d","ios":"levelo://app?vid=a3ff3945-a425-4689-8475-aa08fea63f4d"},"vehicle_type_id":"4","last_reported":1690402022,"current_range_meters":27600,"station_id":"ce4bhbp2rcd13ifvqesg","pricing_plan_id":"free"},{"bike_id":"3c618b31-a77b-46ef-adb6-5f0827146d56","system_id":"levelo_inurba_marseille","lat":43.292749,"lon":5.368398,"is_reserved":false,"is_disabled":false,"rental_uris":{"android":"levelo://app?vid=3c618b31-a77b-46ef-adb6-5f0827146d56","ios":"levelo://app?vid=3c618b31-a77b-46ef-adb6-5f0827146d56"},"vehicle_type_id":"4","last_reported":1690402022,"current_range_meters":9600,"station_id":"ce4bhbp2rcd13ifvqesg","pricing_plan_id":"free"},{"bike_id":"71bf03b1-26c4-4241-9eb3-e81fc07a3bae","system_id":"levelo_inurba_marseille","lat":43.292749,"lon":5.368398,"is_reserved":false,"is_disabled":false,"rental_uris":{"android":"levelo://app?vid=71bf03b1-26c4-4241-9eb3-e81fc07a3bae","ios":"levelo://app?vid=71bf03b1-26c4-4241-9eb3-e81fc07a3bae"},"vehicle_type_id":"4","last_reported":1690402022,"current_range_meters":9600,"station_id":"ce4bhbp2rcd13ifvqesg","pricing_plan_id":"free"},{"bike_id":"4086cc82-fdb4-45cc-88a4-3efecf83cc01","system_id":"levelo_inurba_marseille","lat":43.292749,"lon":5.368398,"is_reserved":false,"is_disabled":false,"rental_uris":{"android":"levelo://app?vid=4086cc82-fdb4-45cc-88a4-3efecf83cc01","ios":"levelo://app?vid=4086cc82-fdb4-45cc-88a4-3efecf83cc01"},"vehicle_type_id":"4","last_reported":1690402022,"current_range_meters":28400,"station_id":"ce4bhbp2rcd13ifvqesg","pricing_plan_id":"free"},{"bike_id":"20d1e71e-16f8-4b1e-b28f-aa566baf94ef","system_id":"levelo_inurba_marseille","lat":43.292749,"lon":5.368402,"is_reserved":false,"is_disabled":false,"rental_uris":{"android":"levelo://app?vid=20d1e71e-16f8-4b1e-b28f-aa566baf94ef","ios":"levelo://app?vid=20d1e71e-16f8-4b1e-b28f-aa566baf94ef"},"vehicle_type_id":"4","last_reported":1690402022,"current_range_meters":11600,"station_id":"ce4bhbp2rcd13ifvqesg","pricing_plan_id":"free"},{"bike_id":"f43e5470-cebb-4b7e-901f-80ee9a0cd267","system_id":"levelo_inurba_marseille","lat":43.30599,"lon":5.39327,"is_reserved":false,"is_disabled":false,"rental_uris":{"android":"levelo://app?vid=f43e5470-cebb-4b7e-901f-80ee9a0cd267","ios":"levelo://app?vid=f43e5470-cebb-4b7e-901f-80ee9a0cd267"},"vehicle_type_id":"4","last_reported":1690402022,"current_range_meters":31200,"station_id":"ce4bh0p2rcd13ifvqd80","pricing_plan_id":"free"},{"bike_id":"ae24cf4f-5b25-4d3b-a323-16b165e893ab","system_id":"levelo_inurba_marseille","lat":43.293009,"lon":5.374584,"is_reserved":false,"is_disabled":false,"rental_uris":{"android":"levelo://app?vid=ae24cf4f-5b25-4d3b-a323-16b165e893ab","ios":"levelo://app?vid=ae24cf4f-5b25-4d3b-a323-16b165e893ab"},"vehicle_type_id":"4","last_reported":1690402022,"current_range_meters":14800,"station_id":"ce4bgi12rcd13ifvqb70","pricing_plan_id":"free"},{"bike_id":"3f4b7673-a5af-4f6a-9691-04bc48b675ed","system_id":"levelo_inurba_marseille","lat":43.30599,"lon":5.3936,"is_reserved":false,"is_disabled":false,"rental_uris":{"android":"levelo://app?vid=3f4b7673-a5af-4f6a-9691-04bc48b675ed","ios":"levelo://app?vid=3f4b7673-a5af-4f6a-9691-04bc48b675ed"},"vehicle_type_id":"4","last_reported":1690402022,"current_range_meters":31200,"station_id":"ce4bh0p2rcd13ifvqd80","pricing_plan_id":"free"},{"bike_id":"8945521f-5484-437b-b848-41ee691ab2ee","system_id":"levelo_inurba_marseille","lat":43.3058,"lon":5.39351,"is_reserved":false,"is_disabled":false,"rental_uris":{"android":"levelo://app?vid=8945521f-5484-437b-b848-41ee691ab2ee","ios":"levelo://app?vid=8945521f-5484-437b-b848-41ee691ab2ee"},"vehicle_type_id":"4","last_reported":1690402022,"current_range_meters":21600,"station_id":"ce4bh0p2rcd13ifvqd80","pricing_plan_id":"free"},{"bike_id":"d66ff1c6-13d5-4bc8-847a-e369f5bd72ab","system_id":"levelo_inurba_marseille","lat":43.305994,"lon":5.393687,"is_reserved":false,"is_disabled":false,"rental_uris":{"android":"levelo://app?vid=d66ff1c6-13d5-4bc8-847a-e369f5bd72ab","ios":"levelo://app?vid=d66ff1c6-13d5-4bc8-847a-e369f5bd72ab"},"vehicle_type_id":"4","last_reported":1690402022,"current_range_meters":13600,"station_id":"ce4bh0p2rcd13ifvqd80","pricing_plan_id":"free"},{"bike_id":"4ffb9f5d-11c1-453e-89eb-a95b510653bb","system_id":"levelo_inurba_marseille","lat":43.293009,"lon":5.374584,"is_reserved":false,"is_disabled":false,"rental_uris":{"android":"levelo://app?vid=4ffb9f5d-11c1-453e-89eb-a95b510653bb","ios":"levelo://app?vid=4ffb9f5d-11c1-453e-89eb-a95b510653bb"},"vehicle_type_id":"4","last_reported":1690402022,"current_range_meters":16800,"station_id":"ce4bgi12rcd13ifvqb70","pricing_plan_id":"free"},{"bike_id":"1e3a3eb4-fdf3-46bd-a71b-fa276115d078","system_id":"levelo_inurba_marseille","lat":43.302992,"lon":5.392136,"is_reserved":false,"is_disabled":false,"rental_uris":{"android":"levelo://app?vid=1e3a3eb4-fdf3-46bd-a71b-fa276115d078","ios":"levelo://app?vid=1e3a3eb4-fdf3-46bd-a71b-fa276115d078"},"vehicle_type_id":"4","last_reported":1690402022,"current_range_meters":31200,"station_id":"ce4bgkh2rcd13ifvqbk0","pricing_plan_id":"free"},{"bike_id":"2d9c72e8-a415-4862-a2e5-7067ec7c817f","system_id":"levelo_inurba_marseille","lat":43.302992,"lon":5.392136,"is_reserved":false,"is_disabled":false,"rental_uris":{"android":"levelo://app?vid=2d9c72e8-a415-4862-a2e5-7067ec7c817f","ios":"levelo://app?vid=2d9c72e8-a415-4862-a2e5-7067ec7c817f"},"vehicle_type_id":"4","last_reported":1690402022,"current_range_meters":15200,"station_id":"ce4bgkh2rcd13ifvqbk0","pricing_plan_id":"free"},{"bike_id":"2866d848-3808-4b4a-895b-4bb455f1a86c","system_id":"levelo_inurba_marseille","lat":43.302992,"lon":5.392136,"is_reserved":false,"is_disabled":false,"rental_uris":{"android":"levelo://app?vid=2866d848-3808-4b4a-895b-4bb455f1a86c","ios":"levelo://app?vid=2866d848-3808-4b4a-895b-4bb455f1a86c"},"vehicle_type_id":"4","last_reported":1690402022,"current_range_meters":31200,"station_id":"ce4bgkh2rcd13ifvqbk0","pricing_plan_id":"free"},{"bike_id":"0e9ccdec-3a9b-4e54-a5e0-adb7965bb001","system_id":"levelo_inurba_marseille","lat":43.29601,"lon":5.381084,"is_reserved":false,"is_disabled":false,"rental_uris":{"android":"levelo://app?vid=0e9ccdec-3a9b-4e54-a5e0-adb7965bb001","ios":"levelo://app?vid=0e9ccdec-3a9b-4e54-a5e0-adb7965bb001"},"vehicle_type_id":"4","last_reported":1690402022,"current_range_meters":21600,"station_id":"ce4bgl12rcd13ifvqbo0","pricing_plan_id":"free"},{"bike_id":"6c6c2132-cbd4-44c0-9b66-a4463ea1f083","system_id":"levelo_inurba_marseille","lat":43.302992,"lon":5.392136,"is_reserved":false,"is_disabled":false,"rental_uris":{"android":"levelo://app?vid=6c6c2132-cbd4-44c0-9b66-a4463ea1f083","ios":"levelo://app?vid=6c6c2132-cbd4-44c0-9b66-a4463ea1f083"},"vehicle_type_id":"4","last_reported":1690402022,"current_range_meters":26000,"station_id":"ce4bgkh2rcd13ifvqbk0","pricing_plan_id":"free"},{"bike_id":"4654978c-e8bc-4a38-b23f-59ee8b2641e7","system_id":"levelo_inurba_marseille","lat":43.302992,"lon":5.392136,"is_reserved":false,"is_disabled":false,"rental_uris":{"android":"levelo://app?vid=4654978c-e8bc-4a38-b23f-59ee8b2641e7","ios":"levelo://app?vid=4654978c-e8bc-4a38-b23f-59ee8b2641e7"},"vehicle_type_id":"4","last_reported":1690402022,"current_range_meters":15600,"station_id":"ce4bgkh2rcd13ifvqbk0","pricing_plan_id":"free"},{"bike_id":"bf87f040-010e-4d9b-8aa5-9dc525e8e572","system_id":"levelo_inurba_marseille","lat":43.302992,"lon":5.392136,"is_reserved":false,"is_disabled":false,"rental_uris":{"android":"levelo://app?vid=bf87f040-010e-4d9b-8aa5-9dc525e8e572","ios":"levelo://app?vid=bf87f040-010e-4d9b-8aa5-9dc525e8e572"},"vehicle_type_id":"4","last_reported":1690402022,"current_range_meters":12000,"station_id":"ce4bgkh2rcd13ifvqbk0","pricing_plan_id":"free"},{"bike_id":"a5a475b1-443f-42e3-b853-44d685a376cb","system_id":"levelo_inurba_marseille","lat":43.30305,"lon":5.3922,"is_reserved":false,"is_disabled":false,"rental_uris":{"android":"levelo://app?vid=a5a475b1-443f-42e3-b853-44d685a376cb","ios":"levelo://app?vid=a5a475b1-443f-42e3-b853-44d685a376cb"},"vehicle_type_id":"4","last_reported":1690402022,"current_range_meters":0,"station_id":"ce4bgkh2rcd13ifvqbk0","pricing_plan_id":"free"},{"bike_id":"2c23e3f3-8d21-40d2-89e9-f5cb0402740d","system_id":"levelo_inurba_marseille","lat":43.30299,"lon":5.39216,"is_reserved":false,"is_disabled":false,"rental_uris":{"android":"levelo://app?vid=2c23e3f3-8d21-40d2-89e9-f5cb0402740d","ios":"levelo://app?vid=2c23e3f3-8d21-40d2-89e9-f5cb0402740d"},"vehicle_type_id":"4","last_reported":1690402022,"current_range_meters":25600,"station_id":"ce4bgkh2rcd13ifvqbk0","pricing_plan_id":"free"},{"bike_id":"6e87c505-e24e-405f-88cb-1dee6d96309c","system_id":"levelo_inurba_marseille","lat":43.31186,"lon":5.39564,"is_reserved":false,"is_disabled":false,"rental_uris":{"android":"levelo://app?vid=6e87c505-e24e-405f-88cb-1dee6d96309c","ios":"levelo://app?vid=6e87c505-e24e-405f-88cb-1dee6d96309c"},"vehicle_type_id":"4","last_reported":1690402022,"current_range_meters":1600,"station_id":"","pricing_plan_id":"free"},{"bike_id":"25dd796b-5561-4787-b2a5-530d825cf6ae","system_id":"levelo_inurba_marseille","lat":43.293009,"lon":5.374584,"is_reserved":false,"is_disabled":false,"rental_uris":{"android":"levelo://app?vid=25dd796b-5561-4787-b2a5-530d825cf6ae","ios":"levelo://app?vid=25dd796b-5561-4787-b2a5-530d825cf6ae"},"vehicle_type_id":"4","last_reported":1690402022,"current_range_meters":22000,"station_id":"ce4bgi12rcd13ifvqb70","pricing_plan_id":"free"},{"bike_id":"9237f24a-21f2-44a1-b7e6-ab09209fe718","system_id":"levelo_inurba_marseille","lat":43.29242,"lon":5.3596,"is_reserved":false,"is_disabled":false,"rental_uris":{"android":"levelo://app?vid=9237f24a-21f2-44a1-b7e6-ab09209fe718","ios":"levelo://app?vid=9237f24a-21f2-44a1-b7e6-ab09209fe718"},"vehicle_type_id":"4","last_reported":1690402022,"current_range_meters":14000,"station_id":"","pricing_plan_id":"free"},{"bike_id":"d8cede6d-8c55-4838-978f-66e27a135b06","system_id":"levelo_inurba_marseille","lat":43.30659,"lon":5.39486,"is_reserved":false,"is_disabled":false,"rental_uris":{"android":"levelo://app?vid=d8cede6d-8c55-4838-978f-66e27a135b06","ios":"levelo://app?vid=d8cede6d-8c55-4838-978f-66e27a135b06"},"vehicle_type_id":"4","last_reported":1690402022,"current_range_meters":10000,"station_id":"ce4bgvp2rcd13ifvqcu0","pricing_plan_id":"free"},{"bike_id":"b3e7fbc3-bf9a-4a2c-bb3b-fa61e90d6cae","system_id":"levelo_inurba_marseille","lat":43.291671,"lon":5.371575,"is_reserved":false,"is_disabled":false,"rental_uris":{"android":"levelo://app?vid=b3e7fbc3-bf9a-4a2c-bb3b-fa61e90d6cae","ios":"levelo://app?vid=b3e7fbc3-bf9a-4a2c-bb3b-fa61e90d6cae"},"vehicle_type_id":"4","last_reported":1690402022,"current_range_meters":18400,"station_id":"ce4bha92rcd13ifvqeh0","pricing_plan_id":"free"},{"bike_id":"916832b0-96aa-48c7-aff0-0720215496ab","system_id":"levelo_inurba_marseille","lat":43.298764,"lon":5.388973,"is_reserved":false,"is_disabled":false,"rental_uris":{"android":"levelo://app?vid=916832b0-96aa-48c7-aff0-0720215496ab","ios":"levelo://app?vid=916832b0-96aa-48c7-aff0-0720215496ab"},"vehicle_type_id":"4","last_reported":1690402022,"current_range_meters":26000,"station_id":"ce4bh392rcd13ifvqdl0","pricing_plan_id":"free"},{"bike_id":"478f5ea8-83f5-4b11-b748-68075763814d","system_id":"levelo_inurba_marseille","lat":43.2988,"lon":5.38911,"is_reserved":false,"is_disabled":false,"rental_uris":{"android":"levelo://app?vid=478f5ea8-83f5-4b11-b748-68075763814d","ios":"levelo://app?vid=478f5ea8-83f5-4b11-b748-68075763814d"},"vehicle_type_id":"4","last_reported":1690402022,"current_range_meters":22400,"station_id":"ce4bh392rcd13ifvqdl0","pricing_plan_id":"free"},{"bike_id":"a5c54ebc-b0d0-48fd-b593-0ef2bd4cecd0","system_id":"levelo_inurba_marseille","lat":43.29878,"lon":5.3891,"is_reserved":false,"is_disabled":false,"rental_uris":{"android":"levelo://app?vid=a5c54ebc-b0d0-48fd-b593-0ef2bd4cecd0","ios":"levelo://app?vid=a5c54ebc-b0d0-48fd-b593-0ef2bd4cecd0"},"vehicle_type_id":"4","last_reported":1690402022,"current_range_meters":28800,"station_id":"ce4bh392rcd13ifvqdl0","pricing_plan_id":"free"},{"bike_id":"da7ae7b5-e5e4-419a-855d-d2c93a18dba8","system_id":"levelo_inurba_marseille","lat":43.302008,"lon":5.394694,"is_reserved":false,"is_disabled":false,"rental_uris":{"android":"levelo://app?vid=da7ae7b5-e5e4-419a-855d-d2c93a18dba8","ios":"levelo://app?vid=da7ae7b5-e5e4-419a-855d-d2c93a18dba8"},"vehicle_type_id":"4","last_reported":1690402022,"current_range_meters":30800,"station_id":"ce4bh0p2rcd13ifvqd70","pricing_plan_id":"free"},{"bike_id":"775deb10-c598-4757-9c22-c3ae1558a314","system_id":"levelo_inurba_marseille","lat":43.29881,"lon":5.38919,"is_reserved":false,"is_disabled":false,"rental_uris":{"android":"levelo://app?vid=775deb10-c598-4757-9c22-c3ae1558a314","ios":"levelo://app?vid=775deb10-c598-4757-9c22-c3ae1558a314"},"vehicle_type_id":"4","last_reported":1690402022,"current_range_meters":1600,"station_id":"ce4bh392rcd13ifvqdl0","pricing_plan_id":"free"},{"bike_id":"2fbb3f1b-5916-457e-ba5c-a684fe0f4c48","system_id":"levelo_inurba_marseille","lat":43.309038,"lon":5.396546,"is_reserved":false,"is_disabled":false,"rental_uris":{"android":"levelo://app?vid=2fbb3f1b-5916-457e-ba5c-a684fe0f4c48","ios":"levelo://app?vid=2fbb3f1b-5916-457e-ba5c-a684fe0f4c48"},"vehicle_type_id":"4","last_reported":1690402022,"current_range_meters":31200,"station_id":"ce4bh012rcd13ifvqcv0","pricing_plan_id":"free"},{"bike_id":"4ac5c0ba-ae34-45f1-92a2-15445a4f91cf","system_id":"levelo_inurba_marseille","lat":43.30882,"lon":5.39635,"is_reserved":false,"is_disabled":false,"rental_uris":{"android":"levelo://app?vid=4ac5c0ba-ae34-45f1-92a2-15445a4f91cf","ios":"levelo://app?vid=4ac5c0ba-ae34-45f1-92a2-15445a4f91cf"},"vehicle_type_id":"4","last_reported":1690402022,"current_range_meters":14000,"station_id":"ce4bh012rcd13ifvqcv0","pricing_plan_id":"free"},{"bike_id":"eb37de4e-a306-4612-9b79-fd0f0b1e2c13","system_id":"levelo_inurba_marseille","lat":43.31322,"lon":5.39694,"is_reserved":false,"is_disabled":false,"rental_uris":{"android":"levelo://app?vid=eb37de4e-a306-4612-9b79-fd0f0b1e2c13","ios":"levelo://app?vid=eb37de4e-a306-4612-9b79-fd0f0b1e2c13"},"vehicle_type_id":"4","last_reported":1690402022,"current_range_meters":10000,"station_id":"ce4bgvp2rcd13ifvqcu0","pricing_plan_id":"free"},{"bike_id":"7d9ab00b-0474-4de7-be68-24c022d290a6","system_id":"levelo_inurba_marseille","lat":43.309038,"lon":5.396546,"is_reserved":false,"is_disabled":false,"rental_uris":{"android":"levelo://app?vid=7d9ab00b-0474-4de7-be68-24c022d290a6","ios":"levelo://app?vid=7d9ab00b-0474-4de7-be68-24c022d290a6"},"vehicle_type_id":"4","last_reported":1690402022,"current_range_meters":31200,"station_id":"ce4bh012rcd13ifvqcv0","pricing_plan_id":"free"},{"bike_id":"02b2cc4e-f4e4-45dd-84f8-9895d67fe804","system_id":"levelo_inurba_marseille","lat":43.30895,"lon":5.39653,"is_reserved":false,"is_disabled":false,"rental_uris":{"android":"levelo://app?vid=02b2cc4e-f4e4-45dd-84f8-9895d67fe804","ios":"levelo://app?vid=02b2cc4e-f4e4-45dd-84f8-9895d67fe804"},"vehicle_type_id":"4","last_reported":1690402022,"current_range_meters":30800,"station_id":"ce4bh012rcd13ifvqcv0","pricing_plan_id":"free"},{"bike_id":"9a195648-5579-48a3-aeaa-9511783039af","system_id":"levelo_inurba_marseille","lat":43.313291,"lon":5.396838,"is_reserved":false,"is_disabled":false,"rental_uris":{"android":"levelo://app?vid=9a195648-5579-48a3-aeaa-9511783039af","ios":"levelo://app?vid=9a195648-5579-48a3-aeaa-9511783039af"},"vehicle_type_id":"4","last_reported":1690402022,"current_range_meters":7600,"station_id":"ce4bgvp2rcd13ifvqcu0","pricing_plan_id":"free"},{"bike_id":"c58f022a-20b1-4895-9c1f-902a90c413f2","system_id":"levelo_inurba_marseille","lat":43.309038,"lon":5.396546,"is_reserved":false,"is_disabled":false,"rental_uris":{"android":"levelo://app?vid=c58f022a-20b1-4895-9c1f-902a90c413f2","ios":"levelo://app?vid=c58f022a-20b1-4895-9c1f-902a90c413f2"},"vehicle_type_id":"4","last_reported":1690402022,"current_range_meters":30800,"station_id":"ce4bh012rcd13ifvqcv0","pricing_plan_id":"free"},{"bike_id":"ac60b7d7-b0a5-4de7-8478-6208f371119b","system_id":"levelo_inurba_marseille","lat":43.308856,"lon":5.396576,"is_reserved":false,"is_disabled":false,"rental_uris":{"android":"levelo://app?vid=ac60b7d7-b0a5-4de7-8478-6208f371119b","ios":"levelo://app?vid=ac60b7d7-b0a5-4de7-8478-6208f371119b"},"vehicle_type_id":"4","last_reported":1690402022,"current_range_meters":12800,"station_id":"ce4bh012rcd13ifvqcv0","pricing_plan_id":"free"},{"bike_id":"5c23a45c-5da3-47e2-9ae4-ae1c8855c8d9","system_id":"levelo_inurba_marseille","lat":43.309038,"lon":5.396546,"is_reserved":false,"is_disabled":false,"rental_uris":{"android":"levelo://app?vid=5c23a45c-5da3-47e2-9ae4-ae1c8855c8d9","ios":"levelo://app?vid=5c23a45c-5da3-47e2-9ae4-ae1c8855c8d9"},"vehicle_type_id":"4","last_reported":1690402022,"current_range_meters":19200,"station_id":"ce4bh012rcd13ifvqcv0","pricing_plan_id":"free"},{"bike_id":"492e86f4-14ad-486c-b98c-0df286bdf39c","system_id":"levelo_inurba_marseille","lat":43.308849,"lon":5.39662,"is_reserved":false,"is_disabled":false,"rental_uris":{"android":"levelo://app?vid=492e86f4-14ad-486c-b98c-0df286bdf39c","ios":"levelo://app?vid=492e86f4-14ad-486c-b98c-0df286bdf39c"},"vehicle_type_id":"4","last_reported":1690402022,"current_range_meters":6000,"station_id":"ce4bh012rcd13ifvqcv0","pricing_plan_id":"free"},{"bike_id":"f0608960-42f3-4427-b46e-445302ddd6a1","system_id":"levelo_inurba_marseille","lat":43.29529,"lon":5.385581,"is_reserved":false,"is_disabled":false,"rental_uris":{"android":"levelo://app?vid=f0608960-42f3-4427-b46e-445302ddd6a1","ios":"levelo://app?vid=f0608960-42f3-4427-b46e-445302ddd6a1"},"vehicle_type_id":"4","last_reported":1690402022,"current_range_meters":28000,"station_id":"ce4bgih2rcd13ifvqba0","pricing_plan_id":"free"},{"bike_id":"366f84de-6243-41a9-9f12-a2f52243e017","system_id":"levelo_inurba_marseille","lat":43.29529,"lon":5.385581,"is_reserved":false,"is_disabled":false,"rental_uris":{"android":"levelo://app?vid=366f84de-6243-41a9-9f12-a2f52243e017","ios":"levelo://app?vid=366f84de-6243-41a9-9f12-a2f52243e017"},"vehicle_type_id":"4","last_reported":1690402022,"current_range_meters":7200,"station_id":"ce4bgih2rcd13ifvqba0","pricing_plan_id":"free"},{"bike_id":"c5d11388-f3f6-4a65-b076-4eaada103b58","system_id":"levelo_inurba_marseille","lat":43.29529,"lon":5.385581,"is_reserved":false,"is_disabled":false,"rental_uris":{"android":"levelo://app?vid=c5d11388-f3f6-4a65-b076-4eaada103b58","ios":"levelo://app?vid=c5d11388-f3f6-4a65-b076-4eaada103b58"},"vehicle_type_id":"4","last_reported":1690402022,"current_range_meters":18400,"station_id":"ce4bgih2rcd13ifvqba0","pricing_plan_id":"free"},{"bike_id":"bed928ae-d541-42c1-aa9d-b99268a7e75f","system_id":"levelo_inurba_marseille","lat":43.29529,"lon":5.385581,"is_reserved":false,"is_disabled":false,"rental_uris":{"android":"levelo://app?vid=bed928ae-d541-42c1-aa9d-b99268a7e75f","ios":"levelo://app?vid=bed928ae-d541-42c1-aa9d-b99268a7e75f"},"vehicle_type_id":"4","last_reported":1690402022,"current_range_meters":12800,"station_id":"ce4bgih2rcd13ifvqba0","pricing_plan_id":"free"},{"bike_id":"12e43b12-05c8-40f2-ba8e-ee20467252a7","system_id":"levelo_inurba_marseille","lat":43.29532,"lon":5.38538,"is_reserved":false,"is_disabled":false,"rental_uris":{"android":"levelo://app?vid=12e43b12-05c8-40f2-ba8e-ee20467252a7","ios":"levelo://app?vid=12e43b12-05c8-40f2-ba8e-ee20467252a7"},"vehicle_type_id":"4","last_reported":1690402022,"current_range_meters":8800,"station_id":"ce4bgih2rcd13ifvqba0","pricing_plan_id":"free"},{"bike_id":"49162b3b-de17-4a67-99a3-2e80a501f0f6","system_id":"levelo_inurba_marseille","lat":43.29529,"lon":5.385581,"is_reserved":false,"is_disabled":false,"rental_uris":{"android":"levelo://app?vid=49162b3b-de17-4a67-99a3-2e80a501f0f6","ios":"levelo://app?vid=49162b3b-de17-4a67-99a3-2e80a501f0f6"},"vehicle_type_id":"4","last_reported":1690402022,"current_range_meters":6000,"station_id":"ce4bgih2rcd13ifvqba0","pricing_plan_id":"free"},{"bike_id":"4fd0daad-1295-412b-ae26-bb52f96b6c72","system_id":"levelo_inurba_marseille","lat":43.29534,"lon":5.38544,"is_reserved":false,"is_disabled":false,"rental_uris":{"android":"levelo://app?vid=4fd0daad-1295-412b-ae26-bb52f96b6c72","ios":"levelo://app?vid=4fd0daad-1295-412b-ae26-bb52f96b6c72"},"vehicle_type_id":"4","last_reported":1690402022,"current_range_meters":800,"station_id":"ce4bgih2rcd13ifvqba0","pricing_plan_id":"free"},{"bike_id":"96d18170-892e-48c4-802b-dbfee730bb82","system_id":"levelo_inurba_marseille","lat":43.29529,"lon":5.385581,"is_reserved":false,"is_disabled":false,"rental_uris":{"android":"levelo://app?vid=96d18170-892e-48c4-802b-dbfee730bb82","ios":"levelo://app?vid=96d18170-892e-48c4-802b-dbfee730bb82"},"vehicle_type_id":"4","last_reported":1690402022,"current_range_meters":5200,"station_id":"ce4bgih2rcd13ifvqba0","pricing_plan_id":"free"},{"bike_id":"15d03da3-7f96-4590-8db9-9e70001c12a5","system_id":"levelo_inurba_marseille","lat":43.29529,"lon":5.385581,"is_reserved":false,"is_disabled":false,"rental_uris":{"android":"levelo://app?vid=15d03da3-7f96-4590-8db9-9e70001c12a5","ios":"levelo://app?vid=15d03da3-7f96-4590-8db9-9e70001c12a5"},"vehicle_type_id":"4","last_reported":1690402022,"current_range_meters":19200,"station_id":"ce4bgih2rcd13ifvqba0","pricing_plan_id":"free"},{"bike_id":"f16cd639-c0eb-4a2d-83df-195e20b2d232","system_id":"levelo_inurba_marseille","lat":43.29529,"lon":5.385581,"is_reserved":false,"is_disabled":false,"rental_uris":{"android":"levelo://app?vid=f16cd639-c0eb-4a2d-83df-195e20b2d232","ios":"levelo://app?vid=f16cd639-c0eb-4a2d-83df-195e20b2d232"},"vehicle_type_id":"4","last_reported":1690402022,"current_range_meters":12000,"station_id":"ce4bgih2rcd13ifvqba0","pricing_plan_id":"free"},{"bike_id":"ef323c92-4f5b-456a-9939-89eb00dda4fa","system_id":"levelo_inurba_marseille","lat":43.29533,"lon":5.38545,"is_reserved":false,"is_disabled":false,"rental_uris":{"android":"levelo://app?vid=ef323c92-4f5b-456a-9939-89eb00dda4fa","ios":"levelo://app?vid=ef323c92-4f5b-456a-9939-89eb00dda4fa"},"vehicle_type_id":"4","last_reported":1690402022,"current_range_meters":24000,"station_id":"ce4bgih2rcd13ifvqba0","pricing_plan_id":"free"},{"bike_id":"ebb05f07-efa9-4a22-b2c9-850d38683633","system_id":"levelo_inurba_marseille","lat":43.29537,"lon":5.38553,"is_reserved":false,"is_disabled":false,"rental_uris":{"android":"levelo://app?vid=ebb05f07-efa9-4a22-b2c9-850d38683633","ios":"levelo://app?vid=ebb05f07-efa9-4a22-b2c9-850d38683633"},"vehicle_type_id":"4","last_reported":1690402022,"current_range_meters":22400,"station_id":"ce4bgih2rcd13ifvqba0","pricing_plan_id":"free"},{"bike_id":"c5b0b49b-dfd0-48bd-ba05-ea2a76a884ab","system_id":"levelo_inurba_marseille","lat":43.29529,"lon":5.385581,"is_reserved":false,"is_disabled":false,"rental_uris":{"android":"levelo://app?vid=c5b0b49b-dfd0-48bd-ba05-ea2a76a884ab","ios":"levelo://app?vid=c5b0b49b-dfd0-48bd-ba05-ea2a76a884ab"},"vehicle_type_id":"4","last_reported":1690402022,"current_range_meters":31200,"station_id":"ce4bgih2rcd13ifvqba0","pricing_plan_id":"free"},{"bike_id":"41aa8029-1474-4cfe-b462-143bd02c0b9f","system_id":"levelo_inurba_marseille","lat":43.29526,"lon":5.38534,"is_reserved":false,"is_disabled":false,"rental_uris":{"android":"levelo://app?vid=41aa8029-1474-4cfe-b462-143bd02c0b9f","ios":"levelo://app?vid=41aa8029-1474-4cfe-b462-143bd02c0b9f"},"vehicle_type_id":"4","last_reported":1690402022,"current_range_meters":6400,"station_id":"ce4bgih2rcd13ifvqba0","pricing_plan_id":"free"},{"bike_id":"bc14d776-79b5-4169-bf62-9a99c7c76886","system_id":"levelo_inurba_marseille","lat":43.29529,"lon":5.385581,"is_reserved":false,"is_disabled":false,"rental_uris":{"android":"levelo://app?vid=bc14d776-79b5-4169-bf62-9a99c7c76886","ios":"levelo://app?vid=bc14d776-79b5-4169-bf62-9a99c7c76886"},"vehicle_type_id":"4","last_reported":1690402022,"current_range_meters":26400,"station_id":"ce4bgih2rcd13ifvqba0","pricing_plan_id":"free"},{"bike_id":"e6fe0068-7ca4-4813-83eb-abc894f410bb","system_id":"levelo_inurba_marseille","lat":43.29534,"lon":5.38551,"is_reserved":false,"is_disabled":false,"rental_uris":{"android":"levelo://app?vid=e6fe0068-7ca4-4813-83eb-abc894f410bb","ios":"levelo://app?vid=e6fe0068-7ca4-4813-83eb-abc894f410bb"},"vehicle_type_id":"4","last_reported":1690402022,"current_range_meters":20000,"station_id":"ce4bgih2rcd13ifvqba0","pricing_plan_id":"free"},{"bike_id":"db7f045c-1f46-46c9-94a0-e30da0d83b7f","system_id":"levelo_inurba_marseille","lat":43.29529,"lon":5.385581,"is_reserved":false,"is_disabled":false,"rental_uris":{"android":"levelo://app?vid=db7f045c-1f46-46c9-94a0-e30da0d83b7f","ios":"levelo://app?vid=db7f045c-1f46-46c9-94a0-e30da0d83b7f"},"vehicle_type_id":"4","last_reported":1690402022,"current_range_meters":18800,"station_id":"ce4bgih2rcd13ifvqba0","pricing_plan_id":"free"},{"bike_id":"1f0c2608-dee3-4c60-93de-c5d797bcead1","system_id":"levelo_inurba_marseille","lat":43.29529,"lon":5.385581,"is_reserved":false,"is_disabled":false,"rental_uris":{"android":"levelo://app?vid=1f0c2608-dee3-4c60-93de-c5d797bcead1","ios":"levelo://app?vid=1f0c2608-dee3-4c60-93de-c5d797bcead1"},"vehicle_type_id":"4","last_reported":1690402022,"current_range_meters":0,"station_id":"ce4bgih2rcd13ifvqba0","pricing_plan_id":"free"},{"bike_id":"56b3764c-b039-473e-8ebe-bbc6bb5f5c6f","system_id":"levelo_inurba_marseille","lat":43.29529,"lon":5.385581,"is_reserved":false,"is_disabled":false,"rental_uris":{"android":"levelo://app?vid=56b3764c-b039-473e-8ebe-bbc6bb5f5c6f","ios":"levelo://app?vid=56b3764c-b039-473e-8ebe-bbc6bb5f5c6f"},"vehicle_type_id":"4","last_reported":1690402022,"current_range_meters":11600,"station_id":"ce4bgih2rcd13ifvqba0","pricing_plan_id":"free"},{"bike_id":"df954f2b-c0da-4baa-b6b3-c9002ea74881","system_id":"levelo_inurba_marseille","lat":43.29529,"lon":5.385581,"is_reserved":false,"is_disabled":false,"rental_uris":{"android":"levelo://app?vid=df954f2b-c0da-4baa-b6b3-c9002ea74881","ios":"levelo://app?vid=df954f2b-c0da-4baa-b6b3-c9002ea74881"},"vehicle_type_id":"4","last_reported":1690402022,"current_range_meters":11600,"station_id":"ce4bgih2rcd13ifvqba0","pricing_plan_id":"free"},{"bike_id":"6fb9903d-d87d-4746-9d30-967c24ff814a","system_id":"levelo_inurba_marseille","lat":43.29523,"lon":5.38558,"is_reserved":false,"is_disabled":false,"rental_uris":{"android":"levelo://app?vid=6fb9903d-d87d-4746-9d30-967c24ff814a","ios":"levelo://app?vid=6fb9903d-d87d-4746-9d30-967c24ff814a"},"vehicle_type_id":"4","last_reported":1690402022,"current_range_meters":1600,"station_id":"ce4bgih2rcd13ifvqba0","pricing_plan_id":"free"},{"bike_id":"ef6d2c27-75e8-435e-9271-d3ec3cc88618","system_id":"levelo_inurba_marseille","lat":43.29062,"lon":5.37152,"is_reserved":false,"is_disabled":false,"rental_uris":{"android":"levelo://app?vid=ef6d2c27-75e8-435e-9271-d3ec3cc88618","ios":"levelo://app?vid=ef6d2c27-75e8-435e-9271-d3ec3cc88618"},"vehicle_type_id":"4","last_reported":1690402022,"current_range_meters":31200,"station_id":"ce4bh5p2rcd13ifvqe4g","pricing_plan_id":"free"},{"bike_id":"c03bd29c-8f3e-425e-ab31-544fbe5c64ae","system_id":"levelo_inurba_marseille","lat":43.302008,"lon":5.394694,"is_reserved":false,"is_disabled":false,"rental_uris":{"android":"levelo://app?vid=c03bd29c-8f3e-425e-ab31-544fbe5c64ae","ios":"levelo://app?vid=c03bd29c-8f3e-425e-ab31-544fbe5c64ae"},"vehicle_type_id":"4","last_reported":1690402022,"current_range_meters":25600,"station_id":"ce4bh0p2rcd13ifvqd70","pricing_plan_id":"free"},{"bike_id":"7247f473-8a96-40f0-b297-fa71a3000982","system_id":"levelo_inurba_marseille","lat":43.290624,"lon":5.359245,"is_reserved":false,"is_disabled":false,"rental_uris":{"android":"levelo://app?vid=7247f473-8a96-40f0-b297-fa71a3000982","ios":"levelo://app?vid=7247f473-8a96-40f0-b297-fa71a3000982"},"vehicle_type_id":"4","last_reported":1690402022,"current_range_meters":29200,"station_id":"ce4bha92rcd13ifvqeg0","pricing_plan_id":"free"},{"bike_id":"0215c023-f508-4e37-9d54-f1a362d3d95d","system_id":"levelo_inurba_marseille","lat":43.294162,"lon":5.386292,"is_reserved":false,"is_disabled":false,"rental_uris":{"android":"levelo://app?vid=0215c023-f508-4e37-9d54-f1a362d3d95d","ios":"levelo://app?vid=0215c023-f508-4e37-9d54-f1a362d3d95d"},"vehicle_type_id":"4","last_reported":1690402022,"current_range_meters":15200,"station_id":"ce4bh2h2rcd13ifvqdh0","pricing_plan_id":"free"},{"bike_id":"d3416688-0998-4710-b3ec-5dbb5eb4eb96","system_id":"levelo_inurba_marseille","lat":43.2942,"lon":5.38618,"is_reserved":false,"is_disabled":false,"rental_uris":{"android":"levelo://app?vid=d3416688-0998-4710-b3ec-5dbb5eb4eb96","ios":"levelo://app?vid=d3416688-0998-4710-b3ec-5dbb5eb4eb96"},"vehicle_type_id":"4","last_reported":1690402022,"current_range_meters":22400,"station_id":"ce4bh2h2rcd13ifvqdh0","pricing_plan_id":"free"},{"bike_id":"e3778825-afab-4750-b07f-a25013bfada9","system_id":"levelo_inurba_marseille","lat":43.294153,"lon":5.386305,"is_reserved":false,"is_disabled":false,"rental_uris":{"android":"levelo://app?vid=e3778825-afab-4750-b07f-a25013bfada9","ios":"levelo://app?vid=e3778825-afab-4750-b07f-a25013bfada9"},"vehicle_type_id":"4","last_reported":1690402022,"current_range_meters":31200,"station_id":"ce4bh2h2rcd13ifvqdh0","pricing_plan_id":"free"},{"bike_id":"9909c420-06c9-4da8-b9b9-730a7628ac29","system_id":"levelo_inurba_marseille","lat":43.29421,"lon":5.38622,"is_reserved":false,"is_disabled":false,"rental_uris":{"android":"levelo://app?vid=9909c420-06c9-4da8-b9b9-730a7628ac29","ios":"levelo://app?vid=9909c420-06c9-4da8-b9b9-730a7628ac29"},"vehicle_type_id":"4","last_reported":1690402022,"current_range_meters":24000,"station_id":"ce4bh2h2rcd13ifvqdh0","pricing_plan_id":"free"},{"bike_id":"45db9729-f98d-40e5-889e-50232fe4acff","system_id":"levelo_inurba_marseille","lat":43.29417,"lon":5.38618,"is_reserved":false,"is_disabled":false,"rental_uris":{"android":"levelo://app?vid=45db9729-f98d-40e5-889e-50232fe4acff","ios":"levelo://app?vid=45db9729-f98d-40e5-889e-50232fe4acff"},"vehicle_type_id":"4","last_reported":1690402022,"current_range_meters":15600,"station_id":"ce4bh2h2rcd13ifvqdh0","pricing_plan_id":"free"},{"bike_id":"2bc0e564-6ee6-4532-8174-987c8c1d5e53","system_id":"levelo_inurba_marseille","lat":43.29418,"lon":5.3862,"is_reserved":false,"is_disabled":false,"rental_uris":{"android":"levelo://app?vid=2bc0e564-6ee6-4532-8174-987c8c1d5e53","ios":"levelo://app?vid=2bc0e564-6ee6-4532-8174-987c8c1d5e53"},"vehicle_type_id":"4","last_reported":1690402022,"current_range_meters":19600,"station_id":"ce4bh2h2rcd13ifvqdh0","pricing_plan_id":"free"},{"bike_id":"90d88a2f-9e48-46f4-9452-24506e8ddbb1","system_id":"levelo_inurba_marseille","lat":43.294162,"lon":5.386292,"is_reserved":false,"is_disabled":false,"rental_uris":{"android":"levelo://app?vid=90d88a2f-9e48-46f4-9452-24506e8ddbb1","ios":"levelo://app?vid=90d88a2f-9e48-46f4-9452-24506e8ddbb1"},"vehicle_type_id":"4","last_reported":1690402022,"current_range_meters":31200,"station_id":"ce4bh2h2rcd13ifvqdh0","pricing_plan_id":"free"},{"bike_id":"8a97a535-ff86-4cec-aa89-77683caab1a9","system_id":"levelo_inurba_marseille","lat":43.294162,"lon":5.386292,"is_reserved":false,"is_disabled":false,"rental_uris":{"android":"levelo://app?vid=8a97a535-ff86-4cec-aa89-77683caab1a9","ios":"levelo://app?vid=8a97a535-ff86-4cec-aa89-77683caab1a9"},"vehicle_type_id":"4","last_reported":1690402022,"current_range_meters":20800,"station_id":"ce4bh2h2rcd13ifvqdh0","pricing_plan_id":"free"},{"bike_id":"e074fc3d-d7ac-4c1d-9fda-bb5e86985a86","system_id":"levelo_inurba_marseille","lat":43.294162,"lon":5.386292,"is_reserved":false,"is_disabled":false,"rental_uris":{"android":"levelo://app?vid=e074fc3d-d7ac-4c1d-9fda-bb5e86985a86","ios":"levelo://app?vid=e074fc3d-d7ac-4c1d-9fda-bb5e86985a86"},"vehicle_type_id":"4","last_reported":1690402022,"current_range_meters":29200,"station_id":"ce4bh2h2rcd13ifvqdh0","pricing_plan_id":"free"},{"bike_id":"6b7d5cd3-87e4-488c-8dfe-021e46d862d6","system_id":"levelo_inurba_marseille","lat":43.294162,"lon":5.386292,"is_reserved":false,"is_disabled":false,"rental_uris":{"android":"levelo://app?vid=6b7d5cd3-87e4-488c-8dfe-021e46d862d6","ios":"levelo://app?vid=6b7d5cd3-87e4-488c-8dfe-021e46d862d6"},"vehicle_type_id":"4","last_reported":1690402022,"current_range_meters":7600,"station_id":"ce4bh2h2rcd13ifvqdh0","pricing_plan_id":"free"},{"bike_id":"9e50be48-c686-4eea-b61e-4c4a1f12809f","system_id":"levelo_inurba_marseille","lat":43.29412,"lon":5.38619,"is_reserved":false,"is_disabled":false,"rental_uris":{"android":"levelo://app?vid=9e50be48-c686-4eea-b61e-4c4a1f12809f","ios":"levelo://app?vid=9e50be48-c686-4eea-b61e-4c4a1f12809f"},"vehicle_type_id":"4","last_reported":1690402022,"current_range_meters":26400,"station_id":"ce4bh2h2rcd13ifvqdh0","pricing_plan_id":"free"},{"bike_id":"3ff82aa8-fff3-40bc-bc62-b80253324a3d","system_id":"levelo_inurba_marseille","lat":43.294162,"lon":5.386292,"is_reserved":false,"is_disabled":false,"rental_uris":{"android":"levelo://app?vid=3ff82aa8-fff3-40bc-bc62-b80253324a3d","ios":"levelo://app?vid=3ff82aa8-fff3-40bc-bc62-b80253324a3d"},"vehicle_type_id":"4","last_reported":1690402022,"current_range_meters":18000,"station_id":"ce4bh2h2rcd13ifvqdh0","pricing_plan_id":"free"},{"bike_id":"d50364d0-5bc2-4f45-9f71-a346c5626165","system_id":"levelo_inurba_marseille","lat":43.294162,"lon":5.386292,"is_reserved":false,"is_disabled":false,"rental_uris":{"android":"levelo://app?vid=d50364d0-5bc2-4f45-9f71-a346c5626165","ios":"levelo://app?vid=d50364d0-5bc2-4f45-9f71-a346c5626165"},"vehicle_type_id":"4","last_reported":1690402022,"current_range_meters":4800,"station_id":"ce4bh2h2rcd13ifvqdh0","pricing_plan_id":"free"},{"bike_id":"7b4ab998-c57a-47fa-ba82-0bcd17d2374d","system_id":"levelo_inurba_marseille","lat":43.29412,"lon":5.38631,"is_reserved":false,"is_disabled":false,"rental_uris":{"android":"levelo://app?vid=7b4ab998-c57a-47fa-ba82-0bcd17d2374d","ios":"levelo://app?vid=7b4ab998-c57a-47fa-ba82-0bcd17d2374d"},"vehicle_type_id":"4","last_reported":1690402022,"current_range_meters":27600,"station_id":"ce4bh2h2rcd13ifvqdh0","pricing_plan_id":"free"},{"bike_id":"8ed6de07-9aae-4367-bc8f-e9da2931929c","system_id":"levelo_inurba_marseille","lat":43.289184,"lon":5.366408,"is_reserved":false,"is_disabled":false,"rental_uris":{"android":"levelo://app?vid=8ed6de07-9aae-4367-bc8f-e9da2931929c","ios":"levelo://app?vid=8ed6de07-9aae-4367-bc8f-e9da2931929c"},"vehicle_type_id":"4","last_reported":1690402022,"current_range_meters":19200,"station_id":"ce4bhap2rcd13ifvqek0","pricing_plan_id":"free"},{"bike_id":"97b7fa98-52d8-44da-bb7a-2b661c6e7732","system_id":"levelo_inurba_marseille","lat":43.289468,"lon":5.363719,"is_reserved":false,"is_disabled":false,"rental_uris":{"android":"levelo://app?vid=97b7fa98-52d8-44da-bb7a-2b661c6e7732","ios":"levelo://app?vid=97b7fa98-52d8-44da-bb7a-2b661c6e7732"},"vehicle_type_id":"4","last_reported":1690402022,"current_range_meters":22800,"station_id":"ce4bhc92rcd13ifvqetg","pricing_plan_id":"free"},{"bike_id":"6140f21c-fb5b-499d-aa77-cad880e997ed","system_id":"levelo_inurba_marseille","lat":43.289468,"lon":5.363719,"is_reserved":false,"is_disabled":false,"rental_uris":{"android":"levelo://app?vid=6140f21c-fb5b-499d-aa77-cad880e997ed","ios":"levelo://app?vid=6140f21c-fb5b-499d-aa77-cad880e997ed"},"vehicle_type_id":"4","last_reported":1690402022,"current_range_meters":24800,"station_id":"ce4bhc92rcd13ifvqetg","pricing_plan_id":"free"},{"bike_id":"12316d43-b92d-46e8-9ce4-3dcbc4a7fe04","system_id":"levelo_inurba_marseille","lat":43.2941,"lon":5.38655,"is_reserved":false,"is_disabled":false,"rental_uris":{"android":"levelo://app?vid=12316d43-b92d-46e8-9ce4-3dcbc4a7fe04","ios":"levelo://app?vid=12316d43-b92d-46e8-9ce4-3dcbc4a7fe04"},"vehicle_type_id":"4","last_reported":1690402022,"current_range_meters":31200,"station_id":"ce4bh2h2rcd13ifvqdh0","pricing_plan_id":"free"},{"bike_id":"a340620a-c7bc-4861-b925-17b6c9dc8f2b","system_id":"levelo_inurba_marseille","lat":43.289468,"lon":5.363719,"is_reserved":false,"is_disabled":false,"rental_uris":{"android":"levelo://app?vid=a340620a-c7bc-4861-b925-17b6c9dc8f2b","ios":"levelo://app?vid=a340620a-c7bc-4861-b925-17b6c9dc8f2b"},"vehicle_type_id":"4","last_reported":1690402022,"current_range_meters":15200,"station_id":"ce4bhc92rcd13ifvqetg","pricing_plan_id":"free"},{"bike_id":"022f31ac-89af-4446-8326-34b8d2aa68dd","system_id":"levelo_inurba_marseille","lat":43.289468,"lon":5.363719,"is_reserved":false,"is_disabled":false,"rental_uris":{"android":"levelo://app?vid=022f31ac-89af-4446-8326-34b8d2aa68dd","ios":"levelo://app?vid=022f31ac-89af-4446-8326-34b8d2aa68dd"},"vehicle_type_id":"4","last_reported":1690402022,"current_range_meters":30400,"station_id":"ce4bhc92rcd13ifvqetg","pricing_plan_id":"free"},{"bike_id":"939e6f9f-6396-47f8-8202-ae5527a31604","system_id":"levelo_inurba_marseille","lat":43.29269,"lon":5.38436,"is_reserved":false,"is_disabled":false,"rental_uris":{"android":"levelo://app?vid=939e6f9f-6396-47f8-8202-ae5527a31604","ios":"levelo://app?vid=939e6f9f-6396-47f8-8202-ae5527a31604"},"vehicle_type_id":"4","last_reported":1690402022,"current_range_meters":26800,"station_id":"ce4bh692rcd13ifvqea0","pricing_plan_id":"free"},{"bike_id":"2715f347-33d9-4b61-9589-1cff1a0d7e94","system_id":"levelo_inurba_marseille","lat":43.292644,"lon":5.384257,"is_reserved":false,"is_disabled":false,"rental_uris":{"android":"levelo://app?vid=2715f347-33d9-4b61-9589-1cff1a0d7e94","ios":"levelo://app?vid=2715f347-33d9-4b61-9589-1cff1a0d7e94"},"vehicle_type_id":"4","last_reported":1690402022,"current_range_meters":31200,"station_id":"ce4bh692rcd13ifvqea0","pricing_plan_id":"free"},{"bike_id":"92c9546d-099f-4645-8bf2-6cb3655367ad","system_id":"levelo_inurba_marseille","lat":43.292642,"lon":5.384254,"is_reserved":false,"is_disabled":false,"rental_uris":{"android":"levelo://app?vid=92c9546d-099f-4645-8bf2-6cb3655367ad","ios":"levelo://app?vid=92c9546d-099f-4645-8bf2-6cb3655367ad"},"vehicle_type_id":"4","last_reported":1690402022,"current_range_meters":31200,"station_id":"ce4bh692rcd13ifvqea0","pricing_plan_id":"free"},{"bike_id":"89b46db4-3442-4d11-b44a-1417afa44f46","system_id":"levelo_inurba_marseille","lat":43.29266,"lon":5.38444,"is_reserved":false,"is_disabled":false,"rental_uris":{"android":"levelo://app?vid=89b46db4-3442-4d11-b44a-1417afa44f46","ios":"levelo://app?vid=89b46db4-3442-4d11-b44a-1417afa44f46"},"vehicle_type_id":"4","last_reported":1690402022,"current_range_meters":22800,"station_id":"ce4bh692rcd13ifvqea0","pricing_plan_id":"free"},{"bike_id":"0c57244f-387b-42c3-b531-48cd0d32d735","system_id":"levelo_inurba_marseille","lat":43.292644,"lon":5.384257,"is_reserved":false,"is_disabled":false,"rental_uris":{"android":"levelo://app?vid=0c57244f-387b-42c3-b531-48cd0d32d735","ios":"levelo://app?vid=0c57244f-387b-42c3-b531-48cd0d32d735"},"vehicle_type_id":"4","last_reported":1690402022,"current_range_meters":30800,"station_id":"ce4bh692rcd13ifvqea0","pricing_plan_id":"free"},{"bike_id":"e1bb8f7d-17d9-4999-af1c-0b6cadd17dd7","system_id":"levelo_inurba_marseille","lat":43.292642,"lon":5.384254,"is_reserved":false,"is_disabled":false,"rental_uris":{"android":"levelo://app?vid=e1bb8f7d-17d9-4999-af1c-0b6cadd17dd7","ios":"levelo://app?vid=e1bb8f7d-17d9-4999-af1c-0b6cadd17dd7"},"vehicle_type_id":"4","last_reported":1690402022,"current_range_meters":13200,"station_id":"ce4bh692rcd13ifvqea0","pricing_plan_id":"free"},{"bike_id":"9a76fe11-5246-4334-a369-f558395946bf","system_id":"levelo_inurba_marseille","lat":43.292642,"lon":5.384254,"is_reserved":false,"is_disabled":false,"rental_uris":{"android":"levelo://app?vid=9a76fe11-5246-4334-a369-f558395946bf","ios":"levelo://app?vid=9a76fe11-5246-4334-a369-f558395946bf"},"vehicle_type_id":"4","last_reported":1690402022,"current_range_meters":16000,"station_id":"ce4bh692rcd13ifvqea0","pricing_plan_id":"free"},{"bike_id":"a89193f0-2d99-4544-9e16-ed98cae3658f","system_id":"levelo_inurba_marseille","lat":43.292642,"lon":5.384254,"is_reserved":false,"is_disabled":false,"rental_uris":{"android":"levelo://app?vid=a89193f0-2d99-4544-9e16-ed98cae3658f","ios":"levelo://app?vid=a89193f0-2d99-4544-9e16-ed98cae3658f"},"vehicle_type_id":"4","last_reported":1690402022,"current_range_meters":8000,"station_id":"ce4bh692rcd13ifvqea0","pricing_plan_id":"free"},{"bike_id":"01303732-8c65-4427-9370-3d5119e67794","system_id":"levelo_inurba_marseille","lat":43.292644,"lon":5.384257,"is_reserved":false,"is_disabled":false,"rental_uris":{"android":"levelo://app?vid=01303732-8c65-4427-9370-3d5119e67794","ios":"levelo://app?vid=01303732-8c65-4427-9370-3d5119e67794"},"vehicle_type_id":"4","last_reported":1690402022,"current_range_meters":18000,"station_id":"ce4bh692rcd13ifvqea0","pricing_plan_id":"free"},{"bike_id":"e0fc0a37-34ef-4079-93d7-494e006438b3","system_id":"levelo_inurba_marseille","lat":43.292644,"lon":5.384257,"is_reserved":false,"is_disabled":false,"rental_uris":{"android":"levelo://app?vid=e0fc0a37-34ef-4079-93d7-494e006438b3","ios":"levelo://app?vid=e0fc0a37-34ef-4079-93d7-494e006438b3"},"vehicle_type_id":"4","last_reported":1690402022,"current_range_meters":23200,"station_id":"ce4bh692rcd13ifvqea0","pricing_plan_id":"free"},{"bike_id":"334fe140-df33-4b0b-b960-ba01fc997fcc","system_id":"levelo_inurba_marseille","lat":43.292642,"lon":5.384254,"is_reserved":false,"is_disabled":false,"rental_uris":{"android":"levelo://app?vid=334fe140-df33-4b0b-b960-ba01fc997fcc","ios":"levelo://app?vid=334fe140-df33-4b0b-b960-ba01fc997fcc"},"vehicle_type_id":"4","last_reported":1690402022,"current_range_meters":28000,"station_id":"ce4bh692rcd13ifvqea0","pricing_plan_id":"free"},{"bike_id":"de8135c0-9c51-46a0-8226-7cea68cd19a0","system_id":"levelo_inurba_marseille","lat":43.292644,"lon":5.384257,"is_reserved":false,"is_disabled":false,"rental_uris":{"android":"levelo://app?vid=de8135c0-9c51-46a0-8226-7cea68cd19a0","ios":"levelo://app?vid=de8135c0-9c51-46a0-8226-7cea68cd19a0"},"vehicle_type_id":"4","last_reported":1690402022,"current_range_meters":27600,"station_id":"ce4bh692rcd13ifvqea0","pricing_plan_id":"free"},{"bike_id":"38495195-c801-4326-a277-e5ece5f8c46c","system_id":"levelo_inurba_marseille","lat":43.292642,"lon":5.384254,"is_reserved":false,"is_disabled":false,"rental_uris":{"android":"levelo://app?vid=38495195-c801-4326-a277-e5ece5f8c46c","ios":"levelo://app?vid=38495195-c801-4326-a277-e5ece5f8c46c"},"vehicle_type_id":"4","last_reported":1690402022,"current_range_meters":25600,"station_id":"ce4bh692rcd13ifvqea0","pricing_plan_id":"free"},{"bike_id":"b437f4da-3389-4565-aa85-19581fa9f99c","system_id":"levelo_inurba_marseille","lat":43.29263,"lon":5.38449,"is_reserved":false,"is_disabled":false,"rental_uris":{"android":"levelo://app?vid=b437f4da-3389-4565-aa85-19581fa9f99c","ios":"levelo://app?vid=b437f4da-3389-4565-aa85-19581fa9f99c"},"vehicle_type_id":"4","last_reported":1690402022,"current_range_meters":29600,"station_id":"ce4bh692rcd13ifvqea0","pricing_plan_id":"free"},{"bike_id":"92c8741d-00eb-402d-a5d4-28b1e2d73641","system_id":"levelo_inurba_marseille","lat":43.292644,"lon":5.384257,"is_reserved":false,"is_disabled":false,"rental_uris":{"android":"levelo://app?vid=92c8741d-00eb-402d-a5d4-28b1e2d73641","ios":"levelo://app?vid=92c8741d-00eb-402d-a5d4-28b1e2d73641"},"vehicle_type_id":"4","last_reported":1690402022,"current_range_meters":22400,"station_id":"ce4bh692rcd13ifvqea0","pricing_plan_id":"free"},{"bike_id":"a52699dc-ac3d-4220-b17d-0e902c65c1a9","system_id":"levelo_inurba_marseille","lat":43.292644,"lon":5.384257,"is_reserved":false,"is_disabled":false,"rental_uris":{"android":"levelo://app?vid=a52699dc-ac3d-4220-b17d-0e902c65c1a9","ios":"levelo://app?vid=a52699dc-ac3d-4220-b17d-0e902c65c1a9"},"vehicle_type_id":"4","last_reported":1690402022,"current_range_meters":15600,"station_id":"ce4bh692rcd13ifvqea0","pricing_plan_id":"free"},{"bike_id":"80d0f909-93aa-488a-8aa9-1dd6fe748b44","system_id":"levelo_inurba_marseille","lat":43.292644,"lon":5.384257,"is_reserved":false,"is_disabled":false,"rental_uris":{"android":"levelo://app?vid=80d0f909-93aa-488a-8aa9-1dd6fe748b44","ios":"levelo://app?vid=80d0f909-93aa-488a-8aa9-1dd6fe748b44"},"vehicle_type_id":"4","last_reported":1690402022,"current_range_meters":31200,"station_id":"ce4bh692rcd13ifvqea0","pricing_plan_id":"free"},{"bike_id":"8f0e3b69-7e3d-4c4a-be82-1fe0f2c10e00","system_id":"levelo_inurba_marseille","lat":43.292644,"lon":5.384257,"is_reserved":false,"is_disabled":false,"rental_uris":{"android":"levelo://app?vid=8f0e3b69-7e3d-4c4a-be82-1fe0f2c10e00","ios":"levelo://app?vid=8f0e3b69-7e3d-4c4a-be82-1fe0f2c10e00"},"vehicle_type_id":"4","last_reported":1690402022,"current_range_meters":28400,"station_id":"ce4bh692rcd13ifvqea0","pricing_plan_id":"free"},{"bike_id":"3fd9ca50-7d9c-4878-99c5-ec4c0ae961de","system_id":"levelo_inurba_marseille","lat":43.292644,"lon":5.384257,"is_reserved":false,"is_disabled":false,"rental_uris":{"android":"levelo://app?vid=3fd9ca50-7d9c-4878-99c5-ec4c0ae961de","ios":"levelo://app?vid=3fd9ca50-7d9c-4878-99c5-ec4c0ae961de"},"vehicle_type_id":"4","last_reported":1690402022,"current_range_meters":12400,"station_id":"ce4bh692rcd13ifvqea0","pricing_plan_id":"free"},{"bike_id":"0177c36c-7296-47d6-af07-c69aef3d001f","system_id":"levelo_inurba_marseille","lat":43.292644,"lon":5.384257,"is_reserved":false,"is_disabled":false,"rental_uris":{"android":"levelo://app?vid=0177c36c-7296-47d6-af07-c69aef3d001f","ios":"levelo://app?vid=0177c36c-7296-47d6-af07-c69aef3d001f"},"vehicle_type_id":"4","last_reported":1690402022,"current_range_meters":31200,"station_id":"ce4bh692rcd13ifvqea0","pricing_plan_id":"free"},{"bike_id":"28789570-2c6a-4882-92d5-5abd9b72b63a","system_id":"levelo_inurba_marseille","lat":43.292642,"lon":5.384254,"is_reserved":false,"is_disabled":false,"rental_uris":{"android":"levelo://app?vid=28789570-2c6a-4882-92d5-5abd9b72b63a","ios":"levelo://app?vid=28789570-2c6a-4882-92d5-5abd9b72b63a"},"vehicle_type_id":"4","last_reported":1690402022,"current_range_meters":31200,"station_id":"ce4bh692rcd13ifvqea0","pricing_plan_id":"free"},{"bike_id":"5b4bdf5d-4011-4afb-a443-09b50841fb4a","system_id":"levelo_inurba_marseille","lat":43.292644,"lon":5.384257,"is_reserved":false,"is_disabled":false,"rental_uris":{"android":"levelo://app?vid=5b4bdf5d-4011-4afb-a443-09b50841fb4a","ios":"levelo://app?vid=5b4bdf5d-4011-4afb-a443-09b50841fb4a"},"vehicle_type_id":"4","last_reported":1690402022,"current_range_meters":11600,"station_id":"ce4bh692rcd13ifvqea0","pricing_plan_id":"free"},{"bike_id":"327f82eb-39ce-4501-8198-3934f899466c","system_id":"levelo_inurba_marseille","lat":43.29006,"lon":5.35614,"is_reserved":false,"is_disabled":false,"rental_uris":{"android":"levelo://app?vid=327f82eb-39ce-4501-8198-3934f899466c","ios":"levelo://app?vid=327f82eb-39ce-4501-8198-3934f899466c"},"vehicle_type_id":"4","last_reported":1690402022,"current_range_meters":6000,"station_id":"","pricing_plan_id":"free"},{"bike_id":"46b3b188-3a47-451f-a51d-ac911f5c1e28","system_id":"levelo_inurba_marseille","lat":43.29003,"lon":5.35614,"is_reserved":false,"is_disabled":false,"rental_uris":{"android":"levelo://app?vid=46b3b188-3a47-451f-a51d-ac911f5c1e28","ios":"levelo://app?vid=46b3b188-3a47-451f-a51d-ac911f5c1e28"},"vehicle_type_id":"4","last_reported":1690402022,"current_range_meters":31200,"station_id":"ce4bhb92rcd13ifvqen0","pricing_plan_id":"free"},{"bike_id":"91fec792-a5a5-4820-af7d-3c6be3109af2","system_id":"levelo_inurba_marseille","lat":43.290104,"lon":5.356111,"is_reserved":false,"is_disabled":false,"rental_uris":{"android":"levelo://app?vid=91fec792-a5a5-4820-af7d-3c6be3109af2","ios":"levelo://app?vid=91fec792-a5a5-4820-af7d-3c6be3109af2"},"vehicle_type_id":"4","last_reported":1690402022,"current_range_meters":31600,"station_id":"ce4bhb92rcd13ifvqen0","pricing_plan_id":"free"},{"bike_id":"fbdcd732-8678-40d1-a261-08f0e7ba695c","system_id":"levelo_inurba_marseille","lat":43.29101,"lon":5.38142,"is_reserved":false,"is_disabled":false,"rental_uris":{"android":"levelo://app?vid=fbdcd732-8678-40d1-a261-08f0e7ba695c","ios":"levelo://app?vid=fbdcd732-8678-40d1-a261-08f0e7ba695c"},"vehicle_type_id":"4","last_reported":1690402022,"current_range_meters":18400,"station_id":"ce4bh512rcd13ifvqe2g","pricing_plan_id":"free"},{"bike_id":"631d78cb-e8be-432f-8244-7ebcc20c294d","system_id":"levelo_inurba_marseille","lat":43.297815,"lon":5.393548,"is_reserved":false,"is_disabled":false,"rental_uris":{"android":"levelo://app?vid=631d78cb-e8be-432f-8244-7ebcc20c294d","ios":"levelo://app?vid=631d78cb-e8be-432f-8244-7ebcc20c294d"},"vehicle_type_id":"4","last_reported":1690402022,"current_range_meters":16400,"station_id":"chh1huq6cuj3fo74tm60","pricing_plan_id":"free"},{"bike_id":"1ee2fc85-64af-4e0c-a422-40aabb673ec4","system_id":"levelo_inurba_marseille","lat":43.295169,"lon":5.390426,"is_reserved":false,"is_disabled":false,"rental_uris":{"android":"levelo://app?vid=1ee2fc85-64af-4e0c-a422-40aabb673ec4","ios":"levelo://app?vid=1ee2fc85-64af-4e0c-a422-40aabb673ec4"},"vehicle_type_id":"4","last_reported":1690402022,"current_range_meters":31200,"station_id":"ce4bh3p2rcd13ifvqdp0","pricing_plan_id":"free"},{"bike_id":"4de5b41b-c698-4297-9fa8-deb43632c9ce","system_id":"levelo_inurba_marseille","lat":43.297815,"lon":5.393548,"is_reserved":false,"is_disabled":false,"rental_uris":{"android":"levelo://app?vid=4de5b41b-c698-4297-9fa8-deb43632c9ce","ios":"levelo://app?vid=4de5b41b-c698-4297-9fa8-deb43632c9ce"},"vehicle_type_id":"4","last_reported":1690402022,"current_range_meters":22400,"station_id":"chh1huq6cuj3fo74tm60","pricing_plan_id":"free"},{"bike_id":"d6fc8a96-dfba-4fae-8d99-8d98a1527b38","system_id":"levelo_inurba_marseille","lat":43.295169,"lon":5.390426,"is_reserved":false,"is_disabled":false,"rental_uris":{"android":"levelo://app?vid=d6fc8a96-dfba-4fae-8d99-8d98a1527b38","ios":"levelo://app?vid=d6fc8a96-dfba-4fae-8d99-8d98a1527b38"},"vehicle_type_id":"4","last_reported":1690402022,"current_range_meters":24400,"station_id":"ce4bh3p2rcd13ifvqdp0","pricing_plan_id":"free"},{"bike_id":"d5f0c1e8-3922-49ad-b709-f32cc454113d","system_id":"levelo_inurba_marseille","lat":43.295169,"lon":5.390426,"is_reserved":false,"is_disabled":false,"rental_uris":{"android":"levelo://app?vid=d5f0c1e8-3922-49ad-b709-f32cc454113d","ios":"levelo://app?vid=d5f0c1e8-3922-49ad-b709-f32cc454113d"},"vehicle_type_id":"4","last_reported":1690402022,"current_range_meters":31200,"station_id":"ce4bh3p2rcd13ifvqdp0","pricing_plan_id":"free"},{"bike_id":"7d860859-1048-4ed6-9aa8-ecddda79d166","system_id":"levelo_inurba_marseille","lat":43.295169,"lon":5.390426,"is_reserved":false,"is_disabled":false,"rental_uris":{"android":"levelo://app?vid=7d860859-1048-4ed6-9aa8-ecddda79d166","ios":"levelo://app?vid=7d860859-1048-4ed6-9aa8-ecddda79d166"},"vehicle_type_id":"4","last_reported":1690402022,"current_range_meters":9600,"station_id":"ce4bh3p2rcd13ifvqdp0","pricing_plan_id":"free"},{"bike_id":"56dcaf5e-b13a-43c8-9df5-01480b1ee562","system_id":"levelo_inurba_marseille","lat":43.297815,"lon":5.393548,"is_reserved":false,"is_disabled":false,"rental_uris":{"android":"levelo://app?vid=56dcaf5e-b13a-43c8-9df5-01480b1ee562","ios":"levelo://app?vid=56dcaf5e-b13a-43c8-9df5-01480b1ee562"},"vehicle_type_id":"4","last_reported":1690402022,"current_range_meters":29600,"station_id":"chh1huq6cuj3fo74tm60","pricing_plan_id":"free"},{"bike_id":"099be544-0dba-422f-abb6-7328a0fb1956","system_id":"levelo_inurba_marseille","lat":43.31275,"lon":5.4016,"is_reserved":false,"is_disabled":false,"rental_uris":{"android":"levelo://app?vid=099be544-0dba-422f-abb6-7328a0fb1956","ios":"levelo://app?vid=099be544-0dba-422f-abb6-7328a0fb1956"},"vehicle_type_id":"4","last_reported":1690402022,"current_range_meters":24800,"station_id":"ce4bh092rcd13ifvqd30","pricing_plan_id":"free"},{"bike_id":"8eb60585-6d53-454d-a0d0-d77c9438ce65","system_id":"levelo_inurba_marseille","lat":43.312609,"lon":5.401662,"is_reserved":false,"is_disabled":false,"rental_uris":{"android":"levelo://app?vid=8eb60585-6d53-454d-a0d0-d77c9438ce65","ios":"levelo://app?vid=8eb60585-6d53-454d-a0d0-d77c9438ce65"},"vehicle_type_id":"4","last_reported":1690402022,"current_range_meters":25600,"station_id":"ce4bh092rcd13ifvqd30","pricing_plan_id":"free"},{"bike_id":"af157746-badd-42c9-851b-022920fb64f7","system_id":"levelo_inurba_marseille","lat":43.309371,"lon":5.401449,"is_reserved":false,"is_disabled":false,"rental_uris":{"android":"levelo://app?vid=af157746-badd-42c9-851b-022920fb64f7","ios":"levelo://app?vid=af157746-badd-42c9-851b-022920fb64f7"},"vehicle_type_id":"4","last_reported":1690402022,"current_range_meters":19600,"station_id":"ce4bgvp2rcd13ifvqct0","pricing_plan_id":"free"},{"bike_id":"680871a5-104f-4a17-8bf3-b0a6e0c22490","system_id":"levelo_inurba_marseille","lat":43.3127,"lon":5.4017,"is_reserved":false,"is_disabled":false,"rental_uris":{"android":"levelo://app?vid=680871a5-104f-4a17-8bf3-b0a6e0c22490","ios":"levelo://app?vid=680871a5-104f-4a17-8bf3-b0a6e0c22490"},"vehicle_type_id":"4","last_reported":1690402022,"current_range_meters":18000,"station_id":"ce4bh092rcd13ifvqd30","pricing_plan_id":"free"},{"bike_id":"40da0073-ff7e-4bef-80a8-a2433aeea0a1","system_id":"levelo_inurba_marseille","lat":43.309287,"lon":5.401378,"is_reserved":false,"is_disabled":false,"rental_uris":{"android":"levelo://app?vid=40da0073-ff7e-4bef-80a8-a2433aeea0a1","ios":"levelo://app?vid=40da0073-ff7e-4bef-80a8-a2433aeea0a1"},"vehicle_type_id":"4","last_reported":1690402022,"current_range_meters":18000,"station_id":"ce4bgvp2rcd13ifvqct0","pricing_plan_id":"free"},{"bike_id":"1699be57-d483-411b-beb9-c54d0e4096f5","system_id":"levelo_inurba_marseille","lat":43.312609,"lon":5.401662,"is_reserved":false,"is_disabled":false,"rental_uris":{"android":"levelo://app?vid=1699be57-d483-411b-beb9-c54d0e4096f5","ios":"levelo://app?vid=1699be57-d483-411b-beb9-c54d0e4096f5"},"vehicle_type_id":"4","last_reported":1690402022,"current_range_meters":14000,"station_id":"ce4bh092rcd13ifvqd30","pricing_plan_id":"free"},{"bike_id":"61441b5b-3700-4800-a2e5-4d08b59fdbd0","system_id":"levelo_inurba_marseille","lat":43.309337,"lon":5.401399,"is_reserved":false,"is_disabled":false,"rental_uris":{"android":"levelo://app?vid=61441b5b-3700-4800-a2e5-4d08b59fdbd0","ios":"levelo://app?vid=61441b5b-3700-4800-a2e5-4d08b59fdbd0"},"vehicle_type_id":"4","last_reported":1690402022,"current_range_meters":31200,"station_id":"ce4bgvp2rcd13ifvqct0","pricing_plan_id":"free"},{"bike_id":"704679fe-5a31-4908-bf29-3c6ae0060259","system_id":"levelo_inurba_marseille","lat":43.30926,"lon":5.40139,"is_reserved":false,"is_disabled":false,"rental_uris":{"android":"levelo://app?vid=704679fe-5a31-4908-bf29-3c6ae0060259","ios":"levelo://app?vid=704679fe-5a31-4908-bf29-3c6ae0060259"},"vehicle_type_id":"4","last_reported":1690402022,"current_range_meters":13200,"station_id":"ce4bgvp2rcd13ifvqct0","pricing_plan_id":"free"},