{"last_updated":1751670646,"ttl":60,"version":"2.2","data":{"bikes":[{"bike_id":"3da29fb8-fc97-44c6-b9ac-31dd456b2fd4","system_id":"levelo_inurba_marseille","lat":43.33771,"lon":5.37424,"is_reserved":false,"is_disabled":true,"rental_uris":{"android":"levelo://app?vid=3da29fb8-fc97-44c6-b9ac-31dd456b2fd4","ios":"levelo://app?vid=3da29fb8-fc97-44c6-b9ac-31dd456b2fd4"},"vehicle_type_id":"4","last_reported":1751670646,"current_range_meters":0,"station_id":"","pricing_plan_id":"cebpf4jnsgd1na2vs0mg"},{"bike_id":"01861ad8-a8d7-4be6-816e-651927c87584","system_id":"levelo_inurba_marseille","lat":43.33751,"lon":5.37456,"is_reserved":false,"is_disabled":true,"rental_uris":{"android":"levelo://app?vid=01861ad8-a8d7-4be6-816e-651927c87584","ios":"levelo://app?vid=01861ad8-a8d7-4be6-816e-651927c87584"},"vehicle_type_id":"4","last_reported":1751670646,"current_range_meters":0,"station_id":"","pricing_plan_id":"cebpf4jnsgd1na2vs0mg"},{"bike_id":"eb2a50ca-506b-4e80-b379-08adc8ae9a82","system_id":"levelo_inurba_marseille","lat":43.25396,"lon":5.37511,"is_reserved":false,"is_disabled":true,"rental_uris":{"android":"levelo://app?vid=eb2a50ca-506b-4e80-b379-08adc8ae9a82","ios":"levelo://app?vid=eb2a50ca-506b-4e80-b379-08adc8ae9a82"},"vehicle_type_id":"4","last_reported":1751670646,"current_range_meters":0,"station_id":"","pricing_plan_id":"cebpf4jnsgd1na2vs0mg"},{"bike_id":"088dece7-ec37-44f8-8c97-b03525c34a94","system_id":"levelo_inurba_marseille","lat":43.29965,"lon":5.38499,"is_reserved":false,"is_disabled":true,"rental_uris":{"android":"levelo://app?vid=088dece7-ec37-44f8-8c97-b03525c34a94","ios":"levelo://app?vid=088dece7-ec37-44f8-8c97-b03525c34a94"},"vehicle_type_id":"4","last_reported":1751670646,"current_range_meters":0,"station_id":"ce4bgj92rcd13ifvqbd0","pricing_plan_id":"cebpf4jnsgd1na2vs0mg"},{"bike_id":"aa0ee44a-9e5f-41a6-a1a1-8656bb1d349f","system_id":"levelo_inurba_marseille","lat":43.29225,"lon":5.36051,"is_reserved":false,"is_disabled":true,"rental_uris":{"android":"levelo://app?vid=aa0ee44a-9e5f-41a6-a1a1-8656bb1d349f","ios":"levelo://app?vid=aa0ee44a-9e5f-41a6-a1a1-8656bb1d349f"},"vehicle_type_id":"4","last_reported":1751670646,"current_range_meters":0,"station_id":"ce4bhbh2rcd13ifvqeqg","pricing_plan_id":"cebpf4jnsgd1na2vs0mg"},{"bike_id":"2f02ad23-19f6-4100-8e9a-60ebcf3b3800","system_id":"levelo_inurba_marseille","lat":43.24651,"lon":5.38894,"is_reserved":false,"is_disabled":true,"rental_uris":{"android":"levelo://app?vid=2f02ad23-19f6-4100-8e9a-60ebcf3b3800","ios":"levelo://app?vid=2f02ad23-19f6-4100-8e9a-60ebcf3b3800"},"vehicle_type_id":"4","last_reported":1751670646,"current_range_meters":0,"station_id":"ce4bhg12rcd13ifvqf60","pricing_plan_id":"cebpf4jnsgd1na2vs0mg"},{"bike_id":"3192af99-0d51-4b91-963f-5b785fe2af82","system_id":"levelo_inurba_marseille","lat":43.24079,"lon":5.37755,"is_reserved":false,"is_disabled":true,"rental_uris":{"android":"levelo://app?vid=3192af99-0d51-4b91-963f-5b785fe2af82","ios":"levelo://app?vid=3192af99-0d51-4b91-963f-5b785fe2af82"},"vehicle_type_id":"4","last_reported":1751670646,"current_range_meters":0,"station_id":"ce4bhnp2rcd13ifvqgvg","pricing_plan_id":"cebpf4jnsgd1na2vs0mg"},{"bike_id":"fb7eaa34-3090-467a-bc3a-a4c2c7cd510d","system_id":"levelo_inurba_marseille","lat":43.21744,"lon":5.34612,"is_reserved":false,"is_disabled":true,"rental_uris":{"android":"levelo://app?vid=fb7eaa34-3090-467a-bc3a-a4c2c7cd510d","ios":"levelo://app?vid=fb7eaa34-3090-467a-bc3a-a4c2c7cd510d"},"vehicle_type_id":"4","last_reported":1751670646,"current_range_meters":0,"station_id":"st_cvj6r9ubvosntc0bgbag","pricing_plan_id":"cebpf4jnsgd1na2vs0mg"},{"bike_id":"2db7de25-6c57-447b-bff5-ea01c3753780","system_id":"levelo_inurba_marseille","lat":43.21756,"lon":5.34611,"is_reserved":false,"is_disabled":true,"rental_uris":{"android":"levelo://app?vid=2db7de25-6c57-447b-bff5-ea01c3753780","ios":"levelo://app?vid=2db7de25-6c57-447b-bff5-ea01c3753780"},"vehicle_type_id":"4","last_reported":1751670646,"current_range_meters":0,"station_id":"st_cvj6r9ubvosntc0bgbag","pricing_plan_id":"cebpf4jnsgd1na2vs0mg"},{"bike_id":"5e8830ec-34e5-4f0f-b607-434b2954d153","system_id":"levelo_inurba_marseille","lat":43.21182,"lon":5.35078,"is_reserved":false,"is_disabled":true,"rental_uris":{"android":"levelo://app?vid=5e8830ec-34e5-4f0f-b607-434b2954d153","ios":"levelo://app?vid=5e8830ec-34e5-4f0f-b607-434b2954d153"},"vehicle_type_id":"4","last_reported":1751670646,"current_range_meters":0,"station_id":"st_cvj6sg6p6f1abm77japg","pricing_plan_id":"cebpf4jnsgd1na2vs0mg"},{"bike_id":"cee0b5b6-9b90-457a-85f4-540287a23b84","system_id":"levelo_inurba_marseille","lat":43.21199,"lon":5.35064,"is_reserved":false,"is_disabled":true,"rental_uris":{"android":"levelo://app?vid=cee0b5b6-9b90-457a-85f4-540287a23b84","ios":"levelo://app?vid=cee0b5b6-9b90-457a-85f4-540287a23b84"},"vehicle_type_id":"4","last_reported":1751670646,"current_range_meters":0,"station_id":"st_cvj6sg6p6f1abm77japg","pricing_plan_id":"cebpf4jnsgd1na2vs0mg"},{"bike_id":"cd2a3af2-854b-4519-92e5-1eaf70ba8a37","system_id":"levelo_inurba_marseille","lat":43.211931,"lon":5.350718,"is_reserved":false,"is_disabled":true,"rental_uris":{"android":"levelo://app?vid=cd2a3af2-854b-4519-92e5-1eaf70ba8a37","ios":"levelo://app?vid=cd2a3af2-854b-4519-92e5-1eaf70ba8a37"},"vehicle_type_id":"4","last_reported":1751670646,"current_range_meters":0,"station_id":"st_cvj6sg6p6f1abm77japg","pricing_plan_id":"cebpf4jnsgd1na2vs0mg"},{"bike_id":"232c7599-afff-41a5-b0d2-0bcec5f48bb6","system_id":"levelo_inurba_marseille","lat":43.21758,"lon":5.34627,"is_reserved":false,"is_disabled":true,"rental_uris":{"android":"levelo://app?vid=232c7599-afff-41a5-b0d2-0bcec5f48bb6","ios":"levelo://app?vid=232c7599-afff-41a5-b0d2-0bcec5f48bb6"},"vehicle_type_id":"4","last_reported":1751670646,"current_range_meters":800,"station_id":"st_cvj6r9ubvosntc0bgbag","pricing_plan_id":"cebpf4jnsgd1na2vs0mg"},{"bike_id":"11e7b8be-6254-46c8-a705-c6941c346d56","system_id":"levelo_inurba_marseille","lat":43.301385,"lon":5.377305,"is_reserved":false,"is_disabled":true,"rental_uris":{"android":"levelo://app?vid=11e7b8be-6254-46c8-a705-c6941c346d56","ios":"levelo://app?vid=11e7b8be-6254-46c8-a705-c6941c346d56"},"vehicle_type_id":"4","last_reported":1751670646,"current_range_meters":1200,"station_id":"","pricing_plan_id":"cebpf4jnsgd1na2vs0mg"},{"bike_id":"76537ac4-b1ab-4dbb-a058-0485a931fac9","system_id":"levelo_inurba_marseille","lat":43.29603,"lon":5.36867,"is_reserved":false,"is_disabled":true,"rental_uris":{"android":"levelo://app?vid=76537ac4-b1ab-4dbb-a058-0485a931fac9","ios":"levelo://app?vid=76537ac4-b1ab-4dbb-a058-0485a931fac9"},"vehicle_type_id":"4","last_reported":1751670646,"current_range_meters":1600,"station_id":"","pricing_plan_id":"cebpf4jnsgd1na2vs0mg"},{"bike_id":"335f54ab-1edf-450e-bf6d-379206804f8e","system_id":"levelo_inurba_marseille","lat":43.304194,"lon":5.412029,"is_reserved":false,"is_disabled":true,"rental_uris":{"android":"levelo://app?vid=335f54ab-1edf-450e-bf6d-379206804f8e","ios":"levelo://app?vid=335f54ab-1edf-450e-bf6d-379206804f8e"},"vehicle_type_id":"4","last_reported":1751670646,"current_range_meters":1600,"station_id":"ce4bhop2rcd13ifvqh8g","pricing_plan_id":"cebpf4jnsgd1na2vs0mg"},{"bike_id":"1d1e194f-1254-4bd3-b387-4a9bc32002fa","system_id":"levelo_inurba_marseille","lat":43.29865,"lon":5.39733,"is_reserved":false,"is_disabled":true,"rental_uris":{"android":"levelo://app?vid=1d1e194f-1254-4bd3-b387-4a9bc32002fa","ios":"levelo://app?vid=1d1e194f-1254-4bd3-b387-4a9bc32002fa"},"vehicle_type_id":"4","last_reported":1751670646,"current_range_meters":2000,"station_id":"ce4bh0h2rcd13ifvqd50","pricing_plan_id":"cebpf4jnsgd1na2vs0mg"},{"bike_id":"c5b91b0a-5fc4-4165-b464-20e1a4c673fb","system_id":"levelo_inurba_marseille","lat":43.32361,"lon":5.36751,"is_reserved":false,"is_disabled":true,"rental_uris":{"android":"levelo://app?vid=c5b91b0a-5fc4-4165-b464-20e1a4c673fb","ios":"levelo://app?vid=c5b91b0a-5fc4-4165-b464-20e1a4c673fb"},"vehicle_type_id":"4","last_reported":1751670646,"current_range_meters":2000,"station_id":"ce4bhsh2rcd13ifvqi2g","pricing_plan_id":"cebpf4jnsgd1na2vs0mg"},{"bike_id":"38c732d6-04c6-48a5-aa8b-a37a2297ee74","system_id":"levelo_inurba_marseille","lat":43.29289,"lon":5.40155,"is_reserved":false,"is_disabled":false,"rental_uris":{"android":"levelo://app?vid=38c732d6-04c6-48a5-aa8b-a37a2297ee74","ios":"levelo://app?vid=38c732d6-04c6-48a5-aa8b-a37a2297ee74"},"vehicle_type_id":"4","last_reported":1751670646,"current_range_meters":3200,"station_id":"ce4bh312rcd13ifvqdk0","pricing_plan_id":"cebpf4jnsgd1na2vs0mg"},{"bike_id":"f56c4fd7-02ba-45d7-9f67-fd5846fc39e6","system_id":"levelo_inurba_marseille","lat":43.29266,"lon":5.40155,"is_reserved":false,"is_disabled":false,"rental_uris":{"android":"levelo://app?vid=f56c4fd7-02ba-45d7-9f67-fd5846fc39e6","ios":"levelo://app?vid=f56c4fd7-02ba-45d7-9f67-fd5846fc39e6"},"vehicle_type_id":"4","last_reported":1751670646,"current_range_meters":3200,"station_id":"ce4bh312rcd13ifvqdk0","pricing_plan_id":"cebpf4jnsgd1na2vs0mg"},{"bike_id":"cb0014e1-eadd-4761-a8c0-6c6c53705809","system_id":"levelo_inurba_marseille","lat":43.2844,"lon":5.39197,"is_reserved":false,"is_disabled":false,"rental_uris":{"android":"levelo://app?vid=cb0014e1-eadd-4761-a8c0-6c6c53705809","ios":"levelo://app?vid=cb0014e1-eadd-4761-a8c0-6c6c53705809"},"vehicle_type_id":"4","last_reported":1751670646,"current_range_meters":3600,"station_id":"ce4bhoh2rcd13ifvqh5g","pricing_plan_id":"cebpf4jnsgd1na2vs0mg"},{"bike_id":"8afa7640-ebe8-4025-983a-c83f3912a2dd","system_id":"levelo_inurba_marseille","lat":43.211869,"lon":5.350945,"is_reserved":false,"is_disabled":false,"rental_uris":{"android":"levelo://app?vid=8afa7640-ebe8-4025-983a-c83f3912a2dd","ios":"levelo://app?vid=8afa7640-ebe8-4025-983a-c83f3912a2dd"},"vehicle_type_id":"4","last_reported":1751670646,"current_range_meters":3600,"station_id":"st_cvj6sg6p6f1abm77japg","pricing_plan_id":"cebpf4jnsgd1na2vs0mg"},{"bike_id":"b174d443-7ada-440d-aa55-0f95375fb951","system_id":"levelo_inurba_marseille","lat":43.26569,"lon":5.39013,"is_reserved":false,"is_disabled":false,"rental_uris":{"android":"levelo://app?vid=b174d443-7ada-440d-aa55-0f95375fb951","ios":"levelo://app?vid=b174d443-7ada-440d-aa55-0f95375fb951"},"vehicle_type_id":"4","last_reported":1751670646,"current_range_meters":4000,"station_id":"ce4bhe12rcd13ifvqf30","pricing_plan_id":"cebpf4jnsgd1na2vs0mg"},{"bike_id":"e26ba497-efc7-4420-b8c5-9fa5e27f2ce4","system_id":"levelo_inurba_marseille","lat":43.31347,"lon":5.37089,"is_reserved":false,"is_disabled":false,"rental_uris":{"android":"levelo://app?vid=e26ba497-efc7-4420-b8c5-9fa5e27f2ce4","ios":"levelo://app?vid=e26ba497-efc7-4420-b8c5-9fa5e27f2ce4"},"vehicle_type_id":"4","last_reported":1751670646,"current_range_meters":4400,"station_id":"","pricing_plan_id":"cebpf4jnsgd1na2vs0mg"},{"bike_id":"fc013502-346d-4585-b4ff-030c367047a2","system_id":"levelo_inurba_marseille","lat":43.29189,"lon":5.39331,"is_reserved":false,"is_disabled":false,"rental_uris":{"android":"levelo://app?vid=fc013502-346d-4585-b4ff-030c367047a2","ios":"levelo://app?vid=fc013502-346d-4585-b4ff-030c367047a2"},"vehicle_type_id":"4","last_reported":1751670646,"current_range_meters":4400,"station_id":"ce4bh192rcd13ifvqdd0","pricing_plan_id":"cebpf4jnsgd1na2vs0mg"},{"bike_id":"6cd3d47e-a0d1-4ea2-acca-488f8d1b58ba","system_id":"levelo_inurba_marseille","lat":43.30597,"lon":5.37245,"is_reserved":false,"is_disabled":false,"rental_uris":{"android":"levelo://app?vid=6cd3d47e-a0d1-4ea2-acca-488f8d1b58ba","ios":"levelo://app?vid=6cd3d47e-a0d1-4ea2-acca-488f8d1b58ba"},"vehicle_type_id":"4","last_reported":1751670646,"current_range_meters":4800,"station_id":"ce4bgqh2rcd13ifvqc4g","pricing_plan_id":"cebpf4jnsgd1na2vs0mg"},{"bike_id":"e2a3b49b-9bfe-4a0c-8319-3405af3ac7a8","system_id":"levelo_inurba_marseille","lat":43.30212,"lon":5.39466,"is_reserved":false,"is_disabled":false,"rental_uris":{"android":"levelo://app?vid=e2a3b49b-9bfe-4a0c-8319-3405af3ac7a8","ios":"levelo://app?vid=e2a3b49b-9bfe-4a0c-8319-3405af3ac7a8"},"vehicle_type_id":"4","last_reported":1751670646,"current_range_meters":4800,"station_id":"ce4bh0p2rcd13ifvqd70","pricing_plan_id":"cebpf4jnsgd1na2vs0mg"},{"bike_id":"c3ae91a3-84a1-49e1-b302-b2dd0c68bce6","system_id":"levelo_inurba_marseille","lat":43.28317,"lon":5.43243,"is_reserved":false,"is_disabled":false,"rental_uris":{"android":"levelo://app?vid=c3ae91a3-84a1-49e1-b302-b2dd0c68bce6","ios":"levelo://app?vid=c3ae91a3-84a1-49e1-b302-b2dd0c68bce6"},"vehicle_type_id":"4","last_reported":1751670646,"current_range_meters":5600,"station_id":"","pricing_plan_id":"cebpf4jnsgd1na2vs0mg"},{"bike_id":"90d16853-0565-4d31-aabd-8f68dbaeb5bb","system_id":"levelo_inurba_marseille","lat":43.3042,"lon":5.41278,"is_reserved":false,"is_disabled":false,"rental_uris":{"android":"levelo://app?vid=90d16853-0565-4d31-aabd-8f68dbaeb5bb","ios":"levelo://app?vid=90d16853-0565-4d31-aabd-8f68dbaeb5bb"},"vehicle_type_id":"4","last_reported":1751670646,"current_range_meters":5600,"station_id":"ce4bhop2rcd13ifvqh8g","pricing_plan_id":"cebpf4jnsgd1na2vs0mg"},{"bike_id":"92d5ff5f-5802-4907-8fb4-e3a7662c9e17","system_id":"levelo_inurba_marseille","lat":43.3042,"lon":5.41271,"is_reserved":false,"is_disabled":false,"rental_uris":{"android":"levelo://app?vid=92d5ff5f-5802-4907-8fb4-e3a7662c9e17","ios":"levelo://app?vid=92d5ff5f-5802-4907-8fb4-e3a7662c9e17"},"vehicle_type_id":"4","last_reported":1751670646,"current_range_meters":5600,"station_id":"ce4bhop2rcd13ifvqh8g","pricing_plan_id":"cebpf4jnsgd1na2vs0mg"},{"bike_id":"d52317ec-9d8e-4e5d-a5ef-563eb0952a26","system_id":"levelo_inurba_marseille","lat":43.31753,"lon":5.39019,"is_reserved":false,"is_disabled":false,"rental_uris":{"android":"levelo://app?vid=d52317ec-9d8e-4e5d-a5ef-563eb0952a26","ios":"levelo://app?vid=d52317ec-9d8e-4e5d-a5ef-563eb0952a26"},"vehicle_type_id":"4","last_reported":1751670646,"current_range_meters":5600,"station_id":"ce4bhqp2rcd13ifvqhng","pricing_plan_id":"cebpf4jnsgd1na2vs0mg"},{"bike_id":"0f6e54a7-e47c-46a3-9755-ec2879fdad27","system_id":"levelo_inurba_marseille","lat":43.312415,"lon":5.369135,"is_reserved":false,"is_disabled":false,"rental_uris":{"android":"levelo://app?vid=0f6e54a7-e47c-46a3-9755-ec2879fdad27","ios":"levelo://app?vid=0f6e54a7-e47c-46a3-9755-ec2879fdad27"},"vehicle_type_id":"4","last_reported":1751670646,"current_range_meters":6000,"station_id":"ce4bgl92rcd13ifvqbq0","pricing_plan_id":"cebpf4jnsgd1na2vs0mg"},{"bike_id":"47d1b0ce-5246-48ad-9a02-a8b62d5c7999","system_id":"levelo_inurba_marseille","lat":43.29523,"lon":5.39025,"is_reserved":false,"is_disabled":false,"rental_uris":{"android":"levelo://app?vid=47d1b0ce-5246-48ad-9a02-a8b62d5c7999","ios":"levelo://app?vid=47d1b0ce-5246-48ad-9a02-a8b62d5c7999"},"vehicle_type_id":"4","last_reported":1751670646,"current_range_meters":6000,"station_id":"ce4bh3p2rcd13ifvqdp0","pricing_plan_id":"cebpf4jnsgd1na2vs0mg"},{"bike_id":"15bb42d7-e911-4795-92f3-2b07f128ea86","system_id":"levelo_inurba_marseille","lat":43.28439,"lon":5.39194,"is_reserved":false,"is_disabled":false,"rental_uris":{"android":"levelo://app?vid=15bb42d7-e911-4795-92f3-2b07f128ea86","ios":"levelo://app?vid=15bb42d7-e911-4795-92f3-2b07f128ea86"},"vehicle_type_id":"4","last_reported":1751670646,"current_range_meters":6000,"station_id":"ce4bhoh2rcd13ifvqh5g","pricing_plan_id":"cebpf4jnsgd1na2vs0mg"},{"bike_id":"2f538d7c-0199-4f15-8063-5b9cf3785943","system_id":"levelo_inurba_marseille","lat":43.28864,"lon":5.38796,"is_reserved":false,"is_disabled":false,"rental_uris":{"android":"levelo://app?vid=2f538d7c-0199-4f15-8063-5b9cf3785943","ios":"levelo://app?vid=2f538d7c-0199-4f15-8063-5b9cf3785943"},"vehicle_type_id":"4","last_reported":1751670646,"current_range_meters":6400,"station_id":"","pricing_plan_id":"cebpf4jnsgd1na2vs0mg"},{"bike_id":"074154ae-b76f-4fd2-ba63-5c2cb6481d65","system_id":"levelo_inurba_marseille","lat":43.30212,"lon":5.39468,"is_reserved":false,"is_disabled":false,"rental_uris":{"android":"levelo://app?vid=074154ae-b76f-4fd2-ba63-5c2cb6481d65","ios":"levelo://app?vid=074154ae-b76f-4fd2-ba63-5c2cb6481d65"},"vehicle_type_id":"4","last_reported":1751670646,"current_range_meters":6400,"station_id":"ce4bh0p2rcd13ifvqd70","pricing_plan_id":"cebpf4jnsgd1na2vs0mg"},{"bike_id":"64dfef5a-efb0-4d34-b08d-132d16811ec0","system_id":"levelo_inurba_marseille","lat":43.23186,"lon":5.3998,"is_reserved":false,"is_disabled":false,"rental_uris":{"android":"levelo://app?vid=64dfef5a-efb0-4d34-b08d-132d16811ec0","ios":"levelo://app?vid=64dfef5a-efb0-4d34-b08d-132d16811ec0"},"vehicle_type_id":"4","last_reported":1751670646,"current_range_meters":6400,"station_id":"ce4bhn12rcd13ifvqgqg","pricing_plan_id":"cebpf4jnsgd1na2vs0mg"},{"bike_id":"52b4a680-bd14-4901-b9de-49f1fc020c1c","system_id":"levelo_inurba_marseille","lat":43.31882,"lon":5.40738,"is_reserved":false,"is_disabled":false,"rental_uris":{"android":"levelo://app?vid=52b4a680-bd14-4901-b9de-49f1fc020c1c","ios":"levelo://app?vid=52b4a680-bd14-4901-b9de-49f1fc020c1c"},"vehicle_type_id":"4","last_reported":1751670646,"current_range_meters":6400,"station_id":"ce4bhq12rcd13ifvqhig","pricing_plan_id":"cebpf4jnsgd1na2vs0mg"},{"bike_id":"9bfc7d3d-4e60-4f8a-9c32-ef3d0e77ec5b","system_id":"levelo_inurba_marseille","lat":43.21203,"lon":5.35101,"is_reserved":false,"is_disabled":false,"rental_uris":{"android":"levelo://app?vid=9bfc7d3d-4e60-4f8a-9c32-ef3d0e77ec5b","ios":"levelo://app?vid=9bfc7d3d-4e60-4f8a-9c32-ef3d0e77ec5b"},"vehicle_type_id":"4","last_reported":1751670646,"current_range_meters":6400,"station_id":"st_cvj6sg6p6f1abm77japg","pricing_plan_id":"cebpf4jnsgd1na2vs0mg"},{"bike_id":"be4e2ba2-f83c-4be6-923a-932d435bb5ce","system_id":"levelo_inurba_marseille","lat":43.28244,"lon":5.40435,"is_reserved":false,"is_disabled":false,"rental_uris":{"android":"levelo://app?vid=be4e2ba2-f83c-4be6-923a-932d435bb5ce","ios":"levelo://app?vid=be4e2ba2-f83c-4be6-923a-932d435bb5ce"},"vehicle_type_id":"4","last_reported":1751670646,"current_range_meters":6800,"station_id":"","pricing_plan_id":"cebpf4jnsgd1na2vs0mg"},{"bike_id":"0429b2d3-98c1-43c0-8ab3-2164005498ee","system_id":"levelo_inurba_marseille","lat":43.31221,"lon":5.36851,"is_reserved":false,"is_disabled":false,"rental_uris":{"android":"levelo://app?vid=0429b2d3-98c1-43c0-8ab3-2164005498ee","ios":"levelo://app?vid=0429b2d3-98c1-43c0-8ab3-2164005498ee"},"vehicle_type_id":"4","last_reported":1751670646,"current_range_meters":6800,"station_id":"ce4bgl92rcd13ifvqbq0","pricing_plan_id":"cebpf4jnsgd1na2vs0mg"},{"bike_id":"1f324ce1-d67c-4a7c-b585-bc15b6fb585b","system_id":"levelo_inurba_marseille","lat":43.2861,"lon":5.37065,"is_reserved":false,"is_disabled":false,"rental_uris":{"android":"levelo://app?vid=1f324ce1-d67c-4a7c-b585-bc15b6fb585b","ios":"levelo://app?vid=1f324ce1-d67c-4a7c-b585-bc15b6fb585b"},"vehicle_type_id":"4","last_reported":1751670646,"current_range_meters":6800,"station_id":"ce4bht12rcd13ifvqi60","pricing_plan_id":"cebpf4jnsgd1na2vs0mg"},{"bike_id":"5a759366-21e8-49c4-a960-a56555358194","system_id":"levelo_inurba_marseille","lat":43.30305,"lon":5.39212,"is_reserved":false,"is_disabled":false,"rental_uris":{"android":"levelo://app?vid=5a759366-21e8-49c4-a960-a56555358194","ios":"levelo://app?vid=5a759366-21e8-49c4-a960-a56555358194"},"vehicle_type_id":"4","last_reported":1751670646,"current_range_meters":7200,"station_id":"ce4bgkh2rcd13ifvqbk0","pricing_plan_id":"cebpf4jnsgd1na2vs0mg"},{"bike_id":"c3a544d1-4f89-481c-b2c8-4668d57a9262","system_id":"levelo_inurba_marseille","lat":43.336093,"lon":5.41036,"is_reserved":false,"is_disabled":false,"rental_uris":{"android":"levelo://app?vid=c3a544d1-4f89-481c-b2c8-4668d57a9262","ios":"levelo://app?vid=c3a544d1-4f89-481c-b2c8-4668d57a9262"},"vehicle_type_id":"4","last_reported":1751670646,"current_range_meters":7200,"station_id":"ce4bhqh2rcd13ifvqhmg","pricing_plan_id":"cebpf4jnsgd1na2vs0mg"},{"bike_id":"980bf51a-4e38-4141-b6a5-bcf51641501f","system_id":"levelo_inurba_marseille","lat":43.26566,"lon":5.40333,"is_reserved":false,"is_disabled":false,"rental_uris":{"android":"levelo://app?vid=980bf51a-4e38-4141-b6a5-bcf51641501f","ios":"levelo://app?vid=980bf51a-4e38-4141-b6a5-bcf51641501f"},"vehicle_type_id":"4","last_reported":1751670646,"current_range_meters":8000,"station_id":"","pricing_plan_id":"cebpf4jnsgd1na2vs0mg"},{"bike_id":"5305b16f-c08d-4482-828d-bbdcd9282ca5","system_id":"levelo_inurba_marseille","lat":43.28662,"lon":5.38664,"is_reserved":false,"is_disabled":false,"rental_uris":{"android":"levelo://app?vid=5305b16f-c08d-4482-828d-bbdcd9282ca5","ios":"levelo://app?vid=5305b16f-c08d-4482-828d-bbdcd9282ca5"},"vehicle_type_id":"4","last_reported":1751670646,"current_range_meters":8000,"station_id":"ce4bh492rcd13ifvqdug","pricing_plan_id":"cebpf4jnsgd1na2vs0mg"},{"bike_id":"d799b321-3a7d-4201-b46e-ffe2ad124f19","system_id":"levelo_inurba_marseille","lat":43.3289,"lon":5.38399,"is_reserved":false,"is_disabled":false,"rental_uris":{"android":"levelo://app?vid=d799b321-3a7d-4201-b46e-ffe2ad124f19","ios":"levelo://app?vid=d799b321-3a7d-4201-b46e-ffe2ad124f19"},"vehicle_type_id":"4","last_reported":1751670646,"current_range_meters":8400,"station_id":"","pricing_plan_id":"cebpf4jnsgd1na2vs0mg"},{"bike_id":"c76381fd-b6b9-4d02-a8a4-fd4e6891e706","system_id":"levelo_inurba_marseille","lat":43.30263,"lon":5.39077,"is_reserved":false,"is_disabled":false,"rental_uris":{"android":"levelo://app?vid=c76381fd-b6b9-4d02-a8a4-fd4e6891e706","ios":"levelo://app?vid=c76381fd-b6b9-4d02-a8a4-fd4e6891e706"},"vehicle_type_id":"4","last_reported":1751670646,"current_range_meters":8800,"station_id":"","pricing_plan_id":"cebpf4jnsgd1na2vs0mg"},{"bike_id":"ffc98ed0-4733-459e-949d-99aa8fb39a97","system_id":"levelo_inurba_marseille","lat":43.35022,"lon":5.35893,"is_reserved":false,"is_disabled":false,"rental_uris":{"android":"levelo://app?vid=ffc98ed0-4733-459e-949d-99aa8fb39a97","ios":"levelo://app?vid=ffc98ed0-4733-459e-949d-99aa8fb39a97"},"vehicle_type_id":"4","last_reported":1751670646,"current_range_meters":8800,"station_id":"","pricing_plan_id":"cebpf4jnsgd1na2vs0mg"},{"bike_id":"dfa1c380-e619-4d58-9700-e366787f15f4","system_id":"levelo_inurba_marseille","lat":43.31057,"lon":5.38372,"is_reserved":false,"is_disabled":false,"rental_uris":{"android":"levelo://app?vid=dfa1c380-e619-4d58-9700-e366787f15f4","ios":"levelo://app?vid=dfa1c380-e619-4d58-9700-e366787f15f4"},"vehicle_type_id":"4","last_reported":1751670646,"current_range_meters":8800,"station_id":"ce4bgv92rcd13ifvqcr0","pricing_plan_id":"cebpf4jnsgd1na2vs0mg"},{"bike_id":"4e5fb81c-331e-4ee0-b34b-c6acdea9f244","system_id":"levelo_inurba_marseille","lat":43.302597,"lon":5.400885,"is_reserved":false,"is_disabled":false,"rental_uris":{"android":"levelo://app?vid=4e5fb81c-331e-4ee0-b34b-c6acdea9f244","ios":"levelo://app?vid=4e5fb81c-331e-4ee0-b34b-c6acdea9f244"},"vehicle_type_id":"4","last_reported":1751670646,"current_range_meters":8800,"station_id":"ce4bgvh2rcd13ifvqcs0","pricing_plan_id":"cebpf4jnsgd1na2vs0mg"},{"bike_id":"9fc31a6b-4e45-4f6f-8794-f17d58440be8","system_id":"levelo_inurba_marseille","lat":43.30941,"lon":5.40152,"is_reserved":false,"is_disabled":false,"rental_uris":{"android":"levelo://app?vid=9fc31a6b-4e45-4f6f-8794-f17d58440be8","ios":"levelo://app?vid=9fc31a6b-4e45-4f6f-8794-f17d58440be8"},"vehicle_type_id":"4","last_reported":1751670646,"current_range_meters":8800,"station_id":"ce4bgvp2rcd13ifvqct0","pricing_plan_id":"cebpf4jnsgd1na2vs0mg"},{"bike_id":"fd2a2c8a-4772-49a5-8175-cf4ece43f7ca","system_id":"levelo_inurba_marseille","lat":43.24177,"lon":5.39731,"is_reserved":false,"is_disabled":false,"rental_uris":{"android":"levelo://app?vid=fd2a2c8a-4772-49a5-8175-cf4ece43f7ca","ios":"levelo://app?vid=fd2a2c8a-4772-49a5-8175-cf4ece43f7ca"},"vehicle_type_id":"4","last_reported":1751670646,"current_range_meters":8800,"station_id":"ce4bhn12rcd13ifvqgpg","pricing_plan_id":"cebpf4jnsgd1na2vs0mg"},{"bike_id":"e3822c24-4fb4-45b7-8cd2-6e1079eeff65","system_id":"levelo_inurba_marseille","lat":43.310865,"lon":5.424268,"is_reserved":false,"is_disabled":false,"rental_uris":{"android":"levelo://app?vid=e3822c24-4fb4-45b7-8cd2-6e1079eeff65","ios":"levelo://app?vid=e3822c24-4fb4-45b7-8cd2-6e1079eeff65"},"vehicle_type_id":"4","last_reported":1751670646,"current_range_meters":8800,"station_id":"ce4bhp92rcd13ifvqhag","pricing_plan_id":"cebpf4jnsgd1na2vs0mg"},{"bike_id":"ba154a12-11bd-42a5-958a-5992f5d043d1","system_id":"levelo_inurba_marseille","lat":43.30497,"lon":5.3709,"is_reserved":false,"is_disabled":false,"rental_uris":{"android":"levelo://app?vid=ba154a12-11bd-42a5-958a-5992f5d043d1","ios":"levelo://app?vid=ba154a12-11bd-42a5-958a-5992f5d043d1"},"vehicle_type_id":"4","last_reported":1751670646,"current_range_meters":9200,"station_id":"","pricing_plan_id":"cebpf4jnsgd1na2vs0mg"},{"bike_id":"dbde0d81-068a-4fa4-a92a-5f5e4289de54","system_id":"levelo_inurba_marseille","lat":43.28424,"lon":5.34985,"is_reserved":false,"is_disabled":false,"rental_uris":{"android":"levelo://app?vid=dbde0d81-068a-4fa4-a92a-5f5e4289de54","ios":"levelo://app?vid=dbde0d81-068a-4fa4-a92a-5f5e4289de54"},"vehicle_type_id":"4","last_reported":1751670646,"current_range_meters":9200,"station_id":"","pricing_plan_id":"cebpf4jnsgd1na2vs0mg"},{"bike_id":"8770c872-ca5b-4910-a2a2-0c981f90691e","system_id":"levelo_inurba_marseille","lat":43.30421,"lon":5.41286,"is_reserved":false,"is_disabled":false,"rental_uris":{"android":"levelo://app?vid=8770c872-ca5b-4910-a2a2-0c981f90691e","ios":"levelo://app?vid=8770c872-ca5b-4910-a2a2-0c981f90691e"},"vehicle_type_id":"4","last_reported":1751670646,"current_range_meters":9200,"station_id":"ce4bhop2rcd13ifvqh8g","pricing_plan_id":"cebpf4jnsgd1na2vs0mg"},{"bike_id":"78353043-138a-4ff4-9028-08c8649e81d3","system_id":"levelo_inurba_marseille","lat":43.23195,"lon":5.35555,"is_reserved":false,"is_disabled":false,"rental_uris":{"android":"levelo://app?vid=78353043-138a-4ff4-9028-08c8649e81d3","ios":"levelo://app?vid=78353043-138a-4ff4-9028-08c8649e81d3"},"vehicle_type_id":"4","last_reported":1751670646,"current_range_meters":9200,"station_id":"ce4bhu92rcd13ifvqi70","pricing_plan_id":"cebpf4jnsgd1na2vs0mg"},{"bike_id":"9f1f6042-7e07-4b00-9dc1-8f0343d9174e","system_id":"levelo_inurba_marseille","lat":43.211808,"lon":5.350953,"is_reserved":false,"is_disabled":false,"rental_uris":{"android":"levelo://app?vid=9f1f6042-7e07-4b00-9dc1-8f0343d9174e","ios":"levelo://app?vid=9f1f6042-7e07-4b00-9dc1-8f0343d9174e"},"vehicle_type_id":"4","last_reported":1751670646,"current_range_meters":9200,"station_id":"st_cvj6sg6p6f1abm77japg","pricing_plan_id":"cebpf4jnsgd1na2vs0mg"},{"bike_id":"6917bed5-c21f-48c3-870d-5408dab99803","system_id":"levelo_inurba_marseille","lat":43.29669,"lon":5.36847,"is_reserved":false,"is_disabled":false,"rental_uris":{"android":"levelo://app?vid=6917bed5-c21f-48c3-870d-5408dab99803","ios":"levelo://app?vid=6917bed5-c21f-48c3-870d-5408dab99803"},"vehicle_type_id":"4","last_reported":1751670646,"current_range_meters":9600,"station_id":"","pricing_plan_id":"cebpf4jnsgd1na2vs0mg"},{"bike_id":"0c4b7fdb-b39e-49b3-a2b0-ae3d0f43e89d","system_id":"levelo_inurba_marseille","lat":43.32909,"lon":5.40562,"is_reserved":false,"is_disabled":false,"rental_uris":{"android":"levelo://app?vid=0c4b7fdb-b39e-49b3-a2b0-ae3d0f43e89d","ios":"levelo://app?vid=0c4b7fdb-b39e-49b3-a2b0-ae3d0f43e89d"},"vehicle_type_id":"4","last_reported":1751670646,"current_range_meters":9600,"station_id":"","pricing_plan_id":"cebpf4jnsgd1na2vs0mg"},{"bike_id":"458f960c-9c0c-42a0-977b-a8232f235b81","system_id":"levelo_inurba_marseille","lat":43.2904,"lon":5.39948,"is_reserved":false,"is_disabled":false,"rental_uris":{"android":"levelo://app?vid=458f960c-9c0c-42a0-977b-a8232f235b81","ios":"levelo://app?vid=458f960c-9c0c-42a0-977b-a8232f235b81"},"vehicle_type_id":"4","last_reported":1751670646,"current_range_meters":9600,"station_id":"ce4bh392rcd13ifvqdm0","pricing_plan_id":"cebpf4jnsgd1na2vs0mg"},{"bike_id":"9b1297f3-36b7-4b07-8d8c-512f0374fe7e","system_id":"levelo_inurba_marseille","lat":43.29256,"lon":5.38443,"is_reserved":false,"is_disabled":false,"rental_uris":{"android":"levelo://app?vid=9b1297f3-36b7-4b07-8d8c-512f0374fe7e","ios":"levelo://app?vid=9b1297f3-36b7-4b07-8d8c-512f0374fe7e"},"vehicle_type_id":"4","last_reported":1751670646,"current_range_meters":9600,"station_id":"ce4bh692rcd13ifvqea0","pricing_plan_id":"cebpf4jnsgd1na2vs0mg"},{"bike_id":"175513bb-dce2-48e2-83c8-1e9f1cb23cd0","system_id":"levelo_inurba_marseille","lat":43.286255,"lon":5.412651,"is_reserved":false,"is_disabled":false,"rental_uris":{"android":"levelo://app?vid=175513bb-dce2-48e2-83c8-1e9f1cb23cd0","ios":"levelo://app?vid=175513bb-dce2-48e2-83c8-1e9f1cb23cd0"},"vehicle_type_id":"4","last_reported":1751670646,"current_range_meters":10000,"station_id":"","pricing_plan_id":"cebpf4jnsgd1na2vs0mg"},{"bike_id":"806dab9c-0b61-44af-9e1d-dee086eea46c","system_id":"levelo_inurba_marseille","lat":43.313649,"lon":5.385006,"is_reserved":false,"is_disabled":false,"rental_uris":{"android":"levelo://app?vid=806dab9c-0b61-44af-9e1d-dee086eea46c","ios":"levelo://app?vid=806dab9c-0b61-44af-9e1d-dee086eea46c"},"vehicle_type_id":"4","last_reported":1751670646,"current_range_meters":10000,"station_id":"ce4bgt92rcd13ifvqcf0","pricing_plan_id":"cebpf4jnsgd1na2vs0mg"},{"bike_id":"b140c73e-1d05-4914-a5ed-8dfe1164f274","system_id":"levelo_inurba_marseille","lat":43.2962,"lon":5.40592,"is_reserved":false,"is_disabled":false,"rental_uris":{"android":"levelo://app?vid=b140c73e-1d05-4914-a5ed-8dfe1164f274","ios":"levelo://app?vid=b140c73e-1d05-4914-a5ed-8dfe1164f274"},"vehicle_type_id":"4","last_reported":1751670646,"current_range_meters":10000,"station_id":"ce4bh0h2rcd13ifvqd60","pricing_plan_id":"cebpf4jnsgd1na2vs0mg"},{"bike_id":"8d9b73e1-848f-44c4-bcf1-e92b11b87fc0","system_id":"levelo_inurba_marseille","lat":43.28678,"lon":5.37398,"is_reserved":false,"is_disabled":false,"rental_uris":{"android":"levelo://app?vid=8d9b73e1-848f-44c4-bcf1-e92b11b87fc0","ios":"levelo://app?vid=8d9b73e1-848f-44c4-bcf1-e92b11b87fc0"},"vehicle_type_id":"4","last_reported":1751670646,"current_range_meters":10000,"station_id":"ce4bh3p2rcd13ifvqdq0","pricing_plan_id":"cebpf4jnsgd1na2vs0mg"},{"bike_id":"6a8faf71-6453-4498-8b44-e0d48f51c67a","system_id":"levelo_inurba_marseille","lat":43.28839,"lon":5.35842,"is_reserved":false,"is_disabled":false,"rental_uris":{"android":"levelo://app?vid=6a8faf71-6453-4498-8b44-e0d48f51c67a","ios":"levelo://app?vid=6a8faf71-6453-4498-8b44-e0d48f51c67a"},"vehicle_type_id":"4","last_reported":1751670646,"current_range_meters":10000,"station_id":"ce4bhb12rcd13ifvqem0","pricing_plan_id":"cebpf4jnsgd1na2vs0mg"},{"bike_id":"97de0065-3604-43c2-8c35-f3c481cf0347","system_id":"levelo_inurba_marseille","lat":43.323663,"lon":5.388889,"is_reserved":false,"is_disabled":false,"rental_uris":{"android":"levelo://app?vid=97de0065-3604-43c2-8c35-f3c481cf0347","ios":"levelo://app?vid=97de0065-3604-43c2-8c35-f3c481cf0347"},"vehicle_type_id":"4","last_reported":1751670646,"current_range_meters":10000,"station_id":"ce4bhqp2rcd13ifvqhog","pricing_plan_id":"cebpf4jnsgd1na2vs0mg"},{"bike_id":"b9aa0b00-2092-42ee-bef4-651e875ed8b5","system_id":"levelo_inurba_marseille","lat":43.21189,"lon":5.35067,"is_reserved":false,"is_disabled":false,"rental_uris":{"android":"levelo://app?vid=b9aa0b00-2092-42ee-bef4-651e875ed8b5","ios":"levelo://app?vid=b9aa0b00-2092-42ee-bef4-651e875ed8b5"},"vehicle_type_id":"4","last_reported":1751670646,"current_range_meters":10000,"station_id":"st_cvj6sg6p6f1abm77japg","pricing_plan_id":"cebpf4jnsgd1na2vs0mg"},{"bike_id":"5e197122-e8ec-4f01-b370-6bbfc10c6950","system_id":"levelo_inurba_marseille","lat":43.21185,"lon":5.35085,"is_reserved":false,"is_disabled":false,"rental_uris":{"android":"levelo://app?vid=5e197122-e8ec-4f01-b370-6bbfc10c6950","ios":"levelo://app?vid=5e197122-e8ec-4f01-b370-6bbfc10c6950"},"vehicle_type_id":"4","last_reported":1751670646,"current_range_meters":10800,"station_id":"st_cvj6sg6p6f1abm77japg","pricing_plan_id":"cebpf4jnsgd1na2vs0mg"},{"bike_id":"7c60bedf-2ecd-475b-a018-4048df765cb2","system_id":"levelo_inurba_marseille","lat":43.31262,"lon":5.37761,"is_reserved":false,"is_disabled":false,"rental_uris":{"android":"levelo://app?vid=7c60bedf-2ecd-475b-a018-4048df765cb2","ios":"levelo://app?vid=7c60bedf-2ecd-475b-a018-4048df765cb2"},"vehicle_type_id":"4","last_reported":1751670646,"current_range_meters":11200,"station_id":"","pricing_plan_id":"cebpf4jnsgd1na2vs0mg"},{"bike_id":"43b8b648-960e-46ea-bfad-839bb09cb576","system_id":"levelo_inurba_marseille","lat":43.26214,"lon":5.37041,"is_reserved":false,"is_disabled":false,"rental_uris":{"android":"levelo://app?vid=43b8b648-960e-46ea-bfad-839bb09cb576","ios":"levelo://app?vid=43b8b648-960e-46ea-bfad-839bb09cb576"},"vehicle_type_id":"4","last_reported":1751670646,"current_range_meters":11200,"station_id":"","pricing_plan_id":"cebpf4jnsgd1na2vs0mg"},{"bike_id":"37041179-6712-4893-832c-80719560134f","system_id":"levelo_inurba_marseille","lat":43.31493,"lon":5.37297,"is_reserved":false,"is_disabled":false,"rental_uris":{"android":"levelo://app?vid=37041179-6712-4893-832c-80719560134f","ios":"levelo://app?vid=37041179-6712-4893-832c-80719560134f"},"vehicle_type_id":"4","last_reported":1751670646,"current_range_meters":11200,"station_id":"ce4bgt12rcd13ifvqcd0","pricing_plan_id":"cebpf4jnsgd1na2vs0mg"},{"bike_id":"94492d2d-cbd1-45c3-b67e-12cae444b200","system_id":"levelo_inurba_marseille","lat":43.30426,"lon":5.39751,"is_reserved":false,"is_disabled":false,"rental_uris":{"android":"levelo://app?vid=94492d2d-cbd1-45c3-b67e-12cae444b200","ios":"levelo://app?vid=94492d2d-cbd1-45c3-b67e-12cae444b200"},"vehicle_type_id":"4","last_reported":1751670646,"current_range_meters":11200,"station_id":"ce4bh092rcd13ifvqd20","pricing_plan_id":"cebpf4jnsgd1na2vs0mg"},{"bike_id":"65f8d135-e583-48de-9190-3fcfd1dec098","system_id":"levelo_inurba_marseille","lat":43.28461,"lon":5.35892,"is_reserved":false,"is_disabled":false,"rental_uris":{"android":"levelo://app?vid=65f8d135-e583-48de-9190-3fcfd1dec098","ios":"levelo://app?vid=65f8d135-e583-48de-9190-3fcfd1dec098"},"vehicle_type_id":"4","last_reported":1751670646,"current_range_meters":11200,"station_id":"ce4bhah2rcd13ifvqei0","pricing_plan_id":"cebpf4jnsgd1na2vs0mg"},{"bike_id":"419cb4dd-2a54-44d1-bc86-79841878e064","system_id":"levelo_inurba_marseille","lat":43.299606,"lon":5.413289,"is_reserved":false,"is_disabled":false,"rental_uris":{"android":"levelo://app?vid=419cb4dd-2a54-44d1-bc86-79841878e064","ios":"levelo://app?vid=419cb4dd-2a54-44d1-bc86-79841878e064"},"vehicle_type_id":"4","last_reported":1751670646,"current_range_meters":11200,"station_id":"ce4bhp12rcd13ifvqh9g","pricing_plan_id":"cebpf4jnsgd1na2vs0mg"},{"bike_id":"c4998155-7b32-4f28-8c37-f014ebe83040","system_id":"levelo_inurba_marseille","lat":43.30314,"lon":5.40452,"is_reserved":false,"is_disabled":false,"rental_uris":{"android":"levelo://app?vid=c4998155-7b32-4f28-8c37-f014ebe83040","ios":"levelo://app?vid=c4998155-7b32-4f28-8c37-f014ebe83040"},"vehicle_type_id":"4","last_reported":1751670646,"current_range_meters":11600,"station_id":"ce4bh012rcd13ifvqd10","pricing_plan_id":"cebpf4jnsgd1na2vs0mg"},{"bike_id":"1c8ab180-05fd-405f-9922-b2b2c2d5142f","system_id":"levelo_inurba_marseille","lat":43.33791,"lon":5.381203,"is_reserved":false,"is_disabled":false,"rental_uris":{"android":"levelo://app?vid=1c8ab180-05fd-405f-9922-b2b2c2d5142f","ios":"levelo://app?vid=1c8ab180-05fd-405f-9922-b2b2c2d5142f"},"vehicle_type_id":"4","last_reported":1751670646,"current_range_meters":12000,"station_id":"","pricing_plan_id":"cebpf4jnsgd1na2vs0mg"},{"bike_id":"2b6a7da6-52a5-4587-a2a8-020896164131","system_id":"levelo_inurba_marseille","lat":43.29529,"lon":5.38551,"is_reserved":false,"is_disabled":false,"rental_uris":{"android":"levelo://app?vid=2b6a7da6-52a5-4587-a2a8-020896164131","ios":"levelo://app?vid=2b6a7da6-52a5-4587-a2a8-020896164131"},"vehicle_type_id":"4","last_reported":1751670646,"current_range_meters":12000,"station_id":"ce4bgih2rcd13ifvqba0","pricing_plan_id":"cebpf4jnsgd1na2vs0mg"},{"bike_id":"c37ba7fa-fbd8-4395-8ffe-f8ec4e8254b3","system_id":"levelo_inurba_marseille","lat":43.314903,"lon":5.373097,"is_reserved":false,"is_disabled":false,"rental_uris":{"android":"levelo://app?vid=c37ba7fa-fbd8-4395-8ffe-f8ec4e8254b3","ios":"levelo://app?vid=c37ba7fa-fbd8-4395-8ffe-f8ec4e8254b3"},"vehicle_type_id":"4","last_reported":1751670646,"current_range_meters":12000,"station_id":"ce4bgt12rcd13ifvqcd0","pricing_plan_id":"cebpf4jnsgd1na2vs0mg"},{"bike_id":"fadf6b38-6317-413a-8801-268c0084efa6","system_id":"levelo_inurba_marseille","lat":43.310712,"lon":5.383494,"is_reserved":false,"is_disabled":false,"rental_uris":{"android":"levelo://app?vid=fadf6b38-6317-413a-8801-268c0084efa6","ios":"levelo://app?vid=fadf6b38-6317-413a-8801-268c0084efa6"},"vehicle_type_id":"4","last_reported":1751670646,"current_range_meters":12000,"station_id":"ce4bgv92rcd13ifvqcr0","pricing_plan_id":"cebpf4jnsgd1na2vs0mg"},{"bike_id":"63a12766-071d-4730-9ab5-62f5cfaa655e","system_id":"levelo_inurba_marseille","lat":43.28701,"lon":5.373738,"is_reserved":false,"is_disabled":false,"rental_uris":{"android":"levelo://app?vid=63a12766-071d-4730-9ab5-62f5cfaa655e","ios":"levelo://app?vid=63a12766-071d-4730-9ab5-62f5cfaa655e"},"vehicle_type_id":"4","last_reported":1751670646,"current_range_meters":12000,"station_id":"ce4bh3p2rcd13ifvqdq0","pricing_plan_id":"cebpf4jnsgd1na2vs0mg"},{"bike_id":"a86da228-af2e-4498-a7ae-e7e8a72fe70b","system_id":"levelo_inurba_marseille","lat":43.27922,"lon":5.39578,"is_reserved":false,"is_disabled":false,"rental_uris":{"android":"levelo://app?vid=a86da228-af2e-4498-a7ae-e7e8a72fe70b","ios":"levelo://app?vid=a86da228-af2e-4498-a7ae-e7e8a72fe70b"},"vehicle_type_id":"4","last_reported":1751670646,"current_range_meters":12000,"station_id":"ce4bhf92rcd13ifvqf40","pricing_plan_id":"cebpf4jnsgd1na2vs0mg"},{"bike_id":"6f854acc-df2a-4d06-8f39-46010fd4354e","system_id":"levelo_inurba_marseille","lat":43.27896,"lon":5.38016,"is_reserved":false,"is_disabled":false,"rental_uris":{"android":"levelo://app?vid=6f854acc-df2a-4d06-8f39-46010fd4354e","ios":"levelo://app?vid=6f854acc-df2a-4d06-8f39-46010fd4354e"},"vehicle_type_id":"4","last_reported":1751670646,"current_range_meters":12000,"station_id":"ce4bhf92rcd13ifvqf50","pricing_plan_id":"cebpf4jnsgd1na2vs0mg"},{"bike_id":"670ed5a7-b093-47a7-9f6c-93ab16d94169","system_id":"levelo_inurba_marseille","lat":43.25732,"lon":5.4108,"is_reserved":false,"is_disabled":false,"rental_uris":{"android":"levelo://app?vid=670ed5a7-b093-47a7-9f6c-93ab16d94169","ios":"levelo://app?vid=670ed5a7-b093-47a7-9f6c-93ab16d94169"},"vehicle_type_id":"4","last_reported":1751670646,"current_range_meters":12000,"station_id":"ce4bhkp2rcd13ifvqgd0","pricing_plan_id":"cebpf4jnsgd1na2vs0mg"},{"bike_id":"bf16840f-2e0f-47eb-8d30-3dc4199df254","system_id":"levelo_inurba_marseille","lat":43.31752,"lon":5.39022,"is_reserved":false,"is_disabled":false,"rental_uris":{"android":"levelo://app?vid=bf16840f-2e0f-47eb-8d30-3dc4199df254","ios":"levelo://app?vid=bf16840f-2e0f-47eb-8d30-3dc4199df254"},"vehicle_type_id":"4","last_reported":1751670646,"current_range_meters":12000,"station_id":"ce4bhqp2rcd13ifvqhng","pricing_plan_id":"cebpf4jnsgd1na2vs0mg"},{"bike_id":"b26fae72-751e-4090-a9c4-76ff5de1ad66","system_id":"levelo_inurba_marseille","lat":43.33214,"lon":5.38054,"is_reserved":false,"is_disabled":false,"rental_uris":{"android":"levelo://app?vid=b26fae72-751e-4090-a9c4-76ff5de1ad66","ios":"levelo://app?vid=b26fae72-751e-4090-a9c4-76ff5de1ad66"},"vehicle_type_id":"4","last_reported":1751670646,"current_range_meters":12400,"station_id":"","pricing_plan_id":"cebpf4jnsgd1na2vs0mg"},{"bike_id":"c4783f0c-3b26-4f98-a2ba-c785fce3256c","system_id":"levelo_inurba_marseille","lat":43.26565,"lon":5.39043,"is_reserved":false,"is_disabled":false,"rental_uris":{"android":"levelo://app?vid=c4783f0c-3b26-4f98-a2ba-c785fce3256c","ios":"levelo://app?vid=c4783f0c-3b26-4f98-a2ba-c785fce3256c"},"vehicle_type_id":"4","last_reported":1751670646,"current_range_meters":12400,"station_id":"ce4bhe12rcd13ifvqf30","pricing_plan_id":"cebpf4jnsgd1na2vs0mg"},{"bike_id":"76d127a6-3385-47a2-9e3a-490d1d976c59","system_id":"levelo_inurba_marseille","lat":43.31157,"lon":5.38277,"is_reserved":false,"is_disabled":false,"rental_uris":{"android":"levelo://app?vid=76d127a6-3385-47a2-9e3a-490d1d976c59","ios":"levelo://app?vid=76d127a6-3385-47a2-9e3a-490d1d976c59"},"vehicle_type_id":"4","last_reported":1751670646,"current_range_meters":12800,"station_id":"","pricing_plan_id":"cebpf4jnsgd1na2vs0mg"},{"bike_id":"d7087f4c-4f36-4b08-afeb-1db5597de9ca","system_id":"levelo_inurba_marseille","lat":43.27622,"lon":5.36112,"is_reserved":false,"is_disabled":false,"rental_uris":{"android":"levelo://app?vid=d7087f4c-4f36-4b08-afeb-1db5597de9ca","ios":"levelo://app?vid=d7087f4c-4f36-4b08-afeb-1db5597de9ca"},"vehicle_type_id":"4","last_reported":1751670646,"current_range_meters":12800,"station_id":"ce4bgj92rcd13ifvqbe0","pricing_plan_id":"cebpf4jnsgd1na2vs0mg"},{"bike_id":"4c5a3de5-5d51-4be2-867a-1ec801bcc945","system_id":"levelo_inurba_marseille","lat":43.31378,"lon":5.38502,"is_reserved":false,"is_disabled":false,"rental_uris":{"android":"levelo://app?vid=4c5a3de5-5d51-4be2-867a-1ec801bcc945","ios":"levelo://app?vid=4c5a3de5-5d51-4be2-867a-1ec801bcc945"},"vehicle_type_id":"4","last_reported":1751670646,"current_range_meters":12800,"station_id":"ce4bgt92rcd13ifvqcf0","pricing_plan_id":"cebpf4jnsgd1na2vs0mg"},{"bike_id":"93e7e044-44e1-4022-a4c3-fc6d570dd206","system_id":"levelo_inurba_marseille","lat":43.311241,"lon":5.377745,"is_reserved":false,"is_disabled":false,"rental_uris":{"android":"levelo://app?vid=93e7e044-44e1-4022-a4c3-fc6d570dd206","ios":"levelo://app?vid=93e7e044-44e1-4022-a4c3-fc6d570dd206"},"vehicle_type_id":"4","last_reported":1751670646,"current_range_meters":12800,"station_id":"ce4bgt92rcd13ifvqcg0","pricing_plan_id":"cebpf4jnsgd1na2vs0mg"},{"bike_id":"a192b1e8-cb6c-43ca-bfa4-5253c08d303c","system_id":"levelo_inurba_marseille","lat":43.30642,"lon":5.40095,"is_reserved":false,"is_disabled":false,"rental_uris":{"android":"levelo://app?vid=a192b1e8-cb6c-43ca-bfa4-5253c08d303c","ios":"levelo://app?vid=a192b1e8-cb6c-43ca-bfa4-5253c08d303c"},"vehicle_type_id":"4","last_reported":1751670646,"current_range_meters":12800,"station_id":"ce4bh112rcd13ifvqda0","pricing_plan_id":"cebpf4jnsgd1na2vs0mg"},{"bike_id":"f78e4216-3e64-4bca-b699-17a288e2d90f","system_id":"levelo_inurba_marseille","lat":43.29264,"lon":5.40166,"is_reserved":false,"is_disabled":false,"rental_uris":{"android":"levelo://app?vid=f78e4216-3e64-4bca-b699-17a288e2d90f","ios":"levelo://app?vid=f78e4216-3e64-4bca-b699-17a288e2d90f"},"vehicle_type_id":"4","last_reported":1751670646,"current_range_meters":12800,"station_id":"ce4bh312rcd13ifvqdk0","pricing_plan_id":"cebpf4jnsgd1na2vs0mg"},{"bike_id":"70e42306-a350-42f0-85c2-087e20c82983","system_id":"levelo_inurba_marseille","lat":43.28402,"lon":5.37519,"is_reserved":false,"is_disabled":false,"rental_uris":{"android":"levelo://app?vid=70e42306-a350-42f0-85c2-087e20c82983","ios":"levelo://app?vid=70e42306-a350-42f0-85c2-087e20c82983"},"vehicle_type_id":"4","last_reported":1751670646,"current_range_meters":12800,"station_id":"ce4bh412rcd13ifvqds0","pricing_plan_id":"cebpf4jnsgd1na2vs0mg"},{"bike_id":"4c20f81b-1a2a-4b54-b1f1-ac371666a6a9","system_id":"levelo_inurba_marseille","lat":43.29545,"lon":5.38554,"is_reserved":false,"is_disabled":false,"rental_uris":{"android":"levelo://app?vid=4c20f81b-1a2a-4b54-b1f1-ac371666a6a9","ios":"levelo://app?vid=4c20f81b-1a2a-4b54-b1f1-ac371666a6a9"},"vehicle_type_id":"4","last_reported":1751670646,"current_range_meters":13600,"station_id":"ce4bgih2rcd13ifvqba0","pricing_plan_id":"cebpf4jnsgd1na2vs0mg"},{"bike_id":"695ba698-1054-47b2-9229-8be114776363","system_id":"levelo_inurba_marseille","lat":43.25685,"lon":5.41125,"is_reserved":false,"is_disabled":false,"rental_uris":{"android":"levelo://app?vid=695ba698-1054-47b2-9229-8be114776363","ios":"levelo://app?vid=695ba698-1054-47b2-9229-8be114776363"},"vehicle_type_id":"4","last_reported":1751670646,"current_range_meters":13600,"station_id":"ce4bhkp2rcd13ifvqgd0","pricing_plan_id":"cebpf4jnsgd1na2vs0mg"},{"bike_id":"4b8da722-ee9e-48a4-a5e5-3a8a10364708","system_id":"levelo_inurba_marseille","lat":43.31223,"lon":5.37812,"is_reserved":false,"is_disabled":false,"rental_uris":{"android":"levelo://app?vid=4b8da722-ee9e-48a4-a5e5-3a8a10364708","ios":"levelo://app?vid=4b8da722-ee9e-48a4-a5e5-3a8a10364708"},"vehicle_type_id":"4","last_reported":1751670646,"current_range_meters":14000,"station_id":"","pricing_plan_id":"cebpf4jnsgd1na2vs0mg"},{"bike_id":"69c2280d-9883-47db-99f2-c073a6babae6","system_id":"levelo_inurba_marseille","lat":43.30849,"lon":5.3707,"is_reserved":false,"is_disabled":false,"rental_uris":{"android":"levelo://app?vid=69c2280d-9883-47db-99f2-c073a6babae6","ios":"levelo://app?vid=69c2280d-9883-47db-99f2-c073a6babae6"},"vehicle_type_id":"4","last_reported":1751670646,"current_range_meters":14000,"station_id":"","pricing_plan_id":"cebpf4jnsgd1na2vs0mg"},{"bike_id":"3587d5e5-83fe-4d49-bd25-3fe8e79c4212","system_id":"levelo_inurba_marseille","lat":43.29538,"lon":5.38535,"is_reserved":false,"is_disabled":false,"rental_uris":{"android":"levelo://app?vid=3587d5e5-83fe-4d49-bd25-3fe8e79c4212","ios":"levelo://app?vid=3587d5e5-83fe-4d49-bd25-3fe8e79c4212"},"vehicle_type_id":"4","last_reported":1751670646,"current_range_meters":14000,"station_id":"ce4bgih2rcd13ifvqba0","pricing_plan_id":"cebpf4jnsgd1na2vs0mg"},{"bike_id":"3b23e3ee-2744-4d89-a328-4eb804b910dd","system_id":"levelo_inurba_marseille","lat":43.26949,"lon":5.3864,"is_reserved":false,"is_disabled":false,"rental_uris":{"android":"levelo://app?vid=3b23e3ee-2744-4d89-a328-4eb804b910dd","ios":"levelo://app?vid=3b23e3ee-2744-4d89-a328-4eb804b910dd"},"vehicle_type_id":"4","last_reported":1751670646,"current_range_meters":14000,"station_id":"ce4bhh92rcd13ifvqfh0","pricing_plan_id":"cebpf4jnsgd1na2vs0mg"},{"bike_id":"daa68304-0b83-4592-a92b-d16dd27562ce","system_id":"levelo_inurba_marseille","lat":43.23962,"lon":5.3663,"is_reserved":false,"is_disabled":false,"rental_uris":{"android":"levelo://app?vid=daa68304-0b83-4592-a92b-d16dd27562ce","ios":"levelo://app?vid=daa68304-0b83-4592-a92b-d16dd27562ce"},"vehicle_type_id":"4","last_reported":1751670646,"current_range_meters":14000,"station_id":"ce4bhi12rcd13ifvqfp0","pricing_plan_id":"cebpf4jnsgd1na2vs0mg"},{"bike_id":"c5848d1c-c343-4990-b5cf-cdcecf5de8f1","system_id":"levelo_inurba_marseille","lat":43.28414,"lon":5.3753,"is_reserved":false,"is_disabled":false,"rental_uris":{"android":"levelo://app?vid=c5848d1c-c343-4990-b5cf-cdcecf5de8f1","ios":"levelo://app?vid=c5848d1c-c343-4990-b5cf-cdcecf5de8f1"},"vehicle_type_id":"4","last_reported":1751670646,"current_range_meters":14400,"station_id":"ce4bh412rcd13ifvqds0","pricing_plan_id":"cebpf4jnsgd1na2vs0mg"},{"bike_id":"8f06ddb9-437a-45af-bf8c-7800f496f5d8","system_id":"levelo_inurba_marseille","lat":43.283542,"lon":5.386473,"is_reserved":false,"is_disabled":false,"rental_uris":{"android":"levelo://app?vid=8f06ddb9-437a-45af-bf8c-7800f496f5d8","ios":"levelo://app?vid=8f06ddb9-437a-45af-bf8c-7800f496f5d8"},"vehicle_type_id":"4","last_reported":1751670646,"current_range_meters":14400,"station_id":"ce4bh492rcd13ifvqdvg","pricing_plan_id":"cebpf4jnsgd1na2vs0mg"},{"bike_id":"dd2c122c-55a7-4aae-8e08-01ceddb0b539","system_id":"levelo_inurba_marseille","lat":43.28932,"lon":5.38405,"is_reserved":false,"is_disabled":false,"rental_uris":{"android":"levelo://app?vid=dd2c122c-55a7-4aae-8e08-01ceddb0b539","ios":"levelo://app?vid=dd2c122c-55a7-4aae-8e08-01ceddb0b539"},"vehicle_type_id":"4","last_reported":1751670646,"current_range_meters":14400,"station_id":"ce4bh612rcd13ifvqe6g","pricing_plan_id":"cebpf4jnsgd1na2vs0mg"},{"bike_id":"aeaa5bde-61ba-4b50-af9d-44ef8d7ace7c","system_id":"levelo_inurba_marseille","lat":43.27682,"lon":5.38869,"is_reserved":false,"is_disabled":false,"rental_uris":{"android":"levelo://app?vid=aeaa5bde-61ba-4b50-af9d-44ef8d7ace7c","ios":"levelo://app?vid=aeaa5bde-61ba-4b50-af9d-44ef8d7ace7c"},"vehicle_type_id":"4","last_reported":1751670646,"current_range_meters":14400,"station_id":"ce4bhi12rcd13ifvqfo0","pricing_plan_id":"cebpf4jnsgd1na2vs0mg"},{"bike_id":"fc15d0e2-3ad9-4fb7-8bd5-ba03d333db05","system_id":"levelo_inurba_marseille","lat":43.24655,"lon":5.3819,"is_reserved":false,"is_disabled":false,"rental_uris":{"android":"levelo://app?vid=fc15d0e2-3ad9-4fb7-8bd5-ba03d333db05","ios":"levelo://app?vid=fc15d0e2-3ad9-4fb7-8bd5-ba03d333db05"},"vehicle_type_id":"4","last_reported":1751670646,"current_range_meters":14400,"station_id":"ce4bhih2rcd13ifvqfr0","pricing_plan_id":"cebpf4jnsgd1na2vs0mg"},{"bike_id":"fc45637f-0d3f-4541-a951-0a63add791e4","system_id":"levelo_inurba_marseille","lat":43.24164,"lon":5.397,"is_reserved":false,"is_disabled":false,"rental_uris":{"android":"levelo://app?vid=fc45637f-0d3f-4541-a951-0a63add791e4","ios":"levelo://app?vid=fc45637f-0d3f-4541-a951-0a63add791e4"},"vehicle_type_id":"4","last_reported":1751670646,"current_range_meters":14400,"station_id":"ce4bhn12rcd13ifvqgpg","pricing_plan_id":"cebpf4jnsgd1na2vs0mg"},{"bike_id":"4db45513-e520-4598-82fa-5809d80d4f3d","system_id":"levelo_inurba_marseille","lat":43.28082,"lon":5.35501,"is_reserved":false,"is_disabled":false,"rental_uris":{"android":"levelo://app?vid=4db45513-e520-4598-82fa-5809d80d4f3d","ios":"levelo://app?vid=4db45513-e520-4598-82fa-5809d80d4f3d"},"vehicle_type_id":"4","last_reported":1751670646,"current_range_meters":14800,"station_id":"","pricing_plan_id":"cebpf4jnsgd1na2vs0mg"},{"bike_id":"c5690f9b-7ffe-407f-8311-a654f9dd23c4","system_id":"levelo_inurba_marseille","lat":43.29905,"lon":5.37477,"is_reserved":false,"is_disabled":false,"rental_uris":{"android":"levelo://app?vid=c5690f9b-7ffe-407f-8311-a654f9dd23c4","ios":"levelo://app?vid=c5690f9b-7ffe-407f-8311-a654f9dd23c4"},"vehicle_type_id":"4","last_reported":1751670646,"current_range_meters":14800,"station_id":"ce4bgjh2rcd13ifvqbg0","pricing_plan_id":"cebpf4jnsgd1na2vs0mg"},{"bike_id":"21f519fe-a719-4139-ab91-7b7dd5b74d00","system_id":"levelo_inurba_marseille","lat":43.30312,"lon":5.36905,"is_reserved":false,"is_disabled":false,"rental_uris":{"android":"levelo://app?vid=21f519fe-a719-4139-ab91-7b7dd5b74d00","ios":"levelo://app?vid=21f519fe-a719-4139-ab91-7b7dd5b74d00"},"vehicle_type_id":"4","last_reported":1751670646,"current_range_meters":14800,"station_id":"ce4bgqh2rcd13ifvqc5g","pricing_plan_id":"cebpf4jnsgd1na2vs0mg"},{"bike_id":"2e44a9d3-f2b7-4b8b-a6b9-51fa6b9c68e4","system_id":"levelo_inurba_marseille","lat":43.30886,"lon":5.39652,"is_reserved":false,"is_disabled":false,"rental_uris":{"android":"levelo://app?vid=2e44a9d3-f2b7-4b8b-a6b9-51fa6b9c68e4","ios":"levelo://app?vid=2e44a9d3-f2b7-4b8b-a6b9-51fa6b9c68e4"},"vehicle_type_id":"4","last_reported":1751670646,"current_range_meters":14800,"station_id":"ce4bh012rcd13ifvqcv0","pricing_plan_id":"cebpf4jnsgd1na2vs0mg"},{"bike_id":"8c7b5457-b790-4ceb-8535-d321af702702","system_id":"levelo_inurba_marseille","lat":43.31282,"lon":5.401658,"is_reserved":false,"is_disabled":false,"rental_uris":{"android":"levelo://app?vid=8c7b5457-b790-4ceb-8535-d321af702702","ios":"levelo://app?vid=8c7b5457-b790-4ceb-8535-d321af702702"},"vehicle_type_id":"4","last_reported":1751670646,"current_range_meters":14800,"station_id":"ce4bh092rcd13ifvqd30","pricing_plan_id":"cebpf4jnsgd1na2vs0mg"},{"bike_id":"f69568dd-3b67-4c36-9891-bfb2c4485203","system_id":"levelo_inurba_marseille","lat":43.28462,"lon":5.35891,"is_reserved":false,"is_disabled":false,"rental_uris":{"android":"levelo://app?vid=f69568dd-3b67-4c36-9891-bfb2c4485203","ios":"levelo://app?vid=f69568dd-3b67-4c36-9891-bfb2c4485203"},"vehicle_type_id":"4","last_reported":1751670646,"current_range_meters":14800,"station_id":"ce4bhah2rcd13ifvqei0","pricing_plan_id":"cebpf4jnsgd1na2vs0mg"},{"bike_id":"04edf994-7a6f-42bd-bdb9-6db229bd33ae","system_id":"levelo_inurba_marseille","lat":43.2955,"lon":5.42296,"is_reserved":false,"is_disabled":false,"rental_uris":{"android":"levelo://app?vid=04edf994-7a6f-42bd-bdb9-6db229bd33ae","ios":"levelo://app?vid=04edf994-7a6f-42bd-bdb9-6db229bd33ae"},"vehicle_type_id":"4","last_reported":1751670646,"current_range_meters":14800,"station_id":"ce4bhph2rcd13ifvqhdg","pricing_plan_id":"cebpf4jnsgd1na2vs0mg"},{"bike_id":"3847022a-5187-4521-af78-80f88fe96595","system_id":"levelo_inurba_marseille","lat":43.21188,"lon":5.35082,"is_reserved":false,"is_disabled":false,"rental_uris":{"android":"levelo://app?vid=3847022a-5187-4521-af78-80f88fe96595","ios":"levelo://app?vid=3847022a-5187-4521-af78-80f88fe96595"},"vehicle_type_id":"4","last_reported":1751670646,"current_range_meters":14800,"station_id":"st_cvj6sg6p6f1abm77japg","pricing_plan_id":"cebpf4jnsgd1na2vs0mg"},{"bike_id":"4bfb979f-5f1f-4d4f-9bc2-62863e748cdf","system_id":"levelo_inurba_marseille","lat":43.32378,"lon":5.36745,"is_reserved":false,"is_disabled":false,"rental_uris":{"android":"levelo://app?vid=4bfb979f-5f1f-4d4f-9bc2-62863e748cdf","ios":"levelo://app?vid=4bfb979f-5f1f-4d4f-9bc2-62863e748cdf"},"vehicle_type_id":"4","last_reported":1751670646,"current_range_meters":15200,"station_id":"","pricing_plan_id":"cebpf4jnsgd1na2vs0mg"},{"bike_id":"b8371eb8-ede8-4ef5-8417-74551586da0a","system_id":"levelo_inurba_marseille","lat":43.307941,"lon":5.381624,"is_reserved":false,"is_disabled":false,"rental_uris":{"android":"levelo://app?vid=b8371eb8-ede8-4ef5-8417-74551586da0a","ios":"levelo://app?vid=b8371eb8-ede8-4ef5-8417-74551586da0a"},"vehicle_type_id":"4","last_reported":1751670646,"current_range_meters":15200,"station_id":"ce4bgg92rcd13ifvqb30","pricing_plan_id":"cebpf4jnsgd1na2vs0mg"},{"bike_id":"f2e3d845-7bd1-4991-8c89-e4d9a44704eb","system_id":"levelo_inurba_marseille","lat":43.29631,"lon":5.40607,"is_reserved":false,"is_disabled":false,"rental_uris":{"android":"levelo://app?vid=f2e3d845-7bd1-4991-8c89-e4d9a44704eb","ios":"levelo://app?vid=f2e3d845-7bd1-4991-8c89-e4d9a44704eb"},"vehicle_type_id":"4","last_reported":1751670646,"current_range_meters":15200,"station_id":"ce4bh0h2rcd13ifvqd60","pricing_plan_id":"cebpf4jnsgd1na2vs0mg"},{"bike_id":"3a016e00-5ec4-4750-9085-1070ae91e566","system_id":"levelo_inurba_marseille","lat":43.29045,"lon":5.39908,"is_reserved":false,"is_disabled":false,"rental_uris":{"android":"levelo://app?vid=3a016e00-5ec4-4750-9085-1070ae91e566","ios":"levelo://app?vid=3a016e00-5ec4-4750-9085-1070ae91e566"},"vehicle_type_id":"4","last_reported":1751670646,"current_range_meters":15200,"station_id":"ce4bh392rcd13ifvqdm0","pricing_plan_id":"cebpf4jnsgd1na2vs0mg"},{"bike_id":"f1753d26-8935-4f4b-9e83-1a8f6f412606","system_id":"levelo_inurba_marseille","lat":43.24627,"lon":5.38203,"is_reserved":false,"is_disabled":false,"rental_uris":{"android":"levelo://app?vid=f1753d26-8935-4f4b-9e83-1a8f6f412606","ios":"levelo://app?vid=f1753d26-8935-4f4b-9e83-1a8f6f412606"},"vehicle_type_id":"4","last_reported":1751670646,"current_range_meters":15200,"station_id":"ce4bhih2rcd13ifvqfr0","pricing_plan_id":"cebpf4jnsgd1na2vs0mg"},{"bike_id":"db6caee7-8736-4156-8959-1cbc7ccb72c8","system_id":"levelo_inurba_marseille","lat":43.28859,"lon":5.38467,"is_reserved":false,"is_disabled":false,"rental_uris":{"android":"levelo://app?vid=db6caee7-8736-4156-8959-1cbc7ccb72c8","ios":"levelo://app?vid=db6caee7-8736-4156-8959-1cbc7ccb72c8"},"vehicle_type_id":"4","last_reported":1751670646,"current_range_meters":16000,"station_id":"","pricing_plan_id":"cebpf4jnsgd1na2vs0mg"},{"bike_id":"aafb8ce6-e3e9-4062-8cc4-aece91a6105d","system_id":"levelo_inurba_marseille","lat":43.31482,"lon":5.37324,"is_reserved":false,"is_disabled":false,"rental_uris":{"android":"levelo://app?vid=aafb8ce6-e3e9-4062-8cc4-aece91a6105d","ios":"levelo://app?vid=aafb8ce6-e3e9-4062-8cc4-aece91a6105d"},"vehicle_type_id":"4","last_reported":1751670646,"current_range_meters":16000,"station_id":"ce4bgt12rcd13ifvqcd0","pricing_plan_id":"cebpf4jnsgd1na2vs0mg"},{"bike_id":"1f49877a-bd06-4834-a062-cda535f1aa6b","system_id":"levelo_inurba_marseille","lat":43.30798,"lon":5.38155,"is_reserved":false,"is_disabled":false,"rental_uris":{"android":"levelo://app?vid=1f49877a-bd06-4834-a062-cda535f1aa6b","ios":"levelo://app?vid=1f49877a-bd06-4834-a062-cda535f1aa6b"},"vehicle_type_id":"4","last_reported":1751670646,"current_range_meters":16000,"station_id":"ce4bgt12rcd13ifvqce0","pricing_plan_id":"cebpf4jnsgd1na2vs0mg"},{"bike_id":"ba02322b-42c6-4f39-aab9-cb5c29c99255","system_id":"levelo_inurba_marseille","lat":43.301267,"lon":5.398807,"is_reserved":false,"is_disabled":false,"rental_uris":{"android":"levelo://app?vid=ba02322b-42c6-4f39-aab9-cb5c29c99255","ios":"levelo://app?vid=ba02322b-42c6-4f39-aab9-cb5c29c99255"},"vehicle_type_id":"4","last_reported":1751670646,"current_range_meters":16000,"station_id":"ce4bh0h2rcd13ifvqd40","pricing_plan_id":"cebpf4jnsgd1na2vs0mg"},{"bike_id":"3084a446-492c-4b64-8112-6e84f71cdee8","system_id":"levelo_inurba_marseille","lat":43.29796,"lon":5.404035,"is_reserved":false,"is_disabled":false,"rental_uris":{"android":"levelo://app?vid=3084a446-492c-4b64-8112-6e84f71cdee8","ios":"levelo://app?vid=3084a446-492c-4b64-8112-6e84f71cdee8"},"vehicle_type_id":"4","last_reported":1751670646,"current_range_meters":16000,"station_id":"ce4bh112rcd13ifvqd90","pricing_plan_id":"cebpf4jnsgd1na2vs0mg"},{"bike_id":"7cbb7613-8a12-4acb-914a-c602ad0cc8f2","system_id":"levelo_inurba_marseille","lat":43.250897,"lon":5.403703,"is_reserved":false,"is_disabled":false,"rental_uris":{"android":"levelo://app?vid=7cbb7613-8a12-4acb-914a-c602ad0cc8f2","ios":"levelo://app?vid=7cbb7613-8a12-4acb-914a-c602ad0cc8f2"},"vehicle_type_id":"4","last_reported":1751670646,"current_range_meters":16000,"station_id":"ce4bhlh2rcd13ifvqgig","pricing_plan_id":"cebpf4jnsgd1na2vs0mg"},{"bike_id":"07bb76c0-435b-4961-b98f-0e9ceec79dd6","system_id":"levelo_inurba_marseille","lat":43.28715,"lon":5.39995,"is_reserved":false,"is_disabled":false,"rental_uris":{"android":"levelo://app?vid=07bb76c0-435b-4961-b98f-0e9ceec79dd6","ios":"levelo://app?vid=07bb76c0-435b-4961-b98f-0e9ceec79dd6"},"vehicle_type_id":"4","last_reported":1751670646,"current_range_meters":16000,"station_id":"ce4bho92rcd13ifvqh3g","pricing_plan_id":"cebpf4jnsgd1na2vs0mg"},{"bike_id":"29b19e99-4845-4ee3-b1ee-35721cd36dc7","system_id":"levelo_inurba_marseille","lat":43.23181,"lon":5.35574,"is_reserved":false,"is_disabled":false,"rental_uris":{"android":"levelo://app?vid=29b19e99-4845-4ee3-b1ee-35721cd36dc7","ios":"levelo://app?vid=29b19e99-4845-4ee3-b1ee-35721cd36dc7"},"vehicle_type_id":"4","last_reported":1751670646,"current_range_meters":16000,"station_id":"ce4bhu92rcd13ifvqi70","pricing_plan_id":"cebpf4jnsgd1na2vs0mg"},{"bike_id":"daeee1e5-3b93-44da-8e47-7b24df6d544e","system_id":"levelo_inurba_marseille","lat":43.30016,"lon":5.373275,"is_reserved":false,"is_disabled":false,"rental_uris":{"android":"levelo://app?vid=daeee1e5-3b93-44da-8e47-7b24df6d544e","ios":"levelo://app?vid=daeee1e5-3b93-44da-8e47-7b24df6d544e"},"vehicle_type_id":"4","last_reported":1751670646,"current_range_meters":16400,"station_id":"","pricing_plan_id":"cebpf4jnsgd1na2vs0mg"},{"bike_id":"f37760c6-ab8b-450e-9ddc-f3de596404e2","system_id":"levelo_inurba_marseille","lat":43.30313,"lon":5.37899,"is_reserved":false,"is_disabled":false,"rental_uris":{"android":"levelo://app?vid=f37760c6-ab8b-450e-9ddc-f3de596404e2","ios":"levelo://app?vid=f37760c6-ab8b-450e-9ddc-f3de596404e2"},"vehicle_type_id":"4","last_reported":1751670646,"current_range_meters":16400,"station_id":"","pricing_plan_id":"cebpf4jnsgd1na2vs0mg"},{"bike_id":"a06cd697-9b1d-4139-b391-7ac7a1c6a64f","system_id":"levelo_inurba_marseille","lat":43.295256,"lon":5.385412,"is_reserved":false,"is_disabled":false,"rental_uris":{"android":"levelo://app?vid=a06cd697-9b1d-4139-b391-7ac7a1c6a64f","ios":"levelo://app?vid=a06cd697-9b1d-4139-b391-7ac7a1c6a64f"},"vehicle_type_id":"4","last_reported":1751670646,"current_range_meters":16400,"station_id":"ce4bgih2rcd13ifvqba0","pricing_plan_id":"cebpf4jnsgd1na2vs0mg"},{"bike_id":"a90bbc27-f377-4ee1-9020-6410876a1111","system_id":"levelo_inurba_marseille","lat":43.31691,"lon":5.37777,"is_reserved":false,"is_disabled":false,"rental_uris":{"android":"levelo://app?vid=a90bbc27-f377-4ee1-9020-6410876a1111","ios":"levelo://app?vid=a90bbc27-f377-4ee1-9020-6410876a1111"},"vehicle_type_id":"4","last_reported":1751670646,"current_range_meters":16400,"station_id":"ce4bgth2rcd13ifvqch0","pricing_plan_id":"cebpf4jnsgd1na2vs0mg"},{"bike_id":"e7637530-342a-40e4-8040-d9443edbb478","system_id":"levelo_inurba_marseille","lat":43.29426,"lon":5.38617,"is_reserved":false,"is_disabled":false,"rental_uris":{"android":"levelo://app?vid=e7637530-342a-40e4-8040-d9443edbb478","ios":"levelo://app?vid=e7637530-342a-40e4-8040-d9443edbb478"},"vehicle_type_id":"4","last_reported":1751670646,"current_range_meters":16400,"station_id":"ce4bh2h2rcd13ifvqdh0","pricing_plan_id":"cebpf4jnsgd1na2vs0mg"},{"bike_id":"2b5bd97c-55d1-4ac4-935a-2e08f1f39caa","system_id":"levelo_inurba_marseille","lat":43.28401,"lon":5.37536,"is_reserved":false,"is_disabled":false,"rental_uris":{"android":"levelo://app?vid=2b5bd97c-55d1-4ac4-935a-2e08f1f39caa","ios":"levelo://app?vid=2b5bd97c-55d1-4ac4-935a-2e08f1f39caa"},"vehicle_type_id":"4","last_reported":1751670646,"current_range_meters":16400,"station_id":"ce4bh412rcd13ifvqds0","pricing_plan_id":"cebpf4jnsgd1na2vs0mg"},{"bike_id":"26dc8365-9e5b-44ad-b380-654f888d2ccd","system_id":"levelo_inurba_marseille","lat":43.28408,"lon":5.3753,"is_reserved":false,"is_disabled":false,"rental_uris":{"android":"levelo://app?vid=26dc8365-9e5b-44ad-b380-654f888d2ccd","ios":"levelo://app?vid=26dc8365-9e5b-44ad-b380-654f888d2ccd"},"vehicle_type_id":"4","last_reported":1751670646,"current_range_meters":16400,"station_id":"ce4bh412rcd13ifvqds0","pricing_plan_id":"cebpf4jnsgd1na2vs0mg"},{"bike_id":"8dde216c-4a7e-474c-9acc-960ada850c4f","system_id":"levelo_inurba_marseille","lat":43.2846,"lon":5.35888,"is_reserved":false,"is_disabled":false,"rental_uris":{"android":"levelo://app?vid=8dde216c-4a7e-474c-9acc-960ada850c4f","ios":"levelo://app?vid=8dde216c-4a7e-474c-9acc-960ada850c4f"},"vehicle_type_id":"4","last_reported":1751670646,"current_range_meters":16400,"station_id":"ce4bhah2rcd13ifvqei0","pricing_plan_id":"cebpf4jnsgd1na2vs0mg"},{"bike_id":"08363369-6a09-4635-a456-5eadb185ea82","system_id":"levelo_inurba_marseille","lat":43.28155,"lon":5.42646,"is_reserved":false,"is_disabled":false,"rental_uris":{"android":"levelo://app?vid=08363369-6a09-4635-a456-5eadb185ea82","ios":"levelo://app?vid=08363369-6a09-4635-a456-5eadb185ea82"},"vehicle_type_id":"4","last_reported":1751670646,"current_range_meters":16400,"station_id":"ce4bhnh2rcd13ifvqgug","pricing_plan_id":"cebpf4jnsgd1na2vs0mg"},{"bike_id":"5f470112-8139-4343-b082-08a74e0b7074","system_id":"levelo_inurba_marseille","lat":43.211969,"lon":5.35078,"is_reserved":false,"is_disabled":false,"rental_uris":{"android":"levelo://app?vid=5f470112-8139-4343-b082-08a74e0b7074","ios":"levelo://app?vid=5f470112-8139-4343-b082-08a74e0b7074"},"vehicle_type_id":"4","last_reported":1751670646,"current_range_meters":16400,"station_id":"st_cvj6sg6p6f1abm77japg","pricing_plan_id":"cebpf4jnsgd1na2vs0mg"},{"bike_id":"b1d40197-e49c-4962-8cd8-0babe05d31a6","system_id":"levelo_inurba_marseille","lat":43.21255,"lon":5.35283,"is_reserved":false,"is_disabled":false,"rental_uris":{"android":"levelo://app?vid=b1d40197-e49c-4962-8cd8-0babe05d31a6","ios":"levelo://app?vid=b1d40197-e49c-4962-8cd8-0babe05d31a6"},"vehicle_type_id":"4","last_reported":1751670646,"current_range_meters":16800,"station_id":"","pricing_plan_id":"cebpf4jnsgd1na2vs0mg"},{"bike_id":"090258be-1c40-4896-8364-f8cfc8f34e03","system_id":"levelo_inurba_marseille","lat":43.29533,"lon":5.385438,"is_reserved":false,"is_disabled":false,"rental_uris":{"android":"levelo://app?vid=090258be-1c40-4896-8364-f8cfc8f34e03","ios":"levelo://app?vid=090258be-1c40-4896-8364-f8cfc8f34e03"},"vehicle_type_id":"4","last_reported":1751670646,"current_range_meters":16800,"station_id":"ce4bgih2rcd13ifvqba0","pricing_plan_id":"cebpf4jnsgd1na2vs0mg"},{"bike_id":"27b3b26f-62cb-45ea-a54c-6078366a412e","system_id":"levelo_inurba_marseille","lat":43.31483,"lon":5.37312,"is_reserved":false,"is_disabled":false,"rental_uris":{"android":"levelo://app?vid=27b3b26f-62cb-45ea-a54c-6078366a412e","ios":"levelo://app?vid=27b3b26f-62cb-45ea-a54c-6078366a412e"},"vehicle_type_id":"4","last_reported":1751670646,"current_range_meters":16800,"station_id":"ce4bgt12rcd13ifvqcd0","pricing_plan_id":"cebpf4jnsgd1na2vs0mg"},{"bike_id":"0a0c8224-44bf-455d-af32-3c9052d480a3","system_id":"levelo_inurba_marseille","lat":43.304257,"lon":5.397527,"is_reserved":false,"is_disabled":false,"rental_uris":{"android":"levelo://app?vid=0a0c8224-44bf-455d-af32-3c9052d480a3","ios":"levelo://app?vid=0a0c8224-44bf-455d-af32-3c9052d480a3"},"vehicle_type_id":"4","last_reported":1751670646,"current_range_meters":16800,"station_id":"ce4bh092rcd13ifvqd20","pricing_plan_id":"cebpf4jnsgd1na2vs0mg"},{"bike_id":"0b7e3772-9d94-415c-9ea2-d442065df3ca","system_id":"levelo_inurba_marseille","lat":43.29255,"lon":5.40911,"is_reserved":false,"is_disabled":false,"rental_uris":{"android":"levelo://app?vid=0b7e3772-9d94-415c-9ea2-d442065df3ca","ios":"levelo://app?vid=0b7e3772-9d94-415c-9ea2-d442065df3ca"},"vehicle_type_id":"4","last_reported":1751670646,"current_range_meters":16800,"station_id":"ce4bh192rcd13ifvqdc0","pricing_plan_id":"cebpf4jnsgd1na2vs0mg"},{"bike_id":"9bb2d418-0d8a-4801-9b2a-2fda52287a68","system_id":"levelo_inurba_marseille","lat":43.28107,"lon":5.37842,"is_reserved":false,"is_disabled":false,"rental_uris":{"android":"levelo://app?vid=9bb2d418-0d8a-4801-9b2a-2fda52287a68","ios":"levelo://app?vid=9bb2d418-0d8a-4801-9b2a-2fda52287a68"},"vehicle_type_id":"4","last_reported":1751670646,"current_range_meters":16800,"station_id":"ce4bha12rcd13ifvqee0","pricing_plan_id":"cebpf4jnsgd1na2vs0mg"},{"bike_id":"93e2c185-94a7-49be-9568-77639b8867b2","system_id":"levelo_inurba_marseille","lat":43.28078,"lon":5.39651,"is_reserved":false,"is_disabled":false,"rental_uris":{"android":"levelo://app?vid=93e2c185-94a7-49be-9568-77639b8867b2","ios":"levelo://app?vid=93e2c185-94a7-49be-9568-77639b8867b2"},"vehicle_type_id":"4","last_reported":1751670646,"current_range_meters":16800,"station_id":"ce4bho12rcd13ifvqh2g","pricing_plan_id":"cebpf4jnsgd1na2vs0mg"},{"bike_id":"89c4c171-fa34-44ee-8818-b4f1de745083","system_id":"levelo_inurba_marseille","lat":43.232,"lon":5.355562,"is_reserved":false,"is_disabled":false,"rental_uris":{"android":"levelo://app?vid=89c4c171-fa34-44ee-8818-b4f1de745083","ios":"levelo://app?vid=89c4c171-fa34-44ee-8818-b4f1de745083"},"vehicle_type_id":"4","last_reported":1751670646,"current_range_meters":16800,"station_id":"ce4bhu92rcd13ifvqi70","pricing_plan_id":"cebpf4jnsgd1na2vs0mg"},{"bike_id":"85e59ae2-b351-4789-8c40-11e04c4e6808","system_id":"levelo_inurba_marseille","lat":43.231961,"lon":5.355487,"is_reserved":false,"is_disabled":false,"rental_uris":{"android":"levelo://app?vid=85e59ae2-b351-4789-8c40-11e04c4e6808","ios":"levelo://app?vid=85e59ae2-b351-4789-8c40-11e04c4e6808"},"vehicle_type_id":"4","last_reported":1751670646,"current_range_meters":16800,"station_id":"ce4bhu92rcd13ifvqi70","pricing_plan_id":"cebpf4jnsgd1na2vs0mg"},{"bike_id":"ef26d274-58a7-40bc-9cf0-6287718684d4","system_id":"levelo_inurba_marseille","lat":43.30737,"lon":5.4246,"is_reserved":false,"is_disabled":false,"rental_uris":{"android":"levelo://app?vid=ef26d274-58a7-40bc-9cf0-6287718684d4","ios":"levelo://app?vid=ef26d274-58a7-40bc-9cf0-6287718684d4"},"vehicle_type_id":"4","last_reported":1751670646,"current_range_meters":16800,"station_id":"st_cvj6ca6bvosntc0bfgr0","pricing_plan_id":"cebpf4jnsgd1na2vs0mg"},{"bike_id":"25d65b54-2483-49ad-9e8c-b4102ded682f","system_id":"levelo_inurba_marseille","lat":43.21189,"lon":5.35076,"is_reserved":false,"is_disabled":false,"rental_uris":{"android":"levelo://app?vid=25d65b54-2483-49ad-9e8c-b4102ded682f","ios":"levelo://app?vid=25d65b54-2483-49ad-9e8c-b4102ded682f"},"vehicle_type_id":"4","last_reported":1751670646,"current_range_meters":16800,"station_id":"st_cvj6sg6p6f1abm77japg","pricing_plan_id":"cebpf4jnsgd1na2vs0mg"},{"bike_id":"b67e3de7-3a98-48a8-ada1-6072073e6e54","system_id":"levelo_inurba_marseille","lat":43.24551,"lon":5.37353,"is_reserved":false,"is_disabled":false,"rental_uris":{"android":"levelo://app?vid=b67e3de7-3a98-48a8-ada1-6072073e6e54","ios":"levelo://app?vid=b67e3de7-3a98-48a8-ada1-6072073e6e54"},"vehicle_type_id":"4","last_reported":1751670646,"current_range_meters":17200,"station_id":"","pricing_plan_id":"cebpf4jnsgd1na2vs0mg"},{"bike_id":"fc021d3f-098e-46c1-9ef8-f0c0db842faa","system_id":"levelo_inurba_marseille","lat":43.2954,"lon":5.38547,"is_reserved":false,"is_disabled":false,"rental_uris":{"android":"levelo://app?vid=fc021d3f-098e-46c1-9ef8-f0c0db842faa","ios":"levelo://app?vid=fc021d3f-098e-46c1-9ef8-f0c0db842faa"},"vehicle_type_id":"4","last_reported":1751670646,"current_range_meters":17200,"station_id":"ce4bgih2rcd13ifvqba0","pricing_plan_id":"cebpf4jnsgd1na2vs0mg"},{"bike_id":"aae1a3ab-7f77-4cae-a515-0e32f1c9e1bf","system_id":"levelo_inurba_marseille","lat":43.31512,"lon":5.37277,"is_reserved":false,"is_disabled":false,"rental_uris":{"android":"levelo://app?vid=aae1a3ab-7f77-4cae-a515-0e32f1c9e1bf","ios":"levelo://app?vid=aae1a3ab-7f77-4cae-a515-0e32f1c9e1bf"},"vehicle_type_id":"4","last_reported":1751670646,"current_range_meters":17200,"station_id":"ce4bgt12rcd13ifvqcd0","pricing_plan_id":"cebpf4jnsgd1na2vs0mg"},{"bike_id":"978499d7-daf5-4191-b652-8e29b67d476d","system_id":"levelo_inurba_marseille","lat":43.30934,"lon":5.37136,"is_reserved":false,"is_disabled":false,"rental_uris":{"android":"levelo://app?vid=978499d7-daf5-4191-b652-8e29b67d476d","ios":"levelo://app?vid=978499d7-daf5-4191-b652-8e29b67d476d"},"vehicle_type_id":"4","last_reported":1751670646,"current_range_meters":17200,"station_id":"ce4bguh2rcd13ifvqckg","pricing_plan_id":"cebpf4jnsgd1na2vs0mg"},{"bike_id":"9ce4937e-f70c-40c5-8304-a6e4aa82f427","system_id":"levelo_inurba_marseille","lat":43.30336,"lon":5.40429,"is_reserved":false,"is_disabled":false,"rental_uris":{"android":"levelo://app?vid=9ce4937e-f70c-40c5-8304-a6e4aa82f427","ios":"levelo://app?vid=9ce4937e-f70c-40c5-8304-a6e4aa82f427"},"vehicle_type_id":"4","last_reported":1751670646,"current_range_meters":17200,"station_id":"ce4bh012rcd13ifvqd10","pricing_plan_id":"cebpf4jnsgd1na2vs0mg"},{"bike_id":"de02aa60-7aca-4a96-836c-3715f66dad75","system_id":"levelo_inurba_marseille","lat":43.28371,"lon":5.38627,"is_reserved":false,"is_disabled":false,"rental_uris":{"android":"levelo://app?vid=de02aa60-7aca-4a96-836c-3715f66dad75","ios":"levelo://app?vid=de02aa60-7aca-4a96-836c-3715f66dad75"},"vehicle_type_id":"4","last_reported":1751670646,"current_range_meters":17200,"station_id":"ce4bh492rcd13ifvqdvg","pricing_plan_id":"cebpf4jnsgd1na2vs0mg"},{"bike_id":"e8a29ff3-a4a2-4805-9fa5-fa75367f7885","system_id":"levelo_inurba_marseille","lat":43.25699,"lon":5.41125,"is_reserved":false,"is_disabled":false,"rental_uris":{"android":"levelo://app?vid=e8a29ff3-a4a2-4805-9fa5-fa75367f7885","ios":"levelo://app?vid=e8a29ff3-a4a2-4805-9fa5-fa75367f7885"},"vehicle_type_id":"4","last_reported":1751670646,"current_range_meters":17200,"station_id":"ce4bhkp2rcd13ifvqgd0","pricing_plan_id":"cebpf4jnsgd1na2vs0mg"},{"bike_id":"895304a7-f841-4ac7-a5d8-f600565cbdb4","system_id":"levelo_inurba_marseille","lat":43.28435,"lon":5.39204,"is_reserved":false,"is_disabled":false,"rental_uris":{"android":"levelo://app?vid=895304a7-f841-4ac7-a5d8-f600565cbdb4","ios":"levelo://app?vid=895304a7-f841-4ac7-a5d8-f600565cbdb4"},"vehicle_type_id":"4","last_reported":1751670646,"current_range_meters":17200,"station_id":"ce4bhoh2rcd13ifvqh5g","pricing_plan_id":"cebpf4jnsgd1na2vs0mg"},{"bike_id":"e8d3d87c-1584-4a5d-8390-6a3879943696","system_id":"levelo_inurba_marseille","lat":43.3036,"lon":5.41875,"is_reserved":false,"is_disabled":false,"rental_uris":{"android":"levelo://app?vid=e8d3d87c-1584-4a5d-8390-6a3879943696","ios":"levelo://app?vid=e8d3d87c-1584-4a5d-8390-6a3879943696"},"vehicle_type_id":"4","last_reported":1751670646,"current_range_meters":17200,"station_id":"ce4bhop2rcd13ifvqh7g","pricing_plan_id":"cebpf4jnsgd1na2vs0mg"},{"bike_id":"82a2041e-626c-4461-b64f-9786ae09e77e","system_id":"levelo_inurba_marseille","lat":43.304105,"lon":5.41006,"is_reserved":false,"is_disabled":false,"rental_uris":{"android":"levelo://app?vid=82a2041e-626c-4461-b64f-9786ae09e77e","ios":"levelo://app?vid=82a2041e-626c-4461-b64f-9786ae09e77e"},"vehicle_type_id":"4","last_reported":1751670646,"current_range_meters":17200,"station_id":"ce4bhop2rcd13ifvqh7g","pricing_plan_id":"cebpf4jnsgd1na2vs0mg"},{"bike_id":"8501c7f1-4540-433a-9226-9677bd87b71a","system_id":"levelo_inurba_marseille","lat":43.21193,"lon":5.35075,"is_reserved":false,"is_disabled":false,"rental_uris":{"android":"levelo://app?vid=8501c7f1-4540-433a-9226-9677bd87b71a","ios":"levelo://app?vid=8501c7f1-4540-433a-9226-9677bd87b71a"},"vehicle_type_id":"4","last_reported":1751670646,"current_range_meters":17200,"station_id":"st_cvj6sg6p6f1abm77japg","pricing_plan_id":"cebpf4jnsgd1na2vs0mg"},{"bike_id":"adf1d38d-1f03-40cf-9b57-0a8f15f62b2d","system_id":"levelo_inurba_marseille","lat":43.32999,"lon":5.36344,"is_reserved":false,"is_disabled":false,"rental_uris":{"android":"levelo://app?vid=adf1d38d-1f03-40cf-9b57-0a8f15f62b2d","ios":"levelo://app?vid=adf1d38d-1f03-40cf-9b57-0a8f15f62b2d"},"vehicle_type_id":"4","last_reported":1751670646,"current_range_meters":17600,"station_id":"","pricing_plan_id":"cebpf4jnsgd1na2vs0mg"},{"bike_id":"02b71ffd-98ec-4faa-a4ff-9c4f0856d9be","system_id":"levelo_inurba_marseille","lat":43.30928,"lon":5.401485,"is_reserved":false,"is_disabled":false,"rental_uris":{"android":"levelo://app?vid=02b71ffd-98ec-4faa-a4ff-9c4f0856d9be","ios":"levelo://app?vid=02b71ffd-98ec-4faa-a4ff-9c4f0856d9be"},"vehicle_type_id":"4","last_reported":1751670646,"current_range_meters":17600,"station_id":"ce4bgvp2rcd13ifvqct0","pricing_plan_id":"cebpf4jnsgd1na2vs0mg"},{"bike_id":"64c2a9d0-155c-4f26-ba45-c0a267071026","system_id":"levelo_inurba_marseille","lat":43.31083,"lon":5.42441,"is_reserved":false,"is_disabled":false,"rental_uris":{"android":"levelo://app?vid=64c2a9d0-155c-4f26-ba45-c0a267071026","ios":"levelo://app?vid=64c2a9d0-155c-4f26-ba45-c0a267071026"},"vehicle_type_id":"4","last_reported":1751670646,"current_range_meters":17600,"station_id":"ce4bhp92rcd13ifvqhag","pricing_plan_id":"cebpf4jnsgd1na2vs0mg"},{"bike_id":"134a6fd1-cb8b-4ade-a0c2-0b22bf7dca76","system_id":"levelo_inurba_marseille","lat":43.21192,"lon":5.35064,"is_reserved":false,"is_disabled":false,"rental_uris":{"android":"levelo://app?vid=134a6fd1-cb8b-4ade-a0c2-0b22bf7dca76","ios":"levelo://app?vid=134a6fd1-cb8b-4ade-a0c2-0b22bf7dca76"},"vehicle_type_id":"4","last_reported":1751670646,"current_range_meters":17600,"station_id":"st_cvj6sg6p6f1abm77japg","pricing_plan_id":"cebpf4jnsgd1na2vs0mg"},{"bike_id":"1ba3d49f-879f-495a-9eec-a5219f46051b","system_id":"levelo_inurba_marseille","lat":43.24713,"lon":5.38079,"is_reserved":false,"is_disabled":false,"rental_uris":{"android":"levelo://app?vid=1ba3d49f-879f-495a-9eec-a5219f46051b","ios":"levelo://app?vid=1ba3d49f-879f-495a-9eec-a5219f46051b"},"vehicle_type_id":"4","last_reported":1751670646,"current_range_meters":18000,"station_id":"","pricing_plan_id":"cebpf4jnsgd1na2vs0mg"},{"bike_id":"3fc62123-78f7-4bfd-9645-67a7412e0768","system_id":"levelo_inurba_marseille","lat":43.2573,"lon":5.41107,"is_reserved":false,"is_disabled":false,"rental_uris":{"android":"levelo://app?vid=3fc62123-78f7-4bfd-9645-67a7412e0768","ios":"levelo://app?vid=3fc62123-78f7-4bfd-9645-67a7412e0768"},"vehicle_type_id":"4","last_reported":1751670646,"current_range_meters":18000,"station_id":"","pricing_plan_id":"cebpf4jnsgd1na2vs0mg"},{"bike_id":"49cdc6d1-c04d-4952-8f8b-d43b23f6027f","system_id":"levelo_inurba_marseille","lat":43.29524,"lon":5.38548,"is_reserved":false,"is_disabled":false,"rental_uris":{"android":"levelo://app?vid=49cdc6d1-c04d-4952-8f8b-d43b23f6027f","ios":"levelo://app?vid=49cdc6d1-c04d-4952-8f8b-d43b23f6027f"},"vehicle_type_id":"4","last_reported":1751670646,"current_range_meters":18000,"station_id":"ce4bgih2rcd13ifvqba0","pricing_plan_id":"cebpf4jnsgd1na2vs0mg"},{"bike_id":"3a3a2bb2-1174-4776-824a-2c7ce2294229","system_id":"levelo_inurba_marseille","lat":43.31365,"lon":5.38499,"is_reserved":false,"is_disabled":false,"rental_uris":{"android":"levelo://app?vid=3a3a2bb2-1174-4776-824a-2c7ce2294229","ios":"levelo://app?vid=3a3a2bb2-1174-4776-824a-2c7ce2294229"},"vehicle_type_id":"4","last_reported":1751670646,"current_range_meters":18000,"station_id":"ce4bgt92rcd13ifvqcf0","pricing_plan_id":"cebpf4jnsgd1na2vs0mg"},{"bike_id":"6bd80a8a-1764-4f3f-ada9-c0de0addc948","system_id":"levelo_inurba_marseille","lat":43.31356,"lon":5.38497,"is_reserved":false,"is_disabled":false,"rental_uris":{"android":"levelo://app?vid=6bd80a8a-1764-4f3f-ada9-c0de0addc948","ios":"levelo://app?vid=6bd80a8a-1764-4f3f-ada9-c0de0addc948"},"vehicle_type_id":"4","last_reported":1751670646,"current_range_meters":18000,"station_id":"ce4bgt92rcd13ifvqcf0","pricing_plan_id":"cebpf4jnsgd1na2vs0mg"},{"bike_id":"f1704fa8-e85e-4151-8d37-92d9f01651c5","system_id":"levelo_inurba_marseille","lat":43.29046,"lon":5.39978,"is_reserved":false,"is_disabled":false,"rental_uris":{"android":"levelo://app?vid=f1704fa8-e85e-4151-8d37-92d9f01651c5","ios":"levelo://app?vid=f1704fa8-e85e-4151-8d37-92d9f01651c5"},"vehicle_type_id":"4","last_reported":1751670646,"current_range_meters":18000,"station_id":"ce4bh392rcd13ifvqdm0","pricing_plan_id":"cebpf4jnsgd1na2vs0mg"},{"bike_id":"c9bc9f98-0f31-4750-aeef-b141822a4a4f","system_id":"levelo_inurba_marseille","lat":43.283634,"lon":5.386378,"is_reserved":false,"is_disabled":false,"rental_uris":{"android":"levelo://app?vid=c9bc9f98-0f31-4750-aeef-b141822a4a4f","ios":"levelo://app?vid=c9bc9f98-0f31-4750-aeef-b141822a4a4f"},"vehicle_type_id":"4","last_reported":1751670646,"current_range_meters":18000,"station_id":"ce4bh492rcd13ifvqdvg","pricing_plan_id":"cebpf4jnsgd1na2vs0mg"},{"bike_id":"c3fae141-3322-46bb-976b-c85803ceeb5f","system_id":"levelo_inurba_marseille","lat":43.29548,"lon":5.42293,"is_reserved":false,"is_disabled":false,"rental_uris":{"android":"levelo://app?vid=c3fae141-3322-46bb-976b-c85803ceeb5f","ios":"levelo://app?vid=c3fae141-3322-46bb-976b-c85803ceeb5f"},"vehicle_type_id":"4","last_reported":1751670646,"current_range_meters":18000,"station_id":"ce4bhph2rcd13ifvqhdg","pricing_plan_id":"cebpf4jnsgd1na2vs0mg"},{"bike_id":"d5ef770d-9759-47e3-b3a5-7d2785ef76db","system_id":"levelo_inurba_marseille","lat":43.33256,"lon":5.398,"is_reserved":false,"is_disabled":false,"rental_uris":{"android":"levelo://app?vid=d5ef770d-9759-47e3-b3a5-7d2785ef76db","ios":"levelo://app?vid=d5ef770d-9759-47e3-b3a5-7d2785ef76db"},"vehicle_type_id":"4","last_reported":1751670646,"current_range_meters":18800,"station_id":"","pricing_plan_id":"cebpf4jnsgd1na2vs0mg"},{"bike_id":"fe8ee84c-fdfc-40aa-a1c2-6e36409c0740","system_id":"levelo_inurba_marseille","lat":43.26822,"lon":5.39061,"is_reserved":false,"is_disabled":false,"rental_uris":{"android":"levelo://app?vid=fe8ee84c-fdfc-40aa-a1c2-6e36409c0740","ios":"levelo://app?vid=fe8ee84c-fdfc-40aa-a1c2-6e36409c0740"},"vehicle_type_id":"4","last_reported":1751670646,"current_range_meters":18800,"station_id":"","pricing_plan_id":"cebpf4jnsgd1na2vs0mg"},{"bike_id":"de82732e-0a39-4d40-b3cf-607f82f986f4","system_id":"levelo_inurba_marseille","lat":43.26887,"lon":5.36879,"is_reserved":false,"is_disabled":false,"rental_uris":{"android":"levelo://app?vid=de82732e-0a39-4d40-b3cf-607f82f986f4","ios":"levelo://app?vid=de82732e-0a39-4d40-b3cf-607f82f986f4"},"vehicle_type_id":"4","last_reported":1751670646,"current_range_meters":18800,"station_id":"","pricing_plan_id":"cebpf4jnsgd1na2vs0mg"},{"bike_id":"ed404beb-27d2-4951-b0c7-b56cf2d96909","system_id":"levelo_inurba_marseille","lat":43.29509,"lon":5.38565,"is_reserved":false,"is_disabled":false,"rental_uris":{"android":"levelo://app?vid=ed404beb-27d2-4951-b0c7-b56cf2d96909","ios":"levelo://app?vid=ed404beb-27d2-4951-b0c7-b56cf2d96909"},"vehicle_type_id":"4","last_reported":1751670646,"current_range_meters":18800,"station_id":"ce4bgih2rcd13ifvqba0","pricing_plan_id":"cebpf4jnsgd1na2vs0mg"},{"bike_id":"bba6b130-7dbb-4030-bc2d-ed15aec196d9","system_id":"levelo_inurba_marseille","lat":43.30433,"lon":5.39753,"is_reserved":false,"is_disabled":false,"rental_uris":{"android":"levelo://app?vid=bba6b130-7dbb-4030-bc2d-ed15aec196d9","ios":"levelo://app?vid=bba6b130-7dbb-4030-bc2d-ed15aec196d9"},"vehicle_type_id":"4","last_reported":1751670646,"current_range_meters":18800,"station_id":"ce4bh092rcd13ifvqd20","pricing_plan_id":"cebpf4jnsgd1na2vs0mg"},{"bike_id":"d492a286-9b9b-4790-b0b5-29a9f152c663","system_id":"levelo_inurba_marseille","lat":43.28086,"lon":5.39644,"is_reserved":false,"is_disabled":false,"rental_uris":{"android":"levelo://app?vid=d492a286-9b9b-4790-b0b5-29a9f152c663","ios":"levelo://app?vid=d492a286-9b9b-4790-b0b5-29a9f152c663"},"vehicle_type_id":"4","last_reported":1751670646,"current_range_meters":18800,"station_id":"ce4bho12rcd13ifvqh2g","pricing_plan_id":"cebpf4jnsgd1na2vs0mg"},{"bike_id":"7d7ca329-d013-418c-84c4-2b0666103eeb","system_id":"levelo_inurba_marseille","lat":43.29888,"lon":5.4365,"is_reserved":false,"is_disabled":false,"rental_uris":{"android":"levelo://app?vid=7d7ca329-d013-418c-84c4-2b0666103eeb","ios":"levelo://app?vid=7d7ca329-d013-418c-84c4-2b0666103eeb"},"vehicle_type_id":"4","last_reported":1751670646,"current_range_meters":18800,"station_id":"ce4bhpp2rcd13ifvqhfg","pricing_plan_id":"cebpf4jnsgd1na2vs0mg"},{"bike_id":"65649ce6-7f39-4a81-afab-6d8bea652e28","system_id":"levelo_inurba_marseille","lat":43.30738,"lon":5.42446,"is_reserved":false,"is_disabled":false,"rental_uris":{"android":"levelo://app?vid=65649ce6-7f39-4a81-afab-6d8bea652e28","ios":"levelo://app?vid=65649ce6-7f39-4a81-afab-6d8bea652e28"},"vehicle_type_id":"4","last_reported":1751670646,"current_range_meters":18800,"station_id":"st_cvj6ca6bvosntc0bfgr0","pricing_plan_id":"cebpf4jnsgd1na2vs0mg"},{"bike_id":"bf24b26e-7f51-4120-9a48-54c87edaa2f7","system_id":"levelo_inurba_marseille","lat":43.21191,"lon":5.35073,"is_reserved":false,"is_disabled":false,"rental_uris":{"android":"levelo://app?vid=bf24b26e-7f51-4120-9a48-54c87edaa2f7","ios":"levelo://app?vid=bf24b26e-7f51-4120-9a48-54c87edaa2f7"},"vehicle_type_id":"4","last_reported":1751670646,"current_range_meters":18800,"station_id":"st_cvj6sg6p6f1abm77japg","pricing_plan_id":"cebpf4jnsgd1na2vs0mg"},{"bike_id":"8a42812b-a6a1-406d-afe6-f3a1f04badd8","system_id":"levelo_inurba_marseille","lat":43.308597,"lon":5.370356,"is_reserved":false,"is_disabled":false,"rental_uris":{"android":"levelo://app?vid=8a42812b-a6a1-406d-afe6-f3a1f04badd8","ios":"levelo://app?vid=8a42812b-a6a1-406d-afe6-f3a1f04badd8"},"vehicle_type_id":"4","last_reported":1751670646,"current_range_meters":19200,"station_id":"","pricing_plan_id":"cebpf4jnsgd1na2vs0mg"},{"bike_id":"5b5ca915-19f5-4c5c-ba88-71fe4a9869eb","system_id":"levelo_inurba_marseille","lat":43.31805,"lon":5.37671,"is_reserved":false,"is_disabled":false,"rental_uris":{"android":"levelo://app?vid=5b5ca915-19f5-4c5c-ba88-71fe4a9869eb","ios":"levelo://app?vid=5b5ca915-19f5-4c5c-ba88-71fe4a9869eb"},"vehicle_type_id":"4","last_reported":1751670646,"current_range_meters":19200,"station_id":"","pricing_plan_id":"cebpf4jnsgd1na2vs0mg"},{"bike_id":"3963504a-1bfe-4478-b6af-cc0ea5d0627e","system_id":"levelo_inurba_marseille","lat":43.2993,"lon":5.36554,"is_reserved":false,"is_disabled":false,"rental_uris":{"android":"levelo://app?vid=3963504a-1bfe-4478-b6af-cc0ea5d0627e","ios":"levelo://app?vid=3963504a-1bfe-4478-b6af-cc0ea5d0627e"},"vehicle_type_id":"4","last_reported":1751670646,"current_range_meters":19200,"station_id":"ce4bgm92rcd13ifvqbr0","pricing_plan_id":"cebpf4jnsgd1na2vs0mg"},{"bike_id":"9b9acaaf-a574-4a8e-9bbf-43cec55b092f","system_id":"levelo_inurba_marseille","lat":43.29568,"lon":5.39981,"is_reserved":false,"is_disabled":false,"rental_uris":{"android":"levelo://app?vid=9b9acaaf-a574-4a8e-9bbf-43cec55b092f","ios":"levelo://app?vid=9b9acaaf-a574-4a8e-9bbf-43cec55b092f"},"vehicle_type_id":"4","last_reported":1751670646,"current_range_meters":19200,"station_id":"ce4bh312rcd13ifvqdj0","pricing_plan_id":"cebpf4jnsgd1na2vs0mg"},{"bike_id":"4563e2d8-538e-4864-be6c-8ddcb41fbe9a","system_id":"levelo_inurba_marseille","lat":43.2903,"lon":5.39971,"is_reserved":false,"is_disabled":false,"rental_uris":{"android":"levelo://app?vid=4563e2d8-538e-4864-be6c-8ddcb41fbe9a","ios":"levelo://app?vid=4563e2d8-538e-4864-be6c-8ddcb41fbe9a"},"vehicle_type_id":"4","last_reported":1751670646,"current_range_meters":19200,"station_id":"ce4bh392rcd13ifvqdm0","pricing_plan_id":"cebpf4jnsgd1na2vs0mg"},{"bike_id":"afd2132a-1803-4838-86ad-b745cbb468a9","system_id":"levelo_inurba_marseille","lat":43.2963,"lon":5.406,"is_reserved":false,"is_disabled":false,"rental_uris":{"android":"levelo://app?vid=afd2132a-1803-4838-86ad-b745cbb468a9","ios":"levelo://app?vid=afd2132a-1803-4838-86ad-b745cbb468a9"},"vehicle_type_id":"4","last_reported":1751670646,"current_range_meters":19600,"station_id":"ce4bh0h2rcd13ifvqd60","pricing_plan_id":"cebpf4jnsgd1na2vs0mg"},{"bike_id":"5e4669bd-8536-4919-8da2-15409e182044","system_id":"levelo_inurba_marseille","lat":43.2315,"lon":5.43727,"is_reserved":false,"is_disabled":false,"rental_uris":{"android":"levelo://app?vid=5e4669bd-8536-4919-8da2-15409e182044","ios":"levelo://app?vid=5e4669bd-8536-4919-8da2-15409e182044"},"vehicle_type_id":"4","last_reported":1751670646,"current_range_meters":19600,"station_id":"ce4bhmp2rcd13ifvqgog","pricing_plan_id":"cebpf4jnsgd1na2vs0mg"},{"bike_id":"3843d112-928f-4232-bedc-cd2cf25b1511","system_id":"levelo_inurba_marseille","lat":43.28074,"lon":5.39641,"is_reserved":false,"is_disabled":false,"rental_uris":{"android":"levelo://app?vid=3843d112-928f-4232-bedc-cd2cf25b1511","ios":"levelo://app?vid=3843d112-928f-4232-bedc-cd2cf25b1511"},"vehicle_type_id":"4","last_reported":1751670646,"current_range_meters":19600,"station_id":"ce4bho12rcd13ifvqh2g","pricing_plan_id":"cebpf4jnsgd1na2vs0mg"},{"bike_id":"11400a77-2e9c-43cd-8a26-0f71b1fc1feb","system_id":"levelo_inurba_marseille","lat":43.284365,"lon":5.39188,"is_reserved":false,"is_disabled":false,"rental_uris":{"android":"levelo://app?vid=11400a77-2e9c-43cd-8a26-0f71b1fc1feb","ios":"levelo://app?vid=11400a77-2e9c-43cd-8a26-0f71b1fc1feb"},"vehicle_type_id":"4","last_reported":1751670646,"current_range_meters":19600,"station_id":"ce4bhoh2rcd13ifvqh5g","pricing_plan_id":"cebpf4jnsgd1na2vs0mg"},{"bike_id":"ca19b8f1-8bbb-465b-a2e2-e87739be69b1","system_id":"levelo_inurba_marseille","lat":43.31987,"lon":5.38157,"is_reserved":false,"is_disabled":false,"rental_uris":{"android":"levelo://app?vid=ca19b8f1-8bbb-465b-a2e2-e87739be69b1","ios":"levelo://app?vid=ca19b8f1-8bbb-465b-a2e2-e87739be69b1"},"vehicle_type_id":"4","last_reported":1751670646,"current_range_meters":19600,"station_id":"ce4bhr12rcd13ifvqhpg","pricing_plan_id":"cebpf4jnsgd1na2vs0mg"},{"bike_id":"e449aa29-cae1-4432-9aec-dedc13360b20","system_id":"levelo_inurba_marseille","lat":43.21174,"lon":5.35109,"is_reserved":false,"is_disabled":false,"rental_uris":{"android":"levelo://app?vid=e449aa29-cae1-4432-9aec-dedc13360b20","ios":"levelo://app?vid=e449aa29-cae1-4432-9aec-dedc13360b20"},"vehicle_type_id":"4","last_reported":1751670646,"current_range_meters":19600,"station_id":"st_cvj6sg6p6f1abm77japg","pricing_plan_id":"cebpf4jnsgd1na2vs0mg"},{"bike_id":"283fe0ed-0eb5-405b-8867-21111f85c3b1","system_id":"levelo_inurba_marseille","lat":43.31076,"lon":5.38351,"is_reserved":false,"is_disabled":false,"rental_uris":{"android":"levelo://app?vid=283fe0ed-0eb5-405b-8867-21111f85c3b1","ios":"levelo://app?vid=283fe0ed-0eb5-405b-8867-21111f85c3b1"},"vehicle_type_id":"4","last_reported":1751670646,"current_range_meters":20000,"station_id":"ce4bgv92rcd13ifvqcr0","pricing_plan_id":"cebpf4jnsgd1na2vs0mg"},{"bike_id":"2d4bb3a1-801d-486a-a963-9ec8f0a08a83","system_id":"levelo_inurba_marseille","lat":43.30322,"lon":5.40443,"is_reserved":false,"is_disabled":false,"rental_uris":{"android":"levelo://app?vid=2d4bb3a1-801d-486a-a963-9ec8f0a08a83","ios":"levelo://app?vid=2d4bb3a1-801d-486a-a963-9ec8f0a08a83"},"vehicle_type_id":"4","last_reported":1751670646,"current_range_meters":20000,"station_id":"ce4bh012rcd13ifvqd10","pricing_plan_id":"cebpf4jnsgd1na2vs0mg"},{"bike_id":"fac41d09-188b-4331-afcc-667042dfbeac","system_id":"levelo_inurba_marseille","lat":43.28404,"lon":5.37529,"is_reserved":false,"is_disabled":false,"rental_uris":{"android":"levelo://app?vid=fac41d09-188b-4331-afcc-667042dfbeac","ios":"levelo://app?vid=fac41d09-188b-4331-afcc-667042dfbeac"},"vehicle_type_id":"4","last_reported":1751670646,"current_range_meters":20000,"station_id":"ce4bh412rcd13ifvqds0","pricing_plan_id":"cebpf4jnsgd1na2vs0mg"},{"bike_id":"5623b533-8d89-4a1c-ba31-86a046ee05f4","system_id":"levelo_inurba_marseille","lat":43.2808,"lon":5.39653,"is_reserved":false,"is_disabled":false,"rental_uris":{"android":"levelo://app?vid=5623b533-8d89-4a1c-ba31-86a046ee05f4","ios":"levelo://app?vid=5623b533-8d89-4a1c-ba31-86a046ee05f4"},"vehicle_type_id":"4","last_reported":1751670646,"current_range_meters":20000,"station_id":"ce4bho12rcd13ifvqh2g","pricing_plan_id":"cebpf4jnsgd1na2vs0mg"},{"bike_id":"a29b2a57-b38c-4848-a0fe-426648358a6d","system_id":"levelo_inurba_marseille","lat":43.2844,"lon":5.3918,"is_reserved":false,"is_disabled":false,"rental_uris":{"android":"levelo://app?vid=a29b2a57-b38c-4848-a0fe-426648358a6d","ios":"levelo://app?vid=a29b2a57-b38c-4848-a0fe-426648358a6d"},"vehicle_type_id":"4","last_reported":1751670646,"current_range_meters":20000,"station_id":"ce4bhoh2rcd13ifvqh5g","pricing_plan_id":"cebpf4jnsgd1na2vs0mg"},{"bike_id":"452e8211-4f44-45d0-814a-3e9e25b8c44e","system_id":"levelo_inurba_marseille","lat":43.211901,"lon":5.350742,"is_reserved":false,"is_disabled":false,"rental_uris":{"android":"levelo://app?vid=452e8211-4f44-45d0-814a-3e9e25b8c44e","ios":"levelo://app?vid=452e8211-4f44-45d0-814a-3e9e25b8c44e"},"vehicle_type_id":"4","last_reported":1751670646,"current_range_meters":20000,"station_id":"st_cvj6sg6p6f1abm77japg","pricing_plan_id":"cebpf4jnsgd1na2vs0mg"},{"bike_id":"3e5538a0-2705-4962-b20c-bc8979481f05","system_id":"levelo_inurba_marseille","lat":43.31365,"lon":5.384962,"is_reserved":false,"is_disabled":false,"rental_uris":{"android":"levelo://app?vid=3e5538a0-2705-4962-b20c-bc8979481f05","ios":"levelo://app?vid=3e5538a0-2705-4962-b20c-bc8979481f05"},"vehicle_type_id":"4","last_reported":1751670646,"current_range_meters":20400,"station_id":"ce4bgt92rcd13ifvqcf0","pricing_plan_id":"cebpf4jnsgd1na2vs0mg"},{"bike_id":"01454992-b9a8-41cd-b021-839091691696","system_id":"levelo_inurba_marseille","lat":43.306383,"lon":5.400705,"is_reserved":false,"is_disabled":false,"rental_uris":{"android":"levelo://app?vid=01454992-b9a8-41cd-b021-839091691696","ios":"levelo://app?vid=01454992-b9a8-41cd-b021-839091691696"},"vehicle_type_id":"4","last_reported":1751670646,"current_range_meters":20400,"station_id":"ce4bh112rcd13ifvqda0","pricing_plan_id":"cebpf4jnsgd1na2vs0mg"},{"bike_id":"1cbcf353-d0e0-4338-a0b1-153a13ab7c1a","system_id":"levelo_inurba_marseille","lat":43.29189,"lon":5.3932,"is_reserved":false,"is_disabled":false,"rental_uris":{"android":"levelo://app?vid=1cbcf353-d0e0-4338-a0b1-153a13ab7c1a","ios":"levelo://app?vid=1cbcf353-d0e0-4338-a0b1-153a13ab7c1a"},"vehicle_type_id":"4","last_reported":1751670646,"current_range_meters":20400,"station_id":"ce4bh192rcd13ifvqdd0","pricing_plan_id":"cebpf4jnsgd1na2vs0mg"},{"bike_id":"66b88d46-c508-4122-afd4-d092fa559745","system_id":"levelo_inurba_marseille","lat":43.29036,"lon":5.37566,"is_reserved":false,"is_disabled":false,"rental_uris":{"android":"levelo://app?vid=66b88d46-c508-4122-afd4-d092fa559745","ios":"levelo://app?vid=66b88d46-c508-4122-afd4-d092fa559745"},"vehicle_type_id":"4","last_reported":1751670646,"current_range_meters":20400,"station_id":"ce4bh692rcd13ifvqe90","pricing_plan_id":"cebpf4jnsgd1na2vs0mg"},{"bike_id":"04833795-efbc-44ed-8d26-a95297b26ad6","system_id":"levelo_inurba_marseille","lat":43.25084,"lon":5.39532,"is_reserved":false,"is_disabled":false,"rental_uris":{"android":"levelo://app?vid=04833795-efbc-44ed-8d26-a95297b26ad6","ios":"levelo://app?vid=04833795-efbc-44ed-8d26-a95297b26ad6"},"vehicle_type_id":"4","last_reported":1751670646,"current_range_meters":20400,"station_id":"ce4bhm12rcd13ifvqgkg","pricing_plan_id":"cebpf4jnsgd1na2vs0mg"},{"bike_id":"f4014af3-6f05-416d-9154-ce76f684dda3","system_id":"levelo_inurba_marseille","lat":43.27495,"lon":5.42454,"is_reserved":false,"is_disabled":false,"rental_uris":{"android":"levelo://app?vid=f4014af3-6f05-416d-9154-ce76f684dda3","ios":"levelo://app?vid=f4014af3-6f05-416d-9154-ce76f684dda3"},"vehicle_type_id":"4","last_reported":1751670646,"current_range_meters":20400,"station_id":"ce4bhn92rcd13ifvqgrg","pricing_plan_id":"cebpf4jnsgd1na2vs0mg"},{"bike_id":"bfd442a7-2742-451e-9ad9-c8352560f603","system_id":"levelo_inurba_marseille","lat":43.28143,"lon":5.42676,"is_reserved":false,"is_disabled":false,"rental_uris":{"android":"levelo://app?vid=bfd442a7-2742-451e-9ad9-c8352560f603","ios":"levelo://app?vid=bfd442a7-2742-451e-9ad9-c8352560f603"},"vehicle_type_id":"4","last_reported":1751670646,"current_range_meters":20400,"station_id":"ce4bhnh2rcd13ifvqgug","pricing_plan_id":"cebpf4jnsgd1na2vs0mg"},{"bike_id":"655a110d-474d-43b1-a203-d9e462e1a783","system_id":"levelo_inurba_marseille","lat":43.21187,"lon":5.35082,"is_reserved":false,"is_disabled":false,"rental_uris":{"android":"levelo://app?vid=655a110d-474d-43b1-a203-d9e462e1a783","ios":"levelo://app?vid=655a110d-474d-43b1-a203-d9e462e1a783"},"vehicle_type_id":"4","last_reported":1751670646,"current_range_meters":20400,"station_id":"st_cvj6sg6p6f1abm77japg","pricing_plan_id":"cebpf4jnsgd1na2vs0mg"},{"bike_id":"2877a213-2b1a-41fe-820d-17bb87b7345a","system_id":"levelo_inurba_marseille","lat":43.295245,"lon":5.38535,"is_reserved":false,"is_disabled":false,"rental_uris":{"android":"levelo://app?vid=2877a213-2b1a-41fe-820d-17bb87b7345a","ios":"levelo://app?vid=2877a213-2b1a-41fe-820d-17bb87b7345a"},"vehicle_type_id":"4","last_reported":1751670646,"current_range_meters":20800,"station_id":"ce4bgih2rcd13ifvqba0","pricing_plan_id":"cebpf4jnsgd1na2vs0mg"},{"bike_id":"b62921df-9881-4b65-b43f-010febc7e776","system_id":"levelo_inurba_marseille","lat":43.29538,"lon":5.38545,"is_reserved":false,"is_disabled":false,"rental_uris":{"android":"levelo://app?vid=b62921df-9881-4b65-b43f-010febc7e776","ios":"levelo://app?vid=b62921df-9881-4b65-b43f-010febc7e776"},"vehicle_type_id":"4","last_reported":1751670646,"current_range_meters":20800,"station_id":"ce4bgih2rcd13ifvqba0","pricing_plan_id":"cebpf4jnsgd1na2vs0mg"},{"bike_id":"b3cf8a17-f06e-466c-8ee9-b801560a6da3","system_id":"levelo_inurba_marseille","lat":43.29875,"lon":5.39734,"is_reserved":false,"is_disabled":false,"rental_uris":{"android":"levelo://app?vid=b3cf8a17-f06e-466c-8ee9-b801560a6da3","ios":"levelo://app?vid=b3cf8a17-f06e-466c-8ee9-b801560a6da3"},"vehicle_type_id":"4","last_reported":1751670646,"current_range_meters":20800,"station_id":"ce4bh0h2rcd13ifvqd50","pricing_plan_id":"cebpf4jnsgd1na2vs0mg"},{"bike_id":"6486e142-ca76-4b7f-83a7-accbb19cbe42","system_id":"levelo_inurba_marseille","lat":43.29813,"lon":5.40409,"is_reserved":false,"is_disabled":false,"rental_uris":{"android":"levelo://app?vid=6486e142-ca76-4b7f-83a7-accbb19cbe42","ios":"levelo://app?vid=6486e142-ca76-4b7f-83a7-accbb19cbe42"},"vehicle_type_id":"4","last_reported":1751670646,"current_range_meters":20800,"station_id":"ce4bh112rcd13ifvqd90","pricing_plan_id":"cebpf4jnsgd1na2vs0mg"},{"bike_id":"0e000d55-ddd0-4bd6-938f-b700b41c57f3","system_id":"levelo_inurba_marseille","lat":43.29042,"lon":5.39973,"is_reserved":false,"is_disabled":false,"rental_uris":{"android":"levelo://app?vid=0e000d55-ddd0-4bd6-938f-b700b41c57f3","ios":"levelo://app?vid=0e000d55-ddd0-4bd6-938f-b700b41c57f3"},"vehicle_type_id":"4","last_reported":1751670646,"current_range_meters":20800,"station_id":"ce4bh392rcd13ifvqdm0","pricing_plan_id":"cebpf4jnsgd1na2vs0mg"},{"bike_id":"ac51fe21-b7f4-4d71-8d04-f8994b861f6a","system_id":"levelo_inurba_marseille","lat":43.32339,"lon":5.40618,"is_reserved":false,"is_disabled":false,"rental_uris":{"android":"levelo://app?vid=ac51fe21-b7f4-4d71-8d04-f8994b861f6a","ios":"levelo://app?vid=ac51fe21-b7f4-4d71-8d04-f8994b861f6a"},"vehicle_type_id":"4","last_reported":1751670646,"current_range_meters":20800,"station_id":"ce4bhq92rcd13ifvqhjg","pricing_plan_id":"cebpf4jnsgd1na2vs0mg"},{"bike_id":"8bf0d992-d2a0-428e-940a-091ee9b7c2a4","system_id":"levelo_inurba_marseille","lat":43.21199,"lon":5.35049,"is_reserved":false,"is_disabled":false,"rental_uris":{"android":"levelo://app?vid=8bf0d992-d2a0-428e-940a-091ee9b7c2a4","ios":"levelo://app?vid=8bf0d992-d2a0-428e-940a-091ee9b7c2a4"},"vehicle_type_id":"4","last_reported":1751670646,"current_range_meters":20800,"station_id":"st_cvj6sg6p6f1abm77japg","pricing_plan_id":"cebpf4jnsgd1na2vs0mg"},{"bike_id":"700fddf2-2189-420b-8b18-4d99d321fee5","system_id":"levelo_inurba_marseille","lat":43.28305,"lon":5.43198,"is_reserved":false,"is_disabled":false,"rental_uris":{"android":"levelo://app?vid=700fddf2-2189-420b-8b18-4d99d321fee5","ios":"levelo://app?vid=700fddf2-2189-420b-8b18-4d99d321fee5"},"vehicle_type_id":"4","last_reported":1751670646,"current_range_meters":21600,"station_id":"","pricing_plan_id":"cebpf4jnsgd1na2vs0mg"},{"bike_id":"be70733f-5994-4284-97b7-fe05b000c0ca","system_id":"levelo_inurba_marseille","lat":43.303538,"lon":5.386159,"is_reserved":false,"is_disabled":false,"rental_uris":{"android":"levelo://app?vid=be70733f-5994-4284-97b7-fe05b000c0ca","ios":"levelo://app?vid=be70733f-5994-4284-97b7-fe05b000c0ca"},"vehicle_type_id":"4","last_reported":1751670646,"current_range_meters":21600,"station_id":"ce4bgth2rcd13ifvqch0","pricing_plan_id":"cebpf4jnsgd1na2vs0mg"},{"bike_id":"df4c69f6-9711-49d2-83d2-3d91f7bba0dd","system_id":"levelo_inurba_marseille","lat":43.30929,"lon":5.40145,"is_reserved":false,"is_disabled":false,"rental_uris":{"android":"levelo://app?vid=df4c69f6-9711-49d2-83d2-3d91f7bba0dd","ios":"levelo://app?vid=df4c69f6-9711-49d2-83d2-3d91f7bba0dd"},"vehicle_type_id":"4","last_reported":1751670646,"current_range_meters":21600,"station_id":"ce4bgvp2rcd13ifvqct0","pricing_plan_id":"cebpf4jnsgd1na2vs0mg"},{"bike_id":"6fe7a6fa-6776-4f46-85d8-557bbcb1a86b","system_id":"levelo_inurba_marseille","lat":43.26569,"lon":5.39007,"is_reserved":false,"is_disabled":false,"rental_uris":{"android":"levelo://app?vid=6fe7a6fa-6776-4f46-85d8-557bbcb1a86b","ios":"levelo://app?vid=6fe7a6fa-6776-4f46-85d8-557bbcb1a86b"},"vehicle_type_id":"4","last_reported":1751670646,"current_range_meters":21600,"station_id":"ce4bhe12rcd13ifvqf30","pricing_plan_id":"cebpf4jnsgd1na2vs0mg"},{"bike_id":"3f42d61a-5d16-457d-a3ca-1dd2da287f64","system_id":"levelo_inurba_marseille","lat":43.23181,"lon":5.39991,"is_reserved":false,"is_disabled":false,"rental_uris":{"android":"levelo://app?vid=3f42d61a-5d16-457d-a3ca-1dd2da287f64","ios":"levelo://app?vid=3f42d61a-5d16-457d-a3ca-1dd2da287f64"},"vehicle_type_id":"4","last_reported":1751670646,"current_range_meters":21600,"station_id":"ce4bhn12rcd13ifvqgqg","pricing_plan_id":"cebpf4jnsgd1na2vs0mg"},