{"last_updated":1737954558,"ttl":60,"version":"2.2","data":{"bikes":[{"bike_id":"b4587cac-60ec-4591-9a76-4cc1ca89059a","system_id":"levelo_inurba_marseille","lat":43.28614,"lon":5.351,"is_reserved":false,"is_disabled":false,"rental_uris":{"android":"levelo://app?vid=b4587cac-60ec-4591-9a76-4cc1ca89059a","ios":"levelo://app?vid=b4587cac-60ec-4591-9a76-4cc1ca89059a"},"vehicle_type_id":"4","last_reported":1737954558,"current_range_meters":36800,"station_id":"ce4bhch2rcd13ifvqeug","pricing_plan_id":"cebpf4jnsgd1na2vs0mg"},{"bike_id":"c306d3a7-dc95-4f89-bcc6-c7a3a0a0711e","system_id":"levelo_inurba_marseille","lat":43.29535,"lon":5.39042,"is_reserved":false,"is_disabled":false,"rental_uris":{"android":"levelo://app?vid=c306d3a7-dc95-4f89-bcc6-c7a3a0a0711e","ios":"levelo://app?vid=c306d3a7-dc95-4f89-bcc6-c7a3a0a0711e"},"vehicle_type_id":"4","last_reported":1737954558,"current_range_meters":33600,"station_id":"ce4bh3p2rcd13ifvqdp0","pricing_plan_id":"cebpf4jnsgd1na2vs0mg"},{"bike_id":"437b4119-4c95-43d5-a637-fa77eb57e74a","system_id":"levelo_inurba_marseille","lat":43.3047,"lon":5.379,"is_reserved":false,"is_disabled":false,"rental_uris":{"android":"levelo://app?vid=437b4119-4c95-43d5-a637-fa77eb57e74a","ios":"levelo://app?vid=437b4119-4c95-43d5-a637-fa77eb57e74a"},"vehicle_type_id":"4","last_reported":1737954558,"current_range_meters":26800,"station_id":"ce4bgup2rcd13ifvqcn0","pricing_plan_id":"cebpf4jnsgd1na2vs0mg"},{"bike_id":"8c51c185-92d9-49cb-92e4-df441f14e6f9","system_id":"levelo_inurba_marseille","lat":43.29006,"lon":5.35595,"is_reserved":false,"is_disabled":false,"rental_uris":{"android":"levelo://app?vid=8c51c185-92d9-49cb-92e4-df441f14e6f9","ios":"levelo://app?vid=8c51c185-92d9-49cb-92e4-df441f14e6f9"},"vehicle_type_id":"4","last_reported":1737954558,"current_range_meters":6000,"station_id":"ce4bhb92rcd13ifvqen0","pricing_plan_id":"cebpf4jnsgd1na2vs0mg"},{"bike_id":"22fdda07-29f7-4097-aa7c-457566d3caba","system_id":"levelo_inurba_marseille","lat":43.250784,"lon":5.395431,"is_reserved":false,"is_disabled":false,"rental_uris":{"android":"levelo://app?vid=22fdda07-29f7-4097-aa7c-457566d3caba","ios":"levelo://app?vid=22fdda07-29f7-4097-aa7c-457566d3caba"},"vehicle_type_id":"4","last_reported":1737954558,"current_range_meters":23200,"station_id":"ce4bhm12rcd13ifvqgkg","pricing_plan_id":"cebpf4jnsgd1na2vs0mg"},{"bike_id":"d44c0e7f-f74f-4a6e-af97-909a7a560bfe","system_id":"levelo_inurba_marseille","lat":43.2782,"lon":5.40711,"is_reserved":false,"is_disabled":false,"rental_uris":{"android":"levelo://app?vid=d44c0e7f-f74f-4a6e-af97-909a7a560bfe","ios":"levelo://app?vid=d44c0e7f-f74f-4a6e-af97-909a7a560bfe"},"vehicle_type_id":"4","last_reported":1737954558,"current_range_meters":38800,"station_id":"ce4bhnh2rcd13ifvqgtg","pricing_plan_id":"cebpf4jnsgd1na2vs0mg"},{"bike_id":"4857b4cf-decd-41a9-ade3-4c571462c146","system_id":"levelo_inurba_marseille","lat":43.25399,"lon":5.41901,"is_reserved":false,"is_disabled":true,"rental_uris":{"android":"levelo://app?vid=4857b4cf-decd-41a9-ade3-4c571462c146","ios":"levelo://app?vid=4857b4cf-decd-41a9-ade3-4c571462c146"},"vehicle_type_id":"4","last_reported":1737954558,"current_range_meters":0,"station_id":"","pricing_plan_id":"cebpf4jnsgd1na2vs0mg"},{"bike_id":"dee161fe-82c1-4855-9bd7-e7193193e749","system_id":"levelo_inurba_marseille","lat":43.31711,"lon":5.43702,"is_reserved":false,"is_disabled":false,"rental_uris":{"android":"levelo://app?vid=dee161fe-82c1-4855-9bd7-e7193193e749","ios":"levelo://app?vid=dee161fe-82c1-4855-9bd7-e7193193e749"},"vehicle_type_id":"4","last_reported":1737954558,"current_range_meters":38400,"station_id":"ce4bhp92rcd13ifvqhcg","pricing_plan_id":"cebpf4jnsgd1na2vs0mg"},{"bike_id":"58d9e3df-28a3-4560-b2cd-4d33fefbd544","system_id":"levelo_inurba_marseille","lat":43.28357,"lon":5.38138,"is_reserved":false,"is_disabled":true,"rental_uris":{"android":"levelo://app?vid=58d9e3df-28a3-4560-b2cd-4d33fefbd544","ios":"levelo://app?vid=58d9e3df-28a3-4560-b2cd-4d33fefbd544"},"vehicle_type_id":"4","last_reported":1737954558,"current_range_meters":13600,"station_id":"ce4bh412rcd13ifvqdr0","pricing_plan_id":"cebpf4jnsgd1na2vs0mg"},{"bike_id":"fa5cc696-fa74-45d7-9894-bb340f9342a9","system_id":"levelo_inurba_marseille","lat":43.2866,"lon":5.36316,"is_reserved":false,"is_disabled":true,"rental_uris":{"android":"levelo://app?vid=fa5cc696-fa74-45d7-9894-bb340f9342a9","ios":"levelo://app?vid=fa5cc696-fa74-45d7-9894-bb340f9342a9"},"vehicle_type_id":"4","last_reported":1737954558,"current_range_meters":0,"station_id":"ce4bhah2rcd13ifvqej0","pricing_plan_id":"cebpf4jnsgd1na2vs0mg"},{"bike_id":"413f166e-cb54-4422-9d9a-1ad87b795b94","system_id":"levelo_inurba_marseille","lat":43.23184,"lon":5.39949,"is_reserved":false,"is_disabled":false,"rental_uris":{"android":"levelo://app?vid=413f166e-cb54-4422-9d9a-1ad87b795b94","ios":"levelo://app?vid=413f166e-cb54-4422-9d9a-1ad87b795b94"},"vehicle_type_id":"4","last_reported":1737954558,"current_range_meters":38000,"station_id":"ce4bhn12rcd13ifvqgqg","pricing_plan_id":"cebpf4jnsgd1na2vs0mg"},{"bike_id":"d48c5a28-3877-434f-a0d4-71f4eb2eb2cc","system_id":"levelo_inurba_marseille","lat":43.31332,"lon":5.39694,"is_reserved":false,"is_disabled":false,"rental_uris":{"android":"levelo://app?vid=d48c5a28-3877-434f-a0d4-71f4eb2eb2cc","ios":"levelo://app?vid=d48c5a28-3877-434f-a0d4-71f4eb2eb2cc"},"vehicle_type_id":"4","last_reported":1737954558,"current_range_meters":27200,"station_id":"ce4bgvp2rcd13ifvqcu0","pricing_plan_id":"cebpf4jnsgd1na2vs0mg"},{"bike_id":"984f7c78-4e5e-495f-9ca7-c8bc0d84b6d5","system_id":"levelo_inurba_marseille","lat":43.32185,"lon":5.38125,"is_reserved":false,"is_disabled":false,"rental_uris":{"android":"levelo://app?vid=984f7c78-4e5e-495f-9ca7-c8bc0d84b6d5","ios":"levelo://app?vid=984f7c78-4e5e-495f-9ca7-c8bc0d84b6d5"},"vehicle_type_id":"4","last_reported":1737954558,"current_range_meters":38800,"station_id":"ce4bhr12rcd13ifvqhqg","pricing_plan_id":"cebpf4jnsgd1na2vs0mg"},{"bike_id":"de56ca13-d6b6-4b57-8a84-aecab89f144c","system_id":"levelo_inurba_marseille","lat":43.31527,"lon":5.38016,"is_reserved":false,"is_disabled":false,"rental_uris":{"android":"levelo://app?vid=de56ca13-d6b6-4b57-8a84-aecab89f144c","ios":"levelo://app?vid=de56ca13-d6b6-4b57-8a84-aecab89f144c"},"vehicle_type_id":"4","last_reported":1737954558,"current_range_meters":24800,"station_id":"ce4bhsp2rcd13ifvqi50","pricing_plan_id":"cebpf4jnsgd1na2vs0mg"},{"bike_id":"5b6b2e54-c5dd-481f-98d0-6c95af8dd315","system_id":"levelo_inurba_marseille","lat":43.285701,"lon":5.394964,"is_reserved":false,"is_disabled":false,"rental_uris":{"android":"levelo://app?vid=5b6b2e54-c5dd-481f-98d0-6c95af8dd315","ios":"levelo://app?vid=5b6b2e54-c5dd-481f-98d0-6c95af8dd315"},"vehicle_type_id":"4","last_reported":1737954558,"current_range_meters":30000,"station_id":"ce4bh292rcd13ifvqdg0","pricing_plan_id":"cebpf4jnsgd1na2vs0mg"},{"bike_id":"19985da7-c90b-44fc-b1e6-cef44e141335","system_id":"levelo_inurba_marseille","lat":43.308156,"lon":5.381479,"is_reserved":false,"is_disabled":false,"rental_uris":{"android":"levelo://app?vid=19985da7-c90b-44fc-b1e6-cef44e141335","ios":"levelo://app?vid=19985da7-c90b-44fc-b1e6-cef44e141335"},"vehicle_type_id":"4","last_reported":1737954558,"current_range_meters":38800,"station_id":"ce4bgt12rcd13ifvqce0","pricing_plan_id":"cebpf4jnsgd1na2vs0mg"},{"bike_id":"46fec065-56c7-4e2a-8482-80c61674341c","system_id":"levelo_inurba_marseille","lat":43.2817,"lon":5.42645,"is_reserved":false,"is_disabled":false,"rental_uris":{"android":"levelo://app?vid=46fec065-56c7-4e2a-8482-80c61674341c","ios":"levelo://app?vid=46fec065-56c7-4e2a-8482-80c61674341c"},"vehicle_type_id":"4","last_reported":1737954558,"current_range_meters":30800,"station_id":"ce4bhnh2rcd13ifvqgug","pricing_plan_id":"cebpf4jnsgd1na2vs0mg"},{"bike_id":"22fe6381-bfa8-481c-9415-4e6666169356","system_id":"levelo_inurba_marseille","lat":43.2656,"lon":5.39011,"is_reserved":false,"is_disabled":false,"rental_uris":{"android":"levelo://app?vid=22fe6381-bfa8-481c-9415-4e6666169356","ios":"levelo://app?vid=22fe6381-bfa8-481c-9415-4e6666169356"},"vehicle_type_id":"4","last_reported":1737954558,"current_range_meters":28000,"station_id":"ce4bhe12rcd13ifvqf30","pricing_plan_id":"cebpf4jnsgd1na2vs0mg"},{"bike_id":"31986d48-0126-490d-a209-7613f7c2e6a3","system_id":"levelo_inurba_marseille","lat":43.26168,"lon":5.37924,"is_reserved":false,"is_disabled":false,"rental_uris":{"android":"levelo://app?vid=31986d48-0126-490d-a209-7613f7c2e6a3","ios":"levelo://app?vid=31986d48-0126-490d-a209-7613f7c2e6a3"},"vehicle_type_id":"4","last_reported":1737954558,"current_range_meters":37600,"station_id":"ce4bhjp2rcd13ifvqg90","pricing_plan_id":"cebpf4jnsgd1na2vs0mg"},{"bike_id":"457dbd0e-8f95-45e9-8ae6-40b39a5ca596","system_id":"levelo_inurba_marseille","lat":43.23179,"lon":5.35549,"is_reserved":false,"is_disabled":false,"rental_uris":{"android":"levelo://app?vid=457dbd0e-8f95-45e9-8ae6-40b39a5ca596","ios":"levelo://app?vid=457dbd0e-8f95-45e9-8ae6-40b39a5ca596"},"vehicle_type_id":"4","last_reported":1737954558,"current_range_meters":33200,"station_id":"ce4bhu92rcd13ifvqi70","pricing_plan_id":"cebpf4jnsgd1na2vs0mg"},{"bike_id":"d77db00f-908b-4381-ac06-dc3e91b69008","system_id":"levelo_inurba_marseille","lat":43.25593,"lon":5.38244,"is_reserved":false,"is_disabled":false,"rental_uris":{"android":"levelo://app?vid=d77db00f-908b-4381-ac06-dc3e91b69008","ios":"levelo://app?vid=d77db00f-908b-4381-ac06-dc3e91b69008"},"vehicle_type_id":"4","last_reported":1737954558,"current_range_meters":37600,"station_id":"ce4bhih2rcd13ifvqfs0","pricing_plan_id":"cebpf4jnsgd1na2vs0mg"},{"bike_id":"9c901d45-7d5a-4765-aa48-f82f03e112d0","system_id":"levelo_inurba_marseille","lat":43.26211,"lon":5.3794,"is_reserved":false,"is_disabled":false,"rental_uris":{"android":"levelo://app?vid=9c901d45-7d5a-4765-aa48-f82f03e112d0","ios":"levelo://app?vid=9c901d45-7d5a-4765-aa48-f82f03e112d0"},"vehicle_type_id":"4","last_reported":1737954558,"current_range_meters":30800,"station_id":"ce4bhjp2rcd13ifvqg90","pricing_plan_id":"cebpf4jnsgd1na2vs0mg"},{"bike_id":"fe87a798-f89c-45d8-8809-5a1b2847763b","system_id":"levelo_inurba_marseille","lat":43.31186,"lon":5.38694,"is_reserved":false,"is_disabled":false,"rental_uris":{"android":"levelo://app?vid=fe87a798-f89c-45d8-8809-5a1b2847763b","ios":"levelo://app?vid=fe87a798-f89c-45d8-8809-5a1b2847763b"},"vehicle_type_id":"4","last_reported":1737954558,"current_range_meters":38800,"station_id":"ce4bgv12rcd13ifvqcp0","pricing_plan_id":"cebpf4jnsgd1na2vs0mg"},{"bike_id":"d249027f-c553-4ff1-9f7c-498d6709f69a","system_id":"levelo_inurba_marseille","lat":43.28417,"lon":5.349949,"is_reserved":false,"is_disabled":false,"rental_uris":{"android":"levelo://app?vid=d249027f-c553-4ff1-9f7c-498d6709f69a","ios":"levelo://app?vid=d249027f-c553-4ff1-9f7c-498d6709f69a"},"vehicle_type_id":"4","last_reported":1737954558,"current_range_meters":31200,"station_id":"","pricing_plan_id":"cebpf4jnsgd1na2vs0mg"},{"bike_id":"5a6503ca-c2c6-4dbe-a6f7-68e5f1916ac2","system_id":"levelo_inurba_marseille","lat":43.29897,"lon":5.43644,"is_reserved":false,"is_disabled":false,"rental_uris":{"android":"levelo://app?vid=5a6503ca-c2c6-4dbe-a6f7-68e5f1916ac2","ios":"levelo://app?vid=5a6503ca-c2c6-4dbe-a6f7-68e5f1916ac2"},"vehicle_type_id":"4","last_reported":1737954558,"current_range_meters":11600,"station_id":"ce4bhpp2rcd13ifvqhfg","pricing_plan_id":"cebpf4jnsgd1na2vs0mg"},{"bike_id":"d7a23021-1367-4c3a-b7ff-f934a101fa61","system_id":"levelo_inurba_marseille","lat":43.32064,"lon":5.41543,"is_reserved":false,"is_disabled":false,"rental_uris":{"android":"levelo://app?vid=d7a23021-1367-4c3a-b7ff-f934a101fa61","ios":"levelo://app?vid=d7a23021-1367-4c3a-b7ff-f934a101fa61"},"vehicle_type_id":"4","last_reported":1737954558,"current_range_meters":37600,"station_id":"ce4bhq92rcd13ifvqhkg","pricing_plan_id":"cebpf4jnsgd1na2vs0mg"},{"bike_id":"e476cc46-e132-40ab-869e-629ed3b571fe","system_id":"levelo_inurba_marseille","lat":43.27969,"lon":5.41646,"is_reserved":false,"is_disabled":false,"rental_uris":{"android":"levelo://app?vid=e476cc46-e132-40ab-869e-629ed3b571fe","ios":"levelo://app?vid=e476cc46-e132-40ab-869e-629ed3b571fe"},"vehicle_type_id":"4","last_reported":1737954558,"current_range_meters":38800,"station_id":"ce4bho12rcd13ifvqh1g","pricing_plan_id":"cebpf4jnsgd1na2vs0mg"},{"bike_id":"d185c151-66b2-4c0e-be0f-1950a4ae5b3f","system_id":"levelo_inurba_marseille","lat":43.27996,"lon":5.41648,"is_reserved":false,"is_disabled":false,"rental_uris":{"android":"levelo://app?vid=d185c151-66b2-4c0e-be0f-1950a4ae5b3f","ios":"levelo://app?vid=d185c151-66b2-4c0e-be0f-1950a4ae5b3f"},"vehicle_type_id":"4","last_reported":1737954558,"current_range_meters":38800,"station_id":"ce4bho12rcd13ifvqh1g","pricing_plan_id":"cebpf4jnsgd1na2vs0mg"},{"bike_id":"2ed428b3-515b-450e-b73a-7d0d15c43f65","system_id":"levelo_inurba_marseille","lat":43.28424,"lon":5.3917,"is_reserved":false,"is_disabled":false,"rental_uris":{"android":"levelo://app?vid=2ed428b3-515b-450e-b73a-7d0d15c43f65","ios":"levelo://app?vid=2ed428b3-515b-450e-b73a-7d0d15c43f65"},"vehicle_type_id":"4","last_reported":1737954558,"current_range_meters":36400,"station_id":"ce4bhoh2rcd13ifvqh5g","pricing_plan_id":"cebpf4jnsgd1na2vs0mg"},{"bike_id":"e05b826e-7ecd-4d63-bf30-527254ee854c","system_id":"levelo_inurba_marseille","lat":43.3097,"lon":5.39042,"is_reserved":false,"is_disabled":true,"rental_uris":{"android":"levelo://app?vid=e05b826e-7ecd-4d63-bf30-527254ee854c","ios":"levelo://app?vid=e05b826e-7ecd-4d63-bf30-527254ee854c"},"vehicle_type_id":"4","last_reported":1737954558,"current_range_meters":0,"station_id":"ce4bgup2rcd13ifvqco0","pricing_plan_id":"cebpf4jnsgd1na2vs0mg"},{"bike_id":"b18c3ee3-d8f0-411a-a9a1-d1acf9c6cc06","system_id":"levelo_inurba_marseille","lat":43.273177,"lon":5.399314,"is_reserved":false,"is_disabled":false,"rental_uris":{"android":"levelo://app?vid=b18c3ee3-d8f0-411a-a9a1-d1acf9c6cc06","ios":"levelo://app?vid=b18c3ee3-d8f0-411a-a9a1-d1acf9c6cc06"},"vehicle_type_id":"4","last_reported":1737954558,"current_range_meters":22800,"station_id":"","pricing_plan_id":"cebpf4jnsgd1na2vs0mg"},{"bike_id":"cdd3ee8c-8a3d-434f-bbab-69b040fa03ea","system_id":"levelo_inurba_marseille","lat":43.31992,"lon":5.38146,"is_reserved":false,"is_disabled":false,"rental_uris":{"android":"levelo://app?vid=cdd3ee8c-8a3d-434f-bbab-69b040fa03ea","ios":"levelo://app?vid=cdd3ee8c-8a3d-434f-bbab-69b040fa03ea"},"vehicle_type_id":"4","last_reported":1737954558,"current_range_meters":38800,"station_id":"ce4bhr12rcd13ifvqhpg","pricing_plan_id":"cebpf4jnsgd1na2vs0mg"},{"bike_id":"5dc1f5fb-eda0-4754-be51-924e7e057635","system_id":"levelo_inurba_marseille","lat":43.31071,"lon":5.38352,"is_reserved":false,"is_disabled":false,"rental_uris":{"android":"levelo://app?vid=5dc1f5fb-eda0-4754-be51-924e7e057635","ios":"levelo://app?vid=5dc1f5fb-eda0-4754-be51-924e7e057635"},"vehicle_type_id":"4","last_reported":1737954558,"current_range_meters":19600,"station_id":"ce4bgv92rcd13ifvqcr0","pricing_plan_id":"cebpf4jnsgd1na2vs0mg"},{"bike_id":"ded30a15-60c7-424f-bd25-30f2ce3fe1bd","system_id":"levelo_inurba_marseille","lat":43.28857,"lon":5.39344,"is_reserved":false,"is_disabled":false,"rental_uris":{"android":"levelo://app?vid=ded30a15-60c7-424f-bd25-30f2ce3fe1bd","ios":"levelo://app?vid=ded30a15-60c7-424f-bd25-30f2ce3fe1bd"},"vehicle_type_id":"4","last_reported":1737954558,"current_range_meters":34800,"station_id":"ce4bh2p2rcd13ifvqdi0","pricing_plan_id":"cebpf4jnsgd1na2vs0mg"},{"bike_id":"bb9df935-971d-48fe-841d-0dade0ac91aa","system_id":"levelo_inurba_marseille","lat":43.29512,"lon":5.38549,"is_reserved":false,"is_disabled":true,"rental_uris":{"android":"levelo://app?vid=bb9df935-971d-48fe-841d-0dade0ac91aa","ios":"levelo://app?vid=bb9df935-971d-48fe-841d-0dade0ac91aa"},"vehicle_type_id":"4","last_reported":1737954558,"current_range_meters":28000,"station_id":"ce4bgih2rcd13ifvqba0","pricing_plan_id":"cebpf4jnsgd1na2vs0mg"},{"bike_id":"ea63cb8b-d27c-4283-95de-c25b5e4840c8","system_id":"levelo_inurba_marseille","lat":43.284,"lon":5.37536,"is_reserved":false,"is_disabled":false,"rental_uris":{"android":"levelo://app?vid=ea63cb8b-d27c-4283-95de-c25b5e4840c8","ios":"levelo://app?vid=ea63cb8b-d27c-4283-95de-c25b5e4840c8"},"vehicle_type_id":"4","last_reported":1737954558,"current_range_meters":30000,"station_id":"ce4bh412rcd13ifvqds0","pricing_plan_id":"cebpf4jnsgd1na2vs0mg"},{"bike_id":"83da65c4-2ec2-4c74-b372-2a927e4740de","system_id":"levelo_inurba_marseille","lat":43.31703,"lon":5.43702,"is_reserved":false,"is_disabled":false,"rental_uris":{"android":"levelo://app?vid=83da65c4-2ec2-4c74-b372-2a927e4740de","ios":"levelo://app?vid=83da65c4-2ec2-4c74-b372-2a927e4740de"},"vehicle_type_id":"4","last_reported":1737954558,"current_range_meters":17200,"station_id":"ce4bhp92rcd13ifvqhcg","pricing_plan_id":"cebpf4jnsgd1na2vs0mg"},{"bike_id":"3a1a73c2-8e20-4664-94d7-51ec33b03a48","system_id":"levelo_inurba_marseille","lat":43.23186,"lon":5.39984,"is_reserved":false,"is_disabled":false,"rental_uris":{"android":"levelo://app?vid=3a1a73c2-8e20-4664-94d7-51ec33b03a48","ios":"levelo://app?vid=3a1a73c2-8e20-4664-94d7-51ec33b03a48"},"vehicle_type_id":"4","last_reported":1737954558,"current_range_meters":16000,"station_id":"ce4bhn12rcd13ifvqgqg","pricing_plan_id":"cebpf4jnsgd1na2vs0mg"},{"bike_id":"73fb0499-6b1c-4055-b0cb-b2aed22aaa10","system_id":"levelo_inurba_marseille","lat":43.239615,"lon":5.3664,"is_reserved":false,"is_disabled":false,"rental_uris":{"android":"levelo://app?vid=73fb0499-6b1c-4055-b0cb-b2aed22aaa10","ios":"levelo://app?vid=73fb0499-6b1c-4055-b0cb-b2aed22aaa10"},"vehicle_type_id":"4","last_reported":1737954558,"current_range_meters":38800,"station_id":"ce4bhi12rcd13ifvqfp0","pricing_plan_id":"cebpf4jnsgd1na2vs0mg"},{"bike_id":"054b7e8e-8389-4168-b0c3-4f7205cd402d","system_id":"levelo_inurba_marseille","lat":43.318878,"lon":5.407285,"is_reserved":false,"is_disabled":false,"rental_uris":{"android":"levelo://app?vid=054b7e8e-8389-4168-b0c3-4f7205cd402d","ios":"levelo://app?vid=054b7e8e-8389-4168-b0c3-4f7205cd402d"},"vehicle_type_id":"4","last_reported":1737954558,"current_range_meters":38800,"station_id":"ce4bhq12rcd13ifvqhig","pricing_plan_id":"cebpf4jnsgd1na2vs0mg"},{"bike_id":"94715de2-fa07-4f8d-b344-dd8862c3fe6d","system_id":"levelo_inurba_marseille","lat":43.30952,"lon":5.37234,"is_reserved":false,"is_disabled":false,"rental_uris":{"android":"levelo://app?vid=94715de2-fa07-4f8d-b344-dd8862c3fe6d","ios":"levelo://app?vid=94715de2-fa07-4f8d-b344-dd8862c3fe6d"},"vehicle_type_id":"4","last_reported":1737954558,"current_range_meters":8000,"station_id":"","pricing_plan_id":"cebpf4jnsgd1na2vs0mg"},{"bike_id":"f9dea65f-080b-42c9-8d55-bd6748fb1c63","system_id":"levelo_inurba_marseille","lat":43.310679,"lon":5.383479,"is_reserved":false,"is_disabled":false,"rental_uris":{"android":"levelo://app?vid=f9dea65f-080b-42c9-8d55-bd6748fb1c63","ios":"levelo://app?vid=f9dea65f-080b-42c9-8d55-bd6748fb1c63"},"vehicle_type_id":"4","last_reported":1737954558,"current_range_meters":38400,"station_id":"ce4bgv92rcd13ifvqcr0","pricing_plan_id":"cebpf4jnsgd1na2vs0mg"},{"bike_id":"2990ac0a-d6ce-48cf-8c2e-15129d853cd2","system_id":"levelo_inurba_marseille","lat":43.29536,"lon":5.38548,"is_reserved":false,"is_disabled":true,"rental_uris":{"android":"levelo://app?vid=2990ac0a-d6ce-48cf-8c2e-15129d853cd2","ios":"levelo://app?vid=2990ac0a-d6ce-48cf-8c2e-15129d853cd2"},"vehicle_type_id":"4","last_reported":1737954558,"current_range_meters":36400,"station_id":"ce4bgih2rcd13ifvqba0","pricing_plan_id":"cebpf4jnsgd1na2vs0mg"},{"bike_id":"8b24ee26-2ef3-43bc-a61f-7dad385fa3a7","system_id":"levelo_inurba_marseille","lat":43.26704,"lon":5.38259,"is_reserved":false,"is_disabled":true,"rental_uris":{"android":"levelo://app?vid=8b24ee26-2ef3-43bc-a61f-7dad385fa3a7","ios":"levelo://app?vid=8b24ee26-2ef3-43bc-a61f-7dad385fa3a7"},"vehicle_type_id":"4","last_reported":1737954558,"current_range_meters":1600,"station_id":"ce4bhg92rcd13ifvqf90","pricing_plan_id":"cebpf4jnsgd1na2vs0mg"},{"bike_id":"ccd2d9f3-767b-4dd6-81d0-5a4e261d61fa","system_id":"levelo_inurba_marseille","lat":43.32344,"lon":5.40616,"is_reserved":false,"is_disabled":false,"rental_uris":{"android":"levelo://app?vid=ccd2d9f3-767b-4dd6-81d0-5a4e261d61fa","ios":"levelo://app?vid=ccd2d9f3-767b-4dd6-81d0-5a4e261d61fa"},"vehicle_type_id":"4","last_reported":1737954558,"current_range_meters":36800,"station_id":"ce4bhq92rcd13ifvqhjg","pricing_plan_id":"cebpf4jnsgd1na2vs0mg"},{"bike_id":"a0eebbff-d2e9-446c-9e6a-814664201a71","system_id":"levelo_inurba_marseille","lat":43.33099,"lon":5.40862,"is_reserved":false,"is_disabled":false,"rental_uris":{"android":"levelo://app?vid=a0eebbff-d2e9-446c-9e6a-814664201a71","ios":"levelo://app?vid=a0eebbff-d2e9-446c-9e6a-814664201a71"},"vehicle_type_id":"4","last_reported":1737954558,"current_range_meters":7200,"station_id":"","pricing_plan_id":"cebpf4jnsgd1na2vs0mg"},{"bike_id":"7b764a37-86ae-4506-bf6b-9f8ff35451d3","system_id":"levelo_inurba_marseille","lat":43.23203,"lon":5.35554,"is_reserved":false,"is_disabled":false,"rental_uris":{"android":"levelo://app?vid=7b764a37-86ae-4506-bf6b-9f8ff35451d3","ios":"levelo://app?vid=7b764a37-86ae-4506-bf6b-9f8ff35451d3"},"vehicle_type_id":"4","last_reported":1737954558,"current_range_meters":9600,"station_id":"ce4bhu92rcd13ifvqi70","pricing_plan_id":"cebpf4jnsgd1na2vs0mg"},{"bike_id":"5de3a2ff-e22b-4d37-a51c-f4f2c9cb3dbc","system_id":"levelo_inurba_marseille","lat":43.32363,"lon":5.38881,"is_reserved":false,"is_disabled":false,"rental_uris":{"android":"levelo://app?vid=5de3a2ff-e22b-4d37-a51c-f4f2c9cb3dbc","ios":"levelo://app?vid=5de3a2ff-e22b-4d37-a51c-f4f2c9cb3dbc"},"vehicle_type_id":"4","last_reported":1737954558,"current_range_meters":17200,"station_id":"ce4bhqp2rcd13ifvqhog","pricing_plan_id":"cebpf4jnsgd1na2vs0mg"},{"bike_id":"707291c0-801f-4378-b622-04349833c400","system_id":"levelo_inurba_marseille","lat":43.289356,"lon":5.366271,"is_reserved":false,"is_disabled":true,"rental_uris":{"android":"levelo://app?vid=707291c0-801f-4378-b622-04349833c400","ios":"levelo://app?vid=707291c0-801f-4378-b622-04349833c400"},"vehicle_type_id":"4","last_reported":1737954558,"current_range_meters":31200,"station_id":"ce4bhap2rcd13ifvqek0","pricing_plan_id":"cebpf4jnsgd1na2vs0mg"},{"bike_id":"c998a431-fe7c-4694-a808-6e4ab347c702","system_id":"levelo_inurba_marseille","lat":43.24646,"lon":5.38889,"is_reserved":false,"is_disabled":false,"rental_uris":{"android":"levelo://app?vid=c998a431-fe7c-4694-a808-6e4ab347c702","ios":"levelo://app?vid=c998a431-fe7c-4694-a808-6e4ab347c702"},"vehicle_type_id":"4","last_reported":1737954558,"current_range_meters":38400,"station_id":"ce4bhg12rcd13ifvqf60","pricing_plan_id":"cebpf4jnsgd1na2vs0mg"},{"bike_id":"363f654c-f4f7-4562-a14f-7a356471ed3e","system_id":"levelo_inurba_marseille","lat":43.323375,"lon":5.406185,"is_reserved":false,"is_disabled":false,"rental_uris":{"android":"levelo://app?vid=363f654c-f4f7-4562-a14f-7a356471ed3e","ios":"levelo://app?vid=363f654c-f4f7-4562-a14f-7a356471ed3e"},"vehicle_type_id":"4","last_reported":1737954558,"current_range_meters":12400,"station_id":"ce4bhq92rcd13ifvqhjg","pricing_plan_id":"cebpf4jnsgd1na2vs0mg"},{"bike_id":"c2cb7fc3-be16-4b92-b1d5-cf7555bc5e02","system_id":"levelo_inurba_marseille","lat":43.27077,"lon":5.42258,"is_reserved":false,"is_disabled":false,"rental_uris":{"android":"levelo://app?vid=c2cb7fc3-be16-4b92-b1d5-cf7555bc5e02","ios":"levelo://app?vid=c2cb7fc3-be16-4b92-b1d5-cf7555bc5e02"},"vehicle_type_id":"4","last_reported":1737954558,"current_range_meters":39200,"station_id":"ce4bhk92rcd13ifvqgb0","pricing_plan_id":"cebpf4jnsgd1na2vs0mg"},{"bike_id":"91248acd-5261-453c-b5c9-6960b0e9de7b","system_id":"levelo_inurba_marseille","lat":43.292795,"lon":5.374575,"is_reserved":false,"is_disabled":true,"rental_uris":{"android":"levelo://app?vid=91248acd-5261-453c-b5c9-6960b0e9de7b","ios":"levelo://app?vid=91248acd-5261-453c-b5c9-6960b0e9de7b"},"vehicle_type_id":"4","last_reported":1737954558,"current_range_meters":11600,"station_id":"ce4bgi12rcd13ifvqb70","pricing_plan_id":"cebpf4jnsgd1na2vs0mg"},{"bike_id":"89285992-e167-4763-ba1f-acc8c7c8841b","system_id":"levelo_inurba_marseille","lat":43.30175,"lon":5.36635,"is_reserved":false,"is_disabled":false,"rental_uris":{"android":"levelo://app?vid=89285992-e167-4763-ba1f-acc8c7c8841b","ios":"levelo://app?vid=89285992-e167-4763-ba1f-acc8c7c8841b"},"vehicle_type_id":"4","last_reported":1737954558,"current_range_meters":38000,"station_id":"ce4bgrh2rcd13ifvqc8g","pricing_plan_id":"cebpf4jnsgd1na2vs0mg"},{"bike_id":"bf5ea4cd-441e-40b5-86d7-2cfd0ef0507f","system_id":"levelo_inurba_marseille","lat":43.2515,"lon":5.40373,"is_reserved":false,"is_disabled":false,"rental_uris":{"android":"levelo://app?vid=bf5ea4cd-441e-40b5-86d7-2cfd0ef0507f","ios":"levelo://app?vid=bf5ea4cd-441e-40b5-86d7-2cfd0ef0507f"},"vehicle_type_id":"4","last_reported":1737954558,"current_range_meters":17600,"station_id":"","pricing_plan_id":"cebpf4jnsgd1na2vs0mg"},{"bike_id":"5722c23f-9acd-40e8-a6e2-9951288ba187","system_id":"levelo_inurba_marseille","lat":43.25104,"lon":5.39506,"is_reserved":false,"is_disabled":false,"rental_uris":{"android":"levelo://app?vid=5722c23f-9acd-40e8-a6e2-9951288ba187","ios":"levelo://app?vid=5722c23f-9acd-40e8-a6e2-9951288ba187"},"vehicle_type_id":"4","last_reported":1737954558,"current_range_meters":24400,"station_id":"ce4bhm12rcd13ifvqgkg","pricing_plan_id":"cebpf4jnsgd1na2vs0mg"},{"bike_id":"5650391b-e7ea-4dc7-8a52-c26f8b88bc9f","system_id":"levelo_inurba_marseille","lat":43.30647,"lon":5.40112,"is_reserved":false,"is_disabled":false,"rental_uris":{"android":"levelo://app?vid=5650391b-e7ea-4dc7-8a52-c26f8b88bc9f","ios":"levelo://app?vid=5650391b-e7ea-4dc7-8a52-c26f8b88bc9f"},"vehicle_type_id":"4","last_reported":1737954558,"current_range_meters":38800,"station_id":"ce4bh112rcd13ifvqda0","pricing_plan_id":"cebpf4jnsgd1na2vs0mg"},{"bike_id":"5a504fe4-0ab6-4eed-b9ef-e27131441d67","system_id":"levelo_inurba_marseille","lat":43.30328,"lon":5.37892,"is_reserved":false,"is_disabled":false,"rental_uris":{"android":"levelo://app?vid=5a504fe4-0ab6-4eed-b9ef-e27131441d67","ios":"levelo://app?vid=5a504fe4-0ab6-4eed-b9ef-e27131441d67"},"vehicle_type_id":"4","last_reported":1737954558,"current_range_meters":26800,"station_id":"","pricing_plan_id":"cebpf4jnsgd1na2vs0mg"},{"bike_id":"4cf58925-a8ca-4306-9f76-9a472dea598d","system_id":"levelo_inurba_marseille","lat":43.28942,"lon":5.39633,"is_reserved":false,"is_disabled":false,"rental_uris":{"android":"levelo://app?vid=4cf58925-a8ca-4306-9f76-9a472dea598d","ios":"levelo://app?vid=4cf58925-a8ca-4306-9f76-9a472dea598d"},"vehicle_type_id":"4","last_reported":1737954558,"current_range_meters":38800,"station_id":"ce4bh3h2rcd13ifvqdn0","pricing_plan_id":"cebpf4jnsgd1na2vs0mg"},{"bike_id":"ae7cf45b-0081-46bf-9ad3-ea4c274866d9","system_id":"levelo_inurba_marseille","lat":43.29964,"lon":5.41308,"is_reserved":false,"is_disabled":false,"rental_uris":{"android":"levelo://app?vid=ae7cf45b-0081-46bf-9ad3-ea4c274866d9","ios":"levelo://app?vid=ae7cf45b-0081-46bf-9ad3-ea4c274866d9"},"vehicle_type_id":"4","last_reported":1737954558,"current_range_meters":35200,"station_id":"ce4bhp12rcd13ifvqh9g","pricing_plan_id":"cebpf4jnsgd1na2vs0mg"},{"bike_id":"29537b6d-60f6-4053-b601-105bf13a2e3a","system_id":"levelo_inurba_marseille","lat":43.284719,"lon":5.384301,"is_reserved":false,"is_disabled":true,"rental_uris":{"android":"levelo://app?vid=29537b6d-60f6-4053-b601-105bf13a2e3a","ios":"levelo://app?vid=29537b6d-60f6-4053-b601-105bf13a2e3a"},"vehicle_type_id":"4","last_reported":1737954558,"current_range_meters":0,"station_id":"ce4bh512rcd13ifvqe3g","pricing_plan_id":"cebpf4jnsgd1na2vs0mg"},{"bike_id":"b5a217cf-755e-449d-9de4-9c9870d79a8f","system_id":"levelo_inurba_marseille","lat":43.24392,"lon":5.37055,"is_reserved":false,"is_disabled":false,"rental_uris":{"android":"levelo://app?vid=b5a217cf-755e-449d-9de4-9c9870d79a8f","ios":"levelo://app?vid=b5a217cf-755e-449d-9de4-9c9870d79a8f"},"vehicle_type_id":"4","last_reported":1737954558,"current_range_meters":38400,"station_id":"ce4bhhh2rcd13ifvqfk0","pricing_plan_id":"cebpf4jnsgd1na2vs0mg"},{"bike_id":"0675fa87-4ac7-4eaa-af40-1f0bac7f8c27","system_id":"levelo_inurba_marseille","lat":43.31584,"lon":5.41922,"is_reserved":false,"is_disabled":true,"rental_uris":{"android":"levelo://app?vid=0675fa87-4ac7-4eaa-af40-1f0bac7f8c27","ios":"levelo://app?vid=0675fa87-4ac7-4eaa-af40-1f0bac7f8c27"},"vehicle_type_id":"4","last_reported":1737954558,"current_range_meters":0,"station_id":"","pricing_plan_id":"cebpf4jnsgd1na2vs0mg"},{"bike_id":"780ba636-f7f2-456b-b28d-10525ca46b23","system_id":"levelo_inurba_marseille","lat":43.29722,"lon":5.3662,"is_reserved":false,"is_disabled":false,"rental_uris":{"android":"levelo://app?vid=780ba636-f7f2-456b-b28d-10525ca46b23","ios":"levelo://app?vid=780ba636-f7f2-456b-b28d-10525ca46b23"},"vehicle_type_id":"4","last_reported":1737954558,"current_range_meters":39200,"station_id":"ce4bgn12rcd13ifvqbt0","pricing_plan_id":"cebpf4jnsgd1na2vs0mg"},{"bike_id":"04e648e1-7014-47c2-a03e-7d6d34f47e23","system_id":"levelo_inurba_marseille","lat":43.2408,"lon":5.37758,"is_reserved":false,"is_disabled":false,"rental_uris":{"android":"levelo://app?vid=04e648e1-7014-47c2-a03e-7d6d34f47e23","ios":"levelo://app?vid=04e648e1-7014-47c2-a03e-7d6d34f47e23"},"vehicle_type_id":"4","last_reported":1737954558,"current_range_meters":38800,"station_id":"ce4bhnp2rcd13ifvqgvg","pricing_plan_id":"cebpf4jnsgd1na2vs0mg"},{"bike_id":"c54f5b2e-f783-418a-8119-a38c5ea2c0aa","system_id":"levelo_inurba_marseille","lat":43.28998,"lon":5.35623,"is_reserved":false,"is_disabled":true,"rental_uris":{"android":"levelo://app?vid=c54f5b2e-f783-418a-8119-a38c5ea2c0aa","ios":"levelo://app?vid=c54f5b2e-f783-418a-8119-a38c5ea2c0aa"},"vehicle_type_id":"4","last_reported":1737954558,"current_range_meters":1600,"station_id":"ce4bhb92rcd13ifvqen0","pricing_plan_id":"cebpf4jnsgd1na2vs0mg"},{"bike_id":"9838cc78-2b53-49d3-ae13-82df62c4fd64","system_id":"levelo_inurba_marseille","lat":43.284179,"lon":5.409303,"is_reserved":false,"is_disabled":true,"rental_uris":{"android":"levelo://app?vid=9838cc78-2b53-49d3-ae13-82df62c4fd64","ios":"levelo://app?vid=9838cc78-2b53-49d3-ae13-82df62c4fd64"},"vehicle_type_id":"4","last_reported":1737954558,"current_range_meters":0,"station_id":"","pricing_plan_id":"cebpf4jnsgd1na2vs0mg"},{"bike_id":"bee6535d-4697-4984-8a84-7f12fad40f3e","system_id":"levelo_inurba_marseille","lat":43.273768,"lon":5.362474,"is_reserved":false,"is_disabled":false,"rental_uris":{"android":"levelo://app?vid=bee6535d-4697-4984-8a84-7f12fad40f3e","ios":"levelo://app?vid=bee6535d-4697-4984-8a84-7f12fad40f3e"},"vehicle_type_id":"4","last_reported":1737954558,"current_range_meters":38400,"station_id":"ce4bhbh2rcd13ifvqeo0","pricing_plan_id":"cebpf4jnsgd1na2vs0mg"},{"bike_id":"68f99b21-2fbe-41a7-b050-a7f4c140afc1","system_id":"levelo_inurba_marseille","lat":43.29891,"lon":5.40188,"is_reserved":false,"is_disabled":true,"rental_uris":{"android":"levelo://app?vid=68f99b21-2fbe-41a7-b050-a7f4c140afc1","ios":"levelo://app?vid=68f99b21-2fbe-41a7-b050-a7f4c140afc1"},"vehicle_type_id":"4","last_reported":1737954558,"current_range_meters":0,"station_id":"","pricing_plan_id":"cebpf4jnsgd1na2vs0mg"},{"bike_id":"1a12ccc4-119d-4583-9cd0-f3b08fa41a49","system_id":"levelo_inurba_marseille","lat":43.24078,"lon":5.37745,"is_reserved":false,"is_disabled":false,"rental_uris":{"android":"levelo://app?vid=1a12ccc4-119d-4583-9cd0-f3b08fa41a49","ios":"levelo://app?vid=1a12ccc4-119d-4583-9cd0-f3b08fa41a49"},"vehicle_type_id":"4","last_reported":1737954558,"current_range_meters":36800,"station_id":"ce4bhnp2rcd13ifvqgvg","pricing_plan_id":"cebpf4jnsgd1na2vs0mg"},{"bike_id":"c4a421c4-fa0f-4ba6-8525-fb0935c8b20f","system_id":"levelo_inurba_marseille","lat":43.32665,"lon":5.4098,"is_reserved":false,"is_disabled":false,"rental_uris":{"android":"levelo://app?vid=c4a421c4-fa0f-4ba6-8525-fb0935c8b20f","ios":"levelo://app?vid=c4a421c4-fa0f-4ba6-8525-fb0935c8b20f"},"vehicle_type_id":"4","last_reported":1737954558,"current_range_meters":38800,"station_id":"ce4bhpp2rcd13ifvqhgg","pricing_plan_id":"cebpf4jnsgd1na2vs0mg"},{"bike_id":"bf096a89-ee72-4f37-85bd-7b3cf9f0cb41","system_id":"levelo_inurba_marseille","lat":43.33734,"lon":5.39192,"is_reserved":false,"is_disabled":false,"rental_uris":{"android":"levelo://app?vid=bf096a89-ee72-4f37-85bd-7b3cf9f0cb41","ios":"levelo://app?vid=bf096a89-ee72-4f37-85bd-7b3cf9f0cb41"},"vehicle_type_id":"4","last_reported":1737954558,"current_range_meters":26000,"station_id":"ce4bhr92rcd13ifvqhsg","pricing_plan_id":"cebpf4jnsgd1na2vs0mg"},{"bike_id":"5310f7e3-8e77-4d91-a00f-e11a801e0b57","system_id":"levelo_inurba_marseille","lat":43.28514,"lon":5.39501,"is_reserved":false,"is_disabled":false,"rental_uris":{"android":"levelo://app?vid=5310f7e3-8e77-4d91-a00f-e11a801e0b57","ios":"levelo://app?vid=5310f7e3-8e77-4d91-a00f-e11a801e0b57"},"vehicle_type_id":"4","last_reported":1737954558,"current_range_meters":38800,"station_id":"ce4bh292rcd13ifvqdg0","pricing_plan_id":"cebpf4jnsgd1na2vs0mg"},{"bike_id":"c2378bb1-796c-4edf-bf87-198266dfa5e8","system_id":"levelo_inurba_marseille","lat":43.23197,"lon":5.3555,"is_reserved":false,"is_disabled":false,"rental_uris":{"android":"levelo://app?vid=c2378bb1-796c-4edf-bf87-198266dfa5e8","ios":"levelo://app?vid=c2378bb1-796c-4edf-bf87-198266dfa5e8"},"vehicle_type_id":"4","last_reported":1737954558,"current_range_meters":36800,"station_id":"ce4bhu92rcd13ifvqi70","pricing_plan_id":"cebpf4jnsgd1na2vs0mg"},{"bike_id":"80b5e9ba-45aa-4f07-a76d-689c757a3ac7","system_id":"levelo_inurba_marseille","lat":43.24072,"lon":5.37761,"is_reserved":false,"is_disabled":false,"rental_uris":{"android":"levelo://app?vid=80b5e9ba-45aa-4f07-a76d-689c757a3ac7","ios":"levelo://app?vid=80b5e9ba-45aa-4f07-a76d-689c757a3ac7"},"vehicle_type_id":"4","last_reported":1737954558,"current_range_meters":38800,"station_id":"ce4bhnp2rcd13ifvqgvg","pricing_plan_id":"cebpf4jnsgd1na2vs0mg"},{"bike_id":"c72765a6-3cc9-4a6c-ab43-21106e071480","system_id":"levelo_inurba_marseille","lat":43.30585,"lon":5.39377,"is_reserved":false,"is_disabled":false,"rental_uris":{"android":"levelo://app?vid=c72765a6-3cc9-4a6c-ab43-21106e071480","ios":"levelo://app?vid=c72765a6-3cc9-4a6c-ab43-21106e071480"},"vehicle_type_id":"4","last_reported":1737954558,"current_range_meters":18800,"station_id":"ce4bh0p2rcd13ifvqd80","pricing_plan_id":"cebpf4jnsgd1na2vs0mg"},{"bike_id":"eb8e2715-50e8-4f9c-aaa7-763acdecaa89","system_id":"levelo_inurba_marseille","lat":43.29726,"lon":5.36878,"is_reserved":false,"is_disabled":false,"rental_uris":{"android":"levelo://app?vid=eb8e2715-50e8-4f9c-aaa7-763acdecaa89","ios":"levelo://app?vid=eb8e2715-50e8-4f9c-aaa7-763acdecaa89"},"vehicle_type_id":"4","last_reported":1737954558,"current_range_meters":2800,"station_id":"","pricing_plan_id":"cebpf4jnsgd1na2vs0mg"},{"bike_id":"77fb7455-9858-4015-a058-dfc13f608a0f","system_id":"levelo_inurba_marseille","lat":43.29026,"lon":5.386448,"is_reserved":false,"is_disabled":false,"rental_uris":{"android":"levelo://app?vid=77fb7455-9858-4015-a058-dfc13f608a0f","ios":"levelo://app?vid=77fb7455-9858-4015-a058-dfc13f608a0f"},"vehicle_type_id":"4","last_reported":1737954558,"current_range_meters":28400,"station_id":"ce4bh4p2rcd13ifvqe0g","pricing_plan_id":"cebpf4jnsgd1na2vs0mg"},{"bike_id":"2e0a8b86-b457-48a0-8577-213b01080398","system_id":"levelo_inurba_marseille","lat":43.231976,"lon":5.355526,"is_reserved":false,"is_disabled":false,"rental_uris":{"android":"levelo://app?vid=2e0a8b86-b457-48a0-8577-213b01080398","ios":"levelo://app?vid=2e0a8b86-b457-48a0-8577-213b01080398"},"vehicle_type_id":"4","last_reported":1737954558,"current_range_meters":38800,"station_id":"ce4bhu92rcd13ifvqi70","pricing_plan_id":"cebpf4jnsgd1na2vs0mg"},{"bike_id":"a7cf4467-440c-4bb8-a849-e8f193507576","system_id":"levelo_inurba_marseille","lat":43.2971,"lon":5.37572,"is_reserved":false,"is_disabled":false,"rental_uris":{"android":"levelo://app?vid=a7cf4467-440c-4bb8-a849-e8f193507576","ios":"levelo://app?vid=a7cf4467-440c-4bb8-a849-e8f193507576"},"vehicle_type_id":"4","last_reported":1737954558,"current_range_meters":26000,"station_id":"","pricing_plan_id":"cebpf4jnsgd1na2vs0mg"},{"bike_id":"d979d8d2-ec65-47af-9229-e4270aab279a","system_id":"levelo_inurba_marseille","lat":43.23067,"lon":5.35503,"is_reserved":false,"is_disabled":false,"rental_uris":{"android":"levelo://app?vid=d979d8d2-ec65-47af-9229-e4270aab279a","ios":"levelo://app?vid=d979d8d2-ec65-47af-9229-e4270aab279a"},"vehicle_type_id":"4","last_reported":1737954558,"current_range_meters":28800,"station_id":"cpo3342slgdg3j2ifvpg","pricing_plan_id":"cebpf4jnsgd1na2vs0mg"},{"bike_id":"d2267bec-c224-4d4f-987b-57de86f3767b","system_id":"levelo_inurba_marseille","lat":43.31113,"lon":5.3777,"is_reserved":false,"is_disabled":false,"rental_uris":{"android":"levelo://app?vid=d2267bec-c224-4d4f-987b-57de86f3767b","ios":"levelo://app?vid=d2267bec-c224-4d4f-987b-57de86f3767b"},"vehicle_type_id":"4","last_reported":1737954558,"current_range_meters":27200,"station_id":"ce4bgt92rcd13ifvqcg0","pricing_plan_id":"cebpf4jnsgd1na2vs0mg"},{"bike_id":"501ba811-c1b8-4a79-8abb-19ab732321de","system_id":"levelo_inurba_marseille","lat":43.31329,"lon":5.39713,"is_reserved":false,"is_disabled":false,"rental_uris":{"android":"levelo://app?vid=501ba811-c1b8-4a79-8abb-19ab732321de","ios":"levelo://app?vid=501ba811-c1b8-4a79-8abb-19ab732321de"},"vehicle_type_id":"4","last_reported":1737954558,"current_range_meters":38800,"station_id":"ce4bgvp2rcd13ifvqcu0","pricing_plan_id":"cebpf4jnsgd1na2vs0mg"},{"bike_id":"87a5bed0-aef1-423b-bd85-fe44fdeeb863","system_id":"levelo_inurba_marseille","lat":43.33734,"lon":5.39189,"is_reserved":false,"is_disabled":false,"rental_uris":{"android":"levelo://app?vid=87a5bed0-aef1-423b-bd85-fe44fdeeb863","ios":"levelo://app?vid=87a5bed0-aef1-423b-bd85-fe44fdeeb863"},"vehicle_type_id":"4","last_reported":1737954558,"current_range_meters":32000,"station_id":"ce4bhr92rcd13ifvqhsg","pricing_plan_id":"cebpf4jnsgd1na2vs0mg"},{"bike_id":"fc348ebb-e1ca-4ab0-ac6a-627444c19792","system_id":"levelo_inurba_marseille","lat":43.24393,"lon":5.37059,"is_reserved":false,"is_disabled":false,"rental_uris":{"android":"levelo://app?vid=fc348ebb-e1ca-4ab0-ac6a-627444c19792","ios":"levelo://app?vid=fc348ebb-e1ca-4ab0-ac6a-627444c19792"},"vehicle_type_id":"4","last_reported":1737954558,"current_range_meters":38400,"station_id":"ce4bhhh2rcd13ifvqfk0","pricing_plan_id":"cebpf4jnsgd1na2vs0mg"},{"bike_id":"39655bc5-fd59-4ddc-a6a4-3e0cb42466da","system_id":"levelo_inurba_marseille","lat":43.30813,"lon":5.38162,"is_reserved":false,"is_disabled":false,"rental_uris":{"android":"levelo://app?vid=39655bc5-fd59-4ddc-a6a4-3e0cb42466da","ios":"levelo://app?vid=39655bc5-fd59-4ddc-a6a4-3e0cb42466da"},"vehicle_type_id":"4","last_reported":1737954558,"current_range_meters":39200,"station_id":"ce4bgt12rcd13ifvqce0","pricing_plan_id":"cebpf4jnsgd1na2vs0mg"},{"bike_id":"5c15f1a0-f3a9-4acd-b448-15018003ef2e","system_id":"levelo_inurba_marseille","lat":43.32539,"lon":5.41458,"is_reserved":false,"is_disabled":true,"rental_uris":{"android":"levelo://app?vid=5c15f1a0-f3a9-4acd-b448-15018003ef2e","ios":"levelo://app?vid=5c15f1a0-f3a9-4acd-b448-15018003ef2e"},"vehicle_type_id":"4","last_reported":1737954558,"current_range_meters":26800,"station_id":"ce4bhq12rcd13ifvqhhg","pricing_plan_id":"cebpf4jnsgd1na2vs0mg"},{"bike_id":"6e734e15-2ab8-4eec-82a8-7534605f2aec","system_id":"levelo_inurba_marseille","lat":43.29509,"lon":5.39015,"is_reserved":false,"is_disabled":true,"rental_uris":{"android":"levelo://app?vid=6e734e15-2ab8-4eec-82a8-7534605f2aec","ios":"levelo://app?vid=6e734e15-2ab8-4eec-82a8-7534605f2aec"},"vehicle_type_id":"4","last_reported":1737954558,"current_range_meters":17200,"station_id":"ce4bh3p2rcd13ifvqdp0","pricing_plan_id":"cebpf4jnsgd1na2vs0mg"},{"bike_id":"ef932ef8-f472-4e18-ba31-420562c4eeae","system_id":"levelo_inurba_marseille","lat":43.284043,"lon":5.375219,"is_reserved":false,"is_disabled":false,"rental_uris":{"android":"levelo://app?vid=ef932ef8-f472-4e18-ba31-420562c4eeae","ios":"levelo://app?vid=ef932ef8-f472-4e18-ba31-420562c4eeae"},"vehicle_type_id":"4","last_reported":1737954558,"current_range_meters":12000,"station_id":"ce4bh412rcd13ifvqds0","pricing_plan_id":"cebpf4jnsgd1na2vs0mg"},{"bike_id":"bb88fb57-0011-4a6a-b59a-0f926b023844","system_id":"levelo_inurba_marseille","lat":43.3078,"lon":5.37665,"is_reserved":false,"is_disabled":false,"rental_uris":{"android":"levelo://app?vid=bb88fb57-0011-4a6a-b59a-0f926b023844","ios":"levelo://app?vid=bb88fb57-0011-4a6a-b59a-0f926b023844"},"vehicle_type_id":"4","last_reported":1737954558,"current_range_meters":38800,"station_id":"ce4bgv92rcd13ifvqcq0","pricing_plan_id":"cebpf4jnsgd1na2vs0mg"},{"bike_id":"fd076e4e-d0a5-4638-b40a-b894c4983017","system_id":"levelo_inurba_marseille","lat":43.31289,"lon":5.4016,"is_reserved":false,"is_disabled":false,"rental_uris":{"android":"levelo://app?vid=fd076e4e-d0a5-4638-b40a-b894c4983017","ios":"levelo://app?vid=fd076e4e-d0a5-4638-b40a-b894c4983017"},"vehicle_type_id":"4","last_reported":1737954558,"current_range_meters":38800,"station_id":"ce4bh092rcd13ifvqd30","pricing_plan_id":"cebpf4jnsgd1na2vs0mg"},{"bike_id":"b2a6f4ce-e5e6-4b95-91b9-5cf515000dc6","system_id":"levelo_inurba_marseille","lat":43.3129,"lon":5.40178,"is_reserved":false,"is_disabled":true,"rental_uris":{"android":"levelo://app?vid=b2a6f4ce-e5e6-4b95-91b9-5cf515000dc6","ios":"levelo://app?vid=b2a6f4ce-e5e6-4b95-91b9-5cf515000dc6"},"vehicle_type_id":"4","last_reported":1737954558,"current_range_meters":19200,"station_id":"ce4bh092rcd13ifvqd30","pricing_plan_id":"cebpf4jnsgd1na2vs0mg"},{"bike_id":"bf1a07ea-0fc5-4696-a1db-1309679a15aa","system_id":"levelo_inurba_marseille","lat":43.33729,"lon":5.39186,"is_reserved":false,"is_disabled":false,"rental_uris":{"android":"levelo://app?vid=bf1a07ea-0fc5-4696-a1db-1309679a15aa","ios":"levelo://app?vid=bf1a07ea-0fc5-4696-a1db-1309679a15aa"},"vehicle_type_id":"4","last_reported":1737954558,"current_range_meters":38800,"station_id":"ce4bhr92rcd13ifvqhsg","pricing_plan_id":"cebpf4jnsgd1na2vs0mg"},{"bike_id":"005330c6-9ea4-44b1-af35-6b68ca394cb6","system_id":"levelo_inurba_marseille","lat":43.30953,"lon":5.3905,"is_reserved":false,"is_disabled":false,"rental_uris":{"android":"levelo://app?vid=005330c6-9ea4-44b1-af35-6b68ca394cb6","ios":"levelo://app?vid=005330c6-9ea4-44b1-af35-6b68ca394cb6"},"vehicle_type_id":"4","last_reported":1737954558,"current_range_meters":38800,"station_id":"ce4bgup2rcd13ifvqco0","pricing_plan_id":"cebpf4jnsgd1na2vs0mg"},{"bike_id":"892230f3-5780-4161-b516-93422b4640f6","system_id":"levelo_inurba_marseille","lat":43.32655,"lon":5.40989,"is_reserved":false,"is_disabled":false,"rental_uris":{"android":"levelo://app?vid=892230f3-5780-4161-b516-93422b4640f6","ios":"levelo://app?vid=892230f3-5780-4161-b516-93422b4640f6"},"vehicle_type_id":"4","last_reported":1737954558,"current_range_meters":38800,"station_id":"ce4bhpp2rcd13ifvqhgg","pricing_plan_id":"cebpf4jnsgd1na2vs0mg"},{"bike_id":"6917a016-fa2f-4726-952b-ffe1167166a3","system_id":"levelo_inurba_marseille","lat":43.260687,"lon":5.393908,"is_reserved":false,"is_disabled":true,"rental_uris":{"android":"levelo://app?vid=6917a016-fa2f-4726-952b-ffe1167166a3","ios":"levelo://app?vid=6917a016-fa2f-4726-952b-ffe1167166a3"},"vehicle_type_id":"4","last_reported":1737954558,"current_range_meters":0,"station_id":"ce4bhh92rcd13ifvqfj0","pricing_plan_id":"cebpf4jnsgd1na2vs0mg"},{"bike_id":"7f27111d-0145-4dcc-affe-80fb2ffa557d","system_id":"levelo_inurba_marseille","lat":43.25866,"lon":5.39901,"is_reserved":false,"is_disabled":false,"rental_uris":{"android":"levelo://app?vid=7f27111d-0145-4dcc-affe-80fb2ffa557d","ios":"levelo://app?vid=7f27111d-0145-4dcc-affe-80fb2ffa557d"},"vehicle_type_id":"4","last_reported":1737954558,"current_range_meters":38800,"station_id":"ce4bhl92rcd13ifvqghg","pricing_plan_id":"cebpf4jnsgd1na2vs0mg"},{"bike_id":"4d94131b-b295-4717-b73a-3d3660c7ce50","system_id":"levelo_inurba_marseille","lat":43.27503,"lon":5.42457,"is_reserved":false,"is_disabled":false,"rental_uris":{"android":"levelo://app?vid=4d94131b-b295-4717-b73a-3d3660c7ce50","ios":"levelo://app?vid=4d94131b-b295-4717-b73a-3d3660c7ce50"},"vehicle_type_id":"4","last_reported":1737954558,"current_range_meters":24800,"station_id":"ce4bhn92rcd13ifvqgrg","pricing_plan_id":"cebpf4jnsgd1na2vs0mg"},{"bike_id":"acf4cec9-04b2-432c-83ba-19cc7ebac443","system_id":"levelo_inurba_marseille","lat":43.29069,"lon":5.38196,"is_reserved":false,"is_disabled":true,"rental_uris":{"android":"levelo://app?vid=acf4cec9-04b2-432c-83ba-19cc7ebac443","ios":"levelo://app?vid=acf4cec9-04b2-432c-83ba-19cc7ebac443"},"vehicle_type_id":"4","last_reported":1737954558,"current_range_meters":24800,"station_id":"","pricing_plan_id":"cebpf4jnsgd1na2vs0mg"},{"bike_id":"95563e80-8bb4-4e9a-a7af-c5a3e6f82efe","system_id":"levelo_inurba_marseille","lat":43.28005,"lon":5.40013,"is_reserved":false,"is_disabled":false,"rental_uris":{"android":"levelo://app?vid=95563e80-8bb4-4e9a-a7af-c5a3e6f82efe","ios":"levelo://app?vid=95563e80-8bb4-4e9a-a7af-c5a3e6f82efe"},"vehicle_type_id":"4","last_reported":1737954558,"current_range_meters":32000,"station_id":"ce4bho92rcd13ifvqh4g","pricing_plan_id":"cebpf4jnsgd1na2vs0mg"},{"bike_id":"8a4fd9c1-126f-44bd-8919-7cf37f162b5e","system_id":"levelo_inurba_marseille","lat":43.28142,"lon":5.42629,"is_reserved":false,"is_disabled":false,"rental_uris":{"android":"levelo://app?vid=8a4fd9c1-126f-44bd-8919-7cf37f162b5e","ios":"levelo://app?vid=8a4fd9c1-126f-44bd-8919-7cf37f162b5e"},"vehicle_type_id":"4","last_reported":1737954558,"current_range_meters":32400,"station_id":"ce4bhnh2rcd13ifvqgug","pricing_plan_id":"cebpf4jnsgd1na2vs0mg"},{"bike_id":"8b41598f-5de4-4465-9cbd-94e41f7c189f","system_id":"levelo_inurba_marseille","lat":43.320615,"lon":5.415373,"is_reserved":false,"is_disabled":false,"rental_uris":{"android":"levelo://app?vid=8b41598f-5de4-4465-9cbd-94e41f7c189f","ios":"levelo://app?vid=8b41598f-5de4-4465-9cbd-94e41f7c189f"},"vehicle_type_id":"4","last_reported":1737954558,"current_range_meters":32800,"station_id":"ce4bhq92rcd13ifvqhkg","pricing_plan_id":"cebpf4jnsgd1na2vs0mg"},{"bike_id":"02a65308-936d-4187-b4db-c0afc2d3e10c","system_id":"levelo_inurba_marseille","lat":43.25953,"lon":5.40905,"is_reserved":false,"is_disabled":false,"rental_uris":{"android":"levelo://app?vid=02a65308-936d-4187-b4db-c0afc2d3e10c","ios":"levelo://app?vid=02a65308-936d-4187-b4db-c0afc2d3e10c"},"vehicle_type_id":"4","last_reported":1737954558,"current_range_meters":38800,"station_id":"ce4bhm92rcd13ifvqglg","pricing_plan_id":"cebpf4jnsgd1na2vs0mg"},{"bike_id":"1b7156cb-c2ae-4362-bf6a-1375e0cefede","system_id":"levelo_inurba_marseille","lat":43.31694,"lon":5.4369,"is_reserved":false,"is_disabled":false,"rental_uris":{"android":"levelo://app?vid=1b7156cb-c2ae-4362-bf6a-1375e0cefede","ios":"levelo://app?vid=1b7156cb-c2ae-4362-bf6a-1375e0cefede"},"vehicle_type_id":"4","last_reported":1737954558,"current_range_meters":20000,"station_id":"ce4bhp92rcd13ifvqhcg","pricing_plan_id":"cebpf4jnsgd1na2vs0mg"},{"bike_id":"bba1bf49-95a8-45fe-ac4a-91374a0a705d","system_id":"levelo_inurba_marseille","lat":43.31159,"lon":5.38717,"is_reserved":false,"is_disabled":false,"rental_uris":{"android":"levelo://app?vid=bba1bf49-95a8-45fe-ac4a-91374a0a705d","ios":"levelo://app?vid=bba1bf49-95a8-45fe-ac4a-91374a0a705d"},"vehicle_type_id":"4","last_reported":1737954558,"current_range_meters":37600,"station_id":"ce4bgv12rcd13ifvqcp0","pricing_plan_id":"cebpf4jnsgd1na2vs0mg"},{"bike_id":"a8ebf96a-72c6-49a1-9891-ec74b107e794","system_id":"levelo_inurba_marseille","lat":43.23187,"lon":5.35558,"is_reserved":false,"is_disabled":false,"rental_uris":{"android":"levelo://app?vid=a8ebf96a-72c6-49a1-9891-ec74b107e794","ios":"levelo://app?vid=a8ebf96a-72c6-49a1-9891-ec74b107e794"},"vehicle_type_id":"4","last_reported":1737954558,"current_range_meters":12800,"station_id":"ce4bhu92rcd13ifvqi70","pricing_plan_id":"cebpf4jnsgd1na2vs0mg"},{"bike_id":"cd59a0a3-d545-48cd-9f91-fb25e51d138a","system_id":"levelo_inurba_marseille","lat":43.30208,"lon":5.39465,"is_reserved":false,"is_disabled":false,"rental_uris":{"android":"levelo://app?vid=cd59a0a3-d545-48cd-9f91-fb25e51d138a","ios":"levelo://app?vid=cd59a0a3-d545-48cd-9f91-fb25e51d138a"},"vehicle_type_id":"4","last_reported":1737954558,"current_range_meters":29600,"station_id":"ce4bh0p2rcd13ifvqd70","pricing_plan_id":"cebpf4jnsgd1na2vs0mg"},{"bike_id":"32b74d79-3aba-4260-afb4-fe5484579572","system_id":"levelo_inurba_marseille","lat":43.26962,"lon":5.38639,"is_reserved":false,"is_disabled":false,"rental_uris":{"android":"levelo://app?vid=32b74d79-3aba-4260-afb4-fe5484579572","ios":"levelo://app?vid=32b74d79-3aba-4260-afb4-fe5484579572"},"vehicle_type_id":"4","last_reported":1737954558,"current_range_meters":38000,"station_id":"ce4bhh92rcd13ifvqfh0","pricing_plan_id":"cebpf4jnsgd1na2vs0mg"},{"bike_id":"d879165b-2964-41b6-abb7-6db98d5a8987","system_id":"levelo_inurba_marseille","lat":43.307854,"lon":5.376476,"is_reserved":false,"is_disabled":false,"rental_uris":{"android":"levelo://app?vid=d879165b-2964-41b6-abb7-6db98d5a8987","ios":"levelo://app?vid=d879165b-2964-41b6-abb7-6db98d5a8987"},"vehicle_type_id":"4","last_reported":1737954558,"current_range_meters":36400,"station_id":"ce4bgt92rcd13ifvqcf0","pricing_plan_id":"cebpf4jnsgd1na2vs0mg"},{"bike_id":"8da84e27-6b60-4ea9-8b12-545ef6ea2d65","system_id":"levelo_inurba_marseille","lat":43.336047,"lon":5.410328,"is_reserved":false,"is_disabled":false,"rental_uris":{"android":"levelo://app?vid=8da84e27-6b60-4ea9-8b12-545ef6ea2d65","ios":"levelo://app?vid=8da84e27-6b60-4ea9-8b12-545ef6ea2d65"},"vehicle_type_id":"4","last_reported":1737954558,"current_range_meters":18800,"station_id":"ce4bhqh2rcd13ifvqhmg","pricing_plan_id":"cebpf4jnsgd1na2vs0mg"},{"bike_id":"e9bc701b-86ce-45d6-bb9e-c295f6ce732c","system_id":"levelo_inurba_marseille","lat":43.30671,"lon":5.40056,"is_reserved":false,"is_disabled":true,"rental_uris":{"android":"levelo://app?vid=e9bc701b-86ce-45d6-bb9e-c295f6ce732c","ios":"levelo://app?vid=e9bc701b-86ce-45d6-bb9e-c295f6ce732c"},"vehicle_type_id":"4","last_reported":1737954558,"current_range_meters":32000,"station_id":"","pricing_plan_id":"cebpf4jnsgd1na2vs0mg"},{"bike_id":"ebbb6dd1-ea2a-4b9e-a0fd-f2fc38df1042","system_id":"levelo_inurba_marseille","lat":43.24991,"lon":5.38935,"is_reserved":false,"is_disabled":true,"rental_uris":{"android":"levelo://app?vid=ebbb6dd1-ea2a-4b9e-a0fd-f2fc38df1042","ios":"levelo://app?vid=ebbb6dd1-ea2a-4b9e-a0fd-f2fc38df1042"},"vehicle_type_id":"4","last_reported":1737954558,"current_range_meters":38000,"station_id":"ce4bhgp2rcd13ifvqfd0","pricing_plan_id":"cebpf4jnsgd1na2vs0mg"},{"bike_id":"bd799b02-fa1c-44f7-832e-72faa2320b4c","system_id":"levelo_inurba_marseille","lat":43.27568,"lon":5.38424,"is_reserved":false,"is_disabled":false,"rental_uris":{"android":"levelo://app?vid=bd799b02-fa1c-44f7-832e-72faa2320b4c","ios":"levelo://app?vid=bd799b02-fa1c-44f7-832e-72faa2320b4c"},"vehicle_type_id":"4","last_reported":1737954558,"current_range_meters":24000,"station_id":"ce4bhh92rcd13ifvqfi0","pricing_plan_id":"cebpf4jnsgd1na2vs0mg"},{"bike_id":"3c700e4a-786d-4c4c-9e0d-dac7746dae56","system_id":"levelo_inurba_marseille","lat":43.28928,"lon":5.38381,"is_reserved":false,"is_disabled":false,"rental_uris":{"android":"levelo://app?vid=3c700e4a-786d-4c4c-9e0d-dac7746dae56","ios":"levelo://app?vid=3c700e4a-786d-4c4c-9e0d-dac7746dae56"},"vehicle_type_id":"4","last_reported":1737954558,"current_range_meters":38800,"station_id":"ce4bh612rcd13ifvqe6g","pricing_plan_id":"cebpf4jnsgd1na2vs0mg"},{"bike_id":"a9b2e7e3-e0cd-44cb-864a-f4882c79a07d","system_id":"levelo_inurba_marseille","lat":43.31743,"lon":5.42428,"is_reserved":false,"is_disabled":false,"rental_uris":{"android":"levelo://app?vid=a9b2e7e3-e0cd-44cb-864a-f4882c79a07d","ios":"levelo://app?vid=a9b2e7e3-e0cd-44cb-864a-f4882c79a07d"},"vehicle_type_id":"4","last_reported":1737954558,"current_range_meters":38000,"station_id":"ce4bhp92rcd13ifvqhbg","pricing_plan_id":"cebpf4jnsgd1na2vs0mg"},{"bike_id":"e825c681-0dde-4139-898f-7ba278df0c36","system_id":"levelo_inurba_marseille","lat":43.2845,"lon":5.35886,"is_reserved":false,"is_disabled":false,"rental_uris":{"android":"levelo://app?vid=e825c681-0dde-4139-898f-7ba278df0c36","ios":"levelo://app?vid=e825c681-0dde-4139-898f-7ba278df0c36"},"vehicle_type_id":"4","last_reported":1737954558,"current_range_meters":32000,"station_id":"ce4bhah2rcd13ifvqei0","pricing_plan_id":"cebpf4jnsgd1na2vs0mg"},{"bike_id":"11c0235b-a37f-4514-82d0-bffaa712f68a","system_id":"levelo_inurba_marseille","lat":43.2887,"lon":5.35855,"is_reserved":false,"is_disabled":false,"rental_uris":{"android":"levelo://app?vid=11c0235b-a37f-4514-82d0-bffaa712f68a","ios":"levelo://app?vid=11c0235b-a37f-4514-82d0-bffaa712f68a"},"vehicle_type_id":"4","last_reported":1737954558,"current_range_meters":38400,"station_id":"ce4bhb12rcd13ifvqem0","pricing_plan_id":"cebpf4jnsgd1na2vs0mg"},{"bike_id":"742b075e-5a66-4e2f-9ba1-2d871f2cf5f7","system_id":"levelo_inurba_marseille","lat":43.298078,"lon":5.381084,"is_reserved":false,"is_disabled":true,"rental_uris":{"android":"levelo://app?vid=742b075e-5a66-4e2f-9ba1-2d871f2cf5f7","ios":"levelo://app?vid=742b075e-5a66-4e2f-9ba1-2d871f2cf5f7"},"vehicle_type_id":"4","last_reported":1737954558,"current_range_meters":800,"station_id":"ce4bgip2rcd13ifvqbb0","pricing_plan_id":"cebpf4jnsgd1na2vs0mg"},{"bike_id":"6f20f9a6-b786-4af4-81af-ba59be1217ef","system_id":"levelo_inurba_marseille","lat":43.319964,"lon":5.381487,"is_reserved":false,"is_disabled":false,"rental_uris":{"android":"levelo://app?vid=6f20f9a6-b786-4af4-81af-ba59be1217ef","ios":"levelo://app?vid=6f20f9a6-b786-4af4-81af-ba59be1217ef"},"vehicle_type_id":"4","last_reported":1737954558,"current_range_meters":38000,"station_id":"ce4bhr12rcd13ifvqhpg","pricing_plan_id":"cebpf4jnsgd1na2vs0mg"},{"bike_id":"4a0659a8-6dba-4a9a-b3b7-a818367140d0","system_id":"levelo_inurba_marseille","lat":43.29702,"lon":5.37696,"is_reserved":false,"is_disabled":false,"rental_uris":{"android":"levelo://app?vid=4a0659a8-6dba-4a9a-b3b7-a818367140d0","ios":"levelo://app?vid=4a0659a8-6dba-4a9a-b3b7-a818367140d0"},"vehicle_type_id":"4","last_reported":1737954558,"current_range_meters":36400,"station_id":"ce4bgkh2rcd13ifvqbl0","pricing_plan_id":"cebpf4jnsgd1na2vs0mg"},{"bike_id":"0898cf4c-8322-4456-9fd3-7826055795e7","system_id":"levelo_inurba_marseille","lat":43.28549,"lon":5.39479,"is_reserved":false,"is_disabled":false,"rental_uris":{"android":"levelo://app?vid=0898cf4c-8322-4456-9fd3-7826055795e7","ios":"levelo://app?vid=0898cf4c-8322-4456-9fd3-7826055795e7"},"vehicle_type_id":"4","last_reported":1737954558,"current_range_meters":36400,"station_id":"ce4bh292rcd13ifvqdg0","pricing_plan_id":"cebpf4jnsgd1na2vs0mg"},{"bike_id":"a3a6fa22-9b71-4e4d-a4fb-6eb8e6097881","system_id":"levelo_inurba_marseille","lat":43.23184,"lon":5.35546,"is_reserved":false,"is_disabled":false,"rental_uris":{"android":"levelo://app?vid=a3a6fa22-9b71-4e4d-a4fb-6eb8e6097881","ios":"levelo://app?vid=a3a6fa22-9b71-4e4d-a4fb-6eb8e6097881"},"vehicle_type_id":"4","last_reported":1737954558,"current_range_meters":22000,"station_id":"ce4bhu92rcd13ifvqi70","pricing_plan_id":"cebpf4jnsgd1na2vs0mg"},{"bike_id":"176d8af5-07ee-4bb2-a2ae-8c1ffc4477d5","system_id":"levelo_inurba_marseille","lat":43.312372,"lon":5.368785,"is_reserved":false,"is_disabled":false,"rental_uris":{"android":"levelo://app?vid=176d8af5-07ee-4bb2-a2ae-8c1ffc4477d5","ios":"levelo://app?vid=176d8af5-07ee-4bb2-a2ae-8c1ffc4477d5"},"vehicle_type_id":"4","last_reported":1737954558,"current_range_meters":39200,"station_id":"ce4bgl92rcd13ifvqbq0","pricing_plan_id":"cebpf4jnsgd1na2vs0mg"},{"bike_id":"85acaf6b-0cba-4e1d-ad92-fc11753d654b","system_id":"levelo_inurba_marseille","lat":43.28886,"lon":5.4546,"is_reserved":false,"is_disabled":false,"rental_uris":{"android":"levelo://app?vid=85acaf6b-0cba-4e1d-ad92-fc11753d654b","ios":"levelo://app?vid=85acaf6b-0cba-4e1d-ad92-fc11753d654b"},"vehicle_type_id":"4","last_reported":1737954558,"current_range_meters":9600,"station_id":"","pricing_plan_id":"cebpf4jnsgd1na2vs0mg"},{"bike_id":"d54e7416-9133-47cb-bc55-3d590b1f98b8","system_id":"levelo_inurba_marseille","lat":43.28659,"lon":5.36342,"is_reserved":false,"is_disabled":true,"rental_uris":{"android":"levelo://app?vid=d54e7416-9133-47cb-bc55-3d590b1f98b8","ios":"levelo://app?vid=d54e7416-9133-47cb-bc55-3d590b1f98b8"},"vehicle_type_id":"4","last_reported":1737954558,"current_range_meters":0,"station_id":"ce4bhah2rcd13ifvqej0","pricing_plan_id":"cebpf4jnsgd1na2vs0mg"},{"bike_id":"f50c99f6-d9ef-4353-96c0-f0ed3401e807","system_id":"levelo_inurba_marseille","lat":43.24648,"lon":5.38897,"is_reserved":false,"is_disabled":false,"rental_uris":{"android":"levelo://app?vid=f50c99f6-d9ef-4353-96c0-f0ed3401e807","ios":"levelo://app?vid=f50c99f6-d9ef-4353-96c0-f0ed3401e807"},"vehicle_type_id":"4","last_reported":1737954558,"current_range_meters":20800,"station_id":"ce4bhg12rcd13ifvqf60","pricing_plan_id":"cebpf4jnsgd1na2vs0mg"},{"bike_id":"0ba01e9c-cd09-4f59-a64b-54e47a500c4d","system_id":"levelo_inurba_marseille","lat":43.31171,"lon":5.38714,"is_reserved":false,"is_disabled":false,"rental_uris":{"android":"levelo://app?vid=0ba01e9c-cd09-4f59-a64b-54e47a500c4d","ios":"levelo://app?vid=0ba01e9c-cd09-4f59-a64b-54e47a500c4d"},"vehicle_type_id":"4","last_reported":1737954558,"current_range_meters":39200,"station_id":"ce4bgv12rcd13ifvqcp0","pricing_plan_id":"cebpf4jnsgd1na2vs0mg"},{"bike_id":"e7b5364d-47e7-45d1-bfb6-e29107864918","system_id":"levelo_inurba_marseille","lat":43.29913,"lon":5.43662,"is_reserved":false,"is_disabled":false,"rental_uris":{"android":"levelo://app?vid=e7b5364d-47e7-45d1-bfb6-e29107864918","ios":"levelo://app?vid=e7b5364d-47e7-45d1-bfb6-e29107864918"},"vehicle_type_id":"4","last_reported":1737954558,"current_range_meters":6400,"station_id":"ce4bhpp2rcd13ifvqhfg","pricing_plan_id":"cebpf4jnsgd1na2vs0mg"},{"bike_id":"0198ddad-2b7a-4621-86bf-80e1abb6da02","system_id":"levelo_inurba_marseille","lat":43.28447,"lon":5.3919,"is_reserved":false,"is_disabled":false,"rental_uris":{"android":"levelo://app?vid=0198ddad-2b7a-4621-86bf-80e1abb6da02","ios":"levelo://app?vid=0198ddad-2b7a-4621-86bf-80e1abb6da02"},"vehicle_type_id":"4","last_reported":1737954558,"current_range_meters":39200,"station_id":"ce4bhoh2rcd13ifvqh5g","pricing_plan_id":"cebpf4jnsgd1na2vs0mg"},{"bike_id":"0f6398ed-45b1-4030-b34c-43f25a722d51","system_id":"levelo_inurba_marseille","lat":43.30592,"lon":5.37233,"is_reserved":false,"is_disabled":false,"rental_uris":{"android":"levelo://app?vid=0f6398ed-45b1-4030-b34c-43f25a722d51","ios":"levelo://app?vid=0f6398ed-45b1-4030-b34c-43f25a722d51"},"vehicle_type_id":"4","last_reported":1737954558,"current_range_meters":38800,"station_id":"ce4bgqh2rcd13ifvqc4g","pricing_plan_id":"cebpf4jnsgd1na2vs0mg"},{"bike_id":"1c35c755-8b1c-439e-8798-f1a001a3969d","system_id":"levelo_inurba_marseille","lat":43.28119,"lon":5.3789,"is_reserved":false,"is_disabled":true,"rental_uris":{"android":"levelo://app?vid=1c35c755-8b1c-439e-8798-f1a001a3969d","ios":"levelo://app?vid=1c35c755-8b1c-439e-8798-f1a001a3969d"},"vehicle_type_id":"4","last_reported":1737954558,"current_range_meters":0,"station_id":"","pricing_plan_id":"cebpf4jnsgd1na2vs0mg"},{"bike_id":"eb3290f1-06cf-4037-a83f-56aa03ef1a13","system_id":"levelo_inurba_marseille","lat":43.31789,"lon":5.38971,"is_reserved":false,"is_disabled":false,"rental_uris":{"android":"levelo://app?vid=eb3290f1-06cf-4037-a83f-56aa03ef1a13","ios":"levelo://app?vid=eb3290f1-06cf-4037-a83f-56aa03ef1a13"},"vehicle_type_id":"4","last_reported":1737954558,"current_range_meters":38800,"station_id":"ce4bhqp2rcd13ifvqhng","pricing_plan_id":"cebpf4jnsgd1na2vs0mg"},{"bike_id":"b0325b31-6e06-44e4-b7c2-c542d11011f6","system_id":"levelo_inurba_marseille","lat":43.28988,"lon":5.37845,"is_reserved":false,"is_disabled":false,"rental_uris":{"android":"levelo://app?vid=b0325b31-6e06-44e4-b7c2-c542d11011f6","ios":"levelo://app?vid=b0325b31-6e06-44e4-b7c2-c542d11011f6"},"vehicle_type_id":"4","last_reported":1737954558,"current_range_meters":32000,"station_id":"ce4bh9p2rcd13ifvqed0","pricing_plan_id":"cebpf4jnsgd1na2vs0mg"},{"bike_id":"17620cd8-5b2c-4ba0-8b39-165d0c6a9ffe","system_id":"levelo_inurba_marseille","lat":43.31096,"lon":5.3777,"is_reserved":false,"is_disabled":false,"rental_uris":{"android":"levelo://app?vid=17620cd8-5b2c-4ba0-8b39-165d0c6a9ffe","ios":"levelo://app?vid=17620cd8-5b2c-4ba0-8b39-165d0c6a9ffe"},"vehicle_type_id":"4","last_reported":1737954558,"current_range_meters":35600,"station_id":"ce4bgt92rcd13ifvqcg0","pricing_plan_id":"cebpf4jnsgd1na2vs0mg"},{"bike_id":"55862343-4644-4333-b72b-3b4fdd3f2f9d","system_id":"levelo_inurba_marseille","lat":43.265566,"lon":5.390209,"is_reserved":false,"is_disabled":false,"rental_uris":{"android":"levelo://app?vid=55862343-4644-4333-b72b-3b4fdd3f2f9d","ios":"levelo://app?vid=55862343-4644-4333-b72b-3b4fdd3f2f9d"},"vehicle_type_id":"4","last_reported":1737954558,"current_range_meters":24000,"station_id":"ce4bhe12rcd13ifvqf30","pricing_plan_id":"cebpf4jnsgd1na2vs0mg"},{"bike_id":"e899a1b4-950c-41f2-8b52-3ad08bd7b64e","system_id":"levelo_inurba_marseille","lat":43.287,"lon":5.39983,"is_reserved":false,"is_disabled":false,"rental_uris":{"android":"levelo://app?vid=e899a1b4-950c-41f2-8b52-3ad08bd7b64e","ios":"levelo://app?vid=e899a1b4-950c-41f2-8b52-3ad08bd7b64e"},"vehicle_type_id":"4","last_reported":1737954558,"current_range_meters":39200,"station_id":"ce4bho92rcd13ifvqh3g","pricing_plan_id":"cebpf4jnsgd1na2vs0mg"},{"bike_id":"28c9ab31-4df0-40d2-8c66-62df59ba79f5","system_id":"levelo_inurba_marseille","lat":43.30285,"lon":5.3922,"is_reserved":false,"is_disabled":false,"rental_uris":{"android":"levelo://app?vid=28c9ab31-4df0-40d2-8c66-62df59ba79f5","ios":"levelo://app?vid=28c9ab31-4df0-40d2-8c66-62df59ba79f5"},"vehicle_type_id":"4","last_reported":1737954558,"current_range_meters":37600,"station_id":"ce4bgkh2rcd13ifvqbk0","pricing_plan_id":"cebpf4jnsgd1na2vs0mg"},{"bike_id":"b96c22ba-a4c6-4ca8-b881-a2a2972e9bc2","system_id":"levelo_inurba_marseille","lat":43.26063,"lon":5.37554,"is_reserved":false,"is_disabled":true,"rental_uris":{"android":"levelo://app?vid=b96c22ba-a4c6-4ca8-b881-a2a2972e9bc2","ios":"levelo://app?vid=b96c22ba-a4c6-4ca8-b881-a2a2972e9bc2"},"vehicle_type_id":"4","last_reported":1737954558,"current_range_meters":28800,"station_id":"ce4bhgh2rcd13ifvqfa0","pricing_plan_id":"cebpf4jnsgd1na2vs0mg"},{"bike_id":"ae804f76-4fb7-4fbd-9dcf-21b3a5949db3","system_id":"levelo_inurba_marseille","lat":43.245463,"lon":5.395312,"is_reserved":false,"is_disabled":false,"rental_uris":{"android":"levelo://app?vid=ae804f76-4fb7-4fbd-9dcf-21b3a5949db3","ios":"levelo://app?vid=ae804f76-4fb7-4fbd-9dcf-21b3a5949db3"},"vehicle_type_id":"4","last_reported":1737954558,"current_range_meters":16800,"station_id":"ce4bhlp2rcd13ifvqgjg","pricing_plan_id":"cebpf4jnsgd1na2vs0mg"},{"bike_id":"27e9ed6a-8bc6-4409-a393-30f180d9892b","system_id":"levelo_inurba_marseille","lat":43.25729,"lon":5.41113,"is_reserved":false,"is_disabled":false,"rental_uris":{"android":"levelo://app?vid=27e9ed6a-8bc6-4409-a393-30f180d9892b","ios":"levelo://app?vid=27e9ed6a-8bc6-4409-a393-30f180d9892b"},"vehicle_type_id":"4","last_reported":1737954558,"current_range_meters":38400,"station_id":"ce4bhkp2rcd13ifvqgd0","pricing_plan_id":"cebpf4jnsgd1na2vs0mg"},{"bike_id":"8198de3b-b83a-46d9-8e65-f7e308bdd551","system_id":"levelo_inurba_marseille","lat":43.31374,"lon":5.38493,"is_reserved":false,"is_disabled":false,"rental_uris":{"android":"levelo://app?vid=8198de3b-b83a-46d9-8e65-f7e308bdd551","ios":"levelo://app?vid=8198de3b-b83a-46d9-8e65-f7e308bdd551"},"vehicle_type_id":"4","last_reported":1737954558,"current_range_meters":18800,"station_id":"ce4bgt92rcd13ifvqcf0","pricing_plan_id":"cebpf4jnsgd1na2vs0mg"},{"bike_id":"dcb50635-0e5e-4da9-b4df-329e73a63f8f","system_id":"levelo_inurba_marseille","lat":43.24174,"lon":5.39735,"is_reserved":false,"is_disabled":false,"rental_uris":{"android":"levelo://app?vid=dcb50635-0e5e-4da9-b4df-329e73a63f8f","ios":"levelo://app?vid=dcb50635-0e5e-4da9-b4df-329e73a63f8f"},"vehicle_type_id":"4","last_reported":1737954558,"current_range_meters":24800,"station_id":"ce4bhn12rcd13ifvqgpg","pricing_plan_id":"cebpf4jnsgd1na2vs0mg"},{"bike_id":"98a2cb10-0f11-4a3f-b5c2-fb63add72da7","system_id":"levelo_inurba_marseille","lat":43.23199,"lon":5.3555,"is_reserved":false,"is_disabled":false,"rental_uris":{"android":"levelo://app?vid=98a2cb10-0f11-4a3f-b5c2-fb63add72da7","ios":"levelo://app?vid=98a2cb10-0f11-4a3f-b5c2-fb63add72da7"},"vehicle_type_id":"4","last_reported":1737954558,"current_range_meters":27200,"station_id":"ce4bhu92rcd13ifvqi70","pricing_plan_id":"cebpf4jnsgd1na2vs0mg"},{"bike_id":"1346ff93-9ddb-4093-aa5d-b6cb09dfef3c","system_id":"levelo_inurba_marseille","lat":43.28503,"lon":5.36768,"is_reserved":false,"is_disabled":true,"rental_uris":{"android":"levelo://app?vid=1346ff93-9ddb-4093-aa5d-b6cb09dfef3c","ios":"levelo://app?vid=1346ff93-9ddb-4093-aa5d-b6cb09dfef3c"},"vehicle_type_id":"4","last_reported":1737954558,"current_range_meters":0,"station_id":"","pricing_plan_id":"cebpf4jnsgd1na2vs0mg"},{"bike_id":"388af01c-d64c-4a37-8a19-812811c76bf1","system_id":"levelo_inurba_marseille","lat":43.32648,"lon":5.40996,"is_reserved":false,"is_disabled":false,"rental_uris":{"android":"levelo://app?vid=388af01c-d64c-4a37-8a19-812811c76bf1","ios":"levelo://app?vid=388af01c-d64c-4a37-8a19-812811c76bf1"},"vehicle_type_id":"4","last_reported":1737954558,"current_range_meters":38000,"station_id":"ce4bhpp2rcd13ifvqhgg","pricing_plan_id":"cebpf4jnsgd1na2vs0mg"},{"bike_id":"31593dbf-1c7f-4006-abaa-0e87fe690d49","system_id":"levelo_inurba_marseille","lat":43.24392,"lon":5.37023,"is_reserved":false,"is_disabled":false,"rental_uris":{"android":"levelo://app?vid=31593dbf-1c7f-4006-abaa-0e87fe690d49","ios":"levelo://app?vid=31593dbf-1c7f-4006-abaa-0e87fe690d49"},"vehicle_type_id":"4","last_reported":1737954558,"current_range_meters":39200,"station_id":"ce4bhhh2rcd13ifvqfk0","pricing_plan_id":"cebpf4jnsgd1na2vs0mg"},{"bike_id":"65e0cc3b-f0ca-4cbc-b377-c8304fb7138c","system_id":"levelo_inurba_marseille","lat":43.282644,"lon":5.350711,"is_reserved":false,"is_disabled":false,"rental_uris":{"android":"levelo://app?vid=65e0cc3b-f0ca-4cbc-b377-c8304fb7138c","ios":"levelo://app?vid=65e0cc3b-f0ca-4cbc-b377-c8304fb7138c"},"vehicle_type_id":"4","last_reported":1737954558,"current_range_meters":38000,"station_id":"ce4bhbp2rcd13ifvqerg","pricing_plan_id":"cebpf4jnsgd1na2vs0mg"},{"bike_id":"ad64d5ec-72ee-4fa1-bdcc-4d7e02016bc5","system_id":"levelo_inurba_marseille","lat":43.30457,"lon":5.37896,"is_reserved":false,"is_disabled":true,"rental_uris":{"android":"levelo://app?vid=ad64d5ec-72ee-4fa1-bdcc-4d7e02016bc5","ios":"levelo://app?vid=ad64d5ec-72ee-4fa1-bdcc-4d7e02016bc5"},"vehicle_type_id":"4","last_reported":1737954558,"current_range_meters":0,"station_id":"ce4bgup2rcd13ifvqcn0","pricing_plan_id":"cebpf4jnsgd1na2vs0mg"},{"bike_id":"7c3a1add-fa1a-44e9-b210-58865ab9c863","system_id":"levelo_inurba_marseille","lat":43.32097,"lon":5.36754,"is_reserved":false,"is_disabled":false,"rental_uris":{"android":"levelo://app?vid=7c3a1add-fa1a-44e9-b210-58865ab9c863","ios":"levelo://app?vid=7c3a1add-fa1a-44e9-b210-58865ab9c863"},"vehicle_type_id":"4","last_reported":1737954558,"current_range_meters":26800,"station_id":"ce4bhrh2rcd13ifvqhug","pricing_plan_id":"cebpf4jnsgd1na2vs0mg"},{"bike_id":"5658bf19-5e40-4edf-ac7a-3999a5207afd","system_id":"levelo_inurba_marseille","lat":43.232075,"lon":5.355461,"is_reserved":false,"is_disabled":false,"rental_uris":{"android":"levelo://app?vid=5658bf19-5e40-4edf-ac7a-3999a5207afd","ios":"levelo://app?vid=5658bf19-5e40-4edf-ac7a-3999a5207afd"},"vehicle_type_id":"4","last_reported":1737954558,"current_range_meters":36800,"station_id":"ce4bhu92rcd13ifvqi70","pricing_plan_id":"cebpf4jnsgd1na2vs0mg"},{"bike_id":"b01b0706-3a3a-4ff1-ac0d-6b17e48eff7a","system_id":"levelo_inurba_marseille","lat":43.23182,"lon":5.35546,"is_reserved":false,"is_disabled":false,"rental_uris":{"android":"levelo://app?vid=b01b0706-3a3a-4ff1-ac0d-6b17e48eff7a","ios":"levelo://app?vid=b01b0706-3a3a-4ff1-ac0d-6b17e48eff7a"},"vehicle_type_id":"4","last_reported":1737954558,"current_range_meters":37600,"station_id":"ce4bhu92rcd13ifvqi70","pricing_plan_id":"cebpf4jnsgd1na2vs0mg"},{"bike_id":"617d5e7a-35a6-48d0-ab87-c596e05fa8ff","system_id":"levelo_inurba_marseille","lat":43.25601,"lon":5.38247,"is_reserved":false,"is_disabled":false,"rental_uris":{"android":"levelo://app?vid=617d5e7a-35a6-48d0-ab87-c596e05fa8ff","ios":"levelo://app?vid=617d5e7a-35a6-48d0-ab87-c596e05fa8ff"},"vehicle_type_id":"4","last_reported":1737954558,"current_range_meters":38400,"station_id":"ce4bhih2rcd13ifvqfs0","pricing_plan_id":"cebpf4jnsgd1na2vs0mg"},{"bike_id":"68bee2d9-0b1d-4393-b8ac-588ed9332d94","system_id":"levelo_inurba_marseille","lat":43.28416,"lon":5.37506,"is_reserved":false,"is_disabled":false,"rental_uris":{"android":"levelo://app?vid=68bee2d9-0b1d-4393-b8ac-588ed9332d94","ios":"levelo://app?vid=68bee2d9-0b1d-4393-b8ac-588ed9332d94"},"vehicle_type_id":"4","last_reported":1737954558,"current_range_meters":32400,"station_id":"ce4bh412rcd13ifvqds0","pricing_plan_id":"cebpf4jnsgd1na2vs0mg"},{"bike_id":"1df39e0a-209d-4620-8399-9d79536882d8","system_id":"levelo_inurba_marseille","lat":43.29554,"lon":5.42281,"is_reserved":false,"is_disabled":false,"rental_uris":{"android":"levelo://app?vid=1df39e0a-209d-4620-8399-9d79536882d8","ios":"levelo://app?vid=1df39e0a-209d-4620-8399-9d79536882d8"},"vehicle_type_id":"4","last_reported":1737954558,"current_range_meters":36800,"station_id":"ce4bhph2rcd13ifvqhdg","pricing_plan_id":"cebpf4jnsgd1na2vs0mg"},{"bike_id":"82268c69-bcd8-49fb-91ea-6277b4711aa7","system_id":"levelo_inurba_marseille","lat":43.25541,"lon":5.39783,"is_reserved":false,"is_disabled":false,"rental_uris":{"android":"levelo://app?vid=82268c69-bcd8-49fb-91ea-6277b4711aa7","ios":"levelo://app?vid=82268c69-bcd8-49fb-91ea-6277b4711aa7"},"vehicle_type_id":"4","last_reported":1737954558,"current_range_meters":27600,"station_id":"","pricing_plan_id":"cebpf4jnsgd1na2vs0mg"},{"bike_id":"6779612f-9bf2-49e4-a64f-fd0404d26e31","system_id":"levelo_inurba_marseille","lat":43.30628,"lon":5.40071,"is_reserved":false,"is_disabled":false,"rental_uris":{"android":"levelo://app?vid=6779612f-9bf2-49e4-a64f-fd0404d26e31","ios":"levelo://app?vid=6779612f-9bf2-49e4-a64f-fd0404d26e31"},"vehicle_type_id":"4","last_reported":1737954558,"current_range_meters":8400,"station_id":"ce4bh112rcd13ifvqda0","pricing_plan_id":"cebpf4jnsgd1na2vs0mg"},{"bike_id":"82135390-74be-4b10-9e91-831849c0a09f","system_id":"levelo_inurba_marseille","lat":43.30164,"lon":5.38086,"is_reserved":false,"is_disabled":false,"rental_uris":{"android":"levelo://app?vid=82135390-74be-4b10-9e91-831849c0a09f","ios":"levelo://app?vid=82135390-74be-4b10-9e91-831849c0a09f"},"vehicle_type_id":"4","last_reported":1737954558,"current_range_meters":20800,"station_id":"ce4bgjp2rcd13ifvqbh0","pricing_plan_id":"cebpf4jnsgd1na2vs0mg"},{"bike_id":"35acdb32-b9f0-47e6-864f-bd2f2d728b11","system_id":"levelo_inurba_marseille","lat":43.31272,"lon":5.40177,"is_reserved":false,"is_disabled":false,"rental_uris":{"android":"levelo://app?vid=35acdb32-b9f0-47e6-864f-bd2f2d728b11","ios":"levelo://app?vid=35acdb32-b9f0-47e6-864f-bd2f2d728b11"},"vehicle_type_id":"4","last_reported":1737954558,"current_range_meters":38000,"station_id":"ce4bh092rcd13ifvqd30","pricing_plan_id":"cebpf4jnsgd1na2vs0mg"},{"bike_id":"6e203d11-8f28-45a5-ab0c-f65896cc8679","system_id":"levelo_inurba_marseille","lat":43.28687,"lon":5.38653,"is_reserved":false,"is_disabled":false,"rental_uris":{"android":"levelo://app?vid=6e203d11-8f28-45a5-ab0c-f65896cc8679","ios":"levelo://app?vid=6e203d11-8f28-45a5-ab0c-f65896cc8679"},"vehicle_type_id":"4","last_reported":1737954558,"current_range_meters":5600,"station_id":"ce4bh492rcd13ifvqdug","pricing_plan_id":"cebpf4jnsgd1na2vs0mg"},{"bike_id":"79bc66a4-aeed-4eda-a560-099c58d7dbf9","system_id":"levelo_inurba_marseille","lat":43.31514,"lon":5.3729,"is_reserved":false,"is_disabled":true,"rental_uris":{"android":"levelo://app?vid=79bc66a4-aeed-4eda-a560-099c58d7dbf9","ios":"levelo://app?vid=79bc66a4-aeed-4eda-a560-099c58d7dbf9"},"vehicle_type_id":"4","last_reported":1737954558,"current_range_meters":8800,"station_id":"ce4bgt12rcd13ifvqcd0","pricing_plan_id":"cebpf4jnsgd1na2vs0mg"},{"bike_id":"10b1a047-be93-49dc-bba5-67085f222023","system_id":"levelo_inurba_marseille","lat":43.25591,"lon":5.38236,"is_reserved":false,"is_disabled":false,"rental_uris":{"android":"levelo://app?vid=10b1a047-be93-49dc-bba5-67085f222023","ios":"levelo://app?vid=10b1a047-be93-49dc-bba5-67085f222023"},"vehicle_type_id":"4","last_reported":1737954558,"current_range_meters":12800,"station_id":"ce4bhih2rcd13ifvqfs0","pricing_plan_id":"cebpf4jnsgd1na2vs0mg"},{"bike_id":"08500baa-0caa-40a9-b140-615d25788649","system_id":"levelo_inurba_marseille","lat":43.29549,"lon":5.42315,"is_reserved":false,"is_disabled":false,"rental_uris":{"android":"levelo://app?vid=08500baa-0caa-40a9-b140-615d25788649","ios":"levelo://app?vid=08500baa-0caa-40a9-b140-615d25788649"},"vehicle_type_id":"4","last_reported":1737954558,"current_range_meters":32000,"station_id":"ce4bhph2rcd13ifvqhdg","pricing_plan_id":"cebpf4jnsgd1na2vs0mg"},{"bike_id":"07c04308-e576-4379-9337-5d1435519828","system_id":"levelo_inurba_marseille","lat":43.28928,"lon":5.36399,"is_reserved":false,"is_disabled":false,"rental_uris":{"android":"levelo://app?vid=07c04308-e576-4379-9337-5d1435519828","ios":"levelo://app?vid=07c04308-e576-4379-9337-5d1435519828"},"vehicle_type_id":"4","last_reported":1737954558,"current_range_meters":34800,"station_id":"ce4bhc92rcd13ifvqetg","pricing_plan_id":"cebpf4jnsgd1na2vs0mg"},{"bike_id":"8d4a2c03-332c-43fc-94a2-34f34407062a","system_id":"levelo_inurba_marseille","lat":43.32471,"lon":5.36593,"is_reserved":false,"is_disabled":false,"rental_uris":{"android":"levelo://app?vid=8d4a2c03-332c-43fc-94a2-34f34407062a","ios":"levelo://app?vid=8d4a2c03-332c-43fc-94a2-34f34407062a"},"vehicle_type_id":"4","last_reported":1737954558,"current_range_meters":28400,"station_id":"ce4bhs12rcd13ifvqhvg","pricing_plan_id":"cebpf4jnsgd1na2vs0mg"},{"bike_id":"40bda4fd-b97f-4057-9ec2-85fb2dee3907","system_id":"levelo_inurba_marseille","lat":43.26576,"lon":5.39028,"is_reserved":false,"is_disabled":false,"rental_uris":{"android":"levelo://app?vid=40bda4fd-b97f-4057-9ec2-85fb2dee3907","ios":"levelo://app?vid=40bda4fd-b97f-4057-9ec2-85fb2dee3907"},"vehicle_type_id":"4","last_reported":1737954558,"current_range_meters":38800,"station_id":"ce4bhe12rcd13ifvqf30","pricing_plan_id":"cebpf4jnsgd1na2vs0mg"},{"bike_id":"57823e25-308b-4f11-a2b6-a7f52902c1c5","system_id":"levelo_inurba_marseille","lat":43.30789,"lon":5.38219,"is_reserved":false,"is_disabled":true,"rental_uris":{"android":"levelo://app?vid=57823e25-308b-4f11-a2b6-a7f52902c1c5","ios":"levelo://app?vid=57823e25-308b-4f11-a2b6-a7f52902c1c5"},"vehicle_type_id":"4","last_reported":1737954558,"current_range_meters":10800,"station_id":"ce4bgt12rcd13ifvqce0","pricing_plan_id":"cebpf4jnsgd1na2vs0mg"},{"bike_id":"ff68af14-5554-4f8d-a3de-4549d987f602","system_id":"levelo_inurba_marseille","lat":43.29896,"lon":5.4365,"is_reserved":false,"is_disabled":false,"rental_uris":{"android":"levelo://app?vid=ff68af14-5554-4f8d-a3de-4549d987f602","ios":"levelo://app?vid=ff68af14-5554-4f8d-a3de-4549d987f602"},"vehicle_type_id":"4","last_reported":1737954558,"current_range_meters":6400,"station_id":"ce4bhpp2rcd13ifvqhfg","pricing_plan_id":"cebpf4jnsgd1na2vs0mg"},{"bike_id":"6a8f4b05-901b-4ddf-bf6a-601e4ea9f30f","system_id":"levelo_inurba_marseille","lat":43.28929,"lon":5.36416,"is_reserved":false,"is_disabled":false,"rental_uris":{"android":"levelo://app?vid=6a8f4b05-901b-4ddf-bf6a-601e4ea9f30f","ios":"levelo://app?vid=6a8f4b05-901b-4ddf-bf6a-601e4ea9f30f"},"vehicle_type_id":"4","last_reported":1737954558,"current_range_meters":38800,"station_id":"ce4bhc92rcd13ifvqetg","pricing_plan_id":"cebpf4jnsgd1na2vs0mg"},{"bike_id":"de5ed648-7365-4d6a-92ca-97ba72f1df27","system_id":"levelo_inurba_marseille","lat":43.28113,"lon":5.37843,"is_reserved":false,"is_disabled":false,"rental_uris":{"android":"levelo://app?vid=de5ed648-7365-4d6a-92ca-97ba72f1df27","ios":"levelo://app?vid=de5ed648-7365-4d6a-92ca-97ba72f1df27"},"vehicle_type_id":"4","last_reported":1737954558,"current_range_meters":7200,"station_id":"ce4bha12rcd13ifvqee0","pricing_plan_id":"cebpf4jnsgd1na2vs0mg"},{"bike_id":"8f016df6-856f-4a24-9eb5-c90dd642c8a4","system_id":"levelo_inurba_marseille","lat":43.30795,"lon":5.38177,"is_reserved":false,"is_disabled":false,"rental_uris":{"android":"levelo://app?vid=8f016df6-856f-4a24-9eb5-c90dd642c8a4","ios":"levelo://app?vid=8f016df6-856f-4a24-9eb5-c90dd642c8a4"},"vehicle_type_id":"4","last_reported":1737954558,"current_range_meters":39200,"station_id":"ce4bgt12rcd13ifvqce0","pricing_plan_id":"cebpf4jnsgd1na2vs0mg"},{"bike_id":"ee0c9dfc-ca49-4212-ae8e-ae5dd390644c","system_id":"levelo_inurba_marseille","lat":43.29038,"lon":5.38137,"is_reserved":false,"is_disabled":false,"rental_uris":{"android":"levelo://app?vid=ee0c9dfc-ca49-4212-ae8e-ae5dd390644c","ios":"levelo://app?vid=ee0c9dfc-ca49-4212-ae8e-ae5dd390644c"},"vehicle_type_id":"4","last_reported":1737954558,"current_range_meters":37600,"station_id":"ce4bh4p2rcd13ifvqe1g","pricing_plan_id":"cebpf4jnsgd1na2vs0mg"},{"bike_id":"1e328aaf-06e5-4767-a395-a9b21576497f","system_id":"levelo_inurba_marseille","lat":43.29757,"lon":5.37081,"is_reserved":false,"is_disabled":true,"rental_uris":{"android":"levelo://app?vid=1e328aaf-06e5-4767-a395-a9b21576497f","ios":"levelo://app?vid=1e328aaf-06e5-4767-a395-a9b21576497f"},"vehicle_type_id":"4","last_reported":1737954558,"current_range_meters":15200,"station_id":"ce4bgop2rcd13ifvqc1g","pricing_plan_id":"cebpf4jnsgd1na2vs0mg"},{"bike_id":"f7c24e44-41c1-419d-a615-e051b3b900f2","system_id":"levelo_inurba_marseille","lat":43.298826,"lon":5.397442,"is_reserved":false,"is_disabled":false,"rental_uris":{"android":"levelo://app?vid=f7c24e44-41c1-419d-a615-e051b3b900f2","ios":"levelo://app?vid=f7c24e44-41c1-419d-a615-e051b3b900f2"},"vehicle_type_id":"4","last_reported":1737954558,"current_range_meters":38800,"station_id":"ce4bh0h2rcd13ifvqd50","pricing_plan_id":"cebpf4jnsgd1na2vs0mg"},{"bike_id":"105b052f-157b-4e7a-a129-56f35a257489","system_id":"levelo_inurba_marseille","lat":43.323586,"lon":5.367618,"is_reserved":false,"is_disabled":false,"rental_uris":{"android":"levelo://app?vid=105b052f-157b-4e7a-a129-56f35a257489","ios":"levelo://app?vid=105b052f-157b-4e7a-a129-56f35a257489"},"vehicle_type_id":"4","last_reported":1737954558,"current_range_meters":16000,"station_id":"ce4bhsh2rcd13ifvqi2g","pricing_plan_id":"cebpf4jnsgd1na2vs0mg"},{"bike_id":"86b498e3-784c-4315-9910-77930c320efa","system_id":"levelo_inurba_marseille","lat":43.28613,"lon":5.37058,"is_reserved":false,"is_disabled":false,"rental_uris":{"android":"levelo://app?vid=86b498e3-784c-4315-9910-77930c320efa","ios":"levelo://app?vid=86b498e3-784c-4315-9910-77930c320efa"},"vehicle_type_id":"4","last_reported":1737954558,"current_range_meters":38400,"station_id":"ce4bht12rcd13ifvqi60","pricing_plan_id":"cebpf4jnsgd1na2vs0mg"},{"bike_id":"d4b96a79-6fba-47bf-8cf9-899b5e9182b4","system_id":"levelo_inurba_marseille","lat":43.262,"lon":5.37933,"is_reserved":false,"is_disabled":false,"rental_uris":{"android":"levelo://app?vid=d4b96a79-6fba-47bf-8cf9-899b5e9182b4","ios":"levelo://app?vid=d4b96a79-6fba-47bf-8cf9-899b5e9182b4"},"vehicle_type_id":"4","last_reported":1737954558,"current_range_meters":16000,"station_id":"ce4bhjp2rcd13ifvqg90","pricing_plan_id":"cebpf4jnsgd1na2vs0mg"},{"bike_id":"24d1c4ac-38e7-44fb-b933-7408ac05a786","system_id":"levelo_inurba_marseille","lat":43.30888,"lon":5.3965,"is_reserved":false,"is_disabled":false,"rental_uris":{"android":"levelo://app?vid=24d1c4ac-38e7-44fb-b933-7408ac05a786","ios":"levelo://app?vid=24d1c4ac-38e7-44fb-b933-7408ac05a786"},"vehicle_type_id":"4","last_reported":1737954558,"current_range_meters":6000,"station_id":"ce4bh012rcd13ifvqcv0","pricing_plan_id":"cebpf4jnsgd1na2vs0mg"},{"bike_id":"8c772f1a-bac2-41fc-878f-d0d152dc8c92","system_id":"levelo_inurba_marseille","lat":43.2919,"lon":5.38213,"is_reserved":false,"is_disabled":false,"rental_uris":{"android":"levelo://app?vid=8c772f1a-bac2-41fc-878f-d0d152dc8c92","ios":"levelo://app?vid=8c772f1a-bac2-41fc-878f-d0d152dc8c92"},"vehicle_type_id":"4","last_reported":1737954558,"current_range_meters":7200,"station_id":"","pricing_plan_id":"cebpf4jnsgd1na2vs0mg"},{"bike_id":"00f9a058-c7a6-4b4e-af6e-b0aefd06f32a","system_id":"levelo_inurba_marseille","lat":43.27202,"lon":5.40981,"is_reserved":false,"is_disabled":false,"rental_uris":{"android":"levelo://app?vid=00f9a058-c7a6-4b4e-af6e-b0aefd06f32a","ios":"levelo://app?vid=00f9a058-c7a6-4b4e-af6e-b0aefd06f32a"},"vehicle_type_id":"4","last_reported":1737954558,"current_range_meters":23200,"station_id":"ce4bhl12rcd13ifvqgf0","pricing_plan_id":"cebpf4jnsgd1na2vs0mg"},{"bike_id":"4c175f07-d583-4d3a-8d8d-be439667d94b","system_id":"levelo_inurba_marseille","lat":43.30543,"lon":5.36551,"is_reserved":false,"is_disabled":false,"rental_uris":{"android":"levelo://app?vid=4c175f07-d583-4d3a-8d8d-be439667d94b","ios":"levelo://app?vid=4c175f07-d583-4d3a-8d8d-be439667d94b"},"vehicle_type_id":"4","last_reported":1737954558,"current_range_meters":18000,"station_id":"ce4bgs12rcd13ifvqcag","pricing_plan_id":"cebpf4jnsgd1na2vs0mg"},{"bike_id":"a7fcc53e-6f14-41c5-8b6d-25ab86bedc5f","system_id":"levelo_inurba_marseille","lat":43.29035,"lon":5.3864,"is_reserved":false,"is_disabled":true,"rental_uris":{"android":"levelo://app?vid=a7fcc53e-6f14-41c5-8b6d-25ab86bedc5f","ios":"levelo://app?vid=a7fcc53e-6f14-41c5-8b6d-25ab86bedc5f"},"vehicle_type_id":"4","last_reported":1737954558,"current_range_meters":28400,"station_id":"ce4bh4p2rcd13ifvqe0g","pricing_plan_id":"cebpf4jnsgd1na2vs0mg"},{"bike_id":"574429cf-c091-49bb-bea6-725876d2acf8","system_id":"levelo_inurba_marseille","lat":43.28689,"lon":5.38664,"is_reserved":false,"is_disabled":false,"rental_uris":{"android":"levelo://app?vid=574429cf-c091-49bb-bea6-725876d2acf8","ios":"levelo://app?vid=574429cf-c091-49bb-bea6-725876d2acf8"},"vehicle_type_id":"4","last_reported":1737954558,"current_range_meters":38400,"station_id":"ce4bh492rcd13ifvqdug","pricing_plan_id":"cebpf4jnsgd1na2vs0mg"},{"bike_id":"7feb50cc-9a67-4ccb-9fef-07ede77689cd","system_id":"levelo_inurba_marseille","lat":43.24397,"lon":5.37074,"is_reserved":false,"is_disabled":false,"rental_uris":{"android":"levelo://app?vid=7feb50cc-9a67-4ccb-9fef-07ede77689cd","ios":"levelo://app?vid=7feb50cc-9a67-4ccb-9fef-07ede77689cd"},"vehicle_type_id":"4","last_reported":1737954558,"current_range_meters":10000,"station_id":"ce4bhhh2rcd13ifvqfk0","pricing_plan_id":"cebpf4jnsgd1na2vs0mg"},{"bike_id":"a8470fb7-6f32-4e42-b8d2-18965734b7cb","system_id":"levelo_inurba_marseille","lat":43.28462,"lon":5.35885,"is_reserved":false,"is_disabled":false,"rental_uris":{"android":"levelo://app?vid=a8470fb7-6f32-4e42-b8d2-18965734b7cb","ios":"levelo://app?vid=a8470fb7-6f32-4e42-b8d2-18965734b7cb"},"vehicle_type_id":"4","last_reported":1737954558,"current_range_meters":30400,"station_id":"ce4bhah2rcd13ifvqei0","pricing_plan_id":"cebpf4jnsgd1na2vs0mg"},{"bike_id":"568e6118-46c5-448c-a633-5b28c6408df6","system_id":"levelo_inurba_marseille","lat":43.30952,"lon":5.3905,"is_reserved":false,"is_disabled":true,"rental_uris":{"android":"levelo://app?vid=568e6118-46c5-448c-a633-5b28c6408df6","ios":"levelo://app?vid=568e6118-46c5-448c-a633-5b28c6408df6"},"vehicle_type_id":"4","last_reported":1737954558,"current_range_meters":0,"station_id":"ce4bgup2rcd13ifvqco0","pricing_plan_id":"cebpf4jnsgd1na2vs0mg"},{"bike_id":"a55f6e56-669c-444c-9606-d9b894e036f1","system_id":"levelo_inurba_marseille","lat":43.29794,"lon":5.40414,"is_reserved":false,"is_disabled":false,"rental_uris":{"android":"levelo://app?vid=a55f6e56-669c-444c-9606-d9b894e036f1","ios":"levelo://app?vid=a55f6e56-669c-444c-9606-d9b894e036f1"},"vehicle_type_id":"4","last_reported":1737954558,"current_range_meters":38800,"station_id":"ce4bh112rcd13ifvqd90","pricing_plan_id":"cebpf4jnsgd1na2vs0mg"},{"bike_id":"49324e6c-12a1-4ad7-84b3-02b12397055c","system_id":"levelo_inurba_marseille","lat":43.289281,"lon":5.366379,"is_reserved":false,"is_disabled":false,"rental_uris":{"android":"levelo://app?vid=49324e6c-12a1-4ad7-84b3-02b12397055c","ios":"levelo://app?vid=49324e6c-12a1-4ad7-84b3-02b12397055c"},"vehicle_type_id":"4","last_reported":1737954558,"current_range_meters":9600,"station_id":"ce4bhap2rcd13ifvqek0","pricing_plan_id":"cebpf4jnsgd1na2vs0mg"},{"bike_id":"2e9f9ad8-b960-43c9-8b0a-d9899d6e9774","system_id":"levelo_inurba_marseille","lat":43.313225,"lon":5.397041,"is_reserved":false,"is_disabled":false,"rental_uris":{"android":"levelo://app?vid=2e9f9ad8-b960-43c9-8b0a-d9899d6e9774","ios":"levelo://app?vid=2e9f9ad8-b960-43c9-8b0a-d9899d6e9774"},"vehicle_type_id":"4","last_reported":1737954558,"current_range_meters":32000,"station_id":"ce4bgvp2rcd13ifvqcu0","pricing_plan_id":"cebpf4jnsgd1na2vs0mg"},{"bike_id":"cb11c4e4-37a9-44f4-9ccd-767b3b519e30","system_id":"levelo_inurba_marseille","lat":43.284766,"lon":5.384377,"is_reserved":false,"is_disabled":true,"rental_uris":{"android":"levelo://app?vid=cb11c4e4-37a9-44f4-9ccd-767b3b519e30","ios":"levelo://app?vid=cb11c4e4-37a9-44f4-9ccd-767b3b519e30"},"vehicle_type_id":"4","last_reported":1737954558,"current_range_meters":12400,"station_id":"ce4bh512rcd13ifvqe3g","pricing_plan_id":"cebpf4jnsgd1na2vs0mg"},{"bike_id":"7aa87f7e-999b-461a-85f4-92c927f471ed","system_id":"levelo_inurba_marseille","lat":43.32039,"lon":5.41582,"is_reserved":false,"is_disabled":true,"rental_uris":{"android":"levelo://app?vid=7aa87f7e-999b-461a-85f4-92c927f471ed","ios":"levelo://app?vid=7aa87f7e-999b-461a-85f4-92c927f471ed"},"vehicle_type_id":"4","last_reported":1737954558,"current_range_meters":2800,"station_id":"ce4bhq92rcd13ifvqhkg","pricing_plan_id":"cebpf4jnsgd1na2vs0mg"},{"bike_id":"a9397b70-a385-4291-9897-8f0d82cd91b3","system_id":"levelo_inurba_marseille","lat":43.28604,"lon":5.37063,"is_reserved":false,"is_disabled":false,"rental_uris":{"android":"levelo://app?vid=a9397b70-a385-4291-9897-8f0d82cd91b3","ios":"levelo://app?vid=a9397b70-a385-4291-9897-8f0d82cd91b3"},"vehicle_type_id":"4","last_reported":1737954558,"current_range_meters":37600,"station_id":"ce4bht12rcd13ifvqi60","pricing_plan_id":"cebpf4jnsgd1na2vs0mg"},{"bike_id":"7e59e0ad-802e-4703-b159-ac6fc69b64b5","system_id":"levelo_inurba_marseille","lat":43.30534,"lon":5.38442,"is_reserved":false,"is_disabled":true,"rental_uris":{"android":"levelo://app?vid=7e59e0ad-802e-4703-b159-ac6fc69b64b5","ios":"levelo://app?vid=7e59e0ad-802e-4703-b159-ac6fc69b64b5"},"vehicle_type_id":"4","last_reported":1737954558,"current_range_meters":32000,"station_id":"ce4bgg92rcd13ifvqb30","pricing_plan_id":"cebpf4jnsgd1na2vs0mg"},{"bike_id":"944ecfa4-1deb-441b-a89a-e1bce60c6518","system_id":"levelo_inurba_marseille","lat":43.27085,"lon":5.42294,"is_reserved":false,"is_disabled":false,"rental_uris":{"android":"levelo://app?vid=944ecfa4-1deb-441b-a89a-e1bce60c6518","ios":"levelo://app?vid=944ecfa4-1deb-441b-a89a-e1bce60c6518"},"vehicle_type_id":"4","last_reported":1737954558,"current_range_meters":38800,"station_id":"ce4bhk92rcd13ifvqgb0","pricing_plan_id":"cebpf4jnsgd1na2vs0mg"},{"bike_id":"d1c27158-772d-4991-88e9-a7864541f06e","system_id":"levelo_inurba_marseille","lat":43.32354,"lon":5.3887,"is_reserved":false,"is_disabled":false,"rental_uris":{"android":"levelo://app?vid=d1c27158-772d-4991-88e9-a7864541f06e","ios":"levelo://app?vid=d1c27158-772d-4991-88e9-a7864541f06e"},"vehicle_type_id":"4","last_reported":1737954558,"current_range_meters":34800,"station_id":"ce4bhqp2rcd13ifvqhog","pricing_plan_id":"cebpf4jnsgd1na2vs0mg"},{"bike_id":"66f8024c-a666-43b9-ad26-3e1f7a5d915c","system_id":"levelo_inurba_marseille","lat":43.30272,"lon":5.40083,"is_reserved":false,"is_disabled":false,"rental_uris":{"android":"levelo://app?vid=66f8024c-a666-43b9-ad26-3e1f7a5d915c","ios":"levelo://app?vid=66f8024c-a666-43b9-ad26-3e1f7a5d915c"},"vehicle_type_id":"4","last_reported":1737954558,"current_range_meters":4400,"station_id":"ce4bgvh2rcd13ifvqcs0","pricing_plan_id":"cebpf4jnsgd1na2vs0mg"},{"bike_id":"406f3a4e-22c7-4501-a7fe-e475a9f714e4","system_id":"levelo_inurba_marseille","lat":43.23199,"lon":5.35554,"is_reserved":false,"is_disabled":false,"rental_uris":{"android":"levelo://app?vid=406f3a4e-22c7-4501-a7fe-e475a9f714e4","ios":"levelo://app?vid=406f3a4e-22c7-4501-a7fe-e475a9f714e4"},"vehicle_type_id":"4","last_reported":1737954558,"current_range_meters":16000,"station_id":"ce4bhu92rcd13ifvqi70","pricing_plan_id":"cebpf4jnsgd1na2vs0mg"},{"bike_id":"e7965682-cb07-492d-a8dc-957cdc5a4b6e","system_id":"levelo_inurba_marseille","lat":43.29988,"lon":5.38524,"is_reserved":false,"is_disabled":true,"rental_uris":{"android":"levelo://app?vid=e7965682-cb07-492d-a8dc-957cdc5a4b6e","ios":"levelo://app?vid=e7965682-cb07-492d-a8dc-957cdc5a4b6e"},"vehicle_type_id":"4","last_reported":1737954558,"current_range_meters":6800,"station_id":"ce4bgj92rcd13ifvqbd0","pricing_plan_id":"cebpf4jnsgd1na2vs0mg"},{"bike_id":"c299cd09-26b4-4c27-b04d-7549f8615ce8","system_id":"levelo_inurba_marseille","lat":43.30885,"lon":5.3965,"is_reserved":false,"is_disabled":false,"rental_uris":{"android":"levelo://app?vid=c299cd09-26b4-4c27-b04d-7549f8615ce8","ios":"levelo://app?vid=c299cd09-26b4-4c27-b04d-7549f8615ce8"},"vehicle_type_id":"4","last_reported":1737954558,"current_range_meters":38800,"station_id":"ce4bh012rcd13ifvqcv0","pricing_plan_id":"cebpf4jnsgd1na2vs0mg"},{"bike_id":"565e831a-998a-4696-ae22-bee0501ba347","system_id":"levelo_inurba_marseille","lat":43.30474,"lon":5.37902,"is_reserved":false,"is_disabled":false,"rental_uris":{"android":"levelo://app?vid=565e831a-998a-4696-ae22-bee0501ba347","ios":"levelo://app?vid=565e831a-998a-4696-ae22-bee0501ba347"},"vehicle_type_id":"4","last_reported":1737954558,"current_range_meters":28400,"station_id":"ce4bgup2rcd13ifvqcn0","pricing_plan_id":"cebpf4jnsgd1na2vs0mg"},{"bike_id":"0780affa-9639-4fb7-a54b-9efa1183acc6","system_id":"levelo_inurba_marseille","lat":43.29189,"lon":5.393255,"is_reserved":false,"is_disabled":false,"rental_uris":{"android":"levelo://app?vid=0780affa-9639-4fb7-a54b-9efa1183acc6","ios":"levelo://app?vid=0780affa-9639-4fb7-a54b-9efa1183acc6"},"vehicle_type_id":"4","last_reported":1737954558,"current_range_meters":38000,"station_id":"ce4bh192rcd13ifvqdd0","pricing_plan_id":"cebpf4jnsgd1na2vs0mg"},{"bike_id":"e3e26aee-15e1-425c-a48f-db58aa520742","system_id":"levelo_inurba_marseille","lat":43.23072,"lon":5.35469,"is_reserved":false,"is_disabled":false,"rental_uris":{"android":"levelo://app?vid=e3e26aee-15e1-425c-a48f-db58aa520742","ios":"levelo://app?vid=e3e26aee-15e1-425c-a48f-db58aa520742"},"vehicle_type_id":"4","last_reported":1737954558,"current_range_meters":5600,"station_id":"cpo3342slgdg3j2ifvpg","pricing_plan_id":"cebpf4jnsgd1na2vs0mg"},{"bike_id":"b347639a-0ca8-4e68-8f92-5a0e77800feb","system_id":"levelo_inurba_marseille","lat":43.28755,"lon":5.40012,"is_reserved":false,"is_disabled":false,"rental_uris":{"android":"levelo://app?vid=b347639a-0ca8-4e68-8f92-5a0e77800feb","ios":"levelo://app?vid=b347639a-0ca8-4e68-8f92-5a0e77800feb"},"vehicle_type_id":"4","last_reported":1737954558,"current_range_meters":37600,"station_id":"ce4bho92rcd13ifvqh3g","pricing_plan_id":"cebpf4jnsgd1na2vs0mg"},{"bike_id":"f86e0cec-38e4-471d-886e-e4807498a0ca","system_id":"levelo_inurba_marseille","lat":43.29092,"lon":5.3815,"is_reserved":false,"is_disabled":false,"rental_uris":{"android":"levelo://app?vid=f86e0cec-38e4-471d-886e-e4807498a0ca","ios":"levelo://app?vid=f86e0cec-38e4-471d-886e-e4807498a0ca"},"vehicle_type_id":"4","last_reported":1737954558,"current_range_meters":32000,"station_id":"ce4bh512rcd13ifvqe2g","pricing_plan_id":"cebpf4jnsgd1na2vs0mg"},{"bike_id":"07162cf2-9520-4954-8d12-669f863694e1","system_id":"levelo_inurba_marseille","lat":43.25583,"lon":5.38228,"is_reserved":false,"is_disabled":false,"rental_uris":{"android":"levelo://app?vid=07162cf2-9520-4954-8d12-669f863694e1","ios":"levelo://app?vid=07162cf2-9520-4954-8d12-669f863694e1"},"vehicle_type_id":"4","last_reported":1737954558,"current_range_meters":33200,"station_id":"ce4bhih2rcd13ifvqfs0","pricing_plan_id":"cebpf4jnsgd1na2vs0mg"},{"bike_id":"7c78a755-c7f5-4f07-a96b-621451d47948","system_id":"levelo_inurba_marseille","lat":43.29904,"lon":5.43666,"is_reserved":false,"is_disabled":false,"rental_uris":{"android":"levelo://app?vid=7c78a755-c7f5-4f07-a96b-621451d47948","ios":"levelo://app?vid=7c78a755-c7f5-4f07-a96b-621451d47948"},"vehicle_type_id":"4","last_reported":1737954558,"current_range_meters":28400,"station_id":"ce4bhpp2rcd13ifvqhfg","pricing_plan_id":"cebpf4jnsgd1na2vs0mg"},{"bike_id":"876a8084-ea9e-4406-a1ab-a36512de3c44","system_id":"levelo_inurba_marseille","lat":43.28717,"lon":5.379458,"is_reserved":false,"is_disabled":false,"rental_uris":{"android":"levelo://app?vid=876a8084-ea9e-4406-a1ab-a36512de3c44","ios":"levelo://app?vid=876a8084-ea9e-4406-a1ab-a36512de3c44"},"vehicle_type_id":"4","last_reported":1737954558,"current_range_meters":36800,"station_id":"ce4bh9p2rcd13ifvqec0","pricing_plan_id":"cebpf4jnsgd1na2vs0mg"},{"bike_id":"d89fcb16-35c8-4d14-901a-82d190bf678c","system_id":"levelo_inurba_marseille","lat":43.27904,"lon":5.38025,"is_reserved":false,"is_disabled":false,"rental_uris":{"android":"levelo://app?vid=d89fcb16-35c8-4d14-901a-82d190bf678c","ios":"levelo://app?vid=d89fcb16-35c8-4d14-901a-82d190bf678c"},"vehicle_type_id":"4","last_reported":1737954558,"current_range_meters":37600,"station_id":"ce4bhf92rcd13ifvqf50","pricing_plan_id":"cebpf4jnsgd1na2vs0mg"},{"bike_id":"a3f32f89-e6e8-4fbf-b11e-7fbea76b62a2","system_id":"levelo_inurba_marseille","lat":43.29991,"lon":5.37176,"is_reserved":false,"is_disabled":true,"rental_uris":{"android":"levelo://app?vid=a3f32f89-e6e8-4fbf-b11e-7fbea76b62a2","ios":"levelo://app?vid=a3f32f89-e6e8-4fbf-b11e-7fbea76b62a2"},"vehicle_type_id":"4","last_reported":1737954558,"current_range_meters":38800,"station_id":"ce4bgr92rcd13ifvqc7g","pricing_plan_id":"cebpf4jnsgd1na2vs0mg"},{"bike_id":"10788313-d040-4d48-8c10-7d013c0bb5cb","system_id":"levelo_inurba_marseille","lat":43.28436,"lon":5.39183,"is_reserved":false,"is_disabled":false,"rental_uris":{"android":"levelo://app?vid=10788313-d040-4d48-8c10-7d013c0bb5cb","ios":"levelo://app?vid=10788313-d040-4d48-8c10-7d013c0bb5cb"},"vehicle_type_id":"4","last_reported":1737954558,"current_range_meters":38800,"station_id":"ce4bhoh2rcd13ifvqh5g","pricing_plan_id":"cebpf4jnsgd1na2vs0mg"},{"bike_id":"684ea44b-b4bc-456a-be59-2cf6bb158b0d","system_id":"levelo_inurba_marseille","lat":43.33716,"lon":5.39174,"is_reserved":false,"is_disabled":false,"rental_uris":{"android":"levelo://app?vid=684ea44b-b4bc-456a-be59-2cf6bb158b0d","ios":"levelo://app?vid=684ea44b-b4bc-456a-be59-2cf6bb158b0d"},"vehicle_type_id":"4","last_reported":1737954558,"current_range_meters":38000,"station_id":"ce4bhr92rcd13ifvqhsg","pricing_plan_id":"cebpf4jnsgd1na2vs0mg"},{"bike_id":"3221b67b-efc2-48e4-9f82-2e0efa0b98a0","system_id":"levelo_inurba_marseille","lat":43.32645,"lon":5.40989,"is_reserved":false,"is_disabled":false,"rental_uris":{"android":"levelo://app?vid=3221b67b-efc2-48e4-9f82-2e0efa0b98a0","ios":"levelo://app?vid=3221b67b-efc2-48e4-9f82-2e0efa0b98a0"},"vehicle_type_id":"4","last_reported":1737954558,"current_range_meters":38400,"station_id":"ce4bhpp2rcd13ifvqhgg","pricing_plan_id":"cebpf4jnsgd1na2vs0mg"},{"bike_id":"a48a4fa8-387b-4ecc-bc7a-c3f07822bf47","system_id":"levelo_inurba_marseille","lat":43.27056,"lon":5.39256,"is_reserved":false,"is_disabled":true,"rental_uris":{"android":"levelo://app?vid=a48a4fa8-387b-4ecc-bc7a-c3f07822bf47","ios":"levelo://app?vid=a48a4fa8-387b-4ecc-bc7a-c3f07822bf47"},"vehicle_type_id":"4","last_reported":1737954558,"current_range_meters":0,"station_id":"","pricing_plan_id":"cebpf4jnsgd1na2vs0mg"},{"bike_id":"afc4d53a-7a00-4e31-ba93-3fdb3be5f28e","system_id":"levelo_inurba_marseille","lat":43.24066,"lon":5.37741,"is_reserved":false,"is_disabled":false,"rental_uris":{"android":"levelo://app?vid=afc4d53a-7a00-4e31-ba93-3fdb3be5f28e","ios":"levelo://app?vid=afc4d53a-7a00-4e31-ba93-3fdb3be5f28e"},"vehicle_type_id":"4","last_reported":1737954558,"current_range_meters":38800,"station_id":"ce4bhnp2rcd13ifvqgvg","pricing_plan_id":"cebpf4jnsgd1na2vs0mg"},{"bike_id":"84a1000f-ae1d-4d88-85bb-c0760d17ffdf","system_id":"levelo_inurba_marseille","lat":43.307938,"lon":5.381683,"is_reserved":false,"is_disabled":false,"rental_uris":{"android":"levelo://app?vid=84a1000f-ae1d-4d88-85bb-c0760d17ffdf","ios":"levelo://app?vid=84a1000f-ae1d-4d88-85bb-c0760d17ffdf"},"vehicle_type_id":"4","last_reported":1737954558,"current_range_meters":8400,"station_id":"ce4bgt12rcd13ifvqce0","pricing_plan_id":"cebpf4jnsgd1na2vs0mg"},{"bike_id":"a8d0380b-0a88-41c3-845f-e00ffb2cbc88","system_id":"levelo_inurba_marseille","lat":43.27995,"lon":5.40002,"is_reserved":false,"is_disabled":true,"rental_uris":{"android":"levelo://app?vid=a8d0380b-0a88-41c3-845f-e00ffb2cbc88","ios":"levelo://app?vid=a8d0380b-0a88-41c3-845f-e00ffb2cbc88"},"vehicle_type_id":"4","last_reported":1737954558,"current_range_meters":32000,"station_id":"ce4bho92rcd13ifvqh4g","pricing_plan_id":"cebpf4jnsgd1na2vs0mg"},{"bike_id":"8fd0082a-8558-471d-bd5c-8f2bb03de120","system_id":"levelo_inurba_marseille","lat":43.28708,"lon":5.39997,"is_reserved":false,"is_disabled":true,"rental_uris":{"android":"levelo://app?vid=8fd0082a-8558-471d-bd5c-8f2bb03de120","ios":"levelo://app?vid=8fd0082a-8558-471d-bd5c-8f2bb03de120"},"vehicle_type_id":"4","last_reported":1737954558,"current_range_meters":24400,"station_id":"ce4bho92rcd13ifvqh3g","pricing_plan_id":"cebpf4jnsgd1na2vs0mg"},{"bike_id":"c99ac8a0-4540-423f-91af-8b5615744d3a","system_id":"levelo_inurba_marseille","lat":43.2894,"lon":5.3956,"is_reserved":false,"is_disabled":false,"rental_uris":{"android":"levelo://app?vid=c99ac8a0-4540-423f-91af-8b5615744d3a","ios":"levelo://app?vid=c99ac8a0-4540-423f-91af-8b5615744d3a"},"vehicle_type_id":"4","last_reported":1737954558,"current_range_meters":20000,"station_id":"","pricing_plan_id":"cebpf4jnsgd1na2vs0mg"},{"bike_id":"16e218ff-61ca-45e5-b0e8-8291f594dffc","system_id":"levelo_inurba_marseille","lat":43.24997,"lon":5.38931,"is_reserved":false,"is_disabled":false,"rental_uris":{"android":"levelo://app?vid=16e218ff-61ca-45e5-b0e8-8291f594dffc","ios":"levelo://app?vid=16e218ff-61ca-45e5-b0e8-8291f594dffc"},"vehicle_type_id":"4","last_reported":1737954558,"current_range_meters":38800,"station_id":"ce4bhgp2rcd13ifvqfd0","pricing_plan_id":"cebpf4jnsgd1na2vs0mg"},{"bike_id":"9c09af66-30f1-488d-910d-a8a905d02871","system_id":"levelo_inurba_marseille","lat":43.293767,"lon":5.379242,"is_reserved":false,"is_disabled":true,"rental_uris":{"android":"levelo://app?vid=9c09af66-30f1-488d-910d-a8a905d02871","ios":"levelo://app?vid=9c09af66-30f1-488d-910d-a8a905d02871"},"vehicle_type_id":"4","last_reported":1737954558,"current_range_meters":0,"station_id":"","pricing_plan_id":"cebpf4jnsgd1na2vs0mg"},{"bike_id":"0e291e25-7e0f-4c2e-88d1-2389fcd76767","system_id":"levelo_inurba_marseille","lat":43.28354,"lon":5.38104,"is_reserved":false,"is_disabled":false,"rental_uris":{"android":"levelo://app?vid=0e291e25-7e0f-4c2e-88d1-2389fcd76767","ios":"levelo://app?vid=0e291e25-7e0f-4c2e-88d1-2389fcd76767"},