{"last_updated":1700309485,"ttl":30,"version":"2.2","data":{"bikes":[{"bike_id":"a7f9c160-01a8-4f91-8310-6e8094653445","system_id":"levelo_inurba_marseille","lat":43.312239,"lon":5.368562,"is_reserved":false,"is_disabled":false,"rental_uris":{"android":"levelo://app?vid=a7f9c160-01a8-4f91-8310-6e8094653445","ios":"levelo://app?vid=a7f9c160-01a8-4f91-8310-6e8094653445"},"vehicle_type_id":"4","last_reported":1700309486,"current_range_meters":16400,"station_id":"ce4bgl92rcd13ifvqbq0","pricing_plan_id":"free"},{"bike_id":"6cee74a9-2968-4453-bf4c-26e8f0f8ebdf","system_id":"levelo_inurba_marseille","lat":43.312239,"lon":5.368562,"is_reserved":false,"is_disabled":false,"rental_uris":{"android":"levelo://app?vid=6cee74a9-2968-4453-bf4c-26e8f0f8ebdf","ios":"levelo://app?vid=6cee74a9-2968-4453-bf4c-26e8f0f8ebdf"},"vehicle_type_id":"4","last_reported":1700309486,"current_range_meters":28800,"station_id":"ce4bgl92rcd13ifvqbq0","pricing_plan_id":"free"},{"bike_id":"09477c03-ff7c-4c4f-a68c-b03e9375aa81","system_id":"levelo_inurba_marseille","lat":43.312239,"lon":5.368562,"is_reserved":false,"is_disabled":false,"rental_uris":{"android":"levelo://app?vid=09477c03-ff7c-4c4f-a68c-b03e9375aa81","ios":"levelo://app?vid=09477c03-ff7c-4c4f-a68c-b03e9375aa81"},"vehicle_type_id":"4","last_reported":1700309486,"current_range_meters":20000,"station_id":"ce4bgl92rcd13ifvqbq0","pricing_plan_id":"free"},{"bike_id":"943dfc2f-eec4-44b8-ae3a-bf8f278b58c3","system_id":"levelo_inurba_marseille","lat":43.31154,"lon":5.36882,"is_reserved":false,"is_disabled":false,"rental_uris":{"android":"levelo://app?vid=943dfc2f-eec4-44b8-ae3a-bf8f278b58c3","ios":"levelo://app?vid=943dfc2f-eec4-44b8-ae3a-bf8f278b58c3"},"vehicle_type_id":"4","last_reported":1700309486,"current_range_meters":400,"station_id":"","pricing_plan_id":"free"},{"bike_id":"3475d204-43b6-43d9-b615-ca1d0d58200e","system_id":"levelo_inurba_marseille","lat":43.30679,"lon":5.3679,"is_reserved":false,"is_disabled":false,"rental_uris":{"android":"levelo://app?vid=3475d204-43b6-43d9-b615-ca1d0d58200e","ios":"levelo://app?vid=3475d204-43b6-43d9-b615-ca1d0d58200e"},"vehicle_type_id":"4","last_reported":1700309486,"current_range_meters":14800,"station_id":"","pricing_plan_id":"free"},{"bike_id":"c89b6022-0b04-44f0-bb8d-00b8bddaa14f","system_id":"levelo_inurba_marseille","lat":43.31948,"lon":5.37103,"is_reserved":false,"is_disabled":false,"rental_uris":{"android":"levelo://app?vid=c89b6022-0b04-44f0-bb8d-00b8bddaa14f","ios":"levelo://app?vid=c89b6022-0b04-44f0-bb8d-00b8bddaa14f"},"vehicle_type_id":"4","last_reported":1700309486,"current_range_meters":5600,"station_id":"","pricing_plan_id":"free"},{"bike_id":"94e131bb-a8dc-47fc-9c7b-1732e0041085","system_id":"levelo_inurba_marseille","lat":43.305989,"lon":5.37225,"is_reserved":false,"is_disabled":false,"rental_uris":{"android":"levelo://app?vid=94e131bb-a8dc-47fc-9c7b-1732e0041085","ios":"levelo://app?vid=94e131bb-a8dc-47fc-9c7b-1732e0041085"},"vehicle_type_id":"4","last_reported":1700309486,"current_range_meters":18800,"station_id":"ce4bgqh2rcd13ifvqc4g","pricing_plan_id":"free"},{"bike_id":"b86e7077-de59-4585-9f37-c41677d229e9","system_id":"levelo_inurba_marseille","lat":43.311125,"lon":5.377624,"is_reserved":false,"is_disabled":false,"rental_uris":{"android":"levelo://app?vid=b86e7077-de59-4585-9f37-c41677d229e9","ios":"levelo://app?vid=b86e7077-de59-4585-9f37-c41677d229e9"},"vehicle_type_id":"4","last_reported":1700309486,"current_range_meters":4800,"station_id":"ce4bgt92rcd13ifvqcg0","pricing_plan_id":"free"},{"bike_id":"2d49cb03-7339-4a21-98db-beedb60a2a4c","system_id":"levelo_inurba_marseille","lat":43.304951,"lon":5.370763,"is_reserved":false,"is_disabled":false,"rental_uris":{"android":"levelo://app?vid=2d49cb03-7339-4a21-98db-beedb60a2a4c","ios":"levelo://app?vid=2d49cb03-7339-4a21-98db-beedb60a2a4c"},"vehicle_type_id":"4","last_reported":1700309486,"current_range_meters":0,"station_id":"","pricing_plan_id":"free"},{"bike_id":"dcbf9c93-0758-41cf-8699-4ede01d69428","system_id":"levelo_inurba_marseille","lat":43.308194,"lon":5.376533,"is_reserved":false,"is_disabled":false,"rental_uris":{"android":"levelo://app?vid=dcbf9c93-0758-41cf-8699-4ede01d69428","ios":"levelo://app?vid=dcbf9c93-0758-41cf-8699-4ede01d69428"},"vehicle_type_id":"4","last_reported":1700309486,"current_range_meters":16000,"station_id":"ce4bgv92rcd13ifvqcq0","pricing_plan_id":"free"},{"bike_id":"14453bc6-820b-496a-91c5-bd1a7f559527","system_id":"levelo_inurba_marseille","lat":43.308147,"lon":5.376563,"is_reserved":false,"is_disabled":false,"rental_uris":{"android":"levelo://app?vid=14453bc6-820b-496a-91c5-bd1a7f559527","ios":"levelo://app?vid=14453bc6-820b-496a-91c5-bd1a7f559527"},"vehicle_type_id":"4","last_reported":1700309486,"current_range_meters":11600,"station_id":"ce4bgv92rcd13ifvqcq0","pricing_plan_id":"free"},{"bike_id":"f121a343-8a41-4d1a-8af4-862ae4341da4","system_id":"levelo_inurba_marseille","lat":43.308012,"lon":5.381511,"is_reserved":false,"is_disabled":false,"rental_uris":{"android":"levelo://app?vid=f121a343-8a41-4d1a-8af4-862ae4341da4","ios":"levelo://app?vid=f121a343-8a41-4d1a-8af4-862ae4341da4"},"vehicle_type_id":"4","last_reported":1700309486,"current_range_meters":3600,"station_id":"ce4bgt12rcd13ifvqce0","pricing_plan_id":"free"},{"bike_id":"4f344238-8533-4892-9914-8f4f083fff79","system_id":"levelo_inurba_marseille","lat":43.304606,"lon":5.379026,"is_reserved":false,"is_disabled":false,"rental_uris":{"android":"levelo://app?vid=4f344238-8533-4892-9914-8f4f083fff79","ios":"levelo://app?vid=4f344238-8533-4892-9914-8f4f083fff79"},"vehicle_type_id":"4","last_reported":1700309486,"current_range_meters":28400,"station_id":"ce4bgup2rcd13ifvqcn0","pricing_plan_id":"free"},{"bike_id":"dad05871-bbfe-4987-b9ee-9349a4cdcf23","system_id":"levelo_inurba_marseille","lat":43.304606,"lon":5.379026,"is_reserved":false,"is_disabled":false,"rental_uris":{"android":"levelo://app?vid=dad05871-bbfe-4987-b9ee-9349a4cdcf23","ios":"levelo://app?vid=dad05871-bbfe-4987-b9ee-9349a4cdcf23"},"vehicle_type_id":"4","last_reported":1700309486,"current_range_meters":31600,"station_id":"ce4bgup2rcd13ifvqcn0","pricing_plan_id":"free"},{"bike_id":"8f2437b4-4e0d-4ce3-bb09-0b9c793f2b93","system_id":"levelo_inurba_marseille","lat":43.304606,"lon":5.379026,"is_reserved":false,"is_disabled":false,"rental_uris":{"android":"levelo://app?vid=8f2437b4-4e0d-4ce3-bb09-0b9c793f2b93","ios":"levelo://app?vid=8f2437b4-4e0d-4ce3-bb09-0b9c793f2b93"},"vehicle_type_id":"4","last_reported":1700309486,"current_range_meters":19200,"station_id":"ce4bgup2rcd13ifvqcn0","pricing_plan_id":"free"},{"bike_id":"537455cb-9c1c-4ccf-bcec-8c86e87dd0f3","system_id":"levelo_inurba_marseille","lat":43.304606,"lon":5.379026,"is_reserved":false,"is_disabled":false,"rental_uris":{"android":"levelo://app?vid=537455cb-9c1c-4ccf-bcec-8c86e87dd0f3","ios":"levelo://app?vid=537455cb-9c1c-4ccf-bcec-8c86e87dd0f3"},"vehicle_type_id":"4","last_reported":1700309486,"current_range_meters":16000,"station_id":"ce4bgup2rcd13ifvqcn0","pricing_plan_id":"free"},{"bike_id":"811095ef-1f16-416d-b965-f503782c874c","system_id":"levelo_inurba_marseille","lat":43.304606,"lon":5.379026,"is_reserved":false,"is_disabled":false,"rental_uris":{"android":"levelo://app?vid=811095ef-1f16-416d-b965-f503782c874c","ios":"levelo://app?vid=811095ef-1f16-416d-b965-f503782c874c"},"vehicle_type_id":"4","last_reported":1700309486,"current_range_meters":4800,"station_id":"ce4bgup2rcd13ifvqcn0","pricing_plan_id":"free"},{"bike_id":"8582e63c-68af-4a5e-a41b-a2e2d4df8807","system_id":"levelo_inurba_marseille","lat":43.324771,"lon":5.36557,"is_reserved":false,"is_disabled":false,"rental_uris":{"android":"levelo://app?vid=8582e63c-68af-4a5e-a41b-a2e2d4df8807","ios":"levelo://app?vid=8582e63c-68af-4a5e-a41b-a2e2d4df8807"},"vehicle_type_id":"4","last_reported":1700309486,"current_range_meters":9200,"station_id":"ce4bhs12rcd13ifvqhvg","pricing_plan_id":"free"},{"bike_id":"82d83929-1de2-4f49-9e2a-a4b45288505d","system_id":"levelo_inurba_marseille","lat":43.302784,"lon":5.377158,"is_reserved":false,"is_disabled":false,"rental_uris":{"android":"levelo://app?vid=82d83929-1de2-4f49-9e2a-a4b45288505d","ios":"levelo://app?vid=82d83929-1de2-4f49-9e2a-a4b45288505d"},"vehicle_type_id":"4","last_reported":1700309486,"current_range_meters":28400,"station_id":"ce4bguh2rcd13ifvqcj0","pricing_plan_id":"free"},{"bike_id":"8382f3be-f377-45a8-81c1-795e1df13022","system_id":"levelo_inurba_marseille","lat":43.30143,"lon":5.37413,"is_reserved":false,"is_disabled":false,"rental_uris":{"android":"levelo://app?vid=8382f3be-f377-45a8-81c1-795e1df13022","ios":"levelo://app?vid=8382f3be-f377-45a8-81c1-795e1df13022"},"vehicle_type_id":"4","last_reported":1700309486,"current_range_meters":23600,"station_id":"ce4bgs92rcd13ifvqcc0","pricing_plan_id":"free"},{"bike_id":"3445c75a-4074-4322-a227-0b85738d648b","system_id":"levelo_inurba_marseille","lat":43.301429,"lon":5.37413,"is_reserved":false,"is_disabled":false,"rental_uris":{"android":"levelo://app?vid=3445c75a-4074-4322-a227-0b85738d648b","ios":"levelo://app?vid=3445c75a-4074-4322-a227-0b85738d648b"},"vehicle_type_id":"4","last_reported":1700309486,"current_range_meters":30000,"station_id":"ce4bgs92rcd13ifvqcc0","pricing_plan_id":"free"},{"bike_id":"5a978e94-138b-4f32-a9ff-dcfee9fe3b81","system_id":"levelo_inurba_marseille","lat":43.31981,"lon":5.381501,"is_reserved":false,"is_disabled":false,"rental_uris":{"android":"levelo://app?vid=5a978e94-138b-4f32-a9ff-dcfee9fe3b81","ios":"levelo://app?vid=5a978e94-138b-4f32-a9ff-dcfee9fe3b81"},"vehicle_type_id":"4","last_reported":1700309486,"current_range_meters":22800,"station_id":"ce4bhr12rcd13ifvqhpg","pricing_plan_id":"free"},{"bike_id":"3270450e-872f-460b-b417-06bfdfd29447","system_id":"levelo_inurba_marseille","lat":43.299327,"lon":5.365441,"is_reserved":false,"is_disabled":false,"rental_uris":{"android":"levelo://app?vid=3270450e-872f-460b-b417-06bfdfd29447","ios":"levelo://app?vid=3270450e-872f-460b-b417-06bfdfd29447"},"vehicle_type_id":"4","last_reported":1700309486,"current_range_meters":7200,"station_id":"ce4bhg12rcd13ifvqf80","pricing_plan_id":"free"},{"bike_id":"04407581-cf8c-4b92-84ae-c92d8c7139ac","system_id":"levelo_inurba_marseille","lat":43.299724,"lon":5.371829,"is_reserved":false,"is_disabled":false,"rental_uris":{"android":"levelo://app?vid=04407581-cf8c-4b92-84ae-c92d8c7139ac","ios":"levelo://app?vid=04407581-cf8c-4b92-84ae-c92d8c7139ac"},"vehicle_type_id":"4","last_reported":1700309486,"current_range_meters":24800,"station_id":"ce4bgr92rcd13ifvqc7g","pricing_plan_id":"free"},{"bike_id":"66963c79-9023-4e40-bef4-709c1b04f449","system_id":"levelo_inurba_marseille","lat":43.311583,"lon":5.386771,"is_reserved":false,"is_disabled":false,"rental_uris":{"android":"levelo://app?vid=66963c79-9023-4e40-bef4-709c1b04f449","ios":"levelo://app?vid=66963c79-9023-4e40-bef4-709c1b04f449"},"vehicle_type_id":"4","last_reported":1700309486,"current_range_meters":4000,"station_id":"","pricing_plan_id":"free"},{"bike_id":"5da9dea2-bd9f-4746-b637-56e44ea9e587","system_id":"levelo_inurba_marseille","lat":43.298489,"lon":5.362942,"is_reserved":false,"is_disabled":false,"rental_uris":{"android":"levelo://app?vid=5da9dea2-bd9f-4746-b637-56e44ea9e587","ios":"levelo://app?vid=5da9dea2-bd9f-4746-b637-56e44ea9e587"},"vehicle_type_id":"4","last_reported":1700309486,"current_range_meters":0,"station_id":"","pricing_plan_id":"free"},{"bike_id":"ebfed399-5e1d-4f1d-b26f-5b6e89fc5adc","system_id":"levelo_inurba_marseille","lat":43.298433,"lon":5.362774,"is_reserved":false,"is_disabled":false,"rental_uris":{"android":"levelo://app?vid=ebfed399-5e1d-4f1d-b26f-5b6e89fc5adc","ios":"levelo://app?vid=ebfed399-5e1d-4f1d-b26f-5b6e89fc5adc"},"vehicle_type_id":"4","last_reported":1700309486,"current_range_meters":31200,"station_id":"ce4bgpp2rcd13ifvqc3g","pricing_plan_id":"free"},{"bike_id":"80b5b51c-fc5e-4d1b-b842-de9c43077bc9","system_id":"levelo_inurba_marseille","lat":43.298433,"lon":5.362774,"is_reserved":false,"is_disabled":false,"rental_uris":{"android":"levelo://app?vid=80b5b51c-fc5e-4d1b-b842-de9c43077bc9","ios":"levelo://app?vid=80b5b51c-fc5e-4d1b-b842-de9c43077bc9"},"vehicle_type_id":"4","last_reported":1700309486,"current_range_meters":26400,"station_id":"ce4bgpp2rcd13ifvqc3g","pricing_plan_id":"free"},{"bike_id":"ad335030-ed92-455e-bcac-e54ec80398b5","system_id":"levelo_inurba_marseille","lat":43.298433,"lon":5.362774,"is_reserved":false,"is_disabled":false,"rental_uris":{"android":"levelo://app?vid=ad335030-ed92-455e-bcac-e54ec80398b5","ios":"levelo://app?vid=ad335030-ed92-455e-bcac-e54ec80398b5"},"vehicle_type_id":"4","last_reported":1700309486,"current_range_meters":22400,"station_id":"ce4bgpp2rcd13ifvqc3g","pricing_plan_id":"free"},{"bike_id":"b9bc5992-b977-4a01-9f0a-549ec0a3c193","system_id":"levelo_inurba_marseille","lat":43.298433,"lon":5.362774,"is_reserved":false,"is_disabled":false,"rental_uris":{"android":"levelo://app?vid=b9bc5992-b977-4a01-9f0a-549ec0a3c193","ios":"levelo://app?vid=b9bc5992-b977-4a01-9f0a-549ec0a3c193"},"vehicle_type_id":"4","last_reported":1700309486,"current_range_meters":7600,"station_id":"ce4bgpp2rcd13ifvqc3g","pricing_plan_id":"free"},{"bike_id":"21092fb7-ef0f-4ac5-a7b2-e8d6e7b2de6a","system_id":"levelo_inurba_marseille","lat":43.311722,"lon":5.387247,"is_reserved":false,"is_disabled":false,"rental_uris":{"android":"levelo://app?vid=21092fb7-ef0f-4ac5-a7b2-e8d6e7b2de6a","ios":"levelo://app?vid=21092fb7-ef0f-4ac5-a7b2-e8d6e7b2de6a"},"vehicle_type_id":"4","last_reported":1700309486,"current_range_meters":30800,"station_id":"ce4bgv12rcd13ifvqcp0","pricing_plan_id":"free"},{"bike_id":"7ab9625d-d0d4-4aa1-8a4e-25e8e6c5c099","system_id":"levelo_inurba_marseille","lat":43.311722,"lon":5.387247,"is_reserved":false,"is_disabled":false,"rental_uris":{"android":"levelo://app?vid=7ab9625d-d0d4-4aa1-8a4e-25e8e6c5c099","ios":"levelo://app?vid=7ab9625d-d0d4-4aa1-8a4e-25e8e6c5c099"},"vehicle_type_id":"4","last_reported":1700309486,"current_range_meters":24400,"station_id":"ce4bgv12rcd13ifvqcp0","pricing_plan_id":"free"},{"bike_id":"08343991-2177-4fa0-93f8-e4136441ea57","system_id":"levelo_inurba_marseille","lat":43.311763,"lon":5.387167,"is_reserved":false,"is_disabled":false,"rental_uris":{"android":"levelo://app?vid=08343991-2177-4fa0-93f8-e4136441ea57","ios":"levelo://app?vid=08343991-2177-4fa0-93f8-e4136441ea57"},"vehicle_type_id":"4","last_reported":1700309486,"current_range_meters":28400,"station_id":"ce4bgv12rcd13ifvqcp0","pricing_plan_id":"free"},{"bike_id":"d097807a-dd86-44ca-a72c-334921131ec4","system_id":"levelo_inurba_marseille","lat":43.311722,"lon":5.387247,"is_reserved":false,"is_disabled":false,"rental_uris":{"android":"levelo://app?vid=d097807a-dd86-44ca-a72c-334921131ec4","ios":"levelo://app?vid=d097807a-dd86-44ca-a72c-334921131ec4"},"vehicle_type_id":"4","last_reported":1700309486,"current_range_meters":13600,"station_id":"ce4bgv12rcd13ifvqcp0","pricing_plan_id":"free"},{"bike_id":"83b4a712-5deb-4185-a2eb-cf504fb97aa1","system_id":"levelo_inurba_marseille","lat":43.299135,"lon":5.375205,"is_reserved":false,"is_disabled":false,"rental_uris":{"android":"levelo://app?vid=83b4a712-5deb-4185-a2eb-cf504fb97aa1","ios":"levelo://app?vid=83b4a712-5deb-4185-a2eb-cf504fb97aa1"},"vehicle_type_id":"4","last_reported":1700309486,"current_range_meters":18000,"station_id":"ce4bgjh2rcd13ifvqbg0","pricing_plan_id":"free"},{"bike_id":"4bdbcd8e-6cc2-4ff9-8f57-adb15c80646e","system_id":"levelo_inurba_marseille","lat":43.297794,"lon":5.370888,"is_reserved":false,"is_disabled":false,"rental_uris":{"android":"levelo://app?vid=4bdbcd8e-6cc2-4ff9-8f57-adb15c80646e","ios":"levelo://app?vid=4bdbcd8e-6cc2-4ff9-8f57-adb15c80646e"},"vehicle_type_id":"4","last_reported":1700309486,"current_range_meters":19600,"station_id":"ce4bgop2rcd13ifvqc1g","pricing_plan_id":"free"},{"bike_id":"31682f68-9f19-4d8f-894c-c25c7ced512b","system_id":"levelo_inurba_marseille","lat":43.328273,"lon":5.366757,"is_reserved":false,"is_disabled":false,"rental_uris":{"android":"levelo://app?vid=31682f68-9f19-4d8f-894c-c25c7ced512b","ios":"levelo://app?vid=31682f68-9f19-4d8f-894c-c25c7ced512b"},"vehicle_type_id":"4","last_reported":1700309486,"current_range_meters":28400,"station_id":"ce4bhs92rcd13ifvqi0g","pricing_plan_id":"free"},{"bike_id":"b0bc5a2b-ee52-4745-9049-5d157e365412","system_id":"levelo_inurba_marseille","lat":43.32828,"lon":5.36679,"is_reserved":false,"is_disabled":false,"rental_uris":{"android":"levelo://app?vid=b0bc5a2b-ee52-4745-9049-5d157e365412","ios":"levelo://app?vid=b0bc5a2b-ee52-4745-9049-5d157e365412"},"vehicle_type_id":"4","last_reported":1700309486,"current_range_meters":12000,"station_id":"ce4bhs92rcd13ifvqi0g","pricing_plan_id":"free"},{"bike_id":"6f461906-1734-4a2d-9c3e-a93c6064dfd5","system_id":"levelo_inurba_marseille","lat":43.328286,"lon":5.366731,"is_reserved":false,"is_disabled":false,"rental_uris":{"android":"levelo://app?vid=6f461906-1734-4a2d-9c3e-a93c6064dfd5","ios":"levelo://app?vid=6f461906-1734-4a2d-9c3e-a93c6064dfd5"},"vehicle_type_id":"4","last_reported":1700309486,"current_range_meters":24800,"station_id":"ce4bhs92rcd13ifvqi0g","pricing_plan_id":"free"},{"bike_id":"cd312d42-9d18-4155-9fc8-07ebf21c3ff1","system_id":"levelo_inurba_marseille","lat":43.328439,"lon":5.366764,"is_reserved":false,"is_disabled":false,"rental_uris":{"android":"levelo://app?vid=cd312d42-9d18-4155-9fc8-07ebf21c3ff1","ios":"levelo://app?vid=cd312d42-9d18-4155-9fc8-07ebf21c3ff1"},"vehicle_type_id":"4","last_reported":1700309486,"current_range_meters":20400,"station_id":"ce4bhs92rcd13ifvqi0g","pricing_plan_id":"free"},{"bike_id":"100ea7ab-d5a2-4c49-a1cc-e481b668416c","system_id":"levelo_inurba_marseille","lat":43.29705,"lon":5.36602,"is_reserved":false,"is_disabled":false,"rental_uris":{"android":"levelo://app?vid=100ea7ab-d5a2-4c49-a1cc-e481b668416c","ios":"levelo://app?vid=100ea7ab-d5a2-4c49-a1cc-e481b668416c"},"vehicle_type_id":"4","last_reported":1700309486,"current_range_meters":20400,"station_id":"ce4bgn12rcd13ifvqbt0","pricing_plan_id":"free"},{"bike_id":"422b8c26-5fdd-49e6-a461-0300d5aa3e95","system_id":"levelo_inurba_marseille","lat":43.2968,"lon":5.37291,"is_reserved":false,"is_disabled":false,"rental_uris":{"android":"levelo://app?vid=422b8c26-5fdd-49e6-a461-0300d5aa3e95","ios":"levelo://app?vid=422b8c26-5fdd-49e6-a461-0300d5aa3e95"},"vehicle_type_id":"4","last_reported":1700309486,"current_range_meters":29600,"station_id":"ce4bgk12rcd13ifvqbj0","pricing_plan_id":"free"},{"bike_id":"3fdc0255-7a99-41cc-b5ef-73c992e76416","system_id":"levelo_inurba_marseille","lat":43.2968,"lon":5.37291,"is_reserved":false,"is_disabled":false,"rental_uris":{"android":"levelo://app?vid=3fdc0255-7a99-41cc-b5ef-73c992e76416","ios":"levelo://app?vid=3fdc0255-7a99-41cc-b5ef-73c992e76416"},"vehicle_type_id":"4","last_reported":1700309486,"current_range_meters":31200,"station_id":"ce4bgk12rcd13ifvqbj0","pricing_plan_id":"free"},{"bike_id":"d447991a-59b4-4778-a190-7d2b0920a414","system_id":"levelo_inurba_marseille","lat":43.32215,"lon":5.38613,"is_reserved":false,"is_disabled":false,"rental_uris":{"android":"levelo://app?vid=d447991a-59b4-4778-a190-7d2b0920a414","ios":"levelo://app?vid=d447991a-59b4-4778-a190-7d2b0920a414"},"vehicle_type_id":"4","last_reported":1700309486,"current_range_meters":0,"station_id":"","pricing_plan_id":"free"},{"bike_id":"d850ad29-5c70-4a9c-ba5f-513dfe40721b","system_id":"levelo_inurba_marseille","lat":43.298433,"lon":5.362774,"is_reserved":false,"is_disabled":false,"rental_uris":{"android":"levelo://app?vid=d850ad29-5c70-4a9c-ba5f-513dfe40721b","ios":"levelo://app?vid=d850ad29-5c70-4a9c-ba5f-513dfe40721b"},"vehicle_type_id":"4","last_reported":1700309486,"current_range_meters":0,"station_id":"ce4bgpp2rcd13ifvqc3g","pricing_plan_id":"free"},{"bike_id":"58c39db2-3771-4ddd-aec2-9edfa318a2ab","system_id":"levelo_inurba_marseille","lat":43.29573,"lon":5.367355,"is_reserved":false,"is_disabled":false,"rental_uris":{"android":"levelo://app?vid=58c39db2-3771-4ddd-aec2-9edfa318a2ab","ios":"levelo://app?vid=58c39db2-3771-4ddd-aec2-9edfa318a2ab"},"vehicle_type_id":"4","last_reported":1700309486,"current_range_meters":20800,"station_id":"ce4bgph2rcd13ifvqc2g","pricing_plan_id":"free"},{"bike_id":"2101643d-3a77-4c0d-977f-349e64be19dd","system_id":"levelo_inurba_marseille","lat":43.29573,"lon":5.367355,"is_reserved":false,"is_disabled":false,"rental_uris":{"android":"levelo://app?vid=2101643d-3a77-4c0d-977f-349e64be19dd","ios":"levelo://app?vid=2101643d-3a77-4c0d-977f-349e64be19dd"},"vehicle_type_id":"4","last_reported":1700309486,"current_range_meters":24800,"station_id":"ce4bgph2rcd13ifvqc2g","pricing_plan_id":"free"},{"bike_id":"f9b321d6-1a38-4689-8c1f-a92f5a51baa0","system_id":"levelo_inurba_marseille","lat":43.29573,"lon":5.367355,"is_reserved":false,"is_disabled":false,"rental_uris":{"android":"levelo://app?vid=f9b321d6-1a38-4689-8c1f-a92f5a51baa0","ios":"levelo://app?vid=f9b321d6-1a38-4689-8c1f-a92f5a51baa0"},"vehicle_type_id":"4","last_reported":1700309486,"current_range_meters":8000,"station_id":"ce4bgph2rcd13ifvqc2g","pricing_plan_id":"free"},{"bike_id":"bd1375ad-f55f-489e-a434-9bfe6423f869","system_id":"levelo_inurba_marseille","lat":43.29573,"lon":5.367355,"is_reserved":false,"is_disabled":false,"rental_uris":{"android":"levelo://app?vid=bd1375ad-f55f-489e-a434-9bfe6423f869","ios":"levelo://app?vid=bd1375ad-f55f-489e-a434-9bfe6423f869"},"vehicle_type_id":"4","last_reported":1700309486,"current_range_meters":2000,"station_id":"ce4bgph2rcd13ifvqc2g","pricing_plan_id":"free"},{"bike_id":"72370b01-4b1c-4d21-8ac6-009df9ac6f0f","system_id":"levelo_inurba_marseille","lat":43.29573,"lon":5.367355,"is_reserved":false,"is_disabled":false,"rental_uris":{"android":"levelo://app?vid=72370b01-4b1c-4d21-8ac6-009df9ac6f0f","ios":"levelo://app?vid=72370b01-4b1c-4d21-8ac6-009df9ac6f0f"},"vehicle_type_id":"4","last_reported":1700309486,"current_range_meters":31200,"station_id":"ce4bgph2rcd13ifvqc2g","pricing_plan_id":"free"},{"bike_id":"3adca058-39b2-4384-b56b-55922a05bec9","system_id":"levelo_inurba_marseille","lat":43.29573,"lon":5.367355,"is_reserved":false,"is_disabled":false,"rental_uris":{"android":"levelo://app?vid=3adca058-39b2-4384-b56b-55922a05bec9","ios":"levelo://app?vid=3adca058-39b2-4384-b56b-55922a05bec9"},"vehicle_type_id":"4","last_reported":1700309486,"current_range_meters":4800,"station_id":"ce4bgph2rcd13ifvqc2g","pricing_plan_id":"free"},{"bike_id":"85ebfe18-2b90-4371-84b1-918f31180f1b","system_id":"levelo_inurba_marseille","lat":43.295748,"lon":5.37522,"is_reserved":false,"is_disabled":false,"rental_uris":{"android":"levelo://app?vid=85ebfe18-2b90-4371-84b1-918f31180f1b","ios":"levelo://app?vid=85ebfe18-2b90-4371-84b1-918f31180f1b"},"vehicle_type_id":"4","last_reported":1700309486,"current_range_meters":2800,"station_id":"ce4bgh92rcd13ifvqb50","pricing_plan_id":"free"},{"bike_id":"7bfaefc9-b16c-4909-8723-0f177a77cbd2","system_id":"levelo_inurba_marseille","lat":43.295697,"lon":5.374807,"is_reserved":false,"is_disabled":false,"rental_uris":{"android":"levelo://app?vid=7bfaefc9-b16c-4909-8723-0f177a77cbd2","ios":"levelo://app?vid=7bfaefc9-b16c-4909-8723-0f177a77cbd2"},"vehicle_type_id":"4","last_reported":1700309486,"current_range_meters":11600,"station_id":"ce4bgh92rcd13ifvqb50","pricing_plan_id":"free"},{"bike_id":"d2dced52-b7fb-4d11-ad33-56be009e3364","system_id":"levelo_inurba_marseille","lat":43.321847,"lon":5.388263,"is_reserved":false,"is_disabled":false,"rental_uris":{"android":"levelo://app?vid=d2dced52-b7fb-4d11-ad33-56be009e3364","ios":"levelo://app?vid=d2dced52-b7fb-4d11-ad33-56be009e3364"},"vehicle_type_id":"4","last_reported":1700309486,"current_range_meters":19200,"station_id":"","pricing_plan_id":"free"},{"bike_id":"7020b706-ba5a-450d-a0b0-6a65e26d186d","system_id":"levelo_inurba_marseille","lat":43.29573,"lon":5.375123,"is_reserved":false,"is_disabled":false,"rental_uris":{"android":"levelo://app?vid=7020b706-ba5a-450d-a0b0-6a65e26d186d","ios":"levelo://app?vid=7020b706-ba5a-450d-a0b0-6a65e26d186d"},"vehicle_type_id":"4","last_reported":1700309486,"current_range_meters":24800,"station_id":"ce4bgh92rcd13ifvqb50","pricing_plan_id":"free"},{"bike_id":"67ffd28a-0325-489b-a10f-d90500122751","system_id":"levelo_inurba_marseille","lat":43.29566,"lon":5.37509,"is_reserved":false,"is_disabled":false,"rental_uris":{"android":"levelo://app?vid=67ffd28a-0325-489b-a10f-d90500122751","ios":"levelo://app?vid=67ffd28a-0325-489b-a10f-d90500122751"},"vehicle_type_id":"4","last_reported":1700309486,"current_range_meters":30400,"station_id":"ce4bgh92rcd13ifvqb50","pricing_plan_id":"free"},{"bike_id":"3e3e92fe-39b7-4933-99ff-3747b28b5d69","system_id":"levelo_inurba_marseille","lat":43.328154,"lon":5.380034,"is_reserved":false,"is_disabled":false,"rental_uris":{"android":"levelo://app?vid=3e3e92fe-39b7-4933-99ff-3747b28b5d69","ios":"levelo://app?vid=3e3e92fe-39b7-4933-99ff-3747b28b5d69"},"vehicle_type_id":"4","last_reported":1700309486,"current_range_meters":10000,"station_id":"","pricing_plan_id":"free"},{"bike_id":"7be586ef-50e2-4d18-86b5-3f2701448b3c","system_id":"levelo_inurba_marseille","lat":43.29611,"lon":5.37713,"is_reserved":false,"is_disabled":false,"rental_uris":{"android":"levelo://app?vid=7be586ef-50e2-4d18-86b5-3f2701448b3c","ios":"levelo://app?vid=7be586ef-50e2-4d18-86b5-3f2701448b3c"},"vehicle_type_id":"4","last_reported":1700309486,"current_range_meters":18400,"station_id":"ce4bgi92rcd13ifvqb90","pricing_plan_id":"free"},{"bike_id":"f401fc98-cb18-435e-abe3-12ab646f07ab","system_id":"levelo_inurba_marseille","lat":43.295279,"lon":5.375048,"is_reserved":false,"is_disabled":false,"rental_uris":{"android":"levelo://app?vid=f401fc98-cb18-435e-abe3-12ab646f07ab","ios":"levelo://app?vid=f401fc98-cb18-435e-abe3-12ab646f07ab"},"vehicle_type_id":"4","last_reported":1700309486,"current_range_meters":23200,"station_id":"ce4bgkp2rcd13ifvqbmg","pricing_plan_id":"free"},{"bike_id":"ea8dd8a3-e5ff-4653-875b-6311c8dcab7a","system_id":"levelo_inurba_marseille","lat":43.299707,"lon":5.384859,"is_reserved":false,"is_disabled":false,"rental_uris":{"android":"levelo://app?vid=ea8dd8a3-e5ff-4653-875b-6311c8dcab7a","ios":"levelo://app?vid=ea8dd8a3-e5ff-4653-875b-6311c8dcab7a"},"vehicle_type_id":"4","last_reported":1700309486,"current_range_meters":22000,"station_id":"ce4bgj92rcd13ifvqbd0","pricing_plan_id":"free"},{"bike_id":"ec08e087-a49b-4423-8fc8-7800573a627d","system_id":"levelo_inurba_marseille","lat":43.299707,"lon":5.384859,"is_reserved":false,"is_disabled":false,"rental_uris":{"android":"levelo://app?vid=ec08e087-a49b-4423-8fc8-7800573a627d","ios":"levelo://app?vid=ec08e087-a49b-4423-8fc8-7800573a627d"},"vehicle_type_id":"4","last_reported":1700309486,"current_range_meters":24000,"station_id":"ce4bgj92rcd13ifvqbd0","pricing_plan_id":"free"},{"bike_id":"3d8121dc-a68a-483b-8dd1-87687a33888d","system_id":"levelo_inurba_marseille","lat":43.299707,"lon":5.384859,"is_reserved":false,"is_disabled":false,"rental_uris":{"android":"levelo://app?vid=3d8121dc-a68a-483b-8dd1-87687a33888d","ios":"levelo://app?vid=3d8121dc-a68a-483b-8dd1-87687a33888d"},"vehicle_type_id":"4","last_reported":1700309486,"current_range_meters":7200,"station_id":"ce4bgj92rcd13ifvqbd0","pricing_plan_id":"free"},{"bike_id":"348c83ad-345b-4bf5-bbe2-7e4604688a8a","system_id":"levelo_inurba_marseille","lat":43.295279,"lon":5.375048,"is_reserved":false,"is_disabled":false,"rental_uris":{"android":"levelo://app?vid=348c83ad-345b-4bf5-bbe2-7e4604688a8a","ios":"levelo://app?vid=348c83ad-345b-4bf5-bbe2-7e4604688a8a"},"vehicle_type_id":"4","last_reported":1700309486,"current_range_meters":28000,"station_id":"ce4bgkp2rcd13ifvqbmg","pricing_plan_id":"free"},{"bike_id":"e145a3f7-00ac-4f8f-bfe5-435bc38ccaf7","system_id":"levelo_inurba_marseille","lat":43.293801,"lon":5.363066,"is_reserved":false,"is_disabled":false,"rental_uris":{"android":"levelo://app?vid=e145a3f7-00ac-4f8f-bfe5-435bc38ccaf7","ios":"levelo://app?vid=e145a3f7-00ac-4f8f-bfe5-435bc38ccaf7"},"vehicle_type_id":"4","last_reported":1700309486,"current_range_meters":26800,"station_id":"","pricing_plan_id":"free"},{"bike_id":"ced0c360-0794-48b0-87fc-9cd68f6500bd","system_id":"levelo_inurba_marseille","lat":43.293009,"lon":5.374584,"is_reserved":false,"is_disabled":false,"rental_uris":{"android":"levelo://app?vid=ced0c360-0794-48b0-87fc-9cd68f6500bd","ios":"levelo://app?vid=ced0c360-0794-48b0-87fc-9cd68f6500bd"},"vehicle_type_id":"4","last_reported":1700309486,"current_range_meters":4400,"station_id":"ce4bgi12rcd13ifvqb70","pricing_plan_id":"free"},{"bike_id":"6bbf945b-c4a5-4e18-9f07-4596b4547487","system_id":"levelo_inurba_marseille","lat":43.303002,"lon":5.392142,"is_reserved":false,"is_disabled":false,"rental_uris":{"android":"levelo://app?vid=6bbf945b-c4a5-4e18-9f07-4596b4547487","ios":"levelo://app?vid=6bbf945b-c4a5-4e18-9f07-4596b4547487"},"vehicle_type_id":"4","last_reported":1700309486,"current_range_meters":25200,"station_id":"ce4bgkh2rcd13ifvqbk0","pricing_plan_id":"free"},{"bike_id":"c41523f4-5778-41d0-8caa-ed301bed2a66","system_id":"levelo_inurba_marseille","lat":43.2936,"lon":5.37835,"is_reserved":false,"is_disabled":false,"rental_uris":{"android":"levelo://app?vid=c41523f4-5778-41d0-8caa-ed301bed2a66","ios":"levelo://app?vid=c41523f4-5778-41d0-8caa-ed301bed2a66"},"vehicle_type_id":"4","last_reported":1700309486,"current_range_meters":11600,"station_id":"ce4bgjh2rcd13ifvqbf0","pricing_plan_id":"free"},{"bike_id":"8c532d2c-7d1e-477c-b453-404dcc4635e7","system_id":"levelo_inurba_marseille","lat":43.292663,"lon":5.376389,"is_reserved":false,"is_disabled":false,"rental_uris":{"android":"levelo://app?vid=8c532d2c-7d1e-477c-b453-404dcc4635e7","ios":"levelo://app?vid=8c532d2c-7d1e-477c-b453-404dcc4635e7"},"vehicle_type_id":"4","last_reported":1700309486,"current_range_meters":10000,"station_id":"ce4bgi12rcd13ifvqb80","pricing_plan_id":"free"},{"bike_id":"c6a10603-7cc3-4ea9-b822-1100def4aadb","system_id":"levelo_inurba_marseille","lat":43.298764,"lon":5.388973,"is_reserved":false,"is_disabled":false,"rental_uris":{"android":"levelo://app?vid=c6a10603-7cc3-4ea9-b822-1100def4aadb","ios":"levelo://app?vid=c6a10603-7cc3-4ea9-b822-1100def4aadb"},"vehicle_type_id":"4","last_reported":1700309486,"current_range_meters":13200,"station_id":"ce4bh392rcd13ifvqdl0","pricing_plan_id":"free"},{"bike_id":"b4d3e386-f2b7-47b6-a153-1e04d31aec28","system_id":"levelo_inurba_marseille","lat":43.298764,"lon":5.388973,"is_reserved":false,"is_disabled":false,"rental_uris":{"android":"levelo://app?vid=b4d3e386-f2b7-47b6-a153-1e04d31aec28","ios":"levelo://app?vid=b4d3e386-f2b7-47b6-a153-1e04d31aec28"},"vehicle_type_id":"4","last_reported":1700309486,"current_range_meters":6000,"station_id":"ce4bh392rcd13ifvqdl0","pricing_plan_id":"free"},{"bike_id":"4eef38cc-64cf-4f4d-8d5b-99bd9d3b1b37","system_id":"levelo_inurba_marseille","lat":43.291675,"lon":5.371583,"is_reserved":false,"is_disabled":false,"rental_uris":{"android":"levelo://app?vid=4eef38cc-64cf-4f4d-8d5b-99bd9d3b1b37","ios":"levelo://app?vid=4eef38cc-64cf-4f4d-8d5b-99bd9d3b1b37"},"vehicle_type_id":"4","last_reported":1700309486,"current_range_meters":27200,"station_id":"ce4bha92rcd13ifvqeh0","pricing_plan_id":"free"},{"bike_id":"91b09607-ddf0-4862-9a2b-c95ec96b3c9a","system_id":"levelo_inurba_marseille","lat":43.2986,"lon":5.38905,"is_reserved":false,"is_disabled":false,"rental_uris":{"android":"levelo://app?vid=91b09607-ddf0-4862-9a2b-c95ec96b3c9a","ios":"levelo://app?vid=91b09607-ddf0-4862-9a2b-c95ec96b3c9a"},"vehicle_type_id":"4","last_reported":1700309486,"current_range_meters":11200,"station_id":"ce4bh392rcd13ifvqdl0","pricing_plan_id":"free"},{"bike_id":"4e2e18d7-bb66-49c1-a8fc-d07d62ee36c4","system_id":"levelo_inurba_marseille","lat":43.309038,"lon":5.396546,"is_reserved":false,"is_disabled":false,"rental_uris":{"android":"levelo://app?vid=4e2e18d7-bb66-49c1-a8fc-d07d62ee36c4","ios":"levelo://app?vid=4e2e18d7-bb66-49c1-a8fc-d07d62ee36c4"},"vehicle_type_id":"4","last_reported":1700309486,"current_range_meters":19200,"station_id":"ce4bh012rcd13ifvqcv0","pricing_plan_id":"free"},{"bike_id":"04b1f719-abdf-4513-b5cb-c9c0f5d805cc","system_id":"levelo_inurba_marseille","lat":43.29544,"lon":5.38613,"is_reserved":false,"is_disabled":false,"rental_uris":{"android":"levelo://app?vid=04b1f719-abdf-4513-b5cb-c9c0f5d805cc","ios":"levelo://app?vid=04b1f719-abdf-4513-b5cb-c9c0f5d805cc"},"vehicle_type_id":"4","last_reported":1700309486,"current_range_meters":17600,"station_id":"ce4bgih2rcd13ifvqba0","pricing_plan_id":"free"},{"bike_id":"bfc16bd5-b0fe-4f64-8f09-470852ea5431","system_id":"levelo_inurba_marseille","lat":43.289184,"lon":5.366408,"is_reserved":false,"is_disabled":false,"rental_uris":{"android":"levelo://app?vid=bfc16bd5-b0fe-4f64-8f09-470852ea5431","ios":"levelo://app?vid=bfc16bd5-b0fe-4f64-8f09-470852ea5431"},"vehicle_type_id":"4","last_reported":1700309486,"current_range_meters":27600,"station_id":"ce4bhap2rcd13ifvqek0","pricing_plan_id":"free"},{"bike_id":"546fc72e-1459-46fe-bf86-7e70120e6e38","system_id":"levelo_inurba_marseille","lat":43.295169,"lon":5.390426,"is_reserved":false,"is_disabled":false,"rental_uris":{"android":"levelo://app?vid=546fc72e-1459-46fe-bf86-7e70120e6e38","ios":"levelo://app?vid=546fc72e-1459-46fe-bf86-7e70120e6e38"},"vehicle_type_id":"4","last_reported":1700309486,"current_range_meters":14400,"station_id":"ce4bh3p2rcd13ifvqdp0","pricing_plan_id":"free"},{"bike_id":"7b2aa140-7cd4-404d-9cb0-cdd0eeb54674","system_id":"levelo_inurba_marseille","lat":43.295169,"lon":5.390426,"is_reserved":false,"is_disabled":false,"rental_uris":{"android":"levelo://app?vid=7b2aa140-7cd4-404d-9cb0-cdd0eeb54674","ios":"levelo://app?vid=7b2aa140-7cd4-404d-9cb0-cdd0eeb54674"},"vehicle_type_id":"4","last_reported":1700309486,"current_range_meters":5200,"station_id":"ce4bh3p2rcd13ifvqdp0","pricing_plan_id":"free"},{"bike_id":"bcaf2e0b-b599-450f-ae31-f59325a0a8bb","system_id":"levelo_inurba_marseille","lat":43.272118,"lon":5.391758,"is_reserved":false,"is_disabled":false,"rental_uris":{"android":"levelo://app?vid=bcaf2e0b-b599-450f-ae31-f59325a0a8bb","ios":"levelo://app?vid=bcaf2e0b-b599-450f-ae31-f59325a0a8bb"},"vehicle_type_id":"4","last_reported":1700309486,"current_range_meters":7600,"station_id":"ce4bhhp2rcd13ifvqfm0","pricing_plan_id":"free"},{"bike_id":"76a849c9-96e3-45f6-a380-c9baedf70f3f","system_id":"levelo_inurba_marseille","lat":43.28856,"lon":5.358371,"is_reserved":false,"is_disabled":false,"rental_uris":{"android":"levelo://app?vid=76a849c9-96e3-45f6-a380-c9baedf70f3f","ios":"levelo://app?vid=76a849c9-96e3-45f6-a380-c9baedf70f3f"},"vehicle_type_id":"4","last_reported":1700309486,"current_range_meters":29200,"station_id":"ce4bhb12rcd13ifvqem0","pricing_plan_id":"free"},{"bike_id":"e96d797c-324d-4486-8715-2852708f8466","system_id":"levelo_inurba_marseille","lat":43.33725,"lon":5.37511,"is_reserved":false,"is_disabled":false,"rental_uris":{"android":"levelo://app?vid=e96d797c-324d-4486-8715-2852708f8466","ios":"levelo://app?vid=e96d797c-324d-4486-8715-2852708f8466"},"vehicle_type_id":"4","last_reported":1700309486,"current_range_meters":22000,"station_id":"","pricing_plan_id":"free"},{"bike_id":"07202f70-50d7-46f0-a5bd-59712659d6a0","system_id":"levelo_inurba_marseille","lat":43.31251,"lon":5.40162,"is_reserved":false,"is_disabled":false,"rental_uris":{"android":"levelo://app?vid=07202f70-50d7-46f0-a5bd-59712659d6a0","ios":"levelo://app?vid=07202f70-50d7-46f0-a5bd-59712659d6a0"},"vehicle_type_id":"4","last_reported":1700309486,"current_range_meters":14800,"station_id":"","pricing_plan_id":"free"},{"bike_id":"599e2d0c-adec-4051-af6c-eb6b54362a18","system_id":"levelo_inurba_marseille","lat":43.309355,"lon":5.401414,"is_reserved":false,"is_disabled":false,"rental_uris":{"android":"levelo://app?vid=599e2d0c-adec-4051-af6c-eb6b54362a18","ios":"levelo://app?vid=599e2d0c-adec-4051-af6c-eb6b54362a18"},"vehicle_type_id":"4","last_reported":1700309486,"current_range_meters":25600,"station_id":"ce4bgvp2rcd13ifvqct0","pricing_plan_id":"free"},{"bike_id":"dd677d89-f872-48b6-9189-ad010113377c","system_id":"levelo_inurba_marseille","lat":43.33747,"lon":5.3745,"is_reserved":false,"is_disabled":false,"rental_uris":{"android":"levelo://app?vid=dd677d89-f872-48b6-9189-ad010113377c","ios":"levelo://app?vid=dd677d89-f872-48b6-9189-ad010113377c"},"vehicle_type_id":"4","last_reported":1700309486,"current_range_meters":31200,"station_id":"","pricing_plan_id":"free"},{"bike_id":"67fea527-a876-4914-af14-4d82adb78105","system_id":"levelo_inurba_marseille","lat":43.309371,"lon":5.401449,"is_reserved":false,"is_disabled":false,"rental_uris":{"android":"levelo://app?vid=67fea527-a876-4914-af14-4d82adb78105","ios":"levelo://app?vid=67fea527-a876-4914-af14-4d82adb78105"},"vehicle_type_id":"4","last_reported":1700309486,"current_range_meters":14400,"station_id":"ce4bgvp2rcd13ifvqct0","pricing_plan_id":"free"},{"bike_id":"35e15b2d-e7bf-454b-8a85-70117ea4c4c8","system_id":"levelo_inurba_marseille","lat":43.3093,"lon":5.40148,"is_reserved":false,"is_disabled":false,"rental_uris":{"android":"levelo://app?vid=35e15b2d-e7bf-454b-8a85-70117ea4c4c8","ios":"levelo://app?vid=35e15b2d-e7bf-454b-8a85-70117ea4c4c8"},"vehicle_type_id":"4","last_reported":1700309486,"current_range_meters":7600,"station_id":"ce4bgvp2rcd13ifvqct0","pricing_plan_id":"free"},{"bike_id":"2676b631-6c7e-4d8f-ab92-7783378d4c52","system_id":"levelo_inurba_marseille","lat":43.298681,"lon":5.397225,"is_reserved":false,"is_disabled":false,"rental_uris":{"android":"levelo://app?vid=2676b631-6c7e-4d8f-ab92-7783378d4c52","ios":"levelo://app?vid=2676b631-6c7e-4d8f-ab92-7783378d4c52"},"vehicle_type_id":"4","last_reported":1700309486,"current_range_meters":22800,"station_id":"ce4bh0h2rcd13ifvqd50","pricing_plan_id":"free"},{"bike_id":"b921015c-db89-40a0-ac0f-3dee6b40354b","system_id":"levelo_inurba_marseille","lat":43.302759,"lon":5.400793,"is_reserved":false,"is_disabled":false,"rental_uris":{"android":"levelo://app?vid=b921015c-db89-40a0-ac0f-3dee6b40354b","ios":"levelo://app?vid=b921015c-db89-40a0-ac0f-3dee6b40354b"},"vehicle_type_id":"4","last_reported":1700309486,"current_range_meters":0,"station_id":"ce4bgvh2rcd13ifvqcs0","pricing_plan_id":"free"},{"bike_id":"13988e03-e8eb-4d25-a757-12134e1cd53d","system_id":"levelo_inurba_marseille","lat":43.29021,"lon":5.38632,"is_reserved":false,"is_disabled":false,"rental_uris":{"android":"levelo://app?vid=13988e03-e8eb-4d25-a757-12134e1cd53d","ios":"levelo://app?vid=13988e03-e8eb-4d25-a757-12134e1cd53d"},"vehicle_type_id":"4","last_reported":1700309486,"current_range_meters":6400,"station_id":"ce4bh4p2rcd13ifvqe0g","pricing_plan_id":"free"},{"bike_id":"d9e10525-3252-4e45-b1e5-fd3e03f3a61f","system_id":"levelo_inurba_marseille","lat":43.286039,"lon":5.370681,"is_reserved":false,"is_disabled":false,"rental_uris":{"android":"levelo://app?vid=d9e10525-3252-4e45-b1e5-fd3e03f3a61f","ios":"levelo://app?vid=d9e10525-3252-4e45-b1e5-fd3e03f3a61f"},"vehicle_type_id":"4","last_reported":1700309486,"current_range_meters":10400,"station_id":"ce4bht12rcd13ifvqi60","pricing_plan_id":"free"},{"bike_id":"ea16aaed-88a8-43b1-a791-c3d35ad50e06","system_id":"levelo_inurba_marseille","lat":43.28607,"lon":5.37069,"is_reserved":false,"is_disabled":false,"rental_uris":{"android":"levelo://app?vid=ea16aaed-88a8-43b1-a791-c3d35ad50e06","ios":"levelo://app?vid=ea16aaed-88a8-43b1-a791-c3d35ad50e06"},"vehicle_type_id":"4","last_reported":1700309486,"current_range_meters":22400,"station_id":"ce4bht12rcd13ifvqi60","pricing_plan_id":"free"},{"bike_id":"9af3488d-b36d-4c62-ae4f-fa86890b2cd9","system_id":"levelo_inurba_marseille","lat":43.291994,"lon":5.392907,"is_reserved":false,"is_disabled":false,"rental_uris":{"android":"levelo://app?vid=9af3488d-b36d-4c62-ae4f-fa86890b2cd9","ios":"levelo://app?vid=9af3488d-b36d-4c62-ae4f-fa86890b2cd9"},"vehicle_type_id":"4","last_reported":1700309486,"current_range_meters":20800,"station_id":"ce4bh192rcd13ifvqdd0","pricing_plan_id":"free"},{"bike_id":"f2be749f-7f8c-403a-b0d9-d9c9d684d342","system_id":"levelo_inurba_marseille","lat":43.28612,"lon":5.35108,"is_reserved":false,"is_disabled":false,"rental_uris":{"android":"levelo://app?vid=f2be749f-7f8c-403a-b0d9-d9c9d684d342","ios":"levelo://app?vid=f2be749f-7f8c-403a-b0d9-d9c9d684d342"},"vehicle_type_id":"4","last_reported":1700309486,"current_range_meters":6000,"station_id":"ce4bhch2rcd13ifvqeug","pricing_plan_id":"free"},{"bike_id":"ba092889-b990-4d41-8aa8-59d587e5565b","system_id":"levelo_inurba_marseille","lat":43.283998,"lon":5.375062,"is_reserved":false,"is_disabled":false,"rental_uris":{"android":"levelo://app?vid=ba092889-b990-4d41-8aa8-59d587e5565b","ios":"levelo://app?vid=ba092889-b990-4d41-8aa8-59d587e5565b"},"vehicle_type_id":"4","last_reported":1700309486,"current_range_meters":20400,"station_id":"ce4bh412rcd13ifvqds0","pricing_plan_id":"free"},{"bike_id":"32766e57-adff-43e6-b4c3-4acbb4516be2","system_id":"levelo_inurba_marseille","lat":43.295717,"lon":5.399697,"is_reserved":false,"is_disabled":false,"rental_uris":{"android":"levelo://app?vid=32766e57-adff-43e6-b4c3-4acbb4516be2","ios":"levelo://app?vid=32766e57-adff-43e6-b4c3-4acbb4516be2"},"vehicle_type_id":"4","last_reported":1700309486,"current_range_meters":14000,"station_id":"","pricing_plan_id":"free"},{"bike_id":"83817918-40fc-48a0-b4d2-4ca9f198594c","system_id":"levelo_inurba_marseille","lat":43.294538,"lon":5.39855,"is_reserved":false,"is_disabled":false,"rental_uris":{"android":"levelo://app?vid=83817918-40fc-48a0-b4d2-4ca9f198594c","ios":"levelo://app?vid=83817918-40fc-48a0-b4d2-4ca9f198594c"},"vehicle_type_id":"4","last_reported":1700309486,"current_range_meters":0,"station_id":"","pricing_plan_id":"free"},{"bike_id":"5974ad3b-da81-42ca-a08b-1b3632a47afa","system_id":"levelo_inurba_marseille","lat":43.33237,"lon":5.3985,"is_reserved":false,"is_disabled":false,"rental_uris":{"android":"levelo://app?vid=5974ad3b-da81-42ca-a08b-1b3632a47afa","ios":"levelo://app?vid=5974ad3b-da81-42ca-a08b-1b3632a47afa"},"vehicle_type_id":"4","last_reported":1700309486,"current_range_meters":5600,"station_id":"","pricing_plan_id":"free"},{"bike_id":"9479b33d-9a0a-4fa7-936a-b31e9ab1469c","system_id":"levelo_inurba_marseille","lat":43.284793,"lon":5.384113,"is_reserved":false,"is_disabled":false,"rental_uris":{"android":"levelo://app?vid=9479b33d-9a0a-4fa7-936a-b31e9ab1469c","ios":"levelo://app?vid=9479b33d-9a0a-4fa7-936a-b31e9ab1469c"},"vehicle_type_id":"4","last_reported":1700309486,"current_range_meters":0,"station_id":"ce4bh512rcd13ifvqe3g","pricing_plan_id":"free"},{"bike_id":"25d22803-6450-40da-83fc-ecc72c2b0d06","system_id":"levelo_inurba_marseille","lat":43.29795,"lon":5.404086,"is_reserved":false,"is_disabled":false,"rental_uris":{"android":"levelo://app?vid=25d22803-6450-40da-83fc-ecc72c2b0d06","ios":"levelo://app?vid=25d22803-6450-40da-83fc-ecc72c2b0d06"},"vehicle_type_id":"4","last_reported":1700309486,"current_range_meters":14800,"station_id":"ce4bh112rcd13ifvqd90","pricing_plan_id":"free"},{"bike_id":"d3dd3e3d-57b0-4c9e-949f-fddd56c2349c","system_id":"levelo_inurba_marseille","lat":43.32521,"lon":5.40575,"is_reserved":false,"is_disabled":false,"rental_uris":{"android":"levelo://app?vid=d3dd3e3d-57b0-4c9e-949f-fddd56c2349c","ios":"levelo://app?vid=d3dd3e3d-57b0-4c9e-949f-fddd56c2349c"},"vehicle_type_id":"4","last_reported":1700309486,"current_range_meters":2400,"station_id":"","pricing_plan_id":"free"},{"bike_id":"30217e36-fa92-44cc-bd49-bef3beddd85c","system_id":"levelo_inurba_marseille","lat":43.284219,"lon":5.3497,"is_reserved":false,"is_disabled":false,"rental_uris":{"android":"levelo://app?vid=30217e36-fa92-44cc-bd49-bef3beddd85c","ios":"levelo://app?vid=30217e36-fa92-44cc-bd49-bef3beddd85c"},"vehicle_type_id":"4","last_reported":1700309486,"current_range_meters":8400,"station_id":"ce4bhbh2rcd13ifvqepg","pricing_plan_id":"free"},{"bike_id":"125741dd-08ff-4d0a-9be4-9ddd31ba92a0","system_id":"levelo_inurba_marseille","lat":43.282744,"lon":5.350533,"is_reserved":false,"is_disabled":false,"rental_uris":{"android":"levelo://app?vid=125741dd-08ff-4d0a-9be4-9ddd31ba92a0","ios":"levelo://app?vid=125741dd-08ff-4d0a-9be4-9ddd31ba92a0"},"vehicle_type_id":"4","last_reported":1700309486,"current_range_meters":26400,"station_id":"ce4bhbp2rcd13ifvqerg","pricing_plan_id":"free"},{"bike_id":"ccf9b17e-2fb6-47d5-b5cb-73ea08fcb6e5","system_id":"levelo_inurba_marseille","lat":43.28575,"lon":5.39498,"is_reserved":false,"is_disabled":false,"rental_uris":{"android":"levelo://app?vid=ccf9b17e-2fb6-47d5-b5cb-73ea08fcb6e5","ios":"levelo://app?vid=ccf9b17e-2fb6-47d5-b5cb-73ea08fcb6e5"},"vehicle_type_id":"4","last_reported":1700309486,"current_range_meters":1200,"station_id":"ce4bh292rcd13ifvqdg0","pricing_plan_id":"free"},{"bike_id":"f3f4afeb-6e1e-4647-b63c-578c72598a73","system_id":"levelo_inurba_marseille","lat":43.2822,"lon":5.39031,"is_reserved":false,"is_disabled":false,"rental_uris":{"android":"levelo://app?vid=f3f4afeb-6e1e-4647-b63c-578c72598a73","ios":"levelo://app?vid=f3f4afeb-6e1e-4647-b63c-578c72598a73"},"vehicle_type_id":"4","last_reported":1700309486,"current_range_meters":11200,"station_id":"","pricing_plan_id":"free"},{"bike_id":"feca28d2-7019-4e39-96be-d7938cc29597","system_id":"levelo_inurba_marseille","lat":43.32435,"lon":5.4137,"is_reserved":false,"is_disabled":false,"rental_uris":{"android":"levelo://app?vid=feca28d2-7019-4e39-96be-d7938cc29597","ios":"levelo://app?vid=feca28d2-7019-4e39-96be-d7938cc29597"},"vehicle_type_id":"4","last_reported":1700309486,"current_range_meters":0,"station_id":"","pricing_plan_id":"free"},{"bike_id":"f01c464f-cf5c-4507-bc3a-8014b1b8301a","system_id":"levelo_inurba_marseille","lat":43.279742,"lon":5.38744,"is_reserved":false,"is_disabled":false,"rental_uris":{"android":"levelo://app?vid=f01c464f-cf5c-4507-bc3a-8014b1b8301a","ios":"levelo://app?vid=f01c464f-cf5c-4507-bc3a-8014b1b8301a"},"vehicle_type_id":"4","last_reported":1700309486,"current_range_meters":11600,"station_id":"ce4bhg12rcd13ifvqf80","pricing_plan_id":"free"},{"bike_id":"b5d2a715-43e5-4655-a003-0c748883ea23","system_id":"levelo_inurba_marseille","lat":43.292571,"lon":5.409107,"is_reserved":false,"is_disabled":false,"rental_uris":{"android":"levelo://app?vid=b5d2a715-43e5-4655-a003-0c748883ea23","ios":"levelo://app?vid=b5d2a715-43e5-4655-a003-0c748883ea23"},"vehicle_type_id":"4","last_reported":1700309486,"current_range_meters":30400,"station_id":"ce4bh192rcd13ifvqdc0","pricing_plan_id":"free"},{"bike_id":"4a35008b-b397-4982-975c-71b1bb1c0196","system_id":"levelo_inurba_marseille","lat":43.27619,"lon":5.36105,"is_reserved":false,"is_disabled":false,"rental_uris":{"android":"levelo://app?vid=4a35008b-b397-4982-975c-71b1bb1c0196","ios":"levelo://app?vid=4a35008b-b397-4982-975c-71b1bb1c0196"},"vehicle_type_id":"4","last_reported":1700309486,"current_range_meters":13600,"station_id":"ce4bgj92rcd13ifvqbe0","pricing_plan_id":"free"},{"bike_id":"b51c519d-eb9c-462c-b911-7f347933ffaf","system_id":"levelo_inurba_marseille","lat":43.29368,"lon":5.41256,"is_reserved":false,"is_disabled":false,"rental_uris":{"android":"levelo://app?vid=b51c519d-eb9c-462c-b911-7f347933ffaf","ios":"levelo://app?vid=b51c519d-eb9c-462c-b911-7f347933ffaf"},"vehicle_type_id":"4","last_reported":1700309486,"current_range_meters":21600,"station_id":"","pricing_plan_id":"free"},{"bike_id":"dc9258ff-1819-4193-ae67-9d70ccfcc22b","system_id":"levelo_inurba_marseille","lat":43.303837,"lon":5.418724,"is_reserved":false,"is_disabled":false,"rental_uris":{"android":"levelo://app?vid=dc9258ff-1819-4193-ae67-9d70ccfcc22b","ios":"levelo://app?vid=dc9258ff-1819-4193-ae67-9d70ccfcc22b"},"vehicle_type_id":"4","last_reported":1700309486,"current_range_meters":20400,"station_id":"ce4bhop2rcd13ifvqh7g","pricing_plan_id":"free"},{"bike_id":"71c67903-569a-40bd-ace9-d408d710238f","system_id":"levelo_inurba_marseille","lat":43.27376,"lon":5.36249,"is_reserved":false,"is_disabled":false,"rental_uris":{"android":"levelo://app?vid=71c67903-569a-40bd-ace9-d408d710238f","ios":"levelo://app?vid=71c67903-569a-40bd-ace9-d408d710238f"},"vehicle_type_id":"4","last_reported":1700309486,"current_range_meters":12000,"station_id":"ce4bhbh2rcd13ifvqeo0","pricing_plan_id":"free"},{"bike_id":"14f4efc7-f9f5-4c25-8eee-0ad538ce273b","system_id":"levelo_inurba_marseille","lat":43.275625,"lon":5.384392,"is_reserved":false,"is_disabled":false,"rental_uris":{"android":"levelo://app?vid=14f4efc7-f9f5-4c25-8eee-0ad538ce273b","ios":"levelo://app?vid=14f4efc7-f9f5-4c25-8eee-0ad538ce273b"},"vehicle_type_id":"4","last_reported":1700309486,"current_range_meters":19200,"station_id":"ce4bhh92rcd13ifvqfi0","pricing_plan_id":"free"},{"bike_id":"a42e6500-343f-47ad-b3d3-a40e49c4667a","system_id":"levelo_inurba_marseille","lat":43.273613,"lon":5.362705,"is_reserved":false,"is_disabled":false,"rental_uris":{"android":"levelo://app?vid=a42e6500-343f-47ad-b3d3-a40e49c4667a","ios":"levelo://app?vid=a42e6500-343f-47ad-b3d3-a40e49c4667a"},"vehicle_type_id":"4","last_reported":1700309486,"current_range_meters":25600,"station_id":"ce4bhbh2rcd13ifvqeo0","pricing_plan_id":"free"},{"bike_id":"e08f5ae8-1805-46fa-af4b-24e4d9fd3bbe","system_id":"levelo_inurba_marseille","lat":43.275625,"lon":5.384392,"is_reserved":false,"is_disabled":false,"rental_uris":{"android":"levelo://app?vid=e08f5ae8-1805-46fa-af4b-24e4d9fd3bbe","ios":"levelo://app?vid=e08f5ae8-1805-46fa-af4b-24e4d9fd3bbe"},"vehicle_type_id":"4","last_reported":1700309486,"current_range_meters":20400,"station_id":"ce4bhh92rcd13ifvqfi0","pricing_plan_id":"free"},{"bike_id":"7acb6151-e185-4306-8d23-0d6887acad25","system_id":"levelo_inurba_marseille","lat":43.336148,"lon":5.410349,"is_reserved":false,"is_disabled":false,"rental_uris":{"android":"levelo://app?vid=7acb6151-e185-4306-8d23-0d6887acad25","ios":"levelo://app?vid=7acb6151-e185-4306-8d23-0d6887acad25"},"vehicle_type_id":"4","last_reported":1700309486,"current_range_meters":16800,"station_id":"ce4bhqh2rcd13ifvqhmg","pricing_plan_id":"free"},{"bike_id":"33f70642-0c40-40e7-90a7-f7142f61fcb5","system_id":"levelo_inurba_marseille","lat":43.279952,"lon":5.400085,"is_reserved":false,"is_disabled":false,"rental_uris":{"android":"levelo://app?vid=33f70642-0c40-40e7-90a7-f7142f61fcb5","ios":"levelo://app?vid=33f70642-0c40-40e7-90a7-f7142f61fcb5"},"vehicle_type_id":"4","last_reported":1700309486,"current_range_meters":31600,"station_id":"ce4bho92rcd13ifvqh4g","pricing_plan_id":"free"},{"bike_id":"b27b91fa-3752-4873-8882-2024ca852737","system_id":"levelo_inurba_marseille","lat":43.279952,"lon":5.400085,"is_reserved":false,"is_disabled":false,"rental_uris":{"android":"levelo://app?vid=b27b91fa-3752-4873-8882-2024ca852737","ios":"levelo://app?vid=b27b91fa-3752-4873-8882-2024ca852737"},"vehicle_type_id":"4","last_reported":1700309486,"current_range_meters":26400,"station_id":"ce4bho92rcd13ifvqh4g","pricing_plan_id":"free"},{"bike_id":"8cce26b6-1428-43b7-befa-cabca91c7e64","system_id":"levelo_inurba_marseille","lat":43.279952,"lon":5.400085,"is_reserved":false,"is_disabled":false,"rental_uris":{"android":"levelo://app?vid=8cce26b6-1428-43b7-befa-cabca91c7e64","ios":"levelo://app?vid=8cce26b6-1428-43b7-befa-cabca91c7e64"},"vehicle_type_id":"4","last_reported":1700309486,"current_range_meters":4400,"station_id":"ce4bho92rcd13ifvqh4g","pricing_plan_id":"free"},{"bike_id":"00a8f92a-4508-4492-b23c-a088f1c0bc01","system_id":"levelo_inurba_marseille","lat":43.31726,"lon":5.42391,"is_reserved":false,"is_disabled":false,"rental_uris":{"android":"levelo://app?vid=00a8f92a-4508-4492-b23c-a088f1c0bc01","ios":"levelo://app?vid=00a8f92a-4508-4492-b23c-a088f1c0bc01"},"vehicle_type_id":"4","last_reported":1700309486,"current_range_meters":21600,"station_id":"ce4bhp92rcd13ifvqhbg","pricing_plan_id":"free"},{"bike_id":"28eb2950-647d-44d2-a49b-6ada0aac509a","system_id":"levelo_inurba_marseille","lat":43.31721,"lon":5.42396,"is_reserved":false,"is_disabled":false,"rental_uris":{"android":"levelo://app?vid=28eb2950-647d-44d2-a49b-6ada0aac509a","ios":"levelo://app?vid=28eb2950-647d-44d2-a49b-6ada0aac509a"},"vehicle_type_id":"4","last_reported":1700309486,"current_range_meters":28800,"station_id":"ce4bhp92rcd13ifvqhbg","pricing_plan_id":"free"},{"bike_id":"fb22bd50-f0d2-4147-96d1-15b1701477ba","system_id":"levelo_inurba_marseille","lat":43.31718,"lon":5.42398,"is_reserved":false,"is_disabled":false,"rental_uris":{"android":"levelo://app?vid=fb22bd50-f0d2-4147-96d1-15b1701477ba","ios":"levelo://app?vid=fb22bd50-f0d2-4147-96d1-15b1701477ba"},"vehicle_type_id":"4","last_reported":1700309486,"current_range_meters":7200,"station_id":"ce4bhp92rcd13ifvqhbg","pricing_plan_id":"free"},{"bike_id":"c17c797d-9654-4386-9415-5acfda46f9b8","system_id":"levelo_inurba_marseille","lat":43.310785,"lon":5.424305,"is_reserved":false,"is_disabled":false,"rental_uris":{"android":"levelo://app?vid=c17c797d-9654-4386-9415-5acfda46f9b8","ios":"levelo://app?vid=c17c797d-9654-4386-9415-5acfda46f9b8"},"vehicle_type_id":"4","last_reported":1700309486,"current_range_meters":32000,"station_id":"ce4bhp92rcd13ifvqhag","pricing_plan_id":"free"},{"bike_id":"b5ddc018-7ec9-41bb-91dc-411f3c3b71bb","system_id":"levelo_inurba_marseille","lat":43.310785,"lon":5.424305,"is_reserved":false,"is_disabled":false,"rental_uris":{"android":"levelo://app?vid=b5ddc018-7ec9-41bb-91dc-411f3c3b71bb","ios":"levelo://app?vid=b5ddc018-7ec9-41bb-91dc-411f3c3b71bb"},"vehicle_type_id":"4","last_reported":1700309486,"current_range_meters":6000,"station_id":"ce4bhp92rcd13ifvqhag","pricing_plan_id":"free"},{"bike_id":"2eb9c8ea-eafc-4114-96e5-18995d764647","system_id":"levelo_inurba_marseille","lat":43.31078,"lon":5.42433,"is_reserved":false,"is_disabled":false,"rental_uris":{"android":"levelo://app?vid=2eb9c8ea-eafc-4114-96e5-18995d764647","ios":"levelo://app?vid=2eb9c8ea-eafc-4114-96e5-18995d764647"},"vehicle_type_id":"4","last_reported":1700309486,"current_range_meters":28000,"station_id":"ce4bhp92rcd13ifvqhag","pricing_plan_id":"free"},{"bike_id":"82dd330c-b5b7-4e5a-a1c5-319ff7e689b1","system_id":"levelo_inurba_marseille","lat":43.304096,"lon":5.425385,"is_reserved":false,"is_disabled":false,"rental_uris":{"android":"levelo://app?vid=82dd330c-b5b7-4e5a-a1c5-319ff7e689b1","ios":"levelo://app?vid=82dd330c-b5b7-4e5a-a1c5-319ff7e689b1"},"vehicle_type_id":"4","last_reported":1700309486,"current_range_meters":15200,"station_id":"ce4bhoh2rcd13ifvqh6g","pricing_plan_id":"free"},{"bike_id":"b57045a7-fdb7-4b81-94ca-5f1aeba5dbd1","system_id":"levelo_inurba_marseille","lat":43.304096,"lon":5.425385,"is_reserved":false,"is_disabled":false,"rental_uris":{"android":"levelo://app?vid=b57045a7-fdb7-4b81-94ca-5f1aeba5dbd1","ios":"levelo://app?vid=b57045a7-fdb7-4b81-94ca-5f1aeba5dbd1"},"vehicle_type_id":"4","last_reported":1700309486,"current_range_meters":26400,"station_id":"ce4bhoh2rcd13ifvqh6g","pricing_plan_id":"free"},{"bike_id":"00c6d616-50b7-4edf-be65-dd4ae0e261d2","system_id":"levelo_inurba_marseille","lat":43.295511,"lon":5.422926,"is_reserved":false,"is_disabled":false,"rental_uris":{"android":"levelo://app?vid=00c6d616-50b7-4edf-be65-dd4ae0e261d2","ios":"levelo://app?vid=00c6d616-50b7-4edf-be65-dd4ae0e261d2"},"vehicle_type_id":"4","last_reported":1700309486,"current_range_meters":28400,"station_id":"ce4bhph2rcd13ifvqhdg","pricing_plan_id":"free"},{"bike_id":"759e8ac9-1486-43bd-8839-3ad13362e46f","system_id":"levelo_inurba_marseille","lat":43.295511,"lon":5.422926,"is_reserved":false,"is_disabled":false,"rental_uris":{"android":"levelo://app?vid=759e8ac9-1486-43bd-8839-3ad13362e46f","ios":"levelo://app?vid=759e8ac9-1486-43bd-8839-3ad13362e46f"},"vehicle_type_id":"4","last_reported":1700309486,"current_range_meters":12800,"station_id":"ce4bhph2rcd13ifvqhdg","pricing_plan_id":"free"},{"bike_id":"139753b1-0b83-4c3a-80f1-5052bac15461","system_id":"levelo_inurba_marseille","lat":43.2722,"lon":5.39237,"is_reserved":false,"is_disabled":false,"rental_uris":{"android":"levelo://app?vid=139753b1-0b83-4c3a-80f1-5052bac15461","ios":"levelo://app?vid=139753b1-0b83-4c3a-80f1-5052bac15461"},"vehicle_type_id":"4","last_reported":1700309486,"current_range_meters":8000,"station_id":"","pricing_plan_id":"free"},{"bike_id":"fe139271-7817-4645-9ec4-f7eee743e805","system_id":"levelo_inurba_marseille","lat":43.271896,"lon":5.392307,"is_reserved":false,"is_disabled":false,"rental_uris":{"android":"levelo://app?vid=fe139271-7817-4645-9ec4-f7eee743e805","ios":"levelo://app?vid=fe139271-7817-4645-9ec4-f7eee743e805"},"vehicle_type_id":"4","last_reported":1700309486,"current_range_meters":0,"station_id":"ce4bhhp2rcd13ifvqfm0","pricing_plan_id":"free"},{"bike_id":"f0ed4531-078e-42fb-a007-3ed80505eb54","system_id":"levelo_inurba_marseille","lat":43.271891,"lon":5.392412,"is_reserved":false,"is_disabled":false,"rental_uris":{"android":"levelo://app?vid=f0ed4531-078e-42fb-a007-3ed80505eb54","ios":"levelo://app?vid=f0ed4531-078e-42fb-a007-3ed80505eb54"},"vehicle_type_id":"4","last_reported":1700309486,"current_range_meters":7200,"station_id":"","pricing_plan_id":"free"},{"bike_id":"fe75077d-42bf-43ae-8fa2-44109df3d40a","system_id":"levelo_inurba_marseille","lat":43.27203,"lon":5.39295,"is_reserved":false,"is_disabled":false,"rental_uris":{"android":"levelo://app?vid=fe75077d-42bf-43ae-8fa2-44109df3d40a","ios":"levelo://app?vid=fe75077d-42bf-43ae-8fa2-44109df3d40a"},"vehicle_type_id":"4","last_reported":1700309486,"current_range_meters":0,"station_id":"","pricing_plan_id":"free"},{"bike_id":"7e48823d-3368-424a-8f05-724cbe3dcb0a","system_id":"levelo_inurba_marseille","lat":43.278128,"lon":5.407195,"is_reserved":false,"is_disabled":false,"rental_uris":{"android":"levelo://app?vid=7e48823d-3368-424a-8f05-724cbe3dcb0a","ios":"levelo://app?vid=7e48823d-3368-424a-8f05-724cbe3dcb0a"},"vehicle_type_id":"4","last_reported":1700309486,"current_range_meters":31200,"station_id":"ce4bhnh2rcd13ifvqgtg","pricing_plan_id":"free"},{"bike_id":"2829b03a-2608-44ae-9b8c-e4db8a42a553","system_id":"levelo_inurba_marseille","lat":43.278128,"lon":5.407195,"is_reserved":false,"is_disabled":false,"rental_uris":{"android":"levelo://app?vid=2829b03a-2608-44ae-9b8c-e4db8a42a553","ios":"levelo://app?vid=2829b03a-2608-44ae-9b8c-e4db8a42a553"},"vehicle_type_id":"4","last_reported":1700309486,"current_range_meters":21200,"station_id":"ce4bhnh2rcd13ifvqgtg","pricing_plan_id":"free"},{"bike_id":"479a11ab-cb97-4ce3-b406-8ab540da3e89","system_id":"levelo_inurba_marseille","lat":43.269467,"lon":5.386439,"is_reserved":false,"is_disabled":false,"rental_uris":{"android":"levelo://app?vid=479a11ab-cb97-4ce3-b406-8ab540da3e89","ios":"levelo://app?vid=479a11ab-cb97-4ce3-b406-8ab540da3e89"},"vehicle_type_id":"4","last_reported":1700309486,"current_range_meters":21600,"station_id":"ce4bhh92rcd13ifvqfh0","pricing_plan_id":"free"},{"bike_id":"462126be-b935-4202-aab0-db26edf447e2","system_id":"levelo_inurba_marseille","lat":43.3261,"lon":5.427109,"is_reserved":false,"is_disabled":false,"rental_uris":{"android":"levelo://app?vid=462126be-b935-4202-aab0-db26edf447e2","ios":"levelo://app?vid=462126be-b935-4202-aab0-db26edf447e2"},"vehicle_type_id":"4","last_reported":1700309486,"current_range_meters":11600,"station_id":"","pricing_plan_id":"free"},{"bike_id":"af657a55-baf4-494c-be31-8c0ac22a2366","system_id":"levelo_inurba_marseille","lat":43.279465,"lon":5.410561,"is_reserved":false,"is_disabled":false,"rental_uris":{"android":"levelo://app?vid=af657a55-baf4-494c-be31-8c0ac22a2366","ios":"levelo://app?vid=af657a55-baf4-494c-be31-8c0ac22a2366"},"vehicle_type_id":"4","last_reported":1700309486,"current_range_meters":25600,"station_id":"ce4bhnp2rcd13ifvqh0g","pricing_plan_id":"free"},{"bike_id":"618d4bf9-94d2-4beb-aeca-8872214d9773","system_id":"levelo_inurba_marseille","lat":43.27943,"lon":5.41043,"is_reserved":false,"is_disabled":false,"rental_uris":{"android":"levelo://app?vid=618d4bf9-94d2-4beb-aeca-8872214d9773","ios":"levelo://app?vid=618d4bf9-94d2-4beb-aeca-8872214d9773"},"vehicle_type_id":"4","last_reported":1700309486,"current_range_meters":10400,"station_id":"ce4bhnp2rcd13ifvqh0g","pricing_plan_id":"free"},{"bike_id":"cb23a270-3f2c-423a-bafa-1ae6818e92e6","system_id":"levelo_inurba_marseille","lat":43.279465,"lon":5.410561,"is_reserved":false,"is_disabled":false,"rental_uris":{"android":"levelo://app?vid=cb23a270-3f2c-423a-bafa-1ae6818e92e6","ios":"levelo://app?vid=cb23a270-3f2c-423a-bafa-1ae6818e92e6"},"vehicle_type_id":"4","last_reported":1700309486,"current_range_meters":30400,"station_id":"ce4bhnp2rcd13ifvqh0g","pricing_plan_id":"free"},{"bike_id":"c7758cb2-2a45-4f89-aa5c-0e391d845c76","system_id":"levelo_inurba_marseille","lat":43.326053,"lon":5.429943,"is_reserved":false,"is_disabled":false,"rental_uris":{"android":"levelo://app?vid=c7758cb2-2a45-4f89-aa5c-0e391d845c76","ios":"levelo://app?vid=c7758cb2-2a45-4f89-aa5c-0e391d845c76"},"vehicle_type_id":"4","last_reported":1700309486,"current_range_meters":2800,"station_id":"","pricing_plan_id":"free"},{"bike_id":"42871d3b-8c03-490f-baf1-f4b57c44a331","system_id":"levelo_inurba_marseille","lat":43.3263,"lon":5.430806,"is_reserved":false,"is_disabled":false,"rental_uris":{"android":"levelo://app?vid=42871d3b-8c03-490f-baf1-f4b57c44a331","ios":"levelo://app?vid=42871d3b-8c03-490f-baf1-f4b57c44a331"},"vehicle_type_id":"4","last_reported":1700309486,"current_range_meters":17200,"station_id":"","pricing_plan_id":"free"},{"bike_id":"977dc91e-28a9-4f4d-9e45-daaad119deea","system_id":"levelo_inurba_marseille","lat":43.265714,"lon":5.372891,"is_reserved":false,"is_disabled":false,"rental_uris":{"android":"levelo://app?vid=977dc91e-28a9-4f4d-9e45-daaad119deea","ios":"levelo://app?vid=977dc91e-28a9-4f4d-9e45-daaad119deea"},"vehicle_type_id":"4","last_reported":1700309486,"current_range_meters":17200,"station_id":"ce4bhg12rcd13ifvqf70","pricing_plan_id":"free"},{"bike_id":"513fd5f8-ac21-4a1a-b1f5-1060c6eb1ef1","system_id":"levelo_inurba_marseille","lat":43.267966,"lon":5.393976,"is_reserved":false,"is_disabled":false,"rental_uris":{"android":"levelo://app?vid=513fd5f8-ac21-4a1a-b1f5-1060c6eb1ef1","ios":"levelo://app?vid=513fd5f8-ac21-4a1a-b1f5-1060c6eb1ef1"},"vehicle_type_id":"4","last_reported":1700309486,"current_range_meters":28400,"station_id":"ce4bhh12rcd13ifvqfg0","pricing_plan_id":"free"},{"bike_id":"54d49135-b611-489d-b63e-99f4227e0cf4","system_id":"levelo_inurba_marseille","lat":43.267966,"lon":5.393976,"is_reserved":false,"is_disabled":false,"rental_uris":{"android":"levelo://app?vid=54d49135-b611-489d-b63e-99f4227e0cf4","ios":"levelo://app?vid=54d49135-b611-489d-b63e-99f4227e0cf4"},"vehicle_type_id":"4","last_reported":1700309486,"current_range_meters":22400,"station_id":"ce4bhh12rcd13ifvqfg0","pricing_plan_id":"free"},{"bike_id":"ca37c667-426d-430b-8ecd-65bb12508f78","system_id":"levelo_inurba_marseille","lat":43.26599,"lon":5.38985,"is_reserved":false,"is_disabled":false,"rental_uris":{"android":"levelo://app?vid=ca37c667-426d-430b-8ecd-65bb12508f78","ios":"levelo://app?vid=ca37c667-426d-430b-8ecd-65bb12508f78"},"vehicle_type_id":"4","last_reported":1700309486,"current_range_meters":22400,"station_id":"","pricing_plan_id":"free"},{"bike_id":"d154a1be-f179-44a5-8019-4c29c512a18f","system_id":"levelo_inurba_marseille","lat":43.30795,"lon":5.43518,"is_reserved":false,"is_disabled":false,"rental_uris":{"android":"levelo://app?vid=d154a1be-f179-44a5-8019-4c29c512a18f","ios":"levelo://app?vid=d154a1be-f179-44a5-8019-4c29c512a18f"},"vehicle_type_id":"4","last_reported":1700309486,"current_range_meters":24800,"station_id":"ce4bhph2rcd13ifvqheg","pricing_plan_id":"free"},{"bike_id":"af33ad37-791d-4364-8b67-d3d6d5b39f41","system_id":"levelo_inurba_marseille","lat":43.265571,"lon":5.390032,"is_reserved":false,"is_disabled":false,"rental_uris":{"android":"levelo://app?vid=af33ad37-791d-4364-8b67-d3d6d5b39f41","ios":"levelo://app?vid=af33ad37-791d-4364-8b67-d3d6d5b39f41"},"vehicle_type_id":"4","last_reported":1700309486,"current_range_meters":12000,"station_id":"ce4bhe12rcd13ifvqf30","pricing_plan_id":"free"},{"bike_id":"a95928ef-295f-4a71-bd37-94075b5efb0e","system_id":"levelo_inurba_marseille","lat":43.30797,"lon":5.43527,"is_reserved":false,"is_disabled":false,"rental_uris":{"android":"levelo://app?vid=a95928ef-295f-4a71-bd37-94075b5efb0e","ios":"levelo://app?vid=a95928ef-295f-4a71-bd37-94075b5efb0e"},"vehicle_type_id":"4","last_reported":1700309486,"current_range_meters":17600,"station_id":"ce4bhph2rcd13ifvqheg","pricing_plan_id":"free"},{"bike_id":"b5b543e4-b7aa-4f7e-bd19-11eefb51aac1","system_id":"levelo_inurba_marseille","lat":43.265571,"lon":5.390032,"is_reserved":false,"is_disabled":false,"rental_uris":{"android":"levelo://app?vid=b5b543e4-b7aa-4f7e-bd19-11eefb51aac1","ios":"levelo://app?vid=b5b543e4-b7aa-4f7e-bd19-11eefb51aac1"},"vehicle_type_id":"4","last_reported":1700309486,"current_range_meters":21600,"station_id":"ce4bhe12rcd13ifvqf30","pricing_plan_id":"free"},{"bike_id":"a0ba0866-4775-43ea-9794-0a96da2d2390","system_id":"levelo_inurba_marseille","lat":43.26567,"lon":5.39007,"is_reserved":false,"is_disabled":false,"rental_uris":{"android":"levelo://app?vid=a0ba0866-4775-43ea-9794-0a96da2d2390","ios":"levelo://app?vid=a0ba0866-4775-43ea-9794-0a96da2d2390"},"vehicle_type_id":"4","last_reported":1700309486,"current_range_meters":26400,"station_id":"ce4bhe12rcd13ifvqf30","pricing_plan_id":"free"},{"bike_id":"8804f81a-67b5-41d4-ba34-0d54457c362f","system_id":"levelo_inurba_marseille","lat":43.265571,"lon":5.390032,"is_reserved":false,"is_disabled":false,"rental_uris":{"android":"levelo://app?vid=8804f81a-67b5-41d4-ba34-0d54457c362f","ios":"levelo://app?vid=8804f81a-67b5-41d4-ba34-0d54457c362f"},"vehicle_type_id":"4","last_reported":1700309486,"current_range_meters":11600,"station_id":"ce4bhe12rcd13ifvqf30","pricing_plan_id":"free"},{"bike_id":"26295f93-fc6a-4e47-9adc-a00fa6290542","system_id":"levelo_inurba_marseille","lat":43.265571,"lon":5.390032,"is_reserved":false,"is_disabled":false,"rental_uris":{"android":"levelo://app?vid=26295f93-fc6a-4e47-9adc-a00fa6290542","ios":"levelo://app?vid=26295f93-fc6a-4e47-9adc-a00fa6290542"},"vehicle_type_id":"4","last_reported":1700309486,"current_range_meters":9600,"station_id":"ce4bhe12rcd13ifvqf30","pricing_plan_id":"free"},{"bike_id":"92c39587-1a8a-4ed1-be3a-6ce05444dbaf","system_id":"levelo_inurba_marseille","lat":43.265571,"lon":5.390032,"is_reserved":false,"is_disabled":false,"rental_uris":{"android":"levelo://app?vid=92c39587-1a8a-4ed1-be3a-6ce05444dbaf","ios":"levelo://app?vid=92c39587-1a8a-4ed1-be3a-6ce05444dbaf"},"vehicle_type_id":"4","last_reported":1700309486,"current_range_meters":20000,"station_id":"ce4bhe12rcd13ifvqf30","pricing_plan_id":"free"},{"bike_id":"2afadb63-a297-4b2f-abe7-eb2aa6ae0f17","system_id":"levelo_inurba_marseille","lat":43.265571,"lon":5.390032,"is_reserved":false,"is_disabled":false,"rental_uris":{"android":"levelo://app?vid=2afadb63-a297-4b2f-abe7-eb2aa6ae0f17","ios":"levelo://app?vid=2afadb63-a297-4b2f-abe7-eb2aa6ae0f17"},"vehicle_type_id":"4","last_reported":1700309486,"current_range_meters":0,"station_id":"ce4bhe12rcd13ifvqf30","pricing_plan_id":"free"},{"bike_id":"7e9c3bb3-bbcb-4431-82c8-ec9ac37a1c73","system_id":"levelo_inurba_marseille","lat":43.26562,"lon":5.39009,"is_reserved":false,"is_disabled":false,"rental_uris":{"android":"levelo://app?vid=7e9c3bb3-bbcb-4431-82c8-ec9ac37a1c73","ios":"levelo://app?vid=7e9c3bb3-bbcb-4431-82c8-ec9ac37a1c73"},"vehicle_type_id":"4","last_reported":1700309486,"current_range_meters":16400,"station_id":"ce4bhe12rcd13ifvqf30","pricing_plan_id":"free"},{"bike_id":"f0175f81-d7c8-4391-a460-3183e811a9df","system_id":"levelo_inurba_marseille","lat":43.26558,"lon":5.39013,"is_reserved":false,"is_disabled":false,"rental_uris":{"android":"levelo://app?vid=f0175f81-d7c8-4391-a460-3183e811a9df","ios":"levelo://app?vid=f0175f81-d7c8-4391-a460-3183e811a9df"},"vehicle_type_id":"4","last_reported":1700309486,"current_range_meters":26400,"station_id":"ce4bhe12rcd13ifvqf30","pricing_plan_id":"free"},{"bike_id":"c9f842a7-68cb-4484-96d7-bf868d855fe9","system_id":"levelo_inurba_marseille","lat":43.26944,"lon":5.40242,"is_reserved":false,"is_disabled":false,"rental_uris":{"android":"levelo://app?vid=c9f842a7-68cb-4484-96d7-bf868d855fe9","ios":"levelo://app?vid=c9f842a7-68cb-4484-96d7-bf868d855fe9"},"vehicle_type_id":"4","last_reported":1700309486,"current_range_meters":12000,"station_id":"cjm6bp8fraef2m0cb0m0","pricing_plan_id":"free"},{"bike_id":"33081322-b914-4a42-9b7a-93d41298b97e","system_id":"levelo_inurba_marseille","lat":43.26938,"lon":5.40247,"is_reserved":false,"is_disabled":false,"rental_uris":{"android":"levelo://app?vid=33081322-b914-4a42-9b7a-93d41298b97e","ios":"levelo://app?vid=33081322-b914-4a42-9b7a-93d41298b97e"},"vehicle_type_id":"4","last_reported":1700309486,"current_range_meters":8000,"station_id":"cjm6bp8fraef2m0cb0m0","pricing_plan_id":"free"},{"bike_id":"eb32cd17-d404-4080-abee-8a333af4189d","system_id":"levelo_inurba_marseille","lat":43.3172,"lon":5.43629,"is_reserved":false,"is_disabled":false,"rental_uris":{"android":"levelo://app?vid=eb32cd17-d404-4080-abee-8a333af4189d","ios":"levelo://app?vid=eb32cd17-d404-4080-abee-8a333af4189d"},"vehicle_type_id":"4","last_reported":1700309486,"current_range_meters":26800,"station_id":"","pricing_plan_id":"free"},{"bike_id":"d077710c-062f-4bb5-bc07-f925193fbbe9","system_id":"levelo_inurba_marseille","lat":43.31711,"lon":5.43693,"is_reserved":false,"is_disabled":false,"rental_uris":{"android":"levelo://app?vid=d077710c-062f-4bb5-bc07-f925193fbbe9","ios":"levelo://app?vid=d077710c-062f-4bb5-bc07-f925193fbbe9"},"vehicle_type_id":"4","last_reported":1700309486,"current_range_meters":7200,"station_id":"ce4bhp92rcd13ifvqhcg","pricing_plan_id":"free"},{"bike_id":"6d96deaa-bb7c-4d47-96b6-749bc32e856d","system_id":"levelo_inurba_marseille","lat":43.261782,"lon":5.374515,"is_reserved":false,"is_disabled":false,"rental_uris":{"android":"levelo://app?vid=6d96deaa-bb7c-4d47-96b6-749bc32e856d","ios":"levelo://app?vid=6d96deaa-bb7c-4d47-96b6-749bc32e856d"},"vehicle_type_id":"4","last_reported":1700309486,"current_range_meters":2000,"station_id":"ce4bhgp2rcd13ifvqfc0","pricing_plan_id":"free"},{"bike_id":"76c2c4cb-600d-418f-92ab-b14c77c472cb","system_id":"levelo_inurba_marseille","lat":43.261782,"lon":5.374515,"is_reserved":false,"is_disabled":false,"rental_uris":{"android":"levelo://app?vid=76c2c4cb-600d-418f-92ab-b14c77c472cb","ios":"levelo://app?vid=76c2c4cb-600d-418f-92ab-b14c77c472cb"},"vehicle_type_id":"4","last_reported":1700309486,"current_range_meters":3200,"station_id":"ce4bhgp2rcd13ifvqfc0","pricing_plan_id":"free"},{"bike_id":"c2f2ba14-6390-464a-906f-a108774ddb83","system_id":"levelo_inurba_marseille","lat":43.317104,"lon":5.436818,"is_reserved":false,"is_disabled":false,"rental_uris":{"android":"levelo://app?vid=c2f2ba14-6390-464a-906f-a108774ddb83","ios":"levelo://app?vid=c2f2ba14-6390-464a-906f-a108774ddb83"},"vehicle_type_id":"4","last_reported":1700309486,"current_range_meters":31200,"station_id":"ce4bhp92rcd13ifvqhcg","pricing_plan_id":"free"},{"bike_id":"c26546c6-14cc-405d-b33e-8a7558a76cb1","system_id":"levelo_inurba_marseille","lat":43.261782,"lon":5.374515,"is_reserved":false,"is_disabled":false,"rental_uris":{"android":"levelo://app?vid=c26546c6-14cc-405d-b33e-8a7558a76cb1","ios":"levelo://app?vid=c26546c6-14cc-405d-b33e-8a7558a76cb1"},"vehicle_type_id":"4","last_reported":1700309486,"current_range_meters":17200,"station_id":"ce4bhgp2rcd13ifvqfc0","pricing_plan_id":"free"},{"bike_id":"c80acfce-c491-4998-9b9b-554d2a797f85","system_id":"levelo_inurba_marseille","lat":43.317104,"lon":5.436818,"is_reserved":false,"is_disabled":false,"rental_uris":{"android":"levelo://app?vid=c80acfce-c491-4998-9b9b-554d2a797f85","ios":"levelo://app?vid=c80acfce-c491-4998-9b9b-554d2a797f85"},"vehicle_type_id":"4","last_reported":1700309486,"current_range_meters":24800,"station_id":"ce4bhp92rcd13ifvqhcg","pricing_plan_id":"free"},{"bike_id":"c047b31e-fda3-48ec-a269-8369d3911952","system_id":"levelo_inurba_marseille","lat":43.26202,"lon":5.379299,"is_reserved":false,"is_disabled":false,"rental_uris":{"android":"levelo://app?vid=c047b31e-fda3-48ec-a269-8369d3911952","ios":"levelo://app?vid=c047b31e-fda3-48ec-a269-8369d3911952"},"vehicle_type_id":"4","last_reported":1700309486,"current_range_meters":21600,"station_id":"ce4bhjp2rcd13ifvqg90","pricing_plan_id":"free"},{"bike_id":"110a4baf-74c7-4a7e-9be0-94c78bc24384","system_id":"levelo_inurba_marseille","lat":43.240623,"lon":5.377642,"is_reserved":false,"is_disabled":false,"rental_uris":{"android":"levelo://app?vid=110a4baf-74c7-4a7e-9be0-94c78bc24384","ios":"levelo://app?vid=110a4baf-74c7-4a7e-9be0-94c78bc24384"},"vehicle_type_id":"4","last_reported":1700309486,"current_range_meters":20000,"station_id":"ce4bhnp2rcd13ifvqgvg","pricing_plan_id":"free"},{"bike_id":"74ce853b-0d8b-42c9-81c8-17a7564a4b34","system_id":"levelo_inurba_marseille","lat":43.31725,"lon":5.43786,"is_reserved":false,"is_disabled":false,"rental_uris":{"android":"levelo://app?vid=74ce853b-0d8b-42c9-81c8-17a7564a4b34","ios":"levelo://app?vid=74ce853b-0d8b-42c9-81c8-17a7564a4b34"},"vehicle_type_id":"4","last_reported":1700309486,"current_range_meters":18800,"station_id":"","pricing_plan_id":"free"},{"bike_id":"2e442181-daa3-4a69-9955-ff9025b02c20","system_id":"levelo_inurba_marseille","lat":43.260225,"lon":5.375455,"is_reserved":false,"is_disabled":false,"rental_uris":{"android":"levelo://app?vid=2e442181-daa3-4a69-9955-ff9025b02c20","ios":"levelo://app?vid=2e442181-daa3-4a69-9955-ff9025b02c20"},"vehicle_type_id":"4","last_reported":1700309486,"current_range_meters":28000,"station_id":"ce4bhgh2rcd13ifvqfa0","pricing_plan_id":"free"},{"bike_id":"4f6880f4-3164-4fc2-9cf7-3c1358040f10","system_id":"levelo_inurba_marseille","lat":43.290501,"lon":5.433305,"is_reserved":false,"is_disabled":false,"rental_uris":{"android":"levelo://app?vid=4f6880f4-3164-4fc2-9cf7-3c1358040f10","ios":"levelo://app?vid=4f6880f4-3164-4fc2-9cf7-3c1358040f10"},"vehicle_type_id":"4","last_reported":1700309486,"current_range_meters":0,"station_id":"","pricing_plan_id":"free"},{"bike_id":"0e7d9356-4c6d-4c5c-b8dd-3be851203d88","system_id":"levelo_inurba_marseille","lat":43.281548,"lon":5.42643,"is_reserved":false,"is_disabled":false,"rental_uris":{"android":"levelo://app?vid=0e7d9356-4c6d-4c5c-b8dd-3be851203d88","ios":"levelo://app?vid=0e7d9356-4c6d-4c5c-b8dd-3be851203d88"},"vehicle_type_id":"4","last_reported":1700309486,"current_range_meters":28800,"station_id":"ce4bhnh2rcd13ifvqgug","pricing_plan_id":"free"},{"bike_id":"748b4aaa-9753-4b99-95bc-3120fefa3efe","system_id":"levelo_inurba_marseille","lat":43.31977,"lon":5.439596,"is_reserved":false,"is_disabled":false,"rental_uris":{"android":"levelo://app?vid=748b4aaa-9753-4b99-95bc-3120fefa3efe","ios":"levelo://app?vid=748b4aaa-9753-4b99-95bc-3120fefa3efe"},"vehicle_type_id":"4","last_reported":1700309486,"current_range_meters":14800,"station_id":"","pricing_plan_id":"free"},{"bike_id":"c687b984-17d3-4d86-b43e-f65a96a30c7c","system_id":"levelo_inurba_marseille","lat":43.281548,"lon":5.42643,"is_reserved":false,"is_disabled":false,"rental_uris":{"android":"levelo://app?vid=c687b984-17d3-4d86-b43e-f65a96a30c7c","ios":"levelo://app?vid=c687b984-17d3-4d86-b43e-f65a96a30c7c"},"vehicle_type_id":"4","last_reported":1700309486,"current_range_meters":30400,"station_id":"ce4bhnh2rcd13ifvqgug","pricing_plan_id":"free"},{"bike_id":"67650160-3b05-4f79-94f5-55b3cdd7a959","system_id":"levelo_inurba_marseille","lat":43.281548,"lon":5.42643,"is_reserved":false,"is_disabled":false,"rental_uris":{"android":"levelo://app?vid=67650160-3b05-4f79-94f5-55b3cdd7a959","ios":"levelo://app?vid=67650160-3b05-4f79-94f5-55b3cdd7a959"},"vehicle_type_id":"4","last_reported":1700309486,"current_range_meters":20400,"station_id":"ce4bhnh2rcd13ifvqgug","pricing_plan_id":"free"},{"bike_id":"e519433d-e174-46ac-866c-5aa69d990273","system_id":"levelo_inurba_marseille","lat":43.281548,"lon":5.42643,"is_reserved":false,"is_disabled":false,"rental_uris":{"android":"levelo://app?vid=e519433d-e174-46ac-866c-5aa69d990273","ios":"levelo://app?vid=e519433d-e174-46ac-866c-5aa69d990273"},"vehicle_type_id":"4","last_reported":1700309486,"current_range_meters":23600,"station_id":"ce4bhnh2rcd13ifvqgug","pricing_plan_id":"free"},{"bike_id":"8e47fb1c-8820-40c2-9716-703cc59fb835","system_id":"levelo_inurba_marseille","lat":43.281548,"lon":5.42643,"is_reserved":false,"is_disabled":false,"rental_uris":{"android":"levelo://app?vid=8e47fb1c-8820-40c2-9716-703cc59fb835","ios":"levelo://app?vid=8e47fb1c-8820-40c2-9716-703cc59fb835"},"vehicle_type_id":"4","last_reported":1700309486,"current_range_meters":30400,"station_id":"ce4bhnh2rcd13ifvqgug","pricing_plan_id":"free"},{"bike_id":"8e6f5f20-81b8-452e-8169-214f97831e53","system_id":"levelo_inurba_marseille","lat":43.281548,"lon":5.42643,"is_reserved":false,"is_disabled":false,"rental_uris":{"android":"levelo://app?vid=8e6f5f20-81b8-452e-8169-214f97831e53","ios":"levelo://app?vid=8e6f5f20-81b8-452e-8169-214f97831e53"},"vehicle_type_id":"4","last_reported":1700309486,"current_range_meters":27200,"station_id":"ce4bhnh2rcd13ifvqgug","pricing_plan_id":"free"},{"bike_id":"ba343a96-b108-42f1-a93c-b6a851b91747","system_id":"levelo_inurba_marseille","lat":43.281548,"lon":5.42643,"is_reserved":false,"is_disabled":false,"rental_uris":{"android":"levelo://app?vid=ba343a96-b108-42f1-a93c-b6a851b91747","ios":"levelo://app?vid=ba343a96-b108-42f1-a93c-b6a851b91747"},"vehicle_type_id":"4","last_reported":1700309486,"current_range_meters":31600,"station_id":"ce4bhnh2rcd13ifvqgug","pricing_plan_id":"free"},{"bike_id":"d88b6a73-531b-425a-9e55-b97c354f59a2","system_id":"levelo_inurba_marseille","lat":43.32276,"lon":5.43926,"is_reserved":false,"is_disabled":false,"rental_uris":{"android":"levelo://app?vid=d88b6a73-531b-425a-9e55-b97c354f59a2","ios":"levelo://app?vid=d88b6a73-531b-425a-9e55-b97c354f59a2"},"vehicle_type_id":"4","last_reported":1700309486,"current_range_meters":29600,"station_id":"","pricing_plan_id":"free"},{"bike_id":"52c2449e-ba19-42b2-a2b7-5e9532985598","system_id":"levelo_inurba_marseille","lat":43.32279,"lon":5.43926,"is_reserved":false,"is_disabled":false,"rental_uris":{"android":"levelo://app?vid=52c2449e-ba19-42b2-a2b7-5e9532985598","ios":"levelo://app?vid=52c2449e-ba19-42b2-a2b7-5e9532985598"},"vehicle_type_id":"4","last_reported":1700309486,"current_range_meters":16400,"station_id":"","pricing_plan_id":"free"},{"bike_id":"8b4bc960-11f8-4b78-82ea-c09827f3eecb","system_id":"levelo_inurba_marseille","lat":43.2607,"lon":5.393983,"is_reserved":false,"is_disabled":false,"rental_uris":{"android":"levelo://app?vid=8b4bc960-11f8-4b78-82ea-c09827f3eecb","ios":"levelo://app?vid=8b4bc960-11f8-4b78-82ea-c09827f3eecb"},"vehicle_type_id":"4","last_reported":1700309486,"current_range_meters":24400,"station_id":"ce4bhh92rcd13ifvqfj0","pricing_plan_id":"free"},{"bike_id":"56c54364-216a-4eea-8fce-d6e40fd415c8","system_id":"levelo_inurba_marseille","lat":43.2607,"lon":5.393983,"is_reserved":false,"is_disabled":false,"rental_uris":{"android":"levelo://app?vid=56c54364-216a-4eea-8fce-d6e40fd415c8","ios":"levelo://app?vid=56c54364-216a-4eea-8fce-d6e40fd415c8"},"vehicle_type_id":"4","last_reported":1700309486,"current_range_meters":25200,"station_id":"ce4bhh92rcd13ifvqfj0","pricing_plan_id":"free"},{"bike_id":"10f99585-3923-45a6-9f7c-2fcd4f7b152c","system_id":"levelo_inurba_marseille","lat":43.2607,"lon":5.393983,"is_reserved":false,"is_disabled":false,"rental_uris":{"android":"levelo://app?vid=10f99585-3923-45a6-9f7c-2fcd4f7b152c","ios":"levelo://app?vid=10f99585-3923-45a6-9f7c-2fcd4f7b152c"},"vehicle_type_id":"4","last_reported":1700309486,"current_range_meters":22800,"station_id":"ce4bhh92rcd13ifvqfj0","pricing_plan_id":"free"},{"bike_id":"6263e649-bd3e-4f18-91cc-acc509dfe8cc","system_id":"levelo_inurba_marseille","lat":43.2607,"lon":5.393983,"is_reserved":false,"is_disabled":false,"rental_uris":{"android":"levelo://app?vid=6263e649-bd3e-4f18-91cc-acc509dfe8cc","ios":"levelo://app?vid=6263e649-bd3e-4f18-91cc-acc509dfe8cc"},"vehicle_type_id":"4","last_reported":1700309486,"current_range_meters":12000,"station_id":"ce4bhh92rcd13ifvqfj0","pricing_plan_id":"free"},{"bike_id":"10c22671-127e-4ec6-8af5-8a914e1eed0d","system_id":"levelo_inurba_marseille","lat":43.275028,"lon":5.424534,"is_reserved":false,"is_disabled":false,"rental_uris":{"android":"levelo://app?vid=10c22671-127e-4ec6-8af5-8a914e1eed0d","ios":"levelo://app?vid=10c22671-127e-4ec6-8af5-8a914e1eed0d"},"vehicle_type_id":"4","last_reported":1700309486,"current_range_meters":30000,"station_id":"ce4bhn92rcd13ifvqgrg","pricing_plan_id":"free"},{"bike_id":"30b38363-49c4-4991-872c-74239a2b0c11","system_id":"levelo_inurba_marseille","lat":43.275028,"lon":5.424534,"is_reserved":false,"is_disabled":false,"rental_uris":{"android":"levelo://app?vid=30b38363-49c4-4991-872c-74239a2b0c11","ios":"levelo://app?vid=30b38363-49c4-4991-872c-74239a2b0c11"},"vehicle_type_id":"4","last_reported":1700309486,"current_range_meters":4800,"station_id":"ce4bhn92rcd13ifvqgrg","pricing_plan_id":"free"},{"bike_id":"e7a68780-c3b4-4477-83f3-c50c683b4451","system_id":"levelo_inurba_marseille","lat":43.275028,"lon":5.424534,"is_reserved":false,"is_disabled":false,"rental_uris":{"android":"levelo://app?vid=e7a68780-c3b4-4477-83f3-c50c683b4451","ios":"levelo://app?vid=e7a68780-c3b4-4477-83f3-c50c683b4451"},"vehicle_type_id":"4","last_reported":1700309486,"current_range_meters":31200,"station_id":"ce4bhn92rcd13ifvqgrg","pricing_plan_id":"free"},{"bike_id":"3e57e91e-54b6-4fab-af7e-add3a1536c75","system_id":"levelo_inurba_marseille","lat":43.260915,"lon":5.397638,"is_reserved":false,"is_disabled":false,"rental_uris":{"android":"levelo://app?vid=3e57e91e-54b6-4fab-af7e-add3a1536c75","ios":"levelo://app?vid=3e57e91e-54b6-4fab-af7e-add3a1536c75"},"vehicle_type_id":"4","last_reported":1700309486,"current_range_meters":31200,"station_id":"ce4bhi12rcd13ifvqfq0","pricing_plan_id":"free"},{"bike_id":"93744702-6042-49f2-8358-233f2f24203e","system_id":"levelo_inurba_marseille","lat":43.25581,"lon":5.38229,"is_reserved":false,"is_disabled":false,"rental_uris":{"android":"levelo://app?vid=93744702-6042-49f2-8358-233f2f24203e","ios":"levelo://app?vid=93744702-6042-49f2-8358-233f2f24203e"},"vehicle_type_id":"4","last_reported":1700309486,"current_range_meters":26000,"station_id":"ce4bhih2rcd13ifvqfs0","pricing_plan_id":"free"},{"bike_id":"b8fd9cab-b21a-4390-9809-7a746129bbfa","system_id":"levelo_inurba_marseille","lat":43.25581,"lon":5.38238,"is_reserved":false,"is_disabled":false,"rental_uris":{"android":"levelo://app?vid=b8fd9cab-b21a-4390-9809-7a746129bbfa","ios":"levelo://app?vid=b8fd9cab-b21a-4390-9809-7a746129bbfa"},"vehicle_type_id":"4","last_reported":1700309486,"current_range_meters":15200,"station_id":"ce4bhih2rcd13ifvqfs0","pricing_plan_id":"free"},{"bike_id":"289cbed3-b5a4-4cfb-b9bf-bf3b88569d11","system_id":"levelo_inurba_marseille","lat":43.25578,"lon":5.38234,"is_reserved":false,"is_disabled":false,"rental_uris":{"android":"levelo://app?vid=289cbed3-b5a4-4cfb-b9bf-bf3b88569d11","ios":"levelo://app?vid=289cbed3-b5a4-4cfb-b9bf-bf3b88569d11"},"vehicle_type_id":"4","last_reported":1700309486,"current_range_meters":28400,"station_id":"ce4bhih2rcd13ifvqfs0","pricing_plan_id":"free"},{"bike_id":"cd12881a-e9c4-4cc5-b782-5a2b84a0a603","system_id":"levelo_inurba_marseille","lat":43.25578,"lon":5.38235,"is_reserved":false,"is_disabled":false,"rental_uris":{"android":"levelo://app?vid=cd12881a-e9c4-4cc5-b782-5a2b84a0a603","ios":"levelo://app?vid=cd12881a-e9c4-4cc5-b782-5a2b84a0a603"},"vehicle_type_id":"4","last_reported":1700309486,"current_range_meters":27200,"station_id":"ce4bhih2rcd13ifvqfs0","pricing_plan_id":"free"},{"bike_id":"a7006533-e072-43c8-9dcc-ab2c1d8e3ebb","system_id":"levelo_inurba_marseille","lat":43.258224,"lon":5.394369,"is_reserved":false,"is_disabled":false,"rental_uris":{"android":"levelo://app?vid=a7006533-e072-43c8-9dcc-ab2c1d8e3ebb","ios":"levelo://app?vid=a7006533-e072-43c8-9dcc-ab2c1d8e3ebb"},"vehicle_type_id":"4","last_reported":1700309486,"current_range_meters":4400,"station_id":"ce4bhip2rcd13ifvqft0","pricing_plan_id":"free"},{"bike_id":"7713c117-8737-450a-b420-d1b86dbfd7ce","system_id":"levelo_inurba_marseille","lat":43.258224,"lon":5.394369,"is_reserved":false,"is_disabled":false,"rental_uris":{"android":"levelo://app?vid=7713c117-8737-450a-b420-d1b86dbfd7ce","ios":"levelo://app?vid=7713c117-8737-450a-b420-d1b86dbfd7ce"},"vehicle_type_id":"4","last_reported":1700309486,"current_range_meters":26000,"station_id":"ce4bhip2rcd13ifvqft0","pricing_plan_id":"free"},{"bike_id":"9fca9f3a-1b96-4ac3-93d0-e245731d5cb1","system_id":"levelo_inurba_marseille","lat":43.258224,"lon":5.394369,"is_reserved":false,"is_disabled":false,"rental_uris":{"android":"levelo://app?vid=9fca9f3a-1b96-4ac3-93d0-e245731d5cb1","ios":"levelo://app?vid=9fca9f3a-1b96-4ac3-93d0-e245731d5cb1"},"vehicle_type_id":"4","last_reported":1700309486,"current_range_meters":26800,"station_id":"ce4bhip2rcd13ifvqft0","pricing_plan_id":"free"},{"bike_id":"c36a61e5-9951-4e3e-bf5d-f7bc03b49e5b","system_id":"levelo_inurba_marseille","lat":43.254947,"lon":5.376454,"is_reserved":false,"is_disabled":false,"rental_uris":{"android":"levelo://app?vid=c36a61e5-9951-4e3e-bf5d-f7bc03b49e5b","ios":"levelo://app?vid=c36a61e5-9951-4e3e-bf5d-f7bc03b49e5b"},"vehicle_type_id":"4","last_reported":1700309486,"current_range_meters":31600,"station_id":"ce4bhh12rcd13ifvqff0","pricing_plan_id":"free"},{"bike_id":"2bd8aa18-451e-4923-a9fc-8b9f8a9ca18f","system_id":"levelo_inurba_marseille","lat":43.254947,"lon":5.376454,"is_reserved":false,"is_disabled":false,"rental_uris":{"android":"levelo://app?vid=2bd8aa18-451e-4923-a9fc-8b9f8a9ca18f","ios":"levelo://app?vid=2bd8aa18-451e-4923-a9fc-8b9f8a9ca18f"},"vehicle_type_id":"4","last_reported":1700309486,"current_range_meters":25200,"station_id":"ce4bhh12rcd13ifvqff0","pricing_plan_id":"free"},{"bike_id":"6da1c9fa-544b-4390-9219-e7fb0ad0c443","system_id":"levelo_inurba_marseille","lat":43.270721,"lon":5.422764,"is_reserved":false,"is_disabled":false,"rental_uris":{"android":"levelo://app?vid=6da1c9fa-544b-4390-9219-e7fb0ad0c443","ios":"levelo://app?vid=6da1c9fa-544b-4390-9219-e7fb0ad0c443"},"vehicle_type_id":"4","last_reported":1700309486,"current_range_meters":7600,"station_id":"ce4bhk92rcd13ifvqgb0","pricing_plan_id":"free"},{"bike_id":"99c61671-d5c1-4f7a-bab1-f870291b3d0d","system_id":"levelo_inurba_marseille","lat":43.258658,"lon":5.398935,"is_reserved":false,"is_disabled":false,"rental_uris":{"android":"levelo://app?vid=99c61671-d5c1-4f7a-bab1-f870291b3d0d","ios":"levelo://app?vid=99c61671-d5c1-4f7a-bab1-f870291b3d0d"},"vehicle_type_id":"4","last_reported":1700309486,"current_range_meters":29200,"station_id":"ce4bhl92rcd13ifvqghg","pricing_plan_id":"free"},{"bike_id":"ec9cef5c-6480-4606-894d-eaf4a70976c2","system_id":"levelo_inurba_marseille","lat":43.258658,"lon":5.398935,"is_reserved":false,"is_disabled":false,"rental_uris":{"android":"levelo://app?vid=ec9cef5c-6480-4606-894d-eaf4a70976c2","ios":"levelo://app?vid=ec9cef5c-6480-4606-894d-eaf4a70976c2"},"vehicle_type_id":"4","last_reported":1700309486,"current_range_meters":27200,"station_id":"ce4bhl92rcd13ifvqghg","pricing_plan_id":"free"},{"bike_id":"a2c2e9eb-192a-4492-995f-8ae1f9720423","system_id":"levelo_inurba_marseille","lat":43.258658,"lon":5.398935,"is_reserved":false,"is_disabled":false,"rental_uris":{"android":"levelo://app?vid=a2c2e9eb-192a-4492-995f-8ae1f9720423","ios":"levelo://app?vid=a2c2e9eb-192a-4492-995f-8ae1f9720423"},"vehicle_type_id":"4","last_reported":1700309486,"current_range_meters":8000,"station_id":"ce4bhl92rcd13ifvqghg","pricing_plan_id":"free"},{"bike_id":"c7af30fd-1f6a-40dc-a996-bc2f1e1c885a","system_id":"levelo_inurba_marseille","lat":43.259009,"lon":5.40929,"is_reserved":false,"is_disabled":false,"rental_uris":{"android":"levelo://app?vid=c7af30fd-1f6a-40dc-a996-bc2f1e1c885a","ios":"levelo://app?vid=c7af30fd-1f6a-40dc-a996-bc2f1e1c885a"},"vehicle_type_id":"4","last_reported":1700309486,"current_range_meters":16000,"station_id":"ce4bhm92rcd13ifvqglg","pricing_plan_id":"free"},{"bike_id":"8d1f8ca1-840c-4fe2-9003-41a95922d9d7","system_id":"levelo_inurba_marseille","lat":43.259009,"lon":5.40929,"is_reserved":false,"is_disabled":false,"rental_uris":{"android":"levelo://app?vid=8d1f8ca1-840c-4fe2-9003-41a95922d9d7","ios":"levelo://app?vid=8d1f8ca1-840c-4fe2-9003-41a95922d9d7"},"vehicle_type_id":"4","last_reported":1700309486,"current_range_meters":15600,"station_id":"ce4bhm92rcd13ifvqglg","pricing_plan_id":"free"},{"bike_id":"db8da4e2-4124-41d5-8c70-7aced5b1658c","system_id":"levelo_inurba_marseille","lat":43.25934,"lon":5.40909,"is_reserved":false,"is_disabled":false,"rental_uris":{"android":"levelo://app?vid=db8da4e2-4124-41d5-8c70-7aced5b1658c","ios":"levelo://app?vid=db8da4e2-4124-41d5-8c70-7aced5b1658c"},"vehicle_type_id":"4","last_reported":1700309486,"current_range_meters":27600,"station_id":"ce4bhm92rcd13ifvqglg","pricing_plan_id":"free"},{"bike_id":"80e9e8bc-834b-42bc-a974-3446e287c9cb","system_id":"levelo_inurba_marseille","lat":43.259304,"lon":5.409121,"is_reserved":false,"is_disabled":false,"rental_uris":{"android":"levelo://app?vid=80e9e8bc-834b-42bc-a974-3446e287c9cb","ios":"levelo://app?vid=80e9e8bc-834b-42bc-a974-3446e287c9cb"},"vehicle_type_id":"4","last_reported":1700309486,"current_range_meters":4800,"station_id":"ce4bhm92rcd13ifvqglg","pricing_plan_id":"free"},{"bike_id":"b07713ab-8a38-4416-a771-754da87afc04","system_id":"levelo_inurba_marseille","lat":43.257079,"lon":5.411051,"is_reserved":false,"is_disabled":false,"rental_uris":{"android":"levelo://app?vid=b07713ab-8a38-4416-a771-754da87afc04","ios":"levelo://app?vid=b07713ab-8a38-4416-a771-754da87afc04"},"vehicle_type_id":"4","last_reported":1700309486,"current_range_meters":29600,"station_id":"ce4bhkp2rcd13ifvqgd0","pricing_plan_id":"free"},{"bike_id":"7e6dad52-77fb-49de-9585-51c773a14ce3","system_id":"levelo_inurba_marseille","lat":43.257079,"lon":5.411051,"is_reserved":false,"is_disabled":false,"rental_uris":{"android":"levelo://app?vid=7e6dad52-77fb-49de-9585-51c773a14ce3","ios":"levelo://app?vid=7e6dad52-77fb-49de-9585-51c773a14ce3"},"vehicle_type_id":"4","last_reported":1700309486,"current_range_meters":17600,"station_id":"ce4bhkp2rcd13ifvqgd0","pricing_plan_id":"free"},{"bike_id":"7bbba461-9b36-4681-8c16-91e7d611a91a","system_id":"levelo_inurba_marseille","lat":43.257079,"lon":5.411051,"is_reserved":false,"is_disabled":false,"rental_uris":{"android":"levelo://app?vid=7bbba461-9b36-4681-8c16-91e7d611a91a","ios":"levelo://app?vid=7bbba461-9b36-4681-8c16-91e7d611a91a"},"vehicle_type_id":"4","last_reported":1700309486,"current_range_meters":5600,"station_id":"ce4bhkp2rcd13ifvqgd0","pricing_plan_id":"free"},{"bike_id":"4afa49e8-ee9e-4aa1-87d5-6b304d76abf6","system_id":"levelo_inurba_marseille","lat":43.2479,"lon":5.374457,"is_reserved":false,"is_disabled":false,"rental_uris":{"android":"levelo://app?vid=4afa49e8-ee9e-4aa1-87d5-6b304d76abf6","ios":"levelo://app?vid=4afa49e8-ee9e-4aa1-87d5-6b304d76abf6"},"vehicle_type_id":"4","last_reported":1700309486,"current_range_meters":15200,"station_id":"ce4bhgh2rcd13ifvqfb0","pricing_plan_id":"free"},{"bike_id":"0e8478e1-aca6-4ce0-aef6-bc497337bc6e","system_id":"levelo_inurba_marseille","lat":43.2479,"lon":5.374457,"is_reserved":false,"is_disabled":false,"rental_uris":{"android":"levelo://app?vid=0e8478e1-aca6-4ce0-aef6-bc497337bc6e","ios":"levelo://app?vid=0e8478e1-aca6-4ce0-aef6-bc497337bc6e"},"vehicle_type_id":"4","last_reported":1700309486,"current_range_meters":6400,"station_id":"ce4bhgh2rcd13ifvqfb0","pricing_plan_id":"free"},{"bike_id":"0a971f4d-998b-4069-a54f-774336481cee","system_id":"levelo_inurba_marseille","lat":43.25094,"lon":5.39523,"is_reserved":false,"is_disabled":false,"rental_uris":{"android":"levelo://app?vid=0a971f4d-998b-4069-a54f-774336481cee","ios":"levelo://app?vid=0a971f4d-998b-4069-a54f-774336481cee"},"vehicle_type_id":"4","last_reported":1700309486,"current_range_meters":4000,"station_id":"ce4bhm12rcd13ifvqgkg","pricing_plan_id":"free"},{"bike_id":"c4ccead2-ed66-46c0-a980-3e9ef6c4eee6","system_id":"levelo_inurba_marseille","lat":43.250966,"lon":5.395186,"is_reserved":false,"is_disabled":false,"rental_uris":{"android":"levelo://app?vid=c4ccead2-ed66-46c0-a980-3e9ef6c4eee6","ios":"levelo://app?vid=c4ccead2-ed66-46c0-a980-3e9ef6c4eee6"},"vehicle_type_id":"4","last_reported":1700309486,"current_range_meters":16400,"station_id":"ce4bhm12rcd13ifvqgkg","pricing_plan_id":"free"},{"bike_id":"799774e4-0360-4ae2-89fb-3d8e3deabf0d","system_id":"levelo_inurba_marseille","lat":43.250966,"lon":5.395186,"is_reserved":false,"is_disabled":false,"rental_uris":{"android":"levelo://app?vid=799774e4-0360-4ae2-89fb-3d8e3deabf0d","ios":"levelo://app?vid=799774e4-0360-4ae2-89fb-3d8e3deabf0d"},"vehicle_type_id":"4","last_reported":1700309486,"current_range_meters":19200,"station_id":"ce4bhm12rcd13ifvqgkg","pricing_plan_id":"free"},{"bike_id":"b9044fce-dce8-490f-a02b-21e9c2c238be","system_id":"levelo_inurba_marseille","lat":43.250966,"lon":5.395186,"is_reserved":false,"is_disabled":false,"rental_uris":{"android":"levelo://app?vid=b9044fce-dce8-490f-a02b-21e9c2c238be","ios":"levelo://app?vid=b9044fce-dce8-490f-a02b-21e9c2c238be"},"vehicle_type_id":"4","last_reported":1700309486,"current_range_meters":30000,"station_id":"ce4bhm12rcd13ifvqgkg","pricing_plan_id":"free"},{"bike_id":"0e5f6c9d-ca85-46f0-a7d2-7629f42f4a0c","system_id":"levelo_inurba_marseille","lat":43.250966,"lon":5.395186,"is_reserved":false,"is_disabled":false,"rental_uris":{"android":"levelo://app?vid=0e5f6c9d-ca85-46f0-a7d2-7629f42f4a0c","ios":"levelo://app?vid=0e5f6c9d-ca85-46f0-a7d2-7629f42f4a0c"},"vehicle_type_id":"4","last_reported":1700309486,"current_range_meters":29200,"station_id":"ce4bhm12rcd13ifvqgkg","pricing_plan_id":"free"},{"bike_id":"721af61d-7ad7-4ba9-a77e-cdee35ed38a9","system_id":"levelo_inurba_marseille","lat":43.250966,"lon":5.395186,"is_reserved":false,"is_disabled":false,"rental_uris":{"android":"levelo://app?vid=721af61d-7ad7-4ba9-a77e-cdee35ed38a9","ios":"levelo://app?vid=721af61d-7ad7-4ba9-a77e-cdee35ed38a9"},"vehicle_type_id":"4","last_reported":1700309486,"current_range_meters":29600,"station_id":"ce4bhm12rcd13ifvqgkg","pricing_plan_id":"free"},{"bike_id":"d903eed0-c307-44fe-a923-d0ee20c0cdf9","system_id":"levelo_inurba_marseille","lat":43.246712,"lon":5.381613,"is_reserved":false,"is_disabled":false,"rental_uris":{"android":"levelo://app?vid=d903eed0-c307-44fe-a923-d0ee20c0cdf9","ios":"levelo://app?vid=d903eed0-c307-44fe-a923-d0ee20c0cdf9"},"vehicle_type_id":"4","last_reported":1700309486,"current_range_meters":0,"station_id":"ce4bhih2rcd13ifvqfr0","pricing_plan_id":"free"},{"bike_id":"d5829577-5409-4b45-9752-eed05dd5f0cd","system_id":"levelo_inurba_marseille","lat":43.24693,"lon":5.382096,"is_reserved":false,"is_disabled":false,"rental_uris":{"android":"levelo://app?vid=d5829577-5409-4b45-9752-eed05dd5f0cd","ios":"levelo://app?vid=d5829577-5409-4b45-9752-eed05dd5f0cd"},"vehicle_type_id":"4","last_reported":1700309486,"current_range_meters":24400,"station_id":"ce4bhih2rcd13ifvqfr0","pricing_plan_id":"free"},{"bike_id":"2f006320-2cbc-442a-8407-0205be241cac","system_id":"levelo_inurba_marseille","lat":43.25102,"lon":5.403214,"is_reserved":false,"is_disabled":false,"rental_uris":{"android":"levelo://app?vid=2f006320-2cbc-442a-8407-0205be241cac","ios":"levelo://app?vid=2f006320-2cbc-442a-8407-0205be241cac"},"vehicle_type_id":"4","last_reported":1700309486,"current_range_meters":18000,"station_id":"ce4bhlh2rcd13ifvqgig","pricing_plan_id":"free"},{"bike_id":"c7f42faf-0c8e-4749-a467-2c681cb36b04","system_id":"levelo_inurba_marseille","lat":43.2466,"lon":5.38164,"is_reserved":false,"is_disabled":false,"rental_uris":{"android":"levelo://app?vid=c7f42faf-0c8e-4749-a467-2c681cb36b04","ios":"levelo://app?vid=c7f42faf-0c8e-4749-a467-2c681cb36b04"},"vehicle_type_id":"4","last_reported":1700309486,"current_range_meters":7600,"station_id":"ce4bhih2rcd13ifvqfr0","pricing_plan_id":"free"},{"bike_id":"792633a5-520f-4097-be9c-e3f3250e2df9","system_id":"levelo_inurba_marseille","lat":43.25102,"lon":5.403214,"is_reserved":false,"is_disabled":false,"rental_uris":{"android":"levelo://app?vid=792633a5-520f-4097-be9c-e3f3250e2df9","ios":"levelo://app?vid=792633a5-520f-4097-be9c-e3f3250e2df9"},"vehicle_type_id":"4","last_reported":1700309486,"current_range_meters":24000,"station_id":"ce4bhlh2rcd13ifvqgig","pricing_plan_id":"free"},{"bike_id":"663807de-27b3-460f-96e6-ea095d583550","system_id":"levelo_inurba_marseille","lat":43.246467,"lon":5.388984,"is_reserved":false,"is_disabled":false,"rental_uris":{"android":"levelo://app?vid=663807de-27b3-460f-96e6-ea095d583550","ios":"levelo://app?vid=663807de-27b3-460f-96e6-ea095d583550"},"vehicle_type_id":"4","last_reported":1700309486,"current_range_meters":30800,"station_id":"ce4bhg12rcd13ifvqf60","pricing_plan_id":"free"},{"bike_id":"3080e8e2-df89-4f6f-913f-1b118d7d14aa","system_id":"levelo_inurba_marseille","lat":43.243884,"lon":5.370737,"is_reserved":false,"is_disabled":false,"rental_uris":{"android":"levelo://app?vid=3080e8e2-df89-4f6f-913f-1b118d7d14aa","ios":"levelo://app?vid=3080e8e2-df89-4f6f-913f-1b118d7d14aa"},"vehicle_type_id":"4","last_reported":1700309486,"current_range_meters":22000,"station_id":"ce4bhhh2rcd13ifvqfk0","pricing_plan_id":"free"},{"bike_id":"c1924608-cfc0-4286-8265-f3f6ae4a7a1a","system_id":"levelo_inurba_marseille","lat":43.243884,"lon":5.370737,"is_reserved":false,"is_disabled":false,"rental_uris":{"android":"levelo://app?vid=c1924608-cfc0-4286-8265-f3f6ae4a7a1a","ios":"levelo://app?vid=c1924608-cfc0-4286-8265-f3f6ae4a7a1a"},"vehicle_type_id":"4","last_reported":1700309486,"current_range_meters":17600,"station_id":"ce4bhhh2rcd13ifvqfk0","pricing_plan_id":"free"},{"bike_id":"13543a80-e679-4f1a-83cf-0c053174faf3","system_id":"levelo_inurba_marseille","lat":43.243884,"lon":5.370736,"is_reserved":false,"is_disabled":false,"rental_uris":{"android":"levelo://app?vid=13543a80-e679-4f1a-83cf-0c053174faf3","ios":"levelo://app?vid=13543a80-e679-4f1a-83cf-0c053174faf3"},"vehicle_type_id":"4","last_reported":1700309486,"current_range_meters":31200,"station_id":"ce4bhhh2rcd13ifvqfk0","pricing_plan_id":"free"},{"bike_id":"c1d0d561-b1e7-433a-81e5-7994cce53ec2","system_id":"levelo_inurba_marseille","lat":43.243884,"lon":5.370737,"is_reserved":false,"is_disabled":false,"rental_uris":{"android":"levelo://app?vid=c1d0d561-b1e7-433a-81e5-7994cce53ec2","ios":"levelo://app?vid=c1d0d561-b1e7-433a-81e5-7994cce53ec2"},"vehicle_type_id":"4","last_reported":1700309486,"current_range_meters":17200,"station_id":"ce4bhhh2rcd13ifvqfk0","pricing_plan_id":"free"},{"bike_id":"c9311f28-70e4-415f-8962-60cebf27fcb4","system_id":"levelo_inurba_marseille","lat":43.243884,"lon":5.370736,"is_reserved":false,"is_disabled":false,"rental_uris":{"android":"levelo://app?vid=c9311f28-70e4-415f-8962-60cebf27fcb4","ios":"levelo://app?vid=c9311f28-70e4-415f-8962-60cebf27fcb4"},"vehicle_type_id":"4","last_reported":1700309486,"current_range_meters":1200,"station_id":"ce4bhhh2rcd13ifvqfk0","pricing_plan_id":"free"},{"bike_id":"ac1b22ec-c2c2-486d-a407-b2b761877c11","system_id":"levelo_inurba_marseille","lat":43.245581,"lon":5.395069,"is_reserved":false,"is_disabled":false,"rental_uris":{"android":"levelo://app?vid=ac1b22ec-c2c2-486d-a407-b2b761877c11","ios":"levelo://app?vid=ac1b22ec-c2c2-486d-a407-b2b761877c11"},"vehicle_type_id":"4","last_reported":1700309486,"current_range_meters":29200,"station_id":"ce4bhlp2rcd13ifvqgjg","pricing_plan_id":"free"},