{"last_updated":1686859626,"ttl":30,"version":"2.2","data":{"bikes":[{"bike_id":"ad78bf8d-8e62-4af6-abea-4ddb13bf78a9","system_id":"levelo_inurba_marseille","lat":43.31341,"lon":5.367098,"is_reserved":false,"is_disabled":false,"rental_uris":{"android":"levelo://app?vid=ad78bf8d-8e62-4af6-abea-4ddb13bf78a9","ios":"levelo://app?vid=ad78bf8d-8e62-4af6-abea-4ddb13bf78a9"},"vehicle_type_id":"4","last_reported":1686859627,"current_range_meters":9200,"station_id":"ce4bgr92rcd13ifvqc6g","pricing_plan_id":"free"},{"bike_id":"a142fcc1-dd44-4e45-a4d3-f750f9811ffe","system_id":"levelo_inurba_marseille","lat":43.3122,"lon":5.36799,"is_reserved":false,"is_disabled":false,"rental_uris":{"android":"levelo://app?vid=a142fcc1-dd44-4e45-a4d3-f750f9811ffe","ios":"levelo://app?vid=a142fcc1-dd44-4e45-a4d3-f750f9811ffe"},"vehicle_type_id":"4","last_reported":1686859627,"current_range_meters":1600,"station_id":"","pricing_plan_id":"free"},{"bike_id":"e50c3b40-2e3a-4689-9b2c-7332ee5a3ea4","system_id":"levelo_inurba_marseille","lat":43.314811,"lon":5.373103,"is_reserved":false,"is_disabled":false,"rental_uris":{"android":"levelo://app?vid=e50c3b40-2e3a-4689-9b2c-7332ee5a3ea4","ios":"levelo://app?vid=e50c3b40-2e3a-4689-9b2c-7332ee5a3ea4"},"vehicle_type_id":"4","last_reported":1686859627,"current_range_meters":0,"station_id":"ce4bgt12rcd13ifvqcd0","pricing_plan_id":"free"},{"bike_id":"2138cbdb-eb73-459e-9139-99731bcf57c9","system_id":"levelo_inurba_marseille","lat":43.308614,"lon":5.372098,"is_reserved":false,"is_disabled":false,"rental_uris":{"android":"levelo://app?vid=2138cbdb-eb73-459e-9139-99731bcf57c9","ios":"levelo://app?vid=2138cbdb-eb73-459e-9139-99731bcf57c9"},"vehicle_type_id":"4","last_reported":1686859627,"current_range_meters":0,"station_id":"ce4bguh2rcd13ifvqckg","pricing_plan_id":"free"},{"bike_id":"32d184cd-02be-464a-947c-bc205f00df12","system_id":"levelo_inurba_marseille","lat":43.305368,"lon":5.367343,"is_reserved":false,"is_disabled":false,"rental_uris":{"android":"levelo://app?vid=32d184cd-02be-464a-947c-bc205f00df12","ios":"levelo://app?vid=32d184cd-02be-464a-947c-bc205f00df12"},"vehicle_type_id":"4","last_reported":1686859627,"current_range_meters":15600,"station_id":"ce4bgrp2rcd13ifvqc9g","pricing_plan_id":"free"},{"bike_id":"bc42a1e3-11b7-446d-86ac-b2dfc70b8b8d","system_id":"levelo_inurba_marseille","lat":43.305714,"lon":5.365633,"is_reserved":false,"is_disabled":false,"rental_uris":{"android":"levelo://app?vid=bc42a1e3-11b7-446d-86ac-b2dfc70b8b8d","ios":"levelo://app?vid=bc42a1e3-11b7-446d-86ac-b2dfc70b8b8d"},"vehicle_type_id":"4","last_reported":1686859627,"current_range_meters":31200,"station_id":"ce4bgs12rcd13ifvqcag","pricing_plan_id":"free"},{"bike_id":"cb9daa55-a027-4beb-b735-2ba1cc74eb41","system_id":"levelo_inurba_marseille","lat":43.305714,"lon":5.365633,"is_reserved":false,"is_disabled":false,"rental_uris":{"android":"levelo://app?vid=cb9daa55-a027-4beb-b735-2ba1cc74eb41","ios":"levelo://app?vid=cb9daa55-a027-4beb-b735-2ba1cc74eb41"},"vehicle_type_id":"4","last_reported":1686859627,"current_range_meters":28400,"station_id":"ce4bgs12rcd13ifvqcag","pricing_plan_id":"free"},{"bike_id":"d4dc3e49-39ab-4e0c-b01b-49e22936f69b","system_id":"levelo_inurba_marseille","lat":43.305706,"lon":5.365654,"is_reserved":false,"is_disabled":false,"rental_uris":{"android":"levelo://app?vid=d4dc3e49-39ab-4e0c-b01b-49e22936f69b","ios":"levelo://app?vid=d4dc3e49-39ab-4e0c-b01b-49e22936f69b"},"vehicle_type_id":"4","last_reported":1686859627,"current_range_meters":31200,"station_id":"ce4bgs12rcd13ifvqcag","pricing_plan_id":"free"},{"bike_id":"c19e52cf-e203-4046-8a4c-66651fe682a8","system_id":"levelo_inurba_marseille","lat":43.305706,"lon":5.365654,"is_reserved":false,"is_disabled":false,"rental_uris":{"android":"levelo://app?vid=c19e52cf-e203-4046-8a4c-66651fe682a8","ios":"levelo://app?vid=c19e52cf-e203-4046-8a4c-66651fe682a8"},"vehicle_type_id":"4","last_reported":1686859627,"current_range_meters":31200,"station_id":"ce4bgs12rcd13ifvqcag","pricing_plan_id":"free"},{"bike_id":"c8d09056-bb13-44eb-8b40-56f539127ee0","system_id":"levelo_inurba_marseille","lat":43.305706,"lon":5.365654,"is_reserved":false,"is_disabled":false,"rental_uris":{"android":"levelo://app?vid=c8d09056-bb13-44eb-8b40-56f539127ee0","ios":"levelo://app?vid=c8d09056-bb13-44eb-8b40-56f539127ee0"},"vehicle_type_id":"4","last_reported":1686859627,"current_range_meters":31200,"station_id":"ce4bgs12rcd13ifvqcag","pricing_plan_id":"free"},{"bike_id":"52ca6b20-e9e3-45f9-8860-adce6bdcb735","system_id":"levelo_inurba_marseille","lat":43.305706,"lon":5.365654,"is_reserved":false,"is_disabled":false,"rental_uris":{"android":"levelo://app?vid=52ca6b20-e9e3-45f9-8860-adce6bdcb735","ios":"levelo://app?vid=52ca6b20-e9e3-45f9-8860-adce6bdcb735"},"vehicle_type_id":"4","last_reported":1686859627,"current_range_meters":29200,"station_id":"ce4bgs12rcd13ifvqcag","pricing_plan_id":"free"},{"bike_id":"2424216c-0462-4ad0-b127-d0366c91b61c","system_id":"levelo_inurba_marseille","lat":43.317075,"lon":5.377367,"is_reserved":false,"is_disabled":false,"rental_uris":{"android":"levelo://app?vid=2424216c-0462-4ad0-b127-d0366c91b61c","ios":"levelo://app?vid=2424216c-0462-4ad0-b127-d0366c91b61c"},"vehicle_type_id":"4","last_reported":1686859627,"current_range_meters":31200,"station_id":"ce4bgth2rcd13ifvqch0","pricing_plan_id":"free"},{"bike_id":"82b1099e-42a5-4a71-951c-389fe6fc9df4","system_id":"levelo_inurba_marseille","lat":43.303046,"lon":5.368981,"is_reserved":false,"is_disabled":false,"rental_uris":{"android":"levelo://app?vid=82b1099e-42a5-4a71-951c-389fe6fc9df4","ios":"levelo://app?vid=82b1099e-42a5-4a71-951c-389fe6fc9df4"},"vehicle_type_id":"4","last_reported":1686859627,"current_range_meters":21200,"station_id":"ce4bgqh2rcd13ifvqc5g","pricing_plan_id":"free"},{"bike_id":"7170a570-a6d0-47c4-aa28-4d171ddf30d1","system_id":"levelo_inurba_marseille","lat":43.315293,"lon":5.380349,"is_reserved":false,"is_disabled":false,"rental_uris":{"android":"levelo://app?vid=7170a570-a6d0-47c4-aa28-4d171ddf30d1","ios":"levelo://app?vid=7170a570-a6d0-47c4-aa28-4d171ddf30d1"},"vehicle_type_id":"4","last_reported":1686859627,"current_range_meters":18000,"station_id":"ce4bhsp2rcd13ifvqi50","pricing_plan_id":"free"},{"bike_id":"cd8b6958-c31a-4a9d-8c48-cf838953f3b1","system_id":"levelo_inurba_marseille","lat":43.315289,"lon":5.380349,"is_reserved":false,"is_disabled":false,"rental_uris":{"android":"levelo://app?vid=cd8b6958-c31a-4a9d-8c48-cf838953f3b1","ios":"levelo://app?vid=cd8b6958-c31a-4a9d-8c48-cf838953f3b1"},"vehicle_type_id":"4","last_reported":1686859627,"current_range_meters":30800,"station_id":"ce4bhsp2rcd13ifvqi50","pricing_plan_id":"free"},{"bike_id":"d615bec8-d16a-4c36-8850-371d4102df2f","system_id":"levelo_inurba_marseille","lat":43.315289,"lon":5.380349,"is_reserved":false,"is_disabled":false,"rental_uris":{"android":"levelo://app?vid=d615bec8-d16a-4c36-8850-371d4102df2f","ios":"levelo://app?vid=d615bec8-d16a-4c36-8850-371d4102df2f"},"vehicle_type_id":"4","last_reported":1686859627,"current_range_meters":31200,"station_id":"ce4bhsp2rcd13ifvqi50","pricing_plan_id":"free"},{"bike_id":"ec8e35bc-83c5-4cbe-a9bc-d98c34968bcb","system_id":"levelo_inurba_marseille","lat":43.301939,"lon":5.366286,"is_reserved":false,"is_disabled":false,"rental_uris":{"android":"levelo://app?vid=ec8e35bc-83c5-4cbe-a9bc-d98c34968bcb","ios":"levelo://app?vid=ec8e35bc-83c5-4cbe-a9bc-d98c34968bcb"},"vehicle_type_id":"4","last_reported":1686859627,"current_range_meters":20000,"station_id":"ce4bgrh2rcd13ifvqc8g","pricing_plan_id":"free"},{"bike_id":"59bbb2a5-7253-4740-8cf7-9ea05abbf84f","system_id":"levelo_inurba_marseille","lat":43.30837,"lon":5.3811,"is_reserved":false,"is_disabled":false,"rental_uris":{"android":"levelo://app?vid=59bbb2a5-7253-4740-8cf7-9ea05abbf84f","ios":"levelo://app?vid=59bbb2a5-7253-4740-8cf7-9ea05abbf84f"},"vehicle_type_id":"4","last_reported":1686859627,"current_range_meters":24400,"station_id":"","pricing_plan_id":"free"},{"bike_id":"ae33307b-fcd5-479b-9ae1-9002ed226c6e","system_id":"levelo_inurba_marseille","lat":43.308012,"lon":5.381511,"is_reserved":false,"is_disabled":false,"rental_uris":{"android":"levelo://app?vid=ae33307b-fcd5-479b-9ae1-9002ed226c6e","ios":"levelo://app?vid=ae33307b-fcd5-479b-9ae1-9002ed226c6e"},"vehicle_type_id":"4","last_reported":1686859627,"current_range_meters":18400,"station_id":"ce4bgt12rcd13ifvqce0","pricing_plan_id":"free"},{"bike_id":"0055e095-0098-4915-8ebc-3d47c447ad59","system_id":"levelo_inurba_marseille","lat":43.304606,"lon":5.379026,"is_reserved":false,"is_disabled":false,"rental_uris":{"android":"levelo://app?vid=0055e095-0098-4915-8ebc-3d47c447ad59","ios":"levelo://app?vid=0055e095-0098-4915-8ebc-3d47c447ad59"},"vehicle_type_id":"4","last_reported":1686859627,"current_range_meters":31200,"station_id":"ce4bgup2rcd13ifvqcn0","pricing_plan_id":"free"},{"bike_id":"32827146-2d6b-4fb1-b00e-6b2f535ca544","system_id":"levelo_inurba_marseille","lat":43.304606,"lon":5.379026,"is_reserved":false,"is_disabled":false,"rental_uris":{"android":"levelo://app?vid=32827146-2d6b-4fb1-b00e-6b2f535ca544","ios":"levelo://app?vid=32827146-2d6b-4fb1-b00e-6b2f535ca544"},"vehicle_type_id":"4","last_reported":1686859627,"current_range_meters":31200,"station_id":"ce4bgup2rcd13ifvqcn0","pricing_plan_id":"free"},{"bike_id":"fc4a69da-5dee-4c68-8631-20ee11bc487b","system_id":"levelo_inurba_marseille","lat":43.304606,"lon":5.379026,"is_reserved":false,"is_disabled":false,"rental_uris":{"android":"levelo://app?vid=fc4a69da-5dee-4c68-8631-20ee11bc487b","ios":"levelo://app?vid=fc4a69da-5dee-4c68-8631-20ee11bc487b"},"vehicle_type_id":"4","last_reported":1686859627,"current_range_meters":30800,"station_id":"ce4bgup2rcd13ifvqcn0","pricing_plan_id":"free"},{"bike_id":"50c07205-6fd3-477b-94e7-b599ae53a22e","system_id":"levelo_inurba_marseille","lat":43.304606,"lon":5.379026,"is_reserved":false,"is_disabled":false,"rental_uris":{"android":"levelo://app?vid=50c07205-6fd3-477b-94e7-b599ae53a22e","ios":"levelo://app?vid=50c07205-6fd3-477b-94e7-b599ae53a22e"},"vehicle_type_id":"4","last_reported":1686859627,"current_range_meters":16400,"station_id":"ce4bgup2rcd13ifvqcn0","pricing_plan_id":"free"},{"bike_id":"53d51c5b-2da8-4779-91bf-6161fdc58641","system_id":"levelo_inurba_marseille","lat":43.304606,"lon":5.379026,"is_reserved":false,"is_disabled":false,"rental_uris":{"android":"levelo://app?vid=53d51c5b-2da8-4779-91bf-6161fdc58641","ios":"levelo://app?vid=53d51c5b-2da8-4779-91bf-6161fdc58641"},"vehicle_type_id":"4","last_reported":1686859627,"current_range_meters":31200,"station_id":"ce4bgup2rcd13ifvqcn0","pricing_plan_id":"free"},{"bike_id":"4010692f-5eb4-4e02-a71d-39172bfef2d2","system_id":"levelo_inurba_marseille","lat":43.304606,"lon":5.379026,"is_reserved":false,"is_disabled":false,"rental_uris":{"android":"levelo://app?vid=4010692f-5eb4-4e02-a71d-39172bfef2d2","ios":"levelo://app?vid=4010692f-5eb4-4e02-a71d-39172bfef2d2"},"vehicle_type_id":"4","last_reported":1686859627,"current_range_meters":26800,"station_id":"ce4bgup2rcd13ifvqcn0","pricing_plan_id":"free"},{"bike_id":"ef007eff-c816-4ad6-b5d5-2c16245555b3","system_id":"levelo_inurba_marseille","lat":43.30143,"lon":5.37413,"is_reserved":false,"is_disabled":false,"rental_uris":{"android":"levelo://app?vid=ef007eff-c816-4ad6-b5d5-2c16245555b3","ios":"levelo://app?vid=ef007eff-c816-4ad6-b5d5-2c16245555b3"},"vehicle_type_id":"4","last_reported":1686859627,"current_range_meters":19600,"station_id":"ce4bgs92rcd13ifvqcc0","pricing_plan_id":"free"},{"bike_id":"14a08899-349d-4c49-bd20-7204a0b2cd69","system_id":"levelo_inurba_marseille","lat":43.31992,"lon":5.38146,"is_reserved":false,"is_disabled":false,"rental_uris":{"android":"levelo://app?vid=14a08899-349d-4c49-bd20-7204a0b2cd69","ios":"levelo://app?vid=14a08899-349d-4c49-bd20-7204a0b2cd69"},"vehicle_type_id":"4","last_reported":1686859627,"current_range_meters":7600,"station_id":"ce4bhr12rcd13ifvqhpg","pricing_plan_id":"free"},{"bike_id":"c362f0e8-0431-494c-8f4e-329091583422","system_id":"levelo_inurba_marseille","lat":43.319935,"lon":5.381699,"is_reserved":false,"is_disabled":false,"rental_uris":{"android":"levelo://app?vid=c362f0e8-0431-494c-8f4e-329091583422","ios":"levelo://app?vid=c362f0e8-0431-494c-8f4e-329091583422"},"vehicle_type_id":"4","last_reported":1686859627,"current_range_meters":28000,"station_id":"ce4bhr12rcd13ifvqhpg","pricing_plan_id":"free"},{"bike_id":"9f66c586-36b8-410b-a384-4314decc6f7e","system_id":"levelo_inurba_marseille","lat":43.32002,"lon":5.38151,"is_reserved":false,"is_disabled":false,"rental_uris":{"android":"levelo://app?vid=9f66c586-36b8-410b-a384-4314decc6f7e","ios":"levelo://app?vid=9f66c586-36b8-410b-a384-4314decc6f7e"},"vehicle_type_id":"4","last_reported":1686859627,"current_range_meters":0,"station_id":"ce4bhr12rcd13ifvqhpg","pricing_plan_id":"free"},{"bike_id":"973279cd-48b3-4da5-b019-6bde256ffa58","system_id":"levelo_inurba_marseille","lat":43.32002,"lon":5.38161,"is_reserved":false,"is_disabled":false,"rental_uris":{"android":"levelo://app?vid=973279cd-48b3-4da5-b019-6bde256ffa58","ios":"levelo://app?vid=973279cd-48b3-4da5-b019-6bde256ffa58"},"vehicle_type_id":"4","last_reported":1686859627,"current_range_meters":8400,"station_id":"ce4bhr12rcd13ifvqhpg","pricing_plan_id":"free"},{"bike_id":"ac3be72e-6a6e-4a51-bf3c-304d6c00f8a3","system_id":"levelo_inurba_marseille","lat":43.313571,"lon":5.384829,"is_reserved":false,"is_disabled":false,"rental_uris":{"android":"levelo://app?vid=ac3be72e-6a6e-4a51-bf3c-304d6c00f8a3","ios":"levelo://app?vid=ac3be72e-6a6e-4a51-bf3c-304d6c00f8a3"},"vehicle_type_id":"4","last_reported":1686859627,"current_range_meters":16400,"station_id":"ce4bgt92rcd13ifvqcf0","pricing_plan_id":"free"},{"bike_id":"0b87a59c-d009-4fad-9e2e-562672cda5fc","system_id":"levelo_inurba_marseille","lat":43.313571,"lon":5.384829,"is_reserved":false,"is_disabled":false,"rental_uris":{"android":"levelo://app?vid=0b87a59c-d009-4fad-9e2e-562672cda5fc","ios":"levelo://app?vid=0b87a59c-d009-4fad-9e2e-562672cda5fc"},"vehicle_type_id":"4","last_reported":1686859627,"current_range_meters":25600,"station_id":"ce4bgt92rcd13ifvqcf0","pricing_plan_id":"free"},{"bike_id":"d5a35a45-ee33-4f68-92d1-2281f6419f6e","system_id":"levelo_inurba_marseille","lat":43.313571,"lon":5.384829,"is_reserved":false,"is_disabled":false,"rental_uris":{"android":"levelo://app?vid=d5a35a45-ee33-4f68-92d1-2281f6419f6e","ios":"levelo://app?vid=d5a35a45-ee33-4f68-92d1-2281f6419f6e"},"vehicle_type_id":"4","last_reported":1686859627,"current_range_meters":17200,"station_id":"ce4bgt92rcd13ifvqcf0","pricing_plan_id":"free"},{"bike_id":"fb6bd63a-c794-4b26-98c1-91efb5c396ea","system_id":"levelo_inurba_marseille","lat":43.298529,"lon":5.362908,"is_reserved":false,"is_disabled":false,"rental_uris":{"android":"levelo://app?vid=fb6bd63a-c794-4b26-98c1-91efb5c396ea","ios":"levelo://app?vid=fb6bd63a-c794-4b26-98c1-91efb5c396ea"},"vehicle_type_id":"4","last_reported":1686859627,"current_range_meters":31200,"station_id":"ce4bgpp2rcd13ifvqc3g","pricing_plan_id":"free"},{"bike_id":"af49f3a7-fcde-4de9-bf84-6b28e966915a","system_id":"levelo_inurba_marseille","lat":43.298433,"lon":5.362774,"is_reserved":false,"is_disabled":false,"rental_uris":{"android":"levelo://app?vid=af49f3a7-fcde-4de9-bf84-6b28e966915a","ios":"levelo://app?vid=af49f3a7-fcde-4de9-bf84-6b28e966915a"},"vehicle_type_id":"4","last_reported":1686859627,"current_range_meters":18000,"station_id":"ce4bgpp2rcd13ifvqc3g","pricing_plan_id":"free"},{"bike_id":"2358ad8a-50d4-458e-a46e-73052a06f11a","system_id":"levelo_inurba_marseille","lat":43.311722,"lon":5.387247,"is_reserved":false,"is_disabled":false,"rental_uris":{"android":"levelo://app?vid=2358ad8a-50d4-458e-a46e-73052a06f11a","ios":"levelo://app?vid=2358ad8a-50d4-458e-a46e-73052a06f11a"},"vehicle_type_id":"4","last_reported":1686859627,"current_range_meters":6400,"station_id":"ce4bgv12rcd13ifvqcp0","pricing_plan_id":"free"},{"bike_id":"73a72b9f-56a0-469f-9e6f-e8b9935bdeb4","system_id":"levelo_inurba_marseille","lat":43.299243,"lon":5.374807,"is_reserved":false,"is_disabled":false,"rental_uris":{"android":"levelo://app?vid=73a72b9f-56a0-469f-9e6f-e8b9935bdeb4","ios":"levelo://app?vid=73a72b9f-56a0-469f-9e6f-e8b9935bdeb4"},"vehicle_type_id":"4","last_reported":1686859627,"current_range_meters":10400,"station_id":"ce4bgjh2rcd13ifvqbg0","pricing_plan_id":"free"},{"bike_id":"455ec81b-ef73-4668-ae45-bfd60fbf9d6d","system_id":"levelo_inurba_marseille","lat":43.311722,"lon":5.387247,"is_reserved":false,"is_disabled":false,"rental_uris":{"android":"levelo://app?vid=455ec81b-ef73-4668-ae45-bfd60fbf9d6d","ios":"levelo://app?vid=455ec81b-ef73-4668-ae45-bfd60fbf9d6d"},"vehicle_type_id":"4","last_reported":1686859627,"current_range_meters":3600,"station_id":"ce4bgv12rcd13ifvqcp0","pricing_plan_id":"free"},{"bike_id":"44595e85-3c66-4e0e-ab1d-44a1c6be6f79","system_id":"levelo_inurba_marseille","lat":43.311722,"lon":5.387247,"is_reserved":false,"is_disabled":false,"rental_uris":{"android":"levelo://app?vid=44595e85-3c66-4e0e-ab1d-44a1c6be6f79","ios":"levelo://app?vid=44595e85-3c66-4e0e-ab1d-44a1c6be6f79"},"vehicle_type_id":"4","last_reported":1686859627,"current_range_meters":20000,"station_id":"ce4bgv12rcd13ifvqcp0","pricing_plan_id":"free"},{"bike_id":"23a38fba-6604-4fcf-8a94-80d1a159afb1","system_id":"levelo_inurba_marseille","lat":43.31167,"lon":5.38728,"is_reserved":false,"is_disabled":false,"rental_uris":{"android":"levelo://app?vid=23a38fba-6604-4fcf-8a94-80d1a159afb1","ios":"levelo://app?vid=23a38fba-6604-4fcf-8a94-80d1a159afb1"},"vehicle_type_id":"4","last_reported":1686859627,"current_range_meters":8800,"station_id":"ce4bgv12rcd13ifvqcp0","pricing_plan_id":"free"},{"bike_id":"6938353d-b323-4b5d-9339-e3d5397a084a","system_id":"levelo_inurba_marseille","lat":43.32805,"lon":5.36687,"is_reserved":false,"is_disabled":false,"rental_uris":{"android":"levelo://app?vid=6938353d-b323-4b5d-9339-e3d5397a084a","ios":"levelo://app?vid=6938353d-b323-4b5d-9339-e3d5397a084a"},"vehicle_type_id":"4","last_reported":1686859627,"current_range_meters":25200,"station_id":"","pricing_plan_id":"free"},{"bike_id":"ffa243d7-5d5a-4393-b530-320522627e2a","system_id":"levelo_inurba_marseille","lat":43.328371,"lon":5.366909,"is_reserved":false,"is_disabled":false,"rental_uris":{"android":"levelo://app?vid=ffa243d7-5d5a-4393-b530-320522627e2a","ios":"levelo://app?vid=ffa243d7-5d5a-4393-b530-320522627e2a"},"vehicle_type_id":"4","last_reported":1686859627,"current_range_meters":6400,"station_id":"ce4bhs92rcd13ifvqi0g","pricing_plan_id":"free"},{"bike_id":"aa06f726-f012-446d-8f5b-650279a6533a","system_id":"levelo_inurba_marseille","lat":43.29713,"lon":5.36602,"is_reserved":false,"is_disabled":false,"rental_uris":{"android":"levelo://app?vid=aa06f726-f012-446d-8f5b-650279a6533a","ios":"levelo://app?vid=aa06f726-f012-446d-8f5b-650279a6533a"},"vehicle_type_id":"4","last_reported":1686859627,"current_range_meters":4000,"station_id":"","pricing_plan_id":"free"},{"bike_id":"9e606cc7-96cc-4119-92a2-4f7f759be02c","system_id":"levelo_inurba_marseille","lat":43.2971,"lon":5.36613,"is_reserved":false,"is_disabled":false,"rental_uris":{"android":"levelo://app?vid=9e606cc7-96cc-4119-92a2-4f7f759be02c","ios":"levelo://app?vid=9e606cc7-96cc-4119-92a2-4f7f759be02c"},"vehicle_type_id":"4","last_reported":1686859627,"current_range_meters":3600,"station_id":"","pricing_plan_id":"free"},{"bike_id":"87e68ff6-78e1-4263-bc36-007ad786e600","system_id":"levelo_inurba_marseille","lat":43.29708,"lon":5.36617,"is_reserved":false,"is_disabled":false,"rental_uris":{"android":"levelo://app?vid=87e68ff6-78e1-4263-bc36-007ad786e600","ios":"levelo://app?vid=87e68ff6-78e1-4263-bc36-007ad786e600"},"vehicle_type_id":"4","last_reported":1686859627,"current_range_meters":0,"station_id":"","pricing_plan_id":"free"},{"bike_id":"88d0330c-5bb0-4a19-9b65-d4683b42e015","system_id":"levelo_inurba_marseille","lat":43.29683,"lon":5.36046,"is_reserved":false,"is_disabled":false,"rental_uris":{"android":"levelo://app?vid=88d0330c-5bb0-4a19-9b65-d4683b42e015","ios":"levelo://app?vid=88d0330c-5bb0-4a19-9b65-d4683b42e015"},"vehicle_type_id":"4","last_reported":1686859627,"current_range_meters":13200,"station_id":"ce4bgpp2rcd13ifvqc3g","pricing_plan_id":"free"},{"bike_id":"b13bf51a-553b-41ec-8152-5ced22d0c9d4","system_id":"levelo_inurba_marseille","lat":43.296129,"lon":5.370777,"is_reserved":false,"is_disabled":false,"rental_uris":{"android":"levelo://app?vid=b13bf51a-553b-41ec-8152-5ced22d0c9d4","ios":"levelo://app?vid=b13bf51a-553b-41ec-8152-5ced22d0c9d4"},"vehicle_type_id":"4","last_reported":1686859627,"current_range_meters":27600,"station_id":"ce4bgnh2rcd13ifvqc0g","pricing_plan_id":"free"},{"bike_id":"82b38e31-efc8-42d4-9559-6eb03335375a","system_id":"levelo_inurba_marseille","lat":43.296921,"lon":5.376579,"is_reserved":false,"is_disabled":false,"rental_uris":{"android":"levelo://app?vid=82b38e31-efc8-42d4-9559-6eb03335375a","ios":"levelo://app?vid=82b38e31-efc8-42d4-9559-6eb03335375a"},"vehicle_type_id":"4","last_reported":1686859627,"current_range_meters":400,"station_id":"ce4bgkh2rcd13ifvqbl0","pricing_plan_id":"free"},{"bike_id":"c77da036-fc51-427f-a9e9-7634a2f0c8a0","system_id":"levelo_inurba_marseille","lat":43.309589,"lon":5.390258,"is_reserved":false,"is_disabled":false,"rental_uris":{"android":"levelo://app?vid=c77da036-fc51-427f-a9e9-7634a2f0c8a0","ios":"levelo://app?vid=c77da036-fc51-427f-a9e9-7634a2f0c8a0"},"vehicle_type_id":"4","last_reported":1686859627,"current_range_meters":2800,"station_id":"ce4bgup2rcd13ifvqco0","pricing_plan_id":"free"},{"bike_id":"c52f1a6c-e2e7-44d8-8392-f23f56bf36b0","system_id":"levelo_inurba_marseille","lat":43.309589,"lon":5.390258,"is_reserved":false,"is_disabled":false,"rental_uris":{"android":"levelo://app?vid=c52f1a6c-e2e7-44d8-8392-f23f56bf36b0","ios":"levelo://app?vid=c52f1a6c-e2e7-44d8-8392-f23f56bf36b0"},"vehicle_type_id":"4","last_reported":1686859627,"current_range_meters":4000,"station_id":"ce4bgup2rcd13ifvqco0","pricing_plan_id":"free"},{"bike_id":"fc9e10ff-f30b-4d6f-bc4a-be27e658314a","system_id":"levelo_inurba_marseille","lat":43.296921,"lon":5.376579,"is_reserved":false,"is_disabled":false,"rental_uris":{"android":"levelo://app?vid=fc9e10ff-f30b-4d6f-bc4a-be27e658314a","ios":"levelo://app?vid=fc9e10ff-f30b-4d6f-bc4a-be27e658314a"},"vehicle_type_id":"4","last_reported":1686859627,"current_range_meters":26800,"station_id":"ce4bgkh2rcd13ifvqbl0","pricing_plan_id":"free"},{"bike_id":"d7e37c3f-1299-4670-86ca-55197767aaf7","system_id":"levelo_inurba_marseille","lat":43.31754,"lon":5.39015,"is_reserved":false,"is_disabled":false,"rental_uris":{"android":"levelo://app?vid=d7e37c3f-1299-4670-86ca-55197767aaf7","ios":"levelo://app?vid=d7e37c3f-1299-4670-86ca-55197767aaf7"},"vehicle_type_id":"4","last_reported":1686859627,"current_range_meters":17200,"station_id":"ce4bhqp2rcd13ifvqhng","pricing_plan_id":"free"},{"bike_id":"99bce36f-f682-453d-b07a-02bf132d6545","system_id":"levelo_inurba_marseille","lat":43.317557,"lon":5.390173,"is_reserved":false,"is_disabled":false,"rental_uris":{"android":"levelo://app?vid=99bce36f-f682-453d-b07a-02bf132d6545","ios":"levelo://app?vid=99bce36f-f682-453d-b07a-02bf132d6545"},"vehicle_type_id":"4","last_reported":1686859627,"current_range_meters":30400,"station_id":"ce4bhqp2rcd13ifvqhng","pricing_plan_id":"free"},{"bike_id":"1911e093-d8d6-46bd-9f70-1bed64e4c4f8","system_id":"levelo_inurba_marseille","lat":43.317557,"lon":5.390173,"is_reserved":false,"is_disabled":false,"rental_uris":{"android":"levelo://app?vid=1911e093-d8d6-46bd-9f70-1bed64e4c4f8","ios":"levelo://app?vid=1911e093-d8d6-46bd-9f70-1bed64e4c4f8"},"vehicle_type_id":"4","last_reported":1686859627,"current_range_meters":21600,"station_id":"ce4bhqp2rcd13ifvqhng","pricing_plan_id":"free"},{"bike_id":"113d8f7e-ffd1-4394-aaba-49ba04306712","system_id":"levelo_inurba_marseille","lat":43.317557,"lon":5.390173,"is_reserved":false,"is_disabled":false,"rental_uris":{"android":"levelo://app?vid=113d8f7e-ffd1-4394-aaba-49ba04306712","ios":"levelo://app?vid=113d8f7e-ffd1-4394-aaba-49ba04306712"},"vehicle_type_id":"4","last_reported":1686859627,"current_range_meters":14800,"station_id":"ce4bhqp2rcd13ifvqhng","pricing_plan_id":"free"},{"bike_id":"64167cfe-734d-4c53-87e4-76f8453476aa","system_id":"levelo_inurba_marseille","lat":43.298037,"lon":5.381066,"is_reserved":false,"is_disabled":false,"rental_uris":{"android":"levelo://app?vid=64167cfe-734d-4c53-87e4-76f8453476aa","ios":"levelo://app?vid=64167cfe-734d-4c53-87e4-76f8453476aa"},"vehicle_type_id":"4","last_reported":1686859627,"current_range_meters":29200,"station_id":"ce4bgip2rcd13ifvqbb0","pricing_plan_id":"free"},{"bike_id":"0393760d-3350-427f-8f60-d025998acaf3","system_id":"levelo_inurba_marseille","lat":43.295748,"lon":5.37522,"is_reserved":false,"is_disabled":false,"rental_uris":{"android":"levelo://app?vid=0393760d-3350-427f-8f60-d025998acaf3","ios":"levelo://app?vid=0393760d-3350-427f-8f60-d025998acaf3"},"vehicle_type_id":"4","last_reported":1686859627,"current_range_meters":27200,"station_id":"ce4bgh92rcd13ifvqb50","pricing_plan_id":"free"},{"bike_id":"f9f42a1e-036e-4d21-ac9f-09dfc24b841f","system_id":"levelo_inurba_marseille","lat":43.296263,"lon":5.377094,"is_reserved":false,"is_disabled":false,"rental_uris":{"android":"levelo://app?vid=f9f42a1e-036e-4d21-ac9f-09dfc24b841f","ios":"levelo://app?vid=f9f42a1e-036e-4d21-ac9f-09dfc24b841f"},"vehicle_type_id":"4","last_reported":1686859627,"current_range_meters":0,"station_id":"ce4bgi92rcd13ifvqb90","pricing_plan_id":"free"},{"bike_id":"610f019e-1c0f-4a7e-9ce6-4cbaa86beaa6","system_id":"levelo_inurba_marseille","lat":43.295748,"lon":5.37522,"is_reserved":false,"is_disabled":false,"rental_uris":{"android":"levelo://app?vid=610f019e-1c0f-4a7e-9ce6-4cbaa86beaa6","ios":"levelo://app?vid=610f019e-1c0f-4a7e-9ce6-4cbaa86beaa6"},"vehicle_type_id":"4","last_reported":1686859627,"current_range_meters":11200,"station_id":"ce4bgh92rcd13ifvqb50","pricing_plan_id":"free"},{"bike_id":"cc722aca-f544-4996-bd85-9d4dd02af072","system_id":"levelo_inurba_marseille","lat":43.296277,"lon":5.377108,"is_reserved":false,"is_disabled":false,"rental_uris":{"android":"levelo://app?vid=cc722aca-f544-4996-bd85-9d4dd02af072","ios":"levelo://app?vid=cc722aca-f544-4996-bd85-9d4dd02af072"},"vehicle_type_id":"4","last_reported":1686859627,"current_range_meters":0,"station_id":"ce4bgi92rcd13ifvqb90","pricing_plan_id":"free"},{"bike_id":"d300f07d-d901-4448-b440-529173cf87f5","system_id":"levelo_inurba_marseille","lat":43.29532,"lon":5.37506,"is_reserved":false,"is_disabled":false,"rental_uris":{"android":"levelo://app?vid=d300f07d-d901-4448-b440-529173cf87f5","ios":"levelo://app?vid=d300f07d-d901-4448-b440-529173cf87f5"},"vehicle_type_id":"4","last_reported":1686859627,"current_range_meters":24000,"station_id":"ce4bgkp2rcd13ifvqbmg","pricing_plan_id":"free"},{"bike_id":"e9a67e0d-631c-4c97-afd9-6f3bbb9b5614","system_id":"levelo_inurba_marseille","lat":43.29531,"lon":5.37504,"is_reserved":false,"is_disabled":false,"rental_uris":{"android":"levelo://app?vid=e9a67e0d-631c-4c97-afd9-6f3bbb9b5614","ios":"levelo://app?vid=e9a67e0d-631c-4c97-afd9-6f3bbb9b5614"},"vehicle_type_id":"4","last_reported":1686859627,"current_range_meters":3200,"station_id":"ce4bgkp2rcd13ifvqbmg","pricing_plan_id":"free"},{"bike_id":"189fc051-6dfa-4a0e-ab73-5955452c18d4","system_id":"levelo_inurba_marseille","lat":43.300852,"lon":5.390859,"is_reserved":false,"is_disabled":false,"rental_uris":{"android":"levelo://app?vid=189fc051-6dfa-4a0e-ab73-5955452c18d4","ios":"levelo://app?vid=189fc051-6dfa-4a0e-ab73-5955452c18d4"},"vehicle_type_id":"4","last_reported":1686859627,"current_range_meters":11200,"station_id":"ce4bh192rcd13ifvqdb0","pricing_plan_id":"free"},{"bike_id":"2c9ad911-25e0-4222-8751-d809dfadd582","system_id":"levelo_inurba_marseille","lat":43.32361,"lon":5.38882,"is_reserved":false,"is_disabled":false,"rental_uris":{"android":"levelo://app?vid=2c9ad911-25e0-4222-8751-d809dfadd582","ios":"levelo://app?vid=2c9ad911-25e0-4222-8751-d809dfadd582"},"vehicle_type_id":"4","last_reported":1686859627,"current_range_meters":10000,"station_id":"ce4bhqp2rcd13ifvqhog","pricing_plan_id":"free"},{"bike_id":"4e609ef0-2e17-4e6c-ba3b-29daedaa2e8a","system_id":"levelo_inurba_marseille","lat":43.32367,"lon":5.388836,"is_reserved":false,"is_disabled":false,"rental_uris":{"android":"levelo://app?vid=4e609ef0-2e17-4e6c-ba3b-29daedaa2e8a","ios":"levelo://app?vid=4e609ef0-2e17-4e6c-ba3b-29daedaa2e8a"},"vehicle_type_id":"4","last_reported":1686859627,"current_range_meters":23200,"station_id":"ce4bhqp2rcd13ifvqhog","pricing_plan_id":"free"},{"bike_id":"749ab176-2179-4d40-815c-b86b665a4be6","system_id":"levelo_inurba_marseille","lat":43.32367,"lon":5.388836,"is_reserved":false,"is_disabled":false,"rental_uris":{"android":"levelo://app?vid=749ab176-2179-4d40-815c-b86b665a4be6","ios":"levelo://app?vid=749ab176-2179-4d40-815c-b86b665a4be6"},"vehicle_type_id":"4","last_reported":1686859627,"current_range_meters":15600,"station_id":"ce4bhqp2rcd13ifvqhog","pricing_plan_id":"free"},{"bike_id":"1196974c-4a14-47e2-a706-660a179ee0be","system_id":"levelo_inurba_marseille","lat":43.29601,"lon":5.381084,"is_reserved":false,"is_disabled":false,"rental_uris":{"android":"levelo://app?vid=1196974c-4a14-47e2-a706-660a179ee0be","ios":"levelo://app?vid=1196974c-4a14-47e2-a706-660a179ee0be"},"vehicle_type_id":"4","last_reported":1686859627,"current_range_meters":4000,"station_id":"ce4bgl12rcd13ifvqbo0","pricing_plan_id":"free"},{"bike_id":"9dce6bbd-fb7c-412d-9691-e75a8f1f8ed4","system_id":"levelo_inurba_marseille","lat":43.305994,"lon":5.393687,"is_reserved":false,"is_disabled":false,"rental_uris":{"android":"levelo://app?vid=9dce6bbd-fb7c-412d-9691-e75a8f1f8ed4","ios":"levelo://app?vid=9dce6bbd-fb7c-412d-9691-e75a8f1f8ed4"},"vehicle_type_id":"4","last_reported":1686859627,"current_range_meters":26000,"station_id":"ce4bh0p2rcd13ifvqd80","pricing_plan_id":"free"},{"bike_id":"09f42ebb-94e4-4d32-baa5-12d96018a9dd","system_id":"levelo_inurba_marseille","lat":43.293009,"lon":5.374584,"is_reserved":false,"is_disabled":false,"rental_uris":{"android":"levelo://app?vid=09f42ebb-94e4-4d32-baa5-12d96018a9dd","ios":"levelo://app?vid=09f42ebb-94e4-4d32-baa5-12d96018a9dd"},"vehicle_type_id":"4","last_reported":1686859627,"current_range_meters":4000,"station_id":"ce4bgi12rcd13ifvqb70","pricing_plan_id":"free"},{"bike_id":"a61fba3a-fa3d-4a24-b5f7-05b61f89817c","system_id":"levelo_inurba_marseille","lat":43.293009,"lon":5.374584,"is_reserved":false,"is_disabled":false,"rental_uris":{"android":"levelo://app?vid=a61fba3a-fa3d-4a24-b5f7-05b61f89817c","ios":"levelo://app?vid=a61fba3a-fa3d-4a24-b5f7-05b61f89817c"},"vehicle_type_id":"4","last_reported":1686859627,"current_range_meters":7200,"station_id":"ce4bgi12rcd13ifvqb70","pricing_plan_id":"free"},{"bike_id":"5d0d1a93-ade6-432c-842a-81a3fc3250d7","system_id":"levelo_inurba_marseille","lat":43.29297,"lon":5.37463,"is_reserved":false,"is_disabled":false,"rental_uris":{"android":"levelo://app?vid=5d0d1a93-ade6-432c-842a-81a3fc3250d7","ios":"levelo://app?vid=5d0d1a93-ade6-432c-842a-81a3fc3250d7"},"vehicle_type_id":"4","last_reported":1686859627,"current_range_meters":10800,"station_id":"ce4bgi12rcd13ifvqb70","pricing_plan_id":"free"},{"bike_id":"0589100f-0b6b-4aaf-8627-367f31d81352","system_id":"levelo_inurba_marseille","lat":43.305994,"lon":5.393687,"is_reserved":false,"is_disabled":false,"rental_uris":{"android":"levelo://app?vid=0589100f-0b6b-4aaf-8627-367f31d81352","ios":"levelo://app?vid=0589100f-0b6b-4aaf-8627-367f31d81352"},"vehicle_type_id":"4","last_reported":1686859627,"current_range_meters":0,"station_id":"ce4bh0p2rcd13ifvqd80","pricing_plan_id":"free"},{"bike_id":"cfb4ad6d-1ba2-4a36-9f56-24f0945cd319","system_id":"levelo_inurba_marseille","lat":43.305994,"lon":5.393687,"is_reserved":false,"is_disabled":false,"rental_uris":{"android":"levelo://app?vid=cfb4ad6d-1ba2-4a36-9f56-24f0945cd319","ios":"levelo://app?vid=cfb4ad6d-1ba2-4a36-9f56-24f0945cd319"},"vehicle_type_id":"4","last_reported":1686859627,"current_range_meters":13600,"station_id":"ce4bh0p2rcd13ifvqd80","pricing_plan_id":"free"},{"bike_id":"a7c5a17b-060e-4788-89b8-5cd19381fc93","system_id":"levelo_inurba_marseille","lat":43.2936,"lon":5.37835,"is_reserved":false,"is_disabled":false,"rental_uris":{"android":"levelo://app?vid=a7c5a17b-060e-4788-89b8-5cd19381fc93","ios":"levelo://app?vid=a7c5a17b-060e-4788-89b8-5cd19381fc93"},"vehicle_type_id":"4","last_reported":1686859627,"current_range_meters":400,"station_id":"ce4bgjh2rcd13ifvqbf0","pricing_plan_id":"free"},{"bike_id":"faafc0ff-f88b-4dca-873f-ee4684074ec3","system_id":"levelo_inurba_marseille","lat":43.302992,"lon":5.392136,"is_reserved":false,"is_disabled":false,"rental_uris":{"android":"levelo://app?vid=faafc0ff-f88b-4dca-873f-ee4684074ec3","ios":"levelo://app?vid=faafc0ff-f88b-4dca-873f-ee4684074ec3"},"vehicle_type_id":"4","last_reported":1686859627,"current_range_meters":12000,"station_id":"ce4bgkh2rcd13ifvqbk0","pricing_plan_id":"free"},{"bike_id":"d3e5ec50-cdd2-4dda-b3aa-56eb536bbb12","system_id":"levelo_inurba_marseille","lat":43.29266,"lon":5.35978,"is_reserved":false,"is_disabled":false,"rental_uris":{"android":"levelo://app?vid=d3e5ec50-cdd2-4dda-b3aa-56eb536bbb12","ios":"levelo://app?vid=d3e5ec50-cdd2-4dda-b3aa-56eb536bbb12"},"vehicle_type_id":"4","last_reported":1686859627,"current_range_meters":28800,"station_id":"","pricing_plan_id":"free"},{"bike_id":"b2cc86f2-ca80-4f57-9e3d-cad77bb9e3a1","system_id":"levelo_inurba_marseille","lat":43.302992,"lon":5.392136,"is_reserved":false,"is_disabled":false,"rental_uris":{"android":"levelo://app?vid=b2cc86f2-ca80-4f57-9e3d-cad77bb9e3a1","ios":"levelo://app?vid=b2cc86f2-ca80-4f57-9e3d-cad77bb9e3a1"},"vehicle_type_id":"4","last_reported":1686859627,"current_range_meters":9600,"station_id":"ce4bgkh2rcd13ifvqbk0","pricing_plan_id":"free"},{"bike_id":"cf813014-a02c-4907-8af2-0cc2ea0259d4","system_id":"levelo_inurba_marseille","lat":43.2936,"lon":5.37835,"is_reserved":false,"is_disabled":false,"rental_uris":{"android":"levelo://app?vid=cf813014-a02c-4907-8af2-0cc2ea0259d4","ios":"levelo://app?vid=cf813014-a02c-4907-8af2-0cc2ea0259d4"},"vehicle_type_id":"4","last_reported":1686859627,"current_range_meters":1200,"station_id":"ce4bgjh2rcd13ifvqbf0","pricing_plan_id":"free"},{"bike_id":"3e25dd09-2913-4555-ac58-dbb1a0c8ca86","system_id":"levelo_inurba_marseille","lat":43.302992,"lon":5.392136,"is_reserved":false,"is_disabled":false,"rental_uris":{"android":"levelo://app?vid=3e25dd09-2913-4555-ac58-dbb1a0c8ca86","ios":"levelo://app?vid=3e25dd09-2913-4555-ac58-dbb1a0c8ca86"},"vehicle_type_id":"4","last_reported":1686859627,"current_range_meters":14800,"station_id":"ce4bgkh2rcd13ifvqbk0","pricing_plan_id":"free"},{"bike_id":"32c8e06b-d0a9-4bc6-a75c-eeb0c0071c05","system_id":"levelo_inurba_marseille","lat":43.2936,"lon":5.37835,"is_reserved":false,"is_disabled":false,"rental_uris":{"android":"levelo://app?vid=32c8e06b-d0a9-4bc6-a75c-eeb0c0071c05","ios":"levelo://app?vid=32c8e06b-d0a9-4bc6-a75c-eeb0c0071c05"},"vehicle_type_id":"4","last_reported":1686859627,"current_range_meters":2000,"station_id":"ce4bgjh2rcd13ifvqbf0","pricing_plan_id":"free"},{"bike_id":"2dc27821-a725-4331-8547-74920e1706a8","system_id":"levelo_inurba_marseille","lat":43.30091,"lon":5.39065,"is_reserved":false,"is_disabled":false,"rental_uris":{"android":"levelo://app?vid=2dc27821-a725-4331-8547-74920e1706a8","ios":"levelo://app?vid=2dc27821-a725-4331-8547-74920e1706a8"},"vehicle_type_id":"4","last_reported":1686859627,"current_range_meters":21200,"station_id":"ce4bh192rcd13ifvqdb0","pricing_plan_id":"free"},{"bike_id":"e819e7fa-2249-435a-bf2b-58feba36e585","system_id":"levelo_inurba_marseille","lat":43.30085,"lon":5.390856,"is_reserved":false,"is_disabled":false,"rental_uris":{"android":"levelo://app?vid=e819e7fa-2249-435a-bf2b-58feba36e585","ios":"levelo://app?vid=e819e7fa-2249-435a-bf2b-58feba36e585"},"vehicle_type_id":"4","last_reported":1686859627,"current_range_meters":3600,"station_id":"ce4bh192rcd13ifvqdb0","pricing_plan_id":"free"},{"bike_id":"970b3225-177b-4689-8d37-14d09ecb91b4","system_id":"levelo_inurba_marseille","lat":43.291675,"lon":5.371583,"is_reserved":false,"is_disabled":false,"rental_uris":{"android":"levelo://app?vid=970b3225-177b-4689-8d37-14d09ecb91b4","ios":"levelo://app?vid=970b3225-177b-4689-8d37-14d09ecb91b4"},"vehicle_type_id":"4","last_reported":1686859627,"current_range_meters":23200,"station_id":"ce4bha92rcd13ifvqeh0","pricing_plan_id":"free"},{"bike_id":"b30003d8-62f7-4571-86c1-5a69e947cbb4","system_id":"levelo_inurba_marseille","lat":43.31326,"lon":5.39686,"is_reserved":false,"is_disabled":false,"rental_uris":{"android":"levelo://app?vid=b30003d8-62f7-4571-86c1-5a69e947cbb4","ios":"levelo://app?vid=b30003d8-62f7-4571-86c1-5a69e947cbb4"},"vehicle_type_id":"4","last_reported":1686859627,"current_range_meters":0,"station_id":"ce4bgvp2rcd13ifvqcu0","pricing_plan_id":"free"},{"bike_id":"e275adb2-0c22-4ff3-bd7e-64b02de87a7d","system_id":"levelo_inurba_marseille","lat":43.313291,"lon":5.396838,"is_reserved":false,"is_disabled":false,"rental_uris":{"android":"levelo://app?vid=e275adb2-0c22-4ff3-bd7e-64b02de87a7d","ios":"levelo://app?vid=e275adb2-0c22-4ff3-bd7e-64b02de87a7d"},"vehicle_type_id":"4","last_reported":1686859627,"current_range_meters":4000,"station_id":"ce4bgvp2rcd13ifvqcu0","pricing_plan_id":"free"},{"bike_id":"0134206a-3a0e-4316-98e4-9815acf4d29f","system_id":"levelo_inurba_marseille","lat":43.313291,"lon":5.396838,"is_reserved":false,"is_disabled":false,"rental_uris":{"android":"levelo://app?vid=0134206a-3a0e-4316-98e4-9815acf4d29f","ios":"levelo://app?vid=0134206a-3a0e-4316-98e4-9815acf4d29f"},"vehicle_type_id":"4","last_reported":1686859627,"current_range_meters":20000,"station_id":"ce4bgvp2rcd13ifvqcu0","pricing_plan_id":"free"},{"bike_id":"0f4046ba-d1c3-41ab-bb7c-169dba13c164","system_id":"levelo_inurba_marseille","lat":43.29529,"lon":5.385581,"is_reserved":false,"is_disabled":false,"rental_uris":{"android":"levelo://app?vid=0f4046ba-d1c3-41ab-bb7c-169dba13c164","ios":"levelo://app?vid=0f4046ba-d1c3-41ab-bb7c-169dba13c164"},"vehicle_type_id":"4","last_reported":1686859627,"current_range_meters":400,"station_id":"ce4bgih2rcd13ifvqba0","pricing_plan_id":"free"},{"bike_id":"bf2ca023-4683-4b45-b3e6-13c43fcaddcc","system_id":"levelo_inurba_marseille","lat":43.29186,"lon":5.35723,"is_reserved":false,"is_disabled":false,"rental_uris":{"android":"levelo://app?vid=bf2ca023-4683-4b45-b3e6-13c43fcaddcc","ios":"levelo://app?vid=bf2ca023-4683-4b45-b3e6-13c43fcaddcc"},"vehicle_type_id":"4","last_reported":1686859627,"current_range_meters":22000,"station_id":"","pricing_plan_id":"free"},{"bike_id":"caf7156d-28bd-4350-8803-e3a09544f7b0","system_id":"levelo_inurba_marseille","lat":43.290624,"lon":5.359245,"is_reserved":false,"is_disabled":false,"rental_uris":{"android":"levelo://app?vid=caf7156d-28bd-4350-8803-e3a09544f7b0","ios":"levelo://app?vid=caf7156d-28bd-4350-8803-e3a09544f7b0"},"vehicle_type_id":"4","last_reported":1686859627,"current_range_meters":6800,"station_id":"ce4bha92rcd13ifvqeg0","pricing_plan_id":"free"},{"bike_id":"e45f719c-be5d-45ab-a106-84e594cbee3e","system_id":"levelo_inurba_marseille","lat":43.302008,"lon":5.394694,"is_reserved":false,"is_disabled":false,"rental_uris":{"android":"levelo://app?vid=e45f719c-be5d-45ab-a106-84e594cbee3e","ios":"levelo://app?vid=e45f719c-be5d-45ab-a106-84e594cbee3e"},"vehicle_type_id":"4","last_reported":1686859627,"current_range_meters":2000,"station_id":"ce4bh0p2rcd13ifvqd70","pricing_plan_id":"free"},{"bike_id":"8666ff68-bc75-4a1a-879f-781a218058a3","system_id":"levelo_inurba_marseille","lat":43.302008,"lon":5.394694,"is_reserved":false,"is_disabled":false,"rental_uris":{"android":"levelo://app?vid=8666ff68-bc75-4a1a-879f-781a218058a3","ios":"levelo://app?vid=8666ff68-bc75-4a1a-879f-781a218058a3"},"vehicle_type_id":"4","last_reported":1686859627,"current_range_meters":25200,"station_id":"ce4bh0p2rcd13ifvqd70","pricing_plan_id":"free"},{"bike_id":"62979390-8818-4fc0-beae-7a86c511e023","system_id":"levelo_inurba_marseille","lat":43.294162,"lon":5.386292,"is_reserved":false,"is_disabled":false,"rental_uris":{"android":"levelo://app?vid=62979390-8818-4fc0-beae-7a86c511e023","ios":"levelo://app?vid=62979390-8818-4fc0-beae-7a86c511e023"},"vehicle_type_id":"4","last_reported":1686859627,"current_range_meters":0,"station_id":"ce4bh2h2rcd13ifvqdh0","pricing_plan_id":"free"},{"bike_id":"7e3f2dc7-7cc0-4668-864c-dd7672dbafea","system_id":"levelo_inurba_marseille","lat":43.292644,"lon":5.384257,"is_reserved":false,"is_disabled":false,"rental_uris":{"android":"levelo://app?vid=7e3f2dc7-7cc0-4668-864c-dd7672dbafea","ios":"levelo://app?vid=7e3f2dc7-7cc0-4668-864c-dd7672dbafea"},"vehicle_type_id":"4","last_reported":1686859627,"current_range_meters":15600,"station_id":"ce4bh692rcd13ifvqea0","pricing_plan_id":"free"},{"bike_id":"7e3d4824-afd6-4708-a42b-51346d0b70be","system_id":"levelo_inurba_marseille","lat":43.292642,"lon":5.384254,"is_reserved":false,"is_disabled":false,"rental_uris":{"android":"levelo://app?vid=7e3d4824-afd6-4708-a42b-51346d0b70be","ios":"levelo://app?vid=7e3d4824-afd6-4708-a42b-51346d0b70be"},"vehicle_type_id":"4","last_reported":1686859627,"current_range_meters":0,"station_id":"ce4bh692rcd13ifvqea0","pricing_plan_id":"free"},{"bike_id":"4828fe20-4ccb-48a7-91cd-ef88cd86a8a1","system_id":"levelo_inurba_marseille","lat":43.330462,"lon":5.38915,"is_reserved":false,"is_disabled":false,"rental_uris":{"android":"levelo://app?vid=4828fe20-4ccb-48a7-91cd-ef88cd86a8a1","ios":"levelo://app?vid=4828fe20-4ccb-48a7-91cd-ef88cd86a8a1"},"vehicle_type_id":"4","last_reported":1686859627,"current_range_meters":24800,"station_id":"","pricing_plan_id":"free"},{"bike_id":"b66158d5-9ef1-491d-9b86-813cb6dbf51b","system_id":"levelo_inurba_marseille","lat":43.290995,"lon":5.381361,"is_reserved":false,"is_disabled":false,"rental_uris":{"android":"levelo://app?vid=b66158d5-9ef1-491d-9b86-813cb6dbf51b","ios":"levelo://app?vid=b66158d5-9ef1-491d-9b86-813cb6dbf51b"},"vehicle_type_id":"4","last_reported":1686859627,"current_range_meters":0,"station_id":"ce4bh512rcd13ifvqe2g","pricing_plan_id":"free"},{"bike_id":"5e23bbc4-a8de-4488-9ebe-6014a555d60c","system_id":"levelo_inurba_marseille","lat":43.289741,"lon":5.378306,"is_reserved":false,"is_disabled":false,"rental_uris":{"android":"levelo://app?vid=5e23bbc4-a8de-4488-9ebe-6014a555d60c","ios":"levelo://app?vid=5e23bbc4-a8de-4488-9ebe-6014a555d60c"},"vehicle_type_id":"4","last_reported":1686859627,"current_range_meters":0,"station_id":"ce4bh9p2rcd13ifvqed0","pricing_plan_id":"free"},{"bike_id":"23658704-d4a0-47fd-bf61-28de2c4f5fc8","system_id":"levelo_inurba_marseille","lat":43.295169,"lon":5.390426,"is_reserved":false,"is_disabled":false,"rental_uris":{"android":"levelo://app?vid=23658704-d4a0-47fd-bf61-28de2c4f5fc8","ios":"levelo://app?vid=23658704-d4a0-47fd-bf61-28de2c4f5fc8"},"vehicle_type_id":"4","last_reported":1686859627,"current_range_meters":25600,"station_id":"ce4bh3p2rcd13ifvqdp0","pricing_plan_id":"free"},{"bike_id":"854bc787-6cc1-4d5c-a5f7-c48ff4de77bc","system_id":"levelo_inurba_marseille","lat":43.28856,"lon":5.358371,"is_reserved":false,"is_disabled":false,"rental_uris":{"android":"levelo://app?vid=854bc787-6cc1-4d5c-a5f7-c48ff4de77bc","ios":"levelo://app?vid=854bc787-6cc1-4d5c-a5f7-c48ff4de77bc"},"vehicle_type_id":"4","last_reported":1686859627,"current_range_meters":2800,"station_id":"ce4bhb12rcd13ifvqem0","pricing_plan_id":"free"},{"bike_id":"946d25f6-0cd9-4eeb-9d9e-7ee47f352fc6","system_id":"levelo_inurba_marseille","lat":43.2901,"lon":5.381269,"is_reserved":false,"is_disabled":false,"rental_uris":{"android":"levelo://app?vid=946d25f6-0cd9-4eeb-9d9e-7ee47f352fc6","ios":"levelo://app?vid=946d25f6-0cd9-4eeb-9d9e-7ee47f352fc6"},"vehicle_type_id":"4","last_reported":1686859627,"current_range_meters":14400,"station_id":"ce4bh4p2rcd13ifvqe1g","pricing_plan_id":"free"},{"bike_id":"c0fb8083-e02d-4dec-b1b9-fa095e6c5b75","system_id":"levelo_inurba_marseille","lat":43.337396,"lon":5.374526,"is_reserved":false,"is_disabled":false,"rental_uris":{"android":"levelo://app?vid=c0fb8083-e02d-4dec-b1b9-fa095e6c5b75","ios":"levelo://app?vid=c0fb8083-e02d-4dec-b1b9-fa095e6c5b75"},"vehicle_type_id":"4","last_reported":1686859627,"current_range_meters":4000,"station_id":"ce4bhp92rcd13ifvqhag","pricing_plan_id":"free"},{"bike_id":"b1eaec8a-be6f-48d4-a95d-b10d39534511","system_id":"levelo_inurba_marseille","lat":43.309371,"lon":5.401449,"is_reserved":false,"is_disabled":false,"rental_uris":{"android":"levelo://app?vid=b1eaec8a-be6f-48d4-a95d-b10d39534511","ios":"levelo://app?vid=b1eaec8a-be6f-48d4-a95d-b10d39534511"},"vehicle_type_id":"4","last_reported":1686859627,"current_range_meters":28800,"station_id":"ce4bgvp2rcd13ifvqct0","pricing_plan_id":"free"},{"bike_id":"30e2c229-d9a2-4bcb-ac09-e33093cf66f1","system_id":"levelo_inurba_marseille","lat":43.30654,"lon":5.40082,"is_reserved":false,"is_disabled":false,"rental_uris":{"android":"levelo://app?vid=30e2c229-d9a2-4bcb-ac09-e33093cf66f1","ios":"levelo://app?vid=30e2c229-d9a2-4bcb-ac09-e33093cf66f1"},"vehicle_type_id":"4","last_reported":1686859627,"current_range_meters":2000,"station_id":"ce4bh112rcd13ifvqda0","pricing_plan_id":"free"},{"bike_id":"10cdb518-e270-4caa-b225-2f800bd44b58","system_id":"levelo_inurba_marseille","lat":43.33762,"lon":5.37447,"is_reserved":false,"is_disabled":false,"rental_uris":{"android":"levelo://app?vid=10cdb518-e270-4caa-b225-2f800bd44b58","ios":"levelo://app?vid=10cdb518-e270-4caa-b225-2f800bd44b58"},"vehicle_type_id":"4","last_reported":1686859627,"current_range_meters":25200,"station_id":"","pricing_plan_id":"free"},{"bike_id":"b772f52c-687f-4b8c-afa9-5ea3c1136e22","system_id":"levelo_inurba_marseille","lat":43.30642,"lon":5.401031,"is_reserved":false,"is_disabled":false,"rental_uris":{"android":"levelo://app?vid=b772f52c-687f-4b8c-afa9-5ea3c1136e22","ios":"levelo://app?vid=b772f52c-687f-4b8c-afa9-5ea3c1136e22"},"vehicle_type_id":"4","last_reported":1686859627,"current_range_meters":4800,"station_id":"ce4bh112rcd13ifvqda0","pricing_plan_id":"free"},{"bike_id":"14b0ff99-0e5b-4c38-b00b-361c2d4535ba","system_id":"levelo_inurba_marseille","lat":43.306412,"lon":5.401035,"is_reserved":false,"is_disabled":false,"rental_uris":{"android":"levelo://app?vid=14b0ff99-0e5b-4c38-b00b-361c2d4535ba","ios":"levelo://app?vid=14b0ff99-0e5b-4c38-b00b-361c2d4535ba"},"vehicle_type_id":"4","last_reported":1686859627,"current_range_meters":0,"station_id":"ce4bh112rcd13ifvqda0","pricing_plan_id":"free"},{"bike_id":"052594a2-1ade-4fb2-a4ed-9a03802e3f88","system_id":"levelo_inurba_marseille","lat":43.306412,"lon":5.401035,"is_reserved":false,"is_disabled":false,"rental_uris":{"android":"levelo://app?vid=052594a2-1ade-4fb2-a4ed-9a03802e3f88","ios":"levelo://app?vid=052594a2-1ade-4fb2-a4ed-9a03802e3f88"},"vehicle_type_id":"4","last_reported":1686859627,"current_range_meters":5600,"station_id":"ce4bh112rcd13ifvqda0","pricing_plan_id":"free"},{"bike_id":"e67b74df-a415-4444-a302-f71dae903bbb","system_id":"levelo_inurba_marseille","lat":43.30642,"lon":5.401031,"is_reserved":false,"is_disabled":false,"rental_uris":{"android":"levelo://app?vid=e67b74df-a415-4444-a302-f71dae903bbb","ios":"levelo://app?vid=e67b74df-a415-4444-a302-f71dae903bbb"},"vehicle_type_id":"4","last_reported":1686859627,"current_range_meters":1600,"station_id":"ce4bh112rcd13ifvqda0","pricing_plan_id":"free"},{"bike_id":"05b5e554-ea24-4a8b-9576-3ba502a7fa03","system_id":"levelo_inurba_marseille","lat":43.287013,"lon":5.373851,"is_reserved":false,"is_disabled":false,"rental_uris":{"android":"levelo://app?vid=05b5e554-ea24-4a8b-9576-3ba502a7fa03","ios":"levelo://app?vid=05b5e554-ea24-4a8b-9576-3ba502a7fa03"},"vehicle_type_id":"4","last_reported":1686859627,"current_range_meters":0,"station_id":"","pricing_plan_id":"free"},{"bike_id":"0b19bb16-0e0a-41ea-8f7f-f75fc31dc4e4","system_id":"levelo_inurba_marseille","lat":43.290336,"lon":5.386425,"is_reserved":false,"is_disabled":false,"rental_uris":{"android":"levelo://app?vid=0b19bb16-0e0a-41ea-8f7f-f75fc31dc4e4","ios":"levelo://app?vid=0b19bb16-0e0a-41ea-8f7f-f75fc31dc4e4"},"vehicle_type_id":"4","last_reported":1686859627,"current_range_meters":12000,"station_id":"ce4bh4p2rcd13ifvqe0g","pricing_plan_id":"free"},{"bike_id":"e0fb1305-936c-4ce1-9c58-5db0c630d3e3","system_id":"levelo_inurba_marseille","lat":43.32977,"lon":5.39532,"is_reserved":false,"is_disabled":false,"rental_uris":{"android":"levelo://app?vid=e0fb1305-936c-4ce1-9c58-5db0c630d3e3","ios":"levelo://app?vid=e0fb1305-936c-4ce1-9c58-5db0c630d3e3"},"vehicle_type_id":"4","last_reported":1686859627,"current_range_meters":27200,"station_id":"","pricing_plan_id":"free"},{"bike_id":"bff2a4ee-85ea-4f34-9a73-7f7e07e49e52","system_id":"levelo_inurba_marseille","lat":43.287185,"lon":5.379373,"is_reserved":false,"is_disabled":false,"rental_uris":{"android":"levelo://app?vid=bff2a4ee-85ea-4f34-9a73-7f7e07e49e52","ios":"levelo://app?vid=bff2a4ee-85ea-4f34-9a73-7f7e07e49e52"},"vehicle_type_id":"4","last_reported":1686859627,"current_range_meters":0,"station_id":"ce4bh9p2rcd13ifvqec0","pricing_plan_id":"free"},{"bike_id":"5a2dd4a9-25ee-42ed-a1db-a5934aaf9bbe","system_id":"levelo_inurba_marseille","lat":43.287184,"lon":5.37937,"is_reserved":false,"is_disabled":false,"rental_uris":{"android":"levelo://app?vid=5a2dd4a9-25ee-42ed-a1db-a5934aaf9bbe","ios":"levelo://app?vid=5a2dd4a9-25ee-42ed-a1db-a5934aaf9bbe"},"vehicle_type_id":"4","last_reported":1686859627,"current_range_meters":19200,"station_id":"ce4bh9p2rcd13ifvqec0","pricing_plan_id":"free"},{"bike_id":"c47a63e9-7fb9-4ba8-bad7-a27200a49dff","system_id":"levelo_inurba_marseille","lat":43.316517,"lon":5.404375,"is_reserved":false,"is_disabled":false,"rental_uris":{"android":"levelo://app?vid=c47a63e9-7fb9-4ba8-bad7-a27200a49dff","ios":"levelo://app?vid=c47a63e9-7fb9-4ba8-bad7-a27200a49dff"},"vehicle_type_id":"4","last_reported":1686859627,"current_range_meters":10400,"station_id":"ce4bh012rcd13ifvqd00","pricing_plan_id":"free"},{"bike_id":"98ce8bb1-baeb-492c-b322-d26bf95536fa","system_id":"levelo_inurba_marseille","lat":43.316517,"lon":5.404375,"is_reserved":false,"is_disabled":false,"rental_uris":{"android":"levelo://app?vid=98ce8bb1-baeb-492c-b322-d26bf95536fa","ios":"levelo://app?vid=98ce8bb1-baeb-492c-b322-d26bf95536fa"},"vehicle_type_id":"4","last_reported":1686859627,"current_range_meters":23200,"station_id":"ce4bh012rcd13ifvqd00","pricing_plan_id":"free"},{"bike_id":"c8a87011-d1e9-468b-a29a-a070555c1de6","system_id":"levelo_inurba_marseille","lat":43.31644,"lon":5.40438,"is_reserved":false,"is_disabled":false,"rental_uris":{"android":"levelo://app?vid=c8a87011-d1e9-468b-a29a-a070555c1de6","ios":"levelo://app?vid=c8a87011-d1e9-468b-a29a-a070555c1de6"},"vehicle_type_id":"4","last_reported":1686859627,"current_range_meters":800,"station_id":"ce4bh012rcd13ifvqd00","pricing_plan_id":"free"},{"bike_id":"6fad018c-6cbc-46e7-a1cd-85c45bd5e28f","system_id":"levelo_inurba_marseille","lat":43.316523,"lon":5.404367,"is_reserved":false,"is_disabled":false,"rental_uris":{"android":"levelo://app?vid=6fad018c-6cbc-46e7-a1cd-85c45bd5e28f","ios":"levelo://app?vid=6fad018c-6cbc-46e7-a1cd-85c45bd5e28f"},"vehicle_type_id":"4","last_reported":1686859627,"current_range_meters":9200,"station_id":"ce4bh012rcd13ifvqd00","pricing_plan_id":"free"},{"bike_id":"3112108f-a9a6-44ef-9e3e-ac10fb0505bd","system_id":"levelo_inurba_marseille","lat":43.284534,"lon":5.358662,"is_reserved":false,"is_disabled":false,"rental_uris":{"android":"levelo://app?vid=3112108f-a9a6-44ef-9e3e-ac10fb0505bd","ios":"levelo://app?vid=3112108f-a9a6-44ef-9e3e-ac10fb0505bd"},"vehicle_type_id":"4","last_reported":1686859627,"current_range_meters":11200,"station_id":"ce4bhah2rcd13ifvqei0","pricing_plan_id":"free"},{"bike_id":"deb00d9f-0ccd-4f2d-99df-57644b530843","system_id":"levelo_inurba_marseille","lat":43.28617,"lon":5.35102,"is_reserved":false,"is_disabled":false,"rental_uris":{"android":"levelo://app?vid=deb00d9f-0ccd-4f2d-99df-57644b530843","ios":"levelo://app?vid=deb00d9f-0ccd-4f2d-99df-57644b530843"},"vehicle_type_id":"4","last_reported":1686859627,"current_range_meters":0,"station_id":"","pricing_plan_id":"free"},{"bike_id":"c6730b40-1123-4203-bebf-c72c0cfcf105","system_id":"levelo_inurba_marseille","lat":43.28614,"lon":5.35103,"is_reserved":false,"is_disabled":false,"rental_uris":{"android":"levelo://app?vid=c6730b40-1123-4203-bebf-c72c0cfcf105","ios":"levelo://app?vid=c6730b40-1123-4203-bebf-c72c0cfcf105"},"vehicle_type_id":"4","last_reported":1686859627,"current_range_meters":24000,"station_id":"","pricing_plan_id":"free"},{"bike_id":"0a25e109-568e-4d49-886e-8511798c1479","system_id":"levelo_inurba_marseille","lat":43.295713,"lon":5.399639,"is_reserved":false,"is_disabled":false,"rental_uris":{"android":"levelo://app?vid=0a25e109-568e-4d49-886e-8511798c1479","ios":"levelo://app?vid=0a25e109-568e-4d49-886e-8511798c1479"},"vehicle_type_id":"4","last_reported":1686859627,"current_range_meters":5600,"station_id":"ce4bh312rcd13ifvqdj0","pricing_plan_id":"free"},{"bike_id":"3923d89d-ec1e-4ff6-a319-e691c6ed6a45","system_id":"levelo_inurba_marseille","lat":43.28672,"lon":5.38661,"is_reserved":false,"is_disabled":false,"rental_uris":{"android":"levelo://app?vid=3923d89d-ec1e-4ff6-a319-e691c6ed6a45","ios":"levelo://app?vid=3923d89d-ec1e-4ff6-a319-e691c6ed6a45"},"vehicle_type_id":"4","last_reported":1686859627,"current_range_meters":0,"station_id":"","pricing_plan_id":"free"},{"bike_id":"70ca6e28-ee97-4061-b9a2-daec78e0869b","system_id":"levelo_inurba_marseille","lat":43.28666,"lon":5.38671,"is_reserved":false,"is_disabled":false,"rental_uris":{"android":"levelo://app?vid=70ca6e28-ee97-4061-b9a2-daec78e0869b","ios":"levelo://app?vid=70ca6e28-ee97-4061-b9a2-daec78e0869b"},"vehicle_type_id":"4","last_reported":1686859627,"current_range_meters":24000,"station_id":"ce4bh492rcd13ifvqdug","pricing_plan_id":"free"},{"bike_id":"316dc133-db0c-462d-93de-6db04cb47d27","system_id":"levelo_inurba_marseille","lat":43.32698,"lon":5.40381,"is_reserved":false,"is_disabled":false,"rental_uris":{"android":"levelo://app?vid=316dc133-db0c-462d-93de-6db04cb47d27","ios":"levelo://app?vid=316dc133-db0c-462d-93de-6db04cb47d27"},"vehicle_type_id":"4","last_reported":1686859627,"current_range_meters":0,"station_id":"","pricing_plan_id":"free"},{"bike_id":"26c128b2-24ff-4735-8883-1c86ed16010f","system_id":"levelo_inurba_marseille","lat":43.33724,"lon":5.39194,"is_reserved":false,"is_disabled":false,"rental_uris":{"android":"levelo://app?vid=26c128b2-24ff-4735-8883-1c86ed16010f","ios":"levelo://app?vid=26c128b2-24ff-4735-8883-1c86ed16010f"},"vehicle_type_id":"4","last_reported":1686859627,"current_range_meters":4400,"station_id":"","pricing_plan_id":"free"},{"bike_id":"16e5fedd-6e86-436a-a0a2-72c7cd60a6ea","system_id":"levelo_inurba_marseille","lat":43.32347,"lon":5.40622,"is_reserved":false,"is_disabled":false,"rental_uris":{"android":"levelo://app?vid=16e5fedd-6e86-436a-a0a2-72c7cd60a6ea","ios":"levelo://app?vid=16e5fedd-6e86-436a-a0a2-72c7cd60a6ea"},"vehicle_type_id":"4","last_reported":1686859627,"current_range_meters":31200,"station_id":"ce4bhq92rcd13ifvqhjg","pricing_plan_id":"free"},{"bike_id":"9488f7f1-3c39-439e-b696-9ddd30d05609","system_id":"levelo_inurba_marseille","lat":43.284787,"lon":5.384116,"is_reserved":false,"is_disabled":false,"rental_uris":{"android":"levelo://app?vid=9488f7f1-3c39-439e-b696-9ddd30d05609","ios":"levelo://app?vid=9488f7f1-3c39-439e-b696-9ddd30d05609"},"vehicle_type_id":"4","last_reported":1686859627,"current_range_meters":3200,"station_id":"ce4bh512rcd13ifvqe3g","pricing_plan_id":"free"},{"bike_id":"c8343987-be29-4d67-a7da-4cb9a2259758","system_id":"levelo_inurba_marseille","lat":43.284793,"lon":5.384113,"is_reserved":false,"is_disabled":false,"rental_uris":{"android":"levelo://app?vid=c8343987-be29-4d67-a7da-4cb9a2259758","ios":"levelo://app?vid=c8343987-be29-4d67-a7da-4cb9a2259758"},"vehicle_type_id":"4","last_reported":1686859627,"current_range_meters":10000,"station_id":"ce4bh512rcd13ifvqe3g","pricing_plan_id":"free"},{"bike_id":"0153600c-9d7e-4d2a-b348-b65b7a888834","system_id":"levelo_inurba_marseille","lat":43.28481,"lon":5.38426,"is_reserved":false,"is_disabled":false,"rental_uris":{"android":"levelo://app?vid=0153600c-9d7e-4d2a-b348-b65b7a888834","ios":"levelo://app?vid=0153600c-9d7e-4d2a-b348-b65b7a888834"},"vehicle_type_id":"4","last_reported":1686859627,"current_range_meters":28800,"station_id":"ce4bh512rcd13ifvqe3g","pricing_plan_id":"free"},{"bike_id":"fa55dc20-5531-4f34-a56f-65eab4b528b1","system_id":"levelo_inurba_marseille","lat":43.284793,"lon":5.384113,"is_reserved":false,"is_disabled":false,"rental_uris":{"android":"levelo://app?vid=fa55dc20-5531-4f34-a56f-65eab4b528b1","ios":"levelo://app?vid=fa55dc20-5531-4f34-a56f-65eab4b528b1"},"vehicle_type_id":"4","last_reported":1686859627,"current_range_meters":12400,"station_id":"ce4bh512rcd13ifvqe3g","pricing_plan_id":"free"},{"bike_id":"00b4d942-d645-4a17-a320-9c02b5ecca68","system_id":"levelo_inurba_marseille","lat":43.288497,"lon":5.393089,"is_reserved":false,"is_disabled":false,"rental_uris":{"android":"levelo://app?vid=00b4d942-d645-4a17-a320-9c02b5ecca68","ios":"levelo://app?vid=00b4d942-d645-4a17-a320-9c02b5ecca68"},"vehicle_type_id":"4","last_reported":1686859627,"current_range_meters":20400,"station_id":"ce4bh2p2rcd13ifvqdi0","pricing_plan_id":"free"},{"bike_id":"a70c3884-9151-4428-933b-7fd69e6da11f","system_id":"levelo_inurba_marseille","lat":43.284787,"lon":5.384116,"is_reserved":false,"is_disabled":false,"rental_uris":{"android":"levelo://app?vid=a70c3884-9151-4428-933b-7fd69e6da11f","ios":"levelo://app?vid=a70c3884-9151-4428-933b-7fd69e6da11f"},"vehicle_type_id":"4","last_reported":1686859627,"current_range_meters":1600,"station_id":"ce4bh512rcd13ifvqe3g","pricing_plan_id":"free"},{"bike_id":"a386233a-f3ab-4ae9-b6be-63b4aace3794","system_id":"levelo_inurba_marseille","lat":43.288497,"lon":5.393089,"is_reserved":false,"is_disabled":false,"rental_uris":{"android":"levelo://app?vid=a386233a-f3ab-4ae9-b6be-63b4aace3794","ios":"levelo://app?vid=a386233a-f3ab-4ae9-b6be-63b4aace3794"},"vehicle_type_id":"4","last_reported":1686859627,"current_range_meters":25200,"station_id":"ce4bh2p2rcd13ifvqdi0","pricing_plan_id":"free"},{"bike_id":"e92eba5f-5e18-475e-8646-ed003cd22089","system_id":"levelo_inurba_marseille","lat":43.283502,"lon":5.386471,"is_reserved":false,"is_disabled":false,"rental_uris":{"android":"levelo://app?vid=e92eba5f-5e18-475e-8646-ed003cd22089","ios":"levelo://app?vid=e92eba5f-5e18-475e-8646-ed003cd22089"},"vehicle_type_id":"4","last_reported":1686859627,"current_range_meters":0,"station_id":"ce4bh492rcd13ifvqdvg","pricing_plan_id":"free"},{"bike_id":"cfdcc4dd-2aa4-426e-a209-82aa6f34486a","system_id":"levelo_inurba_marseille","lat":43.28258,"lon":5.35073,"is_reserved":false,"is_disabled":false,"rental_uris":{"android":"levelo://app?vid=cfdcc4dd-2aa4-426e-a209-82aa6f34486a","ios":"levelo://app?vid=cfdcc4dd-2aa4-426e-a209-82aa6f34486a"},"vehicle_type_id":"4","last_reported":1686859627,"current_range_meters":0,"station_id":"ce4bhbp2rcd13ifvqerg","pricing_plan_id":"free"},{"bike_id":"898d424e-98ac-4e05-a58f-2873ad8bbe4c","system_id":"levelo_inurba_marseille","lat":43.28039,"lon":5.369297,"is_reserved":false,"is_disabled":false,"rental_uris":{"android":"levelo://app?vid=898d424e-98ac-4e05-a58f-2873ad8bbe4c","ios":"levelo://app?vid=898d424e-98ac-4e05-a58f-2873ad8bbe4c"},"vehicle_type_id":"4","last_reported":1686859627,"current_range_meters":8400,"station_id":"ce4bha12rcd13ifvqef0","pricing_plan_id":"free"},{"bike_id":"225d6a9d-a63b-497d-b419-85a73e1a2c7e","system_id":"levelo_inurba_marseille","lat":43.296263,"lon":5.40601,"is_reserved":false,"is_disabled":false,"rental_uris":{"android":"levelo://app?vid=225d6a9d-a63b-497d-b419-85a73e1a2c7e","ios":"levelo://app?vid=225d6a9d-a63b-497d-b419-85a73e1a2c7e"},"vehicle_type_id":"4","last_reported":1686859627,"current_range_meters":12000,"station_id":"ce4bh0h2rcd13ifvqd60","pricing_plan_id":"free"},{"bike_id":"d22173a7-32ec-48e1-9c0d-ad1730377144","system_id":"levelo_inurba_marseille","lat":43.281044,"lon":5.378308,"is_reserved":false,"is_disabled":false,"rental_uris":{"android":"levelo://app?vid=d22173a7-32ec-48e1-9c0d-ad1730377144","ios":"levelo://app?vid=d22173a7-32ec-48e1-9c0d-ad1730377144"},"vehicle_type_id":"4","last_reported":1686859627,"current_range_meters":20400,"station_id":"ce4bha12rcd13ifvqee0","pricing_plan_id":"free"},{"bike_id":"b20ca1dc-7b4a-4a7b-814d-e42100e57ffd","system_id":"levelo_inurba_marseille","lat":43.284462,"lon":5.392121,"is_reserved":false,"is_disabled":false,"rental_uris":{"android":"levelo://app?vid=b20ca1dc-7b4a-4a7b-814d-e42100e57ffd","ios":"levelo://app?vid=b20ca1dc-7b4a-4a7b-814d-e42100e57ffd"},"vehicle_type_id":"4","last_reported":1686859627,"current_range_meters":7200,"station_id":"ce4bhoh2rcd13ifvqh5g","pricing_plan_id":"free"},{"bike_id":"81eef93a-a0be-46df-be13-a6121db1ea10","system_id":"levelo_inurba_marseille","lat":43.284462,"lon":5.392121,"is_reserved":false,"is_disabled":false,"rental_uris":{"android":"levelo://app?vid=81eef93a-a0be-46df-be13-a6121db1ea10","ios":"levelo://app?vid=81eef93a-a0be-46df-be13-a6121db1ea10"},"vehicle_type_id":"4","last_reported":1686859627,"current_range_meters":21200,"station_id":"ce4bhoh2rcd13ifvqh5g","pricing_plan_id":"free"},{"bike_id":"61ae1735-18a4-4fa8-baa8-e7e4c3dc872d","system_id":"levelo_inurba_marseille","lat":43.284462,"lon":5.392121,"is_reserved":false,"is_disabled":false,"rental_uris":{"android":"levelo://app?vid=61ae1735-18a4-4fa8-baa8-e7e4c3dc872d","ios":"levelo://app?vid=61ae1735-18a4-4fa8-baa8-e7e4c3dc872d"},"vehicle_type_id":"4","last_reported":1686859627,"current_range_meters":24000,"station_id":"ce4bhoh2rcd13ifvqh5g","pricing_plan_id":"free"},{"bike_id":"54e83a07-881b-48aa-9994-dead08b5a6a9","system_id":"levelo_inurba_marseille","lat":43.285742,"lon":5.395004,"is_reserved":false,"is_disabled":false,"rental_uris":{"android":"levelo://app?vid=54e83a07-881b-48aa-9994-dead08b5a6a9","ios":"levelo://app?vid=54e83a07-881b-48aa-9994-dead08b5a6a9"},"vehicle_type_id":"4","last_reported":1686859627,"current_range_meters":22400,"station_id":"ce4bh292rcd13ifvqdg0","pricing_plan_id":"free"},{"bike_id":"04bdda83-11c6-4765-8dfd-f0185a804f64","system_id":"levelo_inurba_marseille","lat":43.27905,"lon":5.38017,"is_reserved":false,"is_disabled":false,"rental_uris":{"android":"levelo://app?vid=04bdda83-11c6-4765-8dfd-f0185a804f64","ios":"levelo://app?vid=04bdda83-11c6-4765-8dfd-f0185a804f64"},"vehicle_type_id":"4","last_reported":1686859627,"current_range_meters":24800,"station_id":"","pricing_plan_id":"free"},{"bike_id":"ca5ae337-77d1-42f6-9bb7-25723fbee9fb","system_id":"levelo_inurba_marseille","lat":43.27898,"lon":5.38011,"is_reserved":false,"is_disabled":false,"rental_uris":{"android":"levelo://app?vid=ca5ae337-77d1-42f6-9bb7-25723fbee9fb","ios":"levelo://app?vid=ca5ae337-77d1-42f6-9bb7-25723fbee9fb"},"vehicle_type_id":"4","last_reported":1686859627,"current_range_meters":0,"station_id":"","pricing_plan_id":"free"},{"bike_id":"53398520-fc69-4a58-bd3d-81cd8a9088a2","system_id":"levelo_inurba_marseille","lat":43.320045,"lon":5.415046,"is_reserved":false,"is_disabled":false,"rental_uris":{"android":"levelo://app?vid=53398520-fc69-4a58-bd3d-81cd8a9088a2","ios":"levelo://app?vid=53398520-fc69-4a58-bd3d-81cd8a9088a2"},"vehicle_type_id":"4","last_reported":1686859627,"current_range_meters":29600,"station_id":"ce4bhq92rcd13ifvqhkg","pricing_plan_id":"free"},{"bike_id":"05d863c8-a6a1-4b05-ad99-68e4b383c018","system_id":"levelo_inurba_marseille","lat":43.320045,"lon":5.415046,"is_reserved":false,"is_disabled":false,"rental_uris":{"android":"levelo://app?vid=05d863c8-a6a1-4b05-ad99-68e4b383c018","ios":"levelo://app?vid=05d863c8-a6a1-4b05-ad99-68e4b383c018"},"vehicle_type_id":"4","last_reported":1686859627,"current_range_meters":31200,"station_id":"ce4bhq92rcd13ifvqhkg","pricing_plan_id":"free"},{"bike_id":"a39ec750-1e0c-4e6e-860b-1932ca108867","system_id":"levelo_inurba_marseille","lat":43.320045,"lon":5.415046,"is_reserved":false,"is_disabled":false,"rental_uris":{"android":"levelo://app?vid=a39ec750-1e0c-4e6e-860b-1932ca108867","ios":"levelo://app?vid=a39ec750-1e0c-4e6e-860b-1932ca108867"},"vehicle_type_id":"4","last_reported":1686859627,"current_range_meters":31600,"station_id":"ce4bhq92rcd13ifvqhkg","pricing_plan_id":"free"},{"bike_id":"d1816290-ceb3-480c-914c-8cd16fa9657e","system_id":"levelo_inurba_marseille","lat":43.320045,"lon":5.415046,"is_reserved":false,"is_disabled":false,"rental_uris":{"android":"levelo://app?vid=d1816290-ceb3-480c-914c-8cd16fa9657e","ios":"levelo://app?vid=d1816290-ceb3-480c-914c-8cd16fa9657e"},"vehicle_type_id":"4","last_reported":1686859627,"current_range_meters":22800,"station_id":"ce4bhq92rcd13ifvqhkg","pricing_plan_id":"free"},{"bike_id":"ddebc0d7-5718-429d-9d30-ce3e94a2f248","system_id":"levelo_inurba_marseille","lat":43.320045,"lon":5.415046,"is_reserved":false,"is_disabled":false,"rental_uris":{"android":"levelo://app?vid=ddebc0d7-5718-429d-9d30-ce3e94a2f248","ios":"levelo://app?vid=ddebc0d7-5718-429d-9d30-ce3e94a2f248"},"vehicle_type_id":"4","last_reported":1686859627,"current_range_meters":28800,"station_id":"ce4bhq92rcd13ifvqhkg","pricing_plan_id":"free"},{"bike_id":"eaba4ee4-bd93-4f9d-bc34-2302e3e0d806","system_id":"levelo_inurba_marseille","lat":43.320045,"lon":5.415046,"is_reserved":false,"is_disabled":false,"rental_uris":{"android":"levelo://app?vid=eaba4ee4-bd93-4f9d-bc34-2302e3e0d806","ios":"levelo://app?vid=eaba4ee4-bd93-4f9d-bc34-2302e3e0d806"},"vehicle_type_id":"4","last_reported":1686859627,"current_range_meters":31600,"station_id":"ce4bhq92rcd13ifvqhkg","pricing_plan_id":"free"},{"bike_id":"e24905a0-088f-4d3d-923a-65b2cc5d7a19","system_id":"levelo_inurba_marseille","lat":43.299579,"lon":5.413255,"is_reserved":false,"is_disabled":false,"rental_uris":{"android":"levelo://app?vid=e24905a0-088f-4d3d-923a-65b2cc5d7a19","ios":"levelo://app?vid=e24905a0-088f-4d3d-923a-65b2cc5d7a19"},"vehicle_type_id":"4","last_reported":1686859627,"current_range_meters":0,"station_id":"ce4bhp12rcd13ifvqh9g","pricing_plan_id":"free"},{"bike_id":"609534cc-cee0-4cd5-b434-dde4848e2b7a","system_id":"levelo_inurba_marseille","lat":43.320045,"lon":5.415048,"is_reserved":false,"is_disabled":false,"rental_uris":{"android":"levelo://app?vid=609534cc-cee0-4cd5-b434-dde4848e2b7a","ios":"levelo://app?vid=609534cc-cee0-4cd5-b434-dde4848e2b7a"},"vehicle_type_id":"4","last_reported":1686859627,"current_range_meters":27200,"station_id":"ce4bhq92rcd13ifvqhkg","pricing_plan_id":"free"},{"bike_id":"7404d17d-af5a-4010-a7fe-6b3a8d7009b3","system_id":"levelo_inurba_marseille","lat":43.299579,"lon":5.413255,"is_reserved":false,"is_disabled":false,"rental_uris":{"android":"levelo://app?vid=7404d17d-af5a-4010-a7fe-6b3a8d7009b3","ios":"levelo://app?vid=7404d17d-af5a-4010-a7fe-6b3a8d7009b3"},"vehicle_type_id":"4","last_reported":1686859627,"current_range_meters":13600,"station_id":"ce4bhp12rcd13ifvqh9g","pricing_plan_id":"free"},{"bike_id":"7a6bcaf7-ee17-486a-a3dd-05e679e34a6d","system_id":"levelo_inurba_marseille","lat":43.320045,"lon":5.415046,"is_reserved":false,"is_disabled":false,"rental_uris":{"android":"levelo://app?vid=7a6bcaf7-ee17-486a-a3dd-05e679e34a6d","ios":"levelo://app?vid=7a6bcaf7-ee17-486a-a3dd-05e679e34a6d"},"vehicle_type_id":"4","last_reported":1686859627,"current_range_meters":18400,"station_id":"ce4bhq92rcd13ifvqhkg","pricing_plan_id":"free"},{"bike_id":"65bac0c1-56c6-4bdb-a45a-2ed4d311ea2f","system_id":"levelo_inurba_marseille","lat":43.320045,"lon":5.415046,"is_reserved":false,"is_disabled":false,"rental_uris":{"android":"levelo://app?vid=65bac0c1-56c6-4bdb-a45a-2ed4d311ea2f","ios":"levelo://app?vid=65bac0c1-56c6-4bdb-a45a-2ed4d311ea2f"},"vehicle_type_id":"4","last_reported":1686859627,"current_range_meters":31600,"station_id":"ce4bhq92rcd13ifvqhkg","pricing_plan_id":"free"},{"bike_id":"aaa08283-b9de-4916-8a2b-1936aa2d28de","system_id":"levelo_inurba_marseille","lat":43.320045,"lon":5.415048,"is_reserved":false,"is_disabled":false,"rental_uris":{"android":"levelo://app?vid=aaa08283-b9de-4916-8a2b-1936aa2d28de","ios":"levelo://app?vid=aaa08283-b9de-4916-8a2b-1936aa2d28de"},"vehicle_type_id":"4","last_reported":1686859627,"current_range_meters":31200,"station_id":"ce4bhq92rcd13ifvqhkg","pricing_plan_id":"free"},{"bike_id":"5d825dcd-b900-4f86-8f1d-c0ee3cf2968b","system_id":"levelo_inurba_marseille","lat":43.279742,"lon":5.38744,"is_reserved":false,"is_disabled":false,"rental_uris":{"android":"levelo://app?vid=5d825dcd-b900-4f86-8f1d-c0ee3cf2968b","ios":"levelo://app?vid=5d825dcd-b900-4f86-8f1d-c0ee3cf2968b"},"vehicle_type_id":"4","last_reported":1686859627,"current_range_meters":2400,"station_id":"ce4bhg12rcd13ifvqf80","pricing_plan_id":"free"},{"bike_id":"1412ea08-3003-4978-a1ac-74e4174a70ac","system_id":"levelo_inurba_marseille","lat":43.279742,"lon":5.38744,"is_reserved":false,"is_disabled":false,"rental_uris":{"android":"levelo://app?vid=1412ea08-3003-4978-a1ac-74e4174a70ac","ios":"levelo://app?vid=1412ea08-3003-4978-a1ac-74e4174a70ac"},"vehicle_type_id":"4","last_reported":1686859627,"current_range_meters":15600,"station_id":"ce4bhg12rcd13ifvqf80","pricing_plan_id":"free"},{"bike_id":"828ea8c0-e915-4be0-a382-9d2e7ca8cbc5","system_id":"levelo_inurba_marseille","lat":43.27968,"lon":5.38741,"is_reserved":false,"is_disabled":false,"rental_uris":{"android":"levelo://app?vid=828ea8c0-e915-4be0-a382-9d2e7ca8cbc5","ios":"levelo://app?vid=828ea8c0-e915-4be0-a382-9d2e7ca8cbc5"},"vehicle_type_id":"4","last_reported":1686859627,"current_range_meters":27600,"station_id":"ce4bhg12rcd13ifvqf80","pricing_plan_id":"free"},{"bike_id":"c2f55d59-a8a1-46fa-a569-7a734176255f","system_id":"levelo_inurba_marseille","lat":43.320045,"lon":5.415046,"is_reserved":false,"is_disabled":false,"rental_uris":{"android":"levelo://app?vid=c2f55d59-a8a1-46fa-a569-7a734176255f","ios":"levelo://app?vid=c2f55d59-a8a1-46fa-a569-7a734176255f"},"vehicle_type_id":"4","last_reported":1686859627,"current_range_meters":29600,"station_id":"ce4bhq92rcd13ifvqhkg","pricing_plan_id":"free"},{"bike_id":"b82a4b5e-9079-4ee1-a37c-675e175e1295","system_id":"levelo_inurba_marseille","lat":43.32034,"lon":5.41573,"is_reserved":false,"is_disabled":false,"rental_uris":{"android":"levelo://app?vid=b82a4b5e-9079-4ee1-a37c-675e175e1295","ios":"levelo://app?vid=b82a4b5e-9079-4ee1-a37c-675e175e1295"},"vehicle_type_id":"4","last_reported":1686859627,"current_range_meters":27600,"station_id":"ce4bhq92rcd13ifvqhkg","pricing_plan_id":"free"},{"bike_id":"0d766cb6-769f-4932-8e7a-6e11f8395820","system_id":"levelo_inurba_marseille","lat":43.320045,"lon":5.415046,"is_reserved":false,"is_disabled":false,"rental_uris":{"android":"levelo://app?vid=0d766cb6-769f-4932-8e7a-6e11f8395820","ios":"levelo://app?vid=0d766cb6-769f-4932-8e7a-6e11f8395820"},"vehicle_type_id":"4","last_reported":1686859627,"current_range_meters":28400,"station_id":"ce4bhq92rcd13ifvqhkg","pricing_plan_id":"free"},{"bike_id":"b3016403-edd8-4ffd-a2b9-1b615850a062","system_id":"levelo_inurba_marseille","lat":43.320045,"lon":5.415046,"is_reserved":false,"is_disabled":false,"rental_uris":{"android":"levelo://app?vid=b3016403-edd8-4ffd-a2b9-1b615850a062","ios":"levelo://app?vid=b3016403-edd8-4ffd-a2b9-1b615850a062"},"vehicle_type_id":"4","last_reported":1686859627,"current_range_meters":31200,"station_id":"ce4bhq92rcd13ifvqhkg","pricing_plan_id":"free"},{"bike_id":"dad94c9f-351e-4387-9420-bcbe1151a2ef","system_id":"levelo_inurba_marseille","lat":43.292571,"lon":5.409107,"is_reserved":false,"is_disabled":false,"rental_uris":{"android":"levelo://app?vid=dad94c9f-351e-4387-9420-bcbe1151a2ef","ios":"levelo://app?vid=dad94c9f-351e-4387-9420-bcbe1151a2ef"},"vehicle_type_id":"4","last_reported":1686859627,"current_range_meters":18000,"station_id":"ce4bh192rcd13ifvqdc0","pricing_plan_id":"free"},{"bike_id":"808a7b2e-b853-410d-a028-60d905433bc1","system_id":"levelo_inurba_marseille","lat":43.325233,"lon":5.414318,"is_reserved":false,"is_disabled":false,"rental_uris":{"android":"levelo://app?vid=808a7b2e-b853-410d-a028-60d905433bc1","ios":"levelo://app?vid=808a7b2e-b853-410d-a028-60d905433bc1"},"vehicle_type_id":"4","last_reported":1686859627,"current_range_meters":28400,"station_id":"ce4bhq12rcd13ifvqhhg","pricing_plan_id":"free"},{"bike_id":"68465450-f218-4ad2-95e2-de87713a0468","system_id":"levelo_inurba_marseille","lat":43.276179,"lon":5.361009,"is_reserved":false,"is_disabled":false,"rental_uris":{"android":"levelo://app?vid=68465450-f218-4ad2-95e2-de87713a0468","ios":"levelo://app?vid=68465450-f218-4ad2-95e2-de87713a0468"},"vehicle_type_id":"4","last_reported":1686859627,"current_range_meters":22400,"station_id":"ce4bgj92rcd13ifvqbe0","pricing_plan_id":"free"},{"bike_id":"0cb2d861-8c01-4c72-9827-1de4d3b23d77","system_id":"levelo_inurba_marseille","lat":43.278399,"lon":5.392139,"is_reserved":false,"is_disabled":false,"rental_uris":{"android":"levelo://app?vid=0cb2d861-8c01-4c72-9827-1de4d3b23d77","ios":"levelo://app?vid=0cb2d861-8c01-4c72-9827-1de4d3b23d77"},"vehicle_type_id":"4","last_reported":1686859627,"current_range_meters":14000,"station_id":"ce4bhjp2rcd13ifvqga0","pricing_plan_id":"free"},{"bike_id":"622354ac-a6d9-47ef-a647-bee38dc54ec8","system_id":"levelo_inurba_marseille","lat":43.278401,"lon":5.392152,"is_reserved":false,"is_disabled":false,"rental_uris":{"android":"levelo://app?vid=622354ac-a6d9-47ef-a647-bee38dc54ec8","ios":"levelo://app?vid=622354ac-a6d9-47ef-a647-bee38dc54ec8"},"vehicle_type_id":"4","last_reported":1686859627,"current_range_meters":400,"station_id":"ce4bhjp2rcd13ifvqga0","pricing_plan_id":"free"},{"bike_id":"15d0e642-25d5-4d2d-bd10-f64561b57398","system_id":"levelo_inurba_marseille","lat":43.278399,"lon":5.392139,"is_reserved":false,"is_disabled":false,"rental_uris":{"android":"levelo://app?vid=15d0e642-25d5-4d2d-bd10-f64561b57398","ios":"levelo://app?vid=15d0e642-25d5-4d2d-bd10-f64561b57398"},"vehicle_type_id":"4","last_reported":1686859627,"current_range_meters":25200,"station_id":"ce4bhjp2rcd13ifvqga0","pricing_plan_id":"free"},{"bike_id":"f5e170c1-e02a-4a06-8b19-6fa592cd147a","system_id":"levelo_inurba_marseille","lat":43.278401,"lon":5.392152,"is_reserved":false,"is_disabled":false,"rental_uris":{"android":"levelo://app?vid=f5e170c1-e02a-4a06-8b19-6fa592cd147a","ios":"levelo://app?vid=f5e170c1-e02a-4a06-8b19-6fa592cd147a"},"vehicle_type_id":"4","last_reported":1686859627,"current_range_meters":20800,"station_id":"ce4bhjp2rcd13ifvqga0","pricing_plan_id":"free"},{"bike_id":"3621ff6b-99c9-4b70-bd5b-0010052eb159","system_id":"levelo_inurba_marseille","lat":43.27376,"lon":5.36259,"is_reserved":false,"is_disabled":false,"rental_uris":{"android":"levelo://app?vid=3621ff6b-99c9-4b70-bd5b-0010052eb159","ios":"levelo://app?vid=3621ff6b-99c9-4b70-bd5b-0010052eb159"},"vehicle_type_id":"4","last_reported":1686859627,"current_range_meters":18400,"station_id":"ce4bhbh2rcd13ifvqeo0","pricing_plan_id":"free"},{"bike_id":"949c3b93-9525-4f53-ac82-9c7f5c90c1ae","system_id":"levelo_inurba_marseille","lat":43.33612,"lon":5.410321,"is_reserved":false,"is_disabled":false,"rental_uris":{"android":"levelo://app?vid=949c3b93-9525-4f53-ac82-9c7f5c90c1ae","ios":"levelo://app?vid=949c3b93-9525-4f53-ac82-9c7f5c90c1ae"},"vehicle_type_id":"4","last_reported":1686859627,"current_range_meters":27200,"station_id":"ce4bhqh2rcd13ifvqhmg","pricing_plan_id":"free"},{"bike_id":"3123fecf-8555-4431-974b-abaab72abf2c","system_id":"levelo_inurba_marseille","lat":43.336134,"lon":5.410341,"is_reserved":false,"is_disabled":false,"rental_uris":{"android":"levelo://app?vid=3123fecf-8555-4431-974b-abaab72abf2c","ios":"levelo://app?vid=3123fecf-8555-4431-974b-abaab72abf2c"},"vehicle_type_id":"4","last_reported":1686859627,"current_range_meters":26000,"station_id":"ce4bhqh2rcd13ifvqhmg","pricing_plan_id":"free"},{"bike_id":"9d9ef0f9-4045-439c-9cf9-feb6d2e28ef1","system_id":"levelo_inurba_marseille","lat":43.33612,"lon":5.410321,"is_reserved":false,"is_disabled":false,"rental_uris":{"android":"levelo://app?vid=9d9ef0f9-4045-439c-9cf9-feb6d2e28ef1","ios":"levelo://app?vid=9d9ef0f9-4045-439c-9cf9-feb6d2e28ef1"},"vehicle_type_id":"4","last_reported":1686859627,"current_range_meters":29200,"station_id":"ce4bhqh2rcd13ifvqhmg","pricing_plan_id":"free"},{"bike_id":"f5c0eadf-42c9-4cce-8b50-b4d194aac325","system_id":"levelo_inurba_marseille","lat":43.317121,"lon":5.423936,"is_reserved":false,"is_disabled":false,"rental_uris":{"android":"levelo://app?vid=f5c0eadf-42c9-4cce-8b50-b4d194aac325","ios":"levelo://app?vid=f5c0eadf-42c9-4cce-8b50-b4d194aac325"},"vehicle_type_id":"4","last_reported":1686859627,"current_range_meters":0,"station_id":"ce4bhp92rcd13ifvqhbg","pricing_plan_id":"free"},{"bike_id":"3fa8ebdc-aa99-4ea6-a910-7119710cb2b1","system_id":"levelo_inurba_marseille","lat":43.317121,"lon":5.423936,"is_reserved":false,"is_disabled":false,"rental_uris":{"android":"levelo://app?vid=3fa8ebdc-aa99-4ea6-a910-7119710cb2b1","ios":"levelo://app?vid=3fa8ebdc-aa99-4ea6-a910-7119710cb2b1"},"vehicle_type_id":"4","last_reported":1686859627,"current_range_meters":19200,"station_id":"ce4bhp92rcd13ifvqhbg","pricing_plan_id":"free"},{"bike_id":"e02287b1-056f-4bc4-9646-47090fe04fbf","system_id":"levelo_inurba_marseille","lat":43.317121,"lon":5.423936,"is_reserved":false,"is_disabled":false,"rental_uris":{"android":"levelo://app?vid=e02287b1-056f-4bc4-9646-47090fe04fbf","ios":"levelo://app?vid=e02287b1-056f-4bc4-9646-47090fe04fbf"},"vehicle_type_id":"4","last_reported":1686859627,"current_range_meters":27200,"station_id":"ce4bhp92rcd13ifvqhbg","pricing_plan_id":"free"},{"bike_id":"4f19e9aa-4a44-4091-b35b-6c22d26f658b","system_id":"levelo_inurba_marseille","lat":43.27231,"lon":5.38574,"is_reserved":false,"is_disabled":false,"rental_uris":{"android":"levelo://app?vid=4f19e9aa-4a44-4091-b35b-6c22d26f658b","ios":"levelo://app?vid=4f19e9aa-4a44-4091-b35b-6c22d26f658b"},"vehicle_type_id":"4","last_reported":1686859627,"current_range_meters":400,"station_id":"","pricing_plan_id":"free"},{"bike_id":"326b453c-f42e-4f99-97cc-3c8ecf046add","system_id":"levelo_inurba_marseille","lat":43.27426,"lon":5.39411,"is_reserved":false,"is_disabled":false,"rental_uris":{"android":"levelo://app?vid=326b453c-f42e-4f99-97cc-3c8ecf046add","ios":"levelo://app?vid=326b453c-f42e-4f99-97cc-3c8ecf046add"},"vehicle_type_id":"4","last_reported":1686859627,"current_range_meters":31200,"station_id":"ce4bhdp2rcd13ifvqf20","pricing_plan_id":"free"},{"bike_id":"f82c4e0b-ce86-4de4-962b-f266d6ba506e","system_id":"levelo_inurba_marseille","lat":43.273125,"lon":5.390731,"is_reserved":false,"is_disabled":false,"rental_uris":{"android":"levelo://app?vid=f82c4e0b-ce86-4de4-962b-f266d6ba506e","ios":"levelo://app?vid=f82c4e0b-ce86-4de4-962b-f266d6ba506e"},"vehicle_type_id":"4","last_reported":1686859627,"current_range_meters":16000,"station_id":"ce4bhgp2rcd13ifvqfe0","pricing_plan_id":"free"},{"bike_id":"b0ee2bb5-3189-4f60-a005-f04d4a81520e","system_id":"levelo_inurba_marseille","lat":43.295523,"lon":5.422926,"is_reserved":false,"is_disabled":false,"rental_uris":{"android":"levelo://app?vid=b0ee2bb5-3189-4f60-a005-f04d4a81520e","ios":"levelo://app?vid=b0ee2bb5-3189-4f60-a005-f04d4a81520e"},"vehicle_type_id":"4","last_reported":1686859627,"current_range_meters":11200,"station_id":"ce4bhph2rcd13ifvqhdg","pricing_plan_id":"free"},{"bike_id":"b6ae69e0-7c94-485c-91e3-c97468913591","system_id":"levelo_inurba_marseille","lat":43.295523,"lon":5.422926,"is_reserved":false,"is_disabled":false,"rental_uris":{"android":"levelo://app?vid=b6ae69e0-7c94-485c-91e3-c97468913591","ios":"levelo://app?vid=b6ae69e0-7c94-485c-91e3-c97468913591"},"vehicle_type_id":"4","last_reported":1686859627,"current_range_meters":800,"station_id":"ce4bhph2rcd13ifvqhdg","pricing_plan_id":"free"},{"bike_id":"70967b32-5e11-49e8-8add-400265d753d7","system_id":"levelo_inurba_marseille","lat":43.272124,"lon":5.391768,"is_reserved":false,"is_disabled":false,"rental_uris":{"android":"levelo://app?vid=70967b32-5e11-49e8-8add-400265d753d7","ios":"levelo://app?vid=70967b32-5e11-49e8-8add-400265d753d7"},"vehicle_type_id":"4","last_reported":1686859627,"current_range_meters":0,"station_id":"ce4bhhp2rcd13ifvqfm0","pricing_plan_id":"free"},{"bike_id":"7e780bd1-6607-4565-b01f-e8bf8da3efdd","system_id":"levelo_inurba_marseille","lat":43.278128,"lon":5.407195,"is_reserved":false,"is_disabled":false,"rental_uris":{"android":"levelo://app?vid=7e780bd1-6607-4565-b01f-e8bf8da3efdd","ios":"levelo://app?vid=7e780bd1-6607-4565-b01f-e8bf8da3efdd"},"vehicle_type_id":"4","last_reported":1686859627,"current_range_meters":11600,"station_id":"ce4bhnh2rcd13ifvqgtg","pricing_plan_id":"free"},{"bike_id":"82de0ed9-13f8-4fa0-b74e-bb87a836b96b","system_id":"levelo_inurba_marseille","lat":43.26681,"lon":5.382694,"is_reserved":false,"is_disabled":false,"rental_uris":{"android":"levelo://app?vid=82de0ed9-13f8-4fa0-b74e-bb87a836b96b","ios":"levelo://app?vid=82de0ed9-13f8-4fa0-b74e-bb87a836b96b"},"vehicle_type_id":"4","last_reported":1686859627,"current_range_meters":18800,"station_id":"ce4bhg92rcd13ifvqf90","pricing_plan_id":"free"},{"bike_id":"cfba2fbe-9ed5-423f-b411-8d6c38451715","system_id":"levelo_inurba_marseille","lat":43.26681,"lon":5.382694,"is_reserved":false,"is_disabled":false,"rental_uris":{"android":"levelo://app?vid=cfba2fbe-9ed5-423f-b411-8d6c38451715","ios":"levelo://app?vid=cfba2fbe-9ed5-423f-b411-8d6c38451715"},"vehicle_type_id":"4","last_reported":1686859627,"current_range_meters":31200,"station_id":"ce4bhg92rcd13ifvqf90","pricing_plan_id":"free"},{"bike_id":"6275aaca-a354-407f-be44-df40f2969d44","system_id":"levelo_inurba_marseille","lat":43.26681,"lon":5.382694,"is_reserved":false,"is_disabled":false,"rental_uris":{"android":"levelo://app?vid=6275aaca-a354-407f-be44-df40f2969d44","ios":"levelo://app?vid=6275aaca-a354-407f-be44-df40f2969d44"},"vehicle_type_id":"4","last_reported":1686859627,"current_range_meters":31600,"station_id":"ce4bhg92rcd13ifvqf90","pricing_plan_id":"free"},{"bike_id":"8fde83d5-879e-4f16-890a-f4993c7fcd03","system_id":"levelo_inurba_marseille","lat":43.26681,"lon":5.382694,"is_reserved":false,"is_disabled":false,"rental_uris":{"android":"levelo://app?vid=8fde83d5-879e-4f16-890a-f4993c7fcd03","ios":"levelo://app?vid=8fde83d5-879e-4f16-890a-f4993c7fcd03"},"vehicle_type_id":"4","last_reported":1686859627,"current_range_meters":1200,"station_id":"ce4bhg92rcd13ifvqf90","pricing_plan_id":"free"},{"bike_id":"8f12b3e4-d904-4681-a504-f4abd09d4d5b","system_id":"levelo_inurba_marseille","lat":43.26426,"lon":5.37227,"is_reserved":false,"is_disabled":false,"rental_uris":{"android":"levelo://app?vid=8f12b3e4-d904-4681-a504-f4abd09d4d5b","ios":"levelo://app?vid=8f12b3e4-d904-4681-a504-f4abd09d4d5b"},"vehicle_type_id":"4","last_reported":1686859627,"current_range_meters":18000,"station_id":"","pricing_plan_id":"free"},{"bike_id":"5c4ea747-d1dd-42ab-a0ba-21f306372130","system_id":"levelo_inurba_marseille","lat":43.27996,"lon":5.416624,"is_reserved":false,"is_disabled":false,"rental_uris":{"android":"levelo://app?vid=5c4ea747-d1dd-42ab-a0ba-21f306372130","ios":"levelo://app?vid=5c4ea747-d1dd-42ab-a0ba-21f306372130"},"vehicle_type_id":"4","last_reported":1686859627,"current_range_meters":20400,"station_id":"ce4bho12rcd13ifvqh1g","pricing_plan_id":"free"},{"bike_id":"52b6437a-5f8c-40a5-a4ed-d7d118dc8793","system_id":"levelo_inurba_marseille","lat":43.27996,"lon":5.416624,"is_reserved":false,"is_disabled":false,"rental_uris":{"android":"levelo://app?vid=52b6437a-5f8c-40a5-a4ed-d7d118dc8793","ios":"levelo://app?vid=52b6437a-5f8c-40a5-a4ed-d7d118dc8793"},"vehicle_type_id":"4","last_reported":1686859627,"current_range_meters":19600,"station_id":"ce4bho12rcd13ifvqh1g","pricing_plan_id":"free"},{"bike_id":"749898e0-7e19-4b81-b542-6dc75e4e531e","system_id":"levelo_inurba_marseille","lat":43.27989,"lon":5.41653,"is_reserved":false,"is_disabled":false,"rental_uris":{"android":"levelo://app?vid=749898e0-7e19-4b81-b542-6dc75e4e531e","ios":"levelo://app?vid=749898e0-7e19-4b81-b542-6dc75e4e531e"},"vehicle_type_id":"4","last_reported":1686859627,"current_range_meters":3200,"station_id":"ce4bho12rcd13ifvqh1g","pricing_plan_id":"free"},{"bike_id":"484e96b0-62c7-4601-82a9-3a38d5e3a30a","system_id":"levelo_inurba_marseille","lat":43.27996,"lon":5.416624,"is_reserved":false,"is_disabled":false,"rental_uris":{"android":"levelo://app?vid=484e96b0-62c7-4601-82a9-3a38d5e3a30a","ios":"levelo://app?vid=484e96b0-62c7-4601-82a9-3a38d5e3a30a"},"vehicle_type_id":"4","last_reported":1686859627,"current_range_meters":0,"station_id":"ce4bho12rcd13ifvqh1g","pricing_plan_id":"free"},{"bike_id":"cbaf7c75-be10-4a2d-b192-fa4ebf8e2763","system_id":"levelo_inurba_marseille","lat":43.27996,"lon":5.416624,"is_reserved":false,"is_disabled":false,"rental_uris":{"android":"levelo://app?vid=cbaf7c75-be10-4a2d-b192-fa4ebf8e2763","ios":"levelo://app?vid=cbaf7c75-be10-4a2d-b192-fa4ebf8e2763"},"vehicle_type_id":"4","last_reported":1686859627,"current_range_meters":0,"station_id":"ce4bho12rcd13ifvqh1g","pricing_plan_id":"free"},{"bike_id":"1a99213b-7835-43f9-9650-2e4f75d6fbd1","system_id":"levelo_inurba_marseille","lat":43.27996,"lon":5.416624,"is_reserved":false,"is_disabled":false,"rental_uris":{"android":"levelo://app?vid=1a99213b-7835-43f9-9650-2e4f75d6fbd1","ios":"levelo://app?vid=1a99213b-7835-43f9-9650-2e4f75d6fbd1"},"vehicle_type_id":"4","last_reported":1686859627,"current_range_meters":13200,"station_id":"ce4bho12rcd13ifvqh1g","pricing_plan_id":"free"},{"bike_id":"3987290e-fd4b-4f2b-81c0-57fca98f9cde","system_id":"levelo_inurba_marseille","lat":43.26782,"lon":5.39415,"is_reserved":false,"is_disabled":false,"rental_uris":{"android":"levelo://app?vid=3987290e-fd4b-4f2b-81c0-57fca98f9cde","ios":"levelo://app?vid=3987290e-fd4b-4f2b-81c0-57fca98f9cde"},"vehicle_type_id":"4","last_reported":1686859627,"current_range_meters":30000,"station_id":"ce4bhh12rcd13ifvqfg0","pricing_plan_id":"free"},{"bike_id":"9be000a7-c6b6-4f12-98bc-f187ad54e568","system_id":"levelo_inurba_marseille","lat":43.308,"lon":5.43521,"is_reserved":false,"is_disabled":false,"rental_uris":{"android":"levelo://app?vid=9be000a7-c6b6-4f12-98bc-f187ad54e568","ios":"levelo://app?vid=9be000a7-c6b6-4f12-98bc-f187ad54e568"},"vehicle_type_id":"4","last_reported":1686859627,"current_range_meters":18400,"station_id":"","pricing_plan_id":"free"},{"bike_id":"74088c92-caa8-4325-93ba-3194bcea9d62","system_id":"levelo_inurba_marseille","lat":43.30801,"lon":5.43525,"is_reserved":false,"is_disabled":false,"rental_uris":{"android":"levelo://app?vid=74088c92-caa8-4325-93ba-3194bcea9d62","ios":"levelo://app?vid=74088c92-caa8-4325-93ba-3194bcea9d62"},"vehicle_type_id":"4","last_reported":1686859627,"current_range_meters":1600,"station_id":"","pricing_plan_id":"free"},{"bike_id":"78e97d53-9c5c-46cb-b7c7-4d7a3e7a8100","system_id":"levelo_inurba_marseille","lat":43.308,"lon":5.43528,"is_reserved":false,"is_disabled":false,"rental_uris":{"android":"levelo://app?vid=78e97d53-9c5c-46cb-b7c7-4d7a3e7a8100","ios":"levelo://app?vid=78e97d53-9c5c-46cb-b7c7-4d7a3e7a8100"},"vehicle_type_id":"4","last_reported":1686859627,"current_range_meters":19600,"station_id":"","pricing_plan_id":"free"},{"bike_id":"2fa6184a-d16c-4ef0-aa49-ef882f15bbe1","system_id":"levelo_inurba_marseille","lat":43.30786,"lon":5.43532,"is_reserved":false,"is_disabled":false,"rental_uris":{"android":"levelo://app?vid=2fa6184a-d16c-4ef0-aa49-ef882f15bbe1","ios":"levelo://app?vid=2fa6184a-d16c-4ef0-aa49-ef882f15bbe1"},"vehicle_type_id":"4","last_reported":1686859627,"current_range_meters":11600,"station_id":"","pricing_plan_id":"free"},{"bike_id":"6c72c3e5-a368-4d1c-9ecf-da7d6736fe6a","system_id":"levelo_inurba_marseille","lat":43.261782,"lon":5.374515,"is_reserved":false,"is_disabled":false,"rental_uris":{"android":"levelo://app?vid=6c72c3e5-a368-4d1c-9ecf-da7d6736fe6a","ios":"levelo://app?vid=6c72c3e5-a368-4d1c-9ecf-da7d6736fe6a"},"vehicle_type_id":"4","last_reported":1686859627,"current_range_meters":2400,"station_id":"ce4bhgp2rcd13ifvqfc0","pricing_plan_id":"free"},{"bike_id":"85b206d3-a7ff-4a38-8e95-6374b9c77f5a","system_id":"levelo_inurba_marseille","lat":43.26191,"lon":5.37441,"is_reserved":false,"is_disabled":false,"rental_uris":{"android":"levelo://app?vid=85b206d3-a7ff-4a38-8e95-6374b9c77f5a","ios":"levelo://app?vid=85b206d3-a7ff-4a38-8e95-6374b9c77f5a"},"vehicle_type_id":"4","last_reported":1686859627,"current_range_meters":26400,"station_id":"ce4bhgp2rcd13ifvqfc0","pricing_plan_id":"free"},{"bike_id":"19246b15-6535-48a1-ab75-aa36be973aa4","system_id":"levelo_inurba_marseille","lat":43.261782,"lon":5.374515,"is_reserved":false,"is_disabled":false,"rental_uris":{"android":"levelo://app?vid=19246b15-6535-48a1-ab75-aa36be973aa4","ios":"levelo://app?vid=19246b15-6535-48a1-ab75-aa36be973aa4"},"vehicle_type_id":"4","last_reported":1686859627,"current_range_meters":26800,"station_id":"ce4bhgp2rcd13ifvqfc0","pricing_plan_id":"free"},{"bike_id":"f8c7ea4b-0845-47ac-8750-49fc2b2731b1","system_id":"levelo_inurba_marseille","lat":43.26187,"lon":5.37444,"is_reserved":false,"is_disabled":false,"rental_uris":{"android":"levelo://app?vid=f8c7ea4b-0845-47ac-8750-49fc2b2731b1","ios":"levelo://app?vid=f8c7ea4b-0845-47ac-8750-49fc2b2731b1"},"vehicle_type_id":"4","last_reported":1686859627,"current_range_meters":28400,"station_id":"ce4bhgp2rcd13ifvqfc0","pricing_plan_id":"free"},{"bike_id":"b3791e0a-5dbf-4b4b-8e38-43cdb581cc69","system_id":"levelo_inurba_marseille","lat":43.261782,"lon":5.374515,"is_reserved":false,"is_disabled":false,"rental_uris":{"android":"levelo://app?vid=b3791e0a-5dbf-4b4b-8e38-43cdb581cc69","ios":"levelo://app?vid=b3791e0a-5dbf-4b4b-8e38-43cdb581cc69"},"vehicle_type_id":"4","last_reported":1686859627,"current_range_meters":26000,"station_id":"ce4bhgp2rcd13ifvqfc0","pricing_plan_id":"free"},{"bike_id":"e41e945b-2e1a-4a3a-9b24-001d3982c0d3","system_id":"levelo_inurba_marseille","lat":43.317104,"lon":5.436818,"is_reserved":false,"is_disabled":false,"rental_uris":{"android":"levelo://app?vid=e41e945b-2e1a-4a3a-9b24-001d3982c0d3","ios":"levelo://app?vid=e41e945b-2e1a-4a3a-9b24-001d3982c0d3"},"vehicle_type_id":"4","last_reported":1686859627,"current_range_meters":11200,"station_id":"ce4bhp92rcd13ifvqhcg","pricing_plan_id":"free"},{"bike_id":"ab518500-ed75-4a64-a113-9471af69ccca","system_id":"levelo_inurba_marseille","lat":43.2618,"lon":5.37443,"is_reserved":false,"is_disabled":false,"rental_uris":{"android":"levelo://app?vid=ab518500-ed75-4a64-a113-9471af69ccca","ios":"levelo://app?vid=ab518500-ed75-4a64-a113-9471af69ccca"},"vehicle_type_id":"4","last_reported":1686859627,"current_range_meters":6400,"station_id":"ce4bhgp2rcd13ifvqfc0","pricing_plan_id":"free"},{"bike_id":"f9938518-c63f-4d80-bc36-ea3dddc8779f","system_id":"levelo_inurba_marseille","lat":43.317104,"lon":5.436818,"is_reserved":false,"is_disabled":false,"rental_uris":{"android":"levelo://app?vid=f9938518-c63f-4d80-bc36-ea3dddc8779f","ios":"levelo://app?vid=f9938518-c63f-4d80-bc36-ea3dddc8779f"},"vehicle_type_id":"4","last_reported":1686859627,"current_range_meters":30800,"station_id":"ce4bhp92rcd13ifvqhcg","pricing_plan_id":"free"},{"bike_id":"14d950e8-0be6-4d17-887e-2aa52ba454bf","system_id":"levelo_inurba_marseille","lat":43.27184,"lon":5.40991,"is_reserved":false,"is_disabled":false,"rental_uris":{"android":"levelo://app?vid=14d950e8-0be6-4d17-887e-2aa52ba454bf","ios":"levelo://app?vid=14d950e8-0be6-4d17-887e-2aa52ba454bf"},"vehicle_type_id":"4","last_reported":1686859627,"current_range_meters":20800,"station_id":"","pricing_plan_id":"free"},{"bike_id":"8cef4df0-69b8-4c21-a763-577c04b1e207","system_id":"levelo_inurba_marseille","lat":43.271849,"lon":5.40994,"is_reserved":false,"is_disabled":false,"rental_uris":{"android":"levelo://app?vid=8cef4df0-69b8-4c21-a763-577c04b1e207","ios":"levelo://app?vid=8cef4df0-69b8-4c21-a763-577c04b1e207"},"vehicle_type_id":"4","last_reported":1686859627,"current_range_meters":24800,"station_id":"","pricing_plan_id":"free"},{"bike_id":"105d388f-6463-4aeb-a083-d8b8ce680623","system_id":"levelo_inurba_marseille","lat":43.27173,"lon":5.40988,"is_reserved":false,"is_disabled":false,"rental_uris":{"android":"levelo://app?vid=105d388f-6463-4aeb-a083-d8b8ce680623","ios":"levelo://app?vid=105d388f-6463-4aeb-a083-d8b8ce680623"},"vehicle_type_id":"4","last_reported":1686859627,"current_range_meters":8400,"station_id":"","pricing_plan_id":"free"},{"bike_id":"5137a758-9a33-4c6f-8ca9-7bcf26cfab19","system_id":"levelo_inurba_marseille","lat":43.27171,"lon":5.40992,"is_reserved":false,"is_disabled":false,"rental_uris":{"android":"levelo://app?vid=5137a758-9a33-4c6f-8ca9-7bcf26cfab19","ios":"levelo://app?vid=5137a758-9a33-4c6f-8ca9-7bcf26cfab19"},"vehicle_type_id":"4","last_reported":1686859627,"current_range_meters":23600,"station_id":"","pricing_plan_id":"free"},{"bike_id":"78bfd6e1-405b-4aa6-abf0-061f070712e1","system_id":"levelo_inurba_marseille","lat":43.27172,"lon":5.40994,"is_reserved":false,"is_disabled":false,"rental_uris":{"android":"levelo://app?vid=78bfd6e1-405b-4aa6-abf0-061f070712e1","ios":"levelo://app?vid=78bfd6e1-405b-4aa6-abf0-061f070712e1"},"vehicle_type_id":"4","last_reported":1686859627,"current_range_meters":28000,"station_id":"","pricing_plan_id":"free"},{"bike_id":"e909a8bc-a48e-4c49-9b49-fc55ec0f34d6","system_id":"levelo_inurba_marseille","lat":43.267959,"lon":5.402687,"is_reserved":false,"is_disabled":false,"rental_uris":{"android":"levelo://app?vid=e909a8bc-a48e-4c49-9b49-fc55ec0f34d6","ios":"levelo://app?vid=e909a8bc-a48e-4c49-9b49-fc55ec0f34d6"},"vehicle_type_id":"4","last_reported":1686859627,"current_range_meters":22800,"station_id":"ce501612rcd8frsf0b60","pricing_plan_id":"free"},{"bike_id":"e2599a02-9c56-4604-9029-ad6d2878111a","system_id":"levelo_inurba_marseille","lat":43.298768,"lon":5.43643,"is_reserved":false,"is_disabled":false,"rental_uris":{"android":"levelo://app?vid=e2599a02-9c56-4604-9029-ad6d2878111a","ios":"levelo://app?vid=e2599a02-9c56-4604-9029-ad6d2878111a"},"vehicle_type_id":"4","last_reported":1686859627,"current_range_meters":8800,"station_id":"ce4bhpp2rcd13ifvqhfg","pricing_plan_id":"free"},{"bike_id":"e52eb115-c88d-43d7-91a8-1c91e455d2e2","system_id":"levelo_inurba_marseille","lat":43.260225,"lon":5.375455,"is_reserved":false,"is_disabled":false,"rental_uris":{"android":"levelo://app?vid=e52eb115-c88d-43d7-91a8-1c91e455d2e2","ios":"levelo://app?vid=e52eb115-c88d-43d7-91a8-1c91e455d2e2"},"vehicle_type_id":"4","last_reported":1686859627,"current_range_meters":1200,"station_id":"ce4bhgh2rcd13ifvqfa0","pricing_plan_id":"free"},{"bike_id":"d7ff504d-beb5-4f65-9fa6-eedf51fa45f1","system_id":"levelo_inurba_marseille","lat":43.26314,"lon":5.40261,"is_reserved":false,"is_disabled":false,"rental_uris":{"android":"levelo://app?vid=d7ff504d-beb5-4f65-9fa6-eedf51fa45f1","ios":"levelo://app?vid=d7ff504d-beb5-4f65-9fa6-eedf51fa45f1"},"vehicle_type_id":"4","last_reported":1686859627,"current_range_meters":14000,"station_id":"","pricing_plan_id":"free"},{"bike_id":"ec5a6dc1-2cea-487e-b2e9-516f7d8cc376","system_id":"levelo_inurba_marseille","lat":43.275028,"lon":5.424534,"is_reserved":false,"is_disabled":false,"rental_uris":{"android":"levelo://app?vid=ec5a6dc1-2cea-487e-b2e9-516f7d8cc376","ios":"levelo://app?vid=ec5a6dc1-2cea-487e-b2e9-516f7d8cc376"},"vehicle_type_id":"4","last_reported":1686859627,"current_range_meters":16800,"station_id":"ce4bhn92rcd13ifvqgrg","pricing_plan_id":"free"},{"bike_id":"66e9d062-e961-4f2c-9ad3-2c35a03c8de7","system_id":"levelo_inurba_marseille","lat":43.255756,"lon":5.382303,"is_reserved":false,"is_disabled":false,"rental_uris":{"android":"levelo://app?vid=66e9d062-e961-4f2c-9ad3-2c35a03c8de7","ios":"levelo://app?vid=66e9d062-e961-4f2c-9ad3-2c35a03c8de7"},"vehicle_type_id":"4","last_reported":1686859627,"current_range_meters":22000,"station_id":"ce4bhih2rcd13ifvqfs0","pricing_plan_id":"free"},{"bike_id":"ae493420-d1e9-424d-bf05-bb47ecd61204","system_id":"levelo_inurba_marseille","lat":43.25579,"lon":5.38233,"is_reserved":false,"is_disabled":false,"rental_uris":{"android":"levelo://app?vid=ae493420-d1e9-424d-bf05-bb47ecd61204","ios":"levelo://app?vid=ae493420-d1e9-424d-bf05-bb47ecd61204"},"vehicle_type_id":"4","last_reported":1686859627,"current_range_meters":27200,"station_id":"ce4bhih2rcd13ifvqfs0","pricing_plan_id":"free"},{"bike_id":"785914ec-af38-4d41-b6d4-78ab8b55aabc","system_id":"levelo_inurba_marseille","lat":43.254947,"lon":5.376454,"is_reserved":false,"is_disabled":false,"rental_uris":{"android":"levelo://app?vid=785914ec-af38-4d41-b6d4-78ab8b55aabc","ios":"levelo://app?vid=785914ec-af38-4d41-b6d4-78ab8b55aabc"},"vehicle_type_id":"4","last_reported":1686859627,"current_range_meters":24400,"station_id":"ce4bhh12rcd13ifvqff0","pricing_plan_id":"free"},{"bike_id":"8ee27250-5302-40fe-a890-60b9085effa8","system_id":"levelo_inurba_marseille","lat":43.254947,"lon":5.376454,"is_reserved":false,"is_disabled":false,"rental_uris":{"android":"levelo://app?vid=8ee27250-5302-40fe-a890-60b9085effa8","ios":"levelo://app?vid=8ee27250-5302-40fe-a890-60b9085effa8"},"vehicle_type_id":"4","last_reported":1686859627,"current_range_meters":6000,"station_id":"ce4bhh12rcd13ifvqff0","pricing_plan_id":"free"},{"bike_id":"b36b9696-7202-4865-976f-4eb06139111c","system_id":"levelo_inurba_marseille","lat":43.254947,"lon":5.376454,"is_reserved":false,"is_disabled":false,"rental_uris":{"android":"levelo://app?vid=b36b9696-7202-4865-976f-4eb06139111c","ios":"levelo://app?vid=b36b9696-7202-4865-976f-4eb06139111c"},"vehicle_type_id":"4","last_reported":1686859627,"current_range_meters":15600,"station_id":"ce4bhh12rcd13ifvqff0","pricing_plan_id":"free"},{"bike_id":"7141e859-d028-4728-b2b7-f3035faf2f08","system_id":"levelo_inurba_marseille","lat":43.254945,"lon":5.376454,"is_reserved":false,"is_disabled":false,"rental_uris":{"android":"levelo://app?vid=7141e859-d028-4728-b2b7-f3035faf2f08","ios":"levelo://app?vid=7141e859-d028-4728-b2b7-f3035faf2f08"},"vehicle_type_id":"4","last_reported":1686859627,"current_range_meters":7200,"station_id":"ce4bhh12rcd13ifvqff0","pricing_plan_id":"free"},{"bike_id":"163495de-6832-427d-8964-bbc4240dcb0e","system_id":"levelo_inurba_marseille","lat":43.270721,"lon":5.422764,"is_reserved":false,"is_disabled":false,"rental_uris":{"android":"levelo://app?vid=163495de-6832-427d-8964-bbc4240dcb0e","ios":"levelo://app?vid=163495de-6832-427d-8964-bbc4240dcb0e"},"vehicle_type_id":"4","last_reported":1686859627,"current_range_meters":28800,"station_id":"ce4bhk92rcd13ifvqgb0","pricing_plan_id":"free"},{"bike_id":"b8e22036-e2f3-40de-a574-a294ebc5d735","system_id":"levelo_inurba_marseille","lat":43.270721,"lon":5.422764,"is_reserved":false,"is_disabled":false,"rental_uris":{"android":"levelo://app?vid=b8e22036-e2f3-40de-a574-a294ebc5d735","ios":"levelo://app?vid=b8e22036-e2f3-40de-a574-a294ebc5d735"},"vehicle_type_id":"4","last_reported":1686859627,"current_range_meters":29200,"station_id":"ce4bhk92rcd13ifvqgb0","pricing_plan_id":"free"},{"bike_id":"31f3b8d9-413b-41d3-a70b-506db8a491b4","system_id":"levelo_inurba_marseille","lat":43.27071,"lon":5.42281,"is_reserved":false,"is_disabled":false,"rental_uris":{"android":"levelo://app?vid=31f3b8d9-413b-41d3-a70b-506db8a491b4","ios":"levelo://app?vid=31f3b8d9-413b-41d3-a70b-506db8a491b4"},"vehicle_type_id":"4","last_reported":1686859627,"current_range_meters":400,"station_id":"ce4bhk92rcd13ifvqgb0","pricing_plan_id":"free"},{"bike_id":"fcd51637-dc5f-4022-b88d-a41dc12d5d28","system_id":"levelo_inurba_marseille","lat":43.27066,"lon":5.42282,"is_reserved":false,"is_disabled":false,"rental_uris":{"android":"levelo://app?vid=fcd51637-dc5f-4022-b88d-a41dc12d5d28","ios":"levelo://app?vid=fcd51637-dc5f-4022-b88d-a41dc12d5d28"},