{"last_updated":1730571036,"ttl":60,"version":"2.2","data":{"bikes":[{"bike_id":"daa5500f-6039-4d77-bf02-00710b3acec6","system_id":"levelo_inurba_marseille","lat":43.25928,"lon":5.40922,"is_reserved":false,"is_disabled":false,"rental_uris":{"android":"levelo://app?vid=daa5500f-6039-4d77-bf02-00710b3acec6","ios":"levelo://app?vid=daa5500f-6039-4d77-bf02-00710b3acec6"},"vehicle_type_id":"4","last_reported":1730571036,"current_range_meters":8800,"station_id":"ce4bhm92rcd13ifvqglg","pricing_plan_id":"cebpf4jnsgd1na2vs0mg"},{"bike_id":"41e1e628-b3f5-450f-9e3f-9525db7de1d4","system_id":"levelo_inurba_marseille","lat":43.27818,"lon":5.40722,"is_reserved":false,"is_disabled":false,"rental_uris":{"android":"levelo://app?vid=41e1e628-b3f5-450f-9e3f-9525db7de1d4","ios":"levelo://app?vid=41e1e628-b3f5-450f-9e3f-9525db7de1d4"},"vehicle_type_id":"4","last_reported":1730571036,"current_range_meters":8400,"station_id":"ce4bhnh2rcd13ifvqgtg","pricing_plan_id":"cebpf4jnsgd1na2vs0mg"},{"bike_id":"bbedcf01-8d16-416e-bedd-d7dbe6c10a70","system_id":"levelo_inurba_marseille","lat":43.29029,"lon":5.38148,"is_reserved":false,"is_disabled":false,"rental_uris":{"android":"levelo://app?vid=bbedcf01-8d16-416e-bedd-d7dbe6c10a70","ios":"levelo://app?vid=bbedcf01-8d16-416e-bedd-d7dbe6c10a70"},"vehicle_type_id":"4","last_reported":1730571036,"current_range_meters":9200,"station_id":"ce4bh4p2rcd13ifvqe1g","pricing_plan_id":"cebpf4jnsgd1na2vs0mg"},{"bike_id":"b3291122-c7a5-4136-9d27-54c339264b6a","system_id":"levelo_inurba_marseille","lat":43.316791,"lon":5.404746,"is_reserved":false,"is_disabled":false,"rental_uris":{"android":"levelo://app?vid=b3291122-c7a5-4136-9d27-54c339264b6a","ios":"levelo://app?vid=b3291122-c7a5-4136-9d27-54c339264b6a"},"vehicle_type_id":"4","last_reported":1730571036,"current_range_meters":7200,"station_id":"ce4bh012rcd13ifvqd00","pricing_plan_id":"cebpf4jnsgd1na2vs0mg"},{"bike_id":"2fc0e92a-d782-4be1-a740-4d23f00718e2","system_id":"levelo_inurba_marseille","lat":43.26501,"lon":5.39538,"is_reserved":false,"is_disabled":false,"rental_uris":{"android":"levelo://app?vid=2fc0e92a-d782-4be1-a740-4d23f00718e2","ios":"levelo://app?vid=2fc0e92a-d782-4be1-a740-4d23f00718e2"},"vehicle_type_id":"4","last_reported":1730571036,"current_range_meters":12800,"station_id":"ce4bhi12rcd13ifvqfq0","pricing_plan_id":"cebpf4jnsgd1na2vs0mg"},{"bike_id":"9544e8e1-810b-40e5-8e45-0e98bf35fbaa","system_id":"levelo_inurba_marseille","lat":43.30135,"lon":5.37422,"is_reserved":false,"is_disabled":false,"rental_uris":{"android":"levelo://app?vid=9544e8e1-810b-40e5-8e45-0e98bf35fbaa","ios":"levelo://app?vid=9544e8e1-810b-40e5-8e45-0e98bf35fbaa"},"vehicle_type_id":"4","last_reported":1730571036,"current_range_meters":36800,"station_id":"ce4bgs92rcd13ifvqcc0","pricing_plan_id":"cebpf4jnsgd1na2vs0mg"},{"bike_id":"4f63a1a0-74bc-4095-92d6-edf4cb2d7393","system_id":"levelo_inurba_marseille","lat":43.28933,"lon":5.38404,"is_reserved":false,"is_disabled":false,"rental_uris":{"android":"levelo://app?vid=4f63a1a0-74bc-4095-92d6-edf4cb2d7393","ios":"levelo://app?vid=4f63a1a0-74bc-4095-92d6-edf4cb2d7393"},"vehicle_type_id":"4","last_reported":1730571036,"current_range_meters":27200,"station_id":"ce4bh612rcd13ifvqe6g","pricing_plan_id":"cebpf4jnsgd1na2vs0mg"},{"bike_id":"e193ff73-3518-43fd-9210-579c30e2d9a4","system_id":"levelo_inurba_marseille","lat":43.25499,"lon":5.37655,"is_reserved":false,"is_disabled":false,"rental_uris":{"android":"levelo://app?vid=e193ff73-3518-43fd-9210-579c30e2d9a4","ios":"levelo://app?vid=e193ff73-3518-43fd-9210-579c30e2d9a4"},"vehicle_type_id":"4","last_reported":1730571036,"current_range_meters":2800,"station_id":"ce4bhh12rcd13ifvqff0","pricing_plan_id":"cebpf4jnsgd1na2vs0mg"},{"bike_id":"36d67d5e-5dda-4081-9c0a-5acdc43f8564","system_id":"levelo_inurba_marseille","lat":43.30442,"lon":5.38889,"is_reserved":false,"is_disabled":false,"rental_uris":{"android":"levelo://app?vid=36d67d5e-5dda-4081-9c0a-5acdc43f8564","ios":"levelo://app?vid=36d67d5e-5dda-4081-9c0a-5acdc43f8564"},"vehicle_type_id":"4","last_reported":1730571036,"current_range_meters":38800,"station_id":"ce4bgk12rcd13ifvqbi0","pricing_plan_id":"cebpf4jnsgd1na2vs0mg"},{"bike_id":"463a5fa2-247f-46f7-a9ca-b55d6029c4c8","system_id":"levelo_inurba_marseille","lat":43.27495,"lon":5.42446,"is_reserved":false,"is_disabled":false,"rental_uris":{"android":"levelo://app?vid=463a5fa2-247f-46f7-a9ca-b55d6029c4c8","ios":"levelo://app?vid=463a5fa2-247f-46f7-a9ca-b55d6029c4c8"},"vehicle_type_id":"4","last_reported":1730571036,"current_range_meters":38800,"station_id":"ce4bhn92rcd13ifvqgrg","pricing_plan_id":"cebpf4jnsgd1na2vs0mg"},{"bike_id":"44c91ef5-ecca-4bb1-81a8-a8cf36631a17","system_id":"levelo_inurba_marseille","lat":43.29516,"lon":5.3855,"is_reserved":false,"is_disabled":false,"rental_uris":{"android":"levelo://app?vid=44c91ef5-ecca-4bb1-81a8-a8cf36631a17","ios":"levelo://app?vid=44c91ef5-ecca-4bb1-81a8-a8cf36631a17"},"vehicle_type_id":"4","last_reported":1730571036,"current_range_meters":6400,"station_id":"ce4bgih2rcd13ifvqba0","pricing_plan_id":"cebpf4jnsgd1na2vs0mg"},{"bike_id":"69eea39f-870a-41f2-8bcc-4fd33fd30f6b","system_id":"levelo_inurba_marseille","lat":43.24646,"lon":5.38894,"is_reserved":false,"is_disabled":false,"rental_uris":{"android":"levelo://app?vid=69eea39f-870a-41f2-8bcc-4fd33fd30f6b","ios":"levelo://app?vid=69eea39f-870a-41f2-8bcc-4fd33fd30f6b"},"vehicle_type_id":"4","last_reported":1730571036,"current_range_meters":19600,"station_id":"ce4bhg12rcd13ifvqf60","pricing_plan_id":"cebpf4jnsgd1na2vs0mg"},{"bike_id":"867988da-115c-449b-aae8-a29b7e2241c3","system_id":"levelo_inurba_marseille","lat":43.29531,"lon":5.375,"is_reserved":false,"is_disabled":false,"rental_uris":{"android":"levelo://app?vid=867988da-115c-449b-aae8-a29b7e2241c3","ios":"levelo://app?vid=867988da-115c-449b-aae8-a29b7e2241c3"},"vehicle_type_id":"4","last_reported":1730571036,"current_range_meters":38800,"station_id":"ce4bgkp2rcd13ifvqbmg","pricing_plan_id":"cebpf4jnsgd1na2vs0mg"},{"bike_id":"5818a6ac-2d40-4bf0-a920-aefa2e8a89fa","system_id":"levelo_inurba_marseille","lat":43.26482,"lon":5.39552,"is_reserved":false,"is_disabled":false,"rental_uris":{"android":"levelo://app?vid=5818a6ac-2d40-4bf0-a920-aefa2e8a89fa","ios":"levelo://app?vid=5818a6ac-2d40-4bf0-a920-aefa2e8a89fa"},"vehicle_type_id":"4","last_reported":1730571036,"current_range_meters":28000,"station_id":"ce4bhi12rcd13ifvqfq0","pricing_plan_id":"cebpf4jnsgd1na2vs0mg"},{"bike_id":"39e48f94-e636-4fd8-a174-0a1f227ded4f","system_id":"levelo_inurba_marseille","lat":43.29255,"lon":5.38449,"is_reserved":false,"is_disabled":false,"rental_uris":{"android":"levelo://app?vid=39e48f94-e636-4fd8-a174-0a1f227ded4f","ios":"levelo://app?vid=39e48f94-e636-4fd8-a174-0a1f227ded4f"},"vehicle_type_id":"4","last_reported":1730571036,"current_range_meters":17600,"station_id":"ce4bh692rcd13ifvqea0","pricing_plan_id":"cebpf4jnsgd1na2vs0mg"},{"bike_id":"d6352dc3-c157-4416-9743-a8439519c15e","system_id":"levelo_inurba_marseille","lat":43.29557,"lon":5.42296,"is_reserved":false,"is_disabled":false,"rental_uris":{"android":"levelo://app?vid=d6352dc3-c157-4416-9743-a8439519c15e","ios":"levelo://app?vid=d6352dc3-c157-4416-9743-a8439519c15e"},"vehicle_type_id":"4","last_reported":1730571036,"current_range_meters":17600,"station_id":"ce4bhph2rcd13ifvqhdg","pricing_plan_id":"cebpf4jnsgd1na2vs0mg"},{"bike_id":"3aae935e-f19b-4b82-860a-9e86c4796487","system_id":"levelo_inurba_marseille","lat":43.25859,"lon":5.39899,"is_reserved":false,"is_disabled":false,"rental_uris":{"android":"levelo://app?vid=3aae935e-f19b-4b82-860a-9e86c4796487","ios":"levelo://app?vid=3aae935e-f19b-4b82-860a-9e86c4796487"},"vehicle_type_id":"4","last_reported":1730571036,"current_range_meters":8000,"station_id":"ce4bhl92rcd13ifvqghg","pricing_plan_id":"cebpf4jnsgd1na2vs0mg"},{"bike_id":"6aee0ce1-c7a0-45e8-a515-069ca31b3763","system_id":"levelo_inurba_marseille","lat":43.25729,"lon":5.41117,"is_reserved":false,"is_disabled":false,"rental_uris":{"android":"levelo://app?vid=6aee0ce1-c7a0-45e8-a515-069ca31b3763","ios":"levelo://app?vid=6aee0ce1-c7a0-45e8-a515-069ca31b3763"},"vehicle_type_id":"4","last_reported":1730571036,"current_range_meters":37600,"station_id":"ce4bhkp2rcd13ifvqgd0","pricing_plan_id":"cebpf4jnsgd1na2vs0mg"},{"bike_id":"aa385231-982a-4491-a7ed-2933ed84b3b4","system_id":"levelo_inurba_marseille","lat":43.29154,"lon":5.41714,"is_reserved":false,"is_disabled":false,"rental_uris":{"android":"levelo://app?vid=aa385231-982a-4491-a7ed-2933ed84b3b4","ios":"levelo://app?vid=aa385231-982a-4491-a7ed-2933ed84b3b4"},"vehicle_type_id":"4","last_reported":1730571036,"current_range_meters":3600,"station_id":"ce4bho12rcd13ifvqh2g","pricing_plan_id":"cebpf4jnsgd1na2vs0mg"},{"bike_id":"de11b8f7-6d15-484a-821b-fa6044d2145a","system_id":"levelo_inurba_marseille","lat":43.286742,"lon":5.386728,"is_reserved":false,"is_disabled":false,"rental_uris":{"android":"levelo://app?vid=de11b8f7-6d15-484a-821b-fa6044d2145a","ios":"levelo://app?vid=de11b8f7-6d15-484a-821b-fa6044d2145a"},"vehicle_type_id":"4","last_reported":1730571036,"current_range_meters":11200,"station_id":"ce4bh492rcd13ifvqdug","pricing_plan_id":"cebpf4jnsgd1na2vs0mg"},{"bike_id":"f3644f25-acbb-49ac-ab9c-e91b11f01fa4","system_id":"levelo_inurba_marseille","lat":43.25871,"lon":5.39903,"is_reserved":false,"is_disabled":false,"rental_uris":{"android":"levelo://app?vid=f3644f25-acbb-49ac-ab9c-e91b11f01fa4","ios":"levelo://app?vid=f3644f25-acbb-49ac-ab9c-e91b11f01fa4"},"vehicle_type_id":"4","last_reported":1730571036,"current_range_meters":28800,"station_id":"ce4bhl92rcd13ifvqghg","pricing_plan_id":"cebpf4jnsgd1na2vs0mg"},{"bike_id":"a9fcc1c7-7810-4515-98b8-5a9fb35c72be","system_id":"levelo_inurba_marseille","lat":43.28354,"lon":5.38113,"is_reserved":false,"is_disabled":false,"rental_uris":{"android":"levelo://app?vid=a9fcc1c7-7810-4515-98b8-5a9fb35c72be","ios":"levelo://app?vid=a9fcc1c7-7810-4515-98b8-5a9fb35c72be"},"vehicle_type_id":"4","last_reported":1730571036,"current_range_meters":37600,"station_id":"ce4bh412rcd13ifvqdr0","pricing_plan_id":"cebpf4jnsgd1na2vs0mg"},{"bike_id":"a8973268-a639-425d-a77f-dbb234d69b4e","system_id":"levelo_inurba_marseille","lat":43.29268,"lon":5.38437,"is_reserved":false,"is_disabled":false,"rental_uris":{"android":"levelo://app?vid=a8973268-a639-425d-a77f-dbb234d69b4e","ios":"levelo://app?vid=a8973268-a639-425d-a77f-dbb234d69b4e"},"vehicle_type_id":"4","last_reported":1730571036,"current_range_meters":9600,"station_id":"ce4bh692rcd13ifvqea0","pricing_plan_id":"cebpf4jnsgd1na2vs0mg"},{"bike_id":"410bc759-360a-40e5-952b-748454f899ac","system_id":"levelo_inurba_marseille","lat":43.29907,"lon":5.3814,"is_reserved":false,"is_disabled":false,"rental_uris":{"android":"levelo://app?vid=410bc759-360a-40e5-952b-748454f899ac","ios":"levelo://app?vid=410bc759-360a-40e5-952b-748454f899ac"},"vehicle_type_id":"4","last_reported":1730571036,"current_range_meters":38800,"station_id":"ce4bgj12rcd13ifvqbc0","pricing_plan_id":"cebpf4jnsgd1na2vs0mg"},{"bike_id":"7f39b1a9-937f-4de6-9cb9-6fb824b11a9d","system_id":"levelo_inurba_marseille","lat":43.29269,"lon":5.36845,"is_reserved":false,"is_disabled":false,"rental_uris":{"android":"levelo://app?vid=7f39b1a9-937f-4de6-9cb9-6fb824b11a9d","ios":"levelo://app?vid=7f39b1a9-937f-4de6-9cb9-6fb824b11a9d"},"vehicle_type_id":"4","last_reported":1730571036,"current_range_meters":29600,"station_id":"ce4bhbp2rcd13ifvqesg","pricing_plan_id":"cebpf4jnsgd1na2vs0mg"},{"bike_id":"7c058cf5-88d1-499d-9061-cdd23f3cb755","system_id":"levelo_inurba_marseille","lat":43.30125,"lon":5.38788,"is_reserved":false,"is_disabled":false,"rental_uris":{"android":"levelo://app?vid=7c058cf5-88d1-499d-9061-cdd23f3cb755","ios":"levelo://app?vid=7c058cf5-88d1-499d-9061-cdd23f3cb755"},"vehicle_type_id":"4","last_reported":1730571036,"current_range_meters":20400,"station_id":"ce4bghh2rcd13ifvqb60","pricing_plan_id":"cebpf4jnsgd1na2vs0mg"},{"bike_id":"4a4a98dc-7c4a-4d75-aa32-7e12f607a050","system_id":"levelo_inurba_marseille","lat":43.28984,"lon":5.37831,"is_reserved":false,"is_disabled":false,"rental_uris":{"android":"levelo://app?vid=4a4a98dc-7c4a-4d75-aa32-7e12f607a050","ios":"levelo://app?vid=4a4a98dc-7c4a-4d75-aa32-7e12f607a050"},"vehicle_type_id":"4","last_reported":1730571036,"current_range_meters":19600,"station_id":"ce4bh9p2rcd13ifvqed0","pricing_plan_id":"cebpf4jnsgd1na2vs0mg"},{"bike_id":"91ca66ca-1be2-4c19-8aae-76e72acf1c34","system_id":"levelo_inurba_marseille","lat":43.2926,"lon":5.38439,"is_reserved":false,"is_disabled":false,"rental_uris":{"android":"levelo://app?vid=91ca66ca-1be2-4c19-8aae-76e72acf1c34","ios":"levelo://app?vid=91ca66ca-1be2-4c19-8aae-76e72acf1c34"},"vehicle_type_id":"4","last_reported":1730571036,"current_range_meters":4400,"station_id":"ce4bh692rcd13ifvqea0","pricing_plan_id":"cebpf4jnsgd1na2vs0mg"},{"bike_id":"15c52a6c-d60a-43cb-838c-ca43903292d7","system_id":"levelo_inurba_marseille","lat":43.29304,"lon":5.37471,"is_reserved":false,"is_disabled":false,"rental_uris":{"android":"levelo://app?vid=15c52a6c-d60a-43cb-838c-ca43903292d7","ios":"levelo://app?vid=15c52a6c-d60a-43cb-838c-ca43903292d7"},"vehicle_type_id":"4","last_reported":1730571036,"current_range_meters":17600,"station_id":"ce4bgi12rcd13ifvqb70","pricing_plan_id":"cebpf4jnsgd1na2vs0mg"},{"bike_id":"2fecd123-2276-416f-a249-18b8dca5a399","system_id":"levelo_inurba_marseille","lat":43.32367,"lon":5.38892,"is_reserved":false,"is_disabled":false,"rental_uris":{"android":"levelo://app?vid=2fecd123-2276-416f-a249-18b8dca5a399","ios":"levelo://app?vid=2fecd123-2276-416f-a249-18b8dca5a399"},"vehicle_type_id":"4","last_reported":1730571036,"current_range_meters":16800,"station_id":"ce4bhqp2rcd13ifvqhog","pricing_plan_id":"cebpf4jnsgd1na2vs0mg"},{"bike_id":"d43a9827-c506-4647-b83e-c0dbe63d0cfc","system_id":"levelo_inurba_marseille","lat":43.29788,"lon":5.39355,"is_reserved":false,"is_disabled":false,"rental_uris":{"android":"levelo://app?vid=d43a9827-c506-4647-b83e-c0dbe63d0cfc","ios":"levelo://app?vid=d43a9827-c506-4647-b83e-c0dbe63d0cfc"},"vehicle_type_id":"4","last_reported":1730571036,"current_range_meters":6400,"station_id":"chh1huq6cuj3fo74tm60","pricing_plan_id":"cebpf4jnsgd1na2vs0mg"},{"bike_id":"80dc44a9-d8a0-4ecf-923e-d84a3464693a","system_id":"levelo_inurba_marseille","lat":43.309326,"lon":5.401375,"is_reserved":false,"is_disabled":false,"rental_uris":{"android":"levelo://app?vid=80dc44a9-d8a0-4ecf-923e-d84a3464693a","ios":"levelo://app?vid=80dc44a9-d8a0-4ecf-923e-d84a3464693a"},"vehicle_type_id":"4","last_reported":1730571036,"current_range_meters":24000,"station_id":"ce4bgvp2rcd13ifvqct0","pricing_plan_id":"cebpf4jnsgd1na2vs0mg"},{"bike_id":"f6fb17ed-281c-46a9-a0e3-557eefaab6c1","system_id":"levelo_inurba_marseille","lat":43.28408,"lon":5.37517,"is_reserved":false,"is_disabled":false,"rental_uris":{"android":"levelo://app?vid=f6fb17ed-281c-46a9-a0e3-557eefaab6c1","ios":"levelo://app?vid=f6fb17ed-281c-46a9-a0e3-557eefaab6c1"},"vehicle_type_id":"4","last_reported":1730571036,"current_range_meters":39200,"station_id":"","pricing_plan_id":"cebpf4jnsgd1na2vs0mg"},{"bike_id":"2f2d493e-7a15-4bfb-a779-eebf87e4f33f","system_id":"levelo_inurba_marseille","lat":43.27804,"lon":5.40717,"is_reserved":false,"is_disabled":false,"rental_uris":{"android":"levelo://app?vid=2f2d493e-7a15-4bfb-a779-eebf87e4f33f","ios":"levelo://app?vid=2f2d493e-7a15-4bfb-a779-eebf87e4f33f"},"vehicle_type_id":"4","last_reported":1730571036,"current_range_meters":28400,"station_id":"ce4bhnh2rcd13ifvqgtg","pricing_plan_id":"cebpf4jnsgd1na2vs0mg"},{"bike_id":"426029b5-bdb9-43f9-aa7d-d48adc3702a9","system_id":"levelo_inurba_marseille","lat":43.26804,"lon":5.40265,"is_reserved":false,"is_disabled":false,"rental_uris":{"android":"levelo://app?vid=426029b5-bdb9-43f9-aa7d-d48adc3702a9","ios":"levelo://app?vid=426029b5-bdb9-43f9-aa7d-d48adc3702a9"},"vehicle_type_id":"4","last_reported":1730571036,"current_range_meters":38800,"station_id":"ce501612rcd8frsf0b60","pricing_plan_id":"cebpf4jnsgd1na2vs0mg"},{"bike_id":"9e51b341-4327-4bfe-a684-a28c8d34958c","system_id":"levelo_inurba_marseille","lat":43.29262,"lon":5.40906,"is_reserved":false,"is_disabled":false,"rental_uris":{"android":"levelo://app?vid=9e51b341-4327-4bfe-a684-a28c8d34958c","ios":"levelo://app?vid=9e51b341-4327-4bfe-a684-a28c8d34958c"},"vehicle_type_id":"4","last_reported":1730571036,"current_range_meters":5600,"station_id":"ce4bh192rcd13ifvqdc0","pricing_plan_id":"cebpf4jnsgd1na2vs0mg"},{"bike_id":"c8893d8e-f81f-4744-85fb-448d69741653","system_id":"levelo_inurba_marseille","lat":43.276166,"lon":5.361083,"is_reserved":false,"is_disabled":false,"rental_uris":{"android":"levelo://app?vid=c8893d8e-f81f-4744-85fb-448d69741653","ios":"levelo://app?vid=c8893d8e-f81f-4744-85fb-448d69741653"},"vehicle_type_id":"4","last_reported":1730571036,"current_range_meters":11200,"station_id":"ce4bgj92rcd13ifvqbe0","pricing_plan_id":"cebpf4jnsgd1na2vs0mg"},{"bike_id":"74f1b31f-05cb-4b2c-ba1a-a549e3a908bb","system_id":"levelo_inurba_marseille","lat":43.31685,"lon":5.40478,"is_reserved":false,"is_disabled":false,"rental_uris":{"android":"levelo://app?vid=74f1b31f-05cb-4b2c-ba1a-a549e3a908bb","ios":"levelo://app?vid=74f1b31f-05cb-4b2c-ba1a-a549e3a908bb"},"vehicle_type_id":"4","last_reported":1730571036,"current_range_meters":7200,"station_id":"ce4bh012rcd13ifvqd00","pricing_plan_id":"cebpf4jnsgd1na2vs0mg"},{"bike_id":"2c29d508-fc58-464f-b3ac-893e264b0baf","system_id":"levelo_inurba_marseille","lat":43.29196,"lon":5.35812,"is_reserved":false,"is_disabled":false,"rental_uris":{"android":"levelo://app?vid=2c29d508-fc58-464f-b3ac-893e264b0baf","ios":"levelo://app?vid=2c29d508-fc58-464f-b3ac-893e264b0baf"},"vehicle_type_id":"4","last_reported":1730571036,"current_range_meters":38000,"station_id":"ce4bhb12rcd13ifvqel0","pricing_plan_id":"cebpf4jnsgd1na2vs0mg"},{"bike_id":"86ec743b-8da3-411b-8f8d-f12dbca29925","system_id":"levelo_inurba_marseille","lat":43.30909,"lon":5.36846,"is_reserved":false,"is_disabled":false,"rental_uris":{"android":"levelo://app?vid=86ec743b-8da3-411b-8f8d-f12dbca29925","ios":"levelo://app?vid=86ec743b-8da3-411b-8f8d-f12dbca29925"},"vehicle_type_id":"4","last_reported":1730571036,"current_range_meters":9600,"station_id":"ce4bgn92rcd13ifvqbvg","pricing_plan_id":"cebpf4jnsgd1na2vs0mg"},{"bike_id":"2fdf5ea3-fe4d-47af-8b87-00a02c6e1fd4","system_id":"levelo_inurba_marseille","lat":43.30632,"lon":5.40084,"is_reserved":false,"is_disabled":false,"rental_uris":{"android":"levelo://app?vid=2fdf5ea3-fe4d-47af-8b87-00a02c6e1fd4","ios":"levelo://app?vid=2fdf5ea3-fe4d-47af-8b87-00a02c6e1fd4"},"vehicle_type_id":"4","last_reported":1730571036,"current_range_meters":28000,"station_id":"ce4bh112rcd13ifvqda0","pricing_plan_id":"cebpf4jnsgd1na2vs0mg"},{"bike_id":"727d1146-eab2-4e1b-8fdd-9f8dbee608bf","system_id":"levelo_inurba_marseille","lat":43.29066,"lon":5.3716,"is_reserved":false,"is_disabled":false,"rental_uris":{"android":"levelo://app?vid=727d1146-eab2-4e1b-8fdd-9f8dbee608bf","ios":"levelo://app?vid=727d1146-eab2-4e1b-8fdd-9f8dbee608bf"},"vehicle_type_id":"4","last_reported":1730571036,"current_range_meters":4800,"station_id":"ce4bh5p2rcd13ifvqe4g","pricing_plan_id":"cebpf4jnsgd1na2vs0mg"},{"bike_id":"5528818b-77bf-48bb-a249-c5355ed72c79","system_id":"levelo_inurba_marseille","lat":43.28615,"lon":5.37063,"is_reserved":false,"is_disabled":false,"rental_uris":{"android":"levelo://app?vid=5528818b-77bf-48bb-a249-c5355ed72c79","ios":"levelo://app?vid=5528818b-77bf-48bb-a249-c5355ed72c79"},"vehicle_type_id":"4","last_reported":1730571036,"current_range_meters":9200,"station_id":"ce4bht12rcd13ifvqi60","pricing_plan_id":"cebpf4jnsgd1na2vs0mg"},{"bike_id":"83a27041-3c11-4efe-ba1d-89d69d5fb44d","system_id":"levelo_inurba_marseille","lat":43.29957,"lon":5.38502,"is_reserved":false,"is_disabled":false,"rental_uris":{"android":"levelo://app?vid=83a27041-3c11-4efe-ba1d-89d69d5fb44d","ios":"levelo://app?vid=83a27041-3c11-4efe-ba1d-89d69d5fb44d"},"vehicle_type_id":"4","last_reported":1730571036,"current_range_meters":25600,"station_id":"ce4bgj92rcd13ifvqbd0","pricing_plan_id":"cebpf4jnsgd1na2vs0mg"},{"bike_id":"e4a92ef8-f773-4457-a045-d4b2982d62ef","system_id":"levelo_inurba_marseille","lat":43.26936,"lon":5.40253,"is_reserved":false,"is_disabled":false,"rental_uris":{"android":"levelo://app?vid=e4a92ef8-f773-4457-a045-d4b2982d62ef","ios":"levelo://app?vid=e4a92ef8-f773-4457-a045-d4b2982d62ef"},"vehicle_type_id":"4","last_reported":1730571036,"current_range_meters":8000,"station_id":"cjm6bp8fraef2m0cb0m0","pricing_plan_id":"cebpf4jnsgd1na2vs0mg"},{"bike_id":"b5ea7aff-ab56-41e8-b6ee-90e843b9793b","system_id":"levelo_inurba_marseille","lat":43.2694,"lon":5.40249,"is_reserved":false,"is_disabled":false,"rental_uris":{"android":"levelo://app?vid=b5ea7aff-ab56-41e8-b6ee-90e843b9793b","ios":"levelo://app?vid=b5ea7aff-ab56-41e8-b6ee-90e843b9793b"},"vehicle_type_id":"4","last_reported":1730571036,"current_range_meters":9200,"station_id":"cjm6bp8fraef2m0cb0m0","pricing_plan_id":"cebpf4jnsgd1na2vs0mg"},{"bike_id":"642f9eb4-53b6-4c2f-8920-dbc91c6efa89","system_id":"levelo_inurba_marseille","lat":43.24166,"lon":5.39751,"is_reserved":false,"is_disabled":false,"rental_uris":{"android":"levelo://app?vid=642f9eb4-53b6-4c2f-8920-dbc91c6efa89","ios":"levelo://app?vid=642f9eb4-53b6-4c2f-8920-dbc91c6efa89"},"vehicle_type_id":"4","last_reported":1730571036,"current_range_meters":22000,"station_id":"ce4bhn12rcd13ifvqgpg","pricing_plan_id":"cebpf4jnsgd1na2vs0mg"},{"bike_id":"d69eef29-33f1-400b-9dbd-e583b4f600d8","system_id":"levelo_inurba_marseille","lat":43.2465,"lon":5.38904,"is_reserved":false,"is_disabled":false,"rental_uris":{"android":"levelo://app?vid=d69eef29-33f1-400b-9dbd-e583b4f600d8","ios":"levelo://app?vid=d69eef29-33f1-400b-9dbd-e583b4f600d8"},"vehicle_type_id":"4","last_reported":1730571036,"current_range_meters":38800,"station_id":"ce4bhg12rcd13ifvqf60","pricing_plan_id":"cebpf4jnsgd1na2vs0mg"},{"bike_id":"e4c7c7f2-3518-4ab4-b666-51b810cc26a7","system_id":"levelo_inurba_marseille","lat":43.290955,"lon":5.381038,"is_reserved":false,"is_disabled":false,"rental_uris":{"android":"levelo://app?vid=e4c7c7f2-3518-4ab4-b666-51b810cc26a7","ios":"levelo://app?vid=e4c7c7f2-3518-4ab4-b666-51b810cc26a7"},"vehicle_type_id":"4","last_reported":1730571036,"current_range_meters":28000,"station_id":"ce4bh512rcd13ifvqe2g","pricing_plan_id":"cebpf4jnsgd1na2vs0mg"},{"bike_id":"a49d2097-b0ea-4588-8e1e-62acd5a352f5","system_id":"levelo_inurba_marseille","lat":43.29964,"lon":5.38503,"is_reserved":false,"is_disabled":false,"rental_uris":{"android":"levelo://app?vid=a49d2097-b0ea-4588-8e1e-62acd5a352f5","ios":"levelo://app?vid=a49d2097-b0ea-4588-8e1e-62acd5a352f5"},"vehicle_type_id":"4","last_reported":1730571036,"current_range_meters":10800,"station_id":"ce4bgj92rcd13ifvqbd0","pricing_plan_id":"cebpf4jnsgd1na2vs0mg"},{"bike_id":"34a8bedc-f215-4d0f-b766-71cb0c9fe317","system_id":"levelo_inurba_marseille","lat":43.258789,"lon":5.398899,"is_reserved":false,"is_disabled":false,"rental_uris":{"android":"levelo://app?vid=34a8bedc-f215-4d0f-b766-71cb0c9fe317","ios":"levelo://app?vid=34a8bedc-f215-4d0f-b766-71cb0c9fe317"},"vehicle_type_id":"4","last_reported":1730571036,"current_range_meters":8400,"station_id":"ce4bh4p2rcd13ifvqe1g","pricing_plan_id":"cebpf4jnsgd1na2vs0mg"},{"bike_id":"7c7a0173-4dfb-4856-bc93-f7a78e0b1c95","system_id":"levelo_inurba_marseille","lat":43.336117,"lon":5.410343,"is_reserved":false,"is_disabled":false,"rental_uris":{"android":"levelo://app?vid=7c7a0173-4dfb-4856-bc93-f7a78e0b1c95","ios":"levelo://app?vid=7c7a0173-4dfb-4856-bc93-f7a78e0b1c95"},"vehicle_type_id":"4","last_reported":1730571036,"current_range_meters":37600,"station_id":"ce4bhqh2rcd13ifvqhmg","pricing_plan_id":"cebpf4jnsgd1na2vs0mg"},{"bike_id":"4159855a-a970-48c2-b24c-6f46a7c6c427","system_id":"levelo_inurba_marseille","lat":43.29795,"lon":5.39349,"is_reserved":false,"is_disabled":false,"rental_uris":{"android":"levelo://app?vid=4159855a-a970-48c2-b24c-6f46a7c6c427","ios":"levelo://app?vid=4159855a-a970-48c2-b24c-6f46a7c6c427"},"vehicle_type_id":"4","last_reported":1730571036,"current_range_meters":29600,"station_id":"chh1huq6cuj3fo74tm60","pricing_plan_id":"cebpf4jnsgd1na2vs0mg"},{"bike_id":"c42ab67a-5339-4c18-a578-b4bb830ac264","system_id":"levelo_inurba_marseille","lat":43.30433,"lon":5.38892,"is_reserved":false,"is_disabled":false,"rental_uris":{"android":"levelo://app?vid=c42ab67a-5339-4c18-a578-b4bb830ac264","ios":"levelo://app?vid=c42ab67a-5339-4c18-a578-b4bb830ac264"},"vehicle_type_id":"4","last_reported":1730571036,"current_range_meters":8800,"station_id":"ce4bgk12rcd13ifvqbi0","pricing_plan_id":"cebpf4jnsgd1na2vs0mg"},{"bike_id":"07ed26ca-4461-444f-a37e-6900b4476044","system_id":"levelo_inurba_marseille","lat":43.29024,"lon":5.38655,"is_reserved":false,"is_disabled":false,"rental_uris":{"android":"levelo://app?vid=07ed26ca-4461-444f-a37e-6900b4476044","ios":"levelo://app?vid=07ed26ca-4461-444f-a37e-6900b4476044"},"vehicle_type_id":"4","last_reported":1730571036,"current_range_meters":10800,"station_id":"ce4bh4p2rcd13ifvqe0g","pricing_plan_id":"cebpf4jnsgd1na2vs0mg"},{"bike_id":"b96ceaa9-d8a4-4622-bf58-12ea93b1f94c","system_id":"levelo_inurba_marseille","lat":43.247772,"lon":5.374612,"is_reserved":false,"is_disabled":false,"rental_uris":{"android":"levelo://app?vid=b96ceaa9-d8a4-4622-bf58-12ea93b1f94c","ios":"levelo://app?vid=b96ceaa9-d8a4-4622-bf58-12ea93b1f94c"},"vehicle_type_id":"4","last_reported":1730571036,"current_range_meters":11600,"station_id":"ce4bhgh2rcd13ifvqfb0","pricing_plan_id":"cebpf4jnsgd1na2vs0mg"},{"bike_id":"d4986541-9a9b-4a5b-bb55-b01d5cb4582e","system_id":"levelo_inurba_marseille","lat":43.29262,"lon":5.3845,"is_reserved":false,"is_disabled":false,"rental_uris":{"android":"levelo://app?vid=d4986541-9a9b-4a5b-bb55-b01d5cb4582e","ios":"levelo://app?vid=d4986541-9a9b-4a5b-bb55-b01d5cb4582e"},"vehicle_type_id":"4","last_reported":1730571036,"current_range_meters":7200,"station_id":"ce4bh692rcd13ifvqea0","pricing_plan_id":"cebpf4jnsgd1na2vs0mg"},{"bike_id":"12e47018-61b4-4b02-8a25-f67235482ce1","system_id":"levelo_inurba_marseille","lat":43.27907,"lon":5.38016,"is_reserved":false,"is_disabled":false,"rental_uris":{"android":"levelo://app?vid=12e47018-61b4-4b02-8a25-f67235482ce1","ios":"levelo://app?vid=12e47018-61b4-4b02-8a25-f67235482ce1"},"vehicle_type_id":"4","last_reported":1730571036,"current_range_meters":27200,"station_id":"ce4bhf92rcd13ifvqf50","pricing_plan_id":"cebpf4jnsgd1na2vs0mg"},{"bike_id":"c2a79f9c-d4ff-4e5e-b463-e9a984f837a1","system_id":"levelo_inurba_marseille","lat":43.2836,"lon":5.38629,"is_reserved":false,"is_disabled":false,"rental_uris":{"android":"levelo://app?vid=c2a79f9c-d4ff-4e5e-b463-e9a984f837a1","ios":"levelo://app?vid=c2a79f9c-d4ff-4e5e-b463-e9a984f837a1"},"vehicle_type_id":"4","last_reported":1730571036,"current_range_meters":17200,"station_id":"ce4bh492rcd13ifvqdvg","pricing_plan_id":"cebpf4jnsgd1na2vs0mg"},{"bike_id":"b2d8d360-186e-43f7-9167-f0b2ee2f7e2b","system_id":"levelo_inurba_marseille","lat":43.29589,"lon":5.38107,"is_reserved":false,"is_disabled":false,"rental_uris":{"android":"levelo://app?vid=b2d8d360-186e-43f7-9167-f0b2ee2f7e2b","ios":"levelo://app?vid=b2d8d360-186e-43f7-9167-f0b2ee2f7e2b"},"vehicle_type_id":"4","last_reported":1730571036,"current_range_meters":38800,"station_id":"ce4bgl12rcd13ifvqbo0","pricing_plan_id":"cebpf4jnsgd1na2vs0mg"},{"bike_id":"a9e78c4d-f9d8-4d5d-b70f-ee7f18ffb9d9","system_id":"levelo_inurba_marseille","lat":43.28655,"lon":5.36351,"is_reserved":false,"is_disabled":false,"rental_uris":{"android":"levelo://app?vid=a9e78c4d-f9d8-4d5d-b70f-ee7f18ffb9d9","ios":"levelo://app?vid=a9e78c4d-f9d8-4d5d-b70f-ee7f18ffb9d9"},"vehicle_type_id":"4","last_reported":1730571036,"current_range_meters":29600,"station_id":"ce4bhah2rcd13ifvqej0","pricing_plan_id":"cebpf4jnsgd1na2vs0mg"},{"bike_id":"0aa9ecd7-a003-49a0-9753-1f2c8ca7e6d2","system_id":"levelo_inurba_marseille","lat":43.26787,"lon":5.39411,"is_reserved":false,"is_disabled":false,"rental_uris":{"android":"levelo://app?vid=0aa9ecd7-a003-49a0-9753-1f2c8ca7e6d2","ios":"levelo://app?vid=0aa9ecd7-a003-49a0-9753-1f2c8ca7e6d2"},"vehicle_type_id":"4","last_reported":1730571036,"current_range_meters":20800,"station_id":"ce4bhh12rcd13ifvqfg0","pricing_plan_id":"cebpf4jnsgd1na2vs0mg"},{"bike_id":"1b760ddd-e34d-491f-9c82-3266310982c8","system_id":"levelo_inurba_marseille","lat":43.26559,"lon":5.37285,"is_reserved":false,"is_disabled":false,"rental_uris":{"android":"levelo://app?vid=1b760ddd-e34d-491f-9c82-3266310982c8","ios":"levelo://app?vid=1b760ddd-e34d-491f-9c82-3266310982c8"},"vehicle_type_id":"4","last_reported":1730571036,"current_range_meters":7200,"station_id":"ce4bhg12rcd13ifvqf70","pricing_plan_id":"cebpf4jnsgd1na2vs0mg"},{"bike_id":"0e7dc9ac-472a-4a66-8349-cd60c3504f74","system_id":"levelo_inurba_marseille","lat":43.31903,"lon":5.38558,"is_reserved":false,"is_disabled":false,"rental_uris":{"android":"levelo://app?vid=0e7dc9ac-472a-4a66-8349-cd60c3504f74","ios":"levelo://app?vid=0e7dc9ac-472a-4a66-8349-cd60c3504f74"},"vehicle_type_id":"4","last_reported":1730571036,"current_range_meters":38800,"station_id":"","pricing_plan_id":"cebpf4jnsgd1na2vs0mg"},{"bike_id":"d49df698-feeb-45ee-a1e6-5ae0bf4099a6","system_id":"levelo_inurba_marseille","lat":43.30246,"lon":5.390523,"is_reserved":false,"is_disabled":false,"rental_uris":{"android":"levelo://app?vid=d49df698-feeb-45ee-a1e6-5ae0bf4099a6","ios":"levelo://app?vid=d49df698-feeb-45ee-a1e6-5ae0bf4099a6"},"vehicle_type_id":"4","last_reported":1730571036,"current_range_meters":2800,"station_id":"ce4bgkh2rcd13ifvqbk0","pricing_plan_id":"cebpf4jnsgd1na2vs0mg"},{"bike_id":"26a5ce0a-7648-46bd-bc6d-c22081e9b570","system_id":"levelo_inurba_marseille","lat":43.29973,"lon":5.38502,"is_reserved":false,"is_disabled":false,"rental_uris":{"android":"levelo://app?vid=26a5ce0a-7648-46bd-bc6d-c22081e9b570","ios":"levelo://app?vid=26a5ce0a-7648-46bd-bc6d-c22081e9b570"},"vehicle_type_id":"4","last_reported":1730571036,"current_range_meters":28800,"station_id":"ce4bgj92rcd13ifvqbd0","pricing_plan_id":"cebpf4jnsgd1na2vs0mg"},{"bike_id":"116d4450-2b1f-4c91-a1dd-14ff79eda634","system_id":"levelo_inurba_marseille","lat":43.2454,"lon":5.39526,"is_reserved":false,"is_disabled":false,"rental_uris":{"android":"levelo://app?vid=116d4450-2b1f-4c91-a1dd-14ff79eda634","ios":"levelo://app?vid=116d4450-2b1f-4c91-a1dd-14ff79eda634"},"vehicle_type_id":"4","last_reported":1730571036,"current_range_meters":16800,"station_id":"ce4bhlp2rcd13ifvqgjg","pricing_plan_id":"cebpf4jnsgd1na2vs0mg"},{"bike_id":"d51f9ada-dc1f-4cfe-8283-3018e289c40c","system_id":"levelo_inurba_marseille","lat":43.29524,"lon":5.38547,"is_reserved":false,"is_disabled":false,"rental_uris":{"android":"levelo://app?vid=d51f9ada-dc1f-4cfe-8283-3018e289c40c","ios":"levelo://app?vid=d51f9ada-dc1f-4cfe-8283-3018e289c40c"},"vehicle_type_id":"4","last_reported":1730571036,"current_range_meters":6400,"station_id":"ce4bgih2rcd13ifvqba0","pricing_plan_id":"cebpf4jnsgd1na2vs0mg"},{"bike_id":"61497ec0-6b91-4085-893e-2dc4cbab5392","system_id":"levelo_inurba_marseille","lat":43.32364,"lon":5.38893,"is_reserved":false,"is_disabled":false,"rental_uris":{"android":"levelo://app?vid=61497ec0-6b91-4085-893e-2dc4cbab5392","ios":"levelo://app?vid=61497ec0-6b91-4085-893e-2dc4cbab5392"},"vehicle_type_id":"4","last_reported":1730571036,"current_range_meters":26800,"station_id":"ce4bhqp2rcd13ifvqhog","pricing_plan_id":"cebpf4jnsgd1na2vs0mg"},{"bike_id":"87e794f5-65a0-4dad-aa0e-a935d7302959","system_id":"levelo_inurba_marseille","lat":43.2826,"lon":5.35066,"is_reserved":false,"is_disabled":false,"rental_uris":{"android":"levelo://app?vid=87e794f5-65a0-4dad-aa0e-a935d7302959","ios":"levelo://app?vid=87e794f5-65a0-4dad-aa0e-a935d7302959"},"vehicle_type_id":"4","last_reported":1730571036,"current_range_meters":2000,"station_id":"ce4bhbp2rcd13ifvqerg","pricing_plan_id":"cebpf4jnsgd1na2vs0mg"},{"bike_id":"f7fa5b9b-5984-44c8-bf7a-22ea26f3de29","system_id":"levelo_inurba_marseille","lat":43.29798,"lon":5.38094,"is_reserved":false,"is_disabled":false,"rental_uris":{"android":"levelo://app?vid=f7fa5b9b-5984-44c8-bf7a-22ea26f3de29","ios":"levelo://app?vid=f7fa5b9b-5984-44c8-bf7a-22ea26f3de29"},"vehicle_type_id":"4","last_reported":1730571036,"current_range_meters":32400,"station_id":"ce4bgip2rcd13ifvqbb0","pricing_plan_id":"cebpf4jnsgd1na2vs0mg"},{"bike_id":"6b7a3137-f431-40ec-9caf-addf256082a5","system_id":"levelo_inurba_marseille","lat":43.29265,"lon":5.38436,"is_reserved":false,"is_disabled":false,"rental_uris":{"android":"levelo://app?vid=6b7a3137-f431-40ec-9caf-addf256082a5","ios":"levelo://app?vid=6b7a3137-f431-40ec-9caf-addf256082a5"},"vehicle_type_id":"4","last_reported":1730571036,"current_range_meters":10800,"station_id":"ce4bh692rcd13ifvqea0","pricing_plan_id":"cebpf4jnsgd1na2vs0mg"},{"bike_id":"e55d8d6f-7394-4584-af8a-c65aaa7989ef","system_id":"levelo_inurba_marseille","lat":43.26064,"lon":5.39392,"is_reserved":false,"is_disabled":false,"rental_uris":{"android":"levelo://app?vid=e55d8d6f-7394-4584-af8a-c65aaa7989ef","ios":"levelo://app?vid=e55d8d6f-7394-4584-af8a-c65aaa7989ef"},"vehicle_type_id":"4","last_reported":1730571036,"current_range_meters":8800,"station_id":"ce4bhh92rcd13ifvqfj0","pricing_plan_id":"cebpf4jnsgd1na2vs0mg"},{"bike_id":"d3f56f17-ac1a-464c-b9d7-9bc3311153ab","system_id":"levelo_inurba_marseille","lat":43.24656,"lon":5.38168,"is_reserved":false,"is_disabled":false,"rental_uris":{"android":"levelo://app?vid=d3f56f17-ac1a-464c-b9d7-9bc3311153ab","ios":"levelo://app?vid=d3f56f17-ac1a-464c-b9d7-9bc3311153ab"},"vehicle_type_id":"4","last_reported":1730571036,"current_range_meters":8800,"station_id":"ce4bhih2rcd13ifvqfr0","pricing_plan_id":"cebpf4jnsgd1na2vs0mg"},{"bike_id":"c9836de4-dae6-4bfc-aef6-8b7c0c537e63","system_id":"levelo_inurba_marseille","lat":43.258705,"lon":5.39897,"is_reserved":false,"is_disabled":false,"rental_uris":{"android":"levelo://app?vid=c9836de4-dae6-4bfc-aef6-8b7c0c537e63","ios":"levelo://app?vid=c9836de4-dae6-4bfc-aef6-8b7c0c537e63"},"vehicle_type_id":"4","last_reported":1730571036,"current_range_meters":10800,"station_id":"ce4bhl92rcd13ifvqghg","pricing_plan_id":"cebpf4jnsgd1na2vs0mg"},{"bike_id":"0d574376-e548-420b-aeea-7948ab7397a0","system_id":"levelo_inurba_marseille","lat":43.29585,"lon":5.36737,"is_reserved":false,"is_disabled":false,"rental_uris":{"android":"levelo://app?vid=0d574376-e548-420b-aeea-7948ab7397a0","ios":"levelo://app?vid=0d574376-e548-420b-aeea-7948ab7397a0"},"vehicle_type_id":"4","last_reported":1730571036,"current_range_meters":38800,"station_id":"ce4bgph2rcd13ifvqc2g","pricing_plan_id":"cebpf4jnsgd1na2vs0mg"},{"bike_id":"71c7f1ab-cf06-4e64-a2dc-3055c8b65342","system_id":"levelo_inurba_marseille","lat":43.29372,"lon":5.37843,"is_reserved":false,"is_disabled":false,"rental_uris":{"android":"levelo://app?vid=71c7f1ab-cf06-4e64-a2dc-3055c8b65342","ios":"levelo://app?vid=71c7f1ab-cf06-4e64-a2dc-3055c8b65342"},"vehicle_type_id":"4","last_reported":1730571036,"current_range_meters":3200,"station_id":"ce4bgjh2rcd13ifvqbf0","pricing_plan_id":"cebpf4jnsgd1na2vs0mg"},{"bike_id":"689574c2-49e2-4015-8332-d8dfe6eda125","system_id":"levelo_inurba_marseille","lat":43.28404,"lon":5.37518,"is_reserved":false,"is_disabled":false,"rental_uris":{"android":"levelo://app?vid=689574c2-49e2-4015-8332-d8dfe6eda125","ios":"levelo://app?vid=689574c2-49e2-4015-8332-d8dfe6eda125"},"vehicle_type_id":"4","last_reported":1730571036,"current_range_meters":17200,"station_id":"ce4bh412rcd13ifvqds0","pricing_plan_id":"cebpf4jnsgd1na2vs0mg"},{"bike_id":"6338020e-474a-4c99-b365-eea26fe54739","system_id":"levelo_inurba_marseille","lat":43.32283,"lon":5.38279,"is_reserved":false,"is_disabled":false,"rental_uris":{"android":"levelo://app?vid=6338020e-474a-4c99-b365-eea26fe54739","ios":"levelo://app?vid=6338020e-474a-4c99-b365-eea26fe54739"},"vehicle_type_id":"4","last_reported":1730571036,"current_range_meters":27200,"station_id":"ce4bhr12rcd13ifvqhqg","pricing_plan_id":"cebpf4jnsgd1na2vs0mg"},{"bike_id":"3cc80ee9-2790-4698-ba87-e0a476c104f2","system_id":"levelo_inurba_marseille","lat":43.29263,"lon":5.38447,"is_reserved":false,"is_disabled":false,"rental_uris":{"android":"levelo://app?vid=3cc80ee9-2790-4698-ba87-e0a476c104f2","ios":"levelo://app?vid=3cc80ee9-2790-4698-ba87-e0a476c104f2"},"vehicle_type_id":"4","last_reported":1730571036,"current_range_meters":28000,"station_id":"ce4bh692rcd13ifvqea0","pricing_plan_id":"cebpf4jnsgd1na2vs0mg"},{"bike_id":"da98f810-cac1-47e0-b81c-84d70eb81162","system_id":"levelo_inurba_marseille","lat":43.29265,"lon":5.38441,"is_reserved":false,"is_disabled":false,"rental_uris":{"android":"levelo://app?vid=da98f810-cac1-47e0-b81c-84d70eb81162","ios":"levelo://app?vid=da98f810-cac1-47e0-b81c-84d70eb81162"},"vehicle_type_id":"4","last_reported":1730571036,"current_range_meters":30400,"station_id":"ce4bh692rcd13ifvqea0","pricing_plan_id":"cebpf4jnsgd1na2vs0mg"},{"bike_id":"5deee2f8-848a-457a-92b7-a45d8fa16e3c","system_id":"levelo_inurba_marseille","lat":43.28569,"lon":5.39508,"is_reserved":false,"is_disabled":false,"rental_uris":{"android":"levelo://app?vid=5deee2f8-848a-457a-92b7-a45d8fa16e3c","ios":"levelo://app?vid=5deee2f8-848a-457a-92b7-a45d8fa16e3c"},"vehicle_type_id":"4","last_reported":1730571036,"current_range_meters":38800,"station_id":"ce4bh292rcd13ifvqdg0","pricing_plan_id":"cebpf4jnsgd1na2vs0mg"},{"bike_id":"33a86177-fec2-427b-bba9-a5cbb568bb2f","system_id":"levelo_inurba_marseille","lat":43.294,"lon":5.41244,"is_reserved":false,"is_disabled":false,"rental_uris":{"android":"levelo://app?vid=33a86177-fec2-427b-bba9-a5cbb568bb2f","ios":"levelo://app?vid=33a86177-fec2-427b-bba9-a5cbb568bb2f"},"vehicle_type_id":"4","last_reported":1730571036,"current_range_meters":6400,"station_id":"","pricing_plan_id":"cebpf4jnsgd1na2vs0mg"},{"bike_id":"a16dcfef-7760-4f38-a160-a4b692aaf64b","system_id":"levelo_inurba_marseille","lat":43.29526,"lon":5.39038,"is_reserved":false,"is_disabled":false,"rental_uris":{"android":"levelo://app?vid=a16dcfef-7760-4f38-a160-a4b692aaf64b","ios":"levelo://app?vid=a16dcfef-7760-4f38-a160-a4b692aaf64b"},"vehicle_type_id":"4","last_reported":1730571036,"current_range_meters":19200,"station_id":"ce4bh3p2rcd13ifvqdp0","pricing_plan_id":"cebpf4jnsgd1na2vs0mg"},{"bike_id":"3e08d59a-decf-4e52-b8ae-947dd230d094","system_id":"levelo_inurba_marseille","lat":43.298742,"lon":5.39727,"is_reserved":false,"is_disabled":false,"rental_uris":{"android":"levelo://app?vid=3e08d59a-decf-4e52-b8ae-947dd230d094","ios":"levelo://app?vid=3e08d59a-decf-4e52-b8ae-947dd230d094"},"vehicle_type_id":"4","last_reported":1730571036,"current_range_meters":12000,"station_id":"ce4bh0h2rcd13ifvqd50","pricing_plan_id":"cebpf4jnsgd1na2vs0mg"},{"bike_id":"9769c1b0-a0e9-49ba-b820-582b49b7a6f1","system_id":"levelo_inurba_marseille","lat":43.295983,"lon":5.381113,"is_reserved":false,"is_disabled":false,"rental_uris":{"android":"levelo://app?vid=9769c1b0-a0e9-49ba-b820-582b49b7a6f1","ios":"levelo://app?vid=9769c1b0-a0e9-49ba-b820-582b49b7a6f1"},"vehicle_type_id":"4","last_reported":1730571036,"current_range_meters":36000,"station_id":"ce4bgl12rcd13ifvqbo0","pricing_plan_id":"cebpf4jnsgd1na2vs0mg"},{"bike_id":"99665f03-54f2-4926-8fee-3ae48606d855","system_id":"levelo_inurba_marseille","lat":43.30457,"lon":5.37905,"is_reserved":false,"is_disabled":false,"rental_uris":{"android":"levelo://app?vid=99665f03-54f2-4926-8fee-3ae48606d855","ios":"levelo://app?vid=99665f03-54f2-4926-8fee-3ae48606d855"},"vehicle_type_id":"4","last_reported":1730571036,"current_range_meters":3200,"station_id":"ce4bgup2rcd13ifvqcn0","pricing_plan_id":"cebpf4jnsgd1na2vs0mg"},{"bike_id":"bfb4f4c2-d5f7-4cdc-acb2-19115fd177f7","system_id":"levelo_inurba_marseille","lat":43.28151,"lon":5.42648,"is_reserved":false,"is_disabled":false,"rental_uris":{"android":"levelo://app?vid=bfb4f4c2-d5f7-4cdc-acb2-19115fd177f7","ios":"levelo://app?vid=bfb4f4c2-d5f7-4cdc-acb2-19115fd177f7"},"vehicle_type_id":"4","last_reported":1730571036,"current_range_meters":39200,"station_id":"ce4bhnh2rcd13ifvqgug","pricing_plan_id":"cebpf4jnsgd1na2vs0mg"},{"bike_id":"884e26f2-c329-400f-88bc-f3e802ed02c9","system_id":"levelo_inurba_marseille","lat":43.29004,"lon":5.35619,"is_reserved":false,"is_disabled":false,"rental_uris":{"android":"levelo://app?vid=884e26f2-c329-400f-88bc-f3e802ed02c9","ios":"levelo://app?vid=884e26f2-c329-400f-88bc-f3e802ed02c9"},"vehicle_type_id":"4","last_reported":1730571036,"current_range_meters":16400,"station_id":"ce4bhb92rcd13ifvqen0","pricing_plan_id":"cebpf4jnsgd1na2vs0mg"},{"bike_id":"18402065-9e87-476b-95ad-30853de181a0","system_id":"levelo_inurba_marseille","lat":43.324553,"lon":5.455546,"is_reserved":false,"is_disabled":false,"rental_uris":{"android":"levelo://app?vid=18402065-9e87-476b-95ad-30853de181a0","ios":"levelo://app?vid=18402065-9e87-476b-95ad-30853de181a0"},"vehicle_type_id":"4","last_reported":1730571036,"current_range_meters":6800,"station_id":"","pricing_plan_id":"cebpf4jnsgd1na2vs0mg"},{"bike_id":"d3b48aeb-c1cf-4bf7-8ef2-9301aeaa930d","system_id":"levelo_inurba_marseille","lat":43.29533,"lon":5.38543,"is_reserved":false,"is_disabled":false,"rental_uris":{"android":"levelo://app?vid=d3b48aeb-c1cf-4bf7-8ef2-9301aeaa930d","ios":"levelo://app?vid=d3b48aeb-c1cf-4bf7-8ef2-9301aeaa930d"},"vehicle_type_id":"4","last_reported":1730571036,"current_range_meters":38800,"station_id":"ce4bgih2rcd13ifvqba0","pricing_plan_id":"cebpf4jnsgd1na2vs0mg"},{"bike_id":"4eb01b0d-49fc-48ee-b782-54d621657f1b","system_id":"levelo_inurba_marseille","lat":43.31881,"lon":5.40752,"is_reserved":false,"is_disabled":false,"rental_uris":{"android":"levelo://app?vid=4eb01b0d-49fc-48ee-b782-54d621657f1b","ios":"levelo://app?vid=4eb01b0d-49fc-48ee-b782-54d621657f1b"},"vehicle_type_id":"4","last_reported":1730571036,"current_range_meters":34000,"station_id":"ce4bhq12rcd13ifvqhig","pricing_plan_id":"cebpf4jnsgd1na2vs0mg"},{"bike_id":"bbb2b4a1-f589-41be-9eb2-0aaa7cd666f8","system_id":"levelo_inurba_marseille","lat":43.2834,"lon":5.38109,"is_reserved":false,"is_disabled":false,"rental_uris":{"android":"levelo://app?vid=bbb2b4a1-f589-41be-9eb2-0aaa7cd666f8","ios":"levelo://app?vid=bbb2b4a1-f589-41be-9eb2-0aaa7cd666f8"},"vehicle_type_id":"4","last_reported":1730571036,"current_range_meters":15200,"station_id":"ce4bh412rcd13ifvqdr0","pricing_plan_id":"cebpf4jnsgd1na2vs0mg"},{"bike_id":"ff759631-9747-4e89-8485-4a4b07c62c2b","system_id":"levelo_inurba_marseille","lat":43.29416,"lon":5.38631,"is_reserved":false,"is_disabled":false,"rental_uris":{"android":"levelo://app?vid=ff759631-9747-4e89-8485-4a4b07c62c2b","ios":"levelo://app?vid=ff759631-9747-4e89-8485-4a4b07c62c2b"},"vehicle_type_id":"4","last_reported":1730571036,"current_range_meters":38800,"station_id":"ce4bh2h2rcd13ifvqdh0","pricing_plan_id":"cebpf4jnsgd1na2vs0mg"},{"bike_id":"f6214bbc-6c72-4e28-a254-217b0ad27b70","system_id":"levelo_inurba_marseille","lat":43.29028,"lon":5.37567,"is_reserved":false,"is_disabled":false,"rental_uris":{"android":"levelo://app?vid=f6214bbc-6c72-4e28-a254-217b0ad27b70","ios":"levelo://app?vid=f6214bbc-6c72-4e28-a254-217b0ad27b70"},"vehicle_type_id":"4","last_reported":1730571036,"current_range_meters":27600,"station_id":"ce4bh692rcd13ifvqe90","pricing_plan_id":"cebpf4jnsgd1na2vs0mg"},{"bike_id":"9f3178e5-569d-4c41-89b0-b8d0ab45dbf4","system_id":"levelo_inurba_marseille","lat":43.31885,"lon":5.40734,"is_reserved":false,"is_disabled":false,"rental_uris":{"android":"levelo://app?vid=9f3178e5-569d-4c41-89b0-b8d0ab45dbf4","ios":"levelo://app?vid=9f3178e5-569d-4c41-89b0-b8d0ab45dbf4"},"vehicle_type_id":"4","last_reported":1730571036,"current_range_meters":30800,"station_id":"ce4bhq12rcd13ifvqhig","pricing_plan_id":"cebpf4jnsgd1na2vs0mg"},{"bike_id":"c7a6a60a-ebc3-43dc-847c-5817f23f3b49","system_id":"levelo_inurba_marseille","lat":43.2573,"lon":5.4111,"is_reserved":false,"is_disabled":false,"rental_uris":{"android":"levelo://app?vid=c7a6a60a-ebc3-43dc-847c-5817f23f3b49","ios":"levelo://app?vid=c7a6a60a-ebc3-43dc-847c-5817f23f3b49"},"vehicle_type_id":"4","last_reported":1730571036,"current_range_meters":9600,"station_id":"ce4bhkp2rcd13ifvqgd0","pricing_plan_id":"cebpf4jnsgd1na2vs0mg"},{"bike_id":"e5a9811c-de3a-4bbd-8867-e3861356f776","system_id":"levelo_inurba_marseille","lat":43.29263,"lon":5.38441,"is_reserved":false,"is_disabled":false,"rental_uris":{"android":"levelo://app?vid=e5a9811c-de3a-4bbd-8867-e3861356f776","ios":"levelo://app?vid=e5a9811c-de3a-4bbd-8867-e3861356f776"},"vehicle_type_id":"4","last_reported":1730571036,"current_range_meters":20400,"station_id":"ce4bh692rcd13ifvqea0","pricing_plan_id":"cebpf4jnsgd1na2vs0mg"},{"bike_id":"221c870d-c100-46ac-90b1-be57e7d6172b","system_id":"levelo_inurba_marseille","lat":43.31482,"lon":5.3732,"is_reserved":false,"is_disabled":false,"rental_uris":{"android":"levelo://app?vid=221c870d-c100-46ac-90b1-be57e7d6172b","ios":"levelo://app?vid=221c870d-c100-46ac-90b1-be57e7d6172b"},"vehicle_type_id":"4","last_reported":1730571036,"current_range_meters":16800,"station_id":"ce4bgt12rcd13ifvqcd0","pricing_plan_id":"cebpf4jnsgd1na2vs0mg"},{"bike_id":"588bafa0-d44c-4bba-bd53-7924778d3628","system_id":"levelo_inurba_marseille","lat":43.31114,"lon":5.37777,"is_reserved":false,"is_disabled":false,"rental_uris":{"android":"levelo://app?vid=588bafa0-d44c-4bba-bd53-7924778d3628","ios":"levelo://app?vid=588bafa0-d44c-4bba-bd53-7924778d3628"},"vehicle_type_id":"4","last_reported":1730571036,"current_range_meters":38800,"station_id":"ce4bgt92rcd13ifvqcg0","pricing_plan_id":"cebpf4jnsgd1na2vs0mg"},{"bike_id":"d6eb3b25-8ab9-448f-b9dd-ee16641e0bb8","system_id":"levelo_inurba_marseille","lat":43.255005,"lon":5.376512,"is_reserved":false,"is_disabled":false,"rental_uris":{"android":"levelo://app?vid=d6eb3b25-8ab9-448f-b9dd-ee16641e0bb8","ios":"levelo://app?vid=d6eb3b25-8ab9-448f-b9dd-ee16641e0bb8"},"vehicle_type_id":"4","last_reported":1730571036,"current_range_meters":33600,"station_id":"ce4bhh12rcd13ifvqff0","pricing_plan_id":"cebpf4jnsgd1na2vs0mg"},{"bike_id":"b41eb058-86e2-49f3-9c46-c24cf570c28c","system_id":"levelo_inurba_marseille","lat":43.27319,"lon":5.39075,"is_reserved":false,"is_disabled":false,"rental_uris":{"android":"levelo://app?vid=b41eb058-86e2-49f3-9c46-c24cf570c28c","ios":"levelo://app?vid=b41eb058-86e2-49f3-9c46-c24cf570c28c"},"vehicle_type_id":"4","last_reported":1730571036,"current_range_meters":38800,"station_id":"ce4bhgp2rcd13ifvqfe0","pricing_plan_id":"cebpf4jnsgd1na2vs0mg"},{"bike_id":"e4076913-25a7-4304-83b4-9b1933c6ed9b","system_id":"levelo_inurba_marseille","lat":43.27995,"lon":5.40011,"is_reserved":false,"is_disabled":false,"rental_uris":{"android":"levelo://app?vid=e4076913-25a7-4304-83b4-9b1933c6ed9b","ios":"levelo://app?vid=e4076913-25a7-4304-83b4-9b1933c6ed9b"},"vehicle_type_id":"4","last_reported":1730571036,"current_range_meters":38800,"station_id":"ce4bho92rcd13ifvqh4g","pricing_plan_id":"cebpf4jnsgd1na2vs0mg"},{"bike_id":"410db8ae-ae23-44af-9a18-6ab475466e9f","system_id":"levelo_inurba_marseille","lat":43.24669,"lon":5.38159,"is_reserved":false,"is_disabled":false,"rental_uris":{"android":"levelo://app?vid=410db8ae-ae23-44af-9a18-6ab475466e9f","ios":"levelo://app?vid=410db8ae-ae23-44af-9a18-6ab475466e9f"},"vehicle_type_id":"4","last_reported":1730571036,"current_range_meters":38000,"station_id":"ce4bhih2rcd13ifvqfr0","pricing_plan_id":"cebpf4jnsgd1na2vs0mg"},{"bike_id":"37e8116d-61b2-4d95-aee4-ceda3fc29fa0","system_id":"levelo_inurba_marseille","lat":43.29031,"lon":5.3814,"is_reserved":false,"is_disabled":false,"rental_uris":{"android":"levelo://app?vid=37e8116d-61b2-4d95-aee4-ceda3fc29fa0","ios":"levelo://app?vid=37e8116d-61b2-4d95-aee4-ceda3fc29fa0"},"vehicle_type_id":"4","last_reported":1730571036,"current_range_meters":9200,"station_id":"ce4bh4p2rcd13ifvqe1g","pricing_plan_id":"cebpf4jnsgd1na2vs0mg"},{"bike_id":"9012f2f0-8f36-4c47-a32c-a040420c4193","system_id":"levelo_inurba_marseille","lat":43.29554,"lon":5.423,"is_reserved":false,"is_disabled":false,"rental_uris":{"android":"levelo://app?vid=9012f2f0-8f36-4c47-a32c-a040420c4193","ios":"levelo://app?vid=9012f2f0-8f36-4c47-a32c-a040420c4193"},"vehicle_type_id":"4","last_reported":1730571036,"current_range_meters":12800,"station_id":"ce4bhph2rcd13ifvqhdg","pricing_plan_id":"cebpf4jnsgd1na2vs0mg"},{"bike_id":"29b0470a-c2e6-4094-921a-5acb4d29d1c5","system_id":"levelo_inurba_marseille","lat":43.26938,"lon":5.40256,"is_reserved":false,"is_disabled":false,"rental_uris":{"android":"levelo://app?vid=29b0470a-c2e6-4094-921a-5acb4d29d1c5","ios":"levelo://app?vid=29b0470a-c2e6-4094-921a-5acb4d29d1c5"},"vehicle_type_id":"4","last_reported":1730571036,"current_range_meters":37600,"station_id":"cjm6bp8fraef2m0cb0m0","pricing_plan_id":"cebpf4jnsgd1na2vs0mg"},{"bike_id":"33133a34-5d5e-47ac-97b7-616ff4bbc04e","system_id":"levelo_inurba_marseille","lat":43.22929,"lon":5.35377,"is_reserved":false,"is_disabled":false,"rental_uris":{"android":"levelo://app?vid=33133a34-5d5e-47ac-97b7-616ff4bbc04e","ios":"levelo://app?vid=33133a34-5d5e-47ac-97b7-616ff4bbc04e"},"vehicle_type_id":"4","last_reported":1730571036,"current_range_meters":7200,"station_id":"cpo3532slgdg3j2ikp40","pricing_plan_id":"cebpf4jnsgd1na2vs0mg"},{"bike_id":"e74f712e-8cad-4a9d-9601-4cfc15e43810","system_id":"levelo_inurba_marseille","lat":43.27177,"lon":5.41002,"is_reserved":false,"is_disabled":false,"rental_uris":{"android":"levelo://app?vid=e74f712e-8cad-4a9d-9601-4cfc15e43810","ios":"levelo://app?vid=e74f712e-8cad-4a9d-9601-4cfc15e43810"},"vehicle_type_id":"4","last_reported":1730571036,"current_range_meters":8400,"station_id":"ce4bhl12rcd13ifvqgf0","pricing_plan_id":"cebpf4jnsgd1na2vs0mg"},{"bike_id":"f21daf47-e57c-4ad7-b541-3e7e72a91f8f","system_id":"levelo_inurba_marseille","lat":43.25811,"lon":5.39434,"is_reserved":false,"is_disabled":false,"rental_uris":{"android":"levelo://app?vid=f21daf47-e57c-4ad7-b541-3e7e72a91f8f","ios":"levelo://app?vid=f21daf47-e57c-4ad7-b541-3e7e72a91f8f"},"vehicle_type_id":"4","last_reported":1730571036,"current_range_meters":37600,"station_id":"ce4bhip2rcd13ifvqft0","pricing_plan_id":"cebpf4jnsgd1na2vs0mg"},{"bike_id":"9ce667e2-8e27-4ca7-abe0-003bee27eccd","system_id":"levelo_inurba_marseille","lat":43.30127,"lon":5.39881,"is_reserved":false,"is_disabled":false,"rental_uris":{"android":"levelo://app?vid=9ce667e2-8e27-4ca7-abe0-003bee27eccd","ios":"levelo://app?vid=9ce667e2-8e27-4ca7-abe0-003bee27eccd"},"vehicle_type_id":"4","last_reported":1730571036,"current_range_meters":38400,"station_id":"ce4bh0h2rcd13ifvqd40","pricing_plan_id":"cebpf4jnsgd1na2vs0mg"},{"bike_id":"b9c605ab-d847-4d81-a947-5a3aa7b39be1","system_id":"levelo_inurba_marseille","lat":43.29884,"lon":5.38911,"is_reserved":false,"is_disabled":false,"rental_uris":{"android":"levelo://app?vid=b9c605ab-d847-4d81-a947-5a3aa7b39be1","ios":"levelo://app?vid=b9c605ab-d847-4d81-a947-5a3aa7b39be1"},"vehicle_type_id":"4","last_reported":1730571036,"current_range_meters":32400,"station_id":"ce4bh392rcd13ifvqdl0","pricing_plan_id":"cebpf4jnsgd1na2vs0mg"},{"bike_id":"5bdb306f-48ba-46e3-9aac-130af40b56a9","system_id":"levelo_inurba_marseille","lat":43.29415,"lon":5.38623,"is_reserved":false,"is_disabled":false,"rental_uris":{"android":"levelo://app?vid=5bdb306f-48ba-46e3-9aac-130af40b56a9","ios":"levelo://app?vid=5bdb306f-48ba-46e3-9aac-130af40b56a9"},"vehicle_type_id":"4","last_reported":1730571036,"current_range_meters":3600,"station_id":"ce4bh2h2rcd13ifvqdh0","pricing_plan_id":"cebpf4jnsgd1na2vs0mg"},{"bike_id":"631b7075-137a-4ae3-a6c3-e104f00b6db4","system_id":"levelo_inurba_marseille","lat":43.28041,"lon":5.36942,"is_reserved":false,"is_disabled":false,"rental_uris":{"android":"levelo://app?vid=631b7075-137a-4ae3-a6c3-e104f00b6db4","ios":"levelo://app?vid=631b7075-137a-4ae3-a6c3-e104f00b6db4"},"vehicle_type_id":"4","last_reported":1730571036,"current_range_meters":24000,"station_id":"ce4bha12rcd13ifvqef0","pricing_plan_id":"cebpf4jnsgd1na2vs0mg"},{"bike_id":"d9cbb281-ffd8-4354-9a7c-6649602c0ca9","system_id":"levelo_inurba_marseille","lat":43.30887,"lon":5.37201,"is_reserved":false,"is_disabled":false,"rental_uris":{"android":"levelo://app?vid=d9cbb281-ffd8-4354-9a7c-6649602c0ca9","ios":"levelo://app?vid=d9cbb281-ffd8-4354-9a7c-6649602c0ca9"},"vehicle_type_id":"4","last_reported":1730571036,"current_range_meters":34800,"station_id":"ce4bguh2rcd13ifvqckg","pricing_plan_id":"cebpf4jnsgd1na2vs0mg"},{"bike_id":"194f0adf-59c7-4890-9347-25cdcdec4681","system_id":"levelo_inurba_marseille","lat":43.286072,"lon":5.370624,"is_reserved":false,"is_disabled":false,"rental_uris":{"android":"levelo://app?vid=194f0adf-59c7-4890-9347-25cdcdec4681","ios":"levelo://app?vid=194f0adf-59c7-4890-9347-25cdcdec4681"},"vehicle_type_id":"4","last_reported":1730571036,"current_range_meters":34000,"station_id":"ce4bht12rcd13ifvqi60","pricing_plan_id":"cebpf4jnsgd1na2vs0mg"},{"bike_id":"8c67d340-801d-46e5-b910-2f8aff3ff078","system_id":"levelo_inurba_marseille","lat":43.33334,"lon":5.37064,"is_reserved":false,"is_disabled":false,"rental_uris":{"android":"levelo://app?vid=8c67d340-801d-46e5-b910-2f8aff3ff078","ios":"levelo://app?vid=8c67d340-801d-46e5-b910-2f8aff3ff078"},"vehicle_type_id":"4","last_reported":1730571036,"current_range_meters":9200,"station_id":"","pricing_plan_id":"cebpf4jnsgd1na2vs0mg"},{"bike_id":"481ceb50-3bb5-46d3-937f-6af1106fbe35","system_id":"levelo_inurba_marseille","lat":43.24662,"lon":5.38165,"is_reserved":false,"is_disabled":false,"rental_uris":{"android":"levelo://app?vid=481ceb50-3bb5-46d3-937f-6af1106fbe35","ios":"levelo://app?vid=481ceb50-3bb5-46d3-937f-6af1106fbe35"},"vehicle_type_id":"4","last_reported":1730571036,"current_range_meters":38800,"station_id":"ce4bhih2rcd13ifvqfr0","pricing_plan_id":"cebpf4jnsgd1na2vs0mg"},{"bike_id":"33c763d8-82be-43a4-94aa-f6383500654f","system_id":"levelo_inurba_marseille","lat":43.29072,"lon":5.37162,"is_reserved":false,"is_disabled":false,"rental_uris":{"android":"levelo://app?vid=33c763d8-82be-43a4-94aa-f6383500654f","ios":"levelo://app?vid=33c763d8-82be-43a4-94aa-f6383500654f"},"vehicle_type_id":"4","last_reported":1730571036,"current_range_meters":32000,"station_id":"ce4bh5p2rcd13ifvqe4g","pricing_plan_id":"cebpf4jnsgd1na2vs0mg"},{"bike_id":"14380fd0-6bd6-4af1-957a-003ad4ef5118","system_id":"levelo_inurba_marseille","lat":43.30134,"lon":5.39874,"is_reserved":false,"is_disabled":false,"rental_uris":{"android":"levelo://app?vid=14380fd0-6bd6-4af1-957a-003ad4ef5118","ios":"levelo://app?vid=14380fd0-6bd6-4af1-957a-003ad4ef5118"},"vehicle_type_id":"4","last_reported":1730571036,"current_range_meters":12000,"station_id":"ce4bh0h2rcd13ifvqd40","pricing_plan_id":"cebpf4jnsgd1na2vs0mg"},{"bike_id":"3cecfd6d-bd24-4212-b339-944e6377506e","system_id":"levelo_inurba_marseille","lat":43.31689,"lon":5.40477,"is_reserved":false,"is_disabled":false,"rental_uris":{"android":"levelo://app?vid=3cecfd6d-bd24-4212-b339-944e6377506e","ios":"levelo://app?vid=3cecfd6d-bd24-4212-b339-944e6377506e"},"vehicle_type_id":"4","last_reported":1730571036,"current_range_meters":10000,"station_id":"ce4bh012rcd13ifvqd00","pricing_plan_id":"cebpf4jnsgd1na2vs0mg"},{"bike_id":"19e6008c-0743-45ac-b4bf-fc683ef0e14c","system_id":"levelo_inurba_marseille","lat":43.25726,"lon":5.4112,"is_reserved":false,"is_disabled":false,"rental_uris":{"android":"levelo://app?vid=19e6008c-0743-45ac-b4bf-fc683ef0e14c","ios":"levelo://app?vid=19e6008c-0743-45ac-b4bf-fc683ef0e14c"},"vehicle_type_id":"4","last_reported":1730571036,"current_range_meters":24800,"station_id":"ce4bhkp2rcd13ifvqgd0","pricing_plan_id":"cebpf4jnsgd1na2vs0mg"},{"bike_id":"a4297194-1266-4a1f-9f51-dc9850ceeb77","system_id":"levelo_inurba_marseille","lat":43.29262,"lon":5.38435,"is_reserved":false,"is_disabled":false,"rental_uris":{"android":"levelo://app?vid=a4297194-1266-4a1f-9f51-dc9850ceeb77","ios":"levelo://app?vid=a4297194-1266-4a1f-9f51-dc9850ceeb77"},"vehicle_type_id":"4","last_reported":1730571036,"current_range_meters":36400,"station_id":"ce4bh692rcd13ifvqea0","pricing_plan_id":"cebpf4jnsgd1na2vs0mg"},{"bike_id":"a93c236a-7c64-4cfc-8060-bc9296e0086e","system_id":"levelo_inurba_marseille","lat":43.29423,"lon":5.38621,"is_reserved":false,"is_disabled":false,"rental_uris":{"android":"levelo://app?vid=a93c236a-7c64-4cfc-8060-bc9296e0086e","ios":"levelo://app?vid=a93c236a-7c64-4cfc-8060-bc9296e0086e"},"vehicle_type_id":"4","last_reported":1730571036,"current_range_meters":24800,"station_id":"ce4bh2h2rcd13ifvqdh0","pricing_plan_id":"cebpf4jnsgd1na2vs0mg"},{"bike_id":"e31e72e3-4dee-45ce-ac45-ebfad99d99aa","system_id":"levelo_inurba_marseille","lat":43.28404,"lon":5.37519,"is_reserved":false,"is_disabled":false,"rental_uris":{"android":"levelo://app?vid=e31e72e3-4dee-45ce-ac45-ebfad99d99aa","ios":"levelo://app?vid=e31e72e3-4dee-45ce-ac45-ebfad99d99aa"},"vehicle_type_id":"4","last_reported":1730571036,"current_range_meters":23200,"station_id":"ce4bh412rcd13ifvqds0","pricing_plan_id":"cebpf4jnsgd1na2vs0mg"},{"bike_id":"a4f3ad02-3bc0-48b1-8331-dadf6f45d9e4","system_id":"levelo_inurba_marseille","lat":43.28673,"lon":5.38669,"is_reserved":false,"is_disabled":false,"rental_uris":{"android":"levelo://app?vid=a4f3ad02-3bc0-48b1-8331-dadf6f45d9e4","ios":"levelo://app?vid=a4f3ad02-3bc0-48b1-8331-dadf6f45d9e4"},"vehicle_type_id":"4","last_reported":1730571036,"current_range_meters":38800,"station_id":"ce4bh492rcd13ifvqdug","pricing_plan_id":"cebpf4jnsgd1na2vs0mg"},{"bike_id":"7cdaaf93-26a0-4c99-b709-878759eb8ada","system_id":"levelo_inurba_marseille","lat":43.30296,"lon":5.39217,"is_reserved":false,"is_disabled":false,"rental_uris":{"android":"levelo://app?vid=7cdaaf93-26a0-4c99-b709-878759eb8ada","ios":"levelo://app?vid=7cdaaf93-26a0-4c99-b709-878759eb8ada"},"vehicle_type_id":"4","last_reported":1730571036,"current_range_meters":38000,"station_id":"ce4bgkh2rcd13ifvqbk0","pricing_plan_id":"cebpf4jnsgd1na2vs0mg"},{"bike_id":"9f176231-d37b-4c06-9ab3-4b630d7ab80a","system_id":"levelo_inurba_marseille","lat":43.29029,"lon":5.38647,"is_reserved":false,"is_disabled":false,"rental_uris":{"android":"levelo://app?vid=9f176231-d37b-4c06-9ab3-4b630d7ab80a","ios":"levelo://app?vid=9f176231-d37b-4c06-9ab3-4b630d7ab80a"},"vehicle_type_id":"4","last_reported":1730571036,"current_range_meters":5600,"station_id":"ce4bh4p2rcd13ifvqe0g","pricing_plan_id":"cebpf4jnsgd1na2vs0mg"},{"bike_id":"dc22685d-d249-444b-82b0-9aab6f239bc9","system_id":"levelo_inurba_marseille","lat":43.28719,"lon":5.36096,"is_reserved":false,"is_disabled":false,"rental_uris":{"android":"levelo://app?vid=dc22685d-d249-444b-82b0-9aab6f239bc9","ios":"levelo://app?vid=dc22685d-d249-444b-82b0-9aab6f239bc9"},"vehicle_type_id":"4","last_reported":1730571036,"current_range_meters":28800,"station_id":"cki0cbj6b192h4jlfktg","pricing_plan_id":"cebpf4jnsgd1na2vs0mg"},{"bike_id":"70b0cfe0-5ebd-452c-a7e3-6af013d3e8b7","system_id":"levelo_inurba_marseille","lat":43.26947,"lon":5.40246,"is_reserved":false,"is_disabled":false,"rental_uris":{"android":"levelo://app?vid=70b0cfe0-5ebd-452c-a7e3-6af013d3e8b7","ios":"levelo://app?vid=70b0cfe0-5ebd-452c-a7e3-6af013d3e8b7"},"vehicle_type_id":"4","last_reported":1730571036,"current_range_meters":35600,"station_id":"cjm6bp8fraef2m0cb0m0","pricing_plan_id":"cebpf4jnsgd1na2vs0mg"},{"bike_id":"f7433f79-d8b6-4068-99d2-096c7b29e49c","system_id":"levelo_inurba_marseille","lat":43.28487,"lon":5.38568,"is_reserved":false,"is_disabled":false,"rental_uris":{"android":"levelo://app?vid=f7433f79-d8b6-4068-99d2-096c7b29e49c","ios":"levelo://app?vid=f7433f79-d8b6-4068-99d2-096c7b29e49c"},"vehicle_type_id":"4","last_reported":1730571036,"current_range_meters":8000,"station_id":"ce4bh8p2rcd13ifvqeb0","pricing_plan_id":"cebpf4jnsgd1na2vs0mg"},{"bike_id":"7dfac259-0d7a-4851-8dc1-10e4ad4823d3","system_id":"levelo_inurba_marseille","lat":43.29733,"lon":5.37169,"is_reserved":false,"is_disabled":false,"rental_uris":{"android":"levelo://app?vid=7dfac259-0d7a-4851-8dc1-10e4ad4823d3","ios":"levelo://app?vid=7dfac259-0d7a-4851-8dc1-10e4ad4823d3"},"vehicle_type_id":"4","last_reported":1730571036,"current_range_meters":8800,"station_id":"","pricing_plan_id":"cebpf4jnsgd1na2vs0mg"},{"bike_id":"a75b255f-4e05-42a4-9a89-311eace0ad88","system_id":"levelo_inurba_marseille","lat":43.297736,"lon":5.393347,"is_reserved":false,"is_disabled":false,"rental_uris":{"android":"levelo://app?vid=a75b255f-4e05-42a4-9a89-311eace0ad88","ios":"levelo://app?vid=a75b255f-4e05-42a4-9a89-311eace0ad88"},"vehicle_type_id":"4","last_reported":1730571036,"current_range_meters":11600,"station_id":"chh1huq6cuj3fo74tm60","pricing_plan_id":"cebpf4jnsgd1na2vs0mg"},{"bike_id":"c45bf95e-28b1-42f0-bd82-40d8a1a09e86","system_id":"levelo_inurba_marseille","lat":43.29423,"lon":5.38625,"is_reserved":false,"is_disabled":false,"rental_uris":{"android":"levelo://app?vid=c45bf95e-28b1-42f0-bd82-40d8a1a09e86","ios":"levelo://app?vid=c45bf95e-28b1-42f0-bd82-40d8a1a09e86"},"vehicle_type_id":"4","last_reported":1730571036,"current_range_meters":26800,"station_id":"ce4bh2h2rcd13ifvqdh0","pricing_plan_id":"cebpf4jnsgd1na2vs0mg"},{"bike_id":"fbdc5e8c-e6c1-4bbf-a78a-28ff7f144605","system_id":"levelo_inurba_marseille","lat":43.30093,"lon":5.39081,"is_reserved":false,"is_disabled":false,"rental_uris":{"android":"levelo://app?vid=fbdc5e8c-e6c1-4bbf-a78a-28ff7f144605","ios":"levelo://app?vid=fbdc5e8c-e6c1-4bbf-a78a-28ff7f144605"},"vehicle_type_id":"4","last_reported":1730571036,"current_range_meters":16000,"station_id":"ce4bh192rcd13ifvqdb0","pricing_plan_id":"cebpf4jnsgd1na2vs0mg"},{"bike_id":"709e6e8d-5cda-4806-add4-408e003300b8","system_id":"levelo_inurba_marseille","lat":43.28981,"lon":5.37833,"is_reserved":false,"is_disabled":false,"rental_uris":{"android":"levelo://app?vid=709e6e8d-5cda-4806-add4-408e003300b8","ios":"levelo://app?vid=709e6e8d-5cda-4806-add4-408e003300b8"},"vehicle_type_id":"4","last_reported":1730571036,"current_range_meters":38800,"station_id":"ce4bh9p2rcd13ifvqed0","pricing_plan_id":"cebpf4jnsgd1na2vs0mg"},{"bike_id":"fac07fca-53b2-43df-92dd-ea955a9c8337","system_id":"levelo_inurba_marseille","lat":43.29977,"lon":5.3849,"is_reserved":false,"is_disabled":false,"rental_uris":{"android":"levelo://app?vid=fac07fca-53b2-43df-92dd-ea955a9c8337","ios":"levelo://app?vid=fac07fca-53b2-43df-92dd-ea955a9c8337"},"vehicle_type_id":"4","last_reported":1730571036,"current_range_meters":38800,"station_id":"ce4bgj92rcd13ifvqbd0","pricing_plan_id":"cebpf4jnsgd1na2vs0mg"},{"bike_id":"b1baaa6e-6582-4dfa-91cf-8476f4c2ea9b","system_id":"levelo_inurba_marseille","lat":43.29789,"lon":5.38116,"is_reserved":false,"is_disabled":false,"rental_uris":{"android":"levelo://app?vid=b1baaa6e-6582-4dfa-91cf-8476f4c2ea9b","ios":"levelo://app?vid=b1baaa6e-6582-4dfa-91cf-8476f4c2ea9b"},"vehicle_type_id":"4","last_reported":1730571036,"current_range_meters":38400,"station_id":"ce4bgip2rcd13ifvqbb0","pricing_plan_id":"cebpf4jnsgd1na2vs0mg"},{"bike_id":"aea6877e-7988-4006-87d7-08a72f9d3a89","system_id":"levelo_inurba_marseille","lat":43.29528,"lon":5.38536,"is_reserved":false,"is_disabled":false,"rental_uris":{"android":"levelo://app?vid=aea6877e-7988-4006-87d7-08a72f9d3a89","ios":"levelo://app?vid=aea6877e-7988-4006-87d7-08a72f9d3a89"},"vehicle_type_id":"4","last_reported":1730571036,"current_range_meters":30800,"station_id":"ce4bgih2rcd13ifvqba0","pricing_plan_id":"cebpf4jnsgd1na2vs0mg"},{"bike_id":"0377cd1f-1518-4404-adb5-21adee704d63","system_id":"levelo_inurba_marseille","lat":43.29276,"lon":5.36845,"is_reserved":false,"is_disabled":false,"rental_uris":{"android":"levelo://app?vid=0377cd1f-1518-4404-adb5-21adee704d63","ios":"levelo://app?vid=0377cd1f-1518-4404-adb5-21adee704d63"},"vehicle_type_id":"4","last_reported":1730571036,"current_range_meters":38800,"station_id":"ce4bhbp2rcd13ifvqesg","pricing_plan_id":"cebpf4jnsgd1na2vs0mg"},{"bike_id":"f80f9110-9afe-45d8-abd4-e3b7468afad9","system_id":"levelo_inurba_marseille","lat":43.30785,"lon":5.37645,"is_reserved":false,"is_disabled":false,"rental_uris":{"android":"levelo://app?vid=f80f9110-9afe-45d8-abd4-e3b7468afad9","ios":"levelo://app?vid=f80f9110-9afe-45d8-abd4-e3b7468afad9"},"vehicle_type_id":"4","last_reported":1730571036,"current_range_meters":36800,"station_id":"ce4bgv92rcd13ifvqcq0","pricing_plan_id":"cebpf4jnsgd1na2vs0mg"},{"bike_id":"0d78d528-780e-44a6-92e7-8fe4a22b58c1","system_id":"levelo_inurba_marseille","lat":43.29263,"lon":5.38443,"is_reserved":false,"is_disabled":false,"rental_uris":{"android":"levelo://app?vid=0d78d528-780e-44a6-92e7-8fe4a22b58c1","ios":"levelo://app?vid=0d78d528-780e-44a6-92e7-8fe4a22b58c1"},"vehicle_type_id":"4","last_reported":1730571036,"current_range_meters":9200,"station_id":"ce4bh692rcd13ifvqea0","pricing_plan_id":"cebpf4jnsgd1na2vs0mg"},{"bike_id":"9214e783-07b0-456b-ba39-f3ff58983312","system_id":"levelo_inurba_marseille","lat":43.29963,"lon":5.38504,"is_reserved":false,"is_disabled":false,"rental_uris":{"android":"levelo://app?vid=9214e783-07b0-456b-ba39-f3ff58983312","ios":"levelo://app?vid=9214e783-07b0-456b-ba39-f3ff58983312"},"vehicle_type_id":"4","last_reported":1730571036,"current_range_meters":35200,"station_id":"ce4bgj92rcd13ifvqbd0","pricing_plan_id":"cebpf4jnsgd1na2vs0mg"},{"bike_id":"34500b6c-77bc-4857-92a5-400b769515d3","system_id":"levelo_inurba_marseille","lat":43.29294,"lon":5.37465,"is_reserved":false,"is_disabled":false,"rental_uris":{"android":"levelo://app?vid=34500b6c-77bc-4857-92a5-400b769515d3","ios":"levelo://app?vid=34500b6c-77bc-4857-92a5-400b769515d3"},"vehicle_type_id":"4","last_reported":1730571036,"current_range_meters":27200,"station_id":"ce4bgi12rcd13ifvqb70","pricing_plan_id":"cebpf4jnsgd1na2vs0mg"},{"bike_id":"b27b6b18-d801-4b0b-a4e3-bc55bc4a9aed","system_id":"levelo_inurba_marseille","lat":43.25721,"lon":5.41115,"is_reserved":false,"is_disabled":false,"rental_uris":{"android":"levelo://app?vid=b27b6b18-d801-4b0b-a4e3-bc55bc4a9aed","ios":"levelo://app?vid=b27b6b18-d801-4b0b-a4e3-bc55bc4a9aed"},"vehicle_type_id":"4","last_reported":1730571036,"current_range_meters":36800,"station_id":"ce4bhkp2rcd13ifvqgd0","pricing_plan_id":"cebpf4jnsgd1na2vs0mg"},{"bike_id":"bf4fc4b0-da91-4001-b8c3-8696ff4892a9","system_id":"levelo_inurba_marseille","lat":43.298907,"lon":5.388967,"is_reserved":false,"is_disabled":false,"rental_uris":{"android":"levelo://app?vid=bf4fc4b0-da91-4001-b8c3-8696ff4892a9","ios":"levelo://app?vid=bf4fc4b0-da91-4001-b8c3-8696ff4892a9"},"vehicle_type_id":"4","last_reported":1730571036,"current_range_meters":36000,"station_id":"ce4bh392rcd13ifvqdl0","pricing_plan_id":"cebpf4jnsgd1na2vs0mg"},{"bike_id":"3b49d7b0-a603-4319-956e-55d655494b83","system_id":"levelo_inurba_marseille","lat":43.30431,"lon":5.38894,"is_reserved":false,"is_disabled":false,"rental_uris":{"android":"levelo://app?vid=3b49d7b0-a603-4319-956e-55d655494b83","ios":"levelo://app?vid=3b49d7b0-a603-4319-956e-55d655494b83"},"vehicle_type_id":"4","last_reported":1730571036,"current_range_meters":33600,"station_id":"ce4bgk12rcd13ifvqbi0","pricing_plan_id":"cebpf4jnsgd1na2vs0mg"},{"bike_id":"f58456e3-7a9e-4429-90f3-eefd70581764","system_id":"levelo_inurba_marseille","lat":43.29524,"lon":5.38554,"is_reserved":false,"is_disabled":false,"rental_uris":{"android":"levelo://app?vid=f58456e3-7a9e-4429-90f3-eefd70581764","ios":"levelo://app?vid=f58456e3-7a9e-4429-90f3-eefd70581764"},"vehicle_type_id":"4","last_reported":1730571036,"current_range_meters":9600,"station_id":"ce4bgih2rcd13ifvqba0","pricing_plan_id":"cebpf4jnsgd1na2vs0mg"},{"bike_id":"a78ad5b3-310a-46fa-8498-582cf2a0a9dc","system_id":"levelo_inurba_marseille","lat":43.291984,"lon":5.357968,"is_reserved":false,"is_disabled":false,"rental_uris":{"android":"levelo://app?vid=a78ad5b3-310a-46fa-8498-582cf2a0a9dc","ios":"levelo://app?vid=a78ad5b3-310a-46fa-8498-582cf2a0a9dc"},"vehicle_type_id":"4","last_reported":1730571036,"current_range_meters":24000,"station_id":"ce4bhb12rcd13ifvqel0","pricing_plan_id":"cebpf4jnsgd1na2vs0mg"},{"bike_id":"3392ced6-c439-4b12-afb8-5665ace49ebd","system_id":"levelo_inurba_marseille","lat":43.29876,"lon":5.38913,"is_reserved":false,"is_disabled":false,"rental_uris":{"android":"levelo://app?vid=3392ced6-c439-4b12-afb8-5665ace49ebd","ios":"levelo://app?vid=3392ced6-c439-4b12-afb8-5665ace49ebd"},"vehicle_type_id":"4","last_reported":1730571036,"current_range_meters":24000,"station_id":"ce4bh392rcd13ifvqdl0","pricing_plan_id":"cebpf4jnsgd1na2vs0mg"},{"bike_id":"87d02c11-da85-418b-bd83-e38accdc20fd","system_id":"levelo_inurba_marseille","lat":43.31274,"lon":5.4017,"is_reserved":false,"is_disabled":false,"rental_uris":{"android":"levelo://app?vid=87d02c11-da85-418b-bd83-e38accdc20fd","ios":"levelo://app?vid=87d02c11-da85-418b-bd83-e38accdc20fd"},"vehicle_type_id":"4","last_reported":1730571036,"current_range_meters":8000,"station_id":"ce4bh092rcd13ifvqd30","pricing_plan_id":"cebpf4jnsgd1na2vs0mg"},{"bike_id":"4aebfd89-0878-4870-884a-fcc29bc1a335","system_id":"levelo_inurba_marseille","lat":43.28453,"lon":5.35886,"is_reserved":false,"is_disabled":false,"rental_uris":{"android":"levelo://app?vid=4aebfd89-0878-4870-884a-fcc29bc1a335","ios":"levelo://app?vid=4aebfd89-0878-4870-884a-fcc29bc1a335"},"vehicle_type_id":"4","last_reported":1730571036,"current_range_meters":30400,"station_id":"ce4bhah2rcd13ifvqei0","pricing_plan_id":"cebpf4jnsgd1na2vs0mg"},{"bike_id":"e37dc032-51e5-458e-af07-871188816454","system_id":"levelo_inurba_marseille","lat":43.29982,"lon":5.38485,"is_reserved":false,"is_disabled":false,"rental_uris":{"android":"levelo://app?vid=e37dc032-51e5-458e-af07-871188816454","ios":"levelo://app?vid=e37dc032-51e5-458e-af07-871188816454"},"vehicle_type_id":"4","last_reported":1730571036,"current_range_meters":31200,"station_id":"ce4bgj92rcd13ifvqbd0","pricing_plan_id":"cebpf4jnsgd1na2vs0mg"},{"bike_id":"401f7cd2-0424-4fd3-9888-0bb3c7ec40b1","system_id":"levelo_inurba_marseille","lat":43.30304,"lon":5.39216,"is_reserved":false,"is_disabled":false,"rental_uris":{"android":"levelo://app?vid=401f7cd2-0424-4fd3-9888-0bb3c7ec40b1","ios":"levelo://app?vid=401f7cd2-0424-4fd3-9888-0bb3c7ec40b1"},"vehicle_type_id":"4","last_reported":1730571036,"current_range_meters":12400,"station_id":"ce4bgkh2rcd13ifvqbk0","pricing_plan_id":"cebpf4jnsgd1na2vs0mg"},{"bike_id":"ac6e4d7c-4cf4-4233-aca4-0f9953ecb824","system_id":"levelo_inurba_marseille","lat":43.31996,"lon":5.38166,"is_reserved":false,"is_disabled":false,"rental_uris":{"android":"levelo://app?vid=ac6e4d7c-4cf4-4233-aca4-0f9953ecb824","ios":"levelo://app?vid=ac6e4d7c-4cf4-4233-aca4-0f9953ecb824"},"vehicle_type_id":"4","last_reported":1730571036,"current_range_meters":18000,"station_id":"ce4bhr12rcd13ifvqhpg","pricing_plan_id":"cebpf4jnsgd1na2vs0mg"},{"bike_id":"a51a6045-af40-4f2c-aeea-1a8026b305ef","system_id":"levelo_inurba_marseille","lat":43.28484,"lon":5.38424,"is_reserved":false,"is_disabled":false,"rental_uris":{"android":"levelo://app?vid=a51a6045-af40-4f2c-aeea-1a8026b305ef","ios":"levelo://app?vid=a51a6045-af40-4f2c-aeea-1a8026b305ef"},"vehicle_type_id":"4","last_reported":1730571036,"current_range_meters":10000,"station_id":"ce4bh512rcd13ifvqe3g","pricing_plan_id":"cebpf4jnsgd1na2vs0mg"},{"bike_id":"bc6d07a0-af32-4365-b225-bda9aee22073","system_id":"levelo_inurba_marseille","lat":43.298536,"lon":5.374025,"is_reserved":false,"is_disabled":false,"rental_uris":{"android":"levelo://app?vid=bc6d07a0-af32-4365-b225-bda9aee22073","ios":"levelo://app?vid=bc6d07a0-af32-4365-b225-bda9aee22073"},"vehicle_type_id":"4","last_reported":1730571036,"current_range_meters":27600,"station_id":"ce4bh0h2rcd13ifvqd50","pricing_plan_id":"cebpf4jnsgd1na2vs0mg"},{"bike_id":"b8b5f7e2-f80a-4b08-87ae-2845aa87323f","system_id":"levelo_inurba_marseille","lat":43.29421,"lon":5.38627,"is_reserved":false,"is_disabled":false,"rental_uris":{"android":"levelo://app?vid=b8b5f7e2-f80a-4b08-87ae-2845aa87323f","ios":"levelo://app?vid=b8b5f7e2-f80a-4b08-87ae-2845aa87323f"},"vehicle_type_id":"4","last_reported":1730571036,"current_range_meters":6400,"station_id":"ce4bh2h2rcd13ifvqdh0","pricing_plan_id":"cebpf4jnsgd1na2vs0mg"},{"bike_id":"02bf43f1-2ce4-4fae-b237-bdfecedc0a96","system_id":"levelo_inurba_marseille","lat":43.29599,"lon":5.38107,"is_reserved":false,"is_disabled":false,"rental_uris":{"android":"levelo://app?vid=02bf43f1-2ce4-4fae-b237-bdfecedc0a96","ios":"levelo://app?vid=02bf43f1-2ce4-4fae-b237-bdfecedc0a96"},"vehicle_type_id":"4","last_reported":1730571036,"current_range_meters":22800,"station_id":"ce4bgl12rcd13ifvqbo0","pricing_plan_id":"cebpf4jnsgd1na2vs0mg"},{"bike_id":"3d5fd697-ff5b-4513-88e2-732c1cb45ced","system_id":"levelo_inurba_marseille","lat":43.29784,"lon":5.39357,"is_reserved":false,"is_disabled":false,"rental_uris":{"android":"levelo://app?vid=3d5fd697-ff5b-4513-88e2-732c1cb45ced","ios":"levelo://app?vid=3d5fd697-ff5b-4513-88e2-732c1cb45ced"},"vehicle_type_id":"4","last_reported":1730571036,"current_range_meters":23200,"station_id":"chh1huq6cuj3fo74tm60","pricing_plan_id":"cebpf4jnsgd1na2vs0mg"},{"bike_id":"5ca2ad48-dd74-40a0-b17c-745245a8f5d6","system_id":"levelo_inurba_marseille","lat":43.27813,"lon":5.40714,"is_reserved":false,"is_disabled":false,"rental_uris":{"android":"levelo://app?vid=5ca2ad48-dd74-40a0-b17c-745245a8f5d6","ios":"levelo://app?vid=5ca2ad48-dd74-40a0-b17c-745245a8f5d6"},"vehicle_type_id":"4","last_reported":1730571036,"current_range_meters":36000,"station_id":"ce4bhnh2rcd13ifvqgtg","pricing_plan_id":"cebpf4jnsgd1na2vs0mg"},{"bike_id":"9aca62b1-4fce-45c0-a939-1c87758eecab","system_id":"levelo_inurba_marseille","lat":43.28105,"lon":5.37835,"is_reserved":false,"is_disabled":false,"rental_uris":{"android":"levelo://app?vid=9aca62b1-4fce-45c0-a939-1c87758eecab","ios":"levelo://app?vid=9aca62b1-4fce-45c0-a939-1c87758eecab"},"vehicle_type_id":"4","last_reported":1730571036,"current_range_meters":24400,"station_id":"ce4bha12rcd13ifvqee0","pricing_plan_id":"cebpf4jnsgd1na2vs0mg"},{"bike_id":"17ebbbcb-2cf9-4746-aa3c-b67cb03f093d","system_id":"levelo_inurba_marseille","lat":43.34145,"lon":5.40903,"is_reserved":false,"is_disabled":false,"rental_uris":{"android":"levelo://app?vid=17ebbbcb-2cf9-4746-aa3c-b67cb03f093d","ios":"levelo://app?vid=17ebbbcb-2cf9-4746-aa3c-b67cb03f093d"},"vehicle_type_id":"4","last_reported":1730571036,"current_range_meters":18000,"station_id":"ce4bhqh2rcd13ifvqhlg","pricing_plan_id":"cebpf4jnsgd1na2vs0mg"},{"bike_id":"b66ece50-bc4f-4a5d-b2a3-ef5f9aba4661","system_id":"levelo_inurba_marseille","lat":43.29273,"lon":5.36846,"is_reserved":false,"is_disabled":false,"rental_uris":{"android":"levelo://app?vid=b66ece50-bc4f-4a5d-b2a3-ef5f9aba4661","ios":"levelo://app?vid=b66ece50-bc4f-4a5d-b2a3-ef5f9aba4661"},"vehicle_type_id":"4","last_reported":1730571036,"current_range_meters":38800,"station_id":"ce4bhbp2rcd13ifvqesg","pricing_plan_id":"cebpf4jnsgd1na2vs0mg"},{"bike_id":"d859cdb4-2f9b-4050-b34b-686d7bfd090b","system_id":"levelo_inurba_marseille","lat":43.29262,"lon":5.38435,"is_reserved":false,"is_disabled":false,"rental_uris":{"android":"levelo://app?vid=d859cdb4-2f9b-4050-b34b-686d7bfd090b","ios":"levelo://app?vid=d859cdb4-2f9b-4050-b34b-686d7bfd090b"},"vehicle_type_id":"4","last_reported":1730571036,"current_range_meters":19600,"station_id":"ce4bh692rcd13ifvqea0","pricing_plan_id":"cebpf4jnsgd1na2vs0mg"},{"bike_id":"dd72e24b-d5a2-488f-a7be-ab37689e3fd1","system_id":"levelo_inurba_marseille","lat":43.28943,"lon":5.36415,"is_reserved":false,"is_disabled":false,"rental_uris":{"android":"levelo://app?vid=dd72e24b-d5a2-488f-a7be-ab37689e3fd1","ios":"levelo://app?vid=dd72e24b-d5a2-488f-a7be-ab37689e3fd1"},"vehicle_type_id":"4","last_reported":1730571036,"current_range_meters":16800,"station_id":"ce4bhc92rcd13ifvqetg","pricing_plan_id":"cebpf4jnsgd1na2vs0mg"},{"bike_id":"fa0d0175-496c-492e-bcfc-001ea3bdf18e","system_id":"levelo_inurba_marseille","lat":43.29546,"lon":5.37502,"is_reserved":false,"is_disabled":false,"rental_uris":{"android":"levelo://app?vid=fa0d0175-496c-492e-bcfc-001ea3bdf18e","ios":"levelo://app?vid=fa0d0175-496c-492e-bcfc-001ea3bdf18e"},"vehicle_type_id":"4","last_reported":1730571036,"current_range_meters":38000,"station_id":"ce4bgkp2rcd13ifvqbmg","pricing_plan_id":"cebpf4jnsgd1na2vs0mg"},{"bike_id":"8297bbbe-fe3e-442e-991a-ff05a61818d0","system_id":"levelo_inurba_marseille","lat":43.29413,"lon":5.38628,"is_reserved":false,"is_disabled":false,"rental_uris":{"android":"levelo://app?vid=8297bbbe-fe3e-442e-991a-ff05a61818d0","ios":"levelo://app?vid=8297bbbe-fe3e-442e-991a-ff05a61818d0"},"vehicle_type_id":"4","last_reported":1730571036,"current_range_meters":22800,"station_id":"ce4bh2h2rcd13ifvqdh0","pricing_plan_id":"cebpf4jnsgd1na2vs0mg"},{"bike_id":"a29f9c5a-1d2a-4e72-92f1-1f1075070224","system_id":"levelo_inurba_marseille","lat":43.2928,"lon":5.40118,"is_reserved":false,"is_disabled":false,"rental_uris":{"android":"levelo://app?vid=a29f9c5a-1d2a-4e72-92f1-1f1075070224","ios":"levelo://app?vid=a29f9c5a-1d2a-4e72-92f1-1f1075070224"},"vehicle_type_id":"4","last_reported":1730571036,"current_range_meters":17200,"station_id":"ce4bh312rcd13ifvqdk0","pricing_plan_id":"cebpf4jnsgd1na2vs0mg"},{"bike_id":"95c76385-ae06-4d85-8fb0-3dfdb3d7470c","system_id":"levelo_inurba_marseille","lat":43.316833,"lon":5.404726,"is_reserved":false,"is_disabled":false,"rental_uris":{"android":"levelo://app?vid=95c76385-ae06-4d85-8fb0-3dfdb3d7470c","ios":"levelo://app?vid=95c76385-ae06-4d85-8fb0-3dfdb3d7470c"},"vehicle_type_id":"4","last_reported":1730571036,"current_range_meters":24400,"station_id":"ce4bh012rcd13ifvqd00","pricing_plan_id":"cebpf4jnsgd1na2vs0mg"},{"bike_id":"f4af9b65-ead8-42b6-9aff-96dcb65810b8","system_id":"levelo_inurba_marseille","lat":43.26941,"lon":5.40251,"is_reserved":false,"is_disabled":false,"rental_uris":{"android":"levelo://app?vid=f4af9b65-ead8-42b6-9aff-96dcb65810b8","ios":"levelo://app?vid=f4af9b65-ead8-42b6-9aff-96dcb65810b8"},"vehicle_type_id":"4","last_reported":1730571036,"current_range_meters":30000,"station_id":"cjm6bp8fraef2m0cb0m0","pricing_plan_id":"cebpf4jnsgd1na2vs0mg"},{"bike_id":"a7661224-a10e-48a0-a41b-007710435ab4","system_id":"levelo_inurba_marseille","lat":43.23054,"lon":5.35498,"is_reserved":false,"is_disabled":false,"rental_uris":{"android":"levelo://app?vid=a7661224-a10e-48a0-a41b-007710435ab4","ios":"levelo://app?vid=a7661224-a10e-48a0-a41b-007710435ab4"},"vehicle_type_id":"4","last_reported":1730571036,"current_range_meters":10800,"station_id":"cpo3342slgdg3j2ifvpg","pricing_plan_id":"cebpf4jnsgd1na2vs0mg"},{"bike_id":"b579c690-85f6-4c63-b155-2f76cc230255","system_id":"levelo_inurba_marseille","lat":43.28719,"lon":5.3739,"is_reserved":false,"is_disabled":false,"rental_uris":{"android":"levelo://app?vid=b579c690-85f6-4c63-b155-2f76cc230255","ios":"levelo://app?vid=b579c690-85f6-4c63-b155-2f76cc230255"},"vehicle_type_id":"4","last_reported":1730571036,"current_range_meters":20000,"station_id":"ce4bh3p2rcd13ifvqdq0","pricing_plan_id":"cebpf4jnsgd1na2vs0mg"},{"bike_id":"f74df92c-a0ed-4b11-9a3c-ba9c645703ac","system_id":"levelo_inurba_marseille","lat":43.31267,"lon":5.40177,"is_reserved":false,"is_disabled":false,"rental_uris":{"android":"levelo://app?vid=f74df92c-a0ed-4b11-9a3c-ba9c645703ac","ios":"levelo://app?vid=f74df92c-a0ed-4b11-9a3c-ba9c645703ac"},"vehicle_type_id":"4","last_reported":1730571036,"current_range_meters":38000,"station_id":"ce4bh092rcd13ifvqd30","pricing_plan_id":"cebpf4jnsgd1na2vs0mg"},{"bike_id":"4c9c4315-2e52-4def-b760-00c20988e7c2","system_id":"levelo_inurba_marseille","lat":43.2439,"lon":5.37067,"is_reserved":false,"is_disabled":false,"rental_uris":{"android":"levelo://app?vid=4c9c4315-2e52-4def-b760-00c20988e7c2","ios":"levelo://app?vid=4c9c4315-2e52-4def-b760-00c20988e7c2"},"vehicle_type_id":"4","last_reported":1730571036,"current_range_meters":9200,"station_id":"ce4bhhh2rcd13ifvqfk0","pricing_plan_id":"cebpf4jnsgd1na2vs0mg"},{"bike_id":"c07332d5-f871-4d7c-9894-5a99fdbe9ec1","system_id":"levelo_inurba_marseille","lat":43.25009,"lon":5.38926,"is_reserved":false,"is_disabled":false,"rental_uris":{"android":"levelo://app?vid=c07332d5-f871-4d7c-9894-5a99fdbe9ec1","ios":"levelo://app?vid=c07332d5-f871-4d7c-9894-5a99fdbe9ec1"},"vehicle_type_id":"4","last_reported":1730571036,"current_range_meters":33600,"station_id":"ce4bhgp2rcd13ifvqfd0","pricing_plan_id":"cebpf4jnsgd1na2vs0mg"},{"bike_id":"1bfdee90-0eaf-401a-8516-6a14ed03c633","system_id":"levelo_inurba_marseille","lat":43.28848,"lon":5.3932,"is_reserved":false,"is_disabled":false,"rental_uris":{"android":"levelo://app?vid=1bfdee90-0eaf-401a-8516-6a14ed03c633","ios":"levelo://app?vid=1bfdee90-0eaf-401a-8516-6a14ed03c633"},"vehicle_type_id":"4","last_reported":1730571036,"current_range_meters":28400,"station_id":"ce4bh2p2rcd13ifvqdi0","pricing_plan_id":"cebpf4jnsgd1na2vs0mg"},{"bike_id":"7ddc52eb-129f-4eda-ac92-cd319664f8d3","system_id":"levelo_inurba_marseille","lat":43.2928,"lon":5.40128,"is_reserved":false,"is_disabled":false,"rental_uris":{"android":"levelo://app?vid=7ddc52eb-129f-4eda-ac92-cd319664f8d3","ios":"levelo://app?vid=7ddc52eb-129f-4eda-ac92-cd319664f8d3"},"vehicle_type_id":"4","last_reported":1730571036,"current_range_meters":8000,"station_id":"ce4bh312rcd13ifvqdk0","pricing_plan_id":"cebpf4jnsgd1na2vs0mg"},{"bike_id":"48c21651-046b-4b4f-b840-ebed0084e31b","system_id":"levelo_inurba_marseille","lat":43.29023,"lon":5.38143,"is_reserved":false,"is_disabled":false,"rental_uris":{"android":"levelo://app?vid=48c21651-046b-4b4f-b840-ebed0084e31b","ios":"levelo://app?vid=48c21651-046b-4b4f-b840-ebed0084e31b"},"vehicle_type_id":"4","last_reported":1730571036,"current_range_meters":27600,"station_id":"ce4bh4p2rcd13ifvqe1g","pricing_plan_id":"cebpf4jnsgd1na2vs0mg"},{"bike_id":"dc5cb50b-5a19-4afa-a560-cd182bc09b12","system_id":"levelo_inurba_marseille","lat":43.28467,"lon":5.38421,"is_reserved":false,"is_disabled":false,"rental_uris":{"android":"levelo://app?vid=dc5cb50b-5a19-4afa-a560-cd182bc09b12","ios":"levelo://app?vid=dc5cb50b-5a19-4afa-a560-cd182bc09b12"},"vehicle_type_id":"4","last_reported":1730571036,"current_range_meters":26800,"station_id":"ce4bh512rcd13ifvqe3g","pricing_plan_id":"cebpf4jnsgd1na2vs0mg"},{"bike_id":"c936989b-125d-4194-a57d-bd8b4df46468","system_id":"levelo_inurba_marseille","lat":43.29418,"lon":5.38623,"is_reserved":false,"is_disabled":false,"rental_uris":{"android":"levelo://app?vid=c936989b-125d-4194-a57d-bd8b4df46468","ios":"levelo://app?vid=c936989b-125d-4194-a57d-bd8b4df46468"},"vehicle_type_id":"4","last_reported":1730571036,"current_range_meters":24000,"station_id":"ce4bh2h2rcd13ifvqdh0","pricing_plan_id":"cebpf4jnsgd1na2vs0mg"},{"bike_id":"96dc1c87-7230-4f6b-8aab-896fc7b0e2ce","system_id":"levelo_inurba_marseille","lat":43.28932,"lon":5.38394,"is_reserved":false,"is_disabled":false,"rental_uris":{"android":"levelo://app?vid=96dc1c87-7230-4f6b-8aab-896fc7b0e2ce","ios":"levelo://app?vid=96dc1c87-7230-4f6b-8aab-896fc7b0e2ce"},"vehicle_type_id":"4","last_reported":1730571036,"current_range_meters":22000,"station_id":"ce4bh612rcd13ifvqe6g","pricing_plan_id":"cebpf4jnsgd1na2vs0mg"},{"bike_id":"0bff225d-fddb-44eb-aa52-c764d92abc16","system_id":"levelo_inurba_marseille","lat":43.28423,"lon":5.34977,"is_reserved":false,"is_disabled":false,"rental_uris":{"android":"levelo://app?vid=0bff225d-fddb-44eb-aa52-c764d92abc16","ios":"levelo://app?vid=0bff225d-fddb-44eb-aa52-c764d92abc16"},"vehicle_type_id":"4","last_reported":1730571036,"current_range_meters":22800,"station_id":"ce4bhbh2rcd13ifvqepg","pricing_plan_id":"cebpf4jnsgd1na2vs0mg"},{"bike_id":"df99647c-c127-46a4-b52c-63af656ca008","system_id":"levelo_inurba_marseille","lat":43.28663,"lon":5.36359,"is_reserved":false,"is_disabled":false,"rental_uris":{"android":"levelo://app?vid=df99647c-c127-46a4-b52c-63af656ca008","ios":"levelo://app?vid=df99647c-c127-46a4-b52c-63af656ca008"},"vehicle_type_id":"4","last_reported":1730571036,"current_range_meters":11200,"station_id":"ce4bhah2rcd13ifvqej0","pricing_plan_id":"cebpf4jnsgd1na2vs0mg"},{"bike_id":"689d2b98-6a32-401d-a7e4-67239a1972fc","system_id":"levelo_inurba_marseille","lat":43.27051,"lon":5.40272,"is_reserved":false,"is_disabled":false,"rental_uris":{"android":"levelo://app?vid=689d2b98-6a32-401d-a7e4-67239a1972fc","ios":"levelo://app?vid=689d2b98-6a32-401d-a7e4-67239a1972fc"},"vehicle_type_id":"4","last_reported":1730571036,"current_range_meters":36400,"station_id":"ce4bhk92rcd13ifvqgc0","pricing_plan_id":"cebpf4jnsgd1na2vs0mg"},{"bike_id":"74f6a19d-26de-4299-84d7-8f31acb2c689","system_id":"levelo_inurba_marseille","lat":43.2931,"lon":5.37188,"is_reserved":false,"is_disabled":false,"rental_uris":{"android":"levelo://app?vid=74f6a19d-26de-4299-84d7-8f31acb2c689","ios":"levelo://app?vid=74f6a19d-26de-4299-84d7-8f31acb2c689"},"vehicle_type_id":"4","last_reported":1730571036,"current_range_meters":4000,"station_id":"chh1huq6cuj3fo74tm60","pricing_plan_id":"cebpf4jnsgd1na2vs0mg"},{"bike_id":"4d29aa70-bf2c-4ab7-a853-46db723a8a41","system_id":"levelo_inurba_marseille","lat":43.29023,"lon":5.38135,"is_reserved":false,"is_disabled":false,"rental_uris":{"android":"levelo://app?vid=4d29aa70-bf2c-4ab7-a853-46db723a8a41","ios":"levelo://app?vid=4d29aa70-bf2c-4ab7-a853-46db723a8a41"},"vehicle_type_id":"4","last_reported":1730571036,"current_range_meters":10000,"station_id":"ce4bh4p2rcd13ifvqe1g","pricing_plan_id":"cebpf4jnsgd1na2vs0mg"},{"bike_id":"8c0659df-72f8-4988-b6f2-4fe70517a6ce","system_id":"levelo_inurba_marseille","lat":43.29262,"lon":5.38444,"is_reserved":false,"is_disabled":false,"rental_uris":{"android":"levelo://app?vid=8c0659df-72f8-4988-b6f2-4fe70517a6ce","ios":"levelo://app?vid=8c0659df-72f8-4988-b6f2-4fe70517a6ce"},"vehicle_type_id":"4","last_reported":1730571036,"current_range_meters":36800,"station_id":"ce4bh692rcd13ifvqea0","pricing_plan_id":"cebpf4jnsgd1na2vs0mg"},{"bike_id":"514b7cb3-2ad0-49b9-8d88-3a4ee5868124","system_id":"levelo_inurba_marseille","lat":43.30143,"lon":5.39877,"is_reserved":false,"is_disabled":false,"rental_uris":{"android":"levelo://app?vid=514b7cb3-2ad0-49b9-8d88-3a4ee5868124","ios":"levelo://app?vid=514b7cb3-2ad0-49b9-8d88-3a4ee5868124"},"vehicle_type_id":"4","last_reported":1730571036,"current_range_meters":38800,"station_id":"ce4bh0h2rcd13ifvqd40","pricing_plan_id":"cebpf4jnsgd1na2vs0mg"},{"bike_id":"fafee40b-eacf-42f5-9e7b-221bd2aee36c","system_id":"levelo_inurba_marseille","lat":43.26787,"lon":5.39422,"is_reserved":false,"is_disabled":false,"rental_uris":{"android":"levelo://app?vid=fafee40b-eacf-42f5-9e7b-221bd2aee36c","ios":"levelo://app?vid=fafee40b-eacf-42f5-9e7b-221bd2aee36c"},"vehicle_type_id":"4","last_reported":1730571036,"current_range_meters":14800,"station_id":"ce4bhh12rcd13ifvqfg0","pricing_plan_id":"cebpf4jnsgd1na2vs0mg"},{"bike_id":"0f5f4a5e-d5e5-4f9f-a634-2f9428e83c2c","system_id":"levelo_inurba_marseille","lat":43.27815,"lon":5.40719,"is_reserved":false,"is_disabled":false,"rental_uris":{"android":"levelo://app?vid=0f5f4a5e-d5e5-4f9f-a634-2f9428e83c2c","ios":"levelo://app?vid=0f5f4a5e-d5e5-4f9f-a634-2f9428e83c2c"},"vehicle_type_id":"4","last_reported":1730571036,"current_range_meters":36800,"station_id":"ce4bhnh2rcd13ifvqgtg","pricing_plan_id":"cebpf4jnsgd1na2vs0mg"},{"bike_id":"461f21ed-c110-47bd-9cb2-209580d69d5f","system_id":"levelo_inurba_marseille","lat":43.2418,"lon":5.39729,"is_reserved":false,"is_disabled":false,"rental_uris":{"android":"levelo://app?vid=461f21ed-c110-47bd-9cb2-209580d69d5f","ios":"levelo://app?vid=461f21ed-c110-47bd-9cb2-209580d69d5f"},"vehicle_type_id":"4","last_reported":1730571036,"current_range_meters":32000,"station_id":"ce4bhn12rcd13ifvqgpg","pricing_plan_id":"cebpf4jnsgd1na2vs0mg"},{"bike_id":"4bea4540-3067-4d85-b258-77b1bf2197c8","system_id":"levelo_inurba_marseille","lat":43.29874,"lon":5.38911,"is_reserved":false,"is_disabled":false,"rental_uris":{"android":"levelo://app?vid=4bea4540-3067-4d85-b258-77b1bf2197c8","ios":"levelo://app?vid=4bea4540-3067-4d85-b258-77b1bf2197c8"},"vehicle_type_id":"4","last_reported":1730571036,"current_range_meters":37600,"station_id":"ce4bh392rcd13ifvqdl0","pricing_plan_id":"cebpf4jnsgd1na2vs0mg"},{"bike_id":"b3648e79-f47d-4048-9db0-6e8de5d4cc8d","system_id":"levelo_inurba_marseille","lat":43.31492,"lon":5.3726,"is_reserved":false,"is_disabled":false,"rental_uris":{"android":"levelo://app?vid=b3648e79-f47d-4048-9db0-6e8de5d4cc8d","ios":"levelo://app?vid=b3648e79-f47d-4048-9db0-6e8de5d4cc8d"},"vehicle_type_id":"4","last_reported":1730571036,"current_range_meters":33600,"station_id":"ce4bgt12rcd13ifvqcd0","pricing_plan_id":"cebpf4jnsgd1na2vs0mg"},{"bike_id":"a736eb14-322a-4db6-8378-3b19b72258b0","system_id":"levelo_inurba_marseille","lat":43.29455,"lon":5.38315,"is_reserved":false,"is_disabled":false,"rental_uris":{"android":"levelo://app?vid=a736eb14-322a-4db6-8378-3b19b72258b0","ios":"levelo://app?vid=a736eb14-322a-4db6-8378-3b19b72258b0"},"vehicle_type_id":"4","last_reported":1730571036,"current_range_meters":28800,"station_id":"","pricing_plan_id":"cebpf4jnsgd1na2vs0mg"},{"bike_id":"64332f8b-15f4-4441-a85c-fd22bc9dcfd9","system_id":"levelo_inurba_marseille","lat":43.297895,"lon":5.393365,"is_reserved":false,"is_disabled":false,"rental_uris":{"android":"levelo://app?vid=64332f8b-15f4-4441-a85c-fd22bc9dcfd9","ios":"levelo://app?vid=64332f8b-15f4-4441-a85c-fd22bc9dcfd9"},"vehicle_type_id":"4","last_reported":1730571036,"current_range_meters":9200,"station_id":"chh1huq6cuj3fo74tm60","pricing_plan_id":"cebpf4jnsgd1na2vs0mg"},{"bike_id":"587ce92b-ee13-4b95-ae76-e75b2cdbc9b8","system_id":"levelo_inurba_marseille","lat":43.3043,"lon":5.38896,"is_reserved":false,"is_disabled":false,"rental_uris":{"android":"levelo://app?vid=587ce92b-ee13-4b95-ae76-e75b2cdbc9b8","ios":"levelo://app?vid=587ce92b-ee13-4b95-ae76-e75b2cdbc9b8"},"vehicle_type_id":"4","last_reported":1730571036,"current_range_meters":34800,"station_id":"ce4bgk12rcd13ifvqbi0","pricing_plan_id":"cebpf4jnsgd1na2vs0mg"},{"bike_id":"5b7b9209-ad99-4aac-b678-e31d6e1d5cbb","system_id":"levelo_inurba_marseille","lat":43.30922,"lon":5.40146,"is_reserved":false,"is_disabled":false,"rental_uris":{"android":"levelo://app?vid=5b7b9209-ad99-4aac-b678-e31d6e1d5cbb","ios":"levelo://app?vid=5b7b9209-ad99-4aac-b678-e31d6e1d5cbb"},"vehicle_type_id":"4","last_reported":1730571036,"current_range_meters":36000,"station_id":"ce4bgvp2rcd13ifvqct0","pricing_plan_id":"cebpf4jnsgd1na2vs0mg"},{"bike_id":"7eda0b05-b406-4343-b769-792ede40bb1e","system_id":"levelo_inurba_marseille","lat":43.29531,"lon":5.38542,"is_reserved":false,"is_disabled":false,"rental_uris":{"android":"levelo://app?vid=7eda0b05-b406-4343-b769-792ede40bb1e","ios":"levelo://app?vid=7eda0b05-b406-4343-b769-792ede40bb1e"},"vehicle_type_id":"4","last_reported":1730571036,"current_range_meters":28800,"station_id":"ce4bgih2rcd13ifvqba0","pricing_plan_id":"cebpf4jnsgd1na2vs0mg"},{"bike_id":"39619002-67ac-40b3-afab-cd1631b93626","system_id":"levelo_inurba_marseille","lat":43.29273,"lon":5.36844,"is_reserved":false,"is_disabled":false,"rental_uris":{"android":"levelo://app?vid=39619002-67ac-40b3-afab-cd1631b93626","ios":"levelo://app?vid=39619002-67ac-40b3-afab-cd1631b93626"},"vehicle_type_id":"4","last_reported":1730571036,"current_range_meters":37600,"station_id":"ce4bhbp2rcd13ifvqesg","pricing_plan_id":"cebpf4jnsgd1na2vs0mg"},{"bike_id":"d35a9a52-8843-4994-8852-8cf470ca31fc","system_id":"levelo_inurba_marseille","lat":43.2743,"lon":5.3941,"is_reserved":false,"is_disabled":false,"rental_uris":{"android":"levelo://app?vid=d35a9a52-8843-4994-8852-8cf470ca31fc","ios":"levelo://app?vid=d35a9a52-8843-4994-8852-8cf470ca31fc"},"vehicle_type_id":"4","last_reported":1730571036,"current_range_meters":14400,"station_id":"ce4bhdp2rcd13ifvqf20","pricing_plan_id":"cebpf4jnsgd1na2vs0mg"},{"bike_id":"8173b479-cf4d-48e5-8f9a-ae81d45d260b","system_id":"levelo_inurba_marseille","lat":43.30639,"lon":5.40107,"is_reserved":false,"is_disabled":false,"rental_uris":{"android":"levelo://app?vid=8173b479-cf4d-48e5-8f9a-ae81d45d260b","ios":"levelo://app?vid=8173b479-cf4d-48e5-8f9a-ae81d45d260b"},"vehicle_type_id":"4","last_reported":1730571036,"current_range_meters":36000,"station_id":"ce4bh112rcd13ifvqda0","pricing_plan_id":"cebpf4jnsgd1na2vs0mg"},{"bike_id":"83cd349a-4e74-40d1-8c99-897fb04b7cf0","system_id":"levelo_inurba_marseille","lat":43.297852,"lon":5.393083,"is_reserved":false,"is_disabled":false,"rental_uris":{"android":"levelo://app?vid=83cd349a-4e74-40d1-8c99-897fb04b7cf0","ios":"levelo://app?vid=83cd349a-4e74-40d1-8c99-897fb04b7cf0"},"vehicle_type_id":"4","last_reported":1730571036,"current_range_meters":22000,"station_id":"chh1huq6cuj3fo74tm60","pricing_plan_id":"cebpf4jnsgd1na2vs0mg"},{"bike_id":"d937a8da-dd9c-42f4-b789-3a759d1e4dc5","system_id":"levelo_inurba_marseille","lat":43.25572,"lon":5.38242,"is_reserved":false,"is_disabled":false,"rental_uris":{"android":"levelo://app?vid=d937a8da-dd9c-42f4-b789-3a759d1e4dc5","ios":"levelo://app?vid=d937a8da-dd9c-42f4-b789-3a759d1e4dc5"},"vehicle_type_id":"4","last_reported":1730571036,"current_range_meters":38800,"station_id":"ce4bhih2rcd13ifvqfs0","pricing_plan_id":"cebpf4jnsgd1na2vs0mg"},{"bike_id":"df64aa0c-71fa-4735-921b-f62056e67454","system_id":"levelo_inurba_marseille","lat":43.29533,"lon":5.38546,"is_reserved":false,"is_disabled":false,"rental_uris":{"android":"levelo://app?vid=df64aa0c-71fa-4735-921b-f62056e67454","ios":"levelo://app?vid=df64aa0c-71fa-4735-921b-f62056e67454"},"vehicle_type_id":"4","last_reported":1730571036,"current_range_meters":32000,"station_id":"ce4bgih2rcd13ifvqba0","pricing_plan_id":"cebpf4jnsgd1na2vs0mg"},{"bike_id":"bf87a494-d8a2-45c3-947c-b683b282c8d8","system_id":"levelo_inurba_marseille","lat":43.29414,"lon":5.38622,"is_reserved":false,"is_disabled":false,"rental_uris":{"android":"levelo://app?vid=bf87a494-d8a2-45c3-947c-b683b282c8d8","ios":"levelo://app?vid=bf87a494-d8a2-45c3-947c-b683b282c8d8"},"vehicle_type_id":"4","last_reported":1730571036,"current_range_meters":38800,"station_id":"ce4bh2h2rcd13ifvqdh0","pricing_plan_id":"cebpf4jnsgd1na2vs0mg"},{"bike_id":"f733f9c3-9fa4-4f43-8373-60bc43a9dd50","system_id":"levelo_inurba_marseille","lat":43.29303,"lon":5.37451,"is_reserved":false,"is_disabled":false,"rental_uris":{"android":"levelo://app?vid=f733f9c3-9fa4-4f43-8373-60bc43a9dd50","ios":"levelo://app?vid=f733f9c3-9fa4-4f43-8373-60bc43a9dd50"},"vehicle_type_id":"4","last_reported":1730571036,"current_range_meters":30000,"station_id":"ce4bgi12rcd13ifvqb70","pricing_plan_id":"cebpf4jnsgd1na2vs0mg"},{"bike_id":"1d3b31a6-90df-4655-87c2-1a0ad9b102a3","system_id":"levelo_inurba_marseille","lat":43.29513,"lon":5.39029,"is_reserved":false,"is_disabled":false,"rental_uris":{"android":"levelo://app?vid=1d3b31a6-90df-4655-87c2-1a0ad9b102a3","ios":"levelo://app?vid=1d3b31a6-90df-4655-87c2-1a0ad9b102a3"},"vehicle_type_id":"4","last_reported":1730571036,"current_range_meters":33600,"station_id":"ce4bh3p2rcd13ifvqdp0","pricing_plan_id":"cebpf4jnsgd1na2vs0mg"},{"bike_id":"26acabe2-6faa-4dbf-bc9a-f2cebdda3546","system_id":"levelo_inurba_marseille","lat":43.301806,"lon":5.366225,"is_reserved":false,"is_disabled":false,"rental_uris":{"android":"levelo://app?vid=26acabe2-6faa-4dbf-bc9a-f2cebdda3546","ios":"levelo://app?vid=26acabe2-6faa-4dbf-bc9a-f2cebdda3546"},"vehicle_type_id":"4","last_reported":1730571036,"current_range_meters":18000,"station_id":"ce4bhap2rcd13ifvqek0","pricing_plan_id":"cebpf4jnsgd1na2vs0mg"},{"bike_id":"a89f244b-8b6e-4a6d-af4d-db26981fb729","system_id":"levelo_inurba_marseille","lat":43.25002,"lon":5.38926,"is_reserved":false,"is_disabled":false,"rental_uris":{"android":"levelo://app?vid=a89f244b-8b6e-4a6d-af4d-db26981fb729","ios":"levelo://app?vid=a89f244b-8b6e-4a6d-af4d-db26981fb729"},"vehicle_type_id":"4","last_reported":1730571036,"current_range_meters":27200,"station_id":"ce4bhgp2rcd13ifvqfd0","pricing_plan_id":"cebpf4jnsgd1na2vs0mg"},{"bike_id":"4885f956-96d8-420c-a951-25491edf3ea0","system_id":"levelo_inurba_marseille","lat":43.24803,"lon":5.37457,"is_reserved":false,"is_disabled":false,"rental_uris":{"android":"levelo://app?vid=4885f956-96d8-420c-a951-25491edf3ea0","ios":"levelo://app?vid=4885f956-96d8-420c-a951-25491edf3ea0"},"vehicle_type_id":"4","last_reported":1730571036,"current_range_meters":33600,"station_id":"ce4bhgh2rcd13ifvqfb0","pricing_plan_id":"cebpf4jnsgd1na2vs0mg"},{"bike_id":"b98450ce-a67c-4f5f-8285-197c41f0f2d7","system_id":"levelo_inurba_marseille","lat":43.2467,"lon":5.38167,"is_reserved":false,"is_disabled":false,"rental_uris":{"android":"levelo://app?vid=b98450ce-a67c-4f5f-8285-197c41f0f2d7","ios":"levelo://app?vid=b98450ce-a67c-4f5f-8285-197c41f0f2d7"},"vehicle_type_id":"4","last_reported":1730571036,"current_range_meters":7200,"station_id":"ce4bhih2rcd13ifvqfr0","pricing_plan_id":"cebpf4jnsgd1na2vs0mg"},{"bike_id":"7a89aee4-c850-4da5-b33d-31fc9503d923","system_id":"levelo_inurba_marseille","lat":43.31067,"lon":5.3836,"is_reserved":false,"is_disabled":false,"rental_uris":{"android":"levelo://app?vid=7a89aee4-c850-4da5-b33d-31fc9503d923","ios":"levelo://app?vid=7a89aee4-c850-4da5-b33d-31fc9503d923"},"vehicle_type_id":"4","last_reported":1730571036,"current_range_meters":2000,"station_id":"ce4bgv92rcd13ifvqcr0","pricing_plan_id":"cebpf4jnsgd1na2vs0mg"},{"bike_id":"c1ad2e97-5ae2-437b-8734-d9e84f65cec3","system_id":"levelo_inurba_marseille","lat":43.29262,"lon":5.38443,"is_reserved":false,"is_disabled":false,"rental_uris":{"android":"levelo://app?vid=c1ad2e97-5ae2-437b-8734-d9e84f65cec3","ios":"levelo://app?vid=c1ad2e97-5ae2-437b-8734-d9e84f65cec3"},"vehicle_type_id":"4","last_reported":1730571036,"current_range_meters":26000,"station_id":"ce4bh692rcd13ifvqea0","pricing_plan_id":"cebpf4jnsgd1na2vs0mg"},{"bike_id":"702dd08c-582f-469a-8d14-ae796b092346","system_id":"levelo_inurba_marseille","lat":43.2927,"lon":5.36845,"is_reserved":false,"is_disabled":false,"rental_uris":{"android":"levelo://app?vid=702dd08c-582f-469a-8d14-ae796b092346","ios":"levelo://app?vid=702dd08c-582f-469a-8d14-ae796b092346"},"vehicle_type_id":"4","last_reported":1730571036,"current_range_meters":38800,"station_id":"ce4bhbp2rcd13ifvqesg","pricing_plan_id":"cebpf4jnsgd1na2vs0mg"},{"bike_id":"9b6ac07e-b2cd-40b2-8096-f9828708b689","system_id":"levelo_inurba_marseille","lat":43.27943,"lon":5.41062,"is_reserved":false,"is_disabled":false,"rental_uris":{"android":"levelo://app?vid=9b6ac07e-b2cd-40b2-8096-f9828708b689","ios":"levelo://app?vid=9b6ac07e-b2cd-40b2-8096-f9828708b689"},"vehicle_type_id":"4","last_reported":1730571036,"current_range_meters":28000,"station_id":"ce4bhnp2rcd13ifvqh0g","pricing_plan_id":"cebpf4jnsgd1na2vs0mg"},{"bike_id":"b551c1db-45a0-4eef-8e64-df18519c1530","system_id":"levelo_inurba_marseille","lat":43.302611,"lon":5.396982,"is_reserved":false,"is_disabled":false,"rental_uris":{"android":"levelo://app?vid=b551c1db-45a0-4eef-8e64-df18519c1530","ios":"levelo://app?vid=b551c1db-45a0-4eef-8e64-df18519c1530"},"vehicle_type_id":"4","last_reported":1730571036,"current_range_meters":16000,"station_id":"ce4bh012rcd13ifvqd00","pricing_plan_id":"cebpf4jnsgd1na2vs0mg"},{"bike_id":"351ddb85-1fe5-4cea-b6a9-4f6bf28866c6","system_id":"levelo_inurba_marseille","lat":43.2718,"lon":5.40995,"is_reserved":false,"is_disabled":false,"rental_uris":{"android":"levelo://app?vid=351ddb85-1fe5-4cea-b6a9-4f6bf28866c6","ios":"levelo://app?vid=351ddb85-1fe5-4cea-b6a9-4f6bf28866c6"},"vehicle_type_id":"4","last_reported":1730571036,"current_range_meters":6400,"station_id":"ce4bhl12rcd13ifvqgf0","pricing_plan_id":"cebpf4jnsgd1na2vs0mg"},{"bike_id":"afd94a30-3f23-4a08-bd13-cc0fdd487227","system_id":"levelo_inurba_marseille","lat":43.290933,"lon":5.381617,"is_reserved":false,"is_disabled":false,"rental_uris":{"android":"levelo://app?vid=afd94a30-3f23-4a08-bd13-cc0fdd487227","ios":"levelo://app?vid=afd94a30-3f23-4a08-bd13-cc0fdd487227"},"vehicle_type_id":"4","last_reported":1730571036,"current_range_meters":38800,"station_id":"ce4bh512rcd13ifvqe2g","pricing_plan_id":"cebpf4jnsgd1na2vs0mg"},