{"last_updated":1759000014,"ttl":60,"version":"2.2","data":{"bikes":[{"bike_id":"9bba2970-4c7d-4862-8b95-7fd9349febba","system_id":"levelo_inurba_marseille","lat":43.298936,"lon":5.43668,"is_reserved":false,"is_disabled":false,"rental_uris":{"android":"levelo://app?vid=9bba2970-4c7d-4862-8b95-7fd9349febba","ios":"levelo://app?vid=9bba2970-4c7d-4862-8b95-7fd9349febba"},"vehicle_type_id":"4","last_reported":1759000014,"current_range_meters":2800,"station_id":"ce4bhpp2rcd13ifvqhfg","pricing_plan_id":"cebpf4jnsgd1na2vs0mg"},{"bike_id":"5e9f57e7-4b24-4133-a91f-2a95134765c6","system_id":"levelo_inurba_marseille","lat":43.26551,"lon":5.37287,"is_reserved":false,"is_disabled":true,"rental_uris":{"android":"levelo://app?vid=5e9f57e7-4b24-4133-a91f-2a95134765c6","ios":"levelo://app?vid=5e9f57e7-4b24-4133-a91f-2a95134765c6"},"vehicle_type_id":"4","last_reported":1759000014,"current_range_meters":2800,"station_id":"ce4bhg12rcd13ifvqf70","pricing_plan_id":"cebpf4jnsgd1na2vs0mg"},{"bike_id":"174a7cf6-cfee-4404-b9df-bbd6ca395d8d","system_id":"levelo_inurba_marseille","lat":43.305359,"lon":5.365574,"is_reserved":false,"is_disabled":false,"rental_uris":{"android":"levelo://app?vid=174a7cf6-cfee-4404-b9df-bbd6ca395d8d","ios":"levelo://app?vid=174a7cf6-cfee-4404-b9df-bbd6ca395d8d"},"vehicle_type_id":"4","last_reported":1759000014,"current_range_meters":3200,"station_id":"ce4bgs12rcd13ifvqcag","pricing_plan_id":"cebpf4jnsgd1na2vs0mg"},{"bike_id":"963e04b5-6021-400c-9465-232e7ccc4bdd","system_id":"levelo_inurba_marseille","lat":43.29268,"lon":5.384405,"is_reserved":false,"is_disabled":false,"rental_uris":{"android":"levelo://app?vid=963e04b5-6021-400c-9465-232e7ccc4bdd","ios":"levelo://app?vid=963e04b5-6021-400c-9465-232e7ccc4bdd"},"vehicle_type_id":"4","last_reported":1759000014,"current_range_meters":3200,"station_id":"ce4bh692rcd13ifvqea0","pricing_plan_id":"cebpf4jnsgd1na2vs0mg"},{"bike_id":"0fc03e95-89bd-4996-80b1-742043559abb","system_id":"levelo_inurba_marseille","lat":43.28693,"lon":5.36345,"is_reserved":false,"is_disabled":false,"rental_uris":{"android":"levelo://app?vid=0fc03e95-89bd-4996-80b1-742043559abb","ios":"levelo://app?vid=0fc03e95-89bd-4996-80b1-742043559abb"},"vehicle_type_id":"4","last_reported":1759000014,"current_range_meters":2800,"station_id":"ce4bhah2rcd13ifvqej0","pricing_plan_id":"cebpf4jnsgd1na2vs0mg"},{"bike_id":"71d67c3c-8bdb-4cf1-ab37-e32bea338281","system_id":"levelo_inurba_marseille","lat":43.2929,"lon":5.38453,"is_reserved":false,"is_disabled":false,"rental_uris":{"android":"levelo://app?vid=71d67c3c-8bdb-4cf1-ab37-e32bea338281","ios":"levelo://app?vid=71d67c3c-8bdb-4cf1-ab37-e32bea338281"},"vehicle_type_id":"4","last_reported":1759000014,"current_range_meters":3600,"station_id":"ce4bh692rcd13ifvqea0","pricing_plan_id":"cebpf4jnsgd1na2vs0mg"},{"bike_id":"7a5b3afe-a2f0-4ae1-ad42-b83c4b3f9e09","system_id":"levelo_inurba_marseille","lat":43.29299,"lon":5.37464,"is_reserved":false,"is_disabled":false,"rental_uris":{"android":"levelo://app?vid=7a5b3afe-a2f0-4ae1-ad42-b83c4b3f9e09","ios":"levelo://app?vid=7a5b3afe-a2f0-4ae1-ad42-b83c4b3f9e09"},"vehicle_type_id":"4","last_reported":1759000014,"current_range_meters":3600,"station_id":"ce4bgi12rcd13ifvqb70","pricing_plan_id":"cebpf4jnsgd1na2vs0mg"},{"bike_id":"1e1e08b1-975d-4a51-b1de-87e018331c36","system_id":"levelo_inurba_marseille","lat":43.30228,"lon":5.36742,"is_reserved":false,"is_disabled":false,"rental_uris":{"android":"levelo://app?vid=1e1e08b1-975d-4a51-b1de-87e018331c36","ios":"levelo://app?vid=1e1e08b1-975d-4a51-b1de-87e018331c36"},"vehicle_type_id":"4","last_reported":1759000014,"current_range_meters":3600,"station_id":"","pricing_plan_id":"cebpf4jnsgd1na2vs0mg"},{"bike_id":"98e3851a-385b-4d22-a5b2-866086846902","system_id":"levelo_inurba_marseille","lat":43.31899,"lon":5.37481,"is_reserved":false,"is_disabled":true,"rental_uris":{"android":"levelo://app?vid=98e3851a-385b-4d22-a5b2-866086846902","ios":"levelo://app?vid=98e3851a-385b-4d22-a5b2-866086846902"},"vehicle_type_id":"4","last_reported":1759000014,"current_range_meters":3600,"station_id":"","pricing_plan_id":"cebpf4jnsgd1na2vs0mg"},{"bike_id":"f897d300-643c-4c7a-951b-f56d70ef23ca","system_id":"levelo_inurba_marseille","lat":43.303296,"lon":5.390865,"is_reserved":false,"is_disabled":false,"rental_uris":{"android":"levelo://app?vid=f897d300-643c-4c7a-951b-f56d70ef23ca","ios":"levelo://app?vid=f897d300-643c-4c7a-951b-f56d70ef23ca"},"vehicle_type_id":"4","last_reported":1759000014,"current_range_meters":3600,"station_id":"","pricing_plan_id":"cebpf4jnsgd1na2vs0mg"},{"bike_id":"ef3ed350-03cc-469d-90ad-0a0c574f6008","system_id":"levelo_inurba_marseille","lat":43.29255,"lon":5.38434,"is_reserved":false,"is_disabled":false,"rental_uris":{"android":"levelo://app?vid=ef3ed350-03cc-469d-90ad-0a0c574f6008","ios":"levelo://app?vid=ef3ed350-03cc-469d-90ad-0a0c574f6008"},"vehicle_type_id":"4","last_reported":1759000014,"current_range_meters":3600,"station_id":"ce4bh692rcd13ifvqea0","pricing_plan_id":"cebpf4jnsgd1na2vs0mg"},{"bike_id":"d9930401-571c-46f1-a99d-a99d55bc09bf","system_id":"levelo_inurba_marseille","lat":43.29303,"lon":5.37463,"is_reserved":false,"is_disabled":false,"rental_uris":{"android":"levelo://app?vid=d9930401-571c-46f1-a99d-a99d55bc09bf","ios":"levelo://app?vid=d9930401-571c-46f1-a99d-a99d55bc09bf"},"vehicle_type_id":"4","last_reported":1759000014,"current_range_meters":3200,"station_id":"ce4bgi12rcd13ifvqb70","pricing_plan_id":"cebpf4jnsgd1na2vs0mg"},{"bike_id":"16dadfc0-cb2b-40dd-b3b5-ae22c2257cdf","system_id":"levelo_inurba_marseille","lat":43.29029,"lon":5.3865,"is_reserved":false,"is_disabled":false,"rental_uris":{"android":"levelo://app?vid=16dadfc0-cb2b-40dd-b3b5-ae22c2257cdf","ios":"levelo://app?vid=16dadfc0-cb2b-40dd-b3b5-ae22c2257cdf"},"vehicle_type_id":"4","last_reported":1759000014,"current_range_meters":3600,"station_id":"ce4bh4p2rcd13ifvqe0g","pricing_plan_id":"cebpf4jnsgd1na2vs0mg"},{"bike_id":"60222afa-c894-40a5-86b3-2a615b4c3ff3","system_id":"levelo_inurba_marseille","lat":43.32001,"lon":5.38154,"is_reserved":false,"is_disabled":false,"rental_uris":{"android":"levelo://app?vid=60222afa-c894-40a5-86b3-2a615b4c3ff3","ios":"levelo://app?vid=60222afa-c894-40a5-86b3-2a615b4c3ff3"},"vehicle_type_id":"4","last_reported":1759000014,"current_range_meters":4000,"station_id":"ce4bhr12rcd13ifvqhpg","pricing_plan_id":"cebpf4jnsgd1na2vs0mg"},{"bike_id":"c8bf5c74-21f5-4b36-9b40-9cd9353461c1","system_id":"levelo_inurba_marseille","lat":43.29099,"lon":5.381387,"is_reserved":false,"is_disabled":false,"rental_uris":{"android":"levelo://app?vid=c8bf5c74-21f5-4b36-9b40-9cd9353461c1","ios":"levelo://app?vid=c8bf5c74-21f5-4b36-9b40-9cd9353461c1"},"vehicle_type_id":"4","last_reported":1759000014,"current_range_meters":4000,"station_id":"ce4bh512rcd13ifvqe2g","pricing_plan_id":"cebpf4jnsgd1na2vs0mg"},{"bike_id":"531b94db-068c-462d-9f47-dbec4c3c6be3","system_id":"levelo_inurba_marseille","lat":43.28395,"lon":5.37523,"is_reserved":false,"is_disabled":false,"rental_uris":{"android":"levelo://app?vid=531b94db-068c-462d-9f47-dbec4c3c6be3","ios":"levelo://app?vid=531b94db-068c-462d-9f47-dbec4c3c6be3"},"vehicle_type_id":"4","last_reported":1759000014,"current_range_meters":4000,"station_id":"ce4bh412rcd13ifvqds0","pricing_plan_id":"cebpf4jnsgd1na2vs0mg"},{"bike_id":"1f8f7dde-9ebf-4eea-8433-38101ea6d508","system_id":"levelo_inurba_marseille","lat":43.29269,"lon":5.3844,"is_reserved":false,"is_disabled":false,"rental_uris":{"android":"levelo://app?vid=1f8f7dde-9ebf-4eea-8433-38101ea6d508","ios":"levelo://app?vid=1f8f7dde-9ebf-4eea-8433-38101ea6d508"},"vehicle_type_id":"4","last_reported":1759000014,"current_range_meters":4000,"station_id":"ce4bh692rcd13ifvqea0","pricing_plan_id":"cebpf4jnsgd1na2vs0mg"},{"bike_id":"6ab687d6-e80e-477c-aa41-8ffd5a1cc584","system_id":"levelo_inurba_marseille","lat":43.299665,"lon":5.388538,"is_reserved":false,"is_disabled":false,"rental_uris":{"android":"levelo://app?vid=6ab687d6-e80e-477c-aa41-8ffd5a1cc584","ios":"levelo://app?vid=6ab687d6-e80e-477c-aa41-8ffd5a1cc584"},"vehicle_type_id":"4","last_reported":1759000014,"current_range_meters":4000,"station_id":"","pricing_plan_id":"cebpf4jnsgd1na2vs0mg"},{"bike_id":"9a819dc8-447d-4df7-8b5f-0b18332a26a7","system_id":"levelo_inurba_marseille","lat":43.3297,"lon":5.37486,"is_reserved":false,"is_disabled":false,"rental_uris":{"android":"levelo://app?vid=9a819dc8-447d-4df7-8b5f-0b18332a26a7","ios":"levelo://app?vid=9a819dc8-447d-4df7-8b5f-0b18332a26a7"},"vehicle_type_id":"4","last_reported":1759000014,"current_range_meters":4000,"station_id":"","pricing_plan_id":"cebpf4jnsgd1na2vs0mg"},{"bike_id":"3a76ca81-d9e7-406a-a239-53429d29ec99","system_id":"levelo_inurba_marseille","lat":43.308104,"lon":5.381608,"is_reserved":false,"is_disabled":false,"rental_uris":{"android":"levelo://app?vid=3a76ca81-d9e7-406a-a239-53429d29ec99","ios":"levelo://app?vid=3a76ca81-d9e7-406a-a239-53429d29ec99"},"vehicle_type_id":"4","last_reported":1759000014,"current_range_meters":4400,"station_id":"ce4bgt12rcd13ifvqce0","pricing_plan_id":"cebpf4jnsgd1na2vs0mg"},{"bike_id":"c7f6a08b-c655-4213-b2ba-7d02e7f382fe","system_id":"levelo_inurba_marseille","lat":43.27988,"lon":5.39483,"is_reserved":false,"is_disabled":false,"rental_uris":{"android":"levelo://app?vid=c7f6a08b-c655-4213-b2ba-7d02e7f382fe","ios":"levelo://app?vid=c7f6a08b-c655-4213-b2ba-7d02e7f382fe"},"vehicle_type_id":"4","last_reported":1759000014,"current_range_meters":4400,"station_id":"","pricing_plan_id":"cebpf4jnsgd1na2vs0mg"},{"bike_id":"a4f0c1a9-0aaa-42fe-b8e0-4cf56e62dd8d","system_id":"levelo_inurba_marseille","lat":43.30179,"lon":5.38093,"is_reserved":false,"is_disabled":false,"rental_uris":{"android":"levelo://app?vid=a4f0c1a9-0aaa-42fe-b8e0-4cf56e62dd8d","ios":"levelo://app?vid=a4f0c1a9-0aaa-42fe-b8e0-4cf56e62dd8d"},"vehicle_type_id":"4","last_reported":1759000014,"current_range_meters":4400,"station_id":"ce4bgjp2rcd13ifvqbh0","pricing_plan_id":"cebpf4jnsgd1na2vs0mg"},{"bike_id":"6031b74e-7d14-4447-8595-e3fd9b355100","system_id":"levelo_inurba_marseille","lat":43.30589,"lon":5.39358,"is_reserved":false,"is_disabled":false,"rental_uris":{"android":"levelo://app?vid=6031b74e-7d14-4447-8595-e3fd9b355100","ios":"levelo://app?vid=6031b74e-7d14-4447-8595-e3fd9b355100"},"vehicle_type_id":"4","last_reported":1759000014,"current_range_meters":4000,"station_id":"ce4bh0p2rcd13ifvqd80","pricing_plan_id":"cebpf4jnsgd1na2vs0mg"},{"bike_id":"23e23d54-5d80-4e5e-a1e2-a8d0b6471c63","system_id":"levelo_inurba_marseille","lat":43.2926,"lon":5.38443,"is_reserved":false,"is_disabled":false,"rental_uris":{"android":"levelo://app?vid=23e23d54-5d80-4e5e-a1e2-a8d0b6471c63","ios":"levelo://app?vid=23e23d54-5d80-4e5e-a1e2-a8d0b6471c63"},"vehicle_type_id":"4","last_reported":1759000014,"current_range_meters":4400,"station_id":"ce4bh692rcd13ifvqea0","pricing_plan_id":"cebpf4jnsgd1na2vs0mg"},{"bike_id":"64275378-f11a-4ff4-ad54-087b91bd011e","system_id":"levelo_inurba_marseille","lat":43.29262,"lon":5.38437,"is_reserved":false,"is_disabled":false,"rental_uris":{"android":"levelo://app?vid=64275378-f11a-4ff4-ad54-087b91bd011e","ios":"levelo://app?vid=64275378-f11a-4ff4-ad54-087b91bd011e"},"vehicle_type_id":"4","last_reported":1759000014,"current_range_meters":4400,"station_id":"ce4bh692rcd13ifvqea0","pricing_plan_id":"cebpf4jnsgd1na2vs0mg"},{"bike_id":"1f80a203-1f2f-4e93-9b32-41b762b744af","system_id":"levelo_inurba_marseille","lat":43.28916,"lon":5.38408,"is_reserved":false,"is_disabled":false,"rental_uris":{"android":"levelo://app?vid=1f80a203-1f2f-4e93-9b32-41b762b744af","ios":"levelo://app?vid=1f80a203-1f2f-4e93-9b32-41b762b744af"},"vehicle_type_id":"4","last_reported":1759000014,"current_range_meters":4800,"station_id":"ce4bh612rcd13ifvqe6g","pricing_plan_id":"cebpf4jnsgd1na2vs0mg"},{"bike_id":"b7e00c5a-d219-43c6-96e4-38f3e710a798","system_id":"levelo_inurba_marseille","lat":43.27913,"lon":5.39578,"is_reserved":false,"is_disabled":false,"rental_uris":{"android":"levelo://app?vid=b7e00c5a-d219-43c6-96e4-38f3e710a798","ios":"levelo://app?vid=b7e00c5a-d219-43c6-96e4-38f3e710a798"},"vehicle_type_id":"4","last_reported":1759000014,"current_range_meters":4800,"station_id":"ce4bhf92rcd13ifvqf40","pricing_plan_id":"cebpf4jnsgd1na2vs0mg"},{"bike_id":"36e3215c-ddcd-482c-9b34-788178a020d3","system_id":"levelo_inurba_marseille","lat":43.29594,"lon":5.38108,"is_reserved":false,"is_disabled":false,"rental_uris":{"android":"levelo://app?vid=36e3215c-ddcd-482c-9b34-788178a020d3","ios":"levelo://app?vid=36e3215c-ddcd-482c-9b34-788178a020d3"},"vehicle_type_id":"4","last_reported":1759000014,"current_range_meters":4800,"station_id":"ce4bgl12rcd13ifvqbo0","pricing_plan_id":"cebpf4jnsgd1na2vs0mg"},{"bike_id":"3ff019b4-f200-434f-bdbd-2de527b20d7e","system_id":"levelo_inurba_marseille","lat":43.21188,"lon":5.35076,"is_reserved":false,"is_disabled":false,"rental_uris":{"android":"levelo://app?vid=3ff019b4-f200-434f-bdbd-2de527b20d7e","ios":"levelo://app?vid=3ff019b4-f200-434f-bdbd-2de527b20d7e"},"vehicle_type_id":"4","last_reported":1759000014,"current_range_meters":4800,"station_id":"st_cvj6sg6p6f1abm77japg","pricing_plan_id":"cebpf4jnsgd1na2vs0mg"},{"bike_id":"58058425-d811-472f-9fbf-af1a55dbe6e1","system_id":"levelo_inurba_marseille","lat":43.29275,"lon":5.37441,"is_reserved":false,"is_disabled":false,"rental_uris":{"android":"levelo://app?vid=58058425-d811-472f-9fbf-af1a55dbe6e1","ios":"levelo://app?vid=58058425-d811-472f-9fbf-af1a55dbe6e1"},"vehicle_type_id":"4","last_reported":1759000014,"current_range_meters":4800,"station_id":"ce4bgi12rcd13ifvqb70","pricing_plan_id":"cebpf4jnsgd1na2vs0mg"},{"bike_id":"041cd397-24ab-4e04-af23-07b961e161f4","system_id":"levelo_inurba_marseille","lat":43.337444,"lon":5.374475,"is_reserved":false,"is_disabled":false,"rental_uris":{"android":"levelo://app?vid=041cd397-24ab-4e04-af23-07b961e161f4","ios":"levelo://app?vid=041cd397-24ab-4e04-af23-07b961e161f4"},"vehicle_type_id":"4","last_reported":1759000014,"current_range_meters":4800,"station_id":"","pricing_plan_id":"cebpf4jnsgd1na2vs0mg"},{"bike_id":"a462cce2-9104-46a9-a432-ba7c3c35eb6a","system_id":"levelo_inurba_marseille","lat":43.27062,"lon":5.40257,"is_reserved":false,"is_disabled":true,"rental_uris":{"android":"levelo://app?vid=a462cce2-9104-46a9-a432-ba7c3c35eb6a","ios":"levelo://app?vid=a462cce2-9104-46a9-a432-ba7c3c35eb6a"},"vehicle_type_id":"4","last_reported":1759000014,"current_range_meters":4800,"station_id":"ce4bhk92rcd13ifvqgc0","pricing_plan_id":"cebpf4jnsgd1na2vs0mg"},{"bike_id":"497e1b1d-57fd-41af-8eea-234ce96aa30d","system_id":"levelo_inurba_marseille","lat":43.29933,"lon":5.36558,"is_reserved":false,"is_disabled":false,"rental_uris":{"android":"levelo://app?vid=497e1b1d-57fd-41af-8eea-234ce96aa30d","ios":"levelo://app?vid=497e1b1d-57fd-41af-8eea-234ce96aa30d"},"vehicle_type_id":"4","last_reported":1759000014,"current_range_meters":4800,"station_id":"ce4bgm92rcd13ifvqbr0","pricing_plan_id":"cebpf4jnsgd1na2vs0mg"},{"bike_id":"85a96c70-9fc6-4698-bb7a-8aae96de7260","system_id":"levelo_inurba_marseille","lat":43.31292,"lon":5.38696,"is_reserved":false,"is_disabled":false,"rental_uris":{"android":"levelo://app?vid=85a96c70-9fc6-4698-bb7a-8aae96de7260","ios":"levelo://app?vid=85a96c70-9fc6-4698-bb7a-8aae96de7260"},"vehicle_type_id":"4","last_reported":1759000014,"current_range_meters":5600,"station_id":"","pricing_plan_id":"cebpf4jnsgd1na2vs0mg"},{"bike_id":"69a56246-2281-4457-91e8-8fe23a573bf1","system_id":"levelo_inurba_marseille","lat":43.21746,"lon":5.34604,"is_reserved":false,"is_disabled":true,"rental_uris":{"android":"levelo://app?vid=69a56246-2281-4457-91e8-8fe23a573bf1","ios":"levelo://app?vid=69a56246-2281-4457-91e8-8fe23a573bf1"},"vehicle_type_id":"4","last_reported":1759000014,"current_range_meters":5600,"station_id":"","pricing_plan_id":"cebpf4jnsgd1na2vs0mg"},{"bike_id":"f96c2cc4-0b1f-4923-bfa9-c4e202a5fcad","system_id":"levelo_inurba_marseille","lat":43.32465,"lon":5.36582,"is_reserved":false,"is_disabled":false,"rental_uris":{"android":"levelo://app?vid=f96c2cc4-0b1f-4923-bfa9-c4e202a5fcad","ios":"levelo://app?vid=f96c2cc4-0b1f-4923-bfa9-c4e202a5fcad"},"vehicle_type_id":"4","last_reported":1759000014,"current_range_meters":5600,"station_id":"ce4bhs12rcd13ifvqhvg","pricing_plan_id":"cebpf4jnsgd1na2vs0mg"},{"bike_id":"39dbee17-cde2-419d-87ad-27f0ca6c78b5","system_id":"levelo_inurba_marseille","lat":43.29256,"lon":5.37621,"is_reserved":false,"is_disabled":false,"rental_uris":{"android":"levelo://app?vid=39dbee17-cde2-419d-87ad-27f0ca6c78b5","ios":"levelo://app?vid=39dbee17-cde2-419d-87ad-27f0ca6c78b5"},"vehicle_type_id":"4","last_reported":1759000014,"current_range_meters":5600,"station_id":"ce4bgi12rcd13ifvqb80","pricing_plan_id":"cebpf4jnsgd1na2vs0mg"},{"bike_id":"53961d36-f15a-461d-95cb-911520f23c6d","system_id":"levelo_inurba_marseille","lat":43.297668,"lon":5.370919,"is_reserved":false,"is_disabled":false,"rental_uris":{"android":"levelo://app?vid=53961d36-f15a-461d-95cb-911520f23c6d","ios":"levelo://app?vid=53961d36-f15a-461d-95cb-911520f23c6d"},"vehicle_type_id":"4","last_reported":1759000014,"current_range_meters":5600,"station_id":"ce4bgop2rcd13ifvqc1g","pricing_plan_id":"cebpf4jnsgd1na2vs0mg"},{"bike_id":"cf38c1f5-50d0-4418-a0de-8bf88ebc9811","system_id":"levelo_inurba_marseille","lat":43.2927,"lon":5.3844,"is_reserved":false,"is_disabled":false,"rental_uris":{"android":"levelo://app?vid=cf38c1f5-50d0-4418-a0de-8bf88ebc9811","ios":"levelo://app?vid=cf38c1f5-50d0-4418-a0de-8bf88ebc9811"},"vehicle_type_id":"4","last_reported":1759000014,"current_range_meters":5600,"station_id":"ce4bh692rcd13ifvqea0","pricing_plan_id":"cebpf4jnsgd1na2vs0mg"},{"bike_id":"9b2a4166-4bf6-4740-b018-82f7f5312a3d","system_id":"levelo_inurba_marseille","lat":43.26929,"lon":5.40236,"is_reserved":false,"is_disabled":true,"rental_uris":{"android":"levelo://app?vid=9b2a4166-4bf6-4740-b018-82f7f5312a3d","ios":"levelo://app?vid=9b2a4166-4bf6-4740-b018-82f7f5312a3d"},"vehicle_type_id":"4","last_reported":1759000014,"current_range_meters":6000,"station_id":"cjm6bp8fraef2m0cb0m0","pricing_plan_id":"cebpf4jnsgd1na2vs0mg"},{"bike_id":"a2bdbfa8-d75c-4079-940a-1eb38b908751","system_id":"levelo_inurba_marseille","lat":43.30244,"lon":5.40061,"is_reserved":false,"is_disabled":false,"rental_uris":{"android":"levelo://app?vid=a2bdbfa8-d75c-4079-940a-1eb38b908751","ios":"levelo://app?vid=a2bdbfa8-d75c-4079-940a-1eb38b908751"},"vehicle_type_id":"4","last_reported":1759000014,"current_range_meters":6000,"station_id":"ce4bgvh2rcd13ifvqcs0","pricing_plan_id":"cebpf4jnsgd1na2vs0mg"},{"bike_id":"1f68979b-3cc1-4faa-913e-ab55548e829d","system_id":"levelo_inurba_marseille","lat":43.28204,"lon":5.39042,"is_reserved":false,"is_disabled":false,"rental_uris":{"android":"levelo://app?vid=1f68979b-3cc1-4faa-913e-ab55548e829d","ios":"levelo://app?vid=1f68979b-3cc1-4faa-913e-ab55548e829d"},"vehicle_type_id":"4","last_reported":1759000014,"current_range_meters":6000,"station_id":"ce4bhn92rcd13ifvqgsg","pricing_plan_id":"cebpf4jnsgd1na2vs0mg"},{"bike_id":"b4693905-3d1c-4279-9a59-2d122d96c50c","system_id":"levelo_inurba_marseille","lat":43.30939,"lon":5.40142,"is_reserved":false,"is_disabled":false,"rental_uris":{"android":"levelo://app?vid=b4693905-3d1c-4279-9a59-2d122d96c50c","ios":"levelo://app?vid=b4693905-3d1c-4279-9a59-2d122d96c50c"},"vehicle_type_id":"4","last_reported":1759000014,"current_range_meters":6000,"station_id":"ce4bgvp2rcd13ifvqct0","pricing_plan_id":"cebpf4jnsgd1na2vs0mg"},{"bike_id":"dff431f0-77f3-4364-a657-b3a1978cb06a","system_id":"levelo_inurba_marseille","lat":43.25338,"lon":5.42182,"is_reserved":false,"is_disabled":false,"rental_uris":{"android":"levelo://app?vid=dff431f0-77f3-4364-a657-b3a1978cb06a","ios":"levelo://app?vid=dff431f0-77f3-4364-a657-b3a1978cb06a"},"vehicle_type_id":"4","last_reported":1759000014,"current_range_meters":6000,"station_id":"st_d2m65c5bi1j21697t3ng","pricing_plan_id":"cebpf4jnsgd1na2vs0mg"},{"bike_id":"7ce14942-046b-4a04-97eb-efefd06585f2","system_id":"levelo_inurba_marseille","lat":43.2886,"lon":5.39304,"is_reserved":false,"is_disabled":false,"rental_uris":{"android":"levelo://app?vid=7ce14942-046b-4a04-97eb-efefd06585f2","ios":"levelo://app?vid=7ce14942-046b-4a04-97eb-efefd06585f2"},"vehicle_type_id":"4","last_reported":1759000014,"current_range_meters":6000,"station_id":"ce4bh2p2rcd13ifvqdi0","pricing_plan_id":"cebpf4jnsgd1na2vs0mg"},{"bike_id":"174dfb4f-f618-4c2f-be1c-ae0d6b405e94","system_id":"levelo_inurba_marseille","lat":43.297112,"lon":5.382712,"is_reserved":false,"is_disabled":false,"rental_uris":{"android":"levelo://app?vid=174dfb4f-f618-4c2f-be1c-ae0d6b405e94","ios":"levelo://app?vid=174dfb4f-f618-4c2f-be1c-ae0d6b405e94"},"vehicle_type_id":"4","last_reported":1759000014,"current_range_meters":6400,"station_id":"","pricing_plan_id":"cebpf4jnsgd1na2vs0mg"},{"bike_id":"4ea066be-d5c0-4685-b39a-612a810bdfbb","system_id":"levelo_inurba_marseille","lat":43.33772,"lon":5.37477,"is_reserved":false,"is_disabled":true,"rental_uris":{"android":"levelo://app?vid=4ea066be-d5c0-4685-b39a-612a810bdfbb","ios":"levelo://app?vid=4ea066be-d5c0-4685-b39a-612a810bdfbb"},"vehicle_type_id":"4","last_reported":1759000014,"current_range_meters":6400,"station_id":"","pricing_plan_id":"cebpf4jnsgd1na2vs0mg"},{"bike_id":"1e635f0f-1082-4e6f-a8bd-d1ebf3cff5ac","system_id":"levelo_inurba_marseille","lat":43.26793,"lon":5.40264,"is_reserved":false,"is_disabled":false,"rental_uris":{"android":"levelo://app?vid=1e635f0f-1082-4e6f-a8bd-d1ebf3cff5ac","ios":"levelo://app?vid=1e635f0f-1082-4e6f-a8bd-d1ebf3cff5ac"},"vehicle_type_id":"4","last_reported":1759000014,"current_range_meters":6400,"station_id":"ce501612rcd8frsf0b60","pricing_plan_id":"cebpf4jnsgd1na2vs0mg"},{"bike_id":"ee399222-6efb-4913-9e84-a8ab360fbe4c","system_id":"levelo_inurba_marseille","lat":43.303395,"lon":5.404435,"is_reserved":false,"is_disabled":false,"rental_uris":{"android":"levelo://app?vid=ee399222-6efb-4913-9e84-a8ab360fbe4c","ios":"levelo://app?vid=ee399222-6efb-4913-9e84-a8ab360fbe4c"},"vehicle_type_id":"4","last_reported":1759000014,"current_range_meters":6400,"station_id":"ce4bh012rcd13ifvqd10","pricing_plan_id":"cebpf4jnsgd1na2vs0mg"},{"bike_id":"4a7f83a8-c7f9-45e8-b900-c19ba423bdc7","system_id":"levelo_inurba_marseille","lat":43.28855,"lon":5.39306,"is_reserved":false,"is_disabled":false,"rental_uris":{"android":"levelo://app?vid=4a7f83a8-c7f9-45e8-b900-c19ba423bdc7","ios":"levelo://app?vid=4a7f83a8-c7f9-45e8-b900-c19ba423bdc7"},"vehicle_type_id":"4","last_reported":1759000014,"current_range_meters":6800,"station_id":"ce4bh2p2rcd13ifvqdi0","pricing_plan_id":"cebpf4jnsgd1na2vs0mg"},{"bike_id":"a49b93fb-6bcd-4a4b-b5b6-7164863732c4","system_id":"levelo_inurba_marseille","lat":43.31122,"lon":5.37781,"is_reserved":false,"is_disabled":false,"rental_uris":{"android":"levelo://app?vid=a49b93fb-6bcd-4a4b-b5b6-7164863732c4","ios":"levelo://app?vid=a49b93fb-6bcd-4a4b-b5b6-7164863732c4"},"vehicle_type_id":"4","last_reported":1759000014,"current_range_meters":6800,"station_id":"ce4bgt92rcd13ifvqcg0","pricing_plan_id":"cebpf4jnsgd1na2vs0mg"},{"bike_id":"ee77555d-d996-43e4-94ae-b92fcfdd2ddb","system_id":"levelo_inurba_marseille","lat":43.33604,"lon":5.41036,"is_reserved":false,"is_disabled":false,"rental_uris":{"android":"levelo://app?vid=ee77555d-d996-43e4-94ae-b92fcfdd2ddb","ios":"levelo://app?vid=ee77555d-d996-43e4-94ae-b92fcfdd2ddb"},"vehicle_type_id":"4","last_reported":1759000014,"current_range_meters":6800,"station_id":"ce4bhqh2rcd13ifvqhmg","pricing_plan_id":"cebpf4jnsgd1na2vs0mg"},{"bike_id":"c2207658-b923-4a8f-a2fa-281c17511191","system_id":"levelo_inurba_marseille","lat":43.32506,"lon":5.36575,"is_reserved":false,"is_disabled":false,"rental_uris":{"android":"levelo://app?vid=c2207658-b923-4a8f-a2fa-281c17511191","ios":"levelo://app?vid=c2207658-b923-4a8f-a2fa-281c17511191"},"vehicle_type_id":"4","last_reported":1759000014,"current_range_meters":6800,"station_id":"ce4bhs12rcd13ifvqhvg","pricing_plan_id":"cebpf4jnsgd1na2vs0mg"},{"bike_id":"fff16d23-6150-46dc-995c-a76f0cc0c195","system_id":"levelo_inurba_marseille","lat":43.250898,"lon":5.395292,"is_reserved":false,"is_disabled":false,"rental_uris":{"android":"levelo://app?vid=fff16d23-6150-46dc-995c-a76f0cc0c195","ios":"levelo://app?vid=fff16d23-6150-46dc-995c-a76f0cc0c195"},"vehicle_type_id":"4","last_reported":1759000014,"current_range_meters":6800,"station_id":"ce4bhm12rcd13ifvqgkg","pricing_plan_id":"cebpf4jnsgd1na2vs0mg"},{"bike_id":"af5b7fdf-6b71-4411-b11f-406ea44ecb80","system_id":"levelo_inurba_marseille","lat":43.21753,"lon":5.34593,"is_reserved":false,"is_disabled":true,"rental_uris":{"android":"levelo://app?vid=af5b7fdf-6b71-4411-b11f-406ea44ecb80","ios":"levelo://app?vid=af5b7fdf-6b71-4411-b11f-406ea44ecb80"},"vehicle_type_id":"4","last_reported":1759000014,"current_range_meters":6800,"station_id":"st_cvj6r9ubvosntc0bgbag","pricing_plan_id":"cebpf4jnsgd1na2vs0mg"},{"bike_id":"5d44fa6c-f803-452a-a893-9efc0b28cd38","system_id":"levelo_inurba_marseille","lat":43.29942,"lon":5.3654,"is_reserved":false,"is_disabled":false,"rental_uris":{"android":"levelo://app?vid=5d44fa6c-f803-452a-a893-9efc0b28cd38","ios":"levelo://app?vid=5d44fa6c-f803-452a-a893-9efc0b28cd38"},"vehicle_type_id":"4","last_reported":1759000014,"current_range_meters":6800,"station_id":"ce4bgm92rcd13ifvqbr0","pricing_plan_id":"cebpf4jnsgd1na2vs0mg"},{"bike_id":"5365e873-98ea-45e2-9689-7e119051f22e","system_id":"levelo_inurba_marseille","lat":43.33015,"lon":5.39042,"is_reserved":false,"is_disabled":false,"rental_uris":{"android":"levelo://app?vid=5365e873-98ea-45e2-9689-7e119051f22e","ios":"levelo://app?vid=5365e873-98ea-45e2-9689-7e119051f22e"},"vehicle_type_id":"4","last_reported":1759000014,"current_range_meters":7200,"station_id":"ce4bhr92rcd13ifvqhrg","pricing_plan_id":"cebpf4jnsgd1na2vs0mg"},{"bike_id":"531562ee-0097-46f7-8be5-f7d665bb95a8","system_id":"levelo_inurba_marseille","lat":43.27495,"lon":5.42452,"is_reserved":false,"is_disabled":false,"rental_uris":{"android":"levelo://app?vid=531562ee-0097-46f7-8be5-f7d665bb95a8","ios":"levelo://app?vid=531562ee-0097-46f7-8be5-f7d665bb95a8"},"vehicle_type_id":"4","last_reported":1759000014,"current_range_meters":7200,"station_id":"ce4bhn92rcd13ifvqgrg","pricing_plan_id":"cebpf4jnsgd1na2vs0mg"},{"bike_id":"cf3c8943-81e0-4a78-b4b5-d59fd69538cc","system_id":"levelo_inurba_marseille","lat":43.29786,"lon":5.37113,"is_reserved":false,"is_disabled":false,"rental_uris":{"android":"levelo://app?vid=cf3c8943-81e0-4a78-b4b5-d59fd69538cc","ios":"levelo://app?vid=cf3c8943-81e0-4a78-b4b5-d59fd69538cc"},"vehicle_type_id":"4","last_reported":1759000014,"current_range_meters":7200,"station_id":"ce4bgop2rcd13ifvqc1g","pricing_plan_id":"cebpf4jnsgd1na2vs0mg"},{"bike_id":"6e4c54c6-ce23-45fc-a268-2a6feef63f72","system_id":"levelo_inurba_marseille","lat":43.29264,"lon":5.38456,"is_reserved":false,"is_disabled":false,"rental_uris":{"android":"levelo://app?vid=6e4c54c6-ce23-45fc-a268-2a6feef63f72","ios":"levelo://app?vid=6e4c54c6-ce23-45fc-a268-2a6feef63f72"},"vehicle_type_id":"4","last_reported":1759000014,"current_range_meters":7200,"station_id":"ce4bh692rcd13ifvqea0","pricing_plan_id":"cebpf4jnsgd1na2vs0mg"},{"bike_id":"4118f6db-0b0e-46a1-b8bb-a7887ede9cb3","system_id":"levelo_inurba_marseille","lat":43.28106,"lon":5.3784,"is_reserved":false,"is_disabled":false,"rental_uris":{"android":"levelo://app?vid=4118f6db-0b0e-46a1-b8bb-a7887ede9cb3","ios":"levelo://app?vid=4118f6db-0b0e-46a1-b8bb-a7887ede9cb3"},"vehicle_type_id":"4","last_reported":1759000014,"current_range_meters":7200,"station_id":"ce4bha12rcd13ifvqee0","pricing_plan_id":"cebpf4jnsgd1na2vs0mg"},{"bike_id":"d7e4d78f-e54b-4b00-aaa4-6f65128709a1","system_id":"levelo_inurba_marseille","lat":43.2737,"lon":5.3626,"is_reserved":false,"is_disabled":false,"rental_uris":{"android":"levelo://app?vid=d7e4d78f-e54b-4b00-aaa4-6f65128709a1","ios":"levelo://app?vid=d7e4d78f-e54b-4b00-aaa4-6f65128709a1"},"vehicle_type_id":"4","last_reported":1759000014,"current_range_meters":7200,"station_id":"ce4bhbh2rcd13ifvqeo0","pricing_plan_id":"cebpf4jnsgd1na2vs0mg"},{"bike_id":"d2b4ac83-91e6-46fb-9929-4b55b0b2c4f5","system_id":"levelo_inurba_marseille","lat":43.25713,"lon":5.41134,"is_reserved":false,"is_disabled":false,"rental_uris":{"android":"levelo://app?vid=d2b4ac83-91e6-46fb-9929-4b55b0b2c4f5","ios":"levelo://app?vid=d2b4ac83-91e6-46fb-9929-4b55b0b2c4f5"},"vehicle_type_id":"4","last_reported":1759000014,"current_range_meters":7200,"station_id":"ce4bhkp2rcd13ifvqgd0","pricing_plan_id":"cebpf4jnsgd1na2vs0mg"},{"bike_id":"a639c491-c436-478a-8d5d-bd2c30b918ff","system_id":"levelo_inurba_marseille","lat":43.29757,"lon":5.3721,"is_reserved":false,"is_disabled":false,"rental_uris":{"android":"levelo://app?vid=a639c491-c436-478a-8d5d-bd2c30b918ff","ios":"levelo://app?vid=a639c491-c436-478a-8d5d-bd2c30b918ff"},"vehicle_type_id":"4","last_reported":1759000014,"current_range_meters":7200,"station_id":"","pricing_plan_id":"cebpf4jnsgd1na2vs0mg"},{"bike_id":"d51dad0f-99ce-4c12-a50d-cc36f70f200b","system_id":"levelo_inurba_marseille","lat":43.31498,"lon":5.3731,"is_reserved":false,"is_disabled":false,"rental_uris":{"android":"levelo://app?vid=d51dad0f-99ce-4c12-a50d-cc36f70f200b","ios":"levelo://app?vid=d51dad0f-99ce-4c12-a50d-cc36f70f200b"},"vehicle_type_id":"4","last_reported":1759000014,"current_range_meters":7200,"station_id":"ce4bgt12rcd13ifvqcd0","pricing_plan_id":"cebpf4jnsgd1na2vs0mg"},{"bike_id":"ecb765cb-b33e-4837-b6e5-7f4fb6eb60e1","system_id":"levelo_inurba_marseille","lat":43.29167,"lon":5.37165,"is_reserved":false,"is_disabled":false,"rental_uris":{"android":"levelo://app?vid=ecb765cb-b33e-4837-b6e5-7f4fb6eb60e1","ios":"levelo://app?vid=ecb765cb-b33e-4837-b6e5-7f4fb6eb60e1"},"vehicle_type_id":"4","last_reported":1759000014,"current_range_meters":8000,"station_id":"ce4bha92rcd13ifvqeh0","pricing_plan_id":"cebpf4jnsgd1na2vs0mg"},{"bike_id":"cd5332c8-b7a4-42d8-bbee-d21346d785c0","system_id":"levelo_inurba_marseille","lat":43.32474,"lon":5.36563,"is_reserved":false,"is_disabled":false,"rental_uris":{"android":"levelo://app?vid=cd5332c8-b7a4-42d8-bbee-d21346d785c0","ios":"levelo://app?vid=cd5332c8-b7a4-42d8-bbee-d21346d785c0"},"vehicle_type_id":"4","last_reported":1759000014,"current_range_meters":8000,"station_id":"ce4bhs12rcd13ifvqhvg","pricing_plan_id":"cebpf4jnsgd1na2vs0mg"},{"bike_id":"cac849ac-f09e-4813-959d-59b2c9c41cfc","system_id":"levelo_inurba_marseille","lat":43.29305,"lon":5.37173,"is_reserved":false,"is_disabled":false,"rental_uris":{"android":"levelo://app?vid=cac849ac-f09e-4813-959d-59b2c9c41cfc","ios":"levelo://app?vid=cac849ac-f09e-4813-959d-59b2c9c41cfc"},"vehicle_type_id":"4","last_reported":1759000014,"current_range_meters":8000,"station_id":"ce4bgh92rcd13ifvqb40","pricing_plan_id":"cebpf4jnsgd1na2vs0mg"},{"bike_id":"0e4bf8a4-662c-4ebd-98a4-65c710b72a2e","system_id":"levelo_inurba_marseille","lat":43.31365,"lon":5.38494,"is_reserved":false,"is_disabled":false,"rental_uris":{"android":"levelo://app?vid=0e4bf8a4-662c-4ebd-98a4-65c710b72a2e","ios":"levelo://app?vid=0e4bf8a4-662c-4ebd-98a4-65c710b72a2e"},"vehicle_type_id":"4","last_reported":1759000014,"current_range_meters":8000,"station_id":"ce4bgt92rcd13ifvqcf0","pricing_plan_id":"cebpf4jnsgd1na2vs0mg"},{"bike_id":"29e4780e-66dd-4124-a3b1-21d046fc1bf4","system_id":"levelo_inurba_marseille","lat":43.29277,"lon":5.38441,"is_reserved":false,"is_disabled":false,"rental_uris":{"android":"levelo://app?vid=29e4780e-66dd-4124-a3b1-21d046fc1bf4","ios":"levelo://app?vid=29e4780e-66dd-4124-a3b1-21d046fc1bf4"},"vehicle_type_id":"4","last_reported":1759000014,"current_range_meters":8000,"station_id":"ce4bh692rcd13ifvqea0","pricing_plan_id":"cebpf4jnsgd1na2vs0mg"},{"bike_id":"74740c07-c316-42fc-a49a-9ccd15d77945","system_id":"levelo_inurba_marseille","lat":43.31528,"lon":5.38037,"is_reserved":false,"is_disabled":false,"rental_uris":{"android":"levelo://app?vid=74740c07-c316-42fc-a49a-9ccd15d77945","ios":"levelo://app?vid=74740c07-c316-42fc-a49a-9ccd15d77945"},"vehicle_type_id":"4","last_reported":1759000014,"current_range_meters":7200,"station_id":"ce4bhsp2rcd13ifvqi50","pricing_plan_id":"cebpf4jnsgd1na2vs0mg"},{"bike_id":"70576f55-1fd1-4836-a37c-36cce9f4423d","system_id":"levelo_inurba_marseille","lat":43.29544,"lon":5.3854,"is_reserved":false,"is_disabled":false,"rental_uris":{"android":"levelo://app?vid=70576f55-1fd1-4836-a37c-36cce9f4423d","ios":"levelo://app?vid=70576f55-1fd1-4836-a37c-36cce9f4423d"},"vehicle_type_id":"4","last_reported":1759000014,"current_range_meters":8000,"station_id":"ce4bgih2rcd13ifvqba0","pricing_plan_id":"cebpf4jnsgd1na2vs0mg"},{"bike_id":"92ba216d-9f37-47e4-8f95-ff99a32eddae","system_id":"levelo_inurba_marseille","lat":43.29303,"lon":5.37461,"is_reserved":false,"is_disabled":false,"rental_uris":{"android":"levelo://app?vid=92ba216d-9f37-47e4-8f95-ff99a32eddae","ios":"levelo://app?vid=92ba216d-9f37-47e4-8f95-ff99a32eddae"},"vehicle_type_id":"4","last_reported":1759000014,"current_range_meters":8000,"station_id":"ce4bgi12rcd13ifvqb70","pricing_plan_id":"cebpf4jnsgd1na2vs0mg"},{"bike_id":"efb70af7-3910-489d-83f9-425320e24d88","system_id":"levelo_inurba_marseille","lat":43.28202,"lon":5.3906,"is_reserved":false,"is_disabled":false,"rental_uris":{"android":"levelo://app?vid=efb70af7-3910-489d-83f9-425320e24d88","ios":"levelo://app?vid=efb70af7-3910-489d-83f9-425320e24d88"},"vehicle_type_id":"4","last_reported":1759000014,"current_range_meters":8000,"station_id":"ce4bhn92rcd13ifvqgsg","pricing_plan_id":"cebpf4jnsgd1na2vs0mg"},{"bike_id":"13b1004c-4046-4556-9080-c78084877cc3","system_id":"levelo_inurba_marseille","lat":43.30303,"lon":5.36902,"is_reserved":false,"is_disabled":false,"rental_uris":{"android":"levelo://app?vid=13b1004c-4046-4556-9080-c78084877cc3","ios":"levelo://app?vid=13b1004c-4046-4556-9080-c78084877cc3"},"vehicle_type_id":"4","last_reported":1759000014,"current_range_meters":8000,"station_id":"ce4bgqh2rcd13ifvqc5g","pricing_plan_id":"cebpf4jnsgd1na2vs0mg"},{"bike_id":"1dc4cbf0-9b85-441f-9ac2-6f3b9dbe0ba5","system_id":"levelo_inurba_marseille","lat":43.29268,"lon":5.37455,"is_reserved":false,"is_disabled":false,"rental_uris":{"android":"levelo://app?vid=1dc4cbf0-9b85-441f-9ac2-6f3b9dbe0ba5","ios":"levelo://app?vid=1dc4cbf0-9b85-441f-9ac2-6f3b9dbe0ba5"},"vehicle_type_id":"4","last_reported":1759000014,"current_range_meters":8000,"station_id":"ce4bgi12rcd13ifvqb70","pricing_plan_id":"cebpf4jnsgd1na2vs0mg"},{"bike_id":"fb54b8a6-c605-41bc-ba4c-06948965ea84","system_id":"levelo_inurba_marseille","lat":43.29032,"lon":5.3997,"is_reserved":false,"is_disabled":false,"rental_uris":{"android":"levelo://app?vid=fb54b8a6-c605-41bc-ba4c-06948965ea84","ios":"levelo://app?vid=fb54b8a6-c605-41bc-ba4c-06948965ea84"},"vehicle_type_id":"4","last_reported":1759000014,"current_range_meters":8000,"station_id":"ce4bh392rcd13ifvqdm0","pricing_plan_id":"cebpf4jnsgd1na2vs0mg"},{"bike_id":"40941a8c-7885-4321-a728-5be6396b87e8","system_id":"levelo_inurba_marseille","lat":43.33604,"lon":5.41002,"is_reserved":false,"is_disabled":false,"rental_uris":{"android":"levelo://app?vid=40941a8c-7885-4321-a728-5be6396b87e8","ios":"levelo://app?vid=40941a8c-7885-4321-a728-5be6396b87e8"},"vehicle_type_id":"4","last_reported":1759000014,"current_range_meters":8400,"station_id":"ce4bhqh2rcd13ifvqhmg","pricing_plan_id":"cebpf4jnsgd1na2vs0mg"},{"bike_id":"d93b0e9b-7d61-42a6-8472-39d87b2b319f","system_id":"levelo_inurba_marseille","lat":43.25329,"lon":5.42179,"is_reserved":false,"is_disabled":false,"rental_uris":{"android":"levelo://app?vid=d93b0e9b-7d61-42a6-8472-39d87b2b319f","ios":"levelo://app?vid=d93b0e9b-7d61-42a6-8472-39d87b2b319f"},"vehicle_type_id":"4","last_reported":1759000014,"current_range_meters":8400,"station_id":"st_d2m65c5bi1j21697t3ng","pricing_plan_id":"cebpf4jnsgd1na2vs0mg"},{"bike_id":"b5b4e990-664a-4fb3-ba6c-da063caecabb","system_id":"levelo_inurba_marseille","lat":43.29267,"lon":5.38446,"is_reserved":false,"is_disabled":false,"rental_uris":{"android":"levelo://app?vid=b5b4e990-664a-4fb3-ba6c-da063caecabb","ios":"levelo://app?vid=b5b4e990-664a-4fb3-ba6c-da063caecabb"},"vehicle_type_id":"4","last_reported":1759000014,"current_range_meters":8000,"station_id":"ce4bh692rcd13ifvqea0","pricing_plan_id":"cebpf4jnsgd1na2vs0mg"},{"bike_id":"ea5f812c-2e1c-48d1-970e-7d818324fae9","system_id":"levelo_inurba_marseille","lat":43.2992,"lon":5.36536,"is_reserved":false,"is_disabled":false,"rental_uris":{"android":"levelo://app?vid=ea5f812c-2e1c-48d1-970e-7d818324fae9","ios":"levelo://app?vid=ea5f812c-2e1c-48d1-970e-7d818324fae9"},"vehicle_type_id":"4","last_reported":1759000014,"current_range_meters":8400,"station_id":"ce4bgm92rcd13ifvqbr0","pricing_plan_id":"cebpf4jnsgd1na2vs0mg"},{"bike_id":"2907de3a-cdb7-4c49-945b-9d4546080cdd","system_id":"levelo_inurba_marseille","lat":43.29275,"lon":5.3623,"is_reserved":false,"is_disabled":false,"rental_uris":{"android":"levelo://app?vid=2907de3a-cdb7-4c49-945b-9d4546080cdd","ios":"levelo://app?vid=2907de3a-cdb7-4c49-945b-9d4546080cdd"},"vehicle_type_id":"4","last_reported":1759000014,"current_range_meters":8400,"station_id":"","pricing_plan_id":"cebpf4jnsgd1na2vs0mg"},{"bike_id":"08fe2b08-b3fa-43f8-ae73-04061f76318d","system_id":"levelo_inurba_marseille","lat":43.305552,"lon":5.365395,"is_reserved":false,"is_disabled":false,"rental_uris":{"android":"levelo://app?vid=08fe2b08-b3fa-43f8-ae73-04061f76318d","ios":"levelo://app?vid=08fe2b08-b3fa-43f8-ae73-04061f76318d"},"vehicle_type_id":"4","last_reported":1759000014,"current_range_meters":8400,"station_id":"","pricing_plan_id":"cebpf4jnsgd1na2vs0mg"},{"bike_id":"443f7dc3-4c35-4975-a8f4-b6a0ee79874b","system_id":"levelo_inurba_marseille","lat":43.29255,"lon":5.37207,"is_reserved":false,"is_disabled":false,"rental_uris":{"android":"levelo://app?vid=443f7dc3-4c35-4975-a8f4-b6a0ee79874b","ios":"levelo://app?vid=443f7dc3-4c35-4975-a8f4-b6a0ee79874b"},"vehicle_type_id":"4","last_reported":1759000014,"current_range_meters":8400,"station_id":"","pricing_plan_id":"cebpf4jnsgd1na2vs0mg"},{"bike_id":"907ed216-30a4-406f-ae2e-0197aba3ed23","system_id":"levelo_inurba_marseille","lat":43.21186,"lon":5.35067,"is_reserved":false,"is_disabled":false,"rental_uris":{"android":"levelo://app?vid=907ed216-30a4-406f-ae2e-0197aba3ed23","ios":"levelo://app?vid=907ed216-30a4-406f-ae2e-0197aba3ed23"},"vehicle_type_id":"4","last_reported":1759000014,"current_range_meters":8400,"station_id":"st_cvj6sg6p6f1abm77japg","pricing_plan_id":"cebpf4jnsgd1na2vs0mg"},{"bike_id":"1ee353c2-3500-49a5-8fb1-ca345d25e5fc","system_id":"levelo_inurba_marseille","lat":43.31881,"lon":5.40738,"is_reserved":false,"is_disabled":false,"rental_uris":{"android":"levelo://app?vid=1ee353c2-3500-49a5-8fb1-ca345d25e5fc","ios":"levelo://app?vid=1ee353c2-3500-49a5-8fb1-ca345d25e5fc"},"vehicle_type_id":"4","last_reported":1759000014,"current_range_meters":8400,"station_id":"ce4bhq12rcd13ifvqhig","pricing_plan_id":"cebpf4jnsgd1na2vs0mg"},{"bike_id":"63cc91fa-b3e6-456c-a38a-d37babc13078","system_id":"levelo_inurba_marseille","lat":43.26055,"lon":5.39399,"is_reserved":false,"is_disabled":false,"rental_uris":{"android":"levelo://app?vid=63cc91fa-b3e6-456c-a38a-d37babc13078","ios":"levelo://app?vid=63cc91fa-b3e6-456c-a38a-d37babc13078"},"vehicle_type_id":"4","last_reported":1759000014,"current_range_meters":8400,"station_id":"ce4bhh92rcd13ifvqfj0","pricing_plan_id":"cebpf4jnsgd1na2vs0mg"},{"bike_id":"c3fe7d43-61d7-483c-9ade-516d24794cef","system_id":"levelo_inurba_marseille","lat":43.29921,"lon":5.39771,"is_reserved":false,"is_disabled":false,"rental_uris":{"android":"levelo://app?vid=c3fe7d43-61d7-483c-9ade-516d24794cef","ios":"levelo://app?vid=c3fe7d43-61d7-483c-9ade-516d24794cef"},"vehicle_type_id":"4","last_reported":1759000014,"current_range_meters":8800,"station_id":"","pricing_plan_id":"cebpf4jnsgd1na2vs0mg"},{"bike_id":"6da3b581-015a-4cfb-9997-032be796abac","system_id":"levelo_inurba_marseille","lat":43.32662,"lon":5.40989,"is_reserved":false,"is_disabled":false,"rental_uris":{"android":"levelo://app?vid=6da3b581-015a-4cfb-9997-032be796abac","ios":"levelo://app?vid=6da3b581-015a-4cfb-9997-032be796abac"},"vehicle_type_id":"4","last_reported":1759000014,"current_range_meters":8800,"station_id":"ce4bhpp2rcd13ifvqhgg","pricing_plan_id":"cebpf4jnsgd1na2vs0mg"},{"bike_id":"5bfb8fec-5dba-4a61-9635-1f7de23e6327","system_id":"levelo_inurba_marseille","lat":43.31362,"lon":5.38501,"is_reserved":false,"is_disabled":false,"rental_uris":{"android":"levelo://app?vid=5bfb8fec-5dba-4a61-9635-1f7de23e6327","ios":"levelo://app?vid=5bfb8fec-5dba-4a61-9635-1f7de23e6327"},"vehicle_type_id":"4","last_reported":1759000014,"current_range_meters":8800,"station_id":"ce4bgt92rcd13ifvqcf0","pricing_plan_id":"cebpf4jnsgd1na2vs0mg"},{"bike_id":"03d2b596-23f2-44de-8529-e1cf0611d070","system_id":"levelo_inurba_marseille","lat":43.255,"lon":5.37652,"is_reserved":false,"is_disabled":false,"rental_uris":{"android":"levelo://app?vid=03d2b596-23f2-44de-8529-e1cf0611d070","ios":"levelo://app?vid=03d2b596-23f2-44de-8529-e1cf0611d070"},"vehicle_type_id":"4","last_reported":1759000014,"current_range_meters":8800,"station_id":"ce4bhh12rcd13ifvqff0","pricing_plan_id":"cebpf4jnsgd1na2vs0mg"},{"bike_id":"be2541ba-b7e1-4421-9d7d-85abd4ccc8fd","system_id":"levelo_inurba_marseille","lat":43.30531,"lon":5.36705,"is_reserved":false,"is_disabled":false,"rental_uris":{"android":"levelo://app?vid=be2541ba-b7e1-4421-9d7d-85abd4ccc8fd","ios":"levelo://app?vid=be2541ba-b7e1-4421-9d7d-85abd4ccc8fd"},"vehicle_type_id":"4","last_reported":1759000014,"current_range_meters":8800,"station_id":"ce4bgrp2rcd13ifvqc9g","pricing_plan_id":"cebpf4jnsgd1na2vs0mg"},{"bike_id":"8e385f69-4a89-4bf0-86a4-c68fbcf7e1cb","system_id":"levelo_inurba_marseille","lat":43.225324,"lon":5.348325,"is_reserved":false,"is_disabled":false,"rental_uris":{"android":"levelo://app?vid=8e385f69-4a89-4bf0-86a4-c68fbcf7e1cb","ios":"levelo://app?vid=8e385f69-4a89-4bf0-86a4-c68fbcf7e1cb"},"vehicle_type_id":"4","last_reported":1759000014,"current_range_meters":8800,"station_id":"","pricing_plan_id":"cebpf4jnsgd1na2vs0mg"},{"bike_id":"01a5e9ab-775b-4c57-96e5-5462ad86f84f","system_id":"levelo_inurba_marseille","lat":43.28341,"lon":5.38108,"is_reserved":false,"is_disabled":false,"rental_uris":{"android":"levelo://app?vid=01a5e9ab-775b-4c57-96e5-5462ad86f84f","ios":"levelo://app?vid=01a5e9ab-775b-4c57-96e5-5462ad86f84f"},"vehicle_type_id":"4","last_reported":1759000014,"current_range_meters":8800,"station_id":"ce4bh412rcd13ifvqdr0","pricing_plan_id":"cebpf4jnsgd1na2vs0mg"},{"bike_id":"75557764-c87e-4b37-97b9-5c12e10f5c85","system_id":"levelo_inurba_marseille","lat":43.26228,"lon":5.4045,"is_reserved":false,"is_disabled":false,"rental_uris":{"android":"levelo://app?vid=75557764-c87e-4b37-97b9-5c12e10f5c85","ios":"levelo://app?vid=75557764-c87e-4b37-97b9-5c12e10f5c85"},"vehicle_type_id":"4","last_reported":1759000014,"current_range_meters":8800,"station_id":"ce4bhmh2rcd13ifvqgmg","pricing_plan_id":"cebpf4jnsgd1na2vs0mg"},{"bike_id":"712dddc4-ae95-4aaf-b4c6-16c01a2ce26f","system_id":"levelo_inurba_marseille","lat":43.3004,"lon":5.38066,"is_reserved":false,"is_disabled":false,"rental_uris":{"android":"levelo://app?vid=712dddc4-ae95-4aaf-b4c6-16c01a2ce26f","ios":"levelo://app?vid=712dddc4-ae95-4aaf-b4c6-16c01a2ce26f"},"vehicle_type_id":"4","last_reported":1759000014,"current_range_meters":8800,"station_id":"","pricing_plan_id":"cebpf4jnsgd1na2vs0mg"},{"bike_id":"f78471cd-003b-4184-8da3-af742fa39863","system_id":"levelo_inurba_marseille","lat":43.31226,"lon":5.36861,"is_reserved":false,"is_disabled":false,"rental_uris":{"android":"levelo://app?vid=f78471cd-003b-4184-8da3-af742fa39863","ios":"levelo://app?vid=f78471cd-003b-4184-8da3-af742fa39863"},"vehicle_type_id":"4","last_reported":1759000014,"current_range_meters":8800,"station_id":"ce4bgl92rcd13ifvqbq0","pricing_plan_id":"cebpf4jnsgd1na2vs0mg"},{"bike_id":"7b65e264-2dd9-4f1a-9195-0dbc1cf0a026","system_id":"levelo_inurba_marseille","lat":43.280015,"lon":5.400149,"is_reserved":false,"is_disabled":false,"rental_uris":{"android":"levelo://app?vid=7b65e264-2dd9-4f1a-9195-0dbc1cf0a026","ios":"levelo://app?vid=7b65e264-2dd9-4f1a-9195-0dbc1cf0a026"},"vehicle_type_id":"4","last_reported":1759000014,"current_range_meters":8800,"station_id":"ce4bho92rcd13ifvqh4g","pricing_plan_id":"cebpf4jnsgd1na2vs0mg"},{"bike_id":"f0b91acb-7140-4923-b9e8-cc98bece1eb3","system_id":"levelo_inurba_marseille","lat":43.30087,"lon":5.39082,"is_reserved":false,"is_disabled":false,"rental_uris":{"android":"levelo://app?vid=f0b91acb-7140-4923-b9e8-cc98bece1eb3","ios":"levelo://app?vid=f0b91acb-7140-4923-b9e8-cc98bece1eb3"},"vehicle_type_id":"4","last_reported":1759000014,"current_range_meters":9200,"station_id":"ce4bh192rcd13ifvqdb0","pricing_plan_id":"cebpf4jnsgd1na2vs0mg"},{"bike_id":"ee96a502-9b76-492e-840a-498b02aefe72","system_id":"levelo_inurba_marseille","lat":43.32348,"lon":5.39213,"is_reserved":false,"is_disabled":false,"rental_uris":{"android":"levelo://app?vid=ee96a502-9b76-492e-840a-498b02aefe72","ios":"levelo://app?vid=ee96a502-9b76-492e-840a-498b02aefe72"},"vehicle_type_id":"4","last_reported":1759000014,"current_range_meters":9200,"station_id":"","pricing_plan_id":"cebpf4jnsgd1na2vs0mg"},{"bike_id":"fee74e98-eb52-4f66-a612-109c75f34aa6","system_id":"levelo_inurba_marseille","lat":43.296216,"lon":5.379492,"is_reserved":false,"is_disabled":false,"rental_uris":{"android":"levelo://app?vid=fee74e98-eb52-4f66-a612-109c75f34aa6","ios":"levelo://app?vid=fee74e98-eb52-4f66-a612-109c75f34aa6"},"vehicle_type_id":"4","last_reported":1759000014,"current_range_meters":9200,"station_id":"","pricing_plan_id":"cebpf4jnsgd1na2vs0mg"},{"bike_id":"08ef7f11-afcc-42b9-bc8f-0c56884c36bb","system_id":"levelo_inurba_marseille","lat":43.27323,"lon":5.39071,"is_reserved":false,"is_disabled":false,"rental_uris":{"android":"levelo://app?vid=08ef7f11-afcc-42b9-bc8f-0c56884c36bb","ios":"levelo://app?vid=08ef7f11-afcc-42b9-bc8f-0c56884c36bb"},"vehicle_type_id":"4","last_reported":1759000014,"current_range_meters":9200,"station_id":"ce4bhgp2rcd13ifvqfe0","pricing_plan_id":"cebpf4jnsgd1na2vs0mg"},{"bike_id":"4f4cea63-df89-4e79-958a-f2ca3f9e4fb4","system_id":"levelo_inurba_marseille","lat":43.30606,"lon":5.39348,"is_reserved":false,"is_disabled":false,"rental_uris":{"android":"levelo://app?vid=4f4cea63-df89-4e79-958a-f2ca3f9e4fb4","ios":"levelo://app?vid=4f4cea63-df89-4e79-958a-f2ca3f9e4fb4"},"vehicle_type_id":"4","last_reported":1759000014,"current_range_meters":9200,"station_id":"ce4bh0p2rcd13ifvqd80","pricing_plan_id":"cebpf4jnsgd1na2vs0mg"},{"bike_id":"83dc52a5-6532-472a-b207-8fb9ee58c24b","system_id":"levelo_inurba_marseille","lat":43.29562,"lon":5.37481,"is_reserved":false,"is_disabled":false,"rental_uris":{"android":"levelo://app?vid=83dc52a5-6532-472a-b207-8fb9ee58c24b","ios":"levelo://app?vid=83dc52a5-6532-472a-b207-8fb9ee58c24b"},"vehicle_type_id":"4","last_reported":1759000014,"current_range_meters":9200,"station_id":"ce4bgh92rcd13ifvqb50","pricing_plan_id":"cebpf4jnsgd1na2vs0mg"},{"bike_id":"426ed881-939f-4965-a31e-1d7f02a9c3fd","system_id":"levelo_inurba_marseille","lat":43.299768,"lon":5.371922,"is_reserved":false,"is_disabled":false,"rental_uris":{"android":"levelo://app?vid=426ed881-939f-4965-a31e-1d7f02a9c3fd","ios":"levelo://app?vid=426ed881-939f-4965-a31e-1d7f02a9c3fd"},"vehicle_type_id":"4","last_reported":1759000014,"current_range_meters":9600,"station_id":"ce4bgr92rcd13ifvqc7g","pricing_plan_id":"cebpf4jnsgd1na2vs0mg"},{"bike_id":"fce8269c-fc61-47a9-9ed2-f092533d5896","system_id":"levelo_inurba_marseille","lat":43.29582,"lon":5.37512,"is_reserved":false,"is_disabled":false,"rental_uris":{"android":"levelo://app?vid=fce8269c-fc61-47a9-9ed2-f092533d5896","ios":"levelo://app?vid=fce8269c-fc61-47a9-9ed2-f092533d5896"},"vehicle_type_id":"4","last_reported":1759000014,"current_range_meters":9600,"station_id":"ce4bgh92rcd13ifvqb50","pricing_plan_id":"cebpf4jnsgd1na2vs0mg"},{"bike_id":"b5e3d95c-d6ab-47a1-a565-d021b45ce728","system_id":"levelo_inurba_marseille","lat":43.21759,"lon":5.34639,"is_reserved":false,"is_disabled":true,"rental_uris":{"android":"levelo://app?vid=b5e3d95c-d6ab-47a1-a565-d021b45ce728","ios":"levelo://app?vid=b5e3d95c-d6ab-47a1-a565-d021b45ce728"},"vehicle_type_id":"4","last_reported":1759000014,"current_range_meters":9600,"station_id":"st_cvj6r9ubvosntc0bgbag","pricing_plan_id":"cebpf4jnsgd1na2vs0mg"},{"bike_id":"6c00a6a0-3cf0-48a9-b218-0693fab11be9","system_id":"levelo_inurba_marseille","lat":43.3028,"lon":5.43521,"is_reserved":false,"is_disabled":false,"rental_uris":{"android":"levelo://app?vid=6c00a6a0-3cf0-48a9-b218-0693fab11be9","ios":"levelo://app?vid=6c00a6a0-3cf0-48a9-b218-0693fab11be9"},"vehicle_type_id":"4","last_reported":1759000014,"current_range_meters":9600,"station_id":"","pricing_plan_id":"cebpf4jnsgd1na2vs0mg"},{"bike_id":"fd4b5ad5-2581-44dd-90b2-f4a8fbdc2423","system_id":"levelo_inurba_marseille","lat":43.299011,"lon":5.364989,"is_reserved":false,"is_disabled":false,"rental_uris":{"android":"levelo://app?vid=fd4b5ad5-2581-44dd-90b2-f4a8fbdc2423","ios":"levelo://app?vid=fd4b5ad5-2581-44dd-90b2-f4a8fbdc2423"},"vehicle_type_id":"4","last_reported":1759000014,"current_range_meters":9600,"station_id":"","pricing_plan_id":"cebpf4jnsgd1na2vs0mg"},{"bike_id":"1023cbf7-b97c-42d4-b212-d5d658a42646","system_id":"levelo_inurba_marseille","lat":43.26939,"lon":5.40251,"is_reserved":false,"is_disabled":false,"rental_uris":{"android":"levelo://app?vid=1023cbf7-b97c-42d4-b212-d5d658a42646","ios":"levelo://app?vid=1023cbf7-b97c-42d4-b212-d5d658a42646"},"vehicle_type_id":"4","last_reported":1759000014,"current_range_meters":9600,"station_id":"cjm6bp8fraef2m0cb0m0","pricing_plan_id":"cebpf4jnsgd1na2vs0mg"},{"bike_id":"9743fd3d-b83a-49fe-b055-16ed840cdbf1","system_id":"levelo_inurba_marseille","lat":43.299411,"lon":5.385201,"is_reserved":false,"is_disabled":true,"rental_uris":{"android":"levelo://app?vid=9743fd3d-b83a-49fe-b055-16ed840cdbf1","ios":"levelo://app?vid=9743fd3d-b83a-49fe-b055-16ed840cdbf1"},"vehicle_type_id":"4","last_reported":1759000014,"current_range_meters":9600,"station_id":"","pricing_plan_id":"cebpf4jnsgd1na2vs0mg"},{"bike_id":"81eb4ca5-8c84-4899-9c13-f43a5e9f7572","system_id":"levelo_inurba_marseille","lat":43.29845,"lon":5.36283,"is_reserved":false,"is_disabled":false,"rental_uris":{"android":"levelo://app?vid=81eb4ca5-8c84-4899-9c13-f43a5e9f7572","ios":"levelo://app?vid=81eb4ca5-8c84-4899-9c13-f43a5e9f7572"},"vehicle_type_id":"4","last_reported":1759000014,"current_range_meters":9600,"station_id":"ce4bgpp2rcd13ifvqc3g","pricing_plan_id":"cebpf4jnsgd1na2vs0mg"},{"bike_id":"ccea33ad-6ab7-4a34-96c5-31f7cdf54269","system_id":"levelo_inurba_marseille","lat":43.315325,"lon":5.367735,"is_reserved":false,"is_disabled":false,"rental_uris":{"android":"levelo://app?vid=ccea33ad-6ab7-4a34-96c5-31f7cdf54269","ios":"levelo://app?vid=ccea33ad-6ab7-4a34-96c5-31f7cdf54269"},"vehicle_type_id":"4","last_reported":1759000014,"current_range_meters":9600,"station_id":"ce4bhsh2rcd13ifvqi2g","pricing_plan_id":"cebpf4jnsgd1na2vs0mg"},{"bike_id":"ecdbae7c-2a54-48f3-a50d-1688629ec153","system_id":"levelo_inurba_marseille","lat":43.30525,"lon":5.36552,"is_reserved":false,"is_disabled":false,"rental_uris":{"android":"levelo://app?vid=ecdbae7c-2a54-48f3-a50d-1688629ec153","ios":"levelo://app?vid=ecdbae7c-2a54-48f3-a50d-1688629ec153"},"vehicle_type_id":"4","last_reported":1759000014,"current_range_meters":9600,"station_id":"ce4bgs12rcd13ifvqcag","pricing_plan_id":"cebpf4jnsgd1na2vs0mg"},{"bike_id":"f67dc007-705a-4ccb-a8a4-7cd6e24ee524","system_id":"levelo_inurba_marseille","lat":43.31477,"lon":5.37307,"is_reserved":false,"is_disabled":false,"rental_uris":{"android":"levelo://app?vid=f67dc007-705a-4ccb-a8a4-7cd6e24ee524","ios":"levelo://app?vid=f67dc007-705a-4ccb-a8a4-7cd6e24ee524"},"vehicle_type_id":"4","last_reported":1759000014,"current_range_meters":9600,"station_id":"ce4bgt12rcd13ifvqcd0","pricing_plan_id":"cebpf4jnsgd1na2vs0mg"},{"bike_id":"9a38d702-61d9-4cab-9374-b4d3d1d120c6","system_id":"levelo_inurba_marseille","lat":43.29535,"lon":5.39055,"is_reserved":false,"is_disabled":false,"rental_uris":{"android":"levelo://app?vid=9a38d702-61d9-4cab-9374-b4d3d1d120c6","ios":"levelo://app?vid=9a38d702-61d9-4cab-9374-b4d3d1d120c6"},"vehicle_type_id":"4","last_reported":1759000014,"current_range_meters":10000,"station_id":"ce4bh3p2rcd13ifvqdp0","pricing_plan_id":"cebpf4jnsgd1na2vs0mg"},{"bike_id":"a78302dc-aa43-437f-9030-51e4e7e137f4","system_id":"levelo_inurba_marseille","lat":43.21192,"lon":5.35096,"is_reserved":false,"is_disabled":false,"rental_uris":{"android":"levelo://app?vid=a78302dc-aa43-437f-9030-51e4e7e137f4","ios":"levelo://app?vid=a78302dc-aa43-437f-9030-51e4e7e137f4"},"vehicle_type_id":"4","last_reported":1759000014,"current_range_meters":10000,"station_id":"st_cvj6sg6p6f1abm77japg","pricing_plan_id":"cebpf4jnsgd1na2vs0mg"},{"bike_id":"28d8918b-837f-4618-8a2f-756c2b2b4c2b","system_id":"levelo_inurba_marseille","lat":43.29739,"lon":5.36614,"is_reserved":false,"is_disabled":false,"rental_uris":{"android":"levelo://app?vid=28d8918b-837f-4618-8a2f-756c2b2b4c2b","ios":"levelo://app?vid=28d8918b-837f-4618-8a2f-756c2b2b4c2b"},"vehicle_type_id":"4","last_reported":1759000014,"current_range_meters":10000,"station_id":"ce4bgn12rcd13ifvqbt0","pricing_plan_id":"cebpf4jnsgd1na2vs0mg"},{"bike_id":"8360fe96-8a6b-4a67-9ba4-0ef948b002e1","system_id":"levelo_inurba_marseille","lat":43.2502,"lon":5.38914,"is_reserved":false,"is_disabled":true,"rental_uris":{"android":"levelo://app?vid=8360fe96-8a6b-4a67-9ba4-0ef948b002e1","ios":"levelo://app?vid=8360fe96-8a6b-4a67-9ba4-0ef948b002e1"},"vehicle_type_id":"4","last_reported":1759000014,"current_range_meters":10000,"station_id":"ce4bhgp2rcd13ifvqfd0","pricing_plan_id":"cebpf4jnsgd1na2vs0mg"},{"bike_id":"9bb4db31-0bf9-4171-bca1-76cb045f53a3","system_id":"levelo_inurba_marseille","lat":43.26924,"lon":5.389081,"is_reserved":false,"is_disabled":true,"rental_uris":{"android":"levelo://app?vid=9bb4db31-0bf9-4171-bca1-76cb045f53a3","ios":"levelo://app?vid=9bb4db31-0bf9-4171-bca1-76cb045f53a3"},"vehicle_type_id":"4","last_reported":1759000014,"current_range_meters":10000,"station_id":"ce4bhhh2rcd13ifvqfl0","pricing_plan_id":"cebpf4jnsgd1na2vs0mg"},{"bike_id":"26ae79bd-78f8-49c4-969e-600bc87ce60d","system_id":"levelo_inurba_marseille","lat":43.306219,"lon":5.393224,"is_reserved":false,"is_disabled":false,"rental_uris":{"android":"levelo://app?vid=26ae79bd-78f8-49c4-969e-600bc87ce60d","ios":"levelo://app?vid=26ae79bd-78f8-49c4-969e-600bc87ce60d"},"vehicle_type_id":"4","last_reported":1759000014,"current_range_meters":10000,"station_id":"ce4bh0p2rcd13ifvqd80","pricing_plan_id":"cebpf4jnsgd1na2vs0mg"},{"bike_id":"706451a5-1593-4293-beff-691ea8c59906","system_id":"levelo_inurba_marseille","lat":43.24835,"lon":5.37481,"is_reserved":false,"is_disabled":false,"rental_uris":{"android":"levelo://app?vid=706451a5-1593-4293-beff-691ea8c59906","ios":"levelo://app?vid=706451a5-1593-4293-beff-691ea8c59906"},"vehicle_type_id":"4","last_reported":1759000014,"current_range_meters":10000,"station_id":"ce4bhgh2rcd13ifvqfb0","pricing_plan_id":"cebpf4jnsgd1na2vs0mg"},{"bike_id":"5631f3c7-cd89-43b6-ba88-f3ab87f8c8f0","system_id":"levelo_inurba_marseille","lat":43.2977,"lon":5.37085,"is_reserved":false,"is_disabled":false,"rental_uris":{"android":"levelo://app?vid=5631f3c7-cd89-43b6-ba88-f3ab87f8c8f0","ios":"levelo://app?vid=5631f3c7-cd89-43b6-ba88-f3ab87f8c8f0"},"vehicle_type_id":"4","last_reported":1759000014,"current_range_meters":10000,"station_id":"ce4bgop2rcd13ifvqc1g","pricing_plan_id":"cebpf4jnsgd1na2vs0mg"},{"bike_id":"81b83c63-cd15-418e-8a9a-1addb0c3bc12","system_id":"levelo_inurba_marseille","lat":43.29895,"lon":5.43681,"is_reserved":false,"is_disabled":false,"rental_uris":{"android":"levelo://app?vid=81b83c63-cd15-418e-8a9a-1addb0c3bc12","ios":"levelo://app?vid=81b83c63-cd15-418e-8a9a-1addb0c3bc12"},"vehicle_type_id":"4","last_reported":1759000014,"current_range_meters":10800,"station_id":"ce4bhpp2rcd13ifvqhfg","pricing_plan_id":"cebpf4jnsgd1na2vs0mg"},{"bike_id":"e114a3ae-0a89-4dac-83a7-a52236826763","system_id":"levelo_inurba_marseille","lat":43.21199,"lon":5.351,"is_reserved":false,"is_disabled":false,"rental_uris":{"android":"levelo://app?vid=e114a3ae-0a89-4dac-83a7-a52236826763","ios":"levelo://app?vid=e114a3ae-0a89-4dac-83a7-a52236826763"},"vehicle_type_id":"4","last_reported":1759000014,"current_range_meters":10800,"station_id":"st_cvj6sg6p6f1abm77japg","pricing_plan_id":"cebpf4jnsgd1na2vs0mg"},{"bike_id":"1b10335c-ab52-453f-b705-5ee872f8454f","system_id":"levelo_inurba_marseille","lat":43.29286,"lon":5.38451,"is_reserved":false,"is_disabled":false,"rental_uris":{"android":"levelo://app?vid=1b10335c-ab52-453f-b705-5ee872f8454f","ios":"levelo://app?vid=1b10335c-ab52-453f-b705-5ee872f8454f"},"vehicle_type_id":"4","last_reported":1759000014,"current_range_meters":10800,"station_id":"ce4bh692rcd13ifvqea0","pricing_plan_id":"cebpf4jnsgd1na2vs0mg"},{"bike_id":"01bf55f2-4ac6-46f6-8504-3267bf31e1a6","system_id":"levelo_inurba_marseille","lat":43.2973,"lon":5.381787,"is_reserved":false,"is_disabled":false,"rental_uris":{"android":"levelo://app?vid=01bf55f2-4ac6-46f6-8504-3267bf31e1a6","ios":"levelo://app?vid=01bf55f2-4ac6-46f6-8504-3267bf31e1a6"},"vehicle_type_id":"4","last_reported":1759000014,"current_range_meters":10800,"station_id":"","pricing_plan_id":"cebpf4jnsgd1na2vs0mg"},{"bike_id":"db8098eb-61f8-4094-88f1-dc02a14320f7","system_id":"levelo_inurba_marseille","lat":43.24621,"lon":5.43177,"is_reserved":false,"is_disabled":false,"rental_uris":{"android":"levelo://app?vid=db8098eb-61f8-4094-88f1-dc02a14320f7","ios":"levelo://app?vid=db8098eb-61f8-4094-88f1-dc02a14320f7"},"vehicle_type_id":"4","last_reported":1759000014,"current_range_meters":10800,"station_id":"st_d2m6c4gdas8pm72e190g","pricing_plan_id":"cebpf4jnsgd1na2vs0mg"},{"bike_id":"09830dab-4c93-4a00-8f87-5b95631d27c9","system_id":"levelo_inurba_marseille","lat":43.25715,"lon":5.4111,"is_reserved":false,"is_disabled":false,"rental_uris":{"android":"levelo://app?vid=09830dab-4c93-4a00-8f87-5b95631d27c9","ios":"levelo://app?vid=09830dab-4c93-4a00-8f87-5b95631d27c9"},"vehicle_type_id":"4","last_reported":1759000014,"current_range_meters":10000,"station_id":"ce4bhkp2rcd13ifvqgd0","pricing_plan_id":"cebpf4jnsgd1na2vs0mg"},{"bike_id":"11ecce55-5e6c-46cc-aa92-38e3e67d9d67","system_id":"levelo_inurba_marseille","lat":43.32361,"lon":5.38899,"is_reserved":false,"is_disabled":false,"rental_uris":{"android":"levelo://app?vid=11ecce55-5e6c-46cc-aa92-38e3e67d9d67","ios":"levelo://app?vid=11ecce55-5e6c-46cc-aa92-38e3e67d9d67"},"vehicle_type_id":"4","last_reported":1759000014,"current_range_meters":10800,"station_id":"ce4bhqp2rcd13ifvqhog","pricing_plan_id":"cebpf4jnsgd1na2vs0mg"},{"bike_id":"9f315857-dfb2-4738-ba3a-40430c6ac8c7","system_id":"levelo_inurba_marseille","lat":43.29532,"lon":5.38544,"is_reserved":false,"is_disabled":false,"rental_uris":{"android":"levelo://app?vid=9f315857-dfb2-4738-ba3a-40430c6ac8c7","ios":"levelo://app?vid=9f315857-dfb2-4738-ba3a-40430c6ac8c7"},"vehicle_type_id":"4","last_reported":1759000014,"current_range_meters":10800,"station_id":"ce4bgih2rcd13ifvqba0","pricing_plan_id":"cebpf4jnsgd1na2vs0mg"},{"bike_id":"5498da64-8e83-4b3b-896d-ca41728413c5","system_id":"levelo_inurba_marseille","lat":43.27669,"lon":5.38885,"is_reserved":false,"is_disabled":false,"rental_uris":{"android":"levelo://app?vid=5498da64-8e83-4b3b-896d-ca41728413c5","ios":"levelo://app?vid=5498da64-8e83-4b3b-896d-ca41728413c5"},"vehicle_type_id":"4","last_reported":1759000014,"current_range_meters":10800,"station_id":"ce4bhi12rcd13ifvqfo0","pricing_plan_id":"cebpf4jnsgd1na2vs0mg"},{"bike_id":"ca33125d-1c32-4ecd-86ab-97a516aea09f","system_id":"levelo_inurba_marseille","lat":43.31854,"lon":5.39048,"is_reserved":false,"is_disabled":false,"rental_uris":{"android":"levelo://app?vid=ca33125d-1c32-4ecd-86ab-97a516aea09f","ios":"levelo://app?vid=ca33125d-1c32-4ecd-86ab-97a516aea09f"},"vehicle_type_id":"4","last_reported":1759000014,"current_range_meters":11200,"station_id":"","pricing_plan_id":"cebpf4jnsgd1na2vs0mg"},{"bike_id":"3f51e03c-3abb-4dde-8cdd-da596aa3252f","system_id":"levelo_inurba_marseille","lat":43.27666,"lon":5.38907,"is_reserved":false,"is_disabled":true,"rental_uris":{"android":"levelo://app?vid=3f51e03c-3abb-4dde-8cdd-da596aa3252f","ios":"levelo://app?vid=3f51e03c-3abb-4dde-8cdd-da596aa3252f"},"vehicle_type_id":"4","last_reported":1759000014,"current_range_meters":11200,"station_id":"ce4bhi12rcd13ifvqfo0","pricing_plan_id":"cebpf4jnsgd1na2vs0mg"},{"bike_id":"fd7db3b2-bf6f-47a6-a193-d9e54fb8924d","system_id":"levelo_inurba_marseille","lat":43.29252,"lon":5.36611,"is_reserved":false,"is_disabled":false,"rental_uris":{"android":"levelo://app?vid=fd7db3b2-bf6f-47a6-a193-d9e54fb8924d","ios":"levelo://app?vid=fd7db3b2-bf6f-47a6-a193-d9e54fb8924d"},"vehicle_type_id":"4","last_reported":1759000014,"current_range_meters":11200,"station_id":"","pricing_plan_id":"cebpf4jnsgd1na2vs0mg"},{"bike_id":"c6b2b847-18b7-40ae-ac35-2a17ed3306cf","system_id":"levelo_inurba_marseille","lat":43.2534,"lon":5.42172,"is_reserved":false,"is_disabled":false,"rental_uris":{"android":"levelo://app?vid=c6b2b847-18b7-40ae-ac35-2a17ed3306cf","ios":"levelo://app?vid=c6b2b847-18b7-40ae-ac35-2a17ed3306cf"},"vehicle_type_id":"4","last_reported":1759000014,"current_range_meters":11200,"station_id":"st_d2m65c5bi1j21697t3ng","pricing_plan_id":"cebpf4jnsgd1na2vs0mg"},{"bike_id":"f9ab57ea-357e-464a-9f5d-9b3a7f569358","system_id":"levelo_inurba_marseille","lat":43.295339,"lon":5.385444,"is_reserved":false,"is_disabled":false,"rental_uris":{"android":"levelo://app?vid=f9ab57ea-357e-464a-9f5d-9b3a7f569358","ios":"levelo://app?vid=f9ab57ea-357e-464a-9f5d-9b3a7f569358"},"vehicle_type_id":"4","last_reported":1759000014,"current_range_meters":10000,"station_id":"ce4bgih2rcd13ifvqba0","pricing_plan_id":"cebpf4jnsgd1na2vs0mg"},{"bike_id":"934ea1ec-b7f6-49a1-9efa-287317d4eb22","system_id":"levelo_inurba_marseille","lat":43.29048,"lon":5.35914,"is_reserved":false,"is_disabled":false,"rental_uris":{"android":"levelo://app?vid=934ea1ec-b7f6-49a1-9efa-287317d4eb22","ios":"levelo://app?vid=934ea1ec-b7f6-49a1-9efa-287317d4eb22"},"vehicle_type_id":"4","last_reported":1759000014,"current_range_meters":11600,"station_id":"","pricing_plan_id":"cebpf4jnsgd1na2vs0mg"},{"bike_id":"2b2eb840-6ce7-4e4e-a651-bda186b9205e","system_id":"levelo_inurba_marseille","lat":43.30547,"lon":5.36545,"is_reserved":false,"is_disabled":false,"rental_uris":{"android":"levelo://app?vid=2b2eb840-6ce7-4e4e-a651-bda186b9205e","ios":"levelo://app?vid=2b2eb840-6ce7-4e4e-a651-bda186b9205e"},"vehicle_type_id":"4","last_reported":1759000014,"current_range_meters":11600,"station_id":"ce4bgs12rcd13ifvqcag","pricing_plan_id":"cebpf4jnsgd1na2vs0mg"},{"bike_id":"f2fd2284-837d-45c8-8a92-163c2aa30979","system_id":"levelo_inurba_marseille","lat":43.26934,"lon":5.38918,"is_reserved":false,"is_disabled":true,"rental_uris":{"android":"levelo://app?vid=f2fd2284-837d-45c8-8a92-163c2aa30979","ios":"levelo://app?vid=f2fd2284-837d-45c8-8a92-163c2aa30979"},"vehicle_type_id":"4","last_reported":1759000014,"current_range_meters":11600,"station_id":"ce4bhhh2rcd13ifvqfl0","pricing_plan_id":"cebpf4jnsgd1na2vs0mg"},{"bike_id":"bf468a1f-2ecb-4de0-8b95-55e2afa1122c","system_id":"levelo_inurba_marseille","lat":43.31888,"lon":5.40746,"is_reserved":false,"is_disabled":false,"rental_uris":{"android":"levelo://app?vid=bf468a1f-2ecb-4de0-8b95-55e2afa1122c","ios":"levelo://app?vid=bf468a1f-2ecb-4de0-8b95-55e2afa1122c"},"vehicle_type_id":"4","last_reported":1759000014,"current_range_meters":11600,"station_id":"ce4bhq12rcd13ifvqhig","pricing_plan_id":"cebpf4jnsgd1na2vs0mg"},{"bike_id":"5bb42022-0e19-48bc-a5b4-218bb1d7482e","system_id":"levelo_inurba_marseille","lat":43.31239,"lon":5.37824,"is_reserved":false,"is_disabled":false,"rental_uris":{"android":"levelo://app?vid=5bb42022-0e19-48bc-a5b4-218bb1d7482e","ios":"levelo://app?vid=5bb42022-0e19-48bc-a5b4-218bb1d7482e"},"vehicle_type_id":"4","last_reported":1759000014,"current_range_meters":11600,"station_id":"","pricing_plan_id":"cebpf4jnsgd1na2vs0mg"},{"bike_id":"80bdba63-46f3-4274-b0d9-d9711409b6a8","system_id":"levelo_inurba_marseille","lat":43.270752,"lon":5.402497,"is_reserved":false,"is_disabled":false,"rental_uris":{"android":"levelo://app?vid=80bdba63-46f3-4274-b0d9-d9711409b6a8","ios":"levelo://app?vid=80bdba63-46f3-4274-b0d9-d9711409b6a8"},"vehicle_type_id":"4","last_reported":1759000014,"current_range_meters":11600,"station_id":"","pricing_plan_id":"cebpf4jnsgd1na2vs0mg"},{"bike_id":"cffb76d0-d641-47dd-912d-8b7246cf4e57","system_id":"levelo_inurba_marseille","lat":43.30923,"lon":5.40142,"is_reserved":false,"is_disabled":false,"rental_uris":{"android":"levelo://app?vid=cffb76d0-d641-47dd-912d-8b7246cf4e57","ios":"levelo://app?vid=cffb76d0-d641-47dd-912d-8b7246cf4e57"},"vehicle_type_id":"4","last_reported":1759000014,"current_range_meters":11600,"station_id":"ce4bgvp2rcd13ifvqct0","pricing_plan_id":"cebpf4jnsgd1na2vs0mg"},{"bike_id":"46ac5fb6-ac2e-43e8-84c9-c4e46889ea29","system_id":"levelo_inurba_marseille","lat":43.21188,"lon":5.35108,"is_reserved":false,"is_disabled":false,"rental_uris":{"android":"levelo://app?vid=46ac5fb6-ac2e-43e8-84c9-c4e46889ea29","ios":"levelo://app?vid=46ac5fb6-ac2e-43e8-84c9-c4e46889ea29"},"vehicle_type_id":"4","last_reported":1759000014,"current_range_meters":11600,"station_id":"st_cvj6sg6p6f1abm77japg","pricing_plan_id":"cebpf4jnsgd1na2vs0mg"},{"bike_id":"9d168dab-f192-4bc6-96a3-32d33f2cf7f9","system_id":"levelo_inurba_marseille","lat":43.29101,"lon":5.38158,"is_reserved":false,"is_disabled":false,"rental_uris":{"android":"levelo://app?vid=9d168dab-f192-4bc6-96a3-32d33f2cf7f9","ios":"levelo://app?vid=9d168dab-f192-4bc6-96a3-32d33f2cf7f9"},"vehicle_type_id":"4","last_reported":1759000014,"current_range_meters":11600,"station_id":"ce4bh512rcd13ifvqe2g","pricing_plan_id":"cebpf4jnsgd1na2vs0mg"},{"bike_id":"3fd7c937-a838-4d6f-932e-9e3bccbc6d3b","system_id":"levelo_inurba_marseille","lat":43.29932,"lon":5.382,"is_reserved":false,"is_disabled":false,"rental_uris":{"android":"levelo://app?vid=3fd7c937-a838-4d6f-932e-9e3bccbc6d3b","ios":"levelo://app?vid=3fd7c937-a838-4d6f-932e-9e3bccbc6d3b"},"vehicle_type_id":"4","last_reported":1759000014,"current_range_meters":11600,"station_id":"","pricing_plan_id":"cebpf4jnsgd1na2vs0mg"},{"bike_id":"7ee12965-0fed-415c-8f08-8f986985cec6","system_id":"levelo_inurba_marseille","lat":43.21752,"lon":5.34601,"is_reserved":false,"is_disabled":true,"rental_uris":{"android":"levelo://app?vid=7ee12965-0fed-415c-8f08-8f986985cec6","ios":"levelo://app?vid=7ee12965-0fed-415c-8f08-8f986985cec6"},"vehicle_type_id":"4","last_reported":1759000014,"current_range_meters":11600,"station_id":"st_cvj6r9ubvosntc0bgbag","pricing_plan_id":"cebpf4jnsgd1na2vs0mg"},{"bike_id":"012a25f5-4947-4bcc-b275-0957f348e0be","system_id":"levelo_inurba_marseille","lat":43.29599,"lon":5.37719,"is_reserved":false,"is_disabled":false,"rental_uris":{"android":"levelo://app?vid=012a25f5-4947-4bcc-b275-0957f348e0be","ios":"levelo://app?vid=012a25f5-4947-4bcc-b275-0957f348e0be"},"vehicle_type_id":"4","last_reported":1759000014,"current_range_meters":12000,"station_id":"ce4bgi92rcd13ifvqb90","pricing_plan_id":"cebpf4jnsgd1na2vs0mg"},{"bike_id":"a6d2e82e-c9a3-4edf-8b4e-b48da19de2fc","system_id":"levelo_inurba_marseille","lat":43.23153,"lon":5.43712,"is_reserved":false,"is_disabled":false,"rental_uris":{"android":"levelo://app?vid=a6d2e82e-c9a3-4edf-8b4e-b48da19de2fc","ios":"levelo://app?vid=a6d2e82e-c9a3-4edf-8b4e-b48da19de2fc"},"vehicle_type_id":"4","last_reported":1759000014,"current_range_meters":12000,"station_id":"ce4bhmp2rcd13ifvqgog","pricing_plan_id":"cebpf4jnsgd1na2vs0mg"},{"bike_id":"720623f7-9148-4a0e-ade4-a205c6fa44f0","system_id":"levelo_inurba_marseille","lat":43.28992,"lon":5.42931,"is_reserved":false,"is_disabled":false,"rental_uris":{"android":"levelo://app?vid=720623f7-9148-4a0e-ade4-a205c6fa44f0","ios":"levelo://app?vid=720623f7-9148-4a0e-ade4-a205c6fa44f0"},"vehicle_type_id":"4","last_reported":1759000014,"current_range_meters":12000,"station_id":"","pricing_plan_id":"cebpf4jnsgd1na2vs0mg"},{"bike_id":"6b9adc5e-245f-4dfe-881a-00ff9f292261","system_id":"levelo_inurba_marseille","lat":43.24685,"lon":5.38186,"is_reserved":false,"is_disabled":false,"rental_uris":{"android":"levelo://app?vid=6b9adc5e-245f-4dfe-881a-00ff9f292261","ios":"levelo://app?vid=6b9adc5e-245f-4dfe-881a-00ff9f292261"},"vehicle_type_id":"4","last_reported":1759000014,"current_range_meters":12000,"station_id":"ce4bhih2rcd13ifvqfr0","pricing_plan_id":"cebpf4jnsgd1na2vs0mg"},{"bike_id":"0dd5a024-3d7f-4504-a788-92379893c3c1","system_id":"levelo_inurba_marseille","lat":43.29094,"lon":5.38144,"is_reserved":false,"is_disabled":false,"rental_uris":{"android":"levelo://app?vid=0dd5a024-3d7f-4504-a788-92379893c3c1","ios":"levelo://app?vid=0dd5a024-3d7f-4504-a788-92379893c3c1"},"vehicle_type_id":"4","last_reported":1759000014,"current_range_meters":12000,"station_id":"ce4bh512rcd13ifvqe2g","pricing_plan_id":"cebpf4jnsgd1na2vs0mg"},{"bike_id":"03350417-1098-4d6c-b8fe-9e64358744bf","system_id":"levelo_inurba_marseille","lat":43.30958,"lon":5.37603,"is_reserved":false,"is_disabled":false,"rental_uris":{"android":"levelo://app?vid=03350417-1098-4d6c-b8fe-9e64358744bf","ios":"levelo://app?vid=03350417-1098-4d6c-b8fe-9e64358744bf"},"vehicle_type_id":"4","last_reported":1759000014,"current_range_meters":12000,"station_id":"","pricing_plan_id":"cebpf4jnsgd1na2vs0mg"},{"bike_id":"71649b2c-48f8-4b8a-b9c0-477bd83fa14b","system_id":"levelo_inurba_marseille","lat":43.28426,"lon":5.34973,"is_reserved":false,"is_disabled":false,"rental_uris":{"android":"levelo://app?vid=71649b2c-48f8-4b8a-b9c0-477bd83fa14b","ios":"levelo://app?vid=71649b2c-48f8-4b8a-b9c0-477bd83fa14b"},"vehicle_type_id":"4","last_reported":1759000014,"current_range_meters":12400,"station_id":"ce4bhbh2rcd13ifvqepg","pricing_plan_id":"cebpf4jnsgd1na2vs0mg"},{"bike_id":"9feae468-b8bd-422a-8fcb-2d68fc5ee82c","system_id":"levelo_inurba_marseille","lat":43.33392,"lon":5.42007,"is_reserved":false,"is_disabled":false,"rental_uris":{"android":"levelo://app?vid=9feae468-b8bd-422a-8fcb-2d68fc5ee82c","ios":"levelo://app?vid=9feae468-b8bd-422a-8fcb-2d68fc5ee82c"},"vehicle_type_id":"4","last_reported":1759000014,"current_range_meters":12400,"station_id":"","pricing_plan_id":"cebpf4jnsgd1na2vs0mg"},{"bike_id":"f03b792f-d9b3-4dee-ac63-50c5f35e3187","system_id":"levelo_inurba_marseille","lat":43.28133,"lon":5.34996,"is_reserved":false,"is_disabled":false,"rental_uris":{"android":"levelo://app?vid=f03b792f-d9b3-4dee-ac63-50c5f35e3187","ios":"levelo://app?vid=f03b792f-d9b3-4dee-ac63-50c5f35e3187"},"vehicle_type_id":"4","last_reported":1759000014,"current_range_meters":12400,"station_id":"","pricing_plan_id":"cebpf4jnsgd1na2vs0mg"},{"bike_id":"360c0746-c854-4629-884f-7c911de53d9d","system_id":"levelo_inurba_marseille","lat":43.31748,"lon":5.39006,"is_reserved":false,"is_disabled":false,"rental_uris":{"android":"levelo://app?vid=360c0746-c854-4629-884f-7c911de53d9d","ios":"levelo://app?vid=360c0746-c854-4629-884f-7c911de53d9d"},"vehicle_type_id":"4","last_reported":1759000014,"current_range_meters":12400,"station_id":"ce4bhqp2rcd13ifvqhng","pricing_plan_id":"cebpf4jnsgd1na2vs0mg"},{"bike_id":"e35a0bdf-bd77-424b-84d2-f0ff692f3f86","system_id":"levelo_inurba_marseille","lat":43.28864,"lon":5.35834,"is_reserved":false,"is_disabled":true,"rental_uris":{"android":"levelo://app?vid=e35a0bdf-bd77-424b-84d2-f0ff692f3f86","ios":"levelo://app?vid=e35a0bdf-bd77-424b-84d2-f0ff692f3f86"},"vehicle_type_id":"4","last_reported":1759000014,"current_range_meters":12400,"station_id":"ce4bhb12rcd13ifvqem0","pricing_plan_id":"cebpf4jnsgd1na2vs0mg"},{"bike_id":"eb622a02-9f90-4d8f-9c1e-ef8871f65b12","system_id":"levelo_inurba_marseille","lat":43.30594,"lon":5.39352,"is_reserved":false,"is_disabled":false,"rental_uris":{"android":"levelo://app?vid=eb622a02-9f90-4d8f-9c1e-ef8871f65b12","ios":"levelo://app?vid=eb622a02-9f90-4d8f-9c1e-ef8871f65b12"},"vehicle_type_id":"4","last_reported":1759000014,"current_range_meters":12400,"station_id":"ce4bh0p2rcd13ifvqd80","pricing_plan_id":"cebpf4jnsgd1na2vs0mg"},{"bike_id":"dfa6c4f0-d708-4c9e-a8fb-defb758645fd","system_id":"levelo_inurba_marseille","lat":43.241845,"lon":5.397229,"is_reserved":false,"is_disabled":false,"rental_uris":{"android":"levelo://app?vid=dfa6c4f0-d708-4c9e-a8fb-defb758645fd","ios":"levelo://app?vid=dfa6c4f0-d708-4c9e-a8fb-defb758645fd"},"vehicle_type_id":"4","last_reported":1759000014,"current_range_meters":12400,"station_id":"ce4bhn12rcd13ifvqgpg","pricing_plan_id":"cebpf4jnsgd1na2vs0mg"},{"bike_id":"555e7d2a-4717-4418-9f0a-2913262d00ab","system_id":"levelo_inurba_marseille","lat":43.29176,"lon":5.37156,"is_reserved":false,"is_disabled":false,"rental_uris":{"android":"levelo://app?vid=555e7d2a-4717-4418-9f0a-2913262d00ab","ios":"levelo://app?vid=555e7d2a-4717-4418-9f0a-2913262d00ab"},"vehicle_type_id":"4","last_reported":1759000014,"current_range_meters":12400,"station_id":"ce4bha92rcd13ifvqeh0","pricing_plan_id":"cebpf4jnsgd1na2vs0mg"},{"bike_id":"a79771f7-9547-42c9-9edd-e8630ba14d95","system_id":"levelo_inurba_marseille","lat":43.2319,"lon":5.35545,"is_reserved":false,"is_disabled":false,"rental_uris":{"android":"levelo://app?vid=a79771f7-9547-42c9-9edd-e8630ba14d95","ios":"levelo://app?vid=a79771f7-9547-42c9-9edd-e8630ba14d95"},"vehicle_type_id":"4","last_reported":1759000014,"current_range_meters":12400,"station_id":"ce4bhu92rcd13ifvqi70","pricing_plan_id":"cebpf4jnsgd1na2vs0mg"},{"bike_id":"9fa6b289-f6ce-4c79-a064-742389e1d55d","system_id":"levelo_inurba_marseille","lat":43.32472,"lon":5.36562,"is_reserved":false,"is_disabled":false,"rental_uris":{"android":"levelo://app?vid=9fa6b289-f6ce-4c79-a064-742389e1d55d","ios":"levelo://app?vid=9fa6b289-f6ce-4c79-a064-742389e1d55d"},"vehicle_type_id":"4","last_reported":1759000014,"current_range_meters":12400,"station_id":"ce4bhs12rcd13ifvqhvg","pricing_plan_id":"cebpf4jnsgd1na2vs0mg"},{"bike_id":"695662ab-65fe-4c59-81b6-3dceb9f5066d","system_id":"levelo_inurba_marseille","lat":43.2557,"lon":5.38238,"is_reserved":false,"is_disabled":true,"rental_uris":{"android":"levelo://app?vid=695662ab-65fe-4c59-81b6-3dceb9f5066d","ios":"levelo://app?vid=695662ab-65fe-4c59-81b6-3dceb9f5066d"},"vehicle_type_id":"4","last_reported":1759000014,"current_range_meters":12400,"station_id":"ce4bhih2rcd13ifvqfs0","pricing_plan_id":"cebpf4jnsgd1na2vs0mg"},{"bike_id":"a5411636-713e-4195-a6c9-4f7d84e639d4","system_id":"levelo_inurba_marseille","lat":43.3064,"lon":5.4009,"is_reserved":false,"is_disabled":false,"rental_uris":{"android":"levelo://app?vid=a5411636-713e-4195-a6c9-4f7d84e639d4","ios":"levelo://app?vid=a5411636-713e-4195-a6c9-4f7d84e639d4"},"vehicle_type_id":"4","last_reported":1759000014,"current_range_meters":12800,"station_id":"ce4bh112rcd13ifvqda0","pricing_plan_id":"cebpf4jnsgd1na2vs0mg"},{"bike_id":"c0dcfa2e-24fe-4f4b-93e5-2d2796134f81","system_id":"levelo_inurba_marseille","lat":43.3059,"lon":5.39361,"is_reserved":false,"is_disabled":false,"rental_uris":{"android":"levelo://app?vid=c0dcfa2e-24fe-4f4b-93e5-2d2796134f81","ios":"levelo://app?vid=c0dcfa2e-24fe-4f4b-93e5-2d2796134f81"},"vehicle_type_id":"4","last_reported":1759000014,"current_range_meters":12800,"station_id":"ce4bh0p2rcd13ifvqd80","pricing_plan_id":"cebpf4jnsgd1na2vs0mg"},{"bike_id":"349977c5-2efd-48ed-8dd8-9cfd0d464679","system_id":"levelo_inurba_marseille","lat":43.21187,"lon":5.35092,"is_reserved":false,"is_disabled":false,"rental_uris":{"android":"levelo://app?vid=349977c5-2efd-48ed-8dd8-9cfd0d464679","ios":"levelo://app?vid=349977c5-2efd-48ed-8dd8-9cfd0d464679"},"vehicle_type_id":"4","last_reported":1759000014,"current_range_meters":12800,"station_id":"st_cvj6sg6p6f1abm77japg","pricing_plan_id":"cebpf4jnsgd1na2vs0mg"},{"bike_id":"0bce7a4c-aaa4-427a-ad4e-c659eb8ab693","system_id":"levelo_inurba_marseille","lat":43.2828,"lon":5.35079,"is_reserved":false,"is_disabled":false,"rental_uris":{"android":"levelo://app?vid=0bce7a4c-aaa4-427a-ad4e-c659eb8ab693","ios":"levelo://app?vid=0bce7a4c-aaa4-427a-ad4e-c659eb8ab693"},"vehicle_type_id":"4","last_reported":1759000014,"current_range_meters":12800,"station_id":"ce4bhbp2rcd13ifvqerg","pricing_plan_id":"cebpf4jnsgd1na2vs0mg"},{"bike_id":"89e82a5f-9f21-4700-833c-55689f65ef9a","system_id":"levelo_inurba_marseille","lat":43.26034,"lon":5.37554,"is_reserved":false,"is_disabled":false,"rental_uris":{"android":"levelo://app?vid=89e82a5f-9f21-4700-833c-55689f65ef9a","ios":"levelo://app?vid=89e82a5f-9f21-4700-833c-55689f65ef9a"},"vehicle_type_id":"4","last_reported":1759000014,"current_range_meters":12800,"station_id":"ce4bhgh2rcd13ifvqfa0","pricing_plan_id":"cebpf4jnsgd1na2vs0mg"},{"bike_id":"ede2cd90-406b-4ea8-8e4f-d1a3ee7728a0","system_id":"levelo_inurba_marseille","lat":43.28609,"lon":5.3706,"is_reserved":false,"is_disabled":false,"rental_uris":{"android":"levelo://app?vid=ede2cd90-406b-4ea8-8e4f-d1a3ee7728a0","ios":"levelo://app?vid=ede2cd90-406b-4ea8-8e4f-d1a3ee7728a0"},"vehicle_type_id":"4","last_reported":1759000014,"current_range_meters":12800,"station_id":"ce4bht12rcd13ifvqi60","pricing_plan_id":"cebpf4jnsgd1na2vs0mg"},{"bike_id":"6520dea0-5c4a-4197-8ea5-55f9a71e37bf","system_id":"levelo_inurba_marseille","lat":43.29967,"lon":5.385,"is_reserved":false,"is_disabled":false,"rental_uris":{"android":"levelo://app?vid=6520dea0-5c4a-4197-8ea5-55f9a71e37bf","ios":"levelo://app?vid=6520dea0-5c4a-4197-8ea5-55f9a71e37bf"},"vehicle_type_id":"4","last_reported":1759000014,"current_range_meters":13600,"station_id":"ce4bgj92rcd13ifvqbd0","pricing_plan_id":"cebpf4jnsgd1na2vs0mg"},{"bike_id":"2ca205d7-ac55-4d7d-ae07-5f6058c9f252","system_id":"levelo_inurba_marseille","lat":43.29971,"lon":5.38496,"is_reserved":false,"is_disabled":false,"rental_uris":{"android":"levelo://app?vid=2ca205d7-ac55-4d7d-ae07-5f6058c9f252","ios":"levelo://app?vid=2ca205d7-ac55-4d7d-ae07-5f6058c9f252"},"vehicle_type_id":"4","last_reported":1759000014,"current_range_meters":13600,"station_id":"ce4bgj92rcd13ifvqbd0","pricing_plan_id":"cebpf4jnsgd1na2vs0mg"},{"bike_id":"378333ca-0a64-49d9-bbce-c7ae0c5c3859","system_id":"levelo_inurba_marseille","lat":43.29251,"lon":5.38449,"is_reserved":false,"is_disabled":false,"rental_uris":{"android":"levelo://app?vid=378333ca-0a64-49d9-bbce-c7ae0c5c3859","ios":"levelo://app?vid=378333ca-0a64-49d9-bbce-c7ae0c5c3859"},"vehicle_type_id":"4","last_reported":1759000014,"current_range_meters":13600,"station_id":"ce4bh692rcd13ifvqea0","pricing_plan_id":"cebpf4jnsgd1na2vs0mg"},{"bike_id":"dc4883ea-8f06-44d1-8b3d-6660e39a87ec","system_id":"levelo_inurba_marseille","lat":43.22925,"lon":5.35371,"is_reserved":false,"is_disabled":true,"rental_uris":{"android":"levelo://app?vid=dc4883ea-8f06-44d1-8b3d-6660e39a87ec","ios":"levelo://app?vid=dc4883ea-8f06-44d1-8b3d-6660e39a87ec"},"vehicle_type_id":"4","last_reported":1759000014,"current_range_meters":13600,"station_id":"cpo3532slgdg3j2ikp40","pricing_plan_id":"cebpf4jnsgd1na2vs0mg"},{"bike_id":"5c5848e2-0e89-4485-8d39-2628b4b24f3e","system_id":"levelo_inurba_marseille","lat":43.30881,"lon":5.39661,"is_reserved":false,"is_disabled":false,"rental_uris":{"android":"levelo://app?vid=5c5848e2-0e89-4485-8d39-2628b4b24f3e","ios":"levelo://app?vid=5c5848e2-0e89-4485-8d39-2628b4b24f3e"},"vehicle_type_id":"4","last_reported":1759000014,"current_range_meters":13600,"station_id":"ce4bh012rcd13ifvqcv0","pricing_plan_id":"cebpf4jnsgd1na2vs0mg"},{"bike_id":"5755c986-9c1f-4593-887c-fc59aede9f3c","system_id":"levelo_inurba_marseille","lat":43.29033,"lon":5.38127,"is_reserved":false,"is_disabled":false,"rental_uris":{"android":"levelo://app?vid=5755c986-9c1f-4593-887c-fc59aede9f3c","ios":"levelo://app?vid=5755c986-9c1f-4593-887c-fc59aede9f3c"},"vehicle_type_id":"4","last_reported":1759000014,"current_range_meters":13600,"station_id":"ce4bh4p2rcd13ifvqe1g","pricing_plan_id":"cebpf4jnsgd1na2vs0mg"},{"bike_id":"0b10856b-3dad-4052-bc3a-2c17e6f16e23","system_id":"levelo_inurba_marseille","lat":43.27585,"lon":5.3844,"is_reserved":false,"is_disabled":true,"rental_uris":{"android":"levelo://app?vid=0b10856b-3dad-4052-bc3a-2c17e6f16e23","ios":"levelo://app?vid=0b10856b-3dad-4052-bc3a-2c17e6f16e23"},"vehicle_type_id":"4","last_reported":1759000014,"current_range_meters":14000,"station_id":"ce4bhh92rcd13ifvqfi0","pricing_plan_id":"cebpf4jnsgd1na2vs0mg"},{"bike_id":"eedfbf61-711e-444c-88e3-b720ea74f76a","system_id":"levelo_inurba_marseille","lat":43.21191,"lon":5.35075,"is_reserved":false,"is_disabled":false,"rental_uris":{"android":"levelo://app?vid=eedfbf61-711e-444c-88e3-b720ea74f76a","ios":"levelo://app?vid=eedfbf61-711e-444c-88e3-b720ea74f76a"},"vehicle_type_id":"4","last_reported":1759000014,"current_range_meters":14000,"station_id":"st_cvj6sg6p6f1abm77japg","pricing_plan_id":"cebpf4jnsgd1na2vs0mg"},{"bike_id":"4641ed41-30a2-4a92-aa76-c70ed63f3d1b","system_id":"levelo_inurba_marseille","lat":43.29323,"lon":5.37171,"is_reserved":false,"is_disabled":false,"rental_uris":{"android":"levelo://app?vid=4641ed41-30a2-4a92-aa76-c70ed63f3d1b","ios":"levelo://app?vid=4641ed41-30a2-4a92-aa76-c70ed63f3d1b"},"vehicle_type_id":"4","last_reported":1759000014,"current_range_meters":14000,"station_id":"ce4bgh92rcd13ifvqb40","pricing_plan_id":"cebpf4jnsgd1na2vs0mg"},{"bike_id":"922de54c-3c81-42f4-9923-f5c7bb4cec93","system_id":"levelo_inurba_marseille","lat":43.29038,"lon":5.39968,"is_reserved":false,"is_disabled":false,"rental_uris":{"android":"levelo://app?vid=922de54c-3c81-42f4-9923-f5c7bb4cec93","ios":"levelo://app?vid=922de54c-3c81-42f4-9923-f5c7bb4cec93"},"vehicle_type_id":"4","last_reported":1759000014,"current_range_meters":14000,"station_id":"ce4bh392rcd13ifvqdm0","pricing_plan_id":"cebpf4jnsgd1na2vs0mg"},{"bike_id":"153b2109-ac0c-4a72-b855-66f27c126818","system_id":"levelo_inurba_marseille","lat":43.24809,"lon":5.37459,"is_reserved":false,"is_disabled":false,"rental_uris":{"android":"levelo://app?vid=153b2109-ac0c-4a72-b855-66f27c126818","ios":"levelo://app?vid=153b2109-ac0c-4a72-b855-66f27c126818"},"vehicle_type_id":"4","last_reported":1759000014,"current_range_meters":14000,"station_id":"ce4bhgh2rcd13ifvqfb0","pricing_plan_id":"cebpf4jnsgd1na2vs0mg"},{"bike_id":"c833070b-baa0-4f6e-84a4-dad65aacc2ad","system_id":"levelo_inurba_marseille","lat":43.23188,"lon":5.35552,"is_reserved":false,"is_disabled":false,"rental_uris":{"android":"levelo://app?vid=c833070b-baa0-4f6e-84a4-dad65aacc2ad","ios":"levelo://app?vid=c833070b-baa0-4f6e-84a4-dad65aacc2ad"},"vehicle_type_id":"4","last_reported":1759000014,"current_range_meters":14000,"station_id":"ce4bhu92rcd13ifvqi70","pricing_plan_id":"cebpf4jnsgd1na2vs0mg"},{"bike_id":"a141ba13-19f1-4f9e-9fa5-b678aae29a88","system_id":"levelo_inurba_marseille","lat":43.31117,"lon":5.37778,"is_reserved":false,"is_disabled":false,"rental_uris":{"android":"levelo://app?vid=a141ba13-19f1-4f9e-9fa5-b678aae29a88","ios":"levelo://app?vid=a141ba13-19f1-4f9e-9fa5-b678aae29a88"},"vehicle_type_id":"4","last_reported":1759000014,"current_range_meters":14400,"station_id":"ce4bgt92rcd13ifvqcg0","pricing_plan_id":"cebpf4jnsgd1na2vs0mg"},{"bike_id":"6be983f3-e0c7-457c-ab95-766b8a4a58d5","system_id":"levelo_inurba_marseille","lat":43.30351,"lon":5.41875,"is_reserved":false,"is_disabled":false,"rental_uris":{"android":"levelo://app?vid=6be983f3-e0c7-457c-ab95-766b8a4a58d5","ios":"levelo://app?vid=6be983f3-e0c7-457c-ab95-766b8a4a58d5"},"vehicle_type_id":"4","last_reported":1759000014,"current_range_meters":14400,"station_id":"ce4bhop2rcd13ifvqh7g","pricing_plan_id":"cebpf4jnsgd1na2vs0mg"},{"bike_id":"096c311a-e31f-4e60-ab8c-de0b76354103","system_id":"levelo_inurba_marseille","lat":43.27188,"lon":5.41007,"is_reserved":false,"is_disabled":true,"rental_uris":{"android":"levelo://app?vid=096c311a-e31f-4e60-ab8c-de0b76354103","ios":"levelo://app?vid=096c311a-e31f-4e60-ab8c-de0b76354103"},"vehicle_type_id":"4","last_reported":1759000014,"current_range_meters":14400,"station_id":"ce4bhl12rcd13ifvqgf0","pricing_plan_id":"cebpf4jnsgd1na2vs0mg"},{"bike_id":"e863eb13-a40f-409e-ae03-80c63350785a","system_id":"levelo_inurba_marseille","lat":43.26496,"lon":5.39547,"is_reserved":false,"is_disabled":false,"rental_uris":{"android":"levelo://app?vid=e863eb13-a40f-409e-ae03-80c63350785a","ios":"levelo://app?vid=e863eb13-a40f-409e-ae03-80c63350785a"},"vehicle_type_id":"4","last_reported":1759000014,"current_range_meters":14400,"station_id":"ce4bhi12rcd13ifvqfq0","pricing_plan_id":"cebpf4jnsgd1na2vs0mg"},{"bike_id":"c3c74308-510b-4eca-8fe6-0cef0f578e16","system_id":"levelo_inurba_marseille","lat":43.29961,"lon":5.38497,"is_reserved":false,"is_disabled":false,"rental_uris":{"android":"levelo://app?vid=c3c74308-510b-4eca-8fe6-0cef0f578e16","ios":"levelo://app?vid=c3c74308-510b-4eca-8fe6-0cef0f578e16"},"vehicle_type_id":"4","last_reported":1759000014,"current_range_meters":14400,"station_id":"ce4bgj92rcd13ifvqbd0","pricing_plan_id":"cebpf4jnsgd1na2vs0mg"},{"bike_id":"a1e2b7f3-f53e-4b6a-b8f1-27b0fbf9634d","system_id":"levelo_inurba_marseille","lat":43.31597,"lon":5.37591,"is_reserved":false,"is_disabled":false,"rental_uris":{"android":"levelo://app?vid=a1e2b7f3-f53e-4b6a-b8f1-27b0fbf9634d","ios":"levelo://app?vid=a1e2b7f3-f53e-4b6a-b8f1-27b0fbf9634d"},"vehicle_type_id":"4","last_reported":1759000014,"current_range_meters":14800,"station_id":"","pricing_plan_id":"cebpf4jnsgd1na2vs0mg"},{"bike_id":"976fd36e-2f5c-424c-baa8-068b37f1eb42","system_id":"levelo_inurba_marseille","lat":43.27559,"lon":5.38435,"is_reserved":false,"is_disabled":false,"rental_uris":{"android":"levelo://app?vid=976fd36e-2f5c-424c-baa8-068b37f1eb42","ios":"levelo://app?vid=976fd36e-2f5c-424c-baa8-068b37f1eb42"},"vehicle_type_id":"4","last_reported":1759000014,"current_range_meters":14800,"station_id":"ce4bhh92rcd13ifvqfi0","pricing_plan_id":"cebpf4jnsgd1na2vs0mg"},{"bike_id":"c1dcde50-194f-4c20-9fa3-9955569f5cda","system_id":"levelo_inurba_marseille","lat":43.29965,"lon":5.38491,"is_reserved":false,"is_disabled":false,"rental_uris":{"android":"levelo://app?vid=c1dcde50-194f-4c20-9fa3-9955569f5cda","ios":"levelo://app?vid=c1dcde50-194f-4c20-9fa3-9955569f5cda"},"vehicle_type_id":"4","last_reported":1759000014,"current_range_meters":14800,"station_id":"ce4bgj92rcd13ifvqbd0","pricing_plan_id":"cebpf4jnsgd1na2vs0mg"},{"bike_id":"6e1efceb-d572-4486-a160-0a77f8716888","system_id":"levelo_inurba_marseille","lat":43.30589,"lon":5.39357,"is_reserved":false,"is_disabled":false,"rental_uris":{"android":"levelo://app?vid=6e1efceb-d572-4486-a160-0a77f8716888","ios":"levelo://app?vid=6e1efceb-d572-4486-a160-0a77f8716888"},"vehicle_type_id":"4","last_reported":1759000014,"current_range_meters":14800,"station_id":"ce4bh0p2rcd13ifvqd80","pricing_plan_id":"cebpf4jnsgd1na2vs0mg"},{"bike_id":"85c7ac65-0172-4766-8977-f4ba34ed9c93","system_id":"levelo_inurba_marseille","lat":43.2534,"lon":5.42192,"is_reserved":false,"is_disabled":false,"rental_uris":{"android":"levelo://app?vid=85c7ac65-0172-4766-8977-f4ba34ed9c93","ios":"levelo://app?vid=85c7ac65-0172-4766-8977-f4ba34ed9c93"},"vehicle_type_id":"4","last_reported":1759000014,"current_range_meters":14800,"station_id":"st_d2m65c5bi1j21697t3ng","pricing_plan_id":"cebpf4jnsgd1na2vs0mg"},{"bike_id":"31d14509-f243-4db5-afcc-f77e9d3dbf05","system_id":"levelo_inurba_marseille","lat":43.3106,"lon":5.3835,"is_reserved":false,"is_disabled":true,"rental_uris":{"android":"levelo://app?vid=31d14509-f243-4db5-afcc-f77e9d3dbf05","ios":"levelo://app?vid=31d14509-f243-4db5-afcc-f77e9d3dbf05"},"vehicle_type_id":"4","last_reported":1759000014,"current_range_meters":14800,"station_id":"ce4bgv92rcd13ifvqcr0","pricing_plan_id":"cebpf4jnsgd1na2vs0mg"},{"bike_id":"d7f98a76-63a9-4bfe-b6eb-f9043e90d21b","system_id":"levelo_inurba_marseille","lat":43.29964,"lon":5.38494,"is_reserved":false,"is_disabled":false,"rental_uris":{"android":"levelo://app?vid=d7f98a76-63a9-4bfe-b6eb-f9043e90d21b","ios":"levelo://app?vid=d7f98a76-63a9-4bfe-b6eb-f9043e90d21b"},"vehicle_type_id":"4","last_reported":1759000014,"current_range_meters":14800,"station_id":"ce4bgj92rcd13ifvqbd0","pricing_plan_id":"cebpf4jnsgd1na2vs0mg"},{"bike_id":"4c02c545-ad59-45b1-9b9c-d3678a5922c7","system_id":"levelo_inurba_marseille","lat":43.337444,"lon":5.374475,"is_reserved":false,"is_disabled":false,"rental_uris":{"android":"levelo://app?vid=4c02c545-ad59-45b1-9b9c-d3678a5922c7","ios":"levelo://app?vid=4c02c545-ad59-45b1-9b9c-d3678a5922c7"},"vehicle_type_id":"4","last_reported":1759000014,"current_range_meters":14800,"station_id":"","pricing_plan_id":"cebpf4jnsgd1na2vs0mg"},{"bike_id":"c097f066-7651-435e-913f-a8a7838aba88","system_id":"levelo_inurba_marseille","lat":43.33722,"lon":5.37459,"is_reserved":false,"is_disabled":false,"rental_uris":{"android":"levelo://app?vid=c097f066-7651-435e-913f-a8a7838aba88","ios":"levelo://app?vid=c097f066-7651-435e-913f-a8a7838aba88"},"vehicle_type_id":"4","last_reported":1759000014,"current_range_meters":14800,"station_id":"","pricing_plan_id":"cebpf4jnsgd1na2vs0mg"},{"bike_id":"9c7dbcd1-5bc1-464b-a87e-238d4dcd0f65","system_id":"levelo_inurba_marseille","lat":43.28606,"lon":5.370558,"is_reserved":false,"is_disabled":false,"rental_uris":{"android":"levelo://app?vid=9c7dbcd1-5bc1-464b-a87e-238d4dcd0f65","ios":"levelo://app?vid=9c7dbcd1-5bc1-464b-a87e-238d4dcd0f65"},"vehicle_type_id":"4","last_reported":1759000014,"current_range_meters":15200,"station_id":"ce4bht12rcd13ifvqi60","pricing_plan_id":"cebpf4jnsgd1na2vs0mg"},{"bike_id":"0679dd73-53da-4f27-b38d-14a3130a46e9","system_id":"levelo_inurba_marseille","lat":43.301425,"lon":5.387735,"is_reserved":false,"is_disabled":false,"rental_uris":{"android":"levelo://app?vid=0679dd73-53da-4f27-b38d-14a3130a46e9","ios":"levelo://app?vid=0679dd73-53da-4f27-b38d-14a3130a46e9"},"vehicle_type_id":"4","last_reported":1759000014,"current_range_meters":15200,"station_id":"ce4bghh2rcd13ifvqb60","pricing_plan_id":"cebpf4jnsgd1na2vs0mg"},{"bike_id":"fd8039bd-3045-49e7-8115-0fc74e13af04","system_id":"levelo_inurba_marseille","lat":43.29295,"lon":5.38517,"is_reserved":false,"is_disabled":false,"rental_uris":{"android":"levelo://app?vid=fd8039bd-3045-49e7-8115-0fc74e13af04","ios":"levelo://app?vid=fd8039bd-3045-49e7-8115-0fc74e13af04"},"vehicle_type_id":"4","last_reported":1759000014,"current_range_meters":15200,"station_id":"ce4bh692rcd13ifvqea0","pricing_plan_id":"cebpf4jnsgd1na2vs0mg"},{"bike_id":"6d98ab21-1faa-4b15-97b2-a1dd6f53a5a7","system_id":"levelo_inurba_marseille","lat":43.27449,"lon":5.39393,"is_reserved":false,"is_disabled":true,"rental_uris":{"android":"levelo://app?vid=6d98ab21-1faa-4b15-97b2-a1dd6f53a5a7","ios":"levelo://app?vid=6d98ab21-1faa-4b15-97b2-a1dd6f53a5a7"},"vehicle_type_id":"4","last_reported":1759000014,"current_range_meters":15200,"station_id":"ce4bhdp2rcd13ifvqf20","pricing_plan_id":"cebpf4jnsgd1na2vs0mg"},{"bike_id":"c8dab69c-fcb7-4b77-87a3-a80d030047c2","system_id":"levelo_inurba_marseille","lat":43.28863,"lon":5.3585,"is_reserved":false,"is_disabled":false,"rental_uris":{"android":"levelo://app?vid=c8dab69c-fcb7-4b77-87a3-a80d030047c2","ios":"levelo://app?vid=c8dab69c-fcb7-4b77-87a3-a80d030047c2"},"vehicle_type_id":"4","last_reported":1759000014,"current_range_meters":15200,"station_id":"ce4bhb12rcd13ifvqem0","pricing_plan_id":"cebpf4jnsgd1na2vs0mg"},{"bike_id":"d66cd03b-dbeb-4aa4-961e-bd97aeefe4a4","system_id":"levelo_inurba_marseille","lat":43.25957,"lon":5.41379,"is_reserved":false,"is_disabled":false,"rental_uris":{"android":"levelo://app?vid=d66cd03b-dbeb-4aa4-961e-bd97aeefe4a4","ios":"levelo://app?vid=d66cd03b-dbeb-4aa4-961e-bd97aeefe4a4"},"vehicle_type_id":"4","last_reported":1759000014,"current_range_meters":15200,"station_id":"","pricing_plan_id":"cebpf4jnsgd1na2vs0mg"},{"bike_id":"e54b8c9f-4f66-4c52-b603-24745fa68456","system_id":"levelo_inurba_marseille","lat":43.25728,"lon":5.41107,"is_reserved":false,"is_disabled":false,"rental_uris":{"android":"levelo://app?vid=e54b8c9f-4f66-4c52-b603-24745fa68456","ios":"levelo://app?vid=e54b8c9f-4f66-4c52-b603-24745fa68456"},"vehicle_type_id":"4","last_reported":1759000014,"current_range_meters":16000,"station_id":"ce4bhkp2rcd13ifvqgd0","pricing_plan_id":"cebpf4jnsgd1na2vs0mg"},{"bike_id":"54fff988-c74f-45fc-a0eb-29489bfa1777","system_id":"levelo_inurba_marseille","lat":43.246477,"lon":5.388851,"is_reserved":false,"is_disabled":false,"rental_uris":{"android":"levelo://app?vid=54fff988-c74f-45fc-a0eb-29489bfa1777","ios":"levelo://app?vid=54fff988-c74f-45fc-a0eb-29489bfa1777"},"vehicle_type_id":"4","last_reported":1759000014,"current_range_meters":16000,"station_id":"ce4bhg12rcd13ifvqf60","pricing_plan_id":"cebpf4jnsgd1na2vs0mg"},{"bike_id":"b219c086-dfbe-4625-9649-9c9028fcc568","system_id":"levelo_inurba_marseille","lat":43.24798,"lon":5.37476,"is_reserved":false,"is_disabled":false,"rental_uris":{"android":"levelo://app?vid=b219c086-dfbe-4625-9649-9c9028fcc568","ios":"levelo://app?vid=b219c086-dfbe-4625-9649-9c9028fcc568"},"vehicle_type_id":"4","last_reported":1759000014,"current_range_meters":16000,"station_id":"ce4bhgh2rcd13ifvqfb0","pricing_plan_id":"cebpf4jnsgd1na2vs0mg"},{"bike_id":"fd9f3d61-f02d-4c4f-9eb7-db8cc72f0c9e","system_id":"levelo_inurba_marseille","lat":43.29911,"lon":5.38171,"is_reserved":false,"is_disabled":false,"rental_uris":{"android":"levelo://app?vid=fd9f3d61-f02d-4c4f-9eb7-db8cc72f0c9e","ios":"levelo://app?vid=fd9f3d61-f02d-4c4f-9eb7-db8cc72f0c9e"},"vehicle_type_id":"4","last_reported":1759000014,"current_range_meters":16000,"station_id":"ce4bgj12rcd13ifvqbc0","pricing_plan_id":"cebpf4jnsgd1na2vs0mg"},{"bike_id":"5d6edf9d-f2d4-4799-a61a-24963fbb18b8","system_id":"levelo_inurba_marseille","lat":43.26954,"lon":5.38638,"is_reserved":false,"is_disabled":false,"rental_uris":{"android":"levelo://app?vid=5d6edf9d-f2d4-4799-a61a-24963fbb18b8","ios":"levelo://app?vid=5d6edf9d-f2d4-4799-a61a-24963fbb18b8"},"vehicle_type_id":"4","last_reported":1759000014,"current_range_meters":16000,"station_id":"ce4bhh92rcd13ifvqfh0","pricing_plan_id":"cebpf4jnsgd1na2vs0mg"},{"bike_id":"8b3d7885-f609-4649-b23b-f6ac2988d6ed","system_id":"levelo_inurba_marseille","lat":43.30331,"lon":5.4043,"is_reserved":false,"is_disabled":false,"rental_uris":{"android":"levelo://app?vid=8b3d7885-f609-4649-b23b-f6ac2988d6ed","ios":"levelo://app?vid=8b3d7885-f609-4649-b23b-f6ac2988d6ed"},"vehicle_type_id":"4","last_reported":1759000014,"current_range_meters":16000,"station_id":"ce4bh012rcd13ifvqd10","pricing_plan_id":"cebpf4jnsgd1na2vs0mg"},{"bike_id":"3d3bc9f8-a736-4546-bd01-0f811983a92b","system_id":"levelo_inurba_marseille","lat":43.31065,"lon":5.38349,"is_reserved":false,"is_disabled":false,"rental_uris":{"android":"levelo://app?vid=3d3bc9f8-a736-4546-bd01-0f811983a92b","ios":"levelo://app?vid=3d3bc9f8-a736-4546-bd01-0f811983a92b"},"vehicle_type_id":"4","last_reported":1759000014,"current_range_meters":16000,"station_id":"ce4bgv92rcd13ifvqcr0","pricing_plan_id":"cebpf4jnsgd1na2vs0mg"},{"bike_id":"6de60074-b3e5-4470-9347-38b77e41b7e1","system_id":"levelo_inurba_marseille","lat":43.32359,"lon":5.36761,"is_reserved":false,"is_disabled":false,"rental_uris":{"android":"levelo://app?vid=6de60074-b3e5-4470-9347-38b77e41b7e1","ios":"levelo://app?vid=6de60074-b3e5-4470-9347-38b77e41b7e1"},"vehicle_type_id":"4","last_reported":1759000014,"current_range_meters":16000,"station_id":"ce4bhsh2rcd13ifvqi2g","pricing_plan_id":"cebpf4jnsgd1na2vs0mg"},{"bike_id":"258ab053-1083-4ca9-a32a-1e85f085fc22","system_id":"levelo_inurba_marseille","lat":43.337444,"lon":5.374475,"is_reserved":false,"is_disabled":false,"rental_uris":{"android":"levelo://app?vid=258ab053-1083-4ca9-a32a-1e85f085fc22","ios":"levelo://app?vid=258ab053-1083-4ca9-a32a-1e85f085fc22"},"vehicle_type_id":"4","last_reported":1759000014,"current_range_meters":16000,"station_id":"","pricing_plan_id":"cebpf4jnsgd1na2vs0mg"},{"bike_id":"f62fe733-90ac-444a-a20a-73d227678ff7","system_id":"levelo_inurba_marseille","lat":43.2966,"lon":5.37747,"is_reserved":false,"is_disabled":true,"rental_uris":{"android":"levelo://app?vid=f62fe733-90ac-444a-a20a-73d227678ff7","ios":"levelo://app?vid=f62fe733-90ac-444a-a20a-73d227678ff7"},"vehicle_type_id":"4","last_reported":1759000014,"current_range_meters":16400,"station_id":"ce4bgi92rcd13ifvqb90","pricing_plan_id":"cebpf4jnsgd1na2vs0mg"},{"bike_id":"95bafeb0-6c7b-407a-a73b-a6569ff5cb66","system_id":"levelo_inurba_marseille","lat":43.33767,"lon":5.37471,"is_reserved":false,"is_disabled":false,"rental_uris":{"android":"levelo://app?vid=95bafeb0-6c7b-407a-a73b-a6569ff5cb66","ios":"levelo://app?vid=95bafeb0-6c7b-407a-a73b-a6569ff5cb66"},"vehicle_type_id":"4","last_reported":1759000014,"current_range_meters":16400,"station_id":"","pricing_plan_id":"cebpf4jnsgd1na2vs0mg"},{"bike_id":"2243febf-ebaf-474b-8e3e-799410e4c867","system_id":"levelo_inurba_marseille","lat":43.325689,"lon":5.363542,"is_reserved":false,"is_disabled":false,"rental_uris":{"android":"levelo://app?vid=2243febf-ebaf-474b-8e3e-799410e4c867","ios":"levelo://app?vid=2243febf-ebaf-474b-8e3e-799410e4c867"},"vehicle_type_id":"4","last_reported":1759000014,"current_range_meters":16400,"station_id":"","pricing_plan_id":"cebpf4jnsgd1na2vs0mg"},{"bike_id":"f4c53ff4-73a4-4134-bb3f-bbf464878afb","system_id":"levelo_inurba_marseille","lat":43.21752,"lon":5.34611,"is_reserved":false,"is_disabled":true,"rental_uris":{"android":"levelo://app?vid=f4c53ff4-73a4-4134-bb3f-bbf464878afb","ios":"levelo://app?vid=f4c53ff4-73a4-4134-bb3f-bbf464878afb"},"vehicle_type_id":"4","last_reported":1759000014,"current_range_meters":16400,"station_id":"st_cvj6r9ubvosntc0bgbag","pricing_plan_id":"cebpf4jnsgd1na2vs0mg"},{"bike_id":"d0f84d09-c820-4357-8042-bcf812d529a0","system_id":"levelo_inurba_marseille","lat":43.29525,"lon":5.38551,"is_reserved":false,"is_disabled":false,"rental_uris":{"android":"levelo://app?vid=d0f84d09-c820-4357-8042-bcf812d529a0","ios":"levelo://app?vid=d0f84d09-c820-4357-8042-bcf812d529a0"},"vehicle_type_id":"4","last_reported":1759000014,"current_range_meters":16400,"station_id":"ce4bgih2rcd13ifvqba0","pricing_plan_id":"cebpf4jnsgd1na2vs0mg"},{"bike_id":"d9e6edd7-f678-4678-9509-8e8915daedd9","system_id":"levelo_inurba_marseille","lat":43.2927,"lon":5.38448,"is_reserved":false,"is_disabled":false,"rental_uris":{"android":"levelo://app?vid=d9e6edd7-f678-4678-9509-8e8915daedd9","ios":"levelo://app?vid=d9e6edd7-f678-4678-9509-8e8915daedd9"},"vehicle_type_id":"4","last_reported":1759000014,"current_range_meters":16400,"station_id":"ce4bh692rcd13ifvqea0","pricing_plan_id":"cebpf4jnsgd1na2vs0mg"},{"bike_id":"33ac03ed-dfbb-4aa1-aee0-f01e22e067d9","system_id":"levelo_inurba_marseille","lat":43.24633,"lon":5.43165,"is_reserved":false,"is_disabled":false,"rental_uris":{"android":"levelo://app?vid=33ac03ed-dfbb-4aa1-aee0-f01e22e067d9","ios":"levelo://app?vid=33ac03ed-dfbb-4aa1-aee0-f01e22e067d9"},"vehicle_type_id":"4","last_reported":1759000014,"current_range_meters":16400,"station_id":"st_d2m6c4gdas8pm72e190g","pricing_plan_id":"cebpf4jnsgd1na2vs0mg"},{"bike_id":"0c951385-e5b8-4d41-aaf5-1f394e5de7c8","system_id":"levelo_inurba_marseille","lat":43.29552,"lon":5.38547,"is_reserved":false,"is_disabled":false,"rental_uris":{"android":"levelo://app?vid=0c951385-e5b8-4d41-aaf5-1f394e5de7c8","ios":"levelo://app?vid=0c951385-e5b8-4d41-aaf5-1f394e5de7c8"},"vehicle_type_id":"4","last_reported":1759000014,"current_range_meters":16400,"station_id":"ce4bgih2rcd13ifvqba0","pricing_plan_id":"cebpf4jnsgd1na2vs0mg"},