{"last_updated":1749907185,"ttl":60,"version":"2.2","data":{"bikes":[{"bike_id":"b31f0139-170f-4194-984f-4386218a1e9d","system_id":"levelo_inurba_marseille","lat":43.33771,"lon":5.37424,"is_reserved":false,"is_disabled":true,"rental_uris":{"android":"levelo://app?vid=b31f0139-170f-4194-984f-4386218a1e9d","ios":"levelo://app?vid=b31f0139-170f-4194-984f-4386218a1e9d"},"vehicle_type_id":"4","last_reported":1749907186,"current_range_meters":0,"station_id":"","pricing_plan_id":"cebpf4jnsgd1na2vs0mg"},{"bike_id":"1acfb620-cad7-48c0-8901-d7a5b74a5b65","system_id":"levelo_inurba_marseille","lat":43.33751,"lon":5.37456,"is_reserved":false,"is_disabled":true,"rental_uris":{"android":"levelo://app?vid=1acfb620-cad7-48c0-8901-d7a5b74a5b65","ios":"levelo://app?vid=1acfb620-cad7-48c0-8901-d7a5b74a5b65"},"vehicle_type_id":"4","last_reported":1749907186,"current_range_meters":0,"station_id":"","pricing_plan_id":"cebpf4jnsgd1na2vs0mg"},{"bike_id":"9fcd9c2e-8610-4d87-a883-a5baec28d1dc","system_id":"levelo_inurba_marseille","lat":43.26209,"lon":5.37939,"is_reserved":false,"is_disabled":true,"rental_uris":{"android":"levelo://app?vid=9fcd9c2e-8610-4d87-a883-a5baec28d1dc","ios":"levelo://app?vid=9fcd9c2e-8610-4d87-a883-a5baec28d1dc"},"vehicle_type_id":"4","last_reported":1749907186,"current_range_meters":0,"station_id":"","pricing_plan_id":"cebpf4jnsgd1na2vs0mg"},{"bike_id":"470fdfe7-14e6-4492-a58b-f399810bc3a7","system_id":"levelo_inurba_marseille","lat":43.2622,"lon":5.37504,"is_reserved":false,"is_disabled":true,"rental_uris":{"android":"levelo://app?vid=470fdfe7-14e6-4492-a58b-f399810bc3a7","ios":"levelo://app?vid=470fdfe7-14e6-4492-a58b-f399810bc3a7"},"vehicle_type_id":"4","last_reported":1749907186,"current_range_meters":0,"station_id":"","pricing_plan_id":"cebpf4jnsgd1na2vs0mg"},{"bike_id":"bf89d78c-eb96-40d5-beb0-f402ef102cc1","system_id":"levelo_inurba_marseille","lat":43.337444,"lon":5.374475,"is_reserved":false,"is_disabled":true,"rental_uris":{"android":"levelo://app?vid=bf89d78c-eb96-40d5-beb0-f402ef102cc1","ios":"levelo://app?vid=bf89d78c-eb96-40d5-beb0-f402ef102cc1"},"vehicle_type_id":"4","last_reported":1749907186,"current_range_meters":0,"station_id":"","pricing_plan_id":"cebpf4jnsgd1na2vs0mg"},{"bike_id":"5077581b-cebb-46fc-ba69-4fa8272d4810","system_id":"levelo_inurba_marseille","lat":43.21373,"lon":5.35531,"is_reserved":false,"is_disabled":true,"rental_uris":{"android":"levelo://app?vid=5077581b-cebb-46fc-ba69-4fa8272d4810","ios":"levelo://app?vid=5077581b-cebb-46fc-ba69-4fa8272d4810"},"vehicle_type_id":"4","last_reported":1749907186,"current_range_meters":0,"station_id":"","pricing_plan_id":"cebpf4jnsgd1na2vs0mg"},{"bike_id":"8631c4e3-7e45-4b01-8538-d64c8499eb1d","system_id":"levelo_inurba_marseille","lat":43.28648,"lon":5.38353,"is_reserved":false,"is_disabled":true,"rental_uris":{"android":"levelo://app?vid=8631c4e3-7e45-4b01-8538-d64c8499eb1d","ios":"levelo://app?vid=8631c4e3-7e45-4b01-8538-d64c8499eb1d"},"vehicle_type_id":"4","last_reported":1749907186,"current_range_meters":0,"station_id":"","pricing_plan_id":"cebpf4jnsgd1na2vs0mg"},{"bike_id":"c2ee52aa-2d04-498d-bd93-246a71a15a27","system_id":"levelo_inurba_marseille","lat":43.3279,"lon":5.39782,"is_reserved":false,"is_disabled":true,"rental_uris":{"android":"levelo://app?vid=c2ee52aa-2d04-498d-bd93-246a71a15a27","ios":"levelo://app?vid=c2ee52aa-2d04-498d-bd93-246a71a15a27"},"vehicle_type_id":"4","last_reported":1749907186,"current_range_meters":0,"station_id":"","pricing_plan_id":"cebpf4jnsgd1na2vs0mg"},{"bike_id":"ebf89cec-3e1a-4275-9cd0-a3d19d69b5cf","system_id":"levelo_inurba_marseille","lat":43.27974,"lon":5.38478,"is_reserved":false,"is_disabled":true,"rental_uris":{"android":"levelo://app?vid=ebf89cec-3e1a-4275-9cd0-a3d19d69b5cf","ios":"levelo://app?vid=ebf89cec-3e1a-4275-9cd0-a3d19d69b5cf"},"vehicle_type_id":"4","last_reported":1749907186,"current_range_meters":0,"station_id":"","pricing_plan_id":"cebpf4jnsgd1na2vs0mg"},{"bike_id":"492f4bbd-1190-4ef2-b66a-479ffe91b09b","system_id":"levelo_inurba_marseille","lat":43.337444,"lon":5.374475,"is_reserved":false,"is_disabled":true,"rental_uris":{"android":"levelo://app?vid=492f4bbd-1190-4ef2-b66a-479ffe91b09b","ios":"levelo://app?vid=492f4bbd-1190-4ef2-b66a-479ffe91b09b"},"vehicle_type_id":"4","last_reported":1749907186,"current_range_meters":0,"station_id":"","pricing_plan_id":"cebpf4jnsgd1na2vs0mg"},{"bike_id":"a9b6bf99-4070-4437-bb20-72962ae30b90","system_id":"levelo_inurba_marseille","lat":43.27437,"lon":5.36369,"is_reserved":false,"is_disabled":true,"rental_uris":{"android":"levelo://app?vid=a9b6bf99-4070-4437-bb20-72962ae30b90","ios":"levelo://app?vid=a9b6bf99-4070-4437-bb20-72962ae30b90"},"vehicle_type_id":"4","last_reported":1749907186,"current_range_meters":0,"station_id":"","pricing_plan_id":"cebpf4jnsgd1na2vs0mg"},{"bike_id":"2e968558-8433-4382-a6f9-12d48c781ff8","system_id":"levelo_inurba_marseille","lat":43.30592,"lon":5.39357,"is_reserved":false,"is_disabled":true,"rental_uris":{"android":"levelo://app?vid=2e968558-8433-4382-a6f9-12d48c781ff8","ios":"levelo://app?vid=2e968558-8433-4382-a6f9-12d48c781ff8"},"vehicle_type_id":"4","last_reported":1749907186,"current_range_meters":0,"station_id":"ce4bh0p2rcd13ifvqd80","pricing_plan_id":"cebpf4jnsgd1na2vs0mg"},{"bike_id":"ccb30680-adac-40bf-819e-6d98b225aa73","system_id":"levelo_inurba_marseille","lat":43.28483,"lon":5.38419,"is_reserved":false,"is_disabled":true,"rental_uris":{"android":"levelo://app?vid=ccb30680-adac-40bf-819e-6d98b225aa73","ios":"levelo://app?vid=ccb30680-adac-40bf-819e-6d98b225aa73"},"vehicle_type_id":"4","last_reported":1749907186,"current_range_meters":0,"station_id":"ce4bh512rcd13ifvqe3g","pricing_plan_id":"cebpf4jnsgd1na2vs0mg"},{"bike_id":"3fb3b376-ef9f-4231-a72f-2c6a28d60e56","system_id":"levelo_inurba_marseille","lat":43.292562,"lon":5.384383,"is_reserved":false,"is_disabled":true,"rental_uris":{"android":"levelo://app?vid=3fb3b376-ef9f-4231-a72f-2c6a28d60e56","ios":"levelo://app?vid=3fb3b376-ef9f-4231-a72f-2c6a28d60e56"},"vehicle_type_id":"4","last_reported":1749907186,"current_range_meters":0,"station_id":"ce4bh692rcd13ifvqea0","pricing_plan_id":"cebpf4jnsgd1na2vs0mg"},{"bike_id":"fd2afdb6-8acd-4035-998a-a30e19d12f18","system_id":"levelo_inurba_marseille","lat":43.2928,"lon":5.36838,"is_reserved":false,"is_disabled":true,"rental_uris":{"android":"levelo://app?vid=fd2afdb6-8acd-4035-998a-a30e19d12f18","ios":"levelo://app?vid=fd2afdb6-8acd-4035-998a-a30e19d12f18"},"vehicle_type_id":"4","last_reported":1749907186,"current_range_meters":0,"station_id":"ce4bhbp2rcd13ifvqesg","pricing_plan_id":"cebpf4jnsgd1na2vs0mg"},{"bike_id":"64b96fa1-8f5e-4e6b-9ccf-cf2650ed430b","system_id":"levelo_inurba_marseille","lat":43.26557,"lon":5.37284,"is_reserved":false,"is_disabled":true,"rental_uris":{"android":"levelo://app?vid=64b96fa1-8f5e-4e6b-9ccf-cf2650ed430b","ios":"levelo://app?vid=64b96fa1-8f5e-4e6b-9ccf-cf2650ed430b"},"vehicle_type_id":"4","last_reported":1749907186,"current_range_meters":0,"station_id":"ce4bhg12rcd13ifvqf70","pricing_plan_id":"cebpf4jnsgd1na2vs0mg"},{"bike_id":"a9b92ce5-e078-4d37-89c4-806e249909f4","system_id":"levelo_inurba_marseille","lat":43.25497,"lon":5.37648,"is_reserved":false,"is_disabled":true,"rental_uris":{"android":"levelo://app?vid=a9b92ce5-e078-4d37-89c4-806e249909f4","ios":"levelo://app?vid=a9b92ce5-e078-4d37-89c4-806e249909f4"},"vehicle_type_id":"4","last_reported":1749907186,"current_range_meters":0,"station_id":"ce4bhh12rcd13ifvqff0","pricing_plan_id":"cebpf4jnsgd1na2vs0mg"},{"bike_id":"cd7052b8-c6de-42a1-9f65-1ea2cc471e73","system_id":"levelo_inurba_marseille","lat":43.25855,"lon":5.39919,"is_reserved":false,"is_disabled":true,"rental_uris":{"android":"levelo://app?vid=cd7052b8-c6de-42a1-9f65-1ea2cc471e73","ios":"levelo://app?vid=cd7052b8-c6de-42a1-9f65-1ea2cc471e73"},"vehicle_type_id":"4","last_reported":1749907186,"current_range_meters":0,"station_id":"ce4bhl92rcd13ifvqghg","pricing_plan_id":"cebpf4jnsgd1na2vs0mg"},{"bike_id":"7d55c521-4228-4651-993a-31015265590c","system_id":"levelo_inurba_marseille","lat":43.258665,"lon":5.398975,"is_reserved":false,"is_disabled":true,"rental_uris":{"android":"levelo://app?vid=7d55c521-4228-4651-993a-31015265590c","ios":"levelo://app?vid=7d55c521-4228-4651-993a-31015265590c"},"vehicle_type_id":"4","last_reported":1749907186,"current_range_meters":0,"station_id":"ce4bhl92rcd13ifvqghg","pricing_plan_id":"cebpf4jnsgd1na2vs0mg"},{"bike_id":"442be05d-b25d-4a8f-8f0c-2b10cb7b3826","system_id":"levelo_inurba_marseille","lat":43.30422,"lon":5.41288,"is_reserved":false,"is_disabled":true,"rental_uris":{"android":"levelo://app?vid=442be05d-b25d-4a8f-8f0c-2b10cb7b3826","ios":"levelo://app?vid=442be05d-b25d-4a8f-8f0c-2b10cb7b3826"},"vehicle_type_id":"4","last_reported":1749907186,"current_range_meters":0,"station_id":"ce4bhop2rcd13ifvqh8g","pricing_plan_id":"cebpf4jnsgd1na2vs0mg"},{"bike_id":"5b4907c8-e5b7-4561-8935-4f7beb31708a","system_id":"levelo_inurba_marseille","lat":43.32343,"lon":5.40617,"is_reserved":false,"is_disabled":true,"rental_uris":{"android":"levelo://app?vid=5b4907c8-e5b7-4561-8935-4f7beb31708a","ios":"levelo://app?vid=5b4907c8-e5b7-4561-8935-4f7beb31708a"},"vehicle_type_id":"4","last_reported":1749907186,"current_range_meters":0,"station_id":"ce4bhq92rcd13ifvqhjg","pricing_plan_id":"cebpf4jnsgd1na2vs0mg"},{"bike_id":"bbb02913-c6bc-48cc-9429-24d0d9829817","system_id":"levelo_inurba_marseille","lat":43.32342,"lon":5.40629,"is_reserved":false,"is_disabled":true,"rental_uris":{"android":"levelo://app?vid=bbb02913-c6bc-48cc-9429-24d0d9829817","ios":"levelo://app?vid=bbb02913-c6bc-48cc-9429-24d0d9829817"},"vehicle_type_id":"4","last_reported":1749907186,"current_range_meters":0,"station_id":"ce4bhq92rcd13ifvqhjg","pricing_plan_id":"cebpf4jnsgd1na2vs0mg"},{"bike_id":"0f50c2eb-d288-4d90-a9a3-cd0743222590","system_id":"levelo_inurba_marseille","lat":43.22497,"lon":5.34788,"is_reserved":false,"is_disabled":true,"rental_uris":{"android":"levelo://app?vid=0f50c2eb-d288-4d90-a9a3-cd0743222590","ios":"levelo://app?vid=0f50c2eb-d288-4d90-a9a3-cd0743222590"},"vehicle_type_id":"4","last_reported":1749907186,"current_range_meters":0,"station_id":"st_cvj5dfep6f1abm77gieg","pricing_plan_id":"cebpf4jnsgd1na2vs0mg"},{"bike_id":"fe909eec-57cb-4f6d-9797-191bc789bd7d","system_id":"levelo_inurba_marseille","lat":43.31195,"lon":5.36821,"is_reserved":false,"is_disabled":true,"rental_uris":{"android":"levelo://app?vid=fe909eec-57cb-4f6d-9797-191bc789bd7d","ios":"levelo://app?vid=fe909eec-57cb-4f6d-9797-191bc789bd7d"},"vehicle_type_id":"4","last_reported":1749907186,"current_range_meters":400,"station_id":"ce4bgl92rcd13ifvqbq0","pricing_plan_id":"cebpf4jnsgd1na2vs0mg"},{"bike_id":"3b4c60d7-61b9-4806-be59-1922aaca0e7c","system_id":"levelo_inurba_marseille","lat":43.2926,"lon":5.38444,"is_reserved":false,"is_disabled":true,"rental_uris":{"android":"levelo://app?vid=3b4c60d7-61b9-4806-be59-1922aaca0e7c","ios":"levelo://app?vid=3b4c60d7-61b9-4806-be59-1922aaca0e7c"},"vehicle_type_id":"4","last_reported":1749907186,"current_range_meters":400,"station_id":"ce4bh692rcd13ifvqea0","pricing_plan_id":"cebpf4jnsgd1na2vs0mg"},{"bike_id":"c7ba63e3-a335-4ff1-a8d3-5e3ed88a9c9e","system_id":"levelo_inurba_marseille","lat":43.25084,"lon":5.39529,"is_reserved":false,"is_disabled":true,"rental_uris":{"android":"levelo://app?vid=c7ba63e3-a335-4ff1-a8d3-5e3ed88a9c9e","ios":"levelo://app?vid=c7ba63e3-a335-4ff1-a8d3-5e3ed88a9c9e"},"vehicle_type_id":"4","last_reported":1749907186,"current_range_meters":400,"station_id":"ce4bhm12rcd13ifvqgkg","pricing_plan_id":"cebpf4jnsgd1na2vs0mg"},{"bike_id":"d2bb0933-18c6-471a-b912-9272026212fc","system_id":"levelo_inurba_marseille","lat":43.2961,"lon":5.37733,"is_reserved":false,"is_disabled":true,"rental_uris":{"android":"levelo://app?vid=d2bb0933-18c6-471a-b912-9272026212fc","ios":"levelo://app?vid=d2bb0933-18c6-471a-b912-9272026212fc"},"vehicle_type_id":"4","last_reported":1749907186,"current_range_meters":800,"station_id":"ce4bgi92rcd13ifvqb90","pricing_plan_id":"cebpf4jnsgd1na2vs0mg"},{"bike_id":"f0c72add-3883-4663-a9a9-7391d0fa1531","system_id":"levelo_inurba_marseille","lat":43.22942,"lon":5.3537,"is_reserved":false,"is_disabled":true,"rental_uris":{"android":"levelo://app?vid=f0c72add-3883-4663-a9a9-7391d0fa1531","ios":"levelo://app?vid=f0c72add-3883-4663-a9a9-7391d0fa1531"},"vehicle_type_id":"4","last_reported":1749907186,"current_range_meters":800,"station_id":"cpo3532slgdg3j2ikp40","pricing_plan_id":"cebpf4jnsgd1na2vs0mg"},{"bike_id":"7be62569-a898-4611-92c2-ab5ef44f1723","system_id":"levelo_inurba_marseille","lat":43.22941,"lon":5.35372,"is_reserved":false,"is_disabled":true,"rental_uris":{"android":"levelo://app?vid=7be62569-a898-4611-92c2-ab5ef44f1723","ios":"levelo://app?vid=7be62569-a898-4611-92c2-ab5ef44f1723"},"vehicle_type_id":"4","last_reported":1749907186,"current_range_meters":800,"station_id":"cpo3532slgdg3j2ikp40","pricing_plan_id":"cebpf4jnsgd1na2vs0mg"},{"bike_id":"50aa1fcc-29ed-4e5e-a7c8-a6c4a21336c0","system_id":"levelo_inurba_marseille","lat":43.29613,"lon":5.38102,"is_reserved":false,"is_disabled":true,"rental_uris":{"android":"levelo://app?vid=50aa1fcc-29ed-4e5e-a7c8-a6c4a21336c0","ios":"levelo://app?vid=50aa1fcc-29ed-4e5e-a7c8-a6c4a21336c0"},"vehicle_type_id":"4","last_reported":1749907186,"current_range_meters":1200,"station_id":"ce4bgl12rcd13ifvqbo0","pricing_plan_id":"cebpf4jnsgd1na2vs0mg"},{"bike_id":"9aff19db-c97c-48d6-9fe9-0d22765fc6bf","system_id":"levelo_inurba_marseille","lat":43.28469,"lon":5.35893,"is_reserved":false,"is_disabled":true,"rental_uris":{"android":"levelo://app?vid=9aff19db-c97c-48d6-9fe9-0d22765fc6bf","ios":"levelo://app?vid=9aff19db-c97c-48d6-9fe9-0d22765fc6bf"},"vehicle_type_id":"4","last_reported":1749907186,"current_range_meters":1200,"station_id":"ce4bhah2rcd13ifvqei0","pricing_plan_id":"cebpf4jnsgd1na2vs0mg"},{"bike_id":"e4ab0cbe-c9ee-426b-a89d-4698af4c3230","system_id":"levelo_inurba_marseille","lat":43.24664,"lon":5.38165,"is_reserved":false,"is_disabled":true,"rental_uris":{"android":"levelo://app?vid=e4ab0cbe-c9ee-426b-a89d-4698af4c3230","ios":"levelo://app?vid=e4ab0cbe-c9ee-426b-a89d-4698af4c3230"},"vehicle_type_id":"4","last_reported":1749907186,"current_range_meters":1200,"station_id":"ce4bhih2rcd13ifvqfr0","pricing_plan_id":"cebpf4jnsgd1na2vs0mg"},{"bike_id":"d509b864-360f-47c6-8886-3afeb8219a9e","system_id":"levelo_inurba_marseille","lat":43.31891,"lon":5.40745,"is_reserved":false,"is_disabled":true,"rental_uris":{"android":"levelo://app?vid=d509b864-360f-47c6-8886-3afeb8219a9e","ios":"levelo://app?vid=d509b864-360f-47c6-8886-3afeb8219a9e"},"vehicle_type_id":"4","last_reported":1749907186,"current_range_meters":1200,"station_id":"ce4bhq12rcd13ifvqhig","pricing_plan_id":"cebpf4jnsgd1na2vs0mg"},{"bike_id":"af0cbe51-20d0-4dcb-8033-703a71ebf4a4","system_id":"levelo_inurba_marseille","lat":43.320677,"lon":5.415204,"is_reserved":false,"is_disabled":false,"rental_uris":{"android":"levelo://app?vid=af0cbe51-20d0-4dcb-8033-703a71ebf4a4","ios":"levelo://app?vid=af0cbe51-20d0-4dcb-8033-703a71ebf4a4"},"vehicle_type_id":"4","last_reported":1749907186,"current_range_meters":1200,"station_id":"ce4bhq92rcd13ifvqhkg","pricing_plan_id":"cebpf4jnsgd1na2vs0mg"},{"bike_id":"096e6d70-618a-475a-b840-551bbb4ed227","system_id":"levelo_inurba_marseille","lat":43.2482,"lon":5.37456,"is_reserved":false,"is_disabled":true,"rental_uris":{"android":"levelo://app?vid=096e6d70-618a-475a-b840-551bbb4ed227","ios":"levelo://app?vid=096e6d70-618a-475a-b840-551bbb4ed227"},"vehicle_type_id":"4","last_reported":1749907186,"current_range_meters":1600,"station_id":"ce4bhgh2rcd13ifvqfb0","pricing_plan_id":"cebpf4jnsgd1na2vs0mg"},{"bike_id":"825640bc-271b-400a-a978-2ce4df90320c","system_id":"levelo_inurba_marseille","lat":43.23967,"lon":5.36634,"is_reserved":false,"is_disabled":true,"rental_uris":{"android":"levelo://app?vid=825640bc-271b-400a-a978-2ce4df90320c","ios":"levelo://app?vid=825640bc-271b-400a-a978-2ce4df90320c"},"vehicle_type_id":"4","last_reported":1749907186,"current_range_meters":1600,"station_id":"ce4bhi12rcd13ifvqfp0","pricing_plan_id":"cebpf4jnsgd1na2vs0mg"},{"bike_id":"8d60347d-541c-40fb-90ca-203bf6bd520a","system_id":"levelo_inurba_marseille","lat":43.27113,"lon":5.3641,"is_reserved":false,"is_disabled":true,"rental_uris":{"android":"levelo://app?vid=8d60347d-541c-40fb-90ca-203bf6bd520a","ios":"levelo://app?vid=8d60347d-541c-40fb-90ca-203bf6bd520a"},"vehicle_type_id":"4","last_reported":1749907186,"current_range_meters":2000,"station_id":"","pricing_plan_id":"cebpf4jnsgd1na2vs0mg"},{"bike_id":"dd3a13a7-0b22-4e00-889e-292207072c37","system_id":"levelo_inurba_marseille","lat":43.29533,"lon":5.38545,"is_reserved":false,"is_disabled":true,"rental_uris":{"android":"levelo://app?vid=dd3a13a7-0b22-4e00-889e-292207072c37","ios":"levelo://app?vid=dd3a13a7-0b22-4e00-889e-292207072c37"},"vehicle_type_id":"4","last_reported":1749907186,"current_range_meters":2000,"station_id":"ce4bgih2rcd13ifvqba0","pricing_plan_id":"cebpf4jnsgd1na2vs0mg"},{"bike_id":"3de9fcc3-d1e0-4204-aeb9-412961a97738","system_id":"levelo_inurba_marseille","lat":43.29007,"lon":5.35609,"is_reserved":false,"is_disabled":true,"rental_uris":{"android":"levelo://app?vid=3de9fcc3-d1e0-4204-aeb9-412961a97738","ios":"levelo://app?vid=3de9fcc3-d1e0-4204-aeb9-412961a97738"},"vehicle_type_id":"4","last_reported":1749907186,"current_range_meters":2000,"station_id":"ce4bhb92rcd13ifvqen0","pricing_plan_id":"cebpf4jnsgd1na2vs0mg"},{"bike_id":"a49dc1c4-0af4-4910-944f-c683e6d952b3","system_id":"levelo_inurba_marseille","lat":43.26203,"lon":5.37457,"is_reserved":false,"is_disabled":true,"rental_uris":{"android":"levelo://app?vid=a49dc1c4-0af4-4910-944f-c683e6d952b3","ios":"levelo://app?vid=a49dc1c4-0af4-4910-944f-c683e6d952b3"},"vehicle_type_id":"4","last_reported":1749907186,"current_range_meters":2000,"station_id":"ce4bhgp2rcd13ifvqfc0","pricing_plan_id":"cebpf4jnsgd1na2vs0mg"},{"bike_id":"a564cbc0-0e74-4669-99bc-9e22c1181b19","system_id":"levelo_inurba_marseille","lat":43.29306,"lon":5.37458,"is_reserved":false,"is_disabled":true,"rental_uris":{"android":"levelo://app?vid=a564cbc0-0e74-4669-99bc-9e22c1181b19","ios":"levelo://app?vid=a564cbc0-0e74-4669-99bc-9e22c1181b19"},"vehicle_type_id":"4","last_reported":1749907186,"current_range_meters":2800,"station_id":"ce4bgi12rcd13ifvqb70","pricing_plan_id":"cebpf4jnsgd1na2vs0mg"},{"bike_id":"8a633210-497c-40be-bdbd-cd11b97563cd","system_id":"levelo_inurba_marseille","lat":43.29935,"lon":5.36496,"is_reserved":false,"is_disabled":false,"rental_uris":{"android":"levelo://app?vid=8a633210-497c-40be-bdbd-cd11b97563cd","ios":"levelo://app?vid=8a633210-497c-40be-bdbd-cd11b97563cd"},"vehicle_type_id":"4","last_reported":1749907186,"current_range_meters":2800,"station_id":"ce4bgm92rcd13ifvqbr0","pricing_plan_id":"cebpf4jnsgd1na2vs0mg"},{"bike_id":"0a1c14c4-e286-4cde-b00d-e5bb515f8bb2","system_id":"levelo_inurba_marseille","lat":43.29107,"lon":5.38125,"is_reserved":false,"is_disabled":false,"rental_uris":{"android":"levelo://app?vid=0a1c14c4-e286-4cde-b00d-e5bb515f8bb2","ios":"levelo://app?vid=0a1c14c4-e286-4cde-b00d-e5bb515f8bb2"},"vehicle_type_id":"4","last_reported":1749907186,"current_range_meters":2800,"station_id":"ce4bh512rcd13ifvqe2g","pricing_plan_id":"cebpf4jnsgd1na2vs0mg"},{"bike_id":"e22877d8-eff5-4b26-88bf-02fc0a1a6ce9","system_id":"levelo_inurba_marseille","lat":43.295339,"lon":5.385644,"is_reserved":false,"is_disabled":false,"rental_uris":{"android":"levelo://app?vid=e22877d8-eff5-4b26-88bf-02fc0a1a6ce9","ios":"levelo://app?vid=e22877d8-eff5-4b26-88bf-02fc0a1a6ce9"},"vehicle_type_id":"4","last_reported":1749907186,"current_range_meters":3200,"station_id":"ce4bgih2rcd13ifvqba0","pricing_plan_id":"cebpf4jnsgd1na2vs0mg"},{"bike_id":"5c7dc290-0fb3-48bf-ac09-2c0f72d4da02","system_id":"levelo_inurba_marseille","lat":43.292,"lon":5.3581,"is_reserved":false,"is_disabled":false,"rental_uris":{"android":"levelo://app?vid=5c7dc290-0fb3-48bf-ac09-2c0f72d4da02","ios":"levelo://app?vid=5c7dc290-0fb3-48bf-ac09-2c0f72d4da02"},"vehicle_type_id":"4","last_reported":1749907186,"current_range_meters":3200,"station_id":"ce4bhb12rcd13ifvqel0","pricing_plan_id":"cebpf4jnsgd1na2vs0mg"},{"bike_id":"6f9cb395-b035-4207-ab76-a1aab61ea09a","system_id":"levelo_inurba_marseille","lat":43.28418,"lon":5.349758,"is_reserved":false,"is_disabled":false,"rental_uris":{"android":"levelo://app?vid=6f9cb395-b035-4207-ab76-a1aab61ea09a","ios":"levelo://app?vid=6f9cb395-b035-4207-ab76-a1aab61ea09a"},"vehicle_type_id":"4","last_reported":1749907186,"current_range_meters":3200,"station_id":"ce4bhbh2rcd13ifvqepg","pricing_plan_id":"cebpf4jnsgd1na2vs0mg"},{"bike_id":"95fc532b-3e76-4e28-99cc-6e004a156628","system_id":"levelo_inurba_marseille","lat":43.26562,"lon":5.37301,"is_reserved":false,"is_disabled":false,"rental_uris":{"android":"levelo://app?vid=95fc532b-3e76-4e28-99cc-6e004a156628","ios":"levelo://app?vid=95fc532b-3e76-4e28-99cc-6e004a156628"},"vehicle_type_id":"4","last_reported":1749907186,"current_range_meters":3200,"station_id":"ce4bhg12rcd13ifvqf70","pricing_plan_id":"cebpf4jnsgd1na2vs0mg"},{"bike_id":"966e426a-b679-448d-9a6d-b0f13f91ed17","system_id":"levelo_inurba_marseille","lat":43.2481,"lon":5.3746,"is_reserved":false,"is_disabled":false,"rental_uris":{"android":"levelo://app?vid=966e426a-b679-448d-9a6d-b0f13f91ed17","ios":"levelo://app?vid=966e426a-b679-448d-9a6d-b0f13f91ed17"},"vehicle_type_id":"4","last_reported":1749907186,"current_range_meters":3200,"station_id":"ce4bhgh2rcd13ifvqfb0","pricing_plan_id":"cebpf4jnsgd1na2vs0mg"},{"bike_id":"2723f538-9ac3-450a-9ceb-c00d189fe588","system_id":"levelo_inurba_marseille","lat":43.26521,"lon":5.39593,"is_reserved":false,"is_disabled":false,"rental_uris":{"android":"levelo://app?vid=2723f538-9ac3-450a-9ceb-c00d189fe588","ios":"levelo://app?vid=2723f538-9ac3-450a-9ceb-c00d189fe588"},"vehicle_type_id":"4","last_reported":1749907186,"current_range_meters":3200,"station_id":"ce4bhi12rcd13ifvqfq0","pricing_plan_id":"cebpf4jnsgd1na2vs0mg"},{"bike_id":"facad708-ac2e-4647-8c52-a1e2e89ee9aa","system_id":"levelo_inurba_marseille","lat":43.306487,"lon":5.401142,"is_reserved":false,"is_disabled":false,"rental_uris":{"android":"levelo://app?vid=facad708-ac2e-4647-8c52-a1e2e89ee9aa","ios":"levelo://app?vid=facad708-ac2e-4647-8c52-a1e2e89ee9aa"},"vehicle_type_id":"4","last_reported":1749907186,"current_range_meters":3600,"station_id":"ce4bh112rcd13ifvqda0","pricing_plan_id":"cebpf4jnsgd1na2vs0mg"},{"bike_id":"18fbe5cd-487f-4a45-8922-4c1074ba2a14","system_id":"levelo_inurba_marseille","lat":43.23148,"lon":5.4374,"is_reserved":false,"is_disabled":false,"rental_uris":{"android":"levelo://app?vid=18fbe5cd-487f-4a45-8922-4c1074ba2a14","ios":"levelo://app?vid=18fbe5cd-487f-4a45-8922-4c1074ba2a14"},"vehicle_type_id":"4","last_reported":1749907186,"current_range_meters":3600,"station_id":"ce4bhmp2rcd13ifvqgog","pricing_plan_id":"cebpf4jnsgd1na2vs0mg"},{"bike_id":"d69b76c1-cad2-4eb8-97b2-b80ec2daa5c4","system_id":"levelo_inurba_marseille","lat":43.217477,"lon":5.346043,"is_reserved":false,"is_disabled":false,"rental_uris":{"android":"levelo://app?vid=d69b76c1-cad2-4eb8-97b2-b80ec2daa5c4","ios":"levelo://app?vid=d69b76c1-cad2-4eb8-97b2-b80ec2daa5c4"},"vehicle_type_id":"4","last_reported":1749907186,"current_range_meters":3600,"station_id":"st_cvj6r9ubvosntc0bgbag","pricing_plan_id":"cebpf4jnsgd1na2vs0mg"},{"bike_id":"97421c04-2630-4fc1-9da9-b17d88602c5f","system_id":"levelo_inurba_marseille","lat":43.337682,"lon":5.374519,"is_reserved":false,"is_disabled":false,"rental_uris":{"android":"levelo://app?vid=97421c04-2630-4fc1-9da9-b17d88602c5f","ios":"levelo://app?vid=97421c04-2630-4fc1-9da9-b17d88602c5f"},"vehicle_type_id":"4","last_reported":1749907186,"current_range_meters":4000,"station_id":"","pricing_plan_id":"cebpf4jnsgd1na2vs0mg"},{"bike_id":"39abea4d-17ec-474b-ba6c-1c4774a25747","system_id":"levelo_inurba_marseille","lat":43.30434,"lon":5.38904,"is_reserved":false,"is_disabled":false,"rental_uris":{"android":"levelo://app?vid=39abea4d-17ec-474b-ba6c-1c4774a25747","ios":"levelo://app?vid=39abea4d-17ec-474b-ba6c-1c4774a25747"},"vehicle_type_id":"4","last_reported":1749907186,"current_range_meters":4000,"station_id":"ce4bgk12rcd13ifvqbi0","pricing_plan_id":"cebpf4jnsgd1na2vs0mg"},{"bike_id":"79ce41c9-97cb-4d14-8d51-6bb743205660","system_id":"levelo_inurba_marseille","lat":43.24678,"lon":5.38163,"is_reserved":false,"is_disabled":false,"rental_uris":{"android":"levelo://app?vid=79ce41c9-97cb-4d14-8d51-6bb743205660","ios":"levelo://app?vid=79ce41c9-97cb-4d14-8d51-6bb743205660"},"vehicle_type_id":"4","last_reported":1749907186,"current_range_meters":4000,"station_id":"ce4bhih2rcd13ifvqfr0","pricing_plan_id":"cebpf4jnsgd1na2vs0mg"},{"bike_id":"d9be8431-1098-4c2d-b533-c5666589794d","system_id":"levelo_inurba_marseille","lat":43.30425,"lon":5.413,"is_reserved":false,"is_disabled":false,"rental_uris":{"android":"levelo://app?vid=d9be8431-1098-4c2d-b533-c5666589794d","ios":"levelo://app?vid=d9be8431-1098-4c2d-b533-c5666589794d"},"vehicle_type_id":"4","last_reported":1749907186,"current_range_meters":4000,"station_id":"ce4bhop2rcd13ifvqh8g","pricing_plan_id":"cebpf4jnsgd1na2vs0mg"},{"bike_id":"f4adfbe5-bef8-4de4-8b24-8f09f3543de5","system_id":"levelo_inurba_marseille","lat":43.30539,"lon":5.36626,"is_reserved":false,"is_disabled":false,"rental_uris":{"android":"levelo://app?vid=f4adfbe5-bef8-4de4-8b24-8f09f3543de5","ios":"levelo://app?vid=f4adfbe5-bef8-4de4-8b24-8f09f3543de5"},"vehicle_type_id":"4","last_reported":1749907186,"current_range_meters":4400,"station_id":"","pricing_plan_id":"cebpf4jnsgd1na2vs0mg"},{"bike_id":"362bf9f9-a073-42a9-ba10-441becac2974","system_id":"levelo_inurba_marseille","lat":43.24077,"lon":5.37771,"is_reserved":false,"is_disabled":false,"rental_uris":{"android":"levelo://app?vid=362bf9f9-a073-42a9-ba10-441becac2974","ios":"levelo://app?vid=362bf9f9-a073-42a9-ba10-441becac2974"},"vehicle_type_id":"4","last_reported":1749907186,"current_range_meters":4400,"station_id":"ce4bhnp2rcd13ifvqgvg","pricing_plan_id":"cebpf4jnsgd1na2vs0mg"},{"bike_id":"2e99a5fb-a2c2-44ef-ab87-5391b788b560","system_id":"levelo_inurba_marseille","lat":43.225028,"lon":5.347838,"is_reserved":false,"is_disabled":false,"rental_uris":{"android":"levelo://app?vid=2e99a5fb-a2c2-44ef-ab87-5391b788b560","ios":"levelo://app?vid=2e99a5fb-a2c2-44ef-ab87-5391b788b560"},"vehicle_type_id":"4","last_reported":1749907186,"current_range_meters":4800,"station_id":"","pricing_plan_id":"cebpf4jnsgd1na2vs0mg"},{"bike_id":"1915255f-ff05-448b-bd5c-bcd55b7449d7","system_id":"levelo_inurba_marseille","lat":43.28773,"lon":5.37341,"is_reserved":false,"is_disabled":false,"rental_uris":{"android":"levelo://app?vid=1915255f-ff05-448b-bd5c-bcd55b7449d7","ios":"levelo://app?vid=1915255f-ff05-448b-bd5c-bcd55b7449d7"},"vehicle_type_id":"4","last_reported":1749907186,"current_range_meters":4800,"station_id":"","pricing_plan_id":"cebpf4jnsgd1na2vs0mg"},{"bike_id":"170bd17b-7a70-4725-a1f5-70fe4f1e2e8d","system_id":"levelo_inurba_marseille","lat":43.2848,"lon":5.35992,"is_reserved":false,"is_disabled":false,"rental_uris":{"android":"levelo://app?vid=170bd17b-7a70-4725-a1f5-70fe4f1e2e8d","ios":"levelo://app?vid=170bd17b-7a70-4725-a1f5-70fe4f1e2e8d"},"vehicle_type_id":"4","last_reported":1749907186,"current_range_meters":4800,"station_id":"","pricing_plan_id":"cebpf4jnsgd1na2vs0mg"},{"bike_id":"7799144a-7953-4e83-9dc9-fed36868957a","system_id":"levelo_inurba_marseille","lat":43.3089,"lon":5.37193,"is_reserved":false,"is_disabled":false,"rental_uris":{"android":"levelo://app?vid=7799144a-7953-4e83-9dc9-fed36868957a","ios":"levelo://app?vid=7799144a-7953-4e83-9dc9-fed36868957a"},"vehicle_type_id":"4","last_reported":1749907186,"current_range_meters":4800,"station_id":"ce4bguh2rcd13ifvqckg","pricing_plan_id":"cebpf4jnsgd1na2vs0mg"},{"bike_id":"51db6c21-1025-4dc9-a1aa-281a9053372e","system_id":"levelo_inurba_marseille","lat":43.28037,"lon":5.36957,"is_reserved":false,"is_disabled":false,"rental_uris":{"android":"levelo://app?vid=51db6c21-1025-4dc9-a1aa-281a9053372e","ios":"levelo://app?vid=51db6c21-1025-4dc9-a1aa-281a9053372e"},"vehicle_type_id":"4","last_reported":1749907186,"current_range_meters":5600,"station_id":"ce4bha12rcd13ifvqef0","pricing_plan_id":"cebpf4jnsgd1na2vs0mg"},{"bike_id":"2aaf2205-7518-413f-b8a5-97f1c1695d4c","system_id":"levelo_inurba_marseille","lat":43.23149,"lon":5.4371,"is_reserved":false,"is_disabled":false,"rental_uris":{"android":"levelo://app?vid=2aaf2205-7518-413f-b8a5-97f1c1695d4c","ios":"levelo://app?vid=2aaf2205-7518-413f-b8a5-97f1c1695d4c"},"vehicle_type_id":"4","last_reported":1749907186,"current_range_meters":6000,"station_id":"ce4bhmp2rcd13ifvqgog","pricing_plan_id":"cebpf4jnsgd1na2vs0mg"},{"bike_id":"f5b2ffae-c086-4e1b-b0fd-043d6026a577","system_id":"levelo_inurba_marseille","lat":43.33727,"lon":5.39202,"is_reserved":false,"is_disabled":false,"rental_uris":{"android":"levelo://app?vid=f5b2ffae-c086-4e1b-b0fd-043d6026a577","ios":"levelo://app?vid=f5b2ffae-c086-4e1b-b0fd-043d6026a577"},"vehicle_type_id":"4","last_reported":1749907186,"current_range_meters":6000,"station_id":"ce4bhr92rcd13ifvqhsg","pricing_plan_id":"cebpf4jnsgd1na2vs0mg"},{"bike_id":"1a02737e-1ddf-475d-9950-54127761b49d","system_id":"levelo_inurba_marseille","lat":43.29574,"lon":5.4235,"is_reserved":false,"is_disabled":false,"rental_uris":{"android":"levelo://app?vid=1a02737e-1ddf-475d-9950-54127761b49d","ios":"levelo://app?vid=1a02737e-1ddf-475d-9950-54127761b49d"},"vehicle_type_id":"4","last_reported":1749907186,"current_range_meters":6400,"station_id":"","pricing_plan_id":"cebpf4jnsgd1na2vs0mg"},{"bike_id":"f97ecd54-4291-4e6e-b2e8-3d28e0ed70d4","system_id":"levelo_inurba_marseille","lat":43.283993,"lon":5.349937,"is_reserved":false,"is_disabled":false,"rental_uris":{"android":"levelo://app?vid=f97ecd54-4291-4e6e-b2e8-3d28e0ed70d4","ios":"levelo://app?vid=f97ecd54-4291-4e6e-b2e8-3d28e0ed70d4"},"vehicle_type_id":"4","last_reported":1749907186,"current_range_meters":6400,"station_id":"ce4bhbh2rcd13ifvqepg","pricing_plan_id":"cebpf4jnsgd1na2vs0mg"},{"bike_id":"0c94f3f7-de7f-4b8f-9d09-6c1be57e9809","system_id":"levelo_inurba_marseille","lat":43.2396,"lon":5.36635,"is_reserved":false,"is_disabled":false,"rental_uris":{"android":"levelo://app?vid=0c94f3f7-de7f-4b8f-9d09-6c1be57e9809","ios":"levelo://app?vid=0c94f3f7-de7f-4b8f-9d09-6c1be57e9809"},"vehicle_type_id":"4","last_reported":1749907186,"current_range_meters":6400,"station_id":"ce4bhi12rcd13ifvqfp0","pricing_plan_id":"cebpf4jnsgd1na2vs0mg"},{"bike_id":"3089b353-1920-466b-bceb-f6b341022e3c","system_id":"levelo_inurba_marseille","lat":43.26225,"lon":5.40435,"is_reserved":false,"is_disabled":false,"rental_uris":{"android":"levelo://app?vid=3089b353-1920-466b-bceb-f6b341022e3c","ios":"levelo://app?vid=3089b353-1920-466b-bceb-f6b341022e3c"},"vehicle_type_id":"4","last_reported":1749907186,"current_range_meters":6400,"station_id":"ce4bhmh2rcd13ifvqgmg","pricing_plan_id":"cebpf4jnsgd1na2vs0mg"},{"bike_id":"468ba08f-6638-47c8-a5b6-09e2b66c3122","system_id":"levelo_inurba_marseille","lat":43.23188,"lon":5.39995,"is_reserved":false,"is_disabled":false,"rental_uris":{"android":"levelo://app?vid=468ba08f-6638-47c8-a5b6-09e2b66c3122","ios":"levelo://app?vid=468ba08f-6638-47c8-a5b6-09e2b66c3122"},"vehicle_type_id":"4","last_reported":1749907186,"current_range_meters":6400,"station_id":"ce4bhn12rcd13ifvqgqg","pricing_plan_id":"cebpf4jnsgd1na2vs0mg"},{"bike_id":"ab5c85d8-579e-4dd9-84ba-3af3a96518ad","system_id":"levelo_inurba_marseille","lat":43.21189,"lon":5.35076,"is_reserved":false,"is_disabled":false,"rental_uris":{"android":"levelo://app?vid=ab5c85d8-579e-4dd9-84ba-3af3a96518ad","ios":"levelo://app?vid=ab5c85d8-579e-4dd9-84ba-3af3a96518ad"},"vehicle_type_id":"4","last_reported":1749907186,"current_range_meters":6400,"station_id":"st_cvj6sg6p6f1abm77japg","pricing_plan_id":"cebpf4jnsgd1na2vs0mg"},{"bike_id":"f1109899-a0a8-4c05-9dbc-d49ba2b29466","system_id":"levelo_inurba_marseille","lat":43.21191,"lon":5.35076,"is_reserved":false,"is_disabled":false,"rental_uris":{"android":"levelo://app?vid=f1109899-a0a8-4c05-9dbc-d49ba2b29466","ios":"levelo://app?vid=f1109899-a0a8-4c05-9dbc-d49ba2b29466"},"vehicle_type_id":"4","last_reported":1749907186,"current_range_meters":6400,"station_id":"st_cvj6sg6p6f1abm77japg","pricing_plan_id":"cebpf4jnsgd1na2vs0mg"},{"bike_id":"e49fb349-10f0-4406-ac8a-76de68b428f5","system_id":"levelo_inurba_marseille","lat":43.294012,"lon":5.393771,"is_reserved":false,"is_disabled":false,"rental_uris":{"android":"levelo://app?vid=e49fb349-10f0-4406-ac8a-76de68b428f5","ios":"levelo://app?vid=e49fb349-10f0-4406-ac8a-76de68b428f5"},"vehicle_type_id":"4","last_reported":1749907186,"current_range_meters":6800,"station_id":"","pricing_plan_id":"cebpf4jnsgd1na2vs0mg"},{"bike_id":"fd92152d-e60e-414c-8060-39d56579ad6f","system_id":"levelo_inurba_marseille","lat":43.25582,"lon":5.38233,"is_reserved":false,"is_disabled":false,"rental_uris":{"android":"levelo://app?vid=fd92152d-e60e-414c-8060-39d56579ad6f","ios":"levelo://app?vid=fd92152d-e60e-414c-8060-39d56579ad6f"},"vehicle_type_id":"4","last_reported":1749907186,"current_range_meters":6800,"station_id":"ce4bhih2rcd13ifvqfs0","pricing_plan_id":"cebpf4jnsgd1na2vs0mg"},{"bike_id":"7282d616-06ae-4a3b-bc18-686f09bb3262","system_id":"levelo_inurba_marseille","lat":43.32371,"lon":5.36768,"is_reserved":false,"is_disabled":false,"rental_uris":{"android":"levelo://app?vid=7282d616-06ae-4a3b-bc18-686f09bb3262","ios":"levelo://app?vid=7282d616-06ae-4a3b-bc18-686f09bb3262"},"vehicle_type_id":"4","last_reported":1749907186,"current_range_meters":6800,"station_id":"ce4bhsh2rcd13ifvqi2g","pricing_plan_id":"cebpf4jnsgd1na2vs0mg"},{"bike_id":"e3406edc-d1c7-4a98-86c8-13dabb4dc158","system_id":"levelo_inurba_marseille","lat":43.23193,"lon":5.35564,"is_reserved":false,"is_disabled":false,"rental_uris":{"android":"levelo://app?vid=e3406edc-d1c7-4a98-86c8-13dabb4dc158","ios":"levelo://app?vid=e3406edc-d1c7-4a98-86c8-13dabb4dc158"},"vehicle_type_id":"4","last_reported":1749907186,"current_range_meters":6800,"station_id":"ce4bhu92rcd13ifvqi70","pricing_plan_id":"cebpf4jnsgd1na2vs0mg"},{"bike_id":"f7c744c9-5c5c-41e2-9efa-346e1bc6d149","system_id":"levelo_inurba_marseille","lat":43.2119,"lon":5.35083,"is_reserved":false,"is_disabled":false,"rental_uris":{"android":"levelo://app?vid=f7c744c9-5c5c-41e2-9efa-346e1bc6d149","ios":"levelo://app?vid=f7c744c9-5c5c-41e2-9efa-346e1bc6d149"},"vehicle_type_id":"4","last_reported":1749907186,"current_range_meters":6800,"station_id":"st_cvj6sg6p6f1abm77japg","pricing_plan_id":"cebpf4jnsgd1na2vs0mg"},{"bike_id":"3ebcb526-9195-4257-ae10-ca7e45e1829a","system_id":"levelo_inurba_marseille","lat":43.23189,"lon":5.3999,"is_reserved":false,"is_disabled":false,"rental_uris":{"android":"levelo://app?vid=3ebcb526-9195-4257-ae10-ca7e45e1829a","ios":"levelo://app?vid=3ebcb526-9195-4257-ae10-ca7e45e1829a"},"vehicle_type_id":"4","last_reported":1749907186,"current_range_meters":7200,"station_id":"ce4bhn12rcd13ifvqgqg","pricing_plan_id":"cebpf4jnsgd1na2vs0mg"},{"bike_id":"5c565c60-5b65-4227-a7c1-60dc52b3acfe","system_id":"levelo_inurba_marseille","lat":43.31875,"lon":5.40754,"is_reserved":false,"is_disabled":false,"rental_uris":{"android":"levelo://app?vid=5c565c60-5b65-4227-a7c1-60dc52b3acfe","ios":"levelo://app?vid=5c565c60-5b65-4227-a7c1-60dc52b3acfe"},"vehicle_type_id":"4","last_reported":1749907186,"current_range_meters":7200,"station_id":"ce4bhq12rcd13ifvqhig","pricing_plan_id":"cebpf4jnsgd1na2vs0mg"},{"bike_id":"e9389f84-589d-4df8-8e85-61a047baf5cc","system_id":"levelo_inurba_marseille","lat":43.23057,"lon":5.35482,"is_reserved":false,"is_disabled":false,"rental_uris":{"android":"levelo://app?vid=e9389f84-589d-4df8-8e85-61a047baf5cc","ios":"levelo://app?vid=e9389f84-589d-4df8-8e85-61a047baf5cc"},"vehicle_type_id":"4","last_reported":1749907186,"current_range_meters":7200,"station_id":"cpo3342slgdg3j2ifvpg","pricing_plan_id":"cebpf4jnsgd1na2vs0mg"},{"bike_id":"06ac91d7-f970-4f94-919b-0e1f3889d810","system_id":"levelo_inurba_marseille","lat":43.21198,"lon":5.35081,"is_reserved":false,"is_disabled":false,"rental_uris":{"android":"levelo://app?vid=06ac91d7-f970-4f94-919b-0e1f3889d810","ios":"levelo://app?vid=06ac91d7-f970-4f94-919b-0e1f3889d810"},"vehicle_type_id":"4","last_reported":1749907186,"current_range_meters":7200,"station_id":"st_cvj6sg6p6f1abm77japg","pricing_plan_id":"cebpf4jnsgd1na2vs0mg"},{"bike_id":"2635c448-ff63-437b-ba1e-0a230354acd0","system_id":"levelo_inurba_marseille","lat":43.24391,"lon":5.37058,"is_reserved":false,"is_disabled":false,"rental_uris":{"android":"levelo://app?vid=2635c448-ff63-437b-ba1e-0a230354acd0","ios":"levelo://app?vid=2635c448-ff63-437b-ba1e-0a230354acd0"},"vehicle_type_id":"4","last_reported":1749907186,"current_range_meters":8000,"station_id":"ce4bhhh2rcd13ifvqfk0","pricing_plan_id":"cebpf4jnsgd1na2vs0mg"},{"bike_id":"5d833807-0158-47f7-a8de-c59bc79bf739","system_id":"levelo_inurba_marseille","lat":43.21749,"lon":5.34617,"is_reserved":false,"is_disabled":false,"rental_uris":{"android":"levelo://app?vid=5d833807-0158-47f7-a8de-c59bc79bf739","ios":"levelo://app?vid=5d833807-0158-47f7-a8de-c59bc79bf739"},"vehicle_type_id":"4","last_reported":1749907186,"current_range_meters":8000,"station_id":"st_cvj6r9ubvosntc0bgbag","pricing_plan_id":"cebpf4jnsgd1na2vs0mg"},{"bike_id":"611d3527-cdf7-477d-8a93-37a7e71a2477","system_id":"levelo_inurba_marseille","lat":43.21197,"lon":5.35078,"is_reserved":false,"is_disabled":false,"rental_uris":{"android":"levelo://app?vid=611d3527-cdf7-477d-8a93-37a7e71a2477","ios":"levelo://app?vid=611d3527-cdf7-477d-8a93-37a7e71a2477"},"vehicle_type_id":"4","last_reported":1749907186,"current_range_meters":8000,"station_id":"st_cvj6sg6p6f1abm77japg","pricing_plan_id":"cebpf4jnsgd1na2vs0mg"},{"bike_id":"d3f645d7-0fe8-4a59-b78b-62f966dba661","system_id":"levelo_inurba_marseille","lat":43.21198,"lon":5.35076,"is_reserved":false,"is_disabled":false,"rental_uris":{"android":"levelo://app?vid=d3f645d7-0fe8-4a59-b78b-62f966dba661","ios":"levelo://app?vid=d3f645d7-0fe8-4a59-b78b-62f966dba661"},"vehicle_type_id":"4","last_reported":1749907186,"current_range_meters":8000,"station_id":"st_cvj6sg6p6f1abm77japg","pricing_plan_id":"cebpf4jnsgd1na2vs0mg"},{"bike_id":"62813162-aab6-47f7-ae4e-5f8a0b392519","system_id":"levelo_inurba_marseille","lat":43.247776,"lon":5.412053,"is_reserved":false,"is_disabled":false,"rental_uris":{"android":"levelo://app?vid=62813162-aab6-47f7-ae4e-5f8a0b392519","ios":"levelo://app?vid=62813162-aab6-47f7-ae4e-5f8a0b392519"},"vehicle_type_id":"4","last_reported":1749907186,"current_range_meters":8400,"station_id":"","pricing_plan_id":"cebpf4jnsgd1na2vs0mg"},{"bike_id":"35bb6056-19b8-4e37-afe0-8ce86bfb1e44","system_id":"levelo_inurba_marseille","lat":43.29308,"lon":5.37458,"is_reserved":false,"is_disabled":false,"rental_uris":{"android":"levelo://app?vid=35bb6056-19b8-4e37-afe0-8ce86bfb1e44","ios":"levelo://app?vid=35bb6056-19b8-4e37-afe0-8ce86bfb1e44"},"vehicle_type_id":"4","last_reported":1749907186,"current_range_meters":8400,"station_id":"ce4bgi12rcd13ifvqb70","pricing_plan_id":"cebpf4jnsgd1na2vs0mg"},{"bike_id":"9b95504c-fcca-4a57-b28b-5c033228f3bd","system_id":"levelo_inurba_marseille","lat":43.295151,"lon":5.394033,"is_reserved":false,"is_disabled":false,"rental_uris":{"android":"levelo://app?vid=9b95504c-fcca-4a57-b28b-5c033228f3bd","ios":"levelo://app?vid=9b95504c-fcca-4a57-b28b-5c033228f3bd"},"vehicle_type_id":"4","last_reported":1749907186,"current_range_meters":8400,"station_id":"ce4bh292rcd13ifvqdf0","pricing_plan_id":"cebpf4jnsgd1na2vs0mg"},{"bike_id":"707c42fc-8ca8-4508-9134-4de22c97e13d","system_id":"levelo_inurba_marseille","lat":43.24664,"lon":5.38175,"is_reserved":false,"is_disabled":false,"rental_uris":{"android":"levelo://app?vid=707c42fc-8ca8-4508-9134-4de22c97e13d","ios":"levelo://app?vid=707c42fc-8ca8-4508-9134-4de22c97e13d"},"vehicle_type_id":"4","last_reported":1749907186,"current_range_meters":8400,"station_id":"ce4bhih2rcd13ifvqfr0","pricing_plan_id":"cebpf4jnsgd1na2vs0mg"},{"bike_id":"8e3db485-5603-4b88-b171-473fa988ddfc","system_id":"levelo_inurba_marseille","lat":43.24074,"lon":5.37769,"is_reserved":false,"is_disabled":false,"rental_uris":{"android":"levelo://app?vid=8e3db485-5603-4b88-b171-473fa988ddfc","ios":"levelo://app?vid=8e3db485-5603-4b88-b171-473fa988ddfc"},"vehicle_type_id":"4","last_reported":1749907186,"current_range_meters":8400,"station_id":"ce4bhnp2rcd13ifvqgvg","pricing_plan_id":"cebpf4jnsgd1na2vs0mg"},{"bike_id":"f8d79491-bdca-404d-ac6d-85856e0daf48","system_id":"levelo_inurba_marseille","lat":43.30401,"lon":5.41279,"is_reserved":false,"is_disabled":false,"rental_uris":{"android":"levelo://app?vid=f8d79491-bdca-404d-ac6d-85856e0daf48","ios":"levelo://app?vid=f8d79491-bdca-404d-ac6d-85856e0daf48"},"vehicle_type_id":"4","last_reported":1749907186,"current_range_meters":8400,"station_id":"ce4bhop2rcd13ifvqh8g","pricing_plan_id":"cebpf4jnsgd1na2vs0mg"},{"bike_id":"7e55265f-af08-4274-a924-78b7fea6ed7d","system_id":"levelo_inurba_marseille","lat":43.31717,"lon":5.43712,"is_reserved":false,"is_disabled":false,"rental_uris":{"android":"levelo://app?vid=7e55265f-af08-4274-a924-78b7fea6ed7d","ios":"levelo://app?vid=7e55265f-af08-4274-a924-78b7fea6ed7d"},"vehicle_type_id":"4","last_reported":1749907186,"current_range_meters":8400,"station_id":"ce4bhp92rcd13ifvqhcg","pricing_plan_id":"cebpf4jnsgd1na2vs0mg"},{"bike_id":"6facbc0d-f1b5-4dc3-86d4-5c1204834925","system_id":"levelo_inurba_marseille","lat":43.28049,"lon":5.34804,"is_reserved":false,"is_disabled":false,"rental_uris":{"android":"levelo://app?vid=6facbc0d-f1b5-4dc3-86d4-5c1204834925","ios":"levelo://app?vid=6facbc0d-f1b5-4dc3-86d4-5c1204834925"},"vehicle_type_id":"4","last_reported":1749907186,"current_range_meters":8800,"station_id":"","pricing_plan_id":"cebpf4jnsgd1na2vs0mg"},{"bike_id":"3310a8d0-122e-48c2-85f1-e2f9a3f8ee24","system_id":"levelo_inurba_marseille","lat":43.28273,"lon":5.35058,"is_reserved":false,"is_disabled":false,"rental_uris":{"android":"levelo://app?vid=3310a8d0-122e-48c2-85f1-e2f9a3f8ee24","ios":"levelo://app?vid=3310a8d0-122e-48c2-85f1-e2f9a3f8ee24"},"vehicle_type_id":"4","last_reported":1749907186,"current_range_meters":8800,"station_id":"ce4bhbp2rcd13ifvqerg","pricing_plan_id":"cebpf4jnsgd1na2vs0mg"},{"bike_id":"4fe1568c-2a6f-4e66-a199-a8bd9a1130c5","system_id":"levelo_inurba_marseille","lat":43.2792,"lon":5.39587,"is_reserved":false,"is_disabled":false,"rental_uris":{"android":"levelo://app?vid=4fe1568c-2a6f-4e66-a199-a8bd9a1130c5","ios":"levelo://app?vid=4fe1568c-2a6f-4e66-a199-a8bd9a1130c5"},"vehicle_type_id":"4","last_reported":1749907186,"current_range_meters":8800,"station_id":"ce4bhf92rcd13ifvqf40","pricing_plan_id":"cebpf4jnsgd1na2vs0mg"},{"bike_id":"5893cc62-22b2-417c-9426-bd597cfe5453","system_id":"levelo_inurba_marseille","lat":43.25073,"lon":5.39514,"is_reserved":false,"is_disabled":false,"rental_uris":{"android":"levelo://app?vid=5893cc62-22b2-417c-9426-bd597cfe5453","ios":"levelo://app?vid=5893cc62-22b2-417c-9426-bd597cfe5453"},"vehicle_type_id":"4","last_reported":1749907186,"current_range_meters":8800,"station_id":"ce4bhm12rcd13ifvqgkg","pricing_plan_id":"cebpf4jnsgd1na2vs0mg"},{"bike_id":"7a37726e-be8a-4bdd-848c-4f5b3cae5103","system_id":"levelo_inurba_marseille","lat":43.24513,"lon":5.39519,"is_reserved":false,"is_disabled":false,"rental_uris":{"android":"levelo://app?vid=7a37726e-be8a-4bdd-848c-4f5b3cae5103","ios":"levelo://app?vid=7a37726e-be8a-4bdd-848c-4f5b3cae5103"},"vehicle_type_id":"4","last_reported":1749907186,"current_range_meters":9200,"station_id":"","pricing_plan_id":"cebpf4jnsgd1na2vs0mg"},{"bike_id":"e1204ff5-c936-4e4e-800e-f45440afbd48","system_id":"levelo_inurba_marseille","lat":43.30539,"lon":5.36546,"is_reserved":false,"is_disabled":false,"rental_uris":{"android":"levelo://app?vid=e1204ff5-c936-4e4e-800e-f45440afbd48","ios":"levelo://app?vid=e1204ff5-c936-4e4e-800e-f45440afbd48"},"vehicle_type_id":"4","last_reported":1749907186,"current_range_meters":9200,"station_id":"ce4bgs12rcd13ifvqcag","pricing_plan_id":"cebpf4jnsgd1na2vs0mg"},{"bike_id":"2914d63e-7231-4655-bd0b-4bd0d2837ebe","system_id":"levelo_inurba_marseille","lat":43.31516,"lon":5.37328,"is_reserved":false,"is_disabled":false,"rental_uris":{"android":"levelo://app?vid=2914d63e-7231-4655-bd0b-4bd0d2837ebe","ios":"levelo://app?vid=2914d63e-7231-4655-bd0b-4bd0d2837ebe"},"vehicle_type_id":"4","last_reported":1749907186,"current_range_meters":9200,"station_id":"ce4bgt12rcd13ifvqcd0","pricing_plan_id":"cebpf4jnsgd1na2vs0mg"},{"bike_id":"438443cb-cfde-4e47-93d3-b73ae470f86a","system_id":"levelo_inurba_marseille","lat":43.23965,"lon":5.36634,"is_reserved":false,"is_disabled":false,"rental_uris":{"android":"levelo://app?vid=438443cb-cfde-4e47-93d3-b73ae470f86a","ios":"levelo://app?vid=438443cb-cfde-4e47-93d3-b73ae470f86a"},"vehicle_type_id":"4","last_reported":1749907186,"current_range_meters":9200,"station_id":"ce4bhi12rcd13ifvqfp0","pricing_plan_id":"cebpf4jnsgd1na2vs0mg"},{"bike_id":"9b5d71f9-5511-4cfd-810f-2bda3970527b","system_id":"levelo_inurba_marseille","lat":43.25583,"lon":5.38241,"is_reserved":false,"is_disabled":false,"rental_uris":{"android":"levelo://app?vid=9b5d71f9-5511-4cfd-810f-2bda3970527b","ios":"levelo://app?vid=9b5d71f9-5511-4cfd-810f-2bda3970527b"},"vehicle_type_id":"4","last_reported":1749907186,"current_range_meters":9200,"station_id":"ce4bhih2rcd13ifvqfs0","pricing_plan_id":"cebpf4jnsgd1na2vs0mg"},{"bike_id":"44847f3c-24c6-401a-9ce8-47ce7072d075","system_id":"levelo_inurba_marseille","lat":43.27497,"lon":5.4245,"is_reserved":false,"is_disabled":false,"rental_uris":{"android":"levelo://app?vid=44847f3c-24c6-401a-9ce8-47ce7072d075","ios":"levelo://app?vid=44847f3c-24c6-401a-9ce8-47ce7072d075"},"vehicle_type_id":"4","last_reported":1749907186,"current_range_meters":9200,"station_id":"ce4bhn92rcd13ifvqgrg","pricing_plan_id":"cebpf4jnsgd1na2vs0mg"},{"bike_id":"0dd00f6f-359b-401a-a930-fefa4580045b","system_id":"levelo_inurba_marseille","lat":43.3237,"lon":5.36742,"is_reserved":false,"is_disabled":false,"rental_uris":{"android":"levelo://app?vid=0dd00f6f-359b-401a-a930-fefa4580045b","ios":"levelo://app?vid=0dd00f6f-359b-401a-a930-fefa4580045b"},"vehicle_type_id":"4","last_reported":1749907186,"current_range_meters":9200,"station_id":"ce4bhsh2rcd13ifvqi2g","pricing_plan_id":"cebpf4jnsgd1na2vs0mg"},{"bike_id":"cf2eecfd-68cb-44cc-943a-6e29380a8e5e","system_id":"levelo_inurba_marseille","lat":43.29499,"lon":5.38685,"is_reserved":false,"is_disabled":false,"rental_uris":{"android":"levelo://app?vid=cf2eecfd-68cb-44cc-943a-6e29380a8e5e","ios":"levelo://app?vid=cf2eecfd-68cb-44cc-943a-6e29380a8e5e"},"vehicle_type_id":"4","last_reported":1749907186,"current_range_meters":9600,"station_id":"","pricing_plan_id":"cebpf4jnsgd1na2vs0mg"},{"bike_id":"acef737a-f869-4e40-b939-3108eeffc1e9","system_id":"levelo_inurba_marseille","lat":43.30856,"lon":5.39691,"is_reserved":false,"is_disabled":false,"rental_uris":{"android":"levelo://app?vid=acef737a-f869-4e40-b939-3108eeffc1e9","ios":"levelo://app?vid=acef737a-f869-4e40-b939-3108eeffc1e9"},"vehicle_type_id":"4","last_reported":1749907186,"current_range_meters":9600,"station_id":"ce4bh012rcd13ifvqcv0","pricing_plan_id":"cebpf4jnsgd1na2vs0mg"},{"bike_id":"a923803e-9f0b-40f4-bafb-6026b3c95cdd","system_id":"levelo_inurba_marseille","lat":43.27681,"lon":5.38871,"is_reserved":false,"is_disabled":false,"rental_uris":{"android":"levelo://app?vid=a923803e-9f0b-40f4-bafb-6026b3c95cdd","ios":"levelo://app?vid=a923803e-9f0b-40f4-bafb-6026b3c95cdd"},"vehicle_type_id":"4","last_reported":1749907186,"current_range_meters":10000,"station_id":"ce4bhi12rcd13ifvqfo0","pricing_plan_id":"cebpf4jnsgd1na2vs0mg"},{"bike_id":"2ab31527-f915-4286-b3a0-0beafd2cdd50","system_id":"levelo_inurba_marseille","lat":43.30041,"lon":5.37004,"is_reserved":false,"is_disabled":false,"rental_uris":{"android":"levelo://app?vid=2ab31527-f915-4286-b3a0-0beafd2cdd50","ios":"levelo://app?vid=2ab31527-f915-4286-b3a0-0beafd2cdd50"},"vehicle_type_id":"4","last_reported":1749907186,"current_range_meters":10800,"station_id":"","pricing_plan_id":"cebpf4jnsgd1na2vs0mg"},{"bike_id":"87c270dc-4fcf-4263-8f57-a07ca944f869","system_id":"levelo_inurba_marseille","lat":43.31259,"lon":5.39494,"is_reserved":false,"is_disabled":false,"rental_uris":{"android":"levelo://app?vid=87c270dc-4fcf-4263-8f57-a07ca944f869","ios":"levelo://app?vid=87c270dc-4fcf-4263-8f57-a07ca944f869"},"vehicle_type_id":"4","last_reported":1749907186,"current_range_meters":10800,"station_id":"","pricing_plan_id":"cebpf4jnsgd1na2vs0mg"},{"bike_id":"faa72aae-062a-42f9-806d-5608bb5b07cf","system_id":"levelo_inurba_marseille","lat":43.29093,"lon":5.38144,"is_reserved":false,"is_disabled":false,"rental_uris":{"android":"levelo://app?vid=faa72aae-062a-42f9-806d-5608bb5b07cf","ios":"levelo://app?vid=faa72aae-062a-42f9-806d-5608bb5b07cf"},"vehicle_type_id":"4","last_reported":1749907186,"current_range_meters":10800,"station_id":"ce4bh512rcd13ifvqe2g","pricing_plan_id":"cebpf4jnsgd1na2vs0mg"},{"bike_id":"1d2ea0a5-9fa6-4f36-9f90-c7d87413207a","system_id":"levelo_inurba_marseille","lat":43.27375,"lon":5.36269,"is_reserved":false,"is_disabled":false,"rental_uris":{"android":"levelo://app?vid=1d2ea0a5-9fa6-4f36-9f90-c7d87413207a","ios":"levelo://app?vid=1d2ea0a5-9fa6-4f36-9f90-c7d87413207a"},"vehicle_type_id":"4","last_reported":1749907186,"current_range_meters":10800,"station_id":"ce4bhbh2rcd13ifvqeo0","pricing_plan_id":"cebpf4jnsgd1na2vs0mg"},{"bike_id":"8ee706f0-fb33-494a-87d2-e35dbab8e4b6","system_id":"levelo_inurba_marseille","lat":43.26566,"lon":5.37308,"is_reserved":false,"is_disabled":false,"rental_uris":{"android":"levelo://app?vid=8ee706f0-fb33-494a-87d2-e35dbab8e4b6","ios":"levelo://app?vid=8ee706f0-fb33-494a-87d2-e35dbab8e4b6"},"vehicle_type_id":"4","last_reported":1749907186,"current_range_meters":10800,"station_id":"ce4bhg12rcd13ifvqf70","pricing_plan_id":"cebpf4jnsgd1na2vs0mg"},{"bike_id":"70cd85db-4075-41dd-bea6-c8b0e99d9aa5","system_id":"levelo_inurba_marseille","lat":43.23963,"lon":5.36632,"is_reserved":false,"is_disabled":false,"rental_uris":{"android":"levelo://app?vid=70cd85db-4075-41dd-bea6-c8b0e99d9aa5","ios":"levelo://app?vid=70cd85db-4075-41dd-bea6-c8b0e99d9aa5"},"vehicle_type_id":"4","last_reported":1749907186,"current_range_meters":10800,"station_id":"ce4bhi12rcd13ifvqfp0","pricing_plan_id":"cebpf4jnsgd1na2vs0mg"},{"bike_id":"816a0f80-53c6-4d3e-9e84-99acbfaffbf9","system_id":"levelo_inurba_marseille","lat":43.2315,"lon":5.43719,"is_reserved":false,"is_disabled":false,"rental_uris":{"android":"levelo://app?vid=816a0f80-53c6-4d3e-9e84-99acbfaffbf9","ios":"levelo://app?vid=816a0f80-53c6-4d3e-9e84-99acbfaffbf9"},"vehicle_type_id":"4","last_reported":1749907186,"current_range_meters":10800,"station_id":"ce4bhmp2rcd13ifvqgog","pricing_plan_id":"cebpf4jnsgd1na2vs0mg"},{"bike_id":"2f5219a1-0d06-434b-9e93-c60bc22f6d02","system_id":"levelo_inurba_marseille","lat":43.30422,"lon":5.41284,"is_reserved":false,"is_disabled":false,"rental_uris":{"android":"levelo://app?vid=2f5219a1-0d06-434b-9e93-c60bc22f6d02","ios":"levelo://app?vid=2f5219a1-0d06-434b-9e93-c60bc22f6d02"},"vehicle_type_id":"4","last_reported":1749907186,"current_range_meters":10800,"station_id":"ce4bhop2rcd13ifvqh8g","pricing_plan_id":"cebpf4jnsgd1na2vs0mg"},{"bike_id":"394a1f2e-6fca-4946-8c5a-9022246f16dd","system_id":"levelo_inurba_marseille","lat":43.24168,"lon":5.364,"is_reserved":false,"is_disabled":false,"rental_uris":{"android":"levelo://app?vid=394a1f2e-6fca-4946-8c5a-9022246f16dd","ios":"levelo://app?vid=394a1f2e-6fca-4946-8c5a-9022246f16dd"},"vehicle_type_id":"4","last_reported":1749907186,"current_range_meters":10800,"station_id":"cpo36qri1sfpv3e86is0","pricing_plan_id":"cebpf4jnsgd1na2vs0mg"},{"bike_id":"a8954901-1589-445b-9931-cba30ef9ff44","system_id":"levelo_inurba_marseille","lat":43.21194,"lon":5.35073,"is_reserved":false,"is_disabled":false,"rental_uris":{"android":"levelo://app?vid=a8954901-1589-445b-9931-cba30ef9ff44","ios":"levelo://app?vid=a8954901-1589-445b-9931-cba30ef9ff44"},"vehicle_type_id":"4","last_reported":1749907186,"current_range_meters":10800,"station_id":"st_cvj6sg6p6f1abm77japg","pricing_plan_id":"cebpf4jnsgd1na2vs0mg"},{"bike_id":"c668246c-155b-4b55-902a-e132d711d30b","system_id":"levelo_inurba_marseille","lat":43.24546,"lon":5.39526,"is_reserved":false,"is_disabled":false,"rental_uris":{"android":"levelo://app?vid=c668246c-155b-4b55-902a-e132d711d30b","ios":"levelo://app?vid=c668246c-155b-4b55-902a-e132d711d30b"},"vehicle_type_id":"4","last_reported":1749907186,"current_range_meters":11200,"station_id":"ce4bhlp2rcd13ifvqgjg","pricing_plan_id":"cebpf4jnsgd1na2vs0mg"},{"bike_id":"0afcb599-3d9f-4bc3-a6eb-ed35bcfdac84","system_id":"levelo_inurba_marseille","lat":43.231943,"lon":5.35555,"is_reserved":false,"is_disabled":false,"rental_uris":{"android":"levelo://app?vid=0afcb599-3d9f-4bc3-a6eb-ed35bcfdac84","ios":"levelo://app?vid=0afcb599-3d9f-4bc3-a6eb-ed35bcfdac84"},"vehicle_type_id":"4","last_reported":1749907186,"current_range_meters":11200,"station_id":"ce4bhu92rcd13ifvqi70","pricing_plan_id":"cebpf4jnsgd1na2vs0mg"},{"bike_id":"5851c98a-83b1-4c9f-8e56-cd99016685ae","system_id":"levelo_inurba_marseille","lat":43.21744,"lon":5.3462,"is_reserved":false,"is_disabled":false,"rental_uris":{"android":"levelo://app?vid=5851c98a-83b1-4c9f-8e56-cd99016685ae","ios":"levelo://app?vid=5851c98a-83b1-4c9f-8e56-cd99016685ae"},"vehicle_type_id":"4","last_reported":1749907186,"current_range_meters":11200,"station_id":"st_cvj6r9ubvosntc0bgbag","pricing_plan_id":"cebpf4jnsgd1na2vs0mg"},{"bike_id":"191524f3-267f-4467-9ea7-6cd874a9eea3","system_id":"levelo_inurba_marseille","lat":43.30426,"lon":5.41324,"is_reserved":false,"is_disabled":false,"rental_uris":{"android":"levelo://app?vid=191524f3-267f-4467-9ea7-6cd874a9eea3","ios":"levelo://app?vid=191524f3-267f-4467-9ea7-6cd874a9eea3"},"vehicle_type_id":"4","last_reported":1749907186,"current_range_meters":11600,"station_id":"ce4bhop2rcd13ifvqh8g","pricing_plan_id":"cebpf4jnsgd1na2vs0mg"},{"bike_id":"2a909ff3-158e-4089-9849-3eb5d0834555","system_id":"levelo_inurba_marseille","lat":43.2175,"lon":5.34599,"is_reserved":false,"is_disabled":false,"rental_uris":{"android":"levelo://app?vid=2a909ff3-158e-4089-9849-3eb5d0834555","ios":"levelo://app?vid=2a909ff3-158e-4089-9849-3eb5d0834555"},"vehicle_type_id":"4","last_reported":1749907186,"current_range_meters":11600,"station_id":"st_cvj6r9ubvosntc0bgbag","pricing_plan_id":"cebpf4jnsgd1na2vs0mg"},{"bike_id":"48085aa2-d7a2-47f0-980f-d3c267e26420","system_id":"levelo_inurba_marseille","lat":43.28984,"lon":5.37834,"is_reserved":false,"is_disabled":false,"rental_uris":{"android":"levelo://app?vid=48085aa2-d7a2-47f0-980f-d3c267e26420","ios":"levelo://app?vid=48085aa2-d7a2-47f0-980f-d3c267e26420"},"vehicle_type_id":"4","last_reported":1749907186,"current_range_meters":12000,"station_id":"ce4bh9p2rcd13ifvqed0","pricing_plan_id":"cebpf4jnsgd1na2vs0mg"},{"bike_id":"a5e103e7-2448-4bd1-809b-92ca4c8567c9","system_id":"levelo_inurba_marseille","lat":43.217478,"lon":5.345978,"is_reserved":false,"is_disabled":false,"rental_uris":{"android":"levelo://app?vid=a5e103e7-2448-4bd1-809b-92ca4c8567c9","ios":"levelo://app?vid=a5e103e7-2448-4bd1-809b-92ca4c8567c9"},"vehicle_type_id":"4","last_reported":1749907186,"current_range_meters":12000,"station_id":"st_cvj6r9ubvosntc0bgbag","pricing_plan_id":"cebpf4jnsgd1na2vs0mg"},{"bike_id":"6f6c185e-4175-49e0-a999-390c4f7e670a","system_id":"levelo_inurba_marseille","lat":43.217505,"lon":5.34609,"is_reserved":false,"is_disabled":false,"rental_uris":{"android":"levelo://app?vid=6f6c185e-4175-49e0-a999-390c4f7e670a","ios":"levelo://app?vid=6f6c185e-4175-49e0-a999-390c4f7e670a"},"vehicle_type_id":"4","last_reported":1749907186,"current_range_meters":12000,"station_id":"st_cvj6r9ubvosntc0bgbag","pricing_plan_id":"cebpf4jnsgd1na2vs0mg"},{"bike_id":"28c0ec76-02d0-4535-9b17-5f38231352a7","system_id":"levelo_inurba_marseille","lat":43.21747,"lon":5.34607,"is_reserved":false,"is_disabled":false,"rental_uris":{"android":"levelo://app?vid=28c0ec76-02d0-4535-9b17-5f38231352a7","ios":"levelo://app?vid=28c0ec76-02d0-4535-9b17-5f38231352a7"},"vehicle_type_id":"4","last_reported":1749907186,"current_range_meters":12000,"station_id":"st_cvj6r9ubvosntc0bgbag","pricing_plan_id":"cebpf4jnsgd1na2vs0mg"},{"bike_id":"8e8899f0-4aff-43f9-9f62-ce6bf69d0612","system_id":"levelo_inurba_marseille","lat":43.31191,"lon":5.40204,"is_reserved":false,"is_disabled":false,"rental_uris":{"android":"levelo://app?vid=8e8899f0-4aff-43f9-9f62-ce6bf69d0612","ios":"levelo://app?vid=8e8899f0-4aff-43f9-9f62-ce6bf69d0612"},"vehicle_type_id":"4","last_reported":1749907186,"current_range_meters":12400,"station_id":"","pricing_plan_id":"cebpf4jnsgd1na2vs0mg"},{"bike_id":"fdb06854-679c-49e3-b57f-ba0aff227c75","system_id":"levelo_inurba_marseille","lat":43.28425,"lon":5.3498,"is_reserved":false,"is_disabled":false,"rental_uris":{"android":"levelo://app?vid=fdb06854-679c-49e3-b57f-ba0aff227c75","ios":"levelo://app?vid=fdb06854-679c-49e3-b57f-ba0aff227c75"},"vehicle_type_id":"4","last_reported":1749907186,"current_range_meters":12400,"station_id":"ce4bhbh2rcd13ifvqepg","pricing_plan_id":"cebpf4jnsgd1na2vs0mg"},{"bike_id":"ab67db2e-29dc-4aa1-ad47-cf91458ba682","system_id":"levelo_inurba_marseille","lat":43.23191,"lon":5.35536,"is_reserved":false,"is_disabled":false,"rental_uris":{"android":"levelo://app?vid=ab67db2e-29dc-4aa1-ad47-cf91458ba682","ios":"levelo://app?vid=ab67db2e-29dc-4aa1-ad47-cf91458ba682"},"vehicle_type_id":"4","last_reported":1749907186,"current_range_meters":12400,"station_id":"ce4bhu92rcd13ifvqi70","pricing_plan_id":"cebpf4jnsgd1na2vs0mg"},{"bike_id":"0b75b775-ccad-4cb5-90b0-a9571010b4d4","system_id":"levelo_inurba_marseille","lat":43.28422,"lon":5.34976,"is_reserved":false,"is_disabled":false,"rental_uris":{"android":"levelo://app?vid=0b75b775-ccad-4cb5-90b0-a9571010b4d4","ios":"levelo://app?vid=0b75b775-ccad-4cb5-90b0-a9571010b4d4"},"vehicle_type_id":"4","last_reported":1749907186,"current_range_meters":12800,"station_id":"ce4bhbh2rcd13ifvqepg","pricing_plan_id":"cebpf4jnsgd1na2vs0mg"},{"bike_id":"f2404481-86a2-4ce2-81b9-adf96a84b46d","system_id":"levelo_inurba_marseille","lat":43.25092,"lon":5.39514,"is_reserved":false,"is_disabled":false,"rental_uris":{"android":"levelo://app?vid=f2404481-86a2-4ce2-81b9-adf96a84b46d","ios":"levelo://app?vid=f2404481-86a2-4ce2-81b9-adf96a84b46d"},"vehicle_type_id":"4","last_reported":1749907186,"current_range_meters":12800,"station_id":"ce4bhm12rcd13ifvqgkg","pricing_plan_id":"cebpf4jnsgd1na2vs0mg"},{"bike_id":"2eb2516b-5f9f-4f58-8493-07049b393727","system_id":"levelo_inurba_marseille","lat":43.3375,"lon":5.39194,"is_reserved":false,"is_disabled":false,"rental_uris":{"android":"levelo://app?vid=2eb2516b-5f9f-4f58-8493-07049b393727","ios":"levelo://app?vid=2eb2516b-5f9f-4f58-8493-07049b393727"},"vehicle_type_id":"4","last_reported":1749907186,"current_range_meters":12800,"station_id":"ce4bhr92rcd13ifvqhsg","pricing_plan_id":"cebpf4jnsgd1na2vs0mg"},{"bike_id":"300f466f-ffc6-4394-acd1-1a4d925af8be","system_id":"levelo_inurba_marseille","lat":43.21751,"lon":5.34616,"is_reserved":false,"is_disabled":false,"rental_uris":{"android":"levelo://app?vid=300f466f-ffc6-4394-acd1-1a4d925af8be","ios":"levelo://app?vid=300f466f-ffc6-4394-acd1-1a4d925af8be"},"vehicle_type_id":"4","last_reported":1749907186,"current_range_meters":12800,"station_id":"st_cvj6r9ubvosntc0bgbag","pricing_plan_id":"cebpf4jnsgd1na2vs0mg"},{"bike_id":"53d60dcd-1322-451c-8d9c-54e0dde196be","system_id":"levelo_inurba_marseille","lat":43.21742,"lon":5.34595,"is_reserved":false,"is_disabled":false,"rental_uris":{"android":"levelo://app?vid=53d60dcd-1322-451c-8d9c-54e0dde196be","ios":"levelo://app?vid=53d60dcd-1322-451c-8d9c-54e0dde196be"},"vehicle_type_id":"4","last_reported":1749907186,"current_range_meters":12800,"station_id":"st_cvj6r9ubvosntc0bgbag","pricing_plan_id":"cebpf4jnsgd1na2vs0mg"},{"bike_id":"8cd62e92-49cd-4d38-ac02-fb37d2b4e358","system_id":"levelo_inurba_marseille","lat":43.21696,"lon":5.34743,"is_reserved":false,"is_disabled":false,"rental_uris":{"android":"levelo://app?vid=8cd62e92-49cd-4d38-ac02-fb37d2b4e358","ios":"levelo://app?vid=8cd62e92-49cd-4d38-ac02-fb37d2b4e358"},"vehicle_type_id":"4","last_reported":1749907186,"current_range_meters":13600,"station_id":"","pricing_plan_id":"cebpf4jnsgd1na2vs0mg"},{"bike_id":"2e858770-9005-4948-9b66-5ddd6635d261","system_id":"levelo_inurba_marseille","lat":43.28938,"lon":5.36651,"is_reserved":false,"is_disabled":false,"rental_uris":{"android":"levelo://app?vid=2e858770-9005-4948-9b66-5ddd6635d261","ios":"levelo://app?vid=2e858770-9005-4948-9b66-5ddd6635d261"},"vehicle_type_id":"4","last_reported":1749907186,"current_range_meters":13600,"station_id":"ce4bhap2rcd13ifvqek0","pricing_plan_id":"cebpf4jnsgd1na2vs0mg"},{"bike_id":"29b5d627-b9ea-42be-b6df-062f2213e4f2","system_id":"levelo_inurba_marseille","lat":43.23065,"lon":5.35508,"is_reserved":false,"is_disabled":false,"rental_uris":{"android":"levelo://app?vid=29b5d627-b9ea-42be-b6df-062f2213e4f2","ios":"levelo://app?vid=29b5d627-b9ea-42be-b6df-062f2213e4f2"},"vehicle_type_id":"4","last_reported":1749907186,"current_range_meters":13600,"station_id":"cpo3342slgdg3j2ifvpg","pricing_plan_id":"cebpf4jnsgd1na2vs0mg"},{"bike_id":"3c56875a-f4ee-4f98-8c3b-e29618142b45","system_id":"levelo_inurba_marseille","lat":43.21749,"lon":5.34636,"is_reserved":false,"is_disabled":false,"rental_uris":{"android":"levelo://app?vid=3c56875a-f4ee-4f98-8c3b-e29618142b45","ios":"levelo://app?vid=3c56875a-f4ee-4f98-8c3b-e29618142b45"},"vehicle_type_id":"4","last_reported":1749907186,"current_range_meters":13600,"station_id":"st_cvj6r9ubvosntc0bgbag","pricing_plan_id":"cebpf4jnsgd1na2vs0mg"},{"bike_id":"4a9d9f6f-5d9c-47a6-8788-2108060592ec","system_id":"levelo_inurba_marseille","lat":43.291956,"lon":5.358036,"is_reserved":false,"is_disabled":false,"rental_uris":{"android":"levelo://app?vid=4a9d9f6f-5d9c-47a6-8788-2108060592ec","ios":"levelo://app?vid=4a9d9f6f-5d9c-47a6-8788-2108060592ec"},"vehicle_type_id":"4","last_reported":1749907186,"current_range_meters":14000,"station_id":"ce4bhb12rcd13ifvqel0","pricing_plan_id":"cebpf4jnsgd1na2vs0mg"},{"bike_id":"8789c1e4-ca83-47db-855c-95e5769d32ed","system_id":"levelo_inurba_marseille","lat":43.28275,"lon":5.35074,"is_reserved":false,"is_disabled":false,"rental_uris":{"android":"levelo://app?vid=8789c1e4-ca83-47db-855c-95e5769d32ed","ios":"levelo://app?vid=8789c1e4-ca83-47db-855c-95e5769d32ed"},"vehicle_type_id":"4","last_reported":1749907186,"current_range_meters":14000,"station_id":"ce4bhbp2rcd13ifvqerg","pricing_plan_id":"cebpf4jnsgd1na2vs0mg"},{"bike_id":"88ebdd7a-a17f-44ce-aa8c-0118b2459270","system_id":"levelo_inurba_marseille","lat":43.28287,"lon":5.35085,"is_reserved":false,"is_disabled":false,"rental_uris":{"android":"levelo://app?vid=88ebdd7a-a17f-44ce-aa8c-0118b2459270","ios":"levelo://app?vid=88ebdd7a-a17f-44ce-aa8c-0118b2459270"},"vehicle_type_id":"4","last_reported":1749907186,"current_range_meters":14000,"station_id":"ce4bhbp2rcd13ifvqerg","pricing_plan_id":"cebpf4jnsgd1na2vs0mg"},{"bike_id":"08a98734-973d-48d0-95cd-5f25874f9079","system_id":"levelo_inurba_marseille","lat":43.2603,"lon":5.37562,"is_reserved":false,"is_disabled":false,"rental_uris":{"android":"levelo://app?vid=08a98734-973d-48d0-95cd-5f25874f9079","ios":"levelo://app?vid=08a98734-973d-48d0-95cd-5f25874f9079"},"vehicle_type_id":"4","last_reported":1749907186,"current_range_meters":14000,"station_id":"ce4bhgh2rcd13ifvqfa0","pricing_plan_id":"cebpf4jnsgd1na2vs0mg"},{"bike_id":"88f15676-7cb1-403a-a028-2f1101361087","system_id":"levelo_inurba_marseille","lat":43.25494,"lon":5.37652,"is_reserved":false,"is_disabled":false,"rental_uris":{"android":"levelo://app?vid=88f15676-7cb1-403a-a028-2f1101361087","ios":"levelo://app?vid=88f15676-7cb1-403a-a028-2f1101361087"},"vehicle_type_id":"4","last_reported":1749907186,"current_range_meters":14000,"station_id":"ce4bhh12rcd13ifvqff0","pricing_plan_id":"cebpf4jnsgd1na2vs0mg"},{"bike_id":"7bbea268-7e10-4726-af89-c73005574248","system_id":"levelo_inurba_marseille","lat":43.30377,"lon":5.4245,"is_reserved":false,"is_disabled":false,"rental_uris":{"android":"levelo://app?vid=7bbea268-7e10-4726-af89-c73005574248","ios":"levelo://app?vid=7bbea268-7e10-4726-af89-c73005574248"},"vehicle_type_id":"4","last_reported":1749907186,"current_range_meters":14000,"station_id":"ce4bhoh2rcd13ifvqh6g","pricing_plan_id":"cebpf4jnsgd1na2vs0mg"},{"bike_id":"d2729172-f4bf-4eb8-9964-c217269a3492","system_id":"levelo_inurba_marseille","lat":43.21186,"lon":5.35078,"is_reserved":false,"is_disabled":false,"rental_uris":{"android":"levelo://app?vid=d2729172-f4bf-4eb8-9964-c217269a3492","ios":"levelo://app?vid=d2729172-f4bf-4eb8-9964-c217269a3492"},"vehicle_type_id":"4","last_reported":1749907186,"current_range_meters":14400,"station_id":"","pricing_plan_id":"cebpf4jnsgd1na2vs0mg"},{"bike_id":"c7e4c101-b465-43bb-9faf-ec41dbe370cc","system_id":"levelo_inurba_marseille","lat":43.26212,"lon":5.37433,"is_reserved":false,"is_disabled":false,"rental_uris":{"android":"levelo://app?vid=c7e4c101-b465-43bb-9faf-ec41dbe370cc","ios":"levelo://app?vid=c7e4c101-b465-43bb-9faf-ec41dbe370cc"},"vehicle_type_id":"4","last_reported":1749907186,"current_range_meters":14400,"station_id":"ce4bhgp2rcd13ifvqfc0","pricing_plan_id":"cebpf4jnsgd1na2vs0mg"},{"bike_id":"5a21e497-33bb-4066-baf7-e010c7ab35fe","system_id":"levelo_inurba_marseille","lat":43.24086,"lon":5.37759,"is_reserved":false,"is_disabled":false,"rental_uris":{"android":"levelo://app?vid=5a21e497-33bb-4066-baf7-e010c7ab35fe","ios":"levelo://app?vid=5a21e497-33bb-4066-baf7-e010c7ab35fe"},"vehicle_type_id":"4","last_reported":1749907186,"current_range_meters":14400,"station_id":"ce4bhnp2rcd13ifvqgvg","pricing_plan_id":"cebpf4jnsgd1na2vs0mg"},{"bike_id":"ccb9975b-34a8-47da-b755-e17344ae18d3","system_id":"levelo_inurba_marseille","lat":43.231911,"lon":5.355503,"is_reserved":false,"is_disabled":false,"rental_uris":{"android":"levelo://app?vid=ccb9975b-34a8-47da-b755-e17344ae18d3","ios":"levelo://app?vid=ccb9975b-34a8-47da-b755-e17344ae18d3"},"vehicle_type_id":"4","last_reported":1749907186,"current_range_meters":14400,"station_id":"ce4bhu92rcd13ifvqi70","pricing_plan_id":"cebpf4jnsgd1na2vs0mg"},{"bike_id":"769efce4-375c-4934-a7cd-61de7e676910","system_id":"levelo_inurba_marseille","lat":43.2119,"lon":5.35072,"is_reserved":false,"is_disabled":false,"rental_uris":{"android":"levelo://app?vid=769efce4-375c-4934-a7cd-61de7e676910","ios":"levelo://app?vid=769efce4-375c-4934-a7cd-61de7e676910"},"vehicle_type_id":"4","last_reported":1749907186,"current_range_meters":14400,"station_id":"st_cvj6sg6p6f1abm77japg","pricing_plan_id":"cebpf4jnsgd1na2vs0mg"},{"bike_id":"efd9c384-daa9-4013-b288-e4e1f794d48f","system_id":"levelo_inurba_marseille","lat":43.3003,"lon":5.40108,"is_reserved":false,"is_disabled":false,"rental_uris":{"android":"levelo://app?vid=efd9c384-daa9-4013-b288-e4e1f794d48f","ios":"levelo://app?vid=efd9c384-daa9-4013-b288-e4e1f794d48f"},"vehicle_type_id":"4","last_reported":1749907186,"current_range_meters":14800,"station_id":"","pricing_plan_id":"cebpf4jnsgd1na2vs0mg"},{"bike_id":"5b612f36-9681-4f69-827c-e92a3bd3a407","system_id":"levelo_inurba_marseille","lat":43.28268,"lon":5.35079,"is_reserved":false,"is_disabled":false,"rental_uris":{"android":"levelo://app?vid=5b612f36-9681-4f69-827c-e92a3bd3a407","ios":"levelo://app?vid=5b612f36-9681-4f69-827c-e92a3bd3a407"},"vehicle_type_id":"4","last_reported":1749907186,"current_range_meters":14800,"station_id":"ce4bhbp2rcd13ifvqerg","pricing_plan_id":"cebpf4jnsgd1na2vs0mg"},{"bike_id":"ad8dae09-9ddb-44ff-850b-803249d29b69","system_id":"levelo_inurba_marseille","lat":43.26557,"lon":5.37283,"is_reserved":false,"is_disabled":false,"rental_uris":{"android":"levelo://app?vid=ad8dae09-9ddb-44ff-850b-803249d29b69","ios":"levelo://app?vid=ad8dae09-9ddb-44ff-850b-803249d29b69"},"vehicle_type_id":"4","last_reported":1749907186,"current_range_meters":14800,"station_id":"ce4bhg12rcd13ifvqf70","pricing_plan_id":"cebpf4jnsgd1na2vs0mg"},{"bike_id":"a7a4cac8-9447-4319-a9fb-f2b96c8f1e32","system_id":"levelo_inurba_marseille","lat":43.26214,"lon":5.37443,"is_reserved":false,"is_disabled":false,"rental_uris":{"android":"levelo://app?vid=a7a4cac8-9447-4319-a9fb-f2b96c8f1e32","ios":"levelo://app?vid=a7a4cac8-9447-4319-a9fb-f2b96c8f1e32"},"vehicle_type_id":"4","last_reported":1749907186,"current_range_meters":14800,"station_id":"ce4bhgp2rcd13ifvqfc0","pricing_plan_id":"cebpf4jnsgd1na2vs0mg"},{"bike_id":"86864168-ee86-4757-8cdd-cb7362b87fee","system_id":"levelo_inurba_marseille","lat":43.2623,"lon":5.40459,"is_reserved":false,"is_disabled":false,"rental_uris":{"android":"levelo://app?vid=86864168-ee86-4757-8cdd-cb7362b87fee","ios":"levelo://app?vid=86864168-ee86-4757-8cdd-cb7362b87fee"},"vehicle_type_id":"4","last_reported":1749907186,"current_range_meters":14800,"station_id":"ce4bhmh2rcd13ifvqgmg","pricing_plan_id":"cebpf4jnsgd1na2vs0mg"},{"bike_id":"7eb6a671-d32a-4251-9dd9-a45d3311cfd6","system_id":"levelo_inurba_marseille","lat":43.30359,"lon":5.41879,"is_reserved":false,"is_disabled":false,"rental_uris":{"android":"levelo://app?vid=7eb6a671-d32a-4251-9dd9-a45d3311cfd6","ios":"levelo://app?vid=7eb6a671-d32a-4251-9dd9-a45d3311cfd6"},"vehicle_type_id":"4","last_reported":1749907186,"current_range_meters":14800,"station_id":"ce4bhop2rcd13ifvqh7g","pricing_plan_id":"cebpf4jnsgd1na2vs0mg"},{"bike_id":"bbae50e6-97cc-4981-9da8-21f734a299c3","system_id":"levelo_inurba_marseille","lat":43.24163,"lon":5.36408,"is_reserved":false,"is_disabled":false,"rental_uris":{"android":"levelo://app?vid=bbae50e6-97cc-4981-9da8-21f734a299c3","ios":"levelo://app?vid=bbae50e6-97cc-4981-9da8-21f734a299c3"},"vehicle_type_id":"4","last_reported":1749907186,"current_range_meters":14800,"station_id":"cpo36qri1sfpv3e86is0","pricing_plan_id":"cebpf4jnsgd1na2vs0mg"},{"bike_id":"97fc9f87-61a2-48e8-9270-8efa1d0b7660","system_id":"levelo_inurba_marseille","lat":43.22506,"lon":5.3479,"is_reserved":false,"is_disabled":false,"rental_uris":{"android":"levelo://app?vid=97fc9f87-61a2-48e8-9270-8efa1d0b7660","ios":"levelo://app?vid=97fc9f87-61a2-48e8-9270-8efa1d0b7660"},"vehicle_type_id":"4","last_reported":1749907186,"current_range_meters":14800,"station_id":"st_cvj5dfep6f1abm77gieg","pricing_plan_id":"cebpf4jnsgd1na2vs0mg"},{"bike_id":"a2b3914c-555b-49ef-be5c-1e734fa1d826","system_id":"levelo_inurba_marseille","lat":43.21192,"lon":5.35092,"is_reserved":false,"is_disabled":false,"rental_uris":{"android":"levelo://app?vid=a2b3914c-555b-49ef-be5c-1e734fa1d826","ios":"levelo://app?vid=a2b3914c-555b-49ef-be5c-1e734fa1d826"},"vehicle_type_id":"4","last_reported":1749907186,"current_range_meters":14800,"station_id":"st_cvj6sg6p6f1abm77japg","pricing_plan_id":"cebpf4jnsgd1na2vs0mg"},{"bike_id":"53abbcbd-8205-404a-b5fc-ee45ac02b5e5","system_id":"levelo_inurba_marseille","lat":43.29538,"lon":5.37505,"is_reserved":false,"is_disabled":false,"rental_uris":{"android":"levelo://app?vid=53abbcbd-8205-404a-b5fc-ee45ac02b5e5","ios":"levelo://app?vid=53abbcbd-8205-404a-b5fc-ee45ac02b5e5"},"vehicle_type_id":"4","last_reported":1749907186,"current_range_meters":15200,"station_id":"ce4bgkp2rcd13ifvqbmg","pricing_plan_id":"cebpf4jnsgd1na2vs0mg"},{"bike_id":"a2ebd81c-a365-4bc8-8315-09f000c05e12","system_id":"levelo_inurba_marseille","lat":43.29938,"lon":5.36535,"is_reserved":false,"is_disabled":false,"rental_uris":{"android":"levelo://app?vid=a2ebd81c-a365-4bc8-8315-09f000c05e12","ios":"levelo://app?vid=a2ebd81c-a365-4bc8-8315-09f000c05e12"},"vehicle_type_id":"4","last_reported":1749907186,"current_range_meters":15200,"station_id":"ce4bgm92rcd13ifvqbr0","pricing_plan_id":"cebpf4jnsgd1na2vs0mg"},{"bike_id":"210c9993-8561-41f6-97a6-4a16f8869e50","system_id":"levelo_inurba_marseille","lat":43.27374,"lon":5.36265,"is_reserved":false,"is_disabled":false,"rental_uris":{"android":"levelo://app?vid=210c9993-8561-41f6-97a6-4a16f8869e50","ios":"levelo://app?vid=210c9993-8561-41f6-97a6-4a16f8869e50"},"vehicle_type_id":"4","last_reported":1749907186,"current_range_meters":15200,"station_id":"ce4bhbh2rcd13ifvqeo0","pricing_plan_id":"cebpf4jnsgd1na2vs0mg"},{"bike_id":"09adbc8d-9d45-42ae-a2a6-573fb5902a81","system_id":"levelo_inurba_marseille","lat":43.21745,"lon":5.346,"is_reserved":false,"is_disabled":false,"rental_uris":{"android":"levelo://app?vid=09adbc8d-9d45-42ae-a2a6-573fb5902a81","ios":"levelo://app?vid=09adbc8d-9d45-42ae-a2a6-573fb5902a81"},"vehicle_type_id":"4","last_reported":1749907186,"current_range_meters":15200,"station_id":"st_cvj6r9ubvosntc0bgbag","pricing_plan_id":"cebpf4jnsgd1na2vs0mg"},{"bike_id":"bd081d41-5eed-4495-82ed-9e27cd112239","system_id":"levelo_inurba_marseille","lat":43.249488,"lon":5.396613,"is_reserved":false,"is_disabled":false,"rental_uris":{"android":"levelo://app?vid=bd081d41-5eed-4495-82ed-9e27cd112239","ios":"levelo://app?vid=bd081d41-5eed-4495-82ed-9e27cd112239"},"vehicle_type_id":"4","last_reported":1749907186,"current_range_meters":16000,"station_id":"","pricing_plan_id":"cebpf4jnsgd1na2vs0mg"},{"bike_id":"31cc2fe0-4c82-4db5-b5b9-e23726d1de63","system_id":"levelo_inurba_marseille","lat":43.28402,"lon":5.34998,"is_reserved":false,"is_disabled":false,"rental_uris":{"android":"levelo://app?vid=31cc2fe0-4c82-4db5-b5b9-e23726d1de63","ios":"levelo://app?vid=31cc2fe0-4c82-4db5-b5b9-e23726d1de63"},"vehicle_type_id":"4","last_reported":1749907186,"current_range_meters":16000,"station_id":"ce4bhbh2rcd13ifvqepg","pricing_plan_id":"cebpf4jnsgd1na2vs0mg"},{"bike_id":"a88d2a1b-1105-476b-b7ed-110b1c110ed6","system_id":"levelo_inurba_marseille","lat":43.23965,"lon":5.36629,"is_reserved":false,"is_disabled":false,"rental_uris":{"android":"levelo://app?vid=a88d2a1b-1105-476b-b7ed-110b1c110ed6","ios":"levelo://app?vid=a88d2a1b-1105-476b-b7ed-110b1c110ed6"},"vehicle_type_id":"4","last_reported":1749907186,"current_range_meters":16000,"station_id":"ce4bhi12rcd13ifvqfp0","pricing_plan_id":"cebpf4jnsgd1na2vs0mg"},{"bike_id":"108df224-a9a1-40dd-bfd9-874deb063612","system_id":"levelo_inurba_marseille","lat":43.25093,"lon":5.39506,"is_reserved":false,"is_disabled":false,"rental_uris":{"android":"levelo://app?vid=108df224-a9a1-40dd-bfd9-874deb063612","ios":"levelo://app?vid=108df224-a9a1-40dd-bfd9-874deb063612"},"vehicle_type_id":"4","last_reported":1749907186,"current_range_meters":16000,"station_id":"ce4bhm12rcd13ifvqgkg","pricing_plan_id":"cebpf4jnsgd1na2vs0mg"},{"bike_id":"8cbf1c75-54a0-4ee2-baf6-f6eec1819703","system_id":"levelo_inurba_marseille","lat":43.21745,"lon":5.3461,"is_reserved":false,"is_disabled":false,"rental_uris":{"android":"levelo://app?vid=8cbf1c75-54a0-4ee2-baf6-f6eec1819703","ios":"levelo://app?vid=8cbf1c75-54a0-4ee2-baf6-f6eec1819703"},"vehicle_type_id":"4","last_reported":1749907186,"current_range_meters":16000,"station_id":"st_cvj6r9ubvosntc0bgbag","pricing_plan_id":"cebpf4jnsgd1na2vs0mg"},{"bike_id":"a8283606-6fdf-49b2-991a-62bc6fc9988a","system_id":"levelo_inurba_marseille","lat":43.22515,"lon":5.34771,"is_reserved":false,"is_disabled":false,"rental_uris":{"android":"levelo://app?vid=a8283606-6fdf-49b2-991a-62bc6fc9988a","ios":"levelo://app?vid=a8283606-6fdf-49b2-991a-62bc6fc9988a"},"vehicle_type_id":"4","last_reported":1749907186,"current_range_meters":16400,"station_id":"","pricing_plan_id":"cebpf4jnsgd1na2vs0mg"},{"bike_id":"24830bb4-dd05-4a70-bcac-d91adf0d02f7","system_id":"levelo_inurba_marseille","lat":43.33773,"lon":5.37432,"is_reserved":false,"is_disabled":false,"rental_uris":{"android":"levelo://app?vid=24830bb4-dd05-4a70-bcac-d91adf0d02f7","ios":"levelo://app?vid=24830bb4-dd05-4a70-bcac-d91adf0d02f7"},"vehicle_type_id":"4","last_reported":1749907186,"current_range_meters":16400,"station_id":"","pricing_plan_id":"cebpf4jnsgd1na2vs0mg"},{"bike_id":"f193572a-701b-4787-a8cb-45a83fb3c0f0","system_id":"levelo_inurba_marseille","lat":43.292525,"lon":5.409001,"is_reserved":false,"is_disabled":false,"rental_uris":{"android":"levelo://app?vid=f193572a-701b-4787-a8cb-45a83fb3c0f0","ios":"levelo://app?vid=f193572a-701b-4787-a8cb-45a83fb3c0f0"},"vehicle_type_id":"4","last_reported":1749907186,"current_range_meters":16400,"station_id":"ce4bh192rcd13ifvqdc0","pricing_plan_id":"cebpf4jnsgd1na2vs0mg"},{"bike_id":"37329ca3-babc-4d8e-a679-ad901525c7bb","system_id":"levelo_inurba_marseille","lat":43.28276,"lon":5.35059,"is_reserved":false,"is_disabled":false,"rental_uris":{"android":"levelo://app?vid=37329ca3-babc-4d8e-a679-ad901525c7bb","ios":"levelo://app?vid=37329ca3-babc-4d8e-a679-ad901525c7bb"},"vehicle_type_id":"4","last_reported":1749907186,"current_range_meters":16400,"station_id":"ce4bhbp2rcd13ifvqerg","pricing_plan_id":"cebpf4jnsgd1na2vs0mg"},{"bike_id":"2ca1ab84-2a33-4ccf-bca6-842bea5d3fb6","system_id":"levelo_inurba_marseille","lat":43.26205,"lon":5.37447,"is_reserved":false,"is_disabled":false,"rental_uris":{"android":"levelo://app?vid=2ca1ab84-2a33-4ccf-bca6-842bea5d3fb6","ios":"levelo://app?vid=2ca1ab84-2a33-4ccf-bca6-842bea5d3fb6"},"vehicle_type_id":"4","last_reported":1749907186,"current_range_meters":16400,"station_id":"ce4bhgp2rcd13ifvqfc0","pricing_plan_id":"cebpf4jnsgd1na2vs0mg"},{"bike_id":"33c88bcc-413d-4d54-bd30-5a2b999a43c0","system_id":"levelo_inurba_marseille","lat":43.24665,"lon":5.38171,"is_reserved":false,"is_disabled":false,"rental_uris":{"android":"levelo://app?vid=33c88bcc-413d-4d54-bd30-5a2b999a43c0","ios":"levelo://app?vid=33c88bcc-413d-4d54-bd30-5a2b999a43c0"},"vehicle_type_id":"4","last_reported":1749907186,"current_range_meters":16400,"station_id":"ce4bhih2rcd13ifvqfr0","pricing_plan_id":"cebpf4jnsgd1na2vs0mg"},{"bike_id":"6b7fc9d7-28ff-4959-9fe0-d25309462ef8","system_id":"levelo_inurba_marseille","lat":43.25091,"lon":5.39508,"is_reserved":false,"is_disabled":false,"rental_uris":{"android":"levelo://app?vid=6b7fc9d7-28ff-4959-9fe0-d25309462ef8","ios":"levelo://app?vid=6b7fc9d7-28ff-4959-9fe0-d25309462ef8"},"vehicle_type_id":"4","last_reported":1749907186,"current_range_meters":16400,"station_id":"ce4bhm12rcd13ifvqgkg","pricing_plan_id":"cebpf4jnsgd1na2vs0mg"},{"bike_id":"16d6bb33-e47c-4b4e-a83c-27d8cdfeca71","system_id":"levelo_inurba_marseille","lat":43.26228,"lon":5.40451,"is_reserved":false,"is_disabled":false,"rental_uris":{"android":"levelo://app?vid=16d6bb33-e47c-4b4e-a83c-27d8cdfeca71","ios":"levelo://app?vid=16d6bb33-e47c-4b4e-a83c-27d8cdfeca71"},"vehicle_type_id":"4","last_reported":1749907186,"current_range_meters":16400,"station_id":"ce4bhmh2rcd13ifvqgmg","pricing_plan_id":"cebpf4jnsgd1na2vs0mg"},{"bike_id":"e74cca96-a40f-43ff-b771-d6bc968c8004","system_id":"levelo_inurba_marseille","lat":43.23206,"lon":5.35554,"is_reserved":false,"is_disabled":false,"rental_uris":{"android":"levelo://app?vid=e74cca96-a40f-43ff-b771-d6bc968c8004","ios":"levelo://app?vid=e74cca96-a40f-43ff-b771-d6bc968c8004"},"vehicle_type_id":"4","last_reported":1749907186,"current_range_meters":16400,"station_id":"ce4bhu92rcd13ifvqi70","pricing_plan_id":"cebpf4jnsgd1na2vs0mg"},{"bike_id":"3ba53083-f560-4fb5-b3cc-01a71156c6ba","system_id":"levelo_inurba_marseille","lat":43.23191,"lon":5.35557,"is_reserved":false,"is_disabled":false,"rental_uris":{"android":"levelo://app?vid=3ba53083-f560-4fb5-b3cc-01a71156c6ba","ios":"levelo://app?vid=3ba53083-f560-4fb5-b3cc-01a71156c6ba"},"vehicle_type_id":"4","last_reported":1749907186,"current_range_meters":16400,"station_id":"ce4bhu92rcd13ifvqi70","pricing_plan_id":"cebpf4jnsgd1na2vs0mg"},{"bike_id":"194985f0-5f42-48d5-bdf0-214ea2765269","system_id":"levelo_inurba_marseille","lat":43.22944,"lon":5.35419,"is_reserved":false,"is_disabled":false,"rental_uris":{"android":"levelo://app?vid=194985f0-5f42-48d5-bdf0-214ea2765269","ios":"levelo://app?vid=194985f0-5f42-48d5-bdf0-214ea2765269"},"vehicle_type_id":"4","last_reported":1749907186,"current_range_meters":16400,"station_id":"cpo3532slgdg3j2ikp40","pricing_plan_id":"cebpf4jnsgd1na2vs0mg"},{"bike_id":"02a55228-2765-4c22-837c-5038cf3477db","system_id":"levelo_inurba_marseille","lat":43.21745,"lon":5.346,"is_reserved":false,"is_disabled":false,"rental_uris":{"android":"levelo://app?vid=02a55228-2765-4c22-837c-5038cf3477db","ios":"levelo://app?vid=02a55228-2765-4c22-837c-5038cf3477db"},"vehicle_type_id":"4","last_reported":1749907186,"current_range_meters":16400,"station_id":"st_cvj6r9ubvosntc0bgbag","pricing_plan_id":"cebpf4jnsgd1na2vs0mg"},{"bike_id":"7240a984-bb6d-4c3b-ab8d-aef55ac0bce8","system_id":"levelo_inurba_marseille","lat":43.21205,"lon":5.35085,"is_reserved":false,"is_disabled":false,"rental_uris":{"android":"levelo://app?vid=7240a984-bb6d-4c3b-ab8d-aef55ac0bce8","ios":"levelo://app?vid=7240a984-bb6d-4c3b-ab8d-aef55ac0bce8"},"vehicle_type_id":"4","last_reported":1749907186,"current_range_meters":16400,"station_id":"st_cvj6sg6p6f1abm77japg","pricing_plan_id":"cebpf4jnsgd1na2vs0mg"},{"bike_id":"dbbb347a-e7e1-43bb-accd-e1655b32f963","system_id":"levelo_inurba_marseille","lat":43.31495,"lon":5.37327,"is_reserved":false,"is_disabled":false,"rental_uris":{"android":"levelo://app?vid=dbbb347a-e7e1-43bb-accd-e1655b32f963","ios":"levelo://app?vid=dbbb347a-e7e1-43bb-accd-e1655b32f963"},"vehicle_type_id":"4","last_reported":1749907186,"current_range_meters":16800,"station_id":"ce4bgt12rcd13ifvqcd0","pricing_plan_id":"cebpf4jnsgd1na2vs0mg"},{"bike_id":"4acc43a9-efed-4475-8e4e-b0e495d420fe","system_id":"levelo_inurba_marseille","lat":43.31493,"lon":5.37299,"is_reserved":false,"is_disabled":false,"rental_uris":{"android":"levelo://app?vid=4acc43a9-efed-4475-8e4e-b0e495d420fe","ios":"levelo://app?vid=4acc43a9-efed-4475-8e4e-b0e495d420fe"},"vehicle_type_id":"4","last_reported":1749907186,"current_range_meters":16800,"station_id":"ce4bgt12rcd13ifvqcd0","pricing_plan_id":"cebpf4jnsgd1na2vs0mg"},{"bike_id":"dffaae36-4b48-4379-b3f8-654a899ee835","system_id":"levelo_inurba_marseille","lat":43.29005,"lon":5.35611,"is_reserved":false,"is_disabled":false,"rental_uris":{"android":"levelo://app?vid=dffaae36-4b48-4379-b3f8-654a899ee835","ios":"levelo://app?vid=dffaae36-4b48-4379-b3f8-654a899ee835"},"vehicle_type_id":"4","last_reported":1749907186,"current_range_meters":16800,"station_id":"ce4bhb92rcd13ifvqen0","pricing_plan_id":"cebpf4jnsgd1na2vs0mg"},{"bike_id":"efd0a904-eb3c-4d0c-9d8d-2c3595ce6def","system_id":"levelo_inurba_marseille","lat":43.28264,"lon":5.35064,"is_reserved":false,"is_disabled":false,"rental_uris":{"android":"levelo://app?vid=efd0a904-eb3c-4d0c-9d8d-2c3595ce6def","ios":"levelo://app?vid=efd0a904-eb3c-4d0c-9d8d-2c3595ce6def"},"vehicle_type_id":"4","last_reported":1749907186,"current_range_meters":16800,"station_id":"ce4bhbp2rcd13ifvqerg","pricing_plan_id":"cebpf4jnsgd1na2vs0mg"},{"bike_id":"5f353e40-4803-4fdf-8981-ace7de31369b","system_id":"levelo_inurba_marseille","lat":43.23183,"lon":5.39989,"is_reserved":false,"is_disabled":false,"rental_uris":{"android":"levelo://app?vid=5f353e40-4803-4fdf-8981-ace7de31369b","ios":"levelo://app?vid=5f353e40-4803-4fdf-8981-ace7de31369b"},"vehicle_type_id":"4","last_reported":1749907186,"current_range_meters":16800,"station_id":"ce4bhn12rcd13ifvqgqg","pricing_plan_id":"cebpf4jnsgd1na2vs0mg"},{"bike_id":"16141ab4-18ee-4d69-a4ce-859cc3c4dac5","system_id":"levelo_inurba_marseille","lat":43.27998,"lon":5.40016,"is_reserved":false,"is_disabled":false,"rental_uris":{"android":"levelo://app?vid=16141ab4-18ee-4d69-a4ce-859cc3c4dac5","ios":"levelo://app?vid=16141ab4-18ee-4d69-a4ce-859cc3c4dac5"},"vehicle_type_id":"4","last_reported":1749907186,"current_range_meters":16800,"station_id":"ce4bho92rcd13ifvqh4g","pricing_plan_id":"cebpf4jnsgd1na2vs0mg"},{"bike_id":"710d97cb-5291-4f9c-8a23-d89c0b627fd7","system_id":"levelo_inurba_marseille","lat":43.2417,"lon":5.36404,"is_reserved":false,"is_disabled":false,"rental_uris":{"android":"levelo://app?vid=710d97cb-5291-4f9c-8a23-d89c0b627fd7","ios":"levelo://app?vid=710d97cb-5291-4f9c-8a23-d89c0b627fd7"},"vehicle_type_id":"4","last_reported":1749907186,"current_range_meters":16800,"station_id":"cpo36qri1sfpv3e86is0","pricing_plan_id":"cebpf4jnsgd1na2vs0mg"},{"bike_id":"d3bc3b9f-7391-4b78-a7ca-1d9d571a0196","system_id":"levelo_inurba_marseille","lat":43.2622,"lon":5.37596,"is_reserved":false,"is_disabled":false,"rental_uris":{"android":"levelo://app?vid=d3bc3b9f-7391-4b78-a7ca-1d9d571a0196","ios":"levelo://app?vid=d3bc3b9f-7391-4b78-a7ca-1d9d571a0196"},"vehicle_type_id":"4","last_reported":1749907186,"current_range_meters":17200,"station_id":"","pricing_plan_id":"cebpf4jnsgd1na2vs0mg"},{"bike_id":"17a71f9b-e5f5-409a-ae9a-64b6aa1968cb","system_id":"levelo_inurba_marseille","lat":43.30894,"lon":5.39651,"is_reserved":false,"is_disabled":false,"rental_uris":{"android":"levelo://app?vid=17a71f9b-e5f5-409a-ae9a-64b6aa1968cb","ios":"levelo://app?vid=17a71f9b-e5f5-409a-ae9a-64b6aa1968cb"},"vehicle_type_id":"4","last_reported":1749907186,"current_range_meters":17200,"station_id":"ce4bh012rcd13ifvqcv0","pricing_plan_id":"cebpf4jnsgd1na2vs0mg"},{"bike_id":"0b115f1d-8af8-4b44-a87d-5a306938b82b","system_id":"levelo_inurba_marseille","lat":43.295179,"lon":5.393989,"is_reserved":false,"is_disabled":false,"rental_uris":{"android":"levelo://app?vid=0b115f1d-8af8-4b44-a87d-5a306938b82b","ios":"levelo://app?vid=0b115f1d-8af8-4b44-a87d-5a306938b82b"},"vehicle_type_id":"4","last_reported":1749907186,"current_range_meters":17200,"station_id":"ce4bh292rcd13ifvqdf0","pricing_plan_id":"cebpf4jnsgd1na2vs0mg"},{"bike_id":"dc2aafe3-8c40-438c-ba1e-287e45f9f571","system_id":"levelo_inurba_marseille","lat":43.28277,"lon":5.3506,"is_reserved":false,"is_disabled":false,"rental_uris":{"android":"levelo://app?vid=dc2aafe3-8c40-438c-ba1e-287e45f9f571","ios":"levelo://app?vid=dc2aafe3-8c40-438c-ba1e-287e45f9f571"},"vehicle_type_id":"4","last_reported":1749907186,"current_range_meters":17200,"station_id":"ce4bhbp2rcd13ifvqerg","pricing_plan_id":"cebpf4jnsgd1na2vs0mg"},{"bike_id":"bbf0c2a5-4408-4977-9433-abc948badb61","system_id":"levelo_inurba_marseille","lat":43.217481,"lon":5.346079,"is_reserved":false,"is_disabled":false,"rental_uris":{"android":"levelo://app?vid=bbf0c2a5-4408-4977-9433-abc948badb61","ios":"levelo://app?vid=bbf0c2a5-4408-4977-9433-abc948badb61"},"vehicle_type_id":"4","last_reported":1749907186,"current_range_meters":17200,"station_id":"st_cvj6r9ubvosntc0bgbag","pricing_plan_id":"cebpf4jnsgd1na2vs0mg"},{"bike_id":"74f6bbd0-5c81-4ac4-b714-3086aa40f53c","system_id":"levelo_inurba_marseille","lat":43.212,"lon":5.35084,"is_reserved":false,"is_disabled":false,"rental_uris":{"android":"levelo://app?vid=74f6bbd0-5c81-4ac4-b714-3086aa40f53c","ios":"levelo://app?vid=74f6bbd0-5c81-4ac4-b714-3086aa40f53c"},"vehicle_type_id":"4","last_reported":1749907186,"current_range_meters":17200,"station_id":"st_cvj6sg6p6f1abm77japg","pricing_plan_id":"cebpf4jnsgd1na2vs0mg"},{"bike_id":"84b43e61-be5a-4e83-935b-e3fa21d484c9","system_id":"levelo_inurba_marseille","lat":43.3092,"lon":5.36846,"is_reserved":false,"is_disabled":false,"rental_uris":{"android":"levelo://app?vid=84b43e61-be5a-4e83-935b-e3fa21d484c9","ios":"levelo://app?vid=84b43e61-be5a-4e83-935b-e3fa21d484c9"},"vehicle_type_id":"4","last_reported":1749907186,"current_range_meters":17600,"station_id":"ce4bgn92rcd13ifvqbvg","pricing_plan_id":"cebpf4jnsgd1na2vs0mg"},{"bike_id":"9d0cfebc-9976-4570-9f21-1135e88108f7","system_id":"levelo_inurba_marseille","lat":43.30144,"lon":5.3741,"is_reserved":false,"is_disabled":false,"rental_uris":{"android":"levelo://app?vid=9d0cfebc-9976-4570-9f21-1135e88108f7","ios":"levelo://app?vid=9d0cfebc-9976-4570-9f21-1135e88108f7"},"vehicle_type_id":"4","last_reported":1749907186,"current_range_meters":17600,"station_id":"ce4bgs92rcd13ifvqcc0","pricing_plan_id":"cebpf4jnsgd1na2vs0mg"},{"bike_id":"7c1735bb-96dc-401c-bec3-9fd56e7b6364","system_id":"levelo_inurba_marseille","lat":43.3093,"lon":5.40141,"is_reserved":false,"is_disabled":false,"rental_uris":{"android":"levelo://app?vid=7c1735bb-96dc-401c-bec3-9fd56e7b6364","ios":"levelo://app?vid=7c1735bb-96dc-401c-bec3-9fd56e7b6364"},"vehicle_type_id":"4","last_reported":1749907186,"current_range_meters":17600,"station_id":"ce4bgvp2rcd13ifvqct0","pricing_plan_id":"cebpf4jnsgd1na2vs0mg"},{"bike_id":"467d05a9-392d-4a40-958b-8dea44948f48","system_id":"levelo_inurba_marseille","lat":43.24178,"lon":5.39738,"is_reserved":false,"is_disabled":false,"rental_uris":{"android":"levelo://app?vid=467d05a9-392d-4a40-958b-8dea44948f48","ios":"levelo://app?vid=467d05a9-392d-4a40-958b-8dea44948f48"},"vehicle_type_id":"4","last_reported":1749907186,"current_range_meters":17600,"station_id":"ce4bhn12rcd13ifvqgpg","pricing_plan_id":"cebpf4jnsgd1na2vs0mg"},{"bike_id":"d464a02c-1222-433d-817f-fcd484bb4cec","system_id":"levelo_inurba_marseille","lat":43.2318,"lon":5.39995,"is_reserved":false,"is_disabled":false,"rental_uris":{"android":"levelo://app?vid=d464a02c-1222-433d-817f-fcd484bb4cec","ios":"levelo://app?vid=d464a02c-1222-433d-817f-fcd484bb4cec"},"vehicle_type_id":"4","last_reported":1749907186,"current_range_meters":17600,"station_id":"ce4bhn12rcd13ifvqgqg","pricing_plan_id":"cebpf4jnsgd1na2vs0mg"},{"bike_id":"821ffeb7-504e-49a3-aa5e-ded90c45f20e","system_id":"levelo_inurba_marseille","lat":43.30417,"lon":5.41307,"is_reserved":false,"is_disabled":false,"rental_uris":{"android":"levelo://app?vid=821ffeb7-504e-49a3-aa5e-ded90c45f20e","ios":"levelo://app?vid=821ffeb7-504e-49a3-aa5e-ded90c45f20e"},"vehicle_type_id":"4","last_reported":1749907186,"current_range_meters":17600,"station_id":"ce4bhop2rcd13ifvqh8g","pricing_plan_id":"cebpf4jnsgd1na2vs0mg"},{"bike_id":"e7dbc9eb-e5cc-4d06-8c71-ba7866db2aa1","system_id":"levelo_inurba_marseille","lat":43.2306,"lon":5.35491,"is_reserved":false,"is_disabled":false,"rental_uris":{"android":"levelo://app?vid=e7dbc9eb-e5cc-4d06-8c71-ba7866db2aa1","ios":"levelo://app?vid=e7dbc9eb-e5cc-4d06-8c71-ba7866db2aa1"},"vehicle_type_id":"4","last_reported":1749907186,"current_range_meters":17600,"station_id":"cpo3342slgdg3j2ifvpg","pricing_plan_id":"cebpf4jnsgd1na2vs0mg"},{"bike_id":"0e74a242-1a0e-4c83-b590-e40e1552f872","system_id":"levelo_inurba_marseille","lat":43.24164,"lon":5.36412,"is_reserved":false,"is_disabled":false,"rental_uris":{"android":"levelo://app?vid=0e74a242-1a0e-4c83-b590-e40e1552f872","ios":"levelo://app?vid=0e74a242-1a0e-4c83-b590-e40e1552f872"},"vehicle_type_id":"4","last_reported":1749907186,"current_range_meters":17600,"station_id":"cpo36qri1sfpv3e86is0","pricing_plan_id":"cebpf4jnsgd1na2vs0mg"},{"bike_id":"7a011b2a-6aca-4675-960d-67ec1e534c7a","system_id":"levelo_inurba_marseille","lat":43.217475,"lon":5.345993,"is_reserved":false,"is_disabled":false,"rental_uris":{"android":"levelo://app?vid=7a011b2a-6aca-4675-960d-67ec1e534c7a","ios":"levelo://app?vid=7a011b2a-6aca-4675-960d-67ec1e534c7a"},"vehicle_type_id":"4","last_reported":1749907186,"current_range_meters":18000,"station_id":"","pricing_plan_id":"cebpf4jnsgd1na2vs0mg"},{"bike_id":"a123e9fa-df7d-41fb-b2d5-2e4e345456f9","system_id":"levelo_inurba_marseille","lat":43.25315,"lon":5.37483,"is_reserved":false,"is_disabled":false,"rental_uris":{"android":"levelo://app?vid=a123e9fa-df7d-41fb-b2d5-2e4e345456f9","ios":"levelo://app?vid=a123e9fa-df7d-41fb-b2d5-2e4e345456f9"},"vehicle_type_id":"4","last_reported":1749907186,"current_range_meters":18000,"station_id":"","pricing_plan_id":"cebpf4jnsgd1na2vs0mg"},{"bike_id":"60d50e1f-d2d9-4fab-b74c-b91236cac3b3","system_id":"levelo_inurba_marseille","lat":43.30543,"lon":5.36541,"is_reserved":false,"is_disabled":false,"rental_uris":{"android":"levelo://app?vid=60d50e1f-d2d9-4fab-b74c-b91236cac3b3","ios":"levelo://app?vid=60d50e1f-d2d9-4fab-b74c-b91236cac3b3"},"vehicle_type_id":"4","last_reported":1749907186,"current_range_meters":18000,"station_id":"ce4bgs12rcd13ifvqcag","pricing_plan_id":"cebpf4jnsgd1na2vs0mg"},{"bike_id":"9a92d09a-989e-4cb7-8ea0-db48df3410d1","system_id":"levelo_inurba_marseille","lat":43.29188,"lon":5.35799,"is_reserved":false,"is_disabled":false,"rental_uris":{"android":"levelo://app?vid=9a92d09a-989e-4cb7-8ea0-db48df3410d1","ios":"levelo://app?vid=9a92d09a-989e-4cb7-8ea0-db48df3410d1"},"vehicle_type_id":"4","last_reported":1749907186,"current_range_meters":18000,"station_id":"ce4bhb12rcd13ifvqel0","pricing_plan_id":"cebpf4jnsgd1na2vs0mg"},{"bike_id":"c4052fa8-545b-4590-84f8-5ff9395d4d00","system_id":"levelo_inurba_marseille","lat":43.2842,"lon":5.34977,"is_reserved":false,"is_disabled":false,"rental_uris":{"android":"levelo://app?vid=c4052fa8-545b-4590-84f8-5ff9395d4d00","ios":"levelo://app?vid=c4052fa8-545b-4590-84f8-5ff9395d4d00"},"vehicle_type_id":"4","last_reported":1749907186,"current_range_meters":18000,"station_id":"ce4bhbh2rcd13ifvqepg","pricing_plan_id":"cebpf4jnsgd1na2vs0mg"},{"bike_id":"f148e223-23a1-4eba-9dd8-74998b9e9c6b","system_id":"levelo_inurba_marseille","lat":43.25086,"lon":5.39502,"is_reserved":false,"is_disabled":false,"rental_uris":{"android":"levelo://app?vid=f148e223-23a1-4eba-9dd8-74998b9e9c6b","ios":"levelo://app?vid=f148e223-23a1-4eba-9dd8-74998b9e9c6b"},"vehicle_type_id":"4","last_reported":1749907186,"current_range_meters":18000,"station_id":"ce4bhm12rcd13ifvqgkg","pricing_plan_id":"cebpf4jnsgd1na2vs0mg"},{"bike_id":"7f093b94-2681-4360-b486-861c1a74d2c4","system_id":"levelo_inurba_marseille","lat":43.32114,"lon":5.36787,"is_reserved":false,"is_disabled":false,"rental_uris":{"android":"levelo://app?vid=7f093b94-2681-4360-b486-861c1a74d2c4","ios":"levelo://app?vid=7f093b94-2681-4360-b486-861c1a74d2c4"},"vehicle_type_id":"4","last_reported":1749907186,"current_range_meters":18000,"station_id":"ce4bhrh2rcd13ifvqhug","pricing_plan_id":"cebpf4jnsgd1na2vs0mg"},{"bike_id":"a42da83b-0754-4bfa-a338-c87ce1e67fe4","system_id":"levelo_inurba_marseille","lat":43.2293,"lon":5.3539,"is_reserved":false,"is_disabled":false,"rental_uris":{"android":"levelo://app?vid=a42da83b-0754-4bfa-a338-c87ce1e67fe4","ios":"levelo://app?vid=a42da83b-0754-4bfa-a338-c87ce1e67fe4"},"vehicle_type_id":"4","last_reported":1749907186,"current_range_meters":18000,"station_id":"cpo3532slgdg3j2ikp40","pricing_plan_id":"cebpf4jnsgd1na2vs0mg"},{"bike_id":"b30d31de-1864-45d7-aa86-f9a24d7c08a0","system_id":"levelo_inurba_marseille","lat":43.2175,"lon":5.34606,"is_reserved":false,"is_disabled":false,"rental_uris":{"android":"levelo://app?vid=b30d31de-1864-45d7-aa86-f9a24d7c08a0","ios":"levelo://app?vid=b30d31de-1864-45d7-aa86-f9a24d7c08a0"},"vehicle_type_id":"4","last_reported":1749907186,"current_range_meters":18000,"station_id":"st_cvj6r9ubvosntc0bgbag","pricing_plan_id":"cebpf4jnsgd1na2vs0mg"},{"bike_id":"335e81a4-1e97-4cdb-b3bc-231c6a43ac9a","system_id":"levelo_inurba_marseille","lat":43.21753,"lon":5.346,"is_reserved":false,"is_disabled":false,"rental_uris":{"android":"levelo://app?vid=335e81a4-1e97-4cdb-b3bc-231c6a43ac9a","ios":"levelo://app?vid=335e81a4-1e97-4cdb-b3bc-231c6a43ac9a"},"vehicle_type_id":"4","last_reported":1749907186,"current_range_meters":18000,"station_id":"st_cvj6r9ubvosntc0bgbag","pricing_plan_id":"cebpf4jnsgd1na2vs0mg"},{"bike_id":"20ef58ae-9ad7-45d7-bac2-0cff36020328","system_id":"levelo_inurba_marseille","lat":43.21743,"lon":5.34609,"is_reserved":false,"is_disabled":false,"rental_uris":{"android":"levelo://app?vid=20ef58ae-9ad7-45d7-bac2-0cff36020328","ios":"levelo://app?vid=20ef58ae-9ad7-45d7-bac2-0cff36020328"},"vehicle_type_id":"4","last_reported":1749907186,"current_range_meters":18000,"station_id":"st_cvj6r9ubvosntc0bgbag","pricing_plan_id":"cebpf4jnsgd1na2vs0mg"},{"bike_id":"d4b34a25-9d65-4303-a062-172001801d12","system_id":"levelo_inurba_marseille","lat":43.27621,"lon":5.36128,"is_reserved":false,"is_disabled":false,"rental_uris":{"android":"levelo://app?vid=d4b34a25-9d65-4303-a062-172001801d12","ios":"levelo://app?vid=d4b34a25-9d65-4303-a062-172001801d12"},"vehicle_type_id":"4","last_reported":1749907186,"current_range_meters":18800,"station_id":"ce4bgj92rcd13ifvqbe0","pricing_plan_id":"cebpf4jnsgd1na2vs0mg"},{"bike_id":"b0a53e1c-47a7-4084-a778-6b92e283de71","system_id":"levelo_inurba_marseille","lat":43.30924,"lon":5.40144,"is_reserved":false,"is_disabled":false,"rental_uris":{"android":"levelo://app?vid=b0a53e1c-47a7-4084-a778-6b92e283de71","ios":"levelo://app?vid=b0a53e1c-47a7-4084-a778-6b92e283de71"},"vehicle_type_id":"4","last_reported":1749907186,"current_range_meters":18800,"station_id":"ce4bgvp2rcd13ifvqct0","pricing_plan_id":"cebpf4jnsgd1na2vs0mg"},{"bike_id":"2223a780-9c11-43a4-a961-a22a5eae6e8e","system_id":"levelo_inurba_marseille","lat":43.31335,"lon":5.39721,"is_reserved":false,"is_disabled":false,"rental_uris":{"android":"levelo://app?vid=2223a780-9c11-43a4-a961-a22a5eae6e8e","ios":"levelo://app?vid=2223a780-9c11-43a4-a961-a22a5eae6e8e"},"vehicle_type_id":"4","last_reported":1749907186,"current_range_meters":18800,"station_id":"ce4bgvp2rcd13ifvqcu0","pricing_plan_id":"cebpf4jnsgd1na2vs0mg"},{"bike_id":"303f4846-2b73-40e4-8135-6ffa6f67f785","system_id":"levelo_inurba_marseille","lat":43.30428,"lon":5.39742,"is_reserved":false,"is_disabled":false,"rental_uris":{"android":"levelo://app?vid=303f4846-2b73-40e4-8135-6ffa6f67f785","ios":"levelo://app?vid=303f4846-2b73-40e4-8135-6ffa6f67f785"},"vehicle_type_id":"4","last_reported":1749907186,"current_range_meters":18800,"station_id":"ce4bh092rcd13ifvqd20","pricing_plan_id":"cebpf4jnsgd1na2vs0mg"},{"bike_id":"a07d18d8-1345-4b8a-aa92-f3d8ca0ebcc9","system_id":"levelo_inurba_marseille","lat":43.282654,"lon":5.350563,"is_reserved":false,"is_disabled":false,"rental_uris":{"android":"levelo://app?vid=a07d18d8-1345-4b8a-aa92-f3d8ca0ebcc9","ios":"levelo://app?vid=a07d18d8-1345-4b8a-aa92-f3d8ca0ebcc9"},"vehicle_type_id":"4","last_reported":1749907186,"current_range_meters":18800,"station_id":"ce4bhbp2rcd13ifvqerg","pricing_plan_id":"cebpf4jnsgd1na2vs0mg"},{"bike_id":"01920f89-2eb9-4e47-a478-c97b37693933","system_id":"levelo_inurba_marseille","lat":43.25001,"lon":5.38929,"is_reserved":false,"is_disabled":false,"rental_uris":{"android":"levelo://app?vid=01920f89-2eb9-4e47-a478-c97b37693933","ios":"levelo://app?vid=01920f89-2eb9-4e47-a478-c97b37693933"},"vehicle_type_id":"4","last_reported":1749907186,"current_range_meters":18800,"station_id":"ce4bhgp2rcd13ifvqfd0","pricing_plan_id":"cebpf4jnsgd1na2vs0mg"},{"bike_id":"5b551132-059a-42e1-844f-ae17faf5c0de","system_id":"levelo_inurba_marseille","lat":43.25504,"lon":5.37667,"is_reserved":false,"is_disabled":false,"rental_uris":{"android":"levelo://app?vid=5b551132-059a-42e1-844f-ae17faf5c0de","ios":"levelo://app?vid=5b551132-059a-42e1-844f-ae17faf5c0de"},"vehicle_type_id":"4","last_reported":1749907186,"current_range_meters":18800,"station_id":"ce4bhh12rcd13ifvqff0","pricing_plan_id":"cebpf4jnsgd1na2vs0mg"},{"bike_id":"4f062bdb-5f66-4420-a1d2-5b7d187e309a","system_id":"levelo_inurba_marseille","lat":43.23153,"lon":5.43715,"is_reserved":false,"is_disabled":false,"rental_uris":{"android":"levelo://app?vid=4f062bdb-5f66-4420-a1d2-5b7d187e309a","ios":"levelo://app?vid=4f062bdb-5f66-4420-a1d2-5b7d187e309a"},"vehicle_type_id":"4","last_reported":1749907186,"current_range_meters":18800,"station_id":"ce4bhmp2rcd13ifvqgog","pricing_plan_id":"cebpf4jnsgd1na2vs0mg"},{"bike_id":"af54e57f-f161-4317-9bd4-1d43f8702955","system_id":"levelo_inurba_marseille","lat":43.23194,"lon":5.35557,"is_reserved":false,"is_disabled":false,"rental_uris":{"android":"levelo://app?vid=af54e57f-f161-4317-9bd4-1d43f8702955","ios":"levelo://app?vid=af54e57f-f161-4317-9bd4-1d43f8702955"},"vehicle_type_id":"4","last_reported":1749907186,"current_range_meters":18800,"station_id":"ce4bhu92rcd13ifvqi70","pricing_plan_id":"cebpf4jnsgd1na2vs0mg"},