{"last_updated":1752750661,"ttl":60,"version":"2.2","data":{"bikes":[{"bike_id":"53b742a7-31ae-4272-9bba-7740339e2a2f","system_id":"levelo_inurba_marseille","lat":43.33747,"lon":5.37463,"is_reserved":false,"is_disabled":false,"rental_uris":{"android":"levelo://app?vid=53b742a7-31ae-4272-9bba-7740339e2a2f","ios":"levelo://app?vid=53b742a7-31ae-4272-9bba-7740339e2a2f"},"vehicle_type_id":"1","last_reported":1752750661,"current_range_meters":24800,"station_id":"","pricing_plan_id":"cebpf4jnsgd1na2vs0mg"},{"bike_id":"4ab4c8d2-6a9c-4927-9890-d034918b2a4b","system_id":"levelo_inurba_marseille","lat":43.29033,"lon":5.38136,"is_reserved":false,"is_disabled":false,"rental_uris":{"android":"levelo://app?vid=4ab4c8d2-6a9c-4927-9890-d034918b2a4b","ios":"levelo://app?vid=4ab4c8d2-6a9c-4927-9890-d034918b2a4b"},"vehicle_type_id":"4","last_reported":1752750661,"current_range_meters":3200,"station_id":"ce4bh4p2rcd13ifvqe1g","pricing_plan_id":"cebpf4jnsgd1na2vs0mg"},{"bike_id":"e48afed1-932e-421a-a33d-f0fc8d082b2f","system_id":"levelo_inurba_marseille","lat":43.23061,"lon":5.35492,"is_reserved":false,"is_disabled":false,"rental_uris":{"android":"levelo://app?vid=e48afed1-932e-421a-a33d-f0fc8d082b2f","ios":"levelo://app?vid=e48afed1-932e-421a-a33d-f0fc8d082b2f"},"vehicle_type_id":"4","last_reported":1752750661,"current_range_meters":3200,"station_id":"cpo3342slgdg3j2ifvpg","pricing_plan_id":"cebpf4jnsgd1na2vs0mg"},{"bike_id":"b894a72c-b040-4848-b3f5-87568990beb2","system_id":"levelo_inurba_marseille","lat":43.31495,"lon":5.37318,"is_reserved":false,"is_disabled":false,"rental_uris":{"android":"levelo://app?vid=b894a72c-b040-4848-b3f5-87568990beb2","ios":"levelo://app?vid=b894a72c-b040-4848-b3f5-87568990beb2"},"vehicle_type_id":"4","last_reported":1752750661,"current_range_meters":3600,"station_id":"ce4bgt12rcd13ifvqcd0","pricing_plan_id":"cebpf4jnsgd1na2vs0mg"},{"bike_id":"c6bf3d88-4fff-4cf1-beb6-8d74873e3b8f","system_id":"levelo_inurba_marseille","lat":43.291,"lon":5.38136,"is_reserved":false,"is_disabled":false,"rental_uris":{"android":"levelo://app?vid=c6bf3d88-4fff-4cf1-beb6-8d74873e3b8f","ios":"levelo://app?vid=c6bf3d88-4fff-4cf1-beb6-8d74873e3b8f"},"vehicle_type_id":"4","last_reported":1752750661,"current_range_meters":3600,"station_id":"ce4bh512rcd13ifvqe2g","pricing_plan_id":"cebpf4jnsgd1na2vs0mg"},{"bike_id":"af6146f2-45d2-4136-a41a-76e3e91ad245","system_id":"levelo_inurba_marseille","lat":43.2731,"lon":5.39101,"is_reserved":false,"is_disabled":false,"rental_uris":{"android":"levelo://app?vid=af6146f2-45d2-4136-a41a-76e3e91ad245","ios":"levelo://app?vid=af6146f2-45d2-4136-a41a-76e3e91ad245"},"vehicle_type_id":"4","last_reported":1752750661,"current_range_meters":4400,"station_id":"ce4bhgp2rcd13ifvqfe0","pricing_plan_id":"cebpf4jnsgd1na2vs0mg"},{"bike_id":"4225036a-a0dc-4cad-8c8d-f320880e2f74","system_id":"levelo_inurba_marseille","lat":43.30775,"lon":5.38208,"is_reserved":false,"is_disabled":false,"rental_uris":{"android":"levelo://app?vid=4225036a-a0dc-4cad-8c8d-f320880e2f74","ios":"levelo://app?vid=4225036a-a0dc-4cad-8c8d-f320880e2f74"},"vehicle_type_id":"4","last_reported":1752750661,"current_range_meters":4800,"station_id":"","pricing_plan_id":"cebpf4jnsgd1na2vs0mg"},{"bike_id":"080b0f22-14dd-4044-a18f-ee7f74366cea","system_id":"levelo_inurba_marseille","lat":43.31999,"lon":5.3816,"is_reserved":false,"is_disabled":true,"rental_uris":{"android":"levelo://app?vid=080b0f22-14dd-4044-a18f-ee7f74366cea","ios":"levelo://app?vid=080b0f22-14dd-4044-a18f-ee7f74366cea"},"vehicle_type_id":"4","last_reported":1752750661,"current_range_meters":4800,"station_id":"ce4bhr12rcd13ifvqhpg","pricing_plan_id":"cebpf4jnsgd1na2vs0mg"},{"bike_id":"667ea8c5-7f3f-4466-92e1-f07ac8ff0426","system_id":"levelo_inurba_marseille","lat":43.30097,"lon":5.36994,"is_reserved":false,"is_disabled":false,"rental_uris":{"android":"levelo://app?vid=667ea8c5-7f3f-4466-92e1-f07ac8ff0426","ios":"levelo://app?vid=667ea8c5-7f3f-4466-92e1-f07ac8ff0426"},"vehicle_type_id":"4","last_reported":1752750661,"current_range_meters":5600,"station_id":"","pricing_plan_id":"cebpf4jnsgd1na2vs0mg"},{"bike_id":"d98ef30e-38a0-41ef-a00a-304afa979a1e","system_id":"levelo_inurba_marseille","lat":43.29917,"lon":5.4369,"is_reserved":false,"is_disabled":false,"rental_uris":{"android":"levelo://app?vid=d98ef30e-38a0-41ef-a00a-304afa979a1e","ios":"levelo://app?vid=d98ef30e-38a0-41ef-a00a-304afa979a1e"},"vehicle_type_id":"4","last_reported":1752750661,"current_range_meters":5600,"station_id":"","pricing_plan_id":"cebpf4jnsgd1na2vs0mg"},{"bike_id":"e73db4ab-cb65-49e2-aeab-e8d76799777d","system_id":"levelo_inurba_marseille","lat":43.2313,"lon":5.43743,"is_reserved":false,"is_disabled":false,"rental_uris":{"android":"levelo://app?vid=e73db4ab-cb65-49e2-aeab-e8d76799777d","ios":"levelo://app?vid=e73db4ab-cb65-49e2-aeab-e8d76799777d"},"vehicle_type_id":"4","last_reported":1752750661,"current_range_meters":5600,"station_id":"ce4bhmp2rcd13ifvqgog","pricing_plan_id":"cebpf4jnsgd1na2vs0mg"},{"bike_id":"2c6e34ec-e4ad-4b55-908f-732bdcecdb2f","system_id":"levelo_inurba_marseille","lat":43.2121,"lon":5.35084,"is_reserved":false,"is_disabled":false,"rental_uris":{"android":"levelo://app?vid=2c6e34ec-e4ad-4b55-908f-732bdcecdb2f","ios":"levelo://app?vid=2c6e34ec-e4ad-4b55-908f-732bdcecdb2f"},"vehicle_type_id":"4","last_reported":1752750661,"current_range_meters":6000,"station_id":"st_cvj6sg6p6f1abm77japg","pricing_plan_id":"cebpf4jnsgd1na2vs0mg"},{"bike_id":"1145602c-3b12-4604-b8ff-291284dfc532","system_id":"levelo_inurba_marseille","lat":43.22505,"lon":5.347858,"is_reserved":false,"is_disabled":false,"rental_uris":{"android":"levelo://app?vid=1145602c-3b12-4604-b8ff-291284dfc532","ios":"levelo://app?vid=1145602c-3b12-4604-b8ff-291284dfc532"},"vehicle_type_id":"4","last_reported":1752750661,"current_range_meters":6000,"station_id":"st_cvj5dfep6f1abm77gieg","pricing_plan_id":"cebpf4jnsgd1na2vs0mg"},{"bike_id":"298889f2-cdb9-457c-9579-408e845e6976","system_id":"levelo_inurba_marseille","lat":43.2872,"lon":5.36083,"is_reserved":false,"is_disabled":false,"rental_uris":{"android":"levelo://app?vid=298889f2-cdb9-457c-9579-408e845e6976","ios":"levelo://app?vid=298889f2-cdb9-457c-9579-408e845e6976"},"vehicle_type_id":"4","last_reported":1752750661,"current_range_meters":6400,"station_id":"cki0cbj6b192h4jlfktg","pricing_plan_id":"cebpf4jnsgd1na2vs0mg"},{"bike_id":"e8f8404a-d34f-425d-9988-9dfddfe9c8e5","system_id":"levelo_inurba_marseille","lat":43.24182,"lon":5.39729,"is_reserved":false,"is_disabled":false,"rental_uris":{"android":"levelo://app?vid=e8f8404a-d34f-425d-9988-9dfddfe9c8e5","ios":"levelo://app?vid=e8f8404a-d34f-425d-9988-9dfddfe9c8e5"},"vehicle_type_id":"4","last_reported":1752750661,"current_range_meters":6800,"station_id":"ce4bhn12rcd13ifvqgpg","pricing_plan_id":"cebpf4jnsgd1na2vs0mg"},{"bike_id":"cd16fda9-3c8c-438d-92a3-0c0897545d29","system_id":"levelo_inurba_marseille","lat":43.31223,"lon":5.3685,"is_reserved":false,"is_disabled":false,"rental_uris":{"android":"levelo://app?vid=cd16fda9-3c8c-438d-92a3-0c0897545d29","ios":"levelo://app?vid=cd16fda9-3c8c-438d-92a3-0c0897545d29"},"vehicle_type_id":"4","last_reported":1752750661,"current_range_meters":6800,"station_id":"ce4bgl92rcd13ifvqbq0","pricing_plan_id":"cebpf4jnsgd1na2vs0mg"},{"bike_id":"c3504d01-ae21-4d51-b5bb-c5e7be14a75e","system_id":"levelo_inurba_marseille","lat":43.31215,"lon":5.36784,"is_reserved":false,"is_disabled":false,"rental_uris":{"android":"levelo://app?vid=c3504d01-ae21-4d51-b5bb-c5e7be14a75e","ios":"levelo://app?vid=c3504d01-ae21-4d51-b5bb-c5e7be14a75e"},"vehicle_type_id":"4","last_reported":1752750661,"current_range_meters":7200,"station_id":"ce4bgl92rcd13ifvqbq0","pricing_plan_id":"cebpf4jnsgd1na2vs0mg"},{"bike_id":"38b35f9b-1ac6-4992-a9f3-9b3506988642","system_id":"levelo_inurba_marseille","lat":43.23194,"lon":5.35558,"is_reserved":false,"is_disabled":false,"rental_uris":{"android":"levelo://app?vid=38b35f9b-1ac6-4992-a9f3-9b3506988642","ios":"levelo://app?vid=38b35f9b-1ac6-4992-a9f3-9b3506988642"},"vehicle_type_id":"4","last_reported":1752750661,"current_range_meters":7200,"station_id":"ce4bhu92rcd13ifvqi70","pricing_plan_id":"cebpf4jnsgd1na2vs0mg"},{"bike_id":"fa8af18d-dde6-474a-98b6-7c17ac7bb6b1","system_id":"levelo_inurba_marseille","lat":43.27907,"lon":5.38018,"is_reserved":false,"is_disabled":false,"rental_uris":{"android":"levelo://app?vid=fa8af18d-dde6-474a-98b6-7c17ac7bb6b1","ios":"levelo://app?vid=fa8af18d-dde6-474a-98b6-7c17ac7bb6b1"},"vehicle_type_id":"4","last_reported":1752750661,"current_range_meters":7200,"station_id":"ce4bhf92rcd13ifvqf50","pricing_plan_id":"cebpf4jnsgd1na2vs0mg"},{"bike_id":"03244291-ecc4-45bb-96b5-b5abafaea6a3","system_id":"levelo_inurba_marseille","lat":43.30626,"lon":5.36442,"is_reserved":false,"is_disabled":false,"rental_uris":{"android":"levelo://app?vid=03244291-ecc4-45bb-96b5-b5abafaea6a3","ios":"levelo://app?vid=03244291-ecc4-45bb-96b5-b5abafaea6a3"},"vehicle_type_id":"4","last_reported":1752750661,"current_range_meters":7200,"station_id":"","pricing_plan_id":"cebpf4jnsgd1na2vs0mg"},{"bike_id":"bf394204-7d9c-4d01-a52e-e90ab5bce070","system_id":"levelo_inurba_marseille","lat":43.248016,"lon":5.37456,"is_reserved":false,"is_disabled":false,"rental_uris":{"android":"levelo://app?vid=bf394204-7d9c-4d01-a52e-e90ab5bce070","ios":"levelo://app?vid=bf394204-7d9c-4d01-a52e-e90ab5bce070"},"vehicle_type_id":"4","last_reported":1752750661,"current_range_meters":7200,"station_id":"ce4bhgh2rcd13ifvqfb0","pricing_plan_id":"cebpf4jnsgd1na2vs0mg"},{"bike_id":"f668d1a2-154f-4b3a-9672-303a2c6d23bf","system_id":"levelo_inurba_marseille","lat":43.31062,"lon":5.38353,"is_reserved":false,"is_disabled":true,"rental_uris":{"android":"levelo://app?vid=f668d1a2-154f-4b3a-9672-303a2c6d23bf","ios":"levelo://app?vid=f668d1a2-154f-4b3a-9672-303a2c6d23bf"},"vehicle_type_id":"4","last_reported":1752750661,"current_range_meters":8000,"station_id":"ce4bgv92rcd13ifvqcr0","pricing_plan_id":"cebpf4jnsgd1na2vs0mg"},{"bike_id":"c12ce497-b754-4d5b-955a-bc58a7e1ce70","system_id":"levelo_inurba_marseille","lat":43.28932,"lon":5.38412,"is_reserved":false,"is_disabled":false,"rental_uris":{"android":"levelo://app?vid=c12ce497-b754-4d5b-955a-bc58a7e1ce70","ios":"levelo://app?vid=c12ce497-b754-4d5b-955a-bc58a7e1ce70"},"vehicle_type_id":"4","last_reported":1752750661,"current_range_meters":8000,"station_id":"ce4bh612rcd13ifvqe6g","pricing_plan_id":"cebpf4jnsgd1na2vs0mg"},{"bike_id":"bb5d9deb-7517-43be-8a1b-f804625d2132","system_id":"levelo_inurba_marseille","lat":43.29303,"lon":5.37443,"is_reserved":false,"is_disabled":false,"rental_uris":{"android":"levelo://app?vid=bb5d9deb-7517-43be-8a1b-f804625d2132","ios":"levelo://app?vid=bb5d9deb-7517-43be-8a1b-f804625d2132"},"vehicle_type_id":"4","last_reported":1752750661,"current_range_meters":8000,"station_id":"ce4bgi12rcd13ifvqb70","pricing_plan_id":"cebpf4jnsgd1na2vs0mg"},{"bike_id":"ed8cec2e-e5ed-4a86-8e19-1a8f100eee0d","system_id":"levelo_inurba_marseille","lat":43.25001,"lon":5.38926,"is_reserved":false,"is_disabled":false,"rental_uris":{"android":"levelo://app?vid=ed8cec2e-e5ed-4a86-8e19-1a8f100eee0d","ios":"levelo://app?vid=ed8cec2e-e5ed-4a86-8e19-1a8f100eee0d"},"vehicle_type_id":"4","last_reported":1752750661,"current_range_meters":8000,"station_id":"ce4bhgp2rcd13ifvqfd0","pricing_plan_id":"cebpf4jnsgd1na2vs0mg"},{"bike_id":"2de95b2c-3dcf-4f6c-970e-dc68eaedbae3","system_id":"levelo_inurba_marseille","lat":43.302144,"lon":5.394655,"is_reserved":false,"is_disabled":false,"rental_uris":{"android":"levelo://app?vid=2de95b2c-3dcf-4f6c-970e-dc68eaedbae3","ios":"levelo://app?vid=2de95b2c-3dcf-4f6c-970e-dc68eaedbae3"},"vehicle_type_id":"4","last_reported":1752750661,"current_range_meters":8000,"station_id":"ce4bh0p2rcd13ifvqd70","pricing_plan_id":"cebpf4jnsgd1na2vs0mg"},{"bike_id":"d088024d-801c-46b7-a4f4-bb7919407cd0","system_id":"levelo_inurba_marseille","lat":43.32458,"lon":5.3658,"is_reserved":false,"is_disabled":false,"rental_uris":{"android":"levelo://app?vid=d088024d-801c-46b7-a4f4-bb7919407cd0","ios":"levelo://app?vid=d088024d-801c-46b7-a4f4-bb7919407cd0"},"vehicle_type_id":"4","last_reported":1752750661,"current_range_meters":8000,"station_id":"ce4bhs12rcd13ifvqhvg","pricing_plan_id":"cebpf4jnsgd1na2vs0mg"},{"bike_id":"48c2b9ed-8210-4fff-a715-6561a747041f","system_id":"levelo_inurba_marseille","lat":43.28276,"lon":5.35064,"is_reserved":false,"is_disabled":false,"rental_uris":{"android":"levelo://app?vid=48c2b9ed-8210-4fff-a715-6561a747041f","ios":"levelo://app?vid=48c2b9ed-8210-4fff-a715-6561a747041f"},"vehicle_type_id":"4","last_reported":1752750661,"current_range_meters":8000,"station_id":"ce4bhbp2rcd13ifvqerg","pricing_plan_id":"cebpf4jnsgd1na2vs0mg"},{"bike_id":"c4e3adcf-b133-4a48-ad8a-5f7284a8ca7c","system_id":"levelo_inurba_marseille","lat":43.23153,"lon":5.4373,"is_reserved":false,"is_disabled":false,"rental_uris":{"android":"levelo://app?vid=c4e3adcf-b133-4a48-ad8a-5f7284a8ca7c","ios":"levelo://app?vid=c4e3adcf-b133-4a48-ad8a-5f7284a8ca7c"},"vehicle_type_id":"4","last_reported":1752750661,"current_range_meters":8000,"station_id":"ce4bhmp2rcd13ifvqgog","pricing_plan_id":"cebpf4jnsgd1na2vs0mg"},{"bike_id":"39156484-d3df-4ce6-9da5-beeab1f9c214","system_id":"levelo_inurba_marseille","lat":43.21749,"lon":5.34605,"is_reserved":false,"is_disabled":false,"rental_uris":{"android":"levelo://app?vid=39156484-d3df-4ce6-9da5-beeab1f9c214","ios":"levelo://app?vid=39156484-d3df-4ce6-9da5-beeab1f9c214"},"vehicle_type_id":"4","last_reported":1752750661,"current_range_meters":8400,"station_id":"st_cvj6r9ubvosntc0bgbag","pricing_plan_id":"cebpf4jnsgd1na2vs0mg"},{"bike_id":"3497b8c1-eec3-4bcf-a2a8-074629d1c01b","system_id":"levelo_inurba_marseille","lat":43.305316,"lon":5.367038,"is_reserved":false,"is_disabled":true,"rental_uris":{"android":"levelo://app?vid=3497b8c1-eec3-4bcf-a2a8-074629d1c01b","ios":"levelo://app?vid=3497b8c1-eec3-4bcf-a2a8-074629d1c01b"},"vehicle_type_id":"4","last_reported":1752750661,"current_range_meters":8400,"station_id":"","pricing_plan_id":"cebpf4jnsgd1na2vs0mg"},{"bike_id":"34b25b3f-b66d-46ed-ba8e-4bd12d161735","system_id":"levelo_inurba_marseille","lat":43.24548,"lon":5.39522,"is_reserved":false,"is_disabled":false,"rental_uris":{"android":"levelo://app?vid=34b25b3f-b66d-46ed-ba8e-4bd12d161735","ios":"levelo://app?vid=34b25b3f-b66d-46ed-ba8e-4bd12d161735"},"vehicle_type_id":"4","last_reported":1752750661,"current_range_meters":8800,"station_id":"ce4bhlp2rcd13ifvqgjg","pricing_plan_id":"cebpf4jnsgd1na2vs0mg"},{"bike_id":"9e365865-b118-4295-83f9-77049644431e","system_id":"levelo_inurba_marseille","lat":43.31369,"lon":5.36715,"is_reserved":false,"is_disabled":false,"rental_uris":{"android":"levelo://app?vid=9e365865-b118-4295-83f9-77049644431e","ios":"levelo://app?vid=9e365865-b118-4295-83f9-77049644431e"},"vehicle_type_id":"4","last_reported":1752750661,"current_range_meters":8800,"station_id":"ce4bgr92rcd13ifvqc6g","pricing_plan_id":"cebpf4jnsgd1na2vs0mg"},{"bike_id":"54b283c6-c314-444c-b492-3e78ed7f2d30","system_id":"levelo_inurba_marseille","lat":43.32957,"lon":5.39062,"is_reserved":false,"is_disabled":false,"rental_uris":{"android":"levelo://app?vid=54b283c6-c314-444c-b492-3e78ed7f2d30","ios":"levelo://app?vid=54b283c6-c314-444c-b492-3e78ed7f2d30"},"vehicle_type_id":"4","last_reported":1752750661,"current_range_meters":8800,"station_id":"","pricing_plan_id":"cebpf4jnsgd1na2vs0mg"},{"bike_id":"373bd158-b8e1-4964-84d4-83a273c7b4e2","system_id":"levelo_inurba_marseille","lat":43.2439,"lon":5.37058,"is_reserved":false,"is_disabled":false,"rental_uris":{"android":"levelo://app?vid=373bd158-b8e1-4964-84d4-83a273c7b4e2","ios":"levelo://app?vid=373bd158-b8e1-4964-84d4-83a273c7b4e2"},"vehicle_type_id":"4","last_reported":1752750661,"current_range_meters":8800,"station_id":"ce4bhhh2rcd13ifvqfk0","pricing_plan_id":"cebpf4jnsgd1na2vs0mg"},{"bike_id":"4ce55f4d-3b70-4375-b63b-9a909ade43f9","system_id":"levelo_inurba_marseille","lat":43.21192,"lon":5.35088,"is_reserved":false,"is_disabled":false,"rental_uris":{"android":"levelo://app?vid=4ce55f4d-3b70-4375-b63b-9a909ade43f9","ios":"levelo://app?vid=4ce55f4d-3b70-4375-b63b-9a909ade43f9"},"vehicle_type_id":"4","last_reported":1752750661,"current_range_meters":9200,"station_id":"st_cvj6sg6p6f1abm77japg","pricing_plan_id":"cebpf4jnsgd1na2vs0mg"},{"bike_id":"4242e39f-dba9-4060-9dcd-2952e309ad54","system_id":"levelo_inurba_marseille","lat":43.24999,"lon":5.38945,"is_reserved":false,"is_disabled":false,"rental_uris":{"android":"levelo://app?vid=4242e39f-dba9-4060-9dcd-2952e309ad54","ios":"levelo://app?vid=4242e39f-dba9-4060-9dcd-2952e309ad54"},"vehicle_type_id":"4","last_reported":1752750661,"current_range_meters":9200,"station_id":"ce4bhgp2rcd13ifvqfd0","pricing_plan_id":"cebpf4jnsgd1na2vs0mg"},{"bike_id":"675a4573-a1f2-4f9d-b1bd-48fb0f00616c","system_id":"levelo_inurba_marseille","lat":43.28615,"lon":5.35102,"is_reserved":false,"is_disabled":false,"rental_uris":{"android":"levelo://app?vid=675a4573-a1f2-4f9d-b1bd-48fb0f00616c","ios":"levelo://app?vid=675a4573-a1f2-4f9d-b1bd-48fb0f00616c"},"vehicle_type_id":"4","last_reported":1752750661,"current_range_meters":9200,"station_id":"ce4bhch2rcd13ifvqeug","pricing_plan_id":"cebpf4jnsgd1na2vs0mg"},{"bike_id":"aa486e73-1d27-41ec-b417-f88dfd6c1e5e","system_id":"levelo_inurba_marseille","lat":43.29033,"lon":5.38646,"is_reserved":false,"is_disabled":true,"rental_uris":{"android":"levelo://app?vid=aa486e73-1d27-41ec-b417-f88dfd6c1e5e","ios":"levelo://app?vid=aa486e73-1d27-41ec-b417-f88dfd6c1e5e"},"vehicle_type_id":"4","last_reported":1752750661,"current_range_meters":9600,"station_id":"ce4bh4p2rcd13ifvqe0g","pricing_plan_id":"cebpf4jnsgd1na2vs0mg"},{"bike_id":"55f73980-be28-4da0-bed8-d763791e2da5","system_id":"levelo_inurba_marseille","lat":43.289825,"lon":5.378369,"is_reserved":false,"is_disabled":false,"rental_uris":{"android":"levelo://app?vid=55f73980-be28-4da0-bed8-d763791e2da5","ios":"levelo://app?vid=55f73980-be28-4da0-bed8-d763791e2da5"},"vehicle_type_id":"4","last_reported":1752750661,"current_range_meters":9600,"station_id":"ce4bh9p2rcd13ifvqed0","pricing_plan_id":"cebpf4jnsgd1na2vs0mg"},{"bike_id":"61a9e916-b95f-4f2c-8dca-c5b11be80287","system_id":"levelo_inurba_marseille","lat":43.29286,"lon":5.36088,"is_reserved":false,"is_disabled":false,"rental_uris":{"android":"levelo://app?vid=61a9e916-b95f-4f2c-8dca-c5b11be80287","ios":"levelo://app?vid=61a9e916-b95f-4f2c-8dca-c5b11be80287"},"vehicle_type_id":"4","last_reported":1752750661,"current_range_meters":9600,"station_id":"","pricing_plan_id":"cebpf4jnsgd1na2vs0mg"},{"bike_id":"80d2c2d0-f099-4249-a398-00d257427f56","system_id":"levelo_inurba_marseille","lat":43.33025,"lon":5.39043,"is_reserved":false,"is_disabled":false,"rental_uris":{"android":"levelo://app?vid=80d2c2d0-f099-4249-a398-00d257427f56","ios":"levelo://app?vid=80d2c2d0-f099-4249-a398-00d257427f56"},"vehicle_type_id":"4","last_reported":1752750661,"current_range_meters":9600,"station_id":"ce4bhr92rcd13ifvqhrg","pricing_plan_id":"cebpf4jnsgd1na2vs0mg"},{"bike_id":"6d9712cf-e8d6-419f-a306-c1582006c3ec","system_id":"levelo_inurba_marseille","lat":43.33738,"lon":5.37451,"is_reserved":false,"is_disabled":false,"rental_uris":{"android":"levelo://app?vid=6d9712cf-e8d6-419f-a306-c1582006c3ec","ios":"levelo://app?vid=6d9712cf-e8d6-419f-a306-c1582006c3ec"},"vehicle_type_id":"4","last_reported":1752750661,"current_range_meters":10000,"station_id":"","pricing_plan_id":"cebpf4jnsgd1na2vs0mg"},{"bike_id":"a4fd652b-34f8-4c68-a6e6-032a5cc5e418","system_id":"levelo_inurba_marseille","lat":43.31187,"lon":5.36798,"is_reserved":false,"is_disabled":true,"rental_uris":{"android":"levelo://app?vid=a4fd652b-34f8-4c68-a6e6-032a5cc5e418","ios":"levelo://app?vid=a4fd652b-34f8-4c68-a6e6-032a5cc5e418"},"vehicle_type_id":"4","last_reported":1752750661,"current_range_meters":10000,"station_id":"ce4bgl92rcd13ifvqbq0","pricing_plan_id":"cebpf4jnsgd1na2vs0mg"},{"bike_id":"b6e666ca-40a6-4894-a9e0-7106dd62ed9e","system_id":"levelo_inurba_marseille","lat":43.29219,"lon":5.40001,"is_reserved":false,"is_disabled":false,"rental_uris":{"android":"levelo://app?vid=b6e666ca-40a6-4894-a9e0-7106dd62ed9e","ios":"levelo://app?vid=b6e666ca-40a6-4894-a9e0-7106dd62ed9e"},"vehicle_type_id":"4","last_reported":1752750661,"current_range_meters":10000,"station_id":"","pricing_plan_id":"cebpf4jnsgd1na2vs0mg"},{"bike_id":"c47d6756-7f5d-4a2c-8908-caaa0e89ddfa","system_id":"levelo_inurba_marseille","lat":43.23963,"lon":5.3663,"is_reserved":false,"is_disabled":false,"rental_uris":{"android":"levelo://app?vid=c47d6756-7f5d-4a2c-8908-caaa0e89ddfa","ios":"levelo://app?vid=c47d6756-7f5d-4a2c-8908-caaa0e89ddfa"},"vehicle_type_id":"4","last_reported":1752750661,"current_range_meters":10000,"station_id":"ce4bhi12rcd13ifvqfp0","pricing_plan_id":"cebpf4jnsgd1na2vs0mg"},{"bike_id":"7dee92bf-5b07-4927-aa41-9e9493644eeb","system_id":"levelo_inurba_marseille","lat":43.211904,"lon":5.350752,"is_reserved":false,"is_disabled":false,"rental_uris":{"android":"levelo://app?vid=7dee92bf-5b07-4927-aa41-9e9493644eeb","ios":"levelo://app?vid=7dee92bf-5b07-4927-aa41-9e9493644eeb"},"vehicle_type_id":"4","last_reported":1752750661,"current_range_meters":10000,"station_id":"st_cvj6sg6p6f1abm77japg","pricing_plan_id":"cebpf4jnsgd1na2vs0mg"},{"bike_id":"63b68163-23ff-4509-a7ff-da745c70a782","system_id":"levelo_inurba_marseille","lat":43.295232,"lon":5.394075,"is_reserved":false,"is_disabled":false,"rental_uris":{"android":"levelo://app?vid=63b68163-23ff-4509-a7ff-da745c70a782","ios":"levelo://app?vid=63b68163-23ff-4509-a7ff-da745c70a782"},"vehicle_type_id":"4","last_reported":1752750661,"current_range_meters":10800,"station_id":"","pricing_plan_id":"cebpf4jnsgd1na2vs0mg"},{"bike_id":"bdea0cc8-b703-4e44-960e-09f0c1ef5ae9","system_id":"levelo_inurba_marseille","lat":43.28357,"lon":5.38108,"is_reserved":false,"is_disabled":false,"rental_uris":{"android":"levelo://app?vid=bdea0cc8-b703-4e44-960e-09f0c1ef5ae9","ios":"levelo://app?vid=bdea0cc8-b703-4e44-960e-09f0c1ef5ae9"},"vehicle_type_id":"4","last_reported":1752750661,"current_range_meters":11200,"station_id":"ce4bh412rcd13ifvqdr0","pricing_plan_id":"cebpf4jnsgd1na2vs0mg"},{"bike_id":"1be28061-1b85-4eb2-8cf5-d832f5e8190e","system_id":"levelo_inurba_marseille","lat":43.30271,"lon":5.37715,"is_reserved":false,"is_disabled":false,"rental_uris":{"android":"levelo://app?vid=1be28061-1b85-4eb2-8cf5-d832f5e8190e","ios":"levelo://app?vid=1be28061-1b85-4eb2-8cf5-d832f5e8190e"},"vehicle_type_id":"4","last_reported":1752750661,"current_range_meters":11200,"station_id":"ce4bguh2rcd13ifvqcj0","pricing_plan_id":"cebpf4jnsgd1na2vs0mg"},{"bike_id":"7fc6ebd8-c0b1-4e77-8345-e5ffce2a02ab","system_id":"levelo_inurba_marseille","lat":43.2417,"lon":5.36403,"is_reserved":false,"is_disabled":false,"rental_uris":{"android":"levelo://app?vid=7fc6ebd8-c0b1-4e77-8345-e5ffce2a02ab","ios":"levelo://app?vid=7fc6ebd8-c0b1-4e77-8345-e5ffce2a02ab"},"vehicle_type_id":"4","last_reported":1752750661,"current_range_meters":11200,"station_id":"cpo36qri1sfpv3e86is0","pricing_plan_id":"cebpf4jnsgd1na2vs0mg"},{"bike_id":"0a81d3d5-1a88-4207-bfeb-dce61510f31f","system_id":"levelo_inurba_marseille","lat":43.29512,"lon":5.39409,"is_reserved":false,"is_disabled":true,"rental_uris":{"android":"levelo://app?vid=0a81d3d5-1a88-4207-bfeb-dce61510f31f","ios":"levelo://app?vid=0a81d3d5-1a88-4207-bfeb-dce61510f31f"},"vehicle_type_id":"4","last_reported":1752750661,"current_range_meters":11600,"station_id":"ce4bh292rcd13ifvqdf0","pricing_plan_id":"cebpf4jnsgd1na2vs0mg"},{"bike_id":"a020d0ef-ed51-4b2e-a434-f152b4163d5f","system_id":"levelo_inurba_marseille","lat":43.29281,"lon":5.40122,"is_reserved":false,"is_disabled":false,"rental_uris":{"android":"levelo://app?vid=a020d0ef-ed51-4b2e-a434-f152b4163d5f","ios":"levelo://app?vid=a020d0ef-ed51-4b2e-a434-f152b4163d5f"},"vehicle_type_id":"4","last_reported":1752750661,"current_range_meters":11600,"station_id":"ce4bh312rcd13ifvqdk0","pricing_plan_id":"cebpf4jnsgd1na2vs0mg"},{"bike_id":"9f414c48-9c8c-4764-a668-1fe2b03627ca","system_id":"levelo_inurba_marseille","lat":43.28846,"lon":5.39319,"is_reserved":false,"is_disabled":false,"rental_uris":{"android":"levelo://app?vid=9f414c48-9c8c-4764-a668-1fe2b03627ca","ios":"levelo://app?vid=9f414c48-9c8c-4764-a668-1fe2b03627ca"},"vehicle_type_id":"4","last_reported":1752750661,"current_range_meters":11600,"station_id":"ce4bh2p2rcd13ifvqdi0","pricing_plan_id":"cebpf4jnsgd1na2vs0mg"},{"bike_id":"40599027-a6ab-4363-bf4e-8d769d1e1446","system_id":"levelo_inurba_marseille","lat":43.29034,"lon":5.38629,"is_reserved":false,"is_disabled":false,"rental_uris":{"android":"levelo://app?vid=40599027-a6ab-4363-bf4e-8d769d1e1446","ios":"levelo://app?vid=40599027-a6ab-4363-bf4e-8d769d1e1446"},"vehicle_type_id":"4","last_reported":1752750661,"current_range_meters":12000,"station_id":"ce4bh4p2rcd13ifvqe0g","pricing_plan_id":"cebpf4jnsgd1na2vs0mg"},{"bike_id":"555bc53e-5286-4fb6-9154-af42b3fd9792","system_id":"levelo_inurba_marseille","lat":43.30079,"lon":5.37284,"is_reserved":false,"is_disabled":false,"rental_uris":{"android":"levelo://app?vid=555bc53e-5286-4fb6-9154-af42b3fd9792","ios":"levelo://app?vid=555bc53e-5286-4fb6-9154-af42b3fd9792"},"vehicle_type_id":"4","last_reported":1752750661,"current_range_meters":12000,"station_id":"","pricing_plan_id":"cebpf4jnsgd1na2vs0mg"},{"bike_id":"35b89398-6809-4911-bdc8-216b5fa770a6","system_id":"levelo_inurba_marseille","lat":43.29911,"lon":5.3748,"is_reserved":false,"is_disabled":false,"rental_uris":{"android":"levelo://app?vid=35b89398-6809-4911-bdc8-216b5fa770a6","ios":"levelo://app?vid=35b89398-6809-4911-bdc8-216b5fa770a6"},"vehicle_type_id":"4","last_reported":1752750661,"current_range_meters":12000,"station_id":"ce4bgjh2rcd13ifvqbg0","pricing_plan_id":"cebpf4jnsgd1na2vs0mg"},{"bike_id":"e6047756-9822-4045-b008-78d0dd2fcd78","system_id":"levelo_inurba_marseille","lat":43.26217,"lon":5.40458,"is_reserved":false,"is_disabled":false,"rental_uris":{"android":"levelo://app?vid=e6047756-9822-4045-b008-78d0dd2fcd78","ios":"levelo://app?vid=e6047756-9822-4045-b008-78d0dd2fcd78"},"vehicle_type_id":"4","last_reported":1752750661,"current_range_meters":12000,"station_id":"ce4bhmh2rcd13ifvqgmg","pricing_plan_id":"cebpf4jnsgd1na2vs0mg"},{"bike_id":"6a69d0cc-faf8-4dc3-8ded-5ef811a5de8d","system_id":"levelo_inurba_marseille","lat":43.30737,"lon":5.42444,"is_reserved":false,"is_disabled":false,"rental_uris":{"android":"levelo://app?vid=6a69d0cc-faf8-4dc3-8ded-5ef811a5de8d","ios":"levelo://app?vid=6a69d0cc-faf8-4dc3-8ded-5ef811a5de8d"},"vehicle_type_id":"4","last_reported":1752750661,"current_range_meters":12000,"station_id":"st_cvj6ca6bvosntc0bfgr0","pricing_plan_id":"cebpf4jnsgd1na2vs0mg"},{"bike_id":"98daf460-c45d-4be9-b03d-fde500644729","system_id":"levelo_inurba_marseille","lat":43.296223,"lon":5.377025,"is_reserved":false,"is_disabled":false,"rental_uris":{"android":"levelo://app?vid=98daf460-c45d-4be9-b03d-fde500644729","ios":"levelo://app?vid=98daf460-c45d-4be9-b03d-fde500644729"},"vehicle_type_id":"4","last_reported":1752750661,"current_range_meters":12800,"station_id":"","pricing_plan_id":"cebpf4jnsgd1na2vs0mg"},{"bike_id":"0f4e2613-0f27-4d05-ad32-249b7f18c0c6","system_id":"levelo_inurba_marseille","lat":43.29225,"lon":5.36068,"is_reserved":false,"is_disabled":false,"rental_uris":{"android":"levelo://app?vid=0f4e2613-0f27-4d05-ad32-249b7f18c0c6","ios":"levelo://app?vid=0f4e2613-0f27-4d05-ad32-249b7f18c0c6"},"vehicle_type_id":"4","last_reported":1752750661,"current_range_meters":12800,"station_id":"ce4bhbh2rcd13ifvqeqg","pricing_plan_id":"cebpf4jnsgd1na2vs0mg"},{"bike_id":"0baa3b61-2583-41e2-8392-786eb7315abc","system_id":"levelo_inurba_marseille","lat":43.290009,"lon":5.356178,"is_reserved":false,"is_disabled":false,"rental_uris":{"android":"levelo://app?vid=0baa3b61-2583-41e2-8392-786eb7315abc","ios":"levelo://app?vid=0baa3b61-2583-41e2-8392-786eb7315abc"},"vehicle_type_id":"4","last_reported":1752750661,"current_range_meters":12800,"station_id":"ce4bhb92rcd13ifvqen0","pricing_plan_id":"cebpf4jnsgd1na2vs0mg"},{"bike_id":"0e4f690e-a5e3-4526-9303-2de4c9aab1ea","system_id":"levelo_inurba_marseille","lat":43.27075,"lon":5.42283,"is_reserved":false,"is_disabled":false,"rental_uris":{"android":"levelo://app?vid=0e4f690e-a5e3-4526-9303-2de4c9aab1ea","ios":"levelo://app?vid=0e4f690e-a5e3-4526-9303-2de4c9aab1ea"},"vehicle_type_id":"4","last_reported":1752750661,"current_range_meters":12800,"station_id":"ce4bhk92rcd13ifvqgb0","pricing_plan_id":"cebpf4jnsgd1na2vs0mg"},{"bike_id":"57239988-9161-49ce-a0a2-4581baf1b159","system_id":"levelo_inurba_marseille","lat":43.337747,"lon":5.374501,"is_reserved":false,"is_disabled":false,"rental_uris":{"android":"levelo://app?vid=57239988-9161-49ce-a0a2-4581baf1b159","ios":"levelo://app?vid=57239988-9161-49ce-a0a2-4581baf1b159"},"vehicle_type_id":"4","last_reported":1752750661,"current_range_meters":12800,"station_id":"","pricing_plan_id":"cebpf4jnsgd1na2vs0mg"},{"bike_id":"3444bdc6-514a-4ba6-9650-f9073305e33d","system_id":"levelo_inurba_marseille","lat":43.29682,"lon":5.3698,"is_reserved":false,"is_disabled":false,"rental_uris":{"android":"levelo://app?vid=3444bdc6-514a-4ba6-9650-f9073305e33d","ios":"levelo://app?vid=3444bdc6-514a-4ba6-9650-f9073305e33d"},"vehicle_type_id":"4","last_reported":1752750661,"current_range_meters":13600,"station_id":"","pricing_plan_id":"cebpf4jnsgd1na2vs0mg"},{"bike_id":"90f0512d-36bf-4dde-96a6-8b4c9fb9c157","system_id":"levelo_inurba_marseille","lat":43.29582,"lon":5.36739,"is_reserved":false,"is_disabled":false,"rental_uris":{"android":"levelo://app?vid=90f0512d-36bf-4dde-96a6-8b4c9fb9c157","ios":"levelo://app?vid=90f0512d-36bf-4dde-96a6-8b4c9fb9c157"},"vehicle_type_id":"4","last_reported":1752750661,"current_range_meters":13600,"station_id":"ce4bgph2rcd13ifvqc2g","pricing_plan_id":"cebpf4jnsgd1na2vs0mg"},{"bike_id":"f6e67167-3686-4cae-82da-4610049996dc","system_id":"levelo_inurba_marseille","lat":43.26925,"lon":5.38527,"is_reserved":false,"is_disabled":false,"rental_uris":{"android":"levelo://app?vid=f6e67167-3686-4cae-82da-4610049996dc","ios":"levelo://app?vid=f6e67167-3686-4cae-82da-4610049996dc"},"vehicle_type_id":"4","last_reported":1752750661,"current_range_meters":14000,"station_id":"","pricing_plan_id":"cebpf4jnsgd1na2vs0mg"},{"bike_id":"45d8ab6b-626c-4541-a932-3a87c843eba6","system_id":"levelo_inurba_marseille","lat":43.29313,"lon":5.37174,"is_reserved":false,"is_disabled":false,"rental_uris":{"android":"levelo://app?vid=45d8ab6b-626c-4541-a932-3a87c843eba6","ios":"levelo://app?vid=45d8ab6b-626c-4541-a932-3a87c843eba6"},"vehicle_type_id":"4","last_reported":1752750661,"current_range_meters":14000,"station_id":"ce4bgh92rcd13ifvqb40","pricing_plan_id":"cebpf4jnsgd1na2vs0mg"},{"bike_id":"a6ad2597-d35f-40c2-9606-f75afa3aba4c","system_id":"levelo_inurba_marseille","lat":43.28275,"lon":5.35074,"is_reserved":false,"is_disabled":false,"rental_uris":{"android":"levelo://app?vid=a6ad2597-d35f-40c2-9606-f75afa3aba4c","ios":"levelo://app?vid=a6ad2597-d35f-40c2-9606-f75afa3aba4c"},"vehicle_type_id":"4","last_reported":1752750661,"current_range_meters":14000,"station_id":"ce4bhbp2rcd13ifvqerg","pricing_plan_id":"cebpf4jnsgd1na2vs0mg"},{"bike_id":"e8db7860-c461-4659-866b-a14a730ae823","system_id":"levelo_inurba_marseille","lat":43.31475,"lon":5.37274,"is_reserved":false,"is_disabled":false,"rental_uris":{"android":"levelo://app?vid=e8db7860-c461-4659-866b-a14a730ae823","ios":"levelo://app?vid=e8db7860-c461-4659-866b-a14a730ae823"},"vehicle_type_id":"4","last_reported":1752750661,"current_range_meters":14000,"station_id":"ce4bgt12rcd13ifvqcd0","pricing_plan_id":"cebpf4jnsgd1na2vs0mg"},{"bike_id":"28d27c17-e6ca-4cec-aec9-f1f6696b8a12","system_id":"levelo_inurba_marseille","lat":43.29903,"lon":5.43671,"is_reserved":false,"is_disabled":true,"rental_uris":{"android":"levelo://app?vid=28d27c17-e6ca-4cec-aec9-f1f6696b8a12","ios":"levelo://app?vid=28d27c17-e6ca-4cec-aec9-f1f6696b8a12"},"vehicle_type_id":"4","last_reported":1752750661,"current_range_meters":14000,"station_id":"ce4bhpp2rcd13ifvqhfg","pricing_plan_id":"cebpf4jnsgd1na2vs0mg"},{"bike_id":"07f5ae19-0925-43ef-aab4-48ec58bc62b9","system_id":"levelo_inurba_marseille","lat":43.31485,"lon":5.37443,"is_reserved":false,"is_disabled":false,"rental_uris":{"android":"levelo://app?vid=07f5ae19-0925-43ef-aab4-48ec58bc62b9","ios":"levelo://app?vid=07f5ae19-0925-43ef-aab4-48ec58bc62b9"},"vehicle_type_id":"4","last_reported":1752750661,"current_range_meters":14000,"station_id":"","pricing_plan_id":"cebpf4jnsgd1na2vs0mg"},{"bike_id":"b6e40dbb-482e-43e6-bc56-ee373b6225ae","system_id":"levelo_inurba_marseille","lat":43.314962,"lon":5.373136,"is_reserved":false,"is_disabled":false,"rental_uris":{"android":"levelo://app?vid=b6e40dbb-482e-43e6-bc56-ee373b6225ae","ios":"levelo://app?vid=b6e40dbb-482e-43e6-bc56-ee373b6225ae"},"vehicle_type_id":"4","last_reported":1752750661,"current_range_meters":14400,"station_id":"ce4bgt12rcd13ifvqcd0","pricing_plan_id":"cebpf4jnsgd1na2vs0mg"},{"bike_id":"d5ab7a29-efbb-4b9d-b71a-90c1fb27b751","system_id":"levelo_inurba_marseille","lat":43.29928,"lon":5.37493,"is_reserved":false,"is_disabled":false,"rental_uris":{"android":"levelo://app?vid=d5ab7a29-efbb-4b9d-b71a-90c1fb27b751","ios":"levelo://app?vid=d5ab7a29-efbb-4b9d-b71a-90c1fb27b751"},"vehicle_type_id":"4","last_reported":1752750661,"current_range_meters":14400,"station_id":"ce4bgjh2rcd13ifvqbg0","pricing_plan_id":"cebpf4jnsgd1na2vs0mg"},{"bike_id":"48f08ecd-a690-410f-a43b-7d1b1e7c396e","system_id":"levelo_inurba_marseille","lat":43.28617,"lon":5.3511,"is_reserved":false,"is_disabled":false,"rental_uris":{"android":"levelo://app?vid=48f08ecd-a690-410f-a43b-7d1b1e7c396e","ios":"levelo://app?vid=48f08ecd-a690-410f-a43b-7d1b1e7c396e"},"vehicle_type_id":"4","last_reported":1752750661,"current_range_meters":14400,"station_id":"ce4bhch2rcd13ifvqeug","pricing_plan_id":"cebpf4jnsgd1na2vs0mg"},{"bike_id":"d822934c-a768-491b-a852-870d7cea3da5","system_id":"levelo_inurba_marseille","lat":43.30951,"lon":5.39035,"is_reserved":false,"is_disabled":false,"rental_uris":{"android":"levelo://app?vid=d822934c-a768-491b-a852-870d7cea3da5","ios":"levelo://app?vid=d822934c-a768-491b-a852-870d7cea3da5"},"vehicle_type_id":"4","last_reported":1752750661,"current_range_meters":14400,"station_id":"ce4bgup2rcd13ifvqco0","pricing_plan_id":"cebpf4jnsgd1na2vs0mg"},{"bike_id":"063b7548-1358-4c02-af8e-f37daeffb9f7","system_id":"levelo_inurba_marseille","lat":43.31213,"lon":5.36846,"is_reserved":false,"is_disabled":false,"rental_uris":{"android":"levelo://app?vid=063b7548-1358-4c02-af8e-f37daeffb9f7","ios":"levelo://app?vid=063b7548-1358-4c02-af8e-f37daeffb9f7"},"vehicle_type_id":"4","last_reported":1752750661,"current_range_meters":14800,"station_id":"ce4bgl92rcd13ifvqbq0","pricing_plan_id":"cebpf4jnsgd1na2vs0mg"},{"bike_id":"4f6cde95-9798-4604-be2f-0f61b3005444","system_id":"levelo_inurba_marseille","lat":43.29621,"lon":5.37738,"is_reserved":false,"is_disabled":false,"rental_uris":{"android":"levelo://app?vid=4f6cde95-9798-4604-be2f-0f61b3005444","ios":"levelo://app?vid=4f6cde95-9798-4604-be2f-0f61b3005444"},"vehicle_type_id":"4","last_reported":1752750661,"current_range_meters":14800,"station_id":"ce4bgi92rcd13ifvqb90","pricing_plan_id":"cebpf4jnsgd1na2vs0mg"},{"bike_id":"8acdf02c-787e-4a1e-956a-5c94a3dff06a","system_id":"levelo_inurba_marseille","lat":43.28503,"lon":5.40613,"is_reserved":false,"is_disabled":false,"rental_uris":{"android":"levelo://app?vid=8acdf02c-787e-4a1e-956a-5c94a3dff06a","ios":"levelo://app?vid=8acdf02c-787e-4a1e-956a-5c94a3dff06a"},"vehicle_type_id":"4","last_reported":1752750661,"current_range_meters":14800,"station_id":"","pricing_plan_id":"cebpf4jnsgd1na2vs0mg"},{"bike_id":"7182685c-f97d-4a4c-a346-e21b086e37e0","system_id":"levelo_inurba_marseille","lat":43.292277,"lon":5.360513,"is_reserved":false,"is_disabled":true,"rental_uris":{"android":"levelo://app?vid=7182685c-f97d-4a4c-a346-e21b086e37e0","ios":"levelo://app?vid=7182685c-f97d-4a4c-a346-e21b086e37e0"},"vehicle_type_id":"4","last_reported":1752750661,"current_range_meters":14800,"station_id":"","pricing_plan_id":"cebpf4jnsgd1na2vs0mg"},{"bike_id":"2ac93549-5c94-4228-8eea-782a21384d10","system_id":"levelo_inurba_marseille","lat":43.29634,"lon":5.37793,"is_reserved":false,"is_disabled":false,"rental_uris":{"android":"levelo://app?vid=2ac93549-5c94-4228-8eea-782a21384d10","ios":"levelo://app?vid=2ac93549-5c94-4228-8eea-782a21384d10"},"vehicle_type_id":"4","last_reported":1752750661,"current_range_meters":15200,"station_id":"","pricing_plan_id":"cebpf4jnsgd1na2vs0mg"},{"bike_id":"fd07f785-948d-48e7-9c57-46cccfaa2b14","system_id":"levelo_inurba_marseille","lat":43.28413,"lon":5.34983,"is_reserved":false,"is_disabled":false,"rental_uris":{"android":"levelo://app?vid=fd07f785-948d-48e7-9c57-46cccfaa2b14","ios":"levelo://app?vid=fd07f785-948d-48e7-9c57-46cccfaa2b14"},"vehicle_type_id":"4","last_reported":1752750661,"current_range_meters":15200,"station_id":"ce4bhbh2rcd13ifvqepg","pricing_plan_id":"cebpf4jnsgd1na2vs0mg"},{"bike_id":"aa09a5a0-f1d7-443a-b79b-ed79ef9c7835","system_id":"levelo_inurba_marseille","lat":43.24549,"lon":5.39524,"is_reserved":false,"is_disabled":false,"rental_uris":{"android":"levelo://app?vid=aa09a5a0-f1d7-443a-b79b-ed79ef9c7835","ios":"levelo://app?vid=aa09a5a0-f1d7-443a-b79b-ed79ef9c7835"},"vehicle_type_id":"4","last_reported":1752750661,"current_range_meters":15200,"station_id":"ce4bhlp2rcd13ifvqgjg","pricing_plan_id":"cebpf4jnsgd1na2vs0mg"},{"bike_id":"409515f8-3415-426d-b0c7-61f840c7c187","system_id":"levelo_inurba_marseille","lat":43.225,"lon":5.34787,"is_reserved":false,"is_disabled":false,"rental_uris":{"android":"levelo://app?vid=409515f8-3415-426d-b0c7-61f840c7c187","ios":"levelo://app?vid=409515f8-3415-426d-b0c7-61f840c7c187"},"vehicle_type_id":"4","last_reported":1752750661,"current_range_meters":15200,"station_id":"st_cvj5dfep6f1abm77gieg","pricing_plan_id":"cebpf4jnsgd1na2vs0mg"},{"bike_id":"dab62de4-01c0-4f53-bfde-184f78541cf5","system_id":"levelo_inurba_marseille","lat":43.29842,"lon":5.36294,"is_reserved":false,"is_disabled":false,"rental_uris":{"android":"levelo://app?vid=dab62de4-01c0-4f53-bfde-184f78541cf5","ios":"levelo://app?vid=dab62de4-01c0-4f53-bfde-184f78541cf5"},"vehicle_type_id":"4","last_reported":1752750661,"current_range_meters":15200,"station_id":"ce4bgpp2rcd13ifvqc3g","pricing_plan_id":"cebpf4jnsgd1na2vs0mg"},{"bike_id":"1a1de22c-864f-4087-990e-227151d55abc","system_id":"levelo_inurba_marseille","lat":43.2121,"lon":5.35081,"is_reserved":false,"is_disabled":false,"rental_uris":{"android":"levelo://app?vid=1a1de22c-864f-4087-990e-227151d55abc","ios":"levelo://app?vid=1a1de22c-864f-4087-990e-227151d55abc"},"vehicle_type_id":"4","last_reported":1752750661,"current_range_meters":16000,"station_id":"st_cvj6sg6p6f1abm77japg","pricing_plan_id":"cebpf4jnsgd1na2vs0mg"},{"bike_id":"6d70d6d4-7776-4d1e-a307-46e9e54de733","system_id":"levelo_inurba_marseille","lat":43.2957,"lon":5.39965,"is_reserved":false,"is_disabled":true,"rental_uris":{"android":"levelo://app?vid=6d70d6d4-7776-4d1e-a307-46e9e54de733","ios":"levelo://app?vid=6d70d6d4-7776-4d1e-a307-46e9e54de733"},"vehicle_type_id":"4","last_reported":1752750661,"current_range_meters":16000,"station_id":"ce4bh312rcd13ifvqdj0","pricing_plan_id":"cebpf4jnsgd1na2vs0mg"},{"bike_id":"eb0e3055-c45b-416d-bc64-42f6047c6750","system_id":"levelo_inurba_marseille","lat":43.25928,"lon":5.40883,"is_reserved":false,"is_disabled":false,"rental_uris":{"android":"levelo://app?vid=eb0e3055-c45b-416d-bc64-42f6047c6750","ios":"levelo://app?vid=eb0e3055-c45b-416d-bc64-42f6047c6750"},"vehicle_type_id":"4","last_reported":1752750661,"current_range_meters":16000,"station_id":"ce4bhm92rcd13ifvqglg","pricing_plan_id":"cebpf4jnsgd1na2vs0mg"},{"bike_id":"1a40762c-292c-420e-83cd-892e0fb9d939","system_id":"levelo_inurba_marseille","lat":43.29294,"lon":5.37427,"is_reserved":false,"is_disabled":false,"rental_uris":{"android":"levelo://app?vid=1a40762c-292c-420e-83cd-892e0fb9d939","ios":"levelo://app?vid=1a40762c-292c-420e-83cd-892e0fb9d939"},"vehicle_type_id":"4","last_reported":1752750661,"current_range_meters":16000,"station_id":"ce4bgi12rcd13ifvqb70","pricing_plan_id":"cebpf4jnsgd1na2vs0mg"},{"bike_id":"7e5c69eb-7979-42bf-83a4-a038c8e1735c","system_id":"levelo_inurba_marseille","lat":43.25719,"lon":5.4111,"is_reserved":false,"is_disabled":false,"rental_uris":{"android":"levelo://app?vid=7e5c69eb-7979-42bf-83a4-a038c8e1735c","ios":"levelo://app?vid=7e5c69eb-7979-42bf-83a4-a038c8e1735c"},"vehicle_type_id":"4","last_reported":1752750661,"current_range_meters":16000,"station_id":"ce4bhkp2rcd13ifvqgd0","pricing_plan_id":"cebpf4jnsgd1na2vs0mg"},{"bike_id":"fd75f631-a93f-469d-bea7-4e480ab41eae","system_id":"levelo_inurba_marseille","lat":43.28278,"lon":5.35078,"is_reserved":false,"is_disabled":false,"rental_uris":{"android":"levelo://app?vid=fd75f631-a93f-469d-bea7-4e480ab41eae","ios":"levelo://app?vid=fd75f631-a93f-469d-bea7-4e480ab41eae"},"vehicle_type_id":"4","last_reported":1752750661,"current_range_meters":16000,"station_id":"ce4bhbp2rcd13ifvqerg","pricing_plan_id":"cebpf4jnsgd1na2vs0mg"},{"bike_id":"e555b545-304c-4dce-8496-1643c0f2600e","system_id":"levelo_inurba_marseille","lat":43.337444,"lon":5.374475,"is_reserved":false,"is_disabled":false,"rental_uris":{"android":"levelo://app?vid=e555b545-304c-4dce-8496-1643c0f2600e","ios":"levelo://app?vid=e555b545-304c-4dce-8496-1643c0f2600e"},"vehicle_type_id":"4","last_reported":1752750661,"current_range_meters":16000,"station_id":"","pricing_plan_id":"cebpf4jnsgd1na2vs0mg"},{"bike_id":"582d5e63-4946-44ff-8da5-cdf3e52be7b6","system_id":"levelo_inurba_marseille","lat":43.27035,"lon":5.40248,"is_reserved":false,"is_disabled":false,"rental_uris":{"android":"levelo://app?vid=582d5e63-4946-44ff-8da5-cdf3e52be7b6","ios":"levelo://app?vid=582d5e63-4946-44ff-8da5-cdf3e52be7b6"},"vehicle_type_id":"4","last_reported":1752750661,"current_range_meters":16000,"station_id":"ce4bhk92rcd13ifvqgc0","pricing_plan_id":"cebpf4jnsgd1na2vs0mg"},{"bike_id":"fd080ef6-1ffd-4399-bc91-7ac9fd287e49","system_id":"levelo_inurba_marseille","lat":43.30544,"lon":5.36555,"is_reserved":false,"is_disabled":false,"rental_uris":{"android":"levelo://app?vid=fd080ef6-1ffd-4399-bc91-7ac9fd287e49","ios":"levelo://app?vid=fd080ef6-1ffd-4399-bc91-7ac9fd287e49"},"vehicle_type_id":"4","last_reported":1752750661,"current_range_meters":16000,"station_id":"ce4bgs12rcd13ifvqcag","pricing_plan_id":"cebpf4jnsgd1na2vs0mg"},{"bike_id":"aebeee84-419c-4ac0-8ad4-257b0df9d04f","system_id":"levelo_inurba_marseille","lat":43.33582,"lon":5.40975,"is_reserved":false,"is_disabled":false,"rental_uris":{"android":"levelo://app?vid=aebeee84-419c-4ac0-8ad4-257b0df9d04f","ios":"levelo://app?vid=aebeee84-419c-4ac0-8ad4-257b0df9d04f"},"vehicle_type_id":"4","last_reported":1752750661,"current_range_meters":16400,"station_id":"","pricing_plan_id":"cebpf4jnsgd1na2vs0mg"},{"bike_id":"67d7fcff-dcdf-4d7b-a57b-863ea33f1a9b","system_id":"levelo_inurba_marseille","lat":43.29924,"lon":5.37492,"is_reserved":false,"is_disabled":false,"rental_uris":{"android":"levelo://app?vid=67d7fcff-dcdf-4d7b-a57b-863ea33f1a9b","ios":"levelo://app?vid=67d7fcff-dcdf-4d7b-a57b-863ea33f1a9b"},"vehicle_type_id":"4","last_reported":1752750661,"current_range_meters":16400,"station_id":"ce4bgjh2rcd13ifvqbg0","pricing_plan_id":"cebpf4jnsgd1na2vs0mg"},{"bike_id":"370b5495-4112-49cd-80ba-c31203562c50","system_id":"levelo_inurba_marseille","lat":43.30288,"lon":5.37922,"is_reserved":false,"is_disabled":false,"rental_uris":{"android":"levelo://app?vid=370b5495-4112-49cd-80ba-c31203562c50","ios":"levelo://app?vid=370b5495-4112-49cd-80ba-c31203562c50"},"vehicle_type_id":"4","last_reported":1752750661,"current_range_meters":16400,"station_id":"","pricing_plan_id":"cebpf4jnsgd1na2vs0mg"},{"bike_id":"20262d3f-3c44-42c0-8e64-8f7b5b2e6e62","system_id":"levelo_inurba_marseille","lat":43.293,"lon":5.37445,"is_reserved":false,"is_disabled":false,"rental_uris":{"android":"levelo://app?vid=20262d3f-3c44-42c0-8e64-8f7b5b2e6e62","ios":"levelo://app?vid=20262d3f-3c44-42c0-8e64-8f7b5b2e6e62"},"vehicle_type_id":"4","last_reported":1752750661,"current_range_meters":16400,"station_id":"ce4bgi12rcd13ifvqb70","pricing_plan_id":"cebpf4jnsgd1na2vs0mg"},{"bike_id":"a092d05c-8017-44f5-ba8a-35792463d6a3","system_id":"levelo_inurba_marseille","lat":43.22523,"lon":5.3481,"is_reserved":false,"is_disabled":false,"rental_uris":{"android":"levelo://app?vid=a092d05c-8017-44f5-ba8a-35792463d6a3","ios":"levelo://app?vid=a092d05c-8017-44f5-ba8a-35792463d6a3"},"vehicle_type_id":"4","last_reported":1752750661,"current_range_meters":16400,"station_id":"st_cvj5dfep6f1abm77gieg","pricing_plan_id":"cebpf4jnsgd1na2vs0mg"},{"bike_id":"eab9537b-893b-47b5-b14d-13822947026a","system_id":"levelo_inurba_marseille","lat":43.25943,"lon":5.40895,"is_reserved":false,"is_disabled":false,"rental_uris":{"android":"levelo://app?vid=eab9537b-893b-47b5-b14d-13822947026a","ios":"levelo://app?vid=eab9537b-893b-47b5-b14d-13822947026a"},"vehicle_type_id":"4","last_reported":1752750661,"current_range_meters":16400,"station_id":"ce4bhm92rcd13ifvqglg","pricing_plan_id":"cebpf4jnsgd1na2vs0mg"},{"bike_id":"da891840-0cec-4ccc-961c-48903736c6fa","system_id":"levelo_inurba_marseille","lat":43.31139,"lon":5.37692,"is_reserved":false,"is_disabled":false,"rental_uris":{"android":"levelo://app?vid=da891840-0cec-4ccc-961c-48903736c6fa","ios":"levelo://app?vid=da891840-0cec-4ccc-961c-48903736c6fa"},"vehicle_type_id":"4","last_reported":1752750661,"current_range_meters":16400,"station_id":"","pricing_plan_id":"cebpf4jnsgd1na2vs0mg"},{"bike_id":"949a69dc-b776-4e2d-b9c5-2420c62ef91f","system_id":"levelo_inurba_marseille","lat":43.30355,"lon":5.41891,"is_reserved":false,"is_disabled":false,"rental_uris":{"android":"levelo://app?vid=949a69dc-b776-4e2d-b9c5-2420c62ef91f","ios":"levelo://app?vid=949a69dc-b776-4e2d-b9c5-2420c62ef91f"},"vehicle_type_id":"4","last_reported":1752750661,"current_range_meters":16400,"station_id":"ce4bhop2rcd13ifvqh7g","pricing_plan_id":"cebpf4jnsgd1na2vs0mg"},{"bike_id":"a6925f3c-d3d1-4189-a180-b325ef653dcf","system_id":"levelo_inurba_marseille","lat":43.28617,"lon":5.35104,"is_reserved":false,"is_disabled":false,"rental_uris":{"android":"levelo://app?vid=a6925f3c-d3d1-4189-a180-b325ef653dcf","ios":"levelo://app?vid=a6925f3c-d3d1-4189-a180-b325ef653dcf"},"vehicle_type_id":"4","last_reported":1752750661,"current_range_meters":16400,"station_id":"ce4bhch2rcd13ifvqeug","pricing_plan_id":"cebpf4jnsgd1na2vs0mg"},{"bike_id":"169b84c4-0fec-4b66-a9bc-55f8f1d9adff","system_id":"levelo_inurba_marseille","lat":43.22929,"lon":5.35377,"is_reserved":false,"is_disabled":false,"rental_uris":{"android":"levelo://app?vid=169b84c4-0fec-4b66-a9bc-55f8f1d9adff","ios":"levelo://app?vid=169b84c4-0fec-4b66-a9bc-55f8f1d9adff"},"vehicle_type_id":"4","last_reported":1752750661,"current_range_meters":16400,"station_id":"cpo3532slgdg3j2ikp40","pricing_plan_id":"cebpf4jnsgd1na2vs0mg"},{"bike_id":"2272a1cb-30d4-47dd-bed5-39b01483f853","system_id":"levelo_inurba_marseille","lat":43.22923,"lon":5.35399,"is_reserved":false,"is_disabled":false,"rental_uris":{"android":"levelo://app?vid=2272a1cb-30d4-47dd-bed5-39b01483f853","ios":"levelo://app?vid=2272a1cb-30d4-47dd-bed5-39b01483f853"},"vehicle_type_id":"4","last_reported":1752750661,"current_range_meters":16400,"station_id":"cpo3532slgdg3j2ikp40","pricing_plan_id":"cebpf4jnsgd1na2vs0mg"},{"bike_id":"1af876d9-6e0a-45cc-bed9-deae0b87ca9c","system_id":"levelo_inurba_marseille","lat":43.211958,"lon":5.350708,"is_reserved":false,"is_disabled":false,"rental_uris":{"android":"levelo://app?vid=1af876d9-6e0a-45cc-bed9-deae0b87ca9c","ios":"levelo://app?vid=1af876d9-6e0a-45cc-bed9-deae0b87ca9c"},"vehicle_type_id":"4","last_reported":1752750661,"current_range_meters":16400,"station_id":"st_cvj6sg6p6f1abm77japg","pricing_plan_id":"cebpf4jnsgd1na2vs0mg"},{"bike_id":"8fef23ae-7d59-4831-9dff-fe4a62182ad5","system_id":"levelo_inurba_marseille","lat":43.28881,"lon":5.37871,"is_reserved":false,"is_disabled":false,"rental_uris":{"android":"levelo://app?vid=8fef23ae-7d59-4831-9dff-fe4a62182ad5","ios":"levelo://app?vid=8fef23ae-7d59-4831-9dff-fe4a62182ad5"},"vehicle_type_id":"4","last_reported":1752750661,"current_range_meters":16400,"station_id":"","pricing_plan_id":"cebpf4jnsgd1na2vs0mg"},{"bike_id":"81f88721-00d0-431c-83bf-446e11578408","system_id":"levelo_inurba_marseille","lat":43.22498,"lon":5.34777,"is_reserved":false,"is_disabled":false,"rental_uris":{"android":"levelo://app?vid=81f88721-00d0-431c-83bf-446e11578408","ios":"levelo://app?vid=81f88721-00d0-431c-83bf-446e11578408"},"vehicle_type_id":"4","last_reported":1752750661,"current_range_meters":16400,"station_id":"st_cvj5dfep6f1abm77gieg","pricing_plan_id":"cebpf4jnsgd1na2vs0mg"},{"bike_id":"a06c7735-c62e-4b47-85a2-38e701fcbd91","system_id":"levelo_inurba_marseille","lat":43.24642,"lon":5.38912,"is_reserved":false,"is_disabled":false,"rental_uris":{"android":"levelo://app?vid=a06c7735-c62e-4b47-85a2-38e701fcbd91","ios":"levelo://app?vid=a06c7735-c62e-4b47-85a2-38e701fcbd91"},"vehicle_type_id":"4","last_reported":1752750661,"current_range_meters":16800,"station_id":"ce4bhg12rcd13ifvqf60","pricing_plan_id":"cebpf4jnsgd1na2vs0mg"},{"bike_id":"531dca68-8617-41b0-a6cd-abffc94e1d45","system_id":"levelo_inurba_marseille","lat":43.31219,"lon":5.3734,"is_reserved":false,"is_disabled":false,"rental_uris":{"android":"levelo://app?vid=531dca68-8617-41b0-a6cd-abffc94e1d45","ios":"levelo://app?vid=531dca68-8617-41b0-a6cd-abffc94e1d45"},"vehicle_type_id":"4","last_reported":1752750661,"current_range_meters":16800,"station_id":"","pricing_plan_id":"cebpf4jnsgd1na2vs0mg"},{"bike_id":"3d81bf7d-01ed-4b33-9451-cbb539dac082","system_id":"levelo_inurba_marseille","lat":43.31484,"lon":5.37332,"is_reserved":false,"is_disabled":false,"rental_uris":{"android":"levelo://app?vid=3d81bf7d-01ed-4b33-9451-cbb539dac082","ios":"levelo://app?vid=3d81bf7d-01ed-4b33-9451-cbb539dac082"},"vehicle_type_id":"4","last_reported":1752750661,"current_range_meters":17200,"station_id":"ce4bgt12rcd13ifvqcd0","pricing_plan_id":"cebpf4jnsgd1na2vs0mg"},{"bike_id":"ee77f27c-f1c1-46ed-bbc3-8ed0a48c0994","system_id":"levelo_inurba_marseille","lat":43.30409,"lon":5.36741,"is_reserved":false,"is_disabled":false,"rental_uris":{"android":"levelo://app?vid=ee77f27c-f1c1-46ed-bbc3-8ed0a48c0994","ios":"levelo://app?vid=ee77f27c-f1c1-46ed-bbc3-8ed0a48c0994"},"vehicle_type_id":"4","last_reported":1752750661,"current_range_meters":17200,"station_id":"","pricing_plan_id":"cebpf4jnsgd1na2vs0mg"},{"bike_id":"a07d2709-212a-469a-9e86-fe6624f858b0","system_id":"levelo_inurba_marseille","lat":43.21748,"lon":5.34605,"is_reserved":false,"is_disabled":false,"rental_uris":{"android":"levelo://app?vid=a07d2709-212a-469a-9e86-fe6624f858b0","ios":"levelo://app?vid=a07d2709-212a-469a-9e86-fe6624f858b0"},"vehicle_type_id":"4","last_reported":1752750661,"current_range_meters":17200,"station_id":"st_cvj6r9ubvosntc0bgbag","pricing_plan_id":"cebpf4jnsgd1na2vs0mg"},{"bike_id":"e54582ed-ba92-4640-a97f-9e97144ce87f","system_id":"levelo_inurba_marseille","lat":43.32255,"lon":5.4066,"is_reserved":false,"is_disabled":false,"rental_uris":{"android":"levelo://app?vid=e54582ed-ba92-4640-a97f-9e97144ce87f","ios":"levelo://app?vid=e54582ed-ba92-4640-a97f-9e97144ce87f"},"vehicle_type_id":"4","last_reported":1752750661,"current_range_meters":17200,"station_id":"","pricing_plan_id":"cebpf4jnsgd1na2vs0mg"},{"bike_id":"20c1ad72-4336-462d-b9b4-ca6649225d99","system_id":"levelo_inurba_marseille","lat":43.23066,"lon":5.35491,"is_reserved":false,"is_disabled":false,"rental_uris":{"android":"levelo://app?vid=20c1ad72-4336-462d-b9b4-ca6649225d99","ios":"levelo://app?vid=20c1ad72-4336-462d-b9b4-ca6649225d99"},"vehicle_type_id":"4","last_reported":1752750661,"current_range_meters":17200,"station_id":"cpo3342slgdg3j2ifvpg","pricing_plan_id":"cebpf4jnsgd1na2vs0mg"},{"bike_id":"f7847105-5e58-497a-8bb4-b4bf20a07475","system_id":"levelo_inurba_marseille","lat":43.290377,"lon":5.399623,"is_reserved":false,"is_disabled":false,"rental_uris":{"android":"levelo://app?vid=f7847105-5e58-497a-8bb4-b4bf20a07475","ios":"levelo://app?vid=f7847105-5e58-497a-8bb4-b4bf20a07475"},"vehicle_type_id":"4","last_reported":1752750661,"current_range_meters":17200,"station_id":"ce4bh392rcd13ifvqdm0","pricing_plan_id":"cebpf4jnsgd1na2vs0mg"},{"bike_id":"bf120a40-50a0-498a-a830-6d7ebb756f94","system_id":"levelo_inurba_marseille","lat":43.29556,"lon":5.39314,"is_reserved":false,"is_disabled":false,"rental_uris":{"android":"levelo://app?vid=bf120a40-50a0-498a-a830-6d7ebb756f94","ios":"levelo://app?vid=bf120a40-50a0-498a-a830-6d7ebb756f94"},"vehicle_type_id":"4","last_reported":1752750661,"current_range_meters":17600,"station_id":"ce4bh292rcd13ifvqdf0","pricing_plan_id":"cebpf4jnsgd1na2vs0mg"},{"bike_id":"2885d0c6-1589-4a2c-8815-61bfb2fa4477","system_id":"levelo_inurba_marseille","lat":43.28428,"lon":5.34999,"is_reserved":false,"is_disabled":false,"rental_uris":{"android":"levelo://app?vid=2885d0c6-1589-4a2c-8815-61bfb2fa4477","ios":"levelo://app?vid=2885d0c6-1589-4a2c-8815-61bfb2fa4477"},"vehicle_type_id":"4","last_reported":1752750661,"current_range_meters":17600,"station_id":"ce4bhbh2rcd13ifvqepg","pricing_plan_id":"cebpf4jnsgd1na2vs0mg"},{"bike_id":"72faf686-6714-4dc6-bcf0-3baa5bc283d2","system_id":"levelo_inurba_marseille","lat":43.26568,"lon":5.39008,"is_reserved":false,"is_disabled":false,"rental_uris":{"android":"levelo://app?vid=72faf686-6714-4dc6-bcf0-3baa5bc283d2","ios":"levelo://app?vid=72faf686-6714-4dc6-bcf0-3baa5bc283d2"},"vehicle_type_id":"4","last_reported":1752750661,"current_range_meters":17600,"station_id":"ce4bhe12rcd13ifvqf30","pricing_plan_id":"cebpf4jnsgd1na2vs0mg"},{"bike_id":"740eaedb-e1d9-41c1-b7bf-e458303a6d9b","system_id":"levelo_inurba_marseille","lat":43.29617,"lon":5.37146,"is_reserved":false,"is_disabled":false,"rental_uris":{"android":"levelo://app?vid=740eaedb-e1d9-41c1-b7bf-e458303a6d9b","ios":"levelo://app?vid=740eaedb-e1d9-41c1-b7bf-e458303a6d9b"},"vehicle_type_id":"4","last_reported":1752750661,"current_range_meters":17600,"station_id":"ce4bgnh2rcd13ifvqc0g","pricing_plan_id":"cebpf4jnsgd1na2vs0mg"},{"bike_id":"698289ff-80af-4f26-ad7c-102bd805a339","system_id":"levelo_inurba_marseille","lat":43.278748,"lon":5.405767,"is_reserved":false,"is_disabled":false,"rental_uris":{"android":"levelo://app?vid=698289ff-80af-4f26-ad7c-102bd805a339","ios":"levelo://app?vid=698289ff-80af-4f26-ad7c-102bd805a339"},"vehicle_type_id":"4","last_reported":1752750661,"current_range_meters":17600,"station_id":"ce4bhnh2rcd13ifvqgtg","pricing_plan_id":"cebpf4jnsgd1na2vs0mg"},{"bike_id":"78274e74-ab73-4fa7-b1a3-d1a684863996","system_id":"levelo_inurba_marseille","lat":43.225041,"lon":5.347796,"is_reserved":false,"is_disabled":false,"rental_uris":{"android":"levelo://app?vid=78274e74-ab73-4fa7-b1a3-d1a684863996","ios":"levelo://app?vid=78274e74-ab73-4fa7-b1a3-d1a684863996"},"vehicle_type_id":"4","last_reported":1752750661,"current_range_meters":17600,"station_id":"st_cvj5dfep6f1abm77gieg","pricing_plan_id":"cebpf4jnsgd1na2vs0mg"},{"bike_id":"c1f29ac4-c402-49c7-9410-af3f306e7cd5","system_id":"levelo_inurba_marseille","lat":43.31219,"lon":5.36847,"is_reserved":false,"is_disabled":false,"rental_uris":{"android":"levelo://app?vid=c1f29ac4-c402-49c7-9410-af3f306e7cd5","ios":"levelo://app?vid=c1f29ac4-c402-49c7-9410-af3f306e7cd5"},"vehicle_type_id":"4","last_reported":1752750661,"current_range_meters":17600,"station_id":"ce4bgl92rcd13ifvqbq0","pricing_plan_id":"cebpf4jnsgd1na2vs0mg"},{"bike_id":"6be86623-c65c-4a0d-b3a4-c58891bfa931","system_id":"levelo_inurba_marseille","lat":43.22503,"lon":5.34769,"is_reserved":false,"is_disabled":false,"rental_uris":{"android":"levelo://app?vid=6be86623-c65c-4a0d-b3a4-c58891bfa931","ios":"levelo://app?vid=6be86623-c65c-4a0d-b3a4-c58891bfa931"},"vehicle_type_id":"4","last_reported":1752750661,"current_range_meters":18000,"station_id":"st_cvj5dfep6f1abm77gieg","pricing_plan_id":"cebpf4jnsgd1na2vs0mg"},{"bike_id":"73beccd1-f184-4326-8064-c91f6505c977","system_id":"levelo_inurba_marseille","lat":43.33603,"lon":5.40988,"is_reserved":false,"is_disabled":false,"rental_uris":{"android":"levelo://app?vid=73beccd1-f184-4326-8064-c91f6505c977","ios":"levelo://app?vid=73beccd1-f184-4326-8064-c91f6505c977"},"vehicle_type_id":"4","last_reported":1752750661,"current_range_meters":18000,"station_id":"ce4bhqh2rcd13ifvqhmg","pricing_plan_id":"cebpf4jnsgd1na2vs0mg"},{"bike_id":"34d4dffe-c983-477d-af4f-c69a2562c95c","system_id":"levelo_inurba_marseille","lat":43.245317,"lon":5.376016,"is_reserved":false,"is_disabled":false,"rental_uris":{"android":"levelo://app?vid=34d4dffe-c983-477d-af4f-c69a2562c95c","ios":"levelo://app?vid=34d4dffe-c983-477d-af4f-c69a2562c95c"},"vehicle_type_id":"4","last_reported":1752750661,"current_range_meters":18000,"station_id":"ce4bhlp2rcd13ifvqgjg","pricing_plan_id":"cebpf4jnsgd1na2vs0mg"},{"bike_id":"e4d23322-5772-485a-910a-7f6d0cc996b2","system_id":"levelo_inurba_marseille","lat":43.3136,"lon":5.36703,"is_reserved":false,"is_disabled":false,"rental_uris":{"android":"levelo://app?vid=e4d23322-5772-485a-910a-7f6d0cc996b2","ios":"levelo://app?vid=e4d23322-5772-485a-910a-7f6d0cc996b2"},"vehicle_type_id":"4","last_reported":1752750661,"current_range_meters":18000,"station_id":"ce4bgr92rcd13ifvqc6g","pricing_plan_id":"cebpf4jnsgd1na2vs0mg"},{"bike_id":"084eace8-045f-4012-9455-c501cad7ce10","system_id":"levelo_inurba_marseille","lat":43.22504,"lon":5.34781,"is_reserved":false,"is_disabled":false,"rental_uris":{"android":"levelo://app?vid=084eace8-045f-4012-9455-c501cad7ce10","ios":"levelo://app?vid=084eace8-045f-4012-9455-c501cad7ce10"},"vehicle_type_id":"4","last_reported":1752750661,"current_range_meters":18000,"station_id":"st_cvj5dfep6f1abm77gieg","pricing_plan_id":"cebpf4jnsgd1na2vs0mg"},{"bike_id":"08eb2712-85c0-4b6e-a913-c238912d65ce","system_id":"levelo_inurba_marseille","lat":43.29708,"lon":5.3771,"is_reserved":false,"is_disabled":false,"rental_uris":{"android":"levelo://app?vid=08eb2712-85c0-4b6e-a913-c238912d65ce","ios":"levelo://app?vid=08eb2712-85c0-4b6e-a913-c238912d65ce"},"vehicle_type_id":"4","last_reported":1752750661,"current_range_meters":18000,"station_id":"ce4bgkh2rcd13ifvqbl0","pricing_plan_id":"cebpf4jnsgd1na2vs0mg"},{"bike_id":"ed822664-f978-4865-b4d3-8b7323601ddf","system_id":"levelo_inurba_marseille","lat":43.29775,"lon":5.39376,"is_reserved":false,"is_disabled":true,"rental_uris":{"android":"levelo://app?vid=ed822664-f978-4865-b4d3-8b7323601ddf","ios":"levelo://app?vid=ed822664-f978-4865-b4d3-8b7323601ddf"},"vehicle_type_id":"4","last_reported":1752750661,"current_range_meters":18000,"station_id":"chh1huq6cuj3fo74tm60","pricing_plan_id":"cebpf4jnsgd1na2vs0mg"},{"bike_id":"660d6db3-3d46-4bf1-a04a-db097cd3027d","system_id":"levelo_inurba_marseille","lat":43.28285,"lon":5.35061,"is_reserved":false,"is_disabled":false,"rental_uris":{"android":"levelo://app?vid=660d6db3-3d46-4bf1-a04a-db097cd3027d","ios":"levelo://app?vid=660d6db3-3d46-4bf1-a04a-db097cd3027d"},"vehicle_type_id":"4","last_reported":1752750661,"current_range_meters":18000,"station_id":"ce4bhbp2rcd13ifvqerg","pricing_plan_id":"cebpf4jnsgd1na2vs0mg"},{"bike_id":"d87e30e3-85ea-41af-a581-612090dcb790","system_id":"levelo_inurba_marseille","lat":43.29031,"lon":5.3864,"is_reserved":false,"is_disabled":false,"rental_uris":{"android":"levelo://app?vid=d87e30e3-85ea-41af-a581-612090dcb790","ios":"levelo://app?vid=d87e30e3-85ea-41af-a581-612090dcb790"},"vehicle_type_id":"4","last_reported":1752750661,"current_range_meters":18000,"station_id":"ce4bh4p2rcd13ifvqe0g","pricing_plan_id":"cebpf4jnsgd1na2vs0mg"},{"bike_id":"2f49c0bd-1fa3-4487-8922-9564c7b35ecb","system_id":"levelo_inurba_marseille","lat":43.27492,"lon":5.42457,"is_reserved":false,"is_disabled":false,"rental_uris":{"android":"levelo://app?vid=2f49c0bd-1fa3-4487-8922-9564c7b35ecb","ios":"levelo://app?vid=2f49c0bd-1fa3-4487-8922-9564c7b35ecb"},"vehicle_type_id":"4","last_reported":1752750661,"current_range_meters":18000,"station_id":"ce4bhn92rcd13ifvqgrg","pricing_plan_id":"cebpf4jnsgd1na2vs0mg"},{"bike_id":"91a913e3-fd9e-4c8d-b7cb-397081e39f5d","system_id":"levelo_inurba_marseille","lat":43.2903,"lon":5.38143,"is_reserved":false,"is_disabled":false,"rental_uris":{"android":"levelo://app?vid=91a913e3-fd9e-4c8d-b7cb-397081e39f5d","ios":"levelo://app?vid=91a913e3-fd9e-4c8d-b7cb-397081e39f5d"},"vehicle_type_id":"4","last_reported":1752750661,"current_range_meters":18000,"station_id":"ce4bh4p2rcd13ifvqe1g","pricing_plan_id":"cebpf4jnsgd1na2vs0mg"},{"bike_id":"90ff6360-61cf-4a1f-ada0-5ba4cd4b6ba6","system_id":"levelo_inurba_marseille","lat":43.30278,"lon":5.37703,"is_reserved":false,"is_disabled":false,"rental_uris":{"android":"levelo://app?vid=90ff6360-61cf-4a1f-ada0-5ba4cd4b6ba6","ios":"levelo://app?vid=90ff6360-61cf-4a1f-ada0-5ba4cd4b6ba6"},"vehicle_type_id":"4","last_reported":1752750661,"current_range_meters":18000,"station_id":"ce4bguh2rcd13ifvqcj0","pricing_plan_id":"cebpf4jnsgd1na2vs0mg"},{"bike_id":"c2dba01e-7253-4f47-be7e-556b63c0e205","system_id":"levelo_inurba_marseille","lat":43.30285,"lon":5.37718,"is_reserved":false,"is_disabled":false,"rental_uris":{"android":"levelo://app?vid=c2dba01e-7253-4f47-be7e-556b63c0e205","ios":"levelo://app?vid=c2dba01e-7253-4f47-be7e-556b63c0e205"},"vehicle_type_id":"4","last_reported":1752750661,"current_range_meters":18000,"station_id":"ce4bguh2rcd13ifvqcj0","pricing_plan_id":"cebpf4jnsgd1na2vs0mg"},{"bike_id":"6fe4e2d5-c342-447b-94f7-9cfc12ce2c4e","system_id":"levelo_inurba_marseille","lat":43.29604,"lon":5.38115,"is_reserved":false,"is_disabled":false,"rental_uris":{"android":"levelo://app?vid=6fe4e2d5-c342-447b-94f7-9cfc12ce2c4e","ios":"levelo://app?vid=6fe4e2d5-c342-447b-94f7-9cfc12ce2c4e"},"vehicle_type_id":"4","last_reported":1752750661,"current_range_meters":18000,"station_id":"ce4bgl12rcd13ifvqbo0","pricing_plan_id":"cebpf4jnsgd1na2vs0mg"},{"bike_id":"c6db0f6a-96fe-4e1d-8ded-c2ef38c9bab4","system_id":"levelo_inurba_marseille","lat":43.304183,"lon":5.412838,"is_reserved":false,"is_disabled":true,"rental_uris":{"android":"levelo://app?vid=c6db0f6a-96fe-4e1d-8ded-c2ef38c9bab4","ios":"levelo://app?vid=c6db0f6a-96fe-4e1d-8ded-c2ef38c9bab4"},"vehicle_type_id":"4","last_reported":1752750661,"current_range_meters":18800,"station_id":"ce4bhop2rcd13ifvqh8g","pricing_plan_id":"cebpf4jnsgd1na2vs0mg"},{"bike_id":"266d7aec-1666-472b-8c5d-281a36e42319","system_id":"levelo_inurba_marseille","lat":43.29585,"lon":5.36732,"is_reserved":false,"is_disabled":false,"rental_uris":{"android":"levelo://app?vid=266d7aec-1666-472b-8c5d-281a36e42319","ios":"levelo://app?vid=266d7aec-1666-472b-8c5d-281a36e42319"},"vehicle_type_id":"4","last_reported":1752750661,"current_range_meters":18800,"station_id":"ce4bgph2rcd13ifvqc2g","pricing_plan_id":"cebpf4jnsgd1na2vs0mg"},{"bike_id":"74659e54-1cf3-41a5-83b2-d4e185c0aa41","system_id":"levelo_inurba_marseille","lat":43.30593,"lon":5.37237,"is_reserved":false,"is_disabled":false,"rental_uris":{"android":"levelo://app?vid=74659e54-1cf3-41a5-83b2-d4e185c0aa41","ios":"levelo://app?vid=74659e54-1cf3-41a5-83b2-d4e185c0aa41"},"vehicle_type_id":"4","last_reported":1752750661,"current_range_meters":18800,"station_id":"ce4bgqh2rcd13ifvqc4g","pricing_plan_id":"cebpf4jnsgd1na2vs0mg"},{"bike_id":"ea75efb2-ac36-4344-b925-58a5bd2f6327","system_id":"levelo_inurba_marseille","lat":43.271854,"lon":5.362776,"is_reserved":false,"is_disabled":false,"rental_uris":{"android":"levelo://app?vid=ea75efb2-ac36-4344-b925-58a5bd2f6327","ios":"levelo://app?vid=ea75efb2-ac36-4344-b925-58a5bd2f6327"},"vehicle_type_id":"4","last_reported":1752750661,"current_range_meters":18800,"station_id":"","pricing_plan_id":"cebpf4jnsgd1na2vs0mg"},{"bike_id":"4bf2a7cd-ca06-42a4-93b4-80502380b5c2","system_id":"levelo_inurba_marseille","lat":43.26933,"lon":5.40255,"is_reserved":false,"is_disabled":false,"rental_uris":{"android":"levelo://app?vid=4bf2a7cd-ca06-42a4-93b4-80502380b5c2","ios":"levelo://app?vid=4bf2a7cd-ca06-42a4-93b4-80502380b5c2"},"vehicle_type_id":"4","last_reported":1752750661,"current_range_meters":18800,"station_id":"cjm6bp8fraef2m0cb0m0","pricing_plan_id":"cebpf4jnsgd1na2vs0mg"},{"bike_id":"4c0580d4-f2e2-4c67-8250-a65c39c0f7d6","system_id":"levelo_inurba_marseille","lat":43.22521,"lon":5.34797,"is_reserved":false,"is_disabled":false,"rental_uris":{"android":"levelo://app?vid=4c0580d4-f2e2-4c67-8250-a65c39c0f7d6","ios":"levelo://app?vid=4c0580d4-f2e2-4c67-8250-a65c39c0f7d6"},"vehicle_type_id":"4","last_reported":1752750661,"current_range_meters":18800,"station_id":"st_cvj5dfep6f1abm77gieg","pricing_plan_id":"cebpf4jnsgd1na2vs0mg"},{"bike_id":"9fa50dd7-7fbd-4ce8-98cf-60e73f62ec1f","system_id":"levelo_inurba_marseille","lat":43.21752,"lon":5.346,"is_reserved":false,"is_disabled":false,"rental_uris":{"android":"levelo://app?vid=9fa50dd7-7fbd-4ce8-98cf-60e73f62ec1f","ios":"levelo://app?vid=9fa50dd7-7fbd-4ce8-98cf-60e73f62ec1f"},"vehicle_type_id":"4","last_reported":1752750661,"current_range_meters":18800,"station_id":"","pricing_plan_id":"cebpf4jnsgd1na2vs0mg"},{"bike_id":"5b4e5f0f-cac3-450a-9463-e6a77e2c277e","system_id":"levelo_inurba_marseille","lat":43.246423,"lon":5.388921,"is_reserved":false,"is_disabled":true,"rental_uris":{"android":"levelo://app?vid=5b4e5f0f-cac3-450a-9463-e6a77e2c277e","ios":"levelo://app?vid=5b4e5f0f-cac3-450a-9463-e6a77e2c277e"},"vehicle_type_id":"4","last_reported":1752750661,"current_range_meters":18800,"station_id":"ce4bhg12rcd13ifvqf60","pricing_plan_id":"cebpf4jnsgd1na2vs0mg"},{"bike_id":"54d27e70-89e5-4e8c-ad00-e5c54db8c7dc","system_id":"levelo_inurba_marseille","lat":43.26571,"lon":5.39002,"is_reserved":false,"is_disabled":false,"rental_uris":{"android":"levelo://app?vid=54d27e70-89e5-4e8c-ad00-e5c54db8c7dc","ios":"levelo://app?vid=54d27e70-89e5-4e8c-ad00-e5c54db8c7dc"},"vehicle_type_id":"4","last_reported":1752750661,"current_range_meters":18800,"station_id":"ce4bhe12rcd13ifvqf30","pricing_plan_id":"cebpf4jnsgd1na2vs0mg"},{"bike_id":"53073354-7fda-41fa-b606-a04ad7bf043c","system_id":"levelo_inurba_marseille","lat":43.30155,"lon":5.38083,"is_reserved":false,"is_disabled":false,"rental_uris":{"android":"levelo://app?vid=53073354-7fda-41fa-b606-a04ad7bf043c","ios":"levelo://app?vid=53073354-7fda-41fa-b606-a04ad7bf043c"},"vehicle_type_id":"4","last_reported":1752750661,"current_range_meters":19200,"station_id":"ce4bgjp2rcd13ifvqbh0","pricing_plan_id":"cebpf4jnsgd1na2vs0mg"},{"bike_id":"f99ff1e4-4111-475a-aa3e-cb902d081040","system_id":"levelo_inurba_marseille","lat":43.23198,"lon":5.35549,"is_reserved":false,"is_disabled":false,"rental_uris":{"android":"levelo://app?vid=f99ff1e4-4111-475a-aa3e-cb902d081040","ios":"levelo://app?vid=f99ff1e4-4111-475a-aa3e-cb902d081040"},"vehicle_type_id":"4","last_reported":1752750661,"current_range_meters":19200,"station_id":"ce4bhu92rcd13ifvqi70","pricing_plan_id":"cebpf4jnsgd1na2vs0mg"},{"bike_id":"c11df309-8c34-4573-93e4-739b0360d706","system_id":"levelo_inurba_marseille","lat":43.31363,"lon":5.38499,"is_reserved":false,"is_disabled":false,"rental_uris":{"android":"levelo://app?vid=c11df309-8c34-4573-93e4-739b0360d706","ios":"levelo://app?vid=c11df309-8c34-4573-93e4-739b0360d706"},"vehicle_type_id":"4","last_reported":1752750661,"current_range_meters":19200,"station_id":"ce4bgt92rcd13ifvqcf0","pricing_plan_id":"cebpf4jnsgd1na2vs0mg"},{"bike_id":"5daf7dec-a4af-4963-96d7-146351f88633","system_id":"levelo_inurba_marseille","lat":43.2316,"lon":5.43712,"is_reserved":false,"is_disabled":false,"rental_uris":{"android":"levelo://app?vid=5daf7dec-a4af-4963-96d7-146351f88633","ios":"levelo://app?vid=5daf7dec-a4af-4963-96d7-146351f88633"},"vehicle_type_id":"4","last_reported":1752750661,"current_range_meters":19200,"station_id":"ce4bhmp2rcd13ifvqgog","pricing_plan_id":"cebpf4jnsgd1na2vs0mg"},{"bike_id":"72790707-035c-4bca-b9bf-a8b4e9ad2919","system_id":"levelo_inurba_marseille","lat":43.231513,"lon":5.437215,"is_reserved":false,"is_disabled":false,"rental_uris":{"android":"levelo://app?vid=72790707-035c-4bca-b9bf-a8b4e9ad2919","ios":"levelo://app?vid=72790707-035c-4bca-b9bf-a8b4e9ad2919"},"vehicle_type_id":"4","last_reported":1752750661,"current_range_meters":19200,"station_id":"ce4bhmp2rcd13ifvqgog","pricing_plan_id":"cebpf4jnsgd1na2vs0mg"},{"bike_id":"bd3be985-991d-42ee-9d15-815db6e058b3","system_id":"levelo_inurba_marseille","lat":43.30828,"lon":5.37897,"is_reserved":false,"is_disabled":false,"rental_uris":{"android":"levelo://app?vid=bd3be985-991d-42ee-9d15-815db6e058b3","ios":"levelo://app?vid=bd3be985-991d-42ee-9d15-815db6e058b3"},"vehicle_type_id":"4","last_reported":1752750661,"current_range_meters":19200,"station_id":"","pricing_plan_id":"cebpf4jnsgd1na2vs0mg"},{"bike_id":"6f1080d9-b64e-4584-bd71-4fc4c564cda9","system_id":"levelo_inurba_marseille","lat":43.29309,"lon":5.37466,"is_reserved":false,"is_disabled":false,"rental_uris":{"android":"levelo://app?vid=6f1080d9-b64e-4584-bd71-4fc4c564cda9","ios":"levelo://app?vid=6f1080d9-b64e-4584-bd71-4fc4c564cda9"},"vehicle_type_id":"4","last_reported":1752750661,"current_range_meters":19200,"station_id":"ce4bgi12rcd13ifvqb70","pricing_plan_id":"cebpf4jnsgd1na2vs0mg"},{"bike_id":"ce40837d-3edf-4cc2-a747-2f8d4ee2c7fb","system_id":"levelo_inurba_marseille","lat":43.2251,"lon":5.34777,"is_reserved":false,"is_disabled":false,"rental_uris":{"android":"levelo://app?vid=ce40837d-3edf-4cc2-a747-2f8d4ee2c7fb","ios":"levelo://app?vid=ce40837d-3edf-4cc2-a747-2f8d4ee2c7fb"},"vehicle_type_id":"4","last_reported":1752750661,"current_range_meters":19200,"station_id":"st_cvj5dfep6f1abm77gieg","pricing_plan_id":"cebpf4jnsgd1na2vs0mg"},{"bike_id":"1fa6e47a-247c-43f3-a2d5-2457ee6c5d39","system_id":"levelo_inurba_marseille","lat":43.21202,"lon":5.35107,"is_reserved":false,"is_disabled":false,"rental_uris":{"android":"levelo://app?vid=1fa6e47a-247c-43f3-a2d5-2457ee6c5d39","ios":"levelo://app?vid=1fa6e47a-247c-43f3-a2d5-2457ee6c5d39"},"vehicle_type_id":"4","last_reported":1752750661,"current_range_meters":19200,"station_id":"st_cvj6sg6p6f1abm77japg","pricing_plan_id":"cebpf4jnsgd1na2vs0mg"},{"bike_id":"9e46aa88-7b19-47c3-b789-71b8902b53cb","system_id":"levelo_inurba_marseille","lat":43.28159,"lon":5.42678,"is_reserved":false,"is_disabled":false,"rental_uris":{"android":"levelo://app?vid=9e46aa88-7b19-47c3-b789-71b8902b53cb","ios":"levelo://app?vid=9e46aa88-7b19-47c3-b789-71b8902b53cb"},"vehicle_type_id":"4","last_reported":1752750661,"current_range_meters":19200,"station_id":"ce4bhnh2rcd13ifvqgug","pricing_plan_id":"cebpf4jnsgd1na2vs0mg"},{"bike_id":"66867a12-d88b-4820-bc2a-9a8726321e3c","system_id":"levelo_inurba_marseille","lat":43.295549,"lon":5.423009,"is_reserved":false,"is_disabled":false,"rental_uris":{"android":"levelo://app?vid=66867a12-d88b-4820-bc2a-9a8726321e3c","ios":"levelo://app?vid=66867a12-d88b-4820-bc2a-9a8726321e3c"},"vehicle_type_id":"4","last_reported":1752750661,"current_range_meters":19200,"station_id":"ce4bhph2rcd13ifvqhdg","pricing_plan_id":"cebpf4jnsgd1na2vs0mg"},{"bike_id":"1d66c58d-703f-4f25-bec9-77e7fb7ea059","system_id":"levelo_inurba_marseille","lat":43.26964,"lon":5.40271,"is_reserved":false,"is_disabled":false,"rental_uris":{"android":"levelo://app?vid=1d66c58d-703f-4f25-bec9-77e7fb7ea059","ios":"levelo://app?vid=1d66c58d-703f-4f25-bec9-77e7fb7ea059"},"vehicle_type_id":"4","last_reported":1752750661,"current_range_meters":19200,"station_id":"cjm6bp8fraef2m0cb0m0","pricing_plan_id":"cebpf4jnsgd1na2vs0mg"},{"bike_id":"929a690c-39a0-405a-b624-507b70f5edad","system_id":"levelo_inurba_marseille","lat":43.30145,"lon":5.38062,"is_reserved":false,"is_disabled":false,"rental_uris":{"android":"levelo://app?vid=929a690c-39a0-405a-b624-507b70f5edad","ios":"levelo://app?vid=929a690c-39a0-405a-b624-507b70f5edad"},"vehicle_type_id":"4","last_reported":1752750661,"current_range_meters":19600,"station_id":"ce4bgjp2rcd13ifvqbh0","pricing_plan_id":"cebpf4jnsgd1na2vs0mg"},{"bike_id":"1c95ec2f-b4a2-48ad-9bf3-8d3e5c5614fb","system_id":"levelo_inurba_marseille","lat":43.24168,"lon":5.39683,"is_reserved":false,"is_disabled":false,"rental_uris":{"android":"levelo://app?vid=1c95ec2f-b4a2-48ad-9bf3-8d3e5c5614fb","ios":"levelo://app?vid=1c95ec2f-b4a2-48ad-9bf3-8d3e5c5614fb"},"vehicle_type_id":"4","last_reported":1752750661,"current_range_meters":19600,"station_id":"ce4bhn12rcd13ifvqgpg","pricing_plan_id":"cebpf4jnsgd1na2vs0mg"},{"bike_id":"5be7f850-c0d8-44ae-8d6c-d054a85b3ea6","system_id":"levelo_inurba_marseille","lat":43.28371,"lon":5.38629,"is_reserved":false,"is_disabled":false,"rental_uris":{"android":"levelo://app?vid=5be7f850-c0d8-44ae-8d6c-d054a85b3ea6","ios":"levelo://app?vid=5be7f850-c0d8-44ae-8d6c-d054a85b3ea6"},"vehicle_type_id":"4","last_reported":1752750661,"current_range_meters":19600,"station_id":"ce4bh492rcd13ifvqdvg","pricing_plan_id":"cebpf4jnsgd1na2vs0mg"},{"bike_id":"e44354f1-ddb7-4828-8ddc-b0606d6fa1f0","system_id":"levelo_inurba_marseille","lat":43.313805,"lon":5.385011,"is_reserved":false,"is_disabled":false,"rental_uris":{"android":"levelo://app?vid=e44354f1-ddb7-4828-8ddc-b0606d6fa1f0","ios":"levelo://app?vid=e44354f1-ddb7-4828-8ddc-b0606d6fa1f0"},"vehicle_type_id":"4","last_reported":1752750661,"current_range_meters":19600,"station_id":"ce4bgt92rcd13ifvqcf0","pricing_plan_id":"cebpf4jnsgd1na2vs0mg"},{"bike_id":"96806a8b-dec8-4cfc-a2c9-24ff06be7aae","system_id":"levelo_inurba_marseille","lat":43.296,"lon":5.38099,"is_reserved":false,"is_disabled":false,"rental_uris":{"android":"levelo://app?vid=96806a8b-dec8-4cfc-a2c9-24ff06be7aae","ios":"levelo://app?vid=96806a8b-dec8-4cfc-a2c9-24ff06be7aae"},"vehicle_type_id":"4","last_reported":1752750661,"current_range_meters":19600,"station_id":"ce4bgl12rcd13ifvqbo0","pricing_plan_id":"cebpf4jnsgd1na2vs0mg"},{"bike_id":"34ffe321-28e2-439b-b77b-5ac85eb58934","system_id":"levelo_inurba_marseille","lat":43.27492,"lon":5.42458,"is_reserved":false,"is_disabled":false,"rental_uris":{"android":"levelo://app?vid=34ffe321-28e2-439b-b77b-5ac85eb58934","ios":"levelo://app?vid=34ffe321-28e2-439b-b77b-5ac85eb58934"},"vehicle_type_id":"4","last_reported":1752750661,"current_range_meters":19600,"station_id":"ce4bhn92rcd13ifvqgrg","pricing_plan_id":"cebpf4jnsgd1na2vs0mg"},{"bike_id":"ac0ed4be-466c-4caa-b855-3c6bbe5a11b5","system_id":"levelo_inurba_marseille","lat":43.26754,"lon":5.3721,"is_reserved":false,"is_disabled":false,"rental_uris":{"android":"levelo://app?vid=ac0ed4be-466c-4caa-b855-3c6bbe5a11b5","ios":"levelo://app?vid=ac0ed4be-466c-4caa-b855-3c6bbe5a11b5"},"vehicle_type_id":"4","last_reported":1752750661,"current_range_meters":19600,"station_id":"","pricing_plan_id":"cebpf4jnsgd1na2vs0mg"},{"bike_id":"5753c688-4eaf-48d5-88ee-9742d99d05df","system_id":"levelo_inurba_marseille","lat":43.30293,"lon":5.36956,"is_reserved":false,"is_disabled":false,"rental_uris":{"android":"levelo://app?vid=5753c688-4eaf-48d5-88ee-9742d99d05df","ios":"levelo://app?vid=5753c688-4eaf-48d5-88ee-9742d99d05df"},"vehicle_type_id":"4","last_reported":1752750661,"current_range_meters":19600,"station_id":"ce4bgqh2rcd13ifvqc5g","pricing_plan_id":"cebpf4jnsgd1na2vs0mg"},{"bike_id":"1a1a24ad-a75a-44c2-a305-89bd558f1cd7","system_id":"levelo_inurba_marseille","lat":43.2931,"lon":5.3746,"is_reserved":false,"is_disabled":false,"rental_uris":{"android":"levelo://app?vid=1a1a24ad-a75a-44c2-a305-89bd558f1cd7","ios":"levelo://app?vid=1a1a24ad-a75a-44c2-a305-89bd558f1cd7"},"vehicle_type_id":"4","last_reported":1752750661,"current_range_meters":19600,"station_id":"ce4bgi12rcd13ifvqb70","pricing_plan_id":"cebpf4jnsgd1na2vs0mg"},{"bike_id":"86d398e7-3ab0-449d-bca0-747a9f49b8f5","system_id":"levelo_inurba_marseille","lat":43.274939,"lon":5.424724,"is_reserved":false,"is_disabled":false,"rental_uris":{"android":"levelo://app?vid=86d398e7-3ab0-449d-bca0-747a9f49b8f5","ios":"levelo://app?vid=86d398e7-3ab0-449d-bca0-747a9f49b8f5"},"vehicle_type_id":"4","last_reported":1752750661,"current_range_meters":19600,"station_id":"ce4bhn92rcd13ifvqgrg","pricing_plan_id":"cebpf4jnsgd1na2vs0mg"},{"bike_id":"e63db760-60f2-4063-aa2b-9e0100a40135","system_id":"levelo_inurba_marseille","lat":43.30736,"lon":5.42448,"is_reserved":false,"is_disabled":false,"rental_uris":{"android":"levelo://app?vid=e63db760-60f2-4063-aa2b-9e0100a40135","ios":"levelo://app?vid=e63db760-60f2-4063-aa2b-9e0100a40135"},"vehicle_type_id":"4","last_reported":1752750661,"current_range_meters":19600,"station_id":"st_cvj6ca6bvosntc0bfgr0","pricing_plan_id":"cebpf4jnsgd1na2vs0mg"},{"bike_id":"a56a52b8-bfcb-4b57-ac5a-1af5eb3af0d5","system_id":"levelo_inurba_marseille","lat":43.27924,"lon":5.391519,"is_reserved":false,"is_disabled":false,"rental_uris":{"android":"levelo://app?vid=a56a52b8-bfcb-4b57-ac5a-1af5eb3af0d5","ios":"levelo://app?vid=a56a52b8-bfcb-4b57-ac5a-1af5eb3af0d5"},"vehicle_type_id":"4","last_reported":1752750661,"current_range_meters":19600,"station_id":"ce4bhjp2rcd13ifvqga0","pricing_plan_id":"cebpf4jnsgd1na2vs0mg"},{"bike_id":"0bc40bda-1ebd-42b1-8023-e51fb990abf4","system_id":"levelo_inurba_marseille","lat":43.29576,"lon":5.36732,"is_reserved":false,"is_disabled":false,"rental_uris":{"android":"levelo://app?vid=0bc40bda-1ebd-42b1-8023-e51fb990abf4","ios":"levelo://app?vid=0bc40bda-1ebd-42b1-8023-e51fb990abf4"},"vehicle_type_id":"4","last_reported":1752750661,"current_range_meters":19600,"station_id":"ce4bgph2rcd13ifvqc2g","pricing_plan_id":"cebpf4jnsgd1na2vs0mg"},{"bike_id":"ce7bd25b-5213-4881-a28b-f582e6a1d712","system_id":"levelo_inurba_marseille","lat":43.31371,"lon":5.36712,"is_reserved":false,"is_disabled":true,"rental_uris":{"android":"levelo://app?vid=ce7bd25b-5213-4881-a28b-f582e6a1d712","ios":"levelo://app?vid=ce7bd25b-5213-4881-a28b-f582e6a1d712"},"vehicle_type_id":"4","last_reported":1752750661,"current_range_meters":19600,"station_id":"ce4bgr92rcd13ifvqc6g","pricing_plan_id":"cebpf4jnsgd1na2vs0mg"},{"bike_id":"1383f82d-be3c-4abe-bdc3-534b8a03f785","system_id":"levelo_inurba_marseille","lat":43.27819,"lon":5.40732,"is_reserved":false,"is_disabled":false,"rental_uris":{"android":"levelo://app?vid=1383f82d-be3c-4abe-bdc3-534b8a03f785","ios":"levelo://app?vid=1383f82d-be3c-4abe-bdc3-534b8a03f785"},"vehicle_type_id":"4","last_reported":1752750661,"current_range_meters":20000,"station_id":"ce4bhnh2rcd13ifvqgtg","pricing_plan_id":"cebpf4jnsgd1na2vs0mg"},{"bike_id":"db3d4f34-7625-4ccf-b75b-3058beddc943","system_id":"levelo_inurba_marseille","lat":43.31175,"lon":5.38715,"is_reserved":false,"is_disabled":false,"rental_uris":{"android":"levelo://app?vid=db3d4f34-7625-4ccf-b75b-3058beddc943","ios":"levelo://app?vid=db3d4f34-7625-4ccf-b75b-3058beddc943"},"vehicle_type_id":"4","last_reported":1752750661,"current_range_meters":20000,"station_id":"ce4bgv12rcd13ifvqcp0","pricing_plan_id":"cebpf4jnsgd1na2vs0mg"},{"bike_id":"a80104b8-8e76-4153-9971-95af0953772d","system_id":"levelo_inurba_marseille","lat":43.25488,"lon":5.37667,"is_reserved":false,"is_disabled":false,"rental_uris":{"android":"levelo://app?vid=a80104b8-8e76-4153-9971-95af0953772d","ios":"levelo://app?vid=a80104b8-8e76-4153-9971-95af0953772d"},"vehicle_type_id":"4","last_reported":1752750661,"current_range_meters":20000,"station_id":"ce4bhh12rcd13ifvqff0","pricing_plan_id":"cebpf4jnsgd1na2vs0mg"},{"bike_id":"af445d04-545e-4008-bf6d-71b2068dfacf","system_id":"levelo_inurba_marseille","lat":43.29896,"lon":5.43654,"is_reserved":false,"is_disabled":false,"rental_uris":{"android":"levelo://app?vid=af445d04-545e-4008-bf6d-71b2068dfacf","ios":"levelo://app?vid=af445d04-545e-4008-bf6d-71b2068dfacf"},"vehicle_type_id":"4","last_reported":1752750661,"current_range_meters":20000,"station_id":"ce4bhpp2rcd13ifvqhfg","pricing_plan_id":"cebpf4jnsgd1na2vs0mg"},{"bike_id":"1f068744-3641-46b7-8b7c-406731632e88","system_id":"levelo_inurba_marseille","lat":43.321009,"lon":5.367574,"is_reserved":false,"is_disabled":false,"rental_uris":{"android":"levelo://app?vid=1f068744-3641-46b7-8b7c-406731632e88","ios":"levelo://app?vid=1f068744-3641-46b7-8b7c-406731632e88"},"vehicle_type_id":"4","last_reported":1752750661,"current_range_meters":20000,"station_id":"ce4bhs12rcd13ifvqhvg","pricing_plan_id":"cebpf4jnsgd1na2vs0mg"},{"bike_id":"99b70883-50af-40a1-b16e-a7592387dc50","system_id":"levelo_inurba_marseille","lat":43.23156,"lon":5.43704,"is_reserved":false,"is_disabled":false,"rental_uris":{"android":"levelo://app?vid=99b70883-50af-40a1-b16e-a7592387dc50","ios":"levelo://app?vid=99b70883-50af-40a1-b16e-a7592387dc50"},"vehicle_type_id":"4","last_reported":1752750661,"current_range_meters":20000,"station_id":"ce4bhmp2rcd13ifvqgog","pricing_plan_id":"cebpf4jnsgd1na2vs0mg"},{"bike_id":"5b461403-59f4-4843-900b-b535512e3a88","system_id":"levelo_inurba_marseille","lat":43.26221,"lon":5.40459,"is_reserved":false,"is_disabled":false,"rental_uris":{"android":"levelo://app?vid=5b461403-59f4-4843-900b-b535512e3a88","ios":"levelo://app?vid=5b461403-59f4-4843-900b-b535512e3a88"},"vehicle_type_id":"4","last_reported":1752750661,"current_range_meters":20000,"station_id":"ce4bhmh2rcd13ifvqgmg","pricing_plan_id":"cebpf4jnsgd1na2vs0mg"},{"bike_id":"a67156ae-789e-45f5-ab3f-ed7d95b24540","system_id":"levelo_inurba_marseille","lat":43.21196,"lon":5.35074,"is_reserved":false,"is_disabled":false,"rental_uris":{"android":"levelo://app?vid=a67156ae-789e-45f5-ab3f-ed7d95b24540","ios":"levelo://app?vid=a67156ae-789e-45f5-ab3f-ed7d95b24540"},"vehicle_type_id":"4","last_reported":1752750661,"current_range_meters":20000,"station_id":"st_cvj6sg6p6f1abm77japg","pricing_plan_id":"cebpf4jnsgd1na2vs0mg"},{"bike_id":"57673fd9-e9a8-4292-9f48-49558084ac5a","system_id":"levelo_inurba_marseille","lat":43.30558,"lon":5.36523,"is_reserved":false,"is_disabled":false,"rental_uris":{"android":"levelo://app?vid=57673fd9-e9a8-4292-9f48-49558084ac5a","ios":"levelo://app?vid=57673fd9-e9a8-4292-9f48-49558084ac5a"},"vehicle_type_id":"4","last_reported":1752750661,"current_range_meters":20000,"station_id":"ce4bgs12rcd13ifvqcag","pricing_plan_id":"cebpf4jnsgd1na2vs0mg"},{"bike_id":"5ac93e7c-286a-4c1e-b6c0-4e9963e5a9f8","system_id":"levelo_inurba_marseille","lat":43.21193,"lon":5.35071,"is_reserved":false,"is_disabled":false,"rental_uris":{"android":"levelo://app?vid=5ac93e7c-286a-4c1e-b6c0-4e9963e5a9f8","ios":"levelo://app?vid=5ac93e7c-286a-4c1e-b6c0-4e9963e5a9f8"},"vehicle_type_id":"4","last_reported":1752750661,"current_range_meters":20000,"station_id":"st_cvj6sg6p6f1abm77japg","pricing_plan_id":"cebpf4jnsgd1na2vs0mg"},{"bike_id":"c83e5866-3057-41c7-b1dc-bfd42f8bcd2a","system_id":"levelo_inurba_marseille","lat":43.23139,"lon":5.43715,"is_reserved":false,"is_disabled":false,"rental_uris":{"android":"levelo://app?vid=c83e5866-3057-41c7-b1dc-bfd42f8bcd2a","ios":"levelo://app?vid=c83e5866-3057-41c7-b1dc-bfd42f8bcd2a"},"vehicle_type_id":"4","last_reported":1752750661,"current_range_meters":20400,"station_id":"ce4bhmp2rcd13ifvqgog","pricing_plan_id":"cebpf4jnsgd1na2vs0mg"},{"bike_id":"2cb7fccb-7512-48d8-b2a9-3f872fa04000","system_id":"levelo_inurba_marseille","lat":43.26035,"lon":5.3755,"is_reserved":false,"is_disabled":false,"rental_uris":{"android":"levelo://app?vid=2cb7fccb-7512-48d8-b2a9-3f872fa04000","ios":"levelo://app?vid=2cb7fccb-7512-48d8-b2a9-3f872fa04000"},"vehicle_type_id":"4","last_reported":1752750661,"current_range_meters":20400,"station_id":"ce4bhgh2rcd13ifvqfa0","pricing_plan_id":"cebpf4jnsgd1na2vs0mg"},{"bike_id":"779b81eb-cc29-443d-84b4-249483187b6b","system_id":"levelo_inurba_marseille","lat":43.30389,"lon":5.42484,"is_reserved":false,"is_disabled":false,"rental_uris":{"android":"levelo://app?vid=779b81eb-cc29-443d-84b4-249483187b6b","ios":"levelo://app?vid=779b81eb-cc29-443d-84b4-249483187b6b"},"vehicle_type_id":"4","last_reported":1752750661,"current_range_meters":20400,"station_id":"ce4bhoh2rcd13ifvqh6g","pricing_plan_id":"cebpf4jnsgd1na2vs0mg"},{"bike_id":"c120b10e-3c54-499a-96f4-fb08d196aabd","system_id":"levelo_inurba_marseille","lat":43.260266,"lon":5.375489,"is_reserved":false,"is_disabled":false,"rental_uris":{"android":"levelo://app?vid=c120b10e-3c54-499a-96f4-fb08d196aabd","ios":"levelo://app?vid=c120b10e-3c54-499a-96f4-fb08d196aabd"},"vehicle_type_id":"4","last_reported":1752750661,"current_range_meters":20400,"station_id":"ce4bh112rcd13ifvqda0","pricing_plan_id":"cebpf4jnsgd1na2vs0mg"},{"bike_id":"8ce9b80c-19c6-4985-81c6-50f285c26740","system_id":"levelo_inurba_marseille","lat":43.2396,"lon":5.36635,"is_reserved":false,"is_disabled":false,"rental_uris":{"android":"levelo://app?vid=8ce9b80c-19c6-4985-81c6-50f285c26740","ios":"levelo://app?vid=8ce9b80c-19c6-4985-81c6-50f285c26740"},"vehicle_type_id":"4","last_reported":1752750661,"current_range_meters":20400,"station_id":"ce4bhi12rcd13ifvqfp0","pricing_plan_id":"cebpf4jnsgd1na2vs0mg"},{"bike_id":"db42604b-c15c-49d3-b62c-7cc2ce8e29c6","system_id":"levelo_inurba_marseille","lat":43.21206,"lon":5.35076,"is_reserved":false,"is_disabled":false,"rental_uris":{"android":"levelo://app?vid=db42604b-c15c-49d3-b62c-7cc2ce8e29c6","ios":"levelo://app?vid=db42604b-c15c-49d3-b62c-7cc2ce8e29c6"},"vehicle_type_id":"4","last_reported":1752750661,"current_range_meters":20400,"station_id":"st_cvj6sg6p6f1abm77japg","pricing_plan_id":"cebpf4jnsgd1na2vs0mg"},{"bike_id":"db7bad39-17ec-4f0b-95ae-0ccbb39420e1","system_id":"levelo_inurba_marseille","lat":43.22507,"lon":5.3479,"is_reserved":false,"is_disabled":false,"rental_uris":{"android":"levelo://app?vid=db7bad39-17ec-4f0b-95ae-0ccbb39420e1","ios":"levelo://app?vid=db7bad39-17ec-4f0b-95ae-0ccbb39420e1"},"vehicle_type_id":"4","last_reported":1752750661,"current_range_meters":20400,"station_id":"st_cvj5dfep6f1abm77gieg","pricing_plan_id":"cebpf4jnsgd1na2vs0mg"},{"bike_id":"03c4e37a-9d44-4a60-b09e-c2fe99e2bf34","system_id":"levelo_inurba_marseille","lat":43.22925,"lon":5.35391,"is_reserved":false,"is_disabled":false,"rental_uris":{"android":"levelo://app?vid=03c4e37a-9d44-4a60-b09e-c2fe99e2bf34","ios":"levelo://app?vid=03c4e37a-9d44-4a60-b09e-c2fe99e2bf34"},"vehicle_type_id":"4","last_reported":1752750661,"current_range_meters":20400,"station_id":"cpo3532slgdg3j2ikp40","pricing_plan_id":"cebpf4jnsgd1na2vs0mg"},{"bike_id":"0c86431a-2813-41f6-b3f9-e154b5869b49","system_id":"levelo_inurba_marseille","lat":43.295203,"lon":5.390421,"is_reserved":false,"is_disabled":false,"rental_uris":{"android":"levelo://app?vid=0c86431a-2813-41f6-b3f9-e154b5869b49","ios":"levelo://app?vid=0c86431a-2813-41f6-b3f9-e154b5869b49"},"vehicle_type_id":"4","last_reported":1752750661,"current_range_meters":20800,"station_id":"ce4bh3p2rcd13ifvqdp0","pricing_plan_id":"cebpf4jnsgd1na2vs0mg"},{"bike_id":"eb5e954c-b3bf-48c3-aa20-b166f84e680c","system_id":"levelo_inurba_marseille","lat":43.28424,"lon":5.35005,"is_reserved":false,"is_disabled":false,"rental_uris":{"android":"levelo://app?vid=eb5e954c-b3bf-48c3-aa20-b166f84e680c","ios":"levelo://app?vid=eb5e954c-b3bf-48c3-aa20-b166f84e680c"},"vehicle_type_id":"4","last_reported":1752750661,"current_range_meters":20800,"station_id":"ce4bhbh2rcd13ifvqepg","pricing_plan_id":"cebpf4jnsgd1na2vs0mg"},{"bike_id":"58cb234b-86ec-4b63-99db-717c732d6291","system_id":"levelo_inurba_marseille","lat":43.31271,"lon":5.3691,"is_reserved":false,"is_disabled":false,"rental_uris":{"android":"levelo://app?vid=58cb234b-86ec-4b63-99db-717c732d6291","ios":"levelo://app?vid=58cb234b-86ec-4b63-99db-717c732d6291"},"vehicle_type_id":"4","last_reported":1752750661,"current_range_meters":20800,"station_id":"ce4bgl92rcd13ifvqbq0","pricing_plan_id":"cebpf4jnsgd1na2vs0mg"},{"bike_id":"2d95b47d-d06f-40a4-bb6e-c13e954e3c8f","system_id":"levelo_inurba_marseille","lat":43.277269,"lon":5.414154,"is_reserved":false,"is_disabled":false,"rental_uris":{"android":"levelo://app?vid=2d95b47d-d06f-40a4-bb6e-c13e954e3c8f","ios":"levelo://app?vid=2d95b47d-d06f-40a4-bb6e-c13e954e3c8f"},"vehicle_type_id":"4","last_reported":1752750661,"current_range_meters":20800,"station_id":"","pricing_plan_id":"cebpf4jnsgd1na2vs0mg"},{"bike_id":"882748a5-a9cb-4dfc-b341-7bb04154b2ba","system_id":"levelo_inurba_marseille","lat":43.28424,"lon":5.34999,"is_reserved":false,"is_disabled":false,"rental_uris":{"android":"levelo://app?vid=882748a5-a9cb-4dfc-b341-7bb04154b2ba","ios":"levelo://app?vid=882748a5-a9cb-4dfc-b341-7bb04154b2ba"},"vehicle_type_id":"4","last_reported":1752750661,"current_range_meters":20800,"station_id":"ce4bhbh2rcd13ifvqepg","pricing_plan_id":"cebpf4jnsgd1na2vs0mg"},{"bike_id":"7ba3cc2c-151f-40c1-852d-35fd2112b52c","system_id":"levelo_inurba_marseille","lat":43.28366,"lon":5.34973,"is_reserved":false,"is_disabled":false,"rental_uris":{"android":"levelo://app?vid=7ba3cc2c-151f-40c1-852d-35fd2112b52c","ios":"levelo://app?vid=7ba3cc2c-151f-40c1-852d-35fd2112b52c"},"vehicle_type_id":"4","last_reported":1752750661,"current_range_meters":20800,"station_id":"","pricing_plan_id":"cebpf4jnsgd1na2vs0mg"},{"bike_id":"d6d17411-0526-45dc-841f-3cde305afeae","system_id":"levelo_inurba_marseille","lat":43.21746,"lon":5.34605,"is_reserved":false,"is_disabled":false,"rental_uris":{"android":"levelo://app?vid=d6d17411-0526-45dc-841f-3cde305afeae","ios":"levelo://app?vid=d6d17411-0526-45dc-841f-3cde305afeae"},"vehicle_type_id":"4","last_reported":1752750661,"current_range_meters":20800,"station_id":"st_cvj6r9ubvosntc0bgbag","pricing_plan_id":"cebpf4jnsgd1na2vs0mg"},{"bike_id":"6373db89-ac85-47e1-92a5-266e5877b5e1","system_id":"levelo_inurba_marseille","lat":43.26216,"lon":5.37443,"is_reserved":false,"is_disabled":false,"rental_uris":{"android":"levelo://app?vid=6373db89-ac85-47e1-92a5-266e5877b5e1","ios":"levelo://app?vid=6373db89-ac85-47e1-92a5-266e5877b5e1"},"vehicle_type_id":"4","last_reported":1752750661,"current_range_meters":20800,"station_id":"ce4bhgp2rcd13ifvqfc0","pricing_plan_id":"cebpf4jnsgd1na2vs0mg"},{"bike_id":"0d7c5887-4138-45ac-a82f-ecdcf0e505a0","system_id":"levelo_inurba_marseille","lat":43.27314,"lon":5.39103,"is_reserved":false,"is_disabled":false,"rental_uris":{"android":"levelo://app?vid=0d7c5887-4138-45ac-a82f-ecdcf0e505a0","ios":"levelo://app?vid=0d7c5887-4138-45ac-a82f-ecdcf0e505a0"},"vehicle_type_id":"4","last_reported":1752750661,"current_range_meters":20800,"station_id":"ce4bhgp2rcd13ifvqfe0","pricing_plan_id":"cebpf4jnsgd1na2vs0mg"},{"bike_id":"6aedfde6-0202-4139-983e-bc85be747f50","system_id":"levelo_inurba_marseille","lat":43.31373,"lon":5.38491,"is_reserved":false,"is_disabled":false,"rental_uris":{"android":"levelo://app?vid=6aedfde6-0202-4139-983e-bc85be747f50","ios":"levelo://app?vid=6aedfde6-0202-4139-983e-bc85be747f50"},"vehicle_type_id":"4","last_reported":1752750661,"current_range_meters":20800,"station_id":"ce4bgt92rcd13ifvqcf0","pricing_plan_id":"cebpf4jnsgd1na2vs0mg"},{"bike_id":"edd0079d-996b-4ae3-9a31-d781f3a059ec","system_id":"levelo_inurba_marseille","lat":43.33786,"lon":5.37426,"is_reserved":false,"is_disabled":false,"rental_uris":{"android":"levelo://app?vid=edd0079d-996b-4ae3-9a31-d781f3a059ec","ios":"levelo://app?vid=edd0079d-996b-4ae3-9a31-d781f3a059ec"},"vehicle_type_id":"4","last_reported":1752750661,"current_range_meters":20800,"station_id":"","pricing_plan_id":"cebpf4jnsgd1na2vs0mg"},{"bike_id":"d191c7f3-2e74-4030-a032-8d36459907d3","system_id":"levelo_inurba_marseille","lat":43.321108,"lon":5.367862,"is_reserved":false,"is_disabled":false,"rental_uris":{"android":"levelo://app?vid=d191c7f3-2e74-4030-a032-8d36459907d3","ios":"levelo://app?vid=d191c7f3-2e74-4030-a032-8d36459907d3"},"vehicle_type_id":"4","last_reported":1752750661,"current_range_meters":20800,"station_id":"ce4bhrh2rcd13ifvqhug","pricing_plan_id":"cebpf4jnsgd1na2vs0mg"},{"bike_id":"31c4eac7-2736-44d4-9d14-0c8b88dcddc8","system_id":"levelo_inurba_marseille","lat":43.3414,"lon":5.40907,"is_reserved":false,"is_disabled":false,"rental_uris":{"android":"levelo://app?vid=31c4eac7-2736-44d4-9d14-0c8b88dcddc8","ios":"levelo://app?vid=31c4eac7-2736-44d4-9d14-0c8b88dcddc8"},"vehicle_type_id":"4","last_reported":1752750661,"current_range_meters":20800,"station_id":"ce4bhqh2rcd13ifvqhlg","pricing_plan_id":"cebpf4jnsgd1na2vs0mg"},{"bike_id":"ffa2ee83-2cef-4aab-92df-68c776cd54ff","system_id":"levelo_inurba_marseille","lat":43.23966,"lon":5.36632,"is_reserved":false,"is_disabled":false,"rental_uris":{"android":"levelo://app?vid=ffa2ee83-2cef-4aab-92df-68c776cd54ff","ios":"levelo://app?vid=ffa2ee83-2cef-4aab-92df-68c776cd54ff"},"vehicle_type_id":"4","last_reported":1752750661,"current_range_meters":20800,"station_id":"ce4bhi12rcd13ifvqfp0","pricing_plan_id":"cebpf4jnsgd1na2vs0mg"},{"bike_id":"7d11b2f6-67d9-4d1a-8f35-4103f3161280","system_id":"levelo_inurba_marseille","lat":43.21171,"lon":5.35042,"is_reserved":false,"is_disabled":false,"rental_uris":{"android":"levelo://app?vid=7d11b2f6-67d9-4d1a-8f35-4103f3161280","ios":"levelo://app?vid=7d11b2f6-67d9-4d1a-8f35-4103f3161280"},"vehicle_type_id":"4","last_reported":1752750661,"current_range_meters":21600,"station_id":"st_cvj6sg6p6f1abm77japg","pricing_plan_id":"cebpf4jnsgd1na2vs0mg"},{"bike_id":"1d9bf584-41ef-4bf3-aa4f-c2cce8d3727b","system_id":"levelo_inurba_marseille","lat":43.22511,"lon":5.34792,"is_reserved":false,"is_disabled":true,"rental_uris":{"android":"levelo://app?vid=1d9bf584-41ef-4bf3-aa4f-c2cce8d3727b","ios":"levelo://app?vid=1d9bf584-41ef-4bf3-aa4f-c2cce8d3727b"},"vehicle_type_id":"4","last_reported":1752750661,"current_range_meters":21600,"station_id":"st_cvj5dfep6f1abm77gieg","pricing_plan_id":"cebpf4jnsgd1na2vs0mg"},{"bike_id":"5f609dac-09f6-4f7d-905f-6338275679f0","system_id":"levelo_inurba_marseille","lat":43.303774,"lon":5.424802,"is_reserved":false,"is_disabled":false,"rental_uris":{"android":"levelo://app?vid=5f609dac-09f6-4f7d-905f-6338275679f0","ios":"levelo://app?vid=5f609dac-09f6-4f7d-905f-6338275679f0"},"vehicle_type_id":"4","last_reported":1752750661,"current_range_meters":21600,"station_id":"ce4bhoh2rcd13ifvqh6g","pricing_plan_id":"cebpf4jnsgd1na2vs0mg"},{"bike_id":"961a5764-b2c5-4e2e-b413-c1ab45046205","system_id":"levelo_inurba_marseille","lat":43.27823,"lon":5.40732,"is_reserved":false,"is_disabled":false,"rental_uris":{"android":"levelo://app?vid=961a5764-b2c5-4e2e-b413-c1ab45046205","ios":"levelo://app?vid=961a5764-b2c5-4e2e-b413-c1ab45046205"},"vehicle_type_id":"4","last_reported":1752750661,"current_range_meters":21600,"station_id":"ce4bhnh2rcd13ifvqgtg","pricing_plan_id":"cebpf4jnsgd1na2vs0mg"},{"bike_id":"40b359b4-dcfd-4e24-8acf-75dc38a0e2f9","system_id":"levelo_inurba_marseille","lat":43.29622,"lon":5.37733,"is_reserved":false,"is_disabled":false,"rental_uris":{"android":"levelo://app?vid=40b359b4-dcfd-4e24-8acf-75dc38a0e2f9","ios":"levelo://app?vid=40b359b4-dcfd-4e24-8acf-75dc38a0e2f9"},"vehicle_type_id":"4","last_reported":1752750661,"current_range_meters":21600,"station_id":"ce4bgi92rcd13ifvqb90","pricing_plan_id":"cebpf4jnsgd1na2vs0mg"},{"bike_id":"11a2abac-c0b2-48ac-9ab7-e1f00ef4221a","system_id":"levelo_inurba_marseille","lat":43.31328,"lon":5.39704,"is_reserved":false,"is_disabled":false,"rental_uris":{"android":"levelo://app?vid=11a2abac-c0b2-48ac-9ab7-e1f00ef4221a","ios":"levelo://app?vid=11a2abac-c0b2-48ac-9ab7-e1f00ef4221a"},"vehicle_type_id":"4","last_reported":1752750661,"current_range_meters":21600,"station_id":"ce4bgvp2rcd13ifvqcu0","pricing_plan_id":"cebpf4jnsgd1na2vs0mg"},{"bike_id":"e9f01f51-20a0-401d-8aa7-b7a1f05785b8","system_id":"levelo_inurba_marseille","lat":43.29721,"lon":5.37692,"is_reserved":false,"is_disabled":false,"rental_uris":{"android":"levelo://app?vid=e9f01f51-20a0-401d-8aa7-b7a1f05785b8","ios":"levelo://app?vid=e9f01f51-20a0-401d-8aa7-b7a1f05785b8"},"vehicle_type_id":"4","last_reported":1752750661,"current_range_meters":21600,"station_id":"ce4bgkh2rcd13ifvqbl0","pricing_plan_id":"cebpf4jnsgd1na2vs0mg"},{"bike_id":"3bdf3143-5e48-4e69-aa4c-0592150f56aa","system_id":"levelo_inurba_marseille","lat":43.26209,"lon":5.37451,"is_reserved":false,"is_disabled":false,"rental_uris":{"android":"levelo://app?vid=3bdf3143-5e48-4e69-aa4c-0592150f56aa","ios":"levelo://app?vid=3bdf3143-5e48-4e69-aa4c-0592150f56aa"},"vehicle_type_id":"4","last_reported":1752750661,"current_range_meters":21600,"station_id":"ce4bhgp2rcd13ifvqfc0","pricing_plan_id":"cebpf4jnsgd1na2vs0mg"},{"bike_id":"c53239fc-1f4a-46d3-81e2-8d290a31fb48","system_id":"levelo_inurba_marseille","lat":43.282659,"lon":5.350644,"is_reserved":false,"is_disabled":false,"rental_uris":{"android":"levelo://app?vid=c53239fc-1f4a-46d3-81e2-8d290a31fb48","ios":"levelo://app?vid=c53239fc-1f4a-46d3-81e2-8d290a31fb48"},"vehicle_type_id":"4","last_reported":1752750661,"current_range_meters":21600,"station_id":"ce4bhbp2rcd13ifvqerg","pricing_plan_id":"cebpf4jnsgd1na2vs0mg"},{"bike_id":"35a8eee0-2b3a-4797-9171-3866797422fc","system_id":"levelo_inurba_marseille","lat":43.29544,"lon":5.38279,"is_reserved":false,"is_disabled":false,"rental_uris":{"android":"levelo://app?vid=35a8eee0-2b3a-4797-9171-3866797422fc","ios":"levelo://app?vid=35a8eee0-2b3a-4797-9171-3866797422fc"},"vehicle_type_id":"4","last_reported":1752750661,"current_range_meters":22000,"station_id":"","pricing_plan_id":"cebpf4jnsgd1na2vs0mg"},{"bike_id":"3de45b2f-21aa-4727-93ed-b2ad96437f6a","system_id":"levelo_inurba_marseille","lat":43.3014,"lon":5.38779,"is_reserved":false,"is_disabled":false,"rental_uris":{"android":"levelo://app?vid=3de45b2f-21aa-4727-93ed-b2ad96437f6a","ios":"levelo://app?vid=3de45b2f-21aa-4727-93ed-b2ad96437f6a"},"vehicle_type_id":"4","last_reported":1752750661,"current_range_meters":22000,"station_id":"ce4bghh2rcd13ifvqb60","pricing_plan_id":"cebpf4jnsgd1na2vs0mg"},{"bike_id":"15132693-3a99-490b-880f-0da7b4e30151","system_id":"levelo_inurba_marseille","lat":43.28618,"lon":5.35103,"is_reserved":false,"is_disabled":false,"rental_uris":{"android":"levelo://app?vid=15132693-3a99-490b-880f-0da7b4e30151","ios":"levelo://app?vid=15132693-3a99-490b-880f-0da7b4e30151"},"vehicle_type_id":"4","last_reported":1752750661,"current_range_meters":22000,"station_id":"ce4bhch2rcd13ifvqeug","pricing_plan_id":"cebpf4jnsgd1na2vs0mg"},{"bike_id":"4a393357-85f1-4ac0-b532-c150d504a5ea","system_id":"levelo_inurba_marseille","lat":43.30131,"lon":5.38797,"is_reserved":false,"is_disabled":false,"rental_uris":{"android":"levelo://app?vid=4a393357-85f1-4ac0-b532-c150d504a5ea","ios":"levelo://app?vid=4a393357-85f1-4ac0-b532-c150d504a5ea"},"vehicle_type_id":"4","last_reported":1752750661,"current_range_meters":22000,"station_id":"ce4bghh2rcd13ifvqb60","pricing_plan_id":"cebpf4jnsgd1na2vs0mg"},{"bike_id":"a7547bfa-1996-4ac7-a3a2-02439a2d46de","system_id":"levelo_inurba_marseille","lat":43.236892,"lon":5.362916,"is_reserved":false,"is_disabled":false,"rental_uris":{"android":"levelo://app?vid=a7547bfa-1996-4ac7-a3a2-02439a2d46de","ios":"levelo://app?vid=a7547bfa-1996-4ac7-a3a2-02439a2d46de"},"vehicle_type_id":"4","last_reported":1752750661,"current_range_meters":22000,"station_id":"ce4bhu92rcd13ifvqi70","pricing_plan_id":"cebpf4jnsgd1na2vs0mg"},{"bike_id":"84969107-3755-4946-8a38-aa077ae91a8c","system_id":"levelo_inurba_marseille","lat":43.241707,"lon":5.363901,"is_reserved":false,"is_disabled":false,"rental_uris":{"android":"levelo://app?vid=84969107-3755-4946-8a38-aa077ae91a8c","ios":"levelo://app?vid=84969107-3755-4946-8a38-aa077ae91a8c"},"vehicle_type_id":"4","last_reported":1752750661,"current_range_meters":22000,"station_id":"cpo36qri1sfpv3e86is0","pricing_plan_id":"cebpf4jnsgd1na2vs0mg"},{"bike_id":"edb73f21-9a02-410f-8e43-8c48238ade62","system_id":"levelo_inurba_marseille","lat":43.299774,"lon":5.384835,"is_reserved":false,"is_disabled":false,"rental_uris":{"android":"levelo://app?vid=edb73f21-9a02-410f-8e43-8c48238ade62","ios":"levelo://app?vid=edb73f21-9a02-410f-8e43-8c48238ade62"},"vehicle_type_id":"4","last_reported":1752750661,"current_range_meters":22000,"station_id":"ce4bgj92rcd13ifvqbd0","pricing_plan_id":"cebpf4jnsgd1na2vs0mg"},