{"last_updated":1687529225,"ttl":30,"version":"2.2","data":{"bikes":[{"bike_id":"ce26079f-05ab-447a-931c-7b8101319b77","system_id":"levelo_inurba_marseille","lat":43.31348,"lon":5.36727,"is_reserved":false,"is_disabled":false,"rental_uris":{"android":"levelo://app?vid=ce26079f-05ab-447a-931c-7b8101319b77","ios":"levelo://app?vid=ce26079f-05ab-447a-931c-7b8101319b77"},"vehicle_type_id":"4","last_reported":1687529227,"current_range_meters":23200,"station_id":"","pricing_plan_id":"free"},{"bike_id":"a35fc6b3-fc8c-43d3-9107-0ba25954e0cb","system_id":"levelo_inurba_marseille","lat":43.31227,"lon":5.36845,"is_reserved":false,"is_disabled":false,"rental_uris":{"android":"levelo://app?vid=a35fc6b3-fc8c-43d3-9107-0ba25954e0cb","ios":"levelo://app?vid=a35fc6b3-fc8c-43d3-9107-0ba25954e0cb"},"vehicle_type_id":"4","last_reported":1687529227,"current_range_meters":24400,"station_id":"ce4bgl92rcd13ifvqbq0","pricing_plan_id":"free"},{"bike_id":"19c15d37-2070-4ad4-9bee-0151f526a4c4","system_id":"levelo_inurba_marseille","lat":43.309076,"lon":5.368465,"is_reserved":false,"is_disabled":false,"rental_uris":{"android":"levelo://app?vid=19c15d37-2070-4ad4-9bee-0151f526a4c4","ios":"levelo://app?vid=19c15d37-2070-4ad4-9bee-0151f526a4c4"},"vehicle_type_id":"4","last_reported":1687529227,"current_range_meters":31200,"station_id":"ce4bgn92rcd13ifvqbvg","pricing_plan_id":"free"},{"bike_id":"27d7b8d7-4f53-4bcf-b8a6-8a15f09e2c21","system_id":"levelo_inurba_marseille","lat":43.309076,"lon":5.368465,"is_reserved":false,"is_disabled":false,"rental_uris":{"android":"levelo://app?vid=27d7b8d7-4f53-4bcf-b8a6-8a15f09e2c21","ios":"levelo://app?vid=27d7b8d7-4f53-4bcf-b8a6-8a15f09e2c21"},"vehicle_type_id":"4","last_reported":1687529227,"current_range_meters":31200,"station_id":"ce4bgn92rcd13ifvqbvg","pricing_plan_id":"free"},{"bike_id":"c1af4713-9952-4663-9526-a0e0d366522e","system_id":"levelo_inurba_marseille","lat":43.309076,"lon":5.368465,"is_reserved":false,"is_disabled":false,"rental_uris":{"android":"levelo://app?vid=c1af4713-9952-4663-9526-a0e0d366522e","ios":"levelo://app?vid=c1af4713-9952-4663-9526-a0e0d366522e"},"vehicle_type_id":"4","last_reported":1687529227,"current_range_meters":31200,"station_id":"ce4bgn92rcd13ifvqbvg","pricing_plan_id":"free"},{"bike_id":"f7153d4d-c9ab-4b80-b611-9407b4938e36","system_id":"levelo_inurba_marseille","lat":43.314811,"lon":5.373103,"is_reserved":false,"is_disabled":false,"rental_uris":{"android":"levelo://app?vid=f7153d4d-c9ab-4b80-b611-9407b4938e36","ios":"levelo://app?vid=f7153d4d-c9ab-4b80-b611-9407b4938e36"},"vehicle_type_id":"4","last_reported":1687529227,"current_range_meters":6400,"station_id":"ce4bgt12rcd13ifvqcd0","pricing_plan_id":"free"},{"bike_id":"f61a9fbe-5e3a-4f0e-a4f2-bb3a86261bfa","system_id":"levelo_inurba_marseille","lat":43.305368,"lon":5.367343,"is_reserved":false,"is_disabled":false,"rental_uris":{"android":"levelo://app?vid=f61a9fbe-5e3a-4f0e-a4f2-bb3a86261bfa","ios":"levelo://app?vid=f61a9fbe-5e3a-4f0e-a4f2-bb3a86261bfa"},"vehicle_type_id":"4","last_reported":1687529227,"current_range_meters":24400,"station_id":"ce4bgrp2rcd13ifvqc9g","pricing_plan_id":"free"},{"bike_id":"990ba7c5-a935-4b56-acbc-dfce77a2d54b","system_id":"levelo_inurba_marseille","lat":43.30533,"lon":5.36556,"is_reserved":false,"is_disabled":false,"rental_uris":{"android":"levelo://app?vid=990ba7c5-a935-4b56-acbc-dfce77a2d54b","ios":"levelo://app?vid=990ba7c5-a935-4b56-acbc-dfce77a2d54b"},"vehicle_type_id":"4","last_reported":1687529227,"current_range_meters":12400,"station_id":"ce4bgs12rcd13ifvqcag","pricing_plan_id":"free"},{"bike_id":"a8c781a6-9f86-4492-8b37-61496382872b","system_id":"levelo_inurba_marseille","lat":43.305989,"lon":5.37225,"is_reserved":false,"is_disabled":false,"rental_uris":{"android":"levelo://app?vid=a8c781a6-9f86-4492-8b37-61496382872b","ios":"levelo://app?vid=a8c781a6-9f86-4492-8b37-61496382872b"},"vehicle_type_id":"4","last_reported":1687529227,"current_range_meters":0,"station_id":"ce4bgqh2rcd13ifvqc4g","pricing_plan_id":"free"},{"bike_id":"7bfd47d2-3b4b-4a01-b942-d076f7bf3dd5","system_id":"levelo_inurba_marseille","lat":43.305989,"lon":5.37225,"is_reserved":false,"is_disabled":false,"rental_uris":{"android":"levelo://app?vid=7bfd47d2-3b4b-4a01-b942-d076f7bf3dd5","ios":"levelo://app?vid=7bfd47d2-3b4b-4a01-b942-d076f7bf3dd5"},"vehicle_type_id":"4","last_reported":1687529227,"current_range_meters":25600,"station_id":"ce4bgqh2rcd13ifvqc4g","pricing_plan_id":"free"},{"bike_id":"2ec449bb-5138-4a3c-a8c7-9447352476d5","system_id":"levelo_inurba_marseille","lat":43.311131,"lon":5.377651,"is_reserved":false,"is_disabled":false,"rental_uris":{"android":"levelo://app?vid=2ec449bb-5138-4a3c-a8c7-9447352476d5","ios":"levelo://app?vid=2ec449bb-5138-4a3c-a8c7-9447352476d5"},"vehicle_type_id":"4","last_reported":1687529227,"current_range_meters":1200,"station_id":"ce4bgt92rcd13ifvqcg0","pricing_plan_id":"free"},{"bike_id":"e4058e9a-76be-4f3a-ae99-a15b54d3aa87","system_id":"levelo_inurba_marseille","lat":43.30304,"lon":5.368987,"is_reserved":false,"is_disabled":false,"rental_uris":{"android":"levelo://app?vid=e4058e9a-76be-4f3a-ae99-a15b54d3aa87","ios":"levelo://app?vid=e4058e9a-76be-4f3a-ae99-a15b54d3aa87"},"vehicle_type_id":"4","last_reported":1687529227,"current_range_meters":26400,"station_id":"ce4bgqh2rcd13ifvqc5g","pricing_plan_id":"free"},{"bike_id":"0177fa91-17d7-4a25-bff5-a952a0208a25","system_id":"levelo_inurba_marseille","lat":43.30294,"lon":5.36878,"is_reserved":false,"is_disabled":false,"rental_uris":{"android":"levelo://app?vid=0177fa91-17d7-4a25-bff5-a952a0208a25","ios":"levelo://app?vid=0177fa91-17d7-4a25-bff5-a952a0208a25"},"vehicle_type_id":"4","last_reported":1687529227,"current_range_meters":25200,"station_id":"ce4bgqh2rcd13ifvqc5g","pricing_plan_id":"free"},{"bike_id":"7333842c-3fe4-432e-8cfc-b6ce4f0247a5","system_id":"levelo_inurba_marseille","lat":43.30235,"lon":5.36794,"is_reserved":false,"is_disabled":false,"rental_uris":{"android":"levelo://app?vid=7333842c-3fe4-432e-8cfc-b6ce4f0247a5","ios":"levelo://app?vid=7333842c-3fe4-432e-8cfc-b6ce4f0247a5"},"vehicle_type_id":"4","last_reported":1687529227,"current_range_meters":0,"station_id":"","pricing_plan_id":"free"},{"bike_id":"c98c824a-5a21-41d7-a2b3-cfad705b7985","system_id":"levelo_inurba_marseille","lat":43.292642,"lon":5.384254,"is_reserved":false,"is_disabled":false,"rental_uris":{"android":"levelo://app?vid=c98c824a-5a21-41d7-a2b3-cfad705b7985","ios":"levelo://app?vid=c98c824a-5a21-41d7-a2b3-cfad705b7985"},"vehicle_type_id":"4","last_reported":1687529227,"current_range_meters":0,"station_id":"ce4bh692rcd13ifvqea0","pricing_plan_id":"free"},{"bike_id":"88e88efb-9aa5-49cc-8875-9621ed10cee1","system_id":"levelo_inurba_marseille","lat":43.304606,"lon":5.379026,"is_reserved":false,"is_disabled":false,"rental_uris":{"android":"levelo://app?vid=88e88efb-9aa5-49cc-8875-9621ed10cee1","ios":"levelo://app?vid=88e88efb-9aa5-49cc-8875-9621ed10cee1"},"vehicle_type_id":"4","last_reported":1687529227,"current_range_meters":18400,"station_id":"ce4bgup2rcd13ifvqcn0","pricing_plan_id":"free"},{"bike_id":"2c4d38b7-0a21-46cf-8f22-71d77c9c8420","system_id":"levelo_inurba_marseille","lat":43.319935,"lon":5.381699,"is_reserved":false,"is_disabled":false,"rental_uris":{"android":"levelo://app?vid=2c4d38b7-0a21-46cf-8f22-71d77c9c8420","ios":"levelo://app?vid=2c4d38b7-0a21-46cf-8f22-71d77c9c8420"},"vehicle_type_id":"4","last_reported":1687529227,"current_range_meters":24000,"station_id":"ce4bhr12rcd13ifvqhpg","pricing_plan_id":"free"},{"bike_id":"0b03bed2-85b6-43ba-8a36-33c78d25df6b","system_id":"levelo_inurba_marseille","lat":43.30671,"lon":5.38262,"is_reserved":false,"is_disabled":false,"rental_uris":{"android":"levelo://app?vid=0b03bed2-85b6-43ba-8a36-33c78d25df6b","ios":"levelo://app?vid=0b03bed2-85b6-43ba-8a36-33c78d25df6b"},"vehicle_type_id":"4","last_reported":1687529227,"current_range_meters":29200,"station_id":"","pricing_plan_id":"free"},{"bike_id":"6b223b64-ebb3-41a6-b822-6cb0a161d32d","system_id":"levelo_inurba_marseille","lat":43.319935,"lon":5.381699,"is_reserved":false,"is_disabled":false,"rental_uris":{"android":"levelo://app?vid=6b223b64-ebb3-41a6-b822-6cb0a161d32d","ios":"levelo://app?vid=6b223b64-ebb3-41a6-b822-6cb0a161d32d"},"vehicle_type_id":"4","last_reported":1687529227,"current_range_meters":19200,"station_id":"ce4bhr12rcd13ifvqhpg","pricing_plan_id":"free"},{"bike_id":"970cd444-e583-4527-b819-9cfa5733f07c","system_id":"levelo_inurba_marseille","lat":43.319935,"lon":5.381699,"is_reserved":false,"is_disabled":false,"rental_uris":{"android":"levelo://app?vid=970cd444-e583-4527-b819-9cfa5733f07c","ios":"levelo://app?vid=970cd444-e583-4527-b819-9cfa5733f07c"},"vehicle_type_id":"4","last_reported":1687529227,"current_range_meters":26000,"station_id":"ce4bhr12rcd13ifvqhpg","pricing_plan_id":"free"},{"bike_id":"cc7ccaed-aeac-4fb6-a249-e3eec1cb8751","system_id":"levelo_inurba_marseille","lat":43.32224,"lon":5.37911,"is_reserved":false,"is_disabled":false,"rental_uris":{"android":"levelo://app?vid=cc7ccaed-aeac-4fb6-a249-e3eec1cb8751","ios":"levelo://app?vid=cc7ccaed-aeac-4fb6-a249-e3eec1cb8751"},"vehicle_type_id":"4","last_reported":1687529227,"current_range_meters":27200,"station_id":"","pricing_plan_id":"free"},{"bike_id":"36524b29-e4e4-4b8c-a6d6-c0cefd4225e6","system_id":"levelo_inurba_marseille","lat":43.3137,"lon":5.38513,"is_reserved":false,"is_disabled":false,"rental_uris":{"android":"levelo://app?vid=36524b29-e4e4-4b8c-a6d6-c0cefd4225e6","ios":"levelo://app?vid=36524b29-e4e4-4b8c-a6d6-c0cefd4225e6"},"vehicle_type_id":"4","last_reported":1687529227,"current_range_meters":28000,"station_id":"","pricing_plan_id":"free"},{"bike_id":"94796ca0-a760-45cb-9eb2-fe600d934b23","system_id":"levelo_inurba_marseille","lat":43.299222,"lon":5.365554,"is_reserved":false,"is_disabled":false,"rental_uris":{"android":"levelo://app?vid=94796ca0-a760-45cb-9eb2-fe600d934b23","ios":"levelo://app?vid=94796ca0-a760-45cb-9eb2-fe600d934b23"},"vehicle_type_id":"4","last_reported":1687529227,"current_range_meters":30800,"station_id":"ce4bgm92rcd13ifvqbr0","pricing_plan_id":"free"},{"bike_id":"5fe51217-7aca-4599-a058-8446b9e47b13","system_id":"levelo_inurba_marseille","lat":43.29938,"lon":5.36529,"is_reserved":false,"is_disabled":false,"rental_uris":{"android":"levelo://app?vid=5fe51217-7aca-4599-a058-8446b9e47b13","ios":"levelo://app?vid=5fe51217-7aca-4599-a058-8446b9e47b13"},"vehicle_type_id":"4","last_reported":1687529227,"current_range_meters":9600,"station_id":"ce4bgm92rcd13ifvqbr0","pricing_plan_id":"free"},{"bike_id":"7281b72a-70f0-4b2d-85a6-32baa78662d8","system_id":"levelo_inurba_marseille","lat":43.299222,"lon":5.365554,"is_reserved":false,"is_disabled":false,"rental_uris":{"android":"levelo://app?vid=7281b72a-70f0-4b2d-85a6-32baa78662d8","ios":"levelo://app?vid=7281b72a-70f0-4b2d-85a6-32baa78662d8"},"vehicle_type_id":"4","last_reported":1687529227,"current_range_meters":26000,"station_id":"ce4bgm92rcd13ifvqbr0","pricing_plan_id":"free"},{"bike_id":"249f3a92-b855-40b2-a47e-c79ddb144970","system_id":"levelo_inurba_marseille","lat":43.299222,"lon":5.365554,"is_reserved":false,"is_disabled":false,"rental_uris":{"android":"levelo://app?vid=249f3a92-b855-40b2-a47e-c79ddb144970","ios":"levelo://app?vid=249f3a92-b855-40b2-a47e-c79ddb144970"},"vehicle_type_id":"4","last_reported":1687529227,"current_range_meters":28800,"station_id":"ce4bgm92rcd13ifvqbr0","pricing_plan_id":"free"},{"bike_id":"89f2fc3a-f86b-453f-92b5-8532e896f254","system_id":"levelo_inurba_marseille","lat":43.298433,"lon":5.362774,"is_reserved":false,"is_disabled":false,"rental_uris":{"android":"levelo://app?vid=89f2fc3a-f86b-453f-92b5-8532e896f254","ios":"levelo://app?vid=89f2fc3a-f86b-453f-92b5-8532e896f254"},"vehicle_type_id":"4","last_reported":1687529227,"current_range_meters":19600,"station_id":"ce4bgpp2rcd13ifvqc3g","pricing_plan_id":"free"},{"bike_id":"4e7495f9-16af-4ee3-b219-c26eab12e98e","system_id":"levelo_inurba_marseille","lat":43.298433,"lon":5.362774,"is_reserved":false,"is_disabled":false,"rental_uris":{"android":"levelo://app?vid=4e7495f9-16af-4ee3-b219-c26eab12e98e","ios":"levelo://app?vid=4e7495f9-16af-4ee3-b219-c26eab12e98e"},"vehicle_type_id":"4","last_reported":1687529227,"current_range_meters":31200,"station_id":"ce4bgpp2rcd13ifvqc3g","pricing_plan_id":"free"},{"bike_id":"77c2edef-a27b-45a4-b05c-c3926eea7a6f","system_id":"levelo_inurba_marseille","lat":43.30538,"lon":5.38423,"is_reserved":false,"is_disabled":false,"rental_uris":{"android":"levelo://app?vid=77c2edef-a27b-45a4-b05c-c3926eea7a6f","ios":"levelo://app?vid=77c2edef-a27b-45a4-b05c-c3926eea7a6f"},"vehicle_type_id":"4","last_reported":1687529227,"current_range_meters":10000,"station_id":"ce4bgg92rcd13ifvqb30","pricing_plan_id":"free"},{"bike_id":"e22d91bc-5f0e-456a-9f39-93d50d1461eb","system_id":"levelo_inurba_marseille","lat":43.298433,"lon":5.362774,"is_reserved":false,"is_disabled":false,"rental_uris":{"android":"levelo://app?vid=e22d91bc-5f0e-456a-9f39-93d50d1461eb","ios":"levelo://app?vid=e22d91bc-5f0e-456a-9f39-93d50d1461eb"},"vehicle_type_id":"4","last_reported":1687529227,"current_range_meters":23600,"station_id":"ce4bgpp2rcd13ifvqc3g","pricing_plan_id":"free"},{"bike_id":"daee3697-f4e8-4ace-b9e5-fd0e62b7d3cf","system_id":"levelo_inurba_marseille","lat":43.298433,"lon":5.362774,"is_reserved":false,"is_disabled":false,"rental_uris":{"android":"levelo://app?vid=daee3697-f4e8-4ace-b9e5-fd0e62b7d3cf","ios":"levelo://app?vid=daee3697-f4e8-4ace-b9e5-fd0e62b7d3cf"},"vehicle_type_id":"4","last_reported":1687529227,"current_range_meters":31200,"station_id":"ce4bgpp2rcd13ifvqc3g","pricing_plan_id":"free"},{"bike_id":"8926140c-b1ff-4a43-949f-3711fb8c2f53","system_id":"levelo_inurba_marseille","lat":43.29842,"lon":5.36263,"is_reserved":false,"is_disabled":false,"rental_uris":{"android":"levelo://app?vid=8926140c-b1ff-4a43-949f-3711fb8c2f53","ios":"levelo://app?vid=8926140c-b1ff-4a43-949f-3711fb8c2f53"},"vehicle_type_id":"4","last_reported":1687529227,"current_range_meters":31200,"station_id":"ce4bgpp2rcd13ifvqc3g","pricing_plan_id":"free"},{"bike_id":"034ad213-2d9d-4e98-a1bf-ca3d06865951","system_id":"levelo_inurba_marseille","lat":43.29841,"lon":5.36264,"is_reserved":false,"is_disabled":false,"rental_uris":{"android":"levelo://app?vid=034ad213-2d9d-4e98-a1bf-ca3d06865951","ios":"levelo://app?vid=034ad213-2d9d-4e98-a1bf-ca3d06865951"},"vehicle_type_id":"4","last_reported":1687529227,"current_range_meters":23600,"station_id":"ce4bgpp2rcd13ifvqc3g","pricing_plan_id":"free"},{"bike_id":"87bcdb89-84eb-4abd-82d8-6cb4e62fd6c3","system_id":"levelo_inurba_marseille","lat":43.29839,"lon":5.36263,"is_reserved":false,"is_disabled":false,"rental_uris":{"android":"levelo://app?vid=87bcdb89-84eb-4abd-82d8-6cb4e62fd6c3","ios":"levelo://app?vid=87bcdb89-84eb-4abd-82d8-6cb4e62fd6c3"},"vehicle_type_id":"4","last_reported":1687529227,"current_range_meters":18800,"station_id":"ce4bgpp2rcd13ifvqc3g","pricing_plan_id":"free"},{"bike_id":"8b79f336-2662-40f7-8921-ae84c83cb4a5","system_id":"levelo_inurba_marseille","lat":43.29839,"lon":5.36261,"is_reserved":false,"is_disabled":false,"rental_uris":{"android":"levelo://app?vid=8b79f336-2662-40f7-8921-ae84c83cb4a5","ios":"levelo://app?vid=8b79f336-2662-40f7-8921-ae84c83cb4a5"},"vehicle_type_id":"4","last_reported":1687529227,"current_range_meters":31200,"station_id":"ce4bgpp2rcd13ifvqc3g","pricing_plan_id":"free"},{"bike_id":"9e24d311-db25-46a4-b565-d03b152abf67","system_id":"levelo_inurba_marseille","lat":43.29839,"lon":5.36256,"is_reserved":false,"is_disabled":false,"rental_uris":{"android":"levelo://app?vid=9e24d311-db25-46a4-b565-d03b152abf67","ios":"levelo://app?vid=9e24d311-db25-46a4-b565-d03b152abf67"},"vehicle_type_id":"4","last_reported":1687529227,"current_range_meters":12000,"station_id":"ce4bgpp2rcd13ifvqc3g","pricing_plan_id":"free"},{"bike_id":"1e0736d2-0ba7-4299-bad7-03ddb0d462b4","system_id":"levelo_inurba_marseille","lat":43.298433,"lon":5.362774,"is_reserved":false,"is_disabled":false,"rental_uris":{"android":"levelo://app?vid=1e0736d2-0ba7-4299-bad7-03ddb0d462b4","ios":"levelo://app?vid=1e0736d2-0ba7-4299-bad7-03ddb0d462b4"},"vehicle_type_id":"4","last_reported":1687529227,"current_range_meters":31600,"station_id":"ce4bgpp2rcd13ifvqc3g","pricing_plan_id":"free"},{"bike_id":"8ca2a6e2-deba-4f82-a5c0-43dcf1811432","system_id":"levelo_inurba_marseille","lat":43.29835,"lon":5.36265,"is_reserved":false,"is_disabled":false,"rental_uris":{"android":"levelo://app?vid=8ca2a6e2-deba-4f82-a5c0-43dcf1811432","ios":"levelo://app?vid=8ca2a6e2-deba-4f82-a5c0-43dcf1811432"},"vehicle_type_id":"4","last_reported":1687529227,"current_range_meters":25200,"station_id":"ce4bgpp2rcd13ifvqc3g","pricing_plan_id":"free"},{"bike_id":"ef5b0099-3e29-493b-b215-04e3b14e60ee","system_id":"levelo_inurba_marseille","lat":43.298433,"lon":5.362774,"is_reserved":false,"is_disabled":false,"rental_uris":{"android":"levelo://app?vid=ef5b0099-3e29-493b-b215-04e3b14e60ee","ios":"levelo://app?vid=ef5b0099-3e29-493b-b215-04e3b14e60ee"},"vehicle_type_id":"4","last_reported":1687529227,"current_range_meters":31200,"station_id":"ce4bgpp2rcd13ifvqc3g","pricing_plan_id":"free"},{"bike_id":"62734ba8-d0f4-47ed-b765-84704c168f16","system_id":"levelo_inurba_marseille","lat":43.29835,"lon":5.36257,"is_reserved":false,"is_disabled":false,"rental_uris":{"android":"levelo://app?vid=62734ba8-d0f4-47ed-b765-84704c168f16","ios":"levelo://app?vid=62734ba8-d0f4-47ed-b765-84704c168f16"},"vehicle_type_id":"4","last_reported":1687529227,"current_range_meters":31200,"station_id":"ce4bgpp2rcd13ifvqc3g","pricing_plan_id":"free"},{"bike_id":"8e1e6b17-fb7c-4fa0-86b9-a74100d9eddf","system_id":"levelo_inurba_marseille","lat":43.299243,"lon":5.37481,"is_reserved":false,"is_disabled":false,"rental_uris":{"android":"levelo://app?vid=8e1e6b17-fb7c-4fa0-86b9-a74100d9eddf","ios":"levelo://app?vid=8e1e6b17-fb7c-4fa0-86b9-a74100d9eddf"},"vehicle_type_id":"4","last_reported":1687529227,"current_range_meters":19200,"station_id":"ce4bgjh2rcd13ifvqbg0","pricing_plan_id":"free"},{"bike_id":"1d796190-3da8-4139-8a0d-8bf47be42cfd","system_id":"levelo_inurba_marseille","lat":43.311722,"lon":5.387247,"is_reserved":false,"is_disabled":false,"rental_uris":{"android":"levelo://app?vid=1d796190-3da8-4139-8a0d-8bf47be42cfd","ios":"levelo://app?vid=1d796190-3da8-4139-8a0d-8bf47be42cfd"},"vehicle_type_id":"4","last_reported":1687529227,"current_range_meters":22800,"station_id":"ce4bgv12rcd13ifvqcp0","pricing_plan_id":"free"},{"bike_id":"89356c3b-c048-405f-8c10-f326b177c936","system_id":"levelo_inurba_marseille","lat":43.311722,"lon":5.387247,"is_reserved":false,"is_disabled":false,"rental_uris":{"android":"levelo://app?vid=89356c3b-c048-405f-8c10-f326b177c936","ios":"levelo://app?vid=89356c3b-c048-405f-8c10-f326b177c936"},"vehicle_type_id":"4","last_reported":1687529227,"current_range_meters":30000,"station_id":"ce4bgv12rcd13ifvqcp0","pricing_plan_id":"free"},{"bike_id":"2fc12dbc-90a8-4e4f-83be-18b2315385a4","system_id":"levelo_inurba_marseille","lat":43.29781,"lon":5.37098,"is_reserved":false,"is_disabled":false,"rental_uris":{"android":"levelo://app?vid=2fc12dbc-90a8-4e4f-83be-18b2315385a4","ios":"levelo://app?vid=2fc12dbc-90a8-4e4f-83be-18b2315385a4"},"vehicle_type_id":"4","last_reported":1687529227,"current_range_meters":24400,"station_id":"ce4bgop2rcd13ifvqc1g","pricing_plan_id":"free"},{"bike_id":"0ced3d16-9da6-477b-8a57-5f8348ffff5a","system_id":"levelo_inurba_marseille","lat":43.328371,"lon":5.366909,"is_reserved":false,"is_disabled":false,"rental_uris":{"android":"levelo://app?vid=0ced3d16-9da6-477b-8a57-5f8348ffff5a","ios":"levelo://app?vid=0ced3d16-9da6-477b-8a57-5f8348ffff5a"},"vehicle_type_id":"4","last_reported":1687529227,"current_range_meters":0,"station_id":"ce4bhs92rcd13ifvqi0g","pricing_plan_id":"free"},{"bike_id":"f29725c6-87c0-4998-96d6-7b7afbecb764","system_id":"levelo_inurba_marseille","lat":43.328371,"lon":5.366909,"is_reserved":false,"is_disabled":false,"rental_uris":{"android":"levelo://app?vid=f29725c6-87c0-4998-96d6-7b7afbecb764","ios":"levelo://app?vid=f29725c6-87c0-4998-96d6-7b7afbecb764"},"vehicle_type_id":"4","last_reported":1687529227,"current_range_meters":400,"station_id":"ce4bhs92rcd13ifvqi0g","pricing_plan_id":"free"},{"bike_id":"32007623-af1f-4b13-99da-1a105ea60890","system_id":"levelo_inurba_marseille","lat":43.32826,"lon":5.36685,"is_reserved":false,"is_disabled":false,"rental_uris":{"android":"levelo://app?vid=32007623-af1f-4b13-99da-1a105ea60890","ios":"levelo://app?vid=32007623-af1f-4b13-99da-1a105ea60890"},"vehicle_type_id":"4","last_reported":1687529227,"current_range_meters":29200,"station_id":"ce4bhs92rcd13ifvqi0g","pricing_plan_id":"free"},{"bike_id":"41235149-f42e-4673-9d1a-055ac92c3df6","system_id":"levelo_inurba_marseille","lat":43.32828,"lon":5.36683,"is_reserved":false,"is_disabled":false,"rental_uris":{"android":"levelo://app?vid=41235149-f42e-4673-9d1a-055ac92c3df6","ios":"levelo://app?vid=41235149-f42e-4673-9d1a-055ac92c3df6"},"vehicle_type_id":"4","last_reported":1687529227,"current_range_meters":25200,"station_id":"ce4bhs92rcd13ifvqi0g","pricing_plan_id":"free"},{"bike_id":"5d51e653-08d9-4997-947d-6ff278245dc1","system_id":"levelo_inurba_marseille","lat":43.328371,"lon":5.366909,"is_reserved":false,"is_disabled":false,"rental_uris":{"android":"levelo://app?vid=5d51e653-08d9-4997-947d-6ff278245dc1","ios":"levelo://app?vid=5d51e653-08d9-4997-947d-6ff278245dc1"},"vehicle_type_id":"4","last_reported":1687529227,"current_range_meters":4000,"station_id":"ce4bhs92rcd13ifvqi0g","pricing_plan_id":"free"},{"bike_id":"193fecc8-c08a-4daa-b971-220f52284d74","system_id":"levelo_inurba_marseille","lat":43.297163,"lon":5.365866,"is_reserved":false,"is_disabled":false,"rental_uris":{"android":"levelo://app?vid=193fecc8-c08a-4daa-b971-220f52284d74","ios":"levelo://app?vid=193fecc8-c08a-4daa-b971-220f52284d74"},"vehicle_type_id":"4","last_reported":1687529227,"current_range_meters":10800,"station_id":"ce4bgn12rcd13ifvqbt0","pricing_plan_id":"free"},{"bike_id":"c7b68411-77ee-40b4-9e54-c6a3e70a52f0","system_id":"levelo_inurba_marseille","lat":43.297163,"lon":5.365866,"is_reserved":false,"is_disabled":false,"rental_uris":{"android":"levelo://app?vid=c7b68411-77ee-40b4-9e54-c6a3e70a52f0","ios":"levelo://app?vid=c7b68411-77ee-40b4-9e54-c6a3e70a52f0"},"vehicle_type_id":"4","last_reported":1687529227,"current_range_meters":7600,"station_id":"ce4bgn12rcd13ifvqbt0","pricing_plan_id":"free"},{"bike_id":"d3319c22-50a6-42fc-846d-5b75a3100886","system_id":"levelo_inurba_marseille","lat":43.297163,"lon":5.365866,"is_reserved":false,"is_disabled":false,"rental_uris":{"android":"levelo://app?vid=d3319c22-50a6-42fc-846d-5b75a3100886","ios":"levelo://app?vid=d3319c22-50a6-42fc-846d-5b75a3100886"},"vehicle_type_id":"4","last_reported":1687529227,"current_range_meters":23200,"station_id":"ce4bgn12rcd13ifvqbt0","pricing_plan_id":"free"},{"bike_id":"54773b37-16ac-405e-9266-b1be1fc27fe0","system_id":"levelo_inurba_marseille","lat":43.297163,"lon":5.365866,"is_reserved":false,"is_disabled":false,"rental_uris":{"android":"levelo://app?vid=54773b37-16ac-405e-9266-b1be1fc27fe0","ios":"levelo://app?vid=54773b37-16ac-405e-9266-b1be1fc27fe0"},"vehicle_type_id":"4","last_reported":1687529227,"current_range_meters":14000,"station_id":"ce4bgn12rcd13ifvqbt0","pricing_plan_id":"free"},{"bike_id":"d6aa4b8f-0fbd-492f-a726-f1b64033634e","system_id":"levelo_inurba_marseille","lat":43.2971,"lon":5.36405,"is_reserved":false,"is_disabled":false,"rental_uris":{"android":"levelo://app?vid=d6aa4b8f-0fbd-492f-a726-f1b64033634e","ios":"levelo://app?vid=d6aa4b8f-0fbd-492f-a726-f1b64033634e"},"vehicle_type_id":"4","last_reported":1687529227,"current_range_meters":10400,"station_id":"","pricing_plan_id":"free"},{"bike_id":"5c28ccdd-c863-480e-a4bd-87f96adadfb2","system_id":"levelo_inurba_marseille","lat":43.296131,"lon":5.370773,"is_reserved":false,"is_disabled":false,"rental_uris":{"android":"levelo://app?vid=5c28ccdd-c863-480e-a4bd-87f96adadfb2","ios":"levelo://app?vid=5c28ccdd-c863-480e-a4bd-87f96adadfb2"},"vehicle_type_id":"4","last_reported":1687529227,"current_range_meters":24400,"station_id":"ce4bgnh2rcd13ifvqc0g","pricing_plan_id":"free"},{"bike_id":"fabb4977-ea95-4a85-b910-b7f35cae8bc4","system_id":"levelo_inurba_marseille","lat":43.29573,"lon":5.367355,"is_reserved":false,"is_disabled":false,"rental_uris":{"android":"levelo://app?vid=fabb4977-ea95-4a85-b910-b7f35cae8bc4","ios":"levelo://app?vid=fabb4977-ea95-4a85-b910-b7f35cae8bc4"},"vehicle_type_id":"4","last_reported":1687529227,"current_range_meters":29600,"station_id":"ce4bgph2rcd13ifvqc2g","pricing_plan_id":"free"},{"bike_id":"225647a9-8ec8-4fe3-b4e9-05fe8add5cad","system_id":"levelo_inurba_marseille","lat":43.29573,"lon":5.367355,"is_reserved":false,"is_disabled":false,"rental_uris":{"android":"levelo://app?vid=225647a9-8ec8-4fe3-b4e9-05fe8add5cad","ios":"levelo://app?vid=225647a9-8ec8-4fe3-b4e9-05fe8add5cad"},"vehicle_type_id":"4","last_reported":1687529227,"current_range_meters":23600,"station_id":"ce4bgph2rcd13ifvqc2g","pricing_plan_id":"free"},{"bike_id":"8e6ba5a7-b251-4c7b-99c5-3e2933e829d4","system_id":"levelo_inurba_marseille","lat":43.29573,"lon":5.367355,"is_reserved":false,"is_disabled":false,"rental_uris":{"android":"levelo://app?vid=8e6ba5a7-b251-4c7b-99c5-3e2933e829d4","ios":"levelo://app?vid=8e6ba5a7-b251-4c7b-99c5-3e2933e829d4"},"vehicle_type_id":"4","last_reported":1687529227,"current_range_meters":25200,"station_id":"ce4bgph2rcd13ifvqc2g","pricing_plan_id":"free"},{"bike_id":"5a2d9721-99fd-4e82-a3f6-ec1273f3df65","system_id":"levelo_inurba_marseille","lat":43.29573,"lon":5.367355,"is_reserved":false,"is_disabled":false,"rental_uris":{"android":"levelo://app?vid=5a2d9721-99fd-4e82-a3f6-ec1273f3df65","ios":"levelo://app?vid=5a2d9721-99fd-4e82-a3f6-ec1273f3df65"},"vehicle_type_id":"4","last_reported":1687529227,"current_range_meters":31200,"station_id":"ce4bgph2rcd13ifvqc2g","pricing_plan_id":"free"},{"bike_id":"4ff84b52-2373-4558-b3b4-e20444ea3c16","system_id":"levelo_inurba_marseille","lat":43.295753,"lon":5.367385,"is_reserved":false,"is_disabled":false,"rental_uris":{"android":"levelo://app?vid=4ff84b52-2373-4558-b3b4-e20444ea3c16","ios":"levelo://app?vid=4ff84b52-2373-4558-b3b4-e20444ea3c16"},"vehicle_type_id":"4","last_reported":1687529227,"current_range_meters":29600,"station_id":"ce4bgph2rcd13ifvqc2g","pricing_plan_id":"free"},{"bike_id":"6a63ec13-ff4b-4265-b74f-ad2de793e01d","system_id":"levelo_inurba_marseille","lat":43.296921,"lon":5.376579,"is_reserved":false,"is_disabled":false,"rental_uris":{"android":"levelo://app?vid=6a63ec13-ff4b-4265-b74f-ad2de793e01d","ios":"levelo://app?vid=6a63ec13-ff4b-4265-b74f-ad2de793e01d"},"vehicle_type_id":"4","last_reported":1687529227,"current_range_meters":0,"station_id":"ce4bgkh2rcd13ifvqbl0","pricing_plan_id":"free"},{"bike_id":"6a81c4e3-0249-407e-be28-7b9cf2053c06","system_id":"levelo_inurba_marseille","lat":43.296921,"lon":5.376579,"is_reserved":false,"is_disabled":false,"rental_uris":{"android":"levelo://app?vid=6a81c4e3-0249-407e-be28-7b9cf2053c06","ios":"levelo://app?vid=6a81c4e3-0249-407e-be28-7b9cf2053c06"},"vehicle_type_id":"4","last_reported":1687529227,"current_range_meters":1200,"station_id":"ce4bgkh2rcd13ifvqbl0","pricing_plan_id":"free"},{"bike_id":"041bc147-ef2f-419b-bb81-deca3bdf89e2","system_id":"levelo_inurba_marseille","lat":43.29611,"lon":5.36046,"is_reserved":false,"is_disabled":false,"rental_uris":{"android":"levelo://app?vid=041bc147-ef2f-419b-bb81-deca3bdf89e2","ios":"levelo://app?vid=041bc147-ef2f-419b-bb81-deca3bdf89e2"},"vehicle_type_id":"4","last_reported":1687529227,"current_range_meters":10400,"station_id":"","pricing_plan_id":"free"},{"bike_id":"be1bb187-9550-4aee-bfc3-a3858a6eac00","system_id":"levelo_inurba_marseille","lat":43.299028,"lon":5.381509,"is_reserved":false,"is_disabled":false,"rental_uris":{"android":"levelo://app?vid=be1bb187-9550-4aee-bfc3-a3858a6eac00","ios":"levelo://app?vid=be1bb187-9550-4aee-bfc3-a3858a6eac00"},"vehicle_type_id":"4","last_reported":1687529227,"current_range_meters":20000,"station_id":"ce4bgj12rcd13ifvqbc0","pricing_plan_id":"free"},{"bike_id":"9c46eda4-ce28-4132-a992-9b4bc94941ea","system_id":"levelo_inurba_marseille","lat":43.31757,"lon":5.39016,"is_reserved":false,"is_disabled":false,"rental_uris":{"android":"levelo://app?vid=9c46eda4-ce28-4132-a992-9b4bc94941ea","ios":"levelo://app?vid=9c46eda4-ce28-4132-a992-9b4bc94941ea"},"vehicle_type_id":"4","last_reported":1687529227,"current_range_meters":21200,"station_id":"ce4bhqp2rcd13ifvqhng","pricing_plan_id":"free"},{"bike_id":"a26b3693-5eee-4958-8ca8-8a69361289e6","system_id":"levelo_inurba_marseille","lat":43.317557,"lon":5.390173,"is_reserved":false,"is_disabled":false,"rental_uris":{"android":"levelo://app?vid=a26b3693-5eee-4958-8ca8-8a69361289e6","ios":"levelo://app?vid=a26b3693-5eee-4958-8ca8-8a69361289e6"},"vehicle_type_id":"4","last_reported":1687529227,"current_range_meters":27200,"station_id":"ce4bhqp2rcd13ifvqhng","pricing_plan_id":"free"},{"bike_id":"039e2417-326e-48e9-87cd-8895cb0620b8","system_id":"levelo_inurba_marseille","lat":43.317557,"lon":5.390173,"is_reserved":false,"is_disabled":false,"rental_uris":{"android":"levelo://app?vid=039e2417-326e-48e9-87cd-8895cb0620b8","ios":"levelo://app?vid=039e2417-326e-48e9-87cd-8895cb0620b8"},"vehicle_type_id":"4","last_reported":1687529227,"current_range_meters":18000,"station_id":"ce4bhqp2rcd13ifvqhng","pricing_plan_id":"free"},{"bike_id":"3c512352-c649-4d84-8868-fd3a8bfe1120","system_id":"levelo_inurba_marseille","lat":43.317557,"lon":5.390173,"is_reserved":false,"is_disabled":false,"rental_uris":{"android":"levelo://app?vid=3c512352-c649-4d84-8868-fd3a8bfe1120","ios":"levelo://app?vid=3c512352-c649-4d84-8868-fd3a8bfe1120"},"vehicle_type_id":"4","last_reported":1687529227,"current_range_meters":14800,"station_id":"ce4bhqp2rcd13ifvqhng","pricing_plan_id":"free"},{"bike_id":"44497f41-8213-47b0-a042-80551d58a28a","system_id":"levelo_inurba_marseille","lat":43.304274,"lon":5.388873,"is_reserved":false,"is_disabled":false,"rental_uris":{"android":"levelo://app?vid=44497f41-8213-47b0-a042-80551d58a28a","ios":"levelo://app?vid=44497f41-8213-47b0-a042-80551d58a28a"},"vehicle_type_id":"4","last_reported":1687529227,"current_range_meters":2400,"station_id":"ce4bgk12rcd13ifvqbi0","pricing_plan_id":"free"},{"bike_id":"43e08823-7375-4c34-a7de-0d5578d64a57","system_id":"levelo_inurba_marseille","lat":43.29572,"lon":5.37523,"is_reserved":false,"is_disabled":false,"rental_uris":{"android":"levelo://app?vid=43e08823-7375-4c34-a7de-0d5578d64a57","ios":"levelo://app?vid=43e08823-7375-4c34-a7de-0d5578d64a57"},"vehicle_type_id":"4","last_reported":1687529227,"current_range_meters":14400,"station_id":"ce4bgh92rcd13ifvqb50","pricing_plan_id":"free"},{"bike_id":"078152dd-c1f5-40a7-aaaf-2d39b9619533","system_id":"levelo_inurba_marseille","lat":43.304274,"lon":5.388873,"is_reserved":false,"is_disabled":false,"rental_uris":{"android":"levelo://app?vid=078152dd-c1f5-40a7-aaaf-2d39b9619533","ios":"levelo://app?vid=078152dd-c1f5-40a7-aaaf-2d39b9619533"},"vehicle_type_id":"4","last_reported":1687529227,"current_range_meters":19600,"station_id":"ce4bgk12rcd13ifvqbi0","pricing_plan_id":"free"},{"bike_id":"116c9489-b3ec-4cf1-a474-d05fda5d57d1","system_id":"levelo_inurba_marseille","lat":43.296277,"lon":5.377108,"is_reserved":false,"is_disabled":false,"rental_uris":{"android":"levelo://app?vid=116c9489-b3ec-4cf1-a474-d05fda5d57d1","ios":"levelo://app?vid=116c9489-b3ec-4cf1-a474-d05fda5d57d1"},"vehicle_type_id":"4","last_reported":1687529227,"current_range_meters":400,"station_id":"ce4bgi92rcd13ifvqb90","pricing_plan_id":"free"},{"bike_id":"2c488022-f8f7-469a-ae51-762f6578fd6c","system_id":"levelo_inurba_marseille","lat":43.295279,"lon":5.375048,"is_reserved":false,"is_disabled":false,"rental_uris":{"android":"levelo://app?vid=2c488022-f8f7-469a-ae51-762f6578fd6c","ios":"levelo://app?vid=2c488022-f8f7-469a-ae51-762f6578fd6c"},"vehicle_type_id":"4","last_reported":1687529227,"current_range_meters":21600,"station_id":"ce4bgkp2rcd13ifvqbmg","pricing_plan_id":"free"},{"bike_id":"91ec5b65-a4ec-44ba-b1a3-e15c171188ec","system_id":"levelo_inurba_marseille","lat":43.295279,"lon":5.375048,"is_reserved":false,"is_disabled":false,"rental_uris":{"android":"levelo://app?vid=91ec5b65-a4ec-44ba-b1a3-e15c171188ec","ios":"levelo://app?vid=91ec5b65-a4ec-44ba-b1a3-e15c171188ec"},"vehicle_type_id":"4","last_reported":1687529227,"current_range_meters":2000,"station_id":"ce4bgkp2rcd13ifvqbmg","pricing_plan_id":"free"},{"bike_id":"e5e081aa-af39-43ee-8e18-c2491cb5b49b","system_id":"levelo_inurba_marseille","lat":43.29314,"lon":5.3717,"is_reserved":false,"is_disabled":false,"rental_uris":{"android":"levelo://app?vid=e5e081aa-af39-43ee-8e18-c2491cb5b49b","ios":"levelo://app?vid=e5e081aa-af39-43ee-8e18-c2491cb5b49b"},"vehicle_type_id":"4","last_reported":1687529227,"current_range_meters":0,"station_id":"ce4bgh92rcd13ifvqb40","pricing_plan_id":"free"},{"bike_id":"a0fbe48e-32aa-4957-afe4-4d7549bce9c0","system_id":"levelo_inurba_marseille","lat":43.29309,"lon":5.37176,"is_reserved":false,"is_disabled":false,"rental_uris":{"android":"levelo://app?vid=a0fbe48e-32aa-4957-afe4-4d7549bce9c0","ios":"levelo://app?vid=a0fbe48e-32aa-4957-afe4-4d7549bce9c0"},"vehicle_type_id":"4","last_reported":1687529227,"current_range_meters":18800,"station_id":"ce4bgh92rcd13ifvqb40","pricing_plan_id":"free"},{"bike_id":"e53e6589-730b-489d-983c-1bffe1ed2f6c","system_id":"levelo_inurba_marseille","lat":43.292749,"lon":5.368398,"is_reserved":false,"is_disabled":false,"rental_uris":{"android":"levelo://app?vid=e53e6589-730b-489d-983c-1bffe1ed2f6c","ios":"levelo://app?vid=e53e6589-730b-489d-983c-1bffe1ed2f6c"},"vehicle_type_id":"4","last_reported":1687529227,"current_range_meters":13600,"station_id":"ce4bhbp2rcd13ifvqesg","pricing_plan_id":"free"},{"bike_id":"3bee8113-ebfb-43c0-ade5-302eaab4b438","system_id":"levelo_inurba_marseille","lat":43.303002,"lon":5.392142,"is_reserved":false,"is_disabled":false,"rental_uris":{"android":"levelo://app?vid=3bee8113-ebfb-43c0-ade5-302eaab4b438","ios":"levelo://app?vid=3bee8113-ebfb-43c0-ade5-302eaab4b438"},"vehicle_type_id":"4","last_reported":1687529227,"current_range_meters":30400,"station_id":"ce4bgkh2rcd13ifvqbk0","pricing_plan_id":"free"},{"bike_id":"ca3d865f-ce8f-42da-874c-d76344399105","system_id":"levelo_inurba_marseille","lat":43.303002,"lon":5.392142,"is_reserved":false,"is_disabled":false,"rental_uris":{"android":"levelo://app?vid=ca3d865f-ce8f-42da-874c-d76344399105","ios":"levelo://app?vid=ca3d865f-ce8f-42da-874c-d76344399105"},"vehicle_type_id":"4","last_reported":1687529227,"current_range_meters":30800,"station_id":"ce4bgkh2rcd13ifvqbk0","pricing_plan_id":"free"},{"bike_id":"e5864815-d797-4b0f-9b36-7bd0660baafb","system_id":"levelo_inurba_marseille","lat":43.3031,"lon":5.39217,"is_reserved":false,"is_disabled":false,"rental_uris":{"android":"levelo://app?vid=e5864815-d797-4b0f-9b36-7bd0660baafb","ios":"levelo://app?vid=e5864815-d797-4b0f-9b36-7bd0660baafb"},"vehicle_type_id":"4","last_reported":1687529227,"current_range_meters":14400,"station_id":"ce4bgkh2rcd13ifvqbk0","pricing_plan_id":"free"},{"bike_id":"86ecea65-cbe6-42b4-8a44-ddbbdc64c6f5","system_id":"levelo_inurba_marseille","lat":43.303002,"lon":5.392142,"is_reserved":false,"is_disabled":false,"rental_uris":{"android":"levelo://app?vid=86ecea65-cbe6-42b4-8a44-ddbbdc64c6f5","ios":"levelo://app?vid=86ecea65-cbe6-42b4-8a44-ddbbdc64c6f5"},"vehicle_type_id":"4","last_reported":1687529227,"current_range_meters":15600,"station_id":"ce4bgkh2rcd13ifvqbk0","pricing_plan_id":"free"},{"bike_id":"1cfa28c8-7ca1-4018-8c03-283b416b84ca","system_id":"levelo_inurba_marseille","lat":43.302992,"lon":5.392136,"is_reserved":false,"is_disabled":false,"rental_uris":{"android":"levelo://app?vid=1cfa28c8-7ca1-4018-8c03-283b416b84ca","ios":"levelo://app?vid=1cfa28c8-7ca1-4018-8c03-283b416b84ca"},"vehicle_type_id":"4","last_reported":1687529227,"current_range_meters":10000,"station_id":"ce4bgkh2rcd13ifvqbk0","pricing_plan_id":"free"},{"bike_id":"1301a3d4-c310-44c0-9da6-54c30923fb93","system_id":"levelo_inurba_marseille","lat":43.302992,"lon":5.392136,"is_reserved":false,"is_disabled":false,"rental_uris":{"android":"levelo://app?vid=1301a3d4-c310-44c0-9da6-54c30923fb93","ios":"levelo://app?vid=1301a3d4-c310-44c0-9da6-54c30923fb93"},"vehicle_type_id":"4","last_reported":1687529227,"current_range_meters":20400,"station_id":"ce4bgkh2rcd13ifvqbk0","pricing_plan_id":"free"},{"bike_id":"2962c5c8-ec51-4a3b-bc56-31b241bd04e6","system_id":"levelo_inurba_marseille","lat":43.302992,"lon":5.392136,"is_reserved":false,"is_disabled":false,"rental_uris":{"android":"levelo://app?vid=2962c5c8-ec51-4a3b-bc56-31b241bd04e6","ios":"levelo://app?vid=2962c5c8-ec51-4a3b-bc56-31b241bd04e6"},"vehicle_type_id":"4","last_reported":1687529227,"current_range_meters":24800,"station_id":"ce4bgkh2rcd13ifvqbk0","pricing_plan_id":"free"},{"bike_id":"7b6c3f69-8242-4ddb-a949-bc57d15fa908","system_id":"levelo_inurba_marseille","lat":43.302992,"lon":5.392136,"is_reserved":false,"is_disabled":false,"rental_uris":{"android":"levelo://app?vid=7b6c3f69-8242-4ddb-a949-bc57d15fa908","ios":"levelo://app?vid=7b6c3f69-8242-4ddb-a949-bc57d15fa908"},"vehicle_type_id":"4","last_reported":1687529227,"current_range_meters":30800,"station_id":"ce4bgkh2rcd13ifvqbk0","pricing_plan_id":"free"},{"bike_id":"53e58073-519b-4f8d-96ad-f7b95459428f","system_id":"levelo_inurba_marseille","lat":43.29264,"lon":5.3596,"is_reserved":false,"is_disabled":false,"rental_uris":{"android":"levelo://app?vid=53e58073-519b-4f8d-96ad-f7b95459428f","ios":"levelo://app?vid=53e58073-519b-4f8d-96ad-f7b95459428f"},"vehicle_type_id":"4","last_reported":1687529227,"current_range_meters":8400,"station_id":"","pricing_plan_id":"free"},{"bike_id":"afb27a20-7f12-4df8-9950-1ed10d7290fd","system_id":"levelo_inurba_marseille","lat":43.302992,"lon":5.392136,"is_reserved":false,"is_disabled":false,"rental_uris":{"android":"levelo://app?vid=afb27a20-7f12-4df8-9950-1ed10d7290fd","ios":"levelo://app?vid=afb27a20-7f12-4df8-9950-1ed10d7290fd"},"vehicle_type_id":"4","last_reported":1687529227,"current_range_meters":6800,"station_id":"ce4bgkh2rcd13ifvqbk0","pricing_plan_id":"free"},{"bike_id":"a8dc5e45-a0a0-45e5-a5a8-a62a5081f76d","system_id":"levelo_inurba_marseille","lat":43.303002,"lon":5.392142,"is_reserved":false,"is_disabled":false,"rental_uris":{"android":"levelo://app?vid=a8dc5e45-a0a0-45e5-a5a8-a62a5081f76d","ios":"levelo://app?vid=a8dc5e45-a0a0-45e5-a5a8-a62a5081f76d"},"vehicle_type_id":"4","last_reported":1687529227,"current_range_meters":28400,"station_id":"ce4bgkh2rcd13ifvqbk0","pricing_plan_id":"free"},{"bike_id":"8d9f9786-5c16-44dd-bcbd-14e64e5c2ee9","system_id":"levelo_inurba_marseille","lat":43.302992,"lon":5.392136,"is_reserved":false,"is_disabled":false,"rental_uris":{"android":"levelo://app?vid=8d9f9786-5c16-44dd-bcbd-14e64e5c2ee9","ios":"levelo://app?vid=8d9f9786-5c16-44dd-bcbd-14e64e5c2ee9"},"vehicle_type_id":"4","last_reported":1687529227,"current_range_meters":31600,"station_id":"ce4bgkh2rcd13ifvqbk0","pricing_plan_id":"free"},{"bike_id":"9aa50d3a-994c-400c-bcaa-40176da3a05a","system_id":"levelo_inurba_marseille","lat":43.302992,"lon":5.392136,"is_reserved":false,"is_disabled":false,"rental_uris":{"android":"levelo://app?vid=9aa50d3a-994c-400c-bcaa-40176da3a05a","ios":"levelo://app?vid=9aa50d3a-994c-400c-bcaa-40176da3a05a"},"vehicle_type_id":"4","last_reported":1687529227,"current_range_meters":31600,"station_id":"ce4bgkh2rcd13ifvqbk0","pricing_plan_id":"free"},{"bike_id":"5214282a-e11d-4082-bb73-3cd42c4c36bb","system_id":"levelo_inurba_marseille","lat":43.300933,"lon":5.390719,"is_reserved":false,"is_disabled":false,"rental_uris":{"android":"levelo://app?vid=5214282a-e11d-4082-bb73-3cd42c4c36bb","ios":"levelo://app?vid=5214282a-e11d-4082-bb73-3cd42c4c36bb"},"vehicle_type_id":"4","last_reported":1687529227,"current_range_meters":24000,"station_id":"ce4bgup2rcd13ifvqcn0","pricing_plan_id":"free"},{"bike_id":"a74e59cb-5f53-4afa-a776-fd2683a58438","system_id":"levelo_inurba_marseille","lat":43.302992,"lon":5.392136,"is_reserved":false,"is_disabled":false,"rental_uris":{"android":"levelo://app?vid=a74e59cb-5f53-4afa-a776-fd2683a58438","ios":"levelo://app?vid=a74e59cb-5f53-4afa-a776-fd2683a58438"},"vehicle_type_id":"4","last_reported":1687529227,"current_range_meters":31200,"station_id":"ce4bgkh2rcd13ifvqbk0","pricing_plan_id":"free"},{"bike_id":"04921f8c-f537-4428-9f36-e585cb1cc287","system_id":"levelo_inurba_marseille","lat":43.292663,"lon":5.376394,"is_reserved":false,"is_disabled":false,"rental_uris":{"android":"levelo://app?vid=04921f8c-f537-4428-9f36-e585cb1cc287","ios":"levelo://app?vid=04921f8c-f537-4428-9f36-e585cb1cc287"},"vehicle_type_id":"4","last_reported":1687529227,"current_range_meters":31200,"station_id":"ce4bgi12rcd13ifvqb80","pricing_plan_id":"free"},{"bike_id":"1cc68428-45ea-40d7-898e-2a318a2f0777","system_id":"levelo_inurba_marseille","lat":43.29169,"lon":5.37145,"is_reserved":false,"is_disabled":false,"rental_uris":{"android":"levelo://app?vid=1cc68428-45ea-40d7-898e-2a318a2f0777","ios":"levelo://app?vid=1cc68428-45ea-40d7-898e-2a318a2f0777"},"vehicle_type_id":"4","last_reported":1687529227,"current_range_meters":20800,"station_id":"ce4bha92rcd13ifvqeh0","pricing_plan_id":"free"},{"bike_id":"e0860018-6239-45de-9178-760c062ddd6e","system_id":"levelo_inurba_marseille","lat":43.291675,"lon":5.371583,"is_reserved":false,"is_disabled":false,"rental_uris":{"android":"levelo://app?vid=e0860018-6239-45de-9178-760c062ddd6e","ios":"levelo://app?vid=e0860018-6239-45de-9178-760c062ddd6e"},"vehicle_type_id":"4","last_reported":1687529227,"current_range_meters":30400,"station_id":"ce4bha92rcd13ifvqeh0","pricing_plan_id":"free"},{"bike_id":"c0a094f3-00f3-4ab3-8d58-fcc44670f81b","system_id":"levelo_inurba_marseille","lat":43.298764,"lon":5.388973,"is_reserved":false,"is_disabled":false,"rental_uris":{"android":"levelo://app?vid=c0a094f3-00f3-4ab3-8d58-fcc44670f81b","ios":"levelo://app?vid=c0a094f3-00f3-4ab3-8d58-fcc44670f81b"},"vehicle_type_id":"4","last_reported":1687529227,"current_range_meters":3600,"station_id":"ce4bh392rcd13ifvqdl0","pricing_plan_id":"free"},{"bike_id":"a20d4e66-7d7b-40ec-832d-a818367ce529","system_id":"levelo_inurba_marseille","lat":43.291671,"lon":5.371575,"is_reserved":false,"is_disabled":false,"rental_uris":{"android":"levelo://app?vid=a20d4e66-7d7b-40ec-832d-a818367ce529","ios":"levelo://app?vid=a20d4e66-7d7b-40ec-832d-a818367ce529"},"vehicle_type_id":"4","last_reported":1687529227,"current_range_meters":12000,"station_id":"ce4bha92rcd13ifvqeh0","pricing_plan_id":"free"},{"bike_id":"54fda2f9-7b1a-4838-9b70-087d4101d0ae","system_id":"levelo_inurba_marseille","lat":43.33248,"lon":5.37937,"is_reserved":false,"is_disabled":false,"rental_uris":{"android":"levelo://app?vid=54fda2f9-7b1a-4838-9b70-087d4101d0ae","ios":"levelo://app?vid=54fda2f9-7b1a-4838-9b70-087d4101d0ae"},"vehicle_type_id":"4","last_reported":1687529227,"current_range_meters":3200,"station_id":"","pricing_plan_id":"free"},{"bike_id":"5ecad778-398e-4927-b945-820e4a443432","system_id":"levelo_inurba_marseille","lat":43.31328,"lon":5.39688,"is_reserved":false,"is_disabled":false,"rental_uris":{"android":"levelo://app?vid=5ecad778-398e-4927-b945-820e4a443432","ios":"levelo://app?vid=5ecad778-398e-4927-b945-820e4a443432"},"vehicle_type_id":"4","last_reported":1687529227,"current_range_meters":0,"station_id":"ce4bgvp2rcd13ifvqcu0","pricing_plan_id":"free"},{"bike_id":"6e20cbdd-c6fa-4a9c-8502-146005200832","system_id":"levelo_inurba_marseille","lat":43.291994,"lon":5.357886,"is_reserved":false,"is_disabled":false,"rental_uris":{"android":"levelo://app?vid=6e20cbdd-c6fa-4a9c-8502-146005200832","ios":"levelo://app?vid=6e20cbdd-c6fa-4a9c-8502-146005200832"},"vehicle_type_id":"4","last_reported":1687529227,"current_range_meters":12800,"station_id":"ce4bhb12rcd13ifvqel0","pricing_plan_id":"free"},{"bike_id":"beef3b1b-05e3-4a4f-a4ca-be9b0a844ebb","system_id":"levelo_inurba_marseille","lat":43.290779,"lon":5.371482,"is_reserved":false,"is_disabled":false,"rental_uris":{"android":"levelo://app?vid=beef3b1b-05e3-4a4f-a4ca-be9b0a844ebb","ios":"levelo://app?vid=beef3b1b-05e3-4a4f-a4ca-be9b0a844ebb"},"vehicle_type_id":"4","last_reported":1687529227,"current_range_meters":25200,"station_id":"ce4bh5p2rcd13ifvqe4g","pricing_plan_id":"free"},{"bike_id":"f1521812-363e-4e34-950b-9afb4be29585","system_id":"levelo_inurba_marseille","lat":43.290624,"lon":5.359245,"is_reserved":false,"is_disabled":false,"rental_uris":{"android":"levelo://app?vid=f1521812-363e-4e34-950b-9afb4be29585","ios":"levelo://app?vid=f1521812-363e-4e34-950b-9afb4be29585"},"vehicle_type_id":"4","last_reported":1687529227,"current_range_meters":17200,"station_id":"ce4bha92rcd13ifvqeg0","pricing_plan_id":"free"},{"bike_id":"e027440a-5af7-4044-aa3a-9d7b605df9c6","system_id":"levelo_inurba_marseille","lat":43.290631,"lon":5.359244,"is_reserved":false,"is_disabled":false,"rental_uris":{"android":"levelo://app?vid=e027440a-5af7-4044-aa3a-9d7b605df9c6","ios":"levelo://app?vid=e027440a-5af7-4044-aa3a-9d7b605df9c6"},"vehicle_type_id":"4","last_reported":1687529227,"current_range_meters":7200,"station_id":"ce4bha92rcd13ifvqeg0","pricing_plan_id":"free"},{"bike_id":"84189626-f005-421c-8f89-b35d84ed8b9b","system_id":"levelo_inurba_marseille","lat":43.297815,"lon":5.393548,"is_reserved":false,"is_disabled":false,"rental_uris":{"android":"levelo://app?vid=84189626-f005-421c-8f89-b35d84ed8b9b","ios":"levelo://app?vid=84189626-f005-421c-8f89-b35d84ed8b9b"},"vehicle_type_id":"4","last_reported":1687529227,"current_range_meters":6000,"station_id":"chh1huq6cuj3fo74tm60","pricing_plan_id":"free"},{"bike_id":"20b2702a-2cf1-439f-b7da-41f192fa1a0a","system_id":"levelo_inurba_marseille","lat":43.29411,"lon":5.38614,"is_reserved":false,"is_disabled":false,"rental_uris":{"android":"levelo://app?vid=20b2702a-2cf1-439f-b7da-41f192fa1a0a","ios":"levelo://app?vid=20b2702a-2cf1-439f-b7da-41f192fa1a0a"},"vehicle_type_id":"4","last_reported":1687529227,"current_range_meters":22800,"station_id":"","pricing_plan_id":"free"},{"bike_id":"e36874dc-7135-4ebc-b4cd-8f7cd3793fb7","system_id":"levelo_inurba_marseille","lat":43.30384,"lon":5.39726,"is_reserved":false,"is_disabled":false,"rental_uris":{"android":"levelo://app?vid=e36874dc-7135-4ebc-b4cd-8f7cd3793fb7","ios":"levelo://app?vid=e36874dc-7135-4ebc-b4cd-8f7cd3793fb7"},"vehicle_type_id":"4","last_reported":1687529227,"current_range_meters":26800,"station_id":"","pricing_plan_id":"free"},{"bike_id":"762af4db-b7b6-4075-8ea0-6224e647c224","system_id":"levelo_inurba_marseille","lat":43.292644,"lon":5.384257,"is_reserved":false,"is_disabled":false,"rental_uris":{"android":"levelo://app?vid=762af4db-b7b6-4075-8ea0-6224e647c224","ios":"levelo://app?vid=762af4db-b7b6-4075-8ea0-6224e647c224"},"vehicle_type_id":"4","last_reported":1687529227,"current_range_meters":24800,"station_id":"ce4bh692rcd13ifvqea0","pricing_plan_id":"free"},{"bike_id":"e5fb656d-9272-44c6-90ec-e35bb45ba358","system_id":"levelo_inurba_marseille","lat":43.290104,"lon":5.356111,"is_reserved":false,"is_disabled":false,"rental_uris":{"android":"levelo://app?vid=e5fb656d-9272-44c6-90ec-e35bb45ba358","ios":"levelo://app?vid=e5fb656d-9272-44c6-90ec-e35bb45ba358"},"vehicle_type_id":"4","last_reported":1687529227,"current_range_meters":2400,"station_id":"ce4bhb92rcd13ifvqen0","pricing_plan_id":"free"},{"bike_id":"33e4158c-a35b-411c-9ccb-d3a1fae4d16d","system_id":"levelo_inurba_marseille","lat":43.33038,"lon":5.3892,"is_reserved":false,"is_disabled":false,"rental_uris":{"android":"levelo://app?vid=33e4158c-a35b-411c-9ccb-d3a1fae4d16d","ios":"levelo://app?vid=33e4158c-a35b-411c-9ccb-d3a1fae4d16d"},"vehicle_type_id":"4","last_reported":1687529227,"current_range_meters":30400,"station_id":"ce4bhr92rcd13ifvqhrg","pricing_plan_id":"free"},{"bike_id":"28c7dbbb-539c-4e0f-ae61-04dda52f6d09","system_id":"levelo_inurba_marseille","lat":43.33039,"lon":5.3892,"is_reserved":false,"is_disabled":false,"rental_uris":{"android":"levelo://app?vid=28c7dbbb-539c-4e0f-ae61-04dda52f6d09","ios":"levelo://app?vid=28c7dbbb-539c-4e0f-ae61-04dda52f6d09"},"vehicle_type_id":"4","last_reported":1687529227,"current_range_meters":21200,"station_id":"ce4bhr92rcd13ifvqhrg","pricing_plan_id":"free"},{"bike_id":"1df9609f-923e-428c-8578-f970672df507","system_id":"levelo_inurba_marseille","lat":43.33044,"lon":5.38914,"is_reserved":false,"is_disabled":false,"rental_uris":{"android":"levelo://app?vid=1df9609f-923e-428c-8578-f970672df507","ios":"levelo://app?vid=1df9609f-923e-428c-8578-f970672df507"},"vehicle_type_id":"4","last_reported":1687529227,"current_range_meters":19600,"station_id":"ce4bhr92rcd13ifvqhrg","pricing_plan_id":"free"},{"bike_id":"c630869e-ada7-40af-963a-4e04871df569","system_id":"levelo_inurba_marseille","lat":43.290104,"lon":5.356111,"is_reserved":false,"is_disabled":false,"rental_uris":{"android":"levelo://app?vid=c630869e-ada7-40af-963a-4e04871df569","ios":"levelo://app?vid=c630869e-ada7-40af-963a-4e04871df569"},"vehicle_type_id":"4","last_reported":1687529227,"current_range_meters":31200,"station_id":"ce4bhb92rcd13ifvqen0","pricing_plan_id":"free"},{"bike_id":"c73d2cc7-61ec-4fd2-a002-ffa050603a67","system_id":"levelo_inurba_marseille","lat":43.33041,"lon":5.3892,"is_reserved":false,"is_disabled":false,"rental_uris":{"android":"levelo://app?vid=c73d2cc7-61ec-4fd2-a002-ffa050603a67","ios":"levelo://app?vid=c73d2cc7-61ec-4fd2-a002-ffa050603a67"},"vehicle_type_id":"4","last_reported":1687529227,"current_range_meters":29600,"station_id":"ce4bhr92rcd13ifvqhrg","pricing_plan_id":"free"},{"bike_id":"7b598af4-6212-42db-b66f-f3560c42749c","system_id":"levelo_inurba_marseille","lat":43.290104,"lon":5.356111,"is_reserved":false,"is_disabled":false,"rental_uris":{"android":"levelo://app?vid=7b598af4-6212-42db-b66f-f3560c42749c","ios":"levelo://app?vid=7b598af4-6212-42db-b66f-f3560c42749c"},"vehicle_type_id":"4","last_reported":1687529227,"current_range_meters":6800,"station_id":"ce4bhb92rcd13ifvqen0","pricing_plan_id":"free"},{"bike_id":"7929e6fa-fbad-4291-8363-748310432bfe","system_id":"levelo_inurba_marseille","lat":43.290104,"lon":5.356111,"is_reserved":false,"is_disabled":false,"rental_uris":{"android":"levelo://app?vid=7929e6fa-fbad-4291-8363-748310432bfe","ios":"levelo://app?vid=7929e6fa-fbad-4291-8363-748310432bfe"},"vehicle_type_id":"4","last_reported":1687529227,"current_range_meters":29600,"station_id":"ce4bhb92rcd13ifvqen0","pricing_plan_id":"free"},{"bike_id":"8a9cec94-de9b-4fc4-9308-0821f4c48327","system_id":"levelo_inurba_marseille","lat":43.33044,"lon":5.38918,"is_reserved":false,"is_disabled":false,"rental_uris":{"android":"levelo://app?vid=8a9cec94-de9b-4fc4-9308-0821f4c48327","ios":"levelo://app?vid=8a9cec94-de9b-4fc4-9308-0821f4c48327"},"vehicle_type_id":"4","last_reported":1687529227,"current_range_meters":9200,"station_id":"ce4bhr92rcd13ifvqhrg","pricing_plan_id":"free"},{"bike_id":"50c8dd5a-0136-4832-9937-2a6287351c8e","system_id":"levelo_inurba_marseille","lat":43.33045,"lon":5.3892,"is_reserved":false,"is_disabled":false,"rental_uris":{"android":"levelo://app?vid=50c8dd5a-0136-4832-9937-2a6287351c8e","ios":"levelo://app?vid=50c8dd5a-0136-4832-9937-2a6287351c8e"},"vehicle_type_id":"4","last_reported":1687529227,"current_range_meters":28800,"station_id":"ce4bhr92rcd13ifvqhrg","pricing_plan_id":"free"},{"bike_id":"77487a5c-1557-44ff-b8b2-13b990326d54","system_id":"levelo_inurba_marseille","lat":43.290104,"lon":5.356111,"is_reserved":false,"is_disabled":false,"rental_uris":{"android":"levelo://app?vid=77487a5c-1557-44ff-b8b2-13b990326d54","ios":"levelo://app?vid=77487a5c-1557-44ff-b8b2-13b990326d54"},"vehicle_type_id":"4","last_reported":1687529227,"current_range_meters":31200,"station_id":"ce4bhb92rcd13ifvqen0","pricing_plan_id":"free"},{"bike_id":"de4a6415-7cce-4656-89ac-d7d4eaa645b3","system_id":"levelo_inurba_marseille","lat":43.33046,"lon":5.3892,"is_reserved":false,"is_disabled":false,"rental_uris":{"android":"levelo://app?vid=de4a6415-7cce-4656-89ac-d7d4eaa645b3","ios":"levelo://app?vid=de4a6415-7cce-4656-89ac-d7d4eaa645b3"},"vehicle_type_id":"4","last_reported":1687529227,"current_range_meters":14800,"station_id":"ce4bhr92rcd13ifvqhrg","pricing_plan_id":"free"},{"bike_id":"4027c399-2442-4093-a3b4-bb51e77170c9","system_id":"levelo_inurba_marseille","lat":43.29001,"lon":5.35605,"is_reserved":false,"is_disabled":false,"rental_uris":{"android":"levelo://app?vid=4027c399-2442-4093-a3b4-bb51e77170c9","ios":"levelo://app?vid=4027c399-2442-4093-a3b4-bb51e77170c9"},"vehicle_type_id":"4","last_reported":1687529227,"current_range_meters":19200,"station_id":"ce4bhb92rcd13ifvqen0","pricing_plan_id":"free"},{"bike_id":"990cf896-f6b9-4bed-b7c9-123d9e5cd31c","system_id":"levelo_inurba_marseille","lat":43.297815,"lon":5.393548,"is_reserved":false,"is_disabled":false,"rental_uris":{"android":"levelo://app?vid=990cf896-f6b9-4bed-b7c9-123d9e5cd31c","ios":"levelo://app?vid=990cf896-f6b9-4bed-b7c9-123d9e5cd31c"},"vehicle_type_id":"4","last_reported":1687529227,"current_range_meters":28400,"station_id":"chh1huq6cuj3fo74tm60","pricing_plan_id":"free"},{"bike_id":"4a52c5a2-efd0-4f4f-bcf7-f5992d9330fa","system_id":"levelo_inurba_marseille","lat":43.297815,"lon":5.393548,"is_reserved":false,"is_disabled":false,"rental_uris":{"android":"levelo://app?vid=4a52c5a2-efd0-4f4f-bcf7-f5992d9330fa","ios":"levelo://app?vid=4a52c5a2-efd0-4f4f-bcf7-f5992d9330fa"},"vehicle_type_id":"4","last_reported":1687529227,"current_range_meters":24000,"station_id":"chh1huq6cuj3fo74tm60","pricing_plan_id":"free"},{"bike_id":"aef4d188-c662-4ac7-9032-4ab09316d19a","system_id":"levelo_inurba_marseille","lat":43.29528,"lon":5.39049,"is_reserved":false,"is_disabled":false,"rental_uris":{"android":"levelo://app?vid=aef4d188-c662-4ac7-9032-4ab09316d19a","ios":"levelo://app?vid=aef4d188-c662-4ac7-9032-4ab09316d19a"},"vehicle_type_id":"4","last_reported":1687529227,"current_range_meters":25600,"station_id":"ce4bh3p2rcd13ifvqdp0","pricing_plan_id":"free"},{"bike_id":"745dc681-3203-4e2d-8288-a3b2cd04495a","system_id":"levelo_inurba_marseille","lat":43.295169,"lon":5.390426,"is_reserved":false,"is_disabled":false,"rental_uris":{"android":"levelo://app?vid=745dc681-3203-4e2d-8288-a3b2cd04495a","ios":"levelo://app?vid=745dc681-3203-4e2d-8288-a3b2cd04495a"},"vehicle_type_id":"4","last_reported":1687529227,"current_range_meters":4400,"station_id":"ce4bh3p2rcd13ifvqdp0","pricing_plan_id":"free"},{"bike_id":"ada5e2e8-b0f0-47fc-afcd-f7b20ba755c3","system_id":"levelo_inurba_marseille","lat":43.297815,"lon":5.393548,"is_reserved":false,"is_disabled":false,"rental_uris":{"android":"levelo://app?vid=ada5e2e8-b0f0-47fc-afcd-f7b20ba755c3","ios":"levelo://app?vid=ada5e2e8-b0f0-47fc-afcd-f7b20ba755c3"},"vehicle_type_id":"4","last_reported":1687529227,"current_range_meters":11600,"station_id":"chh1huq6cuj3fo74tm60","pricing_plan_id":"free"},{"bike_id":"91ace1e6-3eb9-4baf-a0de-54e5586948cf","system_id":"levelo_inurba_marseille","lat":43.295169,"lon":5.390426,"is_reserved":false,"is_disabled":false,"rental_uris":{"android":"levelo://app?vid=91ace1e6-3eb9-4baf-a0de-54e5586948cf","ios":"levelo://app?vid=91ace1e6-3eb9-4baf-a0de-54e5586948cf"},"vehicle_type_id":"4","last_reported":1687529227,"current_range_meters":20000,"station_id":"ce4bh3p2rcd13ifvqdp0","pricing_plan_id":"free"},{"bike_id":"40deb49f-4396-4124-887a-3dc09011a678","system_id":"levelo_inurba_marseille","lat":43.2901,"lon":5.381269,"is_reserved":false,"is_disabled":false,"rental_uris":{"android":"levelo://app?vid=40deb49f-4396-4124-887a-3dc09011a678","ios":"levelo://app?vid=40deb49f-4396-4124-887a-3dc09011a678"},"vehicle_type_id":"4","last_reported":1687529227,"current_range_meters":2400,"station_id":"ce4bh4p2rcd13ifvqe1g","pricing_plan_id":"free"},{"bike_id":"3f8a925a-6a54-4259-a38f-9cf091aab246","system_id":"levelo_inurba_marseille","lat":43.29266,"lon":5.38741,"is_reserved":false,"is_disabled":false,"rental_uris":{"android":"levelo://app?vid=3f8a925a-6a54-4259-a38f-9cf091aab246","ios":"levelo://app?vid=3f8a925a-6a54-4259-a38f-9cf091aab246"},"vehicle_type_id":"4","last_reported":1687529227,"current_range_meters":25200,"station_id":"","pricing_plan_id":"free"},{"bike_id":"b0bd3bcb-bd35-4f75-8285-8f528f09b8d5","system_id":"levelo_inurba_marseille","lat":43.33744,"lon":5.37442,"is_reserved":false,"is_disabled":false,"rental_uris":{"android":"levelo://app?vid=b0bd3bcb-bd35-4f75-8285-8f528f09b8d5","ios":"levelo://app?vid=b0bd3bcb-bd35-4f75-8285-8f528f09b8d5"},"vehicle_type_id":"4","last_reported":1687529227,"current_range_meters":19200,"station_id":"","pricing_plan_id":"free"},{"bike_id":"c180ae38-f769-441f-8a55-5a6e4930e6ad","system_id":"levelo_inurba_marseille","lat":43.3375,"lon":5.37439,"is_reserved":false,"is_disabled":false,"rental_uris":{"android":"levelo://app?vid=c180ae38-f769-441f-8a55-5a6e4930e6ad","ios":"levelo://app?vid=c180ae38-f769-441f-8a55-5a6e4930e6ad"},"vehicle_type_id":"4","last_reported":1687529227,"current_range_meters":27200,"station_id":"","pricing_plan_id":"free"},{"bike_id":"ca2ff670-e672-4ee5-9ccd-d4b7113e01ba","system_id":"levelo_inurba_marseille","lat":43.309371,"lon":5.401449,"is_reserved":false,"is_disabled":false,"rental_uris":{"android":"levelo://app?vid=ca2ff670-e672-4ee5-9ccd-d4b7113e01ba","ios":"levelo://app?vid=ca2ff670-e672-4ee5-9ccd-d4b7113e01ba"},"vehicle_type_id":"4","last_reported":1687529227,"current_range_meters":4800,"station_id":"ce4bgvp2rcd13ifvqct0","pricing_plan_id":"free"},{"bike_id":"8dbbf780-2000-40db-8a27-140279cb1255","system_id":"levelo_inurba_marseille","lat":43.309371,"lon":5.401449,"is_reserved":false,"is_disabled":false,"rental_uris":{"android":"levelo://app?vid=8dbbf780-2000-40db-8a27-140279cb1255","ios":"levelo://app?vid=8dbbf780-2000-40db-8a27-140279cb1255"},"vehicle_type_id":"4","last_reported":1687529227,"current_range_meters":17600,"station_id":"ce4bgvp2rcd13ifvqct0","pricing_plan_id":"free"},{"bike_id":"47d7b8fc-b045-49c9-ad70-c2a85ea60d7d","system_id":"levelo_inurba_marseille","lat":43.309371,"lon":5.401449,"is_reserved":false,"is_disabled":false,"rental_uris":{"android":"levelo://app?vid=47d7b8fc-b045-49c9-ad70-c2a85ea60d7d","ios":"levelo://app?vid=47d7b8fc-b045-49c9-ad70-c2a85ea60d7d"},"vehicle_type_id":"4","last_reported":1687529227,"current_range_meters":12400,"station_id":"ce4bgvp2rcd13ifvqct0","pricing_plan_id":"free"},{"bike_id":"da213822-b047-4605-8427-e9a7adad1f7f","system_id":"levelo_inurba_marseille","lat":43.337635,"lon":5.374861,"is_reserved":false,"is_disabled":false,"rental_uris":{"android":"levelo://app?vid=da213822-b047-4605-8427-e9a7adad1f7f","ios":"levelo://app?vid=da213822-b047-4605-8427-e9a7adad1f7f"},"vehicle_type_id":"4","last_reported":1687529227,"current_range_meters":31200,"station_id":"","pricing_plan_id":"free"},{"bike_id":"c019c97b-24fc-4213-aa1b-fbaf2359ec34","system_id":"levelo_inurba_marseille","lat":43.337706,"lon":5.374734,"is_reserved":false,"is_disabled":false,"rental_uris":{"android":"levelo://app?vid=c019c97b-24fc-4213-aa1b-fbaf2359ec34","ios":"levelo://app?vid=c019c97b-24fc-4213-aa1b-fbaf2359ec34"},"vehicle_type_id":"4","last_reported":1687529227,"current_range_meters":30800,"station_id":"","pricing_plan_id":"free"},{"bike_id":"75009fcb-7032-4491-b888-c979a1de9ca5","system_id":"levelo_inurba_marseille","lat":43.286593,"lon":5.363346,"is_reserved":false,"is_disabled":false,"rental_uris":{"android":"levelo://app?vid=75009fcb-7032-4491-b888-c979a1de9ca5","ios":"levelo://app?vid=75009fcb-7032-4491-b888-c979a1de9ca5"},"vehicle_type_id":"4","last_reported":1687529227,"current_range_meters":22000,"station_id":"ce4bhah2rcd13ifvqej0","pricing_plan_id":"free"},{"bike_id":"1836aea8-0e7e-4561-a8bf-39d935578bf2","system_id":"levelo_inurba_marseille","lat":43.286591,"lon":5.363346,"is_reserved":false,"is_disabled":false,"rental_uris":{"android":"levelo://app?vid=1836aea8-0e7e-4561-a8bf-39d935578bf2","ios":"levelo://app?vid=1836aea8-0e7e-4561-a8bf-39d935578bf2"},"vehicle_type_id":"4","last_reported":1687529227,"current_range_meters":24400,"station_id":"ce4bhah2rcd13ifvqej0","pricing_plan_id":"free"},{"bike_id":"8477b155-855b-4be9-8f1a-30c4f5c20a18","system_id":"levelo_inurba_marseille","lat":43.286591,"lon":5.363346,"is_reserved":false,"is_disabled":false,"rental_uris":{"android":"levelo://app?vid=8477b155-855b-4be9-8f1a-30c4f5c20a18","ios":"levelo://app?vid=8477b155-855b-4be9-8f1a-30c4f5c20a18"},"vehicle_type_id":"4","last_reported":1687529227,"current_range_meters":9600,"station_id":"ce4bhah2rcd13ifvqej0","pricing_plan_id":"free"},{"bike_id":"30f5d839-b3c5-4646-aab0-1fa82592da7d","system_id":"levelo_inurba_marseille","lat":43.28663,"lon":5.36356,"is_reserved":false,"is_disabled":false,"rental_uris":{"android":"levelo://app?vid=30f5d839-b3c5-4646-aab0-1fa82592da7d","ios":"levelo://app?vid=30f5d839-b3c5-4646-aab0-1fa82592da7d"},"vehicle_type_id":"4","last_reported":1687529227,"current_range_meters":27200,"station_id":"ce4bhah2rcd13ifvqej0","pricing_plan_id":"free"},{"bike_id":"b5618776-b4e3-4321-9d51-bd22323044ab","system_id":"levelo_inurba_marseille","lat":43.298681,"lon":5.397225,"is_reserved":false,"is_disabled":false,"rental_uris":{"android":"levelo://app?vid=b5618776-b4e3-4321-9d51-bd22323044ab","ios":"levelo://app?vid=b5618776-b4e3-4321-9d51-bd22323044ab"},"vehicle_type_id":"4","last_reported":1687529227,"current_range_meters":23600,"station_id":"ce4bh0h2rcd13ifvqd50","pricing_plan_id":"free"},{"bike_id":"391af689-e773-4af4-b6af-6207530f66c6","system_id":"levelo_inurba_marseille","lat":43.286961,"lon":5.373785,"is_reserved":false,"is_disabled":false,"rental_uris":{"android":"levelo://app?vid=391af689-e773-4af4-b6af-6207530f66c6","ios":"levelo://app?vid=391af689-e773-4af4-b6af-6207530f66c6"},"vehicle_type_id":"4","last_reported":1687529227,"current_range_meters":16400,"station_id":"ce4bh3p2rcd13ifvqdq0","pricing_plan_id":"free"},{"bike_id":"282bd514-cce1-4e94-b959-30b7979ea0e0","system_id":"levelo_inurba_marseille","lat":43.295196,"lon":5.39397,"is_reserved":false,"is_disabled":false,"rental_uris":{"android":"levelo://app?vid=282bd514-cce1-4e94-b959-30b7979ea0e0","ios":"levelo://app?vid=282bd514-cce1-4e94-b959-30b7979ea0e0"},"vehicle_type_id":"4","last_reported":1687529227,"current_range_meters":12000,"station_id":"ce4bh292rcd13ifvqdf0","pricing_plan_id":"free"},{"bike_id":"1c53e454-466b-4bac-a46c-5c0072e1120b","system_id":"levelo_inurba_marseille","lat":43.290336,"lon":5.386425,"is_reserved":false,"is_disabled":false,"rental_uris":{"android":"levelo://app?vid=1c53e454-466b-4bac-a46c-5c0072e1120b","ios":"levelo://app?vid=1c53e454-466b-4bac-a46c-5c0072e1120b"},"vehicle_type_id":"4","last_reported":1687529227,"current_range_meters":18800,"station_id":"ce4bh4p2rcd13ifvqe0g","pricing_plan_id":"free"},{"bike_id":"d6bf0916-0065-40d6-8233-4524edf46584","system_id":"levelo_inurba_marseille","lat":43.287184,"lon":5.37937,"is_reserved":false,"is_disabled":false,"rental_uris":{"android":"levelo://app?vid=d6bf0916-0065-40d6-8233-4524edf46584","ios":"levelo://app?vid=d6bf0916-0065-40d6-8233-4524edf46584"},"vehicle_type_id":"4","last_reported":1687529227,"current_range_meters":14000,"station_id":"ce4bh9p2rcd13ifvqec0","pricing_plan_id":"free"},{"bike_id":"d88b197c-9f35-473a-8572-83cf28c374bc","system_id":"levelo_inurba_marseille","lat":43.31646,"lon":5.40447,"is_reserved":false,"is_disabled":false,"rental_uris":{"android":"levelo://app?vid=d88b197c-9f35-473a-8572-83cf28c374bc","ios":"levelo://app?vid=d88b197c-9f35-473a-8572-83cf28c374bc"},"vehicle_type_id":"4","last_reported":1687529227,"current_range_meters":0,"station_id":"ce4bh012rcd13ifvqd00","pricing_plan_id":"free"},{"bike_id":"17861fe4-a192-45e3-a3a9-70de2816c8fb","system_id":"levelo_inurba_marseille","lat":43.31646,"lon":5.40448,"is_reserved":false,"is_disabled":false,"rental_uris":{"android":"levelo://app?vid=17861fe4-a192-45e3-a3a9-70de2816c8fb","ios":"levelo://app?vid=17861fe4-a192-45e3-a3a9-70de2816c8fb"},"vehicle_type_id":"4","last_reported":1687529227,"current_range_meters":30000,"station_id":"ce4bh012rcd13ifvqd00","pricing_plan_id":"free"},{"bike_id":"a1652f25-0544-4568-8f5c-41c219e84f56","system_id":"levelo_inurba_marseille","lat":43.291994,"lon":5.392907,"is_reserved":false,"is_disabled":false,"rental_uris":{"android":"levelo://app?vid=a1652f25-0544-4568-8f5c-41c219e84f56","ios":"levelo://app?vid=a1652f25-0544-4568-8f5c-41c219e84f56"},"vehicle_type_id":"4","last_reported":1687529227,"current_range_meters":15200,"station_id":"ce4bh192rcd13ifvqdd0","pricing_plan_id":"free"},{"bike_id":"4a6748ee-efe8-4bab-aeb8-f9fccfd6cc02","system_id":"levelo_inurba_marseille","lat":43.291994,"lon":5.392907,"is_reserved":false,"is_disabled":false,"rental_uris":{"android":"levelo://app?vid=4a6748ee-efe8-4bab-aeb8-f9fccfd6cc02","ios":"levelo://app?vid=4a6748ee-efe8-4bab-aeb8-f9fccfd6cc02"},"vehicle_type_id":"4","last_reported":1687529227,"current_range_meters":800,"station_id":"ce4bh192rcd13ifvqdd0","pricing_plan_id":"free"},{"bike_id":"a236af19-9671-4cad-8780-7808e3fcf4c3","system_id":"levelo_inurba_marseille","lat":43.291994,"lon":5.392907,"is_reserved":false,"is_disabled":false,"rental_uris":{"android":"levelo://app?vid=a236af19-9671-4cad-8780-7808e3fcf4c3","ios":"levelo://app?vid=a236af19-9671-4cad-8780-7808e3fcf4c3"},"vehicle_type_id":"4","last_reported":1687529227,"current_range_meters":25200,"station_id":"ce4bh192rcd13ifvqdd0","pricing_plan_id":"free"},{"bike_id":"9a131b55-59c4-4d0f-917d-ebae6c5fc671","system_id":"levelo_inurba_marseille","lat":43.284534,"lon":5.358662,"is_reserved":false,"is_disabled":false,"rental_uris":{"android":"levelo://app?vid=9a131b55-59c4-4d0f-917d-ebae6c5fc671","ios":"levelo://app?vid=9a131b55-59c4-4d0f-917d-ebae6c5fc671"},"vehicle_type_id":"4","last_reported":1687529227,"current_range_meters":5200,"station_id":"ce4bhah2rcd13ifvqei0","pricing_plan_id":"free"},{"bike_id":"6edb5c83-dac6-42c9-8964-9903631d3676","system_id":"levelo_inurba_marseille","lat":43.28619,"lon":5.35106,"is_reserved":false,"is_disabled":false,"rental_uris":{"android":"levelo://app?vid=6edb5c83-dac6-42c9-8964-9903631d3676","ios":"levelo://app?vid=6edb5c83-dac6-42c9-8964-9903631d3676"},"vehicle_type_id":"4","last_reported":1687529227,"current_range_meters":26400,"station_id":"ce4bhch2rcd13ifvqeug","pricing_plan_id":"free"},{"bike_id":"e9806f1a-1c39-43c2-a118-41d19ea05d5c","system_id":"levelo_inurba_marseille","lat":43.285848,"lon":5.350787,"is_reserved":false,"is_disabled":false,"rental_uris":{"android":"levelo://app?vid=e9806f1a-1c39-43c2-a118-41d19ea05d5c","ios":"levelo://app?vid=e9806f1a-1c39-43c2-a118-41d19ea05d5c"},"vehicle_type_id":"4","last_reported":1687529227,"current_range_meters":0,"station_id":"ce4bhch2rcd13ifvqeug","pricing_plan_id":"free"},{"bike_id":"31773a67-a98d-4552-9b3d-98ad3df9ceb2","system_id":"levelo_inurba_marseille","lat":43.285856,"lon":5.350771,"is_reserved":false,"is_disabled":false,"rental_uris":{"android":"levelo://app?vid=31773a67-a98d-4552-9b3d-98ad3df9ceb2","ios":"levelo://app?vid=31773a67-a98d-4552-9b3d-98ad3df9ceb2"},"vehicle_type_id":"4","last_reported":1687529227,"current_range_meters":22400,"station_id":"ce4bhch2rcd13ifvqeug","pricing_plan_id":"free"},{"bike_id":"b643ec1b-e4e8-4ee2-94e5-ed3c9f141955","system_id":"levelo_inurba_marseille","lat":43.283998,"lon":5.375062,"is_reserved":false,"is_disabled":false,"rental_uris":{"android":"levelo://app?vid=b643ec1b-e4e8-4ee2-94e5-ed3c9f141955","ios":"levelo://app?vid=b643ec1b-e4e8-4ee2-94e5-ed3c9f141955"},"vehicle_type_id":"4","last_reported":1687529227,"current_range_meters":9600,"station_id":"ce4bh412rcd13ifvqds0","pricing_plan_id":"free"},{"bike_id":"0e9125bc-bae8-4462-8802-120691690da5","system_id":"levelo_inurba_marseille","lat":43.295713,"lon":5.399639,"is_reserved":false,"is_disabled":false,"rental_uris":{"android":"levelo://app?vid=0e9125bc-bae8-4462-8802-120691690da5","ios":"levelo://app?vid=0e9125bc-bae8-4462-8802-120691690da5"},"vehicle_type_id":"4","last_reported":1687529227,"current_range_meters":12400,"station_id":"ce4bh312rcd13ifvqdj0","pricing_plan_id":"free"},{"bike_id":"cfed401e-21c1-41fb-9698-4a268bc37c6c","system_id":"levelo_inurba_marseille","lat":43.286595,"lon":5.386795,"is_reserved":false,"is_disabled":false,"rental_uris":{"android":"levelo://app?vid=cfed401e-21c1-41fb-9698-4a268bc37c6c","ios":"levelo://app?vid=cfed401e-21c1-41fb-9698-4a268bc37c6c"},"vehicle_type_id":"4","last_reported":1687529227,"current_range_meters":10400,"station_id":"ce4bh492rcd13ifvqdug","pricing_plan_id":"free"},{"bike_id":"1a6e328c-0f7d-406d-b214-3d10018082be","system_id":"levelo_inurba_marseille","lat":43.28671,"lon":5.38672,"is_reserved":false,"is_disabled":false,"rental_uris":{"android":"levelo://app?vid=1a6e328c-0f7d-406d-b214-3d10018082be","ios":"levelo://app?vid=1a6e328c-0f7d-406d-b214-3d10018082be"},"vehicle_type_id":"4","last_reported":1687529227,"current_range_meters":25200,"station_id":"ce4bh492rcd13ifvqdug","pricing_plan_id":"free"},{"bike_id":"5a28d6aa-824e-4eb7-b633-4da50938b356","system_id":"levelo_inurba_marseille","lat":43.286595,"lon":5.386795,"is_reserved":false,"is_disabled":false,"rental_uris":{"android":"levelo://app?vid=5a28d6aa-824e-4eb7-b633-4da50938b356","ios":"levelo://app?vid=5a28d6aa-824e-4eb7-b633-4da50938b356"},"vehicle_type_id":"4","last_reported":1687529227,"current_range_meters":0,"station_id":"ce4bh492rcd13ifvqdug","pricing_plan_id":"free"},{"bike_id":"f28c1c6d-1d71-4807-987e-443a5efb8c03","system_id":"levelo_inurba_marseille","lat":43.28347,"lon":5.3744,"is_reserved":false,"is_disabled":false,"rental_uris":{"android":"levelo://app?vid=f28c1c6d-1d71-4807-987e-443a5efb8c03","ios":"levelo://app?vid=f28c1c6d-1d71-4807-987e-443a5efb8c03"},"vehicle_type_id":"4","last_reported":1687529227,"current_range_meters":30400,"station_id":"","pricing_plan_id":"free"},{"bike_id":"4413f254-f987-4b8b-b5dd-4a830ccd4b99","system_id":"levelo_inurba_marseille","lat":43.323464,"lon":5.406297,"is_reserved":false,"is_disabled":false,"rental_uris":{"android":"levelo://app?vid=4413f254-f987-4b8b-b5dd-4a830ccd4b99","ios":"levelo://app?vid=4413f254-f987-4b8b-b5dd-4a830ccd4b99"},"vehicle_type_id":"4","last_reported":1687529227,"current_range_meters":24400,"station_id":"ce4bhq92rcd13ifvqhjg","pricing_plan_id":"free"},{"bike_id":"1d6451d3-95d8-4c84-90e0-ca873e7720cc","system_id":"levelo_inurba_marseille","lat":43.323464,"lon":5.406297,"is_reserved":false,"is_disabled":false,"rental_uris":{"android":"levelo://app?vid=1d6451d3-95d8-4c84-90e0-ca873e7720cc","ios":"levelo://app?vid=1d6451d3-95d8-4c84-90e0-ca873e7720cc"},"vehicle_type_id":"4","last_reported":1687529227,"current_range_meters":23600,"station_id":"ce4bhq92rcd13ifvqhjg","pricing_plan_id":"free"},{"bike_id":"af229005-9587-414b-85b0-c47170a4db02","system_id":"levelo_inurba_marseille","lat":43.323464,"lon":5.406297,"is_reserved":false,"is_disabled":false,"rental_uris":{"android":"levelo://app?vid=af229005-9587-414b-85b0-c47170a4db02","ios":"levelo://app?vid=af229005-9587-414b-85b0-c47170a4db02"},"vehicle_type_id":"4","last_reported":1687529227,"current_range_meters":31600,"station_id":"ce4bhq92rcd13ifvqhjg","pricing_plan_id":"free"},{"bike_id":"e8556eb4-3ade-4dd7-8bae-89f0932c3983","system_id":"levelo_inurba_marseille","lat":43.323464,"lon":5.406297,"is_reserved":false,"is_disabled":false,"rental_uris":{"android":"levelo://app?vid=e8556eb4-3ade-4dd7-8bae-89f0932c3983","ios":"levelo://app?vid=e8556eb4-3ade-4dd7-8bae-89f0932c3983"},"vehicle_type_id":"4","last_reported":1687529227,"current_range_meters":30800,"station_id":"ce4bhq92rcd13ifvqhjg","pricing_plan_id":"free"},{"bike_id":"a54c5183-d12c-4b5d-b1a7-e6c2a62eb9b5","system_id":"levelo_inurba_marseille","lat":43.323464,"lon":5.406297,"is_reserved":false,"is_disabled":false,"rental_uris":{"android":"levelo://app?vid=a54c5183-d12c-4b5d-b1a7-e6c2a62eb9b5","ios":"levelo://app?vid=a54c5183-d12c-4b5d-b1a7-e6c2a62eb9b5"},"vehicle_type_id":"4","last_reported":1687529227,"current_range_meters":22800,"station_id":"ce4bhq92rcd13ifvqhjg","pricing_plan_id":"free"},{"bike_id":"023e4546-4bbe-4579-9c25-eb0f80bbce2f","system_id":"levelo_inurba_marseille","lat":43.323464,"lon":5.406297,"is_reserved":false,"is_disabled":false,"rental_uris":{"android":"levelo://app?vid=023e4546-4bbe-4579-9c25-eb0f80bbce2f","ios":"levelo://app?vid=023e4546-4bbe-4579-9c25-eb0f80bbce2f"},"vehicle_type_id":"4","last_reported":1687529227,"current_range_meters":18000,"station_id":"ce4bhq92rcd13ifvqhjg","pricing_plan_id":"free"},{"bike_id":"d325dede-0317-497c-ba44-dfeac0e78567","system_id":"levelo_inurba_marseille","lat":43.323464,"lon":5.406297,"is_reserved":false,"is_disabled":false,"rental_uris":{"android":"levelo://app?vid=d325dede-0317-497c-ba44-dfeac0e78567","ios":"levelo://app?vid=d325dede-0317-497c-ba44-dfeac0e78567"},"vehicle_type_id":"4","last_reported":1687529227,"current_range_meters":24400,"station_id":"ce4bhq92rcd13ifvqhjg","pricing_plan_id":"free"},{"bike_id":"46fa998a-3318-4c73-bc9d-6d8d46a2af8c","system_id":"levelo_inurba_marseille","lat":43.284793,"lon":5.384119,"is_reserved":false,"is_disabled":false,"rental_uris":{"android":"levelo://app?vid=46fa998a-3318-4c73-bc9d-6d8d46a2af8c","ios":"levelo://app?vid=46fa998a-3318-4c73-bc9d-6d8d46a2af8c"},"vehicle_type_id":"4","last_reported":1687529227,"current_range_meters":29600,"station_id":"ce4bh512rcd13ifvqe3g","pricing_plan_id":"free"},{"bike_id":"12ea92fc-db6a-4da7-875a-29acb768abd6","system_id":"levelo_inurba_marseille","lat":43.28479,"lon":5.38409,"is_reserved":false,"is_disabled":false,"rental_uris":{"android":"levelo://app?vid=12ea92fc-db6a-4da7-875a-29acb768abd6","ios":"levelo://app?vid=12ea92fc-db6a-4da7-875a-29acb768abd6"},"vehicle_type_id":"4","last_reported":1687529227,"current_range_meters":0,"station_id":"ce4bh512rcd13ifvqe3g","pricing_plan_id":"free"},{"bike_id":"9783d452-f86a-432a-b406-b2646db98a71","system_id":"levelo_inurba_marseille","lat":43.284793,"lon":5.384119,"is_reserved":false,"is_disabled":false,"rental_uris":{"android":"levelo://app?vid=9783d452-f86a-432a-b406-b2646db98a71","ios":"levelo://app?vid=9783d452-f86a-432a-b406-b2646db98a71"},"vehicle_type_id":"4","last_reported":1687529227,"current_range_meters":1600,"station_id":"ce4bh512rcd13ifvqe3g","pricing_plan_id":"free"},{"bike_id":"0d530c11-1f92-432e-ab71-81d2532df78c","system_id":"levelo_inurba_marseille","lat":43.284793,"lon":5.384119,"is_reserved":false,"is_disabled":false,"rental_uris":{"android":"levelo://app?vid=0d530c11-1f92-432e-ab71-81d2532df78c","ios":"levelo://app?vid=0d530c11-1f92-432e-ab71-81d2532df78c"},"vehicle_type_id":"4","last_reported":1687529227,"current_range_meters":28400,"station_id":"ce4bh512rcd13ifvqe3g","pricing_plan_id":"free"},{"bike_id":"dc5b6a57-cfd7-4c7b-8ae6-5d6300d44ca2","system_id":"levelo_inurba_marseille","lat":43.284793,"lon":5.384119,"is_reserved":false,"is_disabled":false,"rental_uris":{"android":"levelo://app?vid=dc5b6a57-cfd7-4c7b-8ae6-5d6300d44ca2","ios":"levelo://app?vid=dc5b6a57-cfd7-4c7b-8ae6-5d6300d44ca2"},"vehicle_type_id":"4","last_reported":1687529227,"current_range_meters":30400,"station_id":"ce4bh512rcd13ifvqe3g","pricing_plan_id":"free"},{"bike_id":"b4c950db-352f-4a1a-8e3c-c05101a6dad0","system_id":"levelo_inurba_marseille","lat":43.28847,"lon":5.39328,"is_reserved":false,"is_disabled":false,"rental_uris":{"android":"levelo://app?vid=b4c950db-352f-4a1a-8e3c-c05101a6dad0","ios":"levelo://app?vid=b4c950db-352f-4a1a-8e3c-c05101a6dad0"},"vehicle_type_id":"4","last_reported":1687529227,"current_range_meters":31200,"station_id":"ce4bh2p2rcd13ifvqdi0","pricing_plan_id":"free"},{"bike_id":"ff3bdaf8-3dde-4500-99af-b630fca049e2","system_id":"levelo_inurba_marseille","lat":43.284219,"lon":5.3497,"is_reserved":false,"is_disabled":false,"rental_uris":{"android":"levelo://app?vid=ff3bdaf8-3dde-4500-99af-b630fca049e2","ios":"levelo://app?vid=ff3bdaf8-3dde-4500-99af-b630fca049e2"},"vehicle_type_id":"4","last_reported":1687529227,"current_range_meters":9600,"station_id":"ce4bhbh2rcd13ifvqepg","pricing_plan_id":"free"},{"bike_id":"98584542-6d00-4e5a-8549-7081265d3c43","system_id":"levelo_inurba_marseille","lat":43.2842,"lon":5.34991,"is_reserved":false,"is_disabled":false,"rental_uris":{"android":"levelo://app?vid=98584542-6d00-4e5a-8549-7081265d3c43","ios":"levelo://app?vid=98584542-6d00-4e5a-8549-7081265d3c43"},"vehicle_type_id":"4","last_reported":1687529227,"current_range_meters":8400,"station_id":"ce4bhbh2rcd13ifvqepg","pricing_plan_id":"free"},{"bike_id":"d7bfc071-8a7d-4573-b7ca-98b0a6b2d584","system_id":"levelo_inurba_marseille","lat":43.284219,"lon":5.3497,"is_reserved":false,"is_disabled":false,"rental_uris":{"android":"levelo://app?vid=d7bfc071-8a7d-4573-b7ca-98b0a6b2d584","ios":"levelo://app?vid=d7bfc071-8a7d-4573-b7ca-98b0a6b2d584"},"vehicle_type_id":"4","last_reported":1687529227,"current_range_meters":15600,"station_id":"ce4bhbh2rcd13ifvqepg","pricing_plan_id":"free"},{"bike_id":"21c36aa3-829d-486e-a2c8-5cb2cc3c357c","system_id":"levelo_inurba_marseille","lat":43.28419,"lon":5.3499,"is_reserved":false,"is_disabled":false,"rental_uris":{"android":"levelo://app?vid=21c36aa3-829d-486e-a2c8-5cb2cc3c357c","ios":"levelo://app?vid=21c36aa3-829d-486e-a2c8-5cb2cc3c357c"},"vehicle_type_id":"4","last_reported":1687529227,"current_range_meters":17600,"station_id":"ce4bhbh2rcd13ifvqepg","pricing_plan_id":"free"},{"bike_id":"3e82b7ac-c1bf-4de5-bf14-4daaa66ab493","system_id":"levelo_inurba_marseille","lat":43.284219,"lon":5.3497,"is_reserved":false,"is_disabled":false,"rental_uris":{"android":"levelo://app?vid=3e82b7ac-c1bf-4de5-bf14-4daaa66ab493","ios":"levelo://app?vid=3e82b7ac-c1bf-4de5-bf14-4daaa66ab493"},"vehicle_type_id":"4","last_reported":1687529227,"current_range_meters":10000,"station_id":"ce4bhbh2rcd13ifvqepg","pricing_plan_id":"free"},{"bike_id":"054ffa85-5c6f-475a-898e-ad2e3e7565bf","system_id":"levelo_inurba_marseille","lat":43.284219,"lon":5.3497,"is_reserved":false,"is_disabled":false,"rental_uris":{"android":"levelo://app?vid=054ffa85-5c6f-475a-898e-ad2e3e7565bf","ios":"levelo://app?vid=054ffa85-5c6f-475a-898e-ad2e3e7565bf"},"vehicle_type_id":"4","last_reported":1687529227,"current_range_meters":18400,"station_id":"ce4bhbh2rcd13ifvqepg","pricing_plan_id":"free"},{"bike_id":"dd742f8b-67c0-4825-b83a-d3326cb40fb2","system_id":"levelo_inurba_marseille","lat":43.28417,"lon":5.34989,"is_reserved":false,"is_disabled":false,"rental_uris":{"android":"levelo://app?vid=dd742f8b-67c0-4825-b83a-d3326cb40fb2","ios":"levelo://app?vid=dd742f8b-67c0-4825-b83a-d3326cb40fb2"},"vehicle_type_id":"4","last_reported":1687529227,"current_range_meters":27200,"station_id":"ce4bhbh2rcd13ifvqepg","pricing_plan_id":"free"},{"bike_id":"38636b0a-d0e6-465b-b7b8-dc664ce29428","system_id":"levelo_inurba_marseille","lat":43.28417,"lon":5.34986,"is_reserved":false,"is_disabled":false,"rental_uris":{"android":"levelo://app?vid=38636b0a-d0e6-465b-b7b8-dc664ce29428","ios":"levelo://app?vid=38636b0a-d0e6-465b-b7b8-dc664ce29428"},"vehicle_type_id":"4","last_reported":1687529227,"current_range_meters":26400,"station_id":"ce4bhbh2rcd13ifvqepg","pricing_plan_id":"free"},{"bike_id":"24dd11c6-e384-4d7b-a502-d02762964927","system_id":"levelo_inurba_marseille","lat":43.28416,"lon":5.34987,"is_reserved":false,"is_disabled":false,"rental_uris":{"android":"levelo://app?vid=24dd11c6-e384-4d7b-a502-d02762964927","ios":"levelo://app?vid=24dd11c6-e384-4d7b-a502-d02762964927"},"vehicle_type_id":"4","last_reported":1687529227,"current_range_meters":7200,"station_id":"ce4bhbh2rcd13ifvqepg","pricing_plan_id":"free"},{"bike_id":"31957fe3-3a8e-422d-a861-57ebec8c35cc","system_id":"levelo_inurba_marseille","lat":43.28414,"lon":5.34991,"is_reserved":false,"is_disabled":false,"rental_uris":{"android":"levelo://app?vid=31957fe3-3a8e-422d-a861-57ebec8c35cc","ios":"levelo://app?vid=31957fe3-3a8e-422d-a861-57ebec8c35cc"},"vehicle_type_id":"4","last_reported":1687529227,"current_range_meters":17600,"station_id":"ce4bhbh2rcd13ifvqepg","pricing_plan_id":"free"},{"bike_id":"d7794388-932e-4da4-91d7-b4cb92d1f6f0","system_id":"levelo_inurba_marseille","lat":43.284219,"lon":5.3497,"is_reserved":false,"is_disabled":false,"rental_uris":{"android":"levelo://app?vid=d7794388-932e-4da4-91d7-b4cb92d1f6f0","ios":"levelo://app?vid=d7794388-932e-4da4-91d7-b4cb92d1f6f0"},"vehicle_type_id":"4","last_reported":1687529227,"current_range_meters":31600,"station_id":"ce4bhbh2rcd13ifvqepg","pricing_plan_id":"free"},{"bike_id":"6bc3c24b-2888-473a-afe2-b4cf73586357","system_id":"levelo_inurba_marseille","lat":43.284219,"lon":5.3497,"is_reserved":false,"is_disabled":false,"rental_uris":{"android":"levelo://app?vid=6bc3c24b-2888-473a-afe2-b4cf73586357","ios":"levelo://app?vid=6bc3c24b-2888-473a-afe2-b4cf73586357"},"vehicle_type_id":"4","last_reported":1687529227,"current_range_meters":16400,"station_id":"ce4bhbh2rcd13ifvqepg","pricing_plan_id":"free"},{"bike_id":"22f5e624-39af-4a83-8252-cf5f9e855a58","system_id":"levelo_inurba_marseille","lat":43.28411,"lon":5.3498,"is_reserved":false,"is_disabled":false,"rental_uris":{"android":"levelo://app?vid=22f5e624-39af-4a83-8252-cf5f9e855a58","ios":"levelo://app?vid=22f5e624-39af-4a83-8252-cf5f9e855a58"},"vehicle_type_id":"4","last_reported":1687529227,"current_range_meters":20800,"station_id":"ce4bhbh2rcd13ifvqepg","pricing_plan_id":"free"},{"bike_id":"7592abc2-5f57-4dd9-86dc-8ff18d805faa","system_id":"levelo_inurba_marseille","lat":43.282744,"lon":5.350533,"is_reserved":false,"is_disabled":false,"rental_uris":{"android":"levelo://app?vid=7592abc2-5f57-4dd9-86dc-8ff18d805faa","ios":"levelo://app?vid=7592abc2-5f57-4dd9-86dc-8ff18d805faa"},"vehicle_type_id":"4","last_reported":1687529227,"current_range_meters":400,"station_id":"ce4bhbp2rcd13ifvqerg","pricing_plan_id":"free"},{"bike_id":"0c19e3cd-24d0-4c19-b60f-5d8d9e5f1ce5","system_id":"levelo_inurba_marseille","lat":43.282744,"lon":5.350533,"is_reserved":false,"is_disabled":false,"rental_uris":{"android":"levelo://app?vid=0c19e3cd-24d0-4c19-b60f-5d8d9e5f1ce5","ios":"levelo://app?vid=0c19e3cd-24d0-4c19-b60f-5d8d9e5f1ce5"},"vehicle_type_id":"4","last_reported":1687529227,"current_range_meters":30000,"station_id":"ce4bhbp2rcd13ifvqerg","pricing_plan_id":"free"},{"bike_id":"eefc3dcd-e74d-4dd0-9890-d17d6bb2673a","system_id":"levelo_inurba_marseille","lat":43.282754,"lon":5.350519,"is_reserved":false,"is_disabled":false,"rental_uris":{"android":"levelo://app?vid=eefc3dcd-e74d-4dd0-9890-d17d6bb2673a","ios":"levelo://app?vid=eefc3dcd-e74d-4dd0-9890-d17d6bb2673a"},"vehicle_type_id":"4","last_reported":1687529227,"current_range_meters":30800,"station_id":"ce4bhbp2rcd13ifvqerg","pricing_plan_id":"free"},{"bike_id":"03f29601-7be2-460b-9aba-e01c87cea381","system_id":"levelo_inurba_marseille","lat":43.28269,"lon":5.35064,"is_reserved":false,"is_disabled":false,"rental_uris":{"android":"levelo://app?vid=03f29601-7be2-460b-9aba-e01c87cea381","ios":"levelo://app?vid=03f29601-7be2-460b-9aba-e01c87cea381"},"vehicle_type_id":"4","last_reported":1687529227,"current_range_meters":15200,"station_id":"ce4bhbp2rcd13ifvqerg","pricing_plan_id":"free"},{"bike_id":"b71ee3cf-6bab-41a9-a90d-3560633a1a5b","system_id":"levelo_inurba_marseille","lat":43.282754,"lon":5.350519,"is_reserved":false,"is_disabled":false,"rental_uris":{"android":"levelo://app?vid=b71ee3cf-6bab-41a9-a90d-3560633a1a5b","ios":"levelo://app?vid=b71ee3cf-6bab-41a9-a90d-3560633a1a5b"},"vehicle_type_id":"4","last_reported":1687529227,"current_range_meters":31200,"station_id":"ce4bhbp2rcd13ifvqerg","pricing_plan_id":"free"},{"bike_id":"167c6cb2-70bb-4fbd-8955-4f4d298e3cd9","system_id":"levelo_inurba_marseille","lat":43.28267,"lon":5.35068,"is_reserved":false,"is_disabled":false,"rental_uris":{"android":"levelo://app?vid=167c6cb2-70bb-4fbd-8955-4f4d298e3cd9","ios":"levelo://app?vid=167c6cb2-70bb-4fbd-8955-4f4d298e3cd9"},"vehicle_type_id":"4","last_reported":1687529227,"current_range_meters":0,"station_id":"ce4bhbp2rcd13ifvqerg","pricing_plan_id":"free"},{"bike_id":"0d3aa93f-59d1-4e72-a3a0-b63c73d4e728","system_id":"levelo_inurba_marseille","lat":43.282744,"lon":5.350533,"is_reserved":false,"is_disabled":false,"rental_uris":{"android":"levelo://app?vid=0d3aa93f-59d1-4e72-a3a0-b63c73d4e728","ios":"levelo://app?vid=0d3aa93f-59d1-4e72-a3a0-b63c73d4e728"},"vehicle_type_id":"4","last_reported":1687529227,"current_range_meters":25600,"station_id":"ce4bhbp2rcd13ifvqerg","pricing_plan_id":"free"},{"bike_id":"f3f01f50-baad-4def-8c8a-741783ba8bb0","system_id":"levelo_inurba_marseille","lat":43.282754,"lon":5.350519,"is_reserved":false,"is_disabled":false,"rental_uris":{"android":"levelo://app?vid=f3f01f50-baad-4def-8c8a-741783ba8bb0","ios":"levelo://app?vid=f3f01f50-baad-4def-8c8a-741783ba8bb0"},"vehicle_type_id":"4","last_reported":1687529227,"current_range_meters":25200,"station_id":"ce4bhbp2rcd13ifvqerg","pricing_plan_id":"free"},{"bike_id":"1a56267b-915f-41a1-8495-ec7d22cda00a","system_id":"levelo_inurba_marseille","lat":43.28269,"lon":5.35059,"is_reserved":false,"is_disabled":false,"rental_uris":{"android":"levelo://app?vid=1a56267b-915f-41a1-8495-ec7d22cda00a","ios":"levelo://app?vid=1a56267b-915f-41a1-8495-ec7d22cda00a"},"vehicle_type_id":"4","last_reported":1687529227,"current_range_meters":6800,"station_id":"ce4bhbp2rcd13ifvqerg","pricing_plan_id":"free"},{"bike_id":"43571aef-ad50-451c-aa6e-2d04357bd179","system_id":"levelo_inurba_marseille","lat":43.28264,"lon":5.35073,"is_reserved":false,"is_disabled":false,"rental_uris":{"android":"levelo://app?vid=43571aef-ad50-451c-aa6e-2d04357bd179","ios":"levelo://app?vid=43571aef-ad50-451c-aa6e-2d04357bd179"},"vehicle_type_id":"4","last_reported":1687529227,"current_range_meters":4800,"station_id":"ce4bhbp2rcd13ifvqerg","pricing_plan_id":"free"},{"bike_id":"cf609e6d-c53f-4dc5-b35d-8ade40c38176","system_id":"levelo_inurba_marseille","lat":43.282744,"lon":5.350533,"is_reserved":false,"is_disabled":false,"rental_uris":{"android":"levelo://app?vid=cf609e6d-c53f-4dc5-b35d-8ade40c38176","ios":"levelo://app?vid=cf609e6d-c53f-4dc5-b35d-8ade40c38176"},"vehicle_type_id":"4","last_reported":1687529227,"current_range_meters":5200,"station_id":"ce4bhbp2rcd13ifvqerg","pricing_plan_id":"free"},{"bike_id":"92f64840-aca1-4d0a-8396-64bd9662f360","system_id":"levelo_inurba_marseille","lat":43.28263,"lon":5.35066,"is_reserved":false,"is_disabled":false,"rental_uris":{"android":"levelo://app?vid=92f64840-aca1-4d0a-8396-64bd9662f360","ios":"levelo://app?vid=92f64840-aca1-4d0a-8396-64bd9662f360"},"vehicle_type_id":"4","last_reported":1687529227,"current_range_meters":18400,"station_id":"ce4bhbp2rcd13ifvqerg","pricing_plan_id":"free"},{"bike_id":"ea129334-5121-45e8-99a7-181893bbde20","system_id":"levelo_inurba_marseille","lat":43.282744,"lon":5.350533,"is_reserved":false,"is_disabled":false,"rental_uris":{"android":"levelo://app?vid=ea129334-5121-45e8-99a7-181893bbde20","ios":"levelo://app?vid=ea129334-5121-45e8-99a7-181893bbde20"},"vehicle_type_id":"4","last_reported":1687529227,"current_range_meters":22800,"station_id":"ce4bhbp2rcd13ifvqerg","pricing_plan_id":"free"},{"bike_id":"b684bfcd-e35d-4a06-93fa-200949439813","system_id":"levelo_inurba_marseille","lat":43.282744,"lon":5.350533,"is_reserved":false,"is_disabled":false,"rental_uris":{"android":"levelo://app?vid=b684bfcd-e35d-4a06-93fa-200949439813","ios":"levelo://app?vid=b684bfcd-e35d-4a06-93fa-200949439813"},"vehicle_type_id":"4","last_reported":1687529227,"current_range_meters":31600,"station_id":"ce4bhbp2rcd13ifvqerg","pricing_plan_id":"free"},{"bike_id":"9b9c38da-8980-4036-a865-baecdf11ed23","system_id":"levelo_inurba_marseille","lat":43.282744,"lon":5.350533,"is_reserved":false,"is_disabled":false,"rental_uris":{"android":"levelo://app?vid=9b9c38da-8980-4036-a865-baecdf11ed23","ios":"levelo://app?vid=9b9c38da-8980-4036-a865-baecdf11ed23"},"vehicle_type_id":"4","last_reported":1687529227,"current_range_meters":26800,"station_id":"ce4bhbp2rcd13ifvqerg","pricing_plan_id":"free"},{"bike_id":"52fe71fd-5af6-46f4-8094-3b0c36fb79a1","system_id":"levelo_inurba_marseille","lat":43.282744,"lon":5.350533,"is_reserved":false,"is_disabled":false,"rental_uris":{"android":"levelo://app?vid=52fe71fd-5af6-46f4-8094-3b0c36fb79a1","ios":"levelo://app?vid=52fe71fd-5af6-46f4-8094-3b0c36fb79a1"},"vehicle_type_id":"4","last_reported":1687529227,"current_range_meters":6000,"station_id":"ce4bhbp2rcd13ifvqerg","pricing_plan_id":"free"},{"bike_id":"ab3a1227-ed25-4b25-98ae-0667b67e224f","system_id":"levelo_inurba_marseille","lat":43.282744,"lon":5.350533,"is_reserved":false,"is_disabled":false,"rental_uris":{"android":"levelo://app?vid=ab3a1227-ed25-4b25-98ae-0667b67e224f","ios":"levelo://app?vid=ab3a1227-ed25-4b25-98ae-0667b67e224f"},"vehicle_type_id":"4","last_reported":1687529227,"current_range_meters":13600,"station_id":"ce4bhbp2rcd13ifvqerg","pricing_plan_id":"free"},{"bike_id":"e45531b6-cfee-4184-8d05-4bbbbd307aef","system_id":"levelo_inurba_marseille","lat":43.28039,"lon":5.369297,"is_reserved":false,"is_disabled":false,"rental_uris":{"android":"levelo://app?vid=e45531b6-cfee-4184-8d05-4bbbbd307aef","ios":"levelo://app?vid=e45531b6-cfee-4184-8d05-4bbbbd307aef"},"vehicle_type_id":"4","last_reported":1687529227,"current_range_meters":24000,"station_id":"ce4bha12rcd13ifvqef0","pricing_plan_id":"free"},{"bike_id":"d83c0b59-ef9e-4c05-a18b-402ebbf97852","system_id":"levelo_inurba_marseille","lat":43.280382,"lon":5.369291,"is_reserved":false,"is_disabled":false,"rental_uris":{"android":"levelo://app?vid=d83c0b59-ef9e-4c05-a18b-402ebbf97852","ios":"levelo://app?vid=d83c0b59-ef9e-4c05-a18b-402ebbf97852"},"vehicle_type_id":"4","last_reported":1687529227,"current_range_meters":31200,"station_id":"ce4bha12rcd13ifvqef0","pricing_plan_id":"free"},{"bike_id":"69c55371-d10e-40bf-bbe7-d57ba96af34e","system_id":"levelo_inurba_marseille","lat":43.282754,"lon":5.350519,"is_reserved":false,"is_disabled":false,"rental_uris":{"android":"levelo://app?vid=69c55371-d10e-40bf-bbe7-d57ba96af34e","ios":"levelo://app?vid=69c55371-d10e-40bf-bbe7-d57ba96af34e"},"vehicle_type_id":"4","last_reported":1687529227,"current_range_meters":31200,"station_id":"ce4bhbp2rcd13ifvqerg","pricing_plan_id":"free"},{"bike_id":"b39210f0-c358-4fc8-bff8-8cb6faf900bf","system_id":"levelo_inurba_marseille","lat":43.28039,"lon":5.369297,"is_reserved":false,"is_disabled":false,"rental_uris":{"android":"levelo://app?vid=b39210f0-c358-4fc8-bff8-8cb6faf900bf","ios":"levelo://app?vid=b39210f0-c358-4fc8-bff8-8cb6faf900bf"},"vehicle_type_id":"4","last_reported":1687529227,"current_range_meters":28400,"station_id":"ce4bha12rcd13ifvqef0","pricing_plan_id":"free"},{"bike_id":"50f3a798-ec79-4fe0-b285-1326ae52c348","system_id":"levelo_inurba_marseille","lat":43.290394,"lon":5.399781,"is_reserved":false,"is_disabled":false,"rental_uris":{"android":"levelo://app?vid=50f3a798-ec79-4fe0-b285-1326ae52c348","ios":"levelo://app?vid=50f3a798-ec79-4fe0-b285-1326ae52c348"},"vehicle_type_id":"4","last_reported":1687529227,"current_range_meters":0,"station_id":"","pricing_plan_id":"free"},{"bike_id":"1d80e2af-fc5c-40a3-b738-6d5f6ef07b3b","system_id":"levelo_inurba_marseille","lat":43.281044,"lon":5.378308,"is_reserved":false,"is_disabled":false,"rental_uris":{"android":"levelo://app?vid=1d80e2af-fc5c-40a3-b738-6d5f6ef07b3b","ios":"levelo://app?vid=1d80e2af-fc5c-40a3-b738-6d5f6ef07b3b"},"vehicle_type_id":"4","last_reported":1687529227,"current_range_meters":30000,"station_id":"ce4bha12rcd13ifvqee0","pricing_plan_id":"free"},{"bike_id":"de9610a0-c145-4588-940a-82b9a145a96b","system_id":"levelo_inurba_marseille","lat":43.2963,"lon":5.40596,"is_reserved":false,"is_disabled":false,"rental_uris":{"android":"levelo://app?vid=de9610a0-c145-4588-940a-82b9a145a96b","ios":"levelo://app?vid=de9610a0-c145-4588-940a-82b9a145a96b"},"vehicle_type_id":"4","last_reported":1687529227,"current_range_meters":400,"station_id":"ce4bh0h2rcd13ifvqd60","pricing_plan_id":"free"},{"bike_id":"3cd10ad7-a316-4ed6-a3d9-f31d3f3622ac","system_id":"levelo_inurba_marseille","lat":43.34474,"lon":5.37806,"is_reserved":false,"is_disabled":false,"rental_uris":{"android":"levelo://app?vid=3cd10ad7-a316-4ed6-a3d9-f31d3f3622ac","ios":"levelo://app?vid=3cd10ad7-a316-4ed6-a3d9-f31d3f3622ac"},"vehicle_type_id":"4","last_reported":1687529227,"current_range_meters":0,"station_id":"","pricing_plan_id":"free"},{"bike_id":"ff60adae-f71a-4e2f-9c03-c28e9ecc3c45","system_id":"levelo_inurba_marseille","lat":43.32762,"lon":5.40749,"is_reserved":false,"is_disabled":false,"rental_uris":{"android":"levelo://app?vid=ff60adae-f71a-4e2f-9c03-c28e9ecc3c45","ios":"levelo://app?vid=ff60adae-f71a-4e2f-9c03-c28e9ecc3c45"},"vehicle_type_id":"4","last_reported":1687529227,"current_range_meters":9600,"station_id":"","pricing_plan_id":"free"},{"bike_id":"7fe1985d-71f2-4a20-ad1b-0a13196855b1","system_id":"levelo_inurba_marseille","lat":43.28571,"lon":5.39501,"is_reserved":false,"is_disabled":false,"rental_uris":{"android":"levelo://app?vid=7fe1985d-71f2-4a20-ad1b-0a13196855b1","ios":"levelo://app?vid=7fe1985d-71f2-4a20-ad1b-0a13196855b1"},"vehicle_type_id":"4","last_reported":1687529227,"current_range_meters":0,"station_id":"ce4bh292rcd13ifvqdg0","pricing_plan_id":"free"},{"bike_id":"98303904-3e78-415b-a87f-14d974bd0418","system_id":"levelo_inurba_marseille","lat":43.32653,"lon":5.40985,"is_reserved":false,"is_disabled":false,"rental_uris":{"android":"levelo://app?vid=98303904-3e78-415b-a87f-14d974bd0418","ios":"levelo://app?vid=98303904-3e78-415b-a87f-14d974bd0418"},"vehicle_type_id":"4","last_reported":1687529227,"current_range_meters":5600,"station_id":"ce4bhpp2rcd13ifvqhgg","pricing_plan_id":"free"},{"bike_id":"8ba70a55-4fcb-41bb-97e4-18961bf7b561","system_id":"levelo_inurba_marseille","lat":43.32656,"lon":5.40987,"is_reserved":false,"is_disabled":false,"rental_uris":{"android":"levelo://app?vid=8ba70a55-4fcb-41bb-97e4-18961bf7b561","ios":"levelo://app?vid=8ba70a55-4fcb-41bb-97e4-18961bf7b561"},"vehicle_type_id":"4","last_reported":1687529227,"current_range_meters":26400,"station_id":"ce4bhpp2rcd13ifvqhgg","pricing_plan_id":"free"},{"bike_id":"396b44d2-0222-401b-ad95-29df0edcef80","system_id":"levelo_inurba_marseille","lat":43.32655,"lon":5.40991,"is_reserved":false,"is_disabled":false,"rental_uris":{"android":"levelo://app?vid=396b44d2-0222-401b-ad95-29df0edcef80","ios":"levelo://app?vid=396b44d2-0222-401b-ad95-29df0edcef80"},"vehicle_type_id":"4","last_reported":1687529227,"current_range_meters":20800,"station_id":"ce4bhpp2rcd13ifvqhgg","pricing_plan_id":"free"},{"bike_id":"65cfc88b-4e48-4fd7-b8aa-da7e4228ff23","system_id":"levelo_inurba_marseille","lat":43.32656,"lon":5.40993,"is_reserved":false,"is_disabled":false,"rental_uris":{"android":"levelo://app?vid=65cfc88b-4e48-4fd7-b8aa-da7e4228ff23","ios":"levelo://app?vid=65cfc88b-4e48-4fd7-b8aa-da7e4228ff23"},"vehicle_type_id":"4","last_reported":1687529227,"current_range_meters":0,"station_id":"ce4bhpp2rcd13ifvqhgg","pricing_plan_id":"free"},{"bike_id":"fc2a51fe-3bf8-46f3-9fe8-f24612d4a02a","system_id":"levelo_inurba_marseille","lat":43.326565,"lon":5.409975,"is_reserved":false,"is_disabled":false,"rental_uris":{"android":"levelo://app?vid=fc2a51fe-3bf8-46f3-9fe8-f24612d4a02a","ios":"levelo://app?vid=fc2a51fe-3bf8-46f3-9fe8-f24612d4a02a"},"vehicle_type_id":"4","last_reported":1687529227,"current_range_meters":7200,"station_id":"ce4bhpp2rcd13ifvqhgg","pricing_plan_id":"free"},{"bike_id":"8588f262-f8e8-462c-9aa6-6c7597f0579b","system_id":"levelo_inurba_marseille","lat":43.29288,"lon":5.40633,"is_reserved":false,"is_disabled":false,"rental_uris":{"android":"levelo://app?vid=8588f262-f8e8-462c-9aa6-6c7597f0579b","ios":"levelo://app?vid=8588f262-f8e8-462c-9aa6-6c7597f0579b"},"vehicle_type_id":"4","last_reported":1687529227,"current_range_meters":19200,"station_id":"","pricing_plan_id":"free"},{"bike_id":"f47d889e-f3a7-4cf7-b89b-498d12032e77","system_id":"levelo_inurba_marseille","lat":43.29287,"lon":5.40667,"is_reserved":false,"is_disabled":false,"rental_uris":{"android":"levelo://app?vid=f47d889e-f3a7-4cf7-b89b-498d12032e77","ios":"levelo://app?vid=f47d889e-f3a7-4cf7-b89b-498d12032e77"},"vehicle_type_id":"4","last_reported":1687529227,"current_range_meters":8400,"station_id":"","pricing_plan_id":"free"},{"bike_id":"50fd953c-9754-45f4-aec7-ae52bb9eb6fe","system_id":"levelo_inurba_marseille","lat":43.287154,"lon":5.399979,"is_reserved":false,"is_disabled":false,"rental_uris":{"android":"levelo://app?vid=50fd953c-9754-45f4-aec7-ae52bb9eb6fe","ios":"levelo://app?vid=50fd953c-9754-45f4-aec7-ae52bb9eb6fe"},"vehicle_type_id":"4","last_reported":1687529227,"current_range_meters":31200,"station_id":"ce4bho92rcd13ifvqh3g","pricing_plan_id":"free"},{"bike_id":"5dd615e6-135f-43b1-b73d-8fc8cd82f9ac","system_id":"levelo_inurba_marseille","lat":43.287154,"lon":5.399979,"is_reserved":false,"is_disabled":false,"rental_uris":{"android":"levelo://app?vid=5dd615e6-135f-43b1-b73d-8fc8cd82f9ac","ios":"levelo://app?vid=5dd615e6-135f-43b1-b73d-8fc8cd82f9ac"},"vehicle_type_id":"4","last_reported":1687529227,"current_range_meters":6800,"station_id":"ce4bho92rcd13ifvqh3g","pricing_plan_id":"free"},{"bike_id":"09c88a7c-643e-4a9f-93f2-ca751eeb986e","system_id":"levelo_inurba_marseille","lat":43.299579,"lon":5.413255,"is_reserved":false,"is_disabled":false,"rental_uris":{"android":"levelo://app?vid=09c88a7c-643e-4a9f-93f2-ca751eeb986e","ios":"levelo://app?vid=09c88a7c-643e-4a9f-93f2-ca751eeb986e"},"vehicle_type_id":"4","last_reported":1687529227,"current_range_meters":16000,"station_id":"ce4bhp12rcd13ifvqh9g","pricing_plan_id":"free"},{"bike_id":"68596b26-aaa6-4207-b726-2c52008cce92","system_id":"levelo_inurba_marseille","lat":43.279742,"lon":5.38744,"is_reserved":false,"is_disabled":false,"rental_uris":{"android":"levelo://app?vid=68596b26-aaa6-4207-b726-2c52008cce92","ios":"levelo://app?vid=68596b26-aaa6-4207-b726-2c52008cce92"},"vehicle_type_id":"4","last_reported":1687529227,"current_range_meters":2000,"station_id":"ce4bhg12rcd13ifvqf80","pricing_plan_id":"free"},{"bike_id":"b491ba11-4ea0-4733-bd4a-bdad7ee5e8b2","system_id":"levelo_inurba_marseille","lat":43.320045,"lon":5.415048,"is_reserved":false,"is_disabled":false,"rental_uris":{"android":"levelo://app?vid=b491ba11-4ea0-4733-bd4a-bdad7ee5e8b2","ios":"levelo://app?vid=b491ba11-4ea0-4733-bd4a-bdad7ee5e8b2"},"vehicle_type_id":"4","last_reported":1687529227,"current_range_meters":29200,"station_id":"ce4bhq92rcd13ifvqhkg","pricing_plan_id":"free"},{"bike_id":"93770b40-4c6e-4795-b72c-b9a69c588165","system_id":"levelo_inurba_marseille","lat":43.320045,"lon":5.415046,"is_reserved":false,"is_disabled":false,"rental_uris":{"android":"levelo://app?vid=93770b40-4c6e-4795-b72c-b9a69c588165","ios":"levelo://app?vid=93770b40-4c6e-4795-b72c-b9a69c588165"},"vehicle_type_id":"4","last_reported":1687529227,"current_range_meters":27600,"station_id":"ce4bhq92rcd13ifvqhkg","pricing_plan_id":"free"},{"bike_id":"7238eb22-1de8-4ff0-ba4d-7dbcc8a8172b","system_id":"levelo_inurba_marseille","lat":43.29261,"lon":5.40905,"is_reserved":false,"is_disabled":false,"rental_uris":{"android":"levelo://app?vid=7238eb22-1de8-4ff0-ba4d-7dbcc8a8172b","ios":"levelo://app?vid=7238eb22-1de8-4ff0-ba4d-7dbcc8a8172b"},"vehicle_type_id":"4","last_reported":1687529227,"current_range_meters":9200,"station_id":"ce4bh192rcd13ifvqdc0","pricing_plan_id":"free"},{"bike_id":"23fd6557-7f1d-4b47-8103-8a284a80c06c","system_id":"levelo_inurba_marseille","lat":43.292569,"lon":5.409107,"is_reserved":false,"is_disabled":false,"rental_uris":{"android":"levelo://app?vid=23fd6557-7f1d-4b47-8103-8a284a80c06c","ios":"levelo://app?vid=23fd6557-7f1d-4b47-8103-8a284a80c06c"},"vehicle_type_id":"4","last_reported":1687529227,"current_range_meters":15200,"station_id":"ce4bh192rcd13ifvqdc0","pricing_plan_id":"free"},