{"last_updated":1710882368,"ttl":30,"version":"2.2","data":{"bikes":[{"bike_id":"6449c81a-2ad0-4a58-b026-e9b61cda0e7e","system_id":"levelo_inurba_marseille","lat":43.313674,"lon":5.367374,"is_reserved":false,"is_disabled":false,"rental_uris":{"android":"levelo://app?vid=6449c81a-2ad0-4a58-b026-e9b61cda0e7e","ios":"levelo://app?vid=6449c81a-2ad0-4a58-b026-e9b61cda0e7e"},"vehicle_type_id":"4","last_reported":1710882368,"current_range_meters":0,"station_id":"","pricing_plan_id":"cebpf4jnsgd1na2vs0mg"},{"bike_id":"7b9ad78f-f7d9-4ab6-9173-4c09e4d7b833","system_id":"levelo_inurba_marseille","lat":43.312228,"lon":5.368494,"is_reserved":false,"is_disabled":false,"rental_uris":{"android":"levelo://app?vid=7b9ad78f-f7d9-4ab6-9173-4c09e4d7b833","ios":"levelo://app?vid=7b9ad78f-f7d9-4ab6-9173-4c09e4d7b833"},"vehicle_type_id":"4","last_reported":1710882368,"current_range_meters":0,"station_id":"ce4bgl92rcd13ifvqbq0","pricing_plan_id":"cebpf4jnsgd1na2vs0mg"},{"bike_id":"94d27e1f-763f-40f3-93dc-48a368b9ed7f","system_id":"levelo_inurba_marseille","lat":43.31224,"lon":5.36857,"is_reserved":false,"is_disabled":false,"rental_uris":{"android":"levelo://app?vid=94d27e1f-763f-40f3-93dc-48a368b9ed7f","ios":"levelo://app?vid=94d27e1f-763f-40f3-93dc-48a368b9ed7f"},"vehicle_type_id":"4","last_reported":1710882368,"current_range_meters":0,"station_id":"ce4bgl92rcd13ifvqbq0","pricing_plan_id":"cebpf4jnsgd1na2vs0mg"},{"bike_id":"ccaa5dfa-b9df-4d70-be5f-6bba0900f3b5","system_id":"levelo_inurba_marseille","lat":43.312239,"lon":5.368562,"is_reserved":false,"is_disabled":false,"rental_uris":{"android":"levelo://app?vid=ccaa5dfa-b9df-4d70-be5f-6bba0900f3b5","ios":"levelo://app?vid=ccaa5dfa-b9df-4d70-be5f-6bba0900f3b5"},"vehicle_type_id":"4","last_reported":1710882368,"current_range_meters":16400,"station_id":"ce4bgl92rcd13ifvqbq0","pricing_plan_id":"cebpf4jnsgd1na2vs0mg"},{"bike_id":"d9db148d-fdc1-42c9-b887-00cb9c9d3b00","system_id":"levelo_inurba_marseille","lat":43.309076,"lon":5.368465,"is_reserved":false,"is_disabled":false,"rental_uris":{"android":"levelo://app?vid=d9db148d-fdc1-42c9-b887-00cb9c9d3b00","ios":"levelo://app?vid=d9db148d-fdc1-42c9-b887-00cb9c9d3b00"},"vehicle_type_id":"4","last_reported":1710882368,"current_range_meters":7600,"station_id":"ce4bgn92rcd13ifvqbvg","pricing_plan_id":"cebpf4jnsgd1na2vs0mg"},{"bike_id":"2d0b5a3c-05bc-4a50-92eb-8fcebaf2855b","system_id":"levelo_inurba_marseille","lat":43.309091,"lon":5.368497,"is_reserved":false,"is_disabled":false,"rental_uris":{"android":"levelo://app?vid=2d0b5a3c-05bc-4a50-92eb-8fcebaf2855b","ios":"levelo://app?vid=2d0b5a3c-05bc-4a50-92eb-8fcebaf2855b"},"vehicle_type_id":"4","last_reported":1710882368,"current_range_meters":6400,"station_id":"ce4bgn92rcd13ifvqbvg","pricing_plan_id":"cebpf4jnsgd1na2vs0mg"},{"bike_id":"90e27834-b568-4582-af67-941d1e7938e5","system_id":"levelo_inurba_marseille","lat":43.309076,"lon":5.368465,"is_reserved":false,"is_disabled":false,"rental_uris":{"android":"levelo://app?vid=90e27834-b568-4582-af67-941d1e7938e5","ios":"levelo://app?vid=90e27834-b568-4582-af67-941d1e7938e5"},"vehicle_type_id":"4","last_reported":1710882368,"current_range_meters":6800,"station_id":"ce4bgn92rcd13ifvqbvg","pricing_plan_id":"cebpf4jnsgd1na2vs0mg"},{"bike_id":"5da35b18-e415-4840-9821-4fb2472c673c","system_id":"levelo_inurba_marseille","lat":43.309076,"lon":5.368465,"is_reserved":false,"is_disabled":false,"rental_uris":{"android":"levelo://app?vid=5da35b18-e415-4840-9821-4fb2472c673c","ios":"levelo://app?vid=5da35b18-e415-4840-9821-4fb2472c673c"},"vehicle_type_id":"4","last_reported":1710882368,"current_range_meters":15200,"station_id":"ce4bgn92rcd13ifvqbvg","pricing_plan_id":"cebpf4jnsgd1na2vs0mg"},{"bike_id":"13139350-b1cf-450a-96cb-67abc9296bf5","system_id":"levelo_inurba_marseille","lat":43.309076,"lon":5.368465,"is_reserved":false,"is_disabled":false,"rental_uris":{"android":"levelo://app?vid=13139350-b1cf-450a-96cb-67abc9296bf5","ios":"levelo://app?vid=13139350-b1cf-450a-96cb-67abc9296bf5"},"vehicle_type_id":"4","last_reported":1710882368,"current_range_meters":28400,"station_id":"ce4bgn92rcd13ifvqbvg","pricing_plan_id":"cebpf4jnsgd1na2vs0mg"},{"bike_id":"1d32529a-3fa0-4c66-955a-3634d7d130d6","system_id":"levelo_inurba_marseille","lat":43.305714,"lon":5.365633,"is_reserved":false,"is_disabled":false,"rental_uris":{"android":"levelo://app?vid=1d32529a-3fa0-4c66-955a-3634d7d130d6","ios":"levelo://app?vid=1d32529a-3fa0-4c66-955a-3634d7d130d6"},"vehicle_type_id":"4","last_reported":1710882368,"current_range_meters":0,"station_id":"ce4bgs12rcd13ifvqcag","pricing_plan_id":"cebpf4jnsgd1na2vs0mg"},{"bike_id":"c59c33f6-a98d-4cdf-92b9-5f58bbf564bd","system_id":"levelo_inurba_marseille","lat":43.305706,"lon":5.365654,"is_reserved":false,"is_disabled":false,"rental_uris":{"android":"levelo://app?vid=c59c33f6-a98d-4cdf-92b9-5f58bbf564bd","ios":"levelo://app?vid=c59c33f6-a98d-4cdf-92b9-5f58bbf564bd"},"vehicle_type_id":"4","last_reported":1710882368,"current_range_meters":2400,"station_id":"ce4bgs12rcd13ifvqcag","pricing_plan_id":"cebpf4jnsgd1na2vs0mg"},{"bike_id":"dcf8d351-f42e-4213-9596-5378bf1c8079","system_id":"levelo_inurba_marseille","lat":43.3061,"lon":5.3722,"is_reserved":false,"is_disabled":false,"rental_uris":{"android":"levelo://app?vid=dcf8d351-f42e-4213-9596-5378bf1c8079","ios":"levelo://app?vid=dcf8d351-f42e-4213-9596-5378bf1c8079"},"vehicle_type_id":"4","last_reported":1710882368,"current_range_meters":16000,"station_id":"ce4bgqh2rcd13ifvqc4g","pricing_plan_id":"cebpf4jnsgd1na2vs0mg"},{"bike_id":"7fc982fb-6740-4aff-942b-1dc57572befb","system_id":"levelo_inurba_marseille","lat":43.305989,"lon":5.37225,"is_reserved":false,"is_disabled":false,"rental_uris":{"android":"levelo://app?vid=7fc982fb-6740-4aff-942b-1dc57572befb","ios":"levelo://app?vid=7fc982fb-6740-4aff-942b-1dc57572befb"},"vehicle_type_id":"4","last_reported":1710882368,"current_range_meters":4000,"station_id":"ce4bgqh2rcd13ifvqc4g","pricing_plan_id":"cebpf4jnsgd1na2vs0mg"},{"bike_id":"0f9aed33-35f7-4414-ae6a-61b99ca0e2c1","system_id":"levelo_inurba_marseille","lat":43.31113,"lon":5.377767,"is_reserved":false,"is_disabled":false,"rental_uris":{"android":"levelo://app?vid=0f9aed33-35f7-4414-ae6a-61b99ca0e2c1","ios":"levelo://app?vid=0f9aed33-35f7-4414-ae6a-61b99ca0e2c1"},"vehicle_type_id":"4","last_reported":1710882368,"current_range_meters":0,"station_id":"ce4bgt92rcd13ifvqcg0","pricing_plan_id":"cebpf4jnsgd1na2vs0mg"},{"bike_id":"033ed257-3408-4060-ab9b-3897892836c2","system_id":"levelo_inurba_marseille","lat":43.307945,"lon":5.376487,"is_reserved":false,"is_disabled":false,"rental_uris":{"android":"levelo://app?vid=033ed257-3408-4060-ab9b-3897892836c2","ios":"levelo://app?vid=033ed257-3408-4060-ab9b-3897892836c2"},"vehicle_type_id":"4","last_reported":1710882368,"current_range_meters":19600,"station_id":"ce4bgv92rcd13ifvqcq0","pricing_plan_id":"cebpf4jnsgd1na2vs0mg"},{"bike_id":"38214662-16e5-4b02-b59c-3aa80eae88a3","system_id":"levelo_inurba_marseille","lat":43.308012,"lon":5.381511,"is_reserved":false,"is_disabled":false,"rental_uris":{"android":"levelo://app?vid=38214662-16e5-4b02-b59c-3aa80eae88a3","ios":"levelo://app?vid=38214662-16e5-4b02-b59c-3aa80eae88a3"},"vehicle_type_id":"4","last_reported":1710882368,"current_range_meters":5600,"station_id":"ce4bgt12rcd13ifvqce0","pricing_plan_id":"cebpf4jnsgd1na2vs0mg"},{"bike_id":"3dade923-d49a-498b-a84a-7ecb87699f07","system_id":"levelo_inurba_marseille","lat":43.32088,"lon":5.37305,"is_reserved":false,"is_disabled":false,"rental_uris":{"android":"levelo://app?vid=3dade923-d49a-498b-a84a-7ecb87699f07","ios":"levelo://app?vid=3dade923-d49a-498b-a84a-7ecb87699f07"},"vehicle_type_id":"4","last_reported":1710882368,"current_range_meters":10800,"station_id":"","pricing_plan_id":"cebpf4jnsgd1na2vs0mg"},{"bike_id":"029d141f-070a-4345-a9b2-e8ea4c17f752","system_id":"levelo_inurba_marseille","lat":43.30315,"lon":5.36894,"is_reserved":false,"is_disabled":false,"rental_uris":{"android":"levelo://app?vid=029d141f-070a-4345-a9b2-e8ea4c17f752","ios":"levelo://app?vid=029d141f-070a-4345-a9b2-e8ea4c17f752"},"vehicle_type_id":"4","last_reported":1710882368,"current_range_meters":3200,"station_id":"ce4bgqh2rcd13ifvqc5g","pricing_plan_id":"cebpf4jnsgd1na2vs0mg"},{"bike_id":"e4d67ee0-98a9-4d5f-9305-07f0a9c963b1","system_id":"levelo_inurba_marseille","lat":43.30304,"lon":5.368983,"is_reserved":false,"is_disabled":false,"rental_uris":{"android":"levelo://app?vid=e4d67ee0-98a9-4d5f-9305-07f0a9c963b1","ios":"levelo://app?vid=e4d67ee0-98a9-4d5f-9305-07f0a9c963b1"},"vehicle_type_id":"4","last_reported":1710882368,"current_range_meters":13200,"station_id":"ce4bgqh2rcd13ifvqc5g","pricing_plan_id":"cebpf4jnsgd1na2vs0mg"},{"bike_id":"2ec83eb6-706c-44e3-a1d3-98215c3248f7","system_id":"levelo_inurba_marseille","lat":43.315293,"lon":5.380349,"is_reserved":false,"is_disabled":false,"rental_uris":{"android":"levelo://app?vid=2ec83eb6-706c-44e3-a1d3-98215c3248f7","ios":"levelo://app?vid=2ec83eb6-706c-44e3-a1d3-98215c3248f7"},"vehicle_type_id":"4","last_reported":1710882368,"current_range_meters":30400,"station_id":"ce4bhsp2rcd13ifvqi50","pricing_plan_id":"cebpf4jnsgd1na2vs0mg"},{"bike_id":"03ae2cf4-2c66-4a0e-9000-e72aeabc5436","system_id":"levelo_inurba_marseille","lat":43.301939,"lon":5.366286,"is_reserved":false,"is_disabled":false,"rental_uris":{"android":"levelo://app?vid=03ae2cf4-2c66-4a0e-9000-e72aeabc5436","ios":"levelo://app?vid=03ae2cf4-2c66-4a0e-9000-e72aeabc5436"},"vehicle_type_id":"4","last_reported":1710882368,"current_range_meters":16800,"station_id":"ce4bgrh2rcd13ifvqc8g","pricing_plan_id":"cebpf4jnsgd1na2vs0mg"},{"bike_id":"c14ab8b6-0be8-4c6a-ae98-8a2b5e813492","system_id":"levelo_inurba_marseille","lat":43.30802,"lon":5.381514,"is_reserved":false,"is_disabled":false,"rental_uris":{"android":"levelo://app?vid=c14ab8b6-0be8-4c6a-ae98-8a2b5e813492","ios":"levelo://app?vid=c14ab8b6-0be8-4c6a-ae98-8a2b5e813492"},"vehicle_type_id":"4","last_reported":1710882368,"current_range_meters":0,"station_id":"ce4bgt12rcd13ifvqce0","pricing_plan_id":"cebpf4jnsgd1na2vs0mg"},{"bike_id":"3ae5378f-d0c3-4da6-a75b-9153df2d48da","system_id":"levelo_inurba_marseille","lat":43.304606,"lon":5.379026,"is_reserved":false,"is_disabled":false,"rental_uris":{"android":"levelo://app?vid=3ae5378f-d0c3-4da6-a75b-9153df2d48da","ios":"levelo://app?vid=3ae5378f-d0c3-4da6-a75b-9153df2d48da"},"vehicle_type_id":"4","last_reported":1710882368,"current_range_meters":0,"station_id":"ce4bgup2rcd13ifvqcn0","pricing_plan_id":"cebpf4jnsgd1na2vs0mg"},{"bike_id":"f9a2681e-dfa9-41ac-9e9c-f4364e2f4afa","system_id":"levelo_inurba_marseille","lat":43.304606,"lon":5.379026,"is_reserved":false,"is_disabled":false,"rental_uris":{"android":"levelo://app?vid=f9a2681e-dfa9-41ac-9e9c-f4364e2f4afa","ios":"levelo://app?vid=f9a2681e-dfa9-41ac-9e9c-f4364e2f4afa"},"vehicle_type_id":"4","last_reported":1710882368,"current_range_meters":0,"station_id":"ce4bgup2rcd13ifvqcn0","pricing_plan_id":"cebpf4jnsgd1na2vs0mg"},{"bike_id":"d747ffc3-26b3-4bed-8ae4-223e1f26a9b9","system_id":"levelo_inurba_marseille","lat":43.324747,"lon":5.365587,"is_reserved":false,"is_disabled":false,"rental_uris":{"android":"levelo://app?vid=d747ffc3-26b3-4bed-8ae4-223e1f26a9b9","ios":"levelo://app?vid=d747ffc3-26b3-4bed-8ae4-223e1f26a9b9"},"vehicle_type_id":"4","last_reported":1710882368,"current_range_meters":6800,"station_id":"ce4bhs12rcd13ifvqhvg","pricing_plan_id":"cebpf4jnsgd1na2vs0mg"},{"bike_id":"78035174-21d1-4135-b9d3-4451b7739307","system_id":"levelo_inurba_marseille","lat":43.324771,"lon":5.36557,"is_reserved":false,"is_disabled":false,"rental_uris":{"android":"levelo://app?vid=78035174-21d1-4135-b9d3-4451b7739307","ios":"levelo://app?vid=78035174-21d1-4135-b9d3-4451b7739307"},"vehicle_type_id":"4","last_reported":1710882368,"current_range_meters":6800,"station_id":"ce4bhs12rcd13ifvqhvg","pricing_plan_id":"cebpf4jnsgd1na2vs0mg"},{"bike_id":"e2ddb4fc-b0c9-4d33-b415-1f98d69b5bb8","system_id":"levelo_inurba_marseille","lat":43.324771,"lon":5.36557,"is_reserved":false,"is_disabled":false,"rental_uris":{"android":"levelo://app?vid=e2ddb4fc-b0c9-4d33-b415-1f98d69b5bb8","ios":"levelo://app?vid=e2ddb4fc-b0c9-4d33-b415-1f98d69b5bb8"},"vehicle_type_id":"4","last_reported":1710882368,"current_range_meters":16000,"station_id":"ce4bhs12rcd13ifvqhvg","pricing_plan_id":"cebpf4jnsgd1na2vs0mg"},{"bike_id":"c56abe9e-fc19-466b-bdf4-4cfcb46f0dd3","system_id":"levelo_inurba_marseille","lat":43.324771,"lon":5.36557,"is_reserved":false,"is_disabled":false,"rental_uris":{"android":"levelo://app?vid=c56abe9e-fc19-466b-bdf4-4cfcb46f0dd3","ios":"levelo://app?vid=c56abe9e-fc19-466b-bdf4-4cfcb46f0dd3"},"vehicle_type_id":"4","last_reported":1710882368,"current_range_meters":6000,"station_id":"ce4bhs12rcd13ifvqhvg","pricing_plan_id":"cebpf4jnsgd1na2vs0mg"},{"bike_id":"2e3fb9e7-1f93-4eeb-932d-7631c96cb308","system_id":"levelo_inurba_marseille","lat":43.324771,"lon":5.36557,"is_reserved":false,"is_disabled":false,"rental_uris":{"android":"levelo://app?vid=2e3fb9e7-1f93-4eeb-932d-7631c96cb308","ios":"levelo://app?vid=2e3fb9e7-1f93-4eeb-932d-7631c96cb308"},"vehicle_type_id":"4","last_reported":1710882368,"current_range_meters":2800,"station_id":"ce4bhs12rcd13ifvqhvg","pricing_plan_id":"cebpf4jnsgd1na2vs0mg"},{"bike_id":"1bd4942d-a6ee-47f2-b0eb-7b019f50f5ca","system_id":"levelo_inurba_marseille","lat":43.324771,"lon":5.36557,"is_reserved":false,"is_disabled":false,"rental_uris":{"android":"levelo://app?vid=1bd4942d-a6ee-47f2-b0eb-7b019f50f5ca","ios":"levelo://app?vid=1bd4942d-a6ee-47f2-b0eb-7b019f50f5ca"},"vehicle_type_id":"4","last_reported":1710882368,"current_range_meters":2000,"station_id":"ce4bhs12rcd13ifvqhvg","pricing_plan_id":"cebpf4jnsgd1na2vs0mg"},{"bike_id":"1d39258a-f28b-4365-bfde-15bf09b2ec85","system_id":"levelo_inurba_marseille","lat":43.324771,"lon":5.36557,"is_reserved":false,"is_disabled":false,"rental_uris":{"android":"levelo://app?vid=1d39258a-f28b-4365-bfde-15bf09b2ec85","ios":"levelo://app?vid=1d39258a-f28b-4365-bfde-15bf09b2ec85"},"vehicle_type_id":"4","last_reported":1710882368,"current_range_meters":14000,"station_id":"ce4bhs12rcd13ifvqhvg","pricing_plan_id":"cebpf4jnsgd1na2vs0mg"},{"bike_id":"6a100862-0dcf-4fc3-8675-d0d8c0e5ac24","system_id":"levelo_inurba_marseille","lat":43.310804,"lon":5.38359,"is_reserved":false,"is_disabled":false,"rental_uris":{"android":"levelo://app?vid=6a100862-0dcf-4fc3-8675-d0d8c0e5ac24","ios":"levelo://app?vid=6a100862-0dcf-4fc3-8675-d0d8c0e5ac24"},"vehicle_type_id":"4","last_reported":1710882368,"current_range_meters":0,"station_id":"ce4bgv92rcd13ifvqcr0","pricing_plan_id":"cebpf4jnsgd1na2vs0mg"},{"bike_id":"5eefe0ca-6757-4cd5-b65c-bfe7c2722862","system_id":"levelo_inurba_marseille","lat":43.310804,"lon":5.38359,"is_reserved":false,"is_disabled":false,"rental_uris":{"android":"levelo://app?vid=5eefe0ca-6757-4cd5-b65c-bfe7c2722862","ios":"levelo://app?vid=5eefe0ca-6757-4cd5-b65c-bfe7c2722862"},"vehicle_type_id":"4","last_reported":1710882368,"current_range_meters":0,"station_id":"ce4bgv92rcd13ifvqcr0","pricing_plan_id":"cebpf4jnsgd1na2vs0mg"},{"bike_id":"f594fa0e-841c-4ad0-8038-9b7f2e3a6443","system_id":"levelo_inurba_marseille","lat":43.310804,"lon":5.38359,"is_reserved":false,"is_disabled":false,"rental_uris":{"android":"levelo://app?vid=f594fa0e-841c-4ad0-8038-9b7f2e3a6443","ios":"levelo://app?vid=f594fa0e-841c-4ad0-8038-9b7f2e3a6443"},"vehicle_type_id":"4","last_reported":1710882368,"current_range_meters":18000,"station_id":"ce4bgv92rcd13ifvqcr0","pricing_plan_id":"cebpf4jnsgd1na2vs0mg"},{"bike_id":"fb52cfb3-a142-4515-bdea-73eef794cd03","system_id":"levelo_inurba_marseille","lat":43.310663,"lon":5.38354,"is_reserved":false,"is_disabled":false,"rental_uris":{"android":"levelo://app?vid=fb52cfb3-a142-4515-bdea-73eef794cd03","ios":"levelo://app?vid=fb52cfb3-a142-4515-bdea-73eef794cd03"},"vehicle_type_id":"4","last_reported":1710882368,"current_range_meters":18000,"station_id":"","pricing_plan_id":"cebpf4jnsgd1na2vs0mg"},{"bike_id":"8f423b57-fbf4-405d-abaf-91005fca79d8","system_id":"levelo_inurba_marseille","lat":43.310804,"lon":5.38359,"is_reserved":false,"is_disabled":false,"rental_uris":{"android":"levelo://app?vid=8f423b57-fbf4-405d-abaf-91005fca79d8","ios":"levelo://app?vid=8f423b57-fbf4-405d-abaf-91005fca79d8"},"vehicle_type_id":"4","last_reported":1710882368,"current_range_meters":2800,"station_id":"ce4bgv92rcd13ifvqcr0","pricing_plan_id":"cebpf4jnsgd1na2vs0mg"},{"bike_id":"b4a8c337-8a84-45f9-901c-acdfbd06fc4b","system_id":"levelo_inurba_marseille","lat":43.310804,"lon":5.38359,"is_reserved":false,"is_disabled":false,"rental_uris":{"android":"levelo://app?vid=b4a8c337-8a84-45f9-901c-acdfbd06fc4b","ios":"levelo://app?vid=b4a8c337-8a84-45f9-901c-acdfbd06fc4b"},"vehicle_type_id":"4","last_reported":1710882368,"current_range_meters":30400,"station_id":"ce4bgv92rcd13ifvqcr0","pricing_plan_id":"cebpf4jnsgd1na2vs0mg"},{"bike_id":"84b73abc-c1fe-44f3-b2d2-78ac90054c36","system_id":"levelo_inurba_marseille","lat":43.310804,"lon":5.38359,"is_reserved":false,"is_disabled":false,"rental_uris":{"android":"levelo://app?vid=84b73abc-c1fe-44f3-b2d2-78ac90054c36","ios":"levelo://app?vid=84b73abc-c1fe-44f3-b2d2-78ac90054c36"},"vehicle_type_id":"4","last_reported":1710882368,"current_range_meters":6400,"station_id":"ce4bgv92rcd13ifvqcr0","pricing_plan_id":"cebpf4jnsgd1na2vs0mg"},{"bike_id":"992bdac0-2079-45ac-895e-2884c3201eed","system_id":"levelo_inurba_marseille","lat":43.310804,"lon":5.38359,"is_reserved":false,"is_disabled":false,"rental_uris":{"android":"levelo://app?vid=992bdac0-2079-45ac-895e-2884c3201eed","ios":"levelo://app?vid=992bdac0-2079-45ac-895e-2884c3201eed"},"vehicle_type_id":"4","last_reported":1710882368,"current_range_meters":18000,"station_id":"ce4bgv92rcd13ifvqcr0","pricing_plan_id":"cebpf4jnsgd1na2vs0mg"},{"bike_id":"0e0b00ae-7729-4ace-b0b8-5711fcf74231","system_id":"levelo_inurba_marseille","lat":43.310804,"lon":5.38359,"is_reserved":false,"is_disabled":false,"rental_uris":{"android":"levelo://app?vid=0e0b00ae-7729-4ace-b0b8-5711fcf74231","ios":"levelo://app?vid=0e0b00ae-7729-4ace-b0b8-5711fcf74231"},"vehicle_type_id":"4","last_reported":1710882368,"current_range_meters":16000,"station_id":"ce4bgv92rcd13ifvqcr0","pricing_plan_id":"cebpf4jnsgd1na2vs0mg"},{"bike_id":"1d88780d-f1c4-41b5-8b98-17c48fd33c14","system_id":"levelo_inurba_marseille","lat":43.319935,"lon":5.381699,"is_reserved":false,"is_disabled":false,"rental_uris":{"android":"levelo://app?vid=1d88780d-f1c4-41b5-8b98-17c48fd33c14","ios":"levelo://app?vid=1d88780d-f1c4-41b5-8b98-17c48fd33c14"},"vehicle_type_id":"4","last_reported":1710882368,"current_range_meters":6400,"station_id":"ce4bhr12rcd13ifvqhpg","pricing_plan_id":"cebpf4jnsgd1na2vs0mg"},{"bike_id":"3a2e0ea9-0656-42c8-b911-ee19a4dbbf8e","system_id":"levelo_inurba_marseille","lat":43.319935,"lon":5.381699,"is_reserved":false,"is_disabled":false,"rental_uris":{"android":"levelo://app?vid=3a2e0ea9-0656-42c8-b911-ee19a4dbbf8e","ios":"levelo://app?vid=3a2e0ea9-0656-42c8-b911-ee19a4dbbf8e"},"vehicle_type_id":"4","last_reported":1710882368,"current_range_meters":16800,"station_id":"ce4bhr12rcd13ifvqhpg","pricing_plan_id":"cebpf4jnsgd1na2vs0mg"},{"bike_id":"90f8a9e8-274f-4ad0-9d3d-5cd343f7045b","system_id":"levelo_inurba_marseille","lat":43.319935,"lon":5.381699,"is_reserved":false,"is_disabled":false,"rental_uris":{"android":"levelo://app?vid=90f8a9e8-274f-4ad0-9d3d-5cd343f7045b","ios":"levelo://app?vid=90f8a9e8-274f-4ad0-9d3d-5cd343f7045b"},"vehicle_type_id":"4","last_reported":1710882368,"current_range_meters":11200,"station_id":"ce4bhr12rcd13ifvqhpg","pricing_plan_id":"cebpf4jnsgd1na2vs0mg"},{"bike_id":"59b83d62-1d91-4918-8b47-9a9a1d917eb3","system_id":"levelo_inurba_marseille","lat":43.319935,"lon":5.381699,"is_reserved":false,"is_disabled":false,"rental_uris":{"android":"levelo://app?vid=59b83d62-1d91-4918-8b47-9a9a1d917eb3","ios":"levelo://app?vid=59b83d62-1d91-4918-8b47-9a9a1d917eb3"},"vehicle_type_id":"4","last_reported":1710882368,"current_range_meters":7200,"station_id":"ce4bhr12rcd13ifvqhpg","pricing_plan_id":"cebpf4jnsgd1na2vs0mg"},{"bike_id":"652ab8f5-04d5-4b3c-9479-97e3d0427748","system_id":"levelo_inurba_marseille","lat":43.319935,"lon":5.381699,"is_reserved":false,"is_disabled":false,"rental_uris":{"android":"levelo://app?vid=652ab8f5-04d5-4b3c-9479-97e3d0427748","ios":"levelo://app?vid=652ab8f5-04d5-4b3c-9479-97e3d0427748"},"vehicle_type_id":"4","last_reported":1710882368,"current_range_meters":19600,"station_id":"ce4bhr12rcd13ifvqhpg","pricing_plan_id":"cebpf4jnsgd1na2vs0mg"},{"bike_id":"be83824f-cd7e-44ed-bda3-89905b40ab1f","system_id":"levelo_inurba_marseille","lat":43.319996,"lon":5.381464,"is_reserved":false,"is_disabled":false,"rental_uris":{"android":"levelo://app?vid=be83824f-cd7e-44ed-bda3-89905b40ab1f","ios":"levelo://app?vid=be83824f-cd7e-44ed-bda3-89905b40ab1f"},"vehicle_type_id":"4","last_reported":1710882368,"current_range_meters":6000,"station_id":"ce4bhr12rcd13ifvqhpg","pricing_plan_id":"cebpf4jnsgd1na2vs0mg"},{"bike_id":"3bf418cf-8c93-441a-80ae-e4e659e91213","system_id":"levelo_inurba_marseille","lat":43.319994,"lon":5.381488,"is_reserved":false,"is_disabled":false,"rental_uris":{"android":"levelo://app?vid=3bf418cf-8c93-441a-80ae-e4e659e91213","ios":"levelo://app?vid=3bf418cf-8c93-441a-80ae-e4e659e91213"},"vehicle_type_id":"4","last_reported":1710882368,"current_range_meters":13200,"station_id":"ce4bhr12rcd13ifvqhpg","pricing_plan_id":"cebpf4jnsgd1na2vs0mg"},{"bike_id":"e6634cf6-29a9-4f1f-8487-418450787096","system_id":"levelo_inurba_marseille","lat":43.319935,"lon":5.381699,"is_reserved":false,"is_disabled":false,"rental_uris":{"android":"levelo://app?vid=e6634cf6-29a9-4f1f-8487-418450787096","ios":"levelo://app?vid=e6634cf6-29a9-4f1f-8487-418450787096"},"vehicle_type_id":"4","last_reported":1710882368,"current_range_meters":4400,"station_id":"ce4bhr12rcd13ifvqhpg","pricing_plan_id":"cebpf4jnsgd1na2vs0mg"},{"bike_id":"fc61d34b-156e-45c2-b499-92005df6167a","system_id":"levelo_inurba_marseille","lat":43.313571,"lon":5.384829,"is_reserved":false,"is_disabled":false,"rental_uris":{"android":"levelo://app?vid=fc61d34b-156e-45c2-b499-92005df6167a","ios":"levelo://app?vid=fc61d34b-156e-45c2-b499-92005df6167a"},"vehicle_type_id":"4","last_reported":1710882368,"current_range_meters":20000,"station_id":"ce4bgt92rcd13ifvqcf0","pricing_plan_id":"cebpf4jnsgd1na2vs0mg"},{"bike_id":"7b5bc8eb-efd3-4dcf-ba18-ec8fb109820e","system_id":"levelo_inurba_marseille","lat":43.313571,"lon":5.384829,"is_reserved":false,"is_disabled":false,"rental_uris":{"android":"levelo://app?vid=7b5bc8eb-efd3-4dcf-ba18-ec8fb109820e","ios":"levelo://app?vid=7b5bc8eb-efd3-4dcf-ba18-ec8fb109820e"},"vehicle_type_id":"4","last_reported":1710882368,"current_range_meters":15600,"station_id":"ce4bgt92rcd13ifvqcf0","pricing_plan_id":"cebpf4jnsgd1na2vs0mg"},{"bike_id":"a840b457-6d1e-4fc8-a31b-b6fd29861943","system_id":"levelo_inurba_marseille","lat":43.313571,"lon":5.384829,"is_reserved":false,"is_disabled":false,"rental_uris":{"android":"levelo://app?vid=a840b457-6d1e-4fc8-a31b-b6fd29861943","ios":"levelo://app?vid=a840b457-6d1e-4fc8-a31b-b6fd29861943"},"vehicle_type_id":"4","last_reported":1710882368,"current_range_meters":24400,"station_id":"ce4bgt92rcd13ifvqcf0","pricing_plan_id":"cebpf4jnsgd1na2vs0mg"},{"bike_id":"25a17e93-e934-4ffb-a3ae-421dc0c1b926","system_id":"levelo_inurba_marseille","lat":43.299222,"lon":5.365554,"is_reserved":false,"is_disabled":false,"rental_uris":{"android":"levelo://app?vid=25a17e93-e934-4ffb-a3ae-421dc0c1b926","ios":"levelo://app?vid=25a17e93-e934-4ffb-a3ae-421dc0c1b926"},"vehicle_type_id":"4","last_reported":1710882368,"current_range_meters":30000,"station_id":"ce4bgm92rcd13ifvqbr0","pricing_plan_id":"cebpf4jnsgd1na2vs0mg"},{"bike_id":"8ab7fa7c-1134-4594-9a1f-36723a569fdf","system_id":"levelo_inurba_marseille","lat":43.299724,"lon":5.371829,"is_reserved":false,"is_disabled":false,"rental_uris":{"android":"levelo://app?vid=8ab7fa7c-1134-4594-9a1f-36723a569fdf","ios":"levelo://app?vid=8ab7fa7c-1134-4594-9a1f-36723a569fdf"},"vehicle_type_id":"4","last_reported":1710882368,"current_range_meters":1200,"station_id":"ce4bgr92rcd13ifvqc7g","pricing_plan_id":"cebpf4jnsgd1na2vs0mg"},{"bike_id":"9b8dee70-b10f-414e-ad48-57de8514684f","system_id":"levelo_inurba_marseille","lat":43.299724,"lon":5.371829,"is_reserved":false,"is_disabled":false,"rental_uris":{"android":"levelo://app?vid=9b8dee70-b10f-414e-ad48-57de8514684f","ios":"levelo://app?vid=9b8dee70-b10f-414e-ad48-57de8514684f"},"vehicle_type_id":"4","last_reported":1710882368,"current_range_meters":0,"station_id":"ce4bgr92rcd13ifvqc7g","pricing_plan_id":"cebpf4jnsgd1na2vs0mg"},{"bike_id":"2a22cad0-189f-4bd0-a765-0f2d287d2b1b","system_id":"levelo_inurba_marseille","lat":43.299222,"lon":5.365554,"is_reserved":false,"is_disabled":false,"rental_uris":{"android":"levelo://app?vid=2a22cad0-189f-4bd0-a765-0f2d287d2b1b","ios":"levelo://app?vid=2a22cad0-189f-4bd0-a765-0f2d287d2b1b"},"vehicle_type_id":"4","last_reported":1710882368,"current_range_meters":3200,"station_id":"ce4bgm92rcd13ifvqbr0","pricing_plan_id":"cebpf4jnsgd1na2vs0mg"},{"bike_id":"290a5678-7ec6-4c36-889c-41fd1af7a0d0","system_id":"levelo_inurba_marseille","lat":43.311722,"lon":5.387247,"is_reserved":false,"is_disabled":false,"rental_uris":{"android":"levelo://app?vid=290a5678-7ec6-4c36-889c-41fd1af7a0d0","ios":"levelo://app?vid=290a5678-7ec6-4c36-889c-41fd1af7a0d0"},"vehicle_type_id":"4","last_reported":1710882368,"current_range_meters":8000,"station_id":"ce4bgv12rcd13ifvqcp0","pricing_plan_id":"cebpf4jnsgd1na2vs0mg"},{"bike_id":"60c0e4d9-a25f-4730-83d0-49fb3dbe17a8","system_id":"levelo_inurba_marseille","lat":43.311722,"lon":5.387247,"is_reserved":false,"is_disabled":false,"rental_uris":{"android":"levelo://app?vid=60c0e4d9-a25f-4730-83d0-49fb3dbe17a8","ios":"levelo://app?vid=60c0e4d9-a25f-4730-83d0-49fb3dbe17a8"},"vehicle_type_id":"4","last_reported":1710882368,"current_range_meters":20000,"station_id":"ce4bgv12rcd13ifvqcp0","pricing_plan_id":"cebpf4jnsgd1na2vs0mg"},{"bike_id":"e447915b-c096-460d-b5f8-bc74a1926192","system_id":"levelo_inurba_marseille","lat":43.311722,"lon":5.387247,"is_reserved":false,"is_disabled":false,"rental_uris":{"android":"levelo://app?vid=e447915b-c096-460d-b5f8-bc74a1926192","ios":"levelo://app?vid=e447915b-c096-460d-b5f8-bc74a1926192"},"vehicle_type_id":"4","last_reported":1710882368,"current_range_meters":14800,"station_id":"ce4bgv12rcd13ifvqcp0","pricing_plan_id":"cebpf4jnsgd1na2vs0mg"},{"bike_id":"4d2add4b-257d-49de-be44-f5b4d50eadc6","system_id":"levelo_inurba_marseille","lat":43.297794,"lon":5.370888,"is_reserved":false,"is_disabled":false,"rental_uris":{"android":"levelo://app?vid=4d2add4b-257d-49de-be44-f5b4d50eadc6","ios":"levelo://app?vid=4d2add4b-257d-49de-be44-f5b4d50eadc6"},"vehicle_type_id":"4","last_reported":1710882368,"current_range_meters":5200,"station_id":"ce4bgop2rcd13ifvqc1g","pricing_plan_id":"cebpf4jnsgd1na2vs0mg"},{"bike_id":"50bbcf34-7ebd-4220-b583-b2a91ba34f5b","system_id":"levelo_inurba_marseille","lat":43.297794,"lon":5.370888,"is_reserved":false,"is_disabled":false,"rental_uris":{"android":"levelo://app?vid=50bbcf34-7ebd-4220-b583-b2a91ba34f5b","ios":"levelo://app?vid=50bbcf34-7ebd-4220-b583-b2a91ba34f5b"},"vehicle_type_id":"4","last_reported":1710882368,"current_range_meters":12400,"station_id":"ce4bgop2rcd13ifvqc1g","pricing_plan_id":"cebpf4jnsgd1na2vs0mg"},{"bike_id":"8805e5c2-5ebc-4d17-aa66-b7acbedf72f2","system_id":"levelo_inurba_marseille","lat":43.32278,"lon":5.38258,"is_reserved":false,"is_disabled":false,"rental_uris":{"android":"levelo://app?vid=8805e5c2-5ebc-4d17-aa66-b7acbedf72f2","ios":"levelo://app?vid=8805e5c2-5ebc-4d17-aa66-b7acbedf72f2"},"vehicle_type_id":"4","last_reported":1710882368,"current_range_meters":3600,"station_id":"ce4bhr12rcd13ifvqhqg","pricing_plan_id":"cebpf4jnsgd1na2vs0mg"},{"bike_id":"feead7e7-9cee-4c57-94a6-da647512767c","system_id":"levelo_inurba_marseille","lat":43.322896,"lon":5.382515,"is_reserved":false,"is_disabled":false,"rental_uris":{"android":"levelo://app?vid=feead7e7-9cee-4c57-94a6-da647512767c","ios":"levelo://app?vid=feead7e7-9cee-4c57-94a6-da647512767c"},"vehicle_type_id":"4","last_reported":1710882368,"current_range_meters":21200,"station_id":"ce4bhr12rcd13ifvqhqg","pricing_plan_id":"cebpf4jnsgd1na2vs0mg"},{"bike_id":"48ba95d6-0d52-4869-a079-e594848932bc","system_id":"levelo_inurba_marseille","lat":43.297794,"lon":5.370888,"is_reserved":false,"is_disabled":false,"rental_uris":{"android":"levelo://app?vid=48ba95d6-0d52-4869-a079-e594848932bc","ios":"levelo://app?vid=48ba95d6-0d52-4869-a079-e594848932bc"},"vehicle_type_id":"4","last_reported":1710882368,"current_range_meters":21600,"station_id":"ce4bgop2rcd13ifvqc1g","pricing_plan_id":"cebpf4jnsgd1na2vs0mg"},{"bike_id":"40920d67-a293-48ed-a3d6-e0e6bc1e2c92","system_id":"levelo_inurba_marseille","lat":43.322943,"lon":5.382503,"is_reserved":false,"is_disabled":false,"rental_uris":{"android":"levelo://app?vid=40920d67-a293-48ed-a3d6-e0e6bc1e2c92","ios":"levelo://app?vid=40920d67-a293-48ed-a3d6-e0e6bc1e2c92"},"vehicle_type_id":"4","last_reported":1710882368,"current_range_meters":5200,"station_id":"ce4bhr12rcd13ifvqhqg","pricing_plan_id":"cebpf4jnsgd1na2vs0mg"},{"bike_id":"5f8b4803-e4ba-4452-a9f1-55c7a87b5d2b","system_id":"levelo_inurba_marseille","lat":43.32289,"lon":5.38261,"is_reserved":false,"is_disabled":false,"rental_uris":{"android":"levelo://app?vid=5f8b4803-e4ba-4452-a9f1-55c7a87b5d2b","ios":"levelo://app?vid=5f8b4803-e4ba-4452-a9f1-55c7a87b5d2b"},"vehicle_type_id":"4","last_reported":1710882368,"current_range_meters":16000,"station_id":"ce4bhr12rcd13ifvqhqg","pricing_plan_id":"cebpf4jnsgd1na2vs0mg"},{"bike_id":"63975cfb-8379-475f-918b-270e730f62ac","system_id":"levelo_inurba_marseille","lat":43.297794,"lon":5.370888,"is_reserved":false,"is_disabled":false,"rental_uris":{"android":"levelo://app?vid=63975cfb-8379-475f-918b-270e730f62ac","ios":"levelo://app?vid=63975cfb-8379-475f-918b-270e730f62ac"},"vehicle_type_id":"4","last_reported":1710882368,"current_range_meters":6400,"station_id":"ce4bgop2rcd13ifvqc1g","pricing_plan_id":"cebpf4jnsgd1na2vs0mg"},{"bike_id":"62e90e97-975b-4b7d-879f-5a0c84df8cc7","system_id":"levelo_inurba_marseille","lat":43.322916,"lon":5.382593,"is_reserved":false,"is_disabled":false,"rental_uris":{"android":"levelo://app?vid=62e90e97-975b-4b7d-879f-5a0c84df8cc7","ios":"levelo://app?vid=62e90e97-975b-4b7d-879f-5a0c84df8cc7"},"vehicle_type_id":"4","last_reported":1710882368,"current_range_meters":6000,"station_id":"ce4bhr12rcd13ifvqhqg","pricing_plan_id":"cebpf4jnsgd1na2vs0mg"},{"bike_id":"77653936-6795-4644-9bbf-81f59777308c","system_id":"levelo_inurba_marseille","lat":43.32287,"lon":5.382651,"is_reserved":false,"is_disabled":false,"rental_uris":{"android":"levelo://app?vid=77653936-6795-4644-9bbf-81f59777308c","ios":"levelo://app?vid=77653936-6795-4644-9bbf-81f59777308c"},"vehicle_type_id":"4","last_reported":1710882368,"current_range_meters":0,"station_id":"ce4bhr12rcd13ifvqhqg","pricing_plan_id":"cebpf4jnsgd1na2vs0mg"},{"bike_id":"f32c3800-2880-49c9-b647-144d107e7f9a","system_id":"levelo_inurba_marseille","lat":43.322886,"lon":5.382643,"is_reserved":false,"is_disabled":false,"rental_uris":{"android":"levelo://app?vid=f32c3800-2880-49c9-b647-144d107e7f9a","ios":"levelo://app?vid=f32c3800-2880-49c9-b647-144d107e7f9a"},"vehicle_type_id":"4","last_reported":1710882368,"current_range_meters":25600,"station_id":"ce4bhr12rcd13ifvqhqg","pricing_plan_id":"cebpf4jnsgd1na2vs0mg"},{"bike_id":"85d4d71c-b2c1-426a-b0b8-be8461195f7e","system_id":"levelo_inurba_marseille","lat":43.322872,"lon":5.382756,"is_reserved":false,"is_disabled":false,"rental_uris":{"android":"levelo://app?vid=85d4d71c-b2c1-426a-b0b8-be8461195f7e","ios":"levelo://app?vid=85d4d71c-b2c1-426a-b0b8-be8461195f7e"},"vehicle_type_id":"4","last_reported":1710882368,"current_range_meters":31600,"station_id":"ce4bhr12rcd13ifvqhqg","pricing_plan_id":"cebpf4jnsgd1na2vs0mg"},{"bike_id":"f0516476-e3a2-4c66-b71c-c566b7ec1fc0","system_id":"levelo_inurba_marseille","lat":43.32286,"lon":5.3827,"is_reserved":false,"is_disabled":false,"rental_uris":{"android":"levelo://app?vid=f0516476-e3a2-4c66-b71c-c566b7ec1fc0","ios":"levelo://app?vid=f0516476-e3a2-4c66-b71c-c566b7ec1fc0"},"vehicle_type_id":"4","last_reported":1710882368,"current_range_meters":27200,"station_id":"ce4bhr12rcd13ifvqhqg","pricing_plan_id":"cebpf4jnsgd1na2vs0mg"},{"bike_id":"bd6b6545-b45a-4dc0-b743-d330ab6c2563","system_id":"levelo_inurba_marseille","lat":43.32291,"lon":5.38264,"is_reserved":false,"is_disabled":false,"rental_uris":{"android":"levelo://app?vid=bd6b6545-b45a-4dc0-b743-d330ab6c2563","ios":"levelo://app?vid=bd6b6545-b45a-4dc0-b743-d330ab6c2563"},"vehicle_type_id":"4","last_reported":1710882368,"current_range_meters":29600,"station_id":"ce4bhr12rcd13ifvqhqg","pricing_plan_id":"cebpf4jnsgd1na2vs0mg"},{"bike_id":"accb2f69-ca20-4b2f-9b54-89cf5f810bdd","system_id":"levelo_inurba_marseille","lat":43.32293,"lon":5.38263,"is_reserved":false,"is_disabled":false,"rental_uris":{"android":"levelo://app?vid=accb2f69-ca20-4b2f-9b54-89cf5f810bdd","ios":"levelo://app?vid=accb2f69-ca20-4b2f-9b54-89cf5f810bdd"},"vehicle_type_id":"4","last_reported":1710882368,"current_range_meters":24000,"station_id":"ce4bhr12rcd13ifvqhqg","pricing_plan_id":"cebpf4jnsgd1na2vs0mg"},{"bike_id":"3ff125a5-dff1-4591-b6cc-449dc2424878","system_id":"levelo_inurba_marseille","lat":43.32289,"lon":5.38269,"is_reserved":false,"is_disabled":false,"rental_uris":{"android":"levelo://app?vid=3ff125a5-dff1-4591-b6cc-449dc2424878","ios":"levelo://app?vid=3ff125a5-dff1-4591-b6cc-449dc2424878"},"vehicle_type_id":"4","last_reported":1710882368,"current_range_meters":18000,"station_id":"ce4bhr12rcd13ifvqhqg","pricing_plan_id":"cebpf4jnsgd1na2vs0mg"},{"bike_id":"4f4a75fa-11e1-4b9c-9fc5-7e2938322638","system_id":"levelo_inurba_marseille","lat":43.32292,"lon":5.38267,"is_reserved":false,"is_disabled":false,"rental_uris":{"android":"levelo://app?vid=4f4a75fa-11e1-4b9c-9fc5-7e2938322638","ios":"levelo://app?vid=4f4a75fa-11e1-4b9c-9fc5-7e2938322638"},"vehicle_type_id":"4","last_reported":1710882368,"current_range_meters":26000,"station_id":"ce4bhr12rcd13ifvqhqg","pricing_plan_id":"cebpf4jnsgd1na2vs0mg"},{"bike_id":"eddeac31-d118-4f00-9fae-66dd1f398919","system_id":"levelo_inurba_marseille","lat":43.32287,"lon":5.38275,"is_reserved":false,"is_disabled":false,"rental_uris":{"android":"levelo://app?vid=eddeac31-d118-4f00-9fae-66dd1f398919","ios":"levelo://app?vid=eddeac31-d118-4f00-9fae-66dd1f398919"},"vehicle_type_id":"4","last_reported":1710882368,"current_range_meters":6800,"station_id":"ce4bhr12rcd13ifvqhqg","pricing_plan_id":"cebpf4jnsgd1na2vs0mg"},{"bike_id":"36727d06-0af4-4c64-88de-4193d3d2494b","system_id":"levelo_inurba_marseille","lat":43.322943,"lon":5.382662,"is_reserved":false,"is_disabled":false,"rental_uris":{"android":"levelo://app?vid=36727d06-0af4-4c64-88de-4193d3d2494b","ios":"levelo://app?vid=36727d06-0af4-4c64-88de-4193d3d2494b"},"vehicle_type_id":"4","last_reported":1710882368,"current_range_meters":15200,"station_id":"ce4bhr12rcd13ifvqhqg","pricing_plan_id":"cebpf4jnsgd1na2vs0mg"},{"bike_id":"f15b0355-2112-4631-980d-d37c34e26c81","system_id":"levelo_inurba_marseille","lat":43.322872,"lon":5.382756,"is_reserved":false,"is_disabled":false,"rental_uris":{"android":"levelo://app?vid=f15b0355-2112-4631-980d-d37c34e26c81","ios":"levelo://app?vid=f15b0355-2112-4631-980d-d37c34e26c81"},"vehicle_type_id":"4","last_reported":1710882368,"current_range_meters":19200,"station_id":"ce4bhr12rcd13ifvqhqg","pricing_plan_id":"cebpf4jnsgd1na2vs0mg"},{"bike_id":"91866b6c-0f1d-4595-a374-74c3f3fe3718","system_id":"levelo_inurba_marseille","lat":43.32291,"lon":5.38274,"is_reserved":false,"is_disabled":false,"rental_uris":{"android":"levelo://app?vid=91866b6c-0f1d-4595-a374-74c3f3fe3718","ios":"levelo://app?vid=91866b6c-0f1d-4595-a374-74c3f3fe3718"},"vehicle_type_id":"4","last_reported":1710882368,"current_range_meters":4000,"station_id":"ce4bhr12rcd13ifvqhqg","pricing_plan_id":"cebpf4jnsgd1na2vs0mg"},{"bike_id":"ba23170a-19ea-4496-9826-26157cb68722","system_id":"levelo_inurba_marseille","lat":43.322872,"lon":5.382756,"is_reserved":false,"is_disabled":false,"rental_uris":{"android":"levelo://app?vid=ba23170a-19ea-4496-9826-26157cb68722","ios":"levelo://app?vid=ba23170a-19ea-4496-9826-26157cb68722"},"vehicle_type_id":"4","last_reported":1710882368,"current_range_meters":24400,"station_id":"ce4bhr12rcd13ifvqhqg","pricing_plan_id":"cebpf4jnsgd1na2vs0mg"},{"bike_id":"3f897b5a-cdff-4477-8cbe-02af1e3040aa","system_id":"levelo_inurba_marseille","lat":43.3229,"lon":5.38276,"is_reserved":false,"is_disabled":false,"rental_uris":{"android":"levelo://app?vid=3f897b5a-cdff-4477-8cbe-02af1e3040aa","ios":"levelo://app?vid=3f897b5a-cdff-4477-8cbe-02af1e3040aa"},"vehicle_type_id":"4","last_reported":1710882368,"current_range_meters":3200,"station_id":"ce4bhr12rcd13ifvqhqg","pricing_plan_id":"cebpf4jnsgd1na2vs0mg"},{"bike_id":"17bdca51-17b3-45a3-acf4-89e231d222ea","system_id":"levelo_inurba_marseille","lat":43.297163,"lon":5.365866,"is_reserved":false,"is_disabled":false,"rental_uris":{"android":"levelo://app?vid=17bdca51-17b3-45a3-acf4-89e231d222ea","ios":"levelo://app?vid=17bdca51-17b3-45a3-acf4-89e231d222ea"},"vehicle_type_id":"4","last_reported":1710882368,"current_range_meters":25200,"station_id":"ce4bgn12rcd13ifvqbt0","pricing_plan_id":"cebpf4jnsgd1na2vs0mg"},{"bike_id":"ace25128-9927-4b95-b6d9-d488be37a897","system_id":"levelo_inurba_marseille","lat":43.297163,"lon":5.365866,"is_reserved":false,"is_disabled":false,"rental_uris":{"android":"levelo://app?vid=ace25128-9927-4b95-b6d9-d488be37a897","ios":"levelo://app?vid=ace25128-9927-4b95-b6d9-d488be37a897"},"vehicle_type_id":"4","last_reported":1710882368,"current_range_meters":25200,"station_id":"ce4bgn12rcd13ifvqbt0","pricing_plan_id":"cebpf4jnsgd1na2vs0mg"},{"bike_id":"2acb2027-6fdb-485a-b371-43f34740745c","system_id":"levelo_inurba_marseille","lat":43.297163,"lon":5.365866,"is_reserved":false,"is_disabled":false,"rental_uris":{"android":"levelo://app?vid=2acb2027-6fdb-485a-b371-43f34740745c","ios":"levelo://app?vid=2acb2027-6fdb-485a-b371-43f34740745c"},"vehicle_type_id":"4","last_reported":1710882368,"current_range_meters":11200,"station_id":"ce4bgn12rcd13ifvqbt0","pricing_plan_id":"cebpf4jnsgd1na2vs0mg"},{"bike_id":"379c24a9-8b39-4998-b57a-e7bc51d2ee41","system_id":"levelo_inurba_marseille","lat":43.317557,"lon":5.390173,"is_reserved":false,"is_disabled":false,"rental_uris":{"android":"levelo://app?vid=379c24a9-8b39-4998-b57a-e7bc51d2ee41","ios":"levelo://app?vid=379c24a9-8b39-4998-b57a-e7bc51d2ee41"},"vehicle_type_id":"4","last_reported":1710882368,"current_range_meters":2400,"station_id":"ce4bhqp2rcd13ifvqhng","pricing_plan_id":"cebpf4jnsgd1na2vs0mg"},{"bike_id":"ea210a66-d055-41fd-addb-e41d18cf1ae0","system_id":"levelo_inurba_marseille","lat":43.30166,"lon":5.383277,"is_reserved":false,"is_disabled":false,"rental_uris":{"android":"levelo://app?vid=ea210a66-d055-41fd-addb-e41d18cf1ae0","ios":"levelo://app?vid=ea210a66-d055-41fd-addb-e41d18cf1ae0"},"vehicle_type_id":"4","last_reported":1710882368,"current_range_meters":27200,"station_id":"","pricing_plan_id":"cebpf4jnsgd1na2vs0mg"},{"bike_id":"2e3cfbc4-2591-412d-946c-a756b7107de3","system_id":"levelo_inurba_marseille","lat":43.2968,"lon":5.37291,"is_reserved":false,"is_disabled":false,"rental_uris":{"android":"levelo://app?vid=2e3cfbc4-2591-412d-946c-a756b7107de3","ios":"levelo://app?vid=2e3cfbc4-2591-412d-946c-a756b7107de3"},"vehicle_type_id":"4","last_reported":1710882368,"current_range_meters":18000,"station_id":"ce4bgk12rcd13ifvqbj0","pricing_plan_id":"cebpf4jnsgd1na2vs0mg"},{"bike_id":"587375d8-b902-467c-8c54-c29f269bacab","system_id":"levelo_inurba_marseille","lat":43.30353,"lon":5.38612,"is_reserved":false,"is_disabled":false,"rental_uris":{"android":"levelo://app?vid=587375d8-b902-467c-8c54-c29f269bacab","ios":"levelo://app?vid=587375d8-b902-467c-8c54-c29f269bacab"},"vehicle_type_id":"4","last_reported":1710882368,"current_range_meters":0,"station_id":"","pricing_plan_id":"cebpf4jnsgd1na2vs0mg"},{"bike_id":"6428637b-49e9-4c6a-9ed4-57d3b431d8e1","system_id":"levelo_inurba_marseille","lat":43.296131,"lon":5.370791,"is_reserved":false,"is_disabled":false,"rental_uris":{"android":"levelo://app?vid=6428637b-49e9-4c6a-9ed4-57d3b431d8e1","ios":"levelo://app?vid=6428637b-49e9-4c6a-9ed4-57d3b431d8e1"},"vehicle_type_id":"4","last_reported":1710882368,"current_range_meters":10000,"station_id":"ce4bgnh2rcd13ifvqc0g","pricing_plan_id":"cebpf4jnsgd1na2vs0mg"},{"bike_id":"e82068a2-4702-4347-aadc-2585b1163aa6","system_id":"levelo_inurba_marseille","lat":43.309787,"lon":5.38995,"is_reserved":false,"is_disabled":false,"rental_uris":{"android":"levelo://app?vid=e82068a2-4702-4347-aadc-2585b1163aa6","ios":"levelo://app?vid=e82068a2-4702-4347-aadc-2585b1163aa6"},"vehicle_type_id":"4","last_reported":1710882368,"current_range_meters":0,"station_id":"ce4bgup2rcd13ifvqco0","pricing_plan_id":"cebpf4jnsgd1na2vs0mg"},{"bike_id":"a246b175-8def-425a-b860-941fc8262235","system_id":"levelo_inurba_marseille","lat":43.309589,"lon":5.390258,"is_reserved":false,"is_disabled":false,"rental_uris":{"android":"levelo://app?vid=a246b175-8def-425a-b860-941fc8262235","ios":"levelo://app?vid=a246b175-8def-425a-b860-941fc8262235"},"vehicle_type_id":"4","last_reported":1710882368,"current_range_meters":6400,"station_id":"ce4bgup2rcd13ifvqco0","pricing_plan_id":"cebpf4jnsgd1na2vs0mg"},{"bike_id":"e3173e50-1f15-45f4-93fa-0f80c25a3666","system_id":"levelo_inurba_marseille","lat":43.296935,"lon":5.376544,"is_reserved":false,"is_disabled":false,"rental_uris":{"android":"levelo://app?vid=e3173e50-1f15-45f4-93fa-0f80c25a3666","ios":"levelo://app?vid=e3173e50-1f15-45f4-93fa-0f80c25a3666"},"vehicle_type_id":"4","last_reported":1710882368,"current_range_meters":15200,"station_id":"ce4bgkh2rcd13ifvqbl0","pricing_plan_id":"cebpf4jnsgd1na2vs0mg"},{"bike_id":"853db477-f31a-466e-8ad9-0832a1e41cb2","system_id":"levelo_inurba_marseille","lat":43.317557,"lon":5.390173,"is_reserved":false,"is_disabled":false,"rental_uris":{"android":"levelo://app?vid=853db477-f31a-466e-8ad9-0832a1e41cb2","ios":"levelo://app?vid=853db477-f31a-466e-8ad9-0832a1e41cb2"},"vehicle_type_id":"4","last_reported":1710882368,"current_range_meters":28800,"station_id":"ce4bhqp2rcd13ifvqhng","pricing_plan_id":"cebpf4jnsgd1na2vs0mg"},{"bike_id":"abfcce25-6301-4e4f-abdb-06281e7cafdf","system_id":"levelo_inurba_marseille","lat":43.317557,"lon":5.390173,"is_reserved":false,"is_disabled":false,"rental_uris":{"android":"levelo://app?vid=abfcce25-6301-4e4f-abdb-06281e7cafdf","ios":"levelo://app?vid=abfcce25-6301-4e4f-abdb-06281e7cafdf"},"vehicle_type_id":"4","last_reported":1710882368,"current_range_meters":2800,"station_id":"ce4bhqp2rcd13ifvqhng","pricing_plan_id":"cebpf4jnsgd1na2vs0mg"},{"bike_id":"add7f8ca-ceb2-4a3d-b852-c4ebd3cce13c","system_id":"levelo_inurba_marseille","lat":43.31751,"lon":5.39016,"is_reserved":false,"is_disabled":false,"rental_uris":{"android":"levelo://app?vid=add7f8ca-ceb2-4a3d-b852-c4ebd3cce13c","ios":"levelo://app?vid=add7f8ca-ceb2-4a3d-b852-c4ebd3cce13c"},"vehicle_type_id":"4","last_reported":1710882368,"current_range_meters":9600,"station_id":"ce4bhqp2rcd13ifvqhng","pricing_plan_id":"cebpf4jnsgd1na2vs0mg"},{"bike_id":"d953640e-f2c8-4259-b6c4-199d9789e936","system_id":"levelo_inurba_marseille","lat":43.317557,"lon":5.390173,"is_reserved":false,"is_disabled":false,"rental_uris":{"android":"levelo://app?vid=d953640e-f2c8-4259-b6c4-199d9789e936","ios":"levelo://app?vid=d953640e-f2c8-4259-b6c4-199d9789e936"},"vehicle_type_id":"4","last_reported":1710882368,"current_range_meters":9600,"station_id":"ce4bhqp2rcd13ifvqhng","pricing_plan_id":"cebpf4jnsgd1na2vs0mg"},{"bike_id":"ca944068-2655-453d-8f07-5da02e5def12","system_id":"levelo_inurba_marseille","lat":43.317557,"lon":5.390173,"is_reserved":false,"is_disabled":false,"rental_uris":{"android":"levelo://app?vid=ca944068-2655-453d-8f07-5da02e5def12","ios":"levelo://app?vid=ca944068-2655-453d-8f07-5da02e5def12"},"vehicle_type_id":"4","last_reported":1710882368,"current_range_meters":31600,"station_id":"ce4bhqp2rcd13ifvqhng","pricing_plan_id":"cebpf4jnsgd1na2vs0mg"},{"bike_id":"ba7fb15e-941b-4dd0-8924-dfb2cd68f7b2","system_id":"levelo_inurba_marseille","lat":43.317557,"lon":5.390173,"is_reserved":false,"is_disabled":false,"rental_uris":{"android":"levelo://app?vid=ba7fb15e-941b-4dd0-8924-dfb2cd68f7b2","ios":"levelo://app?vid=ba7fb15e-941b-4dd0-8924-dfb2cd68f7b2"},"vehicle_type_id":"4","last_reported":1710882368,"current_range_meters":0,"station_id":"ce4bhqp2rcd13ifvqhng","pricing_plan_id":"cebpf4jnsgd1na2vs0mg"},{"bike_id":"6e671c50-e4d3-4412-bb75-5dbf77010ee3","system_id":"levelo_inurba_marseille","lat":43.29687,"lon":5.37753,"is_reserved":false,"is_disabled":false,"rental_uris":{"android":"levelo://app?vid=6e671c50-e4d3-4412-bb75-5dbf77010ee3","ios":"levelo://app?vid=6e671c50-e4d3-4412-bb75-5dbf77010ee3"},"vehicle_type_id":"4","last_reported":1710882368,"current_range_meters":21600,"station_id":"","pricing_plan_id":"cebpf4jnsgd1na2vs0mg"},{"bike_id":"5b981aa5-3cdb-479b-9238-d91199a4569f","system_id":"levelo_inurba_marseille","lat":43.304154,"lon":5.388228,"is_reserved":false,"is_disabled":false,"rental_uris":{"android":"levelo://app?vid=5b981aa5-3cdb-479b-9238-d91199a4569f","ios":"levelo://app?vid=5b981aa5-3cdb-479b-9238-d91199a4569f"},"vehicle_type_id":"4","last_reported":1710882368,"current_range_meters":3200,"station_id":"","pricing_plan_id":"cebpf4jnsgd1na2vs0mg"},{"bike_id":"93d9c109-c481-4ecb-a79a-fb131d53b975","system_id":"levelo_inurba_marseille","lat":43.29798,"lon":5.38072,"is_reserved":false,"is_disabled":false,"rental_uris":{"android":"levelo://app?vid=93d9c109-c481-4ecb-a79a-fb131d53b975","ios":"levelo://app?vid=93d9c109-c481-4ecb-a79a-fb131d53b975"},"vehicle_type_id":"4","last_reported":1710882368,"current_range_meters":0,"station_id":"ce4bgip2rcd13ifvqbb0","pricing_plan_id":"cebpf4jnsgd1na2vs0mg"},{"bike_id":"b4c09f12-e6ed-4887-b755-b3cddf444d67","system_id":"levelo_inurba_marseille","lat":43.298037,"lon":5.381066,"is_reserved":false,"is_disabled":false,"rental_uris":{"android":"levelo://app?vid=b4c09f12-e6ed-4887-b755-b3cddf444d67","ios":"levelo://app?vid=b4c09f12-e6ed-4887-b755-b3cddf444d67"},"vehicle_type_id":"4","last_reported":1710882368,"current_range_meters":10400,"station_id":"ce4bgip2rcd13ifvqbb0","pricing_plan_id":"cebpf4jnsgd1na2vs0mg"},{"bike_id":"b7b14a15-f54e-4a4a-baa4-2dfc781a70cc","system_id":"levelo_inurba_marseille","lat":43.30441,"lon":5.388826,"is_reserved":false,"is_disabled":false,"rental_uris":{"android":"levelo://app?vid=b7b14a15-f54e-4a4a-baa4-2dfc781a70cc","ios":"levelo://app?vid=b7b14a15-f54e-4a4a-baa4-2dfc781a70cc"},"vehicle_type_id":"4","last_reported":1710882368,"current_range_meters":6800,"station_id":"ce4bgk12rcd13ifvqbi0","pricing_plan_id":"cebpf4jnsgd1na2vs0mg"},{"bike_id":"c9bc6ff4-27e4-4273-b0d7-7a63ce6218af","system_id":"levelo_inurba_marseille","lat":43.304278,"lon":5.388868,"is_reserved":false,"is_disabled":false,"rental_uris":{"android":"levelo://app?vid=c9bc6ff4-27e4-4273-b0d7-7a63ce6218af","ios":"levelo://app?vid=c9bc6ff4-27e4-4273-b0d7-7a63ce6218af"},"vehicle_type_id":"4","last_reported":1710882368,"current_range_meters":15200,"station_id":"ce4bgk12rcd13ifvqbi0","pricing_plan_id":"cebpf4jnsgd1na2vs0mg"},{"bike_id":"a0be8bea-4218-403a-a047-5c61e4511269","system_id":"levelo_inurba_marseille","lat":43.30426,"lon":5.38881,"is_reserved":false,"is_disabled":false,"rental_uris":{"android":"levelo://app?vid=a0be8bea-4218-403a-a047-5c61e4511269","ios":"levelo://app?vid=a0be8bea-4218-403a-a047-5c61e4511269"},"vehicle_type_id":"4","last_reported":1710882368,"current_range_meters":16800,"station_id":"ce4bgk12rcd13ifvqbi0","pricing_plan_id":"cebpf4jnsgd1na2vs0mg"},{"bike_id":"ea834482-a810-430f-8cc3-10a666447f54","system_id":"levelo_inurba_marseille","lat":43.30426,"lon":5.388814,"is_reserved":false,"is_disabled":false,"rental_uris":{"android":"levelo://app?vid=ea834482-a810-430f-8cc3-10a666447f54","ios":"levelo://app?vid=ea834482-a810-430f-8cc3-10a666447f54"},"vehicle_type_id":"4","last_reported":1710882368,"current_range_meters":22000,"station_id":"ce4bgk12rcd13ifvqbi0","pricing_plan_id":"cebpf4jnsgd1na2vs0mg"},{"bike_id":"9ea7937e-a300-4ddf-8412-6df18e3c77b5","system_id":"levelo_inurba_marseille","lat":43.304299,"lon":5.388889,"is_reserved":false,"is_disabled":false,"rental_uris":{"android":"levelo://app?vid=9ea7937e-a300-4ddf-8412-6df18e3c77b5","ios":"levelo://app?vid=9ea7937e-a300-4ddf-8412-6df18e3c77b5"},"vehicle_type_id":"4","last_reported":1710882368,"current_range_meters":0,"station_id":"ce4bgk12rcd13ifvqbi0","pricing_plan_id":"cebpf4jnsgd1na2vs0mg"},{"bike_id":"27763e8c-63cd-4473-ab4d-302621925369","system_id":"levelo_inurba_marseille","lat":43.30424,"lon":5.38886,"is_reserved":false,"is_disabled":false,"rental_uris":{"android":"levelo://app?vid=27763e8c-63cd-4473-ab4d-302621925369","ios":"levelo://app?vid=27763e8c-63cd-4473-ab4d-302621925369"},"vehicle_type_id":"4","last_reported":1710882368,"current_range_meters":6400,"station_id":"ce4bgk12rcd13ifvqbi0","pricing_plan_id":"cebpf4jnsgd1na2vs0mg"},{"bike_id":"c36847ad-5c0d-4b9b-bd80-2ced0cf8a1c1","system_id":"levelo_inurba_marseille","lat":43.304278,"lon":5.388868,"is_reserved":false,"is_disabled":false,"rental_uris":{"android":"levelo://app?vid=c36847ad-5c0d-4b9b-bd80-2ced0cf8a1c1","ios":"levelo://app?vid=c36847ad-5c0d-4b9b-bd80-2ced0cf8a1c1"},"vehicle_type_id":"4","last_reported":1710882368,"current_range_meters":31200,"station_id":"ce4bgk12rcd13ifvqbi0","pricing_plan_id":"cebpf4jnsgd1na2vs0mg"},{"bike_id":"99c89b05-60fb-443b-a639-be65c234fe2a","system_id":"levelo_inurba_marseille","lat":43.304278,"lon":5.388868,"is_reserved":false,"is_disabled":false,"rental_uris":{"android":"levelo://app?vid=99c89b05-60fb-443b-a639-be65c234fe2a","ios":"levelo://app?vid=99c89b05-60fb-443b-a639-be65c234fe2a"},"vehicle_type_id":"4","last_reported":1710882368,"current_range_meters":13600,"station_id":"ce4bgk12rcd13ifvqbi0","pricing_plan_id":"cebpf4jnsgd1na2vs0mg"},{"bike_id":"e5e2e68d-dcb8-4650-bfca-8ff246732b70","system_id":"levelo_inurba_marseille","lat":43.304278,"lon":5.388868,"is_reserved":false,"is_disabled":false,"rental_uris":{"android":"levelo://app?vid=e5e2e68d-dcb8-4650-bfca-8ff246732b70","ios":"levelo://app?vid=e5e2e68d-dcb8-4650-bfca-8ff246732b70"},"vehicle_type_id":"4","last_reported":1710882368,"current_range_meters":8000,"station_id":"ce4bgk12rcd13ifvqbi0","pricing_plan_id":"cebpf4jnsgd1na2vs0mg"},{"bike_id":"4ac50e16-38de-4458-aa00-6e457667d95c","system_id":"levelo_inurba_marseille","lat":43.29788,"lon":5.38114,"is_reserved":false,"is_disabled":false,"rental_uris":{"android":"levelo://app?vid=4ac50e16-38de-4458-aa00-6e457667d95c","ios":"levelo://app?vid=4ac50e16-38de-4458-aa00-6e457667d95c"},"vehicle_type_id":"4","last_reported":1710882368,"current_range_meters":18000,"station_id":"ce4bgip2rcd13ifvqbb0","pricing_plan_id":"cebpf4jnsgd1na2vs0mg"},{"bike_id":"c6668ab8-ef8f-4ea7-a461-f592957de246","system_id":"levelo_inurba_marseille","lat":43.304132,"lon":5.388818,"is_reserved":false,"is_disabled":false,"rental_uris":{"android":"levelo://app?vid=c6668ab8-ef8f-4ea7-a461-f592957de246","ios":"levelo://app?vid=c6668ab8-ef8f-4ea7-a461-f592957de246"},"vehicle_type_id":"4","last_reported":1710882368,"current_range_meters":0,"station_id":"ce4bgk12rcd13ifvqbi0","pricing_plan_id":"cebpf4jnsgd1na2vs0mg"},{"bike_id":"a110b255-8fac-49ef-96d1-792b4ac22427","system_id":"levelo_inurba_marseille","lat":43.30437,"lon":5.389,"is_reserved":false,"is_disabled":false,"rental_uris":{"android":"levelo://app?vid=a110b255-8fac-49ef-96d1-792b4ac22427","ios":"levelo://app?vid=a110b255-8fac-49ef-96d1-792b4ac22427"},"vehicle_type_id":"4","last_reported":1710882368,"current_range_meters":16800,"station_id":"ce4bgk12rcd13ifvqbi0","pricing_plan_id":"cebpf4jnsgd1na2vs0mg"},{"bike_id":"8faeec85-3a0e-408f-9911-9a30af793fd4","system_id":"levelo_inurba_marseille","lat":43.30421,"lon":5.3889,"is_reserved":false,"is_disabled":false,"rental_uris":{"android":"levelo://app?vid=8faeec85-3a0e-408f-9911-9a30af793fd4","ios":"levelo://app?vid=8faeec85-3a0e-408f-9911-9a30af793fd4"},"vehicle_type_id":"4","last_reported":1710882368,"current_range_meters":1600,"station_id":"ce4bgk12rcd13ifvqbi0","pricing_plan_id":"cebpf4jnsgd1na2vs0mg"},{"bike_id":"48f6435e-09d6-49ab-ac1b-eb0f6672591b","system_id":"levelo_inurba_marseille","lat":43.304278,"lon":5.388868,"is_reserved":false,"is_disabled":false,"rental_uris":{"android":"levelo://app?vid=48f6435e-09d6-49ab-ac1b-eb0f6672591b","ios":"levelo://app?vid=48f6435e-09d6-49ab-ac1b-eb0f6672591b"},"vehicle_type_id":"4","last_reported":1710882368,"current_range_meters":6000,"station_id":"ce4bgk12rcd13ifvqbi0","pricing_plan_id":"cebpf4jnsgd1na2vs0mg"},{"bike_id":"d093c175-02bf-4aee-bc1c-139c9289adc4","system_id":"levelo_inurba_marseille","lat":43.304278,"lon":5.388868,"is_reserved":false,"is_disabled":false,"rental_uris":{"android":"levelo://app?vid=d093c175-02bf-4aee-bc1c-139c9289adc4","ios":"levelo://app?vid=d093c175-02bf-4aee-bc1c-139c9289adc4"},"vehicle_type_id":"4","last_reported":1710882368,"current_range_meters":22800,"station_id":"ce4bgk12rcd13ifvqbi0","pricing_plan_id":"cebpf4jnsgd1na2vs0mg"},{"bike_id":"cb1576fe-101d-4bce-a27f-e17c0e7d9c8c","system_id":"levelo_inurba_marseille","lat":43.296263,"lon":5.377094,"is_reserved":false,"is_disabled":false,"rental_uris":{"android":"levelo://app?vid=cb1576fe-101d-4bce-a27f-e17c0e7d9c8c","ios":"levelo://app?vid=cb1576fe-101d-4bce-a27f-e17c0e7d9c8c"},"vehicle_type_id":"4","last_reported":1710882368,"current_range_meters":0,"station_id":"ce4bgi92rcd13ifvqb90","pricing_plan_id":"cebpf4jnsgd1na2vs0mg"},{"bike_id":"c65112c8-3492-434a-8a82-1bdd19223e03","system_id":"levelo_inurba_marseille","lat":43.296277,"lon":5.377108,"is_reserved":false,"is_disabled":false,"rental_uris":{"android":"levelo://app?vid=c65112c8-3492-434a-8a82-1bdd19223e03","ios":"levelo://app?vid=c65112c8-3492-434a-8a82-1bdd19223e03"},"vehicle_type_id":"4","last_reported":1710882368,"current_range_meters":3600,"station_id":"ce4bgi92rcd13ifvqb90","pricing_plan_id":"cebpf4jnsgd1na2vs0mg"},{"bike_id":"9fa5d5fe-d82e-464d-933e-2c69e9e95c4a","system_id":"levelo_inurba_marseille","lat":43.29968,"lon":5.38492,"is_reserved":false,"is_disabled":false,"rental_uris":{"android":"levelo://app?vid=9fa5d5fe-d82e-464d-933e-2c69e9e95c4a","ios":"levelo://app?vid=9fa5d5fe-d82e-464d-933e-2c69e9e95c4a"},"vehicle_type_id":"4","last_reported":1710882368,"current_range_meters":26000,"station_id":"ce4bgj92rcd13ifvqbd0","pricing_plan_id":"cebpf4jnsgd1na2vs0mg"},{"bike_id":"2c3b00b1-5d09-4fdd-9e2c-30f4ad208d24","system_id":"levelo_inurba_marseille","lat":43.299724,"lon":5.384848,"is_reserved":false,"is_disabled":false,"rental_uris":{"android":"levelo://app?vid=2c3b00b1-5d09-4fdd-9e2c-30f4ad208d24","ios":"levelo://app?vid=2c3b00b1-5d09-4fdd-9e2c-30f4ad208d24"},"vehicle_type_id":"4","last_reported":1710882368,"current_range_meters":0,"station_id":"ce4bgj92rcd13ifvqbd0","pricing_plan_id":"cebpf4jnsgd1na2vs0mg"},{"bike_id":"617b0e6f-676e-40f0-bbaf-c9395e5b4dcd","system_id":"levelo_inurba_marseille","lat":43.314342,"lon":5.392915,"is_reserved":false,"is_disabled":false,"rental_uris":{"android":"levelo://app?vid=617b0e6f-676e-40f0-bbaf-c9395e5b4dcd","ios":"levelo://app?vid=617b0e6f-676e-40f0-bbaf-c9395e5b4dcd"},"vehicle_type_id":"4","last_reported":1710882368,"current_range_meters":27600,"station_id":"","pricing_plan_id":"cebpf4jnsgd1na2vs0mg"},{"bike_id":"15fc4921-5c0b-4728-bdd2-5ee3143549d2","system_id":"levelo_inurba_marseille","lat":43.32357,"lon":5.38885,"is_reserved":false,"is_disabled":false,"rental_uris":{"android":"levelo://app?vid=15fc4921-5c0b-4728-bdd2-5ee3143549d2","ios":"levelo://app?vid=15fc4921-5c0b-4728-bdd2-5ee3143549d2"},"vehicle_type_id":"4","last_reported":1710882368,"current_range_meters":0,"station_id":"ce4bhqp2rcd13ifvqhog","pricing_plan_id":"cebpf4jnsgd1na2vs0mg"},{"bike_id":"e200aebf-5329-4531-b72e-181699b5be48","system_id":"levelo_inurba_marseille","lat":43.32368,"lon":5.38884,"is_reserved":false,"is_disabled":false,"rental_uris":{"android":"levelo://app?vid=e200aebf-5329-4531-b72e-181699b5be48","ios":"levelo://app?vid=e200aebf-5329-4531-b72e-181699b5be48"},"vehicle_type_id":"4","last_reported":1710882368,"current_range_meters":800,"station_id":"ce4bhqp2rcd13ifvqhog","pricing_plan_id":"cebpf4jnsgd1na2vs0mg"},{"bike_id":"c9753313-ff05-4bc7-9209-6194355bacbb","system_id":"levelo_inurba_marseille","lat":43.32368,"lon":5.38884,"is_reserved":false,"is_disabled":false,"rental_uris":{"android":"levelo://app?vid=c9753313-ff05-4bc7-9209-6194355bacbb","ios":"levelo://app?vid=c9753313-ff05-4bc7-9209-6194355bacbb"},"vehicle_type_id":"4","last_reported":1710882368,"current_range_meters":0,"station_id":"ce4bhqp2rcd13ifvqhog","pricing_plan_id":"cebpf4jnsgd1na2vs0mg"},{"bike_id":"d1c473ef-8f57-4a45-a518-f2821a73640e","system_id":"levelo_inurba_marseille","lat":43.323641,"lon":5.38888,"is_reserved":false,"is_disabled":false,"rental_uris":{"android":"levelo://app?vid=d1c473ef-8f57-4a45-a518-f2821a73640e","ios":"levelo://app?vid=d1c473ef-8f57-4a45-a518-f2821a73640e"},"vehicle_type_id":"4","last_reported":1710882368,"current_range_meters":14000,"station_id":"ce4bhqp2rcd13ifvqhog","pricing_plan_id":"cebpf4jnsgd1na2vs0mg"},{"bike_id":"8c5a09a7-6627-40b5-958f-7a7763e76ce2","system_id":"levelo_inurba_marseille","lat":43.32366,"lon":5.38888,"is_reserved":false,"is_disabled":false,"rental_uris":{"android":"levelo://app?vid=8c5a09a7-6627-40b5-958f-7a7763e76ce2","ios":"levelo://app?vid=8c5a09a7-6627-40b5-958f-7a7763e76ce2"},"vehicle_type_id":"4","last_reported":1710882368,"current_range_meters":14800,"station_id":"ce4bhqp2rcd13ifvqhog","pricing_plan_id":"cebpf4jnsgd1na2vs0mg"},{"bike_id":"77d915da-b00f-431f-9fb4-10a630781629","system_id":"levelo_inurba_marseille","lat":43.32366,"lon":5.38888,"is_reserved":false,"is_disabled":false,"rental_uris":{"android":"levelo://app?vid=77d915da-b00f-431f-9fb4-10a630781629","ios":"levelo://app?vid=77d915da-b00f-431f-9fb4-10a630781629"},"vehicle_type_id":"4","last_reported":1710882368,"current_range_meters":21600,"station_id":"ce4bhqp2rcd13ifvqhog","pricing_plan_id":"cebpf4jnsgd1na2vs0mg"},{"bike_id":"80eb6f3c-7dad-4186-9ec8-bba5dd0c9f98","system_id":"levelo_inurba_marseille","lat":43.32365,"lon":5.38889,"is_reserved":false,"is_disabled":false,"rental_uris":{"android":"levelo://app?vid=80eb6f3c-7dad-4186-9ec8-bba5dd0c9f98","ios":"levelo://app?vid=80eb6f3c-7dad-4186-9ec8-bba5dd0c9f98"},"vehicle_type_id":"4","last_reported":1710882368,"current_range_meters":27200,"station_id":"ce4bhqp2rcd13ifvqhog","pricing_plan_id":"cebpf4jnsgd1na2vs0mg"},{"bike_id":"e37c32ea-6d8c-404c-81bf-a340e415fa51","system_id":"levelo_inurba_marseille","lat":43.32367,"lon":5.388836,"is_reserved":false,"is_disabled":false,"rental_uris":{"android":"levelo://app?vid=e37c32ea-6d8c-404c-81bf-a340e415fa51","ios":"levelo://app?vid=e37c32ea-6d8c-404c-81bf-a340e415fa51"},"vehicle_type_id":"4","last_reported":1710882368,"current_range_meters":26800,"station_id":"ce4bhqp2rcd13ifvqhog","pricing_plan_id":"cebpf4jnsgd1na2vs0mg"},{"bike_id":"b754f7e6-8e5c-43b8-b933-43400991c1da","system_id":"levelo_inurba_marseille","lat":43.32368,"lon":5.38888,"is_reserved":false,"is_disabled":false,"rental_uris":{"android":"levelo://app?vid=b754f7e6-8e5c-43b8-b933-43400991c1da","ios":"levelo://app?vid=b754f7e6-8e5c-43b8-b933-43400991c1da"},"vehicle_type_id":"4","last_reported":1710882368,"current_range_meters":13200,"station_id":"ce4bhqp2rcd13ifvqhog","pricing_plan_id":"cebpf4jnsgd1na2vs0mg"},{"bike_id":"3b03bf20-78c9-4f5f-8559-507ea971bc2e","system_id":"levelo_inurba_marseille","lat":43.3237,"lon":5.38887,"is_reserved":false,"is_disabled":false,"rental_uris":{"android":"levelo://app?vid=3b03bf20-78c9-4f5f-8559-507ea971bc2e","ios":"levelo://app?vid=3b03bf20-78c9-4f5f-8559-507ea971bc2e"},"vehicle_type_id":"4","last_reported":1710882368,"current_range_meters":9600,"station_id":"ce4bhqp2rcd13ifvqhog","pricing_plan_id":"cebpf4jnsgd1na2vs0mg"},{"bike_id":"28d032b9-6d9a-4cd4-9b78-a4ab91172b41","system_id":"levelo_inurba_marseille","lat":43.32372,"lon":5.38886,"is_reserved":false,"is_disabled":false,"rental_uris":{"android":"levelo://app?vid=28d032b9-6d9a-4cd4-9b78-a4ab91172b41","ios":"levelo://app?vid=28d032b9-6d9a-4cd4-9b78-a4ab91172b41"},"vehicle_type_id":"4","last_reported":1710882368,"current_range_meters":2000,"station_id":"ce4bhqp2rcd13ifvqhog","pricing_plan_id":"cebpf4jnsgd1na2vs0mg"},{"bike_id":"9b43ae9f-97c3-4da0-938b-50afec46d2a5","system_id":"levelo_inurba_marseille","lat":43.32373,"lon":5.38886,"is_reserved":false,"is_disabled":false,"rental_uris":{"android":"levelo://app?vid=9b43ae9f-97c3-4da0-938b-50afec46d2a5","ios":"levelo://app?vid=9b43ae9f-97c3-4da0-938b-50afec46d2a5"},"vehicle_type_id":"4","last_reported":1710882368,"current_range_meters":16800,"station_id":"ce4bhqp2rcd13ifvqhog","pricing_plan_id":"cebpf4jnsgd1na2vs0mg"},{"bike_id":"88c09819-0132-49e1-a848-b83c3e55111a","system_id":"levelo_inurba_marseille","lat":43.32367,"lon":5.388836,"is_reserved":false,"is_disabled":false,"rental_uris":{"android":"levelo://app?vid=88c09819-0132-49e1-a848-b83c3e55111a","ios":"levelo://app?vid=88c09819-0132-49e1-a848-b83c3e55111a"},"vehicle_type_id":"4","last_reported":1710882368,"current_range_meters":20000,"station_id":"ce4bhqp2rcd13ifvqhog","pricing_plan_id":"cebpf4jnsgd1na2vs0mg"},{"bike_id":"25d57923-862f-44ab-9cc3-c60966a21f26","system_id":"levelo_inurba_marseille","lat":43.29602,"lon":5.381084,"is_reserved":false,"is_disabled":false,"rental_uris":{"android":"levelo://app?vid=25d57923-862f-44ab-9cc3-c60966a21f26","ios":"levelo://app?vid=25d57923-862f-44ab-9cc3-c60966a21f26"},"vehicle_type_id":"4","last_reported":1710882368,"current_range_meters":8000,"station_id":"ce4bgl12rcd13ifvqbo0","pricing_plan_id":"cebpf4jnsgd1na2vs0mg"},{"bike_id":"14204f33-3eb2-4acf-863b-23170240d585","system_id":"levelo_inurba_marseille","lat":43.29602,"lon":5.381084,"is_reserved":false,"is_disabled":false,"rental_uris":{"android":"levelo://app?vid=14204f33-3eb2-4acf-863b-23170240d585","ios":"levelo://app?vid=14204f33-3eb2-4acf-863b-23170240d585"},"vehicle_type_id":"4","last_reported":1710882368,"current_range_meters":1200,"station_id":"ce4bgl12rcd13ifvqbo0","pricing_plan_id":"cebpf4jnsgd1na2vs0mg"},{"bike_id":"2f4eaade-2551-4dc4-8b56-c21cabb347d7","system_id":"levelo_inurba_marseille","lat":43.298037,"lon":5.381066,"is_reserved":false,"is_disabled":false,"rental_uris":{"android":"levelo://app?vid=2f4eaade-2551-4dc4-8b56-c21cabb347d7","ios":"levelo://app?vid=2f4eaade-2551-4dc4-8b56-c21cabb347d7"},"vehicle_type_id":"4","last_reported":1710882368,"current_range_meters":2400,"station_id":"ce4bgip2rcd13ifvqbb0","pricing_plan_id":"cebpf4jnsgd1na2vs0mg"},{"bike_id":"f7e40c54-4d37-462c-874d-c1f6b99a3291","system_id":"levelo_inurba_marseille","lat":43.295932,"lon":5.381058,"is_reserved":false,"is_disabled":false,"rental_uris":{"android":"levelo://app?vid=f7e40c54-4d37-462c-874d-c1f6b99a3291","ios":"levelo://app?vid=f7e40c54-4d37-462c-874d-c1f6b99a3291"},"vehicle_type_id":"4","last_reported":1710882368,"current_range_meters":0,"station_id":"ce4bgl12rcd13ifvqbo0","pricing_plan_id":"cebpf4jnsgd1na2vs0mg"},{"bike_id":"02bca0e0-3a5a-46df-b6cb-96d8d86bf228","system_id":"levelo_inurba_marseille","lat":43.29308,"lon":5.37173,"is_reserved":false,"is_disabled":false,"rental_uris":{"android":"levelo://app?vid=02bca0e0-3a5a-46df-b6cb-96d8d86bf228","ios":"levelo://app?vid=02bca0e0-3a5a-46df-b6cb-96d8d86bf228"},"vehicle_type_id":"4","last_reported":1710882368,"current_range_meters":0,"station_id":"ce4bgh92rcd13ifvqb40","pricing_plan_id":"cebpf4jnsgd1na2vs0mg"},{"bike_id":"7618822e-2d77-45a9-86d4-0d5711caacc6","system_id":"levelo_inurba_marseille","lat":43.29307,"lon":5.371757,"is_reserved":false,"is_disabled":false,"rental_uris":{"android":"levelo://app?vid=7618822e-2d77-45a9-86d4-0d5711caacc6","ios":"levelo://app?vid=7618822e-2d77-45a9-86d4-0d5711caacc6"},"vehicle_type_id":"4","last_reported":1710882368,"current_range_meters":0,"station_id":"ce4bgh92rcd13ifvqb40","pricing_plan_id":"cebpf4jnsgd1na2vs0mg"},{"bike_id":"53ede023-4e10-4f6e-a49b-440f7ab5d40c","system_id":"levelo_inurba_marseille","lat":43.293259,"lon":5.371586,"is_reserved":false,"is_disabled":false,"rental_uris":{"android":"levelo://app?vid=53ede023-4e10-4f6e-a49b-440f7ab5d40c","ios":"levelo://app?vid=53ede023-4e10-4f6e-a49b-440f7ab5d40c"},"vehicle_type_id":"4","last_reported":1710882368,"current_range_meters":21600,"station_id":"ce4bgh92rcd13ifvqb40","pricing_plan_id":"cebpf4jnsgd1na2vs0mg"},{"bike_id":"681cfe51-eaad-4d04-8761-e29083a3ef46","system_id":"levelo_inurba_marseille","lat":43.293259,"lon":5.371586,"is_reserved":false,"is_disabled":false,"rental_uris":{"android":"levelo://app?vid=681cfe51-eaad-4d04-8761-e29083a3ef46","ios":"levelo://app?vid=681cfe51-eaad-4d04-8761-e29083a3ef46"},"vehicle_type_id":"4","last_reported":1710882368,"current_range_meters":14400,"station_id":"ce4bgh92rcd13ifvqb40","pricing_plan_id":"cebpf4jnsgd1na2vs0mg"},{"bike_id":"4f52043b-7000-4b36-a155-15489dae7194","system_id":"levelo_inurba_marseille","lat":43.29271,"lon":5.368523,"is_reserved":false,"is_disabled":false,"rental_uris":{"android":"levelo://app?vid=4f52043b-7000-4b36-a155-15489dae7194","ios":"levelo://app?vid=4f52043b-7000-4b36-a155-15489dae7194"},"vehicle_type_id":"4","last_reported":1710882368,"current_range_meters":26400,"station_id":"ce4bhbp2rcd13ifvqesg","pricing_plan_id":"cebpf4jnsgd1na2vs0mg"},{"bike_id":"eb8bcb6b-8cee-4c7a-aa5c-560e846a5a20","system_id":"levelo_inurba_marseille","lat":43.292749,"lon":5.368402,"is_reserved":false,"is_disabled":false,"rental_uris":{"android":"levelo://app?vid=eb8bcb6b-8cee-4c7a-aa5c-560e846a5a20","ios":"levelo://app?vid=eb8bcb6b-8cee-4c7a-aa5c-560e846a5a20"},"vehicle_type_id":"4","last_reported":1710882368,"current_range_meters":31200,"station_id":"ce4bhbp2rcd13ifvqesg","pricing_plan_id":"cebpf4jnsgd1na2vs0mg"},{"bike_id":"8d2779db-b648-4ce0-bb7a-d55ce8cb6996","system_id":"levelo_inurba_marseille","lat":43.29266,"lon":5.36849,"is_reserved":false,"is_disabled":false,"rental_uris":{"android":"levelo://app?vid=8d2779db-b648-4ce0-bb7a-d55ce8cb6996","ios":"levelo://app?vid=8d2779db-b648-4ce0-bb7a-d55ce8cb6996"},"vehicle_type_id":"4","last_reported":1710882368,"current_range_meters":22000,"station_id":"ce4bhbp2rcd13ifvqesg","pricing_plan_id":"cebpf4jnsgd1na2vs0mg"},{"bike_id":"ad007678-67e8-439c-bfba-87f1ca6663ea","system_id":"levelo_inurba_marseille","lat":43.305994,"lon":5.393687,"is_reserved":false,"is_disabled":false,"rental_uris":{"android":"levelo://app?vid=ad007678-67e8-439c-bfba-87f1ca6663ea","ios":"levelo://app?vid=ad007678-67e8-439c-bfba-87f1ca6663ea"},"vehicle_type_id":"4","last_reported":1710882368,"current_range_meters":400,"station_id":"ce4bh0p2rcd13ifvqd80","pricing_plan_id":"cebpf4jnsgd1na2vs0mg"},{"bike_id":"f12a8da6-d3c6-42aa-9c69-8c2a3e456f01","system_id":"levelo_inurba_marseille","lat":43.293009,"lon":5.374584,"is_reserved":false,"is_disabled":false,"rental_uris":{"android":"levelo://app?vid=f12a8da6-d3c6-42aa-9c69-8c2a3e456f01","ios":"levelo://app?vid=f12a8da6-d3c6-42aa-9c69-8c2a3e456f01"},"vehicle_type_id":"4","last_reported":1710882368,"current_range_meters":8800,"station_id":"ce4bgi12rcd13ifvqb70","pricing_plan_id":"cebpf4jnsgd1na2vs0mg"},{"bike_id":"3519738a-22a1-406c-bf1a-d77d0e54b55f","system_id":"levelo_inurba_marseille","lat":43.2929,"lon":5.37462,"is_reserved":false,"is_disabled":false,"rental_uris":{"android":"levelo://app?vid=3519738a-22a1-406c-bf1a-d77d0e54b55f","ios":"levelo://app?vid=3519738a-22a1-406c-bf1a-d77d0e54b55f"},"vehicle_type_id":"4","last_reported":1710882368,"current_range_meters":0,"station_id":"ce4bgi12rcd13ifvqb70","pricing_plan_id":"cebpf4jnsgd1na2vs0mg"},{"bike_id":"88c5c4de-a2c0-41e7-a40b-c57e764e5484","system_id":"levelo_inurba_marseille","lat":43.29287,"lon":5.37452,"is_reserved":false,"is_disabled":false,"rental_uris":{"android":"levelo://app?vid=88c5c4de-a2c0-41e7-a40b-c57e764e5484","ios":"levelo://app?vid=88c5c4de-a2c0-41e7-a40b-c57e764e5484"},"vehicle_type_id":"4","last_reported":1710882368,"current_range_meters":0,"station_id":"ce4bgi12rcd13ifvqb70","pricing_plan_id":"cebpf4jnsgd1na2vs0mg"},{"bike_id":"0d1dee4e-fb9e-498a-ae05-883e5633afb0","system_id":"levelo_inurba_marseille","lat":43.302992,"lon":5.392136,"is_reserved":false,"is_disabled":false,"rental_uris":{"android":"levelo://app?vid=0d1dee4e-fb9e-498a-ae05-883e5633afb0","ios":"levelo://app?vid=0d1dee4e-fb9e-498a-ae05-883e5633afb0"},"vehicle_type_id":"4","last_reported":1710882368,"current_range_meters":30400,"station_id":"ce4bgkh2rcd13ifvqbk0","pricing_plan_id":"cebpf4jnsgd1na2vs0mg"},{"bike_id":"15c35abd-1314-4f33-9b96-14a3772b44d3","system_id":"levelo_inurba_marseille","lat":43.303002,"lon":5.392142,"is_reserved":false,"is_disabled":false,"rental_uris":{"android":"levelo://app?vid=15c35abd-1314-4f33-9b96-14a3772b44d3","ios":"levelo://app?vid=15c35abd-1314-4f33-9b96-14a3772b44d3"},"vehicle_type_id":"4","last_reported":1710882368,"current_range_meters":12000,"station_id":"ce4bgkh2rcd13ifvqbk0","pricing_plan_id":"cebpf4jnsgd1na2vs0mg"},{"bike_id":"df27bbb0-7713-4049-9f87-8e8beeba124f","system_id":"levelo_inurba_marseille","lat":43.30292,"lon":5.39203,"is_reserved":false,"is_disabled":false,"rental_uris":{"android":"levelo://app?vid=df27bbb0-7713-4049-9f87-8e8beeba124f","ios":"levelo://app?vid=df27bbb0-7713-4049-9f87-8e8beeba124f"},"vehicle_type_id":"4","last_reported":1710882368,"current_range_meters":8800,"station_id":"ce4bgkh2rcd13ifvqbk0","pricing_plan_id":"cebpf4jnsgd1na2vs0mg"},{"bike_id":"50ccfd23-3125-4c77-8f2a-5b767e6a07d4","system_id":"levelo_inurba_marseille","lat":43.29226,"lon":5.3622,"is_reserved":false,"is_disabled":false,"rental_uris":{"android":"levelo://app?vid=50ccfd23-3125-4c77-8f2a-5b767e6a07d4","ios":"levelo://app?vid=50ccfd23-3125-4c77-8f2a-5b767e6a07d4"},"vehicle_type_id":"4","last_reported":1710882368,"current_range_meters":13600,"station_id":"","pricing_plan_id":"cebpf4jnsgd1na2vs0mg"},{"bike_id":"60ac1336-c84f-4f4e-a8cc-ee35395d5f8c","system_id":"levelo_inurba_marseille","lat":43.302867,"lon":5.392047,"is_reserved":false,"is_disabled":false,"rental_uris":{"android":"levelo://app?vid=60ac1336-c84f-4f4e-a8cc-ee35395d5f8c","ios":"levelo://app?vid=60ac1336-c84f-4f4e-a8cc-ee35395d5f8c"},"vehicle_type_id":"4","last_reported":1710882368,"current_range_meters":28400,"station_id":"ce4bgkh2rcd13ifvqbk0","pricing_plan_id":"cebpf4jnsgd1na2vs0mg"},{"bike_id":"76b16dbc-4bcf-41cf-8447-863762fb84d3","system_id":"levelo_inurba_marseille","lat":43.2936,"lon":5.37835,"is_reserved":false,"is_disabled":false,"rental_uris":{"android":"levelo://app?vid=76b16dbc-4bcf-41cf-8447-863762fb84d3","ios":"levelo://app?vid=76b16dbc-4bcf-41cf-8447-863762fb84d3"},"vehicle_type_id":"4","last_reported":1710882368,"current_range_meters":7200,"station_id":"ce4bgjh2rcd13ifvqbf0","pricing_plan_id":"cebpf4jnsgd1na2vs0mg"},{"bike_id":"553d0db5-5431-41b6-a8be-082061720b26","system_id":"levelo_inurba_marseille","lat":43.292311,"lon":5.360731,"is_reserved":false,"is_disabled":false,"rental_uris":{"android":"levelo://app?vid=553d0db5-5431-41b6-a8be-082061720b26","ios":"levelo://app?vid=553d0db5-5431-41b6-a8be-082061720b26"},"vehicle_type_id":"4","last_reported":1710882368,"current_range_meters":4400,"station_id":"ce4bhbh2rcd13ifvqeqg","pricing_plan_id":"cebpf4jnsgd1na2vs0mg"},{"bike_id":"a2803c2d-7f65-40f9-84d0-a2ac40657ffc","system_id":"levelo_inurba_marseille","lat":43.2936,"lon":5.37835,"is_reserved":false,"is_disabled":false,"rental_uris":{"android":"levelo://app?vid=a2803c2d-7f65-40f9-84d0-a2ac40657ffc","ios":"levelo://app?vid=a2803c2d-7f65-40f9-84d0-a2ac40657ffc"},"vehicle_type_id":"4","last_reported":1710882368,"current_range_meters":15600,"station_id":"ce4bgjh2rcd13ifvqbf0","pricing_plan_id":"cebpf4jnsgd1na2vs0mg"},{"bike_id":"8167b5fd-a589-41ce-9a4b-d352f8c87e5a","system_id":"levelo_inurba_marseille","lat":43.300852,"lon":5.390859,"is_reserved":false,"is_disabled":false,"rental_uris":{"android":"levelo://app?vid=8167b5fd-a589-41ce-9a4b-d352f8c87e5a","ios":"levelo://app?vid=8167b5fd-a589-41ce-9a4b-d352f8c87e5a"},"vehicle_type_id":"4","last_reported":1710882368,"current_range_meters":14800,"station_id":"ce4bh192rcd13ifvqdb0","pricing_plan_id":"cebpf4jnsgd1na2vs0mg"},{"bike_id":"65d4ea46-0082-4237-b508-db621838c081","system_id":"levelo_inurba_marseille","lat":43.293009,"lon":5.374584,"is_reserved":false,"is_disabled":false,"rental_uris":{"android":"levelo://app?vid=65d4ea46-0082-4237-b508-db621838c081","ios":"levelo://app?vid=65d4ea46-0082-4237-b508-db621838c081"},"vehicle_type_id":"4","last_reported":1710882368,"current_range_meters":20000,"station_id":"ce4bgi12rcd13ifvqb70","pricing_plan_id":"cebpf4jnsgd1na2vs0mg"},{"bike_id":"b917f1fc-6458-4618-abd1-270fc93d676e","system_id":"levelo_inurba_marseille","lat":43.29216,"lon":5.373583,"is_reserved":false,"is_disabled":false,"rental_uris":{"android":"levelo://app?vid=b917f1fc-6458-4618-abd1-270fc93d676e","ios":"levelo://app?vid=b917f1fc-6458-4618-abd1-270fc93d676e"},"vehicle_type_id":"4","last_reported":1710882368,"current_range_meters":17600,"station_id":"","pricing_plan_id":"cebpf4jnsgd1na2vs0mg"},{"bike_id":"4b792429-4f18-482e-a197-c8b51c640b44","system_id":"levelo_inurba_marseille","lat":43.29263,"lon":5.35787,"is_reserved":false,"is_disabled":false,"rental_uris":{"android":"levelo://app?vid=4b792429-4f18-482e-a197-c8b51c640b44","ios":"levelo://app?vid=4b792429-4f18-482e-a197-c8b51c640b44"},"vehicle_type_id":"4","last_reported":1710882368,"current_range_meters":2800,"station_id":"","pricing_plan_id":"cebpf4jnsgd1na2vs0mg"},{"bike_id":"e3c33dd1-e09a-441b-8537-66016881dd33","system_id":"levelo_inurba_marseille","lat":43.298764,"lon":5.388973,"is_reserved":false,"is_disabled":false,"rental_uris":{"android":"levelo://app?vid=e3c33dd1-e09a-441b-8537-66016881dd33","ios":"levelo://app?vid=e3c33dd1-e09a-441b-8537-66016881dd33"},"vehicle_type_id":"4","last_reported":1710882368,"current_range_meters":14000,"station_id":"ce4bh392rcd13ifvqdl0","pricing_plan_id":"cebpf4jnsgd1na2vs0mg"},{"bike_id":"fc060662-1060-4350-b35b-ba0c076dfecf","system_id":"levelo_inurba_marseille","lat":43.298764,"lon":5.388973,"is_reserved":false,"is_disabled":false,"rental_uris":{"android":"levelo://app?vid=fc060662-1060-4350-b35b-ba0c076dfecf","ios":"levelo://app?vid=fc060662-1060-4350-b35b-ba0c076dfecf"},"vehicle_type_id":"4","last_reported":1710882368,"current_range_meters":28400,"station_id":"ce4bh392rcd13ifvqdl0","pricing_plan_id":"cebpf4jnsgd1na2vs0mg"},{"bike_id":"f9b7b6b8-0c09-433b-8f85-e06c1cb786ab","system_id":"levelo_inurba_marseille","lat":43.298764,"lon":5.388973,"is_reserved":false,"is_disabled":false,"rental_uris":{"android":"levelo://app?vid=f9b7b6b8-0c09-433b-8f85-e06c1cb786ab","ios":"levelo://app?vid=f9b7b6b8-0c09-433b-8f85-e06c1cb786ab"},"vehicle_type_id":"4","last_reported":1710882368,"current_range_meters":14800,"station_id":"ce4bh392rcd13ifvqdl0","pricing_plan_id":"cebpf4jnsgd1na2vs0mg"},{"bike_id":"fd3e487e-245f-4d3b-9b88-fba24aa13569","system_id":"levelo_inurba_marseille","lat":43.298764,"lon":5.388973,"is_reserved":false,"is_disabled":false,"rental_uris":{"android":"levelo://app?vid=fd3e487e-245f-4d3b-9b88-fba24aa13569","ios":"levelo://app?vid=fd3e487e-245f-4d3b-9b88-fba24aa13569"},"vehicle_type_id":"4","last_reported":1710882368,"current_range_meters":18400,"station_id":"ce4bh392rcd13ifvqdl0","pricing_plan_id":"cebpf4jnsgd1na2vs0mg"},{"bike_id":"798cb38a-f7ef-4816-8cc2-02cbdfc0ddd3","system_id":"levelo_inurba_marseille","lat":43.298764,"lon":5.388973,"is_reserved":false,"is_disabled":false,"rental_uris":{"android":"levelo://app?vid=798cb38a-f7ef-4816-8cc2-02cbdfc0ddd3","ios":"levelo://app?vid=798cb38a-f7ef-4816-8cc2-02cbdfc0ddd3"},"vehicle_type_id":"4","last_reported":1710882368,"current_range_meters":15200,"station_id":"ce4bh392rcd13ifvqdl0","pricing_plan_id":"cebpf4jnsgd1na2vs0mg"},{"bike_id":"311742f1-a1b2-4f31-830c-79887b3ef12c","system_id":"levelo_inurba_marseille","lat":43.298764,"lon":5.388973,"is_reserved":false,"is_disabled":false,"rental_uris":{"android":"levelo://app?vid=311742f1-a1b2-4f31-830c-79887b3ef12c","ios":"levelo://app?vid=311742f1-a1b2-4f31-830c-79887b3ef12c"},"vehicle_type_id":"4","last_reported":1710882368,"current_range_meters":19200,"station_id":"ce4bh392rcd13ifvqdl0","pricing_plan_id":"cebpf4jnsgd1na2vs0mg"},{"bike_id":"a92610e3-15f6-4ca2-8e68-4a154cec865a","system_id":"levelo_inurba_marseille","lat":43.298764,"lon":5.388973,"is_reserved":false,"is_disabled":false,"rental_uris":{"android":"levelo://app?vid=a92610e3-15f6-4ca2-8e68-4a154cec865a","ios":"levelo://app?vid=a92610e3-15f6-4ca2-8e68-4a154cec865a"},"vehicle_type_id":"4","last_reported":1710882368,"current_range_meters":3600,"station_id":"ce4bh392rcd13ifvqdl0","pricing_plan_id":"cebpf4jnsgd1na2vs0mg"},{"bike_id":"a46d04eb-3dd2-4f7a-8229-ce65bee63710","system_id":"levelo_inurba_marseille","lat":43.29869,"lon":5.389,"is_reserved":false,"is_disabled":false,"rental_uris":{"android":"levelo://app?vid=a46d04eb-3dd2-4f7a-8229-ce65bee63710","ios":"levelo://app?vid=a46d04eb-3dd2-4f7a-8229-ce65bee63710"},"vehicle_type_id":"4","last_reported":1710882368,"current_range_meters":0,"station_id":"ce4bh392rcd13ifvqdl0","pricing_plan_id":"cebpf4jnsgd1na2vs0mg"},{"bike_id":"067f24e3-ab90-44e2-832b-c77ada0a63b7","system_id":"levelo_inurba_marseille","lat":43.291671,"lon":5.371575,"is_reserved":false,"is_disabled":false,"rental_uris":{"android":"levelo://app?vid=067f24e3-ab90-44e2-832b-c77ada0a63b7","ios":"levelo://app?vid=067f24e3-ab90-44e2-832b-c77ada0a63b7"},"vehicle_type_id":"4","last_reported":1710882368,"current_range_meters":22400,"station_id":"ce4bha92rcd13ifvqeh0","pricing_plan_id":"cebpf4jnsgd1na2vs0mg"},{"bike_id":"6b3eed18-75ea-4bad-89c9-6bbfeed2db97","system_id":"levelo_inurba_marseille","lat":43.298764,"lon":5.388973,"is_reserved":false,"is_disabled":false,"rental_uris":{"android":"levelo://app?vid=6b3eed18-75ea-4bad-89c9-6bbfeed2db97","ios":"levelo://app?vid=6b3eed18-75ea-4bad-89c9-6bbfeed2db97"},"vehicle_type_id":"4","last_reported":1710882368,"current_range_meters":6000,"station_id":"ce4bh392rcd13ifvqdl0","pricing_plan_id":"cebpf4jnsgd1na2vs0mg"},{"bike_id":"2ca4657e-49d6-4a4b-a8f2-1283517a9148","system_id":"levelo_inurba_marseille","lat":43.29869,"lon":5.38908,"is_reserved":false,"is_disabled":false,"rental_uris":{"android":"levelo://app?vid=2ca4657e-49d6-4a4b-a8f2-1283517a9148","ios":"levelo://app?vid=2ca4657e-49d6-4a4b-a8f2-1283517a9148"},"vehicle_type_id":"4","last_reported":1710882368,"current_range_meters":6800,"station_id":"ce4bh392rcd13ifvqdl0","pricing_plan_id":"cebpf4jnsgd1na2vs0mg"},{"bike_id":"f70b47ba-3677-4085-8dcd-f79675adeb6c","system_id":"levelo_inurba_marseille","lat":43.291671,"lon":5.371575,"is_reserved":false,"is_disabled":false,"rental_uris":{"android":"levelo://app?vid=f70b47ba-3677-4085-8dcd-f79675adeb6c","ios":"levelo://app?vid=f70b47ba-3677-4085-8dcd-f79675adeb6c"},"vehicle_type_id":"4","last_reported":1710882368,"current_range_meters":29600,"station_id":"ce4bha92rcd13ifvqeh0","pricing_plan_id":"cebpf4jnsgd1na2vs0mg"},{"bike_id":"e6c85b82-cb02-4dde-83b0-21bcd64ec166","system_id":"levelo_inurba_marseille","lat":43.309047,"lon":5.396551,"is_reserved":false,"is_disabled":false,"rental_uris":{"android":"levelo://app?vid=e6c85b82-cb02-4dde-83b0-21bcd64ec166","ios":"levelo://app?vid=e6c85b82-cb02-4dde-83b0-21bcd64ec166"},"vehicle_type_id":"4","last_reported":1710882368,"current_range_meters":20800,"station_id":"ce4bh012rcd13ifvqcv0","pricing_plan_id":"cebpf4jnsgd1na2vs0mg"},{"bike_id":"2cbcaf19-efdb-4879-a0b8-6fd4f28cd1cb","system_id":"levelo_inurba_marseille","lat":43.291994,"lon":5.357886,"is_reserved":false,"is_disabled":false,"rental_uris":{"android":"levelo://app?vid=2cbcaf19-efdb-4879-a0b8-6fd4f28cd1cb","ios":"levelo://app?vid=2cbcaf19-efdb-4879-a0b8-6fd4f28cd1cb"},"vehicle_type_id":"4","last_reported":1710882368,"current_range_meters":4800,"station_id":"ce4bhb12rcd13ifvqel0","pricing_plan_id":"cebpf4jnsgd1na2vs0mg"},{"bike_id":"bfe90ee0-0ba2-417f-b577-3d9e702c53ea","system_id":"levelo_inurba_marseille","lat":43.313291,"lon":5.396838,"is_reserved":false,"is_disabled":false,"rental_uris":{"android":"levelo://app?vid=bfe90ee0-0ba2-417f-b577-3d9e702c53ea","ios":"levelo://app?vid=bfe90ee0-0ba2-417f-b577-3d9e702c53ea"},"vehicle_type_id":"4","last_reported":1710882368,"current_range_meters":0,"station_id":"ce4bgvp2rcd13ifvqcu0","pricing_plan_id":"cebpf4jnsgd1na2vs0mg"},{"bike_id":"a7ed0b21-9fba-4b4e-8ba5-e3bf735c6c7a","system_id":"levelo_inurba_marseille","lat":43.309047,"lon":5.396551,"is_reserved":false,"is_disabled":false,"rental_uris":{"android":"levelo://app?vid=a7ed0b21-9fba-4b4e-8ba5-e3bf735c6c7a","ios":"levelo://app?vid=a7ed0b21-9fba-4b4e-8ba5-e3bf735c6c7a"},"vehicle_type_id":"4","last_reported":1710882368,"current_range_meters":6400,"station_id":"ce4bh012rcd13ifvqcv0","pricing_plan_id":"cebpf4jnsgd1na2vs0mg"},{"bike_id":"1a6c1c27-c77c-463e-88cb-6e830c05aa4e","system_id":"levelo_inurba_marseille","lat":43.291994,"lon":5.357886,"is_reserved":false,"is_disabled":false,"rental_uris":{"android":"levelo://app?vid=1a6c1c27-c77c-463e-88cb-6e830c05aa4e","ios":"levelo://app?vid=1a6c1c27-c77c-463e-88cb-6e830c05aa4e"},"vehicle_type_id":"4","last_reported":1710882368,"current_range_meters":7600,"station_id":"ce4bhb12rcd13ifvqel0","pricing_plan_id":"cebpf4jnsgd1na2vs0mg"},{"bike_id":"0d703fe5-4bda-49fa-add5-8dec9c61849f","system_id":"levelo_inurba_marseille","lat":43.31333,"lon":5.39693,"is_reserved":false,"is_disabled":false,"rental_uris":{"android":"levelo://app?vid=0d703fe5-4bda-49fa-add5-8dec9c61849f","ios":"levelo://app?vid=0d703fe5-4bda-49fa-add5-8dec9c61849f"},"vehicle_type_id":"4","last_reported":1710882368,"current_range_meters":0,"station_id":"ce4bgvp2rcd13ifvqcu0","pricing_plan_id":"cebpf4jnsgd1na2vs0mg"},{"bike_id":"5d5fd77d-f933-475c-bfa2-4600b58b0dc6","system_id":"levelo_inurba_marseille","lat":43.31326,"lon":5.39694,"is_reserved":false,"is_disabled":false,"rental_uris":{"android":"levelo://app?vid=5d5fd77d-f933-475c-bfa2-4600b58b0dc6","ios":"levelo://app?vid=5d5fd77d-f933-475c-bfa2-4600b58b0dc6"},"vehicle_type_id":"4","last_reported":1710882368,"current_range_meters":9600,"station_id":"ce4bgvp2rcd13ifvqcu0","pricing_plan_id":"cebpf4jnsgd1na2vs0mg"},{"bike_id":"8b1aecd7-f1d8-40c9-b47b-94bd01704a60","system_id":"levelo_inurba_marseille","lat":43.29188,"lon":5.35799,"is_reserved":false,"is_disabled":false,"rental_uris":{"android":"levelo://app?vid=8b1aecd7-f1d8-40c9-b47b-94bd01704a60","ios":"levelo://app?vid=8b1aecd7-f1d8-40c9-b47b-94bd01704a60"},"vehicle_type_id":"4","last_reported":1710882368,"current_range_meters":29200,"station_id":"ce4bhb12rcd13ifvqel0","pricing_plan_id":"cebpf4jnsgd1na2vs0mg"},{"bike_id":"ae729094-85f0-448d-86bf-cd7f0ed8c51a","system_id":"levelo_inurba_marseille","lat":43.309047,"lon":5.396551,"is_reserved":false,"is_disabled":false,"rental_uris":{"android":"levelo://app?vid=ae729094-85f0-448d-86bf-cd7f0ed8c51a","ios":"levelo://app?vid=ae729094-85f0-448d-86bf-cd7f0ed8c51a"},"vehicle_type_id":"4","last_reported":1710882368,"current_range_meters":12000,"station_id":"ce4bh012rcd13ifvqcv0","pricing_plan_id":"cebpf4jnsgd1na2vs0mg"},{"bike_id":"c6357bc8-2f02-453d-99e8-1041a659effd","system_id":"levelo_inurba_marseille","lat":43.309038,"lon":5.396546,"is_reserved":false,"is_disabled":false,"rental_uris":{"android":"levelo://app?vid=c6357bc8-2f02-453d-99e8-1041a659effd","ios":"levelo://app?vid=c6357bc8-2f02-453d-99e8-1041a659effd"},"vehicle_type_id":"4","last_reported":1710882368,"current_range_meters":26000,"station_id":"ce4bh012rcd13ifvqcv0","pricing_plan_id":"cebpf4jnsgd1na2vs0mg"},{"bike_id":"a1e8dd5c-113a-4a74-bda4-9b3f72cd5cf3","system_id":"levelo_inurba_marseille","lat":43.309047,"lon":5.396551,"is_reserved":false,"is_disabled":false,"rental_uris":{"android":"levelo://app?vid=a1e8dd5c-113a-4a74-bda4-9b3f72cd5cf3","ios":"levelo://app?vid=a1e8dd5c-113a-4a74-bda4-9b3f72cd5cf3"},"vehicle_type_id":"4","last_reported":1710882368,"current_range_meters":18000,"station_id":"ce4bh012rcd13ifvqcv0","pricing_plan_id":"cebpf4jnsgd1na2vs0mg"},{"bike_id":"8b99f704-bd25-48f8-8ba9-2bada9084e4b","system_id":"levelo_inurba_marseille","lat":43.309047,"lon":5.396551,"is_reserved":false,"is_disabled":false,"rental_uris":{"android":"levelo://app?vid=8b99f704-bd25-48f8-8ba9-2bada9084e4b","ios":"levelo://app?vid=8b99f704-bd25-48f8-8ba9-2bada9084e4b"},"vehicle_type_id":"4","last_reported":1710882368,"current_range_meters":26800,"station_id":"ce4bh012rcd13ifvqcv0","pricing_plan_id":"cebpf4jnsgd1na2vs0mg"},{"bike_id":"b32544b3-b912-4684-b972-3f289ebbe0c9","system_id":"levelo_inurba_marseille","lat":43.31349,"lon":5.39698,"is_reserved":false,"is_disabled":false,"rental_uris":{"android":"levelo://app?vid=b32544b3-b912-4684-b972-3f289ebbe0c9","ios":"levelo://app?vid=b32544b3-b912-4684-b972-3f289ebbe0c9"},"vehicle_type_id":"4","last_reported":1710882368,"current_range_meters":6800,"station_id":"ce4bgvp2rcd13ifvqcu0","pricing_plan_id":"cebpf4jnsgd1na2vs0mg"},{"bike_id":"944ae07e-1917-4207-ad5b-dd6d0105869b","system_id":"levelo_inurba_marseille","lat":43.313291,"lon":5.396838,"is_reserved":false,"is_disabled":false,"rental_uris":{"android":"levelo://app?vid=944ae07e-1917-4207-ad5b-dd6d0105869b","ios":"levelo://app?vid=944ae07e-1917-4207-ad5b-dd6d0105869b"},"vehicle_type_id":"4","last_reported":1710882368,"current_range_meters":14800,"station_id":"ce4bgvp2rcd13ifvqcu0","pricing_plan_id":"cebpf4jnsgd1na2vs0mg"},{"bike_id":"11aa79ac-dca6-444f-842c-9c53f9e64f1a","system_id":"levelo_inurba_marseille","lat":43.313291,"lon":5.396838,"is_reserved":false,"is_disabled":false,"rental_uris":{"android":"levelo://app?vid=11aa79ac-dca6-444f-842c-9c53f9e64f1a","ios":"levelo://app?vid=11aa79ac-dca6-444f-842c-9c53f9e64f1a"},"vehicle_type_id":"4","last_reported":1710882368,"current_range_meters":31600,"station_id":"ce4bgvp2rcd13ifvqcu0","pricing_plan_id":"cebpf4jnsgd1na2vs0mg"},{"bike_id":"81b3302a-5077-4623-9fef-4d5bccf3020a","system_id":"levelo_inurba_marseille","lat":43.309047,"lon":5.396551,"is_reserved":false,"is_disabled":false,"rental_uris":{"android":"levelo://app?vid=81b3302a-5077-4623-9fef-4d5bccf3020a","ios":"levelo://app?vid=81b3302a-5077-4623-9fef-4d5bccf3020a"},"vehicle_type_id":"4","last_reported":1710882368,"current_range_meters":23600,"station_id":"ce4bh012rcd13ifvqcv0","pricing_plan_id":"cebpf4jnsgd1na2vs0mg"},{"bike_id":"10086f67-0aa4-438a-b979-2d02b2aff619","system_id":"levelo_inurba_marseille","lat":43.309038,"lon":5.396546,"is_reserved":false,"is_disabled":false,"rental_uris":{"android":"levelo://app?vid=10086f67-0aa4-438a-b979-2d02b2aff619","ios":"levelo://app?vid=10086f67-0aa4-438a-b979-2d02b2aff619"},"vehicle_type_id":"4","last_reported":1710882368,"current_range_meters":0,"station_id":"ce4bh012rcd13ifvqcv0","pricing_plan_id":"cebpf4jnsgd1na2vs0mg"},{"bike_id":"bbd17e35-2e6f-485a-a4b5-897d529c7f0b","system_id":"levelo_inurba_marseille","lat":43.309038,"lon":5.396546,"is_reserved":false,"is_disabled":false,"rental_uris":{"android":"levelo://app?vid=bbd17e35-2e6f-485a-a4b5-897d529c7f0b","ios":"levelo://app?vid=bbd17e35-2e6f-485a-a4b5-897d529c7f0b"},"vehicle_type_id":"4","last_reported":1710882368,"current_range_meters":5200,"station_id":"ce4bh012rcd13ifvqcv0","pricing_plan_id":"cebpf4jnsgd1na2vs0mg"},{"bike_id":"be3aa56f-3452-4c1a-98c6-7938880d26bc","system_id":"levelo_inurba_marseille","lat":43.291994,"lon":5.357886,"is_reserved":false,"is_disabled":false,"rental_uris":{"android":"levelo://app?vid=be3aa56f-3452-4c1a-98c6-7938880d26bc","ios":"levelo://app?vid=be3aa56f-3452-4c1a-98c6-7938880d26bc"},"vehicle_type_id":"4","last_reported":1710882368,"current_range_meters":0,"station_id":"ce4bhb12rcd13ifvqel0","pricing_plan_id":"cebpf4jnsgd1na2vs0mg"},{"bike_id":"8939ee52-1833-460a-a056-e87a9f09956a","system_id":"levelo_inurba_marseille","lat":43.30881,"lon":5.39658,"is_reserved":false,"is_disabled":false,"rental_uris":{"android":"levelo://app?vid=8939ee52-1833-460a-a056-e87a9f09956a","ios":"levelo://app?vid=8939ee52-1833-460a-a056-e87a9f09956a"},"vehicle_type_id":"4","last_reported":1710882368,"current_range_meters":0,"station_id":"ce4bh012rcd13ifvqcv0","pricing_plan_id":"cebpf4jnsgd1na2vs0mg"},{"bike_id":"129d6073-4e0e-4304-82d3-ccb27e10d8cc","system_id":"levelo_inurba_marseille","lat":43.29529,"lon":5.385581,"is_reserved":false,"is_disabled":false,"rental_uris":{"android":"levelo://app?vid=129d6073-4e0e-4304-82d3-ccb27e10d8cc","ios":"levelo://app?vid=129d6073-4e0e-4304-82d3-ccb27e10d8cc"},"vehicle_type_id":"4","last_reported":1710882368,"current_range_meters":24400,"station_id":"ce4bgih2rcd13ifvqba0","pricing_plan_id":"cebpf4jnsgd1na2vs0mg"},{"bike_id":"9945295d-ec59-49dc-bbb2-dcc2e166b0cc","system_id":"levelo_inurba_marseille","lat":43.29529,"lon":5.385581,"is_reserved":false,"is_disabled":false,"rental_uris":{"android":"levelo://app?vid=9945295d-ec59-49dc-bbb2-dcc2e166b0cc","ios":"levelo://app?vid=9945295d-ec59-49dc-bbb2-dcc2e166b0cc"},"vehicle_type_id":"4","last_reported":1710882368,"current_range_meters":25200,"station_id":"ce4bgih2rcd13ifvqba0","pricing_plan_id":"cebpf4jnsgd1na2vs0mg"},{"bike_id":"34c404ab-32e1-463e-8c83-cf7e5ce1c089","system_id":"levelo_inurba_marseille","lat":43.2953,"lon":5.38526,"is_reserved":false,"is_disabled":false,"rental_uris":{"android":"levelo://app?vid=34c404ab-32e1-463e-8c83-cf7e5ce1c089","ios":"levelo://app?vid=34c404ab-32e1-463e-8c83-cf7e5ce1c089"},"vehicle_type_id":"4","last_reported":1710882368,"current_range_meters":2800,"station_id":"ce4bgih2rcd13ifvqba0","pricing_plan_id":"cebpf4jnsgd1na2vs0mg"},{"bike_id":"2c41f5d3-50a9-46af-a0da-b8ab9ca61691","system_id":"levelo_inurba_marseille","lat":43.29529,"lon":5.38525,"is_reserved":false,"is_disabled":false,"rental_uris":{"android":"levelo://app?vid=2c41f5d3-50a9-46af-a0da-b8ab9ca61691","ios":"levelo://app?vid=2c41f5d3-50a9-46af-a0da-b8ab9ca61691"},"vehicle_type_id":"4","last_reported":1710882368,"current_range_meters":8000,"station_id":"ce4bgih2rcd13ifvqba0","pricing_plan_id":"cebpf4jnsgd1na2vs0mg"},{"bike_id":"dfc32456-42af-4620-bbde-e44e3db1d0ec","system_id":"levelo_inurba_marseille","lat":43.29529,"lon":5.385581,"is_reserved":false,"is_disabled":false,"rental_uris":{"android":"levelo://app?vid=dfc32456-42af-4620-bbde-e44e3db1d0ec","ios":"levelo://app?vid=dfc32456-42af-4620-bbde-e44e3db1d0ec"},"vehicle_type_id":"4","last_reported":1710882368,"current_range_meters":19600,"station_id":"ce4bgih2rcd13ifvqba0","pricing_plan_id":"cebpf4jnsgd1na2vs0mg"},{"bike_id":"7f4f150f-8a70-48a2-810a-2ef909e1cb4b","system_id":"levelo_inurba_marseille","lat":43.29529,"lon":5.385581,"is_reserved":false,"is_disabled":false,"rental_uris":{"android":"levelo://app?vid=7f4f150f-8a70-48a2-810a-2ef909e1cb4b","ios":"levelo://app?vid=7f4f150f-8a70-48a2-810a-2ef909e1cb4b"},"vehicle_type_id":"4","last_reported":1710882368,"current_range_meters":13600,"station_id":"ce4bgih2rcd13ifvqba0","pricing_plan_id":"cebpf4jnsgd1na2vs0mg"},{"bike_id":"a678c947-0a70-4dae-bd9a-5dc62e545958","system_id":"levelo_inurba_marseille","lat":43.29529,"lon":5.385581,"is_reserved":false,"is_disabled":false,"rental_uris":{"android":"levelo://app?vid=a678c947-0a70-4dae-bd9a-5dc62e545958","ios":"levelo://app?vid=a678c947-0a70-4dae-bd9a-5dc62e545958"},"vehicle_type_id":"4","last_reported":1710882368,"current_range_meters":28400,"station_id":"ce4bgih2rcd13ifvqba0","pricing_plan_id":"cebpf4jnsgd1na2vs0mg"},{"bike_id":"78f8462b-c17a-4525-8cb3-20c05e56b7a4","system_id":"levelo_inurba_marseille","lat":43.309047,"lon":5.396551,"is_reserved":false,"is_disabled":false,"rental_uris":{"android":"levelo://app?vid=78f8462b-c17a-4525-8cb3-20c05e56b7a4","ios":"levelo://app?vid=78f8462b-c17a-4525-8cb3-20c05e56b7a4"},"vehicle_type_id":"4","last_reported":1710882368,"current_range_meters":8000,"station_id":"ce4bh012rcd13ifvqcv0","pricing_plan_id":"cebpf4jnsgd1na2vs0mg"},{"bike_id":"6747a33c-fcda-44fd-9b73-218d47a1a812","system_id":"levelo_inurba_marseille","lat":43.29529,"lon":5.385581,"is_reserved":false,"is_disabled":false,"rental_uris":{"android":"levelo://app?vid=6747a33c-fcda-44fd-9b73-218d47a1a812","ios":"levelo://app?vid=6747a33c-fcda-44fd-9b73-218d47a1a812"},"vehicle_type_id":"4","last_reported":1710882368,"current_range_meters":16800,"station_id":"ce4bgih2rcd13ifvqba0","pricing_plan_id":"cebpf4jnsgd1na2vs0mg"},{"bike_id":"b353e546-6717-4262-b6b8-1ffbc63f3217","system_id":"levelo_inurba_marseille","lat":43.295273,"lon":5.38533,"is_reserved":false,"is_disabled":false,"rental_uris":{"android":"levelo://app?vid=b353e546-6717-4262-b6b8-1ffbc63f3217","ios":"levelo://app?vid=b353e546-6717-4262-b6b8-1ffbc63f3217"},"vehicle_type_id":"4","last_reported":1710882368,"current_range_meters":0,"station_id":"ce4bgih2rcd13ifvqba0","pricing_plan_id":"cebpf4jnsgd1na2vs0mg"},{"bike_id":"16056ea9-3fd0-4a4a-b9d7-66d256cac263","system_id":"levelo_inurba_marseille","lat":43.29529,"lon":5.385581,"is_reserved":false,"is_disabled":false,"rental_uris":{"android":"levelo://app?vid=16056ea9-3fd0-4a4a-b9d7-66d256cac263","ios":"levelo://app?vid=16056ea9-3fd0-4a4a-b9d7-66d256cac263"},"vehicle_type_id":"4","last_reported":1710882368,"current_range_meters":3200,"station_id":"ce4bgih2rcd13ifvqba0","pricing_plan_id":"cebpf4jnsgd1na2vs0mg"},{"bike_id":"565928cd-3ea0-4bee-a7cd-8d589b5d5aac","system_id":"levelo_inurba_marseille","lat":43.295354,"lon":5.385483,"is_reserved":false,"is_disabled":false,"rental_uris":{"android":"levelo://app?vid=565928cd-3ea0-4bee-a7cd-8d589b5d5aac","ios":"levelo://app?vid=565928cd-3ea0-4bee-a7cd-8d589b5d5aac"},"vehicle_type_id":"4","last_reported":1710882368,"current_range_meters":31200,"station_id":"ce4bgih2rcd13ifvqba0","pricing_plan_id":"cebpf4jnsgd1na2vs0mg"},{"bike_id":"c2f01780-9f99-4156-979b-380804a3d88f","system_id":"levelo_inurba_marseille","lat":43.2953,"lon":5.38542,"is_reserved":false,"is_disabled":false,"rental_uris":{"android":"levelo://app?vid=c2f01780-9f99-4156-979b-380804a3d88f","ios":"levelo://app?vid=c2f01780-9f99-4156-979b-380804a3d88f"},"vehicle_type_id":"4","last_reported":1710882368,"current_range_meters":9200,"station_id":"ce4bgih2rcd13ifvqba0","pricing_plan_id":"cebpf4jnsgd1na2vs0mg"},{"bike_id":"c593067f-3e07-4d96-b50f-c8990dbd2dda","system_id":"levelo_inurba_marseille","lat":43.29529,"lon":5.385581,"is_reserved":false,"is_disabled":false,"rental_uris":{"android":"levelo://app?vid=c593067f-3e07-4d96-b50f-c8990dbd2dda","ios":"levelo://app?vid=c593067f-3e07-4d96-b50f-c8990dbd2dda"},"vehicle_type_id":"4","last_reported":1710882368,"current_range_meters":31200,"station_id":"ce4bgih2rcd13ifvqba0","pricing_plan_id":"cebpf4jnsgd1na2vs0mg"},{"bike_id":"600d9a36-7753-4611-b5f5-f8a77fe4decd","system_id":"levelo_inurba_marseille","lat":43.29529,"lon":5.385581,"is_reserved":false,"is_disabled":false,"rental_uris":{"android":"levelo://app?vid=600d9a36-7753-4611-b5f5-f8a77fe4decd","ios":"levelo://app?vid=600d9a36-7753-4611-b5f5-f8a77fe4decd"},"vehicle_type_id":"4","last_reported":1710882368,"current_range_meters":7200,"station_id":"ce4bgih2rcd13ifvqba0","pricing_plan_id":"cebpf4jnsgd1na2vs0mg"},{"bike_id":"0a33ae22-2764-436e-926d-d04d2950d633","system_id":"levelo_inurba_marseille","lat":43.29529,"lon":5.385581,"is_reserved":false,"is_disabled":false,"rental_uris":{"android":"levelo://app?vid=0a33ae22-2764-436e-926d-d04d2950d633","ios":"levelo://app?vid=0a33ae22-2764-436e-926d-d04d2950d633"},"vehicle_type_id":"4","last_reported":1710882368,"current_range_meters":6800,"station_id":"ce4bgih2rcd13ifvqba0","pricing_plan_id":"cebpf4jnsgd1na2vs0mg"},{"bike_id":"3f66954a-289c-4cd5-b213-4ef3b3e12947","system_id":"levelo_inurba_marseille","lat":43.29529,"lon":5.385581,"is_reserved":false,"is_disabled":false,"rental_uris":{"android":"levelo://app?vid=3f66954a-289c-4cd5-b213-4ef3b3e12947","ios":"levelo://app?vid=3f66954a-289c-4cd5-b213-4ef3b3e12947"},"vehicle_type_id":"4","last_reported":1710882368,"current_range_meters":23600,"station_id":"ce4bgih2rcd13ifvqba0","pricing_plan_id":"cebpf4jnsgd1na2vs0mg"},{"bike_id":"8f6fe311-b756-45cf-8415-adcc9e980aae","system_id":"levelo_inurba_marseille","lat":43.29525,"lon":5.38539,"is_reserved":false,"is_disabled":false,"rental_uris":{"android":"levelo://app?vid=8f6fe311-b756-45cf-8415-adcc9e980aae","ios":"levelo://app?vid=8f6fe311-b756-45cf-8415-adcc9e980aae"},"vehicle_type_id":"4","last_reported":1710882368,"current_range_meters":8800,"station_id":"ce4bgih2rcd13ifvqba0","pricing_plan_id":"cebpf4jnsgd1na2vs0mg"},{"bike_id":"82c162c9-e584-4ff2-804f-8cf358fb8b33","system_id":"levelo_inurba_marseille","lat":43.29529,"lon":5.385581,"is_reserved":false,"is_disabled":false,"rental_uris":{"android":"levelo://app?vid=82c162c9-e584-4ff2-804f-8cf358fb8b33","ios":"levelo://app?vid=82c162c9-e584-4ff2-804f-8cf358fb8b33"},"vehicle_type_id":"4","last_reported":1710882368,"current_range_meters":14800,"station_id":"ce4bgih2rcd13ifvqba0","pricing_plan_id":"cebpf4jnsgd1na2vs0mg"},{"bike_id":"8f0d056c-fae7-4e31-b173-6d9150008aa6","system_id":"levelo_inurba_marseille","lat":43.29529,"lon":5.385581,"is_reserved":false,"is_disabled":false,"rental_uris":{"android":"levelo://app?vid=8f0d056c-fae7-4e31-b173-6d9150008aa6","ios":"levelo://app?vid=8f0d056c-fae7-4e31-b173-6d9150008aa6"},"vehicle_type_id":"4","last_reported":1710882368,"current_range_meters":22000,"station_id":"ce4bgih2rcd13ifvqba0","pricing_plan_id":"cebpf4jnsgd1na2vs0mg"},{"bike_id":"aeea94ff-ca75-4262-bef0-fa6ba23efb19","system_id":"levelo_inurba_marseille","lat":43.290779,"lon":5.371482,"is_reserved":false,"is_disabled":false,"rental_uris":{"android":"levelo://app?vid=aeea94ff-ca75-4262-bef0-fa6ba23efb19","ios":"levelo://app?vid=aeea94ff-ca75-4262-bef0-fa6ba23efb19"},"vehicle_type_id":"4","last_reported":1710882368,"current_range_meters":0,"station_id":"ce4bh5p2rcd13ifvqe4g","pricing_plan_id":"cebpf4jnsgd1na2vs0mg"},{"bike_id":"e980f336-bebb-4b40-8028-6f399b436c34","system_id":"levelo_inurba_marseille","lat":43.29063,"lon":5.37167,"is_reserved":false,"is_disabled":false,"rental_uris":{"android":"levelo://app?vid=e980f336-bebb-4b40-8028-6f399b436c34","ios":"levelo://app?vid=e980f336-bebb-4b40-8028-6f399b436c34"},"vehicle_type_id":"4","last_reported":1710882368,"current_range_meters":0,"station_id":"ce4bh5p2rcd13ifvqe4g","pricing_plan_id":"cebpf4jnsgd1na2vs0mg"},{"bike_id":"ed555d25-4ea6-417d-88ef-3cd705eddd97","system_id":"levelo_inurba_marseille","lat":43.291426,"lon":5.37769,"is_reserved":false,"is_disabled":false,"rental_uris":{"android":"levelo://app?vid=ed555d25-4ea6-417d-88ef-3cd705eddd97","ios":"levelo://app?vid=ed555d25-4ea6-417d-88ef-3cd705eddd97"},"vehicle_type_id":"4","last_reported":1710882368,"current_range_meters":30000,"station_id":"","pricing_plan_id":"cebpf4jnsgd1na2vs0mg"},{"bike_id":"11154daf-11d0-4ef8-a7f8-104b530dfb0d","system_id":"levelo_inurba_marseille","lat":43.294752,"lon":5.386024,"is_reserved":false,"is_disabled":false,"rental_uris":{"android":"levelo://app?vid=11154daf-11d0-4ef8-a7f8-104b530dfb0d","ios":"levelo://app?vid=11154daf-11d0-4ef8-a7f8-104b530dfb0d"},"vehicle_type_id":"4","last_reported":1710882368,"current_range_meters":24800,"station_id":"ce4bh2h2rcd13ifvqdh0","pricing_plan_id":"cebpf4jnsgd1na2vs0mg"},{"bike_id":"3a582b30-2834-4edc-b2ff-1235b874c959","system_id":"levelo_inurba_marseille","lat":43.289184,"lon":5.366408,"is_reserved":false,"is_disabled":false,"rental_uris":{"android":"levelo://app?vid=3a582b30-2834-4edc-b2ff-1235b874c959","ios":"levelo://app?vid=3a582b30-2834-4edc-b2ff-1235b874c959"},"vehicle_type_id":"4","last_reported":1710882368,"current_range_meters":0,"station_id":"ce4bhap2rcd13ifvqek0","pricing_plan_id":"cebpf4jnsgd1na2vs0mg"},