{"last_updated":1734131351,"ttl":60,"version":"2.2","data":{"bikes":[{"bike_id":"45c22bfb-3859-46ca-bbdd-b43970628095","system_id":"levelo_inurba_marseille","lat":43.23197,"lon":5.39994,"is_reserved":false,"is_disabled":false,"rental_uris":{"android":"levelo://app?vid=45c22bfb-3859-46ca-bbdd-b43970628095","ios":"levelo://app?vid=45c22bfb-3859-46ca-bbdd-b43970628095"},"vehicle_type_id":"4","last_reported":1734131352,"current_range_meters":25600,"station_id":"ce4bhn12rcd13ifvqgqg","pricing_plan_id":"cebpf4jnsgd1na2vs0mg"},{"bike_id":"3e5d99b9-1aaf-48b9-b5fb-fb7a0b5b1ba5","system_id":"levelo_inurba_marseille","lat":43.29046,"lon":5.39208,"is_reserved":false,"is_disabled":true,"rental_uris":{"android":"levelo://app?vid=3e5d99b9-1aaf-48b9-b5fb-fb7a0b5b1ba5","ios":"levelo://app?vid=3e5d99b9-1aaf-48b9-b5fb-fb7a0b5b1ba5"},"vehicle_type_id":"4","last_reported":1734131352,"current_range_meters":0,"station_id":"","pricing_plan_id":"cebpf4jnsgd1na2vs0mg"},{"bike_id":"e0a9efba-6485-436f-ae65-a273cf25e0ce","system_id":"levelo_inurba_marseille","lat":43.2737,"lon":5.36261,"is_reserved":false,"is_disabled":false,"rental_uris":{"android":"levelo://app?vid=e0a9efba-6485-436f-ae65-a273cf25e0ce","ios":"levelo://app?vid=e0a9efba-6485-436f-ae65-a273cf25e0ce"},"vehicle_type_id":"4","last_reported":1734131352,"current_range_meters":22800,"station_id":"ce4bhbh2rcd13ifvqeo0","pricing_plan_id":"cebpf4jnsgd1na2vs0mg"},{"bike_id":"55c52e02-0cdf-453d-a05b-f0f604647bf3","system_id":"levelo_inurba_marseille","lat":43.27932,"lon":5.41101,"is_reserved":false,"is_disabled":false,"rental_uris":{"android":"levelo://app?vid=55c52e02-0cdf-453d-a05b-f0f604647bf3","ios":"levelo://app?vid=55c52e02-0cdf-453d-a05b-f0f604647bf3"},"vehicle_type_id":"4","last_reported":1734131352,"current_range_meters":17200,"station_id":"ce4bhnp2rcd13ifvqh0g","pricing_plan_id":"cebpf4jnsgd1na2vs0mg"},{"bike_id":"575e7888-c21d-4a6d-9fe4-480369efea9f","system_id":"levelo_inurba_marseille","lat":43.312732,"lon":5.401743,"is_reserved":false,"is_disabled":false,"rental_uris":{"android":"levelo://app?vid=575e7888-c21d-4a6d-9fe4-480369efea9f","ios":"levelo://app?vid=575e7888-c21d-4a6d-9fe4-480369efea9f"},"vehicle_type_id":"4","last_reported":1734131352,"current_range_meters":39200,"station_id":"ce4bh092rcd13ifvqd30","pricing_plan_id":"cebpf4jnsgd1na2vs0mg"},{"bike_id":"19f9e8b0-a2e6-420a-a1af-f99d8fc40ad5","system_id":"levelo_inurba_marseille","lat":43.27559,"lon":5.38433,"is_reserved":false,"is_disabled":false,"rental_uris":{"android":"levelo://app?vid=19f9e8b0-a2e6-420a-a1af-f99d8fc40ad5","ios":"levelo://app?vid=19f9e8b0-a2e6-420a-a1af-f99d8fc40ad5"},"vehicle_type_id":"4","last_reported":1734131352,"current_range_meters":32400,"station_id":"ce4bhh92rcd13ifvqfi0","pricing_plan_id":"cebpf4jnsgd1na2vs0mg"},{"bike_id":"fbd1517b-97e8-434e-967d-b5ca10a625e3","system_id":"levelo_inurba_marseille","lat":43.26497,"lon":5.39545,"is_reserved":false,"is_disabled":false,"rental_uris":{"android":"levelo://app?vid=fbd1517b-97e8-434e-967d-b5ca10a625e3","ios":"levelo://app?vid=fbd1517b-97e8-434e-967d-b5ca10a625e3"},"vehicle_type_id":"4","last_reported":1734131352,"current_range_meters":36000,"station_id":"ce4bhi12rcd13ifvqfq0","pricing_plan_id":"cebpf4jnsgd1na2vs0mg"},{"bike_id":"d0de775e-cad6-4967-a98d-1da6c39ed729","system_id":"levelo_inurba_marseille","lat":43.29933,"lon":5.36532,"is_reserved":false,"is_disabled":true,"rental_uris":{"android":"levelo://app?vid=d0de775e-cad6-4967-a98d-1da6c39ed729","ios":"levelo://app?vid=d0de775e-cad6-4967-a98d-1da6c39ed729"},"vehicle_type_id":"4","last_reported":1734131352,"current_range_meters":1200,"station_id":"ce4bgm92rcd13ifvqbr0","pricing_plan_id":"cebpf4jnsgd1na2vs0mg"},{"bike_id":"1ca8b9ab-4a86-402b-a175-2064b6ef5e19","system_id":"levelo_inurba_marseille","lat":43.23958,"lon":5.36629,"is_reserved":false,"is_disabled":true,"rental_uris":{"android":"levelo://app?vid=1ca8b9ab-4a86-402b-a175-2064b6ef5e19","ios":"levelo://app?vid=1ca8b9ab-4a86-402b-a175-2064b6ef5e19"},"vehicle_type_id":"4","last_reported":1734131352,"current_range_meters":29600,"station_id":"ce4bhi12rcd13ifvqfp0","pricing_plan_id":"cebpf4jnsgd1na2vs0mg"},{"bike_id":"f53a51f1-6db0-4716-9c45-7ac4c7fcd208","system_id":"levelo_inurba_marseille","lat":43.32283,"lon":5.38272,"is_reserved":false,"is_disabled":false,"rental_uris":{"android":"levelo://app?vid=f53a51f1-6db0-4716-9c45-7ac4c7fcd208","ios":"levelo://app?vid=f53a51f1-6db0-4716-9c45-7ac4c7fcd208"},"vehicle_type_id":"4","last_reported":1734131352,"current_range_meters":32400,"station_id":"ce4bhr12rcd13ifvqhqg","pricing_plan_id":"cebpf4jnsgd1na2vs0mg"},{"bike_id":"980f96eb-32c9-4906-98f6-c44dbf4c84a1","system_id":"levelo_inurba_marseille","lat":43.27455,"lon":5.40073,"is_reserved":false,"is_disabled":true,"rental_uris":{"android":"levelo://app?vid=980f96eb-32c9-4906-98f6-c44dbf4c84a1","ios":"levelo://app?vid=980f96eb-32c9-4906-98f6-c44dbf4c84a1"},"vehicle_type_id":"4","last_reported":1734131352,"current_range_meters":0,"station_id":"","pricing_plan_id":"cebpf4jnsgd1na2vs0mg"},{"bike_id":"e8ed717d-9f26-45a9-bc82-774d381028bc","system_id":"levelo_inurba_marseille","lat":43.29555,"lon":5.42284,"is_reserved":false,"is_disabled":false,"rental_uris":{"android":"levelo://app?vid=e8ed717d-9f26-45a9-bc82-774d381028bc","ios":"levelo://app?vid=e8ed717d-9f26-45a9-bc82-774d381028bc"},"vehicle_type_id":"4","last_reported":1734131352,"current_range_meters":24400,"station_id":"ce4bhph2rcd13ifvqhdg","pricing_plan_id":"cebpf4jnsgd1na2vs0mg"},{"bike_id":"77f23e86-2969-46ee-a182-eca876676957","system_id":"levelo_inurba_marseille","lat":43.27914,"lon":5.39578,"is_reserved":false,"is_disabled":false,"rental_uris":{"android":"levelo://app?vid=77f23e86-2969-46ee-a182-eca876676957","ios":"levelo://app?vid=77f23e86-2969-46ee-a182-eca876676957"},"vehicle_type_id":"4","last_reported":1734131352,"current_range_meters":17600,"station_id":"ce4bhf92rcd13ifvqf40","pricing_plan_id":"cebpf4jnsgd1na2vs0mg"},{"bike_id":"c0cb27a1-c96a-4028-89ff-6aa28577d390","system_id":"levelo_inurba_marseille","lat":43.29022,"lon":5.38635,"is_reserved":false,"is_disabled":false,"rental_uris":{"android":"levelo://app?vid=c0cb27a1-c96a-4028-89ff-6aa28577d390","ios":"levelo://app?vid=c0cb27a1-c96a-4028-89ff-6aa28577d390"},"vehicle_type_id":"4","last_reported":1734131352,"current_range_meters":38800,"station_id":"ce4bh4p2rcd13ifvqe0g","pricing_plan_id":"cebpf4jnsgd1na2vs0mg"},{"bike_id":"d64735b9-3201-48f9-b7d1-d8bd9269830f","system_id":"levelo_inurba_marseille","lat":43.31339,"lon":5.39709,"is_reserved":false,"is_disabled":false,"rental_uris":{"android":"levelo://app?vid=d64735b9-3201-48f9-b7d1-d8bd9269830f","ios":"levelo://app?vid=d64735b9-3201-48f9-b7d1-d8bd9269830f"},"vehicle_type_id":"4","last_reported":1734131352,"current_range_meters":33600,"station_id":"ce4bgvp2rcd13ifvqcu0","pricing_plan_id":"cebpf4jnsgd1na2vs0mg"},{"bike_id":"145ad407-7195-4785-a3ae-4255062efe34","system_id":"levelo_inurba_marseille","lat":43.26052,"lon":5.38421,"is_reserved":false,"is_disabled":false,"rental_uris":{"android":"levelo://app?vid=145ad407-7195-4785-a3ae-4255062efe34","ios":"levelo://app?vid=145ad407-7195-4785-a3ae-4255062efe34"},"vehicle_type_id":"4","last_reported":1734131352,"current_range_meters":36800,"station_id":"","pricing_plan_id":"cebpf4jnsgd1na2vs0mg"},{"bike_id":"6c8f0fb1-dda3-46f8-8b7e-d47203e07a27","system_id":"levelo_inurba_marseille","lat":43.25408,"lon":5.38325,"is_reserved":false,"is_disabled":false,"rental_uris":{"android":"levelo://app?vid=6c8f0fb1-dda3-46f8-8b7e-d47203e07a27","ios":"levelo://app?vid=6c8f0fb1-dda3-46f8-8b7e-d47203e07a27"},"vehicle_type_id":"4","last_reported":1734131352,"current_range_meters":4000,"station_id":"","pricing_plan_id":"cebpf4jnsgd1na2vs0mg"},{"bike_id":"40f533e7-a1f7-411c-848c-6af4f94557cf","system_id":"levelo_inurba_marseille","lat":43.29254,"lon":5.38438,"is_reserved":false,"is_disabled":false,"rental_uris":{"android":"levelo://app?vid=40f533e7-a1f7-411c-848c-6af4f94557cf","ios":"levelo://app?vid=40f533e7-a1f7-411c-848c-6af4f94557cf"},"vehicle_type_id":"4","last_reported":1734131352,"current_range_meters":26800,"station_id":"ce4bh692rcd13ifvqea0","pricing_plan_id":"cebpf4jnsgd1na2vs0mg"},{"bike_id":"80e5c1e3-8d27-43e3-9451-b00f65b301df","system_id":"levelo_inurba_marseille","lat":43.23197,"lon":5.35553,"is_reserved":false,"is_disabled":false,"rental_uris":{"android":"levelo://app?vid=80e5c1e3-8d27-43e3-9451-b00f65b301df","ios":"levelo://app?vid=80e5c1e3-8d27-43e3-9451-b00f65b301df"},"vehicle_type_id":"4","last_reported":1734131352,"current_range_meters":8800,"station_id":"ce4bhu92rcd13ifvqi70","pricing_plan_id":"cebpf4jnsgd1na2vs0mg"},{"bike_id":"496b9119-850a-49b3-bf98-295bb079ca7c","system_id":"levelo_inurba_marseille","lat":43.28203,"lon":5.44559,"is_reserved":false,"is_disabled":false,"rental_uris":{"android":"levelo://app?vid=496b9119-850a-49b3-bf98-295bb079ca7c","ios":"levelo://app?vid=496b9119-850a-49b3-bf98-295bb079ca7c"},"vehicle_type_id":"4","last_reported":1734131352,"current_range_meters":14400,"station_id":"","pricing_plan_id":"cebpf4jnsgd1na2vs0mg"},{"bike_id":"0d67fd70-e4b1-42fe-abbd-da05c25ce133","system_id":"levelo_inurba_marseille","lat":43.27995,"lon":5.41663,"is_reserved":false,"is_disabled":false,"rental_uris":{"android":"levelo://app?vid=0d67fd70-e4b1-42fe-abbd-da05c25ce133","ios":"levelo://app?vid=0d67fd70-e4b1-42fe-abbd-da05c25ce133"},"vehicle_type_id":"4","last_reported":1734131352,"current_range_meters":38800,"station_id":"ce4bho12rcd13ifvqh1g","pricing_plan_id":"cebpf4jnsgd1na2vs0mg"},{"bike_id":"6ccb1b55-c0a9-46eb-8f0b-906ec7a25595","system_id":"levelo_inurba_marseille","lat":43.28274,"lon":5.35079,"is_reserved":false,"is_disabled":false,"rental_uris":{"android":"levelo://app?vid=6ccb1b55-c0a9-46eb-8f0b-906ec7a25595","ios":"levelo://app?vid=6ccb1b55-c0a9-46eb-8f0b-906ec7a25595"},"vehicle_type_id":"4","last_reported":1734131352,"current_range_meters":23200,"station_id":"ce4bhbp2rcd13ifvqerg","pricing_plan_id":"cebpf4jnsgd1na2vs0mg"},{"bike_id":"66f072c8-73a3-4f07-be84-e55ef4baae4c","system_id":"levelo_inurba_marseille","lat":43.32541,"lon":5.41423,"is_reserved":false,"is_disabled":false,"rental_uris":{"android":"levelo://app?vid=66f072c8-73a3-4f07-be84-e55ef4baae4c","ios":"levelo://app?vid=66f072c8-73a3-4f07-be84-e55ef4baae4c"},"vehicle_type_id":"4","last_reported":1734131352,"current_range_meters":10800,"station_id":"ce4bhq12rcd13ifvqhhg","pricing_plan_id":"cebpf4jnsgd1na2vs0mg"},{"bike_id":"1a341f13-1fed-4461-850d-e3c63634c2cf","system_id":"levelo_inurba_marseille","lat":43.2827,"lon":5.35083,"is_reserved":false,"is_disabled":false,"rental_uris":{"android":"levelo://app?vid=1a341f13-1fed-4461-850d-e3c63634c2cf","ios":"levelo://app?vid=1a341f13-1fed-4461-850d-e3c63634c2cf"},"vehicle_type_id":"4","last_reported":1734131352,"current_range_meters":38800,"station_id":"ce4bhbp2rcd13ifvqerg","pricing_plan_id":"cebpf4jnsgd1na2vs0mg"},{"bike_id":"fb32aea2-d437-4e9e-95b8-ad6ed33d022d","system_id":"levelo_inurba_marseille","lat":43.28709,"lon":5.37943,"is_reserved":false,"is_disabled":true,"rental_uris":{"android":"levelo://app?vid=fb32aea2-d437-4e9e-95b8-ad6ed33d022d","ios":"levelo://app?vid=fb32aea2-d437-4e9e-95b8-ad6ed33d022d"},"vehicle_type_id":"4","last_reported":1734131352,"current_range_meters":27200,"station_id":"ce4bh9p2rcd13ifvqec0","pricing_plan_id":"cebpf4jnsgd1na2vs0mg"},{"bike_id":"d5c89c1f-3bad-4af2-9449-e04c277a4696","system_id":"levelo_inurba_marseille","lat":43.29975,"lon":5.41303,"is_reserved":false,"is_disabled":true,"rental_uris":{"android":"levelo://app?vid=d5c89c1f-3bad-4af2-9449-e04c277a4696","ios":"levelo://app?vid=d5c89c1f-3bad-4af2-9449-e04c277a4696"},"vehicle_type_id":"4","last_reported":1734131352,"current_range_meters":37600,"station_id":"ce4bhp12rcd13ifvqh9g","pricing_plan_id":"cebpf4jnsgd1na2vs0mg"},{"bike_id":"5cba9f55-9853-4014-82c1-7917379c085c","system_id":"levelo_inurba_marseille","lat":43.28663,"lon":5.36361,"is_reserved":false,"is_disabled":false,"rental_uris":{"android":"levelo://app?vid=5cba9f55-9853-4014-82c1-7917379c085c","ios":"levelo://app?vid=5cba9f55-9853-4014-82c1-7917379c085c"},"vehicle_type_id":"4","last_reported":1734131352,"current_range_meters":38000,"station_id":"ce4bhah2rcd13ifvqej0","pricing_plan_id":"cebpf4jnsgd1na2vs0mg"},{"bike_id":"5dcb142e-3766-4e2c-b1fe-c9ebbc5d3c50","system_id":"levelo_inurba_marseille","lat":43.31999,"lon":5.38141,"is_reserved":false,"is_disabled":false,"rental_uris":{"android":"levelo://app?vid=5dcb142e-3766-4e2c-b1fe-c9ebbc5d3c50","ios":"levelo://app?vid=5dcb142e-3766-4e2c-b1fe-c9ebbc5d3c50"},"vehicle_type_id":"4","last_reported":1734131352,"current_range_meters":6800,"station_id":"ce4bhr12rcd13ifvqhpg","pricing_plan_id":"cebpf4jnsgd1na2vs0mg"},{"bike_id":"34b7c429-e090-4214-bdd0-0e0c3d3ae1a0","system_id":"levelo_inurba_marseille","lat":43.29274,"lon":5.38446,"is_reserved":false,"is_disabled":false,"rental_uris":{"android":"levelo://app?vid=34b7c429-e090-4214-bdd0-0e0c3d3ae1a0","ios":"levelo://app?vid=34b7c429-e090-4214-bdd0-0e0c3d3ae1a0"},"vehicle_type_id":"4","last_reported":1734131352,"current_range_meters":21600,"station_id":"ce4bh692rcd13ifvqea0","pricing_plan_id":"cebpf4jnsgd1na2vs0mg"},{"bike_id":"3a312272-900a-4c4b-bb5b-4ed6000e4b63","system_id":"levelo_inurba_marseille","lat":43.30151,"lon":5.380897,"is_reserved":false,"is_disabled":true,"rental_uris":{"android":"levelo://app?vid=3a312272-900a-4c4b-bb5b-4ed6000e4b63","ios":"levelo://app?vid=3a312272-900a-4c4b-bb5b-4ed6000e4b63"},"vehicle_type_id":"4","last_reported":1734131352,"current_range_meters":38000,"station_id":"ce4bgjp2rcd13ifvqbh0","pricing_plan_id":"cebpf4jnsgd1na2vs0mg"},{"bike_id":"d1e92dab-af6b-40d1-ab8b-c4427d0e787c","system_id":"levelo_inurba_marseille","lat":43.29023,"lon":5.38632,"is_reserved":false,"is_disabled":false,"rental_uris":{"android":"levelo://app?vid=d1e92dab-af6b-40d1-ab8b-c4427d0e787c","ios":"levelo://app?vid=d1e92dab-af6b-40d1-ab8b-c4427d0e787c"},"vehicle_type_id":"4","last_reported":1734131352,"current_range_meters":38000,"station_id":"ce4bh4p2rcd13ifvqe0g","pricing_plan_id":"cebpf4jnsgd1na2vs0mg"},{"bike_id":"99c777fb-f3e9-457a-b392-4682c4d57bcc","system_id":"levelo_inurba_marseille","lat":43.33015,"lon":5.39036,"is_reserved":false,"is_disabled":false,"rental_uris":{"android":"levelo://app?vid=99c777fb-f3e9-457a-b392-4682c4d57bcc","ios":"levelo://app?vid=99c777fb-f3e9-457a-b392-4682c4d57bcc"},"vehicle_type_id":"4","last_reported":1734131352,"current_range_meters":30400,"station_id":"ce4bhr92rcd13ifvqhrg","pricing_plan_id":"cebpf4jnsgd1na2vs0mg"},{"bike_id":"1246e6b9-1bba-43b9-9075-2687b084a677","system_id":"levelo_inurba_marseille","lat":43.25865,"lon":5.39927,"is_reserved":false,"is_disabled":false,"rental_uris":{"android":"levelo://app?vid=1246e6b9-1bba-43b9-9075-2687b084a677","ios":"levelo://app?vid=1246e6b9-1bba-43b9-9075-2687b084a677"},"vehicle_type_id":"4","last_reported":1734131352,"current_range_meters":39200,"station_id":"ce4bhl92rcd13ifvqghg","pricing_plan_id":"cebpf4jnsgd1na2vs0mg"},{"bike_id":"6a6ccc20-8fb4-4b99-938b-84243f6c53fe","system_id":"levelo_inurba_marseille","lat":43.29723,"lon":5.37696,"is_reserved":false,"is_disabled":false,"rental_uris":{"android":"levelo://app?vid=6a6ccc20-8fb4-4b99-938b-84243f6c53fe","ios":"levelo://app?vid=6a6ccc20-8fb4-4b99-938b-84243f6c53fe"},"vehicle_type_id":"4","last_reported":1734131352,"current_range_meters":38800,"station_id":"ce4bgkh2rcd13ifvqbl0","pricing_plan_id":"cebpf4jnsgd1na2vs0mg"},{"bike_id":"9658b4e0-946e-4511-8e18-b51586108f8c","system_id":"levelo_inurba_marseille","lat":43.33764,"lon":5.37424,"is_reserved":false,"is_disabled":false,"rental_uris":{"android":"levelo://app?vid=9658b4e0-946e-4511-8e18-b51586108f8c","ios":"levelo://app?vid=9658b4e0-946e-4511-8e18-b51586108f8c"},"vehicle_type_id":"4","last_reported":1734131352,"current_range_meters":35200,"station_id":"","pricing_plan_id":"cebpf4jnsgd1na2vs0mg"},{"bike_id":"49ac9992-f3f5-48a4-812b-81d40a47b277","system_id":"levelo_inurba_marseille","lat":43.29527,"lon":5.39029,"is_reserved":false,"is_disabled":false,"rental_uris":{"android":"levelo://app?vid=49ac9992-f3f5-48a4-812b-81d40a47b277","ios":"levelo://app?vid=49ac9992-f3f5-48a4-812b-81d40a47b277"},"vehicle_type_id":"4","last_reported":1734131352,"current_range_meters":17200,"station_id":"ce4bh3p2rcd13ifvqdp0","pricing_plan_id":"cebpf4jnsgd1na2vs0mg"},{"bike_id":"2f747797-e559-43cf-b56c-5d5684c52fbf","system_id":"levelo_inurba_marseille","lat":43.31512,"lon":5.37305,"is_reserved":false,"is_disabled":true,"rental_uris":{"android":"levelo://app?vid=2f747797-e559-43cf-b56c-5d5684c52fbf","ios":"levelo://app?vid=2f747797-e559-43cf-b56c-5d5684c52fbf"},"vehicle_type_id":"4","last_reported":1734131352,"current_range_meters":0,"station_id":"ce4bgt12rcd13ifvqcd0","pricing_plan_id":"cebpf4jnsgd1na2vs0mg"},{"bike_id":"9bfcebe4-fee2-409c-a8ab-5608ab6f061f","system_id":"levelo_inurba_marseille","lat":43.28152,"lon":5.42749,"is_reserved":false,"is_disabled":true,"rental_uris":{"android":"levelo://app?vid=9bfcebe4-fee2-409c-a8ab-5608ab6f061f","ios":"levelo://app?vid=9bfcebe4-fee2-409c-a8ab-5608ab6f061f"},"vehicle_type_id":"4","last_reported":1734131352,"current_range_meters":36800,"station_id":"","pricing_plan_id":"cebpf4jnsgd1na2vs0mg"},{"bike_id":"21add69f-ef58-4db8-8eb1-1d3892b75566","system_id":"levelo_inurba_marseille","lat":43.30891,"lon":5.39655,"is_reserved":false,"is_disabled":false,"rental_uris":{"android":"levelo://app?vid=21add69f-ef58-4db8-8eb1-1d3892b75566","ios":"levelo://app?vid=21add69f-ef58-4db8-8eb1-1d3892b75566"},"vehicle_type_id":"4","last_reported":1734131352,"current_range_meters":18800,"station_id":"ce4bh012rcd13ifvqcv0","pricing_plan_id":"cebpf4jnsgd1na2vs0mg"},{"bike_id":"0e8a89dc-4e73-48a3-8682-6696627877b1","system_id":"levelo_inurba_marseille","lat":43.31758,"lon":5.39021,"is_reserved":false,"is_disabled":false,"rental_uris":{"android":"levelo://app?vid=0e8a89dc-4e73-48a3-8682-6696627877b1","ios":"levelo://app?vid=0e8a89dc-4e73-48a3-8682-6696627877b1"},"vehicle_type_id":"4","last_reported":1734131352,"current_range_meters":38800,"station_id":"ce4bhqp2rcd13ifvqhng","pricing_plan_id":"cebpf4jnsgd1na2vs0mg"},{"bike_id":"edaea664-24e0-4d6c-aa7a-497f5c5f88f6","system_id":"levelo_inurba_marseille","lat":43.27006,"lon":5.3914,"is_reserved":false,"is_disabled":true,"rental_uris":{"android":"levelo://app?vid=edaea664-24e0-4d6c-aa7a-497f5c5f88f6","ios":"levelo://app?vid=edaea664-24e0-4d6c-aa7a-497f5c5f88f6"},"vehicle_type_id":"4","last_reported":1734131352,"current_range_meters":0,"station_id":"","pricing_plan_id":"cebpf4jnsgd1na2vs0mg"},{"bike_id":"72ad76d7-5a2d-4089-9d42-96862758d84f","system_id":"levelo_inurba_marseille","lat":43.295231,"lon":5.390212,"is_reserved":false,"is_disabled":true,"rental_uris":{"android":"levelo://app?vid=72ad76d7-5a2d-4089-9d42-96862758d84f","ios":"levelo://app?vid=72ad76d7-5a2d-4089-9d42-96862758d84f"},"vehicle_type_id":"4","last_reported":1734131352,"current_range_meters":33600,"station_id":"ce4bh3p2rcd13ifvqdp0","pricing_plan_id":"cebpf4jnsgd1na2vs0mg"},{"bike_id":"083a7f29-2600-41e5-aade-f6ae790461ce","system_id":"levelo_inurba_marseille","lat":43.28687,"lon":5.38654,"is_reserved":false,"is_disabled":false,"rental_uris":{"android":"levelo://app?vid=083a7f29-2600-41e5-aade-f6ae790461ce","ios":"levelo://app?vid=083a7f29-2600-41e5-aade-f6ae790461ce"},"vehicle_type_id":"4","last_reported":1734131352,"current_range_meters":36000,"station_id":"ce4bh492rcd13ifvqdug","pricing_plan_id":"cebpf4jnsgd1na2vs0mg"},{"bike_id":"bf84ede4-a5f2-4d4c-8e63-c7d5fd486847","system_id":"levelo_inurba_marseille","lat":43.24802,"lon":5.37453,"is_reserved":false,"is_disabled":false,"rental_uris":{"android":"levelo://app?vid=bf84ede4-a5f2-4d4c-8e63-c7d5fd486847","ios":"levelo://app?vid=bf84ede4-a5f2-4d4c-8e63-c7d5fd486847"},"vehicle_type_id":"4","last_reported":1734131352,"current_range_meters":19200,"station_id":"ce4bhgh2rcd13ifvqfb0","pricing_plan_id":"cebpf4jnsgd1na2vs0mg"},{"bike_id":"031809f5-fdc4-4687-967d-86d6a0becf47","system_id":"levelo_inurba_marseille","lat":43.25869,"lon":5.39901,"is_reserved":false,"is_disabled":false,"rental_uris":{"android":"levelo://app?vid=031809f5-fdc4-4687-967d-86d6a0becf47","ios":"levelo://app?vid=031809f5-fdc4-4687-967d-86d6a0becf47"},"vehicle_type_id":"4","last_reported":1734131352,"current_range_meters":39200,"station_id":"ce4bhl92rcd13ifvqghg","pricing_plan_id":"cebpf4jnsgd1na2vs0mg"},{"bike_id":"66331cc1-d263-487f-86ec-bf9d2260ae21","system_id":"levelo_inurba_marseille","lat":43.25862,"lon":5.39909,"is_reserved":false,"is_disabled":false,"rental_uris":{"android":"levelo://app?vid=66331cc1-d263-487f-86ec-bf9d2260ae21","ios":"levelo://app?vid=66331cc1-d263-487f-86ec-bf9d2260ae21"},"vehicle_type_id":"4","last_reported":1734131352,"current_range_meters":38800,"station_id":"ce4bhl92rcd13ifvqghg","pricing_plan_id":"cebpf4jnsgd1na2vs0mg"},{"bike_id":"5f57b631-6bd2-4c7f-8ca2-84262d59805e","system_id":"levelo_inurba_marseille","lat":43.24662,"lon":5.38161,"is_reserved":false,"is_disabled":false,"rental_uris":{"android":"levelo://app?vid=5f57b631-6bd2-4c7f-8ca2-84262d59805e","ios":"levelo://app?vid=5f57b631-6bd2-4c7f-8ca2-84262d59805e"},"vehicle_type_id":"4","last_reported":1734131352,"current_range_meters":22000,"station_id":"ce4bhih2rcd13ifvqfr0","pricing_plan_id":"cebpf4jnsgd1na2vs0mg"},{"bike_id":"9b8de88d-3aac-4c23-948d-9b3427dee27a","system_id":"levelo_inurba_marseille","lat":43.32652,"lon":5.41,"is_reserved":false,"is_disabled":false,"rental_uris":{"android":"levelo://app?vid=9b8de88d-3aac-4c23-948d-9b3427dee27a","ios":"levelo://app?vid=9b8de88d-3aac-4c23-948d-9b3427dee27a"},"vehicle_type_id":"4","last_reported":1734131352,"current_range_meters":38800,"station_id":"ce4bhpp2rcd13ifvqhgg","pricing_plan_id":"cebpf4jnsgd1na2vs0mg"},{"bike_id":"75d005f1-a104-4287-b501-1002db049ee7","system_id":"levelo_inurba_marseille","lat":43.337336,"lon":5.391886,"is_reserved":false,"is_disabled":false,"rental_uris":{"android":"levelo://app?vid=75d005f1-a104-4287-b501-1002db049ee7","ios":"levelo://app?vid=75d005f1-a104-4287-b501-1002db049ee7"},"vehicle_type_id":"4","last_reported":1734131352,"current_range_meters":38800,"station_id":"ce4bhr92rcd13ifvqhsg","pricing_plan_id":"cebpf4jnsgd1na2vs0mg"},{"bike_id":"9c1ce7b6-f5d4-48dd-b699-4ec030edf6d0","system_id":"levelo_inurba_marseille","lat":43.33024,"lon":5.39044,"is_reserved":false,"is_disabled":false,"rental_uris":{"android":"levelo://app?vid=9c1ce7b6-f5d4-48dd-b699-4ec030edf6d0","ios":"levelo://app?vid=9c1ce7b6-f5d4-48dd-b699-4ec030edf6d0"},"vehicle_type_id":"4","last_reported":1734131352,"current_range_meters":14800,"station_id":"ce4bhr92rcd13ifvqhrg","pricing_plan_id":"cebpf4jnsgd1na2vs0mg"},{"bike_id":"9a88aa52-5330-483f-9cee-487b21bd6332","system_id":"levelo_inurba_marseille","lat":43.3136,"lon":5.367,"is_reserved":false,"is_disabled":true,"rental_uris":{"android":"levelo://app?vid=9a88aa52-5330-483f-9cee-487b21bd6332","ios":"levelo://app?vid=9a88aa52-5330-483f-9cee-487b21bd6332"},"vehicle_type_id":"4","last_reported":1734131352,"current_range_meters":37600,"station_id":"ce4bgr92rcd13ifvqc6g","pricing_plan_id":"cebpf4jnsgd1na2vs0mg"},{"bike_id":"30b7f7b0-cffb-44e8-9e23-86428fe1183d","system_id":"levelo_inurba_marseille","lat":43.23071,"lon":5.35492,"is_reserved":false,"is_disabled":false,"rental_uris":{"android":"levelo://app?vid=30b7f7b0-cffb-44e8-9e23-86428fe1183d","ios":"levelo://app?vid=30b7f7b0-cffb-44e8-9e23-86428fe1183d"},"vehicle_type_id":"4","last_reported":1734131352,"current_range_meters":36000,"station_id":"cpo3342slgdg3j2ifvpg","pricing_plan_id":"cebpf4jnsgd1na2vs0mg"},{"bike_id":"eaddc4d6-163a-482e-abbb-b79c1524cfdc","system_id":"levelo_inurba_marseille","lat":43.2811,"lon":5.37871,"is_reserved":false,"is_disabled":false,"rental_uris":{"android":"levelo://app?vid=eaddc4d6-163a-482e-abbb-b79c1524cfdc","ios":"levelo://app?vid=eaddc4d6-163a-482e-abbb-b79c1524cfdc"},"vehicle_type_id":"4","last_reported":1734131352,"current_range_meters":10800,"station_id":"ce4bha12rcd13ifvqee0","pricing_plan_id":"cebpf4jnsgd1na2vs0mg"},{"bike_id":"c962957d-ec10-4997-96e1-a869343f922e","system_id":"levelo_inurba_marseille","lat":43.32664,"lon":5.36078,"is_reserved":false,"is_disabled":false,"rental_uris":{"android":"levelo://app?vid=c962957d-ec10-4997-96e1-a869343f922e","ios":"levelo://app?vid=c962957d-ec10-4997-96e1-a869343f922e"},"vehicle_type_id":"4","last_reported":1734131352,"current_range_meters":4400,"station_id":"","pricing_plan_id":"cebpf4jnsgd1na2vs0mg"},{"bike_id":"5d8c4147-efc3-46d0-b949-f9ef59336e99","system_id":"levelo_inurba_marseille","lat":43.27938,"lon":5.41036,"is_reserved":false,"is_disabled":false,"rental_uris":{"android":"levelo://app?vid=5d8c4147-efc3-46d0-b949-f9ef59336e99","ios":"levelo://app?vid=5d8c4147-efc3-46d0-b949-f9ef59336e99"},"vehicle_type_id":"4","last_reported":1734131352,"current_range_meters":25200,"station_id":"ce4bhnp2rcd13ifvqh0g","pricing_plan_id":"cebpf4jnsgd1na2vs0mg"},{"bike_id":"bb14f36d-3645-4531-9655-e845e98af035","system_id":"levelo_inurba_marseille","lat":43.32291,"lon":5.38224,"is_reserved":false,"is_disabled":false,"rental_uris":{"android":"levelo://app?vid=bb14f36d-3645-4531-9655-e845e98af035","ios":"levelo://app?vid=bb14f36d-3645-4531-9655-e845e98af035"},"vehicle_type_id":"4","last_reported":1734131352,"current_range_meters":6800,"station_id":"ce4bhr12rcd13ifvqhqg","pricing_plan_id":"cebpf4jnsgd1na2vs0mg"},{"bike_id":"980e2457-2eab-4f15-8d87-ec6a967191ee","system_id":"levelo_inurba_marseille","lat":43.28104,"lon":5.37841,"is_reserved":false,"is_disabled":false,"rental_uris":{"android":"levelo://app?vid=980e2457-2eab-4f15-8d87-ec6a967191ee","ios":"levelo://app?vid=980e2457-2eab-4f15-8d87-ec6a967191ee"},"vehicle_type_id":"4","last_reported":1734131352,"current_range_meters":38800,"station_id":"ce4bha12rcd13ifvqee0","pricing_plan_id":"cebpf4jnsgd1na2vs0mg"},{"bike_id":"f24a7910-9e53-4b68-a90d-9e1a3327280e","system_id":"levelo_inurba_marseille","lat":43.27625,"lon":5.36109,"is_reserved":false,"is_disabled":false,"rental_uris":{"android":"levelo://app?vid=f24a7910-9e53-4b68-a90d-9e1a3327280e","ios":"levelo://app?vid=f24a7910-9e53-4b68-a90d-9e1a3327280e"},"vehicle_type_id":"4","last_reported":1734131352,"current_range_meters":36400,"station_id":"ce4bgj92rcd13ifvqbe0","pricing_plan_id":"cebpf4jnsgd1na2vs0mg"},{"bike_id":"2399acb2-ac1a-481d-bc02-0d9789d2e83d","system_id":"levelo_inurba_marseille","lat":43.2894,"lon":5.36636,"is_reserved":false,"is_disabled":false,"rental_uris":{"android":"levelo://app?vid=2399acb2-ac1a-481d-bc02-0d9789d2e83d","ios":"levelo://app?vid=2399acb2-ac1a-481d-bc02-0d9789d2e83d"},"vehicle_type_id":"4","last_reported":1734131352,"current_range_meters":31200,"station_id":"ce4bhap2rcd13ifvqek0","pricing_plan_id":"cebpf4jnsgd1na2vs0mg"},{"bike_id":"ca620766-cdf5-479d-94ca-d0735cd44994","system_id":"levelo_inurba_marseille","lat":43.3133,"lon":5.39702,"is_reserved":false,"is_disabled":false,"rental_uris":{"android":"levelo://app?vid=ca620766-cdf5-479d-94ca-d0735cd44994","ios":"levelo://app?vid=ca620766-cdf5-479d-94ca-d0735cd44994"},"vehicle_type_id":"4","last_reported":1734131352,"current_range_meters":30000,"station_id":"ce4bgvp2rcd13ifvqcu0","pricing_plan_id":"cebpf4jnsgd1na2vs0mg"},{"bike_id":"bc77552c-f2bc-4368-bc19-7004372d4910","system_id":"levelo_inurba_marseille","lat":43.31331,"lon":5.39696,"is_reserved":false,"is_disabled":false,"rental_uris":{"android":"levelo://app?vid=bc77552c-f2bc-4368-bc19-7004372d4910","ios":"levelo://app?vid=bc77552c-f2bc-4368-bc19-7004372d4910"},"vehicle_type_id":"4","last_reported":1734131352,"current_range_meters":39200,"station_id":"ce4bgvp2rcd13ifvqcu0","pricing_plan_id":"cebpf4jnsgd1na2vs0mg"},{"bike_id":"773210ee-d19a-4226-90f8-e420da4ce6bd","system_id":"levelo_inurba_marseille","lat":43.30246,"lon":5.40053,"is_reserved":false,"is_disabled":true,"rental_uris":{"android":"levelo://app?vid=773210ee-d19a-4226-90f8-e420da4ce6bd","ios":"levelo://app?vid=773210ee-d19a-4226-90f8-e420da4ce6bd"},"vehicle_type_id":"4","last_reported":1734131352,"current_range_meters":5600,"station_id":"ce4bgvh2rcd13ifvqcs0","pricing_plan_id":"cebpf4jnsgd1na2vs0mg"},{"bike_id":"da345435-a4ab-4142-96e2-d4c3515056c7","system_id":"levelo_inurba_marseille","lat":43.301346,"lon":5.387844,"is_reserved":false,"is_disabled":true,"rental_uris":{"android":"levelo://app?vid=da345435-a4ab-4142-96e2-d4c3515056c7","ios":"levelo://app?vid=da345435-a4ab-4142-96e2-d4c3515056c7"},"vehicle_type_id":"4","last_reported":1734131352,"current_range_meters":0,"station_id":"ce4bghh2rcd13ifvqb60","pricing_plan_id":"cebpf4jnsgd1na2vs0mg"},{"bike_id":"1dcb2b19-c38f-4c18-9470-8004942c15c1","system_id":"levelo_inurba_marseille","lat":43.2781,"lon":5.40718,"is_reserved":false,"is_disabled":false,"rental_uris":{"android":"levelo://app?vid=1dcb2b19-c38f-4c18-9470-8004942c15c1","ios":"levelo://app?vid=1dcb2b19-c38f-4c18-9470-8004942c15c1"},"vehicle_type_id":"4","last_reported":1734131352,"current_range_meters":38800,"station_id":"ce4bhnh2rcd13ifvqgtg","pricing_plan_id":"cebpf4jnsgd1na2vs0mg"},{"bike_id":"9ad311dd-c450-4f09-933a-ef53d4559dc3","system_id":"levelo_inurba_marseille","lat":43.26983,"lon":5.39872,"is_reserved":false,"is_disabled":false,"rental_uris":{"android":"levelo://app?vid=9ad311dd-c450-4f09-933a-ef53d4559dc3","ios":"levelo://app?vid=9ad311dd-c450-4f09-933a-ef53d4559dc3"},"vehicle_type_id":"4","last_reported":1734131352,"current_range_meters":28800,"station_id":"","pricing_plan_id":"cebpf4jnsgd1na2vs0mg"},{"bike_id":"22b40bf9-1530-41df-9c66-58757ccd112d","system_id":"levelo_inurba_marseille","lat":43.30799,"lon":5.38157,"is_reserved":false,"is_disabled":false,"rental_uris":{"android":"levelo://app?vid=22b40bf9-1530-41df-9c66-58757ccd112d","ios":"levelo://app?vid=22b40bf9-1530-41df-9c66-58757ccd112d"},"vehicle_type_id":"4","last_reported":1734131352,"current_range_meters":32800,"station_id":"ce4bgt12rcd13ifvqce0","pricing_plan_id":"cebpf4jnsgd1na2vs0mg"},{"bike_id":"45c57a5c-dc29-4469-9911-b502aa89efe3","system_id":"levelo_inurba_marseille","lat":43.29294,"lon":5.37461,"is_reserved":false,"is_disabled":false,"rental_uris":{"android":"levelo://app?vid=45c57a5c-dc29-4469-9911-b502aa89efe3","ios":"levelo://app?vid=45c57a5c-dc29-4469-9911-b502aa89efe3"},"vehicle_type_id":"4","last_reported":1734131352,"current_range_meters":8000,"station_id":"ce4bgi12rcd13ifvqb70","pricing_plan_id":"cebpf4jnsgd1na2vs0mg"},{"bike_id":"dce79262-6094-4d3b-b3ca-313cc390b2bc","system_id":"levelo_inurba_marseille","lat":43.27967,"lon":5.41044,"is_reserved":false,"is_disabled":false,"rental_uris":{"android":"levelo://app?vid=dce79262-6094-4d3b-b3ca-313cc390b2bc","ios":"levelo://app?vid=dce79262-6094-4d3b-b3ca-313cc390b2bc"},"vehicle_type_id":"4","last_reported":1734131352,"current_range_meters":28000,"station_id":"ce4bhnp2rcd13ifvqh0g","pricing_plan_id":"cebpf4jnsgd1na2vs0mg"},{"bike_id":"23129e05-4c1f-46a6-b9d0-17ee07b2ac28","system_id":"levelo_inurba_marseille","lat":43.25111,"lon":5.4032,"is_reserved":false,"is_disabled":false,"rental_uris":{"android":"levelo://app?vid=23129e05-4c1f-46a6-b9d0-17ee07b2ac28","ios":"levelo://app?vid=23129e05-4c1f-46a6-b9d0-17ee07b2ac28"},"vehicle_type_id":"4","last_reported":1734131352,"current_range_meters":8000,"station_id":"ce4bhlh2rcd13ifvqgig","pricing_plan_id":"cebpf4jnsgd1na2vs0mg"},{"bike_id":"af67ac53-ba21-4ff0-8334-95679e9ff2cc","system_id":"levelo_inurba_marseille","lat":43.278805,"lon":5.388003,"is_reserved":false,"is_disabled":true,"rental_uris":{"android":"levelo://app?vid=af67ac53-ba21-4ff0-8334-95679e9ff2cc","ios":"levelo://app?vid=af67ac53-ba21-4ff0-8334-95679e9ff2cc"},"vehicle_type_id":"4","last_reported":1734131352,"current_range_meters":4400,"station_id":"","pricing_plan_id":"cebpf4jnsgd1na2vs0mg"},{"bike_id":"2a392c48-5f99-4704-96d2-f5c965baf6b6","system_id":"levelo_inurba_marseille","lat":43.26202,"lon":5.37925,"is_reserved":false,"is_disabled":false,"rental_uris":{"android":"levelo://app?vid=2a392c48-5f99-4704-96d2-f5c965baf6b6","ios":"levelo://app?vid=2a392c48-5f99-4704-96d2-f5c965baf6b6"},"vehicle_type_id":"4","last_reported":1734131352,"current_range_meters":16400,"station_id":"ce4bhjp2rcd13ifvqg90","pricing_plan_id":"cebpf4jnsgd1na2vs0mg"},{"bike_id":"11364264-4d76-4bef-ab07-d2824601af31","system_id":"levelo_inurba_marseille","lat":43.29926,"lon":5.37455,"is_reserved":false,"is_disabled":false,"rental_uris":{"android":"levelo://app?vid=11364264-4d76-4bef-ab07-d2824601af31","ios":"levelo://app?vid=11364264-4d76-4bef-ab07-d2824601af31"},"vehicle_type_id":"4","last_reported":1734131352,"current_range_meters":29600,"station_id":"ce4bgjh2rcd13ifvqbg0","pricing_plan_id":"cebpf4jnsgd1na2vs0mg"},{"bike_id":"0232408d-292c-41d3-b181-663261afd040","system_id":"levelo_inurba_marseille","lat":43.27476,"lon":5.40895,"is_reserved":false,"is_disabled":false,"rental_uris":{"android":"levelo://app?vid=0232408d-292c-41d3-b181-663261afd040","ios":"levelo://app?vid=0232408d-292c-41d3-b181-663261afd040"},"vehicle_type_id":"4","last_reported":1734131352,"current_range_meters":36400,"station_id":"","pricing_plan_id":"cebpf4jnsgd1na2vs0mg"},{"bike_id":"5f3b6269-aa16-4c3d-b3a1-ae7fa8e67e78","system_id":"levelo_inurba_marseille","lat":43.28567,"lon":5.39498,"is_reserved":false,"is_disabled":false,"rental_uris":{"android":"levelo://app?vid=5f3b6269-aa16-4c3d-b3a1-ae7fa8e67e78","ios":"levelo://app?vid=5f3b6269-aa16-4c3d-b3a1-ae7fa8e67e78"},"vehicle_type_id":"4","last_reported":1734131352,"current_range_meters":9200,"station_id":"ce4bh292rcd13ifvqdg0","pricing_plan_id":"cebpf4jnsgd1na2vs0mg"},{"bike_id":"d8d7ffef-ae54-446a-a28c-8265164b47ce","system_id":"levelo_inurba_marseille","lat":43.29169,"lon":5.4391,"is_reserved":false,"is_disabled":true,"rental_uris":{"android":"levelo://app?vid=d8d7ffef-ae54-446a-a28c-8265164b47ce","ios":"levelo://app?vid=d8d7ffef-ae54-446a-a28c-8265164b47ce"},"vehicle_type_id":"4","last_reported":1734131352,"current_range_meters":28000,"station_id":"","pricing_plan_id":"cebpf4jnsgd1na2vs0mg"},{"bike_id":"b7aeeae1-6a09-4e96-b177-2d379498f397","system_id":"levelo_inurba_marseille","lat":43.27941,"lon":5.4104,"is_reserved":false,"is_disabled":false,"rental_uris":{"android":"levelo://app?vid=b7aeeae1-6a09-4e96-b177-2d379498f397","ios":"levelo://app?vid=b7aeeae1-6a09-4e96-b177-2d379498f397"},"vehicle_type_id":"4","last_reported":1734131352,"current_range_meters":25200,"station_id":"ce4bhnp2rcd13ifvqh0g","pricing_plan_id":"cebpf4jnsgd1na2vs0mg"},{"bike_id":"c5768e7e-b244-4dfc-973f-384fac771fcc","system_id":"levelo_inurba_marseille","lat":43.27979,"lon":5.41651,"is_reserved":false,"is_disabled":false,"rental_uris":{"android":"levelo://app?vid=c5768e7e-b244-4dfc-973f-384fac771fcc","ios":"levelo://app?vid=c5768e7e-b244-4dfc-973f-384fac771fcc"},"vehicle_type_id":"4","last_reported":1734131352,"current_range_meters":38800,"station_id":"ce4bho12rcd13ifvqh1g","pricing_plan_id":"cebpf4jnsgd1na2vs0mg"},{"bike_id":"d65fcea9-51ba-41f0-86fd-e798dfdd6f09","system_id":"levelo_inurba_marseille","lat":43.28681,"lon":5.38314,"is_reserved":false,"is_disabled":true,"rental_uris":{"android":"levelo://app?vid=d65fcea9-51ba-41f0-86fd-e798dfdd6f09","ios":"levelo://app?vid=d65fcea9-51ba-41f0-86fd-e798dfdd6f09"},"vehicle_type_id":"4","last_reported":1734131352,"current_range_meters":0,"station_id":"","pricing_plan_id":"cebpf4jnsgd1na2vs0mg"},{"bike_id":"257e7841-ba48-4fb6-ab60-cfed7eeb95dc","system_id":"levelo_inurba_marseille","lat":43.29577,"lon":5.37498,"is_reserved":false,"is_disabled":true,"rental_uris":{"android":"levelo://app?vid=257e7841-ba48-4fb6-ab60-cfed7eeb95dc","ios":"levelo://app?vid=257e7841-ba48-4fb6-ab60-cfed7eeb95dc"},"vehicle_type_id":"4","last_reported":1734131352,"current_range_meters":24400,"station_id":"ce4bgh92rcd13ifvqb50","pricing_plan_id":"cebpf4jnsgd1na2vs0mg"},{"bike_id":"3cffa040-7e8b-4d9e-a1bd-b8a78d782447","system_id":"levelo_inurba_marseille","lat":43.314905,"lon":5.373088,"is_reserved":false,"is_disabled":true,"rental_uris":{"android":"levelo://app?vid=3cffa040-7e8b-4d9e-a1bd-b8a78d782447","ios":"levelo://app?vid=3cffa040-7e8b-4d9e-a1bd-b8a78d782447"},"vehicle_type_id":"4","last_reported":1734131352,"current_range_meters":1600,"station_id":"","pricing_plan_id":"cebpf4jnsgd1na2vs0mg"},{"bike_id":"2faaabaa-71a8-48f1-85b8-7123cafe1655","system_id":"levelo_inurba_marseille","lat":43.25093,"lon":5.39528,"is_reserved":false,"is_disabled":false,"rental_uris":{"android":"levelo://app?vid=2faaabaa-71a8-48f1-85b8-7123cafe1655","ios":"levelo://app?vid=2faaabaa-71a8-48f1-85b8-7123cafe1655"},"vehicle_type_id":"4","last_reported":1734131352,"current_range_meters":14400,"station_id":"ce4bhm12rcd13ifvqgkg","pricing_plan_id":"cebpf4jnsgd1na2vs0mg"},{"bike_id":"b955214f-13e0-459e-b9db-aa26b982d46e","system_id":"levelo_inurba_marseille","lat":43.28923,"lon":5.38397,"is_reserved":false,"is_disabled":false,"rental_uris":{"android":"levelo://app?vid=b955214f-13e0-459e-b9db-aa26b982d46e","ios":"levelo://app?vid=b955214f-13e0-459e-b9db-aa26b982d46e"},"vehicle_type_id":"4","last_reported":1734131352,"current_range_meters":38800,"station_id":"ce4bh612rcd13ifvqe6g","pricing_plan_id":"cebpf4jnsgd1na2vs0mg"},{"bike_id":"e2acdf8b-8ba2-467c-898b-197998254ef5","system_id":"levelo_inurba_marseille","lat":43.268,"lon":5.40272,"is_reserved":false,"is_disabled":false,"rental_uris":{"android":"levelo://app?vid=e2acdf8b-8ba2-467c-898b-197998254ef5","ios":"levelo://app?vid=e2acdf8b-8ba2-467c-898b-197998254ef5"},"vehicle_type_id":"4","last_reported":1734131352,"current_range_meters":38800,"station_id":"ce501612rcd8frsf0b60","pricing_plan_id":"cebpf4jnsgd1na2vs0mg"},{"bike_id":"e5007d7d-30da-4cfd-a7f0-3df2adfbe187","system_id":"levelo_inurba_marseille","lat":43.29756,"lon":5.38973,"is_reserved":false,"is_disabled":false,"rental_uris":{"android":"levelo://app?vid=e5007d7d-30da-4cfd-a7f0-3df2adfbe187","ios":"levelo://app?vid=e5007d7d-30da-4cfd-a7f0-3df2adfbe187"},"vehicle_type_id":"4","last_reported":1734131352,"current_range_meters":20000,"station_id":"","pricing_plan_id":"cebpf4jnsgd1na2vs0mg"},{"bike_id":"1ea542db-9a43-419f-bd58-69a2e2f0f228","system_id":"levelo_inurba_marseille","lat":43.28455,"lon":5.35884,"is_reserved":false,"is_disabled":false,"rental_uris":{"android":"levelo://app?vid=1ea542db-9a43-419f-bd58-69a2e2f0f228","ios":"levelo://app?vid=1ea542db-9a43-419f-bd58-69a2e2f0f228"},"vehicle_type_id":"4","last_reported":1734131352,"current_range_meters":35600,"station_id":"ce4bhah2rcd13ifvqei0","pricing_plan_id":"cebpf4jnsgd1na2vs0mg"},{"bike_id":"64203de9-e72b-4d66-9a84-7a315c7ed37f","system_id":"levelo_inurba_marseille","lat":43.2943,"lon":5.37411,"is_reserved":false,"is_disabled":true,"rental_uris":{"android":"levelo://app?vid=64203de9-e72b-4d66-9a84-7a315c7ed37f","ios":"levelo://app?vid=64203de9-e72b-4d66-9a84-7a315c7ed37f"},"vehicle_type_id":"4","last_reported":1734131352,"current_range_meters":0,"station_id":"","pricing_plan_id":"cebpf4jnsgd1na2vs0mg"},{"bike_id":"14b01a59-2a1e-4f8a-ad92-4759c5dd06d5","system_id":"levelo_inurba_marseille","lat":43.3088,"lon":5.37174,"is_reserved":false,"is_disabled":false,"rental_uris":{"android":"levelo://app?vid=14b01a59-2a1e-4f8a-ad92-4759c5dd06d5","ios":"levelo://app?vid=14b01a59-2a1e-4f8a-ad92-4759c5dd06d5"},"vehicle_type_id":"4","last_reported":1734131352,"current_range_meters":20000,"station_id":"ce4bguh2rcd13ifvqckg","pricing_plan_id":"cebpf4jnsgd1na2vs0mg"},{"bike_id":"38d0c7e9-8393-4f32-b959-cb8472a4482b","system_id":"levelo_inurba_marseille","lat":43.30792,"lon":5.38165,"is_reserved":false,"is_disabled":false,"rental_uris":{"android":"levelo://app?vid=38d0c7e9-8393-4f32-b959-cb8472a4482b","ios":"levelo://app?vid=38d0c7e9-8393-4f32-b959-cb8472a4482b"},"vehicle_type_id":"4","last_reported":1734131352,"current_range_meters":32000,"station_id":"ce4bgt12rcd13ifvqce0","pricing_plan_id":"cebpf4jnsgd1na2vs0mg"},{"bike_id":"5868d62f-ceef-4d77-a8f9-938364211808","system_id":"levelo_inurba_marseille","lat":43.31068,"lon":5.3836,"is_reserved":false,"is_disabled":false,"rental_uris":{"android":"levelo://app?vid=5868d62f-ceef-4d77-a8f9-938364211808","ios":"levelo://app?vid=5868d62f-ceef-4d77-a8f9-938364211808"},"vehicle_type_id":"4","last_reported":1734131352,"current_range_meters":28400,"station_id":"ce4bgv92rcd13ifvqcr0","pricing_plan_id":"cebpf4jnsgd1na2vs0mg"},{"bike_id":"90265536-82be-4cbe-a85c-76a46ed64a58","system_id":"levelo_inurba_marseille","lat":43.317652,"lon":5.389998,"is_reserved":false,"is_disabled":false,"rental_uris":{"android":"levelo://app?vid=90265536-82be-4cbe-a85c-76a46ed64a58","ios":"levelo://app?vid=90265536-82be-4cbe-a85c-76a46ed64a58"},"vehicle_type_id":"4","last_reported":1734131352,"current_range_meters":17200,"station_id":"ce4bhqp2rcd13ifvqhng","pricing_plan_id":"cebpf4jnsgd1na2vs0mg"},{"bike_id":"ba72592f-18be-443f-942d-68929517a518","system_id":"levelo_inurba_marseille","lat":43.31361,"lon":5.38493,"is_reserved":false,"is_disabled":false,"rental_uris":{"android":"levelo://app?vid=ba72592f-18be-443f-942d-68929517a518","ios":"levelo://app?vid=ba72592f-18be-443f-942d-68929517a518"},"vehicle_type_id":"4","last_reported":1734131352,"current_range_meters":16000,"station_id":"ce4bgt92rcd13ifvqcf0","pricing_plan_id":"cebpf4jnsgd1na2vs0mg"},{"bike_id":"5c23befe-e7d4-4dee-ac43-14eb04f945cb","system_id":"levelo_inurba_marseille","lat":43.30888,"lon":5.37789,"is_reserved":false,"is_disabled":false,"rental_uris":{"android":"levelo://app?vid=5c23befe-e7d4-4dee-ac43-14eb04f945cb","ios":"levelo://app?vid=5c23befe-e7d4-4dee-ac43-14eb04f945cb"},"vehicle_type_id":"4","last_reported":1734131352,"current_range_meters":38000,"station_id":"","pricing_plan_id":"cebpf4jnsgd1na2vs0mg"},{"bike_id":"9e537004-7250-4650-9370-76464cbe54e8","system_id":"levelo_inurba_marseille","lat":43.24181,"lon":5.39735,"is_reserved":false,"is_disabled":false,"rental_uris":{"android":"levelo://app?vid=9e537004-7250-4650-9370-76464cbe54e8","ios":"levelo://app?vid=9e537004-7250-4650-9370-76464cbe54e8"},"vehicle_type_id":"4","last_reported":1734131352,"current_range_meters":38800,"station_id":"ce4bhn12rcd13ifvqgpg","pricing_plan_id":"cebpf4jnsgd1na2vs0mg"},{"bike_id":"6fd22cf2-c99e-4e92-b012-90d414ee1116","system_id":"levelo_inurba_marseille","lat":43.30987,"lon":5.41728,"is_reserved":false,"is_disabled":false,"rental_uris":{"android":"levelo://app?vid=6fd22cf2-c99e-4e92-b012-90d414ee1116","ios":"levelo://app?vid=6fd22cf2-c99e-4e92-b012-90d414ee1116"},"vehicle_type_id":"4","last_reported":1734131352,"current_range_meters":25200,"station_id":"","pricing_plan_id":"cebpf4jnsgd1na2vs0mg"},{"bike_id":"7c8b2e47-9d14-4c0e-80b5-a27214fec09a","system_id":"levelo_inurba_marseille","lat":43.29268,"lon":5.38441,"is_reserved":false,"is_disabled":false,"rental_uris":{"android":"levelo://app?vid=7c8b2e47-9d14-4c0e-80b5-a27214fec09a","ios":"levelo://app?vid=7c8b2e47-9d14-4c0e-80b5-a27214fec09a"},"vehicle_type_id":"4","last_reported":1734131352,"current_range_meters":26000,"station_id":"ce4bh692rcd13ifvqea0","pricing_plan_id":"cebpf4jnsgd1na2vs0mg"},{"bike_id":"4944a382-a394-4d17-aa18-db43c39354bf","system_id":"levelo_inurba_marseille","lat":43.31754,"lon":5.39012,"is_reserved":false,"is_disabled":false,"rental_uris":{"android":"levelo://app?vid=4944a382-a394-4d17-aa18-db43c39354bf","ios":"levelo://app?vid=4944a382-a394-4d17-aa18-db43c39354bf"},"vehicle_type_id":"4","last_reported":1734131352,"current_range_meters":14400,"station_id":"ce4bhqp2rcd13ifvqhng","pricing_plan_id":"cebpf4jnsgd1na2vs0mg"},{"bike_id":"5490374d-b1fe-4cfd-8a84-014e1576cd4c","system_id":"levelo_inurba_marseille","lat":43.31725,"lon":5.42393,"is_reserved":false,"is_disabled":false,"rental_uris":{"android":"levelo://app?vid=5490374d-b1fe-4cfd-8a84-014e1576cd4c","ios":"levelo://app?vid=5490374d-b1fe-4cfd-8a84-014e1576cd4c"},"vehicle_type_id":"4","last_reported":1734131352,"current_range_meters":28800,"station_id":"ce4bhp92rcd13ifvqhbg","pricing_plan_id":"cebpf4jnsgd1na2vs0mg"},{"bike_id":"9229cf32-cb9d-4d85-bfda-99bf70c2b056","system_id":"levelo_inurba_marseille","lat":43.31114,"lon":5.37789,"is_reserved":false,"is_disabled":false,"rental_uris":{"android":"levelo://app?vid=9229cf32-cb9d-4d85-bfda-99bf70c2b056","ios":"levelo://app?vid=9229cf32-cb9d-4d85-bfda-99bf70c2b056"},"vehicle_type_id":"4","last_reported":1734131352,"current_range_meters":28000,"station_id":"ce4bgt92rcd13ifvqcg0","pricing_plan_id":"cebpf4jnsgd1na2vs0mg"},{"bike_id":"b948092c-9ab4-45a3-af33-669f10a0ca1c","system_id":"levelo_inurba_marseille","lat":43.24869,"lon":5.37437,"is_reserved":false,"is_disabled":false,"rental_uris":{"android":"levelo://app?vid=b948092c-9ab4-45a3-af33-669f10a0ca1c","ios":"levelo://app?vid=b948092c-9ab4-45a3-af33-669f10a0ca1c"},"vehicle_type_id":"4","last_reported":1734131352,"current_range_meters":35200,"station_id":"","pricing_plan_id":"cebpf4jnsgd1na2vs0mg"},{"bike_id":"bb6094dd-51eb-4016-a439-f2743865afe4","system_id":"levelo_inurba_marseille","lat":43.30912,"lon":5.37853,"is_reserved":false,"is_disabled":true,"rental_uris":{"android":"levelo://app?vid=bb6094dd-51eb-4016-a439-f2743865afe4","ios":"levelo://app?vid=bb6094dd-51eb-4016-a439-f2743865afe4"},"vehicle_type_id":"4","last_reported":1734131352,"current_range_meters":25600,"station_id":"","pricing_plan_id":"cebpf4jnsgd1na2vs0mg"},{"bike_id":"142c050b-c5df-47f5-b7fe-51ca5ee89b2e","system_id":"levelo_inurba_marseille","lat":43.29032,"lon":5.38648,"is_reserved":false,"is_disabled":false,"rental_uris":{"android":"levelo://app?vid=142c050b-c5df-47f5-b7fe-51ca5ee89b2e","ios":"levelo://app?vid=142c050b-c5df-47f5-b7fe-51ca5ee89b2e"},"vehicle_type_id":"4","last_reported":1734131352,"current_range_meters":7200,"station_id":"ce4bh4p2rcd13ifvqe0g","pricing_plan_id":"cebpf4jnsgd1na2vs0mg"},{"bike_id":"7353de9c-c8be-493e-9b17-2ba24afaf3a6","system_id":"levelo_inurba_marseille","lat":43.3079,"lon":5.37608,"is_reserved":false,"is_disabled":false,"rental_uris":{"android":"levelo://app?vid=7353de9c-c8be-493e-9b17-2ba24afaf3a6","ios":"levelo://app?vid=7353de9c-c8be-493e-9b17-2ba24afaf3a6"},"vehicle_type_id":"4","last_reported":1734131352,"current_range_meters":32800,"station_id":"ce4bgv92rcd13ifvqcq0","pricing_plan_id":"cebpf4jnsgd1na2vs0mg"},{"bike_id":"e0a31c9a-be2e-435b-b95c-7118ac48c310","system_id":"levelo_inurba_marseille","lat":43.32293,"lon":5.38274,"is_reserved":false,"is_disabled":false,"rental_uris":{"android":"levelo://app?vid=e0a31c9a-be2e-435b-b95c-7118ac48c310","ios":"levelo://app?vid=e0a31c9a-be2e-435b-b95c-7118ac48c310"},"vehicle_type_id":"4","last_reported":1734131352,"current_range_meters":8000,"station_id":"ce4bhr12rcd13ifvqhqg","pricing_plan_id":"cebpf4jnsgd1na2vs0mg"},{"bike_id":"cfe506c2-ad1f-4e9c-8942-ed07095606ef","system_id":"levelo_inurba_marseille","lat":43.23184,"lon":5.39984,"is_reserved":false,"is_disabled":false,"rental_uris":{"android":"levelo://app?vid=cfe506c2-ad1f-4e9c-8942-ed07095606ef","ios":"levelo://app?vid=cfe506c2-ad1f-4e9c-8942-ed07095606ef"},"vehicle_type_id":"4","last_reported":1734131352,"current_range_meters":26800,"station_id":"ce4bhn12rcd13ifvqgqg","pricing_plan_id":"cebpf4jnsgd1na2vs0mg"},{"bike_id":"818ef841-d8c0-4c92-9c0c-4a12654cda95","system_id":"levelo_inurba_marseille","lat":43.30587,"lon":5.37189,"is_reserved":false,"is_disabled":false,"rental_uris":{"android":"levelo://app?vid=818ef841-d8c0-4c92-9c0c-4a12654cda95","ios":"levelo://app?vid=818ef841-d8c0-4c92-9c0c-4a12654cda95"},"vehicle_type_id":"4","last_reported":1734131352,"current_range_meters":28000,"station_id":"ce4bgqh2rcd13ifvqc4g","pricing_plan_id":"cebpf4jnsgd1na2vs0mg"},{"bike_id":"18795326-0342-4aca-98ba-9a03d5183efb","system_id":"levelo_inurba_marseille","lat":43.31696,"lon":5.37764,"is_reserved":false,"is_disabled":false,"rental_uris":{"android":"levelo://app?vid=18795326-0342-4aca-98ba-9a03d5183efb","ios":"levelo://app?vid=18795326-0342-4aca-98ba-9a03d5183efb"},"vehicle_type_id":"4","last_reported":1734131352,"current_range_meters":38800,"station_id":"ce4bgth2rcd13ifvqch0","pricing_plan_id":"cebpf4jnsgd1na2vs0mg"},{"bike_id":"b0dcd113-fe62-47ab-91b8-d55f2165d6a0","system_id":"levelo_inurba_marseille","lat":43.24797,"lon":5.37446,"is_reserved":false,"is_disabled":false,"rental_uris":{"android":"levelo://app?vid=b0dcd113-fe62-47ab-91b8-d55f2165d6a0","ios":"levelo://app?vid=b0dcd113-fe62-47ab-91b8-d55f2165d6a0"},"vehicle_type_id":"4","last_reported":1734131352,"current_range_meters":38800,"station_id":"ce4bhgh2rcd13ifvqfb0","pricing_plan_id":"cebpf4jnsgd1na2vs0mg"},{"bike_id":"e7e57c14-d612-4f52-8242-ec8dcb5d1505","system_id":"levelo_inurba_marseille","lat":43.28931,"lon":5.36636,"is_reserved":false,"is_disabled":false,"rental_uris":{"android":"levelo://app?vid=e7e57c14-d612-4f52-8242-ec8dcb5d1505","ios":"levelo://app?vid=e7e57c14-d612-4f52-8242-ec8dcb5d1505"},"vehicle_type_id":"4","last_reported":1734131352,"current_range_meters":38400,"station_id":"ce4bhap2rcd13ifvqek0","pricing_plan_id":"cebpf4jnsgd1na2vs0mg"},{"bike_id":"7a41ed48-e201-4bc9-9392-98c95cf893ec","system_id":"levelo_inurba_marseille","lat":43.30811,"lon":5.38158,"is_reserved":false,"is_disabled":false,"rental_uris":{"android":"levelo://app?vid=7a41ed48-e201-4bc9-9392-98c95cf893ec","ios":"levelo://app?vid=7a41ed48-e201-4bc9-9392-98c95cf893ec"},"vehicle_type_id":"4","last_reported":1734131352,"current_range_meters":31200,"station_id":"ce4bgt12rcd13ifvqce0","pricing_plan_id":"cebpf4jnsgd1na2vs0mg"},{"bike_id":"915b1324-cf09-4d52-a36f-58bb08e14eca","system_id":"levelo_inurba_marseille","lat":43.31073,"lon":5.38343,"is_reserved":false,"is_disabled":false,"rental_uris":{"android":"levelo://app?vid=915b1324-cf09-4d52-a36f-58bb08e14eca","ios":"levelo://app?vid=915b1324-cf09-4d52-a36f-58bb08e14eca"},"vehicle_type_id":"4","last_reported":1734131352,"current_range_meters":38400,"station_id":"ce4bgv92rcd13ifvqcr0","pricing_plan_id":"cebpf4jnsgd1na2vs0mg"},{"bike_id":"cf1dbfe9-2fcb-42e2-b23a-1f564b284913","system_id":"levelo_inurba_marseille","lat":43.30812,"lon":5.37373,"is_reserved":false,"is_disabled":false,"rental_uris":{"android":"levelo://app?vid=cf1dbfe9-2fcb-42e2-b23a-1f564b284913","ios":"levelo://app?vid=cf1dbfe9-2fcb-42e2-b23a-1f564b284913"},"vehicle_type_id":"4","last_reported":1734131352,"current_range_meters":36000,"station_id":"","pricing_plan_id":"cebpf4jnsgd1na2vs0mg"},{"bike_id":"1e267932-f6c6-4991-9c6b-8abf107c1a22","system_id":"levelo_inurba_marseille","lat":43.32284,"lon":5.38262,"is_reserved":false,"is_disabled":false,"rental_uris":{"android":"levelo://app?vid=1e267932-f6c6-4991-9c6b-8abf107c1a22","ios":"levelo://app?vid=1e267932-f6c6-4991-9c6b-8abf107c1a22"},"vehicle_type_id":"4","last_reported":1734131352,"current_range_meters":38800,"station_id":"ce4bhr12rcd13ifvqhqg","pricing_plan_id":"cebpf4jnsgd1na2vs0mg"},{"bike_id":"f542905e-715c-4729-b164-b417379fe09e","system_id":"levelo_inurba_marseille","lat":43.326913,"lon":5.408915,"is_reserved":false,"is_disabled":false,"rental_uris":{"android":"levelo://app?vid=f542905e-715c-4729-b164-b417379fe09e","ios":"levelo://app?vid=f542905e-715c-4729-b164-b417379fe09e"},"vehicle_type_id":"4","last_reported":1734131352,"current_range_meters":18800,"station_id":"ce4bhpp2rcd13ifvqhgg","pricing_plan_id":"cebpf4jnsgd1na2vs0mg"},{"bike_id":"b581ae17-510b-4f67-90c1-bf69fba53807","system_id":"levelo_inurba_marseille","lat":43.27073,"lon":5.42282,"is_reserved":false,"is_disabled":false,"rental_uris":{"android":"levelo://app?vid=b581ae17-510b-4f67-90c1-bf69fba53807","ios":"levelo://app?vid=b581ae17-510b-4f67-90c1-bf69fba53807"},"vehicle_type_id":"4","last_reported":1734131352,"current_range_meters":38400,"station_id":"ce4bhk92rcd13ifvqgb0","pricing_plan_id":"cebpf4jnsgd1na2vs0mg"},{"bike_id":"1484a08c-55ac-40d8-89a0-22f91086316b","system_id":"levelo_inurba_marseille","lat":43.29065,"lon":5.39987,"is_reserved":false,"is_disabled":true,"rental_uris":{"android":"levelo://app?vid=1484a08c-55ac-40d8-89a0-22f91086316b","ios":"levelo://app?vid=1484a08c-55ac-40d8-89a0-22f91086316b"},"vehicle_type_id":"4","last_reported":1734131352,"current_range_meters":36400,"station_id":"ce4bh392rcd13ifvqdm0","pricing_plan_id":"cebpf4jnsgd1na2vs0mg"},{"bike_id":"1f8df251-c5a6-4258-b15b-89cf161eb63a","system_id":"levelo_inurba_marseille","lat":43.26033,"lon":5.37543,"is_reserved":false,"is_disabled":false,"rental_uris":{"android":"levelo://app?vid=1f8df251-c5a6-4258-b15b-89cf161eb63a","ios":"levelo://app?vid=1f8df251-c5a6-4258-b15b-89cf161eb63a"},"vehicle_type_id":"4","last_reported":1734131352,"current_range_meters":24000,"station_id":"","pricing_plan_id":"cebpf4jnsgd1na2vs0mg"},{"bike_id":"6bc7401a-ad66-4e4d-bfd6-a954bc5b40c0","system_id":"levelo_inurba_marseille","lat":43.337527,"lon":5.37441,"is_reserved":false,"is_disabled":false,"rental_uris":{"android":"levelo://app?vid=6bc7401a-ad66-4e4d-bfd6-a954bc5b40c0","ios":"levelo://app?vid=6bc7401a-ad66-4e4d-bfd6-a954bc5b40c0"},"vehicle_type_id":"4","last_reported":1734131352,"current_range_meters":28000,"station_id":"","pricing_plan_id":"cebpf4jnsgd1na2vs0mg"},{"bike_id":"ace4b922-46fc-4280-876c-f499c5ab2105","system_id":"levelo_inurba_marseille","lat":43.28947,"lon":5.36394,"is_reserved":false,"is_disabled":false,"rental_uris":{"android":"levelo://app?vid=ace4b922-46fc-4280-876c-f499c5ab2105","ios":"levelo://app?vid=ace4b922-46fc-4280-876c-f499c5ab2105"},"vehicle_type_id":"4","last_reported":1734131352,"current_range_meters":38800,"station_id":"ce4bhc92rcd13ifvqetg","pricing_plan_id":"cebpf4jnsgd1na2vs0mg"},{"bike_id":"28fc90b9-3e7b-4c11-b6c2-40d95902dadd","system_id":"levelo_inurba_marseille","lat":43.22932,"lon":5.35383,"is_reserved":false,"is_disabled":false,"rental_uris":{"android":"levelo://app?vid=28fc90b9-3e7b-4c11-b6c2-40d95902dadd","ios":"levelo://app?vid=28fc90b9-3e7b-4c11-b6c2-40d95902dadd"},"vehicle_type_id":"4","last_reported":1734131352,"current_range_meters":38800,"station_id":"cpo3532slgdg3j2ikp40","pricing_plan_id":"cebpf4jnsgd1na2vs0mg"},{"bike_id":"8433f848-247d-4700-9f40-ca5bca59233f","system_id":"levelo_inurba_marseille","lat":43.31728,"lon":5.40453,"is_reserved":false,"is_disabled":false,"rental_uris":{"android":"levelo://app?vid=8433f848-247d-4700-9f40-ca5bca59233f","ios":"levelo://app?vid=8433f848-247d-4700-9f40-ca5bca59233f"},"vehicle_type_id":"4","last_reported":1734131352,"current_range_meters":25200,"station_id":"ce4bh012rcd13ifvqd00","pricing_plan_id":"cebpf4jnsgd1na2vs0mg"},{"bike_id":"98f53582-3913-4c4e-b5fb-adcbea86d1ea","system_id":"levelo_inurba_marseille","lat":43.30655,"lon":5.40104,"is_reserved":false,"is_disabled":false,"rental_uris":{"android":"levelo://app?vid=98f53582-3913-4c4e-b5fb-adcbea86d1ea","ios":"levelo://app?vid=98f53582-3913-4c4e-b5fb-adcbea86d1ea"},"vehicle_type_id":"4","last_reported":1734131352,"current_range_meters":38800,"station_id":"ce4bh112rcd13ifvqda0","pricing_plan_id":"cebpf4jnsgd1na2vs0mg"},{"bike_id":"64b39af7-128b-4946-bbfc-c211e27c250d","system_id":"levelo_inurba_marseille","lat":43.29012,"lon":5.38632,"is_reserved":false,"is_disabled":false,"rental_uris":{"android":"levelo://app?vid=64b39af7-128b-4946-bbfc-c211e27c250d","ios":"levelo://app?vid=64b39af7-128b-4946-bbfc-c211e27c250d"},"vehicle_type_id":"4","last_reported":1734131352,"current_range_meters":39200,"station_id":"ce4bh4p2rcd13ifvqe0g","pricing_plan_id":"cebpf4jnsgd1na2vs0mg"},{"bike_id":"eb1496f4-67ed-47fd-8660-60023378367f","system_id":"levelo_inurba_marseille","lat":43.294212,"lon":5.374322,"is_reserved":false,"is_disabled":true,"rental_uris":{"android":"levelo://app?vid=eb1496f4-67ed-47fd-8660-60023378367f","ios":"levelo://app?vid=eb1496f4-67ed-47fd-8660-60023378367f"},"vehicle_type_id":"4","last_reported":1734131352,"current_range_meters":0,"station_id":"","pricing_plan_id":"cebpf4jnsgd1na2vs0mg"},{"bike_id":"edd07c02-9936-4457-bd98-063c892656f8","system_id":"levelo_inurba_marseille","lat":43.31032,"lon":5.37486,"is_reserved":false,"is_disabled":false,"rental_uris":{"android":"levelo://app?vid=edd07c02-9936-4457-bd98-063c892656f8","ios":"levelo://app?vid=edd07c02-9936-4457-bd98-063c892656f8"},"vehicle_type_id":"4","last_reported":1734131352,"current_range_meters":7200,"station_id":"","pricing_plan_id":"cebpf4jnsgd1na2vs0mg"},{"bike_id":"8e1ba1fa-6266-456d-83f1-1762b28682d5","system_id":"levelo_inurba_marseille","lat":43.27942,"lon":5.41034,"is_reserved":false,"is_disabled":false,"rental_uris":{"android":"levelo://app?vid=8e1ba1fa-6266-456d-83f1-1762b28682d5","ios":"levelo://app?vid=8e1ba1fa-6266-456d-83f1-1762b28682d5"},"vehicle_type_id":"4","last_reported":1734131352,"current_range_meters":17200,"station_id":"ce4bhnp2rcd13ifvqh0g","pricing_plan_id":"cebpf4jnsgd1na2vs0mg"},{"bike_id":"f1598064-9274-41bc-a40e-328cca3f9fe3","system_id":"levelo_inurba_marseille","lat":43.27057,"lon":5.40262,"is_reserved":false,"is_disabled":false,"rental_uris":{"android":"levelo://app?vid=f1598064-9274-41bc-a40e-328cca3f9fe3","ios":"levelo://app?vid=f1598064-9274-41bc-a40e-328cca3f9fe3"},"vehicle_type_id":"4","last_reported":1734131352,"current_range_meters":38800,"station_id":"ce4bhk92rcd13ifvqgc0","pricing_plan_id":"cebpf4jnsgd1na2vs0mg"},{"bike_id":"a2e3bf37-f1e5-4b35-adeb-0da3e0fe69d3","system_id":"levelo_inurba_marseille","lat":43.28629,"lon":5.38613,"is_reserved":false,"is_disabled":true,"rental_uris":{"android":"levelo://app?vid=a2e3bf37-f1e5-4b35-adeb-0da3e0fe69d3","ios":"levelo://app?vid=a2e3bf37-f1e5-4b35-adeb-0da3e0fe69d3"},"vehicle_type_id":"4","last_reported":1734131352,"current_range_meters":0,"station_id":"","pricing_plan_id":"cebpf4jnsgd1na2vs0mg"},{"bike_id":"ffac0b01-9e03-4f17-9374-154ed82d2c00","system_id":"levelo_inurba_marseille","lat":43.29446,"lon":5.3974,"is_reserved":false,"is_disabled":false,"rental_uris":{"android":"levelo://app?vid=ffac0b01-9e03-4f17-9374-154ed82d2c00","ios":"levelo://app?vid=ffac0b01-9e03-4f17-9374-154ed82d2c00"},"vehicle_type_id":"4","last_reported":1734131352,"current_range_meters":38800,"station_id":"ce4bh3h2rcd13ifvqdo0","pricing_plan_id":"cebpf4jnsgd1na2vs0mg"},{"bike_id":"87cf07ff-a8a5-4025-be06-a1d26efad380","system_id":"levelo_inurba_marseille","lat":43.26493,"lon":5.3956,"is_reserved":false,"is_disabled":false,"rental_uris":{"android":"levelo://app?vid=87cf07ff-a8a5-4025-be06-a1d26efad380","ios":"levelo://app?vid=87cf07ff-a8a5-4025-be06-a1d26efad380"},"vehicle_type_id":"4","last_reported":1734131352,"current_range_meters":20400,"station_id":"ce4bhi12rcd13ifvqfq0","pricing_plan_id":"cebpf4jnsgd1na2vs0mg"},{"bike_id":"9f47cff8-6f3d-45ab-b5a6-1229269cdcb7","system_id":"levelo_inurba_marseille","lat":43.28701,"lon":5.37936,"is_reserved":false,"is_disabled":false,"rental_uris":{"android":"levelo://app?vid=9f47cff8-6f3d-45ab-b5a6-1229269cdcb7","ios":"levelo://app?vid=9f47cff8-6f3d-45ab-b5a6-1229269cdcb7"},"vehicle_type_id":"4","last_reported":1734131352,"current_range_meters":35200,"station_id":"ce4bh9p2rcd13ifvqec0","pricing_plan_id":"cebpf4jnsgd1na2vs0mg"},{"bike_id":"790585f3-7fbb-493b-a7ad-0c6cd94561c2","system_id":"levelo_inurba_marseille","lat":43.29968,"lon":5.385,"is_reserved":false,"is_disabled":false,"rental_uris":{"android":"levelo://app?vid=790585f3-7fbb-493b-a7ad-0c6cd94561c2","ios":"levelo://app?vid=790585f3-7fbb-493b-a7ad-0c6cd94561c2"},"vehicle_type_id":"4","last_reported":1734131352,"current_range_meters":36800,"station_id":"ce4bgj92rcd13ifvqbd0","pricing_plan_id":"cebpf4jnsgd1na2vs0mg"},{"bike_id":"ec927667-9164-479a-b446-395f55c955bb","system_id":"levelo_inurba_marseille","lat":43.22924,"lon":5.35383,"is_reserved":false,"is_disabled":false,"rental_uris":{"android":"levelo://app?vid=ec927667-9164-479a-b446-395f55c955bb","ios":"levelo://app?vid=ec927667-9164-479a-b446-395f55c955bb"},"vehicle_type_id":"4","last_reported":1734131352,"current_range_meters":38400,"station_id":"cpo3532slgdg3j2ikp40","pricing_plan_id":"cebpf4jnsgd1na2vs0mg"},{"bike_id":"758fe3cf-17b6-48fb-b352-54d05c3377db","system_id":"levelo_inurba_marseille","lat":43.29032,"lon":5.3865,"is_reserved":false,"is_disabled":false,"rental_uris":{"android":"levelo://app?vid=758fe3cf-17b6-48fb-b352-54d05c3377db","ios":"levelo://app?vid=758fe3cf-17b6-48fb-b352-54d05c3377db"},"vehicle_type_id":"4","last_reported":1734131352,"current_range_meters":38800,"station_id":"ce4bh4p2rcd13ifvqe0g","pricing_plan_id":"cebpf4jnsgd1na2vs0mg"},{"bike_id":"e171553a-d499-40c6-b158-4c1c9a0d09dc","system_id":"levelo_inurba_marseille","lat":43.27194,"lon":5.40977,"is_reserved":false,"is_disabled":false,"rental_uris":{"android":"levelo://app?vid=e171553a-d499-40c6-b158-4c1c9a0d09dc","ios":"levelo://app?vid=e171553a-d499-40c6-b158-4c1c9a0d09dc"},"vehicle_type_id":"4","last_reported":1734131352,"current_range_meters":36800,"station_id":"ce4bhl12rcd13ifvqgf0","pricing_plan_id":"cebpf4jnsgd1na2vs0mg"},{"bike_id":"298ee74d-f9b7-43a3-926b-cde85d4aaa14","system_id":"levelo_inurba_marseille","lat":43.2894,"lon":5.3664,"is_reserved":false,"is_disabled":false,"rental_uris":{"android":"levelo://app?vid=298ee74d-f9b7-43a3-926b-cde85d4aaa14","ios":"levelo://app?vid=298ee74d-f9b7-43a3-926b-cde85d4aaa14"},"vehicle_type_id":"4","last_reported":1734131352,"current_range_meters":36400,"station_id":"ce4bhap2rcd13ifvqek0","pricing_plan_id":"cebpf4jnsgd1na2vs0mg"},{"bike_id":"bbb05d93-49f6-43b2-acee-4027bcfb1d8c","system_id":"levelo_inurba_marseille","lat":43.27616,"lon":5.36121,"is_reserved":false,"is_disabled":false,"rental_uris":{"android":"levelo://app?vid=bbb05d93-49f6-43b2-acee-4027bcfb1d8c","ios":"levelo://app?vid=bbb05d93-49f6-43b2-acee-4027bcfb1d8c"},"vehicle_type_id":"4","last_reported":1734131352,"current_range_meters":37600,"station_id":"ce4bgj92rcd13ifvqbe0","pricing_plan_id":"cebpf4jnsgd1na2vs0mg"},{"bike_id":"a02bce7c-288c-46c0-a9fd-8aa8e0178c35","system_id":"levelo_inurba_marseille","lat":43.23194,"lon":5.35555,"is_reserved":false,"is_disabled":false,"rental_uris":{"android":"levelo://app?vid=a02bce7c-288c-46c0-a9fd-8aa8e0178c35","ios":"levelo://app?vid=a02bce7c-288c-46c0-a9fd-8aa8e0178c35"},"vehicle_type_id":"4","last_reported":1734131352,"current_range_meters":25600,"station_id":"ce4bhu92rcd13ifvqi70","pricing_plan_id":"cebpf4jnsgd1na2vs0mg"},{"bike_id":"dde68fb6-7cb3-4ff0-99cb-0fed30ec7ea0","system_id":"levelo_inurba_marseille","lat":43.29041,"lon":5.39961,"is_reserved":false,"is_disabled":false,"rental_uris":{"android":"levelo://app?vid=dde68fb6-7cb3-4ff0-99cb-0fed30ec7ea0","ios":"levelo://app?vid=dde68fb6-7cb3-4ff0-99cb-0fed30ec7ea0"},"vehicle_type_id":"4","last_reported":1734131352,"current_range_meters":19600,"station_id":"ce4bh392rcd13ifvqdm0","pricing_plan_id":"cebpf4jnsgd1na2vs0mg"},{"bike_id":"e193ef0e-e328-415a-a8ad-7b8f709bf396","system_id":"levelo_inurba_marseille","lat":43.28491,"lon":5.37904,"is_reserved":false,"is_disabled":true,"rental_uris":{"android":"levelo://app?vid=e193ef0e-e328-415a-a8ad-7b8f709bf396","ios":"levelo://app?vid=e193ef0e-e328-415a-a8ad-7b8f709bf396"},"vehicle_type_id":"4","last_reported":1734131352,"current_range_meters":22800,"station_id":"","pricing_plan_id":"cebpf4jnsgd1na2vs0mg"},{"bike_id":"9a6269d5-83ea-4140-ab37-1fa12f16bd71","system_id":"levelo_inurba_marseille","lat":43.31746,"lon":5.39016,"is_reserved":false,"is_disabled":false,"rental_uris":{"android":"levelo://app?vid=9a6269d5-83ea-4140-ab37-1fa12f16bd71","ios":"levelo://app?vid=9a6269d5-83ea-4140-ab37-1fa12f16bd71"},"vehicle_type_id":"4","last_reported":1734131352,"current_range_meters":34000,"station_id":"ce4bhqp2rcd13ifvqhng","pricing_plan_id":"cebpf4jnsgd1na2vs0mg"},{"bike_id":"016e1712-3ed0-4538-ac7a-0670ad343bff","system_id":"levelo_inurba_marseille","lat":43.31078,"lon":5.38352,"is_reserved":false,"is_disabled":false,"rental_uris":{"android":"levelo://app?vid=016e1712-3ed0-4538-ac7a-0670ad343bff","ios":"levelo://app?vid=016e1712-3ed0-4538-ac7a-0670ad343bff"},"vehicle_type_id":"4","last_reported":1734131352,"current_range_meters":38800,"station_id":"ce4bgv92rcd13ifvqcr0","pricing_plan_id":"cebpf4jnsgd1na2vs0mg"},{"bike_id":"8f25433d-e9fb-4884-9a40-5c43118b7272","system_id":"levelo_inurba_marseille","lat":43.30327,"lon":5.40445,"is_reserved":false,"is_disabled":false,"rental_uris":{"android":"levelo://app?vid=8f25433d-e9fb-4884-9a40-5c43118b7272","ios":"levelo://app?vid=8f25433d-e9fb-4884-9a40-5c43118b7272"},"vehicle_type_id":"4","last_reported":1734131352,"current_range_meters":38400,"station_id":"ce4bh012rcd13ifvqd10","pricing_plan_id":"cebpf4jnsgd1na2vs0mg"},{"bike_id":"3ed63c3e-20cc-4a09-914b-509e7a4c0362","system_id":"levelo_inurba_marseille","lat":43.24459,"lon":5.3782,"is_reserved":false,"is_disabled":false,"rental_uris":{"android":"levelo://app?vid=3ed63c3e-20cc-4a09-914b-509e7a4c0362","ios":"levelo://app?vid=3ed63c3e-20cc-4a09-914b-509e7a4c0362"},"vehicle_type_id":"4","last_reported":1734131352,"current_range_meters":36000,"station_id":"","pricing_plan_id":"cebpf4jnsgd1na2vs0mg"},{"bike_id":"bf233dce-cf2d-43b5-86cb-caa6fabff80e","system_id":"levelo_inurba_marseille","lat":43.27988,"lon":5.41657,"is_reserved":false,"is_disabled":false,"rental_uris":{"android":"levelo://app?vid=bf233dce-cf2d-43b5-86cb-caa6fabff80e","ios":"levelo://app?vid=bf233dce-cf2d-43b5-86cb-caa6fabff80e"},"vehicle_type_id":"4","last_reported":1734131352,"current_range_meters":27600,"station_id":"ce4bho12rcd13ifvqh1g","pricing_plan_id":"cebpf4jnsgd1na2vs0mg"},{"bike_id":"ccaa107e-ba65-49e7-b3cf-4b79a27037e5","system_id":"levelo_inurba_marseille","lat":43.31695,"lon":5.40467,"is_reserved":false,"is_disabled":false,"rental_uris":{"android":"levelo://app?vid=ccaa107e-ba65-49e7-b3cf-4b79a27037e5","ios":"levelo://app?vid=ccaa107e-ba65-49e7-b3cf-4b79a27037e5"},"vehicle_type_id":"4","last_reported":1734131352,"current_range_meters":38800,"station_id":"ce4bh012rcd13ifvqd00","pricing_plan_id":"cebpf4jnsgd1na2vs0mg"},{"bike_id":"fa90612f-7cb7-4169-894f-6478ec30bfe6","system_id":"levelo_inurba_marseille","lat":43.29554,"lon":5.42289,"is_reserved":false,"is_disabled":false,"rental_uris":{"android":"levelo://app?vid=fa90612f-7cb7-4169-894f-6478ec30bfe6","ios":"levelo://app?vid=fa90612f-7cb7-4169-894f-6478ec30bfe6"},"vehicle_type_id":"4","last_reported":1734131352,"current_range_meters":9600,"station_id":"ce4bhph2rcd13ifvqhdg","pricing_plan_id":"cebpf4jnsgd1na2vs0mg"},{"bike_id":"f7a0e736-20bb-4864-aa76-f11c3bf7da64","system_id":"levelo_inurba_marseille","lat":43.31117,"lon":5.37776,"is_reserved":false,"is_disabled":false,"rental_uris":{"android":"levelo://app?vid=f7a0e736-20bb-4864-aa76-f11c3bf7da64","ios":"levelo://app?vid=f7a0e736-20bb-4864-aa76-f11c3bf7da64"},"vehicle_type_id":"4","last_reported":1734131352,"current_range_meters":38400,"station_id":"ce4bgt92rcd13ifvqcg0","pricing_plan_id":"cebpf4jnsgd1na2vs0mg"},{"bike_id":"816d0f92-0c15-4bd9-b38a-c555bf40ab4a","system_id":"levelo_inurba_marseille","lat":43.29797,"lon":5.40401,"is_reserved":false,"is_disabled":false,"rental_uris":{"android":"levelo://app?vid=816d0f92-0c15-4bd9-b38a-c555bf40ab4a","ios":"levelo://app?vid=816d0f92-0c15-4bd9-b38a-c555bf40ab4a"},"vehicle_type_id":"4","last_reported":1734131352,"current_range_meters":24800,"station_id":"ce4bh112rcd13ifvqd90","pricing_plan_id":"cebpf4jnsgd1na2vs0mg"},{"bike_id":"2ded2c60-00dd-42f2-8c27-fa639f378fda","system_id":"levelo_inurba_marseille","lat":43.25502,"lon":5.37649,"is_reserved":false,"is_disabled":false,"rental_uris":{"android":"levelo://app?vid=2ded2c60-00dd-42f2-8c27-fa639f378fda","ios":"levelo://app?vid=2ded2c60-00dd-42f2-8c27-fa639f378fda"},"vehicle_type_id":"4","last_reported":1734131352,"current_range_meters":38800,"station_id":"ce4bhh12rcd13ifvqff0","pricing_plan_id":"cebpf4jnsgd1na2vs0mg"},{"bike_id":"05a249ad-f648-4f1b-9b97-1216cf1ff5b1","system_id":"levelo_inurba_marseille","lat":43.30467,"lon":5.40181,"is_reserved":false,"is_disabled":false,"rental_uris":{"android":"levelo://app?vid=05a249ad-f648-4f1b-9b97-1216cf1ff5b1","ios":"levelo://app?vid=05a249ad-f648-4f1b-9b97-1216cf1ff5b1"},"vehicle_type_id":"4","last_reported":1734131352,"current_range_meters":15200,"station_id":"","pricing_plan_id":"cebpf4jnsgd1na2vs0mg"},{"bike_id":"abe250a1-3d26-47a1-bae8-73bf3354b17a","system_id":"levelo_inurba_marseille","lat":43.27198,"lon":5.40972,"is_reserved":false,"is_disabled":false,"rental_uris":{"android":"levelo://app?vid=abe250a1-3d26-47a1-bae8-73bf3354b17a","ios":"levelo://app?vid=abe250a1-3d26-47a1-bae8-73bf3354b17a"},"vehicle_type_id":"4","last_reported":1734131352,"current_range_meters":13600,"station_id":"ce4bhl12rcd13ifvqgf0","pricing_plan_id":"cebpf4jnsgd1na2vs0mg"},{"bike_id":"5584f6c4-cd15-45bb-976a-51430232b179","system_id":"levelo_inurba_marseille","lat":43.31703,"lon":5.40478,"is_reserved":false,"is_disabled":false,"rental_uris":{"android":"levelo://app?vid=5584f6c4-cd15-45bb-976a-51430232b179","ios":"levelo://app?vid=5584f6c4-cd15-45bb-976a-51430232b179"},"vehicle_type_id":"4","last_reported":1734131352,"current_range_meters":38800,"station_id":"ce4bh012rcd13ifvqd00","pricing_plan_id":"cebpf4jnsgd1na2vs0mg"},{"bike_id":"152a3b4b-c3a1-4c9b-82b6-5687b221d7ed","system_id":"levelo_inurba_marseille","lat":43.31247,"lon":5.401518,"is_reserved":false,"is_disabled":false,"rental_uris":{"android":"levelo://app?vid=152a3b4b-c3a1-4c9b-82b6-5687b221d7ed","ios":"levelo://app?vid=152a3b4b-c3a1-4c9b-82b6-5687b221d7ed"},"vehicle_type_id":"4","last_reported":1734131352,"current_range_meters":3600,"station_id":"ce4bh092rcd13ifvqd30","pricing_plan_id":"cebpf4jnsgd1na2vs0mg"},{"bike_id":"fc968cf6-07d5-44d4-b0f3-9d9a2519f292","system_id":"levelo_inurba_marseille","lat":43.28718,"lon":5.37383,"is_reserved":false,"is_disabled":false,"rental_uris":{"android":"levelo://app?vid=fc968cf6-07d5-44d4-b0f3-9d9a2519f292","ios":"levelo://app?vid=fc968cf6-07d5-44d4-b0f3-9d9a2519f292"},"vehicle_type_id":"4","last_reported":1734131352,"current_range_meters":38800,"station_id":"ce4bh3p2rcd13ifvqdq0","pricing_plan_id":"cebpf4jnsgd1na2vs0mg"},{"bike_id":"cd89c30f-0e26-417f-8a33-4c56a2e036f7","system_id":"levelo_inurba_marseille","lat":43.28105,"lon":5.3788,"is_reserved":false,"is_disabled":false,"rental_uris":{"android":"levelo://app?vid=cd89c30f-0e26-417f-8a33-4c56a2e036f7","ios":"levelo://app?vid=cd89c30f-0e26-417f-8a33-4c56a2e036f7"},"vehicle_type_id":"4","last_reported":1734131352,"current_range_meters":35200,"station_id":"ce4bha12rcd13ifvqee0","pricing_plan_id":"cebpf4jnsgd1na2vs0mg"},{"bike_id":"002069da-d74c-4e41-ae54-1da711c0eed6","system_id":"levelo_inurba_marseille","lat":43.28597,"lon":5.41305,"is_reserved":false,"is_disabled":true,"rental_uris":{"android":"levelo://app?vid=002069da-d74c-4e41-ae54-1da711c0eed6","ios":"levelo://app?vid=002069da-d74c-4e41-ae54-1da711c0eed6"},"vehicle_type_id":"4","last_reported":1734131352,"current_range_meters":0,"station_id":"","pricing_plan_id":"cebpf4jnsgd1na2vs0mg"},{"bike_id":"75506391-a12b-4ce2-997a-eff08551addc","system_id":"levelo_inurba_marseille","lat":43.23058,"lon":5.35488,"is_reserved":false,"is_disabled":false,"rental_uris":{"android":"levelo://app?vid=75506391-a12b-4ce2-997a-eff08551addc","ios":"levelo://app?vid=75506391-a12b-4ce2-997a-eff08551addc"},"vehicle_type_id":"4","last_reported":1734131352,"current_range_meters":38800,"station_id":"cpo3342slgdg3j2ifvpg","pricing_plan_id":"cebpf4jnsgd1na2vs0mg"},{"bike_id":"c9386dd6-8f0b-425f-ba06-4c88cbc1f623","system_id":"levelo_inurba_marseille","lat":43.255,"lon":5.37646,"is_reserved":false,"is_disabled":false,"rental_uris":{"android":"levelo://app?vid=c9386dd6-8f0b-425f-ba06-4c88cbc1f623","ios":"levelo://app?vid=c9386dd6-8f0b-425f-ba06-4c88cbc1f623"},"vehicle_type_id":"4","last_reported":1734131352,"current_range_meters":38800,"station_id":"ce4bhh12rcd13ifvqff0","pricing_plan_id":"cebpf4jnsgd1na2vs0mg"},{"bike_id":"7c858096-757d-4275-9af6-d1ffd08a731e","system_id":"levelo_inurba_marseille","lat":43.31888,"lon":5.40724,"is_reserved":false,"is_disabled":false,"rental_uris":{"android":"levelo://app?vid=7c858096-757d-4275-9af6-d1ffd08a731e","ios":"levelo://app?vid=7c858096-757d-4275-9af6-d1ffd08a731e"},"vehicle_type_id":"4","last_reported":1734131352,"current_range_meters":39200,"station_id":"ce4bhq12rcd13ifvqhig","pricing_plan_id":"cebpf4jnsgd1na2vs0mg"},{"bike_id":"0dc53ed0-703c-41c7-a7ba-e5fe121ea6cc","system_id":"levelo_inurba_marseille","lat":43.28921,"lon":5.37856,"is_reserved":false,"is_disabled":false,"rental_uris":{"android":"levelo://app?vid=0dc53ed0-703c-41c7-a7ba-e5fe121ea6cc","ios":"levelo://app?vid=0dc53ed0-703c-41c7-a7ba-e5fe121ea6cc"},"vehicle_type_id":"4","last_reported":1734131352,"current_range_meters":32000,"station_id":"","pricing_plan_id":"cebpf4jnsgd1na2vs0mg"},{"bike_id":"21ef9410-1b31-4680-b8c8-65ff5a9b2032","system_id":"levelo_inurba_marseille","lat":43.312,"lon":5.38714,"is_reserved":false,"is_disabled":false,"rental_uris":{"android":"levelo://app?vid=21ef9410-1b31-4680-b8c8-65ff5a9b2032","ios":"levelo://app?vid=21ef9410-1b31-4680-b8c8-65ff5a9b2032"},"vehicle_type_id":"4","last_reported":1734131352,"current_range_meters":38800,"station_id":"ce4bgv12rcd13ifvqcp0","pricing_plan_id":"cebpf4jnsgd1na2vs0mg"},{"bike_id":"1e09aea1-6592-4606-838e-01c5295332d1","system_id":"levelo_inurba_marseille","lat":43.32666,"lon":5.4098,"is_reserved":false,"is_disabled":true,"rental_uris":{"android":"levelo://app?vid=1e09aea1-6592-4606-838e-01c5295332d1","ios":"levelo://app?vid=1e09aea1-6592-4606-838e-01c5295332d1"},"vehicle_type_id":"4","last_reported":1734131352,"current_range_meters":32000,"station_id":"ce4bhpp2rcd13ifvqhgg","pricing_plan_id":"cebpf4jnsgd1na2vs0mg"},{"bike_id":"f0688521-339d-4b11-98b4-8b413dfcdc75","system_id":"levelo_inurba_marseille","lat":43.30241,"lon":5.40065,"is_reserved":false,"is_disabled":true,"rental_uris":{"android":"levelo://app?vid=f0688521-339d-4b11-98b4-8b413dfcdc75","ios":"levelo://app?vid=f0688521-339d-4b11-98b4-8b413dfcdc75"},"vehicle_type_id":"4","last_reported":1734131352,"current_range_meters":24400,"station_id":"ce4bgvh2rcd13ifvqcs0","pricing_plan_id":"cebpf4jnsgd1na2vs0mg"},{"bike_id":"c75bddd8-53e9-48da-b5b5-42395c8f7395","system_id":"levelo_inurba_marseille","lat":43.33733,"lon":5.39192,"is_reserved":false,"is_disabled":false,"rental_uris":{"android":"levelo://app?vid=c75bddd8-53e9-48da-b5b5-42395c8f7395","ios":"levelo://app?vid=c75bddd8-53e9-48da-b5b5-42395c8f7395"},"vehicle_type_id":"4","last_reported":1734131352,"current_range_meters":38400,"station_id":"ce4bhr92rcd13ifvqhsg","pricing_plan_id":"cebpf4jnsgd1na2vs0mg"},{"bike_id":"be3d60a6-6fb6-4cc8-81d6-6fe96ff5ee23","system_id":"levelo_inurba_marseille","lat":43.23066,"lon":5.35489,"is_reserved":false,"is_disabled":false,"rental_uris":{"android":"levelo://app?vid=be3d60a6-6fb6-4cc8-81d6-6fe96ff5ee23","ios":"levelo://app?vid=be3d60a6-6fb6-4cc8-81d6-6fe96ff5ee23"},"vehicle_type_id":"4","last_reported":1734131352,"current_range_meters":37600,"station_id":"cpo3342slgdg3j2ifvpg","pricing_plan_id":"cebpf4jnsgd1na2vs0mg"},{"bike_id":"1fe4a372-4453-497e-b3ef-f69a4428e7d4","system_id":"levelo_inurba_marseille","lat":43.23193,"lon":5.39973,"is_reserved":false,"is_disabled":false,"rental_uris":{"android":"levelo://app?vid=1fe4a372-4453-497e-b3ef-f69a4428e7d4","ios":"levelo://app?vid=1fe4a372-4453-497e-b3ef-f69a4428e7d4"},"vehicle_type_id":"4","last_reported":1734131352,"current_range_meters":38800,"station_id":"ce4bhn12rcd13ifvqgqg","pricing_plan_id":"cebpf4jnsgd1na2vs0mg"},{"bike_id":"022b1625-b49d-47c0-8f2f-9390c67ba8de","system_id":"levelo_inurba_marseille","lat":43.28846,"lon":5.39314,"is_reserved":false,"is_disabled":false,"rental_uris":{"android":"levelo://app?vid=022b1625-b49d-47c0-8f2f-9390c67ba8de","ios":"levelo://app?vid=022b1625-b49d-47c0-8f2f-9390c67ba8de"},"vehicle_type_id":"4","last_reported":1734131352,"current_range_meters":38000,"station_id":"ce4bh2p2rcd13ifvqdi0","pricing_plan_id":"cebpf4jnsgd1na2vs0mg"},{"bike_id":"f2dbe875-44dc-45d4-8f6f-ea44ad8555bb","system_id":"levelo_inurba_marseille","lat":43.2319,"lon":5.39983,"is_reserved":false,"is_disabled":false,"rental_uris":{"android":"levelo://app?vid=f2dbe875-44dc-45d4-8f6f-ea44ad8555bb","ios":"levelo://app?vid=f2dbe875-44dc-45d4-8f6f-ea44ad8555bb"},"vehicle_type_id":"4","last_reported":1734131352,"current_range_meters":36000,"station_id":"ce4bhn12rcd13ifvqgqg","pricing_plan_id":"cebpf4jnsgd1na2vs0mg"},{"bike_id":"da15a7af-b98b-4274-ab13-f3fc077f857c","system_id":"levelo_inurba_marseille","lat":43.29417,"lon":5.38626,"is_reserved":false,"is_disabled":true,"rental_uris":{"android":"levelo://app?vid=da15a7af-b98b-4274-ab13-f3fc077f857c","ios":"levelo://app?vid=da15a7af-b98b-4274-ab13-f3fc077f857c"},"vehicle_type_id":"4","last_reported":1734131352,"current_range_meters":0,"station_id":"ce4bh2h2rcd13ifvqdh0","pricing_plan_id":"cebpf4jnsgd1na2vs0mg"},{"bike_id":"b718cd83-7d3d-4bab-bbb2-eadb10161d1f","system_id":"levelo_inurba_marseille","lat":43.29262,"lon":5.38438,"is_reserved":false,"is_disabled":false,"rental_uris":{"android":"levelo://app?vid=b718cd83-7d3d-4bab-bbb2-eadb10161d1f","ios":"levelo://app?vid=b718cd83-7d3d-4bab-bbb2-eadb10161d1f"},"vehicle_type_id":"4","last_reported":1734131352,"current_range_meters":26000,"station_id":"ce4bh692rcd13ifvqea0","pricing_plan_id":"cebpf4jnsgd1na2vs0mg"},{"bike_id":"58497323-1be0-45f6-9e75-a6f0f06f077d","system_id":"levelo_inurba_marseille","lat":43.29031,"lon":5.3865,"is_reserved":false,"is_disabled":false,"rental_uris":{"android":"levelo://app?vid=58497323-1be0-45f6-9e75-a6f0f06f077d","ios":"levelo://app?vid=58497323-1be0-45f6-9e75-a6f0f06f077d"},"vehicle_type_id":"4","last_reported":1734131352,"current_range_meters":16800,"station_id":"ce4bh4p2rcd13ifvqe0g","pricing_plan_id":"cebpf4jnsgd1na2vs0mg"},{"bike_id":"d5735634-c369-470e-ae90-d9cb2c2ac3a4","system_id":"levelo_inurba_marseille","lat":43.291,"lon":5.4,"is_reserved":false,"is_disabled":false,"rental_uris":{"android":"levelo://app?vid=d5735634-c369-470e-ae90-d9cb2c2ac3a4","ios":"levelo://app?vid=d5735634-c369-470e-ae90-d9cb2c2ac3a4"},"vehicle_type_id":"4","last_reported":1734131352,"current_range_meters":27600,"station_id":"","pricing_plan_id":"cebpf4jnsgd1na2vs0mg"},{"bike_id":"be9a95eb-ef82-4d28-b6da-b3b7fb8c3e41","system_id":"levelo_inurba_marseille","lat":43.31068,"lon":5.3835,"is_reserved":false,"is_disabled":false,"rental_uris":{"android":"levelo://app?vid=be9a95eb-ef82-4d28-b6da-b3b7fb8c3e41","ios":"levelo://app?vid=be9a95eb-ef82-4d28-b6da-b3b7fb8c3e41"},"vehicle_type_id":"4","last_reported":1734131352,"current_range_meters":12000,"station_id":"ce4bgv92rcd13ifvqcr0","pricing_plan_id":"cebpf4jnsgd1na2vs0mg"},{"bike_id":"9332f19c-96e3-47ac-8807-c5c2384614c0","system_id":"levelo_inurba_marseille","lat":43.23048,"lon":5.35504,"is_reserved":false,"is_disabled":false,"rental_uris":{"android":"levelo://app?vid=9332f19c-96e3-47ac-8807-c5c2384614c0","ios":"levelo://app?vid=9332f19c-96e3-47ac-8807-c5c2384614c0"},"vehicle_type_id":"4","last_reported":1734131352,"current_range_meters":38800,"station_id":"cpo3342slgdg3j2ifvpg","pricing_plan_id":"cebpf4jnsgd1na2vs0mg"},{"bike_id":"380c9a62-9355-46ea-aba6-5d39cd47ad4b","system_id":"levelo_inurba_marseille","lat":43.31375,"lon":5.40624,"is_reserved":false,"is_disabled":true,"rental_uris":{"android":"levelo://app?vid=380c9a62-9355-46ea-aba6-5d39cd47ad4b","ios":"levelo://app?vid=380c9a62-9355-46ea-aba6-5d39cd47ad4b"},"vehicle_type_id":"4","last_reported":1734131352,"current_range_meters":2000,"station_id":"","pricing_plan_id":"cebpf4jnsgd1na2vs0mg"},{"bike_id":"57955b33-0220-4560-8253-8204da7b7a6c","system_id":"levelo_inurba_marseille","lat":43.28943,"lon":5.38385,"is_reserved":false,"is_disabled":false,"rental_uris":{"android":"levelo://app?vid=57955b33-0220-4560-8253-8204da7b7a6c","ios":"levelo://app?vid=57955b33-0220-4560-8253-8204da7b7a6c"},"vehicle_type_id":"4","last_reported":1734131352,"current_range_meters":38800,"station_id":"ce4bh612rcd13ifvqe6g","pricing_plan_id":"cebpf4jnsgd1na2vs0mg"},{"bike_id":"61970874-73dd-404b-a922-13b6fb74a693","system_id":"levelo_inurba_marseille","lat":43.30436,"lon":5.38897,"is_reserved":false,"is_disabled":false,"rental_uris":{"android":"levelo://app?vid=61970874-73dd-404b-a922-13b6fb74a693","ios":"levelo://app?vid=61970874-73dd-404b-a922-13b6fb74a693"},"vehicle_type_id":"4","last_reported":1734131352,"current_range_meters":32000,"station_id":"ce4bgk12rcd13ifvqbi0","pricing_plan_id":"cebpf4jnsgd1na2vs0mg"},{"bike_id":"7f79df14-9dc4-4bf2-a830-e473657900df","system_id":"levelo_inurba_marseille","lat":43.29941,"lon":5.38189,"is_reserved":false,"is_disabled":true,"rental_uris":{"android":"levelo://app?vid=7f79df14-9dc4-4bf2-a830-e473657900df","ios":"levelo://app?vid=7f79df14-9dc4-4bf2-a830-e473657900df"},"vehicle_type_id":"4","last_reported":1734131352,"current_range_meters":800,"station_id":"","pricing_plan_id":"cebpf4jnsgd1na2vs0mg"},{"bike_id":"a8942e43-f3d6-46fd-8576-2cc6b2787f3e","system_id":"levelo_inurba_marseille","lat":43.33039,"lon":5.39042,"is_reserved":false,"is_disabled":false,"rental_uris":{"android":"levelo://app?vid=a8942e43-f3d6-46fd-8576-2cc6b2787f3e","ios":"levelo://app?vid=a8942e43-f3d6-46fd-8576-2cc6b2787f3e"},"vehicle_type_id":"4","last_reported":1734131352,"current_range_meters":19200,"station_id":"ce4bhr92rcd13ifvqhrg","pricing_plan_id":"cebpf4jnsgd1na2vs0mg"},{"bike_id":"2e79fd04-87cf-41ff-8400-62b5fd09ffe6","system_id":"levelo_inurba_marseille","lat":43.27998,"lon":5.4166,"is_reserved":false,"is_disabled":false,"rental_uris":{"android":"levelo://app?vid=2e79fd04-87cf-41ff-8400-62b5fd09ffe6","ios":"levelo://app?vid=2e79fd04-87cf-41ff-8400-62b5fd09ffe6"},"vehicle_type_id":"4","last_reported":1734131352,"current_range_meters":17200,"station_id":"ce4bho12rcd13ifvqh1g","pricing_plan_id":"cebpf4jnsgd1na2vs0mg"},{"bike_id":"e429d4c1-8b31-4a48-bc92-05b43db2b8f8","system_id":"levelo_inurba_marseille","lat":43.28107,"lon":5.37836,"is_reserved":false,"is_disabled":false,"rental_uris":{"android":"levelo://app?vid=e429d4c1-8b31-4a48-bc92-05b43db2b8f8","ios":"levelo://app?vid=e429d4c1-8b31-4a48-bc92-05b43db2b8f8"},"vehicle_type_id":"4","last_reported":1734131352,"current_range_meters":37600,"station_id":"ce4bha12rcd13ifvqee0","pricing_plan_id":"cebpf4jnsgd1na2vs0mg"},{"bike_id":"bd9ca622-608b-40f1-937b-4a1e1400a4ce","system_id":"levelo_inurba_marseille","lat":43.28614,"lon":5.35096,"is_reserved":false,"is_disabled":false,"rental_uris":{"android":"levelo://app?vid=bd9ca622-608b-40f1-937b-4a1e1400a4ce","ios":"levelo://app?vid=bd9ca622-608b-40f1-937b-4a1e1400a4ce"},"vehicle_type_id":"4","last_reported":1734131352,"current_range_meters":37600,"station_id":"ce4bhch2rcd13ifvqeug","pricing_plan_id":"cebpf4jnsgd1na2vs0mg"},{"bike_id":"9b2f7bbd-c869-4c19-a272-dd0ccb5eae0f","system_id":"levelo_inurba_marseille","lat":43.28921,"lon":5.38388,"is_reserved":false,"is_disabled":false,"rental_uris":{"android":"levelo://app?vid=9b2f7bbd-c869-4c19-a272-dd0ccb5eae0f","ios":"levelo://app?vid=9b2f7bbd-c869-4c19-a272-dd0ccb5eae0f"},"vehicle_type_id":"4","last_reported":1734131352,"current_range_meters":38000,"station_id":"ce4bh612rcd13ifvqe6g","pricing_plan_id":"cebpf4jnsgd1na2vs0mg"},{"bike_id":"9f242f1b-29f9-46b7-aa6e-0d4757527520","system_id":"levelo_inurba_marseille","lat":43.27947,"lon":5.41041,"is_reserved":false,"is_disabled":false,"rental_uris":{"android":"levelo://app?vid=9f242f1b-29f9-46b7-aa6e-0d4757527520","ios":"levelo://app?vid=9f242f1b-29f9-46b7-aa6e-0d4757527520"},"vehicle_type_id":"4","last_reported":1734131352,"current_range_meters":29600,"station_id":"ce4bhnp2rcd13ifvqh0g","pricing_plan_id":"cebpf4jnsgd1na2vs0mg"},{"bike_id":"047ae0e2-efdd-42fe-9ef9-2525b5d879ab","system_id":"levelo_inurba_marseille","lat":43.3171,"lon":5.37754,"is_reserved":false,"is_disabled":false,"rental_uris":{"android":"levelo://app?vid=047ae0e2-efdd-42fe-9ef9-2525b5d879ab","ios":"levelo://app?vid=047ae0e2-efdd-42fe-9ef9-2525b5d879ab"},"vehicle_type_id":"4","last_reported":1734131352,"current_range_meters":35600,"station_id":"ce4bgth2rcd13ifvqch0","pricing_plan_id":"cebpf4jnsgd1na2vs0mg"},{"bike_id":"73ce6c11-114b-4393-ae0a-bfc03ae59980","system_id":"levelo_inurba_marseille","lat":43.30321,"lon":5.40441,"is_reserved":false,"is_disabled":true,"rental_uris":{"android":"levelo://app?vid=73ce6c11-114b-4393-ae0a-bfc03ae59980","ios":"levelo://app?vid=73ce6c11-114b-4393-ae0a-bfc03ae59980"},"vehicle_type_id":"4","last_reported":1734131352,"current_range_meters":0,"station_id":"ce4bh012rcd13ifvqd10","pricing_plan_id":"cebpf4jnsgd1na2vs0mg"},{"bike_id":"6ef5e6a4-5b27-4a8e-99ca-d54408850570","system_id":"levelo_inurba_marseille","lat":43.30649,"lon":5.37229,"is_reserved":false,"is_disabled":false,"rental_uris":{"android":"levelo://app?vid=6ef5e6a4-5b27-4a8e-99ca-d54408850570","ios":"levelo://app?vid=6ef5e6a4-5b27-4a8e-99ca-d54408850570"},"vehicle_type_id":"4","last_reported":1734131352,"current_range_meters":18000,"station_id":"ce4bgqh2rcd13ifvqc4g","pricing_plan_id":"cebpf4jnsgd1na2vs0mg"},{"bike_id":"571c8813-4eff-4d5d-9e47-687e6d2efbac","system_id":"levelo_inurba_marseille","lat":43.29794,"lon":5.40398,"is_reserved":false,"is_disabled":false,"rental_uris":{"android":"levelo://app?vid=571c8813-4eff-4d5d-9e47-687e6d2efbac","ios":"levelo://app?vid=571c8813-4eff-4d5d-9e47-687e6d2efbac"},"vehicle_type_id":"4","last_reported":1734131352,"current_range_meters":38000,"station_id":"ce4bh112rcd13ifvqd90","pricing_plan_id":"cebpf4jnsgd1na2vs0mg"},{"bike_id":"c6234abb-f24f-4e51-8203-a434dd5a5cf7","system_id":"levelo_inurba_marseille","lat":43.272,"lon":5.40984,"is_reserved":false,"is_disabled":false,"rental_uris":{"android":"levelo://app?vid=c6234abb-f24f-4e51-8203-a434dd5a5cf7","ios":"levelo://app?vid=c6234abb-f24f-4e51-8203-a434dd5a5cf7"},"vehicle_type_id":"4","last_reported":1734131352,"current_range_meters":11200,"station_id":"ce4bhl12rcd13ifvqgf0","pricing_plan_id":"cebpf4jnsgd1na2vs0mg"},{"bike_id":"6e6a004b-462d-4b03-aeaa-2611256f0d89","system_id":"levelo_inurba_marseille","lat":43.28112,"lon":5.38935,"is_reserved":false,"is_disabled":true,"rental_uris":{"android":"levelo://app?vid=6e6a004b-462d-4b03-aeaa-2611256f0d89","ios":"levelo://app?vid=6e6a004b-462d-4b03-aeaa-2611256f0d89"},"vehicle_type_id":"4","last_reported":1734131352,"current_range_meters":0,"station_id":"","pricing_plan_id":"cebpf4jnsgd1na2vs0mg"},{"bike_id":"ae5b5c4d-0d6a-46ca-9b0e-35cfd75d74bc","system_id":"levelo_inurba_marseille","lat":43.28613,"lon":5.35107,"is_reserved":false,"is_disabled":false,"rental_uris":{"android":"levelo://app?vid=ae5b5c4d-0d6a-46ca-9b0e-35cfd75d74bc","ios":"levelo://app?vid=ae5b5c4d-0d6a-46ca-9b0e-35cfd75d74bc"},"vehicle_type_id":"4","last_reported":1734131352,"current_range_meters":24800,"station_id":"ce4bhch2rcd13ifvqeug","pricing_plan_id":"cebpf4jnsgd1na2vs0mg"},{"bike_id":"e6050259-3c58-4826-903e-9d3dd4ce0843","system_id":"levelo_inurba_marseille","lat":43.30538,"lon":5.38435,"is_reserved":false,"is_disabled":false,"rental_uris":{"android":"levelo://app?vid=e6050259-3c58-4826-903e-9d3dd4ce0843","ios":"levelo://app?vid=e6050259-3c58-4826-903e-9d3dd4ce0843"},"vehicle_type_id":"4","last_reported":1734131352,"current_range_meters":20800,"station_id":"ce4bgg92rcd13ifvqb30","pricing_plan_id":"cebpf4jnsgd1na2vs0mg"},{"bike_id":"c4f2e6f8-090a-4465-bd99-298fe3b87229","system_id":"levelo_inurba_marseille","lat":43.3136,"lon":5.38492,"is_reserved":false,"is_disabled":false,"rental_uris":{"android":"levelo://app?vid=c4f2e6f8-090a-4465-bd99-298fe3b87229","ios":"levelo://app?vid=c4f2e6f8-090a-4465-bd99-298fe3b87229"},"vehicle_type_id":"4","last_reported":1734131352,"current_range_meters":32400,"station_id":"ce4bgt92rcd13ifvqcf0","pricing_plan_id":"cebpf4jnsgd1na2vs0mg"},{"bike_id":"e36b6582-dfc0-44b0-a8e1-e3ad0d46700a","system_id":"levelo_inurba_marseille","lat":43.29416,"lon":5.38621,"is_reserved":false,"is_disabled":false,"rental_uris":{"android":"levelo://app?vid=e36b6582-dfc0-44b0-a8e1-e3ad0d46700a","ios":"levelo://app?vid=e36b6582-dfc0-44b0-a8e1-e3ad0d46700a"},"vehicle_type_id":"4","last_reported":1734131352,"current_range_meters":19200,"station_id":"ce4bh2h2rcd13ifvqdh0","pricing_plan_id":"cebpf4jnsgd1na2vs0mg"},{"bike_id":"a5390457-c1fe-4e0b-9d46-155440ac0464","system_id":"levelo_inurba_marseille","lat":43.29028,"lon":5.38634,"is_reserved":false,"is_disabled":false,"rental_uris":{"android":"levelo://app?vid=a5390457-c1fe-4e0b-9d46-155440ac0464","ios":"levelo://app?vid=a5390457-c1fe-4e0b-9d46-155440ac0464"},"vehicle_type_id":"4","last_reported":1734131352,"current_range_meters":38800,"station_id":"ce4bh4p2rcd13ifvqe0g","pricing_plan_id":"cebpf4jnsgd1na2vs0mg"},{"bike_id":"4c6152e4-6a40-4d4e-8488-bf096ab936a4","system_id":"levelo_inurba_marseille","lat":43.31363,"lon":5.38495,"is_reserved":false,"is_disabled":false,"rental_uris":{"android":"levelo://app?vid=4c6152e4-6a40-4d4e-8488-bf096ab936a4","ios":"levelo://app?vid=4c6152e4-6a40-4d4e-8488-bf096ab936a4"},"vehicle_type_id":"4","last_reported":1734131352,"current_range_meters":38800,"station_id":"ce4bgt92rcd13ifvqcf0","pricing_plan_id":"cebpf4jnsgd1na2vs0mg"},{"bike_id":"1536d859-8531-4d78-87ee-c9b02f5fc438","system_id":"levelo_inurba_marseille","lat":43.230664,"lon":5.35493,"is_reserved":false,"is_disabled":false,"rental_uris":{"android":"levelo://app?vid=1536d859-8531-4d78-87ee-c9b02f5fc438","ios":"levelo://app?vid=1536d859-8531-4d78-87ee-c9b02f5fc438"},"vehicle_type_id":"4","last_reported":1734131352,"current_range_meters":20000,"station_id":"cpo3342slgdg3j2ifvpg","pricing_plan_id":"cebpf4jnsgd1na2vs0mg"},{"bike_id":"702fe746-2950-4d83-96ad-da74f787e42f","system_id":"levelo_inurba_marseille","lat":43.25861,"lon":5.39898,"is_reserved":false,"is_disabled":false,"rental_uris":{"android":"levelo://app?vid=702fe746-2950-4d83-96ad-da74f787e42f","ios":"levelo://app?vid=702fe746-2950-4d83-96ad-da74f787e42f"},"vehicle_type_id":"4","last_reported":1734131352,"current_range_meters":38800,"station_id":"ce4bhl92rcd13ifvqghg","pricing_plan_id":"cebpf4jnsgd1na2vs0mg"},{"bike_id":"581365a8-6401-4621-9f21-b5b2a7b01d55","system_id":"levelo_inurba_marseille","lat":43.2866,"lon":5.36343,"is_reserved":false,"is_disabled":false,"rental_uris":{"android":"levelo://app?vid=581365a8-6401-4621-9f21-b5b2a7b01d55","ios":"levelo://app?vid=581365a8-6401-4621-9f21-b5b2a7b01d55"},"vehicle_type_id":"4","last_reported":1734131352,"current_range_meters":28400,"station_id":"ce4bhah2rcd13ifvqej0","pricing_plan_id":"cebpf4jnsgd1na2vs0mg"},{"bike_id":"7965bd8b-65b9-4460-9e65-36f253ebc53b","system_id":"levelo_inurba_marseille","lat":43.32033,"lon":5.41556,"is_reserved":false,"is_disabled":false,"rental_uris":{"android":"levelo://app?vid=7965bd8b-65b9-4460-9e65-36f253ebc53b","ios":"levelo://app?vid=7965bd8b-65b9-4460-9e65-36f253ebc53b"},"vehicle_type_id":"4","last_reported":1734131352,"current_range_meters":22000,"station_id":"ce4bhq92rcd13ifvqhkg","pricing_plan_id":"cebpf4jnsgd1na2vs0mg"},{"bike_id":"baf2a051-8c83-4545-8cb9-f2d0770a50f8","system_id":"levelo_inurba_marseille","lat":43.3102,"lon":5.38005,"is_reserved":false,"is_disabled":false,"rental_uris":{"android":"levelo://app?vid=baf2a051-8c83-4545-8cb9-f2d0770a50f8","ios":"levelo://app?vid=baf2a051-8c83-4545-8cb9-f2d0770a50f8"},"vehicle_type_id":"4","last_reported":1734131352,"current_range_meters":14000,"station_id":"","pricing_plan_id":"cebpf4jnsgd1na2vs0mg"},{"bike_id":"5ae3124d-1e9d-4d05-9b6d-1b8c8362b77d","system_id":"levelo_inurba_marseille","lat":43.29571,"lon":5.39973,"is_reserved":false,"is_disabled":false,"rental_uris":{"android":"levelo://app?vid=5ae3124d-1e9d-4d05-9b6d-1b8c8362b77d","ios":"levelo://app?vid=5ae3124d-1e9d-4d05-9b6d-1b8c8362b77d"},"vehicle_type_id":"4","last_reported":1734131352,"current_range_meters":30000,"station_id":"ce4bh312rcd13ifvqdj0","pricing_plan_id":"cebpf4jnsgd1na2vs0mg"},{"bike_id":"e5192aff-1008-4e7e-b82a-23b5df79d920","system_id":"levelo_inurba_marseille","lat":43.29558,"lon":5.42285,"is_reserved":false,"is_disabled":false,"rental_uris":{"android":"levelo://app?vid=e5192aff-1008-4e7e-b82a-23b5df79d920","ios":"levelo://app?vid=e5192aff-1008-4e7e-b82a-23b5df79d920"},"vehicle_type_id":"4","last_reported":1734131352,"current_range_meters":38400,"station_id":"ce4bhph2rcd13ifvqhdg","pricing_plan_id":"cebpf4jnsgd1na2vs0mg"},{"bike_id":"7f728a63-e50f-454b-9af6-ba22a4c8ccb5","system_id":"levelo_inurba_marseille","lat":43.31219,"lon":5.36859,"is_reserved":false,"is_disabled":false,"rental_uris":{"android":"levelo://app?vid=7f728a63-e50f-454b-9af6-ba22a4c8ccb5","ios":"levelo://app?vid=7f728a63-e50f-454b-9af6-ba22a4c8ccb5"},"vehicle_type_id":"4","last_reported":1734131352,"current_range_meters":37600,"station_id":"ce4bgl92rcd13ifvqbq0","pricing_plan_id":"cebpf4jnsgd1na2vs0mg"},{"bike_id":"36754cd3-bfbc-461c-afd2-5931b05829dd","system_id":"levelo_inurba_marseille","lat":43.30639,"lon":5.40093,"is_reserved":false,"is_disabled":false,"rental_uris":{"android":"levelo://app?vid=36754cd3-bfbc-461c-afd2-5931b05829dd","ios":"levelo://app?vid=36754cd3-bfbc-461c-afd2-5931b05829dd"},"vehicle_type_id":"4","last_reported":1734131352,"current_range_meters":39200,"station_id":"ce4bh112rcd13ifvqda0","pricing_plan_id":"cebpf4jnsgd1na2vs0mg"},{"bike_id":"b7ecc48f-4c3e-4541-9190-4a791223d253","system_id":"levelo_inurba_marseille","lat":43.24656,"lon":5.38895,"is_reserved":false,"is_disabled":false,"rental_uris":{"android":"levelo://app?vid=b7ecc48f-4c3e-4541-9190-4a791223d253","ios":"levelo://app?vid=b7ecc48f-4c3e-4541-9190-4a791223d253"},"vehicle_type_id":"4","last_reported":1734131352,"current_range_meters":12400,"station_id":"ce4bhg12rcd13ifvqf60","pricing_plan_id":"cebpf4jnsgd1na2vs0mg"},{"bike_id":"a5589391-a7e4-412b-9a87-f917b2322580","system_id":"levelo_inurba_marseille","lat":43.23059,"lon":5.35463,"is_reserved":false,"is_disabled":false,"rental_uris":{"android":"levelo://app?vid=a5589391-a7e4-412b-9a87-f917b2322580","ios":"levelo://app?vid=a5589391-a7e4-412b-9a87-f917b2322580"},"vehicle_type_id":"4","last_reported":1734131352,"current_range_meters":37600,"station_id":"cpo3342slgdg3j2ifvpg","pricing_plan_id":"cebpf4jnsgd1na2vs0mg"},{"bike_id":"048718b0-c285-431f-bfe5-57abeeb4108c","system_id":"levelo_inurba_marseille","lat":43.30126,"lon":5.39839,"is_reserved":false,"is_disabled":false,"rental_uris":{"android":"levelo://app?vid=048718b0-c285-431f-bfe5-57abeeb4108c","ios":"levelo://app?vid=048718b0-c285-431f-bfe5-57abeeb4108c"},"vehicle_type_id":"4","last_reported":1734131352,"current_range_meters":1600,"station_id":"ce4bh0h2rcd13ifvqd40","pricing_plan_id":"cebpf4jnsgd1na2vs0mg"},{"bike_id":"103e9cb3-a529-4d55-b047-75adf6d60c18","system_id":"levelo_inurba_marseille","lat":43.27961,"lon":5.39941,"is_reserved":false,"is_disabled":true,"rental_uris":{"android":"levelo://app?vid=103e9cb3-a529-4d55-b047-75adf6d60c18","ios":"levelo://app?vid=103e9cb3-a529-4d55-b047-75adf6d60c18"},"vehicle_type_id":"4","last_reported":1734131352,"current_range_meters":0,"station_id":"","pricing_plan_id":"cebpf4jnsgd1na2vs0mg"},{"bike_id":"9f6edf01-748c-401f-9fc5-e91fa31a072c","system_id":"levelo_inurba_marseille","lat":43.33019,"lon":5.39039,"is_reserved":false,"is_disabled":false,"rental_uris":{"android":"levelo://app?vid=9f6edf01-748c-401f-9fc5-e91fa31a072c","ios":"levelo://app?vid=9f6edf01-748c-401f-9fc5-e91fa31a072c"},"vehicle_type_id":"4","last_reported":1734131352,"current_range_meters":39200,"station_id":"ce4bhr92rcd13ifvqhrg","pricing_plan_id":"cebpf4jnsgd1na2vs0mg"},{"bike_id":"d84e5faf-e0d5-42d0-bd78-9dd2e96d358b","system_id":"levelo_inurba_marseille","lat":43.28105,"lon":5.37843,"is_reserved":false,"is_disabled":false,"rental_uris":{"android":"levelo://app?vid=d84e5faf-e0d5-42d0-bd78-9dd2e96d358b","ios":"levelo://app?vid=d84e5faf-e0d5-42d0-bd78-9dd2e96d358b"},"vehicle_type_id":"4","last_reported":1734131352,"current_range_meters":22000,"station_id":"ce4bha12rcd13ifvqee0","pricing_plan_id":"cebpf4jnsgd1na2vs0mg"},{"bike_id":"14afac6a-63b2-47cb-9bc3-0bc87d22bcde","system_id":"levelo_inurba_marseille","lat":43.32361,"lon":5.38891,"is_reserved":false,"is_disabled":false,"rental_uris":{"android":"levelo://app?vid=14afac6a-63b2-47cb-9bc3-0bc87d22bcde","ios":"levelo://app?vid=14afac6a-63b2-47cb-9bc3-0bc87d22bcde"},"vehicle_type_id":"4","last_reported":1734131352,"current_range_meters":38800,"station_id":"ce4bhqp2rcd13ifvqhog","pricing_plan_id":"cebpf4jnsgd1na2vs0mg"},{"bike_id":"cf114bb8-ce3e-43ba-8e23-69bcac3003fd","system_id":"levelo_inurba_marseille","lat":43.33756,"lon":5.3742,"is_reserved":false,"is_disabled":false,"rental_uris":{"android":"levelo://app?vid=cf114bb8-ce3e-43ba-8e23-69bcac3003fd","ios":"levelo://app?vid=cf114bb8-ce3e-43ba-8e23-69bcac3003fd"},"vehicle_type_id":"4","last_reported":1734131352,"current_range_meters":23200,"station_id":"","pricing_plan_id":"cebpf4jnsgd1na2vs0mg"},{"bike_id":"f72a7348-a98e-463a-8d26-f64d3092b70b","system_id":"levelo_inurba_marseille","lat":43.30538,"lon":5.38426,"is_reserved":false,"is_disabled":true,"rental_uris":{"android":"levelo://app?vid=f72a7348-a98e-463a-8d26-f64d3092b70b","ios":"levelo://app?vid=f72a7348-a98e-463a-8d26-f64d3092b70b"},"vehicle_type_id":"4","last_reported":1734131352,"current_range_meters":36000,"station_id":"ce4bgg92rcd13ifvqb30","pricing_plan_id":"cebpf4jnsgd1na2vs0mg"},{"bike_id":"1edcb435-be97-41f8-aa8c-4a20808cef7c","system_id":"levelo_inurba_marseille","lat":43.28922,"lon":5.38268,"is_reserved":false,"is_disabled":false,"rental_uris":{"android":"levelo://app?vid=1edcb435-be97-41f8-aa8c-4a20808cef7c","ios":"levelo://app?vid=1edcb435-be97-41f8-aa8c-4a20808cef7c"},"vehicle_type_id":"4","last_reported":1734131352,"current_range_meters":38400,"station_id":"","pricing_plan_id":"cebpf4jnsgd1na2vs0mg"},{"bike_id":"600a3dff-b459-4dfc-a7ac-2b01e30fccee","system_id":"levelo_inurba_marseille","lat":43.23201,"lon":5.3555,"is_reserved":false,"is_disabled":false,"rental_uris":{"android":"levelo://app?vid=600a3dff-b459-4dfc-a7ac-2b01e30fccee","ios":"levelo://app?vid=600a3dff-b459-4dfc-a7ac-2b01e30fccee"},"vehicle_type_id":"4","last_reported":1734131352,"current_range_meters":16800,"station_id":"ce4bhu92rcd13ifvqi70","pricing_plan_id":"cebpf4jnsgd1na2vs0mg"},{"bike_id":"a46e3ccb-8bc2-4640-85fb-260de600c1f9","system_id":"levelo_inurba_marseille","lat":43.33772,"lon":5.37418,"is_reserved":false,"is_disabled":false,"rental_uris":{"android":"levelo://app?vid=a46e3ccb-8bc2-4640-85fb-260de600c1f9","ios":"levelo://app?vid=a46e3ccb-8bc2-4640-85fb-260de600c1f9"},"vehicle_type_id":"4","last_reported":1734131352,"current_range_meters":37600,"station_id":"","pricing_plan_id":"cebpf4jnsgd1na2vs0mg"},{"bike_id":"84194686-613b-49c2-8cdd-380f6646564a","system_id":"levelo_inurba_marseille","lat":43.31073,"lon":5.38353,"is_reserved":false,"is_disabled":false,"rental_uris":{"android":"levelo://app?vid=84194686-613b-49c2-8cdd-380f6646564a","ios":"levelo://app?vid=84194686-613b-49c2-8cdd-380f6646564a"},"vehicle_type_id":"4","last_reported":1734131352,"current_range_meters":38800,"station_id":"ce4bgv92rcd13ifvqcr0","pricing_plan_id":"cebpf4jnsgd1na2vs0mg"},{"bike_id":"b88f3e5c-3535-498c-b292-96723b6d5b05","system_id":"levelo_inurba_marseille","lat":43.2927,"lon":5.38437,"is_reserved":false,"is_disabled":false,"rental_uris":{"android":"levelo://app?vid=b88f3e5c-3535-498c-b292-96723b6d5b05","ios":"levelo://app?vid=b88f3e5c-3535-498c-b292-96723b6d5b05"},"vehicle_type_id":"4","last_reported":1734131352,"current_range_meters":38800,"station_id":"ce4bh692rcd13ifvqea0","pricing_plan_id":"cebpf4jnsgd1na2vs0mg"},{"bike_id":"ca3bf6a0-806c-4046-b219-bbea4c2ba646","system_id":"levelo_inurba_marseille","lat":43.23195,"lon":5.35552,"is_reserved":false,"is_disabled":false,"rental_uris":{"android":"levelo://app?vid=ca3bf6a0-806c-4046-b219-bbea4c2ba646","ios":"levelo://app?vid=ca3bf6a0-806c-4046-b219-bbea4c2ba646"},"vehicle_type_id":"4","last_reported":1734131352,"current_range_meters":39200,"station_id":"ce4bhu92rcd13ifvqi70","pricing_plan_id":"cebpf4jnsgd1na2vs0mg"},{"bike_id":"e92b53be-0a79-44c0-8c0f-b198c7a21d46","system_id":"levelo_inurba_marseille","lat":43.32365,"lon":5.38889,"is_reserved":false,"is_disabled":false,"rental_uris":{"android":"levelo://app?vid=e92b53be-0a79-44c0-8c0f-b198c7a21d46","ios":"levelo://app?vid=e92b53be-0a79-44c0-8c0f-b198c7a21d46"},