{"last_updated":1762614517,"ttl":60,"version":"2.2","data":{"bikes":[{"bike_id":"62b930d5-b211-4d72-8d6f-9d3c86c3e5b1","system_id":"levelo_inurba_marseille","lat":43.21744,"lon":5.34609,"is_reserved":false,"is_disabled":true,"rental_uris":{"android":"levelo://app?vid=62b930d5-b211-4d72-8d6f-9d3c86c3e5b1","ios":"levelo://app?vid=62b930d5-b211-4d72-8d6f-9d3c86c3e5b1"},"vehicle_type_id":"4","last_reported":1762614517,"current_range_meters":2800,"station_id":"","pricing_plan_id":"cebpf4jnsgd1na2vs0mg"},{"bike_id":"0a320949-9d43-45b8-89b5-6465327b71fa","system_id":"levelo_inurba_marseille","lat":43.22925,"lon":5.35383,"is_reserved":false,"is_disabled":false,"rental_uris":{"android":"levelo://app?vid=0a320949-9d43-45b8-89b5-6465327b71fa","ios":"levelo://app?vid=0a320949-9d43-45b8-89b5-6465327b71fa"},"vehicle_type_id":"4","last_reported":1762614517,"current_range_meters":2800,"station_id":"cpo3532slgdg3j2ikp40","pricing_plan_id":"cebpf4jnsgd1na2vs0mg"},{"bike_id":"aa073d3c-91f3-4920-9d1e-90bf82850b1e","system_id":"levelo_inurba_marseille","lat":43.33843,"lon":5.37454,"is_reserved":false,"is_disabled":false,"rental_uris":{"android":"levelo://app?vid=aa073d3c-91f3-4920-9d1e-90bf82850b1e","ios":"levelo://app?vid=aa073d3c-91f3-4920-9d1e-90bf82850b1e"},"vehicle_type_id":"4","last_reported":1762614517,"current_range_meters":2800,"station_id":"","pricing_plan_id":"cebpf4jnsgd1na2vs0mg"},{"bike_id":"b191d67d-6728-44d8-9fc7-0fd97ab5a62e","system_id":"levelo_inurba_marseille","lat":43.231923,"lon":5.355516,"is_reserved":false,"is_disabled":false,"rental_uris":{"android":"levelo://app?vid=b191d67d-6728-44d8-9fc7-0fd97ab5a62e","ios":"levelo://app?vid=b191d67d-6728-44d8-9fc7-0fd97ab5a62e"},"vehicle_type_id":"4","last_reported":1762614517,"current_range_meters":2800,"station_id":"","pricing_plan_id":"cebpf4jnsgd1na2vs0mg"},{"bike_id":"de2e56e0-5cd0-44fb-b34e-96104e4ae080","system_id":"levelo_inurba_marseille","lat":43.30585,"lon":5.37209,"is_reserved":false,"is_disabled":false,"rental_uris":{"android":"levelo://app?vid=de2e56e0-5cd0-44fb-b34e-96104e4ae080","ios":"levelo://app?vid=de2e56e0-5cd0-44fb-b34e-96104e4ae080"},"vehicle_type_id":"4","last_reported":1762614517,"current_range_meters":3200,"station_id":"ce4bgqh2rcd13ifvqc4g","pricing_plan_id":"cebpf4jnsgd1na2vs0mg"},{"bike_id":"a5665f03-5a93-42b6-9927-2b7bbfc529fb","system_id":"levelo_inurba_marseille","lat":43.258773,"lon":5.417135,"is_reserved":false,"is_disabled":false,"rental_uris":{"android":"levelo://app?vid=a5665f03-5a93-42b6-9927-2b7bbfc529fb","ios":"levelo://app?vid=a5665f03-5a93-42b6-9927-2b7bbfc529fb"},"vehicle_type_id":"4","last_reported":1762614517,"current_range_meters":3200,"station_id":"st_d2m65c5bi1j21697t3ng","pricing_plan_id":"cebpf4jnsgd1na2vs0mg"},{"bike_id":"1c6bc4d8-4da5-45ff-af52-f68cec0dacd6","system_id":"levelo_inurba_marseille","lat":43.3042,"lon":5.41288,"is_reserved":false,"is_disabled":false,"rental_uris":{"android":"levelo://app?vid=1c6bc4d8-4da5-45ff-af52-f68cec0dacd6","ios":"levelo://app?vid=1c6bc4d8-4da5-45ff-af52-f68cec0dacd6"},"vehicle_type_id":"4","last_reported":1762614517,"current_range_meters":3600,"station_id":"ce4bhop2rcd13ifvqh8g","pricing_plan_id":"cebpf4jnsgd1na2vs0mg"},{"bike_id":"f6ca3376-6c37-4f5b-8212-007c073cf046","system_id":"levelo_inurba_marseille","lat":43.225537,"lon":5.416236,"is_reserved":false,"is_disabled":true,"rental_uris":{"android":"levelo://app?vid=f6ca3376-6c37-4f5b-8212-007c073cf046","ios":"levelo://app?vid=f6ca3376-6c37-4f5b-8212-007c073cf046"},"vehicle_type_id":"4","last_reported":1762614517,"current_range_meters":4000,"station_id":"st_d2o4gvlbi1j2169b742g","pricing_plan_id":"cebpf4jnsgd1na2vs0mg"},{"bike_id":"692d94c7-d55e-405d-8b26-122e61d90ccf","system_id":"levelo_inurba_marseille","lat":43.29515,"lon":5.39404,"is_reserved":false,"is_disabled":false,"rental_uris":{"android":"levelo://app?vid=692d94c7-d55e-405d-8b26-122e61d90ccf","ios":"levelo://app?vid=692d94c7-d55e-405d-8b26-122e61d90ccf"},"vehicle_type_id":"4","last_reported":1762614517,"current_range_meters":4000,"station_id":"ce4bh292rcd13ifvqdf0","pricing_plan_id":"cebpf4jnsgd1na2vs0mg"},{"bike_id":"32c4054d-c111-4f1c-b188-9138aed42210","system_id":"levelo_inurba_marseille","lat":43.319762,"lon":5.415726,"is_reserved":false,"is_disabled":false,"rental_uris":{"android":"levelo://app?vid=32c4054d-c111-4f1c-b188-9138aed42210","ios":"levelo://app?vid=32c4054d-c111-4f1c-b188-9138aed42210"},"vehicle_type_id":"4","last_reported":1762614517,"current_range_meters":4000,"station_id":"","pricing_plan_id":"cebpf4jnsgd1na2vs0mg"},{"bike_id":"4a0c9a85-81c5-4736-8a17-541f7d175f15","system_id":"levelo_inurba_marseille","lat":43.25581,"lon":5.3824,"is_reserved":false,"is_disabled":false,"rental_uris":{"android":"levelo://app?vid=4a0c9a85-81c5-4736-8a17-541f7d175f15","ios":"levelo://app?vid=4a0c9a85-81c5-4736-8a17-541f7d175f15"},"vehicle_type_id":"4","last_reported":1762614517,"current_range_meters":4000,"station_id":"ce4bhih2rcd13ifvqfs0","pricing_plan_id":"cebpf4jnsgd1na2vs0mg"},{"bike_id":"8fe097ea-64a0-4f37-a977-20ca35068c8e","system_id":"levelo_inurba_marseille","lat":43.28612,"lon":5.35106,"is_reserved":false,"is_disabled":false,"rental_uris":{"android":"levelo://app?vid=8fe097ea-64a0-4f37-a977-20ca35068c8e","ios":"levelo://app?vid=8fe097ea-64a0-4f37-a977-20ca35068c8e"},"vehicle_type_id":"4","last_reported":1762614517,"current_range_meters":4000,"station_id":"ce4bhch2rcd13ifvqeug","pricing_plan_id":"cebpf4jnsgd1na2vs0mg"},{"bike_id":"59b31ef2-3fe3-46e5-b5a5-685f264695ce","system_id":"levelo_inurba_marseille","lat":43.28472,"lon":5.48399,"is_reserved":false,"is_disabled":false,"rental_uris":{"android":"levelo://app?vid=59b31ef2-3fe3-46e5-b5a5-685f264695ce","ios":"levelo://app?vid=59b31ef2-3fe3-46e5-b5a5-685f264695ce"},"vehicle_type_id":"4","last_reported":1762614517,"current_range_meters":4000,"station_id":"","pricing_plan_id":"cebpf4jnsgd1na2vs0mg"},{"bike_id":"a815082f-efde-47dc-ba7d-e60c42655a56","system_id":"levelo_inurba_marseille","lat":43.249512,"lon":5.404885,"is_reserved":false,"is_disabled":false,"rental_uris":{"android":"levelo://app?vid=a815082f-efde-47dc-ba7d-e60c42655a56","ios":"levelo://app?vid=a815082f-efde-47dc-ba7d-e60c42655a56"},"vehicle_type_id":"4","last_reported":1762614517,"current_range_meters":4000,"station_id":"st_d2ngiaodas8pm72gd1h0","pricing_plan_id":"cebpf4jnsgd1na2vs0mg"},{"bike_id":"6ba76990-4353-4b6d-8475-3343f0c4bddc","system_id":"levelo_inurba_marseille","lat":43.302671,"lon":5.368775,"is_reserved":false,"is_disabled":false,"rental_uris":{"android":"levelo://app?vid=6ba76990-4353-4b6d-8475-3343f0c4bddc","ios":"levelo://app?vid=6ba76990-4353-4b6d-8475-3343f0c4bddc"},"vehicle_type_id":"4","last_reported":1762614517,"current_range_meters":4400,"station_id":"ce4bgqh2rcd13ifvqc5g","pricing_plan_id":"cebpf4jnsgd1na2vs0mg"},{"bike_id":"2f6d4ea4-4a2e-4a74-8203-ff6590a5470d","system_id":"levelo_inurba_marseille","lat":43.30086,"lon":5.39097,"is_reserved":false,"is_disabled":false,"rental_uris":{"android":"levelo://app?vid=2f6d4ea4-4a2e-4a74-8203-ff6590a5470d","ios":"levelo://app?vid=2f6d4ea4-4a2e-4a74-8203-ff6590a5470d"},"vehicle_type_id":"4","last_reported":1762614517,"current_range_meters":4400,"station_id":"ce4bh192rcd13ifvqdb0","pricing_plan_id":"cebpf4jnsgd1na2vs0mg"},{"bike_id":"ab3a4d6b-b442-44b9-8f02-c1c222f445ba","system_id":"levelo_inurba_marseille","lat":43.274506,"lon":5.392735,"is_reserved":false,"is_disabled":false,"rental_uris":{"android":"levelo://app?vid=ab3a4d6b-b442-44b9-8f02-c1c222f445ba","ios":"levelo://app?vid=ab3a4d6b-b442-44b9-8f02-c1c222f445ba"},"vehicle_type_id":"4","last_reported":1762614517,"current_range_meters":4800,"station_id":"","pricing_plan_id":"cebpf4jnsgd1na2vs0mg"},{"bike_id":"24672097-0346-458d-9415-f42c4933caac","system_id":"levelo_inurba_marseille","lat":43.301757,"lon":5.382545,"is_reserved":false,"is_disabled":false,"rental_uris":{"android":"levelo://app?vid=24672097-0346-458d-9415-f42c4933caac","ios":"levelo://app?vid=24672097-0346-458d-9415-f42c4933caac"},"vehicle_type_id":"4","last_reported":1762614517,"current_range_meters":4800,"station_id":"","pricing_plan_id":"cebpf4jnsgd1na2vs0mg"},{"bike_id":"d12b8752-954b-45e3-880e-f29555ff79b1","system_id":"levelo_inurba_marseille","lat":43.27416,"lon":5.39434,"is_reserved":false,"is_disabled":false,"rental_uris":{"android":"levelo://app?vid=d12b8752-954b-45e3-880e-f29555ff79b1","ios":"levelo://app?vid=d12b8752-954b-45e3-880e-f29555ff79b1"},"vehicle_type_id":"4","last_reported":1762614517,"current_range_meters":4800,"station_id":"ce4bhdp2rcd13ifvqf20","pricing_plan_id":"cebpf4jnsgd1na2vs0mg"},{"bike_id":"0aced166-b6b9-4109-93a4-6f8be3194744","system_id":"levelo_inurba_marseille","lat":43.2742,"lon":5.39419,"is_reserved":false,"is_disabled":false,"rental_uris":{"android":"levelo://app?vid=0aced166-b6b9-4109-93a4-6f8be3194744","ios":"levelo://app?vid=0aced166-b6b9-4109-93a4-6f8be3194744"},"vehicle_type_id":"4","last_reported":1762614517,"current_range_meters":5600,"station_id":"ce4bhdp2rcd13ifvqf20","pricing_plan_id":"cebpf4jnsgd1na2vs0mg"},{"bike_id":"025c2ed5-6ff8-4f69-ab72-d11ef863fd93","system_id":"levelo_inurba_marseille","lat":43.265472,"lon":5.372884,"is_reserved":false,"is_disabled":false,"rental_uris":{"android":"levelo://app?vid=025c2ed5-6ff8-4f69-ab72-d11ef863fd93","ios":"levelo://app?vid=025c2ed5-6ff8-4f69-ab72-d11ef863fd93"},"vehicle_type_id":"4","last_reported":1762614517,"current_range_meters":5600,"station_id":"ce4bhg12rcd13ifvqf70","pricing_plan_id":"cebpf4jnsgd1na2vs0mg"},{"bike_id":"05c639a2-6660-40ed-a12f-85b485fe188e","system_id":"levelo_inurba_marseille","lat":43.29215,"lon":5.35771,"is_reserved":false,"is_disabled":false,"rental_uris":{"android":"levelo://app?vid=05c639a2-6660-40ed-a12f-85b485fe188e","ios":"levelo://app?vid=05c639a2-6660-40ed-a12f-85b485fe188e"},"vehicle_type_id":"4","last_reported":1762614517,"current_range_meters":5600,"station_id":"ce4bhb12rcd13ifvqel0","pricing_plan_id":"cebpf4jnsgd1na2vs0mg"},{"bike_id":"acdc7342-c1a6-4a70-b129-b9cf7ad80643","system_id":"levelo_inurba_marseille","lat":43.21203,"lon":5.3507,"is_reserved":false,"is_disabled":false,"rental_uris":{"android":"levelo://app?vid=acdc7342-c1a6-4a70-b129-b9cf7ad80643","ios":"levelo://app?vid=acdc7342-c1a6-4a70-b129-b9cf7ad80643"},"vehicle_type_id":"4","last_reported":1762614517,"current_range_meters":5600,"station_id":"st_cvj6sg6p6f1abm77japg","pricing_plan_id":"cebpf4jnsgd1na2vs0mg"},{"bike_id":"964c6a1d-247c-49b9-bc4d-13e9e5309efe","system_id":"levelo_inurba_marseille","lat":43.30788,"lon":5.43528,"is_reserved":false,"is_disabled":false,"rental_uris":{"android":"levelo://app?vid=964c6a1d-247c-49b9-bc4d-13e9e5309efe","ios":"levelo://app?vid=964c6a1d-247c-49b9-bc4d-13e9e5309efe"},"vehicle_type_id":"4","last_reported":1762614517,"current_range_meters":5600,"station_id":"","pricing_plan_id":"cebpf4jnsgd1na2vs0mg"},{"bike_id":"b45f3418-201e-4084-b18d-fa92bad7c84d","system_id":"levelo_inurba_marseille","lat":43.260639,"lon":5.393989,"is_reserved":false,"is_disabled":false,"rental_uris":{"android":"levelo://app?vid=b45f3418-201e-4084-b18d-fa92bad7c84d","ios":"levelo://app?vid=b45f3418-201e-4084-b18d-fa92bad7c84d"},"vehicle_type_id":"4","last_reported":1762614517,"current_range_meters":5600,"station_id":"ce4bhh92rcd13ifvqfj0","pricing_plan_id":"cebpf4jnsgd1na2vs0mg"},{"bike_id":"ef420d4e-14a0-4397-aa11-b59f57744e5f","system_id":"levelo_inurba_marseille","lat":43.30953,"lon":5.39026,"is_reserved":false,"is_disabled":false,"rental_uris":{"android":"levelo://app?vid=ef420d4e-14a0-4397-aa11-b59f57744e5f","ios":"levelo://app?vid=ef420d4e-14a0-4397-aa11-b59f57744e5f"},"vehicle_type_id":"4","last_reported":1762614517,"current_range_meters":6000,"station_id":"ce4bgup2rcd13ifvqco0","pricing_plan_id":"cebpf4jnsgd1na2vs0mg"},{"bike_id":"304c1874-1c0b-43d3-9d73-5feb177e6ec4","system_id":"levelo_inurba_marseille","lat":43.21748,"lon":5.34606,"is_reserved":false,"is_disabled":false,"rental_uris":{"android":"levelo://app?vid=304c1874-1c0b-43d3-9d73-5feb177e6ec4","ios":"levelo://app?vid=304c1874-1c0b-43d3-9d73-5feb177e6ec4"},"vehicle_type_id":"4","last_reported":1762614517,"current_range_meters":6000,"station_id":"st_cvj6r9ubvosntc0bgbag","pricing_plan_id":"cebpf4jnsgd1na2vs0mg"},{"bike_id":"ef2fe57e-ecba-4765-96d3-8349654ec56e","system_id":"levelo_inurba_marseille","lat":43.32908,"lon":5.3644,"is_reserved":false,"is_disabled":false,"rental_uris":{"android":"levelo://app?vid=ef2fe57e-ecba-4765-96d3-8349654ec56e","ios":"levelo://app?vid=ef2fe57e-ecba-4765-96d3-8349654ec56e"},"vehicle_type_id":"4","last_reported":1762614517,"current_range_meters":6000,"station_id":"","pricing_plan_id":"cebpf4jnsgd1na2vs0mg"},{"bike_id":"8b9c9ec7-7634-4ac7-bc7c-5eaf86a7cc5b","system_id":"levelo_inurba_marseille","lat":43.2417,"lon":5.36406,"is_reserved":false,"is_disabled":false,"rental_uris":{"android":"levelo://app?vid=8b9c9ec7-7634-4ac7-bc7c-5eaf86a7cc5b","ios":"levelo://app?vid=8b9c9ec7-7634-4ac7-bc7c-5eaf86a7cc5b"},"vehicle_type_id":"4","last_reported":1762614517,"current_range_meters":6000,"station_id":"cpo36qri1sfpv3e86is0","pricing_plan_id":"cebpf4jnsgd1na2vs0mg"},{"bike_id":"9e2f7aa7-c8b5-4cb9-8c65-afa6e509f91c","system_id":"levelo_inurba_marseille","lat":43.27429,"lon":5.39421,"is_reserved":false,"is_disabled":false,"rental_uris":{"android":"levelo://app?vid=9e2f7aa7-c8b5-4cb9-8c65-afa6e509f91c","ios":"levelo://app?vid=9e2f7aa7-c8b5-4cb9-8c65-afa6e509f91c"},"vehicle_type_id":"4","last_reported":1762614517,"current_range_meters":6000,"station_id":"ce4bhdp2rcd13ifvqf20","pricing_plan_id":"cebpf4jnsgd1na2vs0mg"},{"bike_id":"255c3c43-68fe-4811-86ca-ba8679272ea0","system_id":"levelo_inurba_marseille","lat":43.3148,"lon":5.37312,"is_reserved":false,"is_disabled":false,"rental_uris":{"android":"levelo://app?vid=255c3c43-68fe-4811-86ca-ba8679272ea0","ios":"levelo://app?vid=255c3c43-68fe-4811-86ca-ba8679272ea0"},"vehicle_type_id":"4","last_reported":1762614517,"current_range_meters":6000,"station_id":"ce4bgt12rcd13ifvqcd0","pricing_plan_id":"cebpf4jnsgd1na2vs0mg"},{"bike_id":"eb24abaa-42f8-4aa2-877a-ad1372d28e2a","system_id":"levelo_inurba_marseille","lat":43.21192,"lon":5.35074,"is_reserved":false,"is_disabled":false,"rental_uris":{"android":"levelo://app?vid=eb24abaa-42f8-4aa2-877a-ad1372d28e2a","ios":"levelo://app?vid=eb24abaa-42f8-4aa2-877a-ad1372d28e2a"},"vehicle_type_id":"4","last_reported":1762614517,"current_range_meters":6400,"station_id":"st_cvj6sg6p6f1abm77japg","pricing_plan_id":"cebpf4jnsgd1na2vs0mg"},{"bike_id":"3d1a1313-f29e-4572-805f-f02b3d431d76","system_id":"levelo_inurba_marseille","lat":43.31704,"lon":5.37787,"is_reserved":false,"is_disabled":false,"rental_uris":{"android":"levelo://app?vid=3d1a1313-f29e-4572-805f-f02b3d431d76","ios":"levelo://app?vid=3d1a1313-f29e-4572-805f-f02b3d431d76"},"vehicle_type_id":"4","last_reported":1762614517,"current_range_meters":6400,"station_id":"ce4bgth2rcd13ifvqch0","pricing_plan_id":"cebpf4jnsgd1na2vs0mg"},{"bike_id":"81fba564-5a80-4ca2-a4fa-72b9642af774","system_id":"levelo_inurba_marseille","lat":43.27314,"lon":5.39077,"is_reserved":false,"is_disabled":false,"rental_uris":{"android":"levelo://app?vid=81fba564-5a80-4ca2-a4fa-72b9642af774","ios":"levelo://app?vid=81fba564-5a80-4ca2-a4fa-72b9642af774"},"vehicle_type_id":"4","last_reported":1762614517,"current_range_meters":6400,"station_id":"ce4bhgp2rcd13ifvqfe0","pricing_plan_id":"cebpf4jnsgd1na2vs0mg"},{"bike_id":"2eae405b-34ac-4d47-9b8c-ff9c2328e1ef","system_id":"levelo_inurba_marseille","lat":43.30427,"lon":5.41285,"is_reserved":false,"is_disabled":false,"rental_uris":{"android":"levelo://app?vid=2eae405b-34ac-4d47-9b8c-ff9c2328e1ef","ios":"levelo://app?vid=2eae405b-34ac-4d47-9b8c-ff9c2328e1ef"},"vehicle_type_id":"4","last_reported":1762614517,"current_range_meters":6400,"station_id":"ce4bhop2rcd13ifvqh8g","pricing_plan_id":"cebpf4jnsgd1na2vs0mg"},{"bike_id":"e55be07c-8b9d-48bd-b652-925bdd623b93","system_id":"levelo_inurba_marseille","lat":43.31071,"lon":5.38351,"is_reserved":false,"is_disabled":false,"rental_uris":{"android":"levelo://app?vid=e55be07c-8b9d-48bd-b652-925bdd623b93","ios":"levelo://app?vid=e55be07c-8b9d-48bd-b652-925bdd623b93"},"vehicle_type_id":"4","last_reported":1762614517,"current_range_meters":6400,"station_id":"ce4bgv92rcd13ifvqcr0","pricing_plan_id":"cebpf4jnsgd1na2vs0mg"},{"bike_id":"d634018d-5853-4ffd-882c-1ac07b5ec247","system_id":"levelo_inurba_marseille","lat":43.281562,"lon":5.426374,"is_reserved":false,"is_disabled":false,"rental_uris":{"android":"levelo://app?vid=d634018d-5853-4ffd-882c-1ac07b5ec247","ios":"levelo://app?vid=d634018d-5853-4ffd-882c-1ac07b5ec247"},"vehicle_type_id":"4","last_reported":1762614517,"current_range_meters":6400,"station_id":"ce4bhnh2rcd13ifvqgug","pricing_plan_id":"cebpf4jnsgd1na2vs0mg"},{"bike_id":"0832617e-ddef-4c1b-a8f8-d54bec24b73f","system_id":"levelo_inurba_marseille","lat":43.23194,"lon":5.35556,"is_reserved":false,"is_disabled":false,"rental_uris":{"android":"levelo://app?vid=0832617e-ddef-4c1b-a8f8-d54bec24b73f","ios":"levelo://app?vid=0832617e-ddef-4c1b-a8f8-d54bec24b73f"},"vehicle_type_id":"4","last_reported":1762614517,"current_range_meters":6400,"station_id":"ce4bhu92rcd13ifvqi70","pricing_plan_id":"cebpf4jnsgd1na2vs0mg"},{"bike_id":"a9a49f79-f15f-44d4-9670-d27c00fde964","system_id":"levelo_inurba_marseille","lat":43.29601,"lon":5.38102,"is_reserved":false,"is_disabled":false,"rental_uris":{"android":"levelo://app?vid=a9a49f79-f15f-44d4-9670-d27c00fde964","ios":"levelo://app?vid=a9a49f79-f15f-44d4-9670-d27c00fde964"},"vehicle_type_id":"4","last_reported":1762614517,"current_range_meters":6400,"station_id":"ce4bgl12rcd13ifvqbo0","pricing_plan_id":"cebpf4jnsgd1na2vs0mg"},{"bike_id":"5d63f2aa-8446-4f1d-92da-1e2d5b4a6cc8","system_id":"levelo_inurba_marseille","lat":43.2972,"lon":5.37724,"is_reserved":false,"is_disabled":false,"rental_uris":{"android":"levelo://app?vid=5d63f2aa-8446-4f1d-92da-1e2d5b4a6cc8","ios":"levelo://app?vid=5d63f2aa-8446-4f1d-92da-1e2d5b4a6cc8"},"vehicle_type_id":"4","last_reported":1762614517,"current_range_meters":6800,"station_id":"ce4bgkh2rcd13ifvqbl0","pricing_plan_id":"cebpf4jnsgd1na2vs0mg"},{"bike_id":"f082f9f2-dcbd-4744-ae5a-9dc05c154bbc","system_id":"levelo_inurba_marseille","lat":43.27987,"lon":5.41661,"is_reserved":false,"is_disabled":false,"rental_uris":{"android":"levelo://app?vid=f082f9f2-dcbd-4744-ae5a-9dc05c154bbc","ios":"levelo://app?vid=f082f9f2-dcbd-4744-ae5a-9dc05c154bbc"},"vehicle_type_id":"4","last_reported":1762614517,"current_range_meters":6800,"station_id":"ce4bho12rcd13ifvqh1g","pricing_plan_id":"cebpf4jnsgd1na2vs0mg"},{"bike_id":"711b5184-06a1-46c6-b1ad-270408b914a4","system_id":"levelo_inurba_marseille","lat":43.29974,"lon":5.40972,"is_reserved":false,"is_disabled":false,"rental_uris":{"android":"levelo://app?vid=711b5184-06a1-46c6-b1ad-270408b914a4","ios":"levelo://app?vid=711b5184-06a1-46c6-b1ad-270408b914a4"},"vehicle_type_id":"4","last_reported":1762614517,"current_range_meters":6800,"station_id":"","pricing_plan_id":"cebpf4jnsgd1na2vs0mg"},{"bike_id":"e8ff1377-f94a-4cb4-8f7d-616903bb14ea","system_id":"levelo_inurba_marseille","lat":43.25707,"lon":5.41119,"is_reserved":false,"is_disabled":false,"rental_uris":{"android":"levelo://app?vid=e8ff1377-f94a-4cb4-8f7d-616903bb14ea","ios":"levelo://app?vid=e8ff1377-f94a-4cb4-8f7d-616903bb14ea"},"vehicle_type_id":"4","last_reported":1762614517,"current_range_meters":6800,"station_id":"ce4bhkp2rcd13ifvqgd0","pricing_plan_id":"cebpf4jnsgd1na2vs0mg"},{"bike_id":"39a36712-f117-43ef-8073-6473c06f9b6c","system_id":"levelo_inurba_marseille","lat":43.29524,"lon":5.39396,"is_reserved":false,"is_disabled":false,"rental_uris":{"android":"levelo://app?vid=39a36712-f117-43ef-8073-6473c06f9b6c","ios":"levelo://app?vid=39a36712-f117-43ef-8073-6473c06f9b6c"},"vehicle_type_id":"4","last_reported":1762614517,"current_range_meters":6800,"station_id":"ce4bh292rcd13ifvqdf0","pricing_plan_id":"cebpf4jnsgd1na2vs0mg"},{"bike_id":"8abdb203-4508-46f7-8ad2-4894a4248d2d","system_id":"levelo_inurba_marseille","lat":43.24647,"lon":5.3889,"is_reserved":false,"is_disabled":false,"rental_uris":{"android":"levelo://app?vid=8abdb203-4508-46f7-8ad2-4894a4248d2d","ios":"levelo://app?vid=8abdb203-4508-46f7-8ad2-4894a4248d2d"},"vehicle_type_id":"4","last_reported":1762614517,"current_range_meters":6800,"station_id":"ce4bhg12rcd13ifvqf60","pricing_plan_id":"cebpf4jnsgd1na2vs0mg"},{"bike_id":"6580beb2-f281-473f-9ef4-7b331653ef2e","system_id":"levelo_inurba_marseille","lat":43.29118,"lon":5.40805,"is_reserved":false,"is_disabled":false,"rental_uris":{"android":"levelo://app?vid=6580beb2-f281-473f-9ef4-7b331653ef2e","ios":"levelo://app?vid=6580beb2-f281-473f-9ef4-7b331653ef2e"},"vehicle_type_id":"4","last_reported":1762614517,"current_range_meters":6800,"station_id":"","pricing_plan_id":"cebpf4jnsgd1na2vs0mg"},{"bike_id":"bb69deab-4490-4567-b7df-dcc608f95d5b","system_id":"levelo_inurba_marseille","lat":43.3096,"lon":5.39033,"is_reserved":false,"is_disabled":false,"rental_uris":{"android":"levelo://app?vid=bb69deab-4490-4567-b7df-dcc608f95d5b","ios":"levelo://app?vid=bb69deab-4490-4567-b7df-dcc608f95d5b"},"vehicle_type_id":"4","last_reported":1762614517,"current_range_meters":6800,"station_id":"ce4bgup2rcd13ifvqco0","pricing_plan_id":"cebpf4jnsgd1na2vs0mg"},{"bike_id":"348bf609-07f6-4ffc-add0-6df7615d023f","system_id":"levelo_inurba_marseille","lat":43.337669,"lon":5.37438,"is_reserved":false,"is_disabled":false,"rental_uris":{"android":"levelo://app?vid=348bf609-07f6-4ffc-add0-6df7615d023f","ios":"levelo://app?vid=348bf609-07f6-4ffc-add0-6df7615d023f"},"vehicle_type_id":"4","last_reported":1762614517,"current_range_meters":6800,"station_id":"","pricing_plan_id":"cebpf4jnsgd1na2vs0mg"},{"bike_id":"ed910118-6923-4519-a18e-7b0047825794","system_id":"levelo_inurba_marseille","lat":43.30911,"lon":5.36842,"is_reserved":false,"is_disabled":false,"rental_uris":{"android":"levelo://app?vid=ed910118-6923-4519-a18e-7b0047825794","ios":"levelo://app?vid=ed910118-6923-4519-a18e-7b0047825794"},"vehicle_type_id":"4","last_reported":1762614517,"current_range_meters":6800,"station_id":"ce4bgn92rcd13ifvqbvg","pricing_plan_id":"cebpf4jnsgd1na2vs0mg"},{"bike_id":"cacc9b70-1010-44d1-bcdc-e192040ed3a2","system_id":"levelo_inurba_marseille","lat":43.30728,"lon":5.42448,"is_reserved":false,"is_disabled":false,"rental_uris":{"android":"levelo://app?vid=cacc9b70-1010-44d1-bcdc-e192040ed3a2","ios":"levelo://app?vid=cacc9b70-1010-44d1-bcdc-e192040ed3a2"},"vehicle_type_id":"4","last_reported":1762614517,"current_range_meters":6800,"station_id":"st_cvj6ca6bvosntc0bfgr0","pricing_plan_id":"cebpf4jnsgd1na2vs0mg"},{"bike_id":"c687f5b8-73fc-4bba-bdba-8dae557f7ae6","system_id":"levelo_inurba_marseille","lat":43.27382,"lon":5.36257,"is_reserved":false,"is_disabled":true,"rental_uris":{"android":"levelo://app?vid=c687f5b8-73fc-4bba-bdba-8dae557f7ae6","ios":"levelo://app?vid=c687f5b8-73fc-4bba-bdba-8dae557f7ae6"},"vehicle_type_id":"4","last_reported":1762614517,"current_range_meters":7200,"station_id":"ce4bhbh2rcd13ifvqeo0","pricing_plan_id":"cebpf4jnsgd1na2vs0mg"},{"bike_id":"b19a75e3-67b9-465b-9cb8-019d3f949083","system_id":"levelo_inurba_marseille","lat":43.31062,"lon":5.38357,"is_reserved":false,"is_disabled":false,"rental_uris":{"android":"levelo://app?vid=b19a75e3-67b9-465b-9cb8-019d3f949083","ios":"levelo://app?vid=b19a75e3-67b9-465b-9cb8-019d3f949083"},"vehicle_type_id":"4","last_reported":1762614517,"current_range_meters":7200,"station_id":"ce4bgv92rcd13ifvqcr0","pricing_plan_id":"cebpf4jnsgd1na2vs0mg"},{"bike_id":"34c14480-831b-41a9-b30b-a1e8f994a110","system_id":"levelo_inurba_marseille","lat":43.30818,"lon":5.37129,"is_reserved":false,"is_disabled":false,"rental_uris":{"android":"levelo://app?vid=34c14480-831b-41a9-b30b-a1e8f994a110","ios":"levelo://app?vid=34c14480-831b-41a9-b30b-a1e8f994a110"},"vehicle_type_id":"4","last_reported":1762614517,"current_range_meters":7200,"station_id":"","pricing_plan_id":"cebpf4jnsgd1na2vs0mg"},{"bike_id":"9011c8ec-4ace-46f7-a123-2b07d62ffd7b","system_id":"levelo_inurba_marseille","lat":43.211912,"lon":5.350692,"is_reserved":false,"is_disabled":false,"rental_uris":{"android":"levelo://app?vid=9011c8ec-4ace-46f7-a123-2b07d62ffd7b","ios":"levelo://app?vid=9011c8ec-4ace-46f7-a123-2b07d62ffd7b"},"vehicle_type_id":"4","last_reported":1762614517,"current_range_meters":7200,"station_id":"","pricing_plan_id":"cebpf4jnsgd1na2vs0mg"},{"bike_id":"921b7ea3-d8c3-41c5-9305-5343cae22c93","system_id":"levelo_inurba_marseille","lat":43.288579,"lon":5.358542,"is_reserved":false,"is_disabled":false,"rental_uris":{"android":"levelo://app?vid=921b7ea3-d8c3-41c5-9305-5343cae22c93","ios":"levelo://app?vid=921b7ea3-d8c3-41c5-9305-5343cae22c93"},"vehicle_type_id":"4","last_reported":1762614517,"current_range_meters":7200,"station_id":"ce4bhb12rcd13ifvqem0","pricing_plan_id":"cebpf4jnsgd1na2vs0mg"},{"bike_id":"298cb97d-e024-49e9-9b0a-337d0ac27387","system_id":"levelo_inurba_marseille","lat":43.27426,"lon":5.39426,"is_reserved":false,"is_disabled":false,"rental_uris":{"android":"levelo://app?vid=298cb97d-e024-49e9-9b0a-337d0ac27387","ios":"levelo://app?vid=298cb97d-e024-49e9-9b0a-337d0ac27387"},"vehicle_type_id":"4","last_reported":1762614517,"current_range_meters":7200,"station_id":"ce4bhdp2rcd13ifvqf20","pricing_plan_id":"cebpf4jnsgd1na2vs0mg"},{"bike_id":"22cf9554-457f-4517-9aa6-bf39d1734cba","system_id":"levelo_inurba_marseille","lat":43.305513,"lon":5.365553,"is_reserved":false,"is_disabled":false,"rental_uris":{"android":"levelo://app?vid=22cf9554-457f-4517-9aa6-bf39d1734cba","ios":"levelo://app?vid=22cf9554-457f-4517-9aa6-bf39d1734cba"},"vehicle_type_id":"4","last_reported":1762614517,"current_range_meters":7200,"station_id":"","pricing_plan_id":"cebpf4jnsgd1na2vs0mg"},{"bike_id":"38de563f-91cb-43fb-97b6-bc0dd765b8b5","system_id":"levelo_inurba_marseille","lat":43.27177,"lon":5.39192,"is_reserved":false,"is_disabled":false,"rental_uris":{"android":"levelo://app?vid=38de563f-91cb-43fb-97b6-bc0dd765b8b5","ios":"levelo://app?vid=38de563f-91cb-43fb-97b6-bc0dd765b8b5"},"vehicle_type_id":"4","last_reported":1762614517,"current_range_meters":7200,"station_id":"ce4bhhp2rcd13ifvqfm0","pricing_plan_id":"cebpf4jnsgd1na2vs0mg"},{"bike_id":"7c392732-2900-41fd-8c6d-e5b49cdf67b5","system_id":"levelo_inurba_marseille","lat":43.29715,"lon":5.38257,"is_reserved":false,"is_disabled":false,"rental_uris":{"android":"levelo://app?vid=7c392732-2900-41fd-8c6d-e5b49cdf67b5","ios":"levelo://app?vid=7c392732-2900-41fd-8c6d-e5b49cdf67b5"},"vehicle_type_id":"4","last_reported":1762614517,"current_range_meters":8000,"station_id":"","pricing_plan_id":"cebpf4jnsgd1na2vs0mg"},{"bike_id":"2120e0fc-6a1a-4fed-9285-b22f78dc6ede","system_id":"levelo_inurba_marseille","lat":43.28496,"lon":5.38583,"is_reserved":false,"is_disabled":false,"rental_uris":{"android":"levelo://app?vid=2120e0fc-6a1a-4fed-9285-b22f78dc6ede","ios":"levelo://app?vid=2120e0fc-6a1a-4fed-9285-b22f78dc6ede"},"vehicle_type_id":"4","last_reported":1762614517,"current_range_meters":8000,"station_id":"ce4bh8p2rcd13ifvqeb0","pricing_plan_id":"cebpf4jnsgd1na2vs0mg"},{"bike_id":"900a44b4-5b7a-426c-8937-9915fa286279","system_id":"levelo_inurba_marseille","lat":43.22552,"lon":5.416371,"is_reserved":false,"is_disabled":false,"rental_uris":{"android":"levelo://app?vid=900a44b4-5b7a-426c-8937-9915fa286279","ios":"levelo://app?vid=900a44b4-5b7a-426c-8937-9915fa286279"},"vehicle_type_id":"4","last_reported":1762614517,"current_range_meters":8000,"station_id":"st_d2o4gvlbi1j2169b742g","pricing_plan_id":"cebpf4jnsgd1na2vs0mg"},{"bike_id":"a871c7c5-9100-44da-a7e8-d2a44ef0ec29","system_id":"levelo_inurba_marseille","lat":43.25002,"lon":5.3893,"is_reserved":false,"is_disabled":false,"rental_uris":{"android":"levelo://app?vid=a871c7c5-9100-44da-a7e8-d2a44ef0ec29","ios":"levelo://app?vid=a871c7c5-9100-44da-a7e8-d2a44ef0ec29"},"vehicle_type_id":"4","last_reported":1762614517,"current_range_meters":8000,"station_id":"ce4bhgp2rcd13ifvqfd0","pricing_plan_id":"cebpf4jnsgd1na2vs0mg"},{"bike_id":"bc039d18-7e72-458f-bafa-32939dfbb741","system_id":"levelo_inurba_marseille","lat":43.22572,"lon":5.41646,"is_reserved":false,"is_disabled":false,"rental_uris":{"android":"levelo://app?vid=bc039d18-7e72-458f-bafa-32939dfbb741","ios":"levelo://app?vid=bc039d18-7e72-458f-bafa-32939dfbb741"},"vehicle_type_id":"4","last_reported":1762614517,"current_range_meters":8000,"station_id":"st_d2o4gvlbi1j2169b742g","pricing_plan_id":"cebpf4jnsgd1na2vs0mg"},{"bike_id":"78bd5f74-b07f-4aac-b566-26ecec6fd5df","system_id":"levelo_inurba_marseille","lat":43.30683,"lon":5.38041,"is_reserved":false,"is_disabled":false,"rental_uris":{"android":"levelo://app?vid=78bd5f74-b07f-4aac-b566-26ecec6fd5df","ios":"levelo://app?vid=78bd5f74-b07f-4aac-b566-26ecec6fd5df"},"vehicle_type_id":"4","last_reported":1762614517,"current_range_meters":8000,"station_id":"","pricing_plan_id":"cebpf4jnsgd1na2vs0mg"},{"bike_id":"082e90a5-5489-47da-8a63-13c21d1296f6","system_id":"levelo_inurba_marseille","lat":43.31711,"lon":5.43709,"is_reserved":false,"is_disabled":false,"rental_uris":{"android":"levelo://app?vid=082e90a5-5489-47da-8a63-13c21d1296f6","ios":"levelo://app?vid=082e90a5-5489-47da-8a63-13c21d1296f6"},"vehicle_type_id":"4","last_reported":1762614517,"current_range_meters":8000,"station_id":"ce4bhp92rcd13ifvqhcg","pricing_plan_id":"cebpf4jnsgd1na2vs0mg"},{"bike_id":"5bee8f0f-57fe-4257-a72a-04a4967570b5","system_id":"levelo_inurba_marseille","lat":43.30058,"lon":5.377,"is_reserved":false,"is_disabled":false,"rental_uris":{"android":"levelo://app?vid=5bee8f0f-57fe-4257-a72a-04a4967570b5","ios":"levelo://app?vid=5bee8f0f-57fe-4257-a72a-04a4967570b5"},"vehicle_type_id":"4","last_reported":1762614517,"current_range_meters":8000,"station_id":"","pricing_plan_id":"cebpf4jnsgd1na2vs0mg"},{"bike_id":"5c17ed12-8897-4f84-bbfc-85419a7f8038","system_id":"levelo_inurba_marseille","lat":43.27099,"lon":5.39478,"is_reserved":false,"is_disabled":false,"rental_uris":{"android":"levelo://app?vid=5c17ed12-8897-4f84-bbfc-85419a7f8038","ios":"levelo://app?vid=5c17ed12-8897-4f84-bbfc-85419a7f8038"},"vehicle_type_id":"4","last_reported":1762614517,"current_range_meters":8400,"station_id":"","pricing_plan_id":"cebpf4jnsgd1na2vs0mg"},{"bike_id":"7d74f096-4f38-4c7b-9c2e-240b92573ea4","system_id":"levelo_inurba_marseille","lat":43.29935,"lon":5.36543,"is_reserved":false,"is_disabled":false,"rental_uris":{"android":"levelo://app?vid=7d74f096-4f38-4c7b-9c2e-240b92573ea4","ios":"levelo://app?vid=7d74f096-4f38-4c7b-9c2e-240b92573ea4"},"vehicle_type_id":"4","last_reported":1762614517,"current_range_meters":8400,"station_id":"ce4bgm92rcd13ifvqbr0","pricing_plan_id":"cebpf4jnsgd1na2vs0mg"},{"bike_id":"790402cf-46a0-4fd7-90d6-ead78c098a14","system_id":"levelo_inurba_marseille","lat":43.25725,"lon":5.41109,"is_reserved":false,"is_disabled":false,"rental_uris":{"android":"levelo://app?vid=790402cf-46a0-4fd7-90d6-ead78c098a14","ios":"levelo://app?vid=790402cf-46a0-4fd7-90d6-ead78c098a14"},"vehicle_type_id":"4","last_reported":1762614517,"current_range_meters":8400,"station_id":"ce4bhkp2rcd13ifvqgd0","pricing_plan_id":"cebpf4jnsgd1na2vs0mg"},{"bike_id":"a0ea519d-554f-42a0-93a3-d4c181552c78","system_id":"levelo_inurba_marseille","lat":43.31275,"lon":5.37766,"is_reserved":false,"is_disabled":false,"rental_uris":{"android":"levelo://app?vid=a0ea519d-554f-42a0-93a3-d4c181552c78","ios":"levelo://app?vid=a0ea519d-554f-42a0-93a3-d4c181552c78"},"vehicle_type_id":"4","last_reported":1762614517,"current_range_meters":8400,"station_id":"","pricing_plan_id":"cebpf4jnsgd1na2vs0mg"},{"bike_id":"3a6b939b-8483-4a00-8652-d825cdd856d7","system_id":"levelo_inurba_marseille","lat":43.22546,"lon":5.41627,"is_reserved":false,"is_disabled":false,"rental_uris":{"android":"levelo://app?vid=3a6b939b-8483-4a00-8652-d825cdd856d7","ios":"levelo://app?vid=3a6b939b-8483-4a00-8652-d825cdd856d7"},"vehicle_type_id":"4","last_reported":1762614517,"current_range_meters":8400,"station_id":"st_d2o4gvlbi1j2169b742g","pricing_plan_id":"cebpf4jnsgd1na2vs0mg"},{"bike_id":"22918fb7-a391-4f35-8c21-8eb60e2ab03f","system_id":"levelo_inurba_marseille","lat":43.22566,"lon":5.41632,"is_reserved":false,"is_disabled":false,"rental_uris":{"android":"levelo://app?vid=22918fb7-a391-4f35-8c21-8eb60e2ab03f","ios":"levelo://app?vid=22918fb7-a391-4f35-8c21-8eb60e2ab03f"},"vehicle_type_id":"4","last_reported":1762614517,"current_range_meters":8800,"station_id":"st_d2o4gvlbi1j2169b742g","pricing_plan_id":"cebpf4jnsgd1na2vs0mg"},{"bike_id":"94be7253-06cd-481c-b6e7-5ff7dd8ad000","system_id":"levelo_inurba_marseille","lat":43.30145,"lon":5.38067,"is_reserved":false,"is_disabled":false,"rental_uris":{"android":"levelo://app?vid=94be7253-06cd-481c-b6e7-5ff7dd8ad000","ios":"levelo://app?vid=94be7253-06cd-481c-b6e7-5ff7dd8ad000"},"vehicle_type_id":"4","last_reported":1762614517,"current_range_meters":8800,"station_id":"ce4bgjp2rcd13ifvqbh0","pricing_plan_id":"cebpf4jnsgd1na2vs0mg"},{"bike_id":"f0251f2d-82d3-4cfa-b915-f8b479f87a94","system_id":"levelo_inurba_marseille","lat":43.28079,"lon":5.39662,"is_reserved":false,"is_disabled":false,"rental_uris":{"android":"levelo://app?vid=f0251f2d-82d3-4cfa-b915-f8b479f87a94","ios":"levelo://app?vid=f0251f2d-82d3-4cfa-b915-f8b479f87a94"},"vehicle_type_id":"4","last_reported":1762614517,"current_range_meters":8800,"station_id":"ce4bho12rcd13ifvqh2g","pricing_plan_id":"cebpf4jnsgd1na2vs0mg"},{"bike_id":"c563cfba-5317-4808-88d8-c5ea7e7469eb","system_id":"levelo_inurba_marseille","lat":43.21204,"lon":5.35073,"is_reserved":false,"is_disabled":false,"rental_uris":{"android":"levelo://app?vid=c563cfba-5317-4808-88d8-c5ea7e7469eb","ios":"levelo://app?vid=c563cfba-5317-4808-88d8-c5ea7e7469eb"},"vehicle_type_id":"4","last_reported":1762614517,"current_range_meters":8800,"station_id":"st_cvj6sg6p6f1abm77japg","pricing_plan_id":"cebpf4jnsgd1na2vs0mg"},{"bike_id":"5c7bb8b1-9e87-4d36-9f05-cec8501adac2","system_id":"levelo_inurba_marseille","lat":43.27915,"lon":5.41353,"is_reserved":false,"is_disabled":false,"rental_uris":{"android":"levelo://app?vid=5c7bb8b1-9e87-4d36-9f05-cec8501adac2","ios":"levelo://app?vid=5c7bb8b1-9e87-4d36-9f05-cec8501adac2"},"vehicle_type_id":"4","last_reported":1762614517,"current_range_meters":9200,"station_id":"","pricing_plan_id":"cebpf4jnsgd1na2vs0mg"},{"bike_id":"51745a51-50e9-47ca-ad15-16aec392764a","system_id":"levelo_inurba_marseille","lat":43.30792,"lon":5.4353,"is_reserved":false,"is_disabled":false,"rental_uris":{"android":"levelo://app?vid=51745a51-50e9-47ca-ad15-16aec392764a","ios":"levelo://app?vid=51745a51-50e9-47ca-ad15-16aec392764a"},"vehicle_type_id":"4","last_reported":1762614517,"current_range_meters":9200,"station_id":"","pricing_plan_id":"cebpf4jnsgd1na2vs0mg"},{"bike_id":"a5e41b67-cb28-43ca-9358-fc2bf1d4caff","system_id":"levelo_inurba_marseille","lat":43.29758,"lon":5.42782,"is_reserved":false,"is_disabled":false,"rental_uris":{"android":"levelo://app?vid=a5e41b67-cb28-43ca-9358-fc2bf1d4caff","ios":"levelo://app?vid=a5e41b67-cb28-43ca-9358-fc2bf1d4caff"},"vehicle_type_id":"4","last_reported":1762614517,"current_range_meters":9200,"station_id":"st_d3md5207bmas73dh9klg","pricing_plan_id":"cebpf4jnsgd1na2vs0mg"},{"bike_id":"42568764-9907-48a7-96ef-3041b6aa4ab5","system_id":"levelo_inurba_marseille","lat":43.27327,"lon":5.390727,"is_reserved":false,"is_disabled":false,"rental_uris":{"android":"levelo://app?vid=42568764-9907-48a7-96ef-3041b6aa4ab5","ios":"levelo://app?vid=42568764-9907-48a7-96ef-3041b6aa4ab5"},"vehicle_type_id":"4","last_reported":1762614517,"current_range_meters":9200,"station_id":"ce4bhgp2rcd13ifvqfe0","pricing_plan_id":"cebpf4jnsgd1na2vs0mg"},{"bike_id":"5a3eefa8-d998-4d2a-a705-59ae8b700494","system_id":"levelo_inurba_marseille","lat":43.25116,"lon":5.40343,"is_reserved":false,"is_disabled":false,"rental_uris":{"android":"levelo://app?vid=5a3eefa8-d998-4d2a-a705-59ae8b700494","ios":"levelo://app?vid=5a3eefa8-d998-4d2a-a705-59ae8b700494"},"vehicle_type_id":"4","last_reported":1762614517,"current_range_meters":9200,"station_id":"ce4bhlh2rcd13ifvqgig","pricing_plan_id":"cebpf4jnsgd1na2vs0mg"},{"bike_id":"310115a0-7bf2-4a4a-9d53-56bf6918e4d0","system_id":"levelo_inurba_marseille","lat":43.28486,"lon":5.48398,"is_reserved":false,"is_disabled":false,"rental_uris":{"android":"levelo://app?vid=310115a0-7bf2-4a4a-9d53-56bf6918e4d0","ios":"levelo://app?vid=310115a0-7bf2-4a4a-9d53-56bf6918e4d0"},"vehicle_type_id":"4","last_reported":1762614517,"current_range_meters":9600,"station_id":"st_d3svhcjqgbts73a3dn0g","pricing_plan_id":"cebpf4jnsgd1na2vs0mg"},{"bike_id":"18485e3b-b836-4eed-8c07-53393c4e5679","system_id":"levelo_inurba_marseille","lat":43.27402,"lon":5.39383,"is_reserved":false,"is_disabled":false,"rental_uris":{"android":"levelo://app?vid=18485e3b-b836-4eed-8c07-53393c4e5679","ios":"levelo://app?vid=18485e3b-b836-4eed-8c07-53393c4e5679"},"vehicle_type_id":"4","last_reported":1762614517,"current_range_meters":9600,"station_id":"ce4bhdp2rcd13ifvqf20","pricing_plan_id":"cebpf4jnsgd1na2vs0mg"},{"bike_id":"676f9b84-4eb4-49d4-bb45-1c4cb446cd66","system_id":"levelo_inurba_marseille","lat":43.33014,"lon":5.39052,"is_reserved":false,"is_disabled":false,"rental_uris":{"android":"levelo://app?vid=676f9b84-4eb4-49d4-bb45-1c4cb446cd66","ios":"levelo://app?vid=676f9b84-4eb4-49d4-bb45-1c4cb446cd66"},"vehicle_type_id":"4","last_reported":1762614517,"current_range_meters":9600,"station_id":"ce4bhr92rcd13ifvqhrg","pricing_plan_id":"cebpf4jnsgd1na2vs0mg"},{"bike_id":"257f1397-6c6d-492f-8746-c5aff7df0349","system_id":"levelo_inurba_marseille","lat":43.3028,"lon":5.3772,"is_reserved":false,"is_disabled":false,"rental_uris":{"android":"levelo://app?vid=257f1397-6c6d-492f-8746-c5aff7df0349","ios":"levelo://app?vid=257f1397-6c6d-492f-8746-c5aff7df0349"},"vehicle_type_id":"4","last_reported":1762614517,"current_range_meters":9600,"station_id":"ce4bguh2rcd13ifvqcj0","pricing_plan_id":"cebpf4jnsgd1na2vs0mg"},{"bike_id":"f1b26a53-5227-432f-b381-f8246ff4387d","system_id":"levelo_inurba_marseille","lat":43.29245,"lon":5.38432,"is_reserved":false,"is_disabled":true,"rental_uris":{"android":"levelo://app?vid=f1b26a53-5227-432f-b381-f8246ff4387d","ios":"levelo://app?vid=f1b26a53-5227-432f-b381-f8246ff4387d"},"vehicle_type_id":"4","last_reported":1762614517,"current_range_meters":10000,"station_id":"ce4bh692rcd13ifvqea0","pricing_plan_id":"cebpf4jnsgd1na2vs0mg"},{"bike_id":"382f597e-181c-4839-b1de-04339df9aa55","system_id":"levelo_inurba_marseille","lat":43.2679,"lon":5.40276,"is_reserved":false,"is_disabled":true,"rental_uris":{"android":"levelo://app?vid=382f597e-181c-4839-b1de-04339df9aa55","ios":"levelo://app?vid=382f597e-181c-4839-b1de-04339df9aa55"},"vehicle_type_id":"4","last_reported":1762614517,"current_range_meters":10000,"station_id":"ce501612rcd8frsf0b60","pricing_plan_id":"cebpf4jnsgd1na2vs0mg"},{"bike_id":"9af0687b-3e79-4e11-b844-dd239618aeba","system_id":"levelo_inurba_marseille","lat":43.28848,"lon":5.42528,"is_reserved":false,"is_disabled":false,"rental_uris":{"android":"levelo://app?vid=9af0687b-3e79-4e11-b844-dd239618aeba","ios":"levelo://app?vid=9af0687b-3e79-4e11-b844-dd239618aeba"},"vehicle_type_id":"4","last_reported":1762614517,"current_range_meters":10000,"station_id":"st_d3b462108ojc7389ooeg","pricing_plan_id":"cebpf4jnsgd1na2vs0mg"},{"bike_id":"26aad628-bd01-4664-890e-ba85447bad9f","system_id":"levelo_inurba_marseille","lat":43.303332,"lon":5.40429,"is_reserved":false,"is_disabled":true,"rental_uris":{"android":"levelo://app?vid=26aad628-bd01-4664-890e-ba85447bad9f","ios":"levelo://app?vid=26aad628-bd01-4664-890e-ba85447bad9f"},"vehicle_type_id":"4","last_reported":1762614517,"current_range_meters":10000,"station_id":"ce4bh012rcd13ifvqd10","pricing_plan_id":"cebpf4jnsgd1na2vs0mg"},{"bike_id":"46748178-17b8-4dc8-80b3-39159ff743e0","system_id":"levelo_inurba_marseille","lat":43.300465,"lon":5.383266,"is_reserved":false,"is_disabled":false,"rental_uris":{"android":"levelo://app?vid=46748178-17b8-4dc8-80b3-39159ff743e0","ios":"levelo://app?vid=46748178-17b8-4dc8-80b3-39159ff743e0"},"vehicle_type_id":"4","last_reported":1762614517,"current_range_meters":10000,"station_id":"","pricing_plan_id":"cebpf4jnsgd1na2vs0mg"},{"bike_id":"f33c035f-da7a-4c4f-99c1-d169b7071ec0","system_id":"levelo_inurba_marseille","lat":43.24385,"lon":5.37063,"is_reserved":false,"is_disabled":false,"rental_uris":{"android":"levelo://app?vid=f33c035f-da7a-4c4f-99c1-d169b7071ec0","ios":"levelo://app?vid=f33c035f-da7a-4c4f-99c1-d169b7071ec0"},"vehicle_type_id":"4","last_reported":1762614517,"current_range_meters":10000,"station_id":"ce4bhhh2rcd13ifvqfk0","pricing_plan_id":"cebpf4jnsgd1na2vs0mg"},{"bike_id":"b1974aec-d9a3-4bbd-83fd-a2ee79ef5189","system_id":"levelo_inurba_marseille","lat":43.27049,"lon":5.4026,"is_reserved":false,"is_disabled":false,"rental_uris":{"android":"levelo://app?vid=b1974aec-d9a3-4bbd-83fd-a2ee79ef5189","ios":"levelo://app?vid=b1974aec-d9a3-4bbd-83fd-a2ee79ef5189"},"vehicle_type_id":"4","last_reported":1762614517,"current_range_meters":10000,"station_id":"ce4bhk92rcd13ifvqgc0","pricing_plan_id":"cebpf4jnsgd1na2vs0mg"},{"bike_id":"cb7f5392-ae0a-4ba8-b998-2f6fbc338fe1","system_id":"levelo_inurba_marseille","lat":43.22568,"lon":5.41645,"is_reserved":false,"is_disabled":false,"rental_uris":{"android":"levelo://app?vid=cb7f5392-ae0a-4ba8-b998-2f6fbc338fe1","ios":"levelo://app?vid=cb7f5392-ae0a-4ba8-b998-2f6fbc338fe1"},"vehicle_type_id":"4","last_reported":1762614517,"current_range_meters":10800,"station_id":"st_d2o4gvlbi1j2169b742g","pricing_plan_id":"cebpf4jnsgd1na2vs0mg"},{"bike_id":"7a399f82-0892-45c9-a828-80f939bd334e","system_id":"levelo_inurba_marseille","lat":43.27378,"lon":5.36267,"is_reserved":false,"is_disabled":false,"rental_uris":{"android":"levelo://app?vid=7a399f82-0892-45c9-a828-80f939bd334e","ios":"levelo://app?vid=7a399f82-0892-45c9-a828-80f939bd334e"},"vehicle_type_id":"4","last_reported":1762614517,"current_range_meters":10800,"station_id":"ce4bhbh2rcd13ifvqeo0","pricing_plan_id":"cebpf4jnsgd1na2vs0mg"},{"bike_id":"686db2a9-f5d3-4814-ab29-2b8a5f1a616a","system_id":"levelo_inurba_marseille","lat":43.33607,"lon":5.41038,"is_reserved":false,"is_disabled":false,"rental_uris":{"android":"levelo://app?vid=686db2a9-f5d3-4814-ab29-2b8a5f1a616a","ios":"levelo://app?vid=686db2a9-f5d3-4814-ab29-2b8a5f1a616a"},"vehicle_type_id":"4","last_reported":1762614517,"current_range_meters":10800,"station_id":"ce4bhqh2rcd13ifvqhmg","pricing_plan_id":"cebpf4jnsgd1na2vs0mg"},{"bike_id":"8f7ca0cb-d088-4e21-9662-2ab4874d81ef","system_id":"levelo_inurba_marseille","lat":43.24687,"lon":5.38144,"is_reserved":false,"is_disabled":true,"rental_uris":{"android":"levelo://app?vid=8f7ca0cb-d088-4e21-9662-2ab4874d81ef","ios":"levelo://app?vid=8f7ca0cb-d088-4e21-9662-2ab4874d81ef"},"vehicle_type_id":"4","last_reported":1762614517,"current_range_meters":10800,"station_id":"ce4bhih2rcd13ifvqfr0","pricing_plan_id":"cebpf4jnsgd1na2vs0mg"},{"bike_id":"20b55085-fea7-4256-8c0f-1e5454c5ecc8","system_id":"levelo_inurba_marseille","lat":43.24544,"lon":5.3954,"is_reserved":false,"is_disabled":false,"rental_uris":{"android":"levelo://app?vid=20b55085-fea7-4256-8c0f-1e5454c5ecc8","ios":"levelo://app?vid=20b55085-fea7-4256-8c0f-1e5454c5ecc8"},"vehicle_type_id":"4","last_reported":1762614517,"current_range_meters":10800,"station_id":"ce4bhlp2rcd13ifvqgjg","pricing_plan_id":"cebpf4jnsgd1na2vs0mg"},{"bike_id":"e8b05ff1-60ea-4df6-8f20-431e6c88a986","system_id":"levelo_inurba_marseille","lat":43.2925,"lon":5.38448,"is_reserved":false,"is_disabled":true,"rental_uris":{"android":"levelo://app?vid=e8b05ff1-60ea-4df6-8f20-431e6c88a986","ios":"levelo://app?vid=e8b05ff1-60ea-4df6-8f20-431e6c88a986"},"vehicle_type_id":"4","last_reported":1762614517,"current_range_meters":10800,"station_id":"ce4bh692rcd13ifvqea0","pricing_plan_id":"cebpf4jnsgd1na2vs0mg"},{"bike_id":"3b294fa9-3f9f-4381-a2a8-e3592d375a68","system_id":"levelo_inurba_marseille","lat":43.26705,"lon":5.39692,"is_reserved":false,"is_disabled":false,"rental_uris":{"android":"levelo://app?vid=3b294fa9-3f9f-4381-a2a8-e3592d375a68","ios":"levelo://app?vid=3b294fa9-3f9f-4381-a2a8-e3592d375a68"},"vehicle_type_id":"4","last_reported":1762614517,"current_range_meters":10800,"station_id":"","pricing_plan_id":"cebpf4jnsgd1na2vs0mg"},{"bike_id":"0c0dcedd-9b83-415f-b9b3-d1c16904647f","system_id":"levelo_inurba_marseille","lat":43.27201,"lon":5.39201,"is_reserved":false,"is_disabled":true,"rental_uris":{"android":"levelo://app?vid=0c0dcedd-9b83-415f-b9b3-d1c16904647f","ios":"levelo://app?vid=0c0dcedd-9b83-415f-b9b3-d1c16904647f"},"vehicle_type_id":"4","last_reported":1762614517,"current_range_meters":10800,"station_id":"ce4bhhp2rcd13ifvqfm0","pricing_plan_id":"cebpf4jnsgd1na2vs0mg"},{"bike_id":"a355d856-2fab-474f-95ce-5a68b5cf8652","system_id":"levelo_inurba_marseille","lat":43.28689,"lon":5.37382,"is_reserved":false,"is_disabled":false,"rental_uris":{"android":"levelo://app?vid=a355d856-2fab-474f-95ce-5a68b5cf8652","ios":"levelo://app?vid=a355d856-2fab-474f-95ce-5a68b5cf8652"},"vehicle_type_id":"4","last_reported":1762614517,"current_range_meters":11200,"station_id":"ce4bh3p2rcd13ifvqdq0","pricing_plan_id":"cebpf4jnsgd1na2vs0mg"},{"bike_id":"ecf55a9b-5ed1-4e3f-a82f-8c5d5db3ce52","system_id":"levelo_inurba_marseille","lat":43.284058,"lon":5.375205,"is_reserved":false,"is_disabled":false,"rental_uris":{"android":"levelo://app?vid=ecf55a9b-5ed1-4e3f-a82f-8c5d5db3ce52","ios":"levelo://app?vid=ecf55a9b-5ed1-4e3f-a82f-8c5d5db3ce52"},"vehicle_type_id":"4","last_reported":1762614517,"current_range_meters":11200,"station_id":"ce4bh412rcd13ifvqds0","pricing_plan_id":"cebpf4jnsgd1na2vs0mg"},{"bike_id":"b98c59d1-12c0-4a03-b198-cf728a9bdad0","system_id":"levelo_inurba_marseille","lat":43.29322,"lon":5.37155,"is_reserved":false,"is_disabled":false,"rental_uris":{"android":"levelo://app?vid=b98c59d1-12c0-4a03-b198-cf728a9bdad0","ios":"levelo://app?vid=b98c59d1-12c0-4a03-b198-cf728a9bdad0"},"vehicle_type_id":"4","last_reported":1762614517,"current_range_meters":11200,"station_id":"","pricing_plan_id":"cebpf4jnsgd1na2vs0mg"},{"bike_id":"3e3ce3a7-c9d6-4ad0-9347-c503ef043e65","system_id":"levelo_inurba_marseille","lat":43.248,"lon":5.37456,"is_reserved":false,"is_disabled":true,"rental_uris":{"android":"levelo://app?vid=3e3ce3a7-c9d6-4ad0-9347-c503ef043e65","ios":"levelo://app?vid=3e3ce3a7-c9d6-4ad0-9347-c503ef043e65"},"vehicle_type_id":"4","last_reported":1762614517,"current_range_meters":11200,"station_id":"ce4bhgh2rcd13ifvqfb0","pricing_plan_id":"cebpf4jnsgd1na2vs0mg"},{"bike_id":"6ff95486-ffed-4717-ab87-555580e0ad79","system_id":"levelo_inurba_marseille","lat":43.30467,"lon":5.37923,"is_reserved":false,"is_disabled":false,"rental_uris":{"android":"levelo://app?vid=6ff95486-ffed-4717-ab87-555580e0ad79","ios":"levelo://app?vid=6ff95486-ffed-4717-ab87-555580e0ad79"},"vehicle_type_id":"4","last_reported":1762614517,"current_range_meters":11200,"station_id":"ce4bgup2rcd13ifvqcn0","pricing_plan_id":"cebpf4jnsgd1na2vs0mg"},{"bike_id":"a4b610ef-5dc5-47fb-9228-87e17fe490d3","system_id":"levelo_inurba_marseille","lat":43.270757,"lon":5.422683,"is_reserved":false,"is_disabled":true,"rental_uris":{"android":"levelo://app?vid=a4b610ef-5dc5-47fb-9228-87e17fe490d3","ios":"levelo://app?vid=a4b610ef-5dc5-47fb-9228-87e17fe490d3"},"vehicle_type_id":"4","last_reported":1762614517,"current_range_meters":11200,"station_id":"ce4bhk92rcd13ifvqgb0","pricing_plan_id":"cebpf4jnsgd1na2vs0mg"},{"bike_id":"2b18e601-addf-4ec1-b31d-8faf0160932f","system_id":"levelo_inurba_marseille","lat":43.24646,"lon":5.38913,"is_reserved":false,"is_disabled":false,"rental_uris":{"android":"levelo://app?vid=2b18e601-addf-4ec1-b31d-8faf0160932f","ios":"levelo://app?vid=2b18e601-addf-4ec1-b31d-8faf0160932f"},"vehicle_type_id":"4","last_reported":1762614517,"current_range_meters":11200,"station_id":"ce4bhg12rcd13ifvqf60","pricing_plan_id":"cebpf4jnsgd1na2vs0mg"},{"bike_id":"e41a25ed-0582-4455-9c00-b8ca5ac4b0cb","system_id":"levelo_inurba_marseille","lat":43.21194,"lon":5.35112,"is_reserved":false,"is_disabled":false,"rental_uris":{"android":"levelo://app?vid=e41a25ed-0582-4455-9c00-b8ca5ac4b0cb","ios":"levelo://app?vid=e41a25ed-0582-4455-9c00-b8ca5ac4b0cb"},"vehicle_type_id":"4","last_reported":1762614517,"current_range_meters":11200,"station_id":"","pricing_plan_id":"cebpf4jnsgd1na2vs0mg"},{"bike_id":"d510b29d-06c6-4a67-8cee-2182097a14e2","system_id":"levelo_inurba_marseille","lat":43.2927,"lon":5.37611,"is_reserved":false,"is_disabled":true,"rental_uris":{"android":"levelo://app?vid=d510b29d-06c6-4a67-8cee-2182097a14e2","ios":"levelo://app?vid=d510b29d-06c6-4a67-8cee-2182097a14e2"},"vehicle_type_id":"4","last_reported":1762614517,"current_range_meters":11600,"station_id":"ce4bgi12rcd13ifvqb80","pricing_plan_id":"cebpf4jnsgd1na2vs0mg"},{"bike_id":"6f2d30ae-4e1c-4a86-87c8-0d251eb5f150","system_id":"levelo_inurba_marseille","lat":43.31231,"lon":5.36858,"is_reserved":false,"is_disabled":false,"rental_uris":{"android":"levelo://app?vid=6f2d30ae-4e1c-4a86-87c8-0d251eb5f150","ios":"levelo://app?vid=6f2d30ae-4e1c-4a86-87c8-0d251eb5f150"},"vehicle_type_id":"4","last_reported":1762614517,"current_range_meters":12000,"station_id":"ce4bgl92rcd13ifvqbq0","pricing_plan_id":"cebpf4jnsgd1na2vs0mg"},{"bike_id":"08800a7f-3058-4ed0-a60f-c12bee9e25dd","system_id":"levelo_inurba_marseille","lat":43.246334,"lon":5.431447,"is_reserved":false,"is_disabled":false,"rental_uris":{"android":"levelo://app?vid=08800a7f-3058-4ed0-a60f-c12bee9e25dd","ios":"levelo://app?vid=08800a7f-3058-4ed0-a60f-c12bee9e25dd"},"vehicle_type_id":"4","last_reported":1762614517,"current_range_meters":12000,"station_id":"st_d2m6c4gdas8pm72e190g","pricing_plan_id":"cebpf4jnsgd1na2vs0mg"},{"bike_id":"05304b88-08bd-4258-888f-ad77e8550455","system_id":"levelo_inurba_marseille","lat":43.28033,"lon":5.36943,"is_reserved":false,"is_disabled":false,"rental_uris":{"android":"levelo://app?vid=05304b88-08bd-4258-888f-ad77e8550455","ios":"levelo://app?vid=05304b88-08bd-4258-888f-ad77e8550455"},"vehicle_type_id":"4","last_reported":1762614517,"current_range_meters":12000,"station_id":"ce4bha12rcd13ifvqef0","pricing_plan_id":"cebpf4jnsgd1na2vs0mg"},{"bike_id":"65c6be5e-7566-45a1-99cf-c105e6b5b495","system_id":"levelo_inurba_marseille","lat":43.30158,"lon":5.38084,"is_reserved":false,"is_disabled":false,"rental_uris":{"android":"levelo://app?vid=65c6be5e-7566-45a1-99cf-c105e6b5b495","ios":"levelo://app?vid=65c6be5e-7566-45a1-99cf-c105e6b5b495"},"vehicle_type_id":"4","last_reported":1762614517,"current_range_meters":12000,"station_id":"ce4bgjp2rcd13ifvqbh0","pricing_plan_id":"cebpf4jnsgd1na2vs0mg"},{"bike_id":"da13cbf5-fb5a-4c5d-a842-452b3910a09e","system_id":"levelo_inurba_marseille","lat":43.27209,"lon":5.3918,"is_reserved":false,"is_disabled":false,"rental_uris":{"android":"levelo://app?vid=da13cbf5-fb5a-4c5d-a842-452b3910a09e","ios":"levelo://app?vid=da13cbf5-fb5a-4c5d-a842-452b3910a09e"},"vehicle_type_id":"4","last_reported":1762614517,"current_range_meters":12400,"station_id":"ce4bhhp2rcd13ifvqfm0","pricing_plan_id":"cebpf4jnsgd1na2vs0mg"},{"bike_id":"d13de064-6b02-4d23-a8de-8c0032420de6","system_id":"levelo_inurba_marseille","lat":43.24384,"lon":5.37069,"is_reserved":false,"is_disabled":false,"rental_uris":{"android":"levelo://app?vid=d13de064-6b02-4d23-a8de-8c0032420de6","ios":"levelo://app?vid=d13de064-6b02-4d23-a8de-8c0032420de6"},"vehicle_type_id":"4","last_reported":1762614517,"current_range_meters":12400,"station_id":"ce4bhhh2rcd13ifvqfk0","pricing_plan_id":"cebpf4jnsgd1na2vs0mg"},{"bike_id":"d8071fcd-8c44-4dab-b8e0-203d036a5d2f","system_id":"levelo_inurba_marseille","lat":43.28617,"lon":5.35112,"is_reserved":false,"is_disabled":false,"rental_uris":{"android":"levelo://app?vid=d8071fcd-8c44-4dab-b8e0-203d036a5d2f","ios":"levelo://app?vid=d8071fcd-8c44-4dab-b8e0-203d036a5d2f"},"vehicle_type_id":"4","last_reported":1762614517,"current_range_meters":12400,"station_id":"ce4bhch2rcd13ifvqeug","pricing_plan_id":"cebpf4jnsgd1na2vs0mg"},{"bike_id":"5b7250f6-5677-456d-ae81-48c6cc6717aa","system_id":"levelo_inurba_marseille","lat":43.31533,"lon":5.38027,"is_reserved":false,"is_disabled":false,"rental_uris":{"android":"levelo://app?vid=5b7250f6-5677-456d-ae81-48c6cc6717aa","ios":"levelo://app?vid=5b7250f6-5677-456d-ae81-48c6cc6717aa"},"vehicle_type_id":"4","last_reported":1762614517,"current_range_meters":12400,"station_id":"ce4bhsp2rcd13ifvqi50","pricing_plan_id":"cebpf4jnsgd1na2vs0mg"},{"bike_id":"37034194-618f-4a58-9179-c6525149916f","system_id":"levelo_inurba_marseille","lat":43.250886,"lon":5.395243,"is_reserved":false,"is_disabled":false,"rental_uris":{"android":"levelo://app?vid=37034194-618f-4a58-9179-c6525149916f","ios":"levelo://app?vid=37034194-618f-4a58-9179-c6525149916f"},"vehicle_type_id":"4","last_reported":1762614517,"current_range_meters":12400,"station_id":"ce4bhm12rcd13ifvqgkg","pricing_plan_id":"cebpf4jnsgd1na2vs0mg"},{"bike_id":"2f324d91-4dd4-4342-a255-891cc7e0b3ae","system_id":"levelo_inurba_marseille","lat":43.267773,"lon":5.394217,"is_reserved":false,"is_disabled":false,"rental_uris":{"android":"levelo://app?vid=2f324d91-4dd4-4342-a255-891cc7e0b3ae","ios":"levelo://app?vid=2f324d91-4dd4-4342-a255-891cc7e0b3ae"},"vehicle_type_id":"4","last_reported":1762614517,"current_range_meters":12400,"station_id":"ce4bhh12rcd13ifvqfg0","pricing_plan_id":"cebpf4jnsgd1na2vs0mg"},{"bike_id":"6ba0f1d1-5706-4a14-b89f-505a4c6aa756","system_id":"levelo_inurba_marseille","lat":43.29485,"lon":5.43308,"is_reserved":false,"is_disabled":false,"rental_uris":{"android":"levelo://app?vid=6ba0f1d1-5706-4a14-b89f-505a4c6aa756","ios":"levelo://app?vid=6ba0f1d1-5706-4a14-b89f-505a4c6aa756"},"vehicle_type_id":"4","last_reported":1762614517,"current_range_meters":12800,"station_id":"st_d3j5ugp08ojc73fj9d10","pricing_plan_id":"cebpf4jnsgd1na2vs0mg"},{"bike_id":"f9eb53cd-85f1-4fa2-8583-d40aa50fbbde","system_id":"levelo_inurba_marseille","lat":43.27184,"lon":5.39203,"is_reserved":false,"is_disabled":false,"rental_uris":{"android":"levelo://app?vid=f9eb53cd-85f1-4fa2-8583-d40aa50fbbde","ios":"levelo://app?vid=f9eb53cd-85f1-4fa2-8583-d40aa50fbbde"},"vehicle_type_id":"4","last_reported":1762614517,"current_range_meters":12800,"station_id":"ce4bhhp2rcd13ifvqfm0","pricing_plan_id":"cebpf4jnsgd1na2vs0mg"},{"bike_id":"b7ddf85d-9dc2-4fed-a9e1-2e06c58268d3","system_id":"levelo_inurba_marseille","lat":43.29611,"lon":5.37731,"is_reserved":false,"is_disabled":false,"rental_uris":{"android":"levelo://app?vid=b7ddf85d-9dc2-4fed-a9e1-2e06c58268d3","ios":"levelo://app?vid=b7ddf85d-9dc2-4fed-a9e1-2e06c58268d3"},"vehicle_type_id":"4","last_reported":1762614517,"current_range_meters":12800,"station_id":"ce4bgi92rcd13ifvqb90","pricing_plan_id":"cebpf4jnsgd1na2vs0mg"},{"bike_id":"dbbe5ec2-8ac2-412f-8227-ee7d228d6afa","system_id":"levelo_inurba_marseille","lat":43.29843,"lon":5.362845,"is_reserved":false,"is_disabled":false,"rental_uris":{"android":"levelo://app?vid=dbbe5ec2-8ac2-412f-8227-ee7d228d6afa","ios":"levelo://app?vid=dbbe5ec2-8ac2-412f-8227-ee7d228d6afa"},"vehicle_type_id":"4","last_reported":1762614517,"current_range_meters":12800,"station_id":"","pricing_plan_id":"cebpf4jnsgd1na2vs0mg"},{"bike_id":"babfefc8-e634-4626-9cb1-11cb591fd23e","system_id":"levelo_inurba_marseille","lat":43.27054,"lon":5.38308,"is_reserved":false,"is_disabled":false,"rental_uris":{"android":"levelo://app?vid=babfefc8-e634-4626-9cb1-11cb591fd23e","ios":"levelo://app?vid=babfefc8-e634-4626-9cb1-11cb591fd23e"},"vehicle_type_id":"4","last_reported":1762614517,"current_range_meters":12800,"station_id":"st_d3n2fo6cfp8s73cte1j0","pricing_plan_id":"cebpf4jnsgd1na2vs0mg"},{"bike_id":"25d84604-4dc3-4b6f-81a1-a91cae63f8b4","system_id":"levelo_inurba_marseille","lat":43.21192,"lon":5.35085,"is_reserved":false,"is_disabled":false,"rental_uris":{"android":"levelo://app?vid=25d84604-4dc3-4b6f-81a1-a91cae63f8b4","ios":"levelo://app?vid=25d84604-4dc3-4b6f-81a1-a91cae63f8b4"},"vehicle_type_id":"4","last_reported":1762614517,"current_range_meters":12800,"station_id":"st_cvj6sg6p6f1abm77japg","pricing_plan_id":"cebpf4jnsgd1na2vs0mg"},{"bike_id":"6c514918-df8e-4b71-9ec1-c780062c9a20","system_id":"levelo_inurba_marseille","lat":43.265549,"lon":5.372877,"is_reserved":false,"is_disabled":false,"rental_uris":{"android":"levelo://app?vid=6c514918-df8e-4b71-9ec1-c780062c9a20","ios":"levelo://app?vid=6c514918-df8e-4b71-9ec1-c780062c9a20"},"vehicle_type_id":"4","last_reported":1762614517,"current_range_meters":13600,"station_id":"ce4bhg12rcd13ifvqf70","pricing_plan_id":"cebpf4jnsgd1na2vs0mg"},{"bike_id":"88c2ea62-16ce-4897-abda-6567e4c7efe1","system_id":"levelo_inurba_marseille","lat":43.313559,"lon":5.3849,"is_reserved":false,"is_disabled":false,"rental_uris":{"android":"levelo://app?vid=88c2ea62-16ce-4897-abda-6567e4c7efe1","ios":"levelo://app?vid=88c2ea62-16ce-4897-abda-6567e4c7efe1"},"vehicle_type_id":"4","last_reported":1762614517,"current_range_meters":13600,"station_id":"ce4bgt92rcd13ifvqcf0","pricing_plan_id":"cebpf4jnsgd1na2vs0mg"},{"bike_id":"1cb3caa2-a6c2-4318-965f-70da959eb0b9","system_id":"levelo_inurba_marseille","lat":43.29938,"lon":5.36535,"is_reserved":false,"is_disabled":false,"rental_uris":{"android":"levelo://app?vid=1cb3caa2-a6c2-4318-965f-70da959eb0b9","ios":"levelo://app?vid=1cb3caa2-a6c2-4318-965f-70da959eb0b9"},"vehicle_type_id":"4","last_reported":1762614517,"current_range_meters":13600,"station_id":"ce4bgm92rcd13ifvqbr0","pricing_plan_id":"cebpf4jnsgd1na2vs0mg"},{"bike_id":"8c9468ab-130f-4d9b-92a0-cae8909612b7","system_id":"levelo_inurba_marseille","lat":43.225555,"lon":5.416283,"is_reserved":false,"is_disabled":false,"rental_uris":{"android":"levelo://app?vid=8c9468ab-130f-4d9b-92a0-cae8909612b7","ios":"levelo://app?vid=8c9468ab-130f-4d9b-92a0-cae8909612b7"},"vehicle_type_id":"4","last_reported":1762614517,"current_range_meters":13600,"station_id":"st_d2o4gvlbi1j2169b742g","pricing_plan_id":"cebpf4jnsgd1na2vs0mg"},{"bike_id":"ca06630c-cd58-47fd-a4f0-6635c015d1a3","system_id":"levelo_inurba_marseille","lat":43.30128,"lon":5.38111,"is_reserved":false,"is_disabled":false,"rental_uris":{"android":"levelo://app?vid=ca06630c-cd58-47fd-a4f0-6635c015d1a3","ios":"levelo://app?vid=ca06630c-cd58-47fd-a4f0-6635c015d1a3"},"vehicle_type_id":"4","last_reported":1762614517,"current_range_meters":13600,"station_id":"ce4bgjp2rcd13ifvqbh0","pricing_plan_id":"cebpf4jnsgd1na2vs0mg"},{"bike_id":"188ee9a4-4424-479c-b66e-2d027092307b","system_id":"levelo_inurba_marseille","lat":43.29837,"lon":5.36305,"is_reserved":false,"is_disabled":false,"rental_uris":{"android":"levelo://app?vid=188ee9a4-4424-479c-b66e-2d027092307b","ios":"levelo://app?vid=188ee9a4-4424-479c-b66e-2d027092307b"},"vehicle_type_id":"4","last_reported":1762614517,"current_range_meters":13600,"station_id":"ce4bgpp2rcd13ifvqc3g","pricing_plan_id":"cebpf4jnsgd1na2vs0mg"},{"bike_id":"d2991a60-dcfa-4252-8f9d-bfff4b1dc433","system_id":"levelo_inurba_marseille","lat":43.31087,"lon":5.3715,"is_reserved":false,"is_disabled":false,"rental_uris":{"android":"levelo://app?vid=d2991a60-dcfa-4252-8f9d-bfff4b1dc433","ios":"levelo://app?vid=d2991a60-dcfa-4252-8f9d-bfff4b1dc433"},"vehicle_type_id":"4","last_reported":1762614517,"current_range_meters":13600,"station_id":"","pricing_plan_id":"cebpf4jnsgd1na2vs0mg"},{"bike_id":"4bce02cb-bdba-488a-a39f-eae80d4c7da8","system_id":"levelo_inurba_marseille","lat":43.28227,"lon":5.39047,"is_reserved":false,"is_disabled":true,"rental_uris":{"android":"levelo://app?vid=4bce02cb-bdba-488a-a39f-eae80d4c7da8","ios":"levelo://app?vid=4bce02cb-bdba-488a-a39f-eae80d4c7da8"},"vehicle_type_id":"4","last_reported":1762614517,"current_range_meters":13600,"station_id":"ce4bhn92rcd13ifvqgsg","pricing_plan_id":"cebpf4jnsgd1na2vs0mg"},{"bike_id":"2df797db-fd42-4c34-89e6-3ee80698b9f5","system_id":"levelo_inurba_marseille","lat":43.27375,"lon":5.36265,"is_reserved":false,"is_disabled":false,"rental_uris":{"android":"levelo://app?vid=2df797db-fd42-4c34-89e6-3ee80698b9f5","ios":"levelo://app?vid=2df797db-fd42-4c34-89e6-3ee80698b9f5"},"vehicle_type_id":"4","last_reported":1762614517,"current_range_meters":14000,"station_id":"ce4bhbh2rcd13ifvqeo0","pricing_plan_id":"cebpf4jnsgd1na2vs0mg"},{"bike_id":"7bdc8abb-ef64-4e3c-a652-df07806a755b","system_id":"levelo_inurba_marseille","lat":43.27197,"lon":5.39183,"is_reserved":false,"is_disabled":false,"rental_uris":{"android":"levelo://app?vid=7bdc8abb-ef64-4e3c-a652-df07806a755b","ios":"levelo://app?vid=7bdc8abb-ef64-4e3c-a652-df07806a755b"},"vehicle_type_id":"4","last_reported":1762614517,"current_range_meters":14000,"station_id":"ce4bhhp2rcd13ifvqfm0","pricing_plan_id":"cebpf4jnsgd1na2vs0mg"},{"bike_id":"968e9c29-84ee-4827-bcab-ac08bc4ab6d5","system_id":"levelo_inurba_marseille","lat":43.29264,"lon":5.36852,"is_reserved":false,"is_disabled":true,"rental_uris":{"android":"levelo://app?vid=968e9c29-84ee-4827-bcab-ac08bc4ab6d5","ios":"levelo://app?vid=968e9c29-84ee-4827-bcab-ac08bc4ab6d5"},"vehicle_type_id":"4","last_reported":1762614517,"current_range_meters":14000,"station_id":"ce4bhbp2rcd13ifvqesg","pricing_plan_id":"cebpf4jnsgd1na2vs0mg"},{"bike_id":"95565d88-4e0c-4b5d-b6d1-9a4c73bcb1f1","system_id":"levelo_inurba_marseille","lat":43.33752,"lon":5.37437,"is_reserved":false,"is_disabled":false,"rental_uris":{"android":"levelo://app?vid=95565d88-4e0c-4b5d-b6d1-9a4c73bcb1f1","ios":"levelo://app?vid=95565d88-4e0c-4b5d-b6d1-9a4c73bcb1f1"},"vehicle_type_id":"4","last_reported":1762614517,"current_range_meters":14000,"station_id":"","pricing_plan_id":"cebpf4jnsgd1na2vs0mg"},{"bike_id":"e2452367-a5ce-40c7-8090-81c936ab6ec3","system_id":"levelo_inurba_marseille","lat":43.28614,"lon":5.3511,"is_reserved":false,"is_disabled":false,"rental_uris":{"android":"levelo://app?vid=e2452367-a5ce-40c7-8090-81c936ab6ec3","ios":"levelo://app?vid=e2452367-a5ce-40c7-8090-81c936ab6ec3"},"vehicle_type_id":"4","last_reported":1762614517,"current_range_meters":14000,"station_id":"ce4bhch2rcd13ifvqeug","pricing_plan_id":"cebpf4jnsgd1na2vs0mg"},{"bike_id":"16ceb277-4529-48d6-b738-8e9eb7ad4000","system_id":"levelo_inurba_marseille","lat":43.211939,"lon":5.350659,"is_reserved":false,"is_disabled":false,"rental_uris":{"android":"levelo://app?vid=16ceb277-4529-48d6-b738-8e9eb7ad4000","ios":"levelo://app?vid=16ceb277-4529-48d6-b738-8e9eb7ad4000"},"vehicle_type_id":"4","last_reported":1762614517,"current_range_meters":14400,"station_id":"st_cvj6sg6p6f1abm77japg","pricing_plan_id":"cebpf4jnsgd1na2vs0mg"},{"bike_id":"df882ada-3c34-4965-87c1-572ce75a38a1","system_id":"levelo_inurba_marseille","lat":43.28473,"lon":5.3842,"is_reserved":false,"is_disabled":false,"rental_uris":{"android":"levelo://app?vid=df882ada-3c34-4965-87c1-572ce75a38a1","ios":"levelo://app?vid=df882ada-3c34-4965-87c1-572ce75a38a1"},"vehicle_type_id":"4","last_reported":1762614517,"current_range_meters":14400,"station_id":"ce4bh512rcd13ifvqe3g","pricing_plan_id":"cebpf4jnsgd1na2vs0mg"},{"bike_id":"ec811d3c-66cc-4bf2-b50c-97b9c074de64","system_id":"levelo_inurba_marseille","lat":43.21187,"lon":5.35085,"is_reserved":false,"is_disabled":false,"rental_uris":{"android":"levelo://app?vid=ec811d3c-66cc-4bf2-b50c-97b9c074de64","ios":"levelo://app?vid=ec811d3c-66cc-4bf2-b50c-97b9c074de64"},"vehicle_type_id":"4","last_reported":1762614517,"current_range_meters":14400,"station_id":"st_cvj6sg6p6f1abm77japg","pricing_plan_id":"cebpf4jnsgd1na2vs0mg"},{"bike_id":"3439a8cb-8214-4321-b614-d69fa7098072","system_id":"levelo_inurba_marseille","lat":43.31275,"lon":5.38945,"is_reserved":false,"is_disabled":false,"rental_uris":{"android":"levelo://app?vid=3439a8cb-8214-4321-b614-d69fa7098072","ios":"levelo://app?vid=3439a8cb-8214-4321-b614-d69fa7098072"},"vehicle_type_id":"4","last_reported":1762614517,"current_range_meters":14400,"station_id":"","pricing_plan_id":"cebpf4jnsgd1na2vs0mg"},{"bike_id":"540ac5d2-71fb-436a-a91b-1321bacf506d","system_id":"levelo_inurba_marseille","lat":43.2694,"lon":5.40261,"is_reserved":false,"is_disabled":false,"rental_uris":{"android":"levelo://app?vid=540ac5d2-71fb-436a-a91b-1321bacf506d","ios":"levelo://app?vid=540ac5d2-71fb-436a-a91b-1321bacf506d"},"vehicle_type_id":"4","last_reported":1762614517,"current_range_meters":14400,"station_id":"cjm6bp8fraef2m0cb0m0","pricing_plan_id":"cebpf4jnsgd1na2vs0mg"},{"bike_id":"335f8062-bd43-4afd-ae41-709c2218acde","system_id":"levelo_inurba_marseille","lat":43.211908,"lon":5.350792,"is_reserved":false,"is_disabled":false,"rental_uris":{"android":"levelo://app?vid=335f8062-bd43-4afd-ae41-709c2218acde","ios":"levelo://app?vid=335f8062-bd43-4afd-ae41-709c2218acde"},"vehicle_type_id":"4","last_reported":1762614517,"current_range_meters":14400,"station_id":"st_cvj6sg6p6f1abm77japg","pricing_plan_id":"cebpf4jnsgd1na2vs0mg"},{"bike_id":"60209b82-f1fb-4fee-8b12-f869dd15efef","system_id":"levelo_inurba_marseille","lat":43.22922,"lon":5.35385,"is_reserved":false,"is_disabled":false,"rental_uris":{"android":"levelo://app?vid=60209b82-f1fb-4fee-8b12-f869dd15efef","ios":"levelo://app?vid=60209b82-f1fb-4fee-8b12-f869dd15efef"},"vehicle_type_id":"4","last_reported":1762614517,"current_range_meters":14400,"station_id":"cpo3532slgdg3j2ikp40","pricing_plan_id":"cebpf4jnsgd1na2vs0mg"},{"bike_id":"10b9c2a7-9afb-443b-98d9-fbc4e20612c7","system_id":"levelo_inurba_marseille","lat":43.302272,"lon":5.369118,"is_reserved":false,"is_disabled":false,"rental_uris":{"android":"levelo://app?vid=10b9c2a7-9afb-443b-98d9-fbc4e20612c7","ios":"levelo://app?vid=10b9c2a7-9afb-443b-98d9-fbc4e20612c7"},"vehicle_type_id":"4","last_reported":1762614517,"current_range_meters":14800,"station_id":"ce4bgrp2rcd13ifvqc9g","pricing_plan_id":"cebpf4jnsgd1na2vs0mg"},{"bike_id":"73d8887f-7b8b-4c25-8cb2-5c061e5bc869","system_id":"levelo_inurba_marseille","lat":43.270552,"lon":5.402516,"is_reserved":false,"is_disabled":false,"rental_uris":{"android":"levelo://app?vid=73d8887f-7b8b-4c25-8cb2-5c061e5bc869","ios":"levelo://app?vid=73d8887f-7b8b-4c25-8cb2-5c061e5bc869"},"vehicle_type_id":"4","last_reported":1762614517,"current_range_meters":14800,"station_id":"ce4bhk92rcd13ifvqgc0","pricing_plan_id":"cebpf4jnsgd1na2vs0mg"},{"bike_id":"9ec62390-c343-423c-8183-1087c51af2b0","system_id":"levelo_inurba_marseille","lat":43.29277,"lon":5.36848,"is_reserved":false,"is_disabled":false,"rental_uris":{"android":"levelo://app?vid=9ec62390-c343-423c-8183-1087c51af2b0","ios":"levelo://app?vid=9ec62390-c343-423c-8183-1087c51af2b0"},"vehicle_type_id":"4","last_reported":1762614517,"current_range_meters":14800,"station_id":"ce4bhbp2rcd13ifvqesg","pricing_plan_id":"cebpf4jnsgd1na2vs0mg"},{"bike_id":"42a1f7c7-639b-48dc-b318-14a9cec7a545","system_id":"levelo_inurba_marseille","lat":43.31172,"lon":5.38713,"is_reserved":false,"is_disabled":false,"rental_uris":{"android":"levelo://app?vid=42a1f7c7-639b-48dc-b318-14a9cec7a545","ios":"levelo://app?vid=42a1f7c7-639b-48dc-b318-14a9cec7a545"},"vehicle_type_id":"4","last_reported":1762614517,"current_range_meters":14800,"station_id":"ce4bgv12rcd13ifvqcp0","pricing_plan_id":"cebpf4jnsgd1na2vs0mg"},{"bike_id":"1205e1d2-8d50-4d4d-be23-e9b349f2a357","system_id":"levelo_inurba_marseille","lat":43.265697,"lon":5.39036,"is_reserved":false,"is_disabled":false,"rental_uris":{"android":"levelo://app?vid=1205e1d2-8d50-4d4d-be23-e9b349f2a357","ios":"levelo://app?vid=1205e1d2-8d50-4d4d-be23-e9b349f2a357"},"vehicle_type_id":"4","last_reported":1762614517,"current_range_meters":14800,"station_id":"ce4bhe12rcd13ifvqf30","pricing_plan_id":"cebpf4jnsgd1na2vs0mg"},{"bike_id":"2922600f-d584-4950-aefa-70c5fe9180b6","system_id":"levelo_inurba_marseille","lat":43.2925,"lon":5.36136,"is_reserved":false,"is_disabled":false,"rental_uris":{"android":"levelo://app?vid=2922600f-d584-4950-aefa-70c5fe9180b6","ios":"levelo://app?vid=2922600f-d584-4950-aefa-70c5fe9180b6"},"vehicle_type_id":"4","last_reported":1762614517,"current_range_meters":14800,"station_id":"","pricing_plan_id":"cebpf4jnsgd1na2vs0mg"},{"bike_id":"d375901d-d73a-4b4e-a59c-58af42a07572","system_id":"levelo_inurba_marseille","lat":43.28,"lon":5.4001,"is_reserved":false,"is_disabled":false,"rental_uris":{"android":"levelo://app?vid=d375901d-d73a-4b4e-a59c-58af42a07572","ios":"levelo://app?vid=d375901d-d73a-4b4e-a59c-58af42a07572"},"vehicle_type_id":"4","last_reported":1762614517,"current_range_meters":15200,"station_id":"ce4bho92rcd13ifvqh4g","pricing_plan_id":"cebpf4jnsgd1na2vs0mg"},{"bike_id":"25fd7d6d-bc1d-48dc-b741-729fe0e49332","system_id":"levelo_inurba_marseille","lat":43.25333,"lon":5.42174,"is_reserved":false,"is_disabled":false,"rental_uris":{"android":"levelo://app?vid=25fd7d6d-bc1d-48dc-b741-729fe0e49332","ios":"levelo://app?vid=25fd7d6d-bc1d-48dc-b741-729fe0e49332"},"vehicle_type_id":"4","last_reported":1762614517,"current_range_meters":15200,"station_id":"st_d2m65c5bi1j21697t3ng","pricing_plan_id":"cebpf4jnsgd1na2vs0mg"},{"bike_id":"cfe6041c-eeb8-4331-88ac-3d89c3a5f24a","system_id":"levelo_inurba_marseille","lat":43.29855,"lon":5.36258,"is_reserved":false,"is_disabled":false,"rental_uris":{"android":"levelo://app?vid=cfe6041c-eeb8-4331-88ac-3d89c3a5f24a","ios":"levelo://app?vid=cfe6041c-eeb8-4331-88ac-3d89c3a5f24a"},"vehicle_type_id":"4","last_reported":1762614517,"current_range_meters":15200,"station_id":"ce4bgpp2rcd13ifvqc3g","pricing_plan_id":"cebpf4jnsgd1na2vs0mg"},{"bike_id":"fdfdde80-7f98-4492-a263-3964ecfbbb45","system_id":"levelo_inurba_marseille","lat":43.28266,"lon":5.3509,"is_reserved":false,"is_disabled":true,"rental_uris":{"android":"levelo://app?vid=fdfdde80-7f98-4492-a263-3964ecfbbb45","ios":"levelo://app?vid=fdfdde80-7f98-4492-a263-3964ecfbbb45"},"vehicle_type_id":"4","last_reported":1762614517,"current_range_meters":15200,"station_id":"ce4bhbp2rcd13ifvqerg","pricing_plan_id":"cebpf4jnsgd1na2vs0mg"},{"bike_id":"800ad76d-56a9-4a36-af78-abde1833c811","system_id":"levelo_inurba_marseille","lat":43.25334,"lon":5.4218,"is_reserved":false,"is_disabled":false,"rental_uris":{"android":"levelo://app?vid=800ad76d-56a9-4a36-af78-abde1833c811","ios":"levelo://app?vid=800ad76d-56a9-4a36-af78-abde1833c811"},"vehicle_type_id":"4","last_reported":1762614517,"current_range_meters":15200,"station_id":"st_d2m65c5bi1j21697t3ng","pricing_plan_id":"cebpf4jnsgd1na2vs0mg"},{"bike_id":"7f292ecc-eb22-436d-95d9-3a5806568c27","system_id":"levelo_inurba_marseille","lat":43.270841,"lon":5.382728,"is_reserved":false,"is_disabled":false,"rental_uris":{"android":"levelo://app?vid=7f292ecc-eb22-436d-95d9-3a5806568c27","ios":"levelo://app?vid=7f292ecc-eb22-436d-95d9-3a5806568c27"},"vehicle_type_id":"4","last_reported":1762614517,"current_range_meters":15200,"station_id":"st_d3n2fo6cfp8s73cte1j0","pricing_plan_id":"cebpf4jnsgd1na2vs0mg"},{"bike_id":"b35d1a38-d503-48e5-bd95-00ab52a1d504","system_id":"levelo_inurba_marseille","lat":43.27667,"lon":5.3887,"is_reserved":false,"is_disabled":false,"rental_uris":{"android":"levelo://app?vid=b35d1a38-d503-48e5-bd95-00ab52a1d504","ios":"levelo://app?vid=b35d1a38-d503-48e5-bd95-00ab52a1d504"},"vehicle_type_id":"4","last_reported":1762614517,"current_range_meters":15200,"station_id":"ce4bhi12rcd13ifvqfo0","pricing_plan_id":"cebpf4jnsgd1na2vs0mg"},{"bike_id":"21dcb4e2-bef4-415f-aa59-cd0b9e2cb07b","system_id":"levelo_inurba_marseille","lat":43.22819,"lon":5.4349,"is_reserved":false,"is_disabled":false,"rental_uris":{"android":"levelo://app?vid=21dcb4e2-bef4-415f-aa59-cd0b9e2cb07b","ios":"levelo://app?vid=21dcb4e2-bef4-415f-aa59-cd0b9e2cb07b"},"vehicle_type_id":"4","last_reported":1762614517,"current_range_meters":15200,"station_id":"","pricing_plan_id":"cebpf4jnsgd1na2vs0mg"},{"bike_id":"e1d2ac3e-a5c1-45dd-a71e-8ef6269474fa","system_id":"levelo_inurba_marseille","lat":43.29838,"lon":5.38615,"is_reserved":false,"is_disabled":false,"rental_uris":{"android":"levelo://app?vid=e1d2ac3e-a5c1-45dd-a71e-8ef6269474fa","ios":"levelo://app?vid=e1d2ac3e-a5c1-45dd-a71e-8ef6269474fa"},"vehicle_type_id":"4","last_reported":1762614517,"current_range_meters":16000,"station_id":"","pricing_plan_id":"cebpf4jnsgd1na2vs0mg"},{"bike_id":"1ae83288-1f2d-4440-bf5d-3008c2739234","system_id":"levelo_inurba_marseille","lat":43.21177,"lon":5.35069,"is_reserved":false,"is_disabled":false,"rental_uris":{"android":"levelo://app?vid=1ae83288-1f2d-4440-bf5d-3008c2739234","ios":"levelo://app?vid=1ae83288-1f2d-4440-bf5d-3008c2739234"},"vehicle_type_id":"4","last_reported":1762614517,"current_range_meters":16000,"station_id":"st_cvj6sg6p6f1abm77japg","pricing_plan_id":"cebpf4jnsgd1na2vs0mg"},{"bike_id":"53529ee7-fa79-4bfe-8ac3-2ffb63a46b11","system_id":"levelo_inurba_marseille","lat":43.31769,"lon":5.3884,"is_reserved":false,"is_disabled":false,"rental_uris":{"android":"levelo://app?vid=53529ee7-fa79-4bfe-8ac3-2ffb63a46b11","ios":"levelo://app?vid=53529ee7-fa79-4bfe-8ac3-2ffb63a46b11"},"vehicle_type_id":"4","last_reported":1762614517,"current_range_meters":16000,"station_id":"","pricing_plan_id":"cebpf4jnsgd1na2vs0mg"},{"bike_id":"636d62dc-2436-431c-bbe1-fce53ca73ab8","system_id":"levelo_inurba_marseille","lat":43.21196,"lon":5.35081,"is_reserved":false,"is_disabled":false,"rental_uris":{"android":"levelo://app?vid=636d62dc-2436-431c-bbe1-fce53ca73ab8","ios":"levelo://app?vid=636d62dc-2436-431c-bbe1-fce53ca73ab8"},"vehicle_type_id":"4","last_reported":1762614517,"current_range_meters":16000,"station_id":"st_cvj6sg6p6f1abm77japg","pricing_plan_id":"cebpf4jnsgd1na2vs0mg"},{"bike_id":"06b572d6-d95a-4f1a-9a9a-b316897ad6d5","system_id":"levelo_inurba_marseille","lat":43.29545,"lon":5.3752,"is_reserved":false,"is_disabled":false,"rental_uris":{"android":"levelo://app?vid=06b572d6-d95a-4f1a-9a9a-b316897ad6d5","ios":"levelo://app?vid=06b572d6-d95a-4f1a-9a9a-b316897ad6d5"},"vehicle_type_id":"4","last_reported":1762614517,"current_range_meters":16000,"station_id":"ce4bgkp2rcd13ifvqbmg","pricing_plan_id":"cebpf4jnsgd1na2vs0mg"},{"bike_id":"6a8ff3c5-840b-48d8-bffd-e31542628cfa","system_id":"levelo_inurba_marseille","lat":43.30472,"lon":5.37915,"is_reserved":false,"is_disabled":false,"rental_uris":{"android":"levelo://app?vid=6a8ff3c5-840b-48d8-bffd-e31542628cfa","ios":"levelo://app?vid=6a8ff3c5-840b-48d8-bffd-e31542628cfa"},"vehicle_type_id":"4","last_reported":1762614517,"current_range_meters":16000,"station_id":"ce4bgup2rcd13ifvqcn0","pricing_plan_id":"cebpf4jnsgd1na2vs0mg"},{"bike_id":"f08621f1-92b2-4985-8a3a-96dd283a7c2b","system_id":"levelo_inurba_marseille","lat":43.31532,"lon":5.38029,"is_reserved":false,"is_disabled":false,"rental_uris":{"android":"levelo://app?vid=f08621f1-92b2-4985-8a3a-96dd283a7c2b","ios":"levelo://app?vid=f08621f1-92b2-4985-8a3a-96dd283a7c2b"},"vehicle_type_id":"4","last_reported":1762614517,"current_range_meters":16000,"station_id":"ce4bhsp2rcd13ifvqi50","pricing_plan_id":"cebpf4jnsgd1na2vs0mg"},{"bike_id":"db9106fd-07f3-421d-8888-e3c728ee3ce1","system_id":"levelo_inurba_marseille","lat":43.289259,"lon":5.384001,"is_reserved":false,"is_disabled":false,"rental_uris":{"android":"levelo://app?vid=db9106fd-07f3-421d-8888-e3c728ee3ce1","ios":"levelo://app?vid=db9106fd-07f3-421d-8888-e3c728ee3ce1"},"vehicle_type_id":"4","last_reported":1762614517,"current_range_meters":16000,"station_id":"ce4bh612rcd13ifvqe6g","pricing_plan_id":"cebpf4jnsgd1na2vs0mg"},{"bike_id":"d2ef9a00-ad73-4e5e-9533-9638c554f803","system_id":"levelo_inurba_marseille","lat":43.24994,"lon":5.38937,"is_reserved":false,"is_disabled":false,"rental_uris":{"android":"levelo://app?vid=d2ef9a00-ad73-4e5e-9533-9638c554f803","ios":"levelo://app?vid=d2ef9a00-ad73-4e5e-9533-9638c554f803"},"vehicle_type_id":"4","last_reported":1762614517,"current_range_meters":16400,"station_id":"ce4bhgp2rcd13ifvqfd0","pricing_plan_id":"cebpf4jnsgd1na2vs0mg"},{"bike_id":"601cfee9-efd4-4fc3-b5b0-f5c27a79fbd7","system_id":"levelo_inurba_marseille","lat":43.296285,"lon":5.37732,"is_reserved":false,"is_disabled":false,"rental_uris":{"android":"levelo://app?vid=601cfee9-efd4-4fc3-b5b0-f5c27a79fbd7","ios":"levelo://app?vid=601cfee9-efd4-4fc3-b5b0-f5c27a79fbd7"},"vehicle_type_id":"4","last_reported":1762614517,"current_range_meters":16400,"station_id":"ce4bgi92rcd13ifvqb90","pricing_plan_id":"cebpf4jnsgd1na2vs0mg"},{"bike_id":"16e92c81-f9bf-4049-a0df-a21857156c26","system_id":"levelo_inurba_marseille","lat":43.28611,"lon":5.37068,"is_reserved":false,"is_disabled":false,"rental_uris":{"android":"levelo://app?vid=16e92c81-f9bf-4049-a0df-a21857156c26","ios":"levelo://app?vid=16e92c81-f9bf-4049-a0df-a21857156c26"},"vehicle_type_id":"4","last_reported":1762614517,"current_range_meters":16400,"station_id":"ce4bht12rcd13ifvqi60","pricing_plan_id":"cebpf4jnsgd1na2vs0mg"},{"bike_id":"04904f81-0ddb-49e5-b741-7caee5969092","system_id":"levelo_inurba_marseille","lat":43.29082,"lon":5.38178,"is_reserved":false,"is_disabled":false,"rental_uris":{"android":"levelo://app?vid=04904f81-0ddb-49e5-b741-7caee5969092","ios":"levelo://app?vid=04904f81-0ddb-49e5-b741-7caee5969092"},"vehicle_type_id":"4","last_reported":1762614517,"current_range_meters":16400,"station_id":"ce4bh512rcd13ifvqe2g","pricing_plan_id":"cebpf4jnsgd1na2vs0mg"},{"bike_id":"c73c5513-728d-4700-9395-e31e4399cd51","system_id":"levelo_inurba_marseille","lat":43.29297,"lon":5.40271,"is_reserved":false,"is_disabled":false,"rental_uris":{"android":"levelo://app?vid=c73c5513-728d-4700-9395-e31e4399cd51","ios":"levelo://app?vid=c73c5513-728d-4700-9395-e31e4399cd51"},"vehicle_type_id":"4","last_reported":1762614517,"current_range_meters":16400,"station_id":"","pricing_plan_id":"cebpf4jnsgd1na2vs0mg"},{"bike_id":"15db09df-59b0-446a-87c5-e354a3319258","system_id":"levelo_inurba_marseille","lat":43.28474,"lon":5.48416,"is_reserved":false,"is_disabled":false,"rental_uris":{"android":"levelo://app?vid=15db09df-59b0-446a-87c5-e354a3319258","ios":"levelo://app?vid=15db09df-59b0-446a-87c5-e354a3319258"},"vehicle_type_id":"4","last_reported":1762614517,"current_range_meters":16400,"station_id":"","pricing_plan_id":"cebpf4jnsgd1na2vs0mg"},{"bike_id":"abca2ab5-36b9-4530-8680-313f2a63b5d3","system_id":"levelo_inurba_marseille","lat":43.24981,"lon":5.38949,"is_reserved":false,"is_disabled":false,"rental_uris":{"android":"levelo://app?vid=abca2ab5-36b9-4530-8680-313f2a63b5d3","ios":"levelo://app?vid=abca2ab5-36b9-4530-8680-313f2a63b5d3"},"vehicle_type_id":"4","last_reported":1762614517,"current_range_meters":16400,"station_id":"ce4bhgp2rcd13ifvqfd0","pricing_plan_id":"cebpf4jnsgd1na2vs0mg"},{"bike_id":"95c2a582-1eba-4ebc-bdda-a353604dc20d","system_id":"levelo_inurba_marseille","lat":43.31239,"lon":5.36835,"is_reserved":false,"is_disabled":false,"rental_uris":{"android":"levelo://app?vid=95c2a582-1eba-4ebc-bdda-a353604dc20d","ios":"levelo://app?vid=95c2a582-1eba-4ebc-bdda-a353604dc20d"},"vehicle_type_id":"4","last_reported":1762614517,"current_range_meters":16400,"station_id":"ce4bgl92rcd13ifvqbq0","pricing_plan_id":"cebpf4jnsgd1na2vs0mg"},{"bike_id":"cf78c577-f784-4054-9298-4eadfd68926b","system_id":"levelo_inurba_marseille","lat":43.31162,"lon":5.39358,"is_reserved":false,"is_disabled":false,"rental_uris":{"android":"levelo://app?vid=cf78c577-f784-4054-9298-4eadfd68926b","ios":"levelo://app?vid=cf78c577-f784-4054-9298-4eadfd68926b"},"vehicle_type_id":"4","last_reported":1762614517,"current_range_meters":16400,"station_id":"","pricing_plan_id":"cebpf4jnsgd1na2vs0mg"},{"bike_id":"1a85bd73-f6c9-483d-ac28-5d95b6775d78","system_id":"levelo_inurba_marseille","lat":43.28701,"lon":5.37947,"is_reserved":false,"is_disabled":true,"rental_uris":{"android":"levelo://app?vid=1a85bd73-f6c9-483d-ac28-5d95b6775d78","ios":"levelo://app?vid=1a85bd73-f6c9-483d-ac28-5d95b6775d78"},"vehicle_type_id":"4","last_reported":1762614517,"current_range_meters":16800,"station_id":"ce4bh9p2rcd13ifvqec0","pricing_plan_id":"cebpf4jnsgd1na2vs0mg"},{"bike_id":"6ca580b9-ae87-4e9b-a62c-4e0f6a07370c","system_id":"levelo_inurba_marseille","lat":43.21176,"lon":5.35074,"is_reserved":false,"is_disabled":false,"rental_uris":{"android":"levelo://app?vid=6ca580b9-ae87-4e9b-a62c-4e0f6a07370c","ios":"levelo://app?vid=6ca580b9-ae87-4e9b-a62c-4e0f6a07370c"},"vehicle_type_id":"4","last_reported":1762614517,"current_range_meters":16800,"station_id":"st_cvj6sg6p6f1abm77japg","pricing_plan_id":"cebpf4jnsgd1na2vs0mg"},{"bike_id":"639e2119-feb2-41ef-a04a-8097682df0bb","system_id":"levelo_inurba_marseille","lat":43.31503,"lon":5.37292,"is_reserved":false,"is_disabled":false,"rental_uris":{"android":"levelo://app?vid=639e2119-feb2-41ef-a04a-8097682df0bb","ios":"levelo://app?vid=639e2119-feb2-41ef-a04a-8097682df0bb"},"vehicle_type_id":"4","last_reported":1762614517,"current_range_meters":16800,"station_id":"ce4bgt12rcd13ifvqcd0","pricing_plan_id":"cebpf4jnsgd1na2vs0mg"},{"bike_id":"bb47d4e7-8e80-4f5a-9963-618f817fb947","system_id":"levelo_inurba_marseille","lat":43.29708,"lon":5.37688,"is_reserved":false,"is_disabled":false,"rental_uris":{"android":"levelo://app?vid=bb47d4e7-8e80-4f5a-9963-618f817fb947","ios":"levelo://app?vid=bb47d4e7-8e80-4f5a-9963-618f817fb947"},"vehicle_type_id":"4","last_reported":1762614517,"current_range_meters":16800,"station_id":"ce4bgkh2rcd13ifvqbl0","pricing_plan_id":"cebpf4jnsgd1na2vs0mg"},{"bike_id":"70c4084d-ecea-4c1a-be7a-665be606d211","system_id":"levelo_inurba_marseille","lat":43.30123,"lon":5.43122,"is_reserved":false,"is_disabled":false,"rental_uris":{"android":"levelo://app?vid=70c4084d-ecea-4c1a-be7a-665be606d211","ios":"levelo://app?vid=70c4084d-ecea-4c1a-be7a-665be606d211"},"vehicle_type_id":"4","last_reported":1762614517,"current_range_meters":16800,"station_id":"st_d3js3co5814s73ftftug","pricing_plan_id":"cebpf4jnsgd1na2vs0mg"},{"bike_id":"c0d6dd3b-baa5-4954-828e-3ac829129f1b","system_id":"levelo_inurba_marseille","lat":43.27208,"lon":5.39183,"is_reserved":false,"is_disabled":false,"rental_uris":{"android":"levelo://app?vid=c0d6dd3b-baa5-4954-828e-3ac829129f1b","ios":"levelo://app?vid=c0d6dd3b-baa5-4954-828e-3ac829129f1b"},"vehicle_type_id":"4","last_reported":1762614517,"current_range_meters":16800,"station_id":"ce4bhhp2rcd13ifvqfm0","pricing_plan_id":"cebpf4jnsgd1na2vs0mg"},{"bike_id":"ac1012d0-7872-4c6e-85e6-fc8eaff39396","system_id":"levelo_inurba_marseille","lat":43.28456,"lon":5.35902,"is_reserved":false,"is_disabled":true,"rental_uris":{"android":"levelo://app?vid=ac1012d0-7872-4c6e-85e6-fc8eaff39396","ios":"levelo://app?vid=ac1012d0-7872-4c6e-85e6-fc8eaff39396"},"vehicle_type_id":"4","last_reported":1762614517,"current_range_meters":16800,"station_id":"ce4bhah2rcd13ifvqei0","pricing_plan_id":"cebpf4jnsgd1na2vs0mg"},{"bike_id":"28198e4f-e602-4636-af79-e690a920a03f","system_id":"levelo_inurba_marseille","lat":43.26541,"lon":5.37304,"is_reserved":false,"is_disabled":false,"rental_uris":{"android":"levelo://app?vid=28198e4f-e602-4636-af79-e690a920a03f","ios":"levelo://app?vid=28198e4f-e602-4636-af79-e690a920a03f"},"vehicle_type_id":"4","last_reported":1762614517,"current_range_meters":16800,"station_id":"ce4bhg12rcd13ifvqf70","pricing_plan_id":"cebpf4jnsgd1na2vs0mg"},{"bike_id":"51f284e5-7d44-449c-9d73-e0a520c7a8d2","system_id":"levelo_inurba_marseille","lat":43.296143,"lon":5.377073,"is_reserved":false,"is_disabled":false,"rental_uris":{"android":"levelo://app?vid=51f284e5-7d44-449c-9d73-e0a520c7a8d2","ios":"levelo://app?vid=51f284e5-7d44-449c-9d73-e0a520c7a8d2"},"vehicle_type_id":"4","last_reported":1762614517,"current_range_meters":17200,"station_id":"ce4bgi92rcd13ifvqb90","pricing_plan_id":"cebpf4jnsgd1na2vs0mg"},{"bike_id":"cfade1a1-041f-4b06-9833-cbb7b9fa6416","system_id":"levelo_inurba_marseille","lat":43.21739,"lon":5.34611,"is_reserved":false,"is_disabled":false,"rental_uris":{"android":"levelo://app?vid=cfade1a1-041f-4b06-9833-cbb7b9fa6416","ios":"levelo://app?vid=cfade1a1-041f-4b06-9833-cbb7b9fa6416"},"vehicle_type_id":"4","last_reported":1762614517,"current_range_meters":17200,"station_id":"st_cvj6r9ubvosntc0bgbag","pricing_plan_id":"cebpf4jnsgd1na2vs0mg"},{"bike_id":"4c9205a1-99e9-44e3-8395-6009ce059db9","system_id":"levelo_inurba_marseille","lat":43.25488,"lon":5.37643,"is_reserved":false,"is_disabled":false,"rental_uris":{"android":"levelo://app?vid=4c9205a1-99e9-44e3-8395-6009ce059db9","ios":"levelo://app?vid=4c9205a1-99e9-44e3-8395-6009ce059db9"},"vehicle_type_id":"4","last_reported":1762614517,"current_range_meters":17200,"station_id":"ce4bhh12rcd13ifvqff0","pricing_plan_id":"cebpf4jnsgd1na2vs0mg"},{"bike_id":"e374f4d6-676c-4d62-af2d-1f0734c48172","system_id":"levelo_inurba_marseille","lat":43.29478,"lon":5.43337,"is_reserved":false,"is_disabled":false,"rental_uris":{"android":"levelo://app?vid=e374f4d6-676c-4d62-af2d-1f0734c48172","ios":"levelo://app?vid=e374f4d6-676c-4d62-af2d-1f0734c48172"},"vehicle_type_id":"4","last_reported":1762614517,"current_range_meters":17200,"station_id":"st_d3j5ugp08ojc73fj9d10","pricing_plan_id":"cebpf4jnsgd1na2vs0mg"},{"bike_id":"33426d9c-2a2e-4cec-be07-1629cec80c10","system_id":"levelo_inurba_marseille","lat":43.24545,"lon":5.39533,"is_reserved":false,"is_disabled":false,"rental_uris":{"android":"levelo://app?vid=33426d9c-2a2e-4cec-be07-1629cec80c10","ios":"levelo://app?vid=33426d9c-2a2e-4cec-be07-1629cec80c10"},"vehicle_type_id":"4","last_reported":1762614517,"current_range_meters":17200,"station_id":"ce4bhlp2rcd13ifvqgjg","pricing_plan_id":"cebpf4jnsgd1na2vs0mg"},{"bike_id":"2542bfa0-9dde-4aad-a16a-1860f07b9f4c","system_id":"levelo_inurba_marseille","lat":43.27209,"lon":5.39175,"is_reserved":false,"is_disabled":false,"rental_uris":{"android":"levelo://app?vid=2542bfa0-9dde-4aad-a16a-1860f07b9f4c","ios":"levelo://app?vid=2542bfa0-9dde-4aad-a16a-1860f07b9f4c"},"vehicle_type_id":"4","last_reported":1762614517,"current_range_meters":17200,"station_id":"ce4bhhp2rcd13ifvqfm0","pricing_plan_id":"cebpf4jnsgd1na2vs0mg"},{"bike_id":"eda1d1e9-ee34-4021-a2ff-b7b0b0cab8a3","system_id":"levelo_inurba_marseille","lat":43.27319,"lon":5.39075,"is_reserved":false,"is_disabled":false,"rental_uris":{"android":"levelo://app?vid=eda1d1e9-ee34-4021-a2ff-b7b0b0cab8a3","ios":"levelo://app?vid=eda1d1e9-ee34-4021-a2ff-b7b0b0cab8a3"},"vehicle_type_id":"4","last_reported":1762614517,"current_range_meters":17200,"station_id":"ce4bhgp2rcd13ifvqfe0","pricing_plan_id":"cebpf4jnsgd1na2vs0mg"},{"bike_id":"c4d2e921-f3ef-46ea-89ab-3df135d4213f","system_id":"levelo_inurba_marseille","lat":43.29869,"lon":5.39725,"is_reserved":false,"is_disabled":false,"rental_uris":{"android":"levelo://app?vid=c4d2e921-f3ef-46ea-89ab-3df135d4213f","ios":"levelo://app?vid=c4d2e921-f3ef-46ea-89ab-3df135d4213f"},"vehicle_type_id":"4","last_reported":1762614517,"current_range_meters":17200,"station_id":"ce4bh0h2rcd13ifvqd50","pricing_plan_id":"cebpf4jnsgd1na2vs0mg"},{"bike_id":"494d458c-de0e-46ef-b3bf-dda4e5e1a490","system_id":"levelo_inurba_marseille","lat":43.27198,"lon":5.39201,"is_reserved":false,"is_disabled":false,"rental_uris":{"android":"levelo://app?vid=494d458c-de0e-46ef-b3bf-dda4e5e1a490","ios":"levelo://app?vid=494d458c-de0e-46ef-b3bf-dda4e5e1a490"},"vehicle_type_id":"4","last_reported":1762614517,"current_range_meters":17200,"station_id":"ce4bhhp2rcd13ifvqfm0","pricing_plan_id":"cebpf4jnsgd1na2vs0mg"},{"bike_id":"ee175632-a663-46e4-a04a-94a5c3686c34","system_id":"levelo_inurba_marseille","lat":43.22924,"lon":5.35388,"is_reserved":false,"is_disabled":false,"rental_uris":{"android":"levelo://app?vid=ee175632-a663-46e4-a04a-94a5c3686c34","ios":"levelo://app?vid=ee175632-a663-46e4-a04a-94a5c3686c34"},"vehicle_type_id":"4","last_reported":1762614517,"current_range_meters":17200,"station_id":"cpo3532slgdg3j2ikp40","pricing_plan_id":"cebpf4jnsgd1na2vs0mg"},{"bike_id":"2de6adb9-c2d4-42ff-b176-a665abccb67a","system_id":"levelo_inurba_marseille","lat":43.25107,"lon":5.40327,"is_reserved":false,"is_disabled":false,"rental_uris":{"android":"levelo://app?vid=2de6adb9-c2d4-42ff-b176-a665abccb67a","ios":"levelo://app?vid=2de6adb9-c2d4-42ff-b176-a665abccb67a"},"vehicle_type_id":"4","last_reported":1762614517,"current_range_meters":17200,"station_id":"ce4bhlh2rcd13ifvqgig","pricing_plan_id":"cebpf4jnsgd1na2vs0mg"},{"bike_id":"6cfc85f7-11e1-49ea-bb47-9eae3c14441e","system_id":"levelo_inurba_marseille","lat":43.26776,"lon":5.39425,"is_reserved":false,"is_disabled":false,"rental_uris":{"android":"levelo://app?vid=6cfc85f7-11e1-49ea-bb47-9eae3c14441e","ios":"levelo://app?vid=6cfc85f7-11e1-49ea-bb47-9eae3c14441e"},"vehicle_type_id":"4","last_reported":1762614517,"current_range_meters":17200,"station_id":"ce4bhh12rcd13ifvqfg0","pricing_plan_id":"cebpf4jnsgd1na2vs0mg"},{"bike_id":"3c4ea1ef-bb7c-45b9-805a-c817e56b52c4","system_id":"levelo_inurba_marseille","lat":43.289378,"lon":5.366485,"is_reserved":false,"is_disabled":false,"rental_uris":{"android":"levelo://app?vid=3c4ea1ef-bb7c-45b9-805a-c817e56b52c4","ios":"levelo://app?vid=3c4ea1ef-bb7c-45b9-805a-c817e56b52c4"},"vehicle_type_id":"4","last_reported":1762614517,"current_range_meters":17200,"station_id":"ce4bgi92rcd13ifvqb90","pricing_plan_id":"cebpf4jnsgd1na2vs0mg"},{"bike_id":"b86fecea-8bac-448f-bdcd-c5f07a75c760","system_id":"levelo_inurba_marseille","lat":43.21742,"lon":5.3461,"is_reserved":false,"is_disabled":false,"rental_uris":{"android":"levelo://app?vid=b86fecea-8bac-448f-bdcd-c5f07a75c760","ios":"levelo://app?vid=b86fecea-8bac-448f-bdcd-c5f07a75c760"},"vehicle_type_id":"4","last_reported":1762614517,"current_range_meters":17200,"station_id":"st_cvj6r9ubvosntc0bgbag","pricing_plan_id":"cebpf4jnsgd1na2vs0mg"},{"bike_id":"20419e9b-f15b-48a7-8991-ce0ca6ef3309","system_id":"levelo_inurba_marseille","lat":43.31525,"lon":5.3724,"is_reserved":false,"is_disabled":false,"rental_uris":{"android":"levelo://app?vid=20419e9b-f15b-48a7-8991-ce0ca6ef3309","ios":"levelo://app?vid=20419e9b-f15b-48a7-8991-ce0ca6ef3309"},"vehicle_type_id":"4","last_reported":1762614517,"current_range_meters":17600,"station_id":"","pricing_plan_id":"cebpf4jnsgd1na2vs0mg"},{"bike_id":"5ca7e156-456f-4551-95d1-e6d848f54d66","system_id":"levelo_inurba_marseille","lat":43.3037,"lon":5.42503,"is_reserved":false,"is_disabled":false,"rental_uris":{"android":"levelo://app?vid=5ca7e156-456f-4551-95d1-e6d848f54d66","ios":"levelo://app?vid=5ca7e156-456f-4551-95d1-e6d848f54d66"},"vehicle_type_id":"4","last_reported":1762614517,"current_range_meters":17600,"station_id":"ce4bhoh2rcd13ifvqh6g","pricing_plan_id":"cebpf4jnsgd1na2vs0mg"},{"bike_id":"3adb6c1b-b151-4522-ac2a-bf4350f8360d","system_id":"levelo_inurba_marseille","lat":43.2827,"lon":5.35069,"is_reserved":false,"is_disabled":false,"rental_uris":{"android":"levelo://app?vid=3adb6c1b-b151-4522-ac2a-bf4350f8360d","ios":"levelo://app?vid=3adb6c1b-b151-4522-ac2a-bf4350f8360d"},"vehicle_type_id":"4","last_reported":1762614517,"current_range_meters":17600,"station_id":"ce4bhbp2rcd13ifvqerg","pricing_plan_id":"cebpf4jnsgd1na2vs0mg"},{"bike_id":"ec9275c7-1a0b-4cb7-96e3-a596219d63f0","system_id":"levelo_inurba_marseille","lat":43.27201,"lon":5.39201,"is_reserved":false,"is_disabled":false,"rental_uris":{"android":"levelo://app?vid=ec9275c7-1a0b-4cb7-96e3-a596219d63f0","ios":"levelo://app?vid=ec9275c7-1a0b-4cb7-96e3-a596219d63f0"},"vehicle_type_id":"4","last_reported":1762614517,"current_range_meters":17600,"station_id":"ce4bhhp2rcd13ifvqfm0","pricing_plan_id":"cebpf4jnsgd1na2vs0mg"},{"bike_id":"37a171af-25ec-4d47-8bd2-314720bba587","system_id":"levelo_inurba_marseille","lat":43.217425,"lon":5.346049,"is_reserved":false,"is_disabled":false,"rental_uris":{"android":"levelo://app?vid=37a171af-25ec-4d47-8bd2-314720bba587","ios":"levelo://app?vid=37a171af-25ec-4d47-8bd2-314720bba587"},"vehicle_type_id":"4","last_reported":1762614517,"current_range_meters":17600,"station_id":"st_cvj6r9ubvosntc0bgbag","pricing_plan_id":"cebpf4jnsgd1na2vs0mg"},{"bike_id":"5d35981d-61aa-415e-93fe-7d5e3a51506e","system_id":"levelo_inurba_marseille","lat":43.21194,"lon":5.35061,"is_reserved":false,"is_disabled":false,"rental_uris":{"android":"levelo://app?vid=5d35981d-61aa-415e-93fe-7d5e3a51506e","ios":"levelo://app?vid=5d35981d-61aa-415e-93fe-7d5e3a51506e"},"vehicle_type_id":"4","last_reported":1762614517,"current_range_meters":17600,"station_id":"st_cvj6sg6p6f1abm77japg","pricing_plan_id":"cebpf4jnsgd1na2vs0mg"},{"bike_id":"d8a2355e-a776-4b85-8a3e-22368796688d","system_id":"levelo_inurba_marseille","lat":43.30803,"lon":5.36841,"is_reserved":false,"is_disabled":false,"rental_uris":{"android":"levelo://app?vid=d8a2355e-a776-4b85-8a3e-22368796688d","ios":"levelo://app?vid=d8a2355e-a776-4b85-8a3e-22368796688d"},"vehicle_type_id":"4","last_reported":1762614517,"current_range_meters":17600,"station_id":"","pricing_plan_id":"cebpf4jnsgd1na2vs0mg"},{"bike_id":"36dc7b70-64a9-4e2d-9a64-5c5dd16e2fa2","system_id":"levelo_inurba_marseille","lat":43.23183,"lon":5.35562,"is_reserved":false,"is_disabled":false,"rental_uris":{"android":"levelo://app?vid=36dc7b70-64a9-4e2d-9a64-5c5dd16e2fa2","ios":"levelo://app?vid=36dc7b70-64a9-4e2d-9a64-5c5dd16e2fa2"},"vehicle_type_id":"4","last_reported":1762614517,"current_range_meters":18000,"station_id":"ce4bhu92rcd13ifvqi70","pricing_plan_id":"cebpf4jnsgd1na2vs0mg"},{"bike_id":"adda3bd9-3d5d-4b51-91cc-8caa1dca20d6","system_id":"levelo_inurba_marseille","lat":43.269416,"lon":5.402485,"is_reserved":false,"is_disabled":false,"rental_uris":{"android":"levelo://app?vid=adda3bd9-3d5d-4b51-91cc-8caa1dca20d6","ios":"levelo://app?vid=adda3bd9-3d5d-4b51-91cc-8caa1dca20d6"},"vehicle_type_id":"4","last_reported":1762614517,"current_range_meters":18000,"station_id":"cjm6bp8fraef2m0cb0m0","pricing_plan_id":"cebpf4jnsgd1na2vs0mg"},{"bike_id":"3585dd0d-06ba-43cf-a48a-a08f0c0af516","system_id":"levelo_inurba_marseille","lat":43.27372,"lon":5.36274,"is_reserved":false,"is_disabled":false,"rental_uris":{"android":"levelo://app?vid=3585dd0d-06ba-43cf-a48a-a08f0c0af516","ios":"levelo://app?vid=3585dd0d-06ba-43cf-a48a-a08f0c0af516"},"vehicle_type_id":"4","last_reported":1762614517,"current_range_meters":18000,"station_id":"ce4bhbh2rcd13ifvqeo0","pricing_plan_id":"cebpf4jnsgd1na2vs0mg"},{"bike_id":"b55b955e-c4d4-4019-acb2-39956d387444","system_id":"levelo_inurba_marseille","lat":43.21187,"lon":5.35089,"is_reserved":false,"is_disabled":false,"rental_uris":{"android":"levelo://app?vid=b55b955e-c4d4-4019-acb2-39956d387444","ios":"levelo://app?vid=b55b955e-c4d4-4019-acb2-39956d387444"},"vehicle_type_id":"4","last_reported":1762614517,"current_range_meters":18000,"station_id":"st_cvj6sg6p6f1abm77japg","pricing_plan_id":"cebpf4jnsgd1na2vs0mg"},{"bike_id":"b8af6918-9c6f-4106-836c-dd8c06821de6","system_id":"levelo_inurba_marseille","lat":43.225555,"lon":5.41627,"is_reserved":false,"is_disabled":false,"rental_uris":{"android":"levelo://app?vid=b8af6918-9c6f-4106-836c-dd8c06821de6","ios":"levelo://app?vid=b8af6918-9c6f-4106-836c-dd8c06821de6"},"vehicle_type_id":"4","last_reported":1762614517,"current_range_meters":18000,"station_id":"","pricing_plan_id":"cebpf4jnsgd1na2vs0mg"},{"bike_id":"f114550f-0e97-467f-a15f-491fe7ea5021","system_id":"levelo_inurba_marseille","lat":43.29307,"lon":5.3715,"is_reserved":false,"is_disabled":true,"rental_uris":{"android":"levelo://app?vid=f114550f-0e97-467f-a15f-491fe7ea5021","ios":"levelo://app?vid=f114550f-0e97-467f-a15f-491fe7ea5021"},"vehicle_type_id":"4","last_reported":1762614517,"current_range_meters":18000,"station_id":"ce4bgh92rcd13ifvqb40","pricing_plan_id":"cebpf4jnsgd1na2vs0mg"},{"bike_id":"3fd95134-3ed7-4fd0-9793-bc954e2e42ea","system_id":"levelo_inurba_marseille","lat":43.28426,"lon":5.37527,"is_reserved":false,"is_disabled":true,"rental_uris":{"android":"levelo://app?vid=3fd95134-3ed7-4fd0-9793-bc954e2e42ea","ios":"levelo://app?vid=3fd95134-3ed7-4fd0-9793-bc954e2e42ea"},"vehicle_type_id":"4","last_reported":1762614517,"current_range_meters":18000,"station_id":"ce4bh412rcd13ifvqds0","pricing_plan_id":"cebpf4jnsgd1na2vs0mg"},{"bike_id":"1ea7bed3-a80f-43fd-a73a-6073a76179fb","system_id":"levelo_inurba_marseille","lat":43.26952,"lon":5.38632,"is_reserved":false,"is_disabled":false,"rental_uris":{"android":"levelo://app?vid=1ea7bed3-a80f-43fd-a73a-6073a76179fb","ios":"levelo://app?vid=1ea7bed3-a80f-43fd-a73a-6073a76179fb"},"vehicle_type_id":"4","last_reported":1762614517,"current_range_meters":18000,"station_id":"ce4bhh92rcd13ifvqfh0","pricing_plan_id":"cebpf4jnsgd1na2vs0mg"},{"bike_id":"a0e0319e-d914-411e-a145-83fee7095279","system_id":"levelo_inurba_marseille","lat":43.22932,"lon":5.35377,"is_reserved":false,"is_disabled":false,"rental_uris":{"android":"levelo://app?vid=a0e0319e-d914-411e-a145-83fee7095279","ios":"levelo://app?vid=a0e0319e-d914-411e-a145-83fee7095279"},"vehicle_type_id":"4","last_reported":1762614517,"current_range_meters":18000,"station_id":"cpo3532slgdg3j2ikp40","pricing_plan_id":"cebpf4jnsgd1na2vs0mg"},{"bike_id":"f6bdecf3-0a6c-4e76-b587-7a30b5948ac1","system_id":"levelo_inurba_marseille","lat":43.26556,"lon":5.39031,"is_reserved":false,"is_disabled":false,"rental_uris":{"android":"levelo://app?vid=f6bdecf3-0a6c-4e76-b587-7a30b5948ac1","ios":"levelo://app?vid=f6bdecf3-0a6c-4e76-b587-7a30b5948ac1"},"vehicle_type_id":"4","last_reported":1762614517,"current_range_meters":18800,"station_id":"ce4bhe12rcd13ifvqf30","pricing_plan_id":"cebpf4jnsgd1na2vs0mg"},{"bike_id":"f4b3610c-ddfd-461d-9ea3-633c91510343","system_id":"levelo_inurba_marseille","lat":43.24635,"lon":5.43155,"is_reserved":false,"is_disabled":false,"rental_uris":{"android":"levelo://app?vid=f4b3610c-ddfd-461d-9ea3-633c91510343","ios":"levelo://app?vid=f4b3610c-ddfd-461d-9ea3-633c91510343"},"vehicle_type_id":"4","last_reported":1762614517,"current_range_meters":18800,"station_id":"st_d2m6c4gdas8pm72e190g","pricing_plan_id":"cebpf4jnsgd1na2vs0mg"},{"bike_id":"c8347365-21ae-420a-b8d1-26c2effaac08","system_id":"levelo_inurba_marseille","lat":43.23156,"lon":5.4371,"is_reserved":false,"is_disabled":false,"rental_uris":{"android":"levelo://app?vid=c8347365-21ae-420a-b8d1-26c2effaac08","ios":"levelo://app?vid=c8347365-21ae-420a-b8d1-26c2effaac08"},"vehicle_type_id":"4","last_reported":1762614517,"current_range_meters":18800,"station_id":"ce4bhmp2rcd13ifvqgog","pricing_plan_id":"cebpf4jnsgd1na2vs0mg"},{"bike_id":"adc728c4-7d88-468c-be89-220c19218372","system_id":"levelo_inurba_marseille","lat":43.30967,"lon":5.38369,"is_reserved":false,"is_disabled":false,"rental_uris":{"android":"levelo://app?vid=adc728c4-7d88-468c-be89-220c19218372","ios":"levelo://app?vid=adc728c4-7d88-468c-be89-220c19218372"},"vehicle_type_id":"4","last_reported":1762614517,"current_range_meters":18800,"station_id":"","pricing_plan_id":"cebpf4jnsgd1na2vs0mg"},{"bike_id":"4674d9f4-3d44-468c-a3d6-5f45963b3858","system_id":"levelo_inurba_marseille","lat":43.21185,"lon":5.35093,"is_reserved":false,"is_disabled":false,"rental_uris":{"android":"levelo://app?vid=4674d9f4-3d44-468c-a3d6-5f45963b3858","ios":"levelo://app?vid=4674d9f4-3d44-468c-a3d6-5f45963b3858"},"vehicle_type_id":"4","last_reported":1762614517,"current_range_meters":18800,"station_id":"st_cvj6sg6p6f1abm77japg","pricing_plan_id":"cebpf4jnsgd1na2vs0mg"},{"bike_id":"345285ad-10a7-49ef-b97f-7faa01587ccf","system_id":"levelo_inurba_marseille","lat":43.24636,"lon":5.43151,"is_reserved":false,"is_disabled":false,"rental_uris":{"android":"levelo://app?vid=345285ad-10a7-49ef-b97f-7faa01587ccf","ios":"levelo://app?vid=345285ad-10a7-49ef-b97f-7faa01587ccf"},"vehicle_type_id":"4","last_reported":1762614517,"current_range_meters":18800,"station_id":"st_d2m6c4gdas8pm72e190g","pricing_plan_id":"cebpf4jnsgd1na2vs0mg"},{"bike_id":"6e7d5eb4-ff05-4a68-85e4-3a6e51d61536","system_id":"levelo_inurba_marseille","lat":43.211939,"lon":5.350704,"is_reserved":false,"is_disabled":false,"rental_uris":{"android":"levelo://app?vid=6e7d5eb4-ff05-4a68-85e4-3a6e51d61536","ios":"levelo://app?vid=6e7d5eb4-ff05-4a68-85e4-3a6e51d61536"},"vehicle_type_id":"4","last_reported":1762614517,"current_range_meters":18800,"station_id":"st_cvj6r9ubvosntc0bgbag","pricing_plan_id":"cebpf4jnsgd1na2vs0mg"},