{"last_updated":1687972010,"ttl":30,"version":"2.2","data":{"bikes":[{"bike_id":"272f45e0-fbe7-4c61-a507-01736c6220a9","system_id":"levelo_inurba_marseille","lat":43.312239,"lon":5.368562,"is_reserved":false,"is_disabled":false,"rental_uris":{"android":"levelo://app?vid=272f45e0-fbe7-4c61-a507-01736c6220a9","ios":"levelo://app?vid=272f45e0-fbe7-4c61-a507-01736c6220a9"},"vehicle_type_id":"4","last_reported":1687972012,"current_range_meters":11200,"station_id":"ce4bgl92rcd13ifvqbq0","pricing_plan_id":"free"},{"bike_id":"666c1415-28e9-4944-87f5-29a628446c75","system_id":"levelo_inurba_marseille","lat":43.312239,"lon":5.368562,"is_reserved":false,"is_disabled":false,"rental_uris":{"android":"levelo://app?vid=666c1415-28e9-4944-87f5-29a628446c75","ios":"levelo://app?vid=666c1415-28e9-4944-87f5-29a628446c75"},"vehicle_type_id":"4","last_reported":1687972012,"current_range_meters":31200,"station_id":"ce4bgl92rcd13ifvqbq0","pricing_plan_id":"free"},{"bike_id":"fe0f6680-3d31-4b65-b365-17b9d6f0ad66","system_id":"levelo_inurba_marseille","lat":43.3089,"lon":5.37074,"is_reserved":false,"is_disabled":false,"rental_uris":{"android":"levelo://app?vid=fe0f6680-3d31-4b65-b365-17b9d6f0ad66","ios":"levelo://app?vid=fe0f6680-3d31-4b65-b365-17b9d6f0ad66"},"vehicle_type_id":"4","last_reported":1687972012,"current_range_meters":3600,"station_id":"","pricing_plan_id":"free"},{"bike_id":"fc4332ba-960e-448e-8881-8170fef0e289","system_id":"levelo_inurba_marseille","lat":43.314811,"lon":5.373103,"is_reserved":false,"is_disabled":false,"rental_uris":{"android":"levelo://app?vid=fc4332ba-960e-448e-8881-8170fef0e289","ios":"levelo://app?vid=fc4332ba-960e-448e-8881-8170fef0e289"},"vehicle_type_id":"4","last_reported":1687972012,"current_range_meters":20400,"station_id":"ce4bgt12rcd13ifvqcd0","pricing_plan_id":"free"},{"bike_id":"ed9aeab1-314d-4e2d-af82-d4b17f6bd6c7","system_id":"levelo_inurba_marseille","lat":43.308606,"lon":5.372099,"is_reserved":false,"is_disabled":false,"rental_uris":{"android":"levelo://app?vid=ed9aeab1-314d-4e2d-af82-d4b17f6bd6c7","ios":"levelo://app?vid=ed9aeab1-314d-4e2d-af82-d4b17f6bd6c7"},"vehicle_type_id":"4","last_reported":1687972012,"current_range_meters":3600,"station_id":"ce4bguh2rcd13ifvqckg","pricing_plan_id":"free"},{"bike_id":"589bd2e6-1166-4489-9492-c1091cf54013","system_id":"levelo_inurba_marseille","lat":43.3076,"lon":5.3662,"is_reserved":false,"is_disabled":false,"rental_uris":{"android":"levelo://app?vid=589bd2e6-1166-4489-9492-c1091cf54013","ios":"levelo://app?vid=589bd2e6-1166-4489-9492-c1091cf54013"},"vehicle_type_id":"4","last_reported":1687972012,"current_range_meters":26800,"station_id":"","pricing_plan_id":"free"},{"bike_id":"2deab8cc-48c6-4752-9876-5fc859f4d23b","system_id":"levelo_inurba_marseille","lat":43.308614,"lon":5.372098,"is_reserved":false,"is_disabled":false,"rental_uris":{"android":"levelo://app?vid=2deab8cc-48c6-4752-9876-5fc859f4d23b","ios":"levelo://app?vid=2deab8cc-48c6-4752-9876-5fc859f4d23b"},"vehicle_type_id":"4","last_reported":1687972012,"current_range_meters":800,"station_id":"ce4bguh2rcd13ifvqckg","pricing_plan_id":"free"},{"bike_id":"9fc1b288-634b-4910-b02c-ff1a4398e19c","system_id":"levelo_inurba_marseille","lat":43.311131,"lon":5.377651,"is_reserved":false,"is_disabled":false,"rental_uris":{"android":"levelo://app?vid=9fc1b288-634b-4910-b02c-ff1a4398e19c","ios":"levelo://app?vid=9fc1b288-634b-4910-b02c-ff1a4398e19c"},"vehicle_type_id":"4","last_reported":1687972012,"current_range_meters":0,"station_id":"ce4bgt92rcd13ifvqcg0","pricing_plan_id":"free"},{"bike_id":"3fe1de12-e120-4317-aa00-68a5f382da81","system_id":"levelo_inurba_marseille","lat":43.31721,"lon":5.37743,"is_reserved":false,"is_disabled":false,"rental_uris":{"android":"levelo://app?vid=3fe1de12-e120-4317-aa00-68a5f382da81","ios":"levelo://app?vid=3fe1de12-e120-4317-aa00-68a5f382da81"},"vehicle_type_id":"4","last_reported":1687972012,"current_range_meters":12000,"station_id":"ce4bgth2rcd13ifvqch0","pricing_plan_id":"free"},{"bike_id":"d0387d48-a926-4dac-8058-628e6ba0831c","system_id":"levelo_inurba_marseille","lat":43.308012,"lon":5.381511,"is_reserved":false,"is_disabled":false,"rental_uris":{"android":"levelo://app?vid=d0387d48-a926-4dac-8058-628e6ba0831c","ios":"levelo://app?vid=d0387d48-a926-4dac-8058-628e6ba0831c"},"vehicle_type_id":"4","last_reported":1687972012,"current_range_meters":17200,"station_id":"ce4bgt12rcd13ifvqce0","pricing_plan_id":"free"},{"bike_id":"4b446b36-0b3f-4ad5-90bc-f3dd4eb945cb","system_id":"levelo_inurba_marseille","lat":43.319935,"lon":5.381699,"is_reserved":false,"is_disabled":false,"rental_uris":{"android":"levelo://app?vid=4b446b36-0b3f-4ad5-90bc-f3dd4eb945cb","ios":"levelo://app?vid=4b446b36-0b3f-4ad5-90bc-f3dd4eb945cb"},"vehicle_type_id":"4","last_reported":1687972012,"current_range_meters":17600,"station_id":"ce4bhr12rcd13ifvqhpg","pricing_plan_id":"free"},{"bike_id":"b79fc174-4dec-4c28-83be-1d1f1c8f2c89","system_id":"levelo_inurba_marseille","lat":43.313571,"lon":5.384829,"is_reserved":false,"is_disabled":false,"rental_uris":{"android":"levelo://app?vid=b79fc174-4dec-4c28-83be-1d1f1c8f2c89","ios":"levelo://app?vid=b79fc174-4dec-4c28-83be-1d1f1c8f2c89"},"vehicle_type_id":"4","last_reported":1687972012,"current_range_meters":7200,"station_id":"ce4bgt92rcd13ifvqcf0","pricing_plan_id":"free"},{"bike_id":"436527e1-9cbf-44cb-b94c-794151dd85f5","system_id":"levelo_inurba_marseille","lat":43.29933,"lon":5.3734,"is_reserved":false,"is_disabled":false,"rental_uris":{"android":"levelo://app?vid=436527e1-9cbf-44cb-b94c-794151dd85f5","ios":"levelo://app?vid=436527e1-9cbf-44cb-b94c-794151dd85f5"},"vehicle_type_id":"4","last_reported":1687972012,"current_range_meters":1200,"station_id":"","pricing_plan_id":"free"},{"bike_id":"39e6c2ae-5915-41f0-a60c-edfba071bfec","system_id":"levelo_inurba_marseille","lat":43.29852,"lon":5.36281,"is_reserved":false,"is_disabled":false,"rental_uris":{"android":"levelo://app?vid=39e6c2ae-5915-41f0-a60c-edfba071bfec","ios":"levelo://app?vid=39e6c2ae-5915-41f0-a60c-edfba071bfec"},"vehicle_type_id":"4","last_reported":1687972012,"current_range_meters":5600,"station_id":"ce4bgpp2rcd13ifvqc3g","pricing_plan_id":"free"},{"bike_id":"78f99f73-6b4c-49e3-a6c7-81ccb0b28446","system_id":"levelo_inurba_marseille","lat":43.298433,"lon":5.362774,"is_reserved":false,"is_disabled":false,"rental_uris":{"android":"levelo://app?vid=78f99f73-6b4c-49e3-a6c7-81ccb0b28446","ios":"levelo://app?vid=78f99f73-6b4c-49e3-a6c7-81ccb0b28446"},"vehicle_type_id":"4","last_reported":1687972012,"current_range_meters":24400,"station_id":"ce4bgpp2rcd13ifvqc3g","pricing_plan_id":"free"},{"bike_id":"8e5f11b2-cff4-4a4a-af72-b7ad23ea82c0","system_id":"levelo_inurba_marseille","lat":43.298433,"lon":5.362774,"is_reserved":false,"is_disabled":false,"rental_uris":{"android":"levelo://app?vid=8e5f11b2-cff4-4a4a-af72-b7ad23ea82c0","ios":"levelo://app?vid=8e5f11b2-cff4-4a4a-af72-b7ad23ea82c0"},"vehicle_type_id":"4","last_reported":1687972012,"current_range_meters":6800,"station_id":"ce4bgpp2rcd13ifvqc3g","pricing_plan_id":"free"},{"bike_id":"b26299ea-6fa5-4c15-b2dd-e08b6c8ac838","system_id":"levelo_inurba_marseille","lat":43.298433,"lon":5.362774,"is_reserved":false,"is_disabled":false,"rental_uris":{"android":"levelo://app?vid=b26299ea-6fa5-4c15-b2dd-e08b6c8ac838","ios":"levelo://app?vid=b26299ea-6fa5-4c15-b2dd-e08b6c8ac838"},"vehicle_type_id":"4","last_reported":1687972012,"current_range_meters":19200,"station_id":"ce4bgpp2rcd13ifvqc3g","pricing_plan_id":"free"},{"bike_id":"e0d0291c-ec75-41db-a9f0-126642f983d8","system_id":"levelo_inurba_marseille","lat":43.298433,"lon":5.362774,"is_reserved":false,"is_disabled":false,"rental_uris":{"android":"levelo://app?vid=e0d0291c-ec75-41db-a9f0-126642f983d8","ios":"levelo://app?vid=e0d0291c-ec75-41db-a9f0-126642f983d8"},"vehicle_type_id":"4","last_reported":1687972012,"current_range_meters":12800,"station_id":"ce4bgpp2rcd13ifvqc3g","pricing_plan_id":"free"},{"bike_id":"f3399d83-ec82-46b3-8b33-88dc45f42672","system_id":"levelo_inurba_marseille","lat":43.298433,"lon":5.362774,"is_reserved":false,"is_disabled":false,"rental_uris":{"android":"levelo://app?vid=f3399d83-ec82-46b3-8b33-88dc45f42672","ios":"levelo://app?vid=f3399d83-ec82-46b3-8b33-88dc45f42672"},"vehicle_type_id":"4","last_reported":1687972012,"current_range_meters":12400,"station_id":"ce4bgpp2rcd13ifvqc3g","pricing_plan_id":"free"},{"bike_id":"f7c98b2f-309d-4069-a7b5-bf1aaf234976","system_id":"levelo_inurba_marseille","lat":43.298433,"lon":5.362774,"is_reserved":false,"is_disabled":false,"rental_uris":{"android":"levelo://app?vid=f7c98b2f-309d-4069-a7b5-bf1aaf234976","ios":"levelo://app?vid=f7c98b2f-309d-4069-a7b5-bf1aaf234976"},"vehicle_type_id":"4","last_reported":1687972012,"current_range_meters":22800,"station_id":"ce4bgpp2rcd13ifvqc3g","pricing_plan_id":"free"},{"bike_id":"0bd798ff-f9de-41c0-b39f-1c23ff58795b","system_id":"levelo_inurba_marseille","lat":43.298433,"lon":5.362774,"is_reserved":false,"is_disabled":false,"rental_uris":{"android":"levelo://app?vid=0bd798ff-f9de-41c0-b39f-1c23ff58795b","ios":"levelo://app?vid=0bd798ff-f9de-41c0-b39f-1c23ff58795b"},"vehicle_type_id":"4","last_reported":1687972012,"current_range_meters":1200,"station_id":"ce4bgpp2rcd13ifvqc3g","pricing_plan_id":"free"},{"bike_id":"6b0c689b-1487-4332-9e38-38fef09a19be","system_id":"levelo_inurba_marseille","lat":43.311722,"lon":5.387247,"is_reserved":false,"is_disabled":false,"rental_uris":{"android":"levelo://app?vid=6b0c689b-1487-4332-9e38-38fef09a19be","ios":"levelo://app?vid=6b0c689b-1487-4332-9e38-38fef09a19be"},"vehicle_type_id":"4","last_reported":1687972012,"current_range_meters":17600,"station_id":"ce4bgv12rcd13ifvqcp0","pricing_plan_id":"free"},{"bike_id":"c238c80f-592a-49e6-b6a2-a8cb41adc247","system_id":"levelo_inurba_marseille","lat":43.297794,"lon":5.370888,"is_reserved":false,"is_disabled":false,"rental_uris":{"android":"levelo://app?vid=c238c80f-592a-49e6-b6a2-a8cb41adc247","ios":"levelo://app?vid=c238c80f-592a-49e6-b6a2-a8cb41adc247"},"vehicle_type_id":"4","last_reported":1687972012,"current_range_meters":0,"station_id":"ce4bgop2rcd13ifvqc1g","pricing_plan_id":"free"},{"bike_id":"6ee57d5d-b681-4cd4-9ee3-a1ec4ebaaeb2","system_id":"levelo_inurba_marseille","lat":43.297794,"lon":5.370888,"is_reserved":false,"is_disabled":false,"rental_uris":{"android":"levelo://app?vid=6ee57d5d-b681-4cd4-9ee3-a1ec4ebaaeb2","ios":"levelo://app?vid=6ee57d5d-b681-4cd4-9ee3-a1ec4ebaaeb2"},"vehicle_type_id":"4","last_reported":1687972012,"current_range_meters":13600,"station_id":"ce4bgop2rcd13ifvqc1g","pricing_plan_id":"free"},{"bike_id":"f86c5384-6d0d-438d-8feb-49ba8085fa8c","system_id":"levelo_inurba_marseille","lat":43.328371,"lon":5.366912,"is_reserved":false,"is_disabled":false,"rental_uris":{"android":"levelo://app?vid=f86c5384-6d0d-438d-8feb-49ba8085fa8c","ios":"levelo://app?vid=f86c5384-6d0d-438d-8feb-49ba8085fa8c"},"vehicle_type_id":"4","last_reported":1687972012,"current_range_meters":18400,"station_id":"ce4bhs92rcd13ifvqi0g","pricing_plan_id":"free"},{"bike_id":"07fc5e4e-23c0-4e7f-baff-848452f6a527","system_id":"levelo_inurba_marseille","lat":43.32825,"lon":5.36682,"is_reserved":false,"is_disabled":false,"rental_uris":{"android":"levelo://app?vid=07fc5e4e-23c0-4e7f-baff-848452f6a527","ios":"levelo://app?vid=07fc5e4e-23c0-4e7f-baff-848452f6a527"},"vehicle_type_id":"4","last_reported":1687972012,"current_range_meters":22000,"station_id":"ce4bhs92rcd13ifvqi0g","pricing_plan_id":"free"},{"bike_id":"6582f173-7b2c-4a42-844c-19148b9fbe1b","system_id":"levelo_inurba_marseille","lat":43.328371,"lon":5.366912,"is_reserved":false,"is_disabled":false,"rental_uris":{"android":"levelo://app?vid=6582f173-7b2c-4a42-844c-19148b9fbe1b","ios":"levelo://app?vid=6582f173-7b2c-4a42-844c-19148b9fbe1b"},"vehicle_type_id":"4","last_reported":1687972012,"current_range_meters":18400,"station_id":"ce4bhs92rcd13ifvqi0g","pricing_plan_id":"free"},{"bike_id":"4a06b224-8456-4335-98f3-dcc5eeee7538","system_id":"levelo_inurba_marseille","lat":43.328371,"lon":5.366912,"is_reserved":false,"is_disabled":false,"rental_uris":{"android":"levelo://app?vid=4a06b224-8456-4335-98f3-dcc5eeee7538","ios":"levelo://app?vid=4a06b224-8456-4335-98f3-dcc5eeee7538"},"vehicle_type_id":"4","last_reported":1687972012,"current_range_meters":0,"station_id":"ce4bhs92rcd13ifvqi0g","pricing_plan_id":"free"},{"bike_id":"74960633-2b88-4c2f-a74e-024991efb4ba","system_id":"levelo_inurba_marseille","lat":43.328371,"lon":5.366912,"is_reserved":false,"is_disabled":false,"rental_uris":{"android":"levelo://app?vid=74960633-2b88-4c2f-a74e-024991efb4ba","ios":"levelo://app?vid=74960633-2b88-4c2f-a74e-024991efb4ba"},"vehicle_type_id":"4","last_reported":1687972012,"current_range_meters":23200,"station_id":"ce4bhs92rcd13ifvqi0g","pricing_plan_id":"free"},{"bike_id":"4ad0820a-b4f0-4687-9297-85e68595ea74","system_id":"levelo_inurba_marseille","lat":43.328371,"lon":5.366909,"is_reserved":false,"is_disabled":false,"rental_uris":{"android":"levelo://app?vid=4ad0820a-b4f0-4687-9297-85e68595ea74","ios":"levelo://app?vid=4ad0820a-b4f0-4687-9297-85e68595ea74"},"vehicle_type_id":"4","last_reported":1687972012,"current_range_meters":15600,"station_id":"ce4bhs92rcd13ifvqi0g","pricing_plan_id":"free"},{"bike_id":"86b9fb7f-a2c3-4082-9faa-7e3f901f5c30","system_id":"levelo_inurba_marseille","lat":43.328371,"lon":5.366912,"is_reserved":false,"is_disabled":false,"rental_uris":{"android":"levelo://app?vid=86b9fb7f-a2c3-4082-9faa-7e3f901f5c30","ios":"levelo://app?vid=86b9fb7f-a2c3-4082-9faa-7e3f901f5c30"},"vehicle_type_id":"4","last_reported":1687972012,"current_range_meters":19600,"station_id":"ce4bhs92rcd13ifvqi0g","pricing_plan_id":"free"},{"bike_id":"52c17931-f235-4280-a010-fb1d15e44b39","system_id":"levelo_inurba_marseille","lat":43.32832,"lon":5.36668,"is_reserved":false,"is_disabled":false,"rental_uris":{"android":"levelo://app?vid=52c17931-f235-4280-a010-fb1d15e44b39","ios":"levelo://app?vid=52c17931-f235-4280-a010-fb1d15e44b39"},"vehicle_type_id":"4","last_reported":1687972012,"current_range_meters":28400,"station_id":"ce4bhs92rcd13ifvqi0g","pricing_plan_id":"free"},{"bike_id":"17f77a30-51fb-4e8a-89eb-8c56b654d3cd","system_id":"levelo_inurba_marseille","lat":43.297163,"lon":5.365866,"is_reserved":false,"is_disabled":false,"rental_uris":{"android":"levelo://app?vid=17f77a30-51fb-4e8a-89eb-8c56b654d3cd","ios":"levelo://app?vid=17f77a30-51fb-4e8a-89eb-8c56b654d3cd"},"vehicle_type_id":"4","last_reported":1687972012,"current_range_meters":9600,"station_id":"ce4bgn12rcd13ifvqbt0","pricing_plan_id":"free"},{"bike_id":"8d98417a-cbe4-4269-8bc9-598373a7d5de","system_id":"levelo_inurba_marseille","lat":43.32867,"lon":5.363,"is_reserved":false,"is_disabled":false,"rental_uris":{"android":"levelo://app?vid=8d98417a-cbe4-4269-8bc9-598373a7d5de","ios":"levelo://app?vid=8d98417a-cbe4-4269-8bc9-598373a7d5de"},"vehicle_type_id":"4","last_reported":1687972012,"current_range_meters":2000,"station_id":"","pricing_plan_id":"free"},{"bike_id":"1fd7741c-18b0-485d-aa13-1b29675fe891","system_id":"levelo_inurba_marseille","lat":43.296131,"lon":5.370773,"is_reserved":false,"is_disabled":false,"rental_uris":{"android":"levelo://app?vid=1fd7741c-18b0-485d-aa13-1b29675fe891","ios":"levelo://app?vid=1fd7741c-18b0-485d-aa13-1b29675fe891"},"vehicle_type_id":"4","last_reported":1687972012,"current_range_meters":28800,"station_id":"ce4bgnh2rcd13ifvqc0g","pricing_plan_id":"free"},{"bike_id":"fa7e11ff-6677-4621-b619-1c400153957e","system_id":"levelo_inurba_marseille","lat":43.309589,"lon":5.390258,"is_reserved":false,"is_disabled":false,"rental_uris":{"android":"levelo://app?vid=fa7e11ff-6677-4621-b619-1c400153957e","ios":"levelo://app?vid=fa7e11ff-6677-4621-b619-1c400153957e"},"vehicle_type_id":"4","last_reported":1687972012,"current_range_meters":30000,"station_id":"ce4bgup2rcd13ifvqco0","pricing_plan_id":"free"},{"bike_id":"0a4560fb-8f1f-4b5b-93e9-9ca7ec1df522","system_id":"levelo_inurba_marseille","lat":43.309589,"lon":5.390258,"is_reserved":false,"is_disabled":false,"rental_uris":{"android":"levelo://app?vid=0a4560fb-8f1f-4b5b-93e9-9ca7ec1df522","ios":"levelo://app?vid=0a4560fb-8f1f-4b5b-93e9-9ca7ec1df522"},"vehicle_type_id":"4","last_reported":1687972012,"current_range_meters":6400,"station_id":"ce4bgup2rcd13ifvqco0","pricing_plan_id":"free"},{"bike_id":"09943e32-56df-4a41-93f1-5c33b0e75534","system_id":"levelo_inurba_marseille","lat":43.2958,"lon":5.37497,"is_reserved":false,"is_disabled":false,"rental_uris":{"android":"levelo://app?vid=09943e32-56df-4a41-93f1-5c33b0e75534","ios":"levelo://app?vid=09943e32-56df-4a41-93f1-5c33b0e75534"},"vehicle_type_id":"4","last_reported":1687972012,"current_range_meters":2000,"station_id":"ce4bgh92rcd13ifvqb50","pricing_plan_id":"free"},{"bike_id":"5fff3789-9afc-4165-a738-996c80fed6b5","system_id":"levelo_inurba_marseille","lat":43.296277,"lon":5.377108,"is_reserved":false,"is_disabled":false,"rental_uris":{"android":"levelo://app?vid=5fff3789-9afc-4165-a738-996c80fed6b5","ios":"levelo://app?vid=5fff3789-9afc-4165-a738-996c80fed6b5"},"vehicle_type_id":"4","last_reported":1687972012,"current_range_meters":16800,"station_id":"ce4bgi92rcd13ifvqb90","pricing_plan_id":"free"},{"bike_id":"66f9d357-2471-4e8c-aff7-61b064a2fe96","system_id":"levelo_inurba_marseille","lat":43.32367,"lon":5.388836,"is_reserved":false,"is_disabled":false,"rental_uris":{"android":"levelo://app?vid=66f9d357-2471-4e8c-aff7-61b064a2fe96","ios":"levelo://app?vid=66f9d357-2471-4e8c-aff7-61b064a2fe96"},"vehicle_type_id":"4","last_reported":1687972012,"current_range_meters":7200,"station_id":"ce4bhqp2rcd13ifvqhog","pricing_plan_id":"free"},{"bike_id":"ba19edc2-50b7-4968-bca6-cd0f21eb0103","system_id":"levelo_inurba_marseille","lat":43.32367,"lon":5.388836,"is_reserved":false,"is_disabled":false,"rental_uris":{"android":"levelo://app?vid=ba19edc2-50b7-4968-bca6-cd0f21eb0103","ios":"levelo://app?vid=ba19edc2-50b7-4968-bca6-cd0f21eb0103"},"vehicle_type_id":"4","last_reported":1687972012,"current_range_meters":1600,"station_id":"ce4bhqp2rcd13ifvqhog","pricing_plan_id":"free"},{"bike_id":"6b6b5e92-75b0-4619-8a07-d993192a3d44","system_id":"levelo_inurba_marseille","lat":43.3237,"lon":5.38885,"is_reserved":false,"is_disabled":false,"rental_uris":{"android":"levelo://app?vid=6b6b5e92-75b0-4619-8a07-d993192a3d44","ios":"levelo://app?vid=6b6b5e92-75b0-4619-8a07-d993192a3d44"},"vehicle_type_id":"4","last_reported":1687972012,"current_range_meters":0,"station_id":"ce4bhqp2rcd13ifvqhog","pricing_plan_id":"free"},{"bike_id":"c737b305-2f9e-411a-b1ca-26b0f745d0f2","system_id":"levelo_inurba_marseille","lat":43.33185,"lon":5.36161,"is_reserved":false,"is_disabled":false,"rental_uris":{"android":"levelo://app?vid=c737b305-2f9e-411a-b1ca-26b0f745d0f2","ios":"levelo://app?vid=c737b305-2f9e-411a-b1ca-26b0f745d0f2"},"vehicle_type_id":"4","last_reported":1687972012,"current_range_meters":10000,"station_id":"","pricing_plan_id":"free"},{"bike_id":"a8f7f04b-215f-4cc9-8a51-08fa97bbbce7","system_id":"levelo_inurba_marseille","lat":43.29306,"lon":5.37455,"is_reserved":false,"is_disabled":false,"rental_uris":{"android":"levelo://app?vid=a8f7f04b-215f-4cc9-8a51-08fa97bbbce7","ios":"levelo://app?vid=a8f7f04b-215f-4cc9-8a51-08fa97bbbce7"},"vehicle_type_id":"4","last_reported":1687972012,"current_range_meters":6000,"station_id":"ce4bgi12rcd13ifvqb70","pricing_plan_id":"free"},{"bike_id":"c7e5e70a-0f09-47db-b5a7-31b921110928","system_id":"levelo_inurba_marseille","lat":43.309589,"lon":5.390258,"is_reserved":false,"is_disabled":false,"rental_uris":{"android":"levelo://app?vid=c7e5e70a-0f09-47db-b5a7-31b921110928","ios":"levelo://app?vid=c7e5e70a-0f09-47db-b5a7-31b921110928"},"vehicle_type_id":"4","last_reported":1687972012,"current_range_meters":17200,"station_id":"ce4bgup2rcd13ifvqco0","pricing_plan_id":"free"},{"bike_id":"33e251af-49b9-4405-adcf-5ede9f0f2266","system_id":"levelo_inurba_marseille","lat":43.29357,"lon":5.37834,"is_reserved":false,"is_disabled":false,"rental_uris":{"android":"levelo://app?vid=33e251af-49b9-4405-adcf-5ede9f0f2266","ios":"levelo://app?vid=33e251af-49b9-4405-adcf-5ede9f0f2266"},"vehicle_type_id":"4","last_reported":1687972012,"current_range_meters":2800,"station_id":"ce4bgjh2rcd13ifvqbf0","pricing_plan_id":"free"},{"bike_id":"5e0a2614-c8b0-4830-98b0-656362760b58","system_id":"levelo_inurba_marseille","lat":43.291994,"lon":5.357886,"is_reserved":false,"is_disabled":false,"rental_uris":{"android":"levelo://app?vid=5e0a2614-c8b0-4830-98b0-656362760b58","ios":"levelo://app?vid=5e0a2614-c8b0-4830-98b0-656362760b58"},"vehicle_type_id":"4","last_reported":1687972012,"current_range_meters":16800,"station_id":"ce4bhb12rcd13ifvqel0","pricing_plan_id":"free"},{"bike_id":"d0d5578e-18a8-4c8c-98a7-37f8d98c0571","system_id":"levelo_inurba_marseille","lat":43.29192,"lon":5.35804,"is_reserved":false,"is_disabled":false,"rental_uris":{"android":"levelo://app?vid=d0d5578e-18a8-4c8c-98a7-37f8d98c0571","ios":"levelo://app?vid=d0d5578e-18a8-4c8c-98a7-37f8d98c0571"},"vehicle_type_id":"4","last_reported":1687972012,"current_range_meters":12800,"station_id":"ce4bhb12rcd13ifvqel0","pricing_plan_id":"free"},{"bike_id":"0f5c0a0c-d71f-4e90-afe2-b0520d9bcf05","system_id":"levelo_inurba_marseille","lat":43.291994,"lon":5.357886,"is_reserved":false,"is_disabled":false,"rental_uris":{"android":"levelo://app?vid=0f5c0a0c-d71f-4e90-afe2-b0520d9bcf05","ios":"levelo://app?vid=0f5c0a0c-d71f-4e90-afe2-b0520d9bcf05"},"vehicle_type_id":"4","last_reported":1687972012,"current_range_meters":29200,"station_id":"ce4bhb12rcd13ifvqel0","pricing_plan_id":"free"},{"bike_id":"3d79809d-80ba-40e8-af4a-d6a6baf8acdf","system_id":"levelo_inurba_marseille","lat":43.29191,"lon":5.35792,"is_reserved":false,"is_disabled":false,"rental_uris":{"android":"levelo://app?vid=3d79809d-80ba-40e8-af4a-d6a6baf8acdf","ios":"levelo://app?vid=3d79809d-80ba-40e8-af4a-d6a6baf8acdf"},"vehicle_type_id":"4","last_reported":1687972012,"current_range_meters":30800,"station_id":"ce4bhb12rcd13ifvqel0","pricing_plan_id":"free"},{"bike_id":"3488bca4-9c87-4b3e-8597-fc289ad66beb","system_id":"levelo_inurba_marseille","lat":43.31326,"lon":5.39693,"is_reserved":false,"is_disabled":false,"rental_uris":{"android":"levelo://app?vid=3488bca4-9c87-4b3e-8597-fc289ad66beb","ios":"levelo://app?vid=3488bca4-9c87-4b3e-8597-fc289ad66beb"},"vehicle_type_id":"4","last_reported":1687972012,"current_range_meters":12000,"station_id":"ce4bgvp2rcd13ifvqcu0","pricing_plan_id":"free"},{"bike_id":"0aeca12b-c0dd-4f9e-9147-9934b144b743","system_id":"levelo_inurba_marseille","lat":43.309038,"lon":5.396546,"is_reserved":false,"is_disabled":false,"rental_uris":{"android":"levelo://app?vid=0aeca12b-c0dd-4f9e-9147-9934b144b743","ios":"levelo://app?vid=0aeca12b-c0dd-4f9e-9147-9934b144b743"},"vehicle_type_id":"4","last_reported":1687972012,"current_range_meters":6400,"station_id":"ce4bh012rcd13ifvqcv0","pricing_plan_id":"free"},{"bike_id":"e4d561c0-2878-47e4-8c9b-54563c9fb9eb","system_id":"levelo_inurba_marseille","lat":43.309038,"lon":5.396546,"is_reserved":false,"is_disabled":false,"rental_uris":{"android":"levelo://app?vid=e4d561c0-2878-47e4-8c9b-54563c9fb9eb","ios":"levelo://app?vid=e4d561c0-2878-47e4-8c9b-54563c9fb9eb"},"vehicle_type_id":"4","last_reported":1687972012,"current_range_meters":6000,"station_id":"ce4bh012rcd13ifvqcv0","pricing_plan_id":"free"},{"bike_id":"2b3e4b34-1d96-47ae-a1b4-dd87e60d28a5","system_id":"levelo_inurba_marseille","lat":43.29529,"lon":5.385581,"is_reserved":false,"is_disabled":false,"rental_uris":{"android":"levelo://app?vid=2b3e4b34-1d96-47ae-a1b4-dd87e60d28a5","ios":"levelo://app?vid=2b3e4b34-1d96-47ae-a1b4-dd87e60d28a5"},"vehicle_type_id":"4","last_reported":1687972012,"current_range_meters":10400,"station_id":"ce4bgih2rcd13ifvqba0","pricing_plan_id":"free"},{"bike_id":"89de21dc-8fec-4fb5-b98f-788478c6b767","system_id":"levelo_inurba_marseille","lat":43.29529,"lon":5.385581,"is_reserved":false,"is_disabled":false,"rental_uris":{"android":"levelo://app?vid=89de21dc-8fec-4fb5-b98f-788478c6b767","ios":"levelo://app?vid=89de21dc-8fec-4fb5-b98f-788478c6b767"},"vehicle_type_id":"4","last_reported":1687972012,"current_range_meters":17600,"station_id":"ce4bgih2rcd13ifvqba0","pricing_plan_id":"free"},{"bike_id":"4498fe73-d37b-4673-9add-0f124fe4b3d1","system_id":"levelo_inurba_marseille","lat":43.290779,"lon":5.371482,"is_reserved":false,"is_disabled":false,"rental_uris":{"android":"levelo://app?vid=4498fe73-d37b-4673-9add-0f124fe4b3d1","ios":"levelo://app?vid=4498fe73-d37b-4673-9add-0f124fe4b3d1"},"vehicle_type_id":"4","last_reported":1687972012,"current_range_meters":400,"station_id":"ce4bh5p2rcd13ifvqe4g","pricing_plan_id":"free"},{"bike_id":"ad3f935c-0cbd-409d-94b5-61cd0fd1c770","system_id":"levelo_inurba_marseille","lat":43.302008,"lon":5.394694,"is_reserved":false,"is_disabled":false,"rental_uris":{"android":"levelo://app?vid=ad3f935c-0cbd-409d-94b5-61cd0fd1c770","ios":"levelo://app?vid=ad3f935c-0cbd-409d-94b5-61cd0fd1c770"},"vehicle_type_id":"4","last_reported":1687972012,"current_range_meters":11200,"station_id":"ce4bh0p2rcd13ifvqd70","pricing_plan_id":"free"},{"bike_id":"dce3b636-31a9-4c74-bcfe-636a12442245","system_id":"levelo_inurba_marseille","lat":43.29045,"lon":5.35913,"is_reserved":false,"is_disabled":false,"rental_uris":{"android":"levelo://app?vid=dce3b636-31a9-4c74-bcfe-636a12442245","ios":"levelo://app?vid=dce3b636-31a9-4c74-bcfe-636a12442245"},"vehicle_type_id":"4","last_reported":1687972012,"current_range_meters":5600,"station_id":"ce4bha92rcd13ifvqeg0","pricing_plan_id":"free"},{"bike_id":"ef55ced8-9d94-4201-a54e-435d61f3a6bf","system_id":"levelo_inurba_marseille","lat":43.290624,"lon":5.359245,"is_reserved":false,"is_disabled":false,"rental_uris":{"android":"levelo://app?vid=ef55ced8-9d94-4201-a54e-435d61f3a6bf","ios":"levelo://app?vid=ef55ced8-9d94-4201-a54e-435d61f3a6bf"},"vehicle_type_id":"4","last_reported":1687972012,"current_range_meters":0,"station_id":"ce4bha92rcd13ifvqeg0","pricing_plan_id":"free"},{"bike_id":"b98943ec-2865-489f-983c-242240cf4de6","system_id":"levelo_inurba_marseille","lat":43.294162,"lon":5.386292,"is_reserved":false,"is_disabled":false,"rental_uris":{"android":"levelo://app?vid=b98943ec-2865-489f-983c-242240cf4de6","ios":"levelo://app?vid=b98943ec-2865-489f-983c-242240cf4de6"},"vehicle_type_id":"4","last_reported":1687972012,"current_range_meters":16400,"station_id":"ce4bh2h2rcd13ifvqdh0","pricing_plan_id":"free"},{"bike_id":"3f70b545-e6ef-421b-bdc2-fc8bf0a7f934","system_id":"levelo_inurba_marseille","lat":43.289184,"lon":5.366408,"is_reserved":false,"is_disabled":false,"rental_uris":{"android":"levelo://app?vid=3f70b545-e6ef-421b-bdc2-fc8bf0a7f934","ios":"levelo://app?vid=3f70b545-e6ef-421b-bdc2-fc8bf0a7f934"},"vehicle_type_id":"4","last_reported":1687972012,"current_range_meters":1600,"station_id":"ce4bhap2rcd13ifvqek0","pricing_plan_id":"free"},{"bike_id":"aab58c53-8271-46db-a195-2837a3a1ec15","system_id":"levelo_inurba_marseille","lat":43.290327,"lon":5.375711,"is_reserved":false,"is_disabled":false,"rental_uris":{"android":"levelo://app?vid=aab58c53-8271-46db-a195-2837a3a1ec15","ios":"levelo://app?vid=aab58c53-8271-46db-a195-2837a3a1ec15"},"vehicle_type_id":"4","last_reported":1687972012,"current_range_meters":0,"station_id":"ce4bh692rcd13ifvqe90","pricing_plan_id":"free"},{"bike_id":"6867df42-30dd-4825-b7fe-404564247748","system_id":"levelo_inurba_marseille","lat":43.294174,"lon":5.386231,"is_reserved":false,"is_disabled":false,"rental_uris":{"android":"levelo://app?vid=6867df42-30dd-4825-b7fe-404564247748","ios":"levelo://app?vid=6867df42-30dd-4825-b7fe-404564247748"},"vehicle_type_id":"4","last_reported":1687972012,"current_range_meters":10000,"station_id":"","pricing_plan_id":"free"},{"bike_id":"665fa801-4999-4496-9d5e-69c825fdba64","system_id":"levelo_inurba_marseille","lat":43.29422,"lon":5.38633,"is_reserved":false,"is_disabled":false,"rental_uris":{"android":"levelo://app?vid=665fa801-4999-4496-9d5e-69c825fdba64","ios":"levelo://app?vid=665fa801-4999-4496-9d5e-69c825fdba64"},"vehicle_type_id":"4","last_reported":1687972012,"current_range_meters":31200,"station_id":"ce4bh2h2rcd13ifvqdh0","pricing_plan_id":"free"},{"bike_id":"399ef6b6-bd49-40a3-a085-0dfa050cfb9f","system_id":"levelo_inurba_marseille","lat":43.29411,"lon":5.38614,"is_reserved":false,"is_disabled":false,"rental_uris":{"android":"levelo://app?vid=399ef6b6-bd49-40a3-a085-0dfa050cfb9f","ios":"levelo://app?vid=399ef6b6-bd49-40a3-a085-0dfa050cfb9f"},"vehicle_type_id":"4","last_reported":1687972012,"current_range_meters":3200,"station_id":"","pricing_plan_id":"free"},{"bike_id":"70ba14d7-e244-4f5c-a2e6-3f3f8e2ae123","system_id":"levelo_inurba_marseille","lat":43.29416,"lon":5.38634,"is_reserved":false,"is_disabled":false,"rental_uris":{"android":"levelo://app?vid=70ba14d7-e244-4f5c-a2e6-3f3f8e2ae123","ios":"levelo://app?vid=70ba14d7-e244-4f5c-a2e6-3f3f8e2ae123"},"vehicle_type_id":"4","last_reported":1687972012,"current_range_meters":20800,"station_id":"ce4bh2h2rcd13ifvqdh0","pricing_plan_id":"free"},{"bike_id":"dc41910d-322a-450c-ae26-da6783f4c6d8","system_id":"levelo_inurba_marseille","lat":43.33034,"lon":5.38914,"is_reserved":false,"is_disabled":false,"rental_uris":{"android":"levelo://app?vid=dc41910d-322a-450c-ae26-da6783f4c6d8","ios":"levelo://app?vid=dc41910d-322a-450c-ae26-da6783f4c6d8"},"vehicle_type_id":"4","last_reported":1687972012,"current_range_meters":23600,"station_id":"ce4bhr92rcd13ifvqhrg","pricing_plan_id":"free"},{"bike_id":"0a52eda6-aef4-47ad-ae1d-76c679ae4cf0","system_id":"levelo_inurba_marseille","lat":43.33038,"lon":5.38922,"is_reserved":false,"is_disabled":false,"rental_uris":{"android":"levelo://app?vid=0a52eda6-aef4-47ad-ae1d-76c679ae4cf0","ios":"levelo://app?vid=0a52eda6-aef4-47ad-ae1d-76c679ae4cf0"},"vehicle_type_id":"4","last_reported":1687972012,"current_range_meters":12400,"station_id":"ce4bhr92rcd13ifvqhrg","pricing_plan_id":"free"},{"bike_id":"ae1429aa-5f4d-47d7-abec-2bf2c9b989e9","system_id":"levelo_inurba_marseille","lat":43.28907,"lon":5.37209,"is_reserved":false,"is_disabled":false,"rental_uris":{"android":"levelo://app?vid=ae1429aa-5f4d-47d7-abec-2bf2c9b989e9","ios":"levelo://app?vid=ae1429aa-5f4d-47d7-abec-2bf2c9b989e9"},"vehicle_type_id":"4","last_reported":1687972012,"current_range_meters":14400,"station_id":"ce4bh412rcd13ifvqds0","pricing_plan_id":"free"},{"bike_id":"7bf97ca4-3fcc-4e5a-b52b-4d84522acb4f","system_id":"levelo_inurba_marseille","lat":43.33047,"lon":5.3891,"is_reserved":false,"is_disabled":false,"rental_uris":{"android":"levelo://app?vid=7bf97ca4-3fcc-4e5a-b52b-4d84522acb4f","ios":"levelo://app?vid=7bf97ca4-3fcc-4e5a-b52b-4d84522acb4f"},"vehicle_type_id":"4","last_reported":1687972012,"current_range_meters":12800,"station_id":"ce4bhr92rcd13ifvqhrg","pricing_plan_id":"free"},{"bike_id":"f791cd7c-b8f7-43c1-93df-17bc665123c7","system_id":"levelo_inurba_marseille","lat":43.33045,"lon":5.38919,"is_reserved":false,"is_disabled":false,"rental_uris":{"android":"levelo://app?vid=f791cd7c-b8f7-43c1-93df-17bc665123c7","ios":"levelo://app?vid=f791cd7c-b8f7-43c1-93df-17bc665123c7"},"vehicle_type_id":"4","last_reported":1687972012,"current_range_meters":24800,"station_id":"ce4bhr92rcd13ifvqhrg","pricing_plan_id":"free"},{"bike_id":"001d70ae-826d-4323-b52f-879909ff6236","system_id":"levelo_inurba_marseille","lat":43.290104,"lon":5.356111,"is_reserved":false,"is_disabled":false,"rental_uris":{"android":"levelo://app?vid=001d70ae-826d-4323-b52f-879909ff6236","ios":"levelo://app?vid=001d70ae-826d-4323-b52f-879909ff6236"},"vehicle_type_id":"4","last_reported":1687972012,"current_range_meters":8400,"station_id":"ce4bhb92rcd13ifvqen0","pricing_plan_id":"free"},{"bike_id":"3b97849a-97e8-4ee2-b9c0-3186a92e183e","system_id":"levelo_inurba_marseille","lat":43.290104,"lon":5.356111,"is_reserved":false,"is_disabled":false,"rental_uris":{"android":"levelo://app?vid=3b97849a-97e8-4ee2-b9c0-3186a92e183e","ios":"levelo://app?vid=3b97849a-97e8-4ee2-b9c0-3186a92e183e"},"vehicle_type_id":"4","last_reported":1687972012,"current_range_meters":0,"station_id":"ce4bhb92rcd13ifvqen0","pricing_plan_id":"free"},{"bike_id":"91ffd858-d3cf-4255-956c-6ff5ff82e187","system_id":"levelo_inurba_marseille","lat":43.29118,"lon":5.38201,"is_reserved":false,"is_disabled":false,"rental_uris":{"android":"levelo://app?vid=91ffd858-d3cf-4255-956c-6ff5ff82e187","ios":"levelo://app?vid=91ffd858-d3cf-4255-956c-6ff5ff82e187"},"vehicle_type_id":"4","last_reported":1687972012,"current_range_meters":19200,"station_id":"","pricing_plan_id":"free"},{"bike_id":"e4a57b3e-1e8e-4dde-8bb6-7726fb94f8bb","system_id":"levelo_inurba_marseille","lat":43.295169,"lon":5.390426,"is_reserved":false,"is_disabled":false,"rental_uris":{"android":"levelo://app?vid=e4a57b3e-1e8e-4dde-8bb6-7726fb94f8bb","ios":"levelo://app?vid=e4a57b3e-1e8e-4dde-8bb6-7726fb94f8bb"},"vehicle_type_id":"4","last_reported":1687972012,"current_range_meters":0,"station_id":"ce4bh3p2rcd13ifvqdp0","pricing_plan_id":"free"},{"bike_id":"82a8a740-c7f0-43c7-8c68-52fc1420bf37","system_id":"levelo_inurba_marseille","lat":43.28856,"lon":5.358371,"is_reserved":false,"is_disabled":false,"rental_uris":{"android":"levelo://app?vid=82a8a740-c7f0-43c7-8c68-52fc1420bf37","ios":"levelo://app?vid=82a8a740-c7f0-43c7-8c68-52fc1420bf37"},"vehicle_type_id":"4","last_reported":1687972012,"current_range_meters":6800,"station_id":"ce4bhb12rcd13ifvqem0","pricing_plan_id":"free"},{"bike_id":"917ee552-3e15-4154-8349-73016ef9d65d","system_id":"levelo_inurba_marseille","lat":43.309371,"lon":5.401449,"is_reserved":false,"is_disabled":false,"rental_uris":{"android":"levelo://app?vid=917ee552-3e15-4154-8349-73016ef9d65d","ios":"levelo://app?vid=917ee552-3e15-4154-8349-73016ef9d65d"},"vehicle_type_id":"4","last_reported":1687972012,"current_range_meters":400,"station_id":"ce4bgvp2rcd13ifvqct0","pricing_plan_id":"free"},{"bike_id":"b152602a-aaa7-4eed-93ba-89050d9c58ba","system_id":"levelo_inurba_marseille","lat":43.3067,"lon":5.40078,"is_reserved":false,"is_disabled":false,"rental_uris":{"android":"levelo://app?vid=b152602a-aaa7-4eed-93ba-89050d9c58ba","ios":"levelo://app?vid=b152602a-aaa7-4eed-93ba-89050d9c58ba"},"vehicle_type_id":"4","last_reported":1687972012,"current_range_meters":22800,"station_id":"","pricing_plan_id":"free"},{"bike_id":"476cd57c-2e9c-4f0d-a086-f93a7e3396f6","system_id":"levelo_inurba_marseille","lat":43.337516,"lon":5.374747,"is_reserved":false,"is_disabled":false,"rental_uris":{"android":"levelo://app?vid=476cd57c-2e9c-4f0d-a086-f93a7e3396f6","ios":"levelo://app?vid=476cd57c-2e9c-4f0d-a086-f93a7e3396f6"},"vehicle_type_id":"4","last_reported":1687972012,"current_range_meters":28000,"station_id":"","pricing_plan_id":"free"},{"bike_id":"eec00e18-d949-499f-893b-33f19405becf","system_id":"levelo_inurba_marseille","lat":43.33762,"lon":5.37462,"is_reserved":false,"is_disabled":false,"rental_uris":{"android":"levelo://app?vid=eec00e18-d949-499f-893b-33f19405becf","ios":"levelo://app?vid=eec00e18-d949-499f-893b-33f19405becf"},"vehicle_type_id":"4","last_reported":1687972012,"current_range_meters":10000,"station_id":"","pricing_plan_id":"free"},{"bike_id":"2aab0b03-710c-4b4c-9bf7-f59fa5894e53","system_id":"levelo_inurba_marseille","lat":43.286039,"lon":5.370679,"is_reserved":false,"is_disabled":false,"rental_uris":{"android":"levelo://app?vid=2aab0b03-710c-4b4c-9bf7-f59fa5894e53","ios":"levelo://app?vid=2aab0b03-710c-4b4c-9bf7-f59fa5894e53"},"vehicle_type_id":"4","last_reported":1687972012,"current_range_meters":27600,"station_id":"ce4bht12rcd13ifvqi60","pricing_plan_id":"free"},{"bike_id":"19fb6bf7-f762-4847-b2f4-67a84dfbef42","system_id":"levelo_inurba_marseille","lat":43.316517,"lon":5.404375,"is_reserved":false,"is_disabled":false,"rental_uris":{"android":"levelo://app?vid=19fb6bf7-f762-4847-b2f4-67a84dfbef42","ios":"levelo://app?vid=19fb6bf7-f762-4847-b2f4-67a84dfbef42"},"vehicle_type_id":"4","last_reported":1687972012,"current_range_meters":0,"station_id":"ce4bh012rcd13ifvqd00","pricing_plan_id":"free"},{"bike_id":"b4629501-2310-49d4-ae68-ef19b7f7e9a7","system_id":"levelo_inurba_marseille","lat":43.31647,"lon":5.40433,"is_reserved":false,"is_disabled":false,"rental_uris":{"android":"levelo://app?vid=b4629501-2310-49d4-ae68-ef19b7f7e9a7","ios":"levelo://app?vid=b4629501-2310-49d4-ae68-ef19b7f7e9a7"},"vehicle_type_id":"4","last_reported":1687972012,"current_range_meters":31200,"station_id":"ce4bh012rcd13ifvqd00","pricing_plan_id":"free"},{"bike_id":"d69fed3a-efe9-46fb-b1dc-1240b8978d3e","system_id":"levelo_inurba_marseille","lat":43.316517,"lon":5.404375,"is_reserved":false,"is_disabled":false,"rental_uris":{"android":"levelo://app?vid=d69fed3a-efe9-46fb-b1dc-1240b8978d3e","ios":"levelo://app?vid=d69fed3a-efe9-46fb-b1dc-1240b8978d3e"},"vehicle_type_id":"4","last_reported":1687972012,"current_range_meters":25200,"station_id":"ce4bh012rcd13ifvqd00","pricing_plan_id":"free"},{"bike_id":"5788c704-02a7-43ce-a082-b4fa1e2f6080","system_id":"levelo_inurba_marseille","lat":43.284538,"lon":5.358657,"is_reserved":false,"is_disabled":false,"rental_uris":{"android":"levelo://app?vid=5788c704-02a7-43ce-a082-b4fa1e2f6080","ios":"levelo://app?vid=5788c704-02a7-43ce-a082-b4fa1e2f6080"},"vehicle_type_id":"4","last_reported":1687972012,"current_range_meters":21200,"station_id":"ce4bhah2rcd13ifvqei0","pricing_plan_id":"free"},{"bike_id":"aa299c9b-9232-44d6-9580-108c7d1617c5","system_id":"levelo_inurba_marseille","lat":43.28459,"lon":5.35891,"is_reserved":false,"is_disabled":false,"rental_uris":{"android":"levelo://app?vid=aa299c9b-9232-44d6-9580-108c7d1617c5","ios":"levelo://app?vid=aa299c9b-9232-44d6-9580-108c7d1617c5"},"vehicle_type_id":"4","last_reported":1687972012,"current_range_meters":4800,"station_id":"ce4bhah2rcd13ifvqei0","pricing_plan_id":"free"},{"bike_id":"4f835451-44ac-48e2-a1bf-da9e9b907f98","system_id":"levelo_inurba_marseille","lat":43.284534,"lon":5.358662,"is_reserved":false,"is_disabled":false,"rental_uris":{"android":"levelo://app?vid=4f835451-44ac-48e2-a1bf-da9e9b907f98","ios":"levelo://app?vid=4f835451-44ac-48e2-a1bf-da9e9b907f98"},"vehicle_type_id":"4","last_reported":1687972012,"current_range_meters":4400,"station_id":"ce4bhah2rcd13ifvqei0","pricing_plan_id":"free"},{"bike_id":"13a06d67-c1ef-4632-813d-6ff513d8634a","system_id":"levelo_inurba_marseille","lat":43.284538,"lon":5.358657,"is_reserved":false,"is_disabled":false,"rental_uris":{"android":"levelo://app?vid=13a06d67-c1ef-4632-813d-6ff513d8634a","ios":"levelo://app?vid=13a06d67-c1ef-4632-813d-6ff513d8634a"},"vehicle_type_id":"4","last_reported":1687972012,"current_range_meters":19600,"station_id":"ce4bhah2rcd13ifvqei0","pricing_plan_id":"free"},{"bike_id":"13b3460b-225a-4b11-a777-6ed1043f304f","system_id":"levelo_inurba_marseille","lat":43.285856,"lon":5.350771,"is_reserved":false,"is_disabled":false,"rental_uris":{"android":"levelo://app?vid=13b3460b-225a-4b11-a777-6ed1043f304f","ios":"levelo://app?vid=13b3460b-225a-4b11-a777-6ed1043f304f"},"vehicle_type_id":"4","last_reported":1687972012,"current_range_meters":20000,"station_id":"ce4bhch2rcd13ifvqeug","pricing_plan_id":"free"},{"bike_id":"331bb710-dc2b-4c80-a3ff-55f6be3aa410","system_id":"levelo_inurba_marseille","lat":43.285856,"lon":5.350771,"is_reserved":false,"is_disabled":false,"rental_uris":{"android":"levelo://app?vid=331bb710-dc2b-4c80-a3ff-55f6be3aa410","ios":"levelo://app?vid=331bb710-dc2b-4c80-a3ff-55f6be3aa410"},"vehicle_type_id":"4","last_reported":1687972012,"current_range_meters":29200,"station_id":"ce4bhch2rcd13ifvqeug","pricing_plan_id":"free"},{"bike_id":"95c3acc6-1402-4211-abbb-9c56da5e6d5c","system_id":"levelo_inurba_marseille","lat":43.285856,"lon":5.350771,"is_reserved":false,"is_disabled":false,"rental_uris":{"android":"levelo://app?vid=95c3acc6-1402-4211-abbb-9c56da5e6d5c","ios":"levelo://app?vid=95c3acc6-1402-4211-abbb-9c56da5e6d5c"},"vehicle_type_id":"4","last_reported":1687972012,"current_range_meters":22000,"station_id":"ce4bhch2rcd13ifvqeug","pricing_plan_id":"free"},{"bike_id":"5869b14b-cd41-47d0-bf23-41212553e677","system_id":"levelo_inurba_marseille","lat":43.285856,"lon":5.350771,"is_reserved":false,"is_disabled":false,"rental_uris":{"android":"levelo://app?vid=5869b14b-cd41-47d0-bf23-41212553e677","ios":"levelo://app?vid=5869b14b-cd41-47d0-bf23-41212553e677"},"vehicle_type_id":"4","last_reported":1687972012,"current_range_meters":31200,"station_id":"ce4bhch2rcd13ifvqeug","pricing_plan_id":"free"},{"bike_id":"9c54fd03-538b-440e-9b82-04b5bde39548","system_id":"levelo_inurba_marseille","lat":43.285856,"lon":5.350771,"is_reserved":false,"is_disabled":false,"rental_uris":{"android":"levelo://app?vid=9c54fd03-538b-440e-9b82-04b5bde39548","ios":"levelo://app?vid=9c54fd03-538b-440e-9b82-04b5bde39548"},"vehicle_type_id":"4","last_reported":1687972012,"current_range_meters":26400,"station_id":"ce4bhch2rcd13ifvqeug","pricing_plan_id":"free"},{"bike_id":"e55859ba-1c44-43d2-a891-e53dfd27af64","system_id":"levelo_inurba_marseille","lat":43.283998,"lon":5.375062,"is_reserved":false,"is_disabled":false,"rental_uris":{"android":"levelo://app?vid=e55859ba-1c44-43d2-a891-e53dfd27af64","ios":"levelo://app?vid=e55859ba-1c44-43d2-a891-e53dfd27af64"},"vehicle_type_id":"4","last_reported":1687972012,"current_range_meters":10800,"station_id":"ce4bh412rcd13ifvqds0","pricing_plan_id":"free"},{"bike_id":"1b86cd80-2cd1-49e6-a0e0-5810d9fb0154","system_id":"levelo_inurba_marseille","lat":43.283998,"lon":5.375062,"is_reserved":false,"is_disabled":false,"rental_uris":{"android":"levelo://app?vid=1b86cd80-2cd1-49e6-a0e0-5810d9fb0154","ios":"levelo://app?vid=1b86cd80-2cd1-49e6-a0e0-5810d9fb0154"},"vehicle_type_id":"4","last_reported":1687972012,"current_range_meters":7600,"station_id":"ce4bh412rcd13ifvqds0","pricing_plan_id":"free"},{"bike_id":"888620ee-f3be-42f3-a7cb-260e7e37be5f","system_id":"levelo_inurba_marseille","lat":43.283998,"lon":5.375062,"is_reserved":false,"is_disabled":false,"rental_uris":{"android":"levelo://app?vid=888620ee-f3be-42f3-a7cb-260e7e37be5f","ios":"levelo://app?vid=888620ee-f3be-42f3-a7cb-260e7e37be5f"},"vehicle_type_id":"4","last_reported":1687972012,"current_range_meters":0,"station_id":"ce4bh412rcd13ifvqds0","pricing_plan_id":"free"},{"bike_id":"89984c56-3300-4c3a-bac6-c86178b6dcac","system_id":"levelo_inurba_marseille","lat":43.287428,"lon":5.389267,"is_reserved":false,"is_disabled":false,"rental_uris":{"android":"levelo://app?vid=89984c56-3300-4c3a-bac6-c86178b6dcac","ios":"levelo://app?vid=89984c56-3300-4c3a-bac6-c86178b6dcac"},"vehicle_type_id":"4","last_reported":1687972012,"current_range_meters":19200,"station_id":"","pricing_plan_id":"free"},{"bike_id":"ca8bc36d-c734-486f-a2ac-916eefc26492","system_id":"levelo_inurba_marseille","lat":43.28469,"lon":5.38417,"is_reserved":false,"is_disabled":false,"rental_uris":{"android":"levelo://app?vid=ca8bc36d-c734-486f-a2ac-916eefc26492","ios":"levelo://app?vid=ca8bc36d-c734-486f-a2ac-916eefc26492"},"vehicle_type_id":"4","last_reported":1687972012,"current_range_meters":800,"station_id":"ce4bh512rcd13ifvqe3g","pricing_plan_id":"free"},{"bike_id":"7f0c39be-15a3-4d44-ae23-e893ea6ccb46","system_id":"levelo_inurba_marseille","lat":43.283494,"lon":5.380945,"is_reserved":false,"is_disabled":false,"rental_uris":{"android":"levelo://app?vid=7f0c39be-15a3-4d44-ae23-e893ea6ccb46","ios":"levelo://app?vid=7f0c39be-15a3-4d44-ae23-e893ea6ccb46"},"vehicle_type_id":"4","last_reported":1687972012,"current_range_meters":0,"station_id":"ce4bh412rcd13ifvqdr0","pricing_plan_id":"free"},{"bike_id":"b4c950db-352f-4a1a-8e3c-c05101a6dad0","system_id":"levelo_inurba_marseille","lat":43.288501,"lon":5.393087,"is_reserved":false,"is_disabled":false,"rental_uris":{"android":"levelo://app?vid=b4c950db-352f-4a1a-8e3c-c05101a6dad0","ios":"levelo://app?vid=b4c950db-352f-4a1a-8e3c-c05101a6dad0"},"vehicle_type_id":"4","last_reported":1687972012,"current_range_meters":31200,"station_id":"ce4bh2p2rcd13ifvqdi0","pricing_plan_id":"free"},{"bike_id":"d9f1c280-5790-45ed-9cb1-edb75a9c5469","system_id":"levelo_inurba_marseille","lat":43.28438,"lon":5.3498,"is_reserved":false,"is_disabled":false,"rental_uris":{"android":"levelo://app?vid=d9f1c280-5790-45ed-9cb1-edb75a9c5469","ios":"levelo://app?vid=d9f1c280-5790-45ed-9cb1-edb75a9c5469"},"vehicle_type_id":"4","last_reported":1687972012,"current_range_meters":27200,"station_id":"ce4bhbh2rcd13ifvqepg","pricing_plan_id":"free"},{"bike_id":"6dea0a9c-baf9-4949-9fc0-238aed06cf20","system_id":"levelo_inurba_marseille","lat":43.28423,"lon":5.34994,"is_reserved":false,"is_disabled":false,"rental_uris":{"android":"levelo://app?vid=6dea0a9c-baf9-4949-9fc0-238aed06cf20","ios":"levelo://app?vid=6dea0a9c-baf9-4949-9fc0-238aed06cf20"},"vehicle_type_id":"4","last_reported":1687972012,"current_range_meters":14000,"station_id":"ce4bhbh2rcd13ifvqepg","pricing_plan_id":"free"},{"bike_id":"ef38d831-7472-448c-a276-00a2984a93e8","system_id":"levelo_inurba_marseille","lat":43.284219,"lon":5.3497,"is_reserved":false,"is_disabled":false,"rental_uris":{"android":"levelo://app?vid=ef38d831-7472-448c-a276-00a2984a93e8","ios":"levelo://app?vid=ef38d831-7472-448c-a276-00a2984a93e8"},"vehicle_type_id":"4","last_reported":1687972012,"current_range_meters":30800,"station_id":"ce4bhbh2rcd13ifvqepg","pricing_plan_id":"free"},{"bike_id":"6245a0d2-89bc-4485-b36c-709516d26ad5","system_id":"levelo_inurba_marseille","lat":43.28422,"lon":5.34988,"is_reserved":false,"is_disabled":false,"rental_uris":{"android":"levelo://app?vid=6245a0d2-89bc-4485-b36c-709516d26ad5","ios":"levelo://app?vid=6245a0d2-89bc-4485-b36c-709516d26ad5"},"vehicle_type_id":"4","last_reported":1687972012,"current_range_meters":19200,"station_id":"ce4bhbh2rcd13ifvqepg","pricing_plan_id":"free"},{"bike_id":"cf915bbf-0044-4576-b1e4-cf946d68cb7e","system_id":"levelo_inurba_marseille","lat":43.2842,"lon":5.34993,"is_reserved":false,"is_disabled":false,"rental_uris":{"android":"levelo://app?vid=cf915bbf-0044-4576-b1e4-cf946d68cb7e","ios":"levelo://app?vid=cf915bbf-0044-4576-b1e4-cf946d68cb7e"},"vehicle_type_id":"4","last_reported":1687972012,"current_range_meters":13200,"station_id":"ce4bhbh2rcd13ifvqepg","pricing_plan_id":"free"},{"bike_id":"8fb82ddf-1398-4b18-9ae3-26dee1ff9394","system_id":"levelo_inurba_marseille","lat":43.284219,"lon":5.3497,"is_reserved":false,"is_disabled":false,"rental_uris":{"android":"levelo://app?vid=8fb82ddf-1398-4b18-9ae3-26dee1ff9394","ios":"levelo://app?vid=8fb82ddf-1398-4b18-9ae3-26dee1ff9394"},"vehicle_type_id":"4","last_reported":1687972012,"current_range_meters":30800,"station_id":"ce4bhbh2rcd13ifvqepg","pricing_plan_id":"free"},{"bike_id":"03db7a63-8184-45a5-b27b-ccc135182105","system_id":"levelo_inurba_marseille","lat":43.284217,"lon":5.349697,"is_reserved":false,"is_disabled":false,"rental_uris":{"android":"levelo://app?vid=03db7a63-8184-45a5-b27b-ccc135182105","ios":"levelo://app?vid=03db7a63-8184-45a5-b27b-ccc135182105"},"vehicle_type_id":"4","last_reported":1687972012,"current_range_meters":26000,"station_id":"ce4bhbh2rcd13ifvqepg","pricing_plan_id":"free"},{"bike_id":"5bee70f4-10ba-4523-9571-a2fb84dc4d4b","system_id":"levelo_inurba_marseille","lat":43.284219,"lon":5.3497,"is_reserved":false,"is_disabled":false,"rental_uris":{"android":"levelo://app?vid=5bee70f4-10ba-4523-9571-a2fb84dc4d4b","ios":"levelo://app?vid=5bee70f4-10ba-4523-9571-a2fb84dc4d4b"},"vehicle_type_id":"4","last_reported":1687972012,"current_range_meters":31200,"station_id":"ce4bhbh2rcd13ifvqepg","pricing_plan_id":"free"},{"bike_id":"bf2cd983-849b-4c28-8872-f6b42d5ad99e","system_id":"levelo_inurba_marseille","lat":43.284219,"lon":5.3497,"is_reserved":false,"is_disabled":false,"rental_uris":{"android":"levelo://app?vid=bf2cd983-849b-4c28-8872-f6b42d5ad99e","ios":"levelo://app?vid=bf2cd983-849b-4c28-8872-f6b42d5ad99e"},"vehicle_type_id":"4","last_reported":1687972012,"current_range_meters":31200,"station_id":"ce4bhbh2rcd13ifvqepg","pricing_plan_id":"free"},{"bike_id":"426360e5-a88c-4043-93f2-2cf4046c6c26","system_id":"levelo_inurba_marseille","lat":43.284217,"lon":5.349697,"is_reserved":false,"is_disabled":false,"rental_uris":{"android":"levelo://app?vid=426360e5-a88c-4043-93f2-2cf4046c6c26","ios":"levelo://app?vid=426360e5-a88c-4043-93f2-2cf4046c6c26"},"vehicle_type_id":"4","last_reported":1687972012,"current_range_meters":22000,"station_id":"ce4bhbh2rcd13ifvqepg","pricing_plan_id":"free"},{"bike_id":"c0d0403f-0222-4125-8e91-3f2925b824b2","system_id":"levelo_inurba_marseille","lat":43.28419,"lon":5.34989,"is_reserved":false,"is_disabled":false,"rental_uris":{"android":"levelo://app?vid=c0d0403f-0222-4125-8e91-3f2925b824b2","ios":"levelo://app?vid=c0d0403f-0222-4125-8e91-3f2925b824b2"},"vehicle_type_id":"4","last_reported":1687972012,"current_range_meters":18800,"station_id":"ce4bhbh2rcd13ifvqepg","pricing_plan_id":"free"},{"bike_id":"329f8e3b-a5cc-43a6-be60-e85219d80081","system_id":"levelo_inurba_marseille","lat":43.28417,"lon":5.34993,"is_reserved":false,"is_disabled":false,"rental_uris":{"android":"levelo://app?vid=329f8e3b-a5cc-43a6-be60-e85219d80081","ios":"levelo://app?vid=329f8e3b-a5cc-43a6-be60-e85219d80081"},"vehicle_type_id":"4","last_reported":1687972012,"current_range_meters":24400,"station_id":"ce4bhbh2rcd13ifvqepg","pricing_plan_id":"free"},{"bike_id":"877169e4-8f8e-43b5-9f4b-349a4b861f02","system_id":"levelo_inurba_marseille","lat":43.28416,"lon":5.34996,"is_reserved":false,"is_disabled":false,"rental_uris":{"android":"levelo://app?vid=877169e4-8f8e-43b5-9f4b-349a4b861f02","ios":"levelo://app?vid=877169e4-8f8e-43b5-9f4b-349a4b861f02"},"vehicle_type_id":"4","last_reported":1687972012,"current_range_meters":24400,"station_id":"ce4bhbh2rcd13ifvqepg","pricing_plan_id":"free"},{"bike_id":"c3e85746-12eb-4fbb-95bf-ff744473bbc3","system_id":"levelo_inurba_marseille","lat":43.284217,"lon":5.349697,"is_reserved":false,"is_disabled":false,"rental_uris":{"android":"levelo://app?vid=c3e85746-12eb-4fbb-95bf-ff744473bbc3","ios":"levelo://app?vid=c3e85746-12eb-4fbb-95bf-ff744473bbc3"},"vehicle_type_id":"4","last_reported":1687972012,"current_range_meters":20400,"station_id":"ce4bhbh2rcd13ifvqepg","pricing_plan_id":"free"},{"bike_id":"d1764079-899a-4b14-9721-265338b51dc4","system_id":"levelo_inurba_marseille","lat":43.28417,"lon":5.34992,"is_reserved":false,"is_disabled":false,"rental_uris":{"android":"levelo://app?vid=d1764079-899a-4b14-9721-265338b51dc4","ios":"levelo://app?vid=d1764079-899a-4b14-9721-265338b51dc4"},"vehicle_type_id":"4","last_reported":1687972012,"current_range_meters":30800,"station_id":"ce4bhbh2rcd13ifvqepg","pricing_plan_id":"free"},{"bike_id":"9a66aba0-867c-40fb-aa28-b0e6e669c819","system_id":"levelo_inurba_marseille","lat":43.284217,"lon":5.349697,"is_reserved":false,"is_disabled":false,"rental_uris":{"android":"levelo://app?vid=9a66aba0-867c-40fb-aa28-b0e6e669c819","ios":"levelo://app?vid=9a66aba0-867c-40fb-aa28-b0e6e669c819"},"vehicle_type_id":"4","last_reported":1687972012,"current_range_meters":22400,"station_id":"ce4bhbh2rcd13ifvqepg","pricing_plan_id":"free"},{"bike_id":"6d1260a4-f0bc-4998-a27f-50b0596785c7","system_id":"levelo_inurba_marseille","lat":43.284217,"lon":5.349697,"is_reserved":false,"is_disabled":false,"rental_uris":{"android":"levelo://app?vid=6d1260a4-f0bc-4998-a27f-50b0596785c7","ios":"levelo://app?vid=6d1260a4-f0bc-4998-a27f-50b0596785c7"},"vehicle_type_id":"4","last_reported":1687972012,"current_range_meters":20800,"station_id":"ce4bhbh2rcd13ifvqepg","pricing_plan_id":"free"},{"bike_id":"0585ebd5-41bc-4659-b1ce-884e6f87964a","system_id":"levelo_inurba_marseille","lat":43.284217,"lon":5.349697,"is_reserved":false,"is_disabled":false,"rental_uris":{"android":"levelo://app?vid=0585ebd5-41bc-4659-b1ce-884e6f87964a","ios":"levelo://app?vid=0585ebd5-41bc-4659-b1ce-884e6f87964a"},"vehicle_type_id":"4","last_reported":1687972012,"current_range_meters":23600,"station_id":"ce4bhbh2rcd13ifvqepg","pricing_plan_id":"free"},{"bike_id":"999b9856-5566-4581-b845-385e3662e1df","system_id":"levelo_inurba_marseille","lat":43.28419,"lon":5.34978,"is_reserved":false,"is_disabled":false,"rental_uris":{"android":"levelo://app?vid=999b9856-5566-4581-b845-385e3662e1df","ios":"levelo://app?vid=999b9856-5566-4581-b845-385e3662e1df"},"vehicle_type_id":"4","last_reported":1687972012,"current_range_meters":11600,"station_id":"ce4bhbh2rcd13ifvqepg","pricing_plan_id":"free"},{"bike_id":"a47dd991-3265-4a3c-846d-9793ab04559c","system_id":"levelo_inurba_marseille","lat":43.284217,"lon":5.349697,"is_reserved":false,"is_disabled":false,"rental_uris":{"android":"levelo://app?vid=a47dd991-3265-4a3c-846d-9793ab04559c","ios":"levelo://app?vid=a47dd991-3265-4a3c-846d-9793ab04559c"},"vehicle_type_id":"4","last_reported":1687972012,"current_range_meters":31200,"station_id":"ce4bhbh2rcd13ifvqepg","pricing_plan_id":"free"},{"bike_id":"a59794b5-d43f-4a34-9b73-6afd0d9add0a","system_id":"levelo_inurba_marseille","lat":43.284217,"lon":5.349697,"is_reserved":false,"is_disabled":false,"rental_uris":{"android":"levelo://app?vid=a59794b5-d43f-4a34-9b73-6afd0d9add0a","ios":"levelo://app?vid=a59794b5-d43f-4a34-9b73-6afd0d9add0a"},"vehicle_type_id":"4","last_reported":1687972012,"current_range_meters":30800,"station_id":"ce4bhbh2rcd13ifvqepg","pricing_plan_id":"free"},{"bike_id":"36e6c546-262b-42e2-94e4-a6e0a51e50cc","system_id":"levelo_inurba_marseille","lat":43.284219,"lon":5.3497,"is_reserved":false,"is_disabled":false,"rental_uris":{"android":"levelo://app?vid=36e6c546-262b-42e2-94e4-a6e0a51e50cc","ios":"levelo://app?vid=36e6c546-262b-42e2-94e4-a6e0a51e50cc"},"vehicle_type_id":"4","last_reported":1687972012,"current_range_meters":24000,"station_id":"ce4bhbh2rcd13ifvqepg","pricing_plan_id":"free"},{"bike_id":"149a11cd-adeb-4893-bccb-5b39d9f27b86","system_id":"levelo_inurba_marseille","lat":43.284217,"lon":5.349697,"is_reserved":false,"is_disabled":false,"rental_uris":{"android":"levelo://app?vid=149a11cd-adeb-4893-bccb-5b39d9f27b86","ios":"levelo://app?vid=149a11cd-adeb-4893-bccb-5b39d9f27b86"},"vehicle_type_id":"4","last_reported":1687972012,"current_range_meters":26400,"station_id":"ce4bhbh2rcd13ifvqepg","pricing_plan_id":"free"},{"bike_id":"1f32994a-6332-407a-b0ae-81eb1c4e0407","system_id":"levelo_inurba_marseille","lat":43.284219,"lon":5.3497,"is_reserved":false,"is_disabled":false,"rental_uris":{"android":"levelo://app?vid=1f32994a-6332-407a-b0ae-81eb1c4e0407","ios":"levelo://app?vid=1f32994a-6332-407a-b0ae-81eb1c4e0407"},"vehicle_type_id":"4","last_reported":1687972012,"current_range_meters":30000,"station_id":"ce4bhbh2rcd13ifvqepg","pricing_plan_id":"free"},{"bike_id":"0e9f8bef-d9b1-44de-aecf-407a260555b9","system_id":"levelo_inurba_marseille","lat":43.284217,"lon":5.349697,"is_reserved":false,"is_disabled":false,"rental_uris":{"android":"levelo://app?vid=0e9f8bef-d9b1-44de-aecf-407a260555b9","ios":"levelo://app?vid=0e9f8bef-d9b1-44de-aecf-407a260555b9"},"vehicle_type_id":"4","last_reported":1687972012,"current_range_meters":26400,"station_id":"ce4bhbh2rcd13ifvqepg","pricing_plan_id":"free"},{"bike_id":"f1806864-3327-404b-8725-df8f1089bdae","system_id":"levelo_inurba_marseille","lat":43.284217,"lon":5.349697,"is_reserved":false,"is_disabled":false,"rental_uris":{"android":"levelo://app?vid=f1806864-3327-404b-8725-df8f1089bdae","ios":"levelo://app?vid=f1806864-3327-404b-8725-df8f1089bdae"},"vehicle_type_id":"4","last_reported":1687972012,"current_range_meters":12800,"station_id":"ce4bhbh2rcd13ifvqepg","pricing_plan_id":"free"},{"bike_id":"51439101-766e-4dbc-873a-a5b2c9e593a3","system_id":"levelo_inurba_marseille","lat":43.284217,"lon":5.349697,"is_reserved":false,"is_disabled":false,"rental_uris":{"android":"levelo://app?vid=51439101-766e-4dbc-873a-a5b2c9e593a3","ios":"levelo://app?vid=51439101-766e-4dbc-873a-a5b2c9e593a3"},"vehicle_type_id":"4","last_reported":1687972012,"current_range_meters":27600,"station_id":"ce4bhbh2rcd13ifvqepg","pricing_plan_id":"free"},{"bike_id":"f2540770-da61-41db-bdb3-0c889e4cd91e","system_id":"levelo_inurba_marseille","lat":43.282744,"lon":5.350533,"is_reserved":false,"is_disabled":false,"rental_uris":{"android":"levelo://app?vid=f2540770-da61-41db-bdb3-0c889e4cd91e","ios":"levelo://app?vid=f2540770-da61-41db-bdb3-0c889e4cd91e"},"vehicle_type_id":"4","last_reported":1687972012,"current_range_meters":4800,"station_id":"ce4bhbp2rcd13ifvqerg","pricing_plan_id":"free"},{"bike_id":"4e44e80a-dd15-4c0e-8d75-a8d36cb570ce","system_id":"levelo_inurba_marseille","lat":43.28275,"lon":5.35064,"is_reserved":false,"is_disabled":false,"rental_uris":{"android":"levelo://app?vid=4e44e80a-dd15-4c0e-8d75-a8d36cb570ce","ios":"levelo://app?vid=4e44e80a-dd15-4c0e-8d75-a8d36cb570ce"},"vehicle_type_id":"4","last_reported":1687972012,"current_range_meters":18400,"station_id":"ce4bhbp2rcd13ifvqerg","pricing_plan_id":"free"},{"bike_id":"17bd1c51-3a11-44d4-97f5-774a9b2faceb","system_id":"levelo_inurba_marseille","lat":43.282754,"lon":5.350519,"is_reserved":false,"is_disabled":false,"rental_uris":{"android":"levelo://app?vid=17bd1c51-3a11-44d4-97f5-774a9b2faceb","ios":"levelo://app?vid=17bd1c51-3a11-44d4-97f5-774a9b2faceb"},"vehicle_type_id":"4","last_reported":1687972012,"current_range_meters":18800,"station_id":"ce4bhbp2rcd13ifvqerg","pricing_plan_id":"free"},{"bike_id":"8a68bc82-31b7-408d-a4cc-fc6d85d24f3d","system_id":"levelo_inurba_marseille","lat":43.282754,"lon":5.350519,"is_reserved":false,"is_disabled":false,"rental_uris":{"android":"levelo://app?vid=8a68bc82-31b7-408d-a4cc-fc6d85d24f3d","ios":"levelo://app?vid=8a68bc82-31b7-408d-a4cc-fc6d85d24f3d"},"vehicle_type_id":"4","last_reported":1687972012,"current_range_meters":22800,"station_id":"ce4bhbp2rcd13ifvqerg","pricing_plan_id":"free"},{"bike_id":"11a4c6c2-afb6-4df9-88c2-d48004d07258","system_id":"levelo_inurba_marseille","lat":43.282744,"lon":5.350533,"is_reserved":false,"is_disabled":false,"rental_uris":{"android":"levelo://app?vid=11a4c6c2-afb6-4df9-88c2-d48004d07258","ios":"levelo://app?vid=11a4c6c2-afb6-4df9-88c2-d48004d07258"},"vehicle_type_id":"4","last_reported":1687972012,"current_range_meters":4800,"station_id":"ce4bhbp2rcd13ifvqerg","pricing_plan_id":"free"},{"bike_id":"27e6f70f-7f96-4a54-b02f-d25fac9e44e6","system_id":"levelo_inurba_marseille","lat":43.282754,"lon":5.350519,"is_reserved":false,"is_disabled":false,"rental_uris":{"android":"levelo://app?vid=27e6f70f-7f96-4a54-b02f-d25fac9e44e6","ios":"levelo://app?vid=27e6f70f-7f96-4a54-b02f-d25fac9e44e6"},"vehicle_type_id":"4","last_reported":1687972012,"current_range_meters":22400,"station_id":"ce4bhbp2rcd13ifvqerg","pricing_plan_id":"free"},{"bike_id":"c45d706d-b778-4195-b611-1fd92f1d8164","system_id":"levelo_inurba_marseille","lat":43.282744,"lon":5.350533,"is_reserved":false,"is_disabled":false,"rental_uris":{"android":"levelo://app?vid=c45d706d-b778-4195-b611-1fd92f1d8164","ios":"levelo://app?vid=c45d706d-b778-4195-b611-1fd92f1d8164"},"vehicle_type_id":"4","last_reported":1687972012,"current_range_meters":10400,"station_id":"ce4bhbp2rcd13ifvqerg","pricing_plan_id":"free"},{"bike_id":"3ef11150-e51d-4eb7-bae3-8293b7fd38a6","system_id":"levelo_inurba_marseille","lat":43.28271,"lon":5.35057,"is_reserved":false,"is_disabled":false,"rental_uris":{"android":"levelo://app?vid=3ef11150-e51d-4eb7-bae3-8293b7fd38a6","ios":"levelo://app?vid=3ef11150-e51d-4eb7-bae3-8293b7fd38a6"},"vehicle_type_id":"4","last_reported":1687972012,"current_range_meters":15600,"station_id":"ce4bhbp2rcd13ifvqerg","pricing_plan_id":"free"},{"bike_id":"8db0f826-31e8-40db-9a47-3ab50c081b01","system_id":"levelo_inurba_marseille","lat":43.282744,"lon":5.350533,"is_reserved":false,"is_disabled":false,"rental_uris":{"android":"levelo://app?vid=8db0f826-31e8-40db-9a47-3ab50c081b01","ios":"levelo://app?vid=8db0f826-31e8-40db-9a47-3ab50c081b01"},"vehicle_type_id":"4","last_reported":1687972012,"current_range_meters":9200,"station_id":"ce4bhbp2rcd13ifvqerg","pricing_plan_id":"free"},{"bike_id":"362ad16e-34d4-4464-a5c7-af69ab12b0a1","system_id":"levelo_inurba_marseille","lat":43.28268,"lon":5.35061,"is_reserved":false,"is_disabled":false,"rental_uris":{"android":"levelo://app?vid=362ad16e-34d4-4464-a5c7-af69ab12b0a1","ios":"levelo://app?vid=362ad16e-34d4-4464-a5c7-af69ab12b0a1"},"vehicle_type_id":"4","last_reported":1687972012,"current_range_meters":11200,"station_id":"ce4bhbp2rcd13ifvqerg","pricing_plan_id":"free"},{"bike_id":"46ef7f44-a179-4b96-bd5c-1d28696658ff","system_id":"levelo_inurba_marseille","lat":43.282744,"lon":5.350533,"is_reserved":false,"is_disabled":false,"rental_uris":{"android":"levelo://app?vid=46ef7f44-a179-4b96-bd5c-1d28696658ff","ios":"levelo://app?vid=46ef7f44-a179-4b96-bd5c-1d28696658ff"},"vehicle_type_id":"4","last_reported":1687972012,"current_range_meters":10800,"station_id":"ce4bhbp2rcd13ifvqerg","pricing_plan_id":"free"},{"bike_id":"5ae396c3-775b-4828-ac90-96b8b8bda47c","system_id":"levelo_inurba_marseille","lat":43.282754,"lon":5.350519,"is_reserved":false,"is_disabled":false,"rental_uris":{"android":"levelo://app?vid=5ae396c3-775b-4828-ac90-96b8b8bda47c","ios":"levelo://app?vid=5ae396c3-775b-4828-ac90-96b8b8bda47c"},"vehicle_type_id":"4","last_reported":1687972012,"current_range_meters":23600,"station_id":"ce4bhbp2rcd13ifvqerg","pricing_plan_id":"free"},{"bike_id":"5c386230-8487-41bf-976d-3c5a7e0f3244","system_id":"levelo_inurba_marseille","lat":43.28266,"lon":5.35059,"is_reserved":false,"is_disabled":false,"rental_uris":{"android":"levelo://app?vid=5c386230-8487-41bf-976d-3c5a7e0f3244","ios":"levelo://app?vid=5c386230-8487-41bf-976d-3c5a7e0f3244"},"vehicle_type_id":"4","last_reported":1687972012,"current_range_meters":1600,"station_id":"ce4bhbp2rcd13ifvqerg","pricing_plan_id":"free"},{"bike_id":"0bcbca28-271f-48ff-9012-38daf5db8184","system_id":"levelo_inurba_marseille","lat":43.282744,"lon":5.350533,"is_reserved":false,"is_disabled":false,"rental_uris":{"android":"levelo://app?vid=0bcbca28-271f-48ff-9012-38daf5db8184","ios":"levelo://app?vid=0bcbca28-271f-48ff-9012-38daf5db8184"},"vehicle_type_id":"4","last_reported":1687972012,"current_range_meters":12800,"station_id":"ce4bhbp2rcd13ifvqerg","pricing_plan_id":"free"},{"bike_id":"5a0c1fb9-92bf-4420-aea7-f7aa696bdb13","system_id":"levelo_inurba_marseille","lat":43.28039,"lon":5.369297,"is_reserved":false,"is_disabled":false,"rental_uris":{"android":"levelo://app?vid=5a0c1fb9-92bf-4420-aea7-f7aa696bdb13","ios":"levelo://app?vid=5a0c1fb9-92bf-4420-aea7-f7aa696bdb13"},"vehicle_type_id":"4","last_reported":1687972012,"current_range_meters":13600,"station_id":"ce4bha12rcd13ifvqef0","pricing_plan_id":"free"},{"bike_id":"33066033-4b6b-4d57-8001-ba9e3be99e26","system_id":"levelo_inurba_marseille","lat":43.33075,"lon":5.40569,"is_reserved":false,"is_disabled":false,"rental_uris":{"android":"levelo://app?vid=33066033-4b6b-4d57-8001-ba9e3be99e26","ios":"levelo://app?vid=33066033-4b6b-4d57-8001-ba9e3be99e26"},"vehicle_type_id":"4","last_reported":1687972012,"current_range_meters":24400,"station_id":"","pricing_plan_id":"free"},{"bike_id":"c8e6ce45-f2b5-4772-a564-3c2039eea91a","system_id":"levelo_inurba_marseille","lat":43.33074,"lon":5.40578,"is_reserved":false,"is_disabled":false,"rental_uris":{"android":"levelo://app?vid=c8e6ce45-f2b5-4772-a564-3c2039eea91a","ios":"levelo://app?vid=c8e6ce45-f2b5-4772-a564-3c2039eea91a"},"vehicle_type_id":"4","last_reported":1687972012,"current_range_meters":1600,"station_id":"","pricing_plan_id":"free"},{"bike_id":"b632f01a-4420-46af-95ac-c6d3efbd53d7","system_id":"levelo_inurba_marseille","lat":43.284462,"lon":5.392121,"is_reserved":false,"is_disabled":false,"rental_uris":{"android":"levelo://app?vid=b632f01a-4420-46af-95ac-c6d3efbd53d7","ios":"levelo://app?vid=b632f01a-4420-46af-95ac-c6d3efbd53d7"},"vehicle_type_id":"4","last_reported":1687972012,"current_range_meters":12000,"station_id":"ce4bhoh2rcd13ifvqh5g","pricing_plan_id":"free"},{"bike_id":"11a98ed7-1b66-45e5-8e1c-68fb06e028fe","system_id":"levelo_inurba_marseille","lat":43.284462,"lon":5.392121,"is_reserved":false,"is_disabled":false,"rental_uris":{"android":"levelo://app?vid=11a98ed7-1b66-45e5-8e1c-68fb06e028fe","ios":"levelo://app?vid=11a98ed7-1b66-45e5-8e1c-68fb06e028fe"},"vehicle_type_id":"4","last_reported":1687972012,"current_range_meters":16400,"station_id":"ce4bhoh2rcd13ifvqh5g","pricing_plan_id":"free"},{"bike_id":"0c9eee73-532e-4f1f-8b23-5a0693e22298","system_id":"levelo_inurba_marseille","lat":43.326605,"lon":5.409903,"is_reserved":false,"is_disabled":false,"rental_uris":{"android":"levelo://app?vid=0c9eee73-532e-4f1f-8b23-5a0693e22298","ios":"levelo://app?vid=0c9eee73-532e-4f1f-8b23-5a0693e22298"},"vehicle_type_id":"4","last_reported":1687972012,"current_range_meters":27200,"station_id":"ce4bhpp2rcd13ifvqhgg","pricing_plan_id":"free"},{"bike_id":"d121dca8-2596-4f85-a2a1-3d6410e5eda4","system_id":"levelo_inurba_marseille","lat":43.33188,"lon":5.40676,"is_reserved":false,"is_disabled":false,"rental_uris":{"android":"levelo://app?vid=d121dca8-2596-4f85-a2a1-3d6410e5eda4","ios":"levelo://app?vid=d121dca8-2596-4f85-a2a1-3d6410e5eda4"},"vehicle_type_id":"4","last_reported":1687972012,"current_range_meters":25200,"station_id":"","pricing_plan_id":"free"},{"bike_id":"50fd953c-9754-45f4-aec7-ae52bb9eb6fe","system_id":"levelo_inurba_marseille","lat":43.287154,"lon":5.399979,"is_reserved":false,"is_disabled":false,"rental_uris":{"android":"levelo://app?vid=50fd953c-9754-45f4-aec7-ae52bb9eb6fe","ios":"levelo://app?vid=50fd953c-9754-45f4-aec7-ae52bb9eb6fe"},"vehicle_type_id":"4","last_reported":1687972012,"current_range_meters":31200,"station_id":"ce4bho92rcd13ifvqh3g","pricing_plan_id":"free"},{"bike_id":"010303de-9f53-47c9-8014-4eeafc88e3fa","system_id":"levelo_inurba_marseille","lat":43.320045,"lon":5.415048,"is_reserved":false,"is_disabled":false,"rental_uris":{"android":"levelo://app?vid=010303de-9f53-47c9-8014-4eeafc88e3fa","ios":"levelo://app?vid=010303de-9f53-47c9-8014-4eeafc88e3fa"},"vehicle_type_id":"4","last_reported":1687972012,"current_range_meters":30800,"station_id":"ce4bhq92rcd13ifvqhkg","pricing_plan_id":"free"},{"bike_id":"07176468-35e3-4262-b191-a9af0d014eea","system_id":"levelo_inurba_marseille","lat":43.27618,"lon":5.361009,"is_reserved":false,"is_disabled":false,"rental_uris":{"android":"levelo://app?vid=07176468-35e3-4262-b191-a9af0d014eea","ios":"levelo://app?vid=07176468-35e3-4262-b191-a9af0d014eea"},"vehicle_type_id":"4","last_reported":1687972012,"current_range_meters":12000,"station_id":"ce4bgj92rcd13ifvqbe0","pricing_plan_id":"free"},{"bike_id":"d36be984-3a94-4044-8200-4a0b1d965a67","system_id":"levelo_inurba_marseille","lat":43.27618,"lon":5.361009,"is_reserved":false,"is_disabled":false,"rental_uris":{"android":"levelo://app?vid=d36be984-3a94-4044-8200-4a0b1d965a67","ios":"levelo://app?vid=d36be984-3a94-4044-8200-4a0b1d965a67"},"vehicle_type_id":"4","last_reported":1687972012,"current_range_meters":15200,"station_id":"ce4bgj92rcd13ifvqbe0","pricing_plan_id":"free"},{"bike_id":"2ccd3363-a8de-416b-961b-67b0802863ad","system_id":"levelo_inurba_marseille","lat":43.27618,"lon":5.361009,"is_reserved":false,"is_disabled":false,"rental_uris":{"android":"levelo://app?vid=2ccd3363-a8de-416b-961b-67b0802863ad","ios":"levelo://app?vid=2ccd3363-a8de-416b-961b-67b0802863ad"},"vehicle_type_id":"4","last_reported":1687972012,"current_range_meters":8800,"station_id":"ce4bgj92rcd13ifvqbe0","pricing_plan_id":"free"},{"bike_id":"b255f05f-8743-4fe3-ade5-61cc68cbb881","system_id":"levelo_inurba_marseille","lat":43.2761,"lon":5.36111,"is_reserved":false,"is_disabled":false,"rental_uris":{"android":"levelo://app?vid=b255f05f-8743-4fe3-ade5-61cc68cbb881","ios":"levelo://app?vid=b255f05f-8743-4fe3-ade5-61cc68cbb881"},"vehicle_type_id":"4","last_reported":1687972012,"current_range_meters":29600,"station_id":"ce4bgj92rcd13ifvqbe0","pricing_plan_id":"free"},{"bike_id":"9e993691-c14f-4292-adb5-e89ae2e8d8e6","system_id":"levelo_inurba_marseille","lat":43.27609,"lon":5.36104,"is_reserved":false,"is_disabled":false,"rental_uris":{"android":"levelo://app?vid=9e993691-c14f-4292-adb5-e89ae2e8d8e6","ios":"levelo://app?vid=9e993691-c14f-4292-adb5-e89ae2e8d8e6"},"vehicle_type_id":"4","last_reported":1687972012,"current_range_meters":25600,"station_id":"ce4bgj92rcd13ifvqbe0","pricing_plan_id":"free"},{"bike_id":"26cd5dc7-21af-455d-ab42-fcd305b1e7e2","system_id":"levelo_inurba_marseille","lat":43.27835,"lon":5.39195,"is_reserved":false,"is_disabled":false,"rental_uris":{"android":"levelo://app?vid=26cd5dc7-21af-455d-ab42-fcd305b1e7e2","ios":"levelo://app?vid=26cd5dc7-21af-455d-ab42-fcd305b1e7e2"},"vehicle_type_id":"4","last_reported":1687972012,"current_range_meters":30400,"station_id":"ce4bhjp2rcd13ifvqga0","pricing_plan_id":"free"},{"bike_id":"e8628b2c-7a42-4ded-9aec-5ad7205b5c5b","system_id":"levelo_inurba_marseille","lat":43.27381,"lon":5.36236,"is_reserved":false,"is_disabled":false,"rental_uris":{"android":"levelo://app?vid=e8628b2c-7a42-4ded-9aec-5ad7205b5c5b","ios":"levelo://app?vid=e8628b2c-7a42-4ded-9aec-5ad7205b5c5b"},"vehicle_type_id":"4","last_reported":1687972012,"current_range_meters":22400,"station_id":"","pricing_plan_id":"free"},{"bike_id":"16e6243a-50ec-4c74-8bf9-a295181ab09f","system_id":"levelo_inurba_marseille","lat":43.273613,"lon":5.362705,"is_reserved":false,"is_disabled":false,"rental_uris":{"android":"levelo://app?vid=16e6243a-50ec-4c74-8bf9-a295181ab09f","ios":"levelo://app?vid=16e6243a-50ec-4c74-8bf9-a295181ab09f"},"vehicle_type_id":"4","last_reported":1687972012,"current_range_meters":21200,"station_id":"ce4bhbh2rcd13ifvqeo0","pricing_plan_id":"free"},{"bike_id":"eec16c49-68e0-49ed-b569-61c357e9583d","system_id":"levelo_inurba_marseille","lat":43.27378,"lon":5.36262,"is_reserved":false,"is_disabled":false,"rental_uris":{"android":"levelo://app?vid=eec16c49-68e0-49ed-b569-61c357e9583d","ios":"levelo://app?vid=eec16c49-68e0-49ed-b569-61c357e9583d"},"vehicle_type_id":"4","last_reported":1687972012,"current_range_meters":0,"station_id":"ce4bhbh2rcd13ifvqeo0","pricing_plan_id":"free"},{"bike_id":"17e1a028-99c0-4f74-a76a-7c0a319f3b3d","system_id":"levelo_inurba_marseille","lat":43.273613,"lon":5.362705,"is_reserved":false,"is_disabled":false,"rental_uris":{"android":"levelo://app?vid=17e1a028-99c0-4f74-a76a-7c0a319f3b3d","ios":"levelo://app?vid=17e1a028-99c0-4f74-a76a-7c0a319f3b3d"},"vehicle_type_id":"4","last_reported":1687972012,"current_range_meters":32000,"station_id":"ce4bhbh2rcd13ifvqeo0","pricing_plan_id":"free"},{"bike_id":"aaa7b1c6-7295-4094-b1eb-d93e5372586a","system_id":"levelo_inurba_marseille","lat":43.273613,"lon":5.362705,"is_reserved":false,"is_disabled":false,"rental_uris":{"android":"levelo://app?vid=aaa7b1c6-7295-4094-b1eb-d93e5372586a","ios":"levelo://app?vid=aaa7b1c6-7295-4094-b1eb-d93e5372586a"},"vehicle_type_id":"4","last_reported":1687972012,"current_range_meters":9600,"station_id":"ce4bhbh2rcd13ifvqeo0","pricing_plan_id":"free"},{"bike_id":"d982b19a-26f8-45dd-ad7e-8ce774e44587","system_id":"levelo_inurba_marseille","lat":43.273613,"lon":5.362705,"is_reserved":false,"is_disabled":false,"rental_uris":{"android":"levelo://app?vid=d982b19a-26f8-45dd-ad7e-8ce774e44587","ios":"levelo://app?vid=d982b19a-26f8-45dd-ad7e-8ce774e44587"},"vehicle_type_id":"4","last_reported":1687972012,"current_range_meters":31200,"station_id":"ce4bhbh2rcd13ifvqeo0","pricing_plan_id":"free"},{"bike_id":"f117f31b-c33e-4da7-98c8-78eb5776a2e9","system_id":"levelo_inurba_marseille","lat":43.273613,"lon":5.362705,"is_reserved":false,"is_disabled":false,"rental_uris":{"android":"levelo://app?vid=f117f31b-c33e-4da7-98c8-78eb5776a2e9","ios":"levelo://app?vid=f117f31b-c33e-4da7-98c8-78eb5776a2e9"},"vehicle_type_id":"4","last_reported":1687972012,"current_range_meters":6800,"station_id":"ce4bhbh2rcd13ifvqeo0","pricing_plan_id":"free"},{"bike_id":"f64b659e-1e6f-46f1-b729-294f2f4ee218","system_id":"levelo_inurba_marseille","lat":43.273613,"lon":5.362705,"is_reserved":false,"is_disabled":false,"rental_uris":{"android":"levelo://app?vid=f64b659e-1e6f-46f1-b729-294f2f4ee218","ios":"levelo://app?vid=f64b659e-1e6f-46f1-b729-294f2f4ee218"},"vehicle_type_id":"4","last_reported":1687972012,"current_range_meters":20000,"station_id":"ce4bhbh2rcd13ifvqeo0","pricing_plan_id":"free"},{"bike_id":"b4fb1233-9858-4a78-bea4-9252bf0fc724","system_id":"levelo_inurba_marseille","lat":43.273613,"lon":5.362705,"is_reserved":false,"is_disabled":false,"rental_uris":{"android":"levelo://app?vid=b4fb1233-9858-4a78-bea4-9252bf0fc724","ios":"levelo://app?vid=b4fb1233-9858-4a78-bea4-9252bf0fc724"},"vehicle_type_id":"4","last_reported":1687972012,"current_range_meters":12800,"station_id":"ce4bhbh2rcd13ifvqeo0","pricing_plan_id":"free"},{"bike_id":"1ade78e4-ed52-4c71-bf44-6b1e581361c9","system_id":"levelo_inurba_marseille","lat":43.273613,"lon":5.362705,"is_reserved":false,"is_disabled":false,"rental_uris":{"android":"levelo://app?vid=1ade78e4-ed52-4c71-bf44-6b1e581361c9","ios":"levelo://app?vid=1ade78e4-ed52-4c71-bf44-6b1e581361c9"},"vehicle_type_id":"4","last_reported":1687972012,"current_range_meters":800,"station_id":"ce4bhbh2rcd13ifvqeo0","pricing_plan_id":"free"},{"bike_id":"838953e1-0142-469a-bd28-1cfd2d940b69","system_id":"levelo_inurba_marseille","lat":43.27376,"lon":5.36257,"is_reserved":false,"is_disabled":false,"rental_uris":{"android":"levelo://app?vid=838953e1-0142-469a-bd28-1cfd2d940b69","ios":"levelo://app?vid=838953e1-0142-469a-bd28-1cfd2d940b69"},"vehicle_type_id":"4","last_reported":1687972012,"current_range_meters":22400,"station_id":"ce4bhbh2rcd13ifvqeo0","pricing_plan_id":"free"},{"bike_id":"6062960f-419a-43af-8bf7-8edd76443ca8","system_id":"levelo_inurba_marseille","lat":43.273613,"lon":5.362705,"is_reserved":false,"is_disabled":false,"rental_uris":{"android":"levelo://app?vid=6062960f-419a-43af-8bf7-8edd76443ca8","ios":"levelo://app?vid=6062960f-419a-43af-8bf7-8edd76443ca8"},"vehicle_type_id":"4","last_reported":1687972012,"current_range_meters":31200,"station_id":"ce4bhbh2rcd13ifvqeo0","pricing_plan_id":"free"},{"bike_id":"4db88511-305a-4d2d-b313-6fb0c0f40129","system_id":"levelo_inurba_marseille","lat":43.273609,"lon":5.362708,"is_reserved":false,"is_disabled":false,"rental_uris":{"android":"levelo://app?vid=4db88511-305a-4d2d-b313-6fb0c0f40129","ios":"levelo://app?vid=4db88511-305a-4d2d-b313-6fb0c0f40129"},"vehicle_type_id":"4","last_reported":1687972012,"current_range_meters":15200,"station_id":"ce4bhbh2rcd13ifvqeo0","pricing_plan_id":"free"},{"bike_id":"32fbbfd4-7450-46d1-80d0-be43a210a0e2","system_id":"levelo_inurba_marseille","lat":43.273613,"lon":5.362705,"is_reserved":false,"is_disabled":false,"rental_uris":{"android":"levelo://app?vid=32fbbfd4-7450-46d1-80d0-be43a210a0e2","ios":"levelo://app?vid=32fbbfd4-7450-46d1-80d0-be43a210a0e2"},"vehicle_type_id":"4","last_reported":1687972012,"current_range_meters":12000,"station_id":"ce4bhbh2rcd13ifvqeo0","pricing_plan_id":"free"},{"bike_id":"b9119858-c784-4f09-9e13-d0844a2a6bd7","system_id":"levelo_inurba_marseille","lat":43.273613,"lon":5.362705,"is_reserved":false,"is_disabled":false,"rental_uris":{"android":"levelo://app?vid=b9119858-c784-4f09-9e13-d0844a2a6bd7","ios":"levelo://app?vid=b9119858-c784-4f09-9e13-d0844a2a6bd7"},"vehicle_type_id":"4","last_reported":1687972012,"current_range_meters":21200,"station_id":"ce4bhbh2rcd13ifvqeo0","pricing_plan_id":"free"},{"bike_id":"29a4354d-27a2-4053-87ea-9739cb866254","system_id":"levelo_inurba_marseille","lat":43.273613,"lon":5.362705,"is_reserved":false,"is_disabled":false,"rental_uris":{"android":"levelo://app?vid=29a4354d-27a2-4053-87ea-9739cb866254","ios":"levelo://app?vid=29a4354d-27a2-4053-87ea-9739cb866254"},"vehicle_type_id":"4","last_reported":1687972012,"current_range_meters":0,"station_id":"ce4bhbh2rcd13ifvqeo0","pricing_plan_id":"free"},{"bike_id":"5989c0e0-4d22-4ba5-bcd3-8ce0e1051784","system_id":"levelo_inurba_marseille","lat":43.273609,"lon":5.362708,"is_reserved":false,"is_disabled":false,"rental_uris":{"android":"levelo://app?vid=5989c0e0-4d22-4ba5-bcd3-8ce0e1051784","ios":"levelo://app?vid=5989c0e0-4d22-4ba5-bcd3-8ce0e1051784"},"vehicle_type_id":"4","last_reported":1687972012,"current_range_meters":31600,"station_id":"ce4bhbh2rcd13ifvqeo0","pricing_plan_id":"free"},{"bike_id":"e7700a67-4654-413e-ae9b-2467890bb0bb","system_id":"levelo_inurba_marseille","lat":43.273613,"lon":5.362705,"is_reserved":false,"is_disabled":false,"rental_uris":{"android":"levelo://app?vid=e7700a67-4654-413e-ae9b-2467890bb0bb","ios":"levelo://app?vid=e7700a67-4654-413e-ae9b-2467890bb0bb"},"vehicle_type_id":"4","last_reported":1687972012,"current_range_meters":13600,"station_id":"ce4bhbh2rcd13ifvqeo0","pricing_plan_id":"free"},{"bike_id":"e5010e7b-96a4-4b6b-82d3-21b7c71eb15d","system_id":"levelo_inurba_marseille","lat":43.273613,"lon":5.362705,"is_reserved":false,"is_disabled":false,"rental_uris":{"android":"levelo://app?vid=e5010e7b-96a4-4b6b-82d3-21b7c71eb15d","ios":"levelo://app?vid=e5010e7b-96a4-4b6b-82d3-21b7c71eb15d"},"vehicle_type_id":"4","last_reported":1687972012,"current_range_meters":32000,"station_id":"ce4bhbh2rcd13ifvqeo0","pricing_plan_id":"free"},{"bike_id":"904a2157-4eaf-41c2-b4f2-d2b6e99d33a0","system_id":"levelo_inurba_marseille","lat":43.273609,"lon":5.362708,"is_reserved":false,"is_disabled":false,"rental_uris":{"android":"levelo://app?vid=904a2157-4eaf-41c2-b4f2-d2b6e99d33a0","ios":"levelo://app?vid=904a2157-4eaf-41c2-b4f2-d2b6e99d33a0"},"vehicle_type_id":"4","last_reported":1687972012,"current_range_meters":32000,"station_id":"ce4bhbh2rcd13ifvqeo0","pricing_plan_id":"free"},{"bike_id":"0e597a1d-777b-4078-b692-87278ccbf491","system_id":"levelo_inurba_marseille","lat":43.273609,"lon":5.362708,"is_reserved":false,"is_disabled":false,"rental_uris":{"android":"levelo://app?vid=0e597a1d-777b-4078-b692-87278ccbf491","ios":"levelo://app?vid=0e597a1d-777b-4078-b692-87278ccbf491"},"vehicle_type_id":"4","last_reported":1687972012,"current_range_meters":31600,"station_id":"ce4bhbh2rcd13ifvqeo0","pricing_plan_id":"free"},{"bike_id":"73b898d3-a5a9-4a86-bbf5-b4f89974615b","system_id":"levelo_inurba_marseille","lat":43.273609,"lon":5.362708,"is_reserved":false,"is_disabled":false,"rental_uris":{"android":"levelo://app?vid=73b898d3-a5a9-4a86-bbf5-b4f89974615b","ios":"levelo://app?vid=73b898d3-a5a9-4a86-bbf5-b4f89974615b"},"vehicle_type_id":"4","last_reported":1687972012,"current_range_meters":28000,"station_id":"ce4bhbh2rcd13ifvqeo0","pricing_plan_id":"free"},{"bike_id":"7bdcc070-735b-4f08-a25b-df3c03fdbc2f","system_id":"levelo_inurba_marseille","lat":43.273609,"lon":5.362708,"is_reserved":false,"is_disabled":false,"rental_uris":{"android":"levelo://app?vid=7bdcc070-735b-4f08-a25b-df3c03fdbc2f","ios":"levelo://app?vid=7bdcc070-735b-4f08-a25b-df3c03fdbc2f"},"vehicle_type_id":"4","last_reported":1687972012,"current_range_meters":29200,"station_id":"ce4bhbh2rcd13ifvqeo0","pricing_plan_id":"free"},{"bike_id":"9e8f28f3-fd12-4dbe-9a71-479e5ee31bd1","system_id":"levelo_inurba_marseille","lat":43.273613,"lon":5.362705,"is_reserved":false,"is_disabled":false,"rental_uris":{"android":"levelo://app?vid=9e8f28f3-fd12-4dbe-9a71-479e5ee31bd1","ios":"levelo://app?vid=9e8f28f3-fd12-4dbe-9a71-479e5ee31bd1"},"vehicle_type_id":"4","last_reported":1687972012,"current_range_meters":31200,"station_id":"ce4bhbh2rcd13ifvqeo0","pricing_plan_id":"free"},{"bike_id":"77ef5970-c750-4bde-b0e8-174601b7b975","system_id":"levelo_inurba_marseille","lat":43.27562,"lon":5.38426,"is_reserved":false,"is_disabled":false,"rental_uris":{"android":"levelo://app?vid=77ef5970-c750-4bde-b0e8-174601b7b975","ios":"levelo://app?vid=77ef5970-c750-4bde-b0e8-174601b7b975"},"vehicle_type_id":"4","last_reported":1687972012,"current_range_meters":4400,"station_id":"ce4bhh92rcd13ifvqfi0","pricing_plan_id":"free"},{"bike_id":"768f4e23-fa30-4796-b4f6-20e70fdcbfc7","system_id":"levelo_inurba_marseille","lat":43.27365,"lon":5.36245,"is_reserved":false,"is_disabled":false,"rental_uris":{"android":"levelo://app?vid=768f4e23-fa30-4796-b4f6-20e70fdcbfc7","ios":"levelo://app?vid=768f4e23-fa30-4796-b4f6-20e70fdcbfc7"},"vehicle_type_id":"4","last_reported":1687972012,"current_range_meters":31200,"station_id":"ce4bhbh2rcd13ifvqeo0","pricing_plan_id":"free"},{"bike_id":"c14102a5-1d61-424b-8e88-e65a225e81b4","system_id":"levelo_inurba_marseille","lat":43.27681,"lon":5.38872,"is_reserved":false,"is_disabled":false,"rental_uris":{"android":"levelo://app?vid=c14102a5-1d61-424b-8e88-e65a225e81b4","ios":"levelo://app?vid=c14102a5-1d61-424b-8e88-e65a225e81b4"},"vehicle_type_id":"4","last_reported":1687972012,"current_range_meters":0,"station_id":"ce4bhi12rcd13ifvqfo0","pricing_plan_id":"free"},{"bike_id":"abe3bad0-0626-47e9-b43e-e69cd7540700","system_id":"levelo_inurba_marseille","lat":43.280784,"lon":5.396622,"is_reserved":false,"is_disabled":false,"rental_uris":{"android":"levelo://app?vid=abe3bad0-0626-47e9-b43e-e69cd7540700","ios":"levelo://app?vid=abe3bad0-0626-47e9-b43e-e69cd7540700"},"vehicle_type_id":"4","last_reported":1687972012,"current_range_meters":1200,"station_id":"ce4bho12rcd13ifvqh2g","pricing_plan_id":"free"},{"bike_id":"8212c02b-6d59-4120-bfad-1bf5cf340eb5","system_id":"levelo_inurba_marseille","lat":43.317121,"lon":5.423936,"is_reserved":false,"is_disabled":false,"rental_uris":{"android":"levelo://app?vid=8212c02b-6d59-4120-bfad-1bf5cf340eb5","ios":"levelo://app?vid=8212c02b-6d59-4120-bfad-1bf5cf340eb5"},"vehicle_type_id":"4","last_reported":1687972012,"current_range_meters":4400,"station_id":"ce4bhp92rcd13ifvqhbg","pricing_plan_id":"free"},{"bike_id":"54e17aed-c307-4dd1-b4ce-d55626b4eaba","system_id":"levelo_inurba_marseille","lat":43.29857,"lon":5.42064,"is_reserved":false,"is_disabled":false,"rental_uris":{"android":"levelo://app?vid=54e17aed-c307-4dd1-b4ce-d55626b4eaba","ios":"levelo://app?vid=54e17aed-c307-4dd1-b4ce-d55626b4eaba"},"vehicle_type_id":"4","last_reported":1687972012,"current_range_meters":21200,"station_id":"","pricing_plan_id":"free"},{"bike_id":"48cef3e2-be07-4989-a408-1e82a9a00a21","system_id":"levelo_inurba_marseille","lat":43.27022,"lon":5.38201,"is_reserved":false,"is_disabled":false,"rental_uris":{"android":"levelo://app?vid=48cef3e2-be07-4989-a408-1e82a9a00a21","ios":"levelo://app?vid=48cef3e2-be07-4989-a408-1e82a9a00a21"},"vehicle_type_id":"4","last_reported":1687972012,"current_range_meters":9200,"station_id":"","pricing_plan_id":"free"},{"bike_id":"4fa21102-9c5c-4785-8da0-3d7f957b0c31","system_id":"levelo_inurba_marseille","lat":43.272124,"lon":5.391768,"is_reserved":false,"is_disabled":false,"rental_uris":{"android":"levelo://app?vid=4fa21102-9c5c-4785-8da0-3d7f957b0c31","ios":"levelo://app?vid=4fa21102-9c5c-4785-8da0-3d7f957b0c31"},"vehicle_type_id":"4","last_reported":1687972012,"current_range_meters":30400,"station_id":"ce4bhhp2rcd13ifvqfm0","pricing_plan_id":"free"},{"bike_id":"4554fbd4-b39b-41d5-9704-94684b62dcc6","system_id":"levelo_inurba_marseille","lat":43.27202,"lon":5.39175,"is_reserved":false,"is_disabled":false,"rental_uris":{"android":"levelo://app?vid=4554fbd4-b39b-41d5-9704-94684b62dcc6","ios":"levelo://app?vid=4554fbd4-b39b-41d5-9704-94684b62dcc6"},"vehicle_type_id":"4","last_reported":1687972012,"current_range_meters":0,"station_id":"ce4bhhp2rcd13ifvqfm0","pricing_plan_id":"free"},{"bike_id":"dd9b1efb-e6fb-4179-9046-23459c462710","system_id":"levelo_inurba_marseille","lat":43.278128,"lon":5.407195,"is_reserved":false,"is_disabled":false,"rental_uris":{"android":"levelo://app?vid=dd9b1efb-e6fb-4179-9046-23459c462710","ios":"levelo://app?vid=dd9b1efb-e6fb-4179-9046-23459c462710"},"vehicle_type_id":"4","last_reported":1687972012,"current_range_meters":11200,"station_id":"ce4bhnh2rcd13ifvqgtg","pricing_plan_id":"free"},{"bike_id":"33e90f9d-9ea2-4174-8d44-365a7d68573a","system_id":"levelo_inurba_marseille","lat":43.278128,"lon":5.407195,"is_reserved":false,"is_disabled":false,"rental_uris":{"android":"levelo://app?vid=33e90f9d-9ea2-4174-8d44-365a7d68573a","ios":"levelo://app?vid=33e90f9d-9ea2-4174-8d44-365a7d68573a"},"vehicle_type_id":"4","last_reported":1687972012,"current_range_meters":14400,"station_id":"ce4bhnh2rcd13ifvqgtg","pricing_plan_id":"free"},{"bike_id":"8821fc13-a1ff-4f3e-8a10-7eb173e021d3","system_id":"levelo_inurba_marseille","lat":43.278128,"lon":5.407195,"is_reserved":false,"is_disabled":false,"rental_uris":{"android":"levelo://app?vid=8821fc13-a1ff-4f3e-8a10-7eb173e021d3","ios":"levelo://app?vid=8821fc13-a1ff-4f3e-8a10-7eb173e021d3"},"vehicle_type_id":"4","last_reported":1687972012,"current_range_meters":20400,"station_id":"ce4bhnh2rcd13ifvqgtg","pricing_plan_id":"free"},{"bike_id":"e8823636-0694-4d6e-865e-e4d3bb1f02c4","system_id":"levelo_inurba_marseille","lat":43.278128,"lon":5.407195,"is_reserved":false,"is_disabled":false,"rental_uris":{"android":"levelo://app?vid=e8823636-0694-4d6e-865e-e4d3bb1f02c4","ios":"levelo://app?vid=e8823636-0694-4d6e-865e-e4d3bb1f02c4"},"vehicle_type_id":"4","last_reported":1687972012,"current_range_meters":21200,"station_id":"ce4bhnh2rcd13ifvqgtg","pricing_plan_id":"free"},{"bike_id":"40fb67c6-79c9-422c-8b6f-43e94e0b4c78","system_id":"levelo_inurba_marseille","lat":43.278128,"lon":5.407195,"is_reserved":false,"is_disabled":false,"rental_uris":{"android":"levelo://app?vid=40fb67c6-79c9-422c-8b6f-43e94e0b4c78","ios":"levelo://app?vid=40fb67c6-79c9-422c-8b6f-43e94e0b4c78"},"vehicle_type_id":"4","last_reported":1687972012,"current_range_meters":24800,"station_id":"ce4bhnh2rcd13ifvqgtg","pricing_plan_id":"free"},{"bike_id":"9c4a5cc7-1d2d-4a2a-a4d7-76aa7320e682","system_id":"levelo_inurba_marseille","lat":43.278128,"lon":5.407195,"is_reserved":false,"is_disabled":false,"rental_uris":{"android":"levelo://app?vid=9c4a5cc7-1d2d-4a2a-a4d7-76aa7320e682","ios":"levelo://app?vid=9c4a5cc7-1d2d-4a2a-a4d7-76aa7320e682"},"vehicle_type_id":"4","last_reported":1687972012,"current_range_meters":6000,"station_id":"ce4bhnh2rcd13ifvqgtg","pricing_plan_id":"free"},{"bike_id":"108a48c7-5e1d-4370-844b-52e4f339c93a","system_id":"levelo_inurba_marseille","lat":43.278128,"lon":5.407195,"is_reserved":false,"is_disabled":false,"rental_uris":{"android":"levelo://app?vid=108a48c7-5e1d-4370-844b-52e4f339c93a","ios":"levelo://app?vid=108a48c7-5e1d-4370-844b-52e4f339c93a"},"vehicle_type_id":"4","last_reported":1687972012,"current_range_meters":12800,"station_id":"ce4bhnh2rcd13ifvqgtg","pricing_plan_id":"free"},{"bike_id":"9fdc7df4-d2f0-4951-8291-8c89e6d4271b","system_id":"levelo_inurba_marseille","lat":43.271388,"lon":5.409269,"is_reserved":false,"is_disabled":false,"rental_uris":{"android":"levelo://app?vid=9fdc7df4-d2f0-4951-8291-8c89e6d4271b","ios":"levelo://app?vid=9fdc7df4-d2f0-4951-8291-8c89e6d4271b"},"vehicle_type_id":"4","last_reported":1687972012,"current_range_meters":8000,"station_id":"ce4bhl12rcd13ifvqgf0","pricing_plan_id":"free"},{"bike_id":"c7b0284e-00d3-4717-a693-4a60386f16e5","system_id":"levelo_inurba_marseille","lat":43.27994,"lon":5.41655,"is_reserved":false,"is_disabled":false,"rental_uris":{"android":"levelo://app?vid=c7b0284e-00d3-4717-a693-4a60386f16e5","ios":"levelo://app?vid=c7b0284e-00d3-4717-a693-4a60386f16e5"},"vehicle_type_id":"4","last_reported":1687972012,"current_range_meters":8400,"station_id":"ce4bho12rcd13ifvqh1g","pricing_plan_id":"free"},{"bike_id":"30db3247-22d2-493f-96fc-ffe1cdba68df","system_id":"levelo_inurba_marseille","lat":43.27996,"lon":5.41658,"is_reserved":false,"is_disabled":false,"rental_uris":{"android":"levelo://app?vid=30db3247-22d2-493f-96fc-ffe1cdba68df","ios":"levelo://app?vid=30db3247-22d2-493f-96fc-ffe1cdba68df"},"vehicle_type_id":"4","last_reported":1687972012,"current_range_meters":18800,"station_id":"ce4bho12rcd13ifvqh1g","pricing_plan_id":"free"},{"bike_id":"85e93959-e805-482e-9545-344af116c658","system_id":"levelo_inurba_marseille","lat":43.27998,"lon":5.41662,"is_reserved":false,"is_disabled":false,"rental_uris":{"android":"levelo://app?vid=85e93959-e805-482e-9545-344af116c658","ios":"levelo://app?vid=85e93959-e805-482e-9545-344af116c658"},"vehicle_type_id":"4","last_reported":1687972012,"current_range_meters":6000,"station_id":"ce4bho12rcd13ifvqh1g","pricing_plan_id":"free"},{"bike_id":"e39f2f25-b979-4116-aad3-7beb563d5650","system_id":"levelo_inurba_marseille","lat":43.27991,"lon":5.41655,"is_reserved":false,"is_disabled":false,"rental_uris":{"android":"levelo://app?vid=e39f2f25-b979-4116-aad3-7beb563d5650","ios":"levelo://app?vid=e39f2f25-b979-4116-aad3-7beb563d5650"},"vehicle_type_id":"4","last_reported":1687972012,"current_range_meters":6000,"station_id":"ce4bho12rcd13ifvqh1g","pricing_plan_id":"free"},{"bike_id":"8e2de05a-b264-4f03-9058-d843e8b27837","system_id":"levelo_inurba_marseille","lat":43.27989,"lon":5.4166,"is_reserved":false,"is_disabled":false,"rental_uris":{"android":"levelo://app?vid=8e2de05a-b264-4f03-9058-d843e8b27837","ios":"levelo://app?vid=8e2de05a-b264-4f03-9058-d843e8b27837"},"vehicle_type_id":"4","last_reported":1687972012,"current_range_meters":23600,"station_id":"ce4bho12rcd13ifvqh1g","pricing_plan_id":"free"},{"bike_id":"15687ed2-108c-4203-956d-993f39eae5ae","system_id":"levelo_inurba_marseille","lat":43.27989,"lon":5.41661,"is_reserved":false,"is_disabled":false,"rental_uris":{"android":"levelo://app?vid=15687ed2-108c-4203-956d-993f39eae5ae","ios":"levelo://app?vid=15687ed2-108c-4203-956d-993f39eae5ae"},"vehicle_type_id":"4","last_reported":1687972012,"current_range_meters":20800,"station_id":"ce4bho12rcd13ifvqh1g","pricing_plan_id":"free"},{"bike_id":"9eaf284c-686b-494f-b2f8-845b2423076f","system_id":"levelo_inurba_marseille","lat":43.267966,"lon":5.393976,"is_reserved":false,"is_disabled":false,"rental_uris":{"android":"levelo://app?vid=9eaf284c-686b-494f-b2f8-845b2423076f","ios":"levelo://app?vid=9eaf284c-686b-494f-b2f8-845b2423076f"},"vehicle_type_id":"4","last_reported":1687972012,"current_range_meters":13600,"station_id":"ce4bhh12rcd13ifvqfg0","pricing_plan_id":"free"},{"bike_id":"876fdec7-e51c-40a4-afb7-db17b0227c79","system_id":"levelo_inurba_marseille","lat":43.265569,"lon":5.390047,"is_reserved":false,"is_disabled":false,"rental_uris":{"android":"levelo://app?vid=876fdec7-e51c-40a4-afb7-db17b0227c79","ios":"levelo://app?vid=876fdec7-e51c-40a4-afb7-db17b0227c79"},"vehicle_type_id":"4","last_reported":1687972012,"current_range_meters":24000,"station_id":"ce4bhe12rcd13ifvqf30","pricing_plan_id":"free"},{"bike_id":"6d7cd9c5-4f27-4d24-8b4d-0eb8aa2100f6","system_id":"levelo_inurba_marseille","lat":43.265569,"lon":5.390047,"is_reserved":false,"is_disabled":false,"rental_uris":{"android":"levelo://app?vid=6d7cd9c5-4f27-4d24-8b4d-0eb8aa2100f6","ios":"levelo://app?vid=6d7cd9c5-4f27-4d24-8b4d-0eb8aa2100f6"},"vehicle_type_id":"4","last_reported":1687972012,"current_range_meters":13200,"station_id":"ce4bhe12rcd13ifvqf30","pricing_plan_id":"free"},{"bike_id":"c8178fa9-60c2-4397-af9c-046cee7b7537","system_id":"levelo_inurba_marseille","lat":43.265569,"lon":5.390047,"is_reserved":false,"is_disabled":false,"rental_uris":{"android":"levelo://app?vid=c8178fa9-60c2-4397-af9c-046cee7b7537","ios":"levelo://app?vid=c8178fa9-60c2-4397-af9c-046cee7b7537"},"vehicle_type_id":"4","last_reported":1687972012,"current_range_meters":14400,"station_id":"ce4bhe12rcd13ifvqf30","pricing_plan_id":"free"},{"bike_id":"9be72762-094a-4552-bbe6-350d14568552","system_id":"levelo_inurba_marseille","lat":43.265569,"lon":5.390047,"is_reserved":false,"is_disabled":false,"rental_uris":{"android":"levelo://app?vid=9be72762-094a-4552-bbe6-350d14568552","ios":"levelo://app?vid=9be72762-094a-4552-bbe6-350d14568552"},"vehicle_type_id":"4","last_reported":1687972012,"current_range_meters":18800,"station_id":"ce4bhe12rcd13ifvqf30","pricing_plan_id":"free"},{"bike_id":"ffb57785-ece2-4f72-8266-b1d23fd35a40","system_id":"levelo_inurba_marseille","lat":43.265569,"lon":5.390047,"is_reserved":false,"is_disabled":false,"rental_uris":{"android":"levelo://app?vid=ffb57785-ece2-4f72-8266-b1d23fd35a40","ios":"levelo://app?vid=ffb57785-ece2-4f72-8266-b1d23fd35a40"},"vehicle_type_id":"4","last_reported":1687972012,"current_range_meters":26000,"station_id":"ce4bhe12rcd13ifvqf30","pricing_plan_id":"free"},{"bike_id":"9b46bd9f-ee61-4663-bffd-d6937d42a0d5","system_id":"levelo_inurba_marseille","lat":43.2656,"lon":5.39008,"is_reserved":false,"is_disabled":false,"rental_uris":{"android":"levelo://app?vid=9b46bd9f-ee61-4663-bffd-d6937d42a0d5","ios":"levelo://app?vid=9b46bd9f-ee61-4663-bffd-d6937d42a0d5"},"vehicle_type_id":"4","last_reported":1687972012,"current_range_meters":4000,"station_id":"ce4bhe12rcd13ifvqf30","pricing_plan_id":"free"},{"bike_id":"508ce3b6-e537-49a3-b129-8de34a7c6bad","system_id":"levelo_inurba_marseille","lat":43.260225,"lon":5.375455,"is_reserved":false,"is_disabled":false,"rental_uris":{"android":"levelo://app?vid=508ce3b6-e537-49a3-b129-8de34a7c6bad","ios":"levelo://app?vid=508ce3b6-e537-49a3-b129-8de34a7c6bad"},"vehicle_type_id":"4","last_reported":1687972012,"current_range_meters":1600,"station_id":"ce4bhgh2rcd13ifvqfa0","pricing_plan_id":"free"},{"bike_id":"9e1e3478-7e13-42b3-aaa8-7203f4db033b","system_id":"levelo_inurba_marseille","lat":43.261782,"lon":5.374515,"is_reserved":false,"is_disabled":false,"rental_uris":{"android":"levelo://app?vid=9e1e3478-7e13-42b3-aaa8-7203f4db033b","ios":"levelo://app?vid=9e1e3478-7e13-42b3-aaa8-7203f4db033b"},"vehicle_type_id":"4","last_reported":1687972012,"current_range_meters":5600,"station_id":"ce4bhgp2rcd13ifvqfc0","pricing_plan_id":"free"},{"bike_id":"351d86c1-1a28-43cd-8723-385339e58fac","system_id":"levelo_inurba_marseille","lat":43.261782,"lon":5.374515,"is_reserved":false,"is_disabled":false,"rental_uris":{"android":"levelo://app?vid=351d86c1-1a28-43cd-8723-385339e58fac","ios":"levelo://app?vid=351d86c1-1a28-43cd-8723-385339e58fac"},"vehicle_type_id":"4","last_reported":1687972012,"current_range_meters":1600,"station_id":"ce4bhgp2rcd13ifvqfc0","pricing_plan_id":"free"},{"bike_id":"9983a020-c120-4368-a2ff-f877c94e0097","system_id":"levelo_inurba_marseille","lat":43.2619,"lon":5.37438,"is_reserved":false,"is_disabled":false,"rental_uris":{"android":"levelo://app?vid=9983a020-c120-4368-a2ff-f877c94e0097","ios":"levelo://app?vid=9983a020-c120-4368-a2ff-f877c94e0097"},"vehicle_type_id":"4","last_reported":1687972012,"current_range_meters":22800,"station_id":"ce4bhgp2rcd13ifvqfc0","pricing_plan_id":"free"},{"bike_id":"8ba3cc65-f68e-4f99-93e4-a795cfd055dc","system_id":"levelo_inurba_marseille","lat":43.261782,"lon":5.374515,"is_reserved":false,"is_disabled":false,"rental_uris":{"android":"levelo://app?vid=8ba3cc65-f68e-4f99-93e4-a795cfd055dc","ios":"levelo://app?vid=8ba3cc65-f68e-4f99-93e4-a795cfd055dc"},"vehicle_type_id":"4","last_reported":1687972012,"current_range_meters":5200,"station_id":"ce4bhgp2rcd13ifvqfc0","pricing_plan_id":"free"},{"bike_id":"1fc9ae36-6c61-43bd-bca2-1658f723d725","system_id":"levelo_inurba_marseille","lat":43.2619,"lon":5.37442,"is_reserved":false,"is_disabled":false,"rental_uris":{"android":"levelo://app?vid=1fc9ae36-6c61-43bd-bca2-1658f723d725","ios":"levelo://app?vid=1fc9ae36-6c61-43bd-bca2-1658f723d725"},"vehicle_type_id":"4","last_reported":1687972012,"current_range_meters":12400,"station_id":"ce4bhgp2rcd13ifvqfc0","pricing_plan_id":"free"},{"bike_id":"38e5f3b8-d3e5-4084-b5c9-a9814ff9de66","system_id":"levelo_inurba_marseille","lat":43.261782,"lon":5.374515,"is_reserved":false,"is_disabled":false,"rental_uris":{"android":"levelo://app?vid=38e5f3b8-d3e5-4084-b5c9-a9814ff9de66","ios":"levelo://app?vid=38e5f3b8-d3e5-4084-b5c9-a9814ff9de66"},"vehicle_type_id":"4","last_reported":1687972012,"current_range_meters":17600,"station_id":"ce4bhgp2rcd13ifvqfc0","pricing_plan_id":"free"},{"bike_id":"064b572e-e36b-4d57-a75f-b6007339811d","system_id":"levelo_inurba_marseille","lat":43.26186,"lon":5.37438,"is_reserved":false,"is_disabled":false,"rental_uris":{"android":"levelo://app?vid=064b572e-e36b-4d57-a75f-b6007339811d","ios":"levelo://app?vid=064b572e-e36b-4d57-a75f-b6007339811d"},"vehicle_type_id":"4","last_reported":1687972012,"current_range_meters":21600,"station_id":"ce4bhgp2rcd13ifvqfc0","pricing_plan_id":"free"},{"bike_id":"5b087154-b84f-443a-ad8a-323c33f8e919","system_id":"levelo_inurba_marseille","lat":43.261782,"lon":5.374515,"is_reserved":false,"is_disabled":false,"rental_uris":{"android":"levelo://app?vid=5b087154-b84f-443a-ad8a-323c33f8e919","ios":"levelo://app?vid=5b087154-b84f-443a-ad8a-323c33f8e919"},"vehicle_type_id":"4","last_reported":1687972012,"current_range_meters":15200,"station_id":"ce4bhgp2rcd13ifvqfc0","pricing_plan_id":"free"},{"bike_id":"0892e417-7ee6-4112-9aa1-74769e2d7f25","system_id":"levelo_inurba_marseille","lat":43.27187,"lon":5.40984,"is_reserved":false,"is_disabled":false,"rental_uris":{"android":"levelo://app?vid=0892e417-7ee6-4112-9aa1-74769e2d7f25","ios":"levelo://app?vid=0892e417-7ee6-4112-9aa1-74769e2d7f25"},"vehicle_type_id":"4","last_reported":1687972012,"current_range_meters":28000,"station_id":"ce4bhl12rcd13ifvqgf0","pricing_plan_id":"free"},{"bike_id":"9b712433-209e-4850-9572-528fa537dd86","system_id":"levelo_inurba_marseille","lat":43.262012,"lon":5.379307,"is_reserved":false,"is_disabled":false,"rental_uris":{"android":"levelo://app?vid=9b712433-209e-4850-9572-528fa537dd86","ios":"levelo://app?vid=9b712433-209e-4850-9572-528fa537dd86"},"vehicle_type_id":"4","last_reported":1687972012,"current_range_meters":12000,"station_id":"ce4bhjp2rcd13ifvqg90","pricing_plan_id":"free"},{"bike_id":"a9338ee9-321a-4044-8c5c-92c79e25d56c","system_id":"levelo_inurba_marseille","lat":43.271388,"lon":5.409269,"is_reserved":false,"is_disabled":false,"rental_uris":{"android":"levelo://app?vid=a9338ee9-321a-4044-8c5c-92c79e25d56c","ios":"levelo://app?vid=a9338ee9-321a-4044-8c5c-92c79e25d56c"},"vehicle_type_id":"4","last_reported":1687972012,"current_range_meters":31600,"station_id":"ce4bhl12rcd13ifvqgf0","pricing_plan_id":"free"},{"bike_id":"fdebd92b-3c38-4eff-916c-e94408bb5b09","system_id":"levelo_inurba_marseille","lat":43.271388,"lon":5.409269,"is_reserved":false,"is_disabled":false,"rental_uris":{"android":"levelo://app?vid=fdebd92b-3c38-4eff-916c-e94408bb5b09","ios":"levelo://app?vid=fdebd92b-3c38-4eff-916c-e94408bb5b09"},"vehicle_type_id":"4","last_reported":1687972012,"current_range_meters":30000,"station_id":"ce4bhl12rcd13ifvqgf0","pricing_plan_id":"free"},{"bike_id":"32bcfe39-c3ac-49c0-b3ba-dc8b18e2929f","system_id":"levelo_inurba_marseille","lat":43.26202,"lon":5.379299,"is_reserved":false,"is_disabled":false,"rental_uris":{"android":"levelo://app?vid=32bcfe39-c3ac-49c0-b3ba-dc8b18e2929f","ios":"levelo://app?vid=32bcfe39-c3ac-49c0-b3ba-dc8b18e2929f"},"vehicle_type_id":"4","last_reported":1687972012,"current_range_meters":28400,"station_id":"ce4bhjp2rcd13ifvqg90","pricing_plan_id":"free"},{"bike_id":"7cb5bb70-d5da-4644-aec3-e2b6495172b8","system_id":"levelo_inurba_marseille","lat":43.27183,"lon":5.40996,"is_reserved":false,"is_disabled":false,"rental_uris":{"android":"levelo://app?vid=7cb5bb70-d5da-4644-aec3-e2b6495172b8","ios":"levelo://app?vid=7cb5bb70-d5da-4644-aec3-e2b6495172b8"},"vehicle_type_id":"4","last_reported":1687972012,"current_range_meters":29200,"station_id":"ce4bhl12rcd13ifvqgf0","pricing_plan_id":"free"},{"bike_id":"f4c62051-a975-433b-9cd7-2064ec0290c3","system_id":"levelo_inurba_marseille","lat":43.262012,"lon":5.379307,"is_reserved":false,"is_disabled":false,"rental_uris":{"android":"levelo://app?vid=f4c62051-a975-433b-9cd7-2064ec0290c3","ios":"levelo://app?vid=f4c62051-a975-433b-9cd7-2064ec0290c3"},"vehicle_type_id":"4","last_reported":1687972012,"current_range_meters":22800,"station_id":"ce4bhjp2rcd13ifvqg90","pricing_plan_id":"free"},{"bike_id":"1f5a69cf-2c77-4f99-b765-678e2c199a95","system_id":"levelo_inurba_marseille","lat":43.271388,"lon":5.409269,"is_reserved":false,"is_disabled":false,"rental_uris":{"android":"levelo://app?vid=1f5a69cf-2c77-4f99-b765-678e2c199a95","ios":"levelo://app?vid=1f5a69cf-2c77-4f99-b765-678e2c199a95"},"vehicle_type_id":"4","last_reported":1687972012,"current_range_meters":7600,"station_id":"ce4bhl12rcd13ifvqgf0","pricing_plan_id":"free"},