{"last_updated":1729548477,"ttl":60,"version":"2.2","data":{"bikes":[{"bike_id":"9a89681b-50ef-4d7d-98de-b2afb5895f27","system_id":"levelo_inurba_marseille","lat":43.23176,"lon":5.39985,"is_reserved":false,"is_disabled":false,"rental_uris":{"android":"levelo://app?vid=9a89681b-50ef-4d7d-98de-b2afb5895f27","ios":"levelo://app?vid=9a89681b-50ef-4d7d-98de-b2afb5895f27"},"vehicle_type_id":"4","last_reported":1729548477,"current_range_meters":38800,"station_id":"ce4bhn12rcd13ifvqgqg","pricing_plan_id":"cebpf4jnsgd1na2vs0mg"},{"bike_id":"8704e08b-7e31-4439-affd-72da191bf121","system_id":"levelo_inurba_marseille","lat":43.245915,"lon":5.373563,"is_reserved":false,"is_disabled":false,"rental_uris":{"android":"levelo://app?vid=8704e08b-7e31-4439-affd-72da191bf121","ios":"levelo://app?vid=8704e08b-7e31-4439-affd-72da191bf121"},"vehicle_type_id":"4","last_reported":1729548477,"current_range_meters":28800,"station_id":"ce4bhih2rcd13ifvqfr0","pricing_plan_id":"cebpf4jnsgd1na2vs0mg"},{"bike_id":"93fa3798-63dd-4a89-934e-9dcbd5bc93a8","system_id":"levelo_inurba_marseille","lat":43.30889,"lon":5.39642,"is_reserved":false,"is_disabled":false,"rental_uris":{"android":"levelo://app?vid=93fa3798-63dd-4a89-934e-9dcbd5bc93a8","ios":"levelo://app?vid=93fa3798-63dd-4a89-934e-9dcbd5bc93a8"},"vehicle_type_id":"4","last_reported":1729548477,"current_range_meters":39200,"station_id":"ce4bh012rcd13ifvqcv0","pricing_plan_id":"cebpf4jnsgd1na2vs0mg"},{"bike_id":"faa7e7cd-15e9-4ba1-aba2-11bbf3e08543","system_id":"levelo_inurba_marseille","lat":43.28744,"lon":5.36084,"is_reserved":false,"is_disabled":false,"rental_uris":{"android":"levelo://app?vid=faa7e7cd-15e9-4ba1-aba2-11bbf3e08543","ios":"levelo://app?vid=faa7e7cd-15e9-4ba1-aba2-11bbf3e08543"},"vehicle_type_id":"4","last_reported":1729548477,"current_range_meters":32400,"station_id":"cki0cbj6b192h4jlfktg","pricing_plan_id":"cebpf4jnsgd1na2vs0mg"},{"bike_id":"db21b9b6-ffa5-4209-856b-c3959b135717","system_id":"levelo_inurba_marseille","lat":43.31719,"lon":5.37757,"is_reserved":false,"is_disabled":false,"rental_uris":{"android":"levelo://app?vid=db21b9b6-ffa5-4209-856b-c3959b135717","ios":"levelo://app?vid=db21b9b6-ffa5-4209-856b-c3959b135717"},"vehicle_type_id":"4","last_reported":1729548477,"current_range_meters":9600,"station_id":"ce4bgth2rcd13ifvqch0","pricing_plan_id":"cebpf4jnsgd1na2vs0mg"},{"bike_id":"ef659374-d728-45b2-9db0-65e67fafda50","system_id":"levelo_inurba_marseille","lat":43.30291,"lon":5.39215,"is_reserved":false,"is_disabled":false,"rental_uris":{"android":"levelo://app?vid=ef659374-d728-45b2-9db0-65e67fafda50","ios":"levelo://app?vid=ef659374-d728-45b2-9db0-65e67fafda50"},"vehicle_type_id":"4","last_reported":1729548477,"current_range_meters":12000,"station_id":"ce4bgkh2rcd13ifvqbk0","pricing_plan_id":"cebpf4jnsgd1na2vs0mg"},{"bike_id":"056124ee-b6f9-468d-94ef-5fa46e18bd36","system_id":"levelo_inurba_marseille","lat":43.33611,"lon":5.41025,"is_reserved":false,"is_disabled":false,"rental_uris":{"android":"levelo://app?vid=056124ee-b6f9-468d-94ef-5fa46e18bd36","ios":"levelo://app?vid=056124ee-b6f9-468d-94ef-5fa46e18bd36"},"vehicle_type_id":"4","last_reported":1729548477,"current_range_meters":38000,"station_id":"ce4bhqh2rcd13ifvqhmg","pricing_plan_id":"cebpf4jnsgd1na2vs0mg"},{"bike_id":"c863ab3d-1edc-4863-a6c7-73e4e0932069","system_id":"levelo_inurba_marseille","lat":43.33602,"lon":5.4104,"is_reserved":false,"is_disabled":false,"rental_uris":{"android":"levelo://app?vid=c863ab3d-1edc-4863-a6c7-73e4e0932069","ios":"levelo://app?vid=c863ab3d-1edc-4863-a6c7-73e4e0932069"},"vehicle_type_id":"4","last_reported":1729548477,"current_range_meters":3200,"station_id":"ce4bhqh2rcd13ifvqhmg","pricing_plan_id":"cebpf4jnsgd1na2vs0mg"},{"bike_id":"3282e7b3-c396-43eb-aa24-95242e00e05d","system_id":"levelo_inurba_marseille","lat":43.26944,"lon":5.40255,"is_reserved":false,"is_disabled":false,"rental_uris":{"android":"levelo://app?vid=3282e7b3-c396-43eb-aa24-95242e00e05d","ios":"levelo://app?vid=3282e7b3-c396-43eb-aa24-95242e00e05d"},"vehicle_type_id":"4","last_reported":1729548477,"current_range_meters":37600,"station_id":"cjm6bp8fraef2m0cb0m0","pricing_plan_id":"cebpf4jnsgd1na2vs0mg"},{"bike_id":"98be1311-97a9-49d0-9adf-8c3240b989d7","system_id":"levelo_inurba_marseille","lat":43.29523,"lon":5.38547,"is_reserved":false,"is_disabled":false,"rental_uris":{"android":"levelo://app?vid=98be1311-97a9-49d0-9adf-8c3240b989d7","ios":"levelo://app?vid=98be1311-97a9-49d0-9adf-8c3240b989d7"},"vehicle_type_id":"4","last_reported":1729548477,"current_range_meters":19200,"station_id":"ce4bgih2rcd13ifvqba0","pricing_plan_id":"cebpf4jnsgd1na2vs0mg"},{"bike_id":"dda2d351-1eab-421c-b87f-4111e4062a04","system_id":"levelo_inurba_marseille","lat":43.3229,"lon":5.3827,"is_reserved":false,"is_disabled":false,"rental_uris":{"android":"levelo://app?vid=dda2d351-1eab-421c-b87f-4111e4062a04","ios":"levelo://app?vid=dda2d351-1eab-421c-b87f-4111e4062a04"},"vehicle_type_id":"4","last_reported":1729548477,"current_range_meters":16000,"station_id":"ce4bhr12rcd13ifvqhqg","pricing_plan_id":"cebpf4jnsgd1na2vs0mg"},{"bike_id":"00ab5bd7-d235-4133-b178-d5a6f0798224","system_id":"levelo_inurba_marseille","lat":43.30286,"lon":5.37689,"is_reserved":false,"is_disabled":false,"rental_uris":{"android":"levelo://app?vid=00ab5bd7-d235-4133-b178-d5a6f0798224","ios":"levelo://app?vid=00ab5bd7-d235-4133-b178-d5a6f0798224"},"vehicle_type_id":"4","last_reported":1729548477,"current_range_meters":38800,"station_id":"ce4bguh2rcd13ifvqcj0","pricing_plan_id":"cebpf4jnsgd1na2vs0mg"},{"bike_id":"7e184b2e-08e7-4880-8aa4-ecda771f4a6c","system_id":"levelo_inurba_marseille","lat":43.290439,"lon":5.399706,"is_reserved":false,"is_disabled":false,"rental_uris":{"android":"levelo://app?vid=7e184b2e-08e7-4880-8aa4-ecda771f4a6c","ios":"levelo://app?vid=7e184b2e-08e7-4880-8aa4-ecda771f4a6c"},"vehicle_type_id":"4","last_reported":1729548477,"current_range_meters":8000,"station_id":"ce4bho12rcd13ifvqh2g","pricing_plan_id":"cebpf4jnsgd1na2vs0mg"},{"bike_id":"e2f32c24-c928-4a8d-b66e-7262f920a2b4","system_id":"levelo_inurba_marseille","lat":43.31535,"lon":5.38038,"is_reserved":false,"is_disabled":false,"rental_uris":{"android":"levelo://app?vid=e2f32c24-c928-4a8d-b66e-7262f920a2b4","ios":"levelo://app?vid=e2f32c24-c928-4a8d-b66e-7262f920a2b4"},"vehicle_type_id":"4","last_reported":1729548477,"current_range_meters":10000,"station_id":"ce4bhsp2rcd13ifvqi50","pricing_plan_id":"cebpf4jnsgd1na2vs0mg"},{"bike_id":"38f6b8b7-d4d9-40d0-8ab3-ab44d2d3a0d6","system_id":"levelo_inurba_marseille","lat":43.27618,"lon":5.36115,"is_reserved":false,"is_disabled":false,"rental_uris":{"android":"levelo://app?vid=38f6b8b7-d4d9-40d0-8ab3-ab44d2d3a0d6","ios":"levelo://app?vid=38f6b8b7-d4d9-40d0-8ab3-ab44d2d3a0d6"},"vehicle_type_id":"4","last_reported":1729548477,"current_range_meters":39200,"station_id":"ce4bgj92rcd13ifvqbe0","pricing_plan_id":"cebpf4jnsgd1na2vs0mg"},{"bike_id":"db5b0a72-8cf6-4c15-92d6-4ef4112bc6b8","system_id":"levelo_inurba_marseille","lat":43.30425,"lon":5.38889,"is_reserved":false,"is_disabled":false,"rental_uris":{"android":"levelo://app?vid=db5b0a72-8cf6-4c15-92d6-4ef4112bc6b8","ios":"levelo://app?vid=db5b0a72-8cf6-4c15-92d6-4ef4112bc6b8"},"vehicle_type_id":"4","last_reported":1729548477,"current_range_meters":36000,"station_id":"ce4bgop2rcd13ifvqc1g","pricing_plan_id":"cebpf4jnsgd1na2vs0mg"},{"bike_id":"eb69d266-7f9f-4bad-bf4b-cb0a701a9511","system_id":"levelo_inurba_marseille","lat":43.27938,"lon":5.4177,"is_reserved":false,"is_disabled":false,"rental_uris":{"android":"levelo://app?vid=eb69d266-7f9f-4bad-bf4b-cb0a701a9511","ios":"levelo://app?vid=eb69d266-7f9f-4bad-bf4b-cb0a701a9511"},"vehicle_type_id":"4","last_reported":1729548477,"current_range_meters":8000,"station_id":"","pricing_plan_id":"cebpf4jnsgd1na2vs0mg"},{"bike_id":"5700ca7b-4b04-4654-9ace-208c9e150bc3","system_id":"levelo_inurba_marseille","lat":43.23966,"lon":5.36622,"is_reserved":false,"is_disabled":false,"rental_uris":{"android":"levelo://app?vid=5700ca7b-4b04-4654-9ace-208c9e150bc3","ios":"levelo://app?vid=5700ca7b-4b04-4654-9ace-208c9e150bc3"},"vehicle_type_id":"4","last_reported":1729548477,"current_range_meters":36800,"station_id":"ce4bhi12rcd13ifvqfp0","pricing_plan_id":"cebpf4jnsgd1na2vs0mg"},{"bike_id":"fb9ec374-addd-4da1-99f8-e58b125957ef","system_id":"levelo_inurba_marseille","lat":43.28702,"lon":5.37403,"is_reserved":false,"is_disabled":false,"rental_uris":{"android":"levelo://app?vid=fb9ec374-addd-4da1-99f8-e58b125957ef","ios":"levelo://app?vid=fb9ec374-addd-4da1-99f8-e58b125957ef"},"vehicle_type_id":"4","last_reported":1729548477,"current_range_meters":16800,"station_id":"ce4bh3p2rcd13ifvqdq0","pricing_plan_id":"cebpf4jnsgd1na2vs0mg"},{"bike_id":"2faa887c-7ca8-4a43-a6fa-4bec532e8b3a","system_id":"levelo_inurba_marseille","lat":43.3059,"lon":5.37174,"is_reserved":false,"is_disabled":false,"rental_uris":{"android":"levelo://app?vid=2faa887c-7ca8-4a43-a6fa-4bec532e8b3a","ios":"levelo://app?vid=2faa887c-7ca8-4a43-a6fa-4bec532e8b3a"},"vehicle_type_id":"4","last_reported":1729548477,"current_range_meters":29600,"station_id":"ce4bgqh2rcd13ifvqc4g","pricing_plan_id":"cebpf4jnsgd1na2vs0mg"},{"bike_id":"6cdd3cb5-ba15-4e85-8896-0ce16f3566f8","system_id":"levelo_inurba_marseille","lat":43.24071,"lon":5.3776,"is_reserved":false,"is_disabled":false,"rental_uris":{"android":"levelo://app?vid=6cdd3cb5-ba15-4e85-8896-0ce16f3566f8","ios":"levelo://app?vid=6cdd3cb5-ba15-4e85-8896-0ce16f3566f8"},"vehicle_type_id":"4","last_reported":1729548477,"current_range_meters":38800,"station_id":"ce4bhnp2rcd13ifvqgvg","pricing_plan_id":"cebpf4jnsgd1na2vs0mg"},{"bike_id":"1c35994b-cece-4553-a8a1-4af08476c849","system_id":"levelo_inurba_marseille","lat":43.32367,"lon":5.38885,"is_reserved":false,"is_disabled":false,"rental_uris":{"android":"levelo://app?vid=1c35994b-cece-4553-a8a1-4af08476c849","ios":"levelo://app?vid=1c35994b-cece-4553-a8a1-4af08476c849"},"vehicle_type_id":"4","last_reported":1729548477,"current_range_meters":37600,"station_id":"ce4bhqp2rcd13ifvqhog","pricing_plan_id":"cebpf4jnsgd1na2vs0mg"},{"bike_id":"35511628-b114-4f76-99b9-e8810ba711ef","system_id":"levelo_inurba_marseille","lat":43.25867,"lon":5.39897,"is_reserved":false,"is_disabled":false,"rental_uris":{"android":"levelo://app?vid=35511628-b114-4f76-99b9-e8810ba711ef","ios":"levelo://app?vid=35511628-b114-4f76-99b9-e8810ba711ef"},"vehicle_type_id":"4","last_reported":1729548477,"current_range_meters":38000,"station_id":"ce4bhl92rcd13ifvqghg","pricing_plan_id":"cebpf4jnsgd1na2vs0mg"},{"bike_id":"d446a555-49be-49be-a11a-13447f0374cb","system_id":"levelo_inurba_marseille","lat":43.24071,"lon":5.37756,"is_reserved":false,"is_disabled":false,"rental_uris":{"android":"levelo://app?vid=d446a555-49be-49be-a11a-13447f0374cb","ios":"levelo://app?vid=d446a555-49be-49be-a11a-13447f0374cb"},"vehicle_type_id":"4","last_reported":1729548477,"current_range_meters":14800,"station_id":"ce4bhnp2rcd13ifvqgvg","pricing_plan_id":"cebpf4jnsgd1na2vs0mg"},{"bike_id":"6627fef9-f35d-409d-8306-0c58199b9ac3","system_id":"levelo_inurba_marseille","lat":43.30802,"lon":5.3815,"is_reserved":false,"is_disabled":false,"rental_uris":{"android":"levelo://app?vid=6627fef9-f35d-409d-8306-0c58199b9ac3","ios":"levelo://app?vid=6627fef9-f35d-409d-8306-0c58199b9ac3"},"vehicle_type_id":"4","last_reported":1729548477,"current_range_meters":38800,"station_id":"ce4bgt12rcd13ifvqce0","pricing_plan_id":"cebpf4jnsgd1na2vs0mg"},{"bike_id":"d8fcc4fa-ed39-4df3-8a67-0231297479c5","system_id":"levelo_inurba_marseille","lat":43.32662,"lon":5.40996,"is_reserved":false,"is_disabled":false,"rental_uris":{"android":"levelo://app?vid=d8fcc4fa-ed39-4df3-8a67-0231297479c5","ios":"levelo://app?vid=d8fcc4fa-ed39-4df3-8a67-0231297479c5"},"vehicle_type_id":"4","last_reported":1729548477,"current_range_meters":8000,"station_id":"ce4bhpp2rcd13ifvqhgg","pricing_plan_id":"cebpf4jnsgd1na2vs0mg"},{"bike_id":"23acbf0b-699f-40d3-a4a6-d8601945efad","system_id":"levelo_inurba_marseille","lat":43.27493,"lon":5.42448,"is_reserved":false,"is_disabled":false,"rental_uris":{"android":"levelo://app?vid=23acbf0b-699f-40d3-a4a6-d8601945efad","ios":"levelo://app?vid=23acbf0b-699f-40d3-a4a6-d8601945efad"},"vehicle_type_id":"4","last_reported":1729548477,"current_range_meters":32800,"station_id":"ce4bhn92rcd13ifvqgrg","pricing_plan_id":"cebpf4jnsgd1na2vs0mg"},{"bike_id":"05d04691-0647-48e4-a798-8b38d7e23e65","system_id":"levelo_inurba_marseille","lat":43.30887,"lon":5.37185,"is_reserved":false,"is_disabled":false,"rental_uris":{"android":"levelo://app?vid=05d04691-0647-48e4-a798-8b38d7e23e65","ios":"levelo://app?vid=05d04691-0647-48e4-a798-8b38d7e23e65"},"vehicle_type_id":"4","last_reported":1729548477,"current_range_meters":25200,"station_id":"ce4bguh2rcd13ifvqckg","pricing_plan_id":"cebpf4jnsgd1na2vs0mg"},{"bike_id":"3c625c3c-f5b8-41f4-862b-5684f36bb129","system_id":"levelo_inurba_marseille","lat":43.31051,"lon":5.38352,"is_reserved":false,"is_disabled":false,"rental_uris":{"android":"levelo://app?vid=3c625c3c-f5b8-41f4-862b-5684f36bb129","ios":"levelo://app?vid=3c625c3c-f5b8-41f4-862b-5684f36bb129"},"vehicle_type_id":"4","last_reported":1729548477,"current_range_meters":4800,"station_id":"ce4bgv92rcd13ifvqcr0","pricing_plan_id":"cebpf4jnsgd1na2vs0mg"},{"bike_id":"cba2af9b-3719-4b16-aa61-d05fec60a0ee","system_id":"levelo_inurba_marseille","lat":43.31716,"lon":5.43709,"is_reserved":false,"is_disabled":false,"rental_uris":{"android":"levelo://app?vid=cba2af9b-3719-4b16-aa61-d05fec60a0ee","ios":"levelo://app?vid=cba2af9b-3719-4b16-aa61-d05fec60a0ee"},"vehicle_type_id":"4","last_reported":1729548477,"current_range_meters":38800,"station_id":"ce4bhp92rcd13ifvqhcg","pricing_plan_id":"cebpf4jnsgd1na2vs0mg"},{"bike_id":"bb62c3cc-aaba-4c68-b064-edcd39a492d0","system_id":"levelo_inurba_marseille","lat":43.30207,"lon":5.39477,"is_reserved":false,"is_disabled":false,"rental_uris":{"android":"levelo://app?vid=bb62c3cc-aaba-4c68-b064-edcd39a492d0","ios":"levelo://app?vid=bb62c3cc-aaba-4c68-b064-edcd39a492d0"},"vehicle_type_id":"4","last_reported":1729548477,"current_range_meters":28000,"station_id":"ce4bh0p2rcd13ifvqd70","pricing_plan_id":"cebpf4jnsgd1na2vs0mg"},{"bike_id":"33f5ce76-edcc-4536-a5b7-ae1831a97608","system_id":"levelo_inurba_marseille","lat":43.30915,"lon":5.3685,"is_reserved":false,"is_disabled":false,"rental_uris":{"android":"levelo://app?vid=33f5ce76-edcc-4536-a5b7-ae1831a97608","ios":"levelo://app?vid=33f5ce76-edcc-4536-a5b7-ae1831a97608"},"vehicle_type_id":"4","last_reported":1729548477,"current_range_meters":32800,"station_id":"ce4bgn92rcd13ifvqbvg","pricing_plan_id":"cebpf4jnsgd1na2vs0mg"},{"bike_id":"abe658d4-12a8-41db-b6b3-738fdbd608a2","system_id":"levelo_inurba_marseille","lat":43.23196,"lon":5.35553,"is_reserved":false,"is_disabled":false,"rental_uris":{"android":"levelo://app?vid=abe658d4-12a8-41db-b6b3-738fdbd608a2","ios":"levelo://app?vid=abe658d4-12a8-41db-b6b3-738fdbd608a2"},"vehicle_type_id":"4","last_reported":1729548477,"current_range_meters":36400,"station_id":"ce4bhu92rcd13ifvqi70","pricing_plan_id":"cebpf4jnsgd1na2vs0mg"},{"bike_id":"fcde1605-ea98-4318-b804-12d50326119e","system_id":"levelo_inurba_marseille","lat":43.25119,"lon":5.40316,"is_reserved":false,"is_disabled":false,"rental_uris":{"android":"levelo://app?vid=fcde1605-ea98-4318-b804-12d50326119e","ios":"levelo://app?vid=fcde1605-ea98-4318-b804-12d50326119e"},"vehicle_type_id":"4","last_reported":1729548477,"current_range_meters":10000,"station_id":"ce4bhlh2rcd13ifvqgig","pricing_plan_id":"cebpf4jnsgd1na2vs0mg"},{"bike_id":"3b630c6a-d3bf-421d-972b-b05b3066b347","system_id":"levelo_inurba_marseille","lat":43.29521,"lon":5.39399,"is_reserved":false,"is_disabled":false,"rental_uris":{"android":"levelo://app?vid=3b630c6a-d3bf-421d-972b-b05b3066b347","ios":"levelo://app?vid=3b630c6a-d3bf-421d-972b-b05b3066b347"},"vehicle_type_id":"4","last_reported":1729548477,"current_range_meters":38400,"station_id":"ce4bh292rcd13ifvqdf0","pricing_plan_id":"cebpf4jnsgd1na2vs0mg"},{"bike_id":"8f033525-bc8f-42c4-9121-468701b80638","system_id":"levelo_inurba_marseille","lat":43.25001,"lon":5.38911,"is_reserved":false,"is_disabled":false,"rental_uris":{"android":"levelo://app?vid=8f033525-bc8f-42c4-9121-468701b80638","ios":"levelo://app?vid=8f033525-bc8f-42c4-9121-468701b80638"},"vehicle_type_id":"4","last_reported":1729548477,"current_range_meters":38800,"station_id":"ce4bhgp2rcd13ifvqfd0","pricing_plan_id":"cebpf4jnsgd1na2vs0mg"},{"bike_id":"27436add-a26d-44df-8506-9f86a55efe32","system_id":"levelo_inurba_marseille","lat":43.31373,"lon":5.38498,"is_reserved":false,"is_disabled":false,"rental_uris":{"android":"levelo://app?vid=27436add-a26d-44df-8506-9f86a55efe32","ios":"levelo://app?vid=27436add-a26d-44df-8506-9f86a55efe32"},"vehicle_type_id":"4","last_reported":1729548477,"current_range_meters":16000,"station_id":"ce4bgt92rcd13ifvqcf0","pricing_plan_id":"cebpf4jnsgd1na2vs0mg"},{"bike_id":"476c1381-131f-4fad-85c7-425454dd3a44","system_id":"levelo_inurba_marseille","lat":43.28724,"lon":5.36087,"is_reserved":false,"is_disabled":false,"rental_uris":{"android":"levelo://app?vid=476c1381-131f-4fad-85c7-425454dd3a44","ios":"levelo://app?vid=476c1381-131f-4fad-85c7-425454dd3a44"},"vehicle_type_id":"4","last_reported":1729548477,"current_range_meters":38000,"station_id":"cki0cbj6b192h4jlfktg","pricing_plan_id":"cebpf4jnsgd1na2vs0mg"},{"bike_id":"1ec16de5-9ac0-497e-b627-148b746fa226","system_id":"levelo_inurba_marseille","lat":43.284553,"lon":5.35889,"is_reserved":false,"is_disabled":false,"rental_uris":{"android":"levelo://app?vid=1ec16de5-9ac0-497e-b627-148b746fa226","ios":"levelo://app?vid=1ec16de5-9ac0-497e-b627-148b746fa226"},"vehicle_type_id":"4","last_reported":1729548477,"current_range_meters":30800,"station_id":"ce4bhah2rcd13ifvqei0","pricing_plan_id":"cebpf4jnsgd1na2vs0mg"},{"bike_id":"f8d4fc2f-6c65-4577-a483-2bded2a41922","system_id":"levelo_inurba_marseille","lat":43.30588,"lon":5.39358,"is_reserved":false,"is_disabled":false,"rental_uris":{"android":"levelo://app?vid=f8d4fc2f-6c65-4577-a483-2bded2a41922","ios":"levelo://app?vid=f8d4fc2f-6c65-4577-a483-2bded2a41922"},"vehicle_type_id":"4","last_reported":1729548477,"current_range_meters":38800,"station_id":"ce4bh0p2rcd13ifvqd80","pricing_plan_id":"cebpf4jnsgd1na2vs0mg"},{"bike_id":"df337685-200e-4a22-ac70-2646049881ab","system_id":"levelo_inurba_marseille","lat":43.30245,"lon":5.40045,"is_reserved":false,"is_disabled":false,"rental_uris":{"android":"levelo://app?vid=df337685-200e-4a22-ac70-2646049881ab","ios":"levelo://app?vid=df337685-200e-4a22-ac70-2646049881ab"},"vehicle_type_id":"4","last_reported":1729548477,"current_range_meters":12000,"station_id":"ce4bgvh2rcd13ifvqcs0","pricing_plan_id":"cebpf4jnsgd1na2vs0mg"},{"bike_id":"26abddab-6ce0-4c2b-9407-fece3df4d688","system_id":"levelo_inurba_marseille","lat":43.30096,"lon":5.39073,"is_reserved":false,"is_disabled":false,"rental_uris":{"android":"levelo://app?vid=26abddab-6ce0-4c2b-9407-fece3df4d688","ios":"levelo://app?vid=26abddab-6ce0-4c2b-9407-fece3df4d688"},"vehicle_type_id":"4","last_reported":1729548477,"current_range_meters":38000,"station_id":"ce4bh192rcd13ifvqdb0","pricing_plan_id":"cebpf4jnsgd1na2vs0mg"},{"bike_id":"eb1876ca-7642-42cd-8f77-c908715ba9bb","system_id":"levelo_inurba_marseille","lat":43.26785,"lon":5.39432,"is_reserved":false,"is_disabled":false,"rental_uris":{"android":"levelo://app?vid=eb1876ca-7642-42cd-8f77-c908715ba9bb","ios":"levelo://app?vid=eb1876ca-7642-42cd-8f77-c908715ba9bb"},"vehicle_type_id":"4","last_reported":1729548477,"current_range_meters":38800,"station_id":"ce4bhh12rcd13ifvqfg0","pricing_plan_id":"cebpf4jnsgd1na2vs0mg"},{"bike_id":"825120c1-0038-4916-b709-08b76beaded5","system_id":"levelo_inurba_marseille","lat":43.31327,"lon":5.39693,"is_reserved":false,"is_disabled":false,"rental_uris":{"android":"levelo://app?vid=825120c1-0038-4916-b709-08b76beaded5","ios":"levelo://app?vid=825120c1-0038-4916-b709-08b76beaded5"},"vehicle_type_id":"4","last_reported":1729548477,"current_range_meters":10000,"station_id":"ce4bgvp2rcd13ifvqcu0","pricing_plan_id":"cebpf4jnsgd1na2vs0mg"},{"bike_id":"82d40727-e8cf-49a5-a806-ce3d3530d32c","system_id":"levelo_inurba_marseille","lat":43.27812,"lon":5.40711,"is_reserved":false,"is_disabled":false,"rental_uris":{"android":"levelo://app?vid=82d40727-e8cf-49a5-a806-ce3d3530d32c","ios":"levelo://app?vid=82d40727-e8cf-49a5-a806-ce3d3530d32c"},"vehicle_type_id":"4","last_reported":1729548477,"current_range_meters":30800,"station_id":"ce4bhnh2rcd13ifvqgtg","pricing_plan_id":"cebpf4jnsgd1na2vs0mg"},{"bike_id":"0d9fea0d-5188-4ebc-a956-c466b2766e8c","system_id":"levelo_inurba_marseille","lat":43.27491,"lon":5.42457,"is_reserved":false,"is_disabled":false,"rental_uris":{"android":"levelo://app?vid=0d9fea0d-5188-4ebc-a956-c466b2766e8c","ios":"levelo://app?vid=0d9fea0d-5188-4ebc-a956-c466b2766e8c"},"vehicle_type_id":"4","last_reported":1729548477,"current_range_meters":4800,"station_id":"ce4bhn92rcd13ifvqgrg","pricing_plan_id":"cebpf4jnsgd1na2vs0mg"},{"bike_id":"3c2e9290-6792-4e2d-b00d-712b965be0bd","system_id":"levelo_inurba_marseille","lat":43.26423,"lon":5.38673,"is_reserved":false,"is_disabled":false,"rental_uris":{"android":"levelo://app?vid=3c2e9290-6792-4e2d-b00d-712b965be0bd","ios":"levelo://app?vid=3c2e9290-6792-4e2d-b00d-712b965be0bd"},"vehicle_type_id":"4","last_reported":1729548477,"current_range_meters":10800,"station_id":"","pricing_plan_id":"cebpf4jnsgd1na2vs0mg"},{"bike_id":"69fe908e-69d8-4490-bac8-5621bc5a71f9","system_id":"levelo_inurba_marseille","lat":43.29569,"lon":5.39974,"is_reserved":false,"is_disabled":false,"rental_uris":{"android":"levelo://app?vid=69fe908e-69d8-4490-bac8-5621bc5a71f9","ios":"levelo://app?vid=69fe908e-69d8-4490-bac8-5621bc5a71f9"},"vehicle_type_id":"4","last_reported":1729548477,"current_range_meters":38000,"station_id":"ce4bh312rcd13ifvqdj0","pricing_plan_id":"cebpf4jnsgd1na2vs0mg"},{"bike_id":"b8eb8c89-8773-4616-9dde-180f90e97972","system_id":"levelo_inurba_marseille","lat":43.30936,"lon":5.40145,"is_reserved":false,"is_disabled":false,"rental_uris":{"android":"levelo://app?vid=b8eb8c89-8773-4616-9dde-180f90e97972","ios":"levelo://app?vid=b8eb8c89-8773-4616-9dde-180f90e97972"},"vehicle_type_id":"4","last_reported":1729548477,"current_range_meters":28800,"station_id":"ce4bgvp2rcd13ifvqct0","pricing_plan_id":"cebpf4jnsgd1na2vs0mg"},{"bike_id":"19f09505-edb6-4621-8403-625ad0d0348b","system_id":"levelo_inurba_marseille","lat":43.30807,"lon":5.381496,"is_reserved":false,"is_disabled":false,"rental_uris":{"android":"levelo://app?vid=19f09505-edb6-4621-8403-625ad0d0348b","ios":"levelo://app?vid=19f09505-edb6-4621-8403-625ad0d0348b"},"vehicle_type_id":"4","last_reported":1729548477,"current_range_meters":36800,"station_id":"ce4bh0p2rcd13ifvqd80","pricing_plan_id":"cebpf4jnsgd1na2vs0mg"},{"bike_id":"566ef3cd-3e87-4087-a6aa-32a145c590e2","system_id":"levelo_inurba_marseille","lat":43.25576,"lon":5.38235,"is_reserved":false,"is_disabled":false,"rental_uris":{"android":"levelo://app?vid=566ef3cd-3e87-4087-a6aa-32a145c590e2","ios":"levelo://app?vid=566ef3cd-3e87-4087-a6aa-32a145c590e2"},"vehicle_type_id":"4","last_reported":1729548477,"current_range_meters":16400,"station_id":"ce4bhih2rcd13ifvqfs0","pricing_plan_id":"cebpf4jnsgd1na2vs0mg"},{"bike_id":"e73397ec-41ef-401f-966f-7b0b12ace5aa","system_id":"levelo_inurba_marseille","lat":43.23195,"lon":5.35554,"is_reserved":false,"is_disabled":false,"rental_uris":{"android":"levelo://app?vid=e73397ec-41ef-401f-966f-7b0b12ace5aa","ios":"levelo://app?vid=e73397ec-41ef-401f-966f-7b0b12ace5aa"},"vehicle_type_id":"4","last_reported":1729548477,"current_range_meters":16400,"station_id":"ce4bhu92rcd13ifvqi70","pricing_plan_id":"cebpf4jnsgd1na2vs0mg"},{"bike_id":"8d716763-2d1c-4074-b18b-e7392f675dd8","system_id":"levelo_inurba_marseille","lat":43.2784,"lon":5.39218,"is_reserved":false,"is_disabled":false,"rental_uris":{"android":"levelo://app?vid=8d716763-2d1c-4074-b18b-e7392f675dd8","ios":"levelo://app?vid=8d716763-2d1c-4074-b18b-e7392f675dd8"},"vehicle_type_id":"4","last_reported":1729548477,"current_range_meters":26800,"station_id":"ce4bhjp2rcd13ifvqga0","pricing_plan_id":"cebpf4jnsgd1na2vs0mg"},{"bike_id":"d587daae-0a71-435c-957b-ace6ff74f13a","system_id":"levelo_inurba_marseille","lat":43.23956,"lon":5.36637,"is_reserved":false,"is_disabled":false,"rental_uris":{"android":"levelo://app?vid=d587daae-0a71-435c-957b-ace6ff74f13a","ios":"levelo://app?vid=d587daae-0a71-435c-957b-ace6ff74f13a"},"vehicle_type_id":"4","last_reported":1729548477,"current_range_meters":13600,"station_id":"ce4bhi12rcd13ifvqfp0","pricing_plan_id":"cebpf4jnsgd1na2vs0mg"},{"bike_id":"99b5b67c-698a-45ec-924d-4b9367bbacbe","system_id":"levelo_inurba_marseille","lat":43.314924,"lon":5.373126,"is_reserved":false,"is_disabled":false,"rental_uris":{"android":"levelo://app?vid=99b5b67c-698a-45ec-924d-4b9367bbacbe","ios":"levelo://app?vid=99b5b67c-698a-45ec-924d-4b9367bbacbe"},"vehicle_type_id":"4","last_reported":1729548477,"current_range_meters":38800,"station_id":"ce4bgt12rcd13ifvqcd0","pricing_plan_id":"cebpf4jnsgd1na2vs0mg"},{"bike_id":"2e834380-0591-4a5f-a7c6-ec896c58b9ae","system_id":"levelo_inurba_marseille","lat":43.31548,"lon":5.40378,"is_reserved":false,"is_disabled":false,"rental_uris":{"android":"levelo://app?vid=2e834380-0591-4a5f-a7c6-ec896c58b9ae","ios":"levelo://app?vid=2e834380-0591-4a5f-a7c6-ec896c58b9ae"},"vehicle_type_id":"4","last_reported":1729548477,"current_range_meters":29600,"station_id":"","pricing_plan_id":"cebpf4jnsgd1na2vs0mg"},{"bike_id":"1de6f499-362a-4868-9e5a-121748c811c4","system_id":"levelo_inurba_marseille","lat":43.28332,"lon":5.39259,"is_reserved":false,"is_disabled":false,"rental_uris":{"android":"levelo://app?vid=1de6f499-362a-4868-9e5a-121748c811c4","ios":"levelo://app?vid=1de6f499-362a-4868-9e5a-121748c811c4"},"vehicle_type_id":"4","last_reported":1729548477,"current_range_meters":18800,"station_id":"ce4bhoh2rcd13ifvqh5g","pricing_plan_id":"cebpf4jnsgd1na2vs0mg"},{"bike_id":"4db5f57a-1837-492d-ba97-4e606b1a8f25","system_id":"levelo_inurba_marseille","lat":43.24175,"lon":5.39726,"is_reserved":false,"is_disabled":false,"rental_uris":{"android":"levelo://app?vid=4db5f57a-1837-492d-ba97-4e606b1a8f25","ios":"levelo://app?vid=4db5f57a-1837-492d-ba97-4e606b1a8f25"},"vehicle_type_id":"4","last_reported":1729548477,"current_range_meters":38800,"station_id":"ce4bhn12rcd13ifvqgpg","pricing_plan_id":"cebpf4jnsgd1na2vs0mg"},{"bike_id":"6500c164-02c8-4d61-bd40-ecb76f51559e","system_id":"levelo_inurba_marseille","lat":43.31326,"lon":5.39695,"is_reserved":false,"is_disabled":false,"rental_uris":{"android":"levelo://app?vid=6500c164-02c8-4d61-bd40-ecb76f51559e","ios":"levelo://app?vid=6500c164-02c8-4d61-bd40-ecb76f51559e"},"vehicle_type_id":"4","last_reported":1729548477,"current_range_meters":30000,"station_id":"ce4bgvp2rcd13ifvqcu0","pricing_plan_id":"cebpf4jnsgd1na2vs0mg"},{"bike_id":"18b07491-8d70-49a1-b638-3a7f3b346828","system_id":"levelo_inurba_marseille","lat":43.286926,"lon":5.399853,"is_reserved":false,"is_disabled":false,"rental_uris":{"android":"levelo://app?vid=18b07491-8d70-49a1-b638-3a7f3b346828","ios":"levelo://app?vid=18b07491-8d70-49a1-b638-3a7f3b346828"},"vehicle_type_id":"4","last_reported":1729548477,"current_range_meters":36000,"station_id":"ce4bho92rcd13ifvqh3g","pricing_plan_id":"cebpf4jnsgd1na2vs0mg"},{"bike_id":"0542018d-404c-4931-92ac-7d497686214b","system_id":"levelo_inurba_marseille","lat":43.29555,"lon":5.42282,"is_reserved":false,"is_disabled":false,"rental_uris":{"android":"levelo://app?vid=0542018d-404c-4931-92ac-7d497686214b","ios":"levelo://app?vid=0542018d-404c-4931-92ac-7d497686214b"},"vehicle_type_id":"4","last_reported":1729548477,"current_range_meters":30400,"station_id":"ce4bhph2rcd13ifvqhdg","pricing_plan_id":"cebpf4jnsgd1na2vs0mg"},{"bike_id":"e52750e4-9b75-4558-a18a-4114efb768e1","system_id":"levelo_inurba_marseille","lat":43.29014,"lon":5.39973,"is_reserved":false,"is_disabled":false,"rental_uris":{"android":"levelo://app?vid=e52750e4-9b75-4558-a18a-4114efb768e1","ios":"levelo://app?vid=e52750e4-9b75-4558-a18a-4114efb768e1"},"vehicle_type_id":"4","last_reported":1729548477,"current_range_meters":31200,"station_id":"ce4bh392rcd13ifvqdm0","pricing_plan_id":"cebpf4jnsgd1na2vs0mg"},{"bike_id":"bc1c4b65-b2ef-458a-9377-0e29b328aa0e","system_id":"levelo_inurba_marseille","lat":43.30357,"lon":5.4188,"is_reserved":false,"is_disabled":false,"rental_uris":{"android":"levelo://app?vid=bc1c4b65-b2ef-458a-9377-0e29b328aa0e","ios":"levelo://app?vid=bc1c4b65-b2ef-458a-9377-0e29b328aa0e"},"vehicle_type_id":"4","last_reported":1729548477,"current_range_meters":39200,"station_id":"ce4bhop2rcd13ifvqh7g","pricing_plan_id":"cebpf4jnsgd1na2vs0mg"},{"bike_id":"1274df42-e8e4-4c8f-ac40-52c0b75d6854","system_id":"levelo_inurba_marseille","lat":43.297089,"lon":5.368268,"is_reserved":false,"is_disabled":false,"rental_uris":{"android":"levelo://app?vid=1274df42-e8e4-4c8f-ac40-52c0b75d6854","ios":"levelo://app?vid=1274df42-e8e4-4c8f-ac40-52c0b75d6854"},"vehicle_type_id":"4","last_reported":1729548477,"current_range_meters":4800,"station_id":"","pricing_plan_id":"cebpf4jnsgd1na2vs0mg"},{"bike_id":"fe2a8dea-e15c-4b37-acda-a8e3b708d9cf","system_id":"levelo_inurba_marseille","lat":43.28663,"lon":5.36354,"is_reserved":false,"is_disabled":false,"rental_uris":{"android":"levelo://app?vid=fe2a8dea-e15c-4b37-acda-a8e3b708d9cf","ios":"levelo://app?vid=fe2a8dea-e15c-4b37-acda-a8e3b708d9cf"},"vehicle_type_id":"4","last_reported":1729548477,"current_range_meters":27600,"station_id":"ce4bhah2rcd13ifvqej0","pricing_plan_id":"cebpf4jnsgd1na2vs0mg"},{"bike_id":"cca31693-1eff-4bbb-b7be-63e458a94e24","system_id":"levelo_inurba_marseille","lat":43.28937,"lon":5.36637,"is_reserved":false,"is_disabled":false,"rental_uris":{"android":"levelo://app?vid=cca31693-1eff-4bbb-b7be-63e458a94e24","ios":"levelo://app?vid=cca31693-1eff-4bbb-b7be-63e458a94e24"},"vehicle_type_id":"4","last_reported":1729548477,"current_range_meters":13600,"station_id":"ce4bhap2rcd13ifvqek0","pricing_plan_id":"cebpf4jnsgd1na2vs0mg"},{"bike_id":"39ee9764-c305-469f-9d9c-27c097ea855c","system_id":"levelo_inurba_marseille","lat":43.2397,"lon":5.36627,"is_reserved":false,"is_disabled":false,"rental_uris":{"android":"levelo://app?vid=39ee9764-c305-469f-9d9c-27c097ea855c","ios":"levelo://app?vid=39ee9764-c305-469f-9d9c-27c097ea855c"},"vehicle_type_id":"4","last_reported":1729548477,"current_range_meters":34800,"station_id":"ce4bhi12rcd13ifvqfp0","pricing_plan_id":"cebpf4jnsgd1na2vs0mg"},{"bike_id":"ab864a78-2d0f-46e8-9a54-d21bc9f9bc95","system_id":"levelo_inurba_marseille","lat":43.29515,"lon":5.39397,"is_reserved":false,"is_disabled":false,"rental_uris":{"android":"levelo://app?vid=ab864a78-2d0f-46e8-9a54-d21bc9f9bc95","ios":"levelo://app?vid=ab864a78-2d0f-46e8-9a54-d21bc9f9bc95"},"vehicle_type_id":"4","last_reported":1729548477,"current_range_meters":19200,"station_id":"ce4bh292rcd13ifvqdf0","pricing_plan_id":"cebpf4jnsgd1na2vs0mg"},{"bike_id":"804fb848-57f6-4944-985c-c6acefd10248","system_id":"levelo_inurba_marseille","lat":43.28153,"lon":5.4265,"is_reserved":false,"is_disabled":false,"rental_uris":{"android":"levelo://app?vid=804fb848-57f6-4944-985c-c6acefd10248","ios":"levelo://app?vid=804fb848-57f6-4944-985c-c6acefd10248"},"vehicle_type_id":"4","last_reported":1729548477,"current_range_meters":14400,"station_id":"ce4bhnh2rcd13ifvqgug","pricing_plan_id":"cebpf4jnsgd1na2vs0mg"},{"bike_id":"aeca248f-ee97-4c43-9a77-12fec853d98a","system_id":"levelo_inurba_marseille","lat":43.32659,"lon":5.40989,"is_reserved":false,"is_disabled":false,"rental_uris":{"android":"levelo://app?vid=aeca248f-ee97-4c43-9a77-12fec853d98a","ios":"levelo://app?vid=aeca248f-ee97-4c43-9a77-12fec853d98a"},"vehicle_type_id":"4","last_reported":1729548477,"current_range_meters":11200,"station_id":"ce4bhpp2rcd13ifvqhgg","pricing_plan_id":"cebpf4jnsgd1na2vs0mg"},{"bike_id":"2aad55b5-7653-4273-9c29-0610bfcff7a9","system_id":"levelo_inurba_marseille","lat":43.25105,"lon":5.40327,"is_reserved":false,"is_disabled":false,"rental_uris":{"android":"levelo://app?vid=2aad55b5-7653-4273-9c29-0610bfcff7a9","ios":"levelo://app?vid=2aad55b5-7653-4273-9c29-0610bfcff7a9"},"vehicle_type_id":"4","last_reported":1729548477,"current_range_meters":38800,"station_id":"ce4bhlh2rcd13ifvqgig","pricing_plan_id":"cebpf4jnsgd1na2vs0mg"},{"bike_id":"cb1f5b68-1056-4fae-b9dc-c0f0c6b03ec1","system_id":"levelo_inurba_marseille","lat":43.24543,"lon":5.39532,"is_reserved":false,"is_disabled":false,"rental_uris":{"android":"levelo://app?vid=cb1f5b68-1056-4fae-b9dc-c0f0c6b03ec1","ios":"levelo://app?vid=cb1f5b68-1056-4fae-b9dc-c0f0c6b03ec1"},"vehicle_type_id":"4","last_reported":1729548477,"current_range_meters":33200,"station_id":"ce4bhlp2rcd13ifvqgjg","pricing_plan_id":"cebpf4jnsgd1na2vs0mg"},{"bike_id":"9eb1a5f7-26a2-4236-9784-8acf029dcd3d","system_id":"levelo_inurba_marseille","lat":43.28109,"lon":5.37835,"is_reserved":false,"is_disabled":false,"rental_uris":{"android":"levelo://app?vid=9eb1a5f7-26a2-4236-9784-8acf029dcd3d","ios":"levelo://app?vid=9eb1a5f7-26a2-4236-9784-8acf029dcd3d"},"vehicle_type_id":"4","last_reported":1729548477,"current_range_meters":27600,"station_id":"ce4bha12rcd13ifvqee0","pricing_plan_id":"cebpf4jnsgd1na2vs0mg"},{"bike_id":"d67659aa-1879-49ff-9e21-343007f69c6c","system_id":"levelo_inurba_marseille","lat":43.30805,"lon":5.43524,"is_reserved":false,"is_disabled":false,"rental_uris":{"android":"levelo://app?vid=d67659aa-1879-49ff-9e21-343007f69c6c","ios":"levelo://app?vid=d67659aa-1879-49ff-9e21-343007f69c6c"},"vehicle_type_id":"4","last_reported":1729548477,"current_range_meters":34800,"station_id":"ce4bhph2rcd13ifvqheg","pricing_plan_id":"cebpf4jnsgd1na2vs0mg"},{"bike_id":"22f0e9f1-4795-468e-91c9-9da47019dc8a","system_id":"levelo_inurba_marseille","lat":43.25083,"lon":5.39515,"is_reserved":false,"is_disabled":false,"rental_uris":{"android":"levelo://app?vid=22f0e9f1-4795-468e-91c9-9da47019dc8a","ios":"levelo://app?vid=22f0e9f1-4795-468e-91c9-9da47019dc8a"},"vehicle_type_id":"4","last_reported":1729548477,"current_range_meters":37600,"station_id":"ce4bhm12rcd13ifvqgkg","pricing_plan_id":"cebpf4jnsgd1na2vs0mg"},{"bike_id":"e2c5814d-bdd9-47c0-945a-dcffac6db9a4","system_id":"levelo_inurba_marseille","lat":43.24079,"lon":5.37756,"is_reserved":false,"is_disabled":false,"rental_uris":{"android":"levelo://app?vid=e2c5814d-bdd9-47c0-945a-dcffac6db9a4","ios":"levelo://app?vid=e2c5814d-bdd9-47c0-945a-dcffac6db9a4"},"vehicle_type_id":"4","last_reported":1729548477,"current_range_meters":27600,"station_id":"ce4bhnp2rcd13ifvqgvg","pricing_plan_id":"cebpf4jnsgd1na2vs0mg"},{"bike_id":"98845b12-b85b-4bbe-a43b-3cb58ee72a8f","system_id":"levelo_inurba_marseille","lat":43.27066,"lon":5.40258,"is_reserved":false,"is_disabled":false,"rental_uris":{"android":"levelo://app?vid=98845b12-b85b-4bbe-a43b-3cb58ee72a8f","ios":"levelo://app?vid=98845b12-b85b-4bbe-a43b-3cb58ee72a8f"},"vehicle_type_id":"4","last_reported":1729548477,"current_range_meters":22000,"station_id":"ce4bhk92rcd13ifvqgc0","pricing_plan_id":"cebpf4jnsgd1na2vs0mg"},{"bike_id":"3f93d603-921b-4a4e-befa-30d9d8a80713","system_id":"levelo_inurba_marseille","lat":43.31075,"lon":5.38349,"is_reserved":false,"is_disabled":false,"rental_uris":{"android":"levelo://app?vid=3f93d603-921b-4a4e-befa-30d9d8a80713","ios":"levelo://app?vid=3f93d603-921b-4a4e-befa-30d9d8a80713"},"vehicle_type_id":"4","last_reported":1729548477,"current_range_meters":37600,"station_id":"ce4bgv92rcd13ifvqcr0","pricing_plan_id":"cebpf4jnsgd1na2vs0mg"},{"bike_id":"3edcc9de-82f8-488a-80ec-7f7f41bf5d14","system_id":"levelo_inurba_marseille","lat":43.32332,"lon":5.40617,"is_reserved":false,"is_disabled":false,"rental_uris":{"android":"levelo://app?vid=3edcc9de-82f8-488a-80ec-7f7f41bf5d14","ios":"levelo://app?vid=3edcc9de-82f8-488a-80ec-7f7f41bf5d14"},"vehicle_type_id":"4","last_reported":1729548477,"current_range_meters":8000,"station_id":"ce4bhq92rcd13ifvqhjg","pricing_plan_id":"cebpf4jnsgd1na2vs0mg"},{"bike_id":"a78a05f6-e187-4669-80d1-9675fd22ff5c","system_id":"levelo_inurba_marseille","lat":43.31364,"lon":5.38507,"is_reserved":false,"is_disabled":false,"rental_uris":{"android":"levelo://app?vid=a78a05f6-e187-4669-80d1-9675fd22ff5c","ios":"levelo://app?vid=a78a05f6-e187-4669-80d1-9675fd22ff5c"},"vehicle_type_id":"4","last_reported":1729548477,"current_range_meters":38800,"station_id":"ce4bgt92rcd13ifvqcf0","pricing_plan_id":"cebpf4jnsgd1na2vs0mg"},{"bike_id":"7bc8993f-b69f-4b96-8190-8b6682b7d70f","system_id":"levelo_inurba_marseille","lat":43.33723,"lon":5.39179,"is_reserved":false,"is_disabled":false,"rental_uris":{"android":"levelo://app?vid=7bc8993f-b69f-4b96-8190-8b6682b7d70f","ios":"levelo://app?vid=7bc8993f-b69f-4b96-8190-8b6682b7d70f"},"vehicle_type_id":"4","last_reported":1729548477,"current_range_meters":25600,"station_id":"ce4bhr92rcd13ifvqhsg","pricing_plan_id":"cebpf4jnsgd1na2vs0mg"},{"bike_id":"864575c1-85b8-4008-92ba-391073d4ed51","system_id":"levelo_inurba_marseille","lat":43.23196,"lon":5.35549,"is_reserved":false,"is_disabled":false,"rental_uris":{"android":"levelo://app?vid=864575c1-85b8-4008-92ba-391073d4ed51","ios":"levelo://app?vid=864575c1-85b8-4008-92ba-391073d4ed51"},"vehicle_type_id":"4","last_reported":1729548477,"current_range_meters":27600,"station_id":"ce4bhu92rcd13ifvqi70","pricing_plan_id":"cebpf4jnsgd1na2vs0mg"},{"bike_id":"d40ab38b-8a2e-45f5-a093-38c43495c185","system_id":"levelo_inurba_marseille","lat":43.265,"lon":5.3954,"is_reserved":false,"is_disabled":false,"rental_uris":{"android":"levelo://app?vid=d40ab38b-8a2e-45f5-a093-38c43495c185","ios":"levelo://app?vid=d40ab38b-8a2e-45f5-a093-38c43495c185"},"vehicle_type_id":"4","last_reported":1729548477,"current_range_meters":38800,"station_id":"ce4bhi12rcd13ifvqfq0","pricing_plan_id":"cebpf4jnsgd1na2vs0mg"},{"bike_id":"7b0fd21e-069c-4369-8603-9aba1f31fcdc","system_id":"levelo_inurba_marseille","lat":43.27211,"lon":5.3919,"is_reserved":false,"is_disabled":false,"rental_uris":{"android":"levelo://app?vid=7b0fd21e-069c-4369-8603-9aba1f31fcdc","ios":"levelo://app?vid=7b0fd21e-069c-4369-8603-9aba1f31fcdc"},"vehicle_type_id":"4","last_reported":1729548477,"current_range_meters":28400,"station_id":"ce4bhhp2rcd13ifvqfm0","pricing_plan_id":"cebpf4jnsgd1na2vs0mg"},{"bike_id":"0728974d-1ad5-4181-91f2-6035aab7157d","system_id":"levelo_inurba_marseille","lat":43.2319,"lon":5.35547,"is_reserved":false,"is_disabled":false,"rental_uris":{"android":"levelo://app?vid=0728974d-1ad5-4181-91f2-6035aab7157d","ios":"levelo://app?vid=0728974d-1ad5-4181-91f2-6035aab7157d"},"vehicle_type_id":"4","last_reported":1729548477,"current_range_meters":38800,"station_id":"ce4bhu92rcd13ifvqi70","pricing_plan_id":"cebpf4jnsgd1na2vs0mg"},{"bike_id":"40789e63-bb12-414a-9e11-b14620ea6085","system_id":"levelo_inurba_marseille","lat":43.31715,"lon":5.37759,"is_reserved":false,"is_disabled":false,"rental_uris":{"android":"levelo://app?vid=40789e63-bb12-414a-9e11-b14620ea6085","ios":"levelo://app?vid=40789e63-bb12-414a-9e11-b14620ea6085"},"vehicle_type_id":"4","last_reported":1729548477,"current_range_meters":17600,"station_id":"ce4bgth2rcd13ifvqch0","pricing_plan_id":"cebpf4jnsgd1na2vs0mg"},{"bike_id":"2c2f3718-7209-4389-9d1d-d985a7daaef2","system_id":"levelo_inurba_marseille","lat":43.31676,"lon":5.37517,"is_reserved":false,"is_disabled":false,"rental_uris":{"android":"levelo://app?vid=2c2f3718-7209-4389-9d1d-d985a7daaef2","ios":"levelo://app?vid=2c2f3718-7209-4389-9d1d-d985a7daaef2"},"vehicle_type_id":"4","last_reported":1729548477,"current_range_meters":12800,"station_id":"","pricing_plan_id":"cebpf4jnsgd1na2vs0mg"},{"bike_id":"52d745c9-427b-4fcd-827c-6a4e25626b52","system_id":"levelo_inurba_marseille","lat":43.31359,"lon":5.38491,"is_reserved":false,"is_disabled":false,"rental_uris":{"android":"levelo://app?vid=52d745c9-427b-4fcd-827c-6a4e25626b52","ios":"levelo://app?vid=52d745c9-427b-4fcd-827c-6a4e25626b52"},"vehicle_type_id":"4","last_reported":1729548477,"current_range_meters":38800,"station_id":"ce4bgt92rcd13ifvqcf0","pricing_plan_id":"cebpf4jnsgd1na2vs0mg"},{"bike_id":"44995a22-033a-4c58-85c7-5fde1a0d1fd1","system_id":"levelo_inurba_marseille","lat":43.31755,"lon":5.39016,"is_reserved":false,"is_disabled":false,"rental_uris":{"android":"levelo://app?vid=44995a22-033a-4c58-85c7-5fde1a0d1fd1","ios":"levelo://app?vid=44995a22-033a-4c58-85c7-5fde1a0d1fd1"},"vehicle_type_id":"4","last_reported":1729548477,"current_range_meters":19200,"station_id":"ce4bhqp2rcd13ifvqhng","pricing_plan_id":"cebpf4jnsgd1na2vs0mg"},{"bike_id":"fa20a991-1dea-48fc-afbb-63c05d1ec025","system_id":"levelo_inurba_marseille","lat":43.29776,"lon":5.37104,"is_reserved":false,"is_disabled":false,"rental_uris":{"android":"levelo://app?vid=fa20a991-1dea-48fc-afbb-63c05d1ec025","ios":"levelo://app?vid=fa20a991-1dea-48fc-afbb-63c05d1ec025"},"vehicle_type_id":"4","last_reported":1729548477,"current_range_meters":38800,"station_id":"ce4bgop2rcd13ifvqc1g","pricing_plan_id":"cebpf4jnsgd1na2vs0mg"},{"bike_id":"e62a894f-aa91-43a8-a8db-f23b8737397d","system_id":"levelo_inurba_marseille","lat":43.31491,"lon":5.37315,"is_reserved":false,"is_disabled":false,"rental_uris":{"android":"levelo://app?vid=e62a894f-aa91-43a8-a8db-f23b8737397d","ios":"levelo://app?vid=e62a894f-aa91-43a8-a8db-f23b8737397d"},"vehicle_type_id":"4","last_reported":1729548477,"current_range_meters":28800,"station_id":"ce4bgt12rcd13ifvqcd0","pricing_plan_id":"cebpf4jnsgd1na2vs0mg"},{"bike_id":"33ceddba-4cde-4193-9e1a-0e1fdb0a2205","system_id":"levelo_inurba_marseille","lat":43.31269,"lon":5.40165,"is_reserved":false,"is_disabled":false,"rental_uris":{"android":"levelo://app?vid=33ceddba-4cde-4193-9e1a-0e1fdb0a2205","ios":"levelo://app?vid=33ceddba-4cde-4193-9e1a-0e1fdb0a2205"},"vehicle_type_id":"4","last_reported":1729548477,"current_range_meters":38800,"station_id":"ce4bh092rcd13ifvqd30","pricing_plan_id":"cebpf4jnsgd1na2vs0mg"},{"bike_id":"a83c7b68-cf4e-46de-88aa-de72078f7bcd","system_id":"levelo_inurba_marseille","lat":43.311733,"lon":5.38716,"is_reserved":false,"is_disabled":false,"rental_uris":{"android":"levelo://app?vid=a83c7b68-cf4e-46de-88aa-de72078f7bcd","ios":"levelo://app?vid=a83c7b68-cf4e-46de-88aa-de72078f7bcd"},"vehicle_type_id":"4","last_reported":1729548477,"current_range_meters":36400,"station_id":"ce4bgv12rcd13ifvqcp0","pricing_plan_id":"cebpf4jnsgd1na2vs0mg"},{"bike_id":"79a1e020-318b-42a1-a8c0-a424b1daf69e","system_id":"levelo_inurba_marseille","lat":43.296,"lon":5.36142,"is_reserved":false,"is_disabled":false,"rental_uris":{"android":"levelo://app?vid=79a1e020-318b-42a1-a8c0-a424b1daf69e","ios":"levelo://app?vid=79a1e020-318b-42a1-a8c0-a424b1daf69e"},"vehicle_type_id":"4","last_reported":1729548477,"current_range_meters":8800,"station_id":"","pricing_plan_id":"cebpf4jnsgd1na2vs0mg"},{"bike_id":"93d37b3c-68af-4d6b-8c3b-1b14a8c56809","system_id":"levelo_inurba_marseille","lat":43.306486,"lon":5.400913,"is_reserved":false,"is_disabled":false,"rental_uris":{"android":"levelo://app?vid=93d37b3c-68af-4d6b-8c3b-1b14a8c56809","ios":"levelo://app?vid=93d37b3c-68af-4d6b-8c3b-1b14a8c56809"},"vehicle_type_id":"4","last_reported":1729548477,"current_range_meters":39200,"station_id":"ce4bh112rcd13ifvqda0","pricing_plan_id":"cebpf4jnsgd1na2vs0mg"},{"bike_id":"ff7da149-b02e-4268-a111-c46464cf1fb6","system_id":"levelo_inurba_marseille","lat":43.29969,"lon":5.38495,"is_reserved":false,"is_disabled":false,"rental_uris":{"android":"levelo://app?vid=ff7da149-b02e-4268-a111-c46464cf1fb6","ios":"levelo://app?vid=ff7da149-b02e-4268-a111-c46464cf1fb6"},"vehicle_type_id":"4","last_reported":1729548477,"current_range_meters":10000,"station_id":"ce4bgj92rcd13ifvqbd0","pricing_plan_id":"cebpf4jnsgd1na2vs0mg"},{"bike_id":"9bf9a108-7d5c-4517-b690-aa3ce06ef443","system_id":"levelo_inurba_marseille","lat":43.30355,"lon":5.41877,"is_reserved":false,"is_disabled":false,"rental_uris":{"android":"levelo://app?vid=9bf9a108-7d5c-4517-b690-aa3ce06ef443","ios":"levelo://app?vid=9bf9a108-7d5c-4517-b690-aa3ce06ef443"},"vehicle_type_id":"4","last_reported":1729548477,"current_range_meters":38800,"station_id":"ce4bhop2rcd13ifvqh7g","pricing_plan_id":"cebpf4jnsgd1na2vs0mg"},{"bike_id":"ab02ee1d-787b-471c-94b6-63687d804895","system_id":"levelo_inurba_marseille","lat":43.28616,"lon":5.35105,"is_reserved":false,"is_disabled":false,"rental_uris":{"android":"levelo://app?vid=ab02ee1d-787b-471c-94b6-63687d804895","ios":"levelo://app?vid=ab02ee1d-787b-471c-94b6-63687d804895"},"vehicle_type_id":"4","last_reported":1729548477,"current_range_meters":11600,"station_id":"ce4bhch2rcd13ifvqeug","pricing_plan_id":"cebpf4jnsgd1na2vs0mg"},{"bike_id":"a380b183-7537-4fff-8060-8ec31643c6dd","system_id":"levelo_inurba_marseille","lat":43.2511,"lon":5.40323,"is_reserved":false,"is_disabled":false,"rental_uris":{"android":"levelo://app?vid=a380b183-7537-4fff-8060-8ec31643c6dd","ios":"levelo://app?vid=a380b183-7537-4fff-8060-8ec31643c6dd"},"vehicle_type_id":"4","last_reported":1729548477,"current_range_meters":27600,"station_id":"ce4bhlh2rcd13ifvqgig","pricing_plan_id":"cebpf4jnsgd1na2vs0mg"},{"bike_id":"48f610f1-8a7b-4ed9-ae28-0c80c843a516","system_id":"levelo_inurba_marseille","lat":43.29215,"lon":5.38529,"is_reserved":false,"is_disabled":false,"rental_uris":{"android":"levelo://app?vid=48f610f1-8a7b-4ed9-ae28-0c80c843a516","ios":"levelo://app?vid=48f610f1-8a7b-4ed9-ae28-0c80c843a516"},"vehicle_type_id":"4","last_reported":1729548477,"current_range_meters":8800,"station_id":"ce4bhm12rcd13ifvqgkg","pricing_plan_id":"cebpf4jnsgd1na2vs0mg"},{"bike_id":"7adf842b-4b8c-4356-a23f-1be0cbaf4d21","system_id":"levelo_inurba_marseille","lat":43.23199,"lon":5.35554,"is_reserved":false,"is_disabled":false,"rental_uris":{"android":"levelo://app?vid=7adf842b-4b8c-4356-a23f-1be0cbaf4d21","ios":"levelo://app?vid=7adf842b-4b8c-4356-a23f-1be0cbaf4d21"},"vehicle_type_id":"4","last_reported":1729548477,"current_range_meters":13600,"station_id":"ce4bhu92rcd13ifvqi70","pricing_plan_id":"cebpf4jnsgd1na2vs0mg"},{"bike_id":"da505fed-76e4-4266-9dd2-32a1e8c3222b","system_id":"levelo_inurba_marseille","lat":43.29036,"lon":5.39956,"is_reserved":false,"is_disabled":false,"rental_uris":{"android":"levelo://app?vid=da505fed-76e4-4266-9dd2-32a1e8c3222b","ios":"levelo://app?vid=da505fed-76e4-4266-9dd2-32a1e8c3222b"},"vehicle_type_id":"4","last_reported":1729548477,"current_range_meters":33600,"station_id":"","pricing_plan_id":"cebpf4jnsgd1na2vs0mg"},{"bike_id":"3fbb21dc-457c-4028-8cc7-8a7ddebb915c","system_id":"levelo_inurba_marseille","lat":43.23197,"lon":5.35551,"is_reserved":false,"is_disabled":false,"rental_uris":{"android":"levelo://app?vid=3fbb21dc-457c-4028-8cc7-8a7ddebb915c","ios":"levelo://app?vid=3fbb21dc-457c-4028-8cc7-8a7ddebb915c"},"vehicle_type_id":"4","last_reported":1729548477,"current_range_meters":38800,"station_id":"ce4bhu92rcd13ifvqi70","pricing_plan_id":"cebpf4jnsgd1na2vs0mg"},{"bike_id":"8d66234d-ed10-4a56-b9bf-7024ed1a6c9c","system_id":"levelo_inurba_marseille","lat":43.32538,"lon":5.37901,"is_reserved":false,"is_disabled":false,"rental_uris":{"android":"levelo://app?vid=8d66234d-ed10-4a56-b9bf-7024ed1a6c9c","ios":"levelo://app?vid=8d66234d-ed10-4a56-b9bf-7024ed1a6c9c"},"vehicle_type_id":"4","last_reported":1729548477,"current_range_meters":8000,"station_id":"","pricing_plan_id":"cebpf4jnsgd1na2vs0mg"},{"bike_id":"81fcd148-c61d-4f78-96c8-778c638eede7","system_id":"levelo_inurba_marseille","lat":43.267903,"lon":5.393439,"is_reserved":false,"is_disabled":false,"rental_uris":{"android":"levelo://app?vid=81fcd148-c61d-4f78-96c8-778c638eede7","ios":"levelo://app?vid=81fcd148-c61d-4f78-96c8-778c638eede7"},"vehicle_type_id":"4","last_reported":1729548477,"current_range_meters":38800,"station_id":"ce4bhh12rcd13ifvqfg0","pricing_plan_id":"cebpf4jnsgd1na2vs0mg"},{"bike_id":"c9596d43-eeee-4e9d-85ab-26dca0438156","system_id":"levelo_inurba_marseille","lat":43.26806,"lon":5.40263,"is_reserved":false,"is_disabled":false,"rental_uris":{"android":"levelo://app?vid=c9596d43-eeee-4e9d-85ab-26dca0438156","ios":"levelo://app?vid=c9596d43-eeee-4e9d-85ab-26dca0438156"},"vehicle_type_id":"4","last_reported":1729548477,"current_range_meters":36400,"station_id":"ce501612rcd8frsf0b60","pricing_plan_id":"cebpf4jnsgd1na2vs0mg"},{"bike_id":"8636b94d-2fa5-4494-9366-9ee15c62850a","system_id":"levelo_inurba_marseille","lat":43.28028,"lon":5.36941,"is_reserved":false,"is_disabled":false,"rental_uris":{"android":"levelo://app?vid=8636b94d-2fa5-4494-9366-9ee15c62850a","ios":"levelo://app?vid=8636b94d-2fa5-4494-9366-9ee15c62850a"},"vehicle_type_id":"4","last_reported":1729548477,"current_range_meters":39200,"station_id":"ce4bha12rcd13ifvqef0","pricing_plan_id":"cebpf4jnsgd1na2vs0mg"},{"bike_id":"a0749efe-97d9-4183-a72e-c1d2637d69c3","system_id":"levelo_inurba_marseille","lat":43.298,"lon":5.40413,"is_reserved":false,"is_disabled":false,"rental_uris":{"android":"levelo://app?vid=a0749efe-97d9-4183-a72e-c1d2637d69c3","ios":"levelo://app?vid=a0749efe-97d9-4183-a72e-c1d2637d69c3"},"vehicle_type_id":"4","last_reported":1729548477,"current_range_meters":36800,"station_id":"ce4bh112rcd13ifvqd90","pricing_plan_id":"cebpf4jnsgd1na2vs0mg"},{"bike_id":"355f1dc2-3476-4496-8420-f36b2652912a","system_id":"levelo_inurba_marseille","lat":43.31329,"lon":5.39703,"is_reserved":false,"is_disabled":false,"rental_uris":{"android":"levelo://app?vid=355f1dc2-3476-4496-8420-f36b2652912a","ios":"levelo://app?vid=355f1dc2-3476-4496-8420-f36b2652912a"},"vehicle_type_id":"4","last_reported":1729548477,"current_range_meters":16800,"station_id":"ce4bgvp2rcd13ifvqcu0","pricing_plan_id":"cebpf4jnsgd1na2vs0mg"},{"bike_id":"2e7e341d-6647-47b6-9b4f-10b43bf22d61","system_id":"levelo_inurba_marseille","lat":43.30422,"lon":5.41284,"is_reserved":false,"is_disabled":false,"rental_uris":{"android":"levelo://app?vid=2e7e341d-6647-47b6-9b4f-10b43bf22d61","ios":"levelo://app?vid=2e7e341d-6647-47b6-9b4f-10b43bf22d61"},"vehicle_type_id":"4","last_reported":1729548477,"current_range_meters":32400,"station_id":"ce4bhop2rcd13ifvqh8g","pricing_plan_id":"cebpf4jnsgd1na2vs0mg"},{"bike_id":"96a05e9e-0c51-4463-85bd-0d9eb7916e1e","system_id":"levelo_inurba_marseille","lat":43.29269,"lon":5.36843,"is_reserved":false,"is_disabled":false,"rental_uris":{"android":"levelo://app?vid=96a05e9e-0c51-4463-85bd-0d9eb7916e1e","ios":"levelo://app?vid=96a05e9e-0c51-4463-85bd-0d9eb7916e1e"},"vehicle_type_id":"4","last_reported":1729548477,"current_range_meters":20000,"station_id":"ce4bhbp2rcd13ifvqesg","pricing_plan_id":"cebpf4jnsgd1na2vs0mg"},{"bike_id":"9926919b-200e-4ea0-a4a8-95ae624636d3","system_id":"levelo_inurba_marseille","lat":43.25087,"lon":5.39523,"is_reserved":false,"is_disabled":false,"rental_uris":{"android":"levelo://app?vid=9926919b-200e-4ea0-a4a8-95ae624636d3","ios":"levelo://app?vid=9926919b-200e-4ea0-a4a8-95ae624636d3"},"vehicle_type_id":"4","last_reported":1729548477,"current_range_meters":29600,"station_id":"ce4bhm12rcd13ifvqgkg","pricing_plan_id":"cebpf4jnsgd1na2vs0mg"},{"bike_id":"e34fdb2e-8644-451c-8069-b133a92de5fd","system_id":"levelo_inurba_marseille","lat":43.2738,"lon":5.36253,"is_reserved":false,"is_disabled":false,"rental_uris":{"android":"levelo://app?vid=e34fdb2e-8644-451c-8069-b133a92de5fd","ios":"levelo://app?vid=e34fdb2e-8644-451c-8069-b133a92de5fd"},"vehicle_type_id":"4","last_reported":1729548477,"current_range_meters":38800,"station_id":"ce4bhbh2rcd13ifvqeo0","pricing_plan_id":"cebpf4jnsgd1na2vs0mg"},{"bike_id":"fa2cc0e3-e6ac-4a92-8eeb-eaae927be863","system_id":"levelo_inurba_marseille","lat":43.28975,"lon":5.37835,"is_reserved":false,"is_disabled":false,"rental_uris":{"android":"levelo://app?vid=fa2cc0e3-e6ac-4a92-8eeb-eaae927be863","ios":"levelo://app?vid=fa2cc0e3-e6ac-4a92-8eeb-eaae927be863"},"vehicle_type_id":"4","last_reported":1729548477,"current_range_meters":37600,"station_id":"ce4bh9p2rcd13ifvqed0","pricing_plan_id":"cebpf4jnsgd1na2vs0mg"},{"bike_id":"b3104e33-9459-48f1-a6de-d63ef857c18a","system_id":"levelo_inurba_marseille","lat":43.326614,"lon":5.409957,"is_reserved":false,"is_disabled":false,"rental_uris":{"android":"levelo://app?vid=b3104e33-9459-48f1-a6de-d63ef857c18a","ios":"levelo://app?vid=b3104e33-9459-48f1-a6de-d63ef857c18a"},"vehicle_type_id":"4","last_reported":1729548477,"current_range_meters":33200,"station_id":"ce4bhpp2rcd13ifvqhgg","pricing_plan_id":"cebpf4jnsgd1na2vs0mg"},{"bike_id":"8c177abc-6c8b-4f38-a66e-3ca7b6e296f3","system_id":"levelo_inurba_marseille","lat":43.26476,"lon":5.39558,"is_reserved":false,"is_disabled":false,"rental_uris":{"android":"levelo://app?vid=8c177abc-6c8b-4f38-a66e-3ca7b6e296f3","ios":"levelo://app?vid=8c177abc-6c8b-4f38-a66e-3ca7b6e296f3"},"vehicle_type_id":"4","last_reported":1729548477,"current_range_meters":38000,"station_id":"ce4bhi12rcd13ifvqfq0","pricing_plan_id":"cebpf4jnsgd1na2vs0mg"},{"bike_id":"a43f600e-5f91-4a8b-87f2-b2eef59c7d21","system_id":"levelo_inurba_marseille","lat":43.23194,"lon":5.35554,"is_reserved":false,"is_disabled":false,"rental_uris":{"android":"levelo://app?vid=a43f600e-5f91-4a8b-87f2-b2eef59c7d21","ios":"levelo://app?vid=a43f600e-5f91-4a8b-87f2-b2eef59c7d21"},"vehicle_type_id":"4","last_reported":1729548477,"current_range_meters":10000,"station_id":"ce4bhu92rcd13ifvqi70","pricing_plan_id":"cebpf4jnsgd1na2vs0mg"},{"bike_id":"a28221e9-a1a9-4fdb-abf6-3e4386cfaae2","system_id":"levelo_inurba_marseille","lat":43.31177,"lon":5.38709,"is_reserved":false,"is_disabled":false,"rental_uris":{"android":"levelo://app?vid=a28221e9-a1a9-4fdb-abf6-3e4386cfaae2","ios":"levelo://app?vid=a28221e9-a1a9-4fdb-abf6-3e4386cfaae2"},"vehicle_type_id":"4","last_reported":1729548477,"current_range_meters":36400,"station_id":"ce4bgv12rcd13ifvqcp0","pricing_plan_id":"cebpf4jnsgd1na2vs0mg"},{"bike_id":"d35aead5-74d9-4a00-baad-d7d1ed435177","system_id":"levelo_inurba_marseille","lat":43.24071,"lon":5.37757,"is_reserved":false,"is_disabled":false,"rental_uris":{"android":"levelo://app?vid=d35aead5-74d9-4a00-baad-d7d1ed435177","ios":"levelo://app?vid=d35aead5-74d9-4a00-baad-d7d1ed435177"},"vehicle_type_id":"4","last_reported":1729548477,"current_range_meters":38800,"station_id":"ce4bhnp2rcd13ifvqgvg","pricing_plan_id":"cebpf4jnsgd1na2vs0mg"},{"bike_id":"45e47b32-b595-42fc-b7b4-fe5c0ba1b09b","system_id":"levelo_inurba_marseille","lat":43.31075,"lon":5.38363,"is_reserved":false,"is_disabled":false,"rental_uris":{"android":"levelo://app?vid=45e47b32-b595-42fc-b7b4-fe5c0ba1b09b","ios":"levelo://app?vid=45e47b32-b595-42fc-b7b4-fe5c0ba1b09b"},"vehicle_type_id":"4","last_reported":1729548477,"current_range_meters":28800,"station_id":"ce4bgv92rcd13ifvqcr0","pricing_plan_id":"cebpf4jnsgd1na2vs0mg"},{"bike_id":"773428ac-f2af-48e2-8731-75abfd73f78c","system_id":"levelo_inurba_marseille","lat":43.31168,"lon":5.3871,"is_reserved":false,"is_disabled":false,"rental_uris":{"android":"levelo://app?vid=773428ac-f2af-48e2-8731-75abfd73f78c","ios":"levelo://app?vid=773428ac-f2af-48e2-8731-75abfd73f78c"},"vehicle_type_id":"4","last_reported":1729548477,"current_range_meters":36400,"station_id":"ce4bgv12rcd13ifvqcp0","pricing_plan_id":"cebpf4jnsgd1na2vs0mg"},{"bike_id":"9497472b-df01-4419-8ccb-4371f577f35f","system_id":"levelo_inurba_marseille","lat":43.2558,"lon":5.38234,"is_reserved":false,"is_disabled":false,"rental_uris":{"android":"levelo://app?vid=9497472b-df01-4419-8ccb-4371f577f35f","ios":"levelo://app?vid=9497472b-df01-4419-8ccb-4371f577f35f"},"vehicle_type_id":"4","last_reported":1729548477,"current_range_meters":35200,"station_id":"ce4bhih2rcd13ifvqfs0","pricing_plan_id":"cebpf4jnsgd1na2vs0mg"},{"bike_id":"3b14897a-daf5-4d7e-8b82-86c5bdae4669","system_id":"levelo_inurba_marseille","lat":43.28608,"lon":5.37072,"is_reserved":false,"is_disabled":false,"rental_uris":{"android":"levelo://app?vid=3b14897a-daf5-4d7e-8b82-86c5bdae4669","ios":"levelo://app?vid=3b14897a-daf5-4d7e-8b82-86c5bdae4669"},"vehicle_type_id":"4","last_reported":1729548477,"current_range_meters":28400,"station_id":"ce4bht12rcd13ifvqi60","pricing_plan_id":"cebpf4jnsgd1na2vs0mg"},{"bike_id":"d2935397-1742-4d7c-8765-f0db1de9648e","system_id":"levelo_inurba_marseille","lat":43.25501,"lon":5.37648,"is_reserved":false,"is_disabled":false,"rental_uris":{"android":"levelo://app?vid=d2935397-1742-4d7c-8765-f0db1de9648e","ios":"levelo://app?vid=d2935397-1742-4d7c-8765-f0db1de9648e"},"vehicle_type_id":"4","last_reported":1729548477,"current_range_meters":27200,"station_id":"ce4bhh12rcd13ifvqff0","pricing_plan_id":"cebpf4jnsgd1na2vs0mg"},{"bike_id":"c3945b60-e38d-4106-8f18-92c7f436cc4f","system_id":"levelo_inurba_marseille","lat":43.33757,"lon":5.37448,"is_reserved":false,"is_disabled":false,"rental_uris":{"android":"levelo://app?vid=c3945b60-e38d-4106-8f18-92c7f436cc4f","ios":"levelo://app?vid=c3945b60-e38d-4106-8f18-92c7f436cc4f"},"vehicle_type_id":"4","last_reported":1729548477,"current_range_meters":34800,"station_id":"","pricing_plan_id":"cebpf4jnsgd1na2vs0mg"},{"bike_id":"2b074774-3054-4f70-a0d6-59a91c68eac6","system_id":"levelo_inurba_marseille","lat":43.2904,"lon":5.39965,"is_reserved":false,"is_disabled":false,"rental_uris":{"android":"levelo://app?vid=2b074774-3054-4f70-a0d6-59a91c68eac6","ios":"levelo://app?vid=2b074774-3054-4f70-a0d6-59a91c68eac6"},"vehicle_type_id":"4","last_reported":1729548477,"current_range_meters":25600,"station_id":"ce4bh392rcd13ifvqdm0","pricing_plan_id":"cebpf4jnsgd1na2vs0mg"},{"bike_id":"de1ff86d-3061-40a1-be1e-8be446e6115e","system_id":"levelo_inurba_marseille","lat":43.29588,"lon":5.38157,"is_reserved":false,"is_disabled":false,"rental_uris":{"android":"levelo://app?vid=de1ff86d-3061-40a1-be1e-8be446e6115e","ios":"levelo://app?vid=de1ff86d-3061-40a1-be1e-8be446e6115e"},"vehicle_type_id":"4","last_reported":1729548477,"current_range_meters":17600,"station_id":"ce4bgl12rcd13ifvqbo0","pricing_plan_id":"cebpf4jnsgd1na2vs0mg"},{"bike_id":"804059e5-aaa7-42e0-98ea-49434fd7bf0c","system_id":"levelo_inurba_marseille","lat":43.30191,"lon":5.36609,"is_reserved":false,"is_disabled":false,"rental_uris":{"android":"levelo://app?vid=804059e5-aaa7-42e0-98ea-49434fd7bf0c","ios":"levelo://app?vid=804059e5-aaa7-42e0-98ea-49434fd7bf0c"},"vehicle_type_id":"4","last_reported":1729548477,"current_range_meters":26000,"station_id":"ce4bgrh2rcd13ifvqc8g","pricing_plan_id":"cebpf4jnsgd1na2vs0mg"},{"bike_id":"187768a6-b7a7-4705-b7cd-5ddf89bff83c","system_id":"levelo_inurba_marseille","lat":43.30888,"lon":5.39642,"is_reserved":false,"is_disabled":false,"rental_uris":{"android":"levelo://app?vid=187768a6-b7a7-4705-b7cd-5ddf89bff83c","ios":"levelo://app?vid=187768a6-b7a7-4705-b7cd-5ddf89bff83c"},"vehicle_type_id":"4","last_reported":1729548477,"current_range_meters":38000,"station_id":"ce4bh012rcd13ifvqcv0","pricing_plan_id":"cebpf4jnsgd1na2vs0mg"},{"bike_id":"1af7e746-f18e-4515-800e-e2caa01909e6","system_id":"levelo_inurba_marseille","lat":43.28354,"lon":5.38106,"is_reserved":false,"is_disabled":false,"rental_uris":{"android":"levelo://app?vid=1af7e746-f18e-4515-800e-e2caa01909e6","ios":"levelo://app?vid=1af7e746-f18e-4515-800e-e2caa01909e6"},"vehicle_type_id":"4","last_reported":1729548477,"current_range_meters":38800,"station_id":"ce4bh412rcd13ifvqdr0","pricing_plan_id":"cebpf4jnsgd1na2vs0mg"},{"bike_id":"fe464ea0-362d-441e-87d4-e9eb2e91d570","system_id":"levelo_inurba_marseille","lat":43.28106,"lon":5.37828,"is_reserved":false,"is_disabled":false,"rental_uris":{"android":"levelo://app?vid=fe464ea0-362d-441e-87d4-e9eb2e91d570","ios":"levelo://app?vid=fe464ea0-362d-441e-87d4-e9eb2e91d570"},"vehicle_type_id":"4","last_reported":1729548477,"current_range_meters":26800,"station_id":"ce4bha12rcd13ifvqee0","pricing_plan_id":"cebpf4jnsgd1na2vs0mg"},{"bike_id":"1cc8c524-3a72-465f-8ebe-e4c35d504abb","system_id":"levelo_inurba_marseille","lat":43.24068,"lon":5.37762,"is_reserved":false,"is_disabled":false,"rental_uris":{"android":"levelo://app?vid=1cc8c524-3a72-465f-8ebe-e4c35d504abb","ios":"levelo://app?vid=1cc8c524-3a72-465f-8ebe-e4c35d504abb"},"vehicle_type_id":"4","last_reported":1729548477,"current_range_meters":19200,"station_id":"ce4bhnp2rcd13ifvqgvg","pricing_plan_id":"cebpf4jnsgd1na2vs0mg"},{"bike_id":"d6302fba-4a4b-48e2-955d-c7fff95e7dbf","system_id":"levelo_inurba_marseille","lat":43.312689,"lon":5.401702,"is_reserved":false,"is_disabled":false,"rental_uris":{"android":"levelo://app?vid=d6302fba-4a4b-48e2-955d-c7fff95e7dbf","ios":"levelo://app?vid=d6302fba-4a4b-48e2-955d-c7fff95e7dbf"},"vehicle_type_id":"4","last_reported":1729548477,"current_range_meters":6800,"station_id":"ce4bh092rcd13ifvqd30","pricing_plan_id":"cebpf4jnsgd1na2vs0mg"},{"bike_id":"b98c53b4-846d-4a89-a172-20ae0f114d2d","system_id":"levelo_inurba_marseille","lat":43.30637,"lon":5.40075,"is_reserved":false,"is_disabled":false,"rental_uris":{"android":"levelo://app?vid=b98c53b4-846d-4a89-a172-20ae0f114d2d","ios":"levelo://app?vid=b98c53b4-846d-4a89-a172-20ae0f114d2d"},"vehicle_type_id":"4","last_reported":1729548477,"current_range_meters":36800,"station_id":"ce4bh112rcd13ifvqda0","pricing_plan_id":"cebpf4jnsgd1na2vs0mg"},{"bike_id":"8318d3ab-5796-4c49-b775-b2bad9f0e3b0","system_id":"levelo_inurba_marseille","lat":43.29876,"lon":5.38901,"is_reserved":false,"is_disabled":false,"rental_uris":{"android":"levelo://app?vid=8318d3ab-5796-4c49-b775-b2bad9f0e3b0","ios":"levelo://app?vid=8318d3ab-5796-4c49-b775-b2bad9f0e3b0"},"vehicle_type_id":"4","last_reported":1729548477,"current_range_meters":38800,"station_id":"ce4bh392rcd13ifvqdl0","pricing_plan_id":"cebpf4jnsgd1na2vs0mg"},{"bike_id":"9f786ec1-1992-4de8-b2dc-8bc6950749ad","system_id":"levelo_inurba_marseille","lat":43.24987,"lon":5.38958,"is_reserved":false,"is_disabled":false,"rental_uris":{"android":"levelo://app?vid=9f786ec1-1992-4de8-b2dc-8bc6950749ad","ios":"levelo://app?vid=9f786ec1-1992-4de8-b2dc-8bc6950749ad"},"vehicle_type_id":"4","last_reported":1729548477,"current_range_meters":36400,"station_id":"ce4bhlh2rcd13ifvqgig","pricing_plan_id":"cebpf4jnsgd1na2vs0mg"},{"bike_id":"6ba1088e-f6d7-458a-a335-f0b3c3746983","system_id":"levelo_inurba_marseille","lat":43.2418,"lon":5.3973,"is_reserved":false,"is_disabled":false,"rental_uris":{"android":"levelo://app?vid=6ba1088e-f6d7-458a-a335-f0b3c3746983","ios":"levelo://app?vid=6ba1088e-f6d7-458a-a335-f0b3c3746983"},"vehicle_type_id":"4","last_reported":1729548477,"current_range_meters":38800,"station_id":"ce4bhn12rcd13ifvqgpg","pricing_plan_id":"cebpf4jnsgd1na2vs0mg"},{"bike_id":"ab4867db-7662-4a17-9204-8cf9e78260e5","system_id":"levelo_inurba_marseille","lat":43.27616,"lon":5.36107,"is_reserved":false,"is_disabled":false,"rental_uris":{"android":"levelo://app?vid=ab4867db-7662-4a17-9204-8cf9e78260e5","ios":"levelo://app?vid=ab4867db-7662-4a17-9204-8cf9e78260e5"},"vehicle_type_id":"4","last_reported":1729548477,"current_range_meters":38800,"station_id":"ce4bgj92rcd13ifvqbe0","pricing_plan_id":"cebpf4jnsgd1na2vs0mg"},{"bike_id":"7c1a265d-e6b9-4abf-9ea7-bd6155b9c786","system_id":"levelo_inurba_marseille","lat":43.28108,"lon":5.37835,"is_reserved":false,"is_disabled":false,"rental_uris":{"android":"levelo://app?vid=7c1a265d-e6b9-4abf-9ea7-bd6155b9c786","ios":"levelo://app?vid=7c1a265d-e6b9-4abf-9ea7-bd6155b9c786"},"vehicle_type_id":"4","last_reported":1729548477,"current_range_meters":38800,"station_id":"ce4bha12rcd13ifvqee0","pricing_plan_id":"cebpf4jnsgd1na2vs0mg"},{"bike_id":"c6514999-11a6-4cc9-8fdc-53a83e26106a","system_id":"levelo_inurba_marseille","lat":43.25077,"lon":5.39514,"is_reserved":false,"is_disabled":false,"rental_uris":{"android":"levelo://app?vid=c6514999-11a6-4cc9-8fdc-53a83e26106a","ios":"levelo://app?vid=c6514999-11a6-4cc9-8fdc-53a83e26106a"},"vehicle_type_id":"4","last_reported":1729548477,"current_range_meters":38800,"station_id":"ce4bhm12rcd13ifvqgkg","pricing_plan_id":"cebpf4jnsgd1na2vs0mg"},{"bike_id":"83a27295-b54e-41e4-a664-e929b29facf5","system_id":"levelo_inurba_marseille","lat":43.2978,"lon":5.37087,"is_reserved":false,"is_disabled":false,"rental_uris":{"android":"levelo://app?vid=83a27295-b54e-41e4-a664-e929b29facf5","ios":"levelo://app?vid=83a27295-b54e-41e4-a664-e929b29facf5"},"vehicle_type_id":"4","last_reported":1729548477,"current_range_meters":21600,"station_id":"ce4bgop2rcd13ifvqc1g","pricing_plan_id":"cebpf4jnsgd1na2vs0mg"},{"bike_id":"72f63983-e112-4b56-a265-24560ff50b47","system_id":"levelo_inurba_marseille","lat":43.31068,"lon":5.38354,"is_reserved":false,"is_disabled":false,"rental_uris":{"android":"levelo://app?vid=72f63983-e112-4b56-a265-24560ff50b47","ios":"levelo://app?vid=72f63983-e112-4b56-a265-24560ff50b47"},"vehicle_type_id":"4","last_reported":1729548477,"current_range_meters":30000,"station_id":"ce4bgv92rcd13ifvqcr0","pricing_plan_id":"cebpf4jnsgd1na2vs0mg"},{"bike_id":"f806bc89-090c-431c-ad2d-48f75230ae27","system_id":"levelo_inurba_marseille","lat":43.29005,"lon":5.35608,"is_reserved":false,"is_disabled":false,"rental_uris":{"android":"levelo://app?vid=f806bc89-090c-431c-ad2d-48f75230ae27","ios":"levelo://app?vid=f806bc89-090c-431c-ad2d-48f75230ae27"},"vehicle_type_id":"4","last_reported":1729548477,"current_range_meters":24400,"station_id":"ce4bhb92rcd13ifvqen0","pricing_plan_id":"cebpf4jnsgd1na2vs0mg"},{"bike_id":"97b6dd41-f6a5-4063-ab96-61be62bf84f9","system_id":"levelo_inurba_marseille","lat":43.3095,"lon":5.39051,"is_reserved":false,"is_disabled":false,"rental_uris":{"android":"levelo://app?vid=97b6dd41-f6a5-4063-ab96-61be62bf84f9","ios":"levelo://app?vid=97b6dd41-f6a5-4063-ab96-61be62bf84f9"},"vehicle_type_id":"4","last_reported":1729548477,"current_range_meters":38000,"station_id":"ce4bgup2rcd13ifvqco0","pricing_plan_id":"cebpf4jnsgd1na2vs0mg"},{"bike_id":"fc173ade-800e-46df-a64c-19fbb4304a28","system_id":"levelo_inurba_marseille","lat":43.28731,"lon":5.36078,"is_reserved":false,"is_disabled":false,"rental_uris":{"android":"levelo://app?vid=fc173ade-800e-46df-a64c-19fbb4304a28","ios":"levelo://app?vid=fc173ade-800e-46df-a64c-19fbb4304a28"},"vehicle_type_id":"4","last_reported":1729548477,"current_range_meters":17200,"station_id":"cki0cbj6b192h4jlfktg","pricing_plan_id":"cebpf4jnsgd1na2vs0mg"},{"bike_id":"c4bd4984-7993-47cd-a212-6b533f74abb4","system_id":"levelo_inurba_marseille","lat":43.31176,"lon":5.38711,"is_reserved":false,"is_disabled":false,"rental_uris":{"android":"levelo://app?vid=c4bd4984-7993-47cd-a212-6b533f74abb4","ios":"levelo://app?vid=c4bd4984-7993-47cd-a212-6b533f74abb4"},"vehicle_type_id":"4","last_reported":1729548477,"current_range_meters":24000,"station_id":"ce4bgv12rcd13ifvqcp0","pricing_plan_id":"cebpf4jnsgd1na2vs0mg"},{"bike_id":"5f7d4f90-4785-4f38-85ff-282113d1a444","system_id":"levelo_inurba_marseille","lat":43.29784,"lon":5.39346,"is_reserved":false,"is_disabled":false,"rental_uris":{"android":"levelo://app?vid=5f7d4f90-4785-4f38-85ff-282113d1a444","ios":"levelo://app?vid=5f7d4f90-4785-4f38-85ff-282113d1a444"},"vehicle_type_id":"4","last_reported":1729548477,"current_range_meters":38800,"station_id":"chh1huq6cuj3fo74tm60","pricing_plan_id":"cebpf4jnsgd1na2vs0mg"},{"bike_id":"2f6ccb91-b99c-471c-b9ae-ae42904658f2","system_id":"levelo_inurba_marseille","lat":43.28667,"lon":5.36347,"is_reserved":false,"is_disabled":false,"rental_uris":{"android":"levelo://app?vid=2f6ccb91-b99c-471c-b9ae-ae42904658f2","ios":"levelo://app?vid=2f6ccb91-b99c-471c-b9ae-ae42904658f2"},"vehicle_type_id":"4","last_reported":1729548477,"current_range_meters":33200,"station_id":"ce4bhah2rcd13ifvqej0","pricing_plan_id":"cebpf4jnsgd1na2vs0mg"},{"bike_id":"838134ea-11b7-4776-aad5-c9292871a849","system_id":"levelo_inurba_marseille","lat":43.31754,"lon":5.39026,"is_reserved":false,"is_disabled":false,"rental_uris":{"android":"levelo://app?vid=838134ea-11b7-4776-aad5-c9292871a849","ios":"levelo://app?vid=838134ea-11b7-4776-aad5-c9292871a849"},"vehicle_type_id":"4","last_reported":1729548477,"current_range_meters":38800,"station_id":"ce4bhqp2rcd13ifvqhng","pricing_plan_id":"cebpf4jnsgd1na2vs0mg"},{"bike_id":"3ea09a10-f162-4757-ba76-6a9d27859e6e","system_id":"levelo_inurba_marseille","lat":43.27676,"lon":5.389,"is_reserved":false,"is_disabled":false,"rental_uris":{"android":"levelo://app?vid=3ea09a10-f162-4757-ba76-6a9d27859e6e","ios":"levelo://app?vid=3ea09a10-f162-4757-ba76-6a9d27859e6e"},"vehicle_type_id":"4","last_reported":1729548477,"current_range_meters":11600,"station_id":"ce4bhi12rcd13ifvqfo0","pricing_plan_id":"cebpf4jnsgd1na2vs0mg"},{"bike_id":"b23f36b2-c73c-4f04-b895-1f6b0d7c7dda","system_id":"levelo_inurba_marseille","lat":43.307921,"lon":5.376545,"is_reserved":false,"is_disabled":false,"rental_uris":{"android":"levelo://app?vid=b23f36b2-c73c-4f04-b895-1f6b0d7c7dda","ios":"levelo://app?vid=b23f36b2-c73c-4f04-b895-1f6b0d7c7dda"},"vehicle_type_id":"4","last_reported":1729548477,"current_range_meters":35600,"station_id":"ce4bgv92rcd13ifvqcq0","pricing_plan_id":"cebpf4jnsgd1na2vs0mg"},{"bike_id":"ca832f59-a618-411e-bcce-5749cfbe6484","system_id":"levelo_inurba_marseille","lat":43.27808,"lon":5.40708,"is_reserved":false,"is_disabled":false,"rental_uris":{"android":"levelo://app?vid=ca832f59-a618-411e-bcce-5749cfbe6484","ios":"levelo://app?vid=ca832f59-a618-411e-bcce-5749cfbe6484"},"vehicle_type_id":"4","last_reported":1729548477,"current_range_meters":37600,"station_id":"ce4bhnh2rcd13ifvqgtg","pricing_plan_id":"cebpf4jnsgd1na2vs0mg"},{"bike_id":"8913b4e4-7c4d-48af-ba57-e2c3579843d0","system_id":"levelo_inurba_marseille","lat":43.27614,"lon":5.3611,"is_reserved":false,"is_disabled":false,"rental_uris":{"android":"levelo://app?vid=8913b4e4-7c4d-48af-ba57-e2c3579843d0","ios":"levelo://app?vid=8913b4e4-7c4d-48af-ba57-e2c3579843d0"},"vehicle_type_id":"4","last_reported":1729548477,"current_range_meters":4800,"station_id":"ce4bgj92rcd13ifvqbe0","pricing_plan_id":"cebpf4jnsgd1na2vs0mg"},{"bike_id":"c73e1747-c970-4ef4-a6cf-abbeee78703a","system_id":"levelo_inurba_marseille","lat":43.29266,"lon":5.36847,"is_reserved":false,"is_disabled":false,"rental_uris":{"android":"levelo://app?vid=c73e1747-c970-4ef4-a6cf-abbeee78703a","ios":"levelo://app?vid=c73e1747-c970-4ef4-a6cf-abbeee78703a"},"vehicle_type_id":"4","last_reported":1729548477,"current_range_meters":32000,"station_id":"ce4bhbp2rcd13ifvqesg","pricing_plan_id":"cebpf4jnsgd1na2vs0mg"},{"bike_id":"f3ea317e-004a-440f-9d50-4d1d8d28f4be","system_id":"levelo_inurba_marseille","lat":43.315007,"lon":5.373276,"is_reserved":false,"is_disabled":false,"rental_uris":{"android":"levelo://app?vid=f3ea317e-004a-440f-9d50-4d1d8d28f4be","ios":"levelo://app?vid=f3ea317e-004a-440f-9d50-4d1d8d28f4be"},"vehicle_type_id":"4","last_reported":1729548477,"current_range_meters":38800,"station_id":"ce4bgt12rcd13ifvqcd0","pricing_plan_id":"cebpf4jnsgd1na2vs0mg"},{"bike_id":"dc05d92d-106b-4f33-a138-b3eced1ad12e","system_id":"levelo_inurba_marseille","lat":43.3108,"lon":5.38359,"is_reserved":false,"is_disabled":false,"rental_uris":{"android":"levelo://app?vid=dc05d92d-106b-4f33-a138-b3eced1ad12e","ios":"levelo://app?vid=dc05d92d-106b-4f33-a138-b3eced1ad12e"},"vehicle_type_id":"4","last_reported":1729548477,"current_range_meters":32000,"station_id":"ce4bgv92rcd13ifvqcr0","pricing_plan_id":"cebpf4jnsgd1na2vs0mg"},{"bike_id":"849934f4-23f9-44e2-a115-a17824dd7215","system_id":"levelo_inurba_marseille","lat":43.3176,"lon":5.39016,"is_reserved":false,"is_disabled":false,"rental_uris":{"android":"levelo://app?vid=849934f4-23f9-44e2-a115-a17824dd7215","ios":"levelo://app?vid=849934f4-23f9-44e2-a115-a17824dd7215"},"vehicle_type_id":"4","last_reported":1729548477,"current_range_meters":16000,"station_id":"ce4bhqp2rcd13ifvqhng","pricing_plan_id":"cebpf4jnsgd1na2vs0mg"},{"bike_id":"ccf194ec-39e9-4762-9b93-18620826fd4a","system_id":"levelo_inurba_marseille","lat":43.27814,"lon":5.4071,"is_reserved":false,"is_disabled":false,"rental_uris":{"android":"levelo://app?vid=ccf194ec-39e9-4762-9b93-18620826fd4a","ios":"levelo://app?vid=ccf194ec-39e9-4762-9b93-18620826fd4a"},"vehicle_type_id":"4","last_reported":1729548477,"current_range_meters":16800,"station_id":"ce4bhnh2rcd13ifvqgtg","pricing_plan_id":"cebpf4jnsgd1na2vs0mg"},{"bike_id":"0ce6a187-cd9b-4f08-b247-e6d5d0d87fc5","system_id":"levelo_inurba_marseille","lat":43.31167,"lon":5.38716,"is_reserved":false,"is_disabled":false,"rental_uris":{"android":"levelo://app?vid=0ce6a187-cd9b-4f08-b247-e6d5d0d87fc5","ios":"levelo://app?vid=0ce6a187-cd9b-4f08-b247-e6d5d0d87fc5"},"vehicle_type_id":"4","last_reported":1729548477,"current_range_meters":32000,"station_id":"ce4bgv12rcd13ifvqcp0","pricing_plan_id":"cebpf4jnsgd1na2vs0mg"},{"bike_id":"90c3a7c5-e4e7-4ce2-bfab-27e6176af8a4","system_id":"levelo_inurba_marseille","lat":43.28568,"lon":5.39492,"is_reserved":false,"is_disabled":false,"rental_uris":{"android":"levelo://app?vid=90c3a7c5-e4e7-4ce2-bfab-27e6176af8a4","ios":"levelo://app?vid=90c3a7c5-e4e7-4ce2-bfab-27e6176af8a4"},"vehicle_type_id":"4","last_reported":1729548477,"current_range_meters":38800,"station_id":"ce4bh292rcd13ifvqdg0","pricing_plan_id":"cebpf4jnsgd1na2vs0mg"},{"bike_id":"8273f07f-4a55-425c-8610-6e9ec4f94b46","system_id":"levelo_inurba_marseille","lat":43.33024,"lon":5.3904,"is_reserved":false,"is_disabled":false,"rental_uris":{"android":"levelo://app?vid=8273f07f-4a55-425c-8610-6e9ec4f94b46","ios":"levelo://app?vid=8273f07f-4a55-425c-8610-6e9ec4f94b46"},"vehicle_type_id":"4","last_reported":1729548477,"current_range_meters":38800,"station_id":"ce4bhr92rcd13ifvqhrg","pricing_plan_id":"cebpf4jnsgd1na2vs0mg"},{"bike_id":"815dd284-1bd2-4bb9-992a-b2116e2485bc","system_id":"levelo_inurba_marseille","lat":43.32783,"lon":5.36156,"is_reserved":false,"is_disabled":false,"rental_uris":{"android":"levelo://app?vid=815dd284-1bd2-4bb9-992a-b2116e2485bc","ios":"levelo://app?vid=815dd284-1bd2-4bb9-992a-b2116e2485bc"},"vehicle_type_id":"4","last_reported":1729548477,"current_range_meters":36000,"station_id":"","pricing_plan_id":"cebpf4jnsgd1na2vs0mg"},{"bike_id":"3788abb5-477f-4c60-a2ba-813f159876ac","system_id":"levelo_inurba_marseille","lat":43.27818,"lon":5.40704,"is_reserved":false,"is_disabled":false,"rental_uris":{"android":"levelo://app?vid=3788abb5-477f-4c60-a2ba-813f159876ac","ios":"levelo://app?vid=3788abb5-477f-4c60-a2ba-813f159876ac"},"vehicle_type_id":"4","last_reported":1729548477,"current_range_meters":21600,"station_id":"ce4bhnh2rcd13ifvqgtg","pricing_plan_id":"cebpf4jnsgd1na2vs0mg"},{"bike_id":"a6becff1-00d3-47fa-8898-3ba6d7221fbe","system_id":"levelo_inurba_marseille","lat":43.23195,"lon":5.35547,"is_reserved":false,"is_disabled":false,"rental_uris":{"android":"levelo://app?vid=a6becff1-00d3-47fa-8898-3ba6d7221fbe","ios":"levelo://app?vid=a6becff1-00d3-47fa-8898-3ba6d7221fbe"},"vehicle_type_id":"4","last_reported":1729548477,"current_range_meters":38800,"station_id":"ce4bhu92rcd13ifvqi70","pricing_plan_id":"cebpf4jnsgd1na2vs0mg"},{"bike_id":"44e284fb-9223-4f66-b311-c83be2e9a988","system_id":"levelo_inurba_marseille","lat":43.24649,"lon":5.38896,"is_reserved":false,"is_disabled":false,"rental_uris":{"android":"levelo://app?vid=44e284fb-9223-4f66-b311-c83be2e9a988","ios":"levelo://app?vid=44e284fb-9223-4f66-b311-c83be2e9a988"},"vehicle_type_id":"4","last_reported":1729548477,"current_range_meters":32400,"station_id":"ce4bhg12rcd13ifvqf60","pricing_plan_id":"cebpf4jnsgd1na2vs0mg"},{"bike_id":"a6a76372-51ee-4950-8069-2ddb6d34537b","system_id":"levelo_inurba_marseille","lat":43.30609,"lon":5.3723,"is_reserved":false,"is_disabled":false,"rental_uris":{"android":"levelo://app?vid=a6a76372-51ee-4950-8069-2ddb6d34537b","ios":"levelo://app?vid=a6a76372-51ee-4950-8069-2ddb6d34537b"},"vehicle_type_id":"4","last_reported":1729548477,"current_range_meters":14000,"station_id":"ce4bgqh2rcd13ifvqc4g","pricing_plan_id":"cebpf4jnsgd1na2vs0mg"},{"bike_id":"2b884fb0-97a2-4d3d-bedb-051530b2ea5d","system_id":"levelo_inurba_marseille","lat":43.28661,"lon":5.3635,"is_reserved":false,"is_disabled":false,"rental_uris":{"android":"levelo://app?vid=2b884fb0-97a2-4d3d-bedb-051530b2ea5d","ios":"levelo://app?vid=2b884fb0-97a2-4d3d-bedb-051530b2ea5d"},"vehicle_type_id":"4","last_reported":1729548477,"current_range_meters":38000,"station_id":"ce4bhah2rcd13ifvqej0","pricing_plan_id":"cebpf4jnsgd1na2vs0mg"},{"bike_id":"63789488-69ca-4cfc-ab5a-7ccb9e54e62c","system_id":"levelo_inurba_marseille","lat":43.30189,"lon":5.36613,"is_reserved":false,"is_disabled":false,"rental_uris":{"android":"levelo://app?vid=63789488-69ca-4cfc-ab5a-7ccb9e54e62c","ios":"levelo://app?vid=63789488-69ca-4cfc-ab5a-7ccb9e54e62c"},"vehicle_type_id":"4","last_reported":1729548477,"current_range_meters":17600,"station_id":"ce4bgrh2rcd13ifvqc8g","pricing_plan_id":"cebpf4jnsgd1na2vs0mg"},{"bike_id":"2c1fae55-921d-4a72-86b0-19b559b438c8","system_id":"levelo_inurba_marseille","lat":43.31718,"lon":5.42405,"is_reserved":false,"is_disabled":false,"rental_uris":{"android":"levelo://app?vid=2c1fae55-921d-4a72-86b0-19b559b438c8","ios":"levelo://app?vid=2c1fae55-921d-4a72-86b0-19b559b438c8"},"vehicle_type_id":"4","last_reported":1729548477,"current_range_meters":38800,"station_id":"ce4bhp92rcd13ifvqhbg","pricing_plan_id":"cebpf4jnsgd1na2vs0mg"},{"bike_id":"7d0dca22-54ac-4aec-9ef8-730e60c415ca","system_id":"levelo_inurba_marseille","lat":43.27489,"lon":5.42457,"is_reserved":false,"is_disabled":false,"rental_uris":{"android":"levelo://app?vid=7d0dca22-54ac-4aec-9ef8-730e60c415ca","ios":"levelo://app?vid=7d0dca22-54ac-4aec-9ef8-730e60c415ca"},"vehicle_type_id":"4","last_reported":1729548477,"current_range_meters":38800,"station_id":"ce4bhn92rcd13ifvqgrg","pricing_plan_id":"cebpf4jnsgd1na2vs0mg"},{"bike_id":"9bc3d3cf-ed53-488c-ab4e-603183e83e96","system_id":"levelo_inurba_marseille","lat":43.287434,"lon":5.365344,"is_reserved":false,"is_disabled":false,"rental_uris":{"android":"levelo://app?vid=9bc3d3cf-ed53-488c-ab4e-603183e83e96","ios":"levelo://app?vid=9bc3d3cf-ed53-488c-ab4e-603183e83e96"},"vehicle_type_id":"4","last_reported":1729548477,"current_range_meters":33200,"station_id":"ce4bhah2rcd13ifvqei0","pricing_plan_id":"cebpf4jnsgd1na2vs0mg"},{"bike_id":"7719dc70-6190-499d-a809-4710c56c8e2f","system_id":"levelo_inurba_marseille","lat":43.30779,"lon":5.37637,"is_reserved":false,"is_disabled":false,"rental_uris":{"android":"levelo://app?vid=7719dc70-6190-499d-a809-4710c56c8e2f","ios":"levelo://app?vid=7719dc70-6190-499d-a809-4710c56c8e2f"},"vehicle_type_id":"4","last_reported":1729548477,"current_range_meters":38400,"station_id":"ce4bgv92rcd13ifvqcq0","pricing_plan_id":"cebpf4jnsgd1na2vs0mg"},{"bike_id":"1aa14e46-d046-4cdd-b86b-2ba1e9f61538","system_id":"levelo_inurba_marseille","lat":43.288463,"lon":5.35857,"is_reserved":false,"is_disabled":false,"rental_uris":{"android":"levelo://app?vid=1aa14e46-d046-4cdd-b86b-2ba1e9f61538","ios":"levelo://app?vid=1aa14e46-d046-4cdd-b86b-2ba1e9f61538"},"vehicle_type_id":"4","last_reported":1729548477,"current_range_meters":28800,"station_id":"ce4bhb12rcd13ifvqem0","pricing_plan_id":"cebpf4jnsgd1na2vs0mg"},{"bike_id":"629f20cc-dfa1-43ee-b781-b6b2b0f7726e","system_id":"levelo_inurba_marseille","lat":43.25118,"lon":5.40317,"is_reserved":false,"is_disabled":false,"rental_uris":{"android":"levelo://app?vid=629f20cc-dfa1-43ee-b781-b6b2b0f7726e","ios":"levelo://app?vid=629f20cc-dfa1-43ee-b781-b6b2b0f7726e"},"vehicle_type_id":"4","last_reported":1729548477,"current_range_meters":16400,"station_id":"ce4bhlh2rcd13ifvqgig","pricing_plan_id":"cebpf4jnsgd1na2vs0mg"},{"bike_id":"f91cd0e2-7fe1-48d9-8e04-1ed2d04f7c33","system_id":"levelo_inurba_marseille","lat":43.30883,"lon":5.39642,"is_reserved":false,"is_disabled":false,"rental_uris":{"android":"levelo://app?vid=f91cd0e2-7fe1-48d9-8e04-1ed2d04f7c33","ios":"levelo://app?vid=f91cd0e2-7fe1-48d9-8e04-1ed2d04f7c33"},"vehicle_type_id":"4","last_reported":1729548477,"current_range_meters":26000,"station_id":"ce4bh012rcd13ifvqcv0","pricing_plan_id":"cebpf4jnsgd1na2vs0mg"},{"bike_id":"44b2505f-d298-45bb-ac9a-ed4a09cbbda2","system_id":"levelo_inurba_marseille","lat":43.31167,"lon":5.38707,"is_reserved":false,"is_disabled":false,"rental_uris":{"android":"levelo://app?vid=44b2505f-d298-45bb-ac9a-ed4a09cbbda2","ios":"levelo://app?vid=44b2505f-d298-45bb-ac9a-ed4a09cbbda2"},"vehicle_type_id":"4","last_reported":1729548477,"current_range_meters":29600,"station_id":"ce4bgv12rcd13ifvqcp0","pricing_plan_id":"cebpf4jnsgd1na2vs0mg"},{"bike_id":"4fa46629-26b5-47a9-98a9-bc741508e7fa","system_id":"levelo_inurba_marseille","lat":43.24542,"lon":5.39524,"is_reserved":false,"is_disabled":false,"rental_uris":{"android":"levelo://app?vid=4fa46629-26b5-47a9-98a9-bc741508e7fa","ios":"levelo://app?vid=4fa46629-26b5-47a9-98a9-bc741508e7fa"},"vehicle_type_id":"4","last_reported":1729548477,"current_range_meters":38800,"station_id":"ce4bhlp2rcd13ifvqgjg","pricing_plan_id":"cebpf4jnsgd1na2vs0mg"},{"bike_id":"44d195bb-cfb4-4f79-a98c-1e55ff1748d3","system_id":"levelo_inurba_marseille","lat":43.3171,"lon":5.43708,"is_reserved":false,"is_disabled":false,"rental_uris":{"android":"levelo://app?vid=44d195bb-cfb4-4f79-a98c-1e55ff1748d3","ios":"levelo://app?vid=44d195bb-cfb4-4f79-a98c-1e55ff1748d3"},"vehicle_type_id":"4","last_reported":1729548477,"current_range_meters":38800,"station_id":"ce4bhp92rcd13ifvqhcg","pricing_plan_id":"cebpf4jnsgd1na2vs0mg"},{"bike_id":"f85dec27-df63-4a18-926e-66f10af2c426","system_id":"levelo_inurba_marseille","lat":43.301947,"lon":5.365997,"is_reserved":false,"is_disabled":false,"rental_uris":{"android":"levelo://app?vid=f85dec27-df63-4a18-926e-66f10af2c426","ios":"levelo://app?vid=f85dec27-df63-4a18-926e-66f10af2c426"},"vehicle_type_id":"4","last_reported":1729548477,"current_range_meters":22800,"station_id":"ce4bgrh2rcd13ifvqc8g","pricing_plan_id":"cebpf4jnsgd1na2vs0mg"},{"bike_id":"6fdf348c-fb83-43a6-b95a-6306c34cb63d","system_id":"levelo_inurba_marseille","lat":43.2396,"lon":5.36637,"is_reserved":false,"is_disabled":false,"rental_uris":{"android":"levelo://app?vid=6fdf348c-fb83-43a6-b95a-6306c34cb63d","ios":"levelo://app?vid=6fdf348c-fb83-43a6-b95a-6306c34cb63d"},"vehicle_type_id":"4","last_reported":1729548477,"current_range_meters":37600,"station_id":"ce4bhi12rcd13ifvqfp0","pricing_plan_id":"cebpf4jnsgd1na2vs0mg"},{"bike_id":"53d7cb12-ac3a-45c2-9ef5-95640ee067a9","system_id":"levelo_inurba_marseille","lat":43.28564,"lon":5.39491,"is_reserved":false,"is_disabled":false,"rental_uris":{"android":"levelo://app?vid=53d7cb12-ac3a-45c2-9ef5-95640ee067a9","ios":"levelo://app?vid=53d7cb12-ac3a-45c2-9ef5-95640ee067a9"},"vehicle_type_id":"4","last_reported":1729548477,"current_range_meters":35200,"station_id":"ce4bh292rcd13ifvqdg0","pricing_plan_id":"cebpf4jnsgd1na2vs0mg"},{"bike_id":"ae3fcb04-be9a-4eda-86cc-c69683243e47","system_id":"levelo_inurba_marseille","lat":43.23965,"lon":5.36637,"is_reserved":false,"is_disabled":false,"rental_uris":{"android":"levelo://app?vid=ae3fcb04-be9a-4eda-86cc-c69683243e47","ios":"levelo://app?vid=ae3fcb04-be9a-4eda-86cc-c69683243e47"},"vehicle_type_id":"4","last_reported":1729548477,"current_range_meters":38800,"station_id":"ce4bhi12rcd13ifvqfp0","pricing_plan_id":"cebpf4jnsgd1na2vs0mg"},{"bike_id":"e01af3fb-a46a-472a-a9ce-4d0d6e75d0db","system_id":"levelo_inurba_marseille","lat":43.28461,"lon":5.35886,"is_reserved":false,"is_disabled":false,"rental_uris":{"android":"levelo://app?vid=e01af3fb-a46a-472a-a9ce-4d0d6e75d0db","ios":"levelo://app?vid=e01af3fb-a46a-472a-a9ce-4d0d6e75d0db"},"vehicle_type_id":"4","last_reported":1729548477,"current_range_meters":39200,"station_id":"ce4bhah2rcd13ifvqei0","pricing_plan_id":"cebpf4jnsgd1na2vs0mg"},{"bike_id":"79d1c28e-5008-47b1-b89b-2a5f5d8adf90","system_id":"levelo_inurba_marseille","lat":43.30301,"lon":5.36893,"is_reserved":false,"is_disabled":false,"rental_uris":{"android":"levelo://app?vid=79d1c28e-5008-47b1-b89b-2a5f5d8adf90","ios":"levelo://app?vid=79d1c28e-5008-47b1-b89b-2a5f5d8adf90"},"vehicle_type_id":"4","last_reported":1729548477,"current_range_meters":30800,"station_id":"ce4bgqh2rcd13ifvqc5g","pricing_plan_id":"cebpf4jnsgd1na2vs0mg"},{"bike_id":"646844c9-add7-45a5-8871-97d72f5946a5","system_id":"levelo_inurba_marseille","lat":43.30348,"lon":5.41873,"is_reserved":false,"is_disabled":false,"rental_uris":{"android":"levelo://app?vid=646844c9-add7-45a5-8871-97d72f5946a5","ios":"levelo://app?vid=646844c9-add7-45a5-8871-97d72f5946a5"},"vehicle_type_id":"4","last_reported":1729548477,"current_range_meters":35200,"station_id":"ce4bhop2rcd13ifvqh7g","pricing_plan_id":"cebpf4jnsgd1na2vs0mg"},{"bike_id":"3286ebef-8744-475a-bc81-c7e2447d6f03","system_id":"levelo_inurba_marseille","lat":43.31712,"lon":5.43704,"is_reserved":false,"is_disabled":false,"rental_uris":{"android":"levelo://app?vid=3286ebef-8744-475a-bc81-c7e2447d6f03","ios":"levelo://app?vid=3286ebef-8744-475a-bc81-c7e2447d6f03"},"vehicle_type_id":"4","last_reported":1729548477,"current_range_meters":20400,"station_id":"ce4bhp92rcd13ifvqhcg","pricing_plan_id":"cebpf4jnsgd1na2vs0mg"},{"bike_id":"7186a4cc-670a-4f5d-956b-51d8aaf8646c","system_id":"levelo_inurba_marseille","lat":43.33717,"lon":5.39188,"is_reserved":false,"is_disabled":false,"rental_uris":{"android":"levelo://app?vid=7186a4cc-670a-4f5d-956b-51d8aaf8646c","ios":"levelo://app?vid=7186a4cc-670a-4f5d-956b-51d8aaf8646c"},"vehicle_type_id":"4","last_reported":1729548477,"current_range_meters":35600,"station_id":"ce4bhr92rcd13ifvqhsg","pricing_plan_id":"cebpf4jnsgd1na2vs0mg"},{"bike_id":"87f995ca-9a1f-4961-9637-6ef9dd05134e","system_id":"levelo_inurba_marseille","lat":43.30309,"lon":5.36892,"is_reserved":false,"is_disabled":false,"rental_uris":{"android":"levelo://app?vid=87f995ca-9a1f-4961-9637-6ef9dd05134e","ios":"levelo://app?vid=87f995ca-9a1f-4961-9637-6ef9dd05134e"},"vehicle_type_id":"4","last_reported":1729548477,"current_range_meters":16000,"station_id":"ce4bgqh2rcd13ifvqc5g","pricing_plan_id":"cebpf4jnsgd1na2vs0mg"},{"bike_id":"dc92ebb3-711b-4ddf-a29b-d9fe4444030f","system_id":"levelo_inurba_marseille","lat":43.28967,"lon":5.37837,"is_reserved":false,"is_disabled":false,"rental_uris":{"android":"levelo://app?vid=dc92ebb3-711b-4ddf-a29b-d9fe4444030f","ios":"levelo://app?vid=dc92ebb3-711b-4ddf-a29b-d9fe4444030f"},"vehicle_type_id":"4","last_reported":1729548477,"current_range_meters":30800,"station_id":"ce4bh9p2rcd13ifvqed0","pricing_plan_id":"cebpf4jnsgd1na2vs0mg"},{"bike_id":"c5857893-442c-48c0-8e95-134a1c912329","system_id":"levelo_inurba_marseille","lat":43.28153,"lon":5.42639,"is_reserved":false,"is_disabled":false,"rental_uris":{"android":"levelo://app?vid=c5857893-442c-48c0-8e95-134a1c912329","ios":"levelo://app?vid=c5857893-442c-48c0-8e95-134a1c912329"},"vehicle_type_id":"4","last_reported":1729548477,"current_range_meters":29600,"station_id":"ce4bhnh2rcd13ifvqgug","pricing_plan_id":"cebpf4jnsgd1na2vs0mg"},{"bike_id":"b6d3ee1b-dd46-42bc-ad40-96db8e46ace6","system_id":"levelo_inurba_marseille","lat":43.2803,"lon":5.36945,"is_reserved":false,"is_disabled":false,"rental_uris":{"android":"levelo://app?vid=b6d3ee1b-dd46-42bc-ad40-96db8e46ace6","ios":"levelo://app?vid=b6d3ee1b-dd46-42bc-ad40-96db8e46ace6"},"vehicle_type_id":"4","last_reported":1729548477,"current_range_meters":39200,"station_id":"ce4bha12rcd13ifvqef0","pricing_plan_id":"cebpf4jnsgd1na2vs0mg"},{"bike_id":"1997c5ee-82e9-48ff-847a-9a81d3053fae","system_id":"levelo_inurba_marseille","lat":43.28572,"lon":5.39493,"is_reserved":false,"is_disabled":false,"rental_uris":{"android":"levelo://app?vid=1997c5ee-82e9-48ff-847a-9a81d3053fae","ios":"levelo://app?vid=1997c5ee-82e9-48ff-847a-9a81d3053fae"},"vehicle_type_id":"4","last_reported":1729548477,"current_range_meters":37600,"station_id":"ce4bh292rcd13ifvqdg0","pricing_plan_id":"cebpf4jnsgd1na2vs0mg"},{"bike_id":"da7ea531-1c8a-442d-af49-f2bac8ef3c06","system_id":"levelo_inurba_marseille","lat":43.23963,"lon":5.36629,"is_reserved":false,"is_disabled":false,"rental_uris":{"android":"levelo://app?vid=da7ea531-1c8a-442d-af49-f2bac8ef3c06","ios":"levelo://app?vid=da7ea531-1c8a-442d-af49-f2bac8ef3c06"},"vehicle_type_id":"4","last_reported":1729548477,"current_range_meters":37600,"station_id":"ce4bhi12rcd13ifvqfp0","pricing_plan_id":"cebpf4jnsgd1na2vs0mg"},{"bike_id":"c3d8c5f8-b3d2-4acd-80b2-268d0bec6afe","system_id":"levelo_inurba_marseille","lat":43.2318,"lon":5.39989,"is_reserved":false,"is_disabled":false,"rental_uris":{"android":"levelo://app?vid=c3d8c5f8-b3d2-4acd-80b2-268d0bec6afe","ios":"levelo://app?vid=c3d8c5f8-b3d2-4acd-80b2-268d0bec6afe"},"vehicle_type_id":"4","last_reported":1729548477,"current_range_meters":38800,"station_id":"ce4bhn12rcd13ifvqgqg","pricing_plan_id":"cebpf4jnsgd1na2vs0mg"},{"bike_id":"36505273-afd0-4914-8de2-d26a7afd6aa0","system_id":"levelo_inurba_marseille","lat":43.31538,"lon":5.38029,"is_reserved":false,"is_disabled":false,"rental_uris":{"android":"levelo://app?vid=36505273-afd0-4914-8de2-d26a7afd6aa0","ios":"levelo://app?vid=36505273-afd0-4914-8de2-d26a7afd6aa0"},"vehicle_type_id":"4","last_reported":1729548477,"current_range_meters":27200,"station_id":"ce4bhsp2rcd13ifvqi50","pricing_plan_id":"cebpf4jnsgd1na2vs0mg"},{"bike_id":"fbe2d7d4-db9e-4884-8492-0044b8a902e8","system_id":"levelo_inurba_marseille","lat":43.30209,"lon":5.39461,"is_reserved":false,"is_disabled":false,"rental_uris":{"android":"levelo://app?vid=fbe2d7d4-db9e-4884-8492-0044b8a902e8","ios":"levelo://app?vid=fbe2d7d4-db9e-4884-8492-0044b8a902e8"},"vehicle_type_id":"4","last_reported":1729548477,"current_range_meters":30800,"station_id":"ce4bh0p2rcd13ifvqd70","pricing_plan_id":"cebpf4jnsgd1na2vs0mg"},{"bike_id":"d6ee8887-f9c2-4b98-9509-17908c626fbb","system_id":"levelo_inurba_marseille","lat":43.31482,"lon":5.37313,"is_reserved":false,"is_disabled":false,"rental_uris":{"android":"levelo://app?vid=d6ee8887-f9c2-4b98-9509-17908c626fbb","ios":"levelo://app?vid=d6ee8887-f9c2-4b98-9509-17908c626fbb"},"vehicle_type_id":"4","last_reported":1729548477,"current_range_meters":8000,"station_id":"ce4bgt12rcd13ifvqcd0","pricing_plan_id":"cebpf4jnsgd1na2vs0mg"},{"bike_id":"9007a594-20a1-40ae-a2a8-1e5578e5c99a","system_id":"levelo_inurba_marseille","lat":43.292969,"lon":5.374673,"is_reserved":false,"is_disabled":false,"rental_uris":{"android":"levelo://app?vid=9007a594-20a1-40ae-a2a8-1e5578e5c99a","ios":"levelo://app?vid=9007a594-20a1-40ae-a2a8-1e5578e5c99a"},"vehicle_type_id":"4","last_reported":1729548477,"current_range_meters":38000,"station_id":"ce4bgi12rcd13ifvqb70","pricing_plan_id":"cebpf4jnsgd1na2vs0mg"},{"bike_id":"4e6816b2-25af-4bcb-8671-9a709dcdb5dd","system_id":"levelo_inurba_marseille","lat":43.3089,"lon":5.39645,"is_reserved":false,"is_disabled":false,"rental_uris":{"android":"levelo://app?vid=4e6816b2-25af-4bcb-8671-9a709dcdb5dd","ios":"levelo://app?vid=4e6816b2-25af-4bcb-8671-9a709dcdb5dd"},"vehicle_type_id":"4","last_reported":1729548477,"current_range_meters":16000,"station_id":"ce4bh012rcd13ifvqcv0","pricing_plan_id":"cebpf4jnsgd1na2vs0mg"},{"bike_id":"ea2087a3-c32a-4158-91ea-aedbc76597e2","system_id":"levelo_inurba_marseille","lat":43.31368,"lon":5.3849,"is_reserved":false,"is_disabled":false,"rental_uris":{"android":"levelo://app?vid=ea2087a3-c32a-4158-91ea-aedbc76597e2","ios":"levelo://app?vid=ea2087a3-c32a-4158-91ea-aedbc76597e2"},"vehicle_type_id":"4","last_reported":1729548477,"current_range_meters":11600,"station_id":"ce4bgt92rcd13ifvqcf0","pricing_plan_id":"cebpf4jnsgd1na2vs0mg"},{"bike_id":"32f165e7-f8c0-4f35-9dc7-1c7070dc68a0","system_id":"levelo_inurba_marseille","lat":43.25085,"lon":5.39513,"is_reserved":false,"is_disabled":false,"rental_uris":{"android":"levelo://app?vid=32f165e7-f8c0-4f35-9dc7-1c7070dc68a0","ios":"levelo://app?vid=32f165e7-f8c0-4f35-9dc7-1c7070dc68a0"},"vehicle_type_id":"4","last_reported":1729548477,"current_range_meters":14400,"station_id":"ce4bhm12rcd13ifvqgkg","pricing_plan_id":"cebpf4jnsgd1na2vs0mg"},{"bike_id":"8fb59f4c-572b-4971-8cc3-3f504762a08e","system_id":"levelo_inurba_marseille","lat":43.29966,"lon":5.3718,"is_reserved":false,"is_disabled":false,"rental_uris":{"android":"levelo://app?vid=8fb59f4c-572b-4971-8cc3-3f504762a08e","ios":"levelo://app?vid=8fb59f4c-572b-4971-8cc3-3f504762a08e"},"vehicle_type_id":"4","last_reported":1729548477,"current_range_meters":9200,"station_id":"ce4bgr92rcd13ifvqc7g","pricing_plan_id":"cebpf4jnsgd1na2vs0mg"},{"bike_id":"81e4488d-b9df-4764-b508-9fca2a6674ff","system_id":"levelo_inurba_marseille","lat":43.23194,"lon":5.35545,"is_reserved":false,"is_disabled":false,"rental_uris":{"android":"levelo://app?vid=81e4488d-b9df-4764-b508-9fca2a6674ff","ios":"levelo://app?vid=81e4488d-b9df-4764-b508-9fca2a6674ff"},"vehicle_type_id":"4","last_reported":1729548477,"current_range_meters":38800,"station_id":"ce4bhu92rcd13ifvqi70","pricing_plan_id":"cebpf4jnsgd1na2vs0mg"},{"bike_id":"fb8f7b59-d989-473d-898d-495dac8f9d58","system_id":"levelo_inurba_marseille","lat":43.29963,"lon":5.41318,"is_reserved":false,"is_disabled":false,"rental_uris":{"android":"levelo://app?vid=fb8f7b59-d989-473d-898d-495dac8f9d58","ios":"levelo://app?vid=fb8f7b59-d989-473d-898d-495dac8f9d58"},"vehicle_type_id":"4","last_reported":1729548477,"current_range_meters":24800,"station_id":"ce4bhp12rcd13ifvqh9g","pricing_plan_id":"cebpf4jnsgd1na2vs0mg"},{"bike_id":"13ce1fc6-3976-4998-a0f0-80570e2b9e08","system_id":"levelo_inurba_marseille","lat":43.304296,"lon":5.388979,"is_reserved":false,"is_disabled":false,"rental_uris":{"android":"levelo://app?vid=13ce1fc6-3976-4998-a0f0-80570e2b9e08","ios":"levelo://app?vid=13ce1fc6-3976-4998-a0f0-80570e2b9e08"},"vehicle_type_id":"4","last_reported":1729548477,"current_range_meters":8000,"station_id":"chh1huq6cuj3fo74tm60","pricing_plan_id":"cebpf4jnsgd1na2vs0mg"},{"bike_id":"7ba1edf0-071a-4306-a872-ae29aec0d97c","system_id":"levelo_inurba_marseille","lat":43.284349,"lon":5.392032,"is_reserved":false,"is_disabled":false,"rental_uris":{"android":"levelo://app?vid=7ba1edf0-071a-4306-a872-ae29aec0d97c","ios":"levelo://app?vid=7ba1edf0-071a-4306-a872-ae29aec0d97c"},"vehicle_type_id":"4","last_reported":1729548477,"current_range_meters":34000,"station_id":"ce4bhoh2rcd13ifvqh5g","pricing_plan_id":"cebpf4jnsgd1na2vs0mg"},{"bike_id":"4b321f9c-d240-4200-bb60-7b70406f810a","system_id":"levelo_inurba_marseille","lat":43.25083,"lon":5.3951,"is_reserved":false,"is_disabled":false,"rental_uris":{"android":"levelo://app?vid=4b321f9c-d240-4200-bb60-7b70406f810a","ios":"levelo://app?vid=4b321f9c-d240-4200-bb60-7b70406f810a"},"vehicle_type_id":"4","last_reported":1729548477,"current_range_meters":16400,"station_id":"ce4bhm12rcd13ifvqgkg","pricing_plan_id":"cebpf4jnsgd1na2vs0mg"},{"bike_id":"a9002a5d-a535-42b5-88b4-26d81fd5238e","system_id":"levelo_inurba_marseille","lat":43.32337,"lon":5.40617,"is_reserved":false,"is_disabled":false,"rental_uris":{"android":"levelo://app?vid=a9002a5d-a535-42b5-88b4-26d81fd5238e","ios":"levelo://app?vid=a9002a5d-a535-42b5-88b4-26d81fd5238e"},"vehicle_type_id":"4","last_reported":1729548477,"current_range_meters":9600,"station_id":"ce4bhq92rcd13ifvqhjg","pricing_plan_id":"cebpf4jnsgd1na2vs0mg"},{"bike_id":"cccce7dc-07fc-4917-a83f-dc2f7561e477","system_id":"levelo_inurba_marseille","lat":43.32045,"lon":5.41559,"is_reserved":false,"is_disabled":false,"rental_uris":{"android":"levelo://app?vid=cccce7dc-07fc-4917-a83f-dc2f7561e477","ios":"levelo://app?vid=cccce7dc-07fc-4917-a83f-dc2f7561e477"},"vehicle_type_id":"4","last_reported":1729548477,"current_range_meters":39200,"station_id":"ce4bhq92rcd13ifvqhkg","pricing_plan_id":"cebpf4jnsgd1na2vs0mg"},{"bike_id":"59bd370d-df75-49d9-862b-f35c878d30d1","system_id":"levelo_inurba_marseille","lat":43.30914,"lon":5.36873,"is_reserved":false,"is_disabled":false,"rental_uris":{"android":"levelo://app?vid=59bd370d-df75-49d9-862b-f35c878d30d1","ios":"levelo://app?vid=59bd370d-df75-49d9-862b-f35c878d30d1"},"vehicle_type_id":"4","last_reported":1729548477,"current_range_meters":38800,"station_id":"ce4bguh2rcd13ifvqckg","pricing_plan_id":"cebpf4jnsgd1na2vs0mg"},{"bike_id":"0cf9ad16-1e68-46e9-8857-98fa3ea75071","system_id":"levelo_inurba_marseille","lat":43.29782,"lon":5.39347,"is_reserved":false,"is_disabled":false,"rental_uris":{"android":"levelo://app?vid=0cf9ad16-1e68-46e9-8857-98fa3ea75071","ios":"levelo://app?vid=0cf9ad16-1e68-46e9-8857-98fa3ea75071"},"vehicle_type_id":"4","last_reported":1729548477,"current_range_meters":36000,"station_id":"chh1huq6cuj3fo74tm60","pricing_plan_id":"cebpf4jnsgd1na2vs0mg"},{"bike_id":"12856ab4-7836-4172-93c9-3253306d4916","system_id":"levelo_inurba_marseille","lat":43.27617,"lon":5.3611,"is_reserved":false,"is_disabled":false,"rental_uris":{"android":"levelo://app?vid=12856ab4-7836-4172-93c9-3253306d4916","ios":"levelo://app?vid=12856ab4-7836-4172-93c9-3253306d4916"},"vehicle_type_id":"4","last_reported":1729548477,"current_range_meters":38800,"station_id":"ce4bgj92rcd13ifvqbe0","pricing_plan_id":"cebpf4jnsgd1na2vs0mg"},{"bike_id":"2adaa7e6-e7e4-4c71-94a8-6b6dda34ebf9","system_id":"levelo_inurba_marseille","lat":43.30306,"lon":5.40064,"is_reserved":false,"is_disabled":false,"rental_uris":{"android":"levelo://app?vid=2adaa7e6-e7e4-4c71-94a8-6b6dda34ebf9","ios":"levelo://app?vid=2adaa7e6-e7e4-4c71-94a8-6b6dda34ebf9"},"vehicle_type_id":"4","last_reported":1729548477,"current_range_meters":29600,"station_id":"","pricing_plan_id":"cebpf4jnsgd1na2vs0mg"},{"bike_id":"07a06f29-95a6-4e03-b330-ac0d52fc59a2","system_id":"levelo_inurba_marseille","lat":43.32485,"lon":5.36561,"is_reserved":false,"is_disabled":false,"rental_uris":{"android":"levelo://app?vid=07a06f29-95a6-4e03-b330-ac0d52fc59a2","ios":"levelo://app?vid=07a06f29-95a6-4e03-b330-ac0d52fc59a2"},"vehicle_type_id":"4","last_reported":1729548477,"current_range_meters":35600,"station_id":"ce4bhs12rcd13ifvqhvg","pricing_plan_id":"cebpf4jnsgd1na2vs0mg"},{"bike_id":"35f4d57c-eab5-498d-a24a-a3fe427e9367","system_id":"levelo_inurba_marseille","lat":43.29259,"lon":5.38441,"is_reserved":false,"is_disabled":false,"rental_uris":{"android":"levelo://app?vid=35f4d57c-eab5-498d-a24a-a3fe427e9367","ios":"levelo://app?vid=35f4d57c-eab5-498d-a24a-a3fe427e9367"},"vehicle_type_id":"4","last_reported":1729548477,"current_range_meters":28400,"station_id":"ce4bh692rcd13ifvqea0","pricing_plan_id":"cebpf4jnsgd1na2vs0mg"},{"bike_id":"c222ecdf-c704-4ada-9a17-3ff47379126f","system_id":"levelo_inurba_marseille","lat":43.2846,"lon":5.3588,"is_reserved":false,"is_disabled":false,"rental_uris":{"android":"levelo://app?vid=c222ecdf-c704-4ada-9a17-3ff47379126f","ios":"levelo://app?vid=c222ecdf-c704-4ada-9a17-3ff47379126f"},"vehicle_type_id":"4","last_reported":1729548477,"current_range_meters":29600,"station_id":"ce4bhah2rcd13ifvqei0","pricing_plan_id":"cebpf4jnsgd1na2vs0mg"},{"bike_id":"44457c21-b2f5-457d-88dd-e347a1411b87","system_id":"levelo_inurba_marseille","lat":43.24802,"lon":5.37454,"is_reserved":false,"is_disabled":false,"rental_uris":{"android":"levelo://app?vid=44457c21-b2f5-457d-88dd-e347a1411b87","ios":"levelo://app?vid=44457c21-b2f5-457d-88dd-e347a1411b87"},"vehicle_type_id":"4","last_reported":1729548477,"current_range_meters":27200,"station_id":"ce4bhgh2rcd13ifvqfb0","pricing_plan_id":"cebpf4jnsgd1na2vs0mg"},{"bike_id":"f057eada-6d36-4359-94e2-22282abc8fcc","system_id":"levelo_inurba_marseille","lat":43.25107,"lon":5.4032,"is_reserved":false,"is_disabled":false,"rental_uris":{"android":"levelo://app?vid=f057eada-6d36-4359-94e2-22282abc8fcc","ios":"levelo://app?vid=f057eada-6d36-4359-94e2-22282abc8fcc"},"vehicle_type_id":"4","last_reported":1729548477,"current_range_meters":38800,"station_id":"ce4bhlh2rcd13ifvqgig","pricing_plan_id":"cebpf4jnsgd1na2vs0mg"},{"bike_id":"8e8c1152-0d97-40bb-b78b-175b82389400","system_id":"levelo_inurba_marseille","lat":43.2396,"lon":5.36628,"is_reserved":false,"is_disabled":false,"rental_uris":{"android":"levelo://app?vid=8e8c1152-0d97-40bb-b78b-175b82389400","ios":"levelo://app?vid=8e8c1152-0d97-40bb-b78b-175b82389400"},"vehicle_type_id":"4","last_reported":1729548477,"current_range_meters":16000,"station_id":"ce4bhi12rcd13ifvqfp0","pricing_plan_id":"cebpf4jnsgd1na2vs0mg"},