{"last_updated":1729782578,"ttl":60,"version":"2.2","data":{"bikes":[{"bike_id":"4e718520-217c-4986-8e4a-4dbcae9b7210","system_id":"levelo_inurba_marseille","lat":43.27995,"lon":5.4166,"is_reserved":false,"is_disabled":false,"rental_uris":{"android":"levelo://app?vid=4e718520-217c-4986-8e4a-4dbcae9b7210","ios":"levelo://app?vid=4e718520-217c-4986-8e4a-4dbcae9b7210"},"vehicle_type_id":"4","last_reported":1729782578,"current_range_meters":8800,"station_id":"ce4bho12rcd13ifvqh1g","pricing_plan_id":"cebpf4jnsgd1na2vs0mg"},{"bike_id":"3ff587d7-13c0-497c-b1cd-25ae96fd8e85","system_id":"levelo_inurba_marseille","lat":43.23194,"lon":5.39981,"is_reserved":false,"is_disabled":false,"rental_uris":{"android":"levelo://app?vid=3ff587d7-13c0-497c-b1cd-25ae96fd8e85","ios":"levelo://app?vid=3ff587d7-13c0-497c-b1cd-25ae96fd8e85"},"vehicle_type_id":"4","last_reported":1729782578,"current_range_meters":30800,"station_id":"ce4bhn12rcd13ifvqgqg","pricing_plan_id":"cebpf4jnsgd1na2vs0mg"},{"bike_id":"0afde693-50fe-43aa-9381-391adbf97b97","system_id":"levelo_inurba_marseille","lat":43.26804,"lon":5.40264,"is_reserved":false,"is_disabled":false,"rental_uris":{"android":"levelo://app?vid=0afde693-50fe-43aa-9381-391adbf97b97","ios":"levelo://app?vid=0afde693-50fe-43aa-9381-391adbf97b97"},"vehicle_type_id":"4","last_reported":1729782578,"current_range_meters":38800,"station_id":"ce4bhgp2rcd13ifvqfe0","pricing_plan_id":"cebpf4jnsgd1na2vs0mg"},{"bike_id":"ec1c72be-e514-4a4a-b26a-c098e85f2355","system_id":"levelo_inurba_marseille","lat":43.29418,"lon":5.38616,"is_reserved":false,"is_disabled":false,"rental_uris":{"android":"levelo://app?vid=ec1c72be-e514-4a4a-b26a-c098e85f2355","ios":"levelo://app?vid=ec1c72be-e514-4a4a-b26a-c098e85f2355"},"vehicle_type_id":"4","last_reported":1729782578,"current_range_meters":33600,"station_id":"ce4bh2h2rcd13ifvqdh0","pricing_plan_id":"cebpf4jnsgd1na2vs0mg"},{"bike_id":"a5c63b27-584a-4084-b2dd-cdb7cc58aec0","system_id":"levelo_inurba_marseille","lat":43.23967,"lon":5.36634,"is_reserved":false,"is_disabled":false,"rental_uris":{"android":"levelo://app?vid=a5c63b27-584a-4084-b2dd-cdb7cc58aec0","ios":"levelo://app?vid=a5c63b27-584a-4084-b2dd-cdb7cc58aec0"},"vehicle_type_id":"4","last_reported":1729782578,"current_range_meters":22400,"station_id":"ce4bhi12rcd13ifvqfp0","pricing_plan_id":"cebpf4jnsgd1na2vs0mg"},{"bike_id":"d3a169b2-ff5d-4ed3-b061-8ffc5b41a65e","system_id":"levelo_inurba_marseille","lat":43.29569,"lon":5.39974,"is_reserved":false,"is_disabled":false,"rental_uris":{"android":"levelo://app?vid=d3a169b2-ff5d-4ed3-b061-8ffc5b41a65e","ios":"levelo://app?vid=d3a169b2-ff5d-4ed3-b061-8ffc5b41a65e"},"vehicle_type_id":"4","last_reported":1729782578,"current_range_meters":32400,"station_id":"ce4bh312rcd13ifvqdj0","pricing_plan_id":"cebpf4jnsgd1na2vs0mg"},{"bike_id":"47d9bcf2-2256-43cd-bc47-5132a35912b3","system_id":"levelo_inurba_marseille","lat":43.27623,"lon":5.36112,"is_reserved":false,"is_disabled":false,"rental_uris":{"android":"levelo://app?vid=47d9bcf2-2256-43cd-bc47-5132a35912b3","ios":"levelo://app?vid=47d9bcf2-2256-43cd-bc47-5132a35912b3"},"vehicle_type_id":"4","last_reported":1729782578,"current_range_meters":14000,"station_id":"ce4bgj92rcd13ifvqbe0","pricing_plan_id":"cebpf4jnsgd1na2vs0mg"},{"bike_id":"fa9cb782-ea95-4099-a2e9-6aba3d24ced6","system_id":"levelo_inurba_marseille","lat":43.3148,"lon":5.37308,"is_reserved":false,"is_disabled":false,"rental_uris":{"android":"levelo://app?vid=fa9cb782-ea95-4099-a2e9-6aba3d24ced6","ios":"levelo://app?vid=fa9cb782-ea95-4099-a2e9-6aba3d24ced6"},"vehicle_type_id":"4","last_reported":1729782578,"current_range_meters":24000,"station_id":"ce4bgt12rcd13ifvqcd0","pricing_plan_id":"cebpf4jnsgd1na2vs0mg"},{"bike_id":"6d666448-d0ce-41aa-a2f4-736c139c6fb8","system_id":"levelo_inurba_marseille","lat":43.31222,"lon":5.36862,"is_reserved":false,"is_disabled":false,"rental_uris":{"android":"levelo://app?vid=6d666448-d0ce-41aa-a2f4-736c139c6fb8","ios":"levelo://app?vid=6d666448-d0ce-41aa-a2f4-736c139c6fb8"},"vehicle_type_id":"4","last_reported":1729782578,"current_range_meters":32000,"station_id":"ce4bgl92rcd13ifvqbq0","pricing_plan_id":"cebpf4jnsgd1na2vs0mg"},{"bike_id":"019cc7d0-3c9f-4cba-8946-7cb5a80073d0","system_id":"levelo_inurba_marseille","lat":43.31327,"lon":5.39693,"is_reserved":false,"is_disabled":false,"rental_uris":{"android":"levelo://app?vid=019cc7d0-3c9f-4cba-8946-7cb5a80073d0","ios":"levelo://app?vid=019cc7d0-3c9f-4cba-8946-7cb5a80073d0"},"vehicle_type_id":"4","last_reported":1729782578,"current_range_meters":18800,"station_id":"ce4bgvp2rcd13ifvqcu0","pricing_plan_id":"cebpf4jnsgd1na2vs0mg"},{"bike_id":"9379528d-dc27-4009-8b9a-b522c1a3eceb","system_id":"levelo_inurba_marseille","lat":43.33725,"lon":5.39183,"is_reserved":false,"is_disabled":false,"rental_uris":{"android":"levelo://app?vid=9379528d-dc27-4009-8b9a-b522c1a3eceb","ios":"levelo://app?vid=9379528d-dc27-4009-8b9a-b522c1a3eceb"},"vehicle_type_id":"4","last_reported":1729782578,"current_range_meters":11600,"station_id":"ce4bhr92rcd13ifvqhsg","pricing_plan_id":"cebpf4jnsgd1na2vs0mg"},{"bike_id":"cbc2c58e-3843-422f-a9e6-344140df306e","system_id":"levelo_inurba_marseille","lat":43.28727,"lon":5.36078,"is_reserved":false,"is_disabled":false,"rental_uris":{"android":"levelo://app?vid=cbc2c58e-3843-422f-a9e6-344140df306e","ios":"levelo://app?vid=cbc2c58e-3843-422f-a9e6-344140df306e"},"vehicle_type_id":"4","last_reported":1729782578,"current_range_meters":20000,"station_id":"cki0cbj6b192h4jlfktg","pricing_plan_id":"cebpf4jnsgd1na2vs0mg"},{"bike_id":"ffa561bd-532f-42a6-ad15-392ec598e049","system_id":"levelo_inurba_marseille","lat":43.29523,"lon":5.39049,"is_reserved":false,"is_disabled":false,"rental_uris":{"android":"levelo://app?vid=ffa561bd-532f-42a6-ad15-392ec598e049","ios":"levelo://app?vid=ffa561bd-532f-42a6-ad15-392ec598e049"},"vehicle_type_id":"4","last_reported":1729782578,"current_range_meters":28000,"station_id":"ce4bh3p2rcd13ifvqdp0","pricing_plan_id":"cebpf4jnsgd1na2vs0mg"},{"bike_id":"ef22059a-81c3-4c62-a53a-9d9a2828aa75","system_id":"levelo_inurba_marseille","lat":43.3081,"lon":5.38153,"is_reserved":false,"is_disabled":false,"rental_uris":{"android":"levelo://app?vid=ef22059a-81c3-4c62-a53a-9d9a2828aa75","ios":"levelo://app?vid=ef22059a-81c3-4c62-a53a-9d9a2828aa75"},"vehicle_type_id":"4","last_reported":1729782578,"current_range_meters":20000,"station_id":"ce4bgt12rcd13ifvqce0","pricing_plan_id":"cebpf4jnsgd1na2vs0mg"},{"bike_id":"93b004d5-e088-4995-a4b0-f34bd0d548c5","system_id":"levelo_inurba_marseille","lat":43.3373,"lon":5.39186,"is_reserved":false,"is_disabled":false,"rental_uris":{"android":"levelo://app?vid=93b004d5-e088-4995-a4b0-f34bd0d548c5","ios":"levelo://app?vid=93b004d5-e088-4995-a4b0-f34bd0d548c5"},"vehicle_type_id":"4","last_reported":1729782578,"current_range_meters":26800,"station_id":"ce4bhr92rcd13ifvqhsg","pricing_plan_id":"cebpf4jnsgd1na2vs0mg"},{"bike_id":"13c9c0ac-d6a2-4139-af16-c63b66043d7f","system_id":"levelo_inurba_marseille","lat":43.29197,"lon":5.35807,"is_reserved":false,"is_disabled":false,"rental_uris":{"android":"levelo://app?vid=13c9c0ac-d6a2-4139-af16-c63b66043d7f","ios":"levelo://app?vid=13c9c0ac-d6a2-4139-af16-c63b66043d7f"},"vehicle_type_id":"4","last_reported":1729782578,"current_range_meters":39200,"station_id":"ce4bhb12rcd13ifvqel0","pricing_plan_id":"cebpf4jnsgd1na2vs0mg"},{"bike_id":"7a632fec-0e5c-4d95-9f73-b6a9f3a4cd45","system_id":"levelo_inurba_marseille","lat":43.31997,"lon":5.38165,"is_reserved":false,"is_disabled":false,"rental_uris":{"android":"levelo://app?vid=7a632fec-0e5c-4d95-9f73-b6a9f3a4cd45","ios":"levelo://app?vid=7a632fec-0e5c-4d95-9f73-b6a9f3a4cd45"},"vehicle_type_id":"4","last_reported":1729782578,"current_range_meters":6000,"station_id":"ce4bhr12rcd13ifvqhpg","pricing_plan_id":"cebpf4jnsgd1na2vs0mg"},{"bike_id":"54ad0a9f-4163-4470-b8da-affab219cb11","system_id":"levelo_inurba_marseille","lat":43.29517,"lon":5.39023,"is_reserved":false,"is_disabled":false,"rental_uris":{"android":"levelo://app?vid=54ad0a9f-4163-4470-b8da-affab219cb11","ios":"levelo://app?vid=54ad0a9f-4163-4470-b8da-affab219cb11"},"vehicle_type_id":"4","last_reported":1729782578,"current_range_meters":30400,"station_id":"ce4bh3p2rcd13ifvqdp0","pricing_plan_id":"cebpf4jnsgd1na2vs0mg"},{"bike_id":"95b15052-c6a7-4006-9817-8093ae1cc839","system_id":"levelo_inurba_marseille","lat":43.30898,"lon":5.37196,"is_reserved":false,"is_disabled":false,"rental_uris":{"android":"levelo://app?vid=95b15052-c6a7-4006-9817-8093ae1cc839","ios":"levelo://app?vid=95b15052-c6a7-4006-9817-8093ae1cc839"},"vehicle_type_id":"4","last_reported":1729782578,"current_range_meters":6400,"station_id":"ce4bguh2rcd13ifvqckg","pricing_plan_id":"cebpf4jnsgd1na2vs0mg"},{"bike_id":"4ca16b41-270f-47be-915c-8e7da7983ce3","system_id":"levelo_inurba_marseille","lat":43.24664,"lon":5.38169,"is_reserved":false,"is_disabled":false,"rental_uris":{"android":"levelo://app?vid=4ca16b41-270f-47be-915c-8e7da7983ce3","ios":"levelo://app?vid=4ca16b41-270f-47be-915c-8e7da7983ce3"},"vehicle_type_id":"4","last_reported":1729782578,"current_range_meters":17200,"station_id":"ce4bhih2rcd13ifvqfr0","pricing_plan_id":"cebpf4jnsgd1na2vs0mg"},{"bike_id":"5d7e855d-d0e4-4cc3-8449-d0b666ee367d","system_id":"levelo_inurba_marseille","lat":43.337444,"lon":5.374475,"is_reserved":false,"is_disabled":false,"rental_uris":{"android":"levelo://app?vid=5d7e855d-d0e4-4cc3-8449-d0b666ee367d","ios":"levelo://app?vid=5d7e855d-d0e4-4cc3-8449-d0b666ee367d"},"vehicle_type_id":"4","last_reported":1729782578,"current_range_meters":3200,"station_id":"","pricing_plan_id":"cebpf4jnsgd1na2vs0mg"},{"bike_id":"6b8602cc-4eb5-44a5-bf3c-7af9a7b25d57","system_id":"levelo_inurba_marseille","lat":43.28003,"lon":5.4167,"is_reserved":false,"is_disabled":false,"rental_uris":{"android":"levelo://app?vid=6b8602cc-4eb5-44a5-bf3c-7af9a7b25d57","ios":"levelo://app?vid=6b8602cc-4eb5-44a5-bf3c-7af9a7b25d57"},"vehicle_type_id":"4","last_reported":1729782578,"current_range_meters":35600,"station_id":"ce4bho12rcd13ifvqh1g","pricing_plan_id":"cebpf4jnsgd1na2vs0mg"},{"bike_id":"3e6dacef-7721-4fd6-908f-05fbf9bc0354","system_id":"levelo_inurba_marseille","lat":43.23197,"lon":5.35559,"is_reserved":false,"is_disabled":false,"rental_uris":{"android":"levelo://app?vid=3e6dacef-7721-4fd6-908f-05fbf9bc0354","ios":"levelo://app?vid=3e6dacef-7721-4fd6-908f-05fbf9bc0354"},"vehicle_type_id":"4","last_reported":1729782578,"current_range_meters":39200,"station_id":"ce4bhu92rcd13ifvqi70","pricing_plan_id":"cebpf4jnsgd1na2vs0mg"},{"bike_id":"e07687f3-ff74-4a2f-ade8-49bdf3792fe5","system_id":"levelo_inurba_marseille","lat":43.27994,"lon":5.40004,"is_reserved":false,"is_disabled":false,"rental_uris":{"android":"levelo://app?vid=e07687f3-ff74-4a2f-ade8-49bdf3792fe5","ios":"levelo://app?vid=e07687f3-ff74-4a2f-ade8-49bdf3792fe5"},"vehicle_type_id":"4","last_reported":1729782578,"current_range_meters":38800,"station_id":"ce4bho92rcd13ifvqh4g","pricing_plan_id":"cebpf4jnsgd1na2vs0mg"},{"bike_id":"af7dab8a-7f72-4bcf-b8d2-a221842a59cf","system_id":"levelo_inurba_marseille","lat":43.29734,"lon":5.37688,"is_reserved":false,"is_disabled":false,"rental_uris":{"android":"levelo://app?vid=af7dab8a-7f72-4bcf-b8d2-a221842a59cf","ios":"levelo://app?vid=af7dab8a-7f72-4bcf-b8d2-a221842a59cf"},"vehicle_type_id":"4","last_reported":1729782578,"current_range_meters":38800,"station_id":"ce4bgkh2rcd13ifvqbl0","pricing_plan_id":"cebpf4jnsgd1na2vs0mg"},{"bike_id":"1c0e16e6-e731-40bb-a143-d85bf7c5cc42","system_id":"levelo_inurba_marseille","lat":43.32332,"lon":5.40625,"is_reserved":false,"is_disabled":false,"rental_uris":{"android":"levelo://app?vid=1c0e16e6-e731-40bb-a143-d85bf7c5cc42","ios":"levelo://app?vid=1c0e16e6-e731-40bb-a143-d85bf7c5cc42"},"vehicle_type_id":"4","last_reported":1729782578,"current_range_meters":24800,"station_id":"ce4bhq92rcd13ifvqhjg","pricing_plan_id":"cebpf4jnsgd1na2vs0mg"},{"bike_id":"79f3be48-0227-4534-aac5-ded06bd7b521","system_id":"levelo_inurba_marseille","lat":43.302056,"lon":5.366301,"is_reserved":false,"is_disabled":false,"rental_uris":{"android":"levelo://app?vid=79f3be48-0227-4534-aac5-ded06bd7b521","ios":"levelo://app?vid=79f3be48-0227-4534-aac5-ded06bd7b521"},"vehicle_type_id":"4","last_reported":1729782578,"current_range_meters":4000,"station_id":"ce4bgrh2rcd13ifvqc8g","pricing_plan_id":"cebpf4jnsgd1na2vs0mg"},{"bike_id":"97ce6431-cdfe-4c86-8575-534875aed7f5","system_id":"levelo_inurba_marseille","lat":43.3053,"lon":5.36659,"is_reserved":false,"is_disabled":false,"rental_uris":{"android":"levelo://app?vid=97ce6431-cdfe-4c86-8575-534875aed7f5","ios":"levelo://app?vid=97ce6431-cdfe-4c86-8575-534875aed7f5"},"vehicle_type_id":"4","last_reported":1729782578,"current_range_meters":6800,"station_id":"","pricing_plan_id":"cebpf4jnsgd1na2vs0mg"},{"bike_id":"8f703631-4ec7-48e9-8b5c-f106111b51c5","system_id":"levelo_inurba_marseille","lat":43.28851,"lon":5.35859,"is_reserved":false,"is_disabled":false,"rental_uris":{"android":"levelo://app?vid=8f703631-4ec7-48e9-8b5c-f106111b51c5","ios":"levelo://app?vid=8f703631-4ec7-48e9-8b5c-f106111b51c5"},"vehicle_type_id":"4","last_reported":1729782578,"current_range_meters":38400,"station_id":"ce4bhb12rcd13ifvqem0","pricing_plan_id":"cebpf4jnsgd1na2vs0mg"},{"bike_id":"993678e4-7015-4a09-922e-b31c19fc343c","system_id":"levelo_inurba_marseille","lat":43.30143,"lon":5.38792,"is_reserved":false,"is_disabled":false,"rental_uris":{"android":"levelo://app?vid=993678e4-7015-4a09-922e-b31c19fc343c","ios":"levelo://app?vid=993678e4-7015-4a09-922e-b31c19fc343c"},"vehicle_type_id":"4","last_reported":1729782578,"current_range_meters":22000,"station_id":"ce4bghh2rcd13ifvqb60","pricing_plan_id":"cebpf4jnsgd1na2vs0mg"},{"bike_id":"84c2cac4-ed31-457d-8547-dad801fd8952","system_id":"levelo_inurba_marseille","lat":43.27056,"lon":5.40264,"is_reserved":false,"is_disabled":false,"rental_uris":{"android":"levelo://app?vid=84c2cac4-ed31-457d-8547-dad801fd8952","ios":"levelo://app?vid=84c2cac4-ed31-457d-8547-dad801fd8952"},"vehicle_type_id":"4","last_reported":1729782578,"current_range_meters":32000,"station_id":"ce4bhk92rcd13ifvqgc0","pricing_plan_id":"cebpf4jnsgd1na2vs0mg"},{"bike_id":"b69d0c64-0724-4563-ab4e-cdb5166b1cd5","system_id":"levelo_inurba_marseille","lat":43.33119,"lon":5.38217,"is_reserved":false,"is_disabled":false,"rental_uris":{"android":"levelo://app?vid=b69d0c64-0724-4563-ab4e-cdb5166b1cd5","ios":"levelo://app?vid=b69d0c64-0724-4563-ab4e-cdb5166b1cd5"},"vehicle_type_id":"4","last_reported":1729782578,"current_range_meters":19600,"station_id":"","pricing_plan_id":"cebpf4jnsgd1na2vs0mg"},{"bike_id":"53eb833d-5501-40d0-9c43-07c02e44ee31","system_id":"levelo_inurba_marseille","lat":43.27949,"lon":5.41042,"is_reserved":false,"is_disabled":false,"rental_uris":{"android":"levelo://app?vid=53eb833d-5501-40d0-9c43-07c02e44ee31","ios":"levelo://app?vid=53eb833d-5501-40d0-9c43-07c02e44ee31"},"vehicle_type_id":"4","last_reported":1729782578,"current_range_meters":17200,"station_id":"ce4bhnp2rcd13ifvqh0g","pricing_plan_id":"cebpf4jnsgd1na2vs0mg"},{"bike_id":"866da92f-eb6c-4428-8396-b0ce1ce7d1d1","system_id":"levelo_inurba_marseille","lat":43.26553,"lon":5.37288,"is_reserved":false,"is_disabled":false,"rental_uris":{"android":"levelo://app?vid=866da92f-eb6c-4428-8396-b0ce1ce7d1d1","ios":"levelo://app?vid=866da92f-eb6c-4428-8396-b0ce1ce7d1d1"},"vehicle_type_id":"4","last_reported":1729782578,"current_range_meters":35600,"station_id":"ce4bhg12rcd13ifvqf70","pricing_plan_id":"cebpf4jnsgd1na2vs0mg"},{"bike_id":"4c0ba162-7d20-4ded-94e5-9c4a6038e863","system_id":"levelo_inurba_marseille","lat":43.31238,"lon":5.36877,"is_reserved":false,"is_disabled":false,"rental_uris":{"android":"levelo://app?vid=4c0ba162-7d20-4ded-94e5-9c4a6038e863","ios":"levelo://app?vid=4c0ba162-7d20-4ded-94e5-9c4a6038e863"},"vehicle_type_id":"4","last_reported":1729782578,"current_range_meters":36800,"station_id":"ce4bgl92rcd13ifvqbq0","pricing_plan_id":"cebpf4jnsgd1na2vs0mg"},{"bike_id":"501ce1e1-931f-47b5-84ff-9907597964c5","system_id":"levelo_inurba_marseille","lat":43.30529,"lon":5.36542,"is_reserved":false,"is_disabled":false,"rental_uris":{"android":"levelo://app?vid=501ce1e1-931f-47b5-84ff-9907597964c5","ios":"levelo://app?vid=501ce1e1-931f-47b5-84ff-9907597964c5"},"vehicle_type_id":"4","last_reported":1729782578,"current_range_meters":18800,"station_id":"ce4bgs12rcd13ifvqcag","pricing_plan_id":"cebpf4jnsgd1na2vs0mg"},{"bike_id":"dc7b5260-5489-4a77-93d2-b6ea31ef4d13","system_id":"levelo_inurba_marseille","lat":43.28609,"lon":5.37066,"is_reserved":false,"is_disabled":false,"rental_uris":{"android":"levelo://app?vid=dc7b5260-5489-4a77-93d2-b6ea31ef4d13","ios":"levelo://app?vid=dc7b5260-5489-4a77-93d2-b6ea31ef4d13"},"vehicle_type_id":"4","last_reported":1729782578,"current_range_meters":22400,"station_id":"ce4bht12rcd13ifvqi60","pricing_plan_id":"cebpf4jnsgd1na2vs0mg"},{"bike_id":"21e7e15e-51f5-425d-87bb-d0b4f7eb88b0","system_id":"levelo_inurba_marseille","lat":43.29711,"lon":5.36619,"is_reserved":false,"is_disabled":false,"rental_uris":{"android":"levelo://app?vid=21e7e15e-51f5-425d-87bb-d0b4f7eb88b0","ios":"levelo://app?vid=21e7e15e-51f5-425d-87bb-d0b4f7eb88b0"},"vehicle_type_id":"4","last_reported":1729782578,"current_range_meters":30000,"station_id":"ce4bgn12rcd13ifvqbt0","pricing_plan_id":"cebpf4jnsgd1na2vs0mg"},{"bike_id":"640e9788-fb48-4506-b792-e20186cbd5fb","system_id":"levelo_inurba_marseille","lat":43.2894,"lon":5.36401,"is_reserved":false,"is_disabled":false,"rental_uris":{"android":"levelo://app?vid=640e9788-fb48-4506-b792-e20186cbd5fb","ios":"levelo://app?vid=640e9788-fb48-4506-b792-e20186cbd5fb"},"vehicle_type_id":"4","last_reported":1729782578,"current_range_meters":37600,"station_id":"ce4bhc92rcd13ifvqetg","pricing_plan_id":"cebpf4jnsgd1na2vs0mg"},{"bike_id":"09629091-33c9-4ab6-9037-3eb69713ff01","system_id":"levelo_inurba_marseille","lat":43.29619,"lon":5.37732,"is_reserved":false,"is_disabled":false,"rental_uris":{"android":"levelo://app?vid=09629091-33c9-4ab6-9037-3eb69713ff01","ios":"levelo://app?vid=09629091-33c9-4ab6-9037-3eb69713ff01"},"vehicle_type_id":"4","last_reported":1729782578,"current_range_meters":38800,"station_id":"ce4bgi92rcd13ifvqb90","pricing_plan_id":"cebpf4jnsgd1na2vs0mg"},{"bike_id":"21a6af25-478e-4faa-ba5f-f92fc8f24b29","system_id":"levelo_inurba_marseille","lat":43.29194,"lon":5.35805,"is_reserved":false,"is_disabled":false,"rental_uris":{"android":"levelo://app?vid=21a6af25-478e-4faa-ba5f-f92fc8f24b29","ios":"levelo://app?vid=21a6af25-478e-4faa-ba5f-f92fc8f24b29"},"vehicle_type_id":"4","last_reported":1729782578,"current_range_meters":38400,"station_id":"ce4bhb12rcd13ifvqel0","pricing_plan_id":"cebpf4jnsgd1na2vs0mg"},{"bike_id":"deac3ed8-b0a2-4768-a51b-bb7d84f0ef51","system_id":"levelo_inurba_marseille","lat":43.28612,"lon":5.37067,"is_reserved":false,"is_disabled":false,"rental_uris":{"android":"levelo://app?vid=deac3ed8-b0a2-4768-a51b-bb7d84f0ef51","ios":"levelo://app?vid=deac3ed8-b0a2-4768-a51b-bb7d84f0ef51"},"vehicle_type_id":"4","last_reported":1729782578,"current_range_meters":26000,"station_id":"ce4bht12rcd13ifvqi60","pricing_plan_id":"cebpf4jnsgd1na2vs0mg"},{"bike_id":"1c9feb1f-b3b8-4696-8ad3-26987d006485","system_id":"levelo_inurba_marseille","lat":43.30465,"lon":5.37907,"is_reserved":false,"is_disabled":false,"rental_uris":{"android":"levelo://app?vid=1c9feb1f-b3b8-4696-8ad3-26987d006485","ios":"levelo://app?vid=1c9feb1f-b3b8-4696-8ad3-26987d006485"},"vehicle_type_id":"4","last_reported":1729782578,"current_range_meters":15200,"station_id":"ce4bgup2rcd13ifvqcn0","pricing_plan_id":"cebpf4jnsgd1na2vs0mg"},{"bike_id":"d193b84d-037c-4002-b2bd-51762943c412","system_id":"levelo_inurba_marseille","lat":43.25871,"lon":5.39896,"is_reserved":false,"is_disabled":false,"rental_uris":{"android":"levelo://app?vid=d193b84d-037c-4002-b2bd-51762943c412","ios":"levelo://app?vid=d193b84d-037c-4002-b2bd-51762943c412"},"vehicle_type_id":"4","last_reported":1729782578,"current_range_meters":9600,"station_id":"ce4bhl92rcd13ifvqghg","pricing_plan_id":"cebpf4jnsgd1na2vs0mg"},{"bike_id":"8c71dfa7-3435-4c76-a9ed-1de183118e5d","system_id":"levelo_inurba_marseille","lat":43.3123,"lon":5.36872,"is_reserved":false,"is_disabled":false,"rental_uris":{"android":"levelo://app?vid=8c71dfa7-3435-4c76-a9ed-1de183118e5d","ios":"levelo://app?vid=8c71dfa7-3435-4c76-a9ed-1de183118e5d"},"vehicle_type_id":"4","last_reported":1729782578,"current_range_meters":33600,"station_id":"ce4bgl92rcd13ifvqbq0","pricing_plan_id":"cebpf4jnsgd1na2vs0mg"},{"bike_id":"d4c96e24-4bae-4c1a-bd3a-5bdabc26251e","system_id":"levelo_inurba_marseille","lat":43.25495,"lon":5.37651,"is_reserved":false,"is_disabled":false,"rental_uris":{"android":"levelo://app?vid=d4c96e24-4bae-4c1a-bd3a-5bdabc26251e","ios":"levelo://app?vid=d4c96e24-4bae-4c1a-bd3a-5bdabc26251e"},"vehicle_type_id":"4","last_reported":1729782578,"current_range_meters":34000,"station_id":"ce4bhh12rcd13ifvqff0","pricing_plan_id":"cebpf4jnsgd1na2vs0mg"},{"bike_id":"8f40f5a1-dff7-42c7-90d7-c956ea526b89","system_id":"levelo_inurba_marseille","lat":43.30141,"lon":5.37413,"is_reserved":false,"is_disabled":false,"rental_uris":{"android":"levelo://app?vid=8f40f5a1-dff7-42c7-90d7-c956ea526b89","ios":"levelo://app?vid=8f40f5a1-dff7-42c7-90d7-c956ea526b89"},"vehicle_type_id":"4","last_reported":1729782578,"current_range_meters":36800,"station_id":"ce4bgs92rcd13ifvqcc0","pricing_plan_id":"cebpf4jnsgd1na2vs0mg"},{"bike_id":"be8fbca4-3dcd-4e0e-96d2-8c570f59713c","system_id":"levelo_inurba_marseille","lat":43.32492,"lon":5.36566,"is_reserved":false,"is_disabled":false,"rental_uris":{"android":"levelo://app?vid=be8fbca4-3dcd-4e0e-96d2-8c570f59713c","ios":"levelo://app?vid=be8fbca4-3dcd-4e0e-96d2-8c570f59713c"},"vehicle_type_id":"4","last_reported":1729782578,"current_range_meters":24400,"station_id":"ce4bhs12rcd13ifvqhvg","pricing_plan_id":"cebpf4jnsgd1na2vs0mg"},{"bike_id":"c91d363d-807d-421e-938e-1b2fbfb9ea52","system_id":"levelo_inurba_marseille","lat":43.29422,"lon":5.38612,"is_reserved":false,"is_disabled":false,"rental_uris":{"android":"levelo://app?vid=c91d363d-807d-421e-938e-1b2fbfb9ea52","ios":"levelo://app?vid=c91d363d-807d-421e-938e-1b2fbfb9ea52"},"vehicle_type_id":"4","last_reported":1729782578,"current_range_meters":34800,"station_id":"ce4bh2h2rcd13ifvqdh0","pricing_plan_id":"cebpf4jnsgd1na2vs0mg"},{"bike_id":"34fe91d1-d646-41f2-a275-a7b3cddcdb30","system_id":"levelo_inurba_marseille","lat":43.29709,"lon":5.37698,"is_reserved":false,"is_disabled":false,"rental_uris":{"android":"levelo://app?vid=34fe91d1-d646-41f2-a275-a7b3cddcdb30","ios":"levelo://app?vid=34fe91d1-d646-41f2-a275-a7b3cddcdb30"},"vehicle_type_id":"4","last_reported":1729782578,"current_range_meters":15200,"station_id":"ce4bgkh2rcd13ifvqbl0","pricing_plan_id":"cebpf4jnsgd1na2vs0mg"},{"bike_id":"32745b13-c55b-4aa9-82ac-9fbdcc1e90be","system_id":"levelo_inurba_marseille","lat":43.28371,"lon":5.40074,"is_reserved":false,"is_disabled":false,"rental_uris":{"android":"levelo://app?vid=32745b13-c55b-4aa9-82ac-9fbdcc1e90be","ios":"levelo://app?vid=32745b13-c55b-4aa9-82ac-9fbdcc1e90be"},"vehicle_type_id":"4","last_reported":1729782578,"current_range_meters":4400,"station_id":"","pricing_plan_id":"cebpf4jnsgd1na2vs0mg"},{"bike_id":"a389a759-ac16-41bb-a668-b8d634b74462","system_id":"levelo_inurba_marseille","lat":43.27185,"lon":5.40996,"is_reserved":false,"is_disabled":false,"rental_uris":{"android":"levelo://app?vid=a389a759-ac16-41bb-a668-b8d634b74462","ios":"levelo://app?vid=a389a759-ac16-41bb-a668-b8d634b74462"},"vehicle_type_id":"4","last_reported":1729782578,"current_range_meters":11200,"station_id":"ce4bhl12rcd13ifvqgf0","pricing_plan_id":"cebpf4jnsgd1na2vs0mg"},{"bike_id":"8f920d18-207c-44b4-8fc3-656ee2c7c5f6","system_id":"levelo_inurba_marseille","lat":43.30274,"lon":5.37724,"is_reserved":false,"is_disabled":false,"rental_uris":{"android":"levelo://app?vid=8f920d18-207c-44b4-8fc3-656ee2c7c5f6","ios":"levelo://app?vid=8f920d18-207c-44b4-8fc3-656ee2c7c5f6"},"vehicle_type_id":"4","last_reported":1729782578,"current_range_meters":33600,"station_id":"ce4bguh2rcd13ifvqcj0","pricing_plan_id":"cebpf4jnsgd1na2vs0mg"},{"bike_id":"921d27ad-61f7-4a04-b61a-117e5024ac6d","system_id":"levelo_inurba_marseille","lat":43.30411,"lon":5.41288,"is_reserved":false,"is_disabled":false,"rental_uris":{"android":"levelo://app?vid=921d27ad-61f7-4a04-b61a-117e5024ac6d","ios":"levelo://app?vid=921d27ad-61f7-4a04-b61a-117e5024ac6d"},"vehicle_type_id":"4","last_reported":1729782578,"current_range_meters":21600,"station_id":"ce4bhop2rcd13ifvqh8g","pricing_plan_id":"cebpf4jnsgd1na2vs0mg"},{"bike_id":"9f10b58d-f55f-45ab-aac6-158c0e70f236","system_id":"levelo_inurba_marseille","lat":43.28156,"lon":5.42651,"is_reserved":false,"is_disabled":false,"rental_uris":{"android":"levelo://app?vid=9f10b58d-f55f-45ab-aac6-158c0e70f236","ios":"levelo://app?vid=9f10b58d-f55f-45ab-aac6-158c0e70f236"},"vehicle_type_id":"4","last_reported":1729782578,"current_range_meters":8400,"station_id":"ce4bhnh2rcd13ifvqgug","pricing_plan_id":"cebpf4jnsgd1na2vs0mg"},{"bike_id":"309bf172-f8ce-4458-b0b5-4beeae716b7e","system_id":"levelo_inurba_marseille","lat":43.27179,"lon":5.40995,"is_reserved":false,"is_disabled":false,"rental_uris":{"android":"levelo://app?vid=309bf172-f8ce-4458-b0b5-4beeae716b7e","ios":"levelo://app?vid=309bf172-f8ce-4458-b0b5-4beeae716b7e"},"vehicle_type_id":"4","last_reported":1729782578,"current_range_meters":25200,"station_id":"ce4bhl12rcd13ifvqgf0","pricing_plan_id":"cebpf4jnsgd1na2vs0mg"},{"bike_id":"7bb79c46-a33e-4794-9217-de289f0870b3","system_id":"levelo_inurba_marseille","lat":43.28268,"lon":5.35067,"is_reserved":false,"is_disabled":false,"rental_uris":{"android":"levelo://app?vid=7bb79c46-a33e-4794-9217-de289f0870b3","ios":"levelo://app?vid=7bb79c46-a33e-4794-9217-de289f0870b3"},"vehicle_type_id":"4","last_reported":1729782578,"current_range_meters":6800,"station_id":"ce4bhbp2rcd13ifvqerg","pricing_plan_id":"cebpf4jnsgd1na2vs0mg"},{"bike_id":"4b97e858-5672-478e-8591-2d846fe9ca35","system_id":"levelo_inurba_marseille","lat":43.28463,"lon":5.35884,"is_reserved":false,"is_disabled":false,"rental_uris":{"android":"levelo://app?vid=4b97e858-5672-478e-8591-2d846fe9ca35","ios":"levelo://app?vid=4b97e858-5672-478e-8591-2d846fe9ca35"},"vehicle_type_id":"4","last_reported":1729782578,"current_range_meters":5600,"station_id":"ce4bhah2rcd13ifvqei0","pricing_plan_id":"cebpf4jnsgd1na2vs0mg"},{"bike_id":"e7877eb5-8a98-4458-b75b-5d4bc4e035fd","system_id":"levelo_inurba_marseille","lat":43.301196,"lon":5.394232,"is_reserved":false,"is_disabled":false,"rental_uris":{"android":"levelo://app?vid=e7877eb5-8a98-4458-b75b-5d4bc4e035fd","ios":"levelo://app?vid=e7877eb5-8a98-4458-b75b-5d4bc4e035fd"},"vehicle_type_id":"4","last_reported":1729782578,"current_range_meters":8800,"station_id":"ce4bh392rcd13ifvqdl0","pricing_plan_id":"cebpf4jnsgd1na2vs0mg"},{"bike_id":"5e937ec3-1bee-455c-9456-b29e68227982","system_id":"levelo_inurba_marseille","lat":43.27383,"lon":5.3628,"is_reserved":false,"is_disabled":false,"rental_uris":{"android":"levelo://app?vid=5e937ec3-1bee-455c-9456-b29e68227982","ios":"levelo://app?vid=5e937ec3-1bee-455c-9456-b29e68227982"},"vehicle_type_id":"4","last_reported":1729782578,"current_range_meters":34000,"station_id":"ce4bhbh2rcd13ifvqeo0","pricing_plan_id":"cebpf4jnsgd1na2vs0mg"},{"bike_id":"3c95d444-da12-4692-a41d-d9da28a7a2d7","system_id":"levelo_inurba_marseille","lat":43.24657,"lon":5.38168,"is_reserved":false,"is_disabled":false,"rental_uris":{"android":"levelo://app?vid=3c95d444-da12-4692-a41d-d9da28a7a2d7","ios":"levelo://app?vid=3c95d444-da12-4692-a41d-d9da28a7a2d7"},"vehicle_type_id":"4","last_reported":1729782578,"current_range_meters":7200,"station_id":"ce4bhih2rcd13ifvqfr0","pricing_plan_id":"cebpf4jnsgd1na2vs0mg"},{"bike_id":"95f70a23-3f9b-4773-a61e-dff0d3b06c5e","system_id":"levelo_inurba_marseille","lat":43.3014,"lon":5.37423,"is_reserved":false,"is_disabled":false,"rental_uris":{"android":"levelo://app?vid=95f70a23-3f9b-4773-a61e-dff0d3b06c5e","ios":"levelo://app?vid=95f70a23-3f9b-4773-a61e-dff0d3b06c5e"},"vehicle_type_id":"4","last_reported":1729782578,"current_range_meters":36400,"station_id":"ce4bgs92rcd13ifvqcc0","pricing_plan_id":"cebpf4jnsgd1na2vs0mg"},{"bike_id":"ea8655e1-443a-4a9c-b77d-6349ea05d9e6","system_id":"levelo_inurba_marseille","lat":43.2904,"lon":5.39966,"is_reserved":false,"is_disabled":false,"rental_uris":{"android":"levelo://app?vid=ea8655e1-443a-4a9c-b77d-6349ea05d9e6","ios":"levelo://app?vid=ea8655e1-443a-4a9c-b77d-6349ea05d9e6"},"vehicle_type_id":"4","last_reported":1729782578,"current_range_meters":36000,"station_id":"ce4bh392rcd13ifvqdm0","pricing_plan_id":"cebpf4jnsgd1na2vs0mg"},{"bike_id":"ee56864d-0289-4ab0-b1d9-4e118a6c50f5","system_id":"levelo_inurba_marseille","lat":43.34144,"lon":5.40897,"is_reserved":false,"is_disabled":false,"rental_uris":{"android":"levelo://app?vid=ee56864d-0289-4ab0-b1d9-4e118a6c50f5","ios":"levelo://app?vid=ee56864d-0289-4ab0-b1d9-4e118a6c50f5"},"vehicle_type_id":"4","last_reported":1729782578,"current_range_meters":38800,"station_id":"ce4bhqh2rcd13ifvqhlg","pricing_plan_id":"cebpf4jnsgd1na2vs0mg"},{"bike_id":"c52c9d61-8383-4dc8-8dc8-0eb5fbf3d3cb","system_id":"levelo_inurba_marseille","lat":43.28612,"lon":5.35107,"is_reserved":false,"is_disabled":false,"rental_uris":{"android":"levelo://app?vid=c52c9d61-8383-4dc8-8dc8-0eb5fbf3d3cb","ios":"levelo://app?vid=c52c9d61-8383-4dc8-8dc8-0eb5fbf3d3cb"},"vehicle_type_id":"4","last_reported":1729782578,"current_range_meters":30000,"station_id":"ce4bhch2rcd13ifvqeug","pricing_plan_id":"cebpf4jnsgd1na2vs0mg"},{"bike_id":"e875f3da-1dda-4b60-9052-fa1b16be0251","system_id":"levelo_inurba_marseille","lat":43.3171,"lon":5.43718,"is_reserved":false,"is_disabled":false,"rental_uris":{"android":"levelo://app?vid=e875f3da-1dda-4b60-9052-fa1b16be0251","ios":"levelo://app?vid=e875f3da-1dda-4b60-9052-fa1b16be0251"},"vehicle_type_id":"4","last_reported":1729782578,"current_range_meters":19200,"station_id":"ce4bhp92rcd13ifvqhcg","pricing_plan_id":"cebpf4jnsgd1na2vs0mg"},{"bike_id":"fc819c30-35a6-44d7-a8e4-c1b987626c26","system_id":"levelo_inurba_marseille","lat":43.28442,"lon":5.39199,"is_reserved":false,"is_disabled":false,"rental_uris":{"android":"levelo://app?vid=fc819c30-35a6-44d7-a8e4-c1b987626c26","ios":"levelo://app?vid=fc819c30-35a6-44d7-a8e4-c1b987626c26"},"vehicle_type_id":"4","last_reported":1729782578,"current_range_meters":4800,"station_id":"ce4bhoh2rcd13ifvqh5g","pricing_plan_id":"cebpf4jnsgd1na2vs0mg"},{"bike_id":"d3e2f2eb-7c3f-42d5-84f2-9aeb0d59e8f5","system_id":"levelo_inurba_marseille","lat":43.23968,"lon":5.36637,"is_reserved":false,"is_disabled":false,"rental_uris":{"android":"levelo://app?vid=d3e2f2eb-7c3f-42d5-84f2-9aeb0d59e8f5","ios":"levelo://app?vid=d3e2f2eb-7c3f-42d5-84f2-9aeb0d59e8f5"},"vehicle_type_id":"4","last_reported":1729782578,"current_range_meters":9600,"station_id":"ce4bhi12rcd13ifvqfp0","pricing_plan_id":"cebpf4jnsgd1na2vs0mg"},{"bike_id":"5236da62-48c8-457a-9408-07654233025b","system_id":"levelo_inurba_marseille","lat":43.28416,"lon":5.37524,"is_reserved":false,"is_disabled":false,"rental_uris":{"android":"levelo://app?vid=5236da62-48c8-457a-9408-07654233025b","ios":"levelo://app?vid=5236da62-48c8-457a-9408-07654233025b"},"vehicle_type_id":"4","last_reported":1729782578,"current_range_meters":8000,"station_id":"ce4bh412rcd13ifvqds0","pricing_plan_id":"cebpf4jnsgd1na2vs0mg"},{"bike_id":"111e2c11-511c-49e5-9427-2ef5127610de","system_id":"levelo_inurba_marseille","lat":43.31168,"lon":5.38723,"is_reserved":false,"is_disabled":false,"rental_uris":{"android":"levelo://app?vid=111e2c11-511c-49e5-9427-2ef5127610de","ios":"levelo://app?vid=111e2c11-511c-49e5-9427-2ef5127610de"},"vehicle_type_id":"4","last_reported":1729782578,"current_range_meters":13600,"station_id":"ce4bgv12rcd13ifvqcp0","pricing_plan_id":"cebpf4jnsgd1na2vs0mg"},{"bike_id":"f7748faf-34ae-4d56-bdad-91026e7f5156","system_id":"levelo_inurba_marseille","lat":43.32111,"lon":5.36769,"is_reserved":false,"is_disabled":false,"rental_uris":{"android":"levelo://app?vid=f7748faf-34ae-4d56-bdad-91026e7f5156","ios":"levelo://app?vid=f7748faf-34ae-4d56-bdad-91026e7f5156"},"vehicle_type_id":"4","last_reported":1729782578,"current_range_meters":15200,"station_id":"ce4bhrh2rcd13ifvqhug","pricing_plan_id":"cebpf4jnsgd1na2vs0mg"},{"bike_id":"94d1a1d7-70a7-49dc-a608-084596618dc8","system_id":"levelo_inurba_marseille","lat":43.30127,"lon":5.39862,"is_reserved":false,"is_disabled":false,"rental_uris":{"android":"levelo://app?vid=94d1a1d7-70a7-49dc-a608-084596618dc8","ios":"levelo://app?vid=94d1a1d7-70a7-49dc-a608-084596618dc8"},"vehicle_type_id":"4","last_reported":1729782578,"current_range_meters":6800,"station_id":"ce4bh0h2rcd13ifvqd40","pricing_plan_id":"cebpf4jnsgd1na2vs0mg"},{"bike_id":"91bfa645-9cfa-4568-8072-595cbd3b9c72","system_id":"levelo_inurba_marseille","lat":43.28911,"lon":5.36107,"is_reserved":false,"is_disabled":false,"rental_uris":{"android":"levelo://app?vid=91bfa645-9cfa-4568-8072-595cbd3b9c72","ios":"levelo://app?vid=91bfa645-9cfa-4568-8072-595cbd3b9c72"},"vehicle_type_id":"4","last_reported":1729782578,"current_range_meters":23200,"station_id":"","pricing_plan_id":"cebpf4jnsgd1na2vs0mg"},{"bike_id":"8c4e9397-cd36-4e2f-be92-2d6744d21aed","system_id":"levelo_inurba_marseille","lat":43.29532,"lon":5.37501,"is_reserved":false,"is_disabled":false,"rental_uris":{"android":"levelo://app?vid=8c4e9397-cd36-4e2f-be92-2d6744d21aed","ios":"levelo://app?vid=8c4e9397-cd36-4e2f-be92-2d6744d21aed"},"vehicle_type_id":"4","last_reported":1729782578,"current_range_meters":16800,"station_id":"ce4bgkp2rcd13ifvqbmg","pricing_plan_id":"cebpf4jnsgd1na2vs0mg"},{"bike_id":"ac607088-0940-44e0-bd2e-4aa6d1e40af8","system_id":"levelo_inurba_marseille","lat":43.29014,"lon":5.35612,"is_reserved":false,"is_disabled":false,"rental_uris":{"android":"levelo://app?vid=ac607088-0940-44e0-bd2e-4aa6d1e40af8","ios":"levelo://app?vid=ac607088-0940-44e0-bd2e-4aa6d1e40af8"},"vehicle_type_id":"4","last_reported":1729782578,"current_range_meters":12800,"station_id":"ce4bhb92rcd13ifvqen0","pricing_plan_id":"cebpf4jnsgd1na2vs0mg"},{"bike_id":"0300ae8c-d89e-4fc9-94c4-e4571dd93d5f","system_id":"levelo_inurba_marseille","lat":43.25929,"lon":5.40908,"is_reserved":false,"is_disabled":false,"rental_uris":{"android":"levelo://app?vid=0300ae8c-d89e-4fc9-94c4-e4571dd93d5f","ios":"levelo://app?vid=0300ae8c-d89e-4fc9-94c4-e4571dd93d5f"},"vehicle_type_id":"4","last_reported":1729782578,"current_range_meters":30400,"station_id":"ce4bhm92rcd13ifvqglg","pricing_plan_id":"cebpf4jnsgd1na2vs0mg"},{"bike_id":"e790a426-66db-4bd8-abb3-08be8bd377b1","system_id":"levelo_inurba_marseille","lat":43.29262,"lon":5.38436,"is_reserved":false,"is_disabled":false,"rental_uris":{"android":"levelo://app?vid=e790a426-66db-4bd8-abb3-08be8bd377b1","ios":"levelo://app?vid=e790a426-66db-4bd8-abb3-08be8bd377b1"},"vehicle_type_id":"4","last_reported":1729782578,"current_range_meters":5600,"station_id":"ce4bh692rcd13ifvqea0","pricing_plan_id":"cebpf4jnsgd1na2vs0mg"},{"bike_id":"3e1f03ac-5caf-407c-a6b7-afc161387c4d","system_id":"levelo_inurba_marseille","lat":43.27378,"lon":5.36267,"is_reserved":false,"is_disabled":false,"rental_uris":{"android":"levelo://app?vid=3e1f03ac-5caf-407c-a6b7-afc161387c4d","ios":"levelo://app?vid=3e1f03ac-5caf-407c-a6b7-afc161387c4d"},"vehicle_type_id":"4","last_reported":1729782578,"current_range_meters":19200,"station_id":"ce4bhbh2rcd13ifvqeo0","pricing_plan_id":"cebpf4jnsgd1na2vs0mg"},{"bike_id":"080955c6-6640-47b3-a1ea-309f78463fca","system_id":"levelo_inurba_marseille","lat":43.29621,"lon":5.37152,"is_reserved":false,"is_disabled":false,"rental_uris":{"android":"levelo://app?vid=080955c6-6640-47b3-a1ea-309f78463fca","ios":"levelo://app?vid=080955c6-6640-47b3-a1ea-309f78463fca"},"vehicle_type_id":"4","last_reported":1729782578,"current_range_meters":38000,"station_id":"ce4bgnh2rcd13ifvqc0g","pricing_plan_id":"cebpf4jnsgd1na2vs0mg"},{"bike_id":"8f629a72-fb9c-4fb2-a5c1-2c4e63326902","system_id":"levelo_inurba_marseille","lat":43.29418,"lon":5.38619,"is_reserved":false,"is_disabled":false,"rental_uris":{"android":"levelo://app?vid=8f629a72-fb9c-4fb2-a5c1-2c4e63326902","ios":"levelo://app?vid=8f629a72-fb9c-4fb2-a5c1-2c4e63326902"},"vehicle_type_id":"4","last_reported":1729782578,"current_range_meters":19600,"station_id":"ce4bh2h2rcd13ifvqdh0","pricing_plan_id":"cebpf4jnsgd1na2vs0mg"},{"bike_id":"9c980766-3696-42be-8e1a-d22fb6edb5c5","system_id":"levelo_inurba_marseille","lat":43.3066,"lon":5.38231,"is_reserved":false,"is_disabled":false,"rental_uris":{"android":"levelo://app?vid=9c980766-3696-42be-8e1a-d22fb6edb5c5","ios":"levelo://app?vid=9c980766-3696-42be-8e1a-d22fb6edb5c5"},"vehicle_type_id":"4","last_reported":1729782578,"current_range_meters":28000,"station_id":"","pricing_plan_id":"cebpf4jnsgd1na2vs0mg"},{"bike_id":"db9b0d12-76bd-4d91-b33d-d74a01381fc8","system_id":"levelo_inurba_marseille","lat":43.28271,"lon":5.35072,"is_reserved":false,"is_disabled":false,"rental_uris":{"android":"levelo://app?vid=db9b0d12-76bd-4d91-b33d-d74a01381fc8","ios":"levelo://app?vid=db9b0d12-76bd-4d91-b33d-d74a01381fc8"},"vehicle_type_id":"4","last_reported":1729782578,"current_range_meters":38800,"station_id":"ce4bhbp2rcd13ifvqerg","pricing_plan_id":"cebpf4jnsgd1na2vs0mg"},{"bike_id":"d8655792-5834-4f3c-af3f-18edc8c1f2a6","system_id":"levelo_inurba_marseille","lat":43.28273,"lon":5.35082,"is_reserved":false,"is_disabled":false,"rental_uris":{"android":"levelo://app?vid=d8655792-5834-4f3c-af3f-18edc8c1f2a6","ios":"levelo://app?vid=d8655792-5834-4f3c-af3f-18edc8c1f2a6"},"vehicle_type_id":"4","last_reported":1729782578,"current_range_meters":20400,"station_id":"ce4bhbp2rcd13ifvqerg","pricing_plan_id":"cebpf4jnsgd1na2vs0mg"},{"bike_id":"2ae8322e-ea0a-4ada-823a-cee6637e6a4a","system_id":"levelo_inurba_marseille","lat":43.2846,"lon":5.35879,"is_reserved":false,"is_disabled":false,"rental_uris":{"android":"levelo://app?vid=2ae8322e-ea0a-4ada-823a-cee6637e6a4a","ios":"levelo://app?vid=2ae8322e-ea0a-4ada-823a-cee6637e6a4a"},"vehicle_type_id":"4","last_reported":1729782578,"current_range_meters":6800,"station_id":"ce4bhah2rcd13ifvqei0","pricing_plan_id":"cebpf4jnsgd1na2vs0mg"},{"bike_id":"52f0e4a5-d535-4f96-b297-18be6815ac33","system_id":"levelo_inurba_marseille","lat":43.33722,"lon":5.39193,"is_reserved":false,"is_disabled":false,"rental_uris":{"android":"levelo://app?vid=52f0e4a5-d535-4f96-b297-18be6815ac33","ios":"levelo://app?vid=52f0e4a5-d535-4f96-b297-18be6815ac33"},"vehicle_type_id":"4","last_reported":1729782578,"current_range_meters":3200,"station_id":"ce4bhr92rcd13ifvqhsg","pricing_plan_id":"cebpf4jnsgd1na2vs0mg"},{"bike_id":"5c94f4f0-f0cd-4179-8b32-cf5ce3cee721","system_id":"levelo_inurba_marseille","lat":43.27382,"lon":5.3626,"is_reserved":false,"is_disabled":false,"rental_uris":{"android":"levelo://app?vid=5c94f4f0-f0cd-4179-8b32-cf5ce3cee721","ios":"levelo://app?vid=5c94f4f0-f0cd-4179-8b32-cf5ce3cee721"},"vehicle_type_id":"4","last_reported":1729782578,"current_range_meters":11600,"station_id":"ce4bhbh2rcd13ifvqeo0","pricing_plan_id":"cebpf4jnsgd1na2vs0mg"},{"bike_id":"3fa4e7fe-c8c6-44bd-ac1e-792642cbde06","system_id":"levelo_inurba_marseille","lat":43.29621,"lon":5.37164,"is_reserved":false,"is_disabled":false,"rental_uris":{"android":"levelo://app?vid=3fa4e7fe-c8c6-44bd-ac1e-792642cbde06","ios":"levelo://app?vid=3fa4e7fe-c8c6-44bd-ac1e-792642cbde06"},"vehicle_type_id":"4","last_reported":1729782578,"current_range_meters":37600,"station_id":"ce4bgnh2rcd13ifvqc0g","pricing_plan_id":"cebpf4jnsgd1na2vs0mg"},{"bike_id":"d7ad1781-eb51-412c-b1fd-bc560199e91a","system_id":"levelo_inurba_marseille","lat":43.29004,"lon":5.35612,"is_reserved":false,"is_disabled":false,"rental_uris":{"android":"levelo://app?vid=d7ad1781-eb51-412c-b1fd-bc560199e91a","ios":"levelo://app?vid=d7ad1781-eb51-412c-b1fd-bc560199e91a"},"vehicle_type_id":"4","last_reported":1729782578,"current_range_meters":28800,"station_id":"ce4bhb92rcd13ifvqen0","pricing_plan_id":"cebpf4jnsgd1na2vs0mg"},{"bike_id":"49182518-fd97-4bc0-bd4c-4d395f09c81b","system_id":"levelo_inurba_marseille","lat":43.24651,"lon":5.38894,"is_reserved":false,"is_disabled":false,"rental_uris":{"android":"levelo://app?vid=49182518-fd97-4bc0-bd4c-4d395f09c81b","ios":"levelo://app?vid=49182518-fd97-4bc0-bd4c-4d395f09c81b"},"vehicle_type_id":"4","last_reported":1729782578,"current_range_meters":8400,"station_id":"ce4bhg12rcd13ifvqf60","pricing_plan_id":"cebpf4jnsgd1na2vs0mg"},{"bike_id":"7510be9e-9c9f-4d25-8b07-a01a2ed1e26b","system_id":"levelo_inurba_marseille","lat":43.31087,"lon":5.38364,"is_reserved":false,"is_disabled":false,"rental_uris":{"android":"levelo://app?vid=7510be9e-9c9f-4d25-8b07-a01a2ed1e26b","ios":"levelo://app?vid=7510be9e-9c9f-4d25-8b07-a01a2ed1e26b"},"vehicle_type_id":"4","last_reported":1729782578,"current_range_meters":38800,"station_id":"ce4bgv92rcd13ifvqcr0","pricing_plan_id":"cebpf4jnsgd1na2vs0mg"},{"bike_id":"f78b19d0-f4ba-4d87-b1f7-35606ce10bc9","system_id":"levelo_inurba_marseille","lat":43.2707,"lon":5.4228,"is_reserved":false,"is_disabled":false,"rental_uris":{"android":"levelo://app?vid=f78b19d0-f4ba-4d87-b1f7-35606ce10bc9","ios":"levelo://app?vid=f78b19d0-f4ba-4d87-b1f7-35606ce10bc9"},"vehicle_type_id":"4","last_reported":1729782578,"current_range_meters":38800,"station_id":"ce4bhk92rcd13ifvqgb0","pricing_plan_id":"cebpf4jnsgd1na2vs0mg"},{"bike_id":"53d6cdff-14b3-4127-947a-7fbbec4d4d37","system_id":"levelo_inurba_marseille","lat":43.288788,"lon":5.359723,"is_reserved":false,"is_disabled":false,"rental_uris":{"android":"levelo://app?vid=53d6cdff-14b3-4127-947a-7fbbec4d4d37","ios":"levelo://app?vid=53d6cdff-14b3-4127-947a-7fbbec4d4d37"},"vehicle_type_id":"4","last_reported":1729782578,"current_range_meters":3600,"station_id":"ce4bhb12rcd13ifvqem0","pricing_plan_id":"cebpf4jnsgd1na2vs0mg"},{"bike_id":"d1b42cfa-1c25-4cb0-97a5-e058593983bc","system_id":"levelo_inurba_marseille","lat":43.29622,"lon":5.37717,"is_reserved":false,"is_disabled":false,"rental_uris":{"android":"levelo://app?vid=d1b42cfa-1c25-4cb0-97a5-e058593983bc","ios":"levelo://app?vid=d1b42cfa-1c25-4cb0-97a5-e058593983bc"},"vehicle_type_id":"4","last_reported":1729782578,"current_range_meters":7200,"station_id":"ce4bgi92rcd13ifvqb90","pricing_plan_id":"cebpf4jnsgd1na2vs0mg"},{"bike_id":"21701b7d-56e0-412f-8ee0-233be34d09f6","system_id":"levelo_inurba_marseille","lat":43.27388,"lon":5.36275,"is_reserved":false,"is_disabled":false,"rental_uris":{"android":"levelo://app?vid=21701b7d-56e0-412f-8ee0-233be34d09f6","ios":"levelo://app?vid=21701b7d-56e0-412f-8ee0-233be34d09f6"},"vehicle_type_id":"4","last_reported":1729782578,"current_range_meters":27600,"station_id":"ce4bhbh2rcd13ifvqeo0","pricing_plan_id":"cebpf4jnsgd1na2vs0mg"},{"bike_id":"a3dc257f-67a4-4f57-a9f2-c08c142ac49e","system_id":"levelo_inurba_marseille","lat":43.29959,"lon":5.41321,"is_reserved":false,"is_disabled":false,"rental_uris":{"android":"levelo://app?vid=a3dc257f-67a4-4f57-a9f2-c08c142ac49e","ios":"levelo://app?vid=a3dc257f-67a4-4f57-a9f2-c08c142ac49e"},"vehicle_type_id":"4","last_reported":1729782578,"current_range_meters":9200,"station_id":"ce4bhp12rcd13ifvqh9g","pricing_plan_id":"cebpf4jnsgd1na2vs0mg"},{"bike_id":"ead5af65-b2d8-4fc2-8885-fb771aa92466","system_id":"levelo_inurba_marseille","lat":43.28949,"lon":5.364,"is_reserved":false,"is_disabled":false,"rental_uris":{"android":"levelo://app?vid=ead5af65-b2d8-4fc2-8885-fb771aa92466","ios":"levelo://app?vid=ead5af65-b2d8-4fc2-8885-fb771aa92466"},"vehicle_type_id":"4","last_reported":1729782578,"current_range_meters":32000,"station_id":"ce4bhc92rcd13ifvqetg","pricing_plan_id":"cebpf4jnsgd1na2vs0mg"},{"bike_id":"c5a20577-f321-4a55-9f65-5bc75bc37356","system_id":"levelo_inurba_marseille","lat":43.29572,"lon":5.37531,"is_reserved":false,"is_disabled":false,"rental_uris":{"android":"levelo://app?vid=c5a20577-f321-4a55-9f65-5bc75bc37356","ios":"levelo://app?vid=c5a20577-f321-4a55-9f65-5bc75bc37356"},"vehicle_type_id":"4","last_reported":1729782578,"current_range_meters":38800,"station_id":"ce4bgh92rcd13ifvqb50","pricing_plan_id":"cebpf4jnsgd1na2vs0mg"},{"bike_id":"afd46a90-4229-4728-b90a-f46664eb46b8","system_id":"levelo_inurba_marseille","lat":43.29527,"lon":5.38546,"is_reserved":false,"is_disabled":false,"rental_uris":{"android":"levelo://app?vid=afd46a90-4229-4728-b90a-f46664eb46b8","ios":"levelo://app?vid=afd46a90-4229-4728-b90a-f46664eb46b8"},"vehicle_type_id":"4","last_reported":1729782578,"current_range_meters":20000,"station_id":"ce4bgih2rcd13ifvqba0","pricing_plan_id":"cebpf4jnsgd1na2vs0mg"},{"bike_id":"35044f2c-a247-4b87-82d9-220ff8612788","system_id":"levelo_inurba_marseille","lat":43.25725,"lon":5.41099,"is_reserved":false,"is_disabled":false,"rental_uris":{"android":"levelo://app?vid=35044f2c-a247-4b87-82d9-220ff8612788","ios":"levelo://app?vid=35044f2c-a247-4b87-82d9-220ff8612788"},"vehicle_type_id":"4","last_reported":1729782578,"current_range_meters":19600,"station_id":"ce4bhkp2rcd13ifvqgd0","pricing_plan_id":"cebpf4jnsgd1na2vs0mg"},{"bike_id":"20bd57f0-225f-40f6-9609-9009aed954fa","system_id":"levelo_inurba_marseille","lat":43.29044,"lon":5.35925,"is_reserved":false,"is_disabled":false,"rental_uris":{"android":"levelo://app?vid=20bd57f0-225f-40f6-9609-9009aed954fa","ios":"levelo://app?vid=20bd57f0-225f-40f6-9609-9009aed954fa"},"vehicle_type_id":"4","last_reported":1729782578,"current_range_meters":23200,"station_id":"ce4bha92rcd13ifvqeg0","pricing_plan_id":"cebpf4jnsgd1na2vs0mg"},{"bike_id":"d269162f-5c9c-4aa0-93b9-68510ce14f5c","system_id":"levelo_inurba_marseille","lat":43.30125,"lon":5.3987,"is_reserved":false,"is_disabled":false,"rental_uris":{"android":"levelo://app?vid=d269162f-5c9c-4aa0-93b9-68510ce14f5c","ios":"levelo://app?vid=d269162f-5c9c-4aa0-93b9-68510ce14f5c"},"vehicle_type_id":"4","last_reported":1729782578,"current_range_meters":31200,"station_id":"ce4bh0h2rcd13ifvqd40","pricing_plan_id":"cebpf4jnsgd1na2vs0mg"},{"bike_id":"a099be55-cd9a-4889-a4ff-875770f154dc","system_id":"levelo_inurba_marseille","lat":43.265,"lon":5.3954,"is_reserved":false,"is_disabled":false,"rental_uris":{"android":"levelo://app?vid=a099be55-cd9a-4889-a4ff-875770f154dc","ios":"levelo://app?vid=a099be55-cd9a-4889-a4ff-875770f154dc"},"vehicle_type_id":"4","last_reported":1729782578,"current_range_meters":29600,"station_id":"ce4bhi12rcd13ifvqfq0","pricing_plan_id":"cebpf4jnsgd1na2vs0mg"},{"bike_id":"228c2a65-a88a-474e-baae-39029ce20359","system_id":"levelo_inurba_marseille","lat":43.24076,"lon":5.37743,"is_reserved":false,"is_disabled":false,"rental_uris":{"android":"levelo://app?vid=228c2a65-a88a-474e-baae-39029ce20359","ios":"levelo://app?vid=228c2a65-a88a-474e-baae-39029ce20359"},"vehicle_type_id":"4","last_reported":1729782578,"current_range_meters":19600,"station_id":"ce4bhnp2rcd13ifvqgvg","pricing_plan_id":"cebpf4jnsgd1na2vs0mg"},{"bike_id":"f56a354d-5805-4112-93bf-0829c4eeb1ce","system_id":"levelo_inurba_marseille","lat":43.28938,"lon":5.39629,"is_reserved":false,"is_disabled":false,"rental_uris":{"android":"levelo://app?vid=f56a354d-5805-4112-93bf-0829c4eeb1ce","ios":"levelo://app?vid=f56a354d-5805-4112-93bf-0829c4eeb1ce"},"vehicle_type_id":"4","last_reported":1729782578,"current_range_meters":6400,"station_id":"ce4bh3h2rcd13ifvqdn0","pricing_plan_id":"cebpf4jnsgd1na2vs0mg"},{"bike_id":"2f59107c-5f0c-49f8-982d-8cd9c0d14d00","system_id":"levelo_inurba_marseille","lat":43.29708,"lon":5.36611,"is_reserved":false,"is_disabled":false,"rental_uris":{"android":"levelo://app?vid=2f59107c-5f0c-49f8-982d-8cd9c0d14d00","ios":"levelo://app?vid=2f59107c-5f0c-49f8-982d-8cd9c0d14d00"},"vehicle_type_id":"4","last_reported":1729782578,"current_range_meters":37600,"station_id":"ce4bgn12rcd13ifvqbt0","pricing_plan_id":"cebpf4jnsgd1na2vs0mg"},{"bike_id":"4a6df651-d777-43d3-86b7-7fa1c99ff793","system_id":"levelo_inurba_marseille","lat":43.30903,"lon":5.37203,"is_reserved":false,"is_disabled":false,"rental_uris":{"android":"levelo://app?vid=4a6df651-d777-43d3-86b7-7fa1c99ff793","ios":"levelo://app?vid=4a6df651-d777-43d3-86b7-7fa1c99ff793"},"vehicle_type_id":"4","last_reported":1729782578,"current_range_meters":24800,"station_id":"ce4bguh2rcd13ifvqckg","pricing_plan_id":"cebpf4jnsgd1na2vs0mg"},{"bike_id":"4b6769f0-9d52-4427-92eb-85214df0463d","system_id":"levelo_inurba_marseille","lat":43.23192,"lon":5.35552,"is_reserved":false,"is_disabled":false,"rental_uris":{"android":"levelo://app?vid=4b6769f0-9d52-4427-92eb-85214df0463d","ios":"levelo://app?vid=4b6769f0-9d52-4427-92eb-85214df0463d"},"vehicle_type_id":"4","last_reported":1729782578,"current_range_meters":38800,"station_id":"ce4bhu92rcd13ifvqi70","pricing_plan_id":"cebpf4jnsgd1na2vs0mg"},{"bike_id":"6e61c137-feee-4997-a796-11964e059225","system_id":"levelo_inurba_marseille","lat":43.29723,"lon":5.37698,"is_reserved":false,"is_disabled":false,"rental_uris":{"android":"levelo://app?vid=6e61c137-feee-4997-a796-11964e059225","ios":"levelo://app?vid=6e61c137-feee-4997-a796-11964e059225"},"vehicle_type_id":"4","last_reported":1729782578,"current_range_meters":32800,"station_id":"ce4bgkh2rcd13ifvqbl0","pricing_plan_id":"cebpf4jnsgd1na2vs0mg"},{"bike_id":"303bfd12-09b7-400e-9f0e-8535d468050c","system_id":"levelo_inurba_marseille","lat":43.28421,"lon":5.34991,"is_reserved":false,"is_disabled":false,"rental_uris":{"android":"levelo://app?vid=303bfd12-09b7-400e-9f0e-8535d468050c","ios":"levelo://app?vid=303bfd12-09b7-400e-9f0e-8535d468050c"},"vehicle_type_id":"4","last_reported":1729782578,"current_range_meters":18000,"station_id":"ce4bhbh2rcd13ifvqepg","pricing_plan_id":"cebpf4jnsgd1na2vs0mg"},{"bike_id":"103ed008-6f4b-4142-8ae0-e6b210d9a427","system_id":"levelo_inurba_marseille","lat":43.22928,"lon":5.35374,"is_reserved":false,"is_disabled":false,"rental_uris":{"android":"levelo://app?vid=103ed008-6f4b-4142-8ae0-e6b210d9a427","ios":"levelo://app?vid=103ed008-6f4b-4142-8ae0-e6b210d9a427"},"vehicle_type_id":"4","last_reported":1729782578,"current_range_meters":10000,"station_id":"cpo3532slgdg3j2ikp40","pricing_plan_id":"cebpf4jnsgd1na2vs0mg"},{"bike_id":"e2fedc4b-d135-4d41-9c09-f4f91ed396f3","system_id":"levelo_inurba_marseille","lat":43.287322,"lon":5.40044,"is_reserved":false,"is_disabled":false,"rental_uris":{"android":"levelo://app?vid=e2fedc4b-d135-4d41-9c09-f4f91ed396f3","ios":"levelo://app?vid=e2fedc4b-d135-4d41-9c09-f4f91ed396f3"},"vehicle_type_id":"4","last_reported":1729782578,"current_range_meters":6800,"station_id":"ce4bho92rcd13ifvqh3g","pricing_plan_id":"cebpf4jnsgd1na2vs0mg"},{"bike_id":"e93d0849-6889-4c3b-b756-5d2c77aee686","system_id":"levelo_inurba_marseille","lat":43.28004,"lon":5.41667,"is_reserved":false,"is_disabled":false,"rental_uris":{"android":"levelo://app?vid=e93d0849-6889-4c3b-b756-5d2c77aee686","ios":"levelo://app?vid=e93d0849-6889-4c3b-b756-5d2c77aee686"},"vehicle_type_id":"4","last_reported":1729782578,"current_range_meters":37600,"station_id":"ce4bho12rcd13ifvqh1g","pricing_plan_id":"cebpf4jnsgd1na2vs0mg"},{"bike_id":"58ba1283-0ff2-478a-8c24-4381f06eccbe","system_id":"levelo_inurba_marseille","lat":43.25725,"lon":5.41126,"is_reserved":false,"is_disabled":false,"rental_uris":{"android":"levelo://app?vid=58ba1283-0ff2-478a-8c24-4381f06eccbe","ios":"levelo://app?vid=58ba1283-0ff2-478a-8c24-4381f06eccbe"},"vehicle_type_id":"4","last_reported":1729782578,"current_range_meters":38400,"station_id":"ce4bhkp2rcd13ifvqgd0","pricing_plan_id":"cebpf4jnsgd1na2vs0mg"},{"bike_id":"dc9a765b-b0a7-4ba4-b3d9-747e3f62e985","system_id":"levelo_inurba_marseille","lat":43.30256,"lon":5.39677,"is_reserved":false,"is_disabled":false,"rental_uris":{"android":"levelo://app?vid=dc9a765b-b0a7-4ba4-b3d9-747e3f62e985","ios":"levelo://app?vid=dc9a765b-b0a7-4ba4-b3d9-747e3f62e985"},"vehicle_type_id":"4","last_reported":1729782578,"current_range_meters":9600,"station_id":"","pricing_plan_id":"cebpf4jnsgd1na2vs0mg"},{"bike_id":"0bc90dc2-cf8c-457e-a6aa-9b91de95f992","system_id":"levelo_inurba_marseille","lat":43.22759,"lon":5.41588,"is_reserved":false,"is_disabled":false,"rental_uris":{"android":"levelo://app?vid=0bc90dc2-cf8c-457e-a6aa-9b91de95f992","ios":"levelo://app?vid=0bc90dc2-cf8c-457e-a6aa-9b91de95f992"},"vehicle_type_id":"4","last_reported":1729782578,"current_range_meters":32400,"station_id":"","pricing_plan_id":"cebpf4jnsgd1na2vs0mg"},{"bike_id":"ea0b86de-a6e5-471d-9b00-b2698b175c72","system_id":"levelo_inurba_marseille","lat":43.31226,"lon":5.36873,"is_reserved":false,"is_disabled":false,"rental_uris":{"android":"levelo://app?vid=ea0b86de-a6e5-471d-9b00-b2698b175c72","ios":"levelo://app?vid=ea0b86de-a6e5-471d-9b00-b2698b175c72"},"vehicle_type_id":"4","last_reported":1729782578,"current_range_meters":17600,"station_id":"ce4bgl92rcd13ifvqbq0","pricing_plan_id":"cebpf4jnsgd1na2vs0mg"},{"bike_id":"8595ff02-e4f9-451e-8625-8f6e2a437cc3","system_id":"levelo_inurba_marseille","lat":43.30536,"lon":5.36545,"is_reserved":false,"is_disabled":false,"rental_uris":{"android":"levelo://app?vid=8595ff02-e4f9-451e-8625-8f6e2a437cc3","ios":"levelo://app?vid=8595ff02-e4f9-451e-8625-8f6e2a437cc3"},"vehicle_type_id":"4","last_reported":1729782578,"current_range_meters":3600,"station_id":"ce4bgs12rcd13ifvqcag","pricing_plan_id":"cebpf4jnsgd1na2vs0mg"},{"bike_id":"732d1786-0cda-4241-9b82-d71d52fd14a4","system_id":"levelo_inurba_marseille","lat":43.29768,"lon":5.37106,"is_reserved":false,"is_disabled":false,"rental_uris":{"android":"levelo://app?vid=732d1786-0cda-4241-9b82-d71d52fd14a4","ios":"levelo://app?vid=732d1786-0cda-4241-9b82-d71d52fd14a4"},"vehicle_type_id":"4","last_reported":1729782578,"current_range_meters":38800,"station_id":"ce4bgop2rcd13ifvqc1g","pricing_plan_id":"cebpf4jnsgd1na2vs0mg"},{"bike_id":"9050aa27-210e-4a00-99a6-53ce385deffc","system_id":"levelo_inurba_marseille","lat":43.29624,"lon":5.37151,"is_reserved":false,"is_disabled":false,"rental_uris":{"android":"levelo://app?vid=9050aa27-210e-4a00-99a6-53ce385deffc","ios":"levelo://app?vid=9050aa27-210e-4a00-99a6-53ce385deffc"},"vehicle_type_id":"4","last_reported":1729782578,"current_range_meters":38800,"station_id":"ce4bgnh2rcd13ifvqc0g","pricing_plan_id":"cebpf4jnsgd1na2vs0mg"},{"bike_id":"4fa93c7a-173f-4a2e-bf69-abfb15866693","system_id":"levelo_inurba_marseille","lat":43.30803,"lon":5.43523,"is_reserved":false,"is_disabled":false,"rental_uris":{"android":"levelo://app?vid=4fa93c7a-173f-4a2e-bf69-abfb15866693","ios":"levelo://app?vid=4fa93c7a-173f-4a2e-bf69-abfb15866693"},"vehicle_type_id":"4","last_reported":1729782578,"current_range_meters":2800,"station_id":"ce4bhph2rcd13ifvqheg","pricing_plan_id":"cebpf4jnsgd1na2vs0mg"},{"bike_id":"3a5434f0-436d-4022-b83d-0f54fd6611f1","system_id":"levelo_inurba_marseille","lat":43.30551,"lon":5.36538,"is_reserved":false,"is_disabled":false,"rental_uris":{"android":"levelo://app?vid=3a5434f0-436d-4022-b83d-0f54fd6611f1","ios":"levelo://app?vid=3a5434f0-436d-4022-b83d-0f54fd6611f1"},"vehicle_type_id":"4","last_reported":1729782578,"current_range_meters":30400,"station_id":"ce4bgs12rcd13ifvqcag","pricing_plan_id":"cebpf4jnsgd1na2vs0mg"},{"bike_id":"1c3669b8-e563-4422-b977-02cca969a997","system_id":"levelo_inurba_marseille","lat":43.26058,"lon":5.39398,"is_reserved":false,"is_disabled":false,"rental_uris":{"android":"levelo://app?vid=1c3669b8-e563-4422-b977-02cca969a997","ios":"levelo://app?vid=1c3669b8-e563-4422-b977-02cca969a997"},"vehicle_type_id":"4","last_reported":1729782578,"current_range_meters":17600,"station_id":"ce4bhh92rcd13ifvqfj0","pricing_plan_id":"cebpf4jnsgd1na2vs0mg"},{"bike_id":"0504024e-8ecf-4b41-bb0a-f77d1a745470","system_id":"levelo_inurba_marseille","lat":43.32291,"lon":5.38272,"is_reserved":false,"is_disabled":false,"rental_uris":{"android":"levelo://app?vid=0504024e-8ecf-4b41-bb0a-f77d1a745470","ios":"levelo://app?vid=0504024e-8ecf-4b41-bb0a-f77d1a745470"},"vehicle_type_id":"4","last_reported":1729782578,"current_range_meters":14400,"station_id":"ce4bhr12rcd13ifvqhqg","pricing_plan_id":"cebpf4jnsgd1na2vs0mg"},{"bike_id":"9cc86360-5eab-45ae-a458-952e8a91e43e","system_id":"levelo_inurba_marseille","lat":43.22933,"lon":5.35379,"is_reserved":false,"is_disabled":false,"rental_uris":{"android":"levelo://app?vid=9cc86360-5eab-45ae-a458-952e8a91e43e","ios":"levelo://app?vid=9cc86360-5eab-45ae-a458-952e8a91e43e"},"vehicle_type_id":"4","last_reported":1729782578,"current_range_meters":16400,"station_id":"cpo3532slgdg3j2ikp40","pricing_plan_id":"cebpf4jnsgd1na2vs0mg"},{"bike_id":"f7a0de5f-0ab0-462c-9f8c-f233935f432b","system_id":"levelo_inurba_marseille","lat":43.23192,"lon":5.35551,"is_reserved":false,"is_disabled":false,"rental_uris":{"android":"levelo://app?vid=f7a0de5f-0ab0-462c-9f8c-f233935f432b","ios":"levelo://app?vid=f7a0de5f-0ab0-462c-9f8c-f233935f432b"},"vehicle_type_id":"4","last_reported":1729782578,"current_range_meters":34800,"station_id":"ce4bhu92rcd13ifvqi70","pricing_plan_id":"cebpf4jnsgd1na2vs0mg"},{"bike_id":"56804446-1b6b-4a40-81a8-5ca1116f71fd","system_id":"levelo_inurba_marseille","lat":43.28416,"lon":5.34989,"is_reserved":false,"is_disabled":false,"rental_uris":{"android":"levelo://app?vid=56804446-1b6b-4a40-81a8-5ca1116f71fd","ios":"levelo://app?vid=56804446-1b6b-4a40-81a8-5ca1116f71fd"},"vehicle_type_id":"4","last_reported":1729782578,"current_range_meters":28000,"station_id":"ce4bhbh2rcd13ifvqepg","pricing_plan_id":"cebpf4jnsgd1na2vs0mg"},{"bike_id":"17468fef-c5cc-48c3-aa6a-1f10321d81d1","system_id":"levelo_inurba_marseille","lat":43.30419,"lon":5.41287,"is_reserved":false,"is_disabled":false,"rental_uris":{"android":"levelo://app?vid=17468fef-c5cc-48c3-aa6a-1f10321d81d1","ios":"levelo://app?vid=17468fef-c5cc-48c3-aa6a-1f10321d81d1"},"vehicle_type_id":"4","last_reported":1729782578,"current_range_meters":4800,"station_id":"ce4bhop2rcd13ifvqh8g","pricing_plan_id":"cebpf4jnsgd1na2vs0mg"},{"bike_id":"ac329058-f8c2-4735-9b2f-ffcdf87a811c","system_id":"levelo_inurba_marseille","lat":43.251084,"lon":5.403052,"is_reserved":false,"is_disabled":false,"rental_uris":{"android":"levelo://app?vid=ac329058-f8c2-4735-9b2f-ffcdf87a811c","ios":"levelo://app?vid=ac329058-f8c2-4735-9b2f-ffcdf87a811c"},"vehicle_type_id":"4","last_reported":1729782578,"current_range_meters":38800,"station_id":"ce4bhlh2rcd13ifvqgig","pricing_plan_id":"cebpf4jnsgd1na2vs0mg"},{"bike_id":"7e9e853b-6d3a-47ce-9252-0c3d8babdc12","system_id":"levelo_inurba_marseille","lat":43.243866,"lon":5.370576,"is_reserved":false,"is_disabled":false,"rental_uris":{"android":"levelo://app?vid=7e9e853b-6d3a-47ce-9252-0c3d8babdc12","ios":"levelo://app?vid=7e9e853b-6d3a-47ce-9252-0c3d8babdc12"},"vehicle_type_id":"4","last_reported":1729782578,"current_range_meters":8800,"station_id":"ce4bhhh2rcd13ifvqfk0","pricing_plan_id":"cebpf4jnsgd1na2vs0mg"},{"bike_id":"d6403bca-72c8-4876-a198-3048f753adb0","system_id":"levelo_inurba_marseille","lat":43.2558,"lon":5.38237,"is_reserved":false,"is_disabled":false,"rental_uris":{"android":"levelo://app?vid=d6403bca-72c8-4876-a198-3048f753adb0","ios":"levelo://app?vid=d6403bca-72c8-4876-a198-3048f753adb0"},"vehicle_type_id":"4","last_reported":1729782578,"current_range_meters":11600,"station_id":"ce4bhih2rcd13ifvqfs0","pricing_plan_id":"cebpf4jnsgd1na2vs0mg"},{"bike_id":"3c758af3-c6cc-4140-950d-1e20604deede","system_id":"levelo_inurba_marseille","lat":43.31708,"lon":5.37768,"is_reserved":false,"is_disabled":false,"rental_uris":{"android":"levelo://app?vid=3c758af3-c6cc-4140-950d-1e20604deede","ios":"levelo://app?vid=3c758af3-c6cc-4140-950d-1e20604deede"},"vehicle_type_id":"4","last_reported":1729782578,"current_range_meters":38400,"station_id":"ce4bgth2rcd13ifvqch0","pricing_plan_id":"cebpf4jnsgd1na2vs0mg"},{"bike_id":"a64f9a6a-8960-4b10-9d7b-716c7b06f7fd","system_id":"levelo_inurba_marseille","lat":43.29901,"lon":5.43672,"is_reserved":false,"is_disabled":false,"rental_uris":{"android":"levelo://app?vid=a64f9a6a-8960-4b10-9d7b-716c7b06f7fd","ios":"levelo://app?vid=a64f9a6a-8960-4b10-9d7b-716c7b06f7fd"},"vehicle_type_id":"4","last_reported":1729782578,"current_range_meters":19200,"station_id":"ce4bhpp2rcd13ifvqhfg","pricing_plan_id":"cebpf4jnsgd1na2vs0mg"},{"bike_id":"b8ec400a-2808-43cc-95a6-dea8cd5a18ba","system_id":"levelo_inurba_marseille","lat":43.32117,"lon":5.36773,"is_reserved":false,"is_disabled":false,"rental_uris":{"android":"levelo://app?vid=b8ec400a-2808-43cc-95a6-dea8cd5a18ba","ios":"levelo://app?vid=b8ec400a-2808-43cc-95a6-dea8cd5a18ba"},"vehicle_type_id":"4","last_reported":1729782578,"current_range_meters":18000,"station_id":"ce4bhrh2rcd13ifvqhug","pricing_plan_id":"cebpf4jnsgd1na2vs0mg"},{"bike_id":"03e74436-e6d5-4ffd-ab4b-3c030a1bfb14","system_id":"levelo_inurba_marseille","lat":43.28851,"lon":5.35856,"is_reserved":false,"is_disabled":false,"rental_uris":{"android":"levelo://app?vid=03e74436-e6d5-4ffd-ab4b-3c030a1bfb14","ios":"levelo://app?vid=03e74436-e6d5-4ffd-ab4b-3c030a1bfb14"},"vehicle_type_id":"4","last_reported":1729782578,"current_range_meters":24400,"station_id":"ce4bhb12rcd13ifvqem0","pricing_plan_id":"cebpf4jnsgd1na2vs0mg"},{"bike_id":"3e381e9b-65a4-436a-a571-b4ba1ee13663","system_id":"levelo_inurba_marseille","lat":43.32485,"lon":5.36556,"is_reserved":false,"is_disabled":false,"rental_uris":{"android":"levelo://app?vid=3e381e9b-65a4-436a-a571-b4ba1ee13663","ios":"levelo://app?vid=3e381e9b-65a4-436a-a571-b4ba1ee13663"},"vehicle_type_id":"4","last_reported":1729782578,"current_range_meters":16800,"station_id":"ce4bhs12rcd13ifvqhvg","pricing_plan_id":"cebpf4jnsgd1na2vs0mg"},{"bike_id":"f2e6444b-e9e3-48ee-a052-8571a92cb215","system_id":"levelo_inurba_marseille","lat":43.27496,"lon":5.42449,"is_reserved":false,"is_disabled":false,"rental_uris":{"android":"levelo://app?vid=f2e6444b-e9e3-48ee-a052-8571a92cb215","ios":"levelo://app?vid=f2e6444b-e9e3-48ee-a052-8571a92cb215"},"vehicle_type_id":"4","last_reported":1729782578,"current_range_meters":39200,"station_id":"ce4bhn92rcd13ifvqgrg","pricing_plan_id":"cebpf4jnsgd1na2vs0mg"},{"bike_id":"3a526fc6-5f14-429c-8829-287dc38ef285","system_id":"levelo_inurba_marseille","lat":43.22931,"lon":5.35374,"is_reserved":false,"is_disabled":false,"rental_uris":{"android":"levelo://app?vid=3a526fc6-5f14-429c-8829-287dc38ef285","ios":"levelo://app?vid=3a526fc6-5f14-429c-8829-287dc38ef285"},"vehicle_type_id":"4","last_reported":1729782578,"current_range_meters":30800,"station_id":"cpo3532slgdg3j2ikp40","pricing_plan_id":"cebpf4jnsgd1na2vs0mg"},{"bike_id":"9e365112-b58b-440c-8182-e2a319b23536","system_id":"levelo_inurba_marseille","lat":43.28609,"lon":5.37066,"is_reserved":false,"is_disabled":false,"rental_uris":{"android":"levelo://app?vid=9e365112-b58b-440c-8182-e2a319b23536","ios":"levelo://app?vid=9e365112-b58b-440c-8182-e2a319b23536"},"vehicle_type_id":"4","last_reported":1729782578,"current_range_meters":6400,"station_id":"ce4bht12rcd13ifvqi60","pricing_plan_id":"cebpf4jnsgd1na2vs0mg"},{"bike_id":"ed51ba6f-d8d5-4e39-8c63-d7a482a33181","system_id":"levelo_inurba_marseille","lat":43.28951,"lon":5.36634,"is_reserved":false,"is_disabled":false,"rental_uris":{"android":"levelo://app?vid=ed51ba6f-d8d5-4e39-8c63-d7a482a33181","ios":"levelo://app?vid=ed51ba6f-d8d5-4e39-8c63-d7a482a33181"},"vehicle_type_id":"4","last_reported":1729782578,"current_range_meters":16800,"station_id":"ce4bhap2rcd13ifvqek0","pricing_plan_id":"cebpf4jnsgd1na2vs0mg"},{"bike_id":"de78ddc5-d2f5-40bc-bd40-6eabd9b693a2","system_id":"levelo_inurba_marseille","lat":43.29808,"lon":5.37118,"is_reserved":false,"is_disabled":false,"rental_uris":{"android":"levelo://app?vid=de78ddc5-d2f5-40bc-bd40-6eabd9b693a2","ios":"levelo://app?vid=de78ddc5-d2f5-40bc-bd40-6eabd9b693a2"},"vehicle_type_id":"4","last_reported":1729782578,"current_range_meters":38800,"station_id":"ce4bgop2rcd13ifvqc1g","pricing_plan_id":"cebpf4jnsgd1na2vs0mg"},{"bike_id":"5c5fedb6-5a4f-4881-ad56-c5bac3af94b4","system_id":"levelo_inurba_marseille","lat":43.26942,"lon":5.40261,"is_reserved":false,"is_disabled":false,"rental_uris":{"android":"levelo://app?vid=5c5fedb6-5a4f-4881-ad56-c5bac3af94b4","ios":"levelo://app?vid=5c5fedb6-5a4f-4881-ad56-c5bac3af94b4"},"vehicle_type_id":"4","last_reported":1729782578,"current_range_meters":9600,"station_id":"cjm6bp8fraef2m0cb0m0","pricing_plan_id":"cebpf4jnsgd1na2vs0mg"},{"bike_id":"365a5e76-e012-4983-b8a9-1a07480bde83","system_id":"levelo_inurba_marseille","lat":43.23192,"lon":5.35547,"is_reserved":false,"is_disabled":false,"rental_uris":{"android":"levelo://app?vid=365a5e76-e012-4983-b8a9-1a07480bde83","ios":"levelo://app?vid=365a5e76-e012-4983-b8a9-1a07480bde83"},"vehicle_type_id":"4","last_reported":1729782578,"current_range_meters":38800,"station_id":"ce4bhu92rcd13ifvqi70","pricing_plan_id":"cebpf4jnsgd1na2vs0mg"},{"bike_id":"1ad7f701-094e-42e8-ae74-9698b435f7cc","system_id":"levelo_inurba_marseille","lat":43.29714,"lon":5.36608,"is_reserved":false,"is_disabled":false,"rental_uris":{"android":"levelo://app?vid=1ad7f701-094e-42e8-ae74-9698b435f7cc","ios":"levelo://app?vid=1ad7f701-094e-42e8-ae74-9698b435f7cc"},"vehicle_type_id":"4","last_reported":1729782578,"current_range_meters":33200,"station_id":"ce4bgn12rcd13ifvqbt0","pricing_plan_id":"cebpf4jnsgd1na2vs0mg"},{"bike_id":"7a9d3bd5-0de3-46e0-9886-4e2f74288ff3","system_id":"levelo_inurba_marseille","lat":43.29417,"lon":5.38627,"is_reserved":false,"is_disabled":false,"rental_uris":{"android":"levelo://app?vid=7a9d3bd5-0de3-46e0-9886-4e2f74288ff3","ios":"levelo://app?vid=7a9d3bd5-0de3-46e0-9886-4e2f74288ff3"},"vehicle_type_id":"4","last_reported":1729782578,"current_range_meters":6400,"station_id":"ce4bh2h2rcd13ifvqdh0","pricing_plan_id":"cebpf4jnsgd1na2vs0mg"},{"bike_id":"4eca6a04-0313-4e1f-8d2b-626d2858bd81","system_id":"levelo_inurba_marseille","lat":43.26553,"lon":5.37286,"is_reserved":false,"is_disabled":false,"rental_uris":{"android":"levelo://app?vid=4eca6a04-0313-4e1f-8d2b-626d2858bd81","ios":"levelo://app?vid=4eca6a04-0313-4e1f-8d2b-626d2858bd81"},"vehicle_type_id":"4","last_reported":1729782578,"current_range_meters":38800,"station_id":"ce4bhg12rcd13ifvqf70","pricing_plan_id":"cebpf4jnsgd1na2vs0mg"},{"bike_id":"fe2f7ad7-24d8-468b-9874-034437f967d5","system_id":"levelo_inurba_marseille","lat":43.3171,"lon":5.37762,"is_reserved":false,"is_disabled":false,"rental_uris":{"android":"levelo://app?vid=fe2f7ad7-24d8-468b-9874-034437f967d5","ios":"levelo://app?vid=fe2f7ad7-24d8-468b-9874-034437f967d5"},"vehicle_type_id":"4","last_reported":1729782578,"current_range_meters":17200,"station_id":"ce4bgth2rcd13ifvqch0","pricing_plan_id":"cebpf4jnsgd1na2vs0mg"},{"bike_id":"3dc2eb7e-15a4-47fb-81be-d850bbd51ccf","system_id":"levelo_inurba_marseille","lat":43.33767,"lon":5.37425,"is_reserved":false,"is_disabled":false,"rental_uris":{"android":"levelo://app?vid=3dc2eb7e-15a4-47fb-81be-d850bbd51ccf","ios":"levelo://app?vid=3dc2eb7e-15a4-47fb-81be-d850bbd51ccf"},"vehicle_type_id":"4","last_reported":1729782578,"current_range_meters":35200,"station_id":"","pricing_plan_id":"cebpf4jnsgd1na2vs0mg"},{"bike_id":"e3bdbfaa-65bb-4fa8-b295-ec801b7819da","system_id":"levelo_inurba_marseille","lat":43.30605,"lon":5.37228,"is_reserved":false,"is_disabled":false,"rental_uris":{"android":"levelo://app?vid=e3bdbfaa-65bb-4fa8-b295-ec801b7819da","ios":"levelo://app?vid=e3bdbfaa-65bb-4fa8-b295-ec801b7819da"},"vehicle_type_id":"4","last_reported":1729782578,"current_range_meters":15200,"station_id":"ce4bgqh2rcd13ifvqc4g","pricing_plan_id":"cebpf4jnsgd1na2vs0mg"},{"bike_id":"8f20c90d-ac36-40d0-bb2f-f170a888d7d0","system_id":"levelo_inurba_marseille","lat":43.29896,"lon":5.436632,"is_reserved":false,"is_disabled":false,"rental_uris":{"android":"levelo://app?vid=8f20c90d-ac36-40d0-bb2f-f170a888d7d0","ios":"levelo://app?vid=8f20c90d-ac36-40d0-bb2f-f170a888d7d0"},"vehicle_type_id":"4","last_reported":1729782578,"current_range_meters":38800,"station_id":"ce4bhpp2rcd13ifvqhfg","pricing_plan_id":"cebpf4jnsgd1na2vs0mg"},{"bike_id":"7eaff220-d8c3-4ed4-9ba4-d78afc487c6d","system_id":"levelo_inurba_marseille","lat":43.24171,"lon":5.36397,"is_reserved":false,"is_disabled":false,"rental_uris":{"android":"levelo://app?vid=7eaff220-d8c3-4ed4-9ba4-d78afc487c6d","ios":"levelo://app?vid=7eaff220-d8c3-4ed4-9ba4-d78afc487c6d"},"vehicle_type_id":"4","last_reported":1729782578,"current_range_meters":28400,"station_id":"cpo36qri1sfpv3e86is0","pricing_plan_id":"cebpf4jnsgd1na2vs0mg"},{"bike_id":"0e5ff133-53e0-4524-a622-bae3c50c3545","system_id":"levelo_inurba_marseille","lat":43.24387,"lon":5.37059,"is_reserved":false,"is_disabled":false,"rental_uris":{"android":"levelo://app?vid=0e5ff133-53e0-4524-a622-bae3c50c3545","ios":"levelo://app?vid=0e5ff133-53e0-4524-a622-bae3c50c3545"},"vehicle_type_id":"4","last_reported":1729782578,"current_range_meters":24800,"station_id":"ce4bhhh2rcd13ifvqfk0","pricing_plan_id":"cebpf4jnsgd1na2vs0mg"},{"bike_id":"4ed9aa6a-e28a-402e-9dd5-bcd3037139d4","system_id":"levelo_inurba_marseille","lat":43.32495,"lon":5.38271,"is_reserved":false,"is_disabled":false,"rental_uris":{"android":"levelo://app?vid=4ed9aa6a-e28a-402e-9dd5-bcd3037139d4","ios":"levelo://app?vid=4ed9aa6a-e28a-402e-9dd5-bcd3037139d4"},"vehicle_type_id":"4","last_reported":1729782578,"current_range_meters":13600,"station_id":"ce4bhqp2rcd13ifvqhog","pricing_plan_id":"cebpf4jnsgd1na2vs0mg"},{"bike_id":"a0b3968f-e125-4ee8-97d3-b5a37c262c3e","system_id":"levelo_inurba_marseille","lat":43.297046,"lon":5.376946,"is_reserved":false,"is_disabled":false,"rental_uris":{"android":"levelo://app?vid=a0b3968f-e125-4ee8-97d3-b5a37c262c3e","ios":"levelo://app?vid=a0b3968f-e125-4ee8-97d3-b5a37c262c3e"},"vehicle_type_id":"4","last_reported":1729782578,"current_range_meters":4000,"station_id":"ce4bgkh2rcd13ifvqbl0","pricing_plan_id":"cebpf4jnsgd1na2vs0mg"},{"bike_id":"a4fce494-4318-4683-8c22-b74278d80aff","system_id":"levelo_inurba_marseille","lat":43.30413,"lon":5.3767,"is_reserved":false,"is_disabled":false,"rental_uris":{"android":"levelo://app?vid=a4fce494-4318-4683-8c22-b74278d80aff","ios":"levelo://app?vid=a4fce494-4318-4683-8c22-b74278d80aff"},"vehicle_type_id":"4","last_reported":1729782578,"current_range_meters":2800,"station_id":"ce4bgt92rcd13ifvqcg0","pricing_plan_id":"cebpf4jnsgd1na2vs0mg"},{"bike_id":"52c342b2-e2d0-4a08-9ff2-79235f930035","system_id":"levelo_inurba_marseille","lat":43.29528,"lon":5.36358,"is_reserved":false,"is_disabled":false,"rental_uris":{"android":"levelo://app?vid=52c342b2-e2d0-4a08-9ff2-79235f930035","ios":"levelo://app?vid=52c342b2-e2d0-4a08-9ff2-79235f930035"},"vehicle_type_id":"4","last_reported":1729782578,"current_range_meters":38400,"station_id":"ce4bgs12rcd13ifvqcag","pricing_plan_id":"cebpf4jnsgd1na2vs0mg"},{"bike_id":"806063d1-34de-4028-a385-7a4ac2c009fa","system_id":"levelo_inurba_marseille","lat":43.25496,"lon":5.37649,"is_reserved":false,"is_disabled":false,"rental_uris":{"android":"levelo://app?vid=806063d1-34de-4028-a385-7a4ac2c009fa","ios":"levelo://app?vid=806063d1-34de-4028-a385-7a4ac2c009fa"},"vehicle_type_id":"4","last_reported":1729782578,"current_range_meters":17600,"station_id":"ce4bhh12rcd13ifvqff0","pricing_plan_id":"cebpf4jnsgd1na2vs0mg"},{"bike_id":"f7049507-45c2-41d7-9262-0fb171be7c82","system_id":"levelo_inurba_marseille","lat":43.32477,"lon":5.36568,"is_reserved":false,"is_disabled":false,"rental_uris":{"android":"levelo://app?vid=f7049507-45c2-41d7-9262-0fb171be7c82","ios":"levelo://app?vid=f7049507-45c2-41d7-9262-0fb171be7c82"},"vehicle_type_id":"4","last_reported":1729782578,"current_range_meters":6400,"station_id":"ce4bhs12rcd13ifvqhvg","pricing_plan_id":"cebpf4jnsgd1na2vs0mg"},{"bike_id":"ab91bd8e-344c-49f9-8a45-b6e25f2c6045","system_id":"levelo_inurba_marseille","lat":43.30811,"lon":5.3816,"is_reserved":false,"is_disabled":false,"rental_uris":{"android":"levelo://app?vid=ab91bd8e-344c-49f9-8a45-b6e25f2c6045","ios":"levelo://app?vid=ab91bd8e-344c-49f9-8a45-b6e25f2c6045"},"vehicle_type_id":"4","last_reported":1729782578,"current_range_meters":36000,"station_id":"ce4bgt12rcd13ifvqce0","pricing_plan_id":"cebpf4jnsgd1na2vs0mg"},{"bike_id":"2dcc1e35-5ea4-4aeb-82c4-4f3e4e4e009d","system_id":"levelo_inurba_marseille","lat":43.31084,"lon":5.38358,"is_reserved":false,"is_disabled":false,"rental_uris":{"android":"levelo://app?vid=2dcc1e35-5ea4-4aeb-82c4-4f3e4e4e009d","ios":"levelo://app?vid=2dcc1e35-5ea4-4aeb-82c4-4f3e4e4e009d"},"vehicle_type_id":"4","last_reported":1729782578,"current_range_meters":36400,"station_id":"ce4bgv92rcd13ifvqcr0","pricing_plan_id":"cebpf4jnsgd1na2vs0mg"},{"bike_id":"80ea5f34-af52-4e8e-a36e-e19daf2ba588","system_id":"levelo_inurba_marseille","lat":43.29195,"lon":5.35799,"is_reserved":false,"is_disabled":false,"rental_uris":{"android":"levelo://app?vid=80ea5f34-af52-4e8e-a36e-e19daf2ba588","ios":"levelo://app?vid=80ea5f34-af52-4e8e-a36e-e19daf2ba588"},"vehicle_type_id":"4","last_reported":1729782578,"current_range_meters":8400,"station_id":"ce4bhb12rcd13ifvqel0","pricing_plan_id":"cebpf4jnsgd1na2vs0mg"},{"bike_id":"44cddbd6-52d0-4090-8616-25de981e66a3","system_id":"levelo_inurba_marseille","lat":43.30793,"lon":5.38147,"is_reserved":false,"is_disabled":false,"rental_uris":{"android":"levelo://app?vid=44cddbd6-52d0-4090-8616-25de981e66a3","ios":"levelo://app?vid=44cddbd6-52d0-4090-8616-25de981e66a3"},"vehicle_type_id":"4","last_reported":1729782578,"current_range_meters":25600,"station_id":"ce4bgt12rcd13ifvqce0","pricing_plan_id":"cebpf4jnsgd1na2vs0mg"},{"bike_id":"4fcf215b-7636-47da-9a6d-c06f88da5435","system_id":"levelo_inurba_marseille","lat":43.27432,"lon":5.39413,"is_reserved":false,"is_disabled":false,"rental_uris":{"android":"levelo://app?vid=4fcf215b-7636-47da-9a6d-c06f88da5435","ios":"levelo://app?vid=4fcf215b-7636-47da-9a6d-c06f88da5435"},"vehicle_type_id":"4","last_reported":1729782578,"current_range_meters":38800,"station_id":"ce4bhdp2rcd13ifvqf20","pricing_plan_id":"cebpf4jnsgd1na2vs0mg"},{"bike_id":"3b2f0fbc-68b8-4a35-a3bb-8227bce0e1f5","system_id":"levelo_inurba_marseille","lat":43.2942,"lon":5.3862,"is_reserved":false,"is_disabled":false,"rental_uris":{"android":"levelo://app?vid=3b2f0fbc-68b8-4a35-a3bb-8227bce0e1f5","ios":"levelo://app?vid=3b2f0fbc-68b8-4a35-a3bb-8227bce0e1f5"},"vehicle_type_id":"4","last_reported":1729782578,"current_range_meters":4000,"station_id":"ce4bh2h2rcd13ifvqdh0","pricing_plan_id":"cebpf4jnsgd1na2vs0mg"},{"bike_id":"f0ddb062-f1fb-45da-a42c-3a1f74c198ee","system_id":"levelo_inurba_marseille","lat":43.28416,"lon":5.34991,"is_reserved":false,"is_disabled":false,"rental_uris":{"android":"levelo://app?vid=f0ddb062-f1fb-45da-a42c-3a1f74c198ee","ios":"levelo://app?vid=f0ddb062-f1fb-45da-a42c-3a1f74c198ee"},"vehicle_type_id":"4","last_reported":1729782578,"current_range_meters":22000,"station_id":"ce4bhbh2rcd13ifvqepg","pricing_plan_id":"cebpf4jnsgd1na2vs0mg"},{"bike_id":"b987f980-4c1d-46ec-94c6-7aabbd5a6046","system_id":"levelo_inurba_marseille","lat":43.30143,"lon":5.37408,"is_reserved":false,"is_disabled":false,"rental_uris":{"android":"levelo://app?vid=b987f980-4c1d-46ec-94c6-7aabbd5a6046","ios":"levelo://app?vid=b987f980-4c1d-46ec-94c6-7aabbd5a6046"},"vehicle_type_id":"4","last_reported":1729782578,"current_range_meters":4400,"station_id":"ce4bgs92rcd13ifvqcc0","pricing_plan_id":"cebpf4jnsgd1na2vs0mg"},{"bike_id":"65f982f2-2455-4027-8f00-27da3b66fb21","system_id":"levelo_inurba_marseille","lat":43.27494,"lon":5.42446,"is_reserved":false,"is_disabled":false,"rental_uris":{"android":"levelo://app?vid=65f982f2-2455-4027-8f00-27da3b66fb21","ios":"levelo://app?vid=65f982f2-2455-4027-8f00-27da3b66fb21"},"vehicle_type_id":"4","last_reported":1729782578,"current_range_meters":20800,"station_id":"ce4bhn92rcd13ifvqgrg","pricing_plan_id":"cebpf4jnsgd1na2vs0mg"},{"bike_id":"64b170f8-2500-48ef-96a3-25f7c0707542","system_id":"levelo_inurba_marseille","lat":43.337444,"lon":5.374475,"is_reserved":false,"is_disabled":false,"rental_uris":{"android":"levelo://app?vid=64b170f8-2500-48ef-96a3-25f7c0707542","ios":"levelo://app?vid=64b170f8-2500-48ef-96a3-25f7c0707542"},"vehicle_type_id":"4","last_reported":1729782578,"current_range_meters":6400,"station_id":"","pricing_plan_id":"cebpf4jnsgd1na2vs0mg"},{"bike_id":"546a3e07-a0c6-4467-90e1-bffa828aead5","system_id":"levelo_inurba_marseille","lat":43.30143,"lon":5.38082,"is_reserved":false,"is_disabled":false,"rental_uris":{"android":"levelo://app?vid=546a3e07-a0c6-4467-90e1-bffa828aead5","ios":"levelo://app?vid=546a3e07-a0c6-4467-90e1-bffa828aead5"},"vehicle_type_id":"4","last_reported":1729782578,"current_range_meters":38000,"station_id":"ce4bgjp2rcd13ifvqbh0","pricing_plan_id":"cebpf4jnsgd1na2vs0mg"},{"bike_id":"4f409860-e0f7-4877-99ee-a24fed7f0e97","system_id":"levelo_inurba_marseille","lat":43.2781,"lon":5.40718,"is_reserved":false,"is_disabled":false,"rental_uris":{"android":"levelo://app?vid=4f409860-e0f7-4877-99ee-a24fed7f0e97","ios":"levelo://app?vid=4f409860-e0f7-4877-99ee-a24fed7f0e97"},"vehicle_type_id":"4","last_reported":1729782578,"current_range_meters":36400,"station_id":"ce4bhnh2rcd13ifvqgtg","pricing_plan_id":"cebpf4jnsgd1na2vs0mg"},{"bike_id":"2fcdd798-e778-4442-9a04-c4ae9c6da565","system_id":"levelo_inurba_marseille","lat":43.2926,"lon":5.40919,"is_reserved":false,"is_disabled":false,"rental_uris":{"android":"levelo://app?vid=2fcdd798-e778-4442-9a04-c4ae9c6da565","ios":"levelo://app?vid=2fcdd798-e778-4442-9a04-c4ae9c6da565"},"vehicle_type_id":"4","last_reported":1729782578,"current_range_meters":18800,"station_id":"ce4bh192rcd13ifvqdc0","pricing_plan_id":"cebpf4jnsgd1na2vs0mg"},{"bike_id":"d86d9b25-9894-4853-a422-1be6249c8c5b","system_id":"levelo_inurba_marseille","lat":43.28423,"lon":5.34995,"is_reserved":false,"is_disabled":false,"rental_uris":{"android":"levelo://app?vid=d86d9b25-9894-4853-a422-1be6249c8c5b","ios":"levelo://app?vid=d86d9b25-9894-4853-a422-1be6249c8c5b"},"vehicle_type_id":"4","last_reported":1729782578,"current_range_meters":38800,"station_id":"ce4bhbh2rcd13ifvqepg","pricing_plan_id":"cebpf4jnsgd1na2vs0mg"},{"bike_id":"49050421-300c-4795-9f99-bbd3339efa99","system_id":"levelo_inurba_marseille","lat":43.269413,"lon":5.4027,"is_reserved":false,"is_disabled":false,"rental_uris":{"android":"levelo://app?vid=49050421-300c-4795-9f99-bbd3339efa99","ios":"levelo://app?vid=49050421-300c-4795-9f99-bbd3339efa99"},"vehicle_type_id":"4","last_reported":1729782578,"current_range_meters":38800,"station_id":"ce4bhip2rcd13ifvqft0","pricing_plan_id":"cebpf4jnsgd1na2vs0mg"},{"bike_id":"5c61fa31-2f6b-4794-9d44-e315b4a0f902","system_id":"levelo_inurba_marseille","lat":43.28468,"lon":5.35882,"is_reserved":false,"is_disabled":false,"rental_uris":{"android":"levelo://app?vid=5c61fa31-2f6b-4794-9d44-e315b4a0f902","ios":"levelo://app?vid=5c61fa31-2f6b-4794-9d44-e315b4a0f902"},"vehicle_type_id":"4","last_reported":1729782578,"current_range_meters":18800,"station_id":"ce4bhah2rcd13ifvqei0","pricing_plan_id":"cebpf4jnsgd1na2vs0mg"},{"bike_id":"08012de7-f51e-48ee-bb1d-b99885d76e89","system_id":"levelo_inurba_marseille","lat":43.32067,"lon":5.4155,"is_reserved":false,"is_disabled":false,"rental_uris":{"android":"levelo://app?vid=08012de7-f51e-48ee-bb1d-b99885d76e89","ios":"levelo://app?vid=08012de7-f51e-48ee-bb1d-b99885d76e89"},"vehicle_type_id":"4","last_reported":1729782578,"current_range_meters":12400,"station_id":"ce4bhq92rcd13ifvqhkg","pricing_plan_id":"cebpf4jnsgd1na2vs0mg"},{"bike_id":"20898146-24e3-4bb6-8ccd-175b2481019a","system_id":"levelo_inurba_marseille","lat":43.28043,"lon":5.36951,"is_reserved":false,"is_disabled":false,"rental_uris":{"android":"levelo://app?vid=20898146-24e3-4bb6-8ccd-175b2481019a","ios":"levelo://app?vid=20898146-24e3-4bb6-8ccd-175b2481019a"},"vehicle_type_id":"4","last_reported":1729782578,"current_range_meters":10800,"station_id":"ce4bha12rcd13ifvqef0","pricing_plan_id":"cebpf4jnsgd1na2vs0mg"},{"bike_id":"d08713f8-e2d9-413a-b878-9ee35db195b2","system_id":"levelo_inurba_marseille","lat":43.3055,"lon":5.36704,"is_reserved":false,"is_disabled":false,"rental_uris":{"android":"levelo://app?vid=d08713f8-e2d9-413a-b878-9ee35db195b2","ios":"levelo://app?vid=d08713f8-e2d9-413a-b878-9ee35db195b2"},"vehicle_type_id":"4","last_reported":1729782578,"current_range_meters":39200,"station_id":"ce4bgrp2rcd13ifvqc9g","pricing_plan_id":"cebpf4jnsgd1na2vs0mg"},{"bike_id":"8bd9a32c-6692-40a2-b529-04ce5c735254","system_id":"levelo_inurba_marseille","lat":43.30139,"lon":5.38789,"is_reserved":false,"is_disabled":false,"rental_uris":{"android":"levelo://app?vid=8bd9a32c-6692-40a2-b529-04ce5c735254","ios":"levelo://app?vid=8bd9a32c-6692-40a2-b529-04ce5c735254"},"vehicle_type_id":"4","last_reported":1729782578,"current_range_meters":20400,"station_id":"ce4bghh2rcd13ifvqb60","pricing_plan_id":"cebpf4jnsgd1na2vs0mg"},{"bike_id":"a6384bbe-251a-4c48-877b-59b548992d54","system_id":"levelo_inurba_marseille","lat":43.28937,"lon":5.39631,"is_reserved":false,"is_disabled":false,"rental_uris":{"android":"levelo://app?vid=a6384bbe-251a-4c48-877b-59b548992d54","ios":"levelo://app?vid=a6384bbe-251a-4c48-877b-59b548992d54"},"vehicle_type_id":"4","last_reported":1729782578,"current_range_meters":28800,"station_id":"ce4bh3h2rcd13ifvqdn0","pricing_plan_id":"cebpf4jnsgd1na2vs0mg"},{"bike_id":"463cf73e-92a6-4263-8726-6554d8b6c1c5","system_id":"levelo_inurba_marseille","lat":43.29787,"lon":5.39341,"is_reserved":false,"is_disabled":false,"rental_uris":{"android":"levelo://app?vid=463cf73e-92a6-4263-8726-6554d8b6c1c5","ios":"levelo://app?vid=463cf73e-92a6-4263-8726-6554d8b6c1c5"},"vehicle_type_id":"4","last_reported":1729782578,"current_range_meters":34800,"station_id":"chh1huq6cuj3fo74tm60","pricing_plan_id":"cebpf4jnsgd1na2vs0mg"},{"bike_id":"f6b036b1-ad4d-49b0-88ec-0d3a2a5aa2de","system_id":"levelo_inurba_marseille","lat":43.33718,"lon":5.39173,"is_reserved":false,"is_disabled":false,"rental_uris":{"android":"levelo://app?vid=f6b036b1-ad4d-49b0-88ec-0d3a2a5aa2de","ios":"levelo://app?vid=f6b036b1-ad4d-49b0-88ec-0d3a2a5aa2de"},"vehicle_type_id":"4","last_reported":1729782578,"current_range_meters":4400,"station_id":"ce4bhr92rcd13ifvqhsg","pricing_plan_id":"cebpf4jnsgd1na2vs0mg"},{"bike_id":"1e6ad4bb-a9a9-4984-aa12-147cb8ba15a8","system_id":"levelo_inurba_marseille","lat":43.30912,"lon":5.3685,"is_reserved":false,"is_disabled":false,"rental_uris":{"android":"levelo://app?vid=1e6ad4bb-a9a9-4984-aa12-147cb8ba15a8","ios":"levelo://app?vid=1e6ad4bb-a9a9-4984-aa12-147cb8ba15a8"},"vehicle_type_id":"4","last_reported":1729782578,"current_range_meters":27200,"station_id":"ce4bgn92rcd13ifvqbvg","pricing_plan_id":"cebpf4jnsgd1na2vs0mg"},{"bike_id":"807e98e3-c05c-42d0-b77c-7c8989c5bdc4","system_id":"levelo_inurba_marseille","lat":43.32484,"lon":5.36575,"is_reserved":false,"is_disabled":false,"rental_uris":{"android":"levelo://app?vid=807e98e3-c05c-42d0-b77c-7c8989c5bdc4","ios":"levelo://app?vid=807e98e3-c05c-42d0-b77c-7c8989c5bdc4"},"vehicle_type_id":"4","last_reported":1729782578,"current_range_meters":39200,"station_id":"ce4bhs12rcd13ifvqhvg","pricing_plan_id":"cebpf4jnsgd1na2vs0mg"},{"bike_id":"b89dde32-473b-4faa-83b6-9ae5cea72247","system_id":"levelo_inurba_marseille","lat":43.24662,"lon":5.38162,"is_reserved":false,"is_disabled":false,"rental_uris":{"android":"levelo://app?vid=b89dde32-473b-4faa-83b6-9ae5cea72247","ios":"levelo://app?vid=b89dde32-473b-4faa-83b6-9ae5cea72247"},"vehicle_type_id":"4","last_reported":1729782578,"current_range_meters":4000,"station_id":"ce4bhih2rcd13ifvqfr0","pricing_plan_id":"cebpf4jnsgd1na2vs0mg"},{"bike_id":"4644c21a-040e-4007-9a3d-3f693d2c3ea6","system_id":"levelo_inurba_marseille","lat":43.29627,"lon":5.37729,"is_reserved":false,"is_disabled":false,"rental_uris":{"android":"levelo://app?vid=4644c21a-040e-4007-9a3d-3f693d2c3ea6","ios":"levelo://app?vid=4644c21a-040e-4007-9a3d-3f693d2c3ea6"},"vehicle_type_id":"4","last_reported":1729782578,"current_range_meters":25200,"station_id":"ce4bgi92rcd13ifvqb90","pricing_plan_id":"cebpf4jnsgd1na2vs0mg"},{"bike_id":"6c5e0e54-165e-4325-96c9-66a8e483f89a","system_id":"levelo_inurba_marseille","lat":43.29959,"lon":5.41316,"is_reserved":false,"is_disabled":false,"rental_uris":{"android":"levelo://app?vid=6c5e0e54-165e-4325-96c9-66a8e483f89a","ios":"levelo://app?vid=6c5e0e54-165e-4325-96c9-66a8e483f89a"},"vehicle_type_id":"4","last_reported":1729782578,"current_range_meters":38800,"station_id":"ce4bhp12rcd13ifvqh9g","pricing_plan_id":"cebpf4jnsgd1na2vs0mg"},{"bike_id":"8f7856b2-c668-4f5d-940a-4d5f309812ca","system_id":"levelo_inurba_marseille","lat":43.24073,"lon":5.37759,"is_reserved":false,"is_disabled":false,"rental_uris":{"android":"levelo://app?vid=8f7856b2-c668-4f5d-940a-4d5f309812ca","ios":"levelo://app?vid=8f7856b2-c668-4f5d-940a-4d5f309812ca"},"vehicle_type_id":"4","last_reported":1729782578,"current_range_meters":33200,"station_id":"ce4bhnp2rcd13ifvqgvg","pricing_plan_id":"cebpf4jnsgd1na2vs0mg"},{"bike_id":"958e6c8c-b045-4c9e-b8c0-d2954888915e","system_id":"levelo_inurba_marseille","lat":43.30096,"lon":5.39085,"is_reserved":false,"is_disabled":false,"rental_uris":{"android":"levelo://app?vid=958e6c8c-b045-4c9e-b8c0-d2954888915e","ios":"levelo://app?vid=958e6c8c-b045-4c9e-b8c0-d2954888915e"},"vehicle_type_id":"4","last_reported":1729782578,"current_range_meters":38800,"station_id":"ce4bh192rcd13ifvqdb0","pricing_plan_id":"cebpf4jnsgd1na2vs0mg"},{"bike_id":"a88860bb-ba79-487c-88d4-831b43c5ce5b","system_id":"levelo_inurba_marseille","lat":43.31334,"lon":5.39701,"is_reserved":false,"is_disabled":false,"rental_uris":{"android":"levelo://app?vid=a88860bb-ba79-487c-88d4-831b43c5ce5b","ios":"levelo://app?vid=a88860bb-ba79-487c-88d4-831b43c5ce5b"},"vehicle_type_id":"4","last_reported":1729782578,"current_range_meters":20000,"station_id":"ce4bgvp2rcd13ifvqcu0","pricing_plan_id":"cebpf4jnsgd1na2vs0mg"},{"bike_id":"2e9cd500-648e-43a3-8d7e-288ead64fd77","system_id":"levelo_inurba_marseille","lat":43.29877,"lon":5.38905,"is_reserved":false,"is_disabled":false,"rental_uris":{"android":"levelo://app?vid=2e9cd500-648e-43a3-8d7e-288ead64fd77","ios":"levelo://app?vid=2e9cd500-648e-43a3-8d7e-288ead64fd77"},"vehicle_type_id":"4","last_reported":1729782578,"current_range_meters":25600,"station_id":"ce4bh392rcd13ifvqdl0","pricing_plan_id":"cebpf4jnsgd1na2vs0mg"},{"bike_id":"aba42095-8547-4667-81b1-9d73c73a5753","system_id":"levelo_inurba_marseille","lat":43.2572,"lon":5.41113,"is_reserved":false,"is_disabled":false,"rental_uris":{"android":"levelo://app?vid=aba42095-8547-4667-81b1-9d73c73a5753","ios":"levelo://app?vid=aba42095-8547-4667-81b1-9d73c73a5753"},"vehicle_type_id":"4","last_reported":1729782578,"current_range_meters":38800,"station_id":"ce4bhkp2rcd13ifvqgd0","pricing_plan_id":"cebpf4jnsgd1na2vs0mg"},{"bike_id":"055026e7-aca3-466f-b7b0-f1dd313c923a","system_id":"levelo_inurba_marseille","lat":43.32479,"lon":5.36568,"is_reserved":false,"is_disabled":false,"rental_uris":{"android":"levelo://app?vid=055026e7-aca3-466f-b7b0-f1dd313c923a","ios":"levelo://app?vid=055026e7-aca3-466f-b7b0-f1dd313c923a"},"vehicle_type_id":"4","last_reported":1729782578,"current_range_meters":39200,"station_id":"ce4bhs12rcd13ifvqhvg","pricing_plan_id":"cebpf4jnsgd1na2vs0mg"},{"bike_id":"5dac752b-5f3e-449b-8933-09241deb391d","system_id":"levelo_inurba_marseille","lat":43.26839,"lon":5.41112,"is_reserved":false,"is_disabled":false,"rental_uris":{"android":"levelo://app?vid=5dac752b-5f3e-449b-8933-09241deb391d","ios":"levelo://app?vid=5dac752b-5f3e-449b-8933-09241deb391d"},"vehicle_type_id":"4","last_reported":1729782578,"current_range_meters":14400,"station_id":"","pricing_plan_id":"cebpf4jnsgd1na2vs0mg"},{"bike_id":"e67e08dd-c84a-41d3-b544-317206e35492","system_id":"levelo_inurba_marseille","lat":43.30811,"lon":5.38162,"is_reserved":false,"is_disabled":false,"rental_uris":{"android":"levelo://app?vid=e67e08dd-c84a-41d3-b544-317206e35492","ios":"levelo://app?vid=e67e08dd-c84a-41d3-b544-317206e35492"},"vehicle_type_id":"4","last_reported":1729782578,"current_range_meters":14000,"station_id":"ce4bgt12rcd13ifvqce0","pricing_plan_id":"cebpf4jnsgd1na2vs0mg"},{"bike_id":"ef021f80-1c59-4276-9229-15d2e007af84","system_id":"levelo_inurba_marseille","lat":43.30805,"lon":5.38163,"is_reserved":false,"is_disabled":false,"rental_uris":{"android":"levelo://app?vid=ef021f80-1c59-4276-9229-15d2e007af84","ios":"levelo://app?vid=ef021f80-1c59-4276-9229-15d2e007af84"},"vehicle_type_id":"4","last_reported":1729782578,"current_range_meters":28400,"station_id":"ce4bgt12rcd13ifvqce0","pricing_plan_id":"cebpf4jnsgd1na2vs0mg"},{"bike_id":"1bb54344-8afe-4bad-8af2-e6f9afb4a54e","system_id":"levelo_inurba_marseille","lat":43.302844,"lon":5.400728,"is_reserved":false,"is_disabled":false,"rental_uris":{"android":"levelo://app?vid=1bb54344-8afe-4bad-8af2-e6f9afb4a54e","ios":"levelo://app?vid=1bb54344-8afe-4bad-8af2-e6f9afb4a54e"},"vehicle_type_id":"4","last_reported":1729782578,"current_range_meters":20000,"station_id":"ce4bgvh2rcd13ifvqcs0","pricing_plan_id":"cebpf4jnsgd1na2vs0mg"},{"bike_id":"d7e678bd-78e9-4704-a160-c069767a19d1","system_id":"levelo_inurba_marseille","lat":43.2987,"lon":5.39742,"is_reserved":false,"is_disabled":false,"rental_uris":{"android":"levelo://app?vid=d7e678bd-78e9-4704-a160-c069767a19d1","ios":"levelo://app?vid=d7e678bd-78e9-4704-a160-c069767a19d1"},"vehicle_type_id":"4","last_reported":1729782578,"current_range_meters":38800,"station_id":"ce4bh0h2rcd13ifvqd50","pricing_plan_id":"cebpf4jnsgd1na2vs0mg"},{"bike_id":"cd8cc058-0f4c-4b68-9703-804e3ffc3c30","system_id":"levelo_inurba_marseille","lat":43.31083,"lon":5.42436,"is_reserved":false,"is_disabled":false,"rental_uris":{"android":"levelo://app?vid=cd8cc058-0f4c-4b68-9703-804e3ffc3c30","ios":"levelo://app?vid=cd8cc058-0f4c-4b68-9703-804e3ffc3c30"},"vehicle_type_id":"4","last_reported":1729782578,"current_range_meters":27200,"station_id":"ce4bhp92rcd13ifvqhag","pricing_plan_id":"cebpf4jnsgd1na2vs0mg"},{"bike_id":"80e8e5e5-62df-47b5-8122-bbb92568b409","system_id":"levelo_inurba_marseille","lat":43.29606,"lon":5.37725,"is_reserved":false,"is_disabled":false,"rental_uris":{"android":"levelo://app?vid=80e8e5e5-62df-47b5-8122-bbb92568b409","ios":"levelo://app?vid=80e8e5e5-62df-47b5-8122-bbb92568b409"},"vehicle_type_id":"4","last_reported":1729782578,"current_range_meters":22800,"station_id":"ce4bgi92rcd13ifvqb90","pricing_plan_id":"cebpf4jnsgd1na2vs0mg"},{"bike_id":"45d55be7-c1be-4ee1-bb1e-36d9e9023187","system_id":"levelo_inurba_marseille","lat":43.30422,"lon":5.41271,"is_reserved":false,"is_disabled":false,"rental_uris":{"android":"levelo://app?vid=45d55be7-c1be-4ee1-bb1e-36d9e9023187","ios":"levelo://app?vid=45d55be7-c1be-4ee1-bb1e-36d9e9023187"},"vehicle_type_id":"4","last_reported":1729782578,"current_range_meters":16800,"station_id":"ce4bhop2rcd13ifvqh8g","pricing_plan_id":"cebpf4jnsgd1na2vs0mg"},{"bike_id":"ccfb8520-1b0f-413f-90eb-7b07cd2b27a2","system_id":"levelo_inurba_marseille","lat":43.29525,"lon":5.39051,"is_reserved":false,"is_disabled":false,"rental_uris":{"android":"levelo://app?vid=ccfb8520-1b0f-413f-90eb-7b07cd2b27a2","ios":"levelo://app?vid=ccfb8520-1b0f-413f-90eb-7b07cd2b27a2"},"vehicle_type_id":"4","last_reported":1729782578,"current_range_meters":10000,"station_id":"ce4bh3p2rcd13ifvqdp0","pricing_plan_id":"cebpf4jnsgd1na2vs0mg"},{"bike_id":"c9a2d075-b945-4679-b3f7-7e2b8efebcdc","system_id":"levelo_inurba_marseille","lat":43.302181,"lon":5.394661,"is_reserved":false,"is_disabled":false,"rental_uris":{"android":"levelo://app?vid=c9a2d075-b945-4679-b3f7-7e2b8efebcdc","ios":"levelo://app?vid=c9a2d075-b945-4679-b3f7-7e2b8efebcdc"},"vehicle_type_id":"4","last_reported":1729782578,"current_range_meters":8800,"station_id":"ce4bh0p2rcd13ifvqd70","pricing_plan_id":"cebpf4jnsgd1na2vs0mg"},{"bike_id":"40abb654-0b8b-479c-b552-2e7b2c60fd40","system_id":"levelo_inurba_marseille","lat":43.297119,"lon":5.37692,"is_reserved":false,"is_disabled":false,"rental_uris":{"android":"levelo://app?vid=40abb654-0b8b-479c-b552-2e7b2c60fd40","ios":"levelo://app?vid=40abb654-0b8b-479c-b552-2e7b2c60fd40"},"vehicle_type_id":"4","last_reported":1729782578,"current_range_meters":23200,"station_id":"ce4bgkh2rcd13ifvqbl0","pricing_plan_id":"cebpf4jnsgd1na2vs0mg"},{"bike_id":"40670dd6-b6b3-4075-aefc-6af82cc6a566","system_id":"levelo_inurba_marseille","lat":43.27371,"lon":5.36257,"is_reserved":false,"is_disabled":false,"rental_uris":{"android":"levelo://app?vid=40670dd6-b6b3-4075-aefc-6af82cc6a566","ios":"levelo://app?vid=40670dd6-b6b3-4075-aefc-6af82cc6a566"},"vehicle_type_id":"4","last_reported":1729782578,"current_range_meters":28800,"station_id":"ce4bhbh2rcd13ifvqeo0","pricing_plan_id":"cebpf4jnsgd1na2vs0mg"},{"bike_id":"204bd090-5ab9-4d29-ab53-e3f734097d5b","system_id":"levelo_inurba_marseille","lat":43.27071,"lon":5.42283,"is_reserved":false,"is_disabled":false,"rental_uris":{"android":"levelo://app?vid=204bd090-5ab9-4d29-ab53-e3f734097d5b","ios":"levelo://app?vid=204bd090-5ab9-4d29-ab53-e3f734097d5b"},"vehicle_type_id":"4","last_reported":1729782578,"current_range_meters":20800,"station_id":"ce4bhk92rcd13ifvqgb0","pricing_plan_id":"cebpf4jnsgd1na2vs0mg"},{"bike_id":"e905ef38-f901-4325-b18d-d3c2a3b3f2f4","system_id":"levelo_inurba_marseille","lat":43.30805,"lon":5.38166,"is_reserved":false,"is_disabled":false,"rental_uris":{"android":"levelo://app?vid=e905ef38-f901-4325-b18d-d3c2a3b3f2f4","ios":"levelo://app?vid=e905ef38-f901-4325-b18d-d3c2a3b3f2f4"},"vehicle_type_id":"4","last_reported":1729782578,"current_range_meters":12400,"station_id":"ce4bgt12rcd13ifvqce0","pricing_plan_id":"cebpf4jnsgd1na2vs0mg"},{"bike_id":"1bcb304c-6864-441d-ac3f-5dbf47343aec","system_id":"levelo_inurba_marseille","lat":43.30915,"lon":5.36855,"is_reserved":false,"is_disabled":false,"rental_uris":{"android":"levelo://app?vid=1bcb304c-6864-441d-ac3f-5dbf47343aec","ios":"levelo://app?vid=1bcb304c-6864-441d-ac3f-5dbf47343aec"},"vehicle_type_id":"4","last_reported":1729782578,"current_range_meters":38800,"station_id":"ce4bgn92rcd13ifvqbvg","pricing_plan_id":"cebpf4jnsgd1na2vs0mg"},{"bike_id":"c47c20e3-dce5-44fd-86a6-ef6b46242f44","system_id":"levelo_inurba_marseille","lat":43.30554,"lon":5.36535,"is_reserved":false,"is_disabled":false,"rental_uris":{"android":"levelo://app?vid=c47c20e3-dce5-44fd-86a6-ef6b46242f44","ios":"levelo://app?vid=c47c20e3-dce5-44fd-86a6-ef6b46242f44"},"vehicle_type_id":"4","last_reported":1729782578,"current_range_meters":16400,"station_id":"ce4bgs12rcd13ifvqcag","pricing_plan_id":"cebpf4jnsgd1na2vs0mg"},{"bike_id":"3724f2ee-7eb0-4307-9a54-0208f808de2e","system_id":"levelo_inurba_marseille","lat":43.30422,"lon":5.41288,"is_reserved":false,"is_disabled":false,"rental_uris":{"android":"levelo://app?vid=3724f2ee-7eb0-4307-9a54-0208f808de2e","ios":"levelo://app?vid=3724f2ee-7eb0-4307-9a54-0208f808de2e"},"vehicle_type_id":"4","last_reported":1729782578,"current_range_meters":16400,"station_id":"ce4bhop2rcd13ifvqh8g","pricing_plan_id":"cebpf4jnsgd1na2vs0mg"},{"bike_id":"ca27b1c5-9d25-4d2c-9c34-19c7cc9b961e","system_id":"levelo_inurba_marseille","lat":43.29577,"lon":5.37523,"is_reserved":false,"is_disabled":false,"rental_uris":{"android":"levelo://app?vid=ca27b1c5-9d25-4d2c-9c34-19c7cc9b961e","ios":"levelo://app?vid=ca27b1c5-9d25-4d2c-9c34-19c7cc9b961e"},"vehicle_type_id":"4","last_reported":1729782578,"current_range_meters":11200,"station_id":"ce4bgh92rcd13ifvqb50","pricing_plan_id":"cebpf4jnsgd1na2vs0mg"},{"bike_id":"0a9e4f4a-930a-4b59-9011-6a7af0d72146","system_id":"levelo_inurba_marseille","lat":43.29693,"lon":5.36278,"is_reserved":false,"is_disabled":false,"rental_uris":{"android":"levelo://app?vid=0a9e4f4a-930a-4b59-9011-6a7af0d72146","ios":"levelo://app?vid=0a9e4f4a-930a-4b59-9011-6a7af0d72146"},"vehicle_type_id":"4","last_reported":1729782578,"current_range_meters":18000,"station_id":"ce4bgm92rcd13ifvqbr0","pricing_plan_id":"cebpf4jnsgd1na2vs0mg"},{"bike_id":"8f3008ab-ce4a-4c4e-a444-0583291d6cfa","system_id":"levelo_inurba_marseille","lat":43.27179,"lon":5.40983,"is_reserved":false,"is_disabled":false,"rental_uris":{"android":"levelo://app?vid=8f3008ab-ce4a-4c4e-a444-0583291d6cfa","ios":"levelo://app?vid=8f3008ab-ce4a-4c4e-a444-0583291d6cfa"},"vehicle_type_id":"4","last_reported":1729782578,"current_range_meters":36000,"station_id":"ce4bhl12rcd13ifvqgf0","pricing_plan_id":"cebpf4jnsgd1na2vs0mg"},{"bike_id":"49596313-2f71-466f-a7e0-69273d48e670","system_id":"levelo_inurba_marseille","lat":43.26203,"lon":5.37928,"is_reserved":false,"is_disabled":false,"rental_uris":{"android":"levelo://app?vid=49596313-2f71-466f-a7e0-69273d48e670","ios":"levelo://app?vid=49596313-2f71-466f-a7e0-69273d48e670"},"vehicle_type_id":"4","last_reported":1729782578,"current_range_meters":6800,"station_id":"ce4bhjp2rcd13ifvqg90","pricing_plan_id":"cebpf4jnsgd1na2vs0mg"},{"bike_id":"23669e92-606c-4c7d-9130-802be0d96074","system_id":"levelo_inurba_marseille","lat":43.24655,"lon":5.38897,"is_reserved":false,"is_disabled":false,"rental_uris":{"android":"levelo://app?vid=23669e92-606c-4c7d-9130-802be0d96074","ios":"levelo://app?vid=23669e92-606c-4c7d-9130-802be0d96074"},"vehicle_type_id":"4","last_reported":1729782578,"current_range_meters":37600,"station_id":"ce4bhg12rcd13ifvqf60","pricing_plan_id":"cebpf4jnsgd1na2vs0mg"},{"bike_id":"0e941fd2-e1c2-4658-8fbb-572480e55cb4","system_id":"levelo_inurba_marseille","lat":43.25502,"lon":5.37653,"is_reserved":false,"is_disabled":false,"rental_uris":{"android":"levelo://app?vid=0e941fd2-e1c2-4658-8fbb-572480e55cb4","ios":"levelo://app?vid=0e941fd2-e1c2-4658-8fbb-572480e55cb4"},"vehicle_type_id":"4","last_reported":1729782578,"current_range_meters":18800,"station_id":"ce4bhh12rcd13ifvqff0","pricing_plan_id":"cebpf4jnsgd1na2vs0mg"},{"bike_id":"f7c26588-9a7a-42d8-bfb3-192af629e256","system_id":"levelo_inurba_marseille","lat":43.30444,"lon":5.3889,"is_reserved":false,"is_disabled":false,"rental_uris":{"android":"levelo://app?vid=f7c26588-9a7a-42d8-bfb3-192af629e256","ios":"levelo://app?vid=f7c26588-9a7a-42d8-bfb3-192af629e256"},"vehicle_type_id":"4","last_reported":1729782578,"current_range_meters":38800,"station_id":"ce4bgk12rcd13ifvqbi0","pricing_plan_id":"cebpf4jnsgd1na2vs0mg"},{"bike_id":"de2251bf-0aa0-49e2-b08f-d57c5b659d9a","system_id":"levelo_inurba_marseille","lat":43.28263,"lon":5.35063,"is_reserved":false,"is_disabled":false,"rental_uris":{"android":"levelo://app?vid=de2251bf-0aa0-49e2-b08f-d57c5b659d9a","ios":"levelo://app?vid=de2251bf-0aa0-49e2-b08f-d57c5b659d9a"},"vehicle_type_id":"4","last_reported":1729782578,"current_range_meters":30400,"station_id":"ce4bhbp2rcd13ifvqerg","pricing_plan_id":"cebpf4jnsgd1na2vs0mg"},{"bike_id":"747aa020-5fa7-44a1-a0d3-8fbc2f752529","system_id":"levelo_inurba_marseille","lat":43.24545,"lon":5.39526,"is_reserved":false,"is_disabled":false,"rental_uris":{"android":"levelo://app?vid=747aa020-5fa7-44a1-a0d3-8fbc2f752529","ios":"levelo://app?vid=747aa020-5fa7-44a1-a0d3-8fbc2f752529"},"vehicle_type_id":"4","last_reported":1729782578,"current_range_meters":4400,"station_id":"ce4bhlp2rcd13ifvqgjg","pricing_plan_id":"cebpf4jnsgd1na2vs0mg"},{"bike_id":"2c24b7db-8530-4b8a-a47f-dbdc25969496","system_id":"levelo_inurba_marseille","lat":43.31083,"lon":5.42433,"is_reserved":false,"is_disabled":false,"rental_uris":{"android":"levelo://app?vid=2c24b7db-8530-4b8a-a47f-dbdc25969496","ios":"levelo://app?vid=2c24b7db-8530-4b8a-a47f-dbdc25969496"},"vehicle_type_id":"4","last_reported":1729782578,"current_range_meters":30800,"station_id":"ce4bhp92rcd13ifvqhag","pricing_plan_id":"cebpf4jnsgd1na2vs0mg"},{"bike_id":"72b0a516-d84a-4521-89d7-48261f37c770","system_id":"levelo_inurba_marseille","lat":43.26559,"lon":5.37291,"is_reserved":false,"is_disabled":false,"rental_uris":{"android":"levelo://app?vid=72b0a516-d84a-4521-89d7-48261f37c770","ios":"levelo://app?vid=72b0a516-d84a-4521-89d7-48261f37c770"},"vehicle_type_id":"4","last_reported":1729782578,"current_range_meters":38800,"station_id":"ce4bhg12rcd13ifvqf70","pricing_plan_id":"cebpf4jnsgd1na2vs0mg"},