{"last_updated":1687194340,"ttl":30,"version":"2.2","data":{"bikes":[{"bike_id":"4cfed2f9-bd4b-4ac7-bfd3-22510e81b360","system_id":"levelo_inurba_marseille","lat":43.309076,"lon":5.368465,"is_reserved":false,"is_disabled":false,"rental_uris":{"android":"levelo://app?vid=4cfed2f9-bd4b-4ac7-bfd3-22510e81b360","ios":"levelo://app?vid=4cfed2f9-bd4b-4ac7-bfd3-22510e81b360"},"vehicle_type_id":"4","last_reported":1687194341,"current_range_meters":0,"station_id":"ce4bgn92rcd13ifvqbvg","pricing_plan_id":"free"},{"bike_id":"2a4c1dc3-4e3c-4ab9-bb46-5e19f27e0907","system_id":"levelo_inurba_marseille","lat":43.30958,"lon":5.37376,"is_reserved":false,"is_disabled":false,"rental_uris":{"android":"levelo://app?vid=2a4c1dc3-4e3c-4ab9-bb46-5e19f27e0907","ios":"levelo://app?vid=2a4c1dc3-4e3c-4ab9-bb46-5e19f27e0907"},"vehicle_type_id":"4","last_reported":1687194341,"current_range_meters":16400,"station_id":"","pricing_plan_id":"free"},{"bike_id":"2a3f151d-4455-4d4f-a0b7-08ee27bc7dce","system_id":"levelo_inurba_marseille","lat":43.305706,"lon":5.365654,"is_reserved":false,"is_disabled":false,"rental_uris":{"android":"levelo://app?vid=2a3f151d-4455-4d4f-a0b7-08ee27bc7dce","ios":"levelo://app?vid=2a3f151d-4455-4d4f-a0b7-08ee27bc7dce"},"vehicle_type_id":"4","last_reported":1687194341,"current_range_meters":30000,"station_id":"ce4bgs12rcd13ifvqcag","pricing_plan_id":"free"},{"bike_id":"3ec60be2-b952-4634-91e0-5f92fa51544b","system_id":"levelo_inurba_marseille","lat":43.305989,"lon":5.37225,"is_reserved":false,"is_disabled":false,"rental_uris":{"android":"levelo://app?vid=3ec60be2-b952-4634-91e0-5f92fa51544b","ios":"levelo://app?vid=3ec60be2-b952-4634-91e0-5f92fa51544b"},"vehicle_type_id":"4","last_reported":1687194341,"current_range_meters":27200,"station_id":"ce4bgqh2rcd13ifvqc4g","pricing_plan_id":"free"},{"bike_id":"6eb2d025-77f2-46fb-a6de-ba5fdf1407cf","system_id":"levelo_inurba_marseille","lat":43.31907,"lon":5.3733,"is_reserved":false,"is_disabled":false,"rental_uris":{"android":"levelo://app?vid=6eb2d025-77f2-46fb-a6de-ba5fdf1407cf","ios":"levelo://app?vid=6eb2d025-77f2-46fb-a6de-ba5fdf1407cf"},"vehicle_type_id":"4","last_reported":1687194341,"current_range_meters":0,"station_id":"","pricing_plan_id":"free"},{"bike_id":"05bacf8a-edde-4513-908b-2c5dabf7c495","system_id":"levelo_inurba_marseille","lat":43.311125,"lon":5.377624,"is_reserved":false,"is_disabled":false,"rental_uris":{"android":"levelo://app?vid=05bacf8a-edde-4513-908b-2c5dabf7c495","ios":"levelo://app?vid=05bacf8a-edde-4513-908b-2c5dabf7c495"},"vehicle_type_id":"4","last_reported":1687194341,"current_range_meters":7200,"station_id":"ce4bgt92rcd13ifvqcg0","pricing_plan_id":"free"},{"bike_id":"4d044c9f-070b-4764-8ba9-4e7d66b13721","system_id":"levelo_inurba_marseille","lat":43.311125,"lon":5.377624,"is_reserved":false,"is_disabled":false,"rental_uris":{"android":"levelo://app?vid=4d044c9f-070b-4764-8ba9-4e7d66b13721","ios":"levelo://app?vid=4d044c9f-070b-4764-8ba9-4e7d66b13721"},"vehicle_type_id":"4","last_reported":1687194341,"current_range_meters":0,"station_id":"ce4bgt92rcd13ifvqcg0","pricing_plan_id":"free"},{"bike_id":"e1fbaa32-4df9-40a6-b951-c69d36b1a52b","system_id":"levelo_inurba_marseille","lat":43.317075,"lon":5.377367,"is_reserved":false,"is_disabled":false,"rental_uris":{"android":"levelo://app?vid=e1fbaa32-4df9-40a6-b951-c69d36b1a52b","ios":"levelo://app?vid=e1fbaa32-4df9-40a6-b951-c69d36b1a52b"},"vehicle_type_id":"4","last_reported":1687194341,"current_range_meters":20400,"station_id":"ce4bgth2rcd13ifvqch0","pricing_plan_id":"free"},{"bike_id":"e394e8a3-8395-4593-825c-5dec0d725b94","system_id":"levelo_inurba_marseille","lat":43.3096,"lon":5.37962,"is_reserved":false,"is_disabled":false,"rental_uris":{"android":"levelo://app?vid=e394e8a3-8395-4593-825c-5dec0d725b94","ios":"levelo://app?vid=e394e8a3-8395-4593-825c-5dec0d725b94"},"vehicle_type_id":"4","last_reported":1687194341,"current_range_meters":18400,"station_id":"","pricing_plan_id":"free"},{"bike_id":"ae33307b-fcd5-479b-9ae1-9002ed226c6e","system_id":"levelo_inurba_marseille","lat":43.308012,"lon":5.381511,"is_reserved":false,"is_disabled":false,"rental_uris":{"android":"levelo://app?vid=ae33307b-fcd5-479b-9ae1-9002ed226c6e","ios":"levelo://app?vid=ae33307b-fcd5-479b-9ae1-9002ed226c6e"},"vehicle_type_id":"4","last_reported":1687194341,"current_range_meters":24400,"station_id":"ce4bgt12rcd13ifvqce0","pricing_plan_id":"free"},{"bike_id":"43fc693e-f2a9-4aec-8fd9-d094bb02cb70","system_id":"levelo_inurba_marseille","lat":43.304606,"lon":5.379026,"is_reserved":false,"is_disabled":false,"rental_uris":{"android":"levelo://app?vid=43fc693e-f2a9-4aec-8fd9-d094bb02cb70","ios":"levelo://app?vid=43fc693e-f2a9-4aec-8fd9-d094bb02cb70"},"vehicle_type_id":"4","last_reported":1687194341,"current_range_meters":12800,"station_id":"ce4bgup2rcd13ifvqcn0","pricing_plan_id":"free"},{"bike_id":"ce69a5ae-9b48-41eb-ad51-a392cfd17c5a","system_id":"levelo_inurba_marseille","lat":43.302784,"lon":5.377158,"is_reserved":false,"is_disabled":false,"rental_uris":{"android":"levelo://app?vid=ce69a5ae-9b48-41eb-ad51-a392cfd17c5a","ios":"levelo://app?vid=ce69a5ae-9b48-41eb-ad51-a392cfd17c5a"},"vehicle_type_id":"4","last_reported":1687194341,"current_range_meters":10400,"station_id":"ce4bguh2rcd13ifvqcj0","pricing_plan_id":"free"},{"bike_id":"14ca0985-0adf-47f6-bc74-3eec69677a14","system_id":"levelo_inurba_marseille","lat":43.301429,"lon":5.37413,"is_reserved":false,"is_disabled":false,"rental_uris":{"android":"levelo://app?vid=14ca0985-0adf-47f6-bc74-3eec69677a14","ios":"levelo://app?vid=14ca0985-0adf-47f6-bc74-3eec69677a14"},"vehicle_type_id":"4","last_reported":1687194341,"current_range_meters":24400,"station_id":"ce4bgs92rcd13ifvqcc0","pricing_plan_id":"free"},{"bike_id":"a113c5bf-7fdf-4565-a6e4-57bd691e6a41","system_id":"levelo_inurba_marseille","lat":43.299243,"lon":5.374807,"is_reserved":false,"is_disabled":false,"rental_uris":{"android":"levelo://app?vid=a113c5bf-7fdf-4565-a6e4-57bd691e6a41","ios":"levelo://app?vid=a113c5bf-7fdf-4565-a6e4-57bd691e6a41"},"vehicle_type_id":"4","last_reported":1687194341,"current_range_meters":18000,"station_id":"ce4bgjh2rcd13ifvqbg0","pricing_plan_id":"free"},{"bike_id":"18573d54-3019-448d-9b45-7f0ad2011552","system_id":"levelo_inurba_marseille","lat":43.299243,"lon":5.37481,"is_reserved":false,"is_disabled":false,"rental_uris":{"android":"levelo://app?vid=18573d54-3019-448d-9b45-7f0ad2011552","ios":"levelo://app?vid=18573d54-3019-448d-9b45-7f0ad2011552"},"vehicle_type_id":"4","last_reported":1687194341,"current_range_meters":18800,"station_id":"ce4bgjh2rcd13ifvqbg0","pricing_plan_id":"free"},{"bike_id":"851d344b-3538-45ab-b65c-aa8dbf080cad","system_id":"levelo_inurba_marseille","lat":43.297794,"lon":5.370888,"is_reserved":false,"is_disabled":false,"rental_uris":{"android":"levelo://app?vid=851d344b-3538-45ab-b65c-aa8dbf080cad","ios":"levelo://app?vid=851d344b-3538-45ab-b65c-aa8dbf080cad"},"vehicle_type_id":"4","last_reported":1687194341,"current_range_meters":17200,"station_id":"ce4bgop2rcd13ifvqc1g","pricing_plan_id":"free"},{"bike_id":"176f4894-d7fc-460e-aa5d-7c8c1e206dc3","system_id":"levelo_inurba_marseille","lat":43.29706,"lon":5.36618,"is_reserved":false,"is_disabled":false,"rental_uris":{"android":"levelo://app?vid=176f4894-d7fc-460e-aa5d-7c8c1e206dc3","ios":"levelo://app?vid=176f4894-d7fc-460e-aa5d-7c8c1e206dc3"},"vehicle_type_id":"4","last_reported":1687194341,"current_range_meters":28800,"station_id":"ce4bgn12rcd13ifvqbt0","pricing_plan_id":"free"},{"bike_id":"f5c7f8b6-0397-45cd-aaf7-282381eb2475","system_id":"levelo_inurba_marseille","lat":43.29703,"lon":5.36605,"is_reserved":false,"is_disabled":false,"rental_uris":{"android":"levelo://app?vid=f5c7f8b6-0397-45cd-aaf7-282381eb2475","ios":"levelo://app?vid=f5c7f8b6-0397-45cd-aaf7-282381eb2475"},"vehicle_type_id":"4","last_reported":1687194341,"current_range_meters":30000,"station_id":"ce4bgn12rcd13ifvqbt0","pricing_plan_id":"free"},{"bike_id":"dfb89c83-b1d8-4912-a602-c1e4df1fcb70","system_id":"levelo_inurba_marseille","lat":43.2968,"lon":5.37291,"is_reserved":false,"is_disabled":false,"rental_uris":{"android":"levelo://app?vid=dfb89c83-b1d8-4912-a602-c1e4df1fcb70","ios":"levelo://app?vid=dfb89c83-b1d8-4912-a602-c1e4df1fcb70"},"vehicle_type_id":"4","last_reported":1687194341,"current_range_meters":16800,"station_id":"ce4bgk12rcd13ifvqbj0","pricing_plan_id":"free"},{"bike_id":"702a9da0-1ac3-4753-93c0-30dd564db13e","system_id":"levelo_inurba_marseille","lat":43.303672,"lon":5.386227,"is_reserved":false,"is_disabled":false,"rental_uris":{"android":"levelo://app?vid=702a9da0-1ac3-4753-93c0-30dd564db13e","ios":"levelo://app?vid=702a9da0-1ac3-4753-93c0-30dd564db13e"},"vehicle_type_id":"4","last_reported":1687194341,"current_range_meters":27200,"station_id":"","pricing_plan_id":"free"},{"bike_id":"24f41ca5-b432-4feb-a0c8-a15026b97306","system_id":"levelo_inurba_marseille","lat":43.296131,"lon":5.370773,"is_reserved":false,"is_disabled":false,"rental_uris":{"android":"levelo://app?vid=24f41ca5-b432-4feb-a0c8-a15026b97306","ios":"levelo://app?vid=24f41ca5-b432-4feb-a0c8-a15026b97306"},"vehicle_type_id":"4","last_reported":1687194341,"current_range_meters":7600,"station_id":"ce4bgnh2rcd13ifvqc0g","pricing_plan_id":"free"},{"bike_id":"76067c81-8127-4811-9be6-d5aceaa16923","system_id":"levelo_inurba_marseille","lat":43.299028,"lon":5.381509,"is_reserved":false,"is_disabled":false,"rental_uris":{"android":"levelo://app?vid=76067c81-8127-4811-9be6-d5aceaa16923","ios":"levelo://app?vid=76067c81-8127-4811-9be6-d5aceaa16923"},"vehicle_type_id":"4","last_reported":1687194341,"current_range_meters":4800,"station_id":"ce4bgj12rcd13ifvqbc0","pricing_plan_id":"free"},{"bike_id":"24f9675a-8d21-415b-aa49-c502ddb17978","system_id":"levelo_inurba_marseille","lat":43.31753,"lon":5.39018,"is_reserved":false,"is_disabled":false,"rental_uris":{"android":"levelo://app?vid=24f9675a-8d21-415b-aa49-c502ddb17978","ios":"levelo://app?vid=24f9675a-8d21-415b-aa49-c502ddb17978"},"vehicle_type_id":"4","last_reported":1687194341,"current_range_meters":30400,"station_id":"ce4bhqp2rcd13ifvqhng","pricing_plan_id":"free"},{"bike_id":"6081c3d6-ef7b-4860-ab97-620d85c8f00c","system_id":"levelo_inurba_marseille","lat":43.295761,"lon":5.375029,"is_reserved":false,"is_disabled":false,"rental_uris":{"android":"levelo://app?vid=6081c3d6-ef7b-4860-ab97-620d85c8f00c","ios":"levelo://app?vid=6081c3d6-ef7b-4860-ab97-620d85c8f00c"},"vehicle_type_id":"4","last_reported":1687194341,"current_range_meters":12400,"station_id":"","pricing_plan_id":"free"},{"bike_id":"250c8a96-8498-4211-b8f3-1b00a8d1fbaf","system_id":"levelo_inurba_marseille","lat":43.296477,"lon":5.37768,"is_reserved":false,"is_disabled":false,"rental_uris":{"android":"levelo://app?vid=250c8a96-8498-4211-b8f3-1b00a8d1fbaf","ios":"levelo://app?vid=250c8a96-8498-4211-b8f3-1b00a8d1fbaf"},"vehicle_type_id":"4","last_reported":1687194341,"current_range_meters":8400,"station_id":"","pricing_plan_id":"free"},{"bike_id":"2dbbe7a2-eba5-41e9-8e8e-dc448f291ecd","system_id":"levelo_inurba_marseille","lat":43.304274,"lon":5.388873,"is_reserved":false,"is_disabled":false,"rental_uris":{"android":"levelo://app?vid=2dbbe7a2-eba5-41e9-8e8e-dc448f291ecd","ios":"levelo://app?vid=2dbbe7a2-eba5-41e9-8e8e-dc448f291ecd"},"vehicle_type_id":"4","last_reported":1687194341,"current_range_meters":5200,"station_id":"ce4bgk12rcd13ifvqbi0","pricing_plan_id":"free"},{"bike_id":"8839ef6c-377c-4409-a383-696ee62b1ee0","system_id":"levelo_inurba_marseille","lat":43.2957,"lon":5.37531,"is_reserved":false,"is_disabled":false,"rental_uris":{"android":"levelo://app?vid=8839ef6c-377c-4409-a383-696ee62b1ee0","ios":"levelo://app?vid=8839ef6c-377c-4409-a383-696ee62b1ee0"},"vehicle_type_id":"4","last_reported":1687194341,"current_range_meters":23600,"station_id":"ce4bgh92rcd13ifvqb50","pricing_plan_id":"free"},{"bike_id":"8bafc17c-c958-4531-800a-315661d6bf6a","system_id":"levelo_inurba_marseille","lat":43.298037,"lon":5.381066,"is_reserved":false,"is_disabled":false,"rental_uris":{"android":"levelo://app?vid=8bafc17c-c958-4531-800a-315661d6bf6a","ios":"levelo://app?vid=8bafc17c-c958-4531-800a-315661d6bf6a"},"vehicle_type_id":"4","last_reported":1687194341,"current_range_meters":13200,"station_id":"ce4bgip2rcd13ifvqbb0","pricing_plan_id":"free"},{"bike_id":"bdf67b5e-9474-451a-990d-6bbecb8023ed","system_id":"levelo_inurba_marseille","lat":43.296277,"lon":5.377108,"is_reserved":false,"is_disabled":false,"rental_uris":{"android":"levelo://app?vid=bdf67b5e-9474-451a-990d-6bbecb8023ed","ios":"levelo://app?vid=bdf67b5e-9474-451a-990d-6bbecb8023ed"},"vehicle_type_id":"4","last_reported":1687194341,"current_range_meters":11200,"station_id":"ce4bgi92rcd13ifvqb90","pricing_plan_id":"free"},{"bike_id":"2eb1519c-12db-433a-aeaa-cd1a60922964","system_id":"levelo_inurba_marseille","lat":43.29983,"lon":5.38483,"is_reserved":false,"is_disabled":false,"rental_uris":{"android":"levelo://app?vid=2eb1519c-12db-433a-aeaa-cd1a60922964","ios":"levelo://app?vid=2eb1519c-12db-433a-aeaa-cd1a60922964"},"vehicle_type_id":"4","last_reported":1687194341,"current_range_meters":2800,"station_id":"ce4bgj92rcd13ifvqbd0","pricing_plan_id":"free"},{"bike_id":"f9fbcaeb-66a3-4530-9e40-a225c33d3321","system_id":"levelo_inurba_marseille","lat":43.299707,"lon":5.384859,"is_reserved":false,"is_disabled":false,"rental_uris":{"android":"levelo://app?vid=f9fbcaeb-66a3-4530-9e40-a225c33d3321","ios":"levelo://app?vid=f9fbcaeb-66a3-4530-9e40-a225c33d3321"},"vehicle_type_id":"4","last_reported":1687194341,"current_range_meters":22400,"station_id":"ce4bgj92rcd13ifvqbd0","pricing_plan_id":"free"},{"bike_id":"c3efd588-4c04-4c0a-8cd6-9dc70ae4c9e6","system_id":"levelo_inurba_marseille","lat":43.299724,"lon":5.384848,"is_reserved":false,"is_disabled":false,"rental_uris":{"android":"levelo://app?vid=c3efd588-4c04-4c0a-8cd6-9dc70ae4c9e6","ios":"levelo://app?vid=c3efd588-4c04-4c0a-8cd6-9dc70ae4c9e6"},"vehicle_type_id":"4","last_reported":1687194341,"current_range_meters":23200,"station_id":"ce4bgj92rcd13ifvqbd0","pricing_plan_id":"free"},{"bike_id":"2e65306f-928f-4b5a-84e4-3d6b0ab350be","system_id":"levelo_inurba_marseille","lat":43.299707,"lon":5.384859,"is_reserved":false,"is_disabled":false,"rental_uris":{"android":"levelo://app?vid=2e65306f-928f-4b5a-84e4-3d6b0ab350be","ios":"levelo://app?vid=2e65306f-928f-4b5a-84e4-3d6b0ab350be"},"vehicle_type_id":"4","last_reported":1687194341,"current_range_meters":800,"station_id":"ce4bgj92rcd13ifvqbd0","pricing_plan_id":"free"},{"bike_id":"eb56f040-d7e3-440c-9d05-82afe187dd21","system_id":"levelo_inurba_marseille","lat":43.299717,"lon":5.384845,"is_reserved":false,"is_disabled":false,"rental_uris":{"android":"levelo://app?vid=eb56f040-d7e3-440c-9d05-82afe187dd21","ios":"levelo://app?vid=eb56f040-d7e3-440c-9d05-82afe187dd21"},"vehicle_type_id":"4","last_reported":1687194341,"current_range_meters":30800,"station_id":"ce4bgj92rcd13ifvqbd0","pricing_plan_id":"free"},{"bike_id":"0a65b0f9-213d-46ba-be68-d67e2ebd5b26","system_id":"levelo_inurba_marseille","lat":43.299717,"lon":5.384845,"is_reserved":false,"is_disabled":false,"rental_uris":{"android":"levelo://app?vid=0a65b0f9-213d-46ba-be68-d67e2ebd5b26","ios":"levelo://app?vid=0a65b0f9-213d-46ba-be68-d67e2ebd5b26"},"vehicle_type_id":"4","last_reported":1687194341,"current_range_meters":4400,"station_id":"ce4bgj92rcd13ifvqbd0","pricing_plan_id":"free"},{"bike_id":"ae61fb58-9604-4082-aaad-2e3c8b4c7b9c","system_id":"levelo_inurba_marseille","lat":43.29973,"lon":5.38509,"is_reserved":false,"is_disabled":false,"rental_uris":{"android":"levelo://app?vid=ae61fb58-9604-4082-aaad-2e3c8b4c7b9c","ios":"levelo://app?vid=ae61fb58-9604-4082-aaad-2e3c8b4c7b9c"},"vehicle_type_id":"4","last_reported":1687194341,"current_range_meters":16800,"station_id":"","pricing_plan_id":"free"},{"bike_id":"604914ad-cb20-463a-a010-04f4d1b4c672","system_id":"levelo_inurba_marseille","lat":43.32367,"lon":5.388836,"is_reserved":false,"is_disabled":false,"rental_uris":{"android":"levelo://app?vid=604914ad-cb20-463a-a010-04f4d1b4c672","ios":"levelo://app?vid=604914ad-cb20-463a-a010-04f4d1b4c672"},"vehicle_type_id":"4","last_reported":1687194341,"current_range_meters":2000,"station_id":"ce4bhqp2rcd13ifvqhog","pricing_plan_id":"free"},{"bike_id":"c25bbca6-334a-48c9-b2aa-c69eb97c9d81","system_id":"levelo_inurba_marseille","lat":43.32367,"lon":5.388836,"is_reserved":false,"is_disabled":false,"rental_uris":{"android":"levelo://app?vid=c25bbca6-334a-48c9-b2aa-c69eb97c9d81","ios":"levelo://app?vid=c25bbca6-334a-48c9-b2aa-c69eb97c9d81"},"vehicle_type_id":"4","last_reported":1687194341,"current_range_meters":25200,"station_id":"ce4bhqp2rcd13ifvqhog","pricing_plan_id":"free"},{"bike_id":"57fce510-8a75-4354-aba9-e3f72bfaf2da","system_id":"levelo_inurba_marseille","lat":43.29602,"lon":5.381084,"is_reserved":false,"is_disabled":false,"rental_uris":{"android":"levelo://app?vid=57fce510-8a75-4354-aba9-e3f72bfaf2da","ios":"levelo://app?vid=57fce510-8a75-4354-aba9-e3f72bfaf2da"},"vehicle_type_id":"4","last_reported":1687194341,"current_range_meters":800,"station_id":"ce4bgl12rcd13ifvqbo0","pricing_plan_id":"free"},{"bike_id":"fce2d04c-9489-47d0-8deb-91ea9019f535","system_id":"levelo_inurba_marseille","lat":43.293249,"lon":5.371578,"is_reserved":false,"is_disabled":false,"rental_uris":{"android":"levelo://app?vid=fce2d04c-9489-47d0-8deb-91ea9019f535","ios":"levelo://app?vid=fce2d04c-9489-47d0-8deb-91ea9019f535"},"vehicle_type_id":"4","last_reported":1687194341,"current_range_meters":14400,"station_id":"ce4bgh92rcd13ifvqb40","pricing_plan_id":"free"},{"bike_id":"a5c552cf-8544-4e4b-a61d-2b9a9b284032","system_id":"levelo_inurba_marseille","lat":43.293249,"lon":5.371578,"is_reserved":false,"is_disabled":false,"rental_uris":{"android":"levelo://app?vid=a5c552cf-8544-4e4b-a61d-2b9a9b284032","ios":"levelo://app?vid=a5c552cf-8544-4e4b-a61d-2b9a9b284032"},"vehicle_type_id":"4","last_reported":1687194341,"current_range_meters":14000,"station_id":"ce4bgh92rcd13ifvqb40","pricing_plan_id":"free"},{"bike_id":"6f5f10a2-3de7-4e17-8679-a9a22c08cf78","system_id":"levelo_inurba_marseille","lat":43.292311,"lon":5.360731,"is_reserved":false,"is_disabled":false,"rental_uris":{"android":"levelo://app?vid=6f5f10a2-3de7-4e17-8679-a9a22c08cf78","ios":"levelo://app?vid=6f5f10a2-3de7-4e17-8679-a9a22c08cf78"},"vehicle_type_id":"4","last_reported":1687194341,"current_range_meters":6800,"station_id":"ce4bhbh2rcd13ifvqeqg","pricing_plan_id":"free"},{"bike_id":"f96bc5ef-773a-4c29-b818-b40707fecfaa","system_id":"levelo_inurba_marseille","lat":43.305994,"lon":5.393687,"is_reserved":false,"is_disabled":false,"rental_uris":{"android":"levelo://app?vid=f96bc5ef-773a-4c29-b818-b40707fecfaa","ios":"levelo://app?vid=f96bc5ef-773a-4c29-b818-b40707fecfaa"},"vehicle_type_id":"4","last_reported":1687194341,"current_range_meters":31200,"station_id":"ce4bh0p2rcd13ifvqd80","pricing_plan_id":"free"},{"bike_id":"659b5d8b-1631-48ee-8cff-de6411143e1c","system_id":"levelo_inurba_marseille","lat":43.30298,"lon":5.39185,"is_reserved":false,"is_disabled":false,"rental_uris":{"android":"levelo://app?vid=659b5d8b-1631-48ee-8cff-de6411143e1c","ios":"levelo://app?vid=659b5d8b-1631-48ee-8cff-de6411143e1c"},"vehicle_type_id":"4","last_reported":1687194341,"current_range_meters":0,"station_id":"ce4bgkh2rcd13ifvqbk0","pricing_plan_id":"free"},{"bike_id":"7ee8e857-e58f-4d0f-9ec8-cf55d6494b29","system_id":"levelo_inurba_marseille","lat":43.29273,"lon":5.35965,"is_reserved":false,"is_disabled":false,"rental_uris":{"android":"levelo://app?vid=7ee8e857-e58f-4d0f-9ec8-cf55d6494b29","ios":"levelo://app?vid=7ee8e857-e58f-4d0f-9ec8-cf55d6494b29"},"vehicle_type_id":"4","last_reported":1687194341,"current_range_meters":6000,"station_id":"","pricing_plan_id":"free"},{"bike_id":"ed420b01-bd3e-4d55-9714-7781317a9157","system_id":"levelo_inurba_marseille","lat":43.303,"lon":5.39215,"is_reserved":false,"is_disabled":false,"rental_uris":{"android":"levelo://app?vid=ed420b01-bd3e-4d55-9714-7781317a9157","ios":"levelo://app?vid=ed420b01-bd3e-4d55-9714-7781317a9157"},"vehicle_type_id":"4","last_reported":1687194341,"current_range_meters":12400,"station_id":"ce4bgkh2rcd13ifvqbk0","pricing_plan_id":"free"},{"bike_id":"869bf639-9ebe-41c6-89d6-6145a1ff8795","system_id":"levelo_inurba_marseille","lat":43.300852,"lon":5.390859,"is_reserved":false,"is_disabled":false,"rental_uris":{"android":"levelo://app?vid=869bf639-9ebe-41c6-89d6-6145a1ff8795","ios":"levelo://app?vid=869bf639-9ebe-41c6-89d6-6145a1ff8795"},"vehicle_type_id":"4","last_reported":1687194341,"current_range_meters":3200,"station_id":"ce4bh192rcd13ifvqdb0","pricing_plan_id":"free"},{"bike_id":"0e8ce53d-274d-433a-925f-af9b0a05c83a","system_id":"levelo_inurba_marseille","lat":43.291675,"lon":5.371583,"is_reserved":false,"is_disabled":false,"rental_uris":{"android":"levelo://app?vid=0e8ce53d-274d-433a-925f-af9b0a05c83a","ios":"levelo://app?vid=0e8ce53d-274d-433a-925f-af9b0a05c83a"},"vehicle_type_id":"4","last_reported":1687194341,"current_range_meters":14800,"station_id":"ce4bha92rcd13ifvqeh0","pricing_plan_id":"free"},{"bike_id":"0f5ddcd6-96b7-43de-97dd-385b51cfbc32","system_id":"levelo_inurba_marseille","lat":43.29881,"lon":5.389,"is_reserved":false,"is_disabled":false,"rental_uris":{"android":"levelo://app?vid=0f5ddcd6-96b7-43de-97dd-385b51cfbc32","ios":"levelo://app?vid=0f5ddcd6-96b7-43de-97dd-385b51cfbc32"},"vehicle_type_id":"4","last_reported":1687194341,"current_range_meters":19200,"station_id":"ce4bh392rcd13ifvqdl0","pricing_plan_id":"free"},{"bike_id":"3a2f4c03-f023-4eef-9126-e50ea87d789f","system_id":"levelo_inurba_marseille","lat":43.291671,"lon":5.371575,"is_reserved":false,"is_disabled":false,"rental_uris":{"android":"levelo://app?vid=3a2f4c03-f023-4eef-9126-e50ea87d789f","ios":"levelo://app?vid=3a2f4c03-f023-4eef-9126-e50ea87d789f"},"vehicle_type_id":"4","last_reported":1687194341,"current_range_meters":18400,"station_id":"ce4bha92rcd13ifvqeh0","pricing_plan_id":"free"},{"bike_id":"b1e729cb-80f8-4569-a4e5-a398e8767339","system_id":"levelo_inurba_marseille","lat":43.291994,"lon":5.357886,"is_reserved":false,"is_disabled":false,"rental_uris":{"android":"levelo://app?vid=b1e729cb-80f8-4569-a4e5-a398e8767339","ios":"levelo://app?vid=b1e729cb-80f8-4569-a4e5-a398e8767339"},"vehicle_type_id":"4","last_reported":1687194341,"current_range_meters":19600,"station_id":"ce4bhb12rcd13ifvqel0","pricing_plan_id":"free"},{"bike_id":"118abdf7-aa87-42e2-9712-8a9d12e3c77e","system_id":"levelo_inurba_marseille","lat":43.29196,"lon":5.35786,"is_reserved":false,"is_disabled":false,"rental_uris":{"android":"levelo://app?vid=118abdf7-aa87-42e2-9712-8a9d12e3c77e","ios":"levelo://app?vid=118abdf7-aa87-42e2-9712-8a9d12e3c77e"},"vehicle_type_id":"4","last_reported":1687194341,"current_range_meters":4800,"station_id":"ce4bhb12rcd13ifvqel0","pricing_plan_id":"free"},{"bike_id":"d38c5de4-1b75-44fb-88b5-eb30bcdcd7d0","system_id":"levelo_inurba_marseille","lat":43.31325,"lon":5.396882,"is_reserved":false,"is_disabled":false,"rental_uris":{"android":"levelo://app?vid=d38c5de4-1b75-44fb-88b5-eb30bcdcd7d0","ios":"levelo://app?vid=d38c5de4-1b75-44fb-88b5-eb30bcdcd7d0"},"vehicle_type_id":"4","last_reported":1687194341,"current_range_meters":25600,"station_id":"","pricing_plan_id":"free"},{"bike_id":"b0149730-f08c-4514-8552-b20fd4c4f3f7","system_id":"levelo_inurba_marseille","lat":43.313291,"lon":5.396838,"is_reserved":false,"is_disabled":false,"rental_uris":{"android":"levelo://app?vid=b0149730-f08c-4514-8552-b20fd4c4f3f7","ios":"levelo://app?vid=b0149730-f08c-4514-8552-b20fd4c4f3f7"},"vehicle_type_id":"4","last_reported":1687194341,"current_range_meters":11600,"station_id":"ce4bgvp2rcd13ifvqcu0","pricing_plan_id":"free"},{"bike_id":"2b78336f-8f15-4552-8f61-b764a0507304","system_id":"levelo_inurba_marseille","lat":43.313291,"lon":5.396838,"is_reserved":false,"is_disabled":false,"rental_uris":{"android":"levelo://app?vid=2b78336f-8f15-4552-8f61-b764a0507304","ios":"levelo://app?vid=2b78336f-8f15-4552-8f61-b764a0507304"},"vehicle_type_id":"4","last_reported":1687194341,"current_range_meters":0,"station_id":"ce4bgvp2rcd13ifvqcu0","pricing_plan_id":"free"},{"bike_id":"75eee20a-584f-4622-824c-3e6e493c484a","system_id":"levelo_inurba_marseille","lat":43.30885,"lon":5.39643,"is_reserved":false,"is_disabled":false,"rental_uris":{"android":"levelo://app?vid=75eee20a-584f-4622-824c-3e6e493c484a","ios":"levelo://app?vid=75eee20a-584f-4622-824c-3e6e493c484a"},"vehicle_type_id":"4","last_reported":1687194341,"current_range_meters":4400,"station_id":"ce4bh012rcd13ifvqcv0","pricing_plan_id":"free"},{"bike_id":"c7ab5a88-f178-4808-8846-74ffc7353077","system_id":"levelo_inurba_marseille","lat":43.313291,"lon":5.396838,"is_reserved":false,"is_disabled":false,"rental_uris":{"android":"levelo://app?vid=c7ab5a88-f178-4808-8846-74ffc7353077","ios":"levelo://app?vid=c7ab5a88-f178-4808-8846-74ffc7353077"},"vehicle_type_id":"4","last_reported":1687194341,"current_range_meters":14800,"station_id":"ce4bgvp2rcd13ifvqcu0","pricing_plan_id":"free"},{"bike_id":"3915c7bb-de28-4fad-8258-dc010ce48b0f","system_id":"levelo_inurba_marseille","lat":43.291994,"lon":5.357886,"is_reserved":false,"is_disabled":false,"rental_uris":{"android":"levelo://app?vid=3915c7bb-de28-4fad-8258-dc010ce48b0f","ios":"levelo://app?vid=3915c7bb-de28-4fad-8258-dc010ce48b0f"},"vehicle_type_id":"4","last_reported":1687194341,"current_range_meters":2400,"station_id":"ce4bhb12rcd13ifvqel0","pricing_plan_id":"free"},{"bike_id":"4eddf60d-3511-4e9e-92b8-293e10c4b049","system_id":"levelo_inurba_marseille","lat":43.30888,"lon":5.39651,"is_reserved":false,"is_disabled":false,"rental_uris":{"android":"levelo://app?vid=4eddf60d-3511-4e9e-92b8-293e10c4b049","ios":"levelo://app?vid=4eddf60d-3511-4e9e-92b8-293e10c4b049"},"vehicle_type_id":"4","last_reported":1687194341,"current_range_meters":2800,"station_id":"ce4bh012rcd13ifvqcv0","pricing_plan_id":"free"},{"bike_id":"75b5ae49-28a9-4f2d-aed7-f2c1de4b783f","system_id":"levelo_inurba_marseille","lat":43.313291,"lon":5.396838,"is_reserved":false,"is_disabled":false,"rental_uris":{"android":"levelo://app?vid=75b5ae49-28a9-4f2d-aed7-f2c1de4b783f","ios":"levelo://app?vid=75b5ae49-28a9-4f2d-aed7-f2c1de4b783f"},"vehicle_type_id":"4","last_reported":1687194341,"current_range_meters":23600,"station_id":"ce4bgvp2rcd13ifvqcu0","pricing_plan_id":"free"},{"bike_id":"f593ec54-dad4-4653-bf90-92a80b5559b8","system_id":"levelo_inurba_marseille","lat":43.29529,"lon":5.385581,"is_reserved":false,"is_disabled":false,"rental_uris":{"android":"levelo://app?vid=f593ec54-dad4-4653-bf90-92a80b5559b8","ios":"levelo://app?vid=f593ec54-dad4-4653-bf90-92a80b5559b8"},"vehicle_type_id":"4","last_reported":1687194341,"current_range_meters":14400,"station_id":"ce4bgih2rcd13ifvqba0","pricing_plan_id":"free"},{"bike_id":"592ba31b-e745-45ab-90b4-2778990d7102","system_id":"levelo_inurba_marseille","lat":43.29529,"lon":5.385581,"is_reserved":false,"is_disabled":false,"rental_uris":{"android":"levelo://app?vid=592ba31b-e745-45ab-90b4-2778990d7102","ios":"levelo://app?vid=592ba31b-e745-45ab-90b4-2778990d7102"},"vehicle_type_id":"4","last_reported":1687194341,"current_range_meters":12400,"station_id":"ce4bgih2rcd13ifvqba0","pricing_plan_id":"free"},{"bike_id":"e8289157-d046-44eb-a92a-19ed8e5148a3","system_id":"levelo_inurba_marseille","lat":43.29529,"lon":5.385581,"is_reserved":false,"is_disabled":false,"rental_uris":{"android":"levelo://app?vid=e8289157-d046-44eb-a92a-19ed8e5148a3","ios":"levelo://app?vid=e8289157-d046-44eb-a92a-19ed8e5148a3"},"vehicle_type_id":"4","last_reported":1687194341,"current_range_meters":1200,"station_id":"ce4bgih2rcd13ifvqba0","pricing_plan_id":"free"},{"bike_id":"da127c0a-a9f2-4fe8-bb46-95539f0400b1","system_id":"levelo_inurba_marseille","lat":43.29529,"lon":5.385581,"is_reserved":false,"is_disabled":false,"rental_uris":{"android":"levelo://app?vid=da127c0a-a9f2-4fe8-bb46-95539f0400b1","ios":"levelo://app?vid=da127c0a-a9f2-4fe8-bb46-95539f0400b1"},"vehicle_type_id":"4","last_reported":1687194341,"current_range_meters":5200,"station_id":"ce4bgih2rcd13ifvqba0","pricing_plan_id":"free"},{"bike_id":"f8a2122e-7f1b-4853-b4b3-478af43f7653","system_id":"levelo_inurba_marseille","lat":43.29529,"lon":5.385581,"is_reserved":false,"is_disabled":false,"rental_uris":{"android":"levelo://app?vid=f8a2122e-7f1b-4853-b4b3-478af43f7653","ios":"levelo://app?vid=f8a2122e-7f1b-4853-b4b3-478af43f7653"},"vehicle_type_id":"4","last_reported":1687194341,"current_range_meters":27200,"station_id":"ce4bgih2rcd13ifvqba0","pricing_plan_id":"free"},{"bike_id":"00c9686e-e388-4bbc-add1-ecab6e8a18d0","system_id":"levelo_inurba_marseille","lat":43.29529,"lon":5.385581,"is_reserved":false,"is_disabled":false,"rental_uris":{"android":"levelo://app?vid=00c9686e-e388-4bbc-add1-ecab6e8a18d0","ios":"levelo://app?vid=00c9686e-e388-4bbc-add1-ecab6e8a18d0"},"vehicle_type_id":"4","last_reported":1687194341,"current_range_meters":6800,"station_id":"ce4bgih2rcd13ifvqba0","pricing_plan_id":"free"},{"bike_id":"d9f1b9c7-c321-4ee9-822e-9790202638a5","system_id":"levelo_inurba_marseille","lat":43.29073,"lon":5.37159,"is_reserved":false,"is_disabled":false,"rental_uris":{"android":"levelo://app?vid=d9f1b9c7-c321-4ee9-822e-9790202638a5","ios":"levelo://app?vid=d9f1b9c7-c321-4ee9-822e-9790202638a5"},"vehicle_type_id":"4","last_reported":1687194341,"current_range_meters":0,"station_id":"ce4bh5p2rcd13ifvqe4g","pricing_plan_id":"free"},{"bike_id":"3f9a9bae-71d4-450a-bbae-7a0cf8563c89","system_id":"levelo_inurba_marseille","lat":43.290779,"lon":5.371482,"is_reserved":false,"is_disabled":false,"rental_uris":{"android":"levelo://app?vid=3f9a9bae-71d4-450a-bbae-7a0cf8563c89","ios":"levelo://app?vid=3f9a9bae-71d4-450a-bbae-7a0cf8563c89"},"vehicle_type_id":"4","last_reported":1687194341,"current_range_meters":6000,"station_id":"ce4bh5p2rcd13ifvqe4g","pricing_plan_id":"free"},{"bike_id":"8864fc87-2dac-4d1a-a424-d250d4aca0f4","system_id":"levelo_inurba_marseille","lat":43.290631,"lon":5.359244,"is_reserved":false,"is_disabled":false,"rental_uris":{"android":"levelo://app?vid=8864fc87-2dac-4d1a-a424-d250d4aca0f4","ios":"levelo://app?vid=8864fc87-2dac-4d1a-a424-d250d4aca0f4"},"vehicle_type_id":"4","last_reported":1687194341,"current_range_meters":13200,"station_id":"ce4bha92rcd13ifvqeg0","pricing_plan_id":"free"},{"bike_id":"87b37adb-86dd-4e7a-8a37-c92fdd5a675e","system_id":"levelo_inurba_marseille","lat":43.290103,"lon":5.356114,"is_reserved":false,"is_disabled":false,"rental_uris":{"android":"levelo://app?vid=87b37adb-86dd-4e7a-8a37-c92fdd5a675e","ios":"levelo://app?vid=87b37adb-86dd-4e7a-8a37-c92fdd5a675e"},"vehicle_type_id":"4","last_reported":1687194341,"current_range_meters":7200,"station_id":"ce4bhb92rcd13ifvqen0","pricing_plan_id":"free"},{"bike_id":"a86667ea-6e8a-4380-bcb7-eda6244eb36a","system_id":"levelo_inurba_marseille","lat":43.290624,"lon":5.359245,"is_reserved":false,"is_disabled":false,"rental_uris":{"android":"levelo://app?vid=a86667ea-6e8a-4380-bcb7-eda6244eb36a","ios":"levelo://app?vid=a86667ea-6e8a-4380-bcb7-eda6244eb36a"},"vehicle_type_id":"4","last_reported":1687194341,"current_range_meters":9600,"station_id":"ce4bha92rcd13ifvqeg0","pricing_plan_id":"free"},{"bike_id":"5d6ad315-fe2d-4257-9740-c855270004ff","system_id":"levelo_inurba_marseille","lat":43.290631,"lon":5.359244,"is_reserved":false,"is_disabled":false,"rental_uris":{"android":"levelo://app?vid=5d6ad315-fe2d-4257-9740-c855270004ff","ios":"levelo://app?vid=5d6ad315-fe2d-4257-9740-c855270004ff"},"vehicle_type_id":"4","last_reported":1687194341,"current_range_meters":12800,"station_id":"ce4bha92rcd13ifvqeg0","pricing_plan_id":"free"},{"bike_id":"669f56b2-196b-4188-bfcc-fd243b3b60e9","system_id":"levelo_inurba_marseille","lat":43.290631,"lon":5.359244,"is_reserved":false,"is_disabled":false,"rental_uris":{"android":"levelo://app?vid=669f56b2-196b-4188-bfcc-fd243b3b60e9","ios":"levelo://app?vid=669f56b2-196b-4188-bfcc-fd243b3b60e9"},"vehicle_type_id":"4","last_reported":1687194341,"current_range_meters":17600,"station_id":"ce4bha92rcd13ifvqeg0","pricing_plan_id":"free"},{"bike_id":"000be868-d079-4ba8-92ca-0312f3b20857","system_id":"levelo_inurba_marseille","lat":43.290624,"lon":5.359245,"is_reserved":false,"is_disabled":false,"rental_uris":{"android":"levelo://app?vid=000be868-d079-4ba8-92ca-0312f3b20857","ios":"levelo://app?vid=000be868-d079-4ba8-92ca-0312f3b20857"},"vehicle_type_id":"4","last_reported":1687194341,"current_range_meters":29600,"station_id":"ce4bha92rcd13ifvqeg0","pricing_plan_id":"free"},{"bike_id":"c1a8b82a-6d28-40af-b9be-c7bcded60cb4","system_id":"levelo_inurba_marseille","lat":43.290631,"lon":5.359244,"is_reserved":false,"is_disabled":false,"rental_uris":{"android":"levelo://app?vid=c1a8b82a-6d28-40af-b9be-c7bcded60cb4","ios":"levelo://app?vid=c1a8b82a-6d28-40af-b9be-c7bcded60cb4"},"vehicle_type_id":"4","last_reported":1687194341,"current_range_meters":2800,"station_id":"ce4bha92rcd13ifvqeg0","pricing_plan_id":"free"},{"bike_id":"e4bdf4f5-5541-4887-9b8c-370b48ad7027","system_id":"levelo_inurba_marseille","lat":43.290327,"lon":5.375711,"is_reserved":false,"is_disabled":false,"rental_uris":{"android":"levelo://app?vid=e4bdf4f5-5541-4887-9b8c-370b48ad7027","ios":"levelo://app?vid=e4bdf4f5-5541-4887-9b8c-370b48ad7027"},"vehicle_type_id":"4","last_reported":1687194341,"current_range_meters":10400,"station_id":"ce4bh692rcd13ifvqe90","pricing_plan_id":"free"},{"bike_id":"c974058b-00ae-4859-b3e0-5b755e9ab423","system_id":"levelo_inurba_marseille","lat":43.290327,"lon":5.375711,"is_reserved":false,"is_disabled":false,"rental_uris":{"android":"levelo://app?vid=c974058b-00ae-4859-b3e0-5b755e9ab423","ios":"levelo://app?vid=c974058b-00ae-4859-b3e0-5b755e9ab423"},"vehicle_type_id":"4","last_reported":1687194341,"current_range_meters":18000,"station_id":"ce4bh692rcd13ifvqe90","pricing_plan_id":"free"},{"bike_id":"b68fbd84-5f77-4d19-8513-42007bb12e46","system_id":"levelo_inurba_marseille","lat":43.290327,"lon":5.375711,"is_reserved":false,"is_disabled":false,"rental_uris":{"android":"levelo://app?vid=b68fbd84-5f77-4d19-8513-42007bb12e46","ios":"levelo://app?vid=b68fbd84-5f77-4d19-8513-42007bb12e46"},"vehicle_type_id":"4","last_reported":1687194341,"current_range_meters":30400,"station_id":"ce4bh692rcd13ifvqe90","pricing_plan_id":"free"},{"bike_id":"d35f7593-5ac3-4252-bc3a-ef92dbdb4920","system_id":"levelo_inurba_marseille","lat":43.2903,"lon":5.37546,"is_reserved":false,"is_disabled":false,"rental_uris":{"android":"levelo://app?vid=d35f7593-5ac3-4252-bc3a-ef92dbdb4920","ios":"levelo://app?vid=d35f7593-5ac3-4252-bc3a-ef92dbdb4920"},"vehicle_type_id":"4","last_reported":1687194341,"current_range_meters":11600,"station_id":"ce4bh692rcd13ifvqe90","pricing_plan_id":"free"},{"bike_id":"0609f09b-61e5-40d1-a057-3a5b9409ddd1","system_id":"levelo_inurba_marseille","lat":43.29415,"lon":5.38621,"is_reserved":false,"is_disabled":false,"rental_uris":{"android":"levelo://app?vid=0609f09b-61e5-40d1-a057-3a5b9409ddd1","ios":"levelo://app?vid=0609f09b-61e5-40d1-a057-3a5b9409ddd1"},"vehicle_type_id":"4","last_reported":1687194341,"current_range_meters":28800,"station_id":"ce4bh2h2rcd13ifvqdh0","pricing_plan_id":"free"},{"bike_id":"536a7c5d-3677-4449-bb39-55a82576f3bd","system_id":"levelo_inurba_marseille","lat":43.294162,"lon":5.386292,"is_reserved":false,"is_disabled":false,"rental_uris":{"android":"levelo://app?vid=536a7c5d-3677-4449-bb39-55a82576f3bd","ios":"levelo://app?vid=536a7c5d-3677-4449-bb39-55a82576f3bd"},"vehicle_type_id":"4","last_reported":1687194341,"current_range_meters":400,"station_id":"ce4bh2h2rcd13ifvqdh0","pricing_plan_id":"free"},{"bike_id":"fb5ae669-a458-4366-8741-41c4d60569f0","system_id":"levelo_inurba_marseille","lat":43.294153,"lon":5.386305,"is_reserved":false,"is_disabled":false,"rental_uris":{"android":"levelo://app?vid=fb5ae669-a458-4366-8741-41c4d60569f0","ios":"levelo://app?vid=fb5ae669-a458-4366-8741-41c4d60569f0"},"vehicle_type_id":"4","last_reported":1687194341,"current_range_meters":4800,"station_id":"ce4bh2h2rcd13ifvqdh0","pricing_plan_id":"free"},{"bike_id":"e8bfe2db-f286-4c32-b8a3-7b7eca6e0fd0","system_id":"levelo_inurba_marseille","lat":43.294162,"lon":5.386292,"is_reserved":false,"is_disabled":false,"rental_uris":{"android":"levelo://app?vid=e8bfe2db-f286-4c32-b8a3-7b7eca6e0fd0","ios":"levelo://app?vid=e8bfe2db-f286-4c32-b8a3-7b7eca6e0fd0"},"vehicle_type_id":"4","last_reported":1687194341,"current_range_meters":1200,"station_id":"ce4bh2h2rcd13ifvqdh0","pricing_plan_id":"free"},{"bike_id":"4621cff2-5ff2-4d63-a8e2-644241014915","system_id":"levelo_inurba_marseille","lat":43.289468,"lon":5.363719,"is_reserved":false,"is_disabled":false,"rental_uris":{"android":"levelo://app?vid=4621cff2-5ff2-4d63-a8e2-644241014915","ios":"levelo://app?vid=4621cff2-5ff2-4d63-a8e2-644241014915"},"vehicle_type_id":"4","last_reported":1687194341,"current_range_meters":5600,"station_id":"ce4bhc92rcd13ifvqetg","pricing_plan_id":"free"},{"bike_id":"7c32142c-9e80-4e1b-bd3d-957edb982e78","system_id":"levelo_inurba_marseille","lat":43.289184,"lon":5.366408,"is_reserved":false,"is_disabled":false,"rental_uris":{"android":"levelo://app?vid=7c32142c-9e80-4e1b-bd3d-957edb982e78","ios":"levelo://app?vid=7c32142c-9e80-4e1b-bd3d-957edb982e78"},"vehicle_type_id":"4","last_reported":1687194341,"current_range_meters":16000,"station_id":"ce4bhap2rcd13ifvqek0","pricing_plan_id":"free"},{"bike_id":"4ed05839-0004-42f4-b9ed-fe0062d9255b","system_id":"levelo_inurba_marseille","lat":43.289184,"lon":5.366408,"is_reserved":false,"is_disabled":false,"rental_uris":{"android":"levelo://app?vid=4ed05839-0004-42f4-b9ed-fe0062d9255b","ios":"levelo://app?vid=4ed05839-0004-42f4-b9ed-fe0062d9255b"},"vehicle_type_id":"4","last_reported":1687194341,"current_range_meters":2400,"station_id":"ce4bhap2rcd13ifvqek0","pricing_plan_id":"free"},{"bike_id":"9fe67e4f-001e-4d2b-a7e6-97cc0f105510","system_id":"levelo_inurba_marseille","lat":43.289184,"lon":5.366408,"is_reserved":false,"is_disabled":false,"rental_uris":{"android":"levelo://app?vid=9fe67e4f-001e-4d2b-a7e6-97cc0f105510","ios":"levelo://app?vid=9fe67e4f-001e-4d2b-a7e6-97cc0f105510"},"vehicle_type_id":"4","last_reported":1687194341,"current_range_meters":0,"station_id":"ce4bhap2rcd13ifvqek0","pricing_plan_id":"free"},{"bike_id":"40b67382-ca57-4849-99a0-2107f61d9562","system_id":"levelo_inurba_marseille","lat":43.289184,"lon":5.366408,"is_reserved":false,"is_disabled":false,"rental_uris":{"android":"levelo://app?vid=40b67382-ca57-4849-99a0-2107f61d9562","ios":"levelo://app?vid=40b67382-ca57-4849-99a0-2107f61d9562"},"vehicle_type_id":"4","last_reported":1687194341,"current_range_meters":12800,"station_id":"ce4bhap2rcd13ifvqek0","pricing_plan_id":"free"},{"bike_id":"4ea54479-1a23-4681-8ee4-2193d8b4ed5d","system_id":"levelo_inurba_marseille","lat":43.289468,"lon":5.363719,"is_reserved":false,"is_disabled":false,"rental_uris":{"android":"levelo://app?vid=4ea54479-1a23-4681-8ee4-2193d8b4ed5d","ios":"levelo://app?vid=4ea54479-1a23-4681-8ee4-2193d8b4ed5d"},"vehicle_type_id":"4","last_reported":1687194341,"current_range_meters":0,"station_id":"ce4bhc92rcd13ifvqetg","pricing_plan_id":"free"},{"bike_id":"b4fafef3-96ea-45a0-957d-3dfd97853005","system_id":"levelo_inurba_marseille","lat":43.289184,"lon":5.366408,"is_reserved":false,"is_disabled":false,"rental_uris":{"android":"levelo://app?vid=b4fafef3-96ea-45a0-957d-3dfd97853005","ios":"levelo://app?vid=b4fafef3-96ea-45a0-957d-3dfd97853005"},"vehicle_type_id":"4","last_reported":1687194341,"current_range_meters":4800,"station_id":"ce4bhap2rcd13ifvqek0","pricing_plan_id":"free"},{"bike_id":"88bc8b54-ad05-47a8-bcf9-0efb3e35d2dc","system_id":"levelo_inurba_marseille","lat":43.28922,"lon":5.36646,"is_reserved":false,"is_disabled":false,"rental_uris":{"android":"levelo://app?vid=88bc8b54-ad05-47a8-bcf9-0efb3e35d2dc","ios":"levelo://app?vid=88bc8b54-ad05-47a8-bcf9-0efb3e35d2dc"},"vehicle_type_id":"4","last_reported":1687194341,"current_range_meters":25200,"station_id":"ce4bhap2rcd13ifvqek0","pricing_plan_id":"free"},{"bike_id":"25f654c3-cd77-4a86-9f12-2992dba86feb","system_id":"levelo_inurba_marseille","lat":43.292642,"lon":5.384254,"is_reserved":false,"is_disabled":false,"rental_uris":{"android":"levelo://app?vid=25f654c3-cd77-4a86-9f12-2992dba86feb","ios":"levelo://app?vid=25f654c3-cd77-4a86-9f12-2992dba86feb"},"vehicle_type_id":"4","last_reported":1687194341,"current_range_meters":1200,"station_id":"ce4bh692rcd13ifvqea0","pricing_plan_id":"free"},{"bike_id":"96597562-2b16-4251-9a3d-2efc2c058bab","system_id":"levelo_inurba_marseille","lat":43.292642,"lon":5.384254,"is_reserved":false,"is_disabled":false,"rental_uris":{"android":"levelo://app?vid=96597562-2b16-4251-9a3d-2efc2c058bab","ios":"levelo://app?vid=96597562-2b16-4251-9a3d-2efc2c058bab"},"vehicle_type_id":"4","last_reported":1687194341,"current_range_meters":26800,"station_id":"ce4bh692rcd13ifvqea0","pricing_plan_id":"free"},{"bike_id":"a293ebe9-9ae0-4a2c-b8e4-5582197b6674","system_id":"levelo_inurba_marseille","lat":43.292642,"lon":5.384254,"is_reserved":false,"is_disabled":false,"rental_uris":{"android":"levelo://app?vid=a293ebe9-9ae0-4a2c-b8e4-5582197b6674","ios":"levelo://app?vid=a293ebe9-9ae0-4a2c-b8e4-5582197b6674"},"vehicle_type_id":"4","last_reported":1687194341,"current_range_meters":18800,"station_id":"ce4bh692rcd13ifvqea0","pricing_plan_id":"free"},{"bike_id":"e67e31d4-2361-46f4-be4d-80e7df258c7b","system_id":"levelo_inurba_marseille","lat":43.292642,"lon":5.384254,"is_reserved":false,"is_disabled":false,"rental_uris":{"android":"levelo://app?vid=e67e31d4-2361-46f4-be4d-80e7df258c7b","ios":"levelo://app?vid=e67e31d4-2361-46f4-be4d-80e7df258c7b"},"vehicle_type_id":"4","last_reported":1687194341,"current_range_meters":31200,"station_id":"ce4bh692rcd13ifvqea0","pricing_plan_id":"free"},{"bike_id":"971d8a84-7b06-40fe-acaa-c144909136b8","system_id":"levelo_inurba_marseille","lat":43.292642,"lon":5.384254,"is_reserved":false,"is_disabled":false,"rental_uris":{"android":"levelo://app?vid=971d8a84-7b06-40fe-acaa-c144909136b8","ios":"levelo://app?vid=971d8a84-7b06-40fe-acaa-c144909136b8"},"vehicle_type_id":"4","last_reported":1687194341,"current_range_meters":0,"station_id":"ce4bh692rcd13ifvqea0","pricing_plan_id":"free"},{"bike_id":"6e490b1c-0cab-454c-973c-49b136f2b08e","system_id":"levelo_inurba_marseille","lat":43.30428,"lon":5.39749,"is_reserved":false,"is_disabled":false,"rental_uris":{"android":"levelo://app?vid=6e490b1c-0cab-454c-973c-49b136f2b08e","ios":"levelo://app?vid=6e490b1c-0cab-454c-973c-49b136f2b08e"},"vehicle_type_id":"4","last_reported":1687194341,"current_range_meters":24400,"station_id":"ce4bh092rcd13ifvqd20","pricing_plan_id":"free"},{"bike_id":"38eb09af-7166-42b9-865e-84246929498f","system_id":"levelo_inurba_marseille","lat":43.292644,"lon":5.384257,"is_reserved":false,"is_disabled":false,"rental_uris":{"android":"levelo://app?vid=38eb09af-7166-42b9-865e-84246929498f","ios":"levelo://app?vid=38eb09af-7166-42b9-865e-84246929498f"},"vehicle_type_id":"4","last_reported":1687194341,"current_range_meters":31200,"station_id":"ce4bh692rcd13ifvqea0","pricing_plan_id":"free"},{"bike_id":"9f0da20f-d3de-4955-b7fd-ff36fbdb9cdd","system_id":"levelo_inurba_marseille","lat":43.292642,"lon":5.384254,"is_reserved":false,"is_disabled":false,"rental_uris":{"android":"levelo://app?vid=9f0da20f-d3de-4955-b7fd-ff36fbdb9cdd","ios":"levelo://app?vid=9f0da20f-d3de-4955-b7fd-ff36fbdb9cdd"},"vehicle_type_id":"4","last_reported":1687194341,"current_range_meters":14800,"station_id":"ce4bh692rcd13ifvqea0","pricing_plan_id":"free"},{"bike_id":"a449db63-709b-4118-aad7-1f381557c91a","system_id":"levelo_inurba_marseille","lat":43.290104,"lon":5.356111,"is_reserved":false,"is_disabled":false,"rental_uris":{"android":"levelo://app?vid=a449db63-709b-4118-aad7-1f381557c91a","ios":"levelo://app?vid=a449db63-709b-4118-aad7-1f381557c91a"},"vehicle_type_id":"4","last_reported":1687194341,"current_range_meters":12800,"station_id":"ce4bhb92rcd13ifvqen0","pricing_plan_id":"free"},{"bike_id":"fdb7321a-4087-4bdf-bbd7-38b1c0285256","system_id":"levelo_inurba_marseille","lat":43.292644,"lon":5.384257,"is_reserved":false,"is_disabled":false,"rental_uris":{"android":"levelo://app?vid=fdb7321a-4087-4bdf-bbd7-38b1c0285256","ios":"levelo://app?vid=fdb7321a-4087-4bdf-bbd7-38b1c0285256"},"vehicle_type_id":"4","last_reported":1687194341,"current_range_meters":25200,"station_id":"ce4bh692rcd13ifvqea0","pricing_plan_id":"free"},{"bike_id":"10f94c83-1963-4f1f-938e-438ed650c155","system_id":"levelo_inurba_marseille","lat":43.290104,"lon":5.356111,"is_reserved":false,"is_disabled":false,"rental_uris":{"android":"levelo://app?vid=10f94c83-1963-4f1f-938e-438ed650c155","ios":"levelo://app?vid=10f94c83-1963-4f1f-938e-438ed650c155"},"vehicle_type_id":"4","last_reported":1687194341,"current_range_meters":25600,"station_id":"ce4bhb92rcd13ifvqen0","pricing_plan_id":"free"},{"bike_id":"1ff3d231-eed3-4d43-9182-511a4ccea53b","system_id":"levelo_inurba_marseille","lat":43.290104,"lon":5.356111,"is_reserved":false,"is_disabled":false,"rental_uris":{"android":"levelo://app?vid=1ff3d231-eed3-4d43-9182-511a4ccea53b","ios":"levelo://app?vid=1ff3d231-eed3-4d43-9182-511a4ccea53b"},"vehicle_type_id":"4","last_reported":1687194341,"current_range_meters":11200,"station_id":"ce4bhb92rcd13ifvqen0","pricing_plan_id":"free"},{"bike_id":"ab3f7302-913f-4520-aa41-792a98c17402","system_id":"levelo_inurba_marseille","lat":43.290104,"lon":5.356111,"is_reserved":false,"is_disabled":false,"rental_uris":{"android":"levelo://app?vid=ab3f7302-913f-4520-aa41-792a98c17402","ios":"levelo://app?vid=ab3f7302-913f-4520-aa41-792a98c17402"},"vehicle_type_id":"4","last_reported":1687194341,"current_range_meters":29600,"station_id":"ce4bhb92rcd13ifvqen0","pricing_plan_id":"free"},{"bike_id":"017493c1-f696-4900-a930-da29fc67cce6","system_id":"levelo_inurba_marseille","lat":43.290104,"lon":5.356111,"is_reserved":false,"is_disabled":false,"rental_uris":{"android":"levelo://app?vid=017493c1-f696-4900-a930-da29fc67cce6","ios":"levelo://app?vid=017493c1-f696-4900-a930-da29fc67cce6"},"vehicle_type_id":"4","last_reported":1687194341,"current_range_meters":6400,"station_id":"ce4bhb92rcd13ifvqen0","pricing_plan_id":"free"},{"bike_id":"37bb96ef-ec48-487a-a9b1-cb556a54a21a","system_id":"levelo_inurba_marseille","lat":43.290104,"lon":5.356111,"is_reserved":false,"is_disabled":false,"rental_uris":{"android":"levelo://app?vid=37bb96ef-ec48-487a-a9b1-cb556a54a21a","ios":"levelo://app?vid=37bb96ef-ec48-487a-a9b1-cb556a54a21a"},"vehicle_type_id":"4","last_reported":1687194341,"current_range_meters":3200,"station_id":"ce4bhb92rcd13ifvqen0","pricing_plan_id":"free"},{"bike_id":"c1febc55-7966-4d8a-9c33-b732519ffcab","system_id":"levelo_inurba_marseille","lat":43.33042,"lon":5.38918,"is_reserved":false,"is_disabled":false,"rental_uris":{"android":"levelo://app?vid=c1febc55-7966-4d8a-9c33-b732519ffcab","ios":"levelo://app?vid=c1febc55-7966-4d8a-9c33-b732519ffcab"},"vehicle_type_id":"4","last_reported":1687194341,"current_range_meters":18400,"station_id":"ce4bhr92rcd13ifvqhrg","pricing_plan_id":"free"},{"bike_id":"77ad13e7-fc05-4f6a-a5f4-dcc587d34bdd","system_id":"levelo_inurba_marseille","lat":43.290104,"lon":5.356111,"is_reserved":false,"is_disabled":false,"rental_uris":{"android":"levelo://app?vid=77ad13e7-fc05-4f6a-a5f4-dcc587d34bdd","ios":"levelo://app?vid=77ad13e7-fc05-4f6a-a5f4-dcc587d34bdd"},"vehicle_type_id":"4","last_reported":1687194341,"current_range_meters":24400,"station_id":"ce4bhb92rcd13ifvqen0","pricing_plan_id":"free"},{"bike_id":"05385303-c9ce-4e9b-8c78-7657e52734da","system_id":"levelo_inurba_marseille","lat":43.290104,"lon":5.356111,"is_reserved":false,"is_disabled":false,"rental_uris":{"android":"levelo://app?vid=05385303-c9ce-4e9b-8c78-7657e52734da","ios":"levelo://app?vid=05385303-c9ce-4e9b-8c78-7657e52734da"},"vehicle_type_id":"4","last_reported":1687194341,"current_range_meters":16000,"station_id":"ce4bhb92rcd13ifvqen0","pricing_plan_id":"free"},{"bike_id":"10469ee2-3a15-4e6a-8654-97626bd3e491","system_id":"levelo_inurba_marseille","lat":43.290104,"lon":5.356111,"is_reserved":false,"is_disabled":false,"rental_uris":{"android":"levelo://app?vid=10469ee2-3a15-4e6a-8654-97626bd3e491","ios":"levelo://app?vid=10469ee2-3a15-4e6a-8654-97626bd3e491"},"vehicle_type_id":"4","last_reported":1687194341,"current_range_meters":13200,"station_id":"ce4bhb92rcd13ifvqen0","pricing_plan_id":"free"},{"bike_id":"29daafa7-2b68-4d06-893b-60e694d2559f","system_id":"levelo_inurba_marseille","lat":43.290103,"lon":5.356114,"is_reserved":false,"is_disabled":false,"rental_uris":{"android":"levelo://app?vid=29daafa7-2b68-4d06-893b-60e694d2559f","ios":"levelo://app?vid=29daafa7-2b68-4d06-893b-60e694d2559f"},"vehicle_type_id":"4","last_reported":1687194341,"current_range_meters":23200,"station_id":"ce4bhb92rcd13ifvqen0","pricing_plan_id":"free"},{"bike_id":"fb6acc6f-4cbe-4954-acdc-07a2b6d128cf","system_id":"levelo_inurba_marseille","lat":43.290104,"lon":5.356111,"is_reserved":false,"is_disabled":false,"rental_uris":{"android":"levelo://app?vid=fb6acc6f-4cbe-4954-acdc-07a2b6d128cf","ios":"levelo://app?vid=fb6acc6f-4cbe-4954-acdc-07a2b6d128cf"},"vehicle_type_id":"4","last_reported":1687194341,"current_range_meters":19600,"station_id":"ce4bhb92rcd13ifvqen0","pricing_plan_id":"free"},{"bike_id":"1f2649fa-a505-4d71-b047-8664a2e13bd1","system_id":"levelo_inurba_marseille","lat":43.290104,"lon":5.356111,"is_reserved":false,"is_disabled":false,"rental_uris":{"android":"levelo://app?vid=1f2649fa-a505-4d71-b047-8664a2e13bd1","ios":"levelo://app?vid=1f2649fa-a505-4d71-b047-8664a2e13bd1"},"vehicle_type_id":"4","last_reported":1687194341,"current_range_meters":28400,"station_id":"ce4bhb92rcd13ifvqen0","pricing_plan_id":"free"},{"bike_id":"698ae5e6-2f5b-4ae5-8921-6fc724f82ad5","system_id":"levelo_inurba_marseille","lat":43.290103,"lon":5.356114,"is_reserved":false,"is_disabled":false,"rental_uris":{"android":"levelo://app?vid=698ae5e6-2f5b-4ae5-8921-6fc724f82ad5","ios":"levelo://app?vid=698ae5e6-2f5b-4ae5-8921-6fc724f82ad5"},"vehicle_type_id":"4","last_reported":1687194341,"current_range_meters":21600,"station_id":"ce4bhb92rcd13ifvqen0","pricing_plan_id":"free"},{"bike_id":"fdf7d3df-c1b6-46ac-8af4-083308d5343a","system_id":"levelo_inurba_marseille","lat":43.290103,"lon":5.356114,"is_reserved":false,"is_disabled":false,"rental_uris":{"android":"levelo://app?vid=fdf7d3df-c1b6-46ac-8af4-083308d5343a","ios":"levelo://app?vid=fdf7d3df-c1b6-46ac-8af4-083308d5343a"},"vehicle_type_id":"4","last_reported":1687194341,"current_range_meters":2000,"station_id":"ce4bhb92rcd13ifvqen0","pricing_plan_id":"free"},{"bike_id":"7856d747-eebc-4ac5-9e22-5ed7b896e660","system_id":"levelo_inurba_marseille","lat":43.290103,"lon":5.356114,"is_reserved":false,"is_disabled":false,"rental_uris":{"android":"levelo://app?vid=7856d747-eebc-4ac5-9e22-5ed7b896e660","ios":"levelo://app?vid=7856d747-eebc-4ac5-9e22-5ed7b896e660"},"vehicle_type_id":"4","last_reported":1687194341,"current_range_meters":0,"station_id":"ce4bhb92rcd13ifvqen0","pricing_plan_id":"free"},{"bike_id":"d7d9e924-4ef4-488f-bf08-6590ca872319","system_id":"levelo_inurba_marseille","lat":43.290103,"lon":5.356114,"is_reserved":false,"is_disabled":false,"rental_uris":{"android":"levelo://app?vid=d7d9e924-4ef4-488f-bf08-6590ca872319","ios":"levelo://app?vid=d7d9e924-4ef4-488f-bf08-6590ca872319"},"vehicle_type_id":"4","last_reported":1687194341,"current_range_meters":18000,"station_id":"ce4bhb92rcd13ifvqen0","pricing_plan_id":"free"},{"bike_id":"4da4c2bf-4006-48af-ac9d-41468f44d62e","system_id":"levelo_inurba_marseille","lat":43.290104,"lon":5.356111,"is_reserved":false,"is_disabled":false,"rental_uris":{"android":"levelo://app?vid=4da4c2bf-4006-48af-ac9d-41468f44d62e","ios":"levelo://app?vid=4da4c2bf-4006-48af-ac9d-41468f44d62e"},"vehicle_type_id":"4","last_reported":1687194341,"current_range_meters":26800,"station_id":"ce4bhb92rcd13ifvqen0","pricing_plan_id":"free"},{"bike_id":"62427282-f288-4dbe-a79b-987765d7fd59","system_id":"levelo_inurba_marseille","lat":43.290995,"lon":5.381361,"is_reserved":false,"is_disabled":false,"rental_uris":{"android":"levelo://app?vid=62427282-f288-4dbe-a79b-987765d7fd59","ios":"levelo://app?vid=62427282-f288-4dbe-a79b-987765d7fd59"},"vehicle_type_id":"4","last_reported":1687194341,"current_range_meters":0,"station_id":"ce4bh512rcd13ifvqe2g","pricing_plan_id":"free"},{"bike_id":"afd9a4f9-5606-43c7-8251-1cf84c6278c3","system_id":"levelo_inurba_marseille","lat":43.297815,"lon":5.393548,"is_reserved":false,"is_disabled":false,"rental_uris":{"android":"levelo://app?vid=afd9a4f9-5606-43c7-8251-1cf84c6278c3","ios":"levelo://app?vid=afd9a4f9-5606-43c7-8251-1cf84c6278c3"},"vehicle_type_id":"4","last_reported":1687194341,"current_range_meters":7200,"station_id":"chh1huq6cuj3fo74tm60","pricing_plan_id":"free"},{"bike_id":"ace4734b-0e45-46ab-bade-3aea0f72a9f1","system_id":"levelo_inurba_marseille","lat":43.297815,"lon":5.393548,"is_reserved":false,"is_disabled":false,"rental_uris":{"android":"levelo://app?vid=ace4734b-0e45-46ab-bade-3aea0f72a9f1","ios":"levelo://app?vid=ace4734b-0e45-46ab-bade-3aea0f72a9f1"},"vehicle_type_id":"4","last_reported":1687194341,"current_range_meters":18400,"station_id":"chh1huq6cuj3fo74tm60","pricing_plan_id":"free"},{"bike_id":"b9b44b37-7edf-4ab6-8685-17eb58a26dbc","system_id":"levelo_inurba_marseille","lat":43.295169,"lon":5.390426,"is_reserved":false,"is_disabled":false,"rental_uris":{"android":"levelo://app?vid=b9b44b37-7edf-4ab6-8685-17eb58a26dbc","ios":"levelo://app?vid=b9b44b37-7edf-4ab6-8685-17eb58a26dbc"},"vehicle_type_id":"4","last_reported":1687194341,"current_range_meters":31200,"station_id":"ce4bh3p2rcd13ifvqdp0","pricing_plan_id":"free"},{"bike_id":"18a130ff-cbd4-419d-9195-83e9ec0c1b69","system_id":"levelo_inurba_marseille","lat":43.289741,"lon":5.378306,"is_reserved":false,"is_disabled":false,"rental_uris":{"android":"levelo://app?vid=18a130ff-cbd4-419d-9195-83e9ec0c1b69","ios":"levelo://app?vid=18a130ff-cbd4-419d-9195-83e9ec0c1b69"},"vehicle_type_id":"4","last_reported":1687194341,"current_range_meters":0,"station_id":"ce4bh9p2rcd13ifvqed0","pricing_plan_id":"free"},{"bike_id":"dbf061f2-72bf-4ade-b69a-4b731333442f","system_id":"levelo_inurba_marseille","lat":43.295169,"lon":5.390426,"is_reserved":false,"is_disabled":false,"rental_uris":{"android":"levelo://app?vid=dbf061f2-72bf-4ade-b69a-4b731333442f","ios":"levelo://app?vid=dbf061f2-72bf-4ade-b69a-4b731333442f"},"vehicle_type_id":"4","last_reported":1687194341,"current_range_meters":10800,"station_id":"ce4bh3p2rcd13ifvqdp0","pricing_plan_id":"free"},{"bike_id":"8efd54b7-b0ca-47aa-8e98-6e270b9c628b","system_id":"levelo_inurba_marseille","lat":43.295169,"lon":5.390426,"is_reserved":false,"is_disabled":false,"rental_uris":{"android":"levelo://app?vid=8efd54b7-b0ca-47aa-8e98-6e270b9c628b","ios":"levelo://app?vid=8efd54b7-b0ca-47aa-8e98-6e270b9c628b"},"vehicle_type_id":"4","last_reported":1687194341,"current_range_meters":3600,"station_id":"ce4bh3p2rcd13ifvqdp0","pricing_plan_id":"free"},{"bike_id":"a5bd9006-7234-4c9d-8c53-f335cca14f4a","system_id":"levelo_inurba_marseille","lat":43.295169,"lon":5.390426,"is_reserved":false,"is_disabled":false,"rental_uris":{"android":"levelo://app?vid=a5bd9006-7234-4c9d-8c53-f335cca14f4a","ios":"levelo://app?vid=a5bd9006-7234-4c9d-8c53-f335cca14f4a"},"vehicle_type_id":"4","last_reported":1687194341,"current_range_meters":6000,"station_id":"ce4bh3p2rcd13ifvqdp0","pricing_plan_id":"free"},{"bike_id":"a60b63fd-791d-4591-8775-09cc324e21d5","system_id":"levelo_inurba_marseille","lat":43.290103,"lon":5.356114,"is_reserved":false,"is_disabled":false,"rental_uris":{"android":"levelo://app?vid=a60b63fd-791d-4591-8775-09cc324e21d5","ios":"levelo://app?vid=a60b63fd-791d-4591-8775-09cc324e21d5"},"vehicle_type_id":"4","last_reported":1687194341,"current_range_meters":0,"station_id":"ce4bhb92rcd13ifvqen0","pricing_plan_id":"free"},{"bike_id":"f05e1405-c3a0-4f5c-997d-bfa018ad047f","system_id":"levelo_inurba_marseille","lat":43.2901,"lon":5.381269,"is_reserved":false,"is_disabled":false,"rental_uris":{"android":"levelo://app?vid=f05e1405-c3a0-4f5c-997d-bfa018ad047f","ios":"levelo://app?vid=f05e1405-c3a0-4f5c-997d-bfa018ad047f"},"vehicle_type_id":"4","last_reported":1687194341,"current_range_meters":21200,"station_id":"ce4bh4p2rcd13ifvqe1g","pricing_plan_id":"free"},{"bike_id":"e1d2bcdd-523a-4dfc-97bd-c80cf157c34b","system_id":"levelo_inurba_marseille","lat":43.28856,"lon":5.358371,"is_reserved":false,"is_disabled":false,"rental_uris":{"android":"levelo://app?vid=e1d2bcdd-523a-4dfc-97bd-c80cf157c34b","ios":"levelo://app?vid=e1d2bcdd-523a-4dfc-97bd-c80cf157c34b"},"vehicle_type_id":"4","last_reported":1687194341,"current_range_meters":9600,"station_id":"ce4bhb12rcd13ifvqem0","pricing_plan_id":"free"},{"bike_id":"c13022c2-7bc9-4ed8-a7a6-ed9ece21bf93","system_id":"levelo_inurba_marseille","lat":43.28856,"lon":5.358371,"is_reserved":false,"is_disabled":false,"rental_uris":{"android":"levelo://app?vid=c13022c2-7bc9-4ed8-a7a6-ed9ece21bf93","ios":"levelo://app?vid=c13022c2-7bc9-4ed8-a7a6-ed9ece21bf93"},"vehicle_type_id":"4","last_reported":1687194341,"current_range_meters":6400,"station_id":"ce4bhb12rcd13ifvqem0","pricing_plan_id":"free"},{"bike_id":"101497e9-751b-48f5-af1f-3e10bc05f182","system_id":"levelo_inurba_marseille","lat":43.28856,"lon":5.358371,"is_reserved":false,"is_disabled":false,"rental_uris":{"android":"levelo://app?vid=101497e9-751b-48f5-af1f-3e10bc05f182","ios":"levelo://app?vid=101497e9-751b-48f5-af1f-3e10bc05f182"},"vehicle_type_id":"4","last_reported":1687194341,"current_range_meters":1200,"station_id":"ce4bhb12rcd13ifvqem0","pricing_plan_id":"free"},{"bike_id":"9d9ee9b2-a34b-4619-92a1-b67b42de6d76","system_id":"levelo_inurba_marseille","lat":43.28849,"lon":5.35833,"is_reserved":false,"is_disabled":false,"rental_uris":{"android":"levelo://app?vid=9d9ee9b2-a34b-4619-92a1-b67b42de6d76","ios":"levelo://app?vid=9d9ee9b2-a34b-4619-92a1-b67b42de6d76"},"vehicle_type_id":"4","last_reported":1687194341,"current_range_meters":2800,"station_id":"ce4bhb12rcd13ifvqem0","pricing_plan_id":"free"},{"bike_id":"749c2128-ad62-4ed5-8657-57ca898accf9","system_id":"levelo_inurba_marseille","lat":43.28856,"lon":5.358371,"is_reserved":false,"is_disabled":false,"rental_uris":{"android":"levelo://app?vid=749c2128-ad62-4ed5-8657-57ca898accf9","ios":"levelo://app?vid=749c2128-ad62-4ed5-8657-57ca898accf9"},"vehicle_type_id":"4","last_reported":1687194341,"current_range_meters":23600,"station_id":"ce4bhb12rcd13ifvqem0","pricing_plan_id":"free"},{"bike_id":"3f50ab8c-2491-42ca-8c41-5373a49ad8e9","system_id":"levelo_inurba_marseille","lat":43.28842,"lon":5.35852,"is_reserved":false,"is_disabled":false,"rental_uris":{"android":"levelo://app?vid=3f50ab8c-2491-42ca-8c41-5373a49ad8e9","ios":"levelo://app?vid=3f50ab8c-2491-42ca-8c41-5373a49ad8e9"},"vehicle_type_id":"4","last_reported":1687194341,"current_range_meters":13600,"station_id":"ce4bhb12rcd13ifvqem0","pricing_plan_id":"free"},{"bike_id":"e006e3f1-73af-4d4d-8626-313aed5b5829","system_id":"levelo_inurba_marseille","lat":43.309371,"lon":5.401449,"is_reserved":false,"is_disabled":false,"rental_uris":{"android":"levelo://app?vid=e006e3f1-73af-4d4d-8626-313aed5b5829","ios":"levelo://app?vid=e006e3f1-73af-4d4d-8626-313aed5b5829"},"vehicle_type_id":"4","last_reported":1687194341,"current_range_meters":8800,"station_id":"ce4bgvp2rcd13ifvqct0","pricing_plan_id":"free"},{"bike_id":"af662e15-832b-4533-af9d-1a4e41167610","system_id":"levelo_inurba_marseille","lat":43.309371,"lon":5.401449,"is_reserved":false,"is_disabled":false,"rental_uris":{"android":"levelo://app?vid=af662e15-832b-4533-af9d-1a4e41167610","ios":"levelo://app?vid=af662e15-832b-4533-af9d-1a4e41167610"},"vehicle_type_id":"4","last_reported":1687194341,"current_range_meters":17600,"station_id":"ce4bgvp2rcd13ifvqct0","pricing_plan_id":"free"},{"bike_id":"3deb1f6e-0ab3-474e-b8bb-a5863c327db0","system_id":"levelo_inurba_marseille","lat":43.30935,"lon":5.40147,"is_reserved":false,"is_disabled":false,"rental_uris":{"android":"levelo://app?vid=3deb1f6e-0ab3-474e-b8bb-a5863c327db0","ios":"levelo://app?vid=3deb1f6e-0ab3-474e-b8bb-a5863c327db0"},"vehicle_type_id":"4","last_reported":1687194341,"current_range_meters":18800,"station_id":"ce4bgvp2rcd13ifvqct0","pricing_plan_id":"free"},{"bike_id":"d23da691-1ad9-401f-8ad8-0a9defbe9b1a","system_id":"levelo_inurba_marseille","lat":43.309371,"lon":5.401449,"is_reserved":false,"is_disabled":false,"rental_uris":{"android":"levelo://app?vid=d23da691-1ad9-401f-8ad8-0a9defbe9b1a","ios":"levelo://app?vid=d23da691-1ad9-401f-8ad8-0a9defbe9b1a"},"vehicle_type_id":"4","last_reported":1687194341,"current_range_meters":4000,"station_id":"ce4bgvp2rcd13ifvqct0","pricing_plan_id":"free"},{"bike_id":"41a8749b-6d93-4d1b-8e52-c5f60f65ae7c","system_id":"levelo_inurba_marseille","lat":43.33756,"lon":5.3745,"is_reserved":false,"is_disabled":false,"rental_uris":{"android":"levelo://app?vid=41a8749b-6d93-4d1b-8e52-c5f60f65ae7c","ios":"levelo://app?vid=41a8749b-6d93-4d1b-8e52-c5f60f65ae7c"},"vehicle_type_id":"4","last_reported":1687194341,"current_range_meters":30800,"station_id":"","pricing_plan_id":"free"},{"bike_id":"2cc82dd6-0c30-4b26-990e-df1acb7a344b","system_id":"levelo_inurba_marseille","lat":43.30655,"lon":5.40087,"is_reserved":false,"is_disabled":false,"rental_uris":{"android":"levelo://app?vid=2cc82dd6-0c30-4b26-990e-df1acb7a344b","ios":"levelo://app?vid=2cc82dd6-0c30-4b26-990e-df1acb7a344b"},"vehicle_type_id":"4","last_reported":1687194341,"current_range_meters":20000,"station_id":"ce4bh112rcd13ifvqda0","pricing_plan_id":"free"},{"bike_id":"b34b0b72-8cc8-4086-a968-440a07c19996","system_id":"levelo_inurba_marseille","lat":43.30596,"lon":5.40089,"is_reserved":false,"is_disabled":false,"rental_uris":{"android":"levelo://app?vid=b34b0b72-8cc8-4086-a968-440a07c19996","ios":"levelo://app?vid=b34b0b72-8cc8-4086-a968-440a07c19996"},"vehicle_type_id":"4","last_reported":1687194341,"current_range_meters":16000,"station_id":"","pricing_plan_id":"free"},{"bike_id":"4cc6231a-f4d6-4ae7-ac5a-fa5558ce39ee","system_id":"levelo_inurba_marseille","lat":43.301117,"lon":5.398795,"is_reserved":false,"is_disabled":false,"rental_uris":{"android":"levelo://app?vid=4cc6231a-f4d6-4ae7-ac5a-fa5558ce39ee","ios":"levelo://app?vid=4cc6231a-f4d6-4ae7-ac5a-fa5558ce39ee"},"vehicle_type_id":"4","last_reported":1687194341,"current_range_meters":30000,"station_id":"ce4bh0h2rcd13ifvqd40","pricing_plan_id":"free"},{"bike_id":"28575b4d-68ba-4fde-b44e-ceb222f209ff","system_id":"levelo_inurba_marseille","lat":43.301117,"lon":5.398795,"is_reserved":false,"is_disabled":false,"rental_uris":{"android":"levelo://app?vid=28575b4d-68ba-4fde-b44e-ceb222f209ff","ios":"levelo://app?vid=28575b4d-68ba-4fde-b44e-ceb222f209ff"},"vehicle_type_id":"4","last_reported":1687194341,"current_range_meters":20000,"station_id":"ce4bh0h2rcd13ifvqd40","pricing_plan_id":"free"},{"bike_id":"8d4ac985-db1d-4869-aa10-5706c5c8c948","system_id":"levelo_inurba_marseille","lat":43.301117,"lon":5.398795,"is_reserved":false,"is_disabled":false,"rental_uris":{"android":"levelo://app?vid=8d4ac985-db1d-4869-aa10-5706c5c8c948","ios":"levelo://app?vid=8d4ac985-db1d-4869-aa10-5706c5c8c948"},"vehicle_type_id":"4","last_reported":1687194341,"current_range_meters":31200,"station_id":"ce4bh0h2rcd13ifvqd40","pricing_plan_id":"free"},{"bike_id":"b4a433cc-7328-43b1-ae0c-16f540c25b24","system_id":"levelo_inurba_marseille","lat":43.301117,"lon":5.398795,"is_reserved":false,"is_disabled":false,"rental_uris":{"android":"levelo://app?vid=b4a433cc-7328-43b1-ae0c-16f540c25b24","ios":"levelo://app?vid=b4a433cc-7328-43b1-ae0c-16f540c25b24"},"vehicle_type_id":"4","last_reported":1687194341,"current_range_meters":7600,"station_id":"ce4bh0h2rcd13ifvqd40","pricing_plan_id":"free"},{"bike_id":"64368933-7dbd-4d97-a50e-4c73d5a4200b","system_id":"levelo_inurba_marseille","lat":43.28711,"lon":5.37395,"is_reserved":false,"is_disabled":false,"rental_uris":{"android":"levelo://app?vid=64368933-7dbd-4d97-a50e-4c73d5a4200b","ios":"levelo://app?vid=64368933-7dbd-4d97-a50e-4c73d5a4200b"},"vehicle_type_id":"4","last_reported":1687194341,"current_range_meters":31200,"station_id":"ce4bh3p2rcd13ifvqdq0","pricing_plan_id":"free"},{"bike_id":"9fefcb73-9c7a-4822-9f91-8d1185ab2eaa","system_id":"levelo_inurba_marseille","lat":43.286591,"lon":5.363346,"is_reserved":false,"is_disabled":false,"rental_uris":{"android":"levelo://app?vid=9fefcb73-9c7a-4822-9f91-8d1185ab2eaa","ios":"levelo://app?vid=9fefcb73-9c7a-4822-9f91-8d1185ab2eaa"},"vehicle_type_id":"4","last_reported":1687194341,"current_range_meters":10400,"station_id":"ce4bhah2rcd13ifvqej0","pricing_plan_id":"free"},{"bike_id":"b9bfd550-185b-4007-babf-a5649e9cd566","system_id":"levelo_inurba_marseille","lat":43.2988,"lon":5.39738,"is_reserved":false,"is_disabled":false,"rental_uris":{"android":"levelo://app?vid=b9bfd550-185b-4007-babf-a5649e9cd566","ios":"levelo://app?vid=b9bfd550-185b-4007-babf-a5649e9cd566"},"vehicle_type_id":"4","last_reported":1687194341,"current_range_meters":0,"station_id":"ce4bh0h2rcd13ifvqd50","pricing_plan_id":"free"},{"bike_id":"77f87782-71ce-4bfc-b347-ed91a6cb4e6b","system_id":"levelo_inurba_marseille","lat":43.286961,"lon":5.373785,"is_reserved":false,"is_disabled":false,"rental_uris":{"android":"levelo://app?vid=77f87782-71ce-4bfc-b347-ed91a6cb4e6b","ios":"levelo://app?vid=77f87782-71ce-4bfc-b347-ed91a6cb4e6b"},"vehicle_type_id":"4","last_reported":1687194341,"current_range_meters":400,"station_id":"ce4bh3p2rcd13ifvqdq0","pricing_plan_id":"free"},{"bike_id":"efe17600-a1e4-4e42-9237-92df6d3fc34b","system_id":"levelo_inurba_marseille","lat":43.29871,"lon":5.39736,"is_reserved":false,"is_disabled":false,"rental_uris":{"android":"levelo://app?vid=efe17600-a1e4-4e42-9237-92df6d3fc34b","ios":"levelo://app?vid=efe17600-a1e4-4e42-9237-92df6d3fc34b"},"vehicle_type_id":"4","last_reported":1687194341,"current_range_meters":24800,"station_id":"ce4bh0h2rcd13ifvqd50","pricing_plan_id":"free"},{"bike_id":"c476a54f-8d83-4e77-a2f2-049d903ad886","system_id":"levelo_inurba_marseille","lat":43.28694,"lon":5.37391,"is_reserved":false,"is_disabled":false,"rental_uris":{"android":"levelo://app?vid=c476a54f-8d83-4e77-a2f2-049d903ad886","ios":"levelo://app?vid=c476a54f-8d83-4e77-a2f2-049d903ad886"},"vehicle_type_id":"4","last_reported":1687194341,"current_range_meters":25200,"station_id":"ce4bh3p2rcd13ifvqdq0","pricing_plan_id":"free"},{"bike_id":"3778fef4-bbaa-4fb2-8f23-cd2f75398f13","system_id":"levelo_inurba_marseille","lat":43.28749,"lon":5.37711,"is_reserved":false,"is_disabled":false,"rental_uris":{"android":"levelo://app?vid=3778fef4-bbaa-4fb2-8f23-cd2f75398f13","ios":"levelo://app?vid=3778fef4-bbaa-4fb2-8f23-cd2f75398f13"},"vehicle_type_id":"4","last_reported":1687194341,"current_range_meters":3600,"station_id":"","pricing_plan_id":"free"},{"bike_id":"13b28cb2-a69b-4560-b00e-9fae09934b10","system_id":"levelo_inurba_marseille","lat":43.298681,"lon":5.397225,"is_reserved":false,"is_disabled":false,"rental_uris":{"android":"levelo://app?vid=13b28cb2-a69b-4560-b00e-9fae09934b10","ios":"levelo://app?vid=13b28cb2-a69b-4560-b00e-9fae09934b10"},"vehicle_type_id":"4","last_reported":1687194341,"current_range_meters":1200,"station_id":"ce4bh0h2rcd13ifvqd50","pricing_plan_id":"free"},{"bike_id":"5284f260-dd31-4cd9-8ac9-e0974e8922dc","system_id":"levelo_inurba_marseille","lat":43.295194,"lon":5.39397,"is_reserved":false,"is_disabled":false,"rental_uris":{"android":"levelo://app?vid=5284f260-dd31-4cd9-8ac9-e0974e8922dc","ios":"levelo://app?vid=5284f260-dd31-4cd9-8ac9-e0974e8922dc"},"vehicle_type_id":"4","last_reported":1687194341,"current_range_meters":14400,"station_id":"ce4bh292rcd13ifvqdf0","pricing_plan_id":"free"},{"bike_id":"a859e5bc-6ff4-4b17-a34d-b8d8f44c2788","system_id":"levelo_inurba_marseille","lat":43.286961,"lon":5.373785,"is_reserved":false,"is_disabled":false,"rental_uris":{"android":"levelo://app?vid=a859e5bc-6ff4-4b17-a34d-b8d8f44c2788","ios":"levelo://app?vid=a859e5bc-6ff4-4b17-a34d-b8d8f44c2788"},"vehicle_type_id":"4","last_reported":1687194341,"current_range_meters":8400,"station_id":"ce4bh3p2rcd13ifvqdq0","pricing_plan_id":"free"},{"bike_id":"8123d841-ee04-487e-b241-f37ea3bb3d39","system_id":"levelo_inurba_marseille","lat":43.295194,"lon":5.39397,"is_reserved":false,"is_disabled":false,"rental_uris":{"android":"levelo://app?vid=8123d841-ee04-487e-b241-f37ea3bb3d39","ios":"levelo://app?vid=8123d841-ee04-487e-b241-f37ea3bb3d39"},"vehicle_type_id":"4","last_reported":1687194341,"current_range_meters":4400,"station_id":"ce4bh292rcd13ifvqdf0","pricing_plan_id":"free"},{"bike_id":"7b69997e-d111-4c8a-a593-1de1d71d0728","system_id":"levelo_inurba_marseille","lat":43.30252,"lon":5.40062,"is_reserved":false,"is_disabled":false,"rental_uris":{"android":"levelo://app?vid=7b69997e-d111-4c8a-a593-1de1d71d0728","ios":"levelo://app?vid=7b69997e-d111-4c8a-a593-1de1d71d0728"},"vehicle_type_id":"4","last_reported":1687194341,"current_range_meters":12000,"station_id":"","pricing_plan_id":"free"},{"bike_id":"d2750f1d-6c31-4856-8a14-46bd874bad45","system_id":"levelo_inurba_marseille","lat":43.29029,"lon":5.38647,"is_reserved":false,"is_disabled":false,"rental_uris":{"android":"levelo://app?vid=d2750f1d-6c31-4856-8a14-46bd874bad45","ios":"levelo://app?vid=d2750f1d-6c31-4856-8a14-46bd874bad45"},"vehicle_type_id":"4","last_reported":1687194341,"current_range_meters":18800,"station_id":"ce4bh4p2rcd13ifvqe0g","pricing_plan_id":"free"},{"bike_id":"4b61c903-aaf2-4f50-95c1-4087f719ab2a","system_id":"levelo_inurba_marseille","lat":43.290345,"lon":5.38646,"is_reserved":false,"is_disabled":false,"rental_uris":{"android":"levelo://app?vid=4b61c903-aaf2-4f50-95c1-4087f719ab2a","ios":"levelo://app?vid=4b61c903-aaf2-4f50-95c1-4087f719ab2a"},"vehicle_type_id":"4","last_reported":1687194341,"current_range_meters":27200,"station_id":"ce4bh4p2rcd13ifvqe0g","pricing_plan_id":"free"},{"bike_id":"3b371b54-d98c-46e2-a69c-49fb1aa3ff3c","system_id":"levelo_inurba_marseille","lat":43.302759,"lon":5.400793,"is_reserved":false,"is_disabled":false,"rental_uris":{"android":"levelo://app?vid=3b371b54-d98c-46e2-a69c-49fb1aa3ff3c","ios":"levelo://app?vid=3b371b54-d98c-46e2-a69c-49fb1aa3ff3c"},"vehicle_type_id":"4","last_reported":1687194341,"current_range_meters":20800,"station_id":"ce4bgvh2rcd13ifvqcs0","pricing_plan_id":"free"},{"bike_id":"e0eff886-3ba2-4635-b644-71e7fc8c4000","system_id":"levelo_inurba_marseille","lat":43.290336,"lon":5.386425,"is_reserved":false,"is_disabled":false,"rental_uris":{"android":"levelo://app?vid=e0eff886-3ba2-4635-b644-71e7fc8c4000","ios":"levelo://app?vid=e0eff886-3ba2-4635-b644-71e7fc8c4000"},"vehicle_type_id":"4","last_reported":1687194341,"current_range_meters":14000,"station_id":"ce4bh4p2rcd13ifvqe0g","pricing_plan_id":"free"},{"bike_id":"6508969b-e311-4e99-a7e1-d3604e63463d","system_id":"levelo_inurba_marseille","lat":43.2866,"lon":5.37422,"is_reserved":false,"is_disabled":false,"rental_uris":{"android":"levelo://app?vid=6508969b-e311-4e99-a7e1-d3604e63463d","ios":"levelo://app?vid=6508969b-e311-4e99-a7e1-d3604e63463d"},"vehicle_type_id":"4","last_reported":1687194341,"current_range_meters":10400,"station_id":"ce4bh3p2rcd13ifvqdq0","pricing_plan_id":"free"},{"bike_id":"be821724-5bb3-499c-a063-37a60b49f0a9","system_id":"levelo_inurba_marseille","lat":43.286039,"lon":5.370679,"is_reserved":false,"is_disabled":false,"rental_uris":{"android":"levelo://app?vid=be821724-5bb3-499c-a063-37a60b49f0a9","ios":"levelo://app?vid=be821724-5bb3-499c-a063-37a60b49f0a9"},"vehicle_type_id":"4","last_reported":1687194341,"current_range_meters":16000,"station_id":"ce4bht12rcd13ifvqi60","pricing_plan_id":"free"},{"bike_id":"6916db97-81c2-4aa4-b604-bbaecc779f1c","system_id":"levelo_inurba_marseille","lat":43.287184,"lon":5.37937,"is_reserved":false,"is_disabled":false,"rental_uris":{"android":"levelo://app?vid=6916db97-81c2-4aa4-b604-bbaecc779f1c","ios":"levelo://app?vid=6916db97-81c2-4aa4-b604-bbaecc779f1c"},"vehicle_type_id":"4","last_reported":1687194341,"current_range_meters":6800,"station_id":"ce4bh9p2rcd13ifvqec0","pricing_plan_id":"free"},{"bike_id":"c9fda62e-244f-42eb-bc80-4d8b976d4022","system_id":"levelo_inurba_marseille","lat":43.287185,"lon":5.379373,"is_reserved":false,"is_disabled":false,"rental_uris":{"android":"levelo://app?vid=c9fda62e-244f-42eb-bc80-4d8b976d4022","ios":"levelo://app?vid=c9fda62e-244f-42eb-bc80-4d8b976d4022"},"vehicle_type_id":"4","last_reported":1687194341,"current_range_meters":400,"station_id":"ce4bh9p2rcd13ifvqec0","pricing_plan_id":"free"},{"bike_id":"9777bb78-2d52-4794-b621-909743b6f70e","system_id":"levelo_inurba_marseille","lat":43.287184,"lon":5.37937,"is_reserved":false,"is_disabled":false,"rental_uris":{"android":"levelo://app?vid=9777bb78-2d52-4794-b621-909743b6f70e","ios":"levelo://app?vid=9777bb78-2d52-4794-b621-909743b6f70e"},"vehicle_type_id":"4","last_reported":1687194341,"current_range_meters":10000,"station_id":"ce4bh9p2rcd13ifvqec0","pricing_plan_id":"free"},{"bike_id":"68d29c3c-27dc-4a62-b94d-08c324e0552d","system_id":"levelo_inurba_marseille","lat":43.28713,"lon":5.3794,"is_reserved":false,"is_disabled":false,"rental_uris":{"android":"levelo://app?vid=68d29c3c-27dc-4a62-b94d-08c324e0552d","ios":"levelo://app?vid=68d29c3c-27dc-4a62-b94d-08c324e0552d"},"vehicle_type_id":"4","last_reported":1687194341,"current_range_meters":800,"station_id":"","pricing_plan_id":"free"},{"bike_id":"ff00f522-326c-4b57-9261-5f8b0804c637","system_id":"levelo_inurba_marseille","lat":43.316523,"lon":5.404367,"is_reserved":false,"is_disabled":false,"rental_uris":{"android":"levelo://app?vid=ff00f522-326c-4b57-9261-5f8b0804c637","ios":"levelo://app?vid=ff00f522-326c-4b57-9261-5f8b0804c637"},"vehicle_type_id":"4","last_reported":1687194341,"current_range_meters":4400,"station_id":"ce4bh012rcd13ifvqd00","pricing_plan_id":"free"},{"bike_id":"226721e2-5fdf-410a-8814-d8d42da95ebb","system_id":"levelo_inurba_marseille","lat":43.31646,"lon":5.40442,"is_reserved":false,"is_disabled":false,"rental_uris":{"android":"levelo://app?vid=226721e2-5fdf-410a-8814-d8d42da95ebb","ios":"levelo://app?vid=226721e2-5fdf-410a-8814-d8d42da95ebb"},"vehicle_type_id":"4","last_reported":1687194341,"current_range_meters":24000,"station_id":"ce4bh012rcd13ifvqd00","pricing_plan_id":"free"},{"bike_id":"7bc35185-9406-4169-ae29-6e2dfabfe6cb","system_id":"levelo_inurba_marseille","lat":43.291994,"lon":5.392907,"is_reserved":false,"is_disabled":false,"rental_uris":{"android":"levelo://app?vid=7bc35185-9406-4169-ae29-6e2dfabfe6cb","ios":"levelo://app?vid=7bc35185-9406-4169-ae29-6e2dfabfe6cb"},"vehicle_type_id":"4","last_reported":1687194341,"current_range_meters":14800,"station_id":"ce4bh192rcd13ifvqdd0","pricing_plan_id":"free"},{"bike_id":"bd2f5c14-64cb-4c2d-9ca8-1e152c1bfd49","system_id":"levelo_inurba_marseille","lat":43.291994,"lon":5.392907,"is_reserved":false,"is_disabled":false,"rental_uris":{"android":"levelo://app?vid=bd2f5c14-64cb-4c2d-9ca8-1e152c1bfd49","ios":"levelo://app?vid=bd2f5c14-64cb-4c2d-9ca8-1e152c1bfd49"},"vehicle_type_id":"4","last_reported":1687194341,"current_range_meters":30000,"station_id":"ce4bh192rcd13ifvqdd0","pricing_plan_id":"free"},{"bike_id":"9a8701f5-135f-413c-a8ce-fbd9a2802693","system_id":"levelo_inurba_marseille","lat":43.292,"lon":5.39322,"is_reserved":false,"is_disabled":false,"rental_uris":{"android":"levelo://app?vid=9a8701f5-135f-413c-a8ce-fbd9a2802693","ios":"levelo://app?vid=9a8701f5-135f-413c-a8ce-fbd9a2802693"},"vehicle_type_id":"4","last_reported":1687194341,"current_range_meters":1200,"station_id":"ce4bh192rcd13ifvqdd0","pricing_plan_id":"free"},{"bike_id":"75f7d182-a804-49f3-882b-b7d72238168a","system_id":"levelo_inurba_marseille","lat":43.291994,"lon":5.392907,"is_reserved":false,"is_disabled":false,"rental_uris":{"android":"levelo://app?vid=75f7d182-a804-49f3-882b-b7d72238168a","ios":"levelo://app?vid=75f7d182-a804-49f3-882b-b7d72238168a"},"vehicle_type_id":"4","last_reported":1687194341,"current_range_meters":19600,"station_id":"ce4bh192rcd13ifvqdd0","pricing_plan_id":"free"},{"bike_id":"a7fc1897-79df-49f5-b5a0-3a86b7ed938b","system_id":"levelo_inurba_marseille","lat":43.33362,"lon":5.39377,"is_reserved":false,"is_disabled":false,"rental_uris":{"android":"levelo://app?vid=a7fc1897-79df-49f5-b5a0-3a86b7ed938b","ios":"levelo://app?vid=a7fc1897-79df-49f5-b5a0-3a86b7ed938b"},"vehicle_type_id":"4","last_reported":1687194341,"current_range_meters":4800,"station_id":"","pricing_plan_id":"free"},{"bike_id":"c7875f67-2e7b-4098-b5c9-cfd1f193f550","system_id":"levelo_inurba_marseille","lat":43.284534,"lon":5.358662,"is_reserved":false,"is_disabled":false,"rental_uris":{"android":"levelo://app?vid=c7875f67-2e7b-4098-b5c9-cfd1f193f550","ios":"levelo://app?vid=c7875f67-2e7b-4098-b5c9-cfd1f193f550"},"vehicle_type_id":"4","last_reported":1687194341,"current_range_meters":19200,"station_id":"ce4bhah2rcd13ifvqei0","pricing_plan_id":"free"},{"bike_id":"a4fc25d8-3414-4bad-acdf-d56eca010e0a","system_id":"levelo_inurba_marseille","lat":43.284534,"lon":5.358662,"is_reserved":false,"is_disabled":false,"rental_uris":{"android":"levelo://app?vid=a4fc25d8-3414-4bad-acdf-d56eca010e0a","ios":"levelo://app?vid=a4fc25d8-3414-4bad-acdf-d56eca010e0a"},"vehicle_type_id":"4","last_reported":1687194341,"current_range_meters":23200,"station_id":"ce4bhah2rcd13ifvqei0","pricing_plan_id":"free"},{"bike_id":"92511ac5-cefe-4f24-a0b8-998109d1c924","system_id":"levelo_inurba_marseille","lat":43.284534,"lon":5.358662,"is_reserved":false,"is_disabled":false,"rental_uris":{"android":"levelo://app?vid=92511ac5-cefe-4f24-a0b8-998109d1c924","ios":"levelo://app?vid=92511ac5-cefe-4f24-a0b8-998109d1c924"},"vehicle_type_id":"4","last_reported":1687194341,"current_range_meters":15200,"station_id":"ce4bhah2rcd13ifvqei0","pricing_plan_id":"free"},{"bike_id":"3b818723-c420-4f99-923e-0e40dec0b476","system_id":"levelo_inurba_marseille","lat":43.284534,"lon":5.358662,"is_reserved":false,"is_disabled":false,"rental_uris":{"android":"levelo://app?vid=3b818723-c420-4f99-923e-0e40dec0b476","ios":"levelo://app?vid=3b818723-c420-4f99-923e-0e40dec0b476"},"vehicle_type_id":"4","last_reported":1687194341,"current_range_meters":10400,"station_id":"ce4bhah2rcd13ifvqei0","pricing_plan_id":"free"},{"bike_id":"87ba3843-7f13-459c-a8b8-3e43c845081b","system_id":"levelo_inurba_marseille","lat":43.284534,"lon":5.358662,"is_reserved":false,"is_disabled":false,"rental_uris":{"android":"levelo://app?vid=87ba3843-7f13-459c-a8b8-3e43c845081b","ios":"levelo://app?vid=87ba3843-7f13-459c-a8b8-3e43c845081b"},"vehicle_type_id":"4","last_reported":1687194341,"current_range_meters":6800,"station_id":"ce4bhah2rcd13ifvqei0","pricing_plan_id":"free"},{"bike_id":"7f684ca4-bf5b-4229-993b-ffee8bd6d310","system_id":"levelo_inurba_marseille","lat":43.294314,"lon":5.397498,"is_reserved":false,"is_disabled":false,"rental_uris":{"android":"levelo://app?vid=7f684ca4-bf5b-4229-993b-ffee8bd6d310","ios":"levelo://app?vid=7f684ca4-bf5b-4229-993b-ffee8bd6d310"},"vehicle_type_id":"4","last_reported":1687194341,"current_range_meters":27600,"station_id":"ce4bh3h2rcd13ifvqdo0","pricing_plan_id":"free"},{"bike_id":"574d0051-386c-4c59-aa68-c10eead93831","system_id":"levelo_inurba_marseille","lat":43.28454,"lon":5.35889,"is_reserved":false,"is_disabled":false,"rental_uris":{"android":"levelo://app?vid=574d0051-386c-4c59-aa68-c10eead93831","ios":"levelo://app?vid=574d0051-386c-4c59-aa68-c10eead93831"},"vehicle_type_id":"4","last_reported":1687194341,"current_range_meters":16400,"station_id":"ce4bhah2rcd13ifvqei0","pricing_plan_id":"free"},{"bike_id":"874f03b7-b19f-45fb-8d14-c16b4f6ebf66","system_id":"levelo_inurba_marseille","lat":43.285856,"lon":5.350771,"is_reserved":false,"is_disabled":false,"rental_uris":{"android":"levelo://app?vid=874f03b7-b19f-45fb-8d14-c16b4f6ebf66","ios":"levelo://app?vid=874f03b7-b19f-45fb-8d14-c16b4f6ebf66"},"vehicle_type_id":"4","last_reported":1687194341,"current_range_meters":14400,"station_id":"ce4bhch2rcd13ifvqeug","pricing_plan_id":"free"},{"bike_id":"78cf3edc-5a9b-4583-8344-82c4fe9a157f","system_id":"levelo_inurba_marseille","lat":43.283998,"lon":5.375062,"is_reserved":false,"is_disabled":false,"rental_uris":{"android":"levelo://app?vid=78cf3edc-5a9b-4583-8344-82c4fe9a157f","ios":"levelo://app?vid=78cf3edc-5a9b-4583-8344-82c4fe9a157f"},"vehicle_type_id":"4","last_reported":1687194341,"current_range_meters":23200,"station_id":"ce4bh412rcd13ifvqds0","pricing_plan_id":"free"},{"bike_id":"38dd2849-9301-43d7-bff0-1bab89484a95","system_id":"levelo_inurba_marseille","lat":43.295713,"lon":5.399639,"is_reserved":false,"is_disabled":false,"rental_uris":{"android":"levelo://app?vid=38dd2849-9301-43d7-bff0-1bab89484a95","ios":"levelo://app?vid=38dd2849-9301-43d7-bff0-1bab89484a95"},"vehicle_type_id":"4","last_reported":1687194341,"current_range_meters":25600,"station_id":"ce4bh312rcd13ifvqdj0","pricing_plan_id":"free"},{"bike_id":"ef609857-2eeb-48f2-b29b-2e1c8799da59","system_id":"levelo_inurba_marseille","lat":43.295713,"lon":5.399639,"is_reserved":false,"is_disabled":false,"rental_uris":{"android":"levelo://app?vid=ef609857-2eeb-48f2-b29b-2e1c8799da59","ios":"levelo://app?vid=ef609857-2eeb-48f2-b29b-2e1c8799da59"},"vehicle_type_id":"4","last_reported":1687194341,"current_range_meters":8800,"station_id":"ce4bh312rcd13ifvqdj0","pricing_plan_id":"free"},{"bike_id":"42438d17-49ef-4a13-92a7-3b4d005d2290","system_id":"levelo_inurba_marseille","lat":43.283998,"lon":5.375062,"is_reserved":false,"is_disabled":false,"rental_uris":{"android":"levelo://app?vid=42438d17-49ef-4a13-92a7-3b4d005d2290","ios":"levelo://app?vid=42438d17-49ef-4a13-92a7-3b4d005d2290"},"vehicle_type_id":"4","last_reported":1687194341,"current_range_meters":11600,"station_id":"ce4bh412rcd13ifvqds0","pricing_plan_id":"free"},{"bike_id":"c045cb17-574f-4660-8f66-166f0b1385e9","system_id":"levelo_inurba_marseille","lat":43.283998,"lon":5.375062,"is_reserved":false,"is_disabled":false,"rental_uris":{"android":"levelo://app?vid=c045cb17-574f-4660-8f66-166f0b1385e9","ios":"levelo://app?vid=c045cb17-574f-4660-8f66-166f0b1385e9"},"vehicle_type_id":"4","last_reported":1687194341,"current_range_meters":0,"station_id":"ce4bh412rcd13ifvqds0","pricing_plan_id":"free"},{"bike_id":"f6fda2f2-04f1-4377-bae3-2fc212d95c47","system_id":"levelo_inurba_marseille","lat":43.34235,"lon":5.36186,"is_reserved":false,"is_disabled":false,"rental_uris":{"android":"levelo://app?vid=f6fda2f2-04f1-4377-bae3-2fc212d95c47","ios":"levelo://app?vid=f6fda2f2-04f1-4377-bae3-2fc212d95c47"},"vehicle_type_id":"4","last_reported":1687194341,"current_range_meters":14800,"station_id":"","pricing_plan_id":"free"},{"bike_id":"5b2fc41f-a12f-4f9d-af5b-0b5ea3878924","system_id":"levelo_inurba_marseille","lat":43.28683,"lon":5.38729,"is_reserved":false,"is_disabled":false,"rental_uris":{"android":"levelo://app?vid=5b2fc41f-a12f-4f9d-af5b-0b5ea3878924","ios":"levelo://app?vid=5b2fc41f-a12f-4f9d-af5b-0b5ea3878924"},"vehicle_type_id":"4","last_reported":1687194341,"current_range_meters":21600,"station_id":"","pricing_plan_id":"free"},{"bike_id":"bc91a154-5a26-4cf5-8415-238092932230","system_id":"levelo_inurba_marseille","lat":43.283998,"lon":5.375062,"is_reserved":false,"is_disabled":false,"rental_uris":{"android":"levelo://app?vid=bc91a154-5a26-4cf5-8415-238092932230","ios":"levelo://app?vid=bc91a154-5a26-4cf5-8415-238092932230"},"vehicle_type_id":"4","last_reported":1687194341,"current_range_meters":0,"station_id":"ce4bh412rcd13ifvqds0","pricing_plan_id":"free"},{"bike_id":"43275ef6-770c-4f0e-926c-1c3aecd7abec","system_id":"levelo_inurba_marseille","lat":43.287909,"lon":5.390554,"is_reserved":false,"is_disabled":false,"rental_uris":{"android":"levelo://app?vid=43275ef6-770c-4f0e-926c-1c3aecd7abec","ios":"levelo://app?vid=43275ef6-770c-4f0e-926c-1c3aecd7abec"},"vehicle_type_id":"4","last_reported":1687194341,"current_range_meters":8000,"station_id":"","pricing_plan_id":"free"},{"bike_id":"00b4d942-d645-4a17-a320-9c02b5ecca68","system_id":"levelo_inurba_marseille","lat":43.288501,"lon":5.393087,"is_reserved":false,"is_disabled":false,"rental_uris":{"android":"levelo://app?vid=00b4d942-d645-4a17-a320-9c02b5ecca68","ios":"levelo://app?vid=00b4d942-d645-4a17-a320-9c02b5ecca68"},"vehicle_type_id":"4","last_reported":1687194341,"current_range_meters":17600,"station_id":"ce4bh2p2rcd13ifvqdi0","pricing_plan_id":"free"},{"bike_id":"584337e6-da5e-43a7-aa78-d5c5862512bf","system_id":"levelo_inurba_marseille","lat":43.29602,"lon":5.381084,"is_reserved":false,"is_disabled":false,"rental_uris":{"android":"levelo://app?vid=584337e6-da5e-43a7-aa78-d5c5862512bf","ios":"levelo://app?vid=584337e6-da5e-43a7-aa78-d5c5862512bf"},"vehicle_type_id":"4","last_reported":1687194341,"current_range_meters":28400,"station_id":"ce4bgl12rcd13ifvqbo0","pricing_plan_id":"free"},{"bike_id":"28f2cb91-185d-43f2-883b-8e479317159c","system_id":"levelo_inurba_marseille","lat":43.288497,"lon":5.393089,"is_reserved":false,"is_disabled":false,"rental_uris":{"android":"levelo://app?vid=28f2cb91-185d-43f2-883b-8e479317159c","ios":"levelo://app?vid=28f2cb91-185d-43f2-883b-8e479317159c"},"vehicle_type_id":"4","last_reported":1687194341,"current_range_meters":29600,"station_id":"ce4bh2p2rcd13ifvqdi0","pricing_plan_id":"free"},{"bike_id":"d3ddd202-1adf-4027-8c8e-f1e58b7a70b0","system_id":"levelo_inurba_marseille","lat":43.284219,"lon":5.3497,"is_reserved":false,"is_disabled":false,"rental_uris":{"android":"levelo://app?vid=d3ddd202-1adf-4027-8c8e-f1e58b7a70b0","ios":"levelo://app?vid=d3ddd202-1adf-4027-8c8e-f1e58b7a70b0"},"vehicle_type_id":"4","last_reported":1687194341,"current_range_meters":22800,"station_id":"ce4bhbh2rcd13ifvqepg","pricing_plan_id":"free"},{"bike_id":"de7a6dae-04b2-4d5b-8211-175d2849a324","system_id":"levelo_inurba_marseille","lat":43.284219,"lon":5.3497,"is_reserved":false,"is_disabled":false,"rental_uris":{"android":"levelo://app?vid=de7a6dae-04b2-4d5b-8211-175d2849a324","ios":"levelo://app?vid=de7a6dae-04b2-4d5b-8211-175d2849a324"},"vehicle_type_id":"4","last_reported":1687194341,"current_range_meters":29600,"station_id":"ce4bhbh2rcd13ifvqepg","pricing_plan_id":"free"},{"bike_id":"16e5fedd-6e86-436a-a0a2-72c7cd60a6ea","system_id":"levelo_inurba_marseille","lat":43.32188,"lon":5.40809,"is_reserved":false,"is_disabled":false,"rental_uris":{"android":"levelo://app?vid=16e5fedd-6e86-436a-a0a2-72c7cd60a6ea","ios":"levelo://app?vid=16e5fedd-6e86-436a-a0a2-72c7cd60a6ea"},"vehicle_type_id":"4","last_reported":1687194341,"current_range_meters":27600,"station_id":"","pricing_plan_id":"free"},{"bike_id":"034e48bb-d8a6-46b5-9ca3-be125af3a32b","system_id":"levelo_inurba_marseille","lat":43.282744,"lon":5.350533,"is_reserved":false,"is_disabled":false,"rental_uris":{"android":"levelo://app?vid=034e48bb-d8a6-46b5-9ca3-be125af3a32b","ios":"levelo://app?vid=034e48bb-d8a6-46b5-9ca3-be125af3a32b"},"vehicle_type_id":"4","last_reported":1687194341,"current_range_meters":7200,"station_id":"ce4bhbp2rcd13ifvqerg","pricing_plan_id":"free"},{"bike_id":"3435ec7a-e7ef-4326-9007-969b0de1a6fc","system_id":"levelo_inurba_marseille","lat":43.28039,"lon":5.369297,"is_reserved":false,"is_disabled":false,"rental_uris":{"android":"levelo://app?vid=3435ec7a-e7ef-4326-9007-969b0de1a6fc","ios":"levelo://app?vid=3435ec7a-e7ef-4326-9007-969b0de1a6fc"},"vehicle_type_id":"4","last_reported":1687194341,"current_range_meters":31600,"station_id":"ce4bha12rcd13ifvqef0","pricing_plan_id":"free"},{"bike_id":"b4e36854-260d-4f9e-b84e-43d9b05315fb","system_id":"levelo_inurba_marseille","lat":43.28039,"lon":5.369297,"is_reserved":false,"is_disabled":false,"rental_uris":{"android":"levelo://app?vid=b4e36854-260d-4f9e-b84e-43d9b05315fb","ios":"levelo://app?vid=b4e36854-260d-4f9e-b84e-43d9b05315fb"},"vehicle_type_id":"4","last_reported":1687194341,"current_range_meters":31200,"station_id":"ce4bha12rcd13ifvqef0","pricing_plan_id":"free"},{"bike_id":"7a7662db-23d7-415b-8278-542fe2a26a8b","system_id":"levelo_inurba_marseille","lat":43.28039,"lon":5.369297,"is_reserved":false,"is_disabled":false,"rental_uris":{"android":"levelo://app?vid=7a7662db-23d7-415b-8278-542fe2a26a8b","ios":"levelo://app?vid=7a7662db-23d7-415b-8278-542fe2a26a8b"},"vehicle_type_id":"4","last_reported":1687194341,"current_range_meters":30400,"station_id":"ce4bha12rcd13ifvqef0","pricing_plan_id":"free"},{"bike_id":"93aa72b6-91b7-4ce2-ac9d-62bd52aec23d","system_id":"levelo_inurba_marseille","lat":43.28039,"lon":5.369297,"is_reserved":false,"is_disabled":false,"rental_uris":{"android":"levelo://app?vid=93aa72b6-91b7-4ce2-ac9d-62bd52aec23d","ios":"levelo://app?vid=93aa72b6-91b7-4ce2-ac9d-62bd52aec23d"},"vehicle_type_id":"4","last_reported":1687194341,"current_range_meters":24400,"station_id":"ce4bha12rcd13ifvqef0","pricing_plan_id":"free"},{"bike_id":"9cd779f2-2898-4256-8568-865e7fd6ac8d","system_id":"levelo_inurba_marseille","lat":43.280382,"lon":5.369291,"is_reserved":false,"is_disabled":false,"rental_uris":{"android":"levelo://app?vid=9cd779f2-2898-4256-8568-865e7fd6ac8d","ios":"levelo://app?vid=9cd779f2-2898-4256-8568-865e7fd6ac8d"},"vehicle_type_id":"4","last_reported":1687194341,"current_range_meters":22000,"station_id":"ce4bha12rcd13ifvqef0","pricing_plan_id":"free"},{"bike_id":"a38f4b00-bf04-426d-8624-9240368969c4","system_id":"levelo_inurba_marseille","lat":43.28039,"lon":5.369297,"is_reserved":false,"is_disabled":false,"rental_uris":{"android":"levelo://app?vid=a38f4b00-bf04-426d-8624-9240368969c4","ios":"levelo://app?vid=a38f4b00-bf04-426d-8624-9240368969c4"},"vehicle_type_id":"4","last_reported":1687194341,"current_range_meters":31200,"station_id":"ce4bha12rcd13ifvqef0","pricing_plan_id":"free"},{"bike_id":"d780e6cc-b4d4-442e-b4c1-4b98977b283b","system_id":"levelo_inurba_marseille","lat":43.280382,"lon":5.369291,"is_reserved":false,"is_disabled":false,"rental_uris":{"android":"levelo://app?vid=d780e6cc-b4d4-442e-b4c1-4b98977b283b","ios":"levelo://app?vid=d780e6cc-b4d4-442e-b4c1-4b98977b283b"},"vehicle_type_id":"4","last_reported":1687194341,"current_range_meters":16800,"station_id":"ce4bha12rcd13ifvqef0","pricing_plan_id":"free"},{"bike_id":"f39ce8e2-fa86-408f-af63-04e3215f2058","system_id":"levelo_inurba_marseille","lat":43.28039,"lon":5.369297,"is_reserved":false,"is_disabled":false,"rental_uris":{"android":"levelo://app?vid=f39ce8e2-fa86-408f-af63-04e3215f2058","ios":"levelo://app?vid=f39ce8e2-fa86-408f-af63-04e3215f2058"},"vehicle_type_id":"4","last_reported":1687194341,"current_range_meters":31200,"station_id":"ce4bha12rcd13ifvqef0","pricing_plan_id":"free"},{"bike_id":"ca07aa81-c123-4bc4-be53-cb48b936ecd0","system_id":"levelo_inurba_marseille","lat":43.281044,"lon":5.378308,"is_reserved":false,"is_disabled":false,"rental_uris":{"android":"levelo://app?vid=ca07aa81-c123-4bc4-be53-cb48b936ecd0","ios":"levelo://app?vid=ca07aa81-c123-4bc4-be53-cb48b936ecd0"},"vehicle_type_id":"4","last_reported":1687194341,"current_range_meters":3600,"station_id":"ce4bha12rcd13ifvqee0","pricing_plan_id":"free"},{"bike_id":"ac1dfba3-3172-4c1e-af40-ef32ba32f40f","system_id":"levelo_inurba_marseille","lat":43.296263,"lon":5.40601,"is_reserved":false,"is_disabled":false,"rental_uris":{"android":"levelo://app?vid=ac1dfba3-3172-4c1e-af40-ef32ba32f40f","ios":"levelo://app?vid=ac1dfba3-3172-4c1e-af40-ef32ba32f40f"},"vehicle_type_id":"4","last_reported":1687194341,"current_range_meters":17600,"station_id":"ce4bh0h2rcd13ifvqd60","pricing_plan_id":"free"},{"bike_id":"2c8be7b5-f24f-4d38-9dbf-4dbf6e4424fe","system_id":"levelo_inurba_marseille","lat":43.281044,"lon":5.378308,"is_reserved":false,"is_disabled":false,"rental_uris":{"android":"levelo://app?vid=2c8be7b5-f24f-4d38-9dbf-4dbf6e4424fe","ios":"levelo://app?vid=2c8be7b5-f24f-4d38-9dbf-4dbf6e4424fe"},"vehicle_type_id":"4","last_reported":1687194341,"current_range_meters":20000,"station_id":"ce4bha12rcd13ifvqee0","pricing_plan_id":"free"},{"bike_id":"ce0057ec-0b82-4827-98f2-974e55918acc","system_id":"levelo_inurba_marseille","lat":43.284462,"lon":5.392121,"is_reserved":false,"is_disabled":false,"rental_uris":{"android":"levelo://app?vid=ce0057ec-0b82-4827-98f2-974e55918acc","ios":"levelo://app?vid=ce0057ec-0b82-4827-98f2-974e55918acc"},"vehicle_type_id":"4","last_reported":1687194341,"current_range_meters":5200,"station_id":"ce4bhoh2rcd13ifvqh5g","pricing_plan_id":"free"},{"bike_id":"6a704db8-b7ea-4a40-a23a-526c7244fb24","system_id":"levelo_inurba_marseille","lat":43.28573,"lon":5.394992,"is_reserved":false,"is_disabled":false,"rental_uris":{"android":"levelo://app?vid=6a704db8-b7ea-4a40-a23a-526c7244fb24","ios":"levelo://app?vid=6a704db8-b7ea-4a40-a23a-526c7244fb24"},"vehicle_type_id":"4","last_reported":1687194341,"current_range_meters":4000,"station_id":"ce4bh292rcd13ifvqdg0","pricing_plan_id":"free"},{"bike_id":"70f9f08c-e876-451e-8962-6d74d24c2c13","system_id":"levelo_inurba_marseille","lat":43.28568,"lon":5.39499,"is_reserved":false,"is_disabled":false,"rental_uris":{"android":"levelo://app?vid=70f9f08c-e876-451e-8962-6d74d24c2c13","ios":"levelo://app?vid=70f9f08c-e876-451e-8962-6d74d24c2c13"},"vehicle_type_id":"4","last_reported":1687194341,"current_range_meters":12400,"station_id":"ce4bh292rcd13ifvqdg0","pricing_plan_id":"free"},{"bike_id":"2ebebd45-e947-4312-93b0-3fadfb160f65","system_id":"levelo_inurba_marseille","lat":43.28573,"lon":5.394992,"is_reserved":false,"is_disabled":false,"rental_uris":{"android":"levelo://app?vid=2ebebd45-e947-4312-93b0-3fadfb160f65","ios":"levelo://app?vid=2ebebd45-e947-4312-93b0-3fadfb160f65"},"vehicle_type_id":"4","last_reported":1687194341,"current_range_meters":24800,"station_id":"ce4bh292rcd13ifvqdg0","pricing_plan_id":"free"},{"bike_id":"4322c279-9414-4c93-ac2f-9a8f215943f2","system_id":"levelo_inurba_marseille","lat":43.28573,"lon":5.394992,"is_reserved":false,"is_disabled":false,"rental_uris":{"android":"levelo://app?vid=4322c279-9414-4c93-ac2f-9a8f215943f2","ios":"levelo://app?vid=4322c279-9414-4c93-ac2f-9a8f215943f2"},"vehicle_type_id":"4","last_reported":1687194341,"current_range_meters":22000,"station_id":"ce4bh292rcd13ifvqdg0","pricing_plan_id":"free"},{"bike_id":"0fe0fcd0-61ee-4fb6-83ab-a793044aa54a","system_id":"levelo_inurba_marseille","lat":43.285742,"lon":5.395004,"is_reserved":false,"is_disabled":false,"rental_uris":{"android":"levelo://app?vid=0fe0fcd0-61ee-4fb6-83ab-a793044aa54a","ios":"levelo://app?vid=0fe0fcd0-61ee-4fb6-83ab-a793044aa54a"},"vehicle_type_id":"4","last_reported":1687194341,"current_range_meters":26800,"station_id":"ce4bh292rcd13ifvqdg0","pricing_plan_id":"free"},{"bike_id":"1de9f2ee-6c5d-4ce4-99cb-20bb98ca2635","system_id":"levelo_inurba_marseille","lat":43.3265,"lon":5.40988,"is_reserved":false,"is_disabled":false,"rental_uris":{"android":"levelo://app?vid=1de9f2ee-6c5d-4ce4-99cb-20bb98ca2635","ios":"levelo://app?vid=1de9f2ee-6c5d-4ce4-99cb-20bb98ca2635"},"vehicle_type_id":"4","last_reported":1687194341,"current_range_meters":28800,"station_id":"ce4bhpp2rcd13ifvqhgg","pricing_plan_id":"free"},{"bike_id":"a30f36cf-89f8-4002-983b-a58ba6c291de","system_id":"levelo_inurba_marseille","lat":43.32658,"lon":5.40984,"is_reserved":false,"is_disabled":false,"rental_uris":{"android":"levelo://app?vid=a30f36cf-89f8-4002-983b-a58ba6c291de","ios":"levelo://app?vid=a30f36cf-89f8-4002-983b-a58ba6c291de"},"vehicle_type_id":"4","last_reported":1687194341,"current_range_meters":31200,"station_id":"ce4bhpp2rcd13ifvqhgg","pricing_plan_id":"free"},{"bike_id":"1cf4736a-722a-4e76-8c73-4cf8157a3ba9","system_id":"levelo_inurba_marseille","lat":43.32656,"lon":5.40988,"is_reserved":false,"is_disabled":false,"rental_uris":{"android":"levelo://app?vid=1cf4736a-722a-4e76-8c73-4cf8157a3ba9","ios":"levelo://app?vid=1cf4736a-722a-4e76-8c73-4cf8157a3ba9"},"vehicle_type_id":"4","last_reported":1687194341,"current_range_meters":30400,"station_id":"ce4bhpp2rcd13ifvqhgg","pricing_plan_id":"free"},{"bike_id":"4736b92a-7954-4b2c-bc64-fad83a6e3225","system_id":"levelo_inurba_marseille","lat":43.326605,"lon":5.409903,"is_reserved":false,"is_disabled":false,"rental_uris":{"android":"levelo://app?vid=4736b92a-7954-4b2c-bc64-fad83a6e3225","ios":"levelo://app?vid=4736b92a-7954-4b2c-bc64-fad83a6e3225"},"vehicle_type_id":"4","last_reported":1687194341,"current_range_meters":31200,"station_id":"ce4bhpp2rcd13ifvqhgg","pricing_plan_id":"free"},{"bike_id":"2f77ac0f-89be-4462-b310-0bc1b103e754","system_id":"levelo_inurba_marseille","lat":43.326605,"lon":5.409903,"is_reserved":false,"is_disabled":false,"rental_uris":{"android":"levelo://app?vid=2f77ac0f-89be-4462-b310-0bc1b103e754","ios":"levelo://app?vid=2f77ac0f-89be-4462-b310-0bc1b103e754"},"vehicle_type_id":"4","last_reported":1687194341,"current_range_meters":20000,"station_id":"ce4bhpp2rcd13ifvqhgg","pricing_plan_id":"free"},{"bike_id":"ebad2826-e616-4956-a450-3959949e7cec","system_id":"levelo_inurba_marseille","lat":43.326605,"lon":5.409903,"is_reserved":false,"is_disabled":false,"rental_uris":{"android":"levelo://app?vid=ebad2826-e616-4956-a450-3959949e7cec","ios":"levelo://app?vid=ebad2826-e616-4956-a450-3959949e7cec"},"vehicle_type_id":"4","last_reported":1687194341,"current_range_meters":10400,"station_id":"ce4bhpp2rcd13ifvqhgg","pricing_plan_id":"free"},{"bike_id":"15314870-aa6f-4ae2-842c-ab890f132243","system_id":"levelo_inurba_marseille","lat":43.326605,"lon":5.409903,"is_reserved":false,"is_disabled":false,"rental_uris":{"android":"levelo://app?vid=15314870-aa6f-4ae2-842c-ab890f132243","ios":"levelo://app?vid=15314870-aa6f-4ae2-842c-ab890f132243"},"vehicle_type_id":"4","last_reported":1687194341,"current_range_meters":14800,"station_id":"ce4bhpp2rcd13ifvqhgg","pricing_plan_id":"free"},{"bike_id":"f0155ea3-1447-47ca-91ea-658b37fb2c5d","system_id":"levelo_inurba_marseille","lat":43.28021,"lon":5.35171,"is_reserved":false,"is_disabled":false,"rental_uris":{"android":"levelo://app?vid=f0155ea3-1447-47ca-91ea-658b37fb2c5d","ios":"levelo://app?vid=f0155ea3-1447-47ca-91ea-658b37fb2c5d"},"vehicle_type_id":"4","last_reported":1687194341,"current_range_meters":18400,"station_id":"","pricing_plan_id":"free"},{"bike_id":"4553fd6a-966c-4314-9705-393f1e16c32d","system_id":"levelo_inurba_marseille","lat":43.30419,"lon":5.41276,"is_reserved":false,"is_disabled":false,"rental_uris":{"android":"levelo://app?vid=4553fd6a-966c-4314-9705-393f1e16c32d","ios":"levelo://app?vid=4553fd6a-966c-4314-9705-393f1e16c32d"},"vehicle_type_id":"4","last_reported":1687194341,"current_range_meters":0,"station_id":"ce4bhop2rcd13ifvqh8g","pricing_plan_id":"free"},{"bike_id":"f29a463a-7f63-4dab-b035-51104beeaec8","system_id":"levelo_inurba_marseille","lat":43.27906,"lon":5.38019,"is_reserved":false,"is_disabled":false,"rental_uris":{"android":"levelo://app?vid=f29a463a-7f63-4dab-b035-51104beeaec8","ios":"levelo://app?vid=f29a463a-7f63-4dab-b035-51104beeaec8"},"vehicle_type_id":"4","last_reported":1687194341,"current_range_meters":23600,"station_id":"","pricing_plan_id":"free"},{"bike_id":"794a7fe6-c86d-41d1-8ac5-6c6ce42359a4","system_id":"levelo_inurba_marseille","lat":43.32014,"lon":5.41505,"is_reserved":false,"is_disabled":false,"rental_uris":{"android":"levelo://app?vid=794a7fe6-c86d-41d1-8ac5-6c6ce42359a4","ios":"levelo://app?vid=794a7fe6-c86d-41d1-8ac5-6c6ce42359a4"},"vehicle_type_id":"4","last_reported":1687194341,"current_range_meters":18800,"station_id":"","pricing_plan_id":"free"},{"bike_id":"76d587bf-ba57-4c09-bb0a-babb6b43a4a6","system_id":"levelo_inurba_marseille","lat":43.279742,"lon":5.38744,"is_reserved":false,"is_disabled":false,"rental_uris":{"android":"levelo://app?vid=76d587bf-ba57-4c09-bb0a-babb6b43a4a6","ios":"levelo://app?vid=76d587bf-ba57-4c09-bb0a-babb6b43a4a6"},"vehicle_type_id":"4","last_reported":1687194341,"current_range_meters":24000,"station_id":"ce4bhg12rcd13ifvqf80","pricing_plan_id":"free"},