{"last_updated":1704155665,"ttl":30,"version":"2.2","data":{"bikes":[{"bike_id":"19681d20-0e94-4d95-bd6e-75843e212133","system_id":"levelo_inurba_marseille","lat":43.313391,"lon":5.36706,"is_reserved":false,"is_disabled":false,"rental_uris":{"android":"levelo://app?vid=19681d20-0e94-4d95-bd6e-75843e212133","ios":"levelo://app?vid=19681d20-0e94-4d95-bd6e-75843e212133"},"vehicle_type_id":"4","last_reported":1704155666,"current_range_meters":27200,"station_id":"ce4bgr92rcd13ifvqc6g","pricing_plan_id":"free"},{"bike_id":"7ddfca8b-8d90-4c0e-b4ee-8399ae205af5","system_id":"levelo_inurba_marseille","lat":43.313391,"lon":5.36706,"is_reserved":false,"is_disabled":false,"rental_uris":{"android":"levelo://app?vid=7ddfca8b-8d90-4c0e-b4ee-8399ae205af5","ios":"levelo://app?vid=7ddfca8b-8d90-4c0e-b4ee-8399ae205af5"},"vehicle_type_id":"4","last_reported":1704155666,"current_range_meters":31600,"station_id":"ce4bgr92rcd13ifvqc6g","pricing_plan_id":"free"},{"bike_id":"7abe165e-a561-46ad-b3ef-8c7ab69ffce6","system_id":"levelo_inurba_marseille","lat":43.313391,"lon":5.36706,"is_reserved":false,"is_disabled":false,"rental_uris":{"android":"levelo://app?vid=7abe165e-a561-46ad-b3ef-8c7ab69ffce6","ios":"levelo://app?vid=7abe165e-a561-46ad-b3ef-8c7ab69ffce6"},"vehicle_type_id":"4","last_reported":1704155666,"current_range_meters":21600,"station_id":"ce4bgr92rcd13ifvqc6g","pricing_plan_id":"free"},{"bike_id":"bb41a8bd-80d6-4681-8354-1f5e50a6d08c","system_id":"levelo_inurba_marseille","lat":43.312239,"lon":5.368562,"is_reserved":false,"is_disabled":false,"rental_uris":{"android":"levelo://app?vid=bb41a8bd-80d6-4681-8354-1f5e50a6d08c","ios":"levelo://app?vid=bb41a8bd-80d6-4681-8354-1f5e50a6d08c"},"vehicle_type_id":"4","last_reported":1704155666,"current_range_meters":27200,"station_id":"ce4bgl92rcd13ifvqbq0","pricing_plan_id":"free"},{"bike_id":"1e91ba6c-8283-47ea-b797-a2e7408bd0aa","system_id":"levelo_inurba_marseille","lat":43.309076,"lon":5.368465,"is_reserved":false,"is_disabled":false,"rental_uris":{"android":"levelo://app?vid=1e91ba6c-8283-47ea-b797-a2e7408bd0aa","ios":"levelo://app?vid=1e91ba6c-8283-47ea-b797-a2e7408bd0aa"},"vehicle_type_id":"4","last_reported":1704155666,"current_range_meters":30400,"station_id":"ce4bgn92rcd13ifvqbvg","pricing_plan_id":"free"},{"bike_id":"63e423f0-4aae-4574-b80c-000bfb7053ec","system_id":"levelo_inurba_marseille","lat":43.309076,"lon":5.368465,"is_reserved":false,"is_disabled":false,"rental_uris":{"android":"levelo://app?vid=63e423f0-4aae-4574-b80c-000bfb7053ec","ios":"levelo://app?vid=63e423f0-4aae-4574-b80c-000bfb7053ec"},"vehicle_type_id":"4","last_reported":1704155666,"current_range_meters":27200,"station_id":"ce4bgn92rcd13ifvqbvg","pricing_plan_id":"free"},{"bike_id":"6ae0a7d8-a3f5-4b5e-9c31-1b0d0a660a33","system_id":"levelo_inurba_marseille","lat":43.31481,"lon":5.37304,"is_reserved":false,"is_disabled":false,"rental_uris":{"android":"levelo://app?vid=6ae0a7d8-a3f5-4b5e-9c31-1b0d0a660a33","ios":"levelo://app?vid=6ae0a7d8-a3f5-4b5e-9c31-1b0d0a660a33"},"vehicle_type_id":"4","last_reported":1704155666,"current_range_meters":6000,"station_id":"ce4bgt12rcd13ifvqcd0","pricing_plan_id":"free"},{"bike_id":"1ca9373c-bbff-4b68-be9c-ccfd36d08db3","system_id":"levelo_inurba_marseille","lat":43.31486,"lon":5.37301,"is_reserved":false,"is_disabled":false,"rental_uris":{"android":"levelo://app?vid=1ca9373c-bbff-4b68-be9c-ccfd36d08db3","ios":"levelo://app?vid=1ca9373c-bbff-4b68-be9c-ccfd36d08db3"},"vehicle_type_id":"4","last_reported":1704155666,"current_range_meters":18400,"station_id":"ce4bgt12rcd13ifvqcd0","pricing_plan_id":"free"},{"bike_id":"169fc797-5a0f-44a1-9c51-501bf889c536","system_id":"levelo_inurba_marseille","lat":43.314811,"lon":5.373103,"is_reserved":false,"is_disabled":false,"rental_uris":{"android":"levelo://app?vid=169fc797-5a0f-44a1-9c51-501bf889c536","ios":"levelo://app?vid=169fc797-5a0f-44a1-9c51-501bf889c536"},"vehicle_type_id":"4","last_reported":1704155666,"current_range_meters":16800,"station_id":"ce4bgt12rcd13ifvqcd0","pricing_plan_id":"free"},{"bike_id":"8f4a10bf-fdcf-471b-aa21-66a411b5fcd2","system_id":"levelo_inurba_marseille","lat":43.30889,"lon":5.37185,"is_reserved":false,"is_disabled":false,"rental_uris":{"android":"levelo://app?vid=8f4a10bf-fdcf-471b-aa21-66a411b5fcd2","ios":"levelo://app?vid=8f4a10bf-fdcf-471b-aa21-66a411b5fcd2"},"vehicle_type_id":"4","last_reported":1704155666,"current_range_meters":21200,"station_id":"ce4bguh2rcd13ifvqckg","pricing_plan_id":"free"},{"bike_id":"7540aef9-a2ff-4d21-990e-d471ad70f696","system_id":"levelo_inurba_marseille","lat":43.309039,"lon":5.371797,"is_reserved":false,"is_disabled":false,"rental_uris":{"android":"levelo://app?vid=7540aef9-a2ff-4d21-990e-d471ad70f696","ios":"levelo://app?vid=7540aef9-a2ff-4d21-990e-d471ad70f696"},"vehicle_type_id":"4","last_reported":1704155666,"current_range_meters":27200,"station_id":"ce4bguh2rcd13ifvqckg","pricing_plan_id":"free"},{"bike_id":"18882c28-8e42-4643-b8af-67fd2bcfed91","system_id":"levelo_inurba_marseille","lat":43.305368,"lon":5.367343,"is_reserved":false,"is_disabled":false,"rental_uris":{"android":"levelo://app?vid=18882c28-8e42-4643-b8af-67fd2bcfed91","ios":"levelo://app?vid=18882c28-8e42-4643-b8af-67fd2bcfed91"},"vehicle_type_id":"4","last_reported":1704155666,"current_range_meters":25600,"station_id":"ce4bgrp2rcd13ifvqc9g","pricing_plan_id":"free"},{"bike_id":"cbb5d016-4b74-4b6b-8ebf-9e098497f052","system_id":"levelo_inurba_marseille","lat":43.305368,"lon":5.367343,"is_reserved":false,"is_disabled":false,"rental_uris":{"android":"levelo://app?vid=cbb5d016-4b74-4b6b-8ebf-9e098497f052","ios":"levelo://app?vid=cbb5d016-4b74-4b6b-8ebf-9e098497f052"},"vehicle_type_id":"4","last_reported":1704155666,"current_range_meters":17200,"station_id":"ce4bgrp2rcd13ifvqc9g","pricing_plan_id":"free"},{"bike_id":"6cc10ba3-514e-4b87-b859-081a0f2df958","system_id":"levelo_inurba_marseille","lat":43.305706,"lon":5.365654,"is_reserved":false,"is_disabled":false,"rental_uris":{"android":"levelo://app?vid=6cc10ba3-514e-4b87-b859-081a0f2df958","ios":"levelo://app?vid=6cc10ba3-514e-4b87-b859-081a0f2df958"},"vehicle_type_id":"4","last_reported":1704155666,"current_range_meters":21600,"station_id":"ce4bgs12rcd13ifvqcag","pricing_plan_id":"free"},{"bike_id":"c15691ed-9d31-4921-a182-534dd11d2025","system_id":"levelo_inurba_marseille","lat":43.305989,"lon":5.37225,"is_reserved":false,"is_disabled":false,"rental_uris":{"android":"levelo://app?vid=c15691ed-9d31-4921-a182-534dd11d2025","ios":"levelo://app?vid=c15691ed-9d31-4921-a182-534dd11d2025"},"vehicle_type_id":"4","last_reported":1704155666,"current_range_meters":29600,"station_id":"ce4bgqh2rcd13ifvqc4g","pricing_plan_id":"free"},{"bike_id":"6f20d4cf-c43e-4962-a629-6e6dc00959c8","system_id":"levelo_inurba_marseille","lat":43.311131,"lon":5.377651,"is_reserved":false,"is_disabled":false,"rental_uris":{"android":"levelo://app?vid=6f20d4cf-c43e-4962-a629-6e6dc00959c8","ios":"levelo://app?vid=6f20d4cf-c43e-4962-a629-6e6dc00959c8"},"vehicle_type_id":"4","last_reported":1704155666,"current_range_meters":16400,"station_id":"ce4bgt92rcd13ifvqcg0","pricing_plan_id":"free"},{"bike_id":"9f0884d6-7ce4-49ec-a62f-828eeba0ef14","system_id":"levelo_inurba_marseille","lat":43.311131,"lon":5.377651,"is_reserved":false,"is_disabled":false,"rental_uris":{"android":"levelo://app?vid=9f0884d6-7ce4-49ec-a62f-828eeba0ef14","ios":"levelo://app?vid=9f0884d6-7ce4-49ec-a62f-828eeba0ef14"},"vehicle_type_id":"4","last_reported":1704155666,"current_range_meters":800,"station_id":"ce4bgt92rcd13ifvqcg0","pricing_plan_id":"free"},{"bike_id":"25af9e1c-886c-4f64-92f2-5ca68e46ae4a","system_id":"levelo_inurba_marseille","lat":43.31722,"lon":5.37668,"is_reserved":false,"is_disabled":false,"rental_uris":{"android":"levelo://app?vid=25af9e1c-886c-4f64-92f2-5ca68e46ae4a","ios":"levelo://app?vid=25af9e1c-886c-4f64-92f2-5ca68e46ae4a"},"vehicle_type_id":"4","last_reported":1704155666,"current_range_meters":16400,"station_id":"","pricing_plan_id":"free"},{"bike_id":"392bccd8-803a-4298-9ab2-b84b704050ba","system_id":"levelo_inurba_marseille","lat":43.307945,"lon":5.376487,"is_reserved":false,"is_disabled":false,"rental_uris":{"android":"levelo://app?vid=392bccd8-803a-4298-9ab2-b84b704050ba","ios":"levelo://app?vid=392bccd8-803a-4298-9ab2-b84b704050ba"},"vehicle_type_id":"4","last_reported":1704155666,"current_range_meters":28000,"station_id":"ce4bgv92rcd13ifvqcq0","pricing_plan_id":"free"},{"bike_id":"549fe20c-b05d-4169-8923-3f8e2d41ff01","system_id":"levelo_inurba_marseille","lat":43.307945,"lon":5.376487,"is_reserved":false,"is_disabled":false,"rental_uris":{"android":"levelo://app?vid=549fe20c-b05d-4169-8923-3f8e2d41ff01","ios":"levelo://app?vid=549fe20c-b05d-4169-8923-3f8e2d41ff01"},"vehicle_type_id":"4","last_reported":1704155666,"current_range_meters":27200,"station_id":"ce4bgv92rcd13ifvqcq0","pricing_plan_id":"free"},{"bike_id":"60004f26-cd8f-48e5-90c1-64ce9239acb7","system_id":"levelo_inurba_marseille","lat":43.317075,"lon":5.377367,"is_reserved":false,"is_disabled":false,"rental_uris":{"android":"levelo://app?vid=60004f26-cd8f-48e5-90c1-64ce9239acb7","ios":"levelo://app?vid=60004f26-cd8f-48e5-90c1-64ce9239acb7"},"vehicle_type_id":"4","last_reported":1704155666,"current_range_meters":28000,"station_id":"ce4bgth2rcd13ifvqch0","pricing_plan_id":"free"},{"bike_id":"6de46549-0261-4f99-addc-5c2cd660dbb0","system_id":"levelo_inurba_marseille","lat":43.31648,"lon":5.37786,"is_reserved":false,"is_disabled":false,"rental_uris":{"android":"levelo://app?vid=6de46549-0261-4f99-addc-5c2cd660dbb0","ios":"levelo://app?vid=6de46549-0261-4f99-addc-5c2cd660dbb0"},"vehicle_type_id":"4","last_reported":1704155666,"current_range_meters":17200,"station_id":"","pricing_plan_id":"free"},{"bike_id":"c86e7579-10db-4138-b8f1-db6e9632de36","system_id":"levelo_inurba_marseille","lat":43.308012,"lon":5.381511,"is_reserved":false,"is_disabled":false,"rental_uris":{"android":"levelo://app?vid=c86e7579-10db-4138-b8f1-db6e9632de36","ios":"levelo://app?vid=c86e7579-10db-4138-b8f1-db6e9632de36"},"vehicle_type_id":"4","last_reported":1704155666,"current_range_meters":22400,"station_id":"ce4bgt12rcd13ifvqce0","pricing_plan_id":"free"},{"bike_id":"7948442d-2174-466c-b317-bdf09dbbb4c3","system_id":"levelo_inurba_marseille","lat":43.308012,"lon":5.381511,"is_reserved":false,"is_disabled":false,"rental_uris":{"android":"levelo://app?vid=7948442d-2174-466c-b317-bdf09dbbb4c3","ios":"levelo://app?vid=7948442d-2174-466c-b317-bdf09dbbb4c3"},"vehicle_type_id":"4","last_reported":1704155666,"current_range_meters":28000,"station_id":"ce4bgt12rcd13ifvqce0","pricing_plan_id":"free"},{"bike_id":"e1147901-1feb-47ec-b53c-d84bfc903755","system_id":"levelo_inurba_marseille","lat":43.308012,"lon":5.381511,"is_reserved":false,"is_disabled":false,"rental_uris":{"android":"levelo://app?vid=e1147901-1feb-47ec-b53c-d84bfc903755","ios":"levelo://app?vid=e1147901-1feb-47ec-b53c-d84bfc903755"},"vehicle_type_id":"4","last_reported":1704155666,"current_range_meters":22000,"station_id":"ce4bgt12rcd13ifvqce0","pricing_plan_id":"free"},{"bike_id":"a033eb83-0d59-4a0e-877c-a06a8d215ede","system_id":"levelo_inurba_marseille","lat":43.308012,"lon":5.381511,"is_reserved":false,"is_disabled":false,"rental_uris":{"android":"levelo://app?vid=a033eb83-0d59-4a0e-877c-a06a8d215ede","ios":"levelo://app?vid=a033eb83-0d59-4a0e-877c-a06a8d215ede"},"vehicle_type_id":"4","last_reported":1704155666,"current_range_meters":22800,"station_id":"ce4bgt12rcd13ifvqce0","pricing_plan_id":"free"},{"bike_id":"7c2296b4-4b1d-4edd-99dd-03fec5c2355d","system_id":"levelo_inurba_marseille","lat":43.308012,"lon":5.381511,"is_reserved":false,"is_disabled":false,"rental_uris":{"android":"levelo://app?vid=7c2296b4-4b1d-4edd-99dd-03fec5c2355d","ios":"levelo://app?vid=7c2296b4-4b1d-4edd-99dd-03fec5c2355d"},"vehicle_type_id":"4","last_reported":1704155666,"current_range_meters":16000,"station_id":"ce4bgt12rcd13ifvqce0","pricing_plan_id":"free"},{"bike_id":"b1a17632-314f-4cae-a55c-bd9eac09ada5","system_id":"levelo_inurba_marseille","lat":43.308012,"lon":5.381511,"is_reserved":false,"is_disabled":false,"rental_uris":{"android":"levelo://app?vid=b1a17632-314f-4cae-a55c-bd9eac09ada5","ios":"levelo://app?vid=b1a17632-314f-4cae-a55c-bd9eac09ada5"},"vehicle_type_id":"4","last_reported":1704155666,"current_range_meters":31200,"station_id":"ce4bgt12rcd13ifvqce0","pricing_plan_id":"free"},{"bike_id":"d85ec1d7-b238-4af2-961b-3b18e249a514","system_id":"levelo_inurba_marseille","lat":43.308012,"lon":5.381511,"is_reserved":false,"is_disabled":false,"rental_uris":{"android":"levelo://app?vid=d85ec1d7-b238-4af2-961b-3b18e249a514","ios":"levelo://app?vid=d85ec1d7-b238-4af2-961b-3b18e249a514"},"vehicle_type_id":"4","last_reported":1704155666,"current_range_meters":6400,"station_id":"ce4bgt12rcd13ifvqce0","pricing_plan_id":"free"},{"bike_id":"5377074b-30e2-4d67-825b-9deb3b1dbed3","system_id":"levelo_inurba_marseille","lat":43.304708,"lon":5.379039,"is_reserved":false,"is_disabled":false,"rental_uris":{"android":"levelo://app?vid=5377074b-30e2-4d67-825b-9deb3b1dbed3","ios":"levelo://app?vid=5377074b-30e2-4d67-825b-9deb3b1dbed3"},"vehicle_type_id":"4","last_reported":1704155666,"current_range_meters":12800,"station_id":"","pricing_plan_id":"free"},{"bike_id":"c48842f0-4720-4d71-9ce1-ccecff98b5e6","system_id":"levelo_inurba_marseille","lat":43.324771,"lon":5.36557,"is_reserved":false,"is_disabled":false,"rental_uris":{"android":"levelo://app?vid=c48842f0-4720-4d71-9ce1-ccecff98b5e6","ios":"levelo://app?vid=c48842f0-4720-4d71-9ce1-ccecff98b5e6"},"vehicle_type_id":"4","last_reported":1704155666,"current_range_meters":20800,"station_id":"ce4bhs12rcd13ifvqhvg","pricing_plan_id":"free"},{"bike_id":"4c4910a8-b87e-4c13-b856-37ef8615c163","system_id":"levelo_inurba_marseille","lat":43.324771,"lon":5.36557,"is_reserved":false,"is_disabled":false,"rental_uris":{"android":"levelo://app?vid=4c4910a8-b87e-4c13-b856-37ef8615c163","ios":"levelo://app?vid=4c4910a8-b87e-4c13-b856-37ef8615c163"},"vehicle_type_id":"4","last_reported":1704155666,"current_range_meters":21200,"station_id":"ce4bhs12rcd13ifvqhvg","pricing_plan_id":"free"},{"bike_id":"034032a8-6750-4311-9c7f-af9982d660c9","system_id":"levelo_inurba_marseille","lat":43.30278,"lon":5.3772,"is_reserved":false,"is_disabled":false,"rental_uris":{"android":"levelo://app?vid=034032a8-6750-4311-9c7f-af9982d660c9","ios":"levelo://app?vid=034032a8-6750-4311-9c7f-af9982d660c9"},"vehicle_type_id":"4","last_reported":1704155666,"current_range_meters":25600,"station_id":"","pricing_plan_id":"free"},{"bike_id":"46b4e2d4-d9c8-4dbb-bdcc-3d72eb57989a","system_id":"levelo_inurba_marseille","lat":43.320315,"lon":5.380767,"is_reserved":false,"is_disabled":false,"rental_uris":{"android":"levelo://app?vid=46b4e2d4-d9c8-4dbb-bdcc-3d72eb57989a","ios":"levelo://app?vid=46b4e2d4-d9c8-4dbb-bdcc-3d72eb57989a"},"vehicle_type_id":"4","last_reported":1704155666,"current_range_meters":2400,"station_id":"","pricing_plan_id":"free"},{"bike_id":"2a6c552b-c8f3-404a-aceb-36f8473ac999","system_id":"levelo_inurba_marseille","lat":43.28573,"lon":5.394992,"is_reserved":false,"is_disabled":false,"rental_uris":{"android":"levelo://app?vid=2a6c552b-c8f3-404a-aceb-36f8473ac999","ios":"levelo://app?vid=2a6c552b-c8f3-404a-aceb-36f8473ac999"},"vehicle_type_id":"4","last_reported":1704155666,"current_range_meters":31200,"station_id":"ce4bh292rcd13ifvqdg0","pricing_plan_id":"free"},{"bike_id":"0dac0acd-fc78-43f2-bef0-dca9a9876768","system_id":"levelo_inurba_marseille","lat":43.319935,"lon":5.381699,"is_reserved":false,"is_disabled":false,"rental_uris":{"android":"levelo://app?vid=0dac0acd-fc78-43f2-bef0-dca9a9876768","ios":"levelo://app?vid=0dac0acd-fc78-43f2-bef0-dca9a9876768"},"vehicle_type_id":"4","last_reported":1704155666,"current_range_meters":4800,"station_id":"ce4bhr12rcd13ifvqhpg","pricing_plan_id":"free"},{"bike_id":"72a3794d-d0ad-44fd-bb9a-1da84cc14417","system_id":"levelo_inurba_marseille","lat":43.319935,"lon":5.381699,"is_reserved":false,"is_disabled":false,"rental_uris":{"android":"levelo://app?vid=72a3794d-d0ad-44fd-bb9a-1da84cc14417","ios":"levelo://app?vid=72a3794d-d0ad-44fd-bb9a-1da84cc14417"},"vehicle_type_id":"4","last_reported":1704155666,"current_range_meters":22400,"station_id":"ce4bhr12rcd13ifvqhpg","pricing_plan_id":"free"},{"bike_id":"9b434c4c-e352-45db-91f5-5551cc7ae7b3","system_id":"levelo_inurba_marseille","lat":43.313571,"lon":5.384829,"is_reserved":false,"is_disabled":false,"rental_uris":{"android":"levelo://app?vid=9b434c4c-e352-45db-91f5-5551cc7ae7b3","ios":"levelo://app?vid=9b434c4c-e352-45db-91f5-5551cc7ae7b3"},"vehicle_type_id":"4","last_reported":1704155666,"current_range_meters":13600,"station_id":"ce4bgt92rcd13ifvqcf0","pricing_plan_id":"free"},{"bike_id":"4bd343ff-5a40-4153-abf8-0cf3af479e76","system_id":"levelo_inurba_marseille","lat":43.31383,"lon":5.38499,"is_reserved":false,"is_disabled":false,"rental_uris":{"android":"levelo://app?vid=4bd343ff-5a40-4153-abf8-0cf3af479e76","ios":"levelo://app?vid=4bd343ff-5a40-4153-abf8-0cf3af479e76"},"vehicle_type_id":"4","last_reported":1704155666,"current_range_meters":22800,"station_id":"ce4bgt92rcd13ifvqcf0","pricing_plan_id":"free"},{"bike_id":"5f87e865-ab55-4850-bba0-35436b8822f8","system_id":"levelo_inurba_marseille","lat":43.299433,"lon":5.36539,"is_reserved":false,"is_disabled":false,"rental_uris":{"android":"levelo://app?vid=5f87e865-ab55-4850-bba0-35436b8822f8","ios":"levelo://app?vid=5f87e865-ab55-4850-bba0-35436b8822f8"},"vehicle_type_id":"4","last_reported":1704155666,"current_range_meters":29200,"station_id":"ce4bgm92rcd13ifvqbr0","pricing_plan_id":"free"},{"bike_id":"749e7d89-4c10-49b1-8f83-b438caa2109a","system_id":"levelo_inurba_marseille","lat":43.299222,"lon":5.365554,"is_reserved":false,"is_disabled":false,"rental_uris":{"android":"levelo://app?vid=749e7d89-4c10-49b1-8f83-b438caa2109a","ios":"levelo://app?vid=749e7d89-4c10-49b1-8f83-b438caa2109a"},"vehicle_type_id":"4","last_reported":1704155666,"current_range_meters":28800,"station_id":"ce4bgm92rcd13ifvqbr0","pricing_plan_id":"free"},{"bike_id":"218bb372-c46d-4ba4-aa93-a5df393ce036","system_id":"levelo_inurba_marseille","lat":43.299222,"lon":5.365554,"is_reserved":false,"is_disabled":false,"rental_uris":{"android":"levelo://app?vid=218bb372-c46d-4ba4-aa93-a5df393ce036","ios":"levelo://app?vid=218bb372-c46d-4ba4-aa93-a5df393ce036"},"vehicle_type_id":"4","last_reported":1704155666,"current_range_meters":14800,"station_id":"ce4bgm92rcd13ifvqbr0","pricing_plan_id":"free"},{"bike_id":"f87d707b-31a1-4eca-ac4a-ab75dbcb2840","system_id":"levelo_inurba_marseille","lat":43.2998,"lon":5.37179,"is_reserved":false,"is_disabled":false,"rental_uris":{"android":"levelo://app?vid=f87d707b-31a1-4eca-ac4a-ab75dbcb2840","ios":"levelo://app?vid=f87d707b-31a1-4eca-ac4a-ab75dbcb2840"},"vehicle_type_id":"4","last_reported":1704155666,"current_range_meters":18400,"station_id":"ce4bgr92rcd13ifvqc7g","pricing_plan_id":"free"},{"bike_id":"b9078bdd-2b65-4846-ac39-002e0d76c18d","system_id":"levelo_inurba_marseille","lat":43.305364,"lon":5.384119,"is_reserved":false,"is_disabled":false,"rental_uris":{"android":"levelo://app?vid=b9078bdd-2b65-4846-ac39-002e0d76c18d","ios":"levelo://app?vid=b9078bdd-2b65-4846-ac39-002e0d76c18d"},"vehicle_type_id":"4","last_reported":1704155666,"current_range_meters":25600,"station_id":"ce4bgg92rcd13ifvqb30","pricing_plan_id":"free"},{"bike_id":"e00ba16d-38d4-487b-ba0d-b8718adc0567","system_id":"levelo_inurba_marseille","lat":43.305364,"lon":5.384119,"is_reserved":false,"is_disabled":false,"rental_uris":{"android":"levelo://app?vid=e00ba16d-38d4-487b-ba0d-b8718adc0567","ios":"levelo://app?vid=e00ba16d-38d4-487b-ba0d-b8718adc0567"},"vehicle_type_id":"4","last_reported":1704155666,"current_range_meters":23600,"station_id":"ce4bgg92rcd13ifvqb30","pricing_plan_id":"free"},{"bike_id":"cc6264d7-a583-4b19-80de-52814ea9a65b","system_id":"levelo_inurba_marseille","lat":43.298433,"lon":5.362774,"is_reserved":false,"is_disabled":false,"rental_uris":{"android":"levelo://app?vid=cc6264d7-a583-4b19-80de-52814ea9a65b","ios":"levelo://app?vid=cc6264d7-a583-4b19-80de-52814ea9a65b"},"vehicle_type_id":"4","last_reported":1704155666,"current_range_meters":26800,"station_id":"ce4bgpp2rcd13ifvqc3g","pricing_plan_id":"free"},{"bike_id":"3406ac08-144e-419c-8a8c-9c89910b5b78","system_id":"levelo_inurba_marseille","lat":43.327798,"lon":5.366905,"is_reserved":false,"is_disabled":false,"rental_uris":{"android":"levelo://app?vid=3406ac08-144e-419c-8a8c-9c89910b5b78","ios":"levelo://app?vid=3406ac08-144e-419c-8a8c-9c89910b5b78"},"vehicle_type_id":"4","last_reported":1704155666,"current_range_meters":23200,"station_id":"","pricing_plan_id":"free"},{"bike_id":"ea7074d7-b7c9-4941-82c2-dff391bae9cb","system_id":"levelo_inurba_marseille","lat":43.328025,"lon":5.366876,"is_reserved":false,"is_disabled":false,"rental_uris":{"android":"levelo://app?vid=ea7074d7-b7c9-4941-82c2-dff391bae9cb","ios":"levelo://app?vid=ea7074d7-b7c9-4941-82c2-dff391bae9cb"},"vehicle_type_id":"4","last_reported":1704155666,"current_range_meters":21200,"station_id":"ce4bhs92rcd13ifvqi0g","pricing_plan_id":"free"},{"bike_id":"881fe0ac-4a87-4653-9c80-a83989c2ce03","system_id":"levelo_inurba_marseille","lat":43.297558,"lon":5.364115,"is_reserved":false,"is_disabled":false,"rental_uris":{"android":"levelo://app?vid=881fe0ac-4a87-4653-9c80-a83989c2ce03","ios":"levelo://app?vid=881fe0ac-4a87-4653-9c80-a83989c2ce03"},"vehicle_type_id":"4","last_reported":1704155666,"current_range_meters":28000,"station_id":"ce4bgpp2rcd13ifvqc3g","pricing_plan_id":"free"},{"bike_id":"3c9bf24c-b538-4eae-99f5-9903fe75c815","system_id":"levelo_inurba_marseille","lat":43.322888,"lon":5.382731,"is_reserved":false,"is_disabled":false,"rental_uris":{"android":"levelo://app?vid=3c9bf24c-b538-4eae-99f5-9903fe75c815","ios":"levelo://app?vid=3c9bf24c-b538-4eae-99f5-9903fe75c815"},"vehicle_type_id":"4","last_reported":1704155666,"current_range_meters":5600,"station_id":"ce4bhr12rcd13ifvqhqg","pricing_plan_id":"free"},{"bike_id":"f4a22f50-a662-4569-b5b0-7617d7a7a2b8","system_id":"levelo_inurba_marseille","lat":43.297163,"lon":5.365866,"is_reserved":false,"is_disabled":false,"rental_uris":{"android":"levelo://app?vid=f4a22f50-a662-4569-b5b0-7617d7a7a2b8","ios":"levelo://app?vid=f4a22f50-a662-4569-b5b0-7617d7a7a2b8"},"vehicle_type_id":"4","last_reported":1704155666,"current_range_meters":24000,"station_id":"ce4bgn12rcd13ifvqbt0","pricing_plan_id":"free"},{"bike_id":"1b2d1de0-55de-4a36-95aa-2ebcd4db77b3","system_id":"levelo_inurba_marseille","lat":43.297163,"lon":5.365866,"is_reserved":false,"is_disabled":false,"rental_uris":{"android":"levelo://app?vid=1b2d1de0-55de-4a36-95aa-2ebcd4db77b3","ios":"levelo://app?vid=1b2d1de0-55de-4a36-95aa-2ebcd4db77b3"},"vehicle_type_id":"4","last_reported":1704155666,"current_range_meters":31600,"station_id":"ce4bgn12rcd13ifvqbt0","pricing_plan_id":"free"},{"bike_id":"370cccf7-c9ba-46c2-819b-c8e8cacc4c21","system_id":"levelo_inurba_marseille","lat":43.3277,"lon":5.37458,"is_reserved":false,"is_disabled":false,"rental_uris":{"android":"levelo://app?vid=370cccf7-c9ba-46c2-819b-c8e8cacc4c21","ios":"levelo://app?vid=370cccf7-c9ba-46c2-819b-c8e8cacc4c21"},"vehicle_type_id":"4","last_reported":1704155666,"current_range_meters":10800,"station_id":"","pricing_plan_id":"free"},{"bike_id":"76c38e5c-6eb0-4862-a294-1007b4937961","system_id":"levelo_inurba_marseille","lat":43.296129,"lon":5.370777,"is_reserved":false,"is_disabled":false,"rental_uris":{"android":"levelo://app?vid=76c38e5c-6eb0-4862-a294-1007b4937961","ios":"levelo://app?vid=76c38e5c-6eb0-4862-a294-1007b4937961"},"vehicle_type_id":"4","last_reported":1704155666,"current_range_meters":30800,"station_id":"ce4bgnh2rcd13ifvqc0g","pricing_plan_id":"free"},{"bike_id":"8562c70f-5fb8-4caa-bb62-c506e55d61cf","system_id":"levelo_inurba_marseille","lat":43.29573,"lon":5.367355,"is_reserved":false,"is_disabled":false,"rental_uris":{"android":"levelo://app?vid=8562c70f-5fb8-4caa-bb62-c506e55d61cf","ios":"levelo://app?vid=8562c70f-5fb8-4caa-bb62-c506e55d61cf"},"vehicle_type_id":"4","last_reported":1704155666,"current_range_meters":22400,"station_id":"ce4bgph2rcd13ifvqc2g","pricing_plan_id":"free"},{"bike_id":"f932e9db-9fa0-42f1-beb5-fcbf5bd6003f","system_id":"levelo_inurba_marseille","lat":43.29619,"lon":5.37164,"is_reserved":false,"is_disabled":false,"rental_uris":{"android":"levelo://app?vid=f932e9db-9fa0-42f1-beb5-fcbf5bd6003f","ios":"levelo://app?vid=f932e9db-9fa0-42f1-beb5-fcbf5bd6003f"},"vehicle_type_id":"4","last_reported":1704155666,"current_range_meters":0,"station_id":"ce4bgnh2rcd13ifvqc0g","pricing_plan_id":"free"},{"bike_id":"848b4fd8-0eb2-4b32-ad2f-7527ef8eb6c6","system_id":"levelo_inurba_marseille","lat":43.296131,"lon":5.370773,"is_reserved":false,"is_disabled":false,"rental_uris":{"android":"levelo://app?vid=848b4fd8-0eb2-4b32-ad2f-7527ef8eb6c6","ios":"levelo://app?vid=848b4fd8-0eb2-4b32-ad2f-7527ef8eb6c6"},"vehicle_type_id":"4","last_reported":1704155666,"current_range_meters":26400,"station_id":"ce4bgnh2rcd13ifvqc0g","pricing_plan_id":"free"},{"bike_id":"eb3bb332-4f56-4aea-9cf4-7e44589d9c8a","system_id":"levelo_inurba_marseille","lat":43.296131,"lon":5.370773,"is_reserved":false,"is_disabled":false,"rental_uris":{"android":"levelo://app?vid=eb3bb332-4f56-4aea-9cf4-7e44589d9c8a","ios":"levelo://app?vid=eb3bb332-4f56-4aea-9cf4-7e44589d9c8a"},"vehicle_type_id":"4","last_reported":1704155666,"current_range_meters":28400,"station_id":"ce4bgnh2rcd13ifvqc0g","pricing_plan_id":"free"},{"bike_id":"0ff7e19c-7e28-4102-baf3-4193d26c5e27","system_id":"levelo_inurba_marseille","lat":43.317557,"lon":5.390173,"is_reserved":false,"is_disabled":false,"rental_uris":{"android":"levelo://app?vid=0ff7e19c-7e28-4102-baf3-4193d26c5e27","ios":"levelo://app?vid=0ff7e19c-7e28-4102-baf3-4193d26c5e27"},"vehicle_type_id":"4","last_reported":1704155666,"current_range_meters":26400,"station_id":"ce4bhqp2rcd13ifvqhng","pricing_plan_id":"free"},{"bike_id":"0ae9ac61-a252-4b87-b470-9053a11c8b26","system_id":"levelo_inurba_marseille","lat":43.304274,"lon":5.388873,"is_reserved":false,"is_disabled":false,"rental_uris":{"android":"levelo://app?vid=0ae9ac61-a252-4b87-b470-9053a11c8b26","ios":"levelo://app?vid=0ae9ac61-a252-4b87-b470-9053a11c8b26"},"vehicle_type_id":"4","last_reported":1704155666,"current_range_meters":30400,"station_id":"ce4bgk12rcd13ifvqbi0","pricing_plan_id":"free"},{"bike_id":"c2ad8b56-9fdf-4587-9345-f928d15565c9","system_id":"levelo_inurba_marseille","lat":43.304278,"lon":5.388868,"is_reserved":false,"is_disabled":false,"rental_uris":{"android":"levelo://app?vid=c2ad8b56-9fdf-4587-9345-f928d15565c9","ios":"levelo://app?vid=c2ad8b56-9fdf-4587-9345-f928d15565c9"},"vehicle_type_id":"4","last_reported":1704155666,"current_range_meters":30400,"station_id":"ce4bgk12rcd13ifvqbi0","pricing_plan_id":"free"},{"bike_id":"92973187-e7c4-4df5-8d85-59bb8e731308","system_id":"levelo_inurba_marseille","lat":43.297887,"lon":5.381227,"is_reserved":false,"is_disabled":false,"rental_uris":{"android":"levelo://app?vid=92973187-e7c4-4df5-8d85-59bb8e731308","ios":"levelo://app?vid=92973187-e7c4-4df5-8d85-59bb8e731308"},"vehicle_type_id":"4","last_reported":1704155666,"current_range_meters":6800,"station_id":"ce4bgip2rcd13ifvqbb0","pricing_plan_id":"free"},{"bike_id":"d60802d6-4f47-444a-b234-883690eec05b","system_id":"levelo_inurba_marseille","lat":43.33062,"lon":5.3627,"is_reserved":false,"is_disabled":false,"rental_uris":{"android":"levelo://app?vid=d60802d6-4f47-444a-b234-883690eec05b","ios":"levelo://app?vid=d60802d6-4f47-444a-b234-883690eec05b"},"vehicle_type_id":"4","last_reported":1704155666,"current_range_meters":17600,"station_id":"","pricing_plan_id":"free"},{"bike_id":"dec66e86-45b4-4aa2-9be3-152564f997b6","system_id":"levelo_inurba_marseille","lat":43.290631,"lon":5.359244,"is_reserved":false,"is_disabled":false,"rental_uris":{"android":"levelo://app?vid=dec66e86-45b4-4aa2-9be3-152564f997b6","ios":"levelo://app?vid=dec66e86-45b4-4aa2-9be3-152564f997b6"},"vehicle_type_id":"4","last_reported":1704155666,"current_range_meters":20000,"station_id":"ce4bha92rcd13ifvqeg0","pricing_plan_id":"free"},{"bike_id":"7119845d-00aa-4d9f-be8c-fc97d41f1380","system_id":"levelo_inurba_marseille","lat":43.297594,"lon":5.381134,"is_reserved":false,"is_disabled":false,"rental_uris":{"android":"levelo://app?vid=7119845d-00aa-4d9f-be8c-fc97d41f1380","ios":"levelo://app?vid=7119845d-00aa-4d9f-be8c-fc97d41f1380"},"vehicle_type_id":"4","last_reported":1704155666,"current_range_meters":6000,"station_id":"ce4bgip2rcd13ifvqbb0","pricing_plan_id":"free"},{"bike_id":"91450f09-7349-4a73-8cc6-c7a6477dab73","system_id":"levelo_inurba_marseille","lat":43.295279,"lon":5.375048,"is_reserved":false,"is_disabled":false,"rental_uris":{"android":"levelo://app?vid=91450f09-7349-4a73-8cc6-c7a6477dab73","ios":"levelo://app?vid=91450f09-7349-4a73-8cc6-c7a6477dab73"},"vehicle_type_id":"4","last_reported":1704155666,"current_range_meters":19200,"station_id":"ce4bgkp2rcd13ifvqbmg","pricing_plan_id":"free"},{"bike_id":"d1ae36cc-3d77-4823-bbea-3ec1cd29b40d","system_id":"levelo_inurba_marseille","lat":43.32367,"lon":5.388836,"is_reserved":false,"is_disabled":false,"rental_uris":{"android":"levelo://app?vid=d1ae36cc-3d77-4823-bbea-3ec1cd29b40d","ios":"levelo://app?vid=d1ae36cc-3d77-4823-bbea-3ec1cd29b40d"},"vehicle_type_id":"4","last_reported":1704155666,"current_range_meters":22800,"station_id":"ce4bhqp2rcd13ifvqhog","pricing_plan_id":"free"},{"bike_id":"8ce0b194-365b-46a5-8a0f-c782a2096940","system_id":"levelo_inurba_marseille","lat":43.293259,"lon":5.371586,"is_reserved":false,"is_disabled":false,"rental_uris":{"android":"levelo://app?vid=8ce0b194-365b-46a5-8a0f-c782a2096940","ios":"levelo://app?vid=8ce0b194-365b-46a5-8a0f-c782a2096940"},"vehicle_type_id":"4","last_reported":1704155666,"current_range_meters":26800,"station_id":"ce4bgh92rcd13ifvqb40","pricing_plan_id":"free"},{"bike_id":"6b3811ee-1dcd-4382-ad2b-c80142f76d4a","system_id":"levelo_inurba_marseille","lat":43.293259,"lon":5.371586,"is_reserved":false,"is_disabled":false,"rental_uris":{"android":"levelo://app?vid=6b3811ee-1dcd-4382-ad2b-c80142f76d4a","ios":"levelo://app?vid=6b3811ee-1dcd-4382-ad2b-c80142f76d4a"},"vehicle_type_id":"4","last_reported":1704155666,"current_range_meters":30400,"station_id":"ce4bgh92rcd13ifvqb40","pricing_plan_id":"free"},{"bike_id":"253046d1-a9b5-4299-a49c-c503b01c2cd6","system_id":"levelo_inurba_marseille","lat":43.305994,"lon":5.393687,"is_reserved":false,"is_disabled":false,"rental_uris":{"android":"levelo://app?vid=253046d1-a9b5-4299-a49c-c503b01c2cd6","ios":"levelo://app?vid=253046d1-a9b5-4299-a49c-c503b01c2cd6"},"vehicle_type_id":"4","last_reported":1704155666,"current_range_meters":26000,"station_id":"ce4bh0p2rcd13ifvqd80","pricing_plan_id":"free"},{"bike_id":"0246363e-51c8-43f7-a8a2-884f62058823","system_id":"levelo_inurba_marseille","lat":43.303002,"lon":5.392142,"is_reserved":false,"is_disabled":false,"rental_uris":{"android":"levelo://app?vid=0246363e-51c8-43f7-a8a2-884f62058823","ios":"levelo://app?vid=0246363e-51c8-43f7-a8a2-884f62058823"},"vehicle_type_id":"4","last_reported":1704155666,"current_range_meters":30400,"station_id":"ce4bgkh2rcd13ifvqbk0","pricing_plan_id":"free"},{"bike_id":"b298273d-9245-4bb3-bd84-cb3a3ae51c8f","system_id":"levelo_inurba_marseille","lat":43.303007,"lon":5.392083,"is_reserved":false,"is_disabled":false,"rental_uris":{"android":"levelo://app?vid=b298273d-9245-4bb3-bd84-cb3a3ae51c8f","ios":"levelo://app?vid=b298273d-9245-4bb3-bd84-cb3a3ae51c8f"},"vehicle_type_id":"4","last_reported":1704155666,"current_range_meters":26800,"station_id":"ce4bgkh2rcd13ifvqbk0","pricing_plan_id":"free"},{"bike_id":"1a1481de-040b-486d-8984-45afdbe85ebb","system_id":"levelo_inurba_marseille","lat":43.29253,"lon":5.3739,"is_reserved":false,"is_disabled":false,"rental_uris":{"android":"levelo://app?vid=1a1481de-040b-486d-8984-45afdbe85ebb","ios":"levelo://app?vid=1a1481de-040b-486d-8984-45afdbe85ebb"},"vehicle_type_id":"4","last_reported":1704155666,"current_range_meters":18400,"station_id":"","pricing_plan_id":"free"},{"bike_id":"93f79dfd-ec7a-4963-bb9f-e7b3a375b424","system_id":"levelo_inurba_marseille","lat":43.309038,"lon":5.396546,"is_reserved":false,"is_disabled":false,"rental_uris":{"android":"levelo://app?vid=93f79dfd-ec7a-4963-bb9f-e7b3a375b424","ios":"levelo://app?vid=93f79dfd-ec7a-4963-bb9f-e7b3a375b424"},"vehicle_type_id":"4","last_reported":1704155666,"current_range_meters":25200,"station_id":"ce4bh012rcd13ifvqcv0","pricing_plan_id":"free"},{"bike_id":"668942d6-33c2-433a-a4c3-8da233302454","system_id":"levelo_inurba_marseille","lat":43.313291,"lon":5.396838,"is_reserved":false,"is_disabled":false,"rental_uris":{"android":"levelo://app?vid=668942d6-33c2-433a-a4c3-8da233302454","ios":"levelo://app?vid=668942d6-33c2-433a-a4c3-8da233302454"},"vehicle_type_id":"4","last_reported":1704155666,"current_range_meters":29600,"station_id":"ce4bgvp2rcd13ifvqcu0","pricing_plan_id":"free"},{"bike_id":"c51bd3d9-eb30-4459-aa21-97656106b531","system_id":"levelo_inurba_marseille","lat":43.313291,"lon":5.396838,"is_reserved":false,"is_disabled":false,"rental_uris":{"android":"levelo://app?vid=c51bd3d9-eb30-4459-aa21-97656106b531","ios":"levelo://app?vid=c51bd3d9-eb30-4459-aa21-97656106b531"},"vehicle_type_id":"4","last_reported":1704155666,"current_range_meters":23200,"station_id":"ce4bgvp2rcd13ifvqcu0","pricing_plan_id":"free"},{"bike_id":"839e871f-841d-4693-bfab-f9a32978856e","system_id":"levelo_inurba_marseille","lat":43.309038,"lon":5.396546,"is_reserved":false,"is_disabled":false,"rental_uris":{"android":"levelo://app?vid=839e871f-841d-4693-bfab-f9a32978856e","ios":"levelo://app?vid=839e871f-841d-4693-bfab-f9a32978856e"},"vehicle_type_id":"4","last_reported":1704155666,"current_range_meters":18800,"station_id":"ce4bh012rcd13ifvqcv0","pricing_plan_id":"free"},{"bike_id":"095e09fc-8293-41fb-9301-b248e83192ea","system_id":"levelo_inurba_marseille","lat":43.302008,"lon":5.394694,"is_reserved":false,"is_disabled":false,"rental_uris":{"android":"levelo://app?vid=095e09fc-8293-41fb-9301-b248e83192ea","ios":"levelo://app?vid=095e09fc-8293-41fb-9301-b248e83192ea"},"vehicle_type_id":"4","last_reported":1704155666,"current_range_meters":24000,"station_id":"ce4bh0p2rcd13ifvqd70","pricing_plan_id":"free"},{"bike_id":"e3d1dd37-a847-4837-b2e3-6c12642055b0","system_id":"levelo_inurba_marseille","lat":43.290631,"lon":5.359244,"is_reserved":false,"is_disabled":false,"rental_uris":{"android":"levelo://app?vid=e3d1dd37-a847-4837-b2e3-6c12642055b0","ios":"levelo://app?vid=e3d1dd37-a847-4837-b2e3-6c12642055b0"},"vehicle_type_id":"4","last_reported":1704155666,"current_range_meters":28000,"station_id":"ce4bha92rcd13ifvqeg0","pricing_plan_id":"free"},{"bike_id":"2bb3acb9-bedd-4441-8b19-458215b4bd3d","system_id":"levelo_inurba_marseille","lat":43.290631,"lon":5.359244,"is_reserved":false,"is_disabled":false,"rental_uris":{"android":"levelo://app?vid=2bb3acb9-bedd-4441-8b19-458215b4bd3d","ios":"levelo://app?vid=2bb3acb9-bedd-4441-8b19-458215b4bd3d"},"vehicle_type_id":"4","last_reported":1704155666,"current_range_meters":31600,"station_id":"ce4bha92rcd13ifvqeg0","pricing_plan_id":"free"},{"bike_id":"cc13e9be-88b5-443f-b72e-21f92b6a0bee","system_id":"levelo_inurba_marseille","lat":43.29411,"lon":5.38627,"is_reserved":false,"is_disabled":false,"rental_uris":{"android":"levelo://app?vid=cc13e9be-88b5-443f-b72e-21f92b6a0bee","ios":"levelo://app?vid=cc13e9be-88b5-443f-b72e-21f92b6a0bee"},"vehicle_type_id":"4","last_reported":1704155666,"current_range_meters":24800,"station_id":"ce4bh2h2rcd13ifvqdh0","pricing_plan_id":"free"},{"bike_id":"9ef5a195-e0d1-4224-9582-be4d5fe33d0d","system_id":"levelo_inurba_marseille","lat":43.289468,"lon":5.363719,"is_reserved":false,"is_disabled":false,"rental_uris":{"android":"levelo://app?vid=9ef5a195-e0d1-4224-9582-be4d5fe33d0d","ios":"levelo://app?vid=9ef5a195-e0d1-4224-9582-be4d5fe33d0d"},"vehicle_type_id":"4","last_reported":1704155666,"current_range_meters":30000,"station_id":"ce4bhc92rcd13ifvqetg","pricing_plan_id":"free"},{"bike_id":"dfa363b1-5aa9-4760-93dc-9eb93dedf43f","system_id":"levelo_inurba_marseille","lat":43.292644,"lon":5.384257,"is_reserved":false,"is_disabled":false,"rental_uris":{"android":"levelo://app?vid=dfa363b1-5aa9-4760-93dc-9eb93dedf43f","ios":"levelo://app?vid=dfa363b1-5aa9-4760-93dc-9eb93dedf43f"},"vehicle_type_id":"4","last_reported":1704155666,"current_range_meters":18000,"station_id":"ce4bh692rcd13ifvqea0","pricing_plan_id":"free"},{"bike_id":"c3357f99-dfba-49e2-91a2-5391a04b1ee8","system_id":"levelo_inurba_marseille","lat":43.290103,"lon":5.356114,"is_reserved":false,"is_disabled":false,"rental_uris":{"android":"levelo://app?vid=c3357f99-dfba-49e2-91a2-5391a04b1ee8","ios":"levelo://app?vid=c3357f99-dfba-49e2-91a2-5391a04b1ee8"},"vehicle_type_id":"4","last_reported":1704155666,"current_range_meters":22400,"station_id":"ce4bhb92rcd13ifvqen0","pricing_plan_id":"free"},{"bike_id":"513d71eb-3a3a-492d-a795-d8246815462e","system_id":"levelo_inurba_marseille","lat":43.290995,"lon":5.381361,"is_reserved":false,"is_disabled":false,"rental_uris":{"android":"levelo://app?vid=513d71eb-3a3a-492d-a795-d8246815462e","ios":"levelo://app?vid=513d71eb-3a3a-492d-a795-d8246815462e"},"vehicle_type_id":"4","last_reported":1704155666,"current_range_meters":22000,"station_id":"ce4bh512rcd13ifvqe2g","pricing_plan_id":"free"},{"bike_id":"891e99cc-b383-415e-b204-6dddbcb897ea","system_id":"levelo_inurba_marseille","lat":43.290827,"lon":5.381421,"is_reserved":false,"is_disabled":false,"rental_uris":{"android":"levelo://app?vid=891e99cc-b383-415e-b204-6dddbcb897ea","ios":"levelo://app?vid=891e99cc-b383-415e-b204-6dddbcb897ea"},"vehicle_type_id":"4","last_reported":1704155666,"current_range_meters":19200,"station_id":"","pricing_plan_id":"free"},{"bike_id":"415bb52a-0e78-4075-826e-0e7b7313e6f5","system_id":"levelo_inurba_marseille","lat":43.330442,"lon":5.389148,"is_reserved":false,"is_disabled":false,"rental_uris":{"android":"levelo://app?vid=415bb52a-0e78-4075-826e-0e7b7313e6f5","ios":"levelo://app?vid=415bb52a-0e78-4075-826e-0e7b7313e6f5"},"vehicle_type_id":"4","last_reported":1704155666,"current_range_meters":22400,"station_id":"ce4bhr92rcd13ifvqhrg","pricing_plan_id":"free"},{"bike_id":"7d3f0707-26fc-41d0-8f63-88674e57e19c","system_id":"levelo_inurba_marseille","lat":43.33028,"lon":5.39034,"is_reserved":false,"is_disabled":false,"rental_uris":{"android":"levelo://app?vid=7d3f0707-26fc-41d0-8f63-88674e57e19c","ios":"levelo://app?vid=7d3f0707-26fc-41d0-8f63-88674e57e19c"},"vehicle_type_id":"4","last_reported":1704155666,"current_range_meters":9600,"station_id":"","pricing_plan_id":"free"},{"bike_id":"13d41c86-d361-4b17-ae49-6b5491dd4e85","system_id":"levelo_inurba_marseille","lat":43.330442,"lon":5.389148,"is_reserved":false,"is_disabled":false,"rental_uris":{"android":"levelo://app?vid=13d41c86-d361-4b17-ae49-6b5491dd4e85","ios":"levelo://app?vid=13d41c86-d361-4b17-ae49-6b5491dd4e85"},"vehicle_type_id":"4","last_reported":1704155666,"current_range_meters":26800,"station_id":"ce4bhr92rcd13ifvqhrg","pricing_plan_id":"free"},{"bike_id":"d7f343e5-1ba3-4856-a80f-438125dd58f9","system_id":"levelo_inurba_marseille","lat":43.28856,"lon":5.358371,"is_reserved":false,"is_disabled":false,"rental_uris":{"android":"levelo://app?vid=d7f343e5-1ba3-4856-a80f-438125dd58f9","ios":"levelo://app?vid=d7f343e5-1ba3-4856-a80f-438125dd58f9"},"vehicle_type_id":"4","last_reported":1704155666,"current_range_meters":1200,"station_id":"ce4bhb12rcd13ifvqem0","pricing_plan_id":"free"},{"bike_id":"41a7d31f-1e0a-4058-8171-d9146d4a8418","system_id":"levelo_inurba_marseille","lat":43.337393,"lon":5.374478,"is_reserved":false,"is_disabled":false,"rental_uris":{"android":"levelo://app?vid=41a7d31f-1e0a-4058-8171-d9146d4a8418","ios":"levelo://app?vid=41a7d31f-1e0a-4058-8171-d9146d4a8418"},"vehicle_type_id":"4","last_reported":1704155666,"current_range_meters":26400,"station_id":"","pricing_plan_id":"free"},{"bike_id":"9a042682-2b83-4773-ad48-23fbaf2d69da","system_id":"levelo_inurba_marseille","lat":43.312609,"lon":5.401662,"is_reserved":false,"is_disabled":false,"rental_uris":{"android":"levelo://app?vid=9a042682-2b83-4773-ad48-23fbaf2d69da","ios":"levelo://app?vid=9a042682-2b83-4773-ad48-23fbaf2d69da"},"vehicle_type_id":"4","last_reported":1704155666,"current_range_meters":12800,"station_id":"ce4bh092rcd13ifvqd30","pricing_plan_id":"free"},{"bike_id":"de41f880-1ec5-4456-ac16-4e12b8a7de81","system_id":"levelo_inurba_marseille","lat":43.309371,"lon":5.401449,"is_reserved":false,"is_disabled":false,"rental_uris":{"android":"levelo://app?vid=de41f880-1ec5-4456-ac16-4e12b8a7de81","ios":"levelo://app?vid=de41f880-1ec5-4456-ac16-4e12b8a7de81"},"vehicle_type_id":"4","last_reported":1704155666,"current_range_meters":0,"station_id":"ce4bgvp2rcd13ifvqct0","pricing_plan_id":"free"},{"bike_id":"acdd791b-b005-455d-8a15-399fdf59a552","system_id":"levelo_inurba_marseille","lat":43.337419,"lon":5.374721,"is_reserved":false,"is_disabled":false,"rental_uris":{"android":"levelo://app?vid=acdd791b-b005-455d-8a15-399fdf59a552","ios":"levelo://app?vid=acdd791b-b005-455d-8a15-399fdf59a552"},"vehicle_type_id":"4","last_reported":1704155666,"current_range_meters":4800,"station_id":"","pricing_plan_id":"free"},{"bike_id":"c3321a64-f89b-4011-9b8d-86cbb1276a3a","system_id":"levelo_inurba_marseille","lat":43.309371,"lon":5.401449,"is_reserved":false,"is_disabled":false,"rental_uris":{"android":"levelo://app?vid=c3321a64-f89b-4011-9b8d-86cbb1276a3a","ios":"levelo://app?vid=c3321a64-f89b-4011-9b8d-86cbb1276a3a"},"vehicle_type_id":"4","last_reported":1704155666,"current_range_meters":5200,"station_id":"ce4bgvp2rcd13ifvqct0","pricing_plan_id":"free"},{"bike_id":"270ee592-07ab-404a-a87a-86c09115a31b","system_id":"levelo_inurba_marseille","lat":43.309265,"lon":5.401489,"is_reserved":false,"is_disabled":false,"rental_uris":{"android":"levelo://app?vid=270ee592-07ab-404a-a87a-86c09115a31b","ios":"levelo://app?vid=270ee592-07ab-404a-a87a-86c09115a31b"},"vehicle_type_id":"4","last_reported":1704155666,"current_range_meters":26000,"station_id":"","pricing_plan_id":"free"},{"bike_id":"7ab698d9-e2dc-497d-a6d3-87f8c4cc4c6b","system_id":"levelo_inurba_marseille","lat":43.309371,"lon":5.401449,"is_reserved":false,"is_disabled":false,"rental_uris":{"android":"levelo://app?vid=7ab698d9-e2dc-497d-a6d3-87f8c4cc4c6b","ios":"levelo://app?vid=7ab698d9-e2dc-497d-a6d3-87f8c4cc4c6b"},"vehicle_type_id":"4","last_reported":1704155666,"current_range_meters":19600,"station_id":"ce4bgvp2rcd13ifvqct0","pricing_plan_id":"free"},{"bike_id":"cafc4367-07fd-4ff8-8e3c-1b23ff14c3b4","system_id":"levelo_inurba_marseille","lat":43.28727,"lon":5.36078,"is_reserved":false,"is_disabled":false,"rental_uris":{"android":"levelo://app?vid=cafc4367-07fd-4ff8-8e3c-1b23ff14c3b4","ios":"levelo://app?vid=cafc4367-07fd-4ff8-8e3c-1b23ff14c3b4"},"vehicle_type_id":"4","last_reported":1704155666,"current_range_meters":24800,"station_id":"cki0cbj6b192h4jlfktg","pricing_plan_id":"free"},{"bike_id":"af52503d-1551-42a2-a18e-60cc63b1dd3e","system_id":"levelo_inurba_marseille","lat":43.28727,"lon":5.36078,"is_reserved":false,"is_disabled":false,"rental_uris":{"android":"levelo://app?vid=af52503d-1551-42a2-a18e-60cc63b1dd3e","ios":"levelo://app?vid=af52503d-1551-42a2-a18e-60cc63b1dd3e"},"vehicle_type_id":"4","last_reported":1704155666,"current_range_meters":28000,"station_id":"cki0cbj6b192h4jlfktg","pricing_plan_id":"free"},{"bike_id":"7e9a59ee-058b-4752-9380-1129ce8586dd","system_id":"levelo_inurba_marseille","lat":43.28727,"lon":5.36078,"is_reserved":false,"is_disabled":false,"rental_uris":{"android":"levelo://app?vid=7e9a59ee-058b-4752-9380-1129ce8586dd","ios":"levelo://app?vid=7e9a59ee-058b-4752-9380-1129ce8586dd"},"vehicle_type_id":"4","last_reported":1704155666,"current_range_meters":31600,"station_id":"cki0cbj6b192h4jlfktg","pricing_plan_id":"free"},{"bike_id":"1d3d05ed-3f7c-403a-af31-77da06ee98d2","system_id":"levelo_inurba_marseille","lat":43.28727,"lon":5.36078,"is_reserved":false,"is_disabled":false,"rental_uris":{"android":"levelo://app?vid=1d3d05ed-3f7c-403a-af31-77da06ee98d2","ios":"levelo://app?vid=1d3d05ed-3f7c-403a-af31-77da06ee98d2"},"vehicle_type_id":"4","last_reported":1704155666,"current_range_meters":23200,"station_id":"cki0cbj6b192h4jlfktg","pricing_plan_id":"free"},{"bike_id":"bf548608-b4d5-4d0c-8ca0-59ebdd86d826","system_id":"levelo_inurba_marseille","lat":43.298681,"lon":5.397225,"is_reserved":false,"is_disabled":false,"rental_uris":{"android":"levelo://app?vid=bf548608-b4d5-4d0c-8ca0-59ebdd86d826","ios":"levelo://app?vid=bf548608-b4d5-4d0c-8ca0-59ebdd86d826"},"vehicle_type_id":"4","last_reported":1704155666,"current_range_meters":21600,"station_id":"ce4bh0h2rcd13ifvqd50","pricing_plan_id":"free"},{"bike_id":"486524ff-ff24-4771-a299-4a4edbc4eb8e","system_id":"levelo_inurba_marseille","lat":43.298681,"lon":5.397225,"is_reserved":false,"is_disabled":false,"rental_uris":{"android":"levelo://app?vid=486524ff-ff24-4771-a299-4a4edbc4eb8e","ios":"levelo://app?vid=486524ff-ff24-4771-a299-4a4edbc4eb8e"},"vehicle_type_id":"4","last_reported":1704155666,"current_range_meters":27200,"station_id":"ce4bh0h2rcd13ifvqd50","pricing_plan_id":"free"},{"bike_id":"31c2e599-cdc1-4b05-b330-b9f7c0d3e006","system_id":"levelo_inurba_marseille","lat":43.286591,"lon":5.363346,"is_reserved":false,"is_disabled":false,"rental_uris":{"android":"levelo://app?vid=31c2e599-cdc1-4b05-b330-b9f7c0d3e006","ios":"levelo://app?vid=31c2e599-cdc1-4b05-b330-b9f7c0d3e006"},"vehicle_type_id":"4","last_reported":1704155666,"current_range_meters":2000,"station_id":"ce4bhah2rcd13ifvqej0","pricing_plan_id":"free"},{"bike_id":"e48afa01-fae1-4acb-b497-ecb0db8715e3","system_id":"levelo_inurba_marseille","lat":43.286591,"lon":5.363346,"is_reserved":false,"is_disabled":false,"rental_uris":{"android":"levelo://app?vid=e48afa01-fae1-4acb-b497-ecb0db8715e3","ios":"levelo://app?vid=e48afa01-fae1-4acb-b497-ecb0db8715e3"},"vehicle_type_id":"4","last_reported":1704155666,"current_range_meters":19600,"station_id":"ce4bhah2rcd13ifvqej0","pricing_plan_id":"free"},{"bike_id":"04cdc395-312f-4db5-8d02-07d69d56b6f4","system_id":"levelo_inurba_marseille","lat":43.286591,"lon":5.363346,"is_reserved":false,"is_disabled":false,"rental_uris":{"android":"levelo://app?vid=04cdc395-312f-4db5-8d02-07d69d56b6f4","ios":"levelo://app?vid=04cdc395-312f-4db5-8d02-07d69d56b6f4"},"vehicle_type_id":"4","last_reported":1704155666,"current_range_meters":31600,"station_id":"ce4bhah2rcd13ifvqej0","pricing_plan_id":"free"},{"bike_id":"bd6df0b3-ac7d-4103-9606-86073e94833a","system_id":"levelo_inurba_marseille","lat":43.286591,"lon":5.363346,"is_reserved":false,"is_disabled":false,"rental_uris":{"android":"levelo://app?vid=bd6df0b3-ac7d-4103-9606-86073e94833a","ios":"levelo://app?vid=bd6df0b3-ac7d-4103-9606-86073e94833a"},"vehicle_type_id":"4","last_reported":1704155666,"current_range_meters":26800,"station_id":"ce4bhah2rcd13ifvqej0","pricing_plan_id":"free"},{"bike_id":"f182ad30-578d-439a-b895-037c49f93cbb","system_id":"levelo_inurba_marseille","lat":43.28039,"lon":5.369297,"is_reserved":false,"is_disabled":false,"rental_uris":{"android":"levelo://app?vid=f182ad30-578d-439a-b895-037c49f93cbb","ios":"levelo://app?vid=f182ad30-578d-439a-b895-037c49f93cbb"},"vehicle_type_id":"4","last_reported":1704155666,"current_range_meters":31600,"station_id":"ce4bha12rcd13ifvqef0","pricing_plan_id":"free"},{"bike_id":"af65370e-23ce-4ab1-af4e-14d4eb673611","system_id":"levelo_inurba_marseille","lat":43.295194,"lon":5.39397,"is_reserved":false,"is_disabled":false,"rental_uris":{"android":"levelo://app?vid=af65370e-23ce-4ab1-af4e-14d4eb673611","ios":"levelo://app?vid=af65370e-23ce-4ab1-af4e-14d4eb673611"},"vehicle_type_id":"4","last_reported":1704155666,"current_range_meters":27200,"station_id":"ce4bh292rcd13ifvqdf0","pricing_plan_id":"free"},{"bike_id":"a3e2f15e-dbfd-47db-bc7b-e076ce1dda2d","system_id":"levelo_inurba_marseille","lat":43.289307,"lon":5.38406,"is_reserved":false,"is_disabled":false,"rental_uris":{"android":"levelo://app?vid=a3e2f15e-dbfd-47db-bc7b-e076ce1dda2d","ios":"levelo://app?vid=a3e2f15e-dbfd-47db-bc7b-e076ce1dda2d"},"vehicle_type_id":"4","last_reported":1704155666,"current_range_meters":21600,"station_id":"ce4bh612rcd13ifvqe6g","pricing_plan_id":"free"},{"bike_id":"10c227b7-c637-4665-a026-a7a26926a52a","system_id":"levelo_inurba_marseille","lat":43.302759,"lon":5.400793,"is_reserved":false,"is_disabled":false,"rental_uris":{"android":"levelo://app?vid=10c227b7-c637-4665-a026-a7a26926a52a","ios":"levelo://app?vid=10c227b7-c637-4665-a026-a7a26926a52a"},"vehicle_type_id":"4","last_reported":1704155666,"current_range_meters":7600,"station_id":"ce4bgvh2rcd13ifvqcs0","pricing_plan_id":"free"},{"bike_id":"7a737315-87a9-4c03-ba45-4ac5ba90dbb7","system_id":"levelo_inurba_marseille","lat":43.289307,"lon":5.38406,"is_reserved":false,"is_disabled":false,"rental_uris":{"android":"levelo://app?vid=7a737315-87a9-4c03-ba45-4ac5ba90dbb7","ios":"levelo://app?vid=7a737315-87a9-4c03-ba45-4ac5ba90dbb7"},"vehicle_type_id":"4","last_reported":1704155666,"current_range_meters":28800,"station_id":"ce4bh612rcd13ifvqe6g","pricing_plan_id":"free"},{"bike_id":"8e2e53f2-18a4-47a0-9f1e-ac2b0a14723a","system_id":"levelo_inurba_marseille","lat":43.290345,"lon":5.38646,"is_reserved":false,"is_disabled":false,"rental_uris":{"android":"levelo://app?vid=8e2e53f2-18a4-47a0-9f1e-ac2b0a14723a","ios":"levelo://app?vid=8e2e53f2-18a4-47a0-9f1e-ac2b0a14723a"},"vehicle_type_id":"4","last_reported":1704155666,"current_range_meters":15600,"station_id":"ce4bh4p2rcd13ifvqe0g","pricing_plan_id":"free"},{"bike_id":"9da7227d-47de-4eb4-b462-00fbcf630aaf","system_id":"levelo_inurba_marseille","lat":43.289307,"lon":5.38406,"is_reserved":false,"is_disabled":false,"rental_uris":{"android":"levelo://app?vid=9da7227d-47de-4eb4-b462-00fbcf630aaf","ios":"levelo://app?vid=9da7227d-47de-4eb4-b462-00fbcf630aaf"},"vehicle_type_id":"4","last_reported":1704155666,"current_range_meters":30000,"station_id":"ce4bh612rcd13ifvqe6g","pricing_plan_id":"free"},{"bike_id":"973ed2b1-a4cb-4f58-8f30-e5ee2d787957","system_id":"levelo_inurba_marseille","lat":43.302759,"lon":5.400793,"is_reserved":false,"is_disabled":false,"rental_uris":{"android":"levelo://app?vid=973ed2b1-a4cb-4f58-8f30-e5ee2d787957","ios":"levelo://app?vid=973ed2b1-a4cb-4f58-8f30-e5ee2d787957"},"vehicle_type_id":"4","last_reported":1704155666,"current_range_meters":3600,"station_id":"ce4bgvh2rcd13ifvqcs0","pricing_plan_id":"free"},{"bike_id":"40579999-f28a-4f53-8fc1-32606a609e63","system_id":"levelo_inurba_marseille","lat":43.28607,"lon":5.37062,"is_reserved":false,"is_disabled":false,"rental_uris":{"android":"levelo://app?vid=40579999-f28a-4f53-8fc1-32606a609e63","ios":"levelo://app?vid=40579999-f28a-4f53-8fc1-32606a609e63"},"vehicle_type_id":"4","last_reported":1704155666,"current_range_meters":24800,"station_id":"","pricing_plan_id":"free"},{"bike_id":"9b0c9e9e-977c-43ca-8676-217c423ef706","system_id":"levelo_inurba_marseille","lat":43.31688,"lon":5.40463,"is_reserved":false,"is_disabled":false,"rental_uris":{"android":"levelo://app?vid=9b0c9e9e-977c-43ca-8676-217c423ef706","ios":"levelo://app?vid=9b0c9e9e-977c-43ca-8676-217c423ef706"},"vehicle_type_id":"4","last_reported":1704155666,"current_range_meters":400,"station_id":"ce4bh012rcd13ifvqd00","pricing_plan_id":"free"},{"bike_id":"744993c4-f7e4-42fc-bd85-147500ccba61","system_id":"levelo_inurba_marseille","lat":43.31692,"lon":5.40475,"is_reserved":false,"is_disabled":false,"rental_uris":{"android":"levelo://app?vid=744993c4-f7e4-42fc-bd85-147500ccba61","ios":"levelo://app?vid=744993c4-f7e4-42fc-bd85-147500ccba61"},"vehicle_type_id":"4","last_reported":1704155666,"current_range_meters":22400,"station_id":"ce4bh012rcd13ifvqd00","pricing_plan_id":"free"},{"bike_id":"32eb32ad-d5d9-45a9-a859-e598dc50f22d","system_id":"levelo_inurba_marseille","lat":43.291994,"lon":5.392907,"is_reserved":false,"is_disabled":false,"rental_uris":{"android":"levelo://app?vid=32eb32ad-d5d9-45a9-a859-e598dc50f22d","ios":"levelo://app?vid=32eb32ad-d5d9-45a9-a859-e598dc50f22d"},"vehicle_type_id":"4","last_reported":1704155666,"current_range_meters":2000,"station_id":"ce4bh192rcd13ifvqdd0","pricing_plan_id":"free"},{"bike_id":"47962c03-d8a9-4723-a1c5-90c5c1cb0308","system_id":"levelo_inurba_marseille","lat":43.291994,"lon":5.392907,"is_reserved":false,"is_disabled":false,"rental_uris":{"android":"levelo://app?vid=47962c03-d8a9-4723-a1c5-90c5c1cb0308","ios":"levelo://app?vid=47962c03-d8a9-4723-a1c5-90c5c1cb0308"},"vehicle_type_id":"4","last_reported":1704155666,"current_range_meters":31600,"station_id":"ce4bh192rcd13ifvqdd0","pricing_plan_id":"free"},{"bike_id":"ad9bb1d1-fa6f-43b5-a417-53f958ba22ca","system_id":"levelo_inurba_marseille","lat":43.291994,"lon":5.392907,"is_reserved":false,"is_disabled":false,"rental_uris":{"android":"levelo://app?vid=ad9bb1d1-fa6f-43b5-a417-53f958ba22ca","ios":"levelo://app?vid=ad9bb1d1-fa6f-43b5-a417-53f958ba22ca"},"vehicle_type_id":"4","last_reported":1704155666,"current_range_meters":5600,"station_id":"ce4bh192rcd13ifvqdd0","pricing_plan_id":"free"},{"bike_id":"82fc3d83-93aa-4ce4-bd19-4015815af715","system_id":"levelo_inurba_marseille","lat":43.284534,"lon":5.358662,"is_reserved":false,"is_disabled":false,"rental_uris":{"android":"levelo://app?vid=82fc3d83-93aa-4ce4-bd19-4015815af715","ios":"levelo://app?vid=82fc3d83-93aa-4ce4-bd19-4015815af715"},"vehicle_type_id":"4","last_reported":1704155666,"current_range_meters":30800,"station_id":"ce4bhah2rcd13ifvqei0","pricing_plan_id":"free"},{"bike_id":"20be2735-b079-499a-af99-188ab3a39ea1","system_id":"levelo_inurba_marseille","lat":43.284619,"lon":5.358842,"is_reserved":false,"is_disabled":false,"rental_uris":{"android":"levelo://app?vid=20be2735-b079-499a-af99-188ab3a39ea1","ios":"levelo://app?vid=20be2735-b079-499a-af99-188ab3a39ea1"},"vehicle_type_id":"4","last_reported":1704155666,"current_range_meters":21600,"station_id":"ce4bhah2rcd13ifvqei0","pricing_plan_id":"free"},{"bike_id":"c3a0a884-5397-4533-9417-fb99cbd51802","system_id":"levelo_inurba_marseille","lat":43.284583,"lon":5.358936,"is_reserved":false,"is_disabled":false,"rental_uris":{"android":"levelo://app?vid=c3a0a884-5397-4533-9417-fb99cbd51802","ios":"levelo://app?vid=c3a0a884-5397-4533-9417-fb99cbd51802"},"vehicle_type_id":"4","last_reported":1704155666,"current_range_meters":28800,"station_id":"ce4bhah2rcd13ifvqei0","pricing_plan_id":"free"},{"bike_id":"7be1fd96-9df7-4dc2-864e-e485fc92ec9f","system_id":"levelo_inurba_marseille","lat":43.28457,"lon":5.35896,"is_reserved":false,"is_disabled":false,"rental_uris":{"android":"levelo://app?vid=7be1fd96-9df7-4dc2-864e-e485fc92ec9f","ios":"levelo://app?vid=7be1fd96-9df7-4dc2-864e-e485fc92ec9f"},"vehicle_type_id":"4","last_reported":1704155666,"current_range_meters":24400,"station_id":"","pricing_plan_id":"free"},{"bike_id":"e07dd0c9-ff0a-49bd-8bcb-17f59a7f02a9","system_id":"levelo_inurba_marseille","lat":43.28453,"lon":5.358957,"is_reserved":false,"is_disabled":false,"rental_uris":{"android":"levelo://app?vid=e07dd0c9-ff0a-49bd-8bcb-17f59a7f02a9","ios":"levelo://app?vid=e07dd0c9-ff0a-49bd-8bcb-17f59a7f02a9"},"vehicle_type_id":"4","last_reported":1704155666,"current_range_meters":12000,"station_id":"ce4bhah2rcd13ifvqei0","pricing_plan_id":"free"},{"bike_id":"d33a680a-753e-4107-8fda-ab70d7db208f","system_id":"levelo_inurba_marseille","lat":43.294314,"lon":5.397498,"is_reserved":false,"is_disabled":false,"rental_uris":{"android":"levelo://app?vid=d33a680a-753e-4107-8fda-ab70d7db208f","ios":"levelo://app?vid=d33a680a-753e-4107-8fda-ab70d7db208f"},"vehicle_type_id":"4","last_reported":1704155666,"current_range_meters":15200,"station_id":"ce4bh3h2rcd13ifvqdo0","pricing_plan_id":"free"},{"bike_id":"bf8beaa6-ec89-44d9-8a95-38be112222a8","system_id":"levelo_inurba_marseille","lat":43.284534,"lon":5.358662,"is_reserved":false,"is_disabled":false,"rental_uris":{"android":"levelo://app?vid=bf8beaa6-ec89-44d9-8a95-38be112222a8","ios":"levelo://app?vid=bf8beaa6-ec89-44d9-8a95-38be112222a8"},"vehicle_type_id":"4","last_reported":1704155666,"current_range_meters":19600,"station_id":"ce4bhah2rcd13ifvqei0","pricing_plan_id":"free"},{"bike_id":"86e7e586-8d17-497a-874c-d3c9072ab827","system_id":"levelo_inurba_marseille","lat":43.294314,"lon":5.397498,"is_reserved":false,"is_disabled":false,"rental_uris":{"android":"levelo://app?vid=86e7e586-8d17-497a-874c-d3c9072ab827","ios":"levelo://app?vid=86e7e586-8d17-497a-874c-d3c9072ab827"},"vehicle_type_id":"4","last_reported":1704155666,"current_range_meters":24800,"station_id":"ce4bh3h2rcd13ifvqdo0","pricing_plan_id":"free"},{"bike_id":"318ce2e9-9eb7-470b-8d02-260d874b62a2","system_id":"levelo_inurba_marseille","lat":43.28609,"lon":5.3508,"is_reserved":false,"is_disabled":false,"rental_uris":{"android":"levelo://app?vid=318ce2e9-9eb7-470b-8d02-260d874b62a2","ios":"levelo://app?vid=318ce2e9-9eb7-470b-8d02-260d874b62a2"},"vehicle_type_id":"4","last_reported":1704155666,"current_range_meters":25600,"station_id":"ce4bhch2rcd13ifvqeug","pricing_plan_id":"free"},{"bike_id":"e90c53d4-4b2f-494d-b977-535c701fe9ca","system_id":"levelo_inurba_marseille","lat":43.295196,"lon":5.39397,"is_reserved":false,"is_disabled":false,"rental_uris":{"android":"levelo://app?vid=e90c53d4-4b2f-494d-b977-535c701fe9ca","ios":"levelo://app?vid=e90c53d4-4b2f-494d-b977-535c701fe9ca"},"vehicle_type_id":"4","last_reported":1704155666,"current_range_meters":27600,"station_id":"ce4bh292rcd13ifvqdf0","pricing_plan_id":"free"},{"bike_id":"25e2cb7e-b18e-430d-b892-f943088f4be8","system_id":"levelo_inurba_marseille","lat":43.295713,"lon":5.399639,"is_reserved":false,"is_disabled":false,"rental_uris":{"android":"levelo://app?vid=25e2cb7e-b18e-430d-b892-f943088f4be8","ios":"levelo://app?vid=25e2cb7e-b18e-430d-b892-f943088f4be8"},"vehicle_type_id":"4","last_reported":1704155666,"current_range_meters":25600,"station_id":"ce4bh312rcd13ifvqdj0","pricing_plan_id":"free"},{"bike_id":"3f202cd9-5e93-447d-ad37-1b638017949e","system_id":"levelo_inurba_marseille","lat":43.295713,"lon":5.399639,"is_reserved":false,"is_disabled":false,"rental_uris":{"android":"levelo://app?vid=3f202cd9-5e93-447d-ad37-1b638017949e","ios":"levelo://app?vid=3f202cd9-5e93-447d-ad37-1b638017949e"},"vehicle_type_id":"4","last_reported":1704155666,"current_range_meters":26000,"station_id":"ce4bh312rcd13ifvqdj0","pricing_plan_id":"free"},{"bike_id":"a17dd30a-8c37-4ba9-8029-fae7f27d7a4f","system_id":"levelo_inurba_marseille","lat":43.28401,"lon":5.37517,"is_reserved":false,"is_disabled":false,"rental_uris":{"android":"levelo://app?vid=a17dd30a-8c37-4ba9-8029-fae7f27d7a4f","ios":"levelo://app?vid=a17dd30a-8c37-4ba9-8029-fae7f27d7a4f"},"vehicle_type_id":"4","last_reported":1704155666,"current_range_meters":15600,"station_id":"ce4bh412rcd13ifvqds0","pricing_plan_id":"free"},{"bike_id":"8af6642b-e526-4770-8a06-6b115e68c32b","system_id":"levelo_inurba_marseille","lat":43.337201,"lon":5.391811,"is_reserved":false,"is_disabled":false,"rental_uris":{"android":"levelo://app?vid=8af6642b-e526-4770-8a06-6b115e68c32b","ios":"levelo://app?vid=8af6642b-e526-4770-8a06-6b115e68c32b"},"vehicle_type_id":"4","last_reported":1704155666,"current_range_meters":23200,"station_id":"ce4bhr92rcd13ifvqhsg","pricing_plan_id":"free"},{"bike_id":"78bb1215-3373-4d3f-b7bd-f79703d6e8c0","system_id":"levelo_inurba_marseille","lat":43.323464,"lon":5.406297,"is_reserved":false,"is_disabled":false,"rental_uris":{"android":"levelo://app?vid=78bb1215-3373-4d3f-b7bd-f79703d6e8c0","ios":"levelo://app?vid=78bb1215-3373-4d3f-b7bd-f79703d6e8c0"},"vehicle_type_id":"4","last_reported":1704155666,"current_range_meters":26800,"station_id":"ce4bhq92rcd13ifvqhjg","pricing_plan_id":"free"},{"bike_id":"279c24e1-5891-4e70-a317-d0f5cce47927","system_id":"levelo_inurba_marseille","lat":43.323464,"lon":5.406297,"is_reserved":false,"is_disabled":false,"rental_uris":{"android":"levelo://app?vid=279c24e1-5891-4e70-a317-d0f5cce47927","ios":"levelo://app?vid=279c24e1-5891-4e70-a317-d0f5cce47927"},"vehicle_type_id":"4","last_reported":1704155666,"current_range_meters":28800,"station_id":"ce4bhq92rcd13ifvqhjg","pricing_plan_id":"free"},{"bike_id":"1860c054-e673-4084-804e-8832a59aeb53","system_id":"levelo_inurba_marseille","lat":43.337168,"lon":5.391825,"is_reserved":false,"is_disabled":false,"rental_uris":{"android":"levelo://app?vid=1860c054-e673-4084-804e-8832a59aeb53","ios":"levelo://app?vid=1860c054-e673-4084-804e-8832a59aeb53"},"vehicle_type_id":"4","last_reported":1704155666,"current_range_meters":26000,"station_id":"ce4bhr92rcd13ifvqhsg","pricing_plan_id":"free"},{"bike_id":"d3837f57-b992-4c84-a0a7-b545d2582111","system_id":"levelo_inurba_marseille","lat":43.323464,"lon":5.406297,"is_reserved":false,"is_disabled":false,"rental_uris":{"android":"levelo://app?vid=d3837f57-b992-4c84-a0a7-b545d2582111","ios":"levelo://app?vid=d3837f57-b992-4c84-a0a7-b545d2582111"},"vehicle_type_id":"4","last_reported":1704155666,"current_range_meters":30400,"station_id":"ce4bhq92rcd13ifvqhjg","pricing_plan_id":"free"},{"bike_id":"618febdd-8c1e-4c00-99b2-e58cf8ed81ba","system_id":"levelo_inurba_marseille","lat":43.28039,"lon":5.369297,"is_reserved":false,"is_disabled":false,"rental_uris":{"android":"levelo://app?vid=618febdd-8c1e-4c00-99b2-e58cf8ed81ba","ios":"levelo://app?vid=618febdd-8c1e-4c00-99b2-e58cf8ed81ba"},"vehicle_type_id":"4","last_reported":1704155666,"current_range_meters":6800,"station_id":"ce4bha12rcd13ifvqef0","pricing_plan_id":"free"},{"bike_id":"13963b5c-6eb9-4703-9b41-8f47ef84533a","system_id":"levelo_inurba_marseille","lat":43.289363,"lon":5.396322,"is_reserved":false,"is_disabled":false,"rental_uris":{"android":"levelo://app?vid=13963b5c-6eb9-4703-9b41-8f47ef84533a","ios":"levelo://app?vid=13963b5c-6eb9-4703-9b41-8f47ef84533a"},"vehicle_type_id":"4","last_reported":1704155666,"current_range_meters":24800,"station_id":"ce4bh3h2rcd13ifvqdn0","pricing_plan_id":"free"},{"bike_id":"3e258610-6eff-4e6f-b814-aa40590a9d46","system_id":"levelo_inurba_marseille","lat":43.289363,"lon":5.396322,"is_reserved":false,"is_disabled":false,"rental_uris":{"android":"levelo://app?vid=3e258610-6eff-4e6f-b814-aa40590a9d46","ios":"levelo://app?vid=3e258610-6eff-4e6f-b814-aa40590a9d46"},"vehicle_type_id":"4","last_reported":1704155666,"current_range_meters":31200,"station_id":"ce4bh3h2rcd13ifvqdn0","pricing_plan_id":"free"},{"bike_id":"f8fbe87e-a4b7-436a-b4bc-e58f98ed5997","system_id":"levelo_inurba_marseille","lat":43.292724,"lon":5.401131,"is_reserved":false,"is_disabled":false,"rental_uris":{"android":"levelo://app?vid=f8fbe87e-a4b7-436a-b4bc-e58f98ed5997","ios":"levelo://app?vid=f8fbe87e-a4b7-436a-b4bc-e58f98ed5997"},"vehicle_type_id":"4","last_reported":1704155666,"current_range_meters":7200,"station_id":"ce4bh312rcd13ifvqdk0","pricing_plan_id":"free"},{"bike_id":"1f5da6bb-f49f-4baa-a5b1-8de9d892bfab","system_id":"levelo_inurba_marseille","lat":43.29273,"lon":5.40126,"is_reserved":false,"is_disabled":false,"rental_uris":{"android":"levelo://app?vid=1f5da6bb-f49f-4baa-a5b1-8de9d892bfab","ios":"levelo://app?vid=1f5da6bb-f49f-4baa-a5b1-8de9d892bfab"},"vehicle_type_id":"4","last_reported":1704155666,"current_range_meters":13600,"station_id":"ce4bh312rcd13ifvqdk0","pricing_plan_id":"free"},{"bike_id":"2c933ba4-f850-42f7-9b35-c2cb2fe93a2b","system_id":"levelo_inurba_marseille","lat":43.292724,"lon":5.401131,"is_reserved":false,"is_disabled":false,"rental_uris":{"android":"levelo://app?vid=2c933ba4-f850-42f7-9b35-c2cb2fe93a2b","ios":"levelo://app?vid=2c933ba4-f850-42f7-9b35-c2cb2fe93a2b"},"vehicle_type_id":"4","last_reported":1704155666,"current_range_meters":31200,"station_id":"ce4bh312rcd13ifvqdk0","pricing_plan_id":"free"},{"bike_id":"9658c20b-91de-4b53-b72e-a5a26421a3b1","system_id":"levelo_inurba_marseille","lat":43.292724,"lon":5.401131,"is_reserved":false,"is_disabled":false,"rental_uris":{"android":"levelo://app?vid=9658c20b-91de-4b53-b72e-a5a26421a3b1","ios":"levelo://app?vid=9658c20b-91de-4b53-b72e-a5a26421a3b1"},"vehicle_type_id":"4","last_reported":1704155666,"current_range_meters":30000,"station_id":"ce4bh312rcd13ifvqdk0","pricing_plan_id":"free"},{"bike_id":"17018764-b63a-4c6c-940a-0ea7d83f43de","system_id":"levelo_inurba_marseille","lat":43.283502,"lon":5.386471,"is_reserved":false,"is_disabled":false,"rental_uris":{"android":"levelo://app?vid=17018764-b63a-4c6c-940a-0ea7d83f43de","ios":"levelo://app?vid=17018764-b63a-4c6c-940a-0ea7d83f43de"},"vehicle_type_id":"4","last_reported":1704155666,"current_range_meters":28000,"station_id":"ce4bh492rcd13ifvqdvg","pricing_plan_id":"free"},{"bike_id":"3e52ba98-a074-4115-bfe1-6d6d2ca2f3a5","system_id":"levelo_inurba_marseille","lat":43.28269,"lon":5.35067,"is_reserved":false,"is_disabled":false,"rental_uris":{"android":"levelo://app?vid=3e52ba98-a074-4115-bfe1-6d6d2ca2f3a5","ios":"levelo://app?vid=3e52ba98-a074-4115-bfe1-6d6d2ca2f3a5"},"vehicle_type_id":"4","last_reported":1704155666,"current_range_meters":23600,"station_id":"ce4bhbp2rcd13ifvqerg","pricing_plan_id":"free"},{"bike_id":"c43aa574-a203-4e6f-b97e-125a5a276c8a","system_id":"levelo_inurba_marseille","lat":43.282664,"lon":5.350706,"is_reserved":false,"is_disabled":false,"rental_uris":{"android":"levelo://app?vid=c43aa574-a203-4e6f-b97e-125a5a276c8a","ios":"levelo://app?vid=c43aa574-a203-4e6f-b97e-125a5a276c8a"},"vehicle_type_id":"4","last_reported":1704155666,"current_range_meters":20800,"station_id":"ce4bhbp2rcd13ifvqerg","pricing_plan_id":"free"},{"bike_id":"afc2f573-2d62-4a8a-97b6-80afebf4ed73","system_id":"levelo_inurba_marseille","lat":43.282654,"lon":5.350708,"is_reserved":false,"is_disabled":false,"rental_uris":{"android":"levelo://app?vid=afc2f573-2d62-4a8a-97b6-80afebf4ed73","ios":"levelo://app?vid=afc2f573-2d62-4a8a-97b6-80afebf4ed73"},"vehicle_type_id":"4","last_reported":1704155666,"current_range_meters":0,"station_id":"ce4bhbp2rcd13ifvqerg","pricing_plan_id":"free"},{"bike_id":"d4a99b15-ffd5-4c64-9d34-1f5637e193b3","system_id":"levelo_inurba_marseille","lat":43.282657,"lon":5.350665,"is_reserved":false,"is_disabled":false,"rental_uris":{"android":"levelo://app?vid=d4a99b15-ffd5-4c64-9d34-1f5637e193b3","ios":"levelo://app?vid=d4a99b15-ffd5-4c64-9d34-1f5637e193b3"},"vehicle_type_id":"4","last_reported":1704155666,"current_range_meters":8800,"station_id":"ce4bhbp2rcd13ifvqerg","pricing_plan_id":"free"},{"bike_id":"04c1a441-53e3-4601-88a7-848ed802246b","system_id":"levelo_inurba_marseille","lat":43.28266,"lon":5.35065,"is_reserved":false,"is_disabled":false,"rental_uris":{"android":"levelo://app?vid=04c1a441-53e3-4601-88a7-848ed802246b","ios":"levelo://app?vid=04c1a441-53e3-4601-88a7-848ed802246b"},"vehicle_type_id":"4","last_reported":1704155666,"current_range_meters":20000,"station_id":"ce4bhbp2rcd13ifvqerg","pricing_plan_id":"free"},{"bike_id":"cb5f7320-e883-43de-8940-79ad7304795d","system_id":"levelo_inurba_marseille","lat":43.283502,"lon":5.386471,"is_reserved":false,"is_disabled":false,"rental_uris":{"android":"levelo://app?vid=cb5f7320-e883-43de-8940-79ad7304795d","ios":"levelo://app?vid=cb5f7320-e883-43de-8940-79ad7304795d"},"vehicle_type_id":"4","last_reported":1704155666,"current_range_meters":26400,"station_id":"ce4bh492rcd13ifvqdvg","pricing_plan_id":"free"},{"bike_id":"df044df3-dc84-4895-9b9a-0c47d09763a4","system_id":"levelo_inurba_marseille","lat":43.28039,"lon":5.369297,"is_reserved":false,"is_disabled":false,"rental_uris":{"android":"levelo://app?vid=df044df3-dc84-4895-9b9a-0c47d09763a4","ios":"levelo://app?vid=df044df3-dc84-4895-9b9a-0c47d09763a4"},"vehicle_type_id":"4","last_reported":1704155666,"current_range_meters":31600,"station_id":"ce4bha12rcd13ifvqef0","pricing_plan_id":"free"},{"bike_id":"71bfa987-0717-402c-90fc-719984464e12","system_id":"levelo_inurba_marseille","lat":43.280382,"lon":5.369291,"is_reserved":false,"is_disabled":false,"rental_uris":{"android":"levelo://app?vid=71bfa987-0717-402c-90fc-719984464e12","ios":"levelo://app?vid=71bfa987-0717-402c-90fc-719984464e12"},"vehicle_type_id":"4","last_reported":1704155666,"current_range_meters":31600,"station_id":"ce4bha12rcd13ifvqef0","pricing_plan_id":"free"},{"bike_id":"7a1beebc-52c8-47ad-9484-9d71ab7861e3","system_id":"levelo_inurba_marseille","lat":43.28039,"lon":5.369297,"is_reserved":false,"is_disabled":false,"rental_uris":{"android":"levelo://app?vid=7a1beebc-52c8-47ad-9484-9d71ab7861e3","ios":"levelo://app?vid=7a1beebc-52c8-47ad-9484-9d71ab7861e3"},"vehicle_type_id":"4","last_reported":1704155666,"current_range_meters":25600,"station_id":"ce4bha12rcd13ifvqef0","pricing_plan_id":"free"},{"bike_id":"0d066129-9edb-4a02-86bf-e5fee214c249","system_id":"levelo_inurba_marseille","lat":43.280382,"lon":5.369291,"is_reserved":false,"is_disabled":false,"rental_uris":{"android":"levelo://app?vid=0d066129-9edb-4a02-86bf-e5fee214c249","ios":"levelo://app?vid=0d066129-9edb-4a02-86bf-e5fee214c249"},"vehicle_type_id":"4","last_reported":1704155666,"current_range_meters":22800,"station_id":"ce4bha12rcd13ifvqef0","pricing_plan_id":"free"},{"bike_id":"71aa4866-bf61-436c-8d67-5503afe5dda5","system_id":"levelo_inurba_marseille","lat":43.280382,"lon":5.369291,"is_reserved":false,"is_disabled":false,"rental_uris":{"android":"levelo://app?vid=71aa4866-bf61-436c-8d67-5503afe5dda5","ios":"levelo://app?vid=71aa4866-bf61-436c-8d67-5503afe5dda5"},"vehicle_type_id":"4","last_reported":1704155666,"current_range_meters":31200,"station_id":"ce4bha12rcd13ifvqef0","pricing_plan_id":"free"},{"bike_id":"20dd357d-4eae-4382-a774-c86165bcb614","system_id":"levelo_inurba_marseille","lat":43.296263,"lon":5.40601,"is_reserved":false,"is_disabled":false,"rental_uris":{"android":"levelo://app?vid=20dd357d-4eae-4382-a774-c86165bcb614","ios":"levelo://app?vid=20dd357d-4eae-4382-a774-c86165bcb614"},"vehicle_type_id":"4","last_reported":1704155666,"current_range_meters":17200,"station_id":"ce4bh0h2rcd13ifvqd60","pricing_plan_id":"free"},{"bike_id":"eeb5ffd9-6b2f-4291-938e-5d1548007c27","system_id":"levelo_inurba_marseille","lat":43.284462,"lon":5.392121,"is_reserved":false,"is_disabled":false,"rental_uris":{"android":"levelo://app?vid=eeb5ffd9-6b2f-4291-938e-5d1548007c27","ios":"levelo://app?vid=eeb5ffd9-6b2f-4291-938e-5d1548007c27"},"vehicle_type_id":"4","last_reported":1704155666,"current_range_meters":29600,"station_id":"ce4bhoh2rcd13ifvqh5g","pricing_plan_id":"free"},{"bike_id":"68c20912-58b4-4df3-b5cf-2c78f8b21a4c","system_id":"levelo_inurba_marseille","lat":43.285742,"lon":5.395004,"is_reserved":false,"is_disabled":false,"rental_uris":{"android":"levelo://app?vid=68c20912-58b4-4df3-b5cf-2c78f8b21a4c","ios":"levelo://app?vid=68c20912-58b4-4df3-b5cf-2c78f8b21a4c"},"vehicle_type_id":"4","last_reported":1704155666,"current_range_meters":28800,"station_id":"ce4bh292rcd13ifvqdg0","pricing_plan_id":"free"},{"bike_id":"d6c9d56f-5a1e-4097-a2f2-c1bc2bc8b0e2","system_id":"levelo_inurba_marseille","lat":43.30419,"lon":5.41282,"is_reserved":false,"is_disabled":false,"rental_uris":{"android":"levelo://app?vid=d6c9d56f-5a1e-4097-a2f2-c1bc2bc8b0e2","ios":"levelo://app?vid=d6c9d56f-5a1e-4097-a2f2-c1bc2bc8b0e2"},"vehicle_type_id":"4","last_reported":1704155666,"current_range_meters":11200,"station_id":"ce4bhop2rcd13ifvqh8g","pricing_plan_id":"free"},{"bike_id":"a727640c-5568-4228-bf01-47f754027641","system_id":"levelo_inurba_marseille","lat":43.279087,"lon":5.380114,"is_reserved":false,"is_disabled":false,"rental_uris":{"android":"levelo://app?vid=a727640c-5568-4228-bf01-47f754027641","ios":"levelo://app?vid=a727640c-5568-4228-bf01-47f754027641"},"vehicle_type_id":"4","last_reported":1704155666,"current_range_meters":26800,"station_id":"ce4bhf92rcd13ifvqf50","pricing_plan_id":"free"},{"bike_id":"4b79bdfe-9847-41bd-8b5d-fe96623da8a2","system_id":"levelo_inurba_marseille","lat":43.279087,"lon":5.380114,"is_reserved":false,"is_disabled":false,"rental_uris":{"android":"levelo://app?vid=4b79bdfe-9847-41bd-8b5d-fe96623da8a2","ios":"levelo://app?vid=4b79bdfe-9847-41bd-8b5d-fe96623da8a2"},"vehicle_type_id":"4","last_reported":1704155666,"current_range_meters":20800,"station_id":"ce4bhf92rcd13ifvqf50","pricing_plan_id":"free"},{"bike_id":"8571ddf1-8157-46ba-b747-ea46713afd05","system_id":"levelo_inurba_marseille","lat":43.292883,"lon":5.406599,"is_reserved":false,"is_disabled":false,"rental_uris":{"android":"levelo://app?vid=8571ddf1-8157-46ba-b747-ea46713afd05","ios":"levelo://app?vid=8571ddf1-8157-46ba-b747-ea46713afd05"},"vehicle_type_id":"4","last_reported":1704155666,"current_range_meters":2000,"station_id":"","pricing_plan_id":"free"},{"bike_id":"c25adcf8-98fc-454b-a99d-391c26d666c5","system_id":"levelo_inurba_marseille","lat":43.279087,"lon":5.380114,"is_reserved":false,"is_disabled":false,"rental_uris":{"android":"levelo://app?vid=c25adcf8-98fc-454b-a99d-391c26d666c5","ios":"levelo://app?vid=c25adcf8-98fc-454b-a99d-391c26d666c5"},"vehicle_type_id":"4","last_reported":1704155666,"current_range_meters":31600,"station_id":"ce4bhf92rcd13ifvqf50","pricing_plan_id":"free"},{"bike_id":"a6a7e3be-4759-45c3-909b-66024c2e309b","system_id":"levelo_inurba_marseille","lat":43.279087,"lon":5.380114,"is_reserved":false,"is_disabled":false,"rental_uris":{"android":"levelo://app?vid=a6a7e3be-4759-45c3-909b-66024c2e309b","ios":"levelo://app?vid=a6a7e3be-4759-45c3-909b-66024c2e309b"},"vehicle_type_id":"4","last_reported":1704155666,"current_range_meters":24800,"station_id":"ce4bhf92rcd13ifvqf50","pricing_plan_id":"free"},{"bike_id":"8ac5f70f-ef3b-47c3-81be-ad0eaf6a4eee","system_id":"levelo_inurba_marseille","lat":43.279087,"lon":5.380114,"is_reserved":false,"is_disabled":false,"rental_uris":{"android":"levelo://app?vid=8ac5f70f-ef3b-47c3-81be-ad0eaf6a4eee","ios":"levelo://app?vid=8ac5f70f-ef3b-47c3-81be-ad0eaf6a4eee"},"vehicle_type_id":"4","last_reported":1704155666,"current_range_meters":31600,"station_id":"ce4bhf92rcd13ifvqf50","pricing_plan_id":"free"},{"bike_id":"39b957ca-6d34-496a-8404-03bfdb471491","system_id":"levelo_inurba_marseille","lat":43.287154,"lon":5.399979,"is_reserved":false,"is_disabled":false,"rental_uris":{"android":"levelo://app?vid=39b957ca-6d34-496a-8404-03bfdb471491","ios":"levelo://app?vid=39b957ca-6d34-496a-8404-03bfdb471491"},"vehicle_type_id":"4","last_reported":1704155666,"current_range_meters":4000,"station_id":"ce4bho92rcd13ifvqh3g","pricing_plan_id":"free"},{"bike_id":"8c0e8a75-6a65-4f05-b4aa-43f2e82b92d6","system_id":"levelo_inurba_marseille","lat":43.287154,"lon":5.399979,"is_reserved":false,"is_disabled":false,"rental_uris":{"android":"levelo://app?vid=8c0e8a75-6a65-4f05-b4aa-43f2e82b92d6","ios":"levelo://app?vid=8c0e8a75-6a65-4f05-b4aa-43f2e82b92d6"},"vehicle_type_id":"4","last_reported":1704155666,"current_range_meters":6800,"station_id":"ce4bho92rcd13ifvqh3g","pricing_plan_id":"free"},{"bike_id":"413d8532-ce92-4f56-acb3-1ccdb5562aa0","system_id":"levelo_inurba_marseille","lat":43.279742,"lon":5.38744,"is_reserved":false,"is_disabled":false,"rental_uris":{"android":"levelo://app?vid=413d8532-ce92-4f56-acb3-1ccdb5562aa0","ios":"levelo://app?vid=413d8532-ce92-4f56-acb3-1ccdb5562aa0"},"vehicle_type_id":"4","last_reported":1704155666,"current_range_meters":22000,"station_id":"ce4bhg12rcd13ifvqf80","pricing_plan_id":"free"},{"bike_id":"0aa7fcf0-076f-4559-9951-97e56917b12c","system_id":"levelo_inurba_marseille","lat":43.279742,"lon":5.38744,"is_reserved":false,"is_disabled":false,"rental_uris":{"android":"levelo://app?vid=0aa7fcf0-076f-4559-9951-97e56917b12c","ios":"levelo://app?vid=0aa7fcf0-076f-4559-9951-97e56917b12c"},"vehicle_type_id":"4","last_reported":1704155666,"current_range_meters":30000,"station_id":"ce4bhg12rcd13ifvqf80","pricing_plan_id":"free"},{"bike_id":"ce40ac27-3ec1-4a96-9531-02b4d19a8df5","system_id":"levelo_inurba_marseille","lat":43.320045,"lon":5.415046,"is_reserved":false,"is_disabled":false,"rental_uris":{"android":"levelo://app?vid=ce40ac27-3ec1-4a96-9531-02b4d19a8df5","ios":"levelo://app?vid=ce40ac27-3ec1-4a96-9531-02b4d19a8df5"},"vehicle_type_id":"4","last_reported":1704155666,"current_range_meters":22400,"station_id":"ce4bhq92rcd13ifvqhkg","pricing_plan_id":"free"},{"bike_id":"6ab1eb21-5fc9-4a40-8cf3-84df6f49223f","system_id":"levelo_inurba_marseille","lat":43.292571,"lon":5.409107,"is_reserved":false,"is_disabled":false,"rental_uris":{"android":"levelo://app?vid=6ab1eb21-5fc9-4a40-8cf3-84df6f49223f","ios":"levelo://app?vid=6ab1eb21-5fc9-4a40-8cf3-84df6f49223f"},"vehicle_type_id":"4","last_reported":1704155666,"current_range_meters":24400,"station_id":"ce4bh192rcd13ifvqdc0","pricing_plan_id":"free"},{"bike_id":"d3abb5f8-8a93-4a1e-982d-f1affaa007d8","system_id":"levelo_inurba_marseille","lat":43.29262,"lon":5.4091,"is_reserved":false,"is_disabled":false,"rental_uris":{"android":"levelo://app?vid=d3abb5f8-8a93-4a1e-982d-f1affaa007d8","ios":"levelo://app?vid=d3abb5f8-8a93-4a1e-982d-f1affaa007d8"},"vehicle_type_id":"4","last_reported":1704155666,"current_range_meters":18800,"station_id":"ce4bh192rcd13ifvqdc0","pricing_plan_id":"free"},{"bike_id":"e9c939c1-e7b7-4411-874f-b5412405cb59","system_id":"levelo_inurba_marseille","lat":43.292571,"lon":5.409107,"is_reserved":false,"is_disabled":false,"rental_uris":{"android":"levelo://app?vid=e9c939c1-e7b7-4411-874f-b5412405cb59","ios":"levelo://app?vid=e9c939c1-e7b7-4411-874f-b5412405cb59"},"vehicle_type_id":"4","last_reported":1704155666,"current_range_meters":9200,"station_id":"ce4bh192rcd13ifvqdc0","pricing_plan_id":"free"},{"bike_id":"c769d66f-94d8-4a28-a38a-ab1f9d5f19c6","system_id":"levelo_inurba_marseille","lat":43.292569,"lon":5.409107,"is_reserved":false,"is_disabled":false,"rental_uris":{"android":"levelo://app?vid=c769d66f-94d8-4a28-a38a-ab1f9d5f19c6","ios":"levelo://app?vid=c769d66f-94d8-4a28-a38a-ab1f9d5f19c6"},"vehicle_type_id":"4","last_reported":1704155666,"current_range_meters":27200,"station_id":"ce4bh192rcd13ifvqdc0","pricing_plan_id":"free"},{"bike_id":"337abd5c-b011-408b-8ed0-c2d99469c95e","system_id":"levelo_inurba_marseille","lat":43.292571,"lon":5.409107,"is_reserved":false,"is_disabled":false,"rental_uris":{"android":"levelo://app?vid=337abd5c-b011-408b-8ed0-c2d99469c95e","ios":"levelo://app?vid=337abd5c-b011-408b-8ed0-c2d99469c95e"},"vehicle_type_id":"4","last_reported":1704155666,"current_range_meters":26400,"station_id":"ce4bh192rcd13ifvqdc0","pricing_plan_id":"free"},{"bike_id":"13083173-d784-4a87-850f-f602f8724e39","system_id":"levelo_inurba_marseille","lat":43.276179,"lon":5.361009,"is_reserved":false,"is_disabled":false,"rental_uris":{"android":"levelo://app?vid=13083173-d784-4a87-850f-f602f8724e39","ios":"levelo://app?vid=13083173-d784-4a87-850f-f602f8724e39"},"vehicle_type_id":"4","last_reported":1704155666,"current_range_meters":19600,"station_id":"ce4bgj92rcd13ifvqbe0","pricing_plan_id":"free"},{"bike_id":"e1838f9f-299f-437d-abd8-4f286644fe17","system_id":"levelo_inurba_marseille","lat":43.280784,"lon":5.396622,"is_reserved":false,"is_disabled":false,"rental_uris":{"android":"levelo://app?vid=e1838f9f-299f-437d-abd8-4f286644fe17","ios":"levelo://app?vid=e1838f9f-299f-437d-abd8-4f286644fe17"},"vehicle_type_id":"4","last_reported":1704155666,"current_range_meters":28800,"station_id":"ce4bho12rcd13ifvqh2g","pricing_plan_id":"free"},{"bike_id":"9443765f-359f-4674-8822-13206f57c02e","system_id":"levelo_inurba_marseille","lat":43.280749,"lon":5.396521,"is_reserved":false,"is_disabled":false,"rental_uris":{"android":"levelo://app?vid=9443765f-359f-4674-8822-13206f57c02e","ios":"levelo://app?vid=9443765f-359f-4674-8822-13206f57c02e"},"vehicle_type_id":"4","last_reported":1704155666,"current_range_meters":0,"station_id":"ce4bho12rcd13ifvqh2g","pricing_plan_id":"free"},{"bike_id":"d2a3da75-7092-415e-b8a8-ce83ba1178e9","system_id":"levelo_inurba_marseille","lat":43.280784,"lon":5.396622,"is_reserved":false,"is_disabled":false,"rental_uris":{"android":"levelo://app?vid=d2a3da75-7092-415e-b8a8-ce83ba1178e9","ios":"levelo://app?vid=d2a3da75-7092-415e-b8a8-ce83ba1178e9"},"vehicle_type_id":"4","last_reported":1704155666,"current_range_meters":19600,"station_id":"ce4bho12rcd13ifvqh2g","pricing_plan_id":"free"},{"bike_id":"c36e222f-f00c-404b-99a6-900cbe509d3f","system_id":"levelo_inurba_marseille","lat":43.280784,"lon":5.396622,"is_reserved":false,"is_disabled":false,"rental_uris":{"android":"levelo://app?vid=c36e222f-f00c-404b-99a6-900cbe509d3f","ios":"levelo://app?vid=c36e222f-f00c-404b-99a6-900cbe509d3f"},"vehicle_type_id":"4","last_reported":1704155666,"current_range_meters":23200,"station_id":"ce4bho12rcd13ifvqh2g","pricing_plan_id":"free"},{"bike_id":"c7c66d88-5168-40ed-9ce0-79223bde1b93","system_id":"levelo_inurba_marseille","lat":43.278399,"lon":5.392139,"is_reserved":false,"is_disabled":false,"rental_uris":{"android":"levelo://app?vid=c7c66d88-5168-40ed-9ce0-79223bde1b93","ios":"levelo://app?vid=c7c66d88-5168-40ed-9ce0-79223bde1b93"},"vehicle_type_id":"4","last_reported":1704155666,"current_range_meters":2000,"station_id":"ce4bhjp2rcd13ifvqga0","pricing_plan_id":"free"},{"bike_id":"a4849013-ee82-47cf-8833-d229943dd2ed","system_id":"levelo_inurba_marseille","lat":43.278399,"lon":5.392139,"is_reserved":false,"is_disabled":false,"rental_uris":{"android":"levelo://app?vid=a4849013-ee82-47cf-8833-d229943dd2ed","ios":"levelo://app?vid=a4849013-ee82-47cf-8833-d229943dd2ed"},"vehicle_type_id":"4","last_reported":1704155666,"current_range_meters":25200,"station_id":"ce4bhjp2rcd13ifvqga0","pricing_plan_id":"free"},{"bike_id":"366bd621-cb93-4be6-8982-d8deb2c3a5b1","system_id":"levelo_inurba_marseille","lat":43.275625,"lon":5.384392,"is_reserved":false,"is_disabled":false,"rental_uris":{"android":"levelo://app?vid=366bd621-cb93-4be6-8982-d8deb2c3a5b1","ios":"levelo://app?vid=366bd621-cb93-4be6-8982-d8deb2c3a5b1"},"vehicle_type_id":"4","last_reported":1704155666,"current_range_meters":30000,"station_id":"ce4bhh92rcd13ifvqfi0","pricing_plan_id":"free"},{"bike_id":"9152138b-ccc3-4ffc-ab53-b52f69a25930","system_id":"levelo_inurba_marseille","lat":43.275625,"lon":5.384392,"is_reserved":false,"is_disabled":false,"rental_uris":{"android":"levelo://app?vid=9152138b-ccc3-4ffc-ab53-b52f69a25930","ios":"levelo://app?vid=9152138b-ccc3-4ffc-ab53-b52f69a25930"},"vehicle_type_id":"4","last_reported":1704155666,"current_range_meters":26400,"station_id":"ce4bhh92rcd13ifvqfi0","pricing_plan_id":"free"},{"bike_id":"9ebd5be7-ea73-40bb-b2ae-8a925684cc42","system_id":"levelo_inurba_marseille","lat":43.273613,"lon":5.362705,"is_reserved":false,"is_disabled":false,"rental_uris":{"android":"levelo://app?vid=9ebd5be7-ea73-40bb-b2ae-8a925684cc42","ios":"levelo://app?vid=9ebd5be7-ea73-40bb-b2ae-8a925684cc42"},"vehicle_type_id":"4","last_reported":1704155666,"current_range_meters":30400,"station_id":"ce4bhbh2rcd13ifvqeo0","pricing_plan_id":"free"},{"bike_id":"25ffceac-3663-4d81-b210-abe9cfb88bd6","system_id":"levelo_inurba_marseille","lat":43.336134,"lon":5.410341,"is_reserved":false,"is_disabled":false,"rental_uris":{"android":"levelo://app?vid=25ffceac-3663-4d81-b210-abe9cfb88bd6","ios":"levelo://app?vid=25ffceac-3663-4d81-b210-abe9cfb88bd6"},"vehicle_type_id":"4","last_reported":1704155666,"current_range_meters":31200,"station_id":"ce4bhqh2rcd13ifvqhmg","pricing_plan_id":"free"},{"bike_id":"7b1fcede-406d-46dc-8352-1f68d5d2cd2b","system_id":"levelo_inurba_marseille","lat":43.336134,"lon":5.410341,"is_reserved":false,"is_disabled":false,"rental_uris":{"android":"levelo://app?vid=7b1fcede-406d-46dc-8352-1f68d5d2cd2b","ios":"levelo://app?vid=7b1fcede-406d-46dc-8352-1f68d5d2cd2b"},"vehicle_type_id":"4","last_reported":1704155666,"current_range_meters":31200,"station_id":"ce4bhqh2rcd13ifvqhmg","pricing_plan_id":"free"},{"bike_id":"4584f0de-7ec2-4fc1-aff9-bc8b35b23394","system_id":"levelo_inurba_marseille","lat":43.336134,"lon":5.410341,"is_reserved":false,"is_disabled":false,"rental_uris":{"android":"levelo://app?vid=4584f0de-7ec2-4fc1-aff9-bc8b35b23394","ios":"levelo://app?vid=4584f0de-7ec2-4fc1-aff9-bc8b35b23394"},"vehicle_type_id":"4","last_reported":1704155666,"current_range_meters":2800,"station_id":"ce4bhqh2rcd13ifvqhmg","pricing_plan_id":"free"},{"bike_id":"5ab36c7d-6ac4-4cea-b685-4fd9c3d7b95e","system_id":"levelo_inurba_marseille","lat":43.275625,"lon":5.384392,"is_reserved":false,"is_disabled":false,"rental_uris":{"android":"levelo://app?vid=5ab36c7d-6ac4-4cea-b685-4fd9c3d7b95e","ios":"levelo://app?vid=5ab36c7d-6ac4-4cea-b685-4fd9c3d7b95e"},"vehicle_type_id":"4","last_reported":1704155666,"current_range_meters":30000,"station_id":"ce4bhh92rcd13ifvqfi0","pricing_plan_id":"free"},{"bike_id":"838e390a-0d2f-44c2-87a4-d40aabcd8ccc","system_id":"levelo_inurba_marseille","lat":43.27671,"lon":5.389198,"is_reserved":false,"is_disabled":false,"rental_uris":{"android":"levelo://app?vid=838e390a-0d2f-44c2-87a4-d40aabcd8ccc","ios":"levelo://app?vid=838e390a-0d2f-44c2-87a4-d40aabcd8ccc"},"vehicle_type_id":"4","last_reported":1704155666,"current_range_meters":0,"station_id":"","pricing_plan_id":"free"},{"bike_id":"b2e64161-bed0-442d-9e12-361d365ea82c","system_id":"levelo_inurba_marseille","lat":43.279952,"lon":5.400085,"is_reserved":false,"is_disabled":false,"rental_uris":{"android":"levelo://app?vid=b2e64161-bed0-442d-9e12-361d365ea82c","ios":"levelo://app?vid=b2e64161-bed0-442d-9e12-361d365ea82c"},"vehicle_type_id":"4","last_reported":1704155666,"current_range_meters":26800,"station_id":"ce4bho92rcd13ifvqh4g","pricing_plan_id":"free"},{"bike_id":"4760841b-4fd7-4b7d-aef3-782de75b0909","system_id":"levelo_inurba_marseille","lat":43.317121,"lon":5.423936,"is_reserved":false,"is_disabled":false,"rental_uris":{"android":"levelo://app?vid=4760841b-4fd7-4b7d-aef3-782de75b0909","ios":"levelo://app?vid=4760841b-4fd7-4b7d-aef3-782de75b0909"},"vehicle_type_id":"4","last_reported":1704155666,"current_range_meters":24000,"station_id":"ce4bhp92rcd13ifvqhbg","pricing_plan_id":"free"},{"bike_id":"f3e351f0-7ca3-497e-a450-69da3118abd7","system_id":"levelo_inurba_marseille","lat":43.31717,"lon":5.42395,"is_reserved":false,"is_disabled":false,"rental_uris":{"android":"levelo://app?vid=f3e351f0-7ca3-497e-a450-69da3118abd7","ios":"levelo://app?vid=f3e351f0-7ca3-497e-a450-69da3118abd7"},"vehicle_type_id":"4","last_reported":1704155666,"current_range_meters":27200,"station_id":"ce4bhp92rcd13ifvqhbg","pricing_plan_id":"free"},{"bike_id":"95620b28-48e0-40ed-8f4c-f7654a31b6da","system_id":"levelo_inurba_marseille","lat":43.31716,"lon":5.42396,"is_reserved":false,"is_disabled":false,"rental_uris":{"android":"levelo://app?vid=95620b28-48e0-40ed-8f4c-f7654a31b6da","ios":"levelo://app?vid=95620b28-48e0-40ed-8f4c-f7654a31b6da"},"vehicle_type_id":"4","last_reported":1704155666,"current_range_meters":22800,"station_id":"ce4bhp92rcd13ifvqhbg","pricing_plan_id":"free"},{"bike_id":"c8e7703b-2edf-4796-b45d-2438019a9059","system_id":"levelo_inurba_marseille","lat":43.317121,"lon":5.423936,"is_reserved":false,"is_disabled":false,"rental_uris":{"android":"levelo://app?vid=c8e7703b-2edf-4796-b45d-2438019a9059","ios":"levelo://app?vid=c8e7703b-2edf-4796-b45d-2438019a9059"},"vehicle_type_id":"4","last_reported":1704155666,"current_range_meters":12000,"station_id":"ce4bhp92rcd13ifvqhbg","pricing_plan_id":"free"},{"bike_id":"10138671-53c0-4b5d-8766-8e229bb45b07","system_id":"levelo_inurba_marseille","lat":43.317121,"lon":5.423936,"is_reserved":false,"is_disabled":false,"rental_uris":{"android":"levelo://app?vid=10138671-53c0-4b5d-8766-8e229bb45b07","ios":"levelo://app?vid=10138671-53c0-4b5d-8766-8e229bb45b07"},"vehicle_type_id":"4","last_reported":1704155666,"current_range_meters":14000,"station_id":"ce4bhp92rcd13ifvqhbg","pricing_plan_id":"free"},{"bike_id":"5e3452d0-bbc8-463b-8852-ec98e809d5a0","system_id":"levelo_inurba_marseille","lat":43.317121,"lon":5.423936,"is_reserved":false,"is_disabled":false,"rental_uris":{"android":"levelo://app?vid=5e3452d0-bbc8-463b-8852-ec98e809d5a0","ios":"levelo://app?vid=5e3452d0-bbc8-463b-8852-ec98e809d5a0"},"vehicle_type_id":"4","last_reported":1704155666,"current_range_meters":31600,"station_id":"ce4bhp92rcd13ifvqhbg","pricing_plan_id":"free"},{"bike_id":"e2340435-a767-4a07-9db0-637fd4bce462","system_id":"levelo_inurba_marseille","lat":43.317121,"lon":5.423936,"is_reserved":false,"is_disabled":false,"rental_uris":{"android":"levelo://app?vid=e2340435-a767-4a07-9db0-637fd4bce462","ios":"levelo://app?vid=e2340435-a767-4a07-9db0-637fd4bce462"},"vehicle_type_id":"4","last_reported":1704155666,"current_range_meters":12400,"station_id":"ce4bhp92rcd13ifvqhbg","pricing_plan_id":"free"},{"bike_id":"0b58813f-f92e-40a9-9622-0bc5db8ae6da","system_id":"levelo_inurba_marseille","lat":43.340804,"lon":5.410219,"is_reserved":false,"is_disabled":false,"rental_uris":{"android":"levelo://app?vid=0b58813f-f92e-40a9-9622-0bc5db8ae6da","ios":"levelo://app?vid=0b58813f-f92e-40a9-9622-0bc5db8ae6da"},"vehicle_type_id":"4","last_reported":1704155666,"current_range_meters":27600,"station_id":"ce4bhqh2rcd13ifvqhlg","pricing_plan_id":"free"},{"bike_id":"d7a0f436-4a10-430d-9dfa-fb613b9a9e9c","system_id":"levelo_inurba_marseille","lat":43.340804,"lon":5.410219,"is_reserved":false,"is_disabled":false,"rental_uris":{"android":"levelo://app?vid=d7a0f436-4a10-430d-9dfa-fb613b9a9e9c","ios":"levelo://app?vid=d7a0f436-4a10-430d-9dfa-fb613b9a9e9c"},"vehicle_type_id":"4","last_reported":1704155666,"current_range_meters":19600,"station_id":"ce4bhqh2rcd13ifvqhlg","pricing_plan_id":"free"},{"bike_id":"37b922a5-9698-4420-9a36-80e27217d39c","system_id":"levelo_inurba_marseille","lat":43.295511,"lon":5.422926,"is_reserved":false,"is_disabled":false,"rental_uris":{"android":"levelo://app?vid=37b922a5-9698-4420-9a36-80e27217d39c","ios":"levelo://app?vid=37b922a5-9698-4420-9a36-80e27217d39c"},"vehicle_type_id":"4","last_reported":1704155666,"current_range_meters":18000,"station_id":"ce4bhph2rcd13ifvqhdg","pricing_plan_id":"free"},{"bike_id":"13040132-ee55-430d-812f-c961d418943f","system_id":"levelo_inurba_marseille","lat":43.278128,"lon":5.407195,"is_reserved":false,"is_disabled":false,"rental_uris":{"android":"levelo://app?vid=13040132-ee55-430d-812f-c961d418943f","ios":"levelo://app?vid=13040132-ee55-430d-812f-c961d418943f"},"vehicle_type_id":"4","last_reported":1704155666,"current_range_meters":28000,"station_id":"ce4bhnh2rcd13ifvqgtg","pricing_plan_id":"free"},{"bike_id":"92c62140-6073-4b50-887d-f4ed58f8da74","system_id":"levelo_inurba_marseille","lat":43.278128,"lon":5.407195,"is_reserved":false,"is_disabled":false,"rental_uris":{"android":"levelo://app?vid=92c62140-6073-4b50-887d-f4ed58f8da74","ios":"levelo://app?vid=92c62140-6073-4b50-887d-f4ed58f8da74"},"vehicle_type_id":"4","last_reported":1704155666,"current_range_meters":26400,"station_id":"ce4bhnh2rcd13ifvqgtg","pricing_plan_id":"free"},{"bike_id":"6643d885-b0e1-4a04-880c-0504ee655bba","system_id":"levelo_inurba_marseille","lat":43.279465,"lon":5.410561,"is_reserved":false,"is_disabled":false,"rental_uris":{"android":"levelo://app?vid=6643d885-b0e1-4a04-880c-0504ee655bba","ios":"levelo://app?vid=6643d885-b0e1-4a04-880c-0504ee655bba"},"vehicle_type_id":"4","last_reported":1704155666,"current_range_meters":24400,"station_id":"ce4bhnp2rcd13ifvqh0g","pricing_plan_id":"free"},{"bike_id":"425f9578-de78-4e61-bdf4-7cfac3cad89a","system_id":"levelo_inurba_marseille","lat":43.279465,"lon":5.410561,"is_reserved":false,"is_disabled":false,"rental_uris":{"android":"levelo://app?vid=425f9578-de78-4e61-bdf4-7cfac3cad89a","ios":"levelo://app?vid=425f9578-de78-4e61-bdf4-7cfac3cad89a"},"vehicle_type_id":"4","last_reported":1704155666,"current_range_meters":23600,"station_id":"ce4bhnp2rcd13ifvqh0g","pricing_plan_id":"free"},{"bike_id":"f0bba463-361c-4baf-bcca-ff9eaabed0ac","system_id":"levelo_inurba_marseille","lat":43.269319,"lon":5.389397,"is_reserved":false,"is_disabled":false,"rental_uris":{"android":"levelo://app?vid=f0bba463-361c-4baf-bcca-ff9eaabed0ac","ios":"levelo://app?vid=f0bba463-361c-4baf-bcca-ff9eaabed0ac"},"vehicle_type_id":"4","last_reported":1704155666,"current_range_meters":28800,"station_id":"ce4bhhh2rcd13ifvqfl0","pricing_plan_id":"free"},{"bike_id":"4feb2fa1-b4db-472e-9364-97ffaee811db","system_id":"levelo_inurba_marseille","lat":43.269319,"lon":5.389397,"is_reserved":false,"is_disabled":false,"rental_uris":{"android":"levelo://app?vid=4feb2fa1-b4db-472e-9364-97ffaee811db","ios":"levelo://app?vid=4feb2fa1-b4db-472e-9364-97ffaee811db"},"vehicle_type_id":"4","last_reported":1704155666,"current_range_meters":800,"station_id":"ce4bhhh2rcd13ifvqfl0","pricing_plan_id":"free"},{"bike_id":"83abcd5f-3f38-4f28-9770-7f38e7bbc1ce","system_id":"levelo_inurba_marseille","lat":43.26555,"lon":5.3728,"is_reserved":false,"is_disabled":false,"rental_uris":{"android":"levelo://app?vid=83abcd5f-3f38-4f28-9770-7f38e7bbc1ce","ios":"levelo://app?vid=83abcd5f-3f38-4f28-9770-7f38e7bbc1ce"},"vehicle_type_id":"4","last_reported":1704155666,"current_range_meters":19600,"station_id":"ce4bhg12rcd13ifvqf70","pricing_plan_id":"free"},{"bike_id":"7552dc67-1782-4263-8825-10c5b00b31be","system_id":"levelo_inurba_marseille","lat":43.27996,"lon":5.416624,"is_reserved":false,"is_disabled":false,"rental_uris":{"android":"levelo://app?vid=7552dc67-1782-4263-8825-10c5b00b31be","ios":"levelo://app?vid=7552dc67-1782-4263-8825-10c5b00b31be"},"vehicle_type_id":"4","last_reported":1704155666,"current_range_meters":11200,"station_id":"ce4bho12rcd13ifvqh1g","pricing_plan_id":"free"},{"bike_id":"dad044db-320c-4709-9366-b14dd7627e85","system_id":"levelo_inurba_marseille","lat":43.27996,"lon":5.416624,"is_reserved":false,"is_disabled":false,"rental_uris":{"android":"levelo://app?vid=dad044db-320c-4709-9366-b14dd7627e85","ios":"levelo://app?vid=dad044db-320c-4709-9366-b14dd7627e85"},"vehicle_type_id":"4","last_reported":1704155666,"current_range_meters":28000,"station_id":"ce4bho12rcd13ifvqh1g","pricing_plan_id":"free"},{"bike_id":"eb71eee8-9296-480a-a031-8d136b3bb877","system_id":"levelo_inurba_marseille","lat":43.27996,"lon":5.416624,"is_reserved":false,"is_disabled":false,"rental_uris":{"android":"levelo://app?vid=eb71eee8-9296-480a-a031-8d136b3bb877","ios":"levelo://app?vid=eb71eee8-9296-480a-a031-8d136b3bb877"},"vehicle_type_id":"4","last_reported":1704155666,"current_range_meters":31600,"station_id":"ce4bho12rcd13ifvqh1g","pricing_plan_id":"free"},{"bike_id":"4e7b82a4-f271-4a72-bdbd-460d1cfbd58d","system_id":"levelo_inurba_marseille","lat":43.27181,"lon":5.404997,"is_reserved":false,"is_disabled":false,"rental_uris":{"android":"levelo://app?vid=4e7b82a4-f271-4a72-bdbd-460d1cfbd58d","ios":"levelo://app?vid=4e7b82a4-f271-4a72-bdbd-460d1cfbd58d"},"vehicle_type_id":"4","last_reported":1704155666,"current_range_meters":7200,"station_id":"","pricing_plan_id":"free"},{"bike_id":"4acdea58-b679-4180-9812-65bb718e8387","system_id":"levelo_inurba_marseille","lat":43.308051,"lon":5.43527,"is_reserved":false,"is_disabled":false,"rental_uris":{"android":"levelo://app?vid=4acdea58-b679-4180-9812-65bb718e8387","ios":"levelo://app?vid=4acdea58-b679-4180-9812-65bb718e8387"},"vehicle_type_id":"4","last_reported":1704155666,"current_range_meters":31200,"station_id":"ce4bhph2rcd13ifvqheg","pricing_plan_id":"free"},{"bike_id":"1f4c63f7-d8cf-4821-b24d-6d76ed9b0ef8","system_id":"levelo_inurba_marseille","lat":43.308051,"lon":5.43527,"is_reserved":false,"is_disabled":false,"rental_uris":{"android":"levelo://app?vid=1f4c63f7-d8cf-4821-b24d-6d76ed9b0ef8","ios":"levelo://app?vid=1f4c63f7-d8cf-4821-b24d-6d76ed9b0ef8"},"vehicle_type_id":"4","last_reported":1704155666,"current_range_meters":5200,"station_id":"ce4bhph2rcd13ifvqheg","pricing_plan_id":"free"},{"bike_id":"45730320-d888-42aa-bc60-ab4966459db6","system_id":"levelo_inurba_marseille","lat":43.265571,"lon":5.390032,"is_reserved":false,"is_disabled":false,"rental_uris":{"android":"levelo://app?vid=45730320-d888-42aa-bc60-ab4966459db6","ios":"levelo://app?vid=45730320-d888-42aa-bc60-ab4966459db6"},"vehicle_type_id":"4","last_reported":1704155666,"current_range_meters":800,"station_id":"ce4bhe12rcd13ifvqf30","pricing_plan_id":"free"},{"bike_id":"45edcec0-a179-4b97-9392-2ed00038e582","system_id":"levelo_inurba_marseille","lat":43.26949,"lon":5.40262,"is_reserved":false,"is_disabled":false,"rental_uris":{"android":"levelo://app?vid=45edcec0-a179-4b97-9392-2ed00038e582","ios":"levelo://app?vid=45edcec0-a179-4b97-9392-2ed00038e582"},"vehicle_type_id":"4","last_reported":1704155666,"current_range_meters":4000,"station_id":"cjm6bp8fraef2m0cb0m0","pricing_plan_id":"free"},{"bike_id":"0a414c3e-b68e-4ac4-b207-e3ea0ff06ae4","system_id":"levelo_inurba_marseille","lat":43.26949,"lon":5.40262,"is_reserved":false,"is_disabled":false,"rental_uris":{"android":"levelo://app?vid=0a414c3e-b68e-4ac4-b207-e3ea0ff06ae4","ios":"levelo://app?vid=0a414c3e-b68e-4ac4-b207-e3ea0ff06ae4"},"vehicle_type_id":"4","last_reported":1704155666,"current_range_meters":26000,"station_id":"cjm6bp8fraef2m0cb0m0","pricing_plan_id":"free"},{"bike_id":"dac5ea74-92f7-462e-b536-31f322bb01c0","system_id":"levelo_inurba_marseille","lat":43.331893,"lon":5.431791,"is_reserved":false,"is_disabled":false,"rental_uris":{"android":"levelo://app?vid=dac5ea74-92f7-462e-b536-31f322bb01c0","ios":"levelo://app?vid=dac5ea74-92f7-462e-b536-31f322bb01c0"},"vehicle_type_id":"4","last_reported":1704155666,"current_range_meters":5600,"station_id":"","pricing_plan_id":"free"},{"bike_id":"8c7df74b-a509-49f1-af95-b0a69adf8f56","system_id":"levelo_inurba_marseille","lat":43.317104,"lon":5.436818,"is_reserved":false,"is_disabled":false,"rental_uris":{"android":"levelo://app?vid=8c7df74b-a509-49f1-af95-b0a69adf8f56","ios":"levelo://app?vid=8c7df74b-a509-49f1-af95-b0a69adf8f56"},"vehicle_type_id":"4","last_reported":1704155666,"current_range_meters":31600,"station_id":"ce4bhp92rcd13ifvqhcg","pricing_plan_id":"free"},{"bike_id":"4811836d-f4c1-465e-9f57-1196f2d62770","system_id":"levelo_inurba_marseille","lat":43.317104,"lon":5.436818,"is_reserved":false,"is_disabled":false,"rental_uris":{"android":"levelo://app?vid=4811836d-f4c1-465e-9f57-1196f2d62770","ios":"levelo://app?vid=4811836d-f4c1-465e-9f57-1196f2d62770"},"vehicle_type_id":"4","last_reported":1704155666,"current_range_meters":15600,"station_id":"ce4bhp92rcd13ifvqhcg","pricing_plan_id":"free"},{"bike_id":"489ffe0a-afca-40a9-8027-23373921263c","system_id":"levelo_inurba_marseille","lat":43.271388,"lon":5.409269,"is_reserved":false,"is_disabled":false,"rental_uris":{"android":"levelo://app?vid=489ffe0a-afca-40a9-8027-23373921263c","ios":"levelo://app?vid=489ffe0a-afca-40a9-8027-23373921263c"},"vehicle_type_id":"4","last_reported":1704155666,"current_range_meters":31200,"station_id":"ce4bhl12rcd13ifvqgf0","pricing_plan_id":"free"},{"bike_id":"75f7976e-6088-42b4-ac81-b6c94e0c732c","system_id":"levelo_inurba_marseille","lat":43.271388,"lon":5.409269,"is_reserved":false,"is_disabled":false,"rental_uris":{"android":"levelo://app?vid=75f7976e-6088-42b4-ac81-b6c94e0c732c","ios":"levelo://app?vid=75f7976e-6088-42b4-ac81-b6c94e0c732c"},"vehicle_type_id":"4","last_reported":1704155666,"current_range_meters":4800,"station_id":"ce4bhl12rcd13ifvqgf0","pricing_plan_id":"free"},{"bike_id":"6bdcb0b2-883e-41e2-92ab-23704c9cb261","system_id":"levelo_inurba_marseille","lat":43.267959,"lon":5.402687,"is_reserved":false,"is_disabled":false,"rental_uris":{"android":"levelo://app?vid=6bdcb0b2-883e-41e2-92ab-23704c9cb261","ios":"levelo://app?vid=6bdcb0b2-883e-41e2-92ab-23704c9cb261"},"vehicle_type_id":"4","last_reported":1704155666,"current_range_meters":26800,"station_id":"ce501612rcd8frsf0b60","pricing_plan_id":"free"},{"bike_id":"8475f879-31a9-434f-877e-815dcf813756","system_id":"levelo_inurba_marseille","lat":43.267959,"lon":5.402685,"is_reserved":false,"is_disabled":false,"rental_uris":{"android":"levelo://app?vid=8475f879-31a9-434f-877e-815dcf813756","ios":"levelo://app?vid=8475f879-31a9-434f-877e-815dcf813756"},