{"last_updated":1712941699,"ttl":30,"version":"2.2","data":{"bikes":[{"bike_id":"64c50fa7-fb40-477e-b1ca-25665dcb3942","system_id":"levelo_inurba_marseille","lat":43.31228,"lon":5.368543,"is_reserved":false,"is_disabled":false,"rental_uris":{"android":"levelo://app?vid=64c50fa7-fb40-477e-b1ca-25665dcb3942","ios":"levelo://app?vid=64c50fa7-fb40-477e-b1ca-25665dcb3942"},"vehicle_type_id":"4","last_reported":1712941699,"current_range_meters":0,"station_id":"ce4bgl92rcd13ifvqbq0","pricing_plan_id":"cebpf4jnsgd1na2vs0mg"},{"bike_id":"91379bab-1df1-4cc1-b25d-7242bd44210b","system_id":"levelo_inurba_marseille","lat":43.309076,"lon":5.368465,"is_reserved":false,"is_disabled":false,"rental_uris":{"android":"levelo://app?vid=91379bab-1df1-4cc1-b25d-7242bd44210b","ios":"levelo://app?vid=91379bab-1df1-4cc1-b25d-7242bd44210b"},"vehicle_type_id":"4","last_reported":1712941699,"current_range_meters":25200,"station_id":"ce4bgn92rcd13ifvqbvg","pricing_plan_id":"cebpf4jnsgd1na2vs0mg"},{"bike_id":"2b4ed95b-07f1-4283-bc75-bac036e3723e","system_id":"levelo_inurba_marseille","lat":43.314811,"lon":5.373104,"is_reserved":false,"is_disabled":false,"rental_uris":{"android":"levelo://app?vid=2b4ed95b-07f1-4283-bc75-bac036e3723e","ios":"levelo://app?vid=2b4ed95b-07f1-4283-bc75-bac036e3723e"},"vehicle_type_id":"4","last_reported":1712941699,"current_range_meters":0,"station_id":"ce4bgt12rcd13ifvqcd0","pricing_plan_id":"cebpf4jnsgd1na2vs0mg"},{"bike_id":"fd2ad0e6-0342-445f-8733-6083c0105bf3","system_id":"levelo_inurba_marseille","lat":43.30548,"lon":5.36528,"is_reserved":false,"is_disabled":false,"rental_uris":{"android":"levelo://app?vid=fd2ad0e6-0342-445f-8733-6083c0105bf3","ios":"levelo://app?vid=fd2ad0e6-0342-445f-8733-6083c0105bf3"},"vehicle_type_id":"4","last_reported":1712941699,"current_range_meters":0,"station_id":"ce4bgs12rcd13ifvqcag","pricing_plan_id":"cebpf4jnsgd1na2vs0mg"},{"bike_id":"80c990ad-dc8d-4b1e-8237-ed876068c90b","system_id":"levelo_inurba_marseille","lat":43.305368,"lon":5.367343,"is_reserved":false,"is_disabled":false,"rental_uris":{"android":"levelo://app?vid=80c990ad-dc8d-4b1e-8237-ed876068c90b","ios":"levelo://app?vid=80c990ad-dc8d-4b1e-8237-ed876068c90b"},"vehicle_type_id":"4","last_reported":1712941699,"current_range_meters":13600,"station_id":"ce4bgrp2rcd13ifvqc9g","pricing_plan_id":"cebpf4jnsgd1na2vs0mg"},{"bike_id":"41822c8f-0d13-4bd4-b84a-0ae39e216e29","system_id":"levelo_inurba_marseille","lat":43.305706,"lon":5.365654,"is_reserved":false,"is_disabled":false,"rental_uris":{"android":"levelo://app?vid=41822c8f-0d13-4bd4-b84a-0ae39e216e29","ios":"levelo://app?vid=41822c8f-0d13-4bd4-b84a-0ae39e216e29"},"vehicle_type_id":"4","last_reported":1712941699,"current_range_meters":0,"station_id":"ce4bgs12rcd13ifvqcag","pricing_plan_id":"cebpf4jnsgd1na2vs0mg"},{"bike_id":"65e765cb-779a-4959-8178-1d0a2a89b46e","system_id":"levelo_inurba_marseille","lat":43.305368,"lon":5.367343,"is_reserved":false,"is_disabled":false,"rental_uris":{"android":"levelo://app?vid=65e765cb-779a-4959-8178-1d0a2a89b46e","ios":"levelo://app?vid=65e765cb-779a-4959-8178-1d0a2a89b46e"},"vehicle_type_id":"4","last_reported":1712941699,"current_range_meters":0,"station_id":"ce4bgrp2rcd13ifvqc9g","pricing_plan_id":"cebpf4jnsgd1na2vs0mg"},{"bike_id":"0575bb0f-ab80-4269-8277-d1b31e7ae427","system_id":"levelo_inurba_marseille","lat":43.311125,"lon":5.377624,"is_reserved":false,"is_disabled":false,"rental_uris":{"android":"levelo://app?vid=0575bb0f-ab80-4269-8277-d1b31e7ae427","ios":"levelo://app?vid=0575bb0f-ab80-4269-8277-d1b31e7ae427"},"vehicle_type_id":"4","last_reported":1712941699,"current_range_meters":31600,"station_id":"ce4bgt92rcd13ifvqcg0","pricing_plan_id":"cebpf4jnsgd1na2vs0mg"},{"bike_id":"ff8edecb-e077-4f7e-a02d-2fb999db6683","system_id":"levelo_inurba_marseille","lat":43.31118,"lon":5.37775,"is_reserved":false,"is_disabled":false,"rental_uris":{"android":"levelo://app?vid=ff8edecb-e077-4f7e-a02d-2fb999db6683","ios":"levelo://app?vid=ff8edecb-e077-4f7e-a02d-2fb999db6683"},"vehicle_type_id":"4","last_reported":1712941699,"current_range_meters":0,"station_id":"ce4bgt92rcd13ifvqcg0","pricing_plan_id":"cebpf4jnsgd1na2vs0mg"},{"bike_id":"4a66eecd-35ac-44e8-bd29-ce5cf48aaf66","system_id":"levelo_inurba_marseille","lat":43.307945,"lon":5.376487,"is_reserved":false,"is_disabled":false,"rental_uris":{"android":"levelo://app?vid=4a66eecd-35ac-44e8-bd29-ce5cf48aaf66","ios":"levelo://app?vid=4a66eecd-35ac-44e8-bd29-ce5cf48aaf66"},"vehicle_type_id":"4","last_reported":1712941699,"current_range_meters":9600,"station_id":"ce4bgv92rcd13ifvqcq0","pricing_plan_id":"cebpf4jnsgd1na2vs0mg"},{"bike_id":"aeda716d-e3d7-4c46-affe-c0feeb20e8a7","system_id":"levelo_inurba_marseille","lat":43.31711,"lon":5.37747,"is_reserved":false,"is_disabled":false,"rental_uris":{"android":"levelo://app?vid=aeda716d-e3d7-4c46-affe-c0feeb20e8a7","ios":"levelo://app?vid=aeda716d-e3d7-4c46-affe-c0feeb20e8a7"},"vehicle_type_id":"4","last_reported":1712941699,"current_range_meters":0,"station_id":"ce4bgth2rcd13ifvqch0","pricing_plan_id":"cebpf4jnsgd1na2vs0mg"},{"bike_id":"37493ad0-20dd-4941-8828-fdd672f44ae5","system_id":"levelo_inurba_marseille","lat":43.303235,"lon":5.369095,"is_reserved":false,"is_disabled":false,"rental_uris":{"android":"levelo://app?vid=37493ad0-20dd-4941-8828-fdd672f44ae5","ios":"levelo://app?vid=37493ad0-20dd-4941-8828-fdd672f44ae5"},"vehicle_type_id":"4","last_reported":1712941699,"current_range_meters":0,"station_id":"ce4bgqh2rcd13ifvqc5g","pricing_plan_id":"cebpf4jnsgd1na2vs0mg"},{"bike_id":"920effa0-f77f-4fae-a2a8-ec72e0b78ba9","system_id":"levelo_inurba_marseille","lat":43.315293,"lon":5.380349,"is_reserved":false,"is_disabled":false,"rental_uris":{"android":"levelo://app?vid=920effa0-f77f-4fae-a2a8-ec72e0b78ba9","ios":"levelo://app?vid=920effa0-f77f-4fae-a2a8-ec72e0b78ba9"},"vehicle_type_id":"4","last_reported":1712941699,"current_range_meters":7600,"station_id":"ce4bhsp2rcd13ifvqi50","pricing_plan_id":"cebpf4jnsgd1na2vs0mg"},{"bike_id":"2d09c7a3-fef4-4b68-adb0-b62fa1138a72","system_id":"levelo_inurba_marseille","lat":43.315293,"lon":5.380349,"is_reserved":false,"is_disabled":false,"rental_uris":{"android":"levelo://app?vid=2d09c7a3-fef4-4b68-adb0-b62fa1138a72","ios":"levelo://app?vid=2d09c7a3-fef4-4b68-adb0-b62fa1138a72"},"vehicle_type_id":"4","last_reported":1712941699,"current_range_meters":6400,"station_id":"ce4bhsp2rcd13ifvqi50","pricing_plan_id":"cebpf4jnsgd1na2vs0mg"},{"bike_id":"d605895f-03b4-4b88-bfc6-d984347a508b","system_id":"levelo_inurba_marseille","lat":43.315289,"lon":5.380349,"is_reserved":false,"is_disabled":false,"rental_uris":{"android":"levelo://app?vid=d605895f-03b4-4b88-bfc6-d984347a508b","ios":"levelo://app?vid=d605895f-03b4-4b88-bfc6-d984347a508b"},"vehicle_type_id":"4","last_reported":1712941699,"current_range_meters":12400,"station_id":"ce4bhsp2rcd13ifvqi50","pricing_plan_id":"cebpf4jnsgd1na2vs0mg"},{"bike_id":"d2fc9e37-4171-4a0d-b199-b96057b5ab92","system_id":"levelo_inurba_marseille","lat":43.301939,"lon":5.366286,"is_reserved":false,"is_disabled":false,"rental_uris":{"android":"levelo://app?vid=d2fc9e37-4171-4a0d-b199-b96057b5ab92","ios":"levelo://app?vid=d2fc9e37-4171-4a0d-b199-b96057b5ab92"},"vehicle_type_id":"4","last_reported":1712941699,"current_range_meters":800,"station_id":"ce4bgrh2rcd13ifvqc8g","pricing_plan_id":"cebpf4jnsgd1na2vs0mg"},{"bike_id":"55d280b3-3edf-424d-a072-33a765b43467","system_id":"levelo_inurba_marseille","lat":43.301939,"lon":5.366286,"is_reserved":false,"is_disabled":false,"rental_uris":{"android":"levelo://app?vid=55d280b3-3edf-424d-a072-33a765b43467","ios":"levelo://app?vid=55d280b3-3edf-424d-a072-33a765b43467"},"vehicle_type_id":"4","last_reported":1712941699,"current_range_meters":0,"station_id":"ce4bgrh2rcd13ifvqc8g","pricing_plan_id":"cebpf4jnsgd1na2vs0mg"},{"bike_id":"c973c696-6cf3-4ef6-9922-20142626237f","system_id":"levelo_inurba_marseille","lat":43.30282,"lon":5.37259,"is_reserved":false,"is_disabled":false,"rental_uris":{"android":"levelo://app?vid=c973c696-6cf3-4ef6-9922-20142626237f","ios":"levelo://app?vid=c973c696-6cf3-4ef6-9922-20142626237f"},"vehicle_type_id":"4","last_reported":1712941699,"current_range_meters":18400,"station_id":"","pricing_plan_id":"cebpf4jnsgd1na2vs0mg"},{"bike_id":"e7611b4f-686e-4464-a980-0525baf322a2","system_id":"levelo_inurba_marseille","lat":43.310586,"lon":5.381415,"is_reserved":false,"is_disabled":false,"rental_uris":{"android":"levelo://app?vid=e7611b4f-686e-4464-a980-0525baf322a2","ios":"levelo://app?vid=e7611b4f-686e-4464-a980-0525baf322a2"},"vehicle_type_id":"4","last_reported":1712941699,"current_range_meters":0,"station_id":"","pricing_plan_id":"cebpf4jnsgd1na2vs0mg"},{"bike_id":"2946653f-3593-4b73-b058-3e7d37f76f06","system_id":"levelo_inurba_marseille","lat":43.301939,"lon":5.366286,"is_reserved":false,"is_disabled":false,"rental_uris":{"android":"levelo://app?vid=2946653f-3593-4b73-b058-3e7d37f76f06","ios":"levelo://app?vid=2946653f-3593-4b73-b058-3e7d37f76f06"},"vehicle_type_id":"4","last_reported":1712941699,"current_range_meters":0,"station_id":"ce4bgrh2rcd13ifvqc8g","pricing_plan_id":"cebpf4jnsgd1na2vs0mg"},{"bike_id":"d24e0b16-8c0e-4246-9630-a8a63f0a0dd6","system_id":"levelo_inurba_marseille","lat":43.30467,"lon":5.37899,"is_reserved":false,"is_disabled":false,"rental_uris":{"android":"levelo://app?vid=d24e0b16-8c0e-4246-9630-a8a63f0a0dd6","ios":"levelo://app?vid=d24e0b16-8c0e-4246-9630-a8a63f0a0dd6"},"vehicle_type_id":"4","last_reported":1712941699,"current_range_meters":0,"station_id":"ce4bgup2rcd13ifvqcn0","pricing_plan_id":"cebpf4jnsgd1na2vs0mg"},{"bike_id":"894d6ff8-e678-47da-9109-5557ad1d5972","system_id":"levelo_inurba_marseille","lat":43.30466,"lon":5.37901,"is_reserved":false,"is_disabled":false,"rental_uris":{"android":"levelo://app?vid=894d6ff8-e678-47da-9109-5557ad1d5972","ios":"levelo://app?vid=894d6ff8-e678-47da-9109-5557ad1d5972"},"vehicle_type_id":"4","last_reported":1712941699,"current_range_meters":0,"station_id":"ce4bgup2rcd13ifvqcn0","pricing_plan_id":"cebpf4jnsgd1na2vs0mg"},{"bike_id":"12c5bde7-002d-4f19-b5a8-c8fee044927e","system_id":"levelo_inurba_marseille","lat":43.304606,"lon":5.379026,"is_reserved":false,"is_disabled":false,"rental_uris":{"android":"levelo://app?vid=12c5bde7-002d-4f19-b5a8-c8fee044927e","ios":"levelo://app?vid=12c5bde7-002d-4f19-b5a8-c8fee044927e"},"vehicle_type_id":"4","last_reported":1712941699,"current_range_meters":1200,"station_id":"ce4bgup2rcd13ifvqcn0","pricing_plan_id":"cebpf4jnsgd1na2vs0mg"},{"bike_id":"059dcd77-b156-4846-a2f6-dcc7ed292848","system_id":"levelo_inurba_marseille","lat":43.304659,"lon":5.379132,"is_reserved":false,"is_disabled":false,"rental_uris":{"android":"levelo://app?vid=059dcd77-b156-4846-a2f6-dcc7ed292848","ios":"levelo://app?vid=059dcd77-b156-4846-a2f6-dcc7ed292848"},"vehicle_type_id":"4","last_reported":1712941699,"current_range_meters":0,"station_id":"ce4bgup2rcd13ifvqcn0","pricing_plan_id":"cebpf4jnsgd1na2vs0mg"},{"bike_id":"433e4bd9-7017-4cd6-850f-171d6cde65c5","system_id":"levelo_inurba_marseille","lat":43.32479,"lon":5.3659,"is_reserved":false,"is_disabled":false,"rental_uris":{"android":"levelo://app?vid=433e4bd9-7017-4cd6-850f-171d6cde65c5","ios":"levelo://app?vid=433e4bd9-7017-4cd6-850f-171d6cde65c5"},"vehicle_type_id":"4","last_reported":1712941699,"current_range_meters":11600,"station_id":"ce4bhs12rcd13ifvqhvg","pricing_plan_id":"cebpf4jnsgd1na2vs0mg"},{"bike_id":"7fe7999a-c607-4207-83e7-eea817e600ac","system_id":"levelo_inurba_marseille","lat":43.324771,"lon":5.36557,"is_reserved":false,"is_disabled":false,"rental_uris":{"android":"levelo://app?vid=7fe7999a-c607-4207-83e7-eea817e600ac","ios":"levelo://app?vid=7fe7999a-c607-4207-83e7-eea817e600ac"},"vehicle_type_id":"4","last_reported":1712941699,"current_range_meters":2800,"station_id":"ce4bhs12rcd13ifvqhvg","pricing_plan_id":"cebpf4jnsgd1na2vs0mg"},{"bike_id":"da3e682a-55c9-49f2-b516-a0025dbda029","system_id":"levelo_inurba_marseille","lat":43.30069,"lon":5.36523,"is_reserved":false,"is_disabled":false,"rental_uris":{"android":"levelo://app?vid=da3e682a-55c9-49f2-b516-a0025dbda029","ios":"levelo://app?vid=da3e682a-55c9-49f2-b516-a0025dbda029"},"vehicle_type_id":"4","last_reported":1712941699,"current_range_meters":400,"station_id":"ce4bgph2rcd13ifvqc2g","pricing_plan_id":"cebpf4jnsgd1na2vs0mg"},{"bike_id":"e368bbc8-c024-4a66-bbda-67532c1af4e2","system_id":"levelo_inurba_marseille","lat":43.324771,"lon":5.36557,"is_reserved":false,"is_disabled":false,"rental_uris":{"android":"levelo://app?vid=e368bbc8-c024-4a66-bbda-67532c1af4e2","ios":"levelo://app?vid=e368bbc8-c024-4a66-bbda-67532c1af4e2"},"vehicle_type_id":"4","last_reported":1712941699,"current_range_meters":14800,"station_id":"ce4bhs12rcd13ifvqhvg","pricing_plan_id":"cebpf4jnsgd1na2vs0mg"},{"bike_id":"5cfd7907-43f1-4bfe-9d68-f50a49745152","system_id":"levelo_inurba_marseille","lat":43.32488,"lon":5.36563,"is_reserved":false,"is_disabled":false,"rental_uris":{"android":"levelo://app?vid=5cfd7907-43f1-4bfe-9d68-f50a49745152","ios":"levelo://app?vid=5cfd7907-43f1-4bfe-9d68-f50a49745152"},"vehicle_type_id":"4","last_reported":1712941699,"current_range_meters":16000,"station_id":"ce4bhs12rcd13ifvqhvg","pricing_plan_id":"cebpf4jnsgd1na2vs0mg"},{"bike_id":"3da179fd-ba6d-4ac5-8ae9-a73ee0c6d3ee","system_id":"levelo_inurba_marseille","lat":43.3108,"lon":5.38347,"is_reserved":false,"is_disabled":false,"rental_uris":{"android":"levelo://app?vid=3da179fd-ba6d-4ac5-8ae9-a73ee0c6d3ee","ios":"levelo://app?vid=3da179fd-ba6d-4ac5-8ae9-a73ee0c6d3ee"},"vehicle_type_id":"4","last_reported":1712941699,"current_range_meters":0,"station_id":"ce4bgv92rcd13ifvqcr0","pricing_plan_id":"cebpf4jnsgd1na2vs0mg"},{"bike_id":"7f6e3003-6b41-4998-8603-edbb8da5afcc","system_id":"levelo_inurba_marseille","lat":43.310804,"lon":5.38359,"is_reserved":false,"is_disabled":false,"rental_uris":{"android":"levelo://app?vid=7f6e3003-6b41-4998-8603-edbb8da5afcc","ios":"levelo://app?vid=7f6e3003-6b41-4998-8603-edbb8da5afcc"},"vehicle_type_id":"4","last_reported":1712941699,"current_range_meters":11200,"station_id":"ce4bgv92rcd13ifvqcr0","pricing_plan_id":"cebpf4jnsgd1na2vs0mg"},{"bike_id":"15885d66-8294-406d-8563-3366eede4a1c","system_id":"levelo_inurba_marseille","lat":43.31071,"lon":5.38354,"is_reserved":false,"is_disabled":false,"rental_uris":{"android":"levelo://app?vid=15885d66-8294-406d-8563-3366eede4a1c","ios":"levelo://app?vid=15885d66-8294-406d-8563-3366eede4a1c"},"vehicle_type_id":"4","last_reported":1712941699,"current_range_meters":0,"station_id":"ce4bgv92rcd13ifvqcr0","pricing_plan_id":"cebpf4jnsgd1na2vs0mg"},{"bike_id":"bb8ba301-1799-450b-9a73-66f271362940","system_id":"levelo_inurba_marseille","lat":43.30143,"lon":5.37413,"is_reserved":false,"is_disabled":false,"rental_uris":{"android":"levelo://app?vid=bb8ba301-1799-450b-9a73-66f271362940","ios":"levelo://app?vid=bb8ba301-1799-450b-9a73-66f271362940"},"vehicle_type_id":"4","last_reported":1712941699,"current_range_meters":8400,"station_id":"ce4bgs92rcd13ifvqcc0","pricing_plan_id":"cebpf4jnsgd1na2vs0mg"},{"bike_id":"04482983-2058-4c16-8372-611b055ccc66","system_id":"levelo_inurba_marseille","lat":43.301431,"lon":5.374191,"is_reserved":false,"is_disabled":false,"rental_uris":{"android":"levelo://app?vid=04482983-2058-4c16-8372-611b055ccc66","ios":"levelo://app?vid=04482983-2058-4c16-8372-611b055ccc66"},"vehicle_type_id":"4","last_reported":1712941699,"current_range_meters":800,"station_id":"ce4bgs92rcd13ifvqcc0","pricing_plan_id":"cebpf4jnsgd1na2vs0mg"},{"bike_id":"dab3d8d4-6f7f-427e-8fd9-a61ed3eef369","system_id":"levelo_inurba_marseille","lat":43.298037,"lon":5.381066,"is_reserved":false,"is_disabled":false,"rental_uris":{"android":"levelo://app?vid=dab3d8d4-6f7f-427e-8fd9-a61ed3eef369","ios":"levelo://app?vid=dab3d8d4-6f7f-427e-8fd9-a61ed3eef369"},"vehicle_type_id":"4","last_reported":1712941699,"current_range_meters":0,"station_id":"ce4bgip2rcd13ifvqbb0","pricing_plan_id":"cebpf4jnsgd1na2vs0mg"},{"bike_id":"f523a484-ecf1-4d40-9649-2c71b8490c1a","system_id":"levelo_inurba_marseille","lat":43.319935,"lon":5.381699,"is_reserved":false,"is_disabled":false,"rental_uris":{"android":"levelo://app?vid=f523a484-ecf1-4d40-9649-2c71b8490c1a","ios":"levelo://app?vid=f523a484-ecf1-4d40-9649-2c71b8490c1a"},"vehicle_type_id":"4","last_reported":1712941699,"current_range_meters":10000,"station_id":"ce4bhr12rcd13ifvqhpg","pricing_plan_id":"cebpf4jnsgd1na2vs0mg"},{"bike_id":"48beb130-ced9-402f-939b-7fa0a052d4f7","system_id":"levelo_inurba_marseille","lat":43.319935,"lon":5.381699,"is_reserved":false,"is_disabled":false,"rental_uris":{"android":"levelo://app?vid=48beb130-ced9-402f-939b-7fa0a052d4f7","ios":"levelo://app?vid=48beb130-ced9-402f-939b-7fa0a052d4f7"},"vehicle_type_id":"4","last_reported":1712941699,"current_range_meters":400,"station_id":"ce4bhr12rcd13ifvqhpg","pricing_plan_id":"cebpf4jnsgd1na2vs0mg"},{"bike_id":"9d9eb2ce-bb70-4177-afae-7d74ce372a61","system_id":"levelo_inurba_marseille","lat":43.319935,"lon":5.381699,"is_reserved":false,"is_disabled":false,"rental_uris":{"android":"levelo://app?vid=9d9eb2ce-bb70-4177-afae-7d74ce372a61","ios":"levelo://app?vid=9d9eb2ce-bb70-4177-afae-7d74ce372a61"},"vehicle_type_id":"4","last_reported":1712941699,"current_range_meters":9200,"station_id":"ce4bhr12rcd13ifvqhpg","pricing_plan_id":"cebpf4jnsgd1na2vs0mg"},{"bike_id":"092991f4-970b-4c0d-8723-a30b1b6e932e","system_id":"levelo_inurba_marseille","lat":43.31367,"lon":5.38489,"is_reserved":false,"is_disabled":false,"rental_uris":{"android":"levelo://app?vid=092991f4-970b-4c0d-8723-a30b1b6e932e","ios":"levelo://app?vid=092991f4-970b-4c0d-8723-a30b1b6e932e"},"vehicle_type_id":"4","last_reported":1712941699,"current_range_meters":5200,"station_id":"ce4bgt92rcd13ifvqcf0","pricing_plan_id":"cebpf4jnsgd1na2vs0mg"},{"bike_id":"d61a7760-c2f1-4767-8969-377c74967639","system_id":"levelo_inurba_marseille","lat":43.313571,"lon":5.384829,"is_reserved":false,"is_disabled":false,"rental_uris":{"android":"levelo://app?vid=d61a7760-c2f1-4767-8969-377c74967639","ios":"levelo://app?vid=d61a7760-c2f1-4767-8969-377c74967639"},"vehicle_type_id":"4","last_reported":1712941699,"current_range_meters":0,"station_id":"ce4bgt92rcd13ifvqcf0","pricing_plan_id":"cebpf4jnsgd1na2vs0mg"},{"bike_id":"7f82255f-df5e-48d6-8070-2ec9b8c49faa","system_id":"levelo_inurba_marseille","lat":43.29845,"lon":5.36274,"is_reserved":false,"is_disabled":false,"rental_uris":{"android":"levelo://app?vid=7f82255f-df5e-48d6-8070-2ec9b8c49faa","ios":"levelo://app?vid=7f82255f-df5e-48d6-8070-2ec9b8c49faa"},"vehicle_type_id":"4","last_reported":1712941699,"current_range_meters":1200,"station_id":"ce4bgpp2rcd13ifvqc3g","pricing_plan_id":"cebpf4jnsgd1na2vs0mg"},{"bike_id":"938b04f7-eeda-4457-bee1-713d98f5e9df","system_id":"levelo_inurba_marseille","lat":43.298433,"lon":5.362774,"is_reserved":false,"is_disabled":false,"rental_uris":{"android":"levelo://app?vid=938b04f7-eeda-4457-bee1-713d98f5e9df","ios":"levelo://app?vid=938b04f7-eeda-4457-bee1-713d98f5e9df"},"vehicle_type_id":"4","last_reported":1712941699,"current_range_meters":19200,"station_id":"ce4bgpp2rcd13ifvqc3g","pricing_plan_id":"cebpf4jnsgd1na2vs0mg"},{"bike_id":"831bfca5-43b4-404d-b97e-a4e9b96aa38e","system_id":"levelo_inurba_marseille","lat":43.298433,"lon":5.362774,"is_reserved":false,"is_disabled":false,"rental_uris":{"android":"levelo://app?vid=831bfca5-43b4-404d-b97e-a4e9b96aa38e","ios":"levelo://app?vid=831bfca5-43b4-404d-b97e-a4e9b96aa38e"},"vehicle_type_id":"4","last_reported":1712941699,"current_range_meters":17600,"station_id":"ce4bgpp2rcd13ifvqc3g","pricing_plan_id":"cebpf4jnsgd1na2vs0mg"},{"bike_id":"6c91aeb1-c1ac-4b0b-927a-209ee6aedd6d","system_id":"levelo_inurba_marseille","lat":43.31187,"lon":5.38706,"is_reserved":false,"is_disabled":false,"rental_uris":{"android":"levelo://app?vid=6c91aeb1-c1ac-4b0b-927a-209ee6aedd6d","ios":"levelo://app?vid=6c91aeb1-c1ac-4b0b-927a-209ee6aedd6d"},"vehicle_type_id":"4","last_reported":1712941699,"current_range_meters":0,"station_id":"ce4bgv12rcd13ifvqcp0","pricing_plan_id":"cebpf4jnsgd1na2vs0mg"},{"bike_id":"8120e722-f4dd-4a6f-bace-aaf4e289266c","system_id":"levelo_inurba_marseille","lat":43.299243,"lon":5.374807,"is_reserved":false,"is_disabled":false,"rental_uris":{"android":"levelo://app?vid=8120e722-f4dd-4a6f-bace-aaf4e289266c","ios":"levelo://app?vid=8120e722-f4dd-4a6f-bace-aaf4e289266c"},"vehicle_type_id":"4","last_reported":1712941699,"current_range_meters":9200,"station_id":"ce4bgjh2rcd13ifvqbg0","pricing_plan_id":"cebpf4jnsgd1na2vs0mg"},{"bike_id":"33f9ec6c-35e4-4b80-9ccb-f932f44e8847","system_id":"levelo_inurba_marseille","lat":43.322872,"lon":5.382756,"is_reserved":false,"is_disabled":false,"rental_uris":{"android":"levelo://app?vid=33f9ec6c-35e4-4b80-9ccb-f932f44e8847","ios":"levelo://app?vid=33f9ec6c-35e4-4b80-9ccb-f932f44e8847"},"vehicle_type_id":"4","last_reported":1712941699,"current_range_meters":8800,"station_id":"ce4bhr12rcd13ifvqhqg","pricing_plan_id":"cebpf4jnsgd1na2vs0mg"},{"bike_id":"fb157d13-2822-4788-9126-ffd58503ec14","system_id":"levelo_inurba_marseille","lat":43.322872,"lon":5.382756,"is_reserved":false,"is_disabled":false,"rental_uris":{"android":"levelo://app?vid=fb157d13-2822-4788-9126-ffd58503ec14","ios":"levelo://app?vid=fb157d13-2822-4788-9126-ffd58503ec14"},"vehicle_type_id":"4","last_reported":1712941699,"current_range_meters":5600,"station_id":"ce4bhr12rcd13ifvqhqg","pricing_plan_id":"cebpf4jnsgd1na2vs0mg"},{"bike_id":"62f70c15-673b-4b5f-8664-4716e8ac8804","system_id":"levelo_inurba_marseille","lat":43.322872,"lon":5.382756,"is_reserved":false,"is_disabled":false,"rental_uris":{"android":"levelo://app?vid=62f70c15-673b-4b5f-8664-4716e8ac8804","ios":"levelo://app?vid=62f70c15-673b-4b5f-8664-4716e8ac8804"},"vehicle_type_id":"4","last_reported":1712941699,"current_range_meters":6800,"station_id":"ce4bhr12rcd13ifvqhqg","pricing_plan_id":"cebpf4jnsgd1na2vs0mg"},{"bike_id":"78e2448b-9d63-4014-9821-a5ed4ea701cc","system_id":"levelo_inurba_marseille","lat":43.322872,"lon":5.382756,"is_reserved":false,"is_disabled":false,"rental_uris":{"android":"levelo://app?vid=78e2448b-9d63-4014-9821-a5ed4ea701cc","ios":"levelo://app?vid=78e2448b-9d63-4014-9821-a5ed4ea701cc"},"vehicle_type_id":"4","last_reported":1712941699,"current_range_meters":17200,"station_id":"ce4bhr12rcd13ifvqhqg","pricing_plan_id":"cebpf4jnsgd1na2vs0mg"},{"bike_id":"29fc5b50-1cff-46be-80fb-38e796292df6","system_id":"levelo_inurba_marseille","lat":43.322872,"lon":5.382756,"is_reserved":false,"is_disabled":false,"rental_uris":{"android":"levelo://app?vid=29fc5b50-1cff-46be-80fb-38e796292df6","ios":"levelo://app?vid=29fc5b50-1cff-46be-80fb-38e796292df6"},"vehicle_type_id":"4","last_reported":1712941699,"current_range_meters":20400,"station_id":"ce4bhr12rcd13ifvqhqg","pricing_plan_id":"cebpf4jnsgd1na2vs0mg"},{"bike_id":"59e100ed-da50-4a3e-9006-d56c9ad9155e","system_id":"levelo_inurba_marseille","lat":43.322872,"lon":5.382756,"is_reserved":false,"is_disabled":false,"rental_uris":{"android":"levelo://app?vid=59e100ed-da50-4a3e-9006-d56c9ad9155e","ios":"levelo://app?vid=59e100ed-da50-4a3e-9006-d56c9ad9155e"},"vehicle_type_id":"4","last_reported":1712941699,"current_range_meters":1600,"station_id":"ce4bhr12rcd13ifvqhqg","pricing_plan_id":"cebpf4jnsgd1na2vs0mg"},{"bike_id":"471f6dc1-72d2-49b3-a8bb-13ca96ae22c1","system_id":"levelo_inurba_marseille","lat":43.322872,"lon":5.382756,"is_reserved":false,"is_disabled":false,"rental_uris":{"android":"levelo://app?vid=471f6dc1-72d2-49b3-a8bb-13ca96ae22c1","ios":"levelo://app?vid=471f6dc1-72d2-49b3-a8bb-13ca96ae22c1"},"vehicle_type_id":"4","last_reported":1712941699,"current_range_meters":6000,"station_id":"ce4bhr12rcd13ifvqhqg","pricing_plan_id":"cebpf4jnsgd1na2vs0mg"},{"bike_id":"4f44757c-85cd-4915-92d3-067bc521117b","system_id":"levelo_inurba_marseille","lat":43.297163,"lon":5.365866,"is_reserved":false,"is_disabled":false,"rental_uris":{"android":"levelo://app?vid=4f44757c-85cd-4915-92d3-067bc521117b","ios":"levelo://app?vid=4f44757c-85cd-4915-92d3-067bc521117b"},"vehicle_type_id":"4","last_reported":1712941699,"current_range_meters":4000,"station_id":"ce4bgn12rcd13ifvqbt0","pricing_plan_id":"cebpf4jnsgd1na2vs0mg"},{"bike_id":"372c21aa-b7d4-446c-a4e2-c00058386246","system_id":"levelo_inurba_marseille","lat":43.29714,"lon":5.366064,"is_reserved":false,"is_disabled":false,"rental_uris":{"android":"levelo://app?vid=372c21aa-b7d4-446c-a4e2-c00058386246","ios":"levelo://app?vid=372c21aa-b7d4-446c-a4e2-c00058386246"},"vehicle_type_id":"4","last_reported":1712941699,"current_range_meters":0,"station_id":"ce4bgn12rcd13ifvqbt0","pricing_plan_id":"cebpf4jnsgd1na2vs0mg"},{"bike_id":"7202b349-cdb2-4fd2-b3f3-0ba946f2e8f8","system_id":"levelo_inurba_marseille","lat":43.29711,"lon":5.36609,"is_reserved":false,"is_disabled":false,"rental_uris":{"android":"levelo://app?vid=7202b349-cdb2-4fd2-b3f3-0ba946f2e8f8","ios":"levelo://app?vid=7202b349-cdb2-4fd2-b3f3-0ba946f2e8f8"},"vehicle_type_id":"4","last_reported":1712941699,"current_range_meters":0,"station_id":"ce4bgn12rcd13ifvqbt0","pricing_plan_id":"cebpf4jnsgd1na2vs0mg"},{"bike_id":"01c3422d-8d5c-41eb-a8b1-2c81fafcb1e7","system_id":"levelo_inurba_marseille","lat":43.29703,"lon":5.36598,"is_reserved":false,"is_disabled":false,"rental_uris":{"android":"levelo://app?vid=01c3422d-8d5c-41eb-a8b1-2c81fafcb1e7","ios":"levelo://app?vid=01c3422d-8d5c-41eb-a8b1-2c81fafcb1e7"},"vehicle_type_id":"4","last_reported":1712941699,"current_range_meters":17600,"station_id":"","pricing_plan_id":"cebpf4jnsgd1na2vs0mg"},{"bike_id":"21676ed8-8248-49b5-9c23-719cd96bdd2d","system_id":"levelo_inurba_marseille","lat":43.2968,"lon":5.37291,"is_reserved":false,"is_disabled":false,"rental_uris":{"android":"levelo://app?vid=21676ed8-8248-49b5-9c23-719cd96bdd2d","ios":"levelo://app?vid=21676ed8-8248-49b5-9c23-719cd96bdd2d"},"vehicle_type_id":"4","last_reported":1712941699,"current_range_meters":4000,"station_id":"ce4bgk12rcd13ifvqbj0","pricing_plan_id":"cebpf4jnsgd1na2vs0mg"},{"bike_id":"0a75fb8f-2c55-4f5c-a23d-1380d87f668e","system_id":"levelo_inurba_marseille","lat":43.309589,"lon":5.390258,"is_reserved":false,"is_disabled":false,"rental_uris":{"android":"levelo://app?vid=0a75fb8f-2c55-4f5c-a23d-1380d87f668e","ios":"levelo://app?vid=0a75fb8f-2c55-4f5c-a23d-1380d87f668e"},"vehicle_type_id":"4","last_reported":1712941699,"current_range_meters":4000,"station_id":"ce4bgup2rcd13ifvqco0","pricing_plan_id":"cebpf4jnsgd1na2vs0mg"},{"bike_id":"e13db66c-4ebf-438b-9cc6-51532de34262","system_id":"levelo_inurba_marseille","lat":43.309589,"lon":5.390258,"is_reserved":false,"is_disabled":false,"rental_uris":{"android":"levelo://app?vid=e13db66c-4ebf-438b-9cc6-51532de34262","ios":"levelo://app?vid=e13db66c-4ebf-438b-9cc6-51532de34262"},"vehicle_type_id":"4","last_reported":1712941699,"current_range_meters":800,"station_id":"ce4bgup2rcd13ifvqco0","pricing_plan_id":"cebpf4jnsgd1na2vs0mg"},{"bike_id":"2cdd7cad-319f-4b13-a377-959109ab677b","system_id":"levelo_inurba_marseille","lat":43.317557,"lon":5.390173,"is_reserved":false,"is_disabled":false,"rental_uris":{"android":"levelo://app?vid=2cdd7cad-319f-4b13-a377-959109ab677b","ios":"levelo://app?vid=2cdd7cad-319f-4b13-a377-959109ab677b"},"vehicle_type_id":"4","last_reported":1712941699,"current_range_meters":4400,"station_id":"ce4bhqp2rcd13ifvqhng","pricing_plan_id":"cebpf4jnsgd1na2vs0mg"},{"bike_id":"ab9a4526-7580-47f8-b2b0-450b15f21782","system_id":"levelo_inurba_marseille","lat":43.31767,"lon":5.39013,"is_reserved":false,"is_disabled":false,"rental_uris":{"android":"levelo://app?vid=ab9a4526-7580-47f8-b2b0-450b15f21782","ios":"levelo://app?vid=ab9a4526-7580-47f8-b2b0-450b15f21782"},"vehicle_type_id":"4","last_reported":1712941699,"current_range_meters":5600,"station_id":"ce4bhqp2rcd13ifvqhng","pricing_plan_id":"cebpf4jnsgd1na2vs0mg"},{"bike_id":"42e9ad8a-87ce-4f96-94f3-0dd09feed033","system_id":"levelo_inurba_marseille","lat":43.29577,"lon":5.37496,"is_reserved":false,"is_disabled":false,"rental_uris":{"android":"levelo://app?vid=42e9ad8a-87ce-4f96-94f3-0dd09feed033","ios":"levelo://app?vid=42e9ad8a-87ce-4f96-94f3-0dd09feed033"},"vehicle_type_id":"4","last_reported":1712941699,"current_range_meters":0,"station_id":"ce4bgh92rcd13ifvqb50","pricing_plan_id":"cebpf4jnsgd1na2vs0mg"},{"bike_id":"f585e72c-cfd1-4526-b8bc-2a347ae4d580","system_id":"levelo_inurba_marseille","lat":43.298037,"lon":5.381066,"is_reserved":false,"is_disabled":false,"rental_uris":{"android":"levelo://app?vid=f585e72c-cfd1-4526-b8bc-2a347ae4d580","ios":"levelo://app?vid=f585e72c-cfd1-4526-b8bc-2a347ae4d580"},"vehicle_type_id":"4","last_reported":1712941699,"current_range_meters":0,"station_id":"ce4bgip2rcd13ifvqbb0","pricing_plan_id":"cebpf4jnsgd1na2vs0mg"},{"bike_id":"057e6e70-6ec6-4208-9a6f-76425ddef2c5","system_id":"levelo_inurba_marseille","lat":43.295748,"lon":5.37522,"is_reserved":false,"is_disabled":false,"rental_uris":{"android":"levelo://app?vid=057e6e70-6ec6-4208-9a6f-76425ddef2c5","ios":"levelo://app?vid=057e6e70-6ec6-4208-9a6f-76425ddef2c5"},"vehicle_type_id":"4","last_reported":1712941699,"current_range_meters":0,"station_id":"ce4bgh92rcd13ifvqb50","pricing_plan_id":"cebpf4jnsgd1na2vs0mg"},{"bike_id":"fd28981c-cc0c-4aa9-8df1-4cc02a43102b","system_id":"levelo_inurba_marseille","lat":43.296263,"lon":5.377094,"is_reserved":false,"is_disabled":false,"rental_uris":{"android":"levelo://app?vid=fd28981c-cc0c-4aa9-8df1-4cc02a43102b","ios":"levelo://app?vid=fd28981c-cc0c-4aa9-8df1-4cc02a43102b"},"vehicle_type_id":"4","last_reported":1712941699,"current_range_meters":0,"station_id":"ce4bgi92rcd13ifvqb90","pricing_plan_id":"cebpf4jnsgd1na2vs0mg"},{"bike_id":"bad63307-4d14-4aed-93a0-0eaf6992adfd","system_id":"levelo_inurba_marseille","lat":43.298037,"lon":5.381066,"is_reserved":false,"is_disabled":false,"rental_uris":{"android":"levelo://app?vid=bad63307-4d14-4aed-93a0-0eaf6992adfd","ios":"levelo://app?vid=bad63307-4d14-4aed-93a0-0eaf6992adfd"},"vehicle_type_id":"4","last_reported":1712941699,"current_range_meters":0,"station_id":"ce4bgip2rcd13ifvqbb0","pricing_plan_id":"cebpf4jnsgd1na2vs0mg"},{"bike_id":"9686dda3-0d75-43a3-b973-9d4cd650190d","system_id":"levelo_inurba_marseille","lat":43.296263,"lon":5.377094,"is_reserved":false,"is_disabled":false,"rental_uris":{"android":"levelo://app?vid=9686dda3-0d75-43a3-b973-9d4cd650190d","ios":"levelo://app?vid=9686dda3-0d75-43a3-b973-9d4cd650190d"},"vehicle_type_id":"4","last_reported":1712941699,"current_range_meters":0,"station_id":"ce4bgi92rcd13ifvqb90","pricing_plan_id":"cebpf4jnsgd1na2vs0mg"},{"bike_id":"0223b3bd-f6d0-4a17-8b9a-605dc875ddcd","system_id":"levelo_inurba_marseille","lat":43.304278,"lon":5.388868,"is_reserved":false,"is_disabled":false,"rental_uris":{"android":"levelo://app?vid=0223b3bd-f6d0-4a17-8b9a-605dc875ddcd","ios":"levelo://app?vid=0223b3bd-f6d0-4a17-8b9a-605dc875ddcd"},"vehicle_type_id":"4","last_reported":1712941699,"current_range_meters":10400,"station_id":"ce4bgk12rcd13ifvqbi0","pricing_plan_id":"cebpf4jnsgd1na2vs0mg"},{"bike_id":"ffe02d82-65dc-4802-9b42-d7e2d3cba48e","system_id":"levelo_inurba_marseille","lat":43.29528,"lon":5.37449,"is_reserved":false,"is_disabled":false,"rental_uris":{"android":"levelo://app?vid=ffe02d82-65dc-4802-9b42-d7e2d3cba48e","ios":"levelo://app?vid=ffe02d82-65dc-4802-9b42-d7e2d3cba48e"},"vehicle_type_id":"4","last_reported":1712941699,"current_range_meters":0,"station_id":"ce4bgkp2rcd13ifvqbmg","pricing_plan_id":"cebpf4jnsgd1na2vs0mg"},{"bike_id":"723fa3ba-9102-4c18-bede-47af26b2eea6","system_id":"levelo_inurba_marseille","lat":43.29536,"lon":5.37494,"is_reserved":false,"is_disabled":false,"rental_uris":{"android":"levelo://app?vid=723fa3ba-9102-4c18-bede-47af26b2eea6","ios":"levelo://app?vid=723fa3ba-9102-4c18-bede-47af26b2eea6"},"vehicle_type_id":"4","last_reported":1712941699,"current_range_meters":0,"station_id":"ce4bgkp2rcd13ifvqbmg","pricing_plan_id":"cebpf4jnsgd1na2vs0mg"},{"bike_id":"2df3610c-4aaf-4427-9e18-cfd7988d6c9e","system_id":"levelo_inurba_marseille","lat":43.295301,"lon":5.374881,"is_reserved":false,"is_disabled":false,"rental_uris":{"android":"levelo://app?vid=2df3610c-4aaf-4427-9e18-cfd7988d6c9e","ios":"levelo://app?vid=2df3610c-4aaf-4427-9e18-cfd7988d6c9e"},"vehicle_type_id":"4","last_reported":1712941699,"current_range_meters":2000,"station_id":"ce4bgkp2rcd13ifvqbmg","pricing_plan_id":"cebpf4jnsgd1na2vs0mg"},{"bike_id":"14e6c974-215d-4436-b58c-148cc9fd5086","system_id":"levelo_inurba_marseille","lat":43.295279,"lon":5.375048,"is_reserved":false,"is_disabled":false,"rental_uris":{"android":"levelo://app?vid=14e6c974-215d-4436-b58c-148cc9fd5086","ios":"levelo://app?vid=14e6c974-215d-4436-b58c-148cc9fd5086"},"vehicle_type_id":"4","last_reported":1712941699,"current_range_meters":23600,"station_id":"ce4bgkp2rcd13ifvqbmg","pricing_plan_id":"cebpf4jnsgd1na2vs0mg"},{"bike_id":"0abd2b23-6f7d-401f-a52c-f5ee96283bf3","system_id":"levelo_inurba_marseille","lat":43.299717,"lon":5.384845,"is_reserved":false,"is_disabled":false,"rental_uris":{"android":"levelo://app?vid=0abd2b23-6f7d-401f-a52c-f5ee96283bf3","ios":"levelo://app?vid=0abd2b23-6f7d-401f-a52c-f5ee96283bf3"},"vehicle_type_id":"4","last_reported":1712941699,"current_range_meters":4000,"station_id":"ce4bgj92rcd13ifvqbd0","pricing_plan_id":"cebpf4jnsgd1na2vs0mg"},{"bike_id":"ae4cb9ee-3125-461b-9ecc-82de5bfafd53","system_id":"levelo_inurba_marseille","lat":43.299707,"lon":5.384859,"is_reserved":false,"is_disabled":false,"rental_uris":{"android":"levelo://app?vid=ae4cb9ee-3125-461b-9ecc-82de5bfafd53","ios":"levelo://app?vid=ae4cb9ee-3125-461b-9ecc-82de5bfafd53"},"vehicle_type_id":"4","last_reported":1712941699,"current_range_meters":0,"station_id":"ce4bgj92rcd13ifvqbd0","pricing_plan_id":"cebpf4jnsgd1na2vs0mg"},{"bike_id":"b4195fdc-abe3-433b-ba0d-c57ccbac0327","system_id":"levelo_inurba_marseille","lat":43.299724,"lon":5.384848,"is_reserved":false,"is_disabled":false,"rental_uris":{"android":"levelo://app?vid=b4195fdc-abe3-433b-ba0d-c57ccbac0327","ios":"levelo://app?vid=b4195fdc-abe3-433b-ba0d-c57ccbac0327"},"vehicle_type_id":"4","last_reported":1712941699,"current_range_meters":0,"station_id":"ce4bgj92rcd13ifvqbd0","pricing_plan_id":"cebpf4jnsgd1na2vs0mg"},{"bike_id":"a8896724-8708-4631-a551-b7930a7010b8","system_id":"levelo_inurba_marseille","lat":43.299724,"lon":5.384848,"is_reserved":false,"is_disabled":false,"rental_uris":{"android":"levelo://app?vid=a8896724-8708-4631-a551-b7930a7010b8","ios":"levelo://app?vid=a8896724-8708-4631-a551-b7930a7010b8"},"vehicle_type_id":"4","last_reported":1712941699,"current_range_meters":0,"station_id":"ce4bgj92rcd13ifvqbd0","pricing_plan_id":"cebpf4jnsgd1na2vs0mg"},{"bike_id":"9d0b14ef-d8dc-4e61-b758-db26cf8b9a99","system_id":"levelo_inurba_marseille","lat":43.32367,"lon":5.388836,"is_reserved":false,"is_disabled":false,"rental_uris":{"android":"levelo://app?vid=9d0b14ef-d8dc-4e61-b758-db26cf8b9a99","ios":"levelo://app?vid=9d0b14ef-d8dc-4e61-b758-db26cf8b9a99"},"vehicle_type_id":"4","last_reported":1712941699,"current_range_meters":2000,"station_id":"ce4bhqp2rcd13ifvqhog","pricing_plan_id":"cebpf4jnsgd1na2vs0mg"},{"bike_id":"2f906445-8b0b-4c7e-9409-09d8762aad87","system_id":"levelo_inurba_marseille","lat":43.29616,"lon":5.38052,"is_reserved":false,"is_disabled":false,"rental_uris":{"android":"levelo://app?vid=2f906445-8b0b-4c7e-9409-09d8762aad87","ios":"levelo://app?vid=2f906445-8b0b-4c7e-9409-09d8762aad87"},"vehicle_type_id":"4","last_reported":1712941699,"current_range_meters":1200,"station_id":"ce4bhbh2rcd13ifvqepg","pricing_plan_id":"cebpf4jnsgd1na2vs0mg"},{"bike_id":"8c724ef0-9201-4ddc-9327-b96004b89030","system_id":"levelo_inurba_marseille","lat":43.32367,"lon":5.388836,"is_reserved":false,"is_disabled":false,"rental_uris":{"android":"levelo://app?vid=8c724ef0-9201-4ddc-9327-b96004b89030","ios":"levelo://app?vid=8c724ef0-9201-4ddc-9327-b96004b89030"},"vehicle_type_id":"4","last_reported":1712941699,"current_range_meters":0,"station_id":"ce4bhqp2rcd13ifvqhog","pricing_plan_id":"cebpf4jnsgd1na2vs0mg"},{"bike_id":"2df8eec0-350c-40a8-bb5b-a59f71c62ba5","system_id":"levelo_inurba_marseille","lat":43.29602,"lon":5.381084,"is_reserved":false,"is_disabled":false,"rental_uris":{"android":"levelo://app?vid=2df8eec0-350c-40a8-bb5b-a59f71c62ba5","ios":"levelo://app?vid=2df8eec0-350c-40a8-bb5b-a59f71c62ba5"},"vehicle_type_id":"4","last_reported":1712941699,"current_range_meters":2000,"station_id":"ce4bgl12rcd13ifvqbo0","pricing_plan_id":"cebpf4jnsgd1na2vs0mg"},{"bike_id":"a97dca4e-16a3-4857-bb5f-b9f72338fae8","system_id":"levelo_inurba_marseille","lat":43.296003,"lon":5.380965,"is_reserved":false,"is_disabled":false,"rental_uris":{"android":"levelo://app?vid=a97dca4e-16a3-4857-bb5f-b9f72338fae8","ios":"levelo://app?vid=a97dca4e-16a3-4857-bb5f-b9f72338fae8"},"vehicle_type_id":"4","last_reported":1712941699,"current_range_meters":1600,"station_id":"ce4bhb12rcd13ifvqel0","pricing_plan_id":"cebpf4jnsgd1na2vs0mg"},{"bike_id":"5fb5b4c0-4c7b-4e2e-a084-b4ef156b3419","system_id":"levelo_inurba_marseille","lat":43.29282,"lon":5.36841,"is_reserved":false,"is_disabled":false,"rental_uris":{"android":"levelo://app?vid=5fb5b4c0-4c7b-4e2e-a084-b4ef156b3419","ios":"levelo://app?vid=5fb5b4c0-4c7b-4e2e-a084-b4ef156b3419"},"vehicle_type_id":"4","last_reported":1712941699,"current_range_meters":0,"station_id":"ce4bhbp2rcd13ifvqesg","pricing_plan_id":"cebpf4jnsgd1na2vs0mg"},{"bike_id":"82c90a03-4e13-44da-97a1-b7353337e3aa","system_id":"levelo_inurba_marseille","lat":43.29279,"lon":5.36842,"is_reserved":false,"is_disabled":false,"rental_uris":{"android":"levelo://app?vid=82c90a03-4e13-44da-97a1-b7353337e3aa","ios":"levelo://app?vid=82c90a03-4e13-44da-97a1-b7353337e3aa"},"vehicle_type_id":"4","last_reported":1712941699,"current_range_meters":22800,"station_id":"ce4bhbp2rcd13ifvqesg","pricing_plan_id":"cebpf4jnsgd1na2vs0mg"},{"bike_id":"aec0d5fe-b08d-4bb6-b973-2b7b6af5e841","system_id":"levelo_inurba_marseille","lat":43.283998,"lon":5.375062,"is_reserved":false,"is_disabled":false,"rental_uris":{"android":"levelo://app?vid=aec0d5fe-b08d-4bb6-b973-2b7b6af5e841","ios":"levelo://app?vid=aec0d5fe-b08d-4bb6-b973-2b7b6af5e841"},"vehicle_type_id":"4","last_reported":1712941699,"current_range_meters":7600,"station_id":"ce4bh412rcd13ifvqds0","pricing_plan_id":"cebpf4jnsgd1na2vs0mg"},{"bike_id":"138b1223-28f7-4305-9155-c996d455b49c","system_id":"levelo_inurba_marseille","lat":43.292749,"lon":5.368402,"is_reserved":false,"is_disabled":false,"rental_uris":{"android":"levelo://app?vid=138b1223-28f7-4305-9155-c996d455b49c","ios":"levelo://app?vid=138b1223-28f7-4305-9155-c996d455b49c"},"vehicle_type_id":"4","last_reported":1712941699,"current_range_meters":4400,"station_id":"ce4bhbp2rcd13ifvqesg","pricing_plan_id":"cebpf4jnsgd1na2vs0mg"},{"bike_id":"a132be3a-9929-478e-abe3-1d9a45102008","system_id":"levelo_inurba_marseille","lat":43.292749,"lon":5.368402,"is_reserved":false,"is_disabled":false,"rental_uris":{"android":"levelo://app?vid=a132be3a-9929-478e-abe3-1d9a45102008","ios":"levelo://app?vid=a132be3a-9929-478e-abe3-1d9a45102008"},"vehicle_type_id":"4","last_reported":1712941699,"current_range_meters":24800,"station_id":"ce4bhbp2rcd13ifvqesg","pricing_plan_id":"cebpf4jnsgd1na2vs0mg"},{"bike_id":"e5c36c35-8e08-47a2-925b-3630b2fb386d","system_id":"levelo_inurba_marseille","lat":43.292749,"lon":5.368402,"is_reserved":false,"is_disabled":false,"rental_uris":{"android":"levelo://app?vid=e5c36c35-8e08-47a2-925b-3630b2fb386d","ios":"levelo://app?vid=e5c36c35-8e08-47a2-925b-3630b2fb386d"},"vehicle_type_id":"4","last_reported":1712941699,"current_range_meters":0,"station_id":"ce4bhbp2rcd13ifvqesg","pricing_plan_id":"cebpf4jnsgd1na2vs0mg"},{"bike_id":"5360a716-8109-4de9-a5c2-c1986ee8cde2","system_id":"levelo_inurba_marseille","lat":43.29262,"lon":5.36855,"is_reserved":false,"is_disabled":false,"rental_uris":{"android":"levelo://app?vid=5360a716-8109-4de9-a5c2-c1986ee8cde2","ios":"levelo://app?vid=5360a716-8109-4de9-a5c2-c1986ee8cde2"},"vehicle_type_id":"4","last_reported":1712941699,"current_range_meters":0,"station_id":"ce4bhbp2rcd13ifvqerg","pricing_plan_id":"cebpf4jnsgd1na2vs0mg"},{"bike_id":"cef12da0-c6fb-47c1-84e0-65dd01d8703d","system_id":"levelo_inurba_marseille","lat":43.285856,"lon":5.350771,"is_reserved":false,"is_disabled":false,"rental_uris":{"android":"levelo://app?vid=cef12da0-c6fb-47c1-84e0-65dd01d8703d","ios":"levelo://app?vid=cef12da0-c6fb-47c1-84e0-65dd01d8703d"},"vehicle_type_id":"4","last_reported":1712941699,"current_range_meters":14800,"station_id":"ce4bhch2rcd13ifvqeug","pricing_plan_id":"cebpf4jnsgd1na2vs0mg"},{"bike_id":"920c4f70-6964-45ad-bb95-e461e5bb23a7","system_id":"levelo_inurba_marseille","lat":43.293009,"lon":5.374584,"is_reserved":false,"is_disabled":false,"rental_uris":{"android":"levelo://app?vid=920c4f70-6964-45ad-bb95-e461e5bb23a7","ios":"levelo://app?vid=920c4f70-6964-45ad-bb95-e461e5bb23a7"},"vehicle_type_id":"4","last_reported":1712941699,"current_range_meters":3200,"station_id":"ce4bgi12rcd13ifvqb70","pricing_plan_id":"cebpf4jnsgd1na2vs0mg"},{"bike_id":"4b298265-8204-4fa5-b97f-cc0a16eecbb2","system_id":"levelo_inurba_marseille","lat":43.29298,"lon":5.37448,"is_reserved":false,"is_disabled":false,"rental_uris":{"android":"levelo://app?vid=4b298265-8204-4fa5-b97f-cc0a16eecbb2","ios":"levelo://app?vid=4b298265-8204-4fa5-b97f-cc0a16eecbb2"},"vehicle_type_id":"4","last_reported":1712941699,"current_range_meters":0,"station_id":"ce4bgi12rcd13ifvqb70","pricing_plan_id":"cebpf4jnsgd1na2vs0mg"},{"bike_id":"b4e3bb8e-14dc-4ab1-ba6e-63bf0e689742","system_id":"levelo_inurba_marseille","lat":43.30603,"lon":5.39359,"is_reserved":false,"is_disabled":false,"rental_uris":{"android":"levelo://app?vid=b4e3bb8e-14dc-4ab1-ba6e-63bf0e689742","ios":"levelo://app?vid=b4e3bb8e-14dc-4ab1-ba6e-63bf0e689742"},"vehicle_type_id":"4","last_reported":1712941699,"current_range_meters":0,"station_id":"ce4bh0p2rcd13ifvqd80","pricing_plan_id":"cebpf4jnsgd1na2vs0mg"},{"bike_id":"3206910e-7208-4d39-b629-f1369e2548c2","system_id":"levelo_inurba_marseille","lat":43.29293,"lon":5.37447,"is_reserved":false,"is_disabled":false,"rental_uris":{"android":"levelo://app?vid=3206910e-7208-4d39-b629-f1369e2548c2","ios":"levelo://app?vid=3206910e-7208-4d39-b629-f1369e2548c2"},"vehicle_type_id":"4","last_reported":1712941699,"current_range_meters":0,"station_id":"ce4bgi12rcd13ifvqb70","pricing_plan_id":"cebpf4jnsgd1na2vs0mg"},{"bike_id":"1af1f3f9-e718-402d-ba2a-9a5c638704b2","system_id":"levelo_inurba_marseille","lat":43.303002,"lon":5.392142,"is_reserved":false,"is_disabled":false,"rental_uris":{"android":"levelo://app?vid=1af1f3f9-e718-402d-ba2a-9a5c638704b2","ios":"levelo://app?vid=1af1f3f9-e718-402d-ba2a-9a5c638704b2"},"vehicle_type_id":"4","last_reported":1712941699,"current_range_meters":0,"station_id":"ce4bgkh2rcd13ifvqbk0","pricing_plan_id":"cebpf4jnsgd1na2vs0mg"},{"bike_id":"8db23a51-c831-4c11-a753-5c16e9330335","system_id":"levelo_inurba_marseille","lat":43.31536,"lon":5.39514,"is_reserved":false,"is_disabled":false,"rental_uris":{"android":"levelo://app?vid=8db23a51-c831-4c11-a753-5c16e9330335","ios":"levelo://app?vid=8db23a51-c831-4c11-a753-5c16e9330335"},"vehicle_type_id":"4","last_reported":1712941699,"current_range_meters":7200,"station_id":"","pricing_plan_id":"cebpf4jnsgd1na2vs0mg"},{"bike_id":"a51d5df0-5670-4579-9e94-9dca53f5fa31","system_id":"levelo_inurba_marseille","lat":43.2936,"lon":5.37835,"is_reserved":false,"is_disabled":false,"rental_uris":{"android":"levelo://app?vid=a51d5df0-5670-4579-9e94-9dca53f5fa31","ios":"levelo://app?vid=a51d5df0-5670-4579-9e94-9dca53f5fa31"},"vehicle_type_id":"4","last_reported":1712941699,"current_range_meters":8800,"station_id":"ce4bgjh2rcd13ifvqbf0","pricing_plan_id":"cebpf4jnsgd1na2vs0mg"},{"bike_id":"7adb97dc-1079-4ecc-88df-38519c2fcf12","system_id":"levelo_inurba_marseille","lat":43.30085,"lon":5.390856,"is_reserved":false,"is_disabled":false,"rental_uris":{"android":"levelo://app?vid=7adb97dc-1079-4ecc-88df-38519c2fcf12","ios":"levelo://app?vid=7adb97dc-1079-4ecc-88df-38519c2fcf12"},"vehicle_type_id":"4","last_reported":1712941699,"current_range_meters":3600,"station_id":"ce4bh192rcd13ifvqdb0","pricing_plan_id":"cebpf4jnsgd1na2vs0mg"},{"bike_id":"31ab4070-73cf-4768-bda0-2e4e59bd2a73","system_id":"levelo_inurba_marseille","lat":43.303002,"lon":5.392142,"is_reserved":false,"is_disabled":false,"rental_uris":{"android":"levelo://app?vid=31ab4070-73cf-4768-bda0-2e4e59bd2a73","ios":"levelo://app?vid=31ab4070-73cf-4768-bda0-2e4e59bd2a73"},"vehicle_type_id":"4","last_reported":1712941699,"current_range_meters":0,"station_id":"ce4bgkh2rcd13ifvqbk0","pricing_plan_id":"cebpf4jnsgd1na2vs0mg"},{"bike_id":"b5c9df21-4c3c-405c-ae5a-c717ea082e77","system_id":"levelo_inurba_marseille","lat":43.300852,"lon":5.390859,"is_reserved":false,"is_disabled":false,"rental_uris":{"android":"levelo://app?vid=b5c9df21-4c3c-405c-ae5a-c717ea082e77","ios":"levelo://app?vid=b5c9df21-4c3c-405c-ae5a-c717ea082e77"},"vehicle_type_id":"4","last_reported":1712941699,"current_range_meters":15200,"station_id":"ce4bh192rcd13ifvqdb0","pricing_plan_id":"cebpf4jnsgd1na2vs0mg"},{"bike_id":"8b243d10-81be-45af-a7c1-92cdf6354abe","system_id":"levelo_inurba_marseille","lat":43.300852,"lon":5.390859,"is_reserved":false,"is_disabled":false,"rental_uris":{"android":"levelo://app?vid=8b243d10-81be-45af-a7c1-92cdf6354abe","ios":"levelo://app?vid=8b243d10-81be-45af-a7c1-92cdf6354abe"},"vehicle_type_id":"4","last_reported":1712941699,"current_range_meters":4000,"station_id":"ce4bh192rcd13ifvqdb0","pricing_plan_id":"cebpf4jnsgd1na2vs0mg"},{"bike_id":"fdbfcc4c-c0c1-4d80-b0d1-c6c7324cc435","system_id":"levelo_inurba_marseille","lat":43.29179,"lon":5.37147,"is_reserved":false,"is_disabled":false,"rental_uris":{"android":"levelo://app?vid=fdbfcc4c-c0c1-4d80-b0d1-c6c7324cc435","ios":"levelo://app?vid=fdbfcc4c-c0c1-4d80-b0d1-c6c7324cc435"},"vehicle_type_id":"4","last_reported":1712941699,"current_range_meters":0,"station_id":"ce4bha92rcd13ifvqeh0","pricing_plan_id":"cebpf4jnsgd1na2vs0mg"},{"bike_id":"4775df0d-6117-4386-91d8-5c547fa52bc3","system_id":"levelo_inurba_marseille","lat":43.298764,"lon":5.388973,"is_reserved":false,"is_disabled":false,"rental_uris":{"android":"levelo://app?vid=4775df0d-6117-4386-91d8-5c547fa52bc3","ios":"levelo://app?vid=4775df0d-6117-4386-91d8-5c547fa52bc3"},"vehicle_type_id":"4","last_reported":1712941699,"current_range_meters":0,"station_id":"ce4bh392rcd13ifvqdl0","pricing_plan_id":"cebpf4jnsgd1na2vs0mg"},{"bike_id":"5afd1cfb-ed0c-4aea-acfb-28ac88521b0a","system_id":"levelo_inurba_marseille","lat":43.291675,"lon":5.371583,"is_reserved":false,"is_disabled":false,"rental_uris":{"android":"levelo://app?vid=5afd1cfb-ed0c-4aea-acfb-28ac88521b0a","ios":"levelo://app?vid=5afd1cfb-ed0c-4aea-acfb-28ac88521b0a"},"vehicle_type_id":"4","last_reported":1712941699,"current_range_meters":400,"station_id":"ce4bha92rcd13ifvqeh0","pricing_plan_id":"cebpf4jnsgd1na2vs0mg"},{"bike_id":"2e97d751-0cee-4fff-a94f-6c126f180b12","system_id":"levelo_inurba_marseille","lat":43.291671,"lon":5.371575,"is_reserved":false,"is_disabled":false,"rental_uris":{"android":"levelo://app?vid=2e97d751-0cee-4fff-a94f-6c126f180b12","ios":"levelo://app?vid=2e97d751-0cee-4fff-a94f-6c126f180b12"},"vehicle_type_id":"4","last_reported":1712941699,"current_range_meters":21200,"station_id":"ce4bha92rcd13ifvqeh0","pricing_plan_id":"cebpf4jnsgd1na2vs0mg"},{"bike_id":"1a7c6afc-6b8f-4925-b731-351380e6b959","system_id":"levelo_inurba_marseille","lat":43.29529,"lon":5.385581,"is_reserved":false,"is_disabled":false,"rental_uris":{"android":"levelo://app?vid=1a7c6afc-6b8f-4925-b731-351380e6b959","ios":"levelo://app?vid=1a7c6afc-6b8f-4925-b731-351380e6b959"},"vehicle_type_id":"4","last_reported":1712941699,"current_range_meters":20000,"station_id":"ce4bgih2rcd13ifvqba0","pricing_plan_id":"cebpf4jnsgd1na2vs0mg"},{"bike_id":"8e9fb460-94cb-4293-a9ad-bda70d02ce1b","system_id":"levelo_inurba_marseille","lat":43.292005,"lon":5.357875,"is_reserved":false,"is_disabled":false,"rental_uris":{"android":"levelo://app?vid=8e9fb460-94cb-4293-a9ad-bda70d02ce1b","ios":"levelo://app?vid=8e9fb460-94cb-4293-a9ad-bda70d02ce1b"},"vehicle_type_id":"4","last_reported":1712941699,"current_range_meters":0,"station_id":"ce4bhb12rcd13ifvqel0","pricing_plan_id":"cebpf4jnsgd1na2vs0mg"},{"bike_id":"5e0f98ed-aa91-4878-acb7-b9c9d85f0f5a","system_id":"levelo_inurba_marseille","lat":43.291994,"lon":5.357886,"is_reserved":false,"is_disabled":false,"rental_uris":{"android":"levelo://app?vid=5e0f98ed-aa91-4878-acb7-b9c9d85f0f5a","ios":"levelo://app?vid=5e0f98ed-aa91-4878-acb7-b9c9d85f0f5a"},"vehicle_type_id":"4","last_reported":1712941699,"current_range_meters":19600,"station_id":"ce4bhb12rcd13ifvqel0","pricing_plan_id":"cebpf4jnsgd1na2vs0mg"},{"bike_id":"b3afa7ad-ec3c-47b8-a275-c8a6cd354115","system_id":"levelo_inurba_marseille","lat":43.291994,"lon":5.357886,"is_reserved":false,"is_disabled":false,"rental_uris":{"android":"levelo://app?vid=b3afa7ad-ec3c-47b8-a275-c8a6cd354115","ios":"levelo://app?vid=b3afa7ad-ec3c-47b8-a275-c8a6cd354115"},"vehicle_type_id":"4","last_reported":1712941699,"current_range_meters":0,"station_id":"ce4bhb12rcd13ifvqel0","pricing_plan_id":"cebpf4jnsgd1na2vs0mg"},{"bike_id":"de2d9618-aaa3-45ac-a256-1ba969b7e395","system_id":"levelo_inurba_marseille","lat":43.309047,"lon":5.396551,"is_reserved":false,"is_disabled":false,"rental_uris":{"android":"levelo://app?vid=de2d9618-aaa3-45ac-a256-1ba969b7e395","ios":"levelo://app?vid=de2d9618-aaa3-45ac-a256-1ba969b7e395"},"vehicle_type_id":"4","last_reported":1712941699,"current_range_meters":18800,"station_id":"ce4bh012rcd13ifvqcv0","pricing_plan_id":"cebpf4jnsgd1na2vs0mg"},{"bike_id":"0cff6c8d-d0bf-4bb6-8240-2f754a1ad654","system_id":"levelo_inurba_marseille","lat":43.313291,"lon":5.396838,"is_reserved":false,"is_disabled":false,"rental_uris":{"android":"levelo://app?vid=0cff6c8d-d0bf-4bb6-8240-2f754a1ad654","ios":"levelo://app?vid=0cff6c8d-d0bf-4bb6-8240-2f754a1ad654"},"vehicle_type_id":"4","last_reported":1712941699,"current_range_meters":2000,"station_id":"ce4bgvp2rcd13ifvqcu0","pricing_plan_id":"cebpf4jnsgd1na2vs0mg"},{"bike_id":"2d3f7430-aef5-4aff-a6f6-bf4bac6d5c50","system_id":"levelo_inurba_marseille","lat":43.309038,"lon":5.396546,"is_reserved":false,"is_disabled":false,"rental_uris":{"android":"levelo://app?vid=2d3f7430-aef5-4aff-a6f6-bf4bac6d5c50","ios":"levelo://app?vid=2d3f7430-aef5-4aff-a6f6-bf4bac6d5c50"},"vehicle_type_id":"4","last_reported":1712941699,"current_range_meters":3600,"station_id":"ce4bh012rcd13ifvqcv0","pricing_plan_id":"cebpf4jnsgd1na2vs0mg"},{"bike_id":"969011f8-b23a-4af3-bb31-1cf84eed00d5","system_id":"levelo_inurba_marseille","lat":43.309038,"lon":5.396546,"is_reserved":false,"is_disabled":false,"rental_uris":{"android":"levelo://app?vid=969011f8-b23a-4af3-bb31-1cf84eed00d5","ios":"levelo://app?vid=969011f8-b23a-4af3-bb31-1cf84eed00d5"},"vehicle_type_id":"4","last_reported":1712941699,"current_range_meters":2800,"station_id":"ce4bh012rcd13ifvqcv0","pricing_plan_id":"cebpf4jnsgd1na2vs0mg"},{"bike_id":"3fcc0fac-a8a7-4b01-8704-7413d7f5237e","system_id":"levelo_inurba_marseille","lat":43.29529,"lon":5.385581,"is_reserved":false,"is_disabled":false,"rental_uris":{"android":"levelo://app?vid=3fcc0fac-a8a7-4b01-8704-7413d7f5237e","ios":"levelo://app?vid=3fcc0fac-a8a7-4b01-8704-7413d7f5237e"},"vehicle_type_id":"4","last_reported":1712941699,"current_range_meters":4000,"station_id":"ce4bgih2rcd13ifvqba0","pricing_plan_id":"cebpf4jnsgd1na2vs0mg"},{"bike_id":"c4e25241-6166-42a0-b74a-3c46c0710893","system_id":"levelo_inurba_marseille","lat":43.29537,"lon":5.38547,"is_reserved":false,"is_disabled":false,"rental_uris":{"android":"levelo://app?vid=c4e25241-6166-42a0-b74a-3c46c0710893","ios":"levelo://app?vid=c4e25241-6166-42a0-b74a-3c46c0710893"},"vehicle_type_id":"4","last_reported":1712941699,"current_range_meters":4000,"station_id":"ce4bgih2rcd13ifvqba0","pricing_plan_id":"cebpf4jnsgd1na2vs0mg"},{"bike_id":"0fb95847-4ecc-4db5-9f75-ece2df7d0f99","system_id":"levelo_inurba_marseille","lat":43.290779,"lon":5.371482,"is_reserved":false,"is_disabled":false,"rental_uris":{"android":"levelo://app?vid=0fb95847-4ecc-4db5-9f75-ece2df7d0f99","ios":"levelo://app?vid=0fb95847-4ecc-4db5-9f75-ece2df7d0f99"},"vehicle_type_id":"4","last_reported":1712941699,"current_range_meters":7200,"station_id":"ce4bh5p2rcd13ifvqe4g","pricing_plan_id":"cebpf4jnsgd1na2vs0mg"},{"bike_id":"81cfba5e-b6d9-4fac-8fc9-c8e7094de355","system_id":"levelo_inurba_marseille","lat":43.30212,"lon":5.39461,"is_reserved":false,"is_disabled":false,"rental_uris":{"android":"levelo://app?vid=81cfba5e-b6d9-4fac-8fc9-c8e7094de355","ios":"levelo://app?vid=81cfba5e-b6d9-4fac-8fc9-c8e7094de355"},"vehicle_type_id":"4","last_reported":1712941699,"current_range_meters":0,"station_id":"ce4bh0p2rcd13ifvqd70","pricing_plan_id":"cebpf4jnsgd1na2vs0mg"},{"bike_id":"d1a8af1e-34b0-4f9e-a045-4641adca9803","system_id":"levelo_inurba_marseille","lat":43.30215,"lon":5.39465,"is_reserved":false,"is_disabled":false,"rental_uris":{"android":"levelo://app?vid=d1a8af1e-34b0-4f9e-a045-4641adca9803","ios":"levelo://app?vid=d1a8af1e-34b0-4f9e-a045-4641adca9803"},"vehicle_type_id":"4","last_reported":1712941699,"current_range_meters":24800,"station_id":"ce4bh0p2rcd13ifvqd70","pricing_plan_id":"cebpf4jnsgd1na2vs0mg"},{"bike_id":"57d5d154-ede2-4af3-b2a0-e6658763008d","system_id":"levelo_inurba_marseille","lat":43.294162,"lon":5.386292,"is_reserved":false,"is_disabled":false,"rental_uris":{"android":"levelo://app?vid=57d5d154-ede2-4af3-b2a0-e6658763008d","ios":"levelo://app?vid=57d5d154-ede2-4af3-b2a0-e6658763008d"},"vehicle_type_id":"4","last_reported":1712941699,"current_range_meters":0,"station_id":"ce4bh2h2rcd13ifvqdh0","pricing_plan_id":"cebpf4jnsgd1na2vs0mg"},{"bike_id":"ba2af0e3-3bf7-4c27-866d-cecdf060a69c","system_id":"levelo_inurba_marseille","lat":43.294153,"lon":5.386305,"is_reserved":false,"is_disabled":false,"rental_uris":{"android":"levelo://app?vid=ba2af0e3-3bf7-4c27-866d-cecdf060a69c","ios":"levelo://app?vid=ba2af0e3-3bf7-4c27-866d-cecdf060a69c"},"vehicle_type_id":"4","last_reported":1712941699,"current_range_meters":20000,"station_id":"ce4bh2h2rcd13ifvqdh0","pricing_plan_id":"cebpf4jnsgd1na2vs0mg"},{"bike_id":"643a01ed-5446-4857-9114-95c3f452be89","system_id":"levelo_inurba_marseille","lat":43.294221,"lon":5.386102,"is_reserved":false,"is_disabled":false,"rental_uris":{"android":"levelo://app?vid=643a01ed-5446-4857-9114-95c3f452be89","ios":"levelo://app?vid=643a01ed-5446-4857-9114-95c3f452be89"},"vehicle_type_id":"4","last_reported":1712941699,"current_range_meters":0,"station_id":"ce4bh2h2rcd13ifvqdh0","pricing_plan_id":"cebpf4jnsgd1na2vs0mg"},{"bike_id":"68cbcc1d-8cdf-40cd-8e25-8a171675f72e","system_id":"levelo_inurba_marseille","lat":43.294153,"lon":5.386305,"is_reserved":false,"is_disabled":false,"rental_uris":{"android":"levelo://app?vid=68cbcc1d-8cdf-40cd-8e25-8a171675f72e","ios":"levelo://app?vid=68cbcc1d-8cdf-40cd-8e25-8a171675f72e"},"vehicle_type_id":"4","last_reported":1712941699,"current_range_meters":0,"station_id":"ce4bh2h2rcd13ifvqdh0","pricing_plan_id":"cebpf4jnsgd1na2vs0mg"},{"bike_id":"171d41fd-e340-4f6b-ab9b-2ed6beef49bf","system_id":"levelo_inurba_marseille","lat":43.294162,"lon":5.386292,"is_reserved":false,"is_disabled":false,"rental_uris":{"android":"levelo://app?vid=171d41fd-e340-4f6b-ab9b-2ed6beef49bf","ios":"levelo://app?vid=171d41fd-e340-4f6b-ab9b-2ed6beef49bf"},"vehicle_type_id":"4","last_reported":1712941699,"current_range_meters":800,"station_id":"ce4bh2h2rcd13ifvqdh0","pricing_plan_id":"cebpf4jnsgd1na2vs0mg"},{"bike_id":"046f92bd-ed7b-4c21-875e-493917c7c96c","system_id":"levelo_inurba_marseille","lat":43.294153,"lon":5.386305,"is_reserved":false,"is_disabled":false,"rental_uris":{"android":"levelo://app?vid=046f92bd-ed7b-4c21-875e-493917c7c96c","ios":"levelo://app?vid=046f92bd-ed7b-4c21-875e-493917c7c96c"},"vehicle_type_id":"4","last_reported":1712941699,"current_range_meters":7200,"station_id":"ce4bh2h2rcd13ifvqdh0","pricing_plan_id":"cebpf4jnsgd1na2vs0mg"},{"bike_id":"4a2c5f6d-adc8-4475-9803-70870e371f63","system_id":"levelo_inurba_marseille","lat":43.29421,"lon":5.38621,"is_reserved":false,"is_disabled":false,"rental_uris":{"android":"levelo://app?vid=4a2c5f6d-adc8-4475-9803-70870e371f63","ios":"levelo://app?vid=4a2c5f6d-adc8-4475-9803-70870e371f63"},"vehicle_type_id":"4","last_reported":1712941699,"current_range_meters":1600,"station_id":"","pricing_plan_id":"cebpf4jnsgd1na2vs0mg"},{"bike_id":"07cbe056-1ca4-488b-b5c5-67c2bb11169d","system_id":"levelo_inurba_marseille","lat":43.29422,"lon":5.386243,"is_reserved":false,"is_disabled":false,"rental_uris":{"android":"levelo://app?vid=07cbe056-1ca4-488b-b5c5-67c2bb11169d","ios":"levelo://app?vid=07cbe056-1ca4-488b-b5c5-67c2bb11169d"},"vehicle_type_id":"4","last_reported":1712941699,"current_range_meters":0,"station_id":"ce4bh2h2rcd13ifvqdh0","pricing_plan_id":"cebpf4jnsgd1na2vs0mg"},{"bike_id":"4edd6cb5-e75c-4236-803a-d3406c36b529","system_id":"levelo_inurba_marseille","lat":43.294153,"lon":5.386305,"is_reserved":false,"is_disabled":false,"rental_uris":{"android":"levelo://app?vid=4edd6cb5-e75c-4236-803a-d3406c36b529","ios":"levelo://app?vid=4edd6cb5-e75c-4236-803a-d3406c36b529"},"vehicle_type_id":"4","last_reported":1712941699,"current_range_meters":26400,"station_id":"ce4bh2h2rcd13ifvqdh0","pricing_plan_id":"cebpf4jnsgd1na2vs0mg"},{"bike_id":"8f6c7949-0dad-4fa2-801b-efa2265a4079","system_id":"levelo_inurba_marseille","lat":43.284217,"lon":5.349697,"is_reserved":false,"is_disabled":false,"rental_uris":{"android":"levelo://app?vid=8f6c7949-0dad-4fa2-801b-efa2265a4079","ios":"levelo://app?vid=8f6c7949-0dad-4fa2-801b-efa2265a4079"},"vehicle_type_id":"4","last_reported":1712941699,"current_range_meters":8800,"station_id":"ce4bhbh2rcd13ifvqepg","pricing_plan_id":"cebpf4jnsgd1na2vs0mg"},{"bike_id":"7d976dfa-9f6d-40cb-a24c-b7eb245fc2a6","system_id":"levelo_inurba_marseille","lat":43.28942,"lon":5.36637,"is_reserved":false,"is_disabled":false,"rental_uris":{"android":"levelo://app?vid=7d976dfa-9f6d-40cb-a24c-b7eb245fc2a6","ios":"levelo://app?vid=7d976dfa-9f6d-40cb-a24c-b7eb245fc2a6"},"vehicle_type_id":"4","last_reported":1712941699,"current_range_meters":0,"station_id":"ce4bhap2rcd13ifvqek0","pricing_plan_id":"cebpf4jnsgd1na2vs0mg"},{"bike_id":"64fa9f5a-ca61-411b-8595-bd8f8faf37b3","system_id":"levelo_inurba_marseille","lat":43.289184,"lon":5.366408,"is_reserved":false,"is_disabled":false,"rental_uris":{"android":"levelo://app?vid=64fa9f5a-ca61-411b-8595-bd8f8faf37b3","ios":"levelo://app?vid=64fa9f5a-ca61-411b-8595-bd8f8faf37b3"},"vehicle_type_id":"4","last_reported":1712941699,"current_range_meters":15200,"station_id":"ce4bhap2rcd13ifvqek0","pricing_plan_id":"cebpf4jnsgd1na2vs0mg"},{"bike_id":"16ecc7af-1c2e-4f93-8768-56bef6a3b31c","system_id":"levelo_inurba_marseille","lat":43.289468,"lon":5.363719,"is_reserved":false,"is_disabled":false,"rental_uris":{"android":"levelo://app?vid=16ecc7af-1c2e-4f93-8768-56bef6a3b31c","ios":"levelo://app?vid=16ecc7af-1c2e-4f93-8768-56bef6a3b31c"},"vehicle_type_id":"4","last_reported":1712941699,"current_range_meters":400,"station_id":"ce4bhc92rcd13ifvqetg","pricing_plan_id":"cebpf4jnsgd1na2vs0mg"},{"bike_id":"a675528b-8ce7-48b6-bc6c-d41ccd861875","system_id":"levelo_inurba_marseille","lat":43.29306,"lon":5.38426,"is_reserved":false,"is_disabled":false,"rental_uris":{"android":"levelo://app?vid=a675528b-8ce7-48b6-bc6c-d41ccd861875","ios":"levelo://app?vid=a675528b-8ce7-48b6-bc6c-d41ccd861875"},"vehicle_type_id":"4","last_reported":1712941699,"current_range_meters":0,"station_id":"ce4bh692rcd13ifvqea0","pricing_plan_id":"cebpf4jnsgd1na2vs0mg"},{"bike_id":"c9b69d72-83e5-48fe-bf37-1c3dd5609ebf","system_id":"levelo_inurba_marseille","lat":43.289468,"lon":5.363719,"is_reserved":false,"is_disabled":false,"rental_uris":{"android":"levelo://app?vid=c9b69d72-83e5-48fe-bf37-1c3dd5609ebf","ios":"levelo://app?vid=c9b69d72-83e5-48fe-bf37-1c3dd5609ebf"},"vehicle_type_id":"4","last_reported":1712941699,"current_range_meters":1200,"station_id":"ce4bhc92rcd13ifvqetg","pricing_plan_id":"cebpf4jnsgd1na2vs0mg"},{"bike_id":"0d705644-c14c-4182-8273-45c651f5f44b","system_id":"levelo_inurba_marseille","lat":43.289184,"lon":5.366408,"is_reserved":false,"is_disabled":false,"rental_uris":{"android":"levelo://app?vid=0d705644-c14c-4182-8273-45c651f5f44b","ios":"levelo://app?vid=0d705644-c14c-4182-8273-45c651f5f44b"},"vehicle_type_id":"4","last_reported":1712941699,"current_range_meters":30400,"station_id":"ce4bhap2rcd13ifvqek0","pricing_plan_id":"cebpf4jnsgd1na2vs0mg"},{"bike_id":"280e4bd0-de66-4ede-81ea-f53dff1e4568","system_id":"levelo_inurba_marseille","lat":43.292719,"lon":5.384228,"is_reserved":false,"is_disabled":false,"rental_uris":{"android":"levelo://app?vid=280e4bd0-de66-4ede-81ea-f53dff1e4568","ios":"levelo://app?vid=280e4bd0-de66-4ede-81ea-f53dff1e4568"},"vehicle_type_id":"4","last_reported":1712941699,"current_range_meters":0,"station_id":"ce4bh692rcd13ifvqea0","pricing_plan_id":"cebpf4jnsgd1na2vs0mg"},{"bike_id":"edc31660-3aa9-4ee3-84cd-3b105938c120","system_id":"levelo_inurba_marseille","lat":43.292644,"lon":5.384257,"is_reserved":false,"is_disabled":false,"rental_uris":{"android":"levelo://app?vid=edc31660-3aa9-4ee3-84cd-3b105938c120","ios":"levelo://app?vid=edc31660-3aa9-4ee3-84cd-3b105938c120"},"vehicle_type_id":"4","last_reported":1712941699,"current_range_meters":4400,"station_id":"ce4bh692rcd13ifvqea0","pricing_plan_id":"cebpf4jnsgd1na2vs0mg"},{"bike_id":"9a6dc3ed-ad1f-412d-bda0-84c25ce9fa28","system_id":"levelo_inurba_marseille","lat":43.292644,"lon":5.384257,"is_reserved":false,"is_disabled":false,"rental_uris":{"android":"levelo://app?vid=9a6dc3ed-ad1f-412d-bda0-84c25ce9fa28","ios":"levelo://app?vid=9a6dc3ed-ad1f-412d-bda0-84c25ce9fa28"},"vehicle_type_id":"4","last_reported":1712941699,"current_range_meters":0,"station_id":"ce4bh692rcd13ifvqea0","pricing_plan_id":"cebpf4jnsgd1na2vs0mg"},{"bike_id":"d1a0359c-52b3-49f9-8a4c-76179b12bce4","system_id":"levelo_inurba_marseille","lat":43.292644,"lon":5.384257,"is_reserved":false,"is_disabled":false,"rental_uris":{"android":"levelo://app?vid=d1a0359c-52b3-49f9-8a4c-76179b12bce4","ios":"levelo://app?vid=d1a0359c-52b3-49f9-8a4c-76179b12bce4"},"vehicle_type_id":"4","last_reported":1712941699,"current_range_meters":800,"station_id":"ce4bh692rcd13ifvqea0","pricing_plan_id":"cebpf4jnsgd1na2vs0mg"},{"bike_id":"df50b024-d38a-4da7-9e1e-a6166d872bbf","system_id":"levelo_inurba_marseille","lat":43.292644,"lon":5.384257,"is_reserved":false,"is_disabled":false,"rental_uris":{"android":"levelo://app?vid=df50b024-d38a-4da7-9e1e-a6166d872bbf","ios":"levelo://app?vid=df50b024-d38a-4da7-9e1e-a6166d872bbf"},"vehicle_type_id":"4","last_reported":1712941699,"current_range_meters":4000,"station_id":"ce4bh692rcd13ifvqea0","pricing_plan_id":"cebpf4jnsgd1na2vs0mg"},{"bike_id":"bb8de010-9c80-4b6d-aa68-3df192ed7974","system_id":"levelo_inurba_marseille","lat":43.292644,"lon":5.384257,"is_reserved":false,"is_disabled":false,"rental_uris":{"android":"levelo://app?vid=bb8de010-9c80-4b6d-aa68-3df192ed7974","ios":"levelo://app?vid=bb8de010-9c80-4b6d-aa68-3df192ed7974"},"vehicle_type_id":"4","last_reported":1712941699,"current_range_meters":0,"station_id":"ce4bh692rcd13ifvqea0","pricing_plan_id":"cebpf4jnsgd1na2vs0mg"},{"bike_id":"1d5edc65-35c2-4a82-863b-46f5c3826aec","system_id":"levelo_inurba_marseille","lat":43.290104,"lon":5.356111,"is_reserved":false,"is_disabled":false,"rental_uris":{"android":"levelo://app?vid=1d5edc65-35c2-4a82-863b-46f5c3826aec","ios":"levelo://app?vid=1d5edc65-35c2-4a82-863b-46f5c3826aec"},"vehicle_type_id":"4","last_reported":1712941699,"current_range_meters":7200,"station_id":"ce4bhb92rcd13ifvqen0","pricing_plan_id":"cebpf4jnsgd1na2vs0mg"},{"bike_id":"954863d1-c471-46e6-9132-dfca06107886","system_id":"levelo_inurba_marseille","lat":43.29017,"lon":5.3561,"is_reserved":false,"is_disabled":false,"rental_uris":{"android":"levelo://app?vid=954863d1-c471-46e6-9132-dfca06107886","ios":"levelo://app?vid=954863d1-c471-46e6-9132-dfca06107886"},"vehicle_type_id":"4","last_reported":1712941699,"current_range_meters":0,"station_id":"ce4bhb92rcd13ifvqen0","pricing_plan_id":"cebpf4jnsgd1na2vs0mg"},{"bike_id":"e604a94e-c62c-49fb-91d9-73d3581c411b","system_id":"levelo_inurba_marseille","lat":43.290103,"lon":5.356114,"is_reserved":false,"is_disabled":false,"rental_uris":{"android":"levelo://app?vid=e604a94e-c62c-49fb-91d9-73d3581c411b","ios":"levelo://app?vid=e604a94e-c62c-49fb-91d9-73d3581c411b"},"vehicle_type_id":"4","last_reported":1712941699,"current_range_meters":0,"station_id":"ce4bhb92rcd13ifvqen0","pricing_plan_id":"cebpf4jnsgd1na2vs0mg"},{"bike_id":"b1c82a1e-daf7-43ec-ba59-2b5bcf4ca258","system_id":"levelo_inurba_marseille","lat":43.29026,"lon":5.37831,"is_reserved":false,"is_disabled":false,"rental_uris":{"android":"levelo://app?vid=b1c82a1e-daf7-43ec-ba59-2b5bcf4ca258","ios":"levelo://app?vid=b1c82a1e-daf7-43ec-ba59-2b5bcf4ca258"},"vehicle_type_id":"4","last_reported":1712941699,"current_range_meters":0,"station_id":"","pricing_plan_id":"cebpf4jnsgd1na2vs0mg"},{"bike_id":"1e369c4b-9525-4c24-bff3-b9b93bc7f665","system_id":"levelo_inurba_marseille","lat":43.290103,"lon":5.356114,"is_reserved":false,"is_disabled":false,"rental_uris":{"android":"levelo://app?vid=1e369c4b-9525-4c24-bff3-b9b93bc7f665","ios":"levelo://app?vid=1e369c4b-9525-4c24-bff3-b9b93bc7f665"},"vehicle_type_id":"4","last_reported":1712941699,"current_range_meters":0,"station_id":"ce4bhb92rcd13ifvqen0","pricing_plan_id":"cebpf4jnsgd1na2vs0mg"},{"bike_id":"ef39b48b-8b78-44d2-8ff8-bf7c8ddf4b94","system_id":"levelo_inurba_marseille","lat":43.289184,"lon":5.366408,"is_reserved":false,"is_disabled":false,"rental_uris":{"android":"levelo://app?vid=ef39b48b-8b78-44d2-8ff8-bf7c8ddf4b94","ios":"levelo://app?vid=ef39b48b-8b78-44d2-8ff8-bf7c8ddf4b94"},"vehicle_type_id":"4","last_reported":1712941699,"current_range_meters":0,"station_id":"ce4bhap2rcd13ifvqek0","pricing_plan_id":"cebpf4jnsgd1na2vs0mg"},{"bike_id":"5c165a24-e9e8-4c18-82e8-62538245856d","system_id":"levelo_inurba_marseille","lat":43.290103,"lon":5.356114,"is_reserved":false,"is_disabled":false,"rental_uris":{"android":"levelo://app?vid=5c165a24-e9e8-4c18-82e8-62538245856d","ios":"levelo://app?vid=5c165a24-e9e8-4c18-82e8-62538245856d"},"vehicle_type_id":"4","last_reported":1712941699,"current_range_meters":19200,"station_id":"ce4bhb92rcd13ifvqen0","pricing_plan_id":"cebpf4jnsgd1na2vs0mg"},{"bike_id":"6e4013cf-f2b2-451d-9eaf-e3dc900a7333","system_id":"levelo_inurba_marseille","lat":43.290104,"lon":5.356111,"is_reserved":false,"is_disabled":false,"rental_uris":{"android":"levelo://app?vid=6e4013cf-f2b2-451d-9eaf-e3dc900a7333","ios":"levelo://app?vid=6e4013cf-f2b2-451d-9eaf-e3dc900a7333"},"vehicle_type_id":"4","last_reported":1712941699,"current_range_meters":5600,"station_id":"ce4bhb92rcd13ifvqen0","pricing_plan_id":"cebpf4jnsgd1na2vs0mg"},{"bike_id":"f24b9fa1-a36e-4b7f-acd7-7d9492d4d3d7","system_id":"levelo_inurba_marseille","lat":43.290103,"lon":5.356114,"is_reserved":false,"is_disabled":false,"rental_uris":{"android":"levelo://app?vid=f24b9fa1-a36e-4b7f-acd7-7d9492d4d3d7","ios":"levelo://app?vid=f24b9fa1-a36e-4b7f-acd7-7d9492d4d3d7"},"vehicle_type_id":"4","last_reported":1712941699,"current_range_meters":0,"station_id":"ce4bhb92rcd13ifvqen0","pricing_plan_id":"cebpf4jnsgd1na2vs0mg"},{"bike_id":"3e8eb6a9-5302-4ea7-9cff-b5be9eb75c79","system_id":"levelo_inurba_marseille","lat":43.290103,"lon":5.356114,"is_reserved":false,"is_disabled":false,"rental_uris":{"android":"levelo://app?vid=3e8eb6a9-5302-4ea7-9cff-b5be9eb75c79","ios":"levelo://app?vid=3e8eb6a9-5302-4ea7-9cff-b5be9eb75c79"},"vehicle_type_id":"4","last_reported":1712941699,"current_range_meters":0,"station_id":"ce4bhb92rcd13ifvqen0","pricing_plan_id":"cebpf4jnsgd1na2vs0mg"},{"bike_id":"382ae036-e011-46fe-a25e-414c3c3aa42e","system_id":"levelo_inurba_marseille","lat":43.290995,"lon":5.381361,"is_reserved":false,"is_disabled":false,"rental_uris":{"android":"levelo://app?vid=382ae036-e011-46fe-a25e-414c3c3aa42e","ios":"levelo://app?vid=382ae036-e011-46fe-a25e-414c3c3aa42e"},"vehicle_type_id":"4","last_reported":1712941699,"current_range_meters":0,"station_id":"ce4bh512rcd13ifvqe2g","pricing_plan_id":"cebpf4jnsgd1na2vs0mg"},{"bike_id":"79fd2c62-ae66-4f9d-b383-6617d1aa48d9","system_id":"levelo_inurba_marseille","lat":43.29778,"lon":5.39333,"is_reserved":false,"is_disabled":false,"rental_uris":{"android":"levelo://app?vid=79fd2c62-ae66-4f9d-b383-6617d1aa48d9","ios":"levelo://app?vid=79fd2c62-ae66-4f9d-b383-6617d1aa48d9"},"vehicle_type_id":"4","last_reported":1712941699,"current_range_meters":20800,"station_id":"chh1huq6cuj3fo74tm60","pricing_plan_id":"cebpf4jnsgd1na2vs0mg"},{"bike_id":"5dae9644-dd0f-410d-abb5-524a29880aec","system_id":"levelo_inurba_marseille","lat":43.297814,"lon":5.393513,"is_reserved":false,"is_disabled":false,"rental_uris":{"android":"levelo://app?vid=5dae9644-dd0f-410d-abb5-524a29880aec","ios":"levelo://app?vid=5dae9644-dd0f-410d-abb5-524a29880aec"},"vehicle_type_id":"4","last_reported":1712941699,"current_range_meters":0,"station_id":"chh1huq6cuj3fo74tm60","pricing_plan_id":"cebpf4jnsgd1na2vs0mg"},{"bike_id":"a93964c2-85dd-440b-9d6e-cb1949970ad7","system_id":"levelo_inurba_marseille","lat":43.289743,"lon":5.378304,"is_reserved":false,"is_disabled":false,"rental_uris":{"android":"levelo://app?vid=a93964c2-85dd-440b-9d6e-cb1949970ad7","ios":"levelo://app?vid=a93964c2-85dd-440b-9d6e-cb1949970ad7"},"vehicle_type_id":"4","last_reported":1712941699,"current_range_meters":0,"station_id":"ce4bh9p2rcd13ifvqed0","pricing_plan_id":"cebpf4jnsgd1na2vs0mg"},{"bike_id":"884b65da-096b-42ec-b8ef-5869915babb4","system_id":"levelo_inurba_marseille","lat":43.289743,"lon":5.378304,"is_reserved":false,"is_disabled":false,"rental_uris":{"android":"levelo://app?vid=884b65da-096b-42ec-b8ef-5869915babb4","ios":"levelo://app?vid=884b65da-096b-42ec-b8ef-5869915babb4"},"vehicle_type_id":"4","last_reported":1712941699,"current_range_meters":4000,"station_id":"ce4bh9p2rcd13ifvqed0","pricing_plan_id":"cebpf4jnsgd1na2vs0mg"},{"bike_id":"eadf9370-ab17-4f24-9bd0-4d76945080ac","system_id":"levelo_inurba_marseille","lat":43.289741,"lon":5.378306,"is_reserved":false,"is_disabled":false,"rental_uris":{"android":"levelo://app?vid=eadf9370-ab17-4f24-9bd0-4d76945080ac","ios":"levelo://app?vid=eadf9370-ab17-4f24-9bd0-4d76945080ac"},"vehicle_type_id":"4","last_reported":1712941699,"current_range_meters":16800,"station_id":"ce4bh9p2rcd13ifvqed0","pricing_plan_id":"cebpf4jnsgd1na2vs0mg"},{"bike_id":"998e53b0-c8b4-4e20-b0fe-c3da51333478","system_id":"levelo_inurba_marseille","lat":43.330442,"lon":5.389148,"is_reserved":false,"is_disabled":false,"rental_uris":{"android":"levelo://app?vid=998e53b0-c8b4-4e20-b0fe-c3da51333478","ios":"levelo://app?vid=998e53b0-c8b4-4e20-b0fe-c3da51333478"},"vehicle_type_id":"4","last_reported":1712941699,"current_range_meters":19600,"station_id":"ce4bhr92rcd13ifvqhrg","pricing_plan_id":"cebpf4jnsgd1na2vs0mg"},{"bike_id":"4b2512ab-6863-4696-9578-dbf188cb0fd8","system_id":"levelo_inurba_marseille","lat":43.304606,"lon":5.379026,"is_reserved":false,"is_disabled":false,"rental_uris":{"android":"levelo://app?vid=4b2512ab-6863-4696-9578-dbf188cb0fd8","ios":"levelo://app?vid=4b2512ab-6863-4696-9578-dbf188cb0fd8"},"vehicle_type_id":"4","last_reported":1712941699,"current_range_meters":19200,"station_id":"ce4bgup2rcd13ifvqcn0","pricing_plan_id":"cebpf4jnsgd1na2vs0mg"},{"bike_id":"15bd0317-6ee7-40b2-9e94-8e7f50a7a1c0","system_id":"levelo_inurba_marseille","lat":43.2901,"lon":5.381269,"is_reserved":false,"is_disabled":false,"rental_uris":{"android":"levelo://app?vid=15bd0317-6ee7-40b2-9e94-8e7f50a7a1c0","ios":"levelo://app?vid=15bd0317-6ee7-40b2-9e94-8e7f50a7a1c0"},"vehicle_type_id":"4","last_reported":1712941699,"current_range_meters":10400,"station_id":"ce4bh4p2rcd13ifvqe1g","pricing_plan_id":"cebpf4jnsgd1na2vs0mg"},{"bike_id":"18480891-9d35-449a-9fc8-45bc3a1d537a","system_id":"levelo_inurba_marseille","lat":43.290094,"lon":5.381264,"is_reserved":false,"is_disabled":false,"rental_uris":{"android":"levelo://app?vid=18480891-9d35-449a-9fc8-45bc3a1d537a","ios":"levelo://app?vid=18480891-9d35-449a-9fc8-45bc3a1d537a"},"vehicle_type_id":"4","last_reported":1712941699,"current_range_meters":0,"station_id":"ce4bh4p2rcd13ifvqe1g","pricing_plan_id":"cebpf4jnsgd1na2vs0mg"},{"bike_id":"4bf3e806-7d2d-41eb-a92b-8f294d86849c","system_id":"levelo_inurba_marseille","lat":43.28847,"lon":5.35839,"is_reserved":false,"is_disabled":false,"rental_uris":{"android":"levelo://app?vid=4bf3e806-7d2d-41eb-a92b-8f294d86849c","ios":"levelo://app?vid=4bf3e806-7d2d-41eb-a92b-8f294d86849c"},"vehicle_type_id":"4","last_reported":1712941699,"current_range_meters":0,"station_id":"ce4bhb12rcd13ifvqem0","pricing_plan_id":"cebpf4jnsgd1na2vs0mg"},{"bike_id":"97551275-dfbe-403e-aacb-4be4223f6313","system_id":"levelo_inurba_marseille","lat":43.309349,"lon":5.4014,"is_reserved":false,"is_disabled":false,"rental_uris":{"android":"levelo://app?vid=97551275-dfbe-403e-aacb-4be4223f6313","ios":"levelo://app?vid=97551275-dfbe-403e-aacb-4be4223f6313"},"vehicle_type_id":"4","last_reported":1712941699,"current_range_meters":0,"station_id":"","pricing_plan_id":"cebpf4jnsgd1na2vs0mg"},{"bike_id":"0c4667ee-99e5-435b-a28a-f1b7dfcd6b6f","system_id":"levelo_inurba_marseille","lat":43.290723,"lon":5.384091,"is_reserved":false,"is_disabled":false,"rental_uris":{"android":"levelo://app?vid=0c4667ee-99e5-435b-a28a-f1b7dfcd6b6f","ios":"levelo://app?vid=0c4667ee-99e5-435b-a28a-f1b7dfcd6b6f"},"vehicle_type_id":"4","last_reported":1712941699,"current_range_meters":4000,"station_id":"","pricing_plan_id":"cebpf4jnsgd1na2vs0mg"},{"bike_id":"6276b9a0-0d16-405e-89f1-f13b01208b34","system_id":"levelo_inurba_marseille","lat":43.30942,"lon":5.401473,"is_reserved":false,"is_disabled":false,"rental_uris":{"android":"levelo://app?vid=6276b9a0-0d16-405e-89f1-f13b01208b34","ios":"levelo://app?vid=6276b9a0-0d16-405e-89f1-f13b01208b34"},"vehicle_type_id":"4","last_reported":1712941699,"current_range_meters":0,"station_id":"ce4bgvp2rcd13ifvqct0","pricing_plan_id":"cebpf4jnsgd1na2vs0mg"},{"bike_id":"a337a3f1-764e-4ead-a8b7-9779c5acdb28","system_id":"levelo_inurba_marseille","lat":43.33753,"lon":5.3745,"is_reserved":false,"is_disabled":false,"rental_uris":{"android":"levelo://app?vid=a337a3f1-764e-4ead-a8b7-9779c5acdb28","ios":"levelo://app?vid=a337a3f1-764e-4ead-a8b7-9779c5acdb28"},"vehicle_type_id":"4","last_reported":1712941699,"current_range_meters":27200,"station_id":"","pricing_plan_id":"cebpf4jnsgd1na2vs0mg"},{"bike_id":"774f6500-6424-427c-8133-e4987961144c","system_id":"levelo_inurba_marseille","lat":43.33754,"lon":5.374806,"is_reserved":false,"is_disabled":false,"rental_uris":{"android":"levelo://app?vid=774f6500-6424-427c-8133-e4987961144c","ios":"levelo://app?vid=774f6500-6424-427c-8133-e4987961144c"},"vehicle_type_id":"4","last_reported":1712941699,"current_range_meters":2000,"station_id":"","pricing_plan_id":"cebpf4jnsgd1na2vs0mg"},{"bike_id":"d3ea26f4-7d4d-45b7-8172-0133ecd9329b","system_id":"levelo_inurba_marseille","lat":43.337581,"lon":5.374623,"is_reserved":false,"is_disabled":false,"rental_uris":{"android":"levelo://app?vid=d3ea26f4-7d4d-45b7-8172-0133ecd9329b","ios":"levelo://app?vid=d3ea26f4-7d4d-45b7-8172-0133ecd9329b"},"vehicle_type_id":"4","last_reported":1712941699,"current_range_meters":27200,"station_id":"","pricing_plan_id":"cebpf4jnsgd1na2vs0mg"},{"bike_id":"178f8792-52c6-4d9b-8858-76318da1fa31","system_id":"levelo_inurba_marseille","lat":43.301117,"lon":5.398795,"is_reserved":false,"is_disabled":false,"rental_uris":{"android":"levelo://app?vid=178f8792-52c6-4d9b-8858-76318da1fa31","ios":"levelo://app?vid=178f8792-52c6-4d9b-8858-76318da1fa31"},"vehicle_type_id":"4","last_reported":1712941699,"current_range_meters":9600,"station_id":"ce4bh0h2rcd13ifvqd40","pricing_plan_id":"cebpf4jnsgd1na2vs0mg"},{"bike_id":"57f9c64a-e60c-40d5-a463-15af810c9f58","system_id":"levelo_inurba_marseille","lat":43.306412,"lon":5.401035,"is_reserved":false,"is_disabled":false,"rental_uris":{"android":"levelo://app?vid=57f9c64a-e60c-40d5-a463-15af810c9f58","ios":"levelo://app?vid=57f9c64a-e60c-40d5-a463-15af810c9f58"},"vehicle_type_id":"4","last_reported":1712941699,"current_range_meters":6800,"station_id":"ce4bh112rcd13ifvqda0","pricing_plan_id":"cebpf4jnsgd1na2vs0mg"},{"bike_id":"2787dd84-a98d-4054-af1f-e9af83a31f3e","system_id":"levelo_inurba_marseille","lat":43.301117,"lon":5.398795,"is_reserved":false,"is_disabled":false,"rental_uris":{"android":"levelo://app?vid=2787dd84-a98d-4054-af1f-e9af83a31f3e","ios":"levelo://app?vid=2787dd84-a98d-4054-af1f-e9af83a31f3e"},"vehicle_type_id":"4","last_reported":1712941699,"current_range_meters":3200,"station_id":"ce4bh0h2rcd13ifvqd40","pricing_plan_id":"cebpf4jnsgd1na2vs0mg"},{"bike_id":"284d2036-b32a-422c-94a7-a3276507cbd8","system_id":"levelo_inurba_marseille","lat":43.301117,"lon":5.398795,"is_reserved":false,"is_disabled":false,"rental_uris":{"android":"levelo://app?vid=284d2036-b32a-422c-94a7-a3276507cbd8","ios":"levelo://app?vid=284d2036-b32a-422c-94a7-a3276507cbd8"},"vehicle_type_id":"4","last_reported":1712941699,"current_range_meters":1200,"station_id":"ce4bh0h2rcd13ifvqd40","pricing_plan_id":"cebpf4jnsgd1na2vs0mg"},{"bike_id":"e5a41b73-0601-4b3e-9a9a-f8cfeba6dadd","system_id":"levelo_inurba_marseille","lat":43.29875,"lon":5.39729,"is_reserved":false,"is_disabled":false,"rental_uris":{"android":"levelo://app?vid=e5a41b73-0601-4b3e-9a9a-f8cfeba6dadd","ios":"levelo://app?vid=e5a41b73-0601-4b3e-9a9a-f8cfeba6dadd"},"vehicle_type_id":"4","last_reported":1712941699,"current_range_meters":0,"station_id":"ce4bh0h2rcd13ifvqd50","pricing_plan_id":"cebpf4jnsgd1na2vs0mg"},{"bike_id":"6b21051c-3dd9-46bb-aada-f6f832f03982","system_id":"levelo_inurba_marseille","lat":43.286593,"lon":5.363346,"is_reserved":false,"is_disabled":false,"rental_uris":{"android":"levelo://app?vid=6b21051c-3dd9-46bb-aada-f6f832f03982","ios":"levelo://app?vid=6b21051c-3dd9-46bb-aada-f6f832f03982"},"vehicle_type_id":"4","last_reported":1712941699,"current_range_meters":0,"station_id":"ce4bhah2rcd13ifvqej0","pricing_plan_id":"cebpf4jnsgd1na2vs0mg"},{"bike_id":"2ff14de7-45fd-4897-b17f-8024ffcc2f1e","system_id":"levelo_inurba_marseille","lat":43.295196,"lon":5.39397,"is_reserved":false,"is_disabled":false,"rental_uris":{"android":"levelo://app?vid=2ff14de7-45fd-4897-b17f-8024ffcc2f1e","ios":"levelo://app?vid=2ff14de7-45fd-4897-b17f-8024ffcc2f1e"},"vehicle_type_id":"4","last_reported":1712941699,"current_range_meters":11600,"station_id":"ce4bh292rcd13ifvqdf0","pricing_plan_id":"cebpf4jnsgd1na2vs0mg"},{"bike_id":"db167ee4-0ff3-4964-b9b9-ff6e616b906e","system_id":"levelo_inurba_marseille","lat":43.286961,"lon":5.373785,"is_reserved":false,"is_disabled":false,"rental_uris":{"android":"levelo://app?vid=db167ee4-0ff3-4964-b9b9-ff6e616b906e","ios":"levelo://app?vid=db167ee4-0ff3-4964-b9b9-ff6e616b906e"},"vehicle_type_id":"4","last_reported":1712941699,"current_range_meters":1600,"station_id":"ce4bh3p2rcd13ifvqdq0","pricing_plan_id":"cebpf4jnsgd1na2vs0mg"},{"bike_id":"49453e2c-7985-4052-b902-92f255f4c1ed","system_id":"levelo_inurba_marseille","lat":43.295196,"lon":5.39397,"is_reserved":false,"is_disabled":false,"rental_uris":{"android":"levelo://app?vid=49453e2c-7985-4052-b902-92f255f4c1ed","ios":"levelo://app?vid=49453e2c-7985-4052-b902-92f255f4c1ed"},"vehicle_type_id":"4","last_reported":1712941699,"current_range_meters":14800,"station_id":"ce4bh292rcd13ifvqdf0","pricing_plan_id":"cebpf4jnsgd1na2vs0mg"},{"bike_id":"4fbe6505-3b83-477a-8bb9-368b6e3b5094","system_id":"levelo_inurba_marseille","lat":43.29516,"lon":5.39402,"is_reserved":false,"is_disabled":false,"rental_uris":{"android":"levelo://app?vid=4fbe6505-3b83-477a-8bb9-368b6e3b5094","ios":"levelo://app?vid=4fbe6505-3b83-477a-8bb9-368b6e3b5094"},"vehicle_type_id":"4","last_reported":1712941699,"current_range_meters":0,"station_id":"ce4bh292rcd13ifvqdf0","pricing_plan_id":"cebpf4jnsgd1na2vs0mg"},{"bike_id":"d1d0d8c8-a7e1-4eed-b272-d5d51dff3c99","system_id":"levelo_inurba_marseille","lat":43.302759,"lon":5.400793,"is_reserved":false,"is_disabled":false,"rental_uris":{"android":"levelo://app?vid=d1d0d8c8-a7e1-4eed-b272-d5d51dff3c99","ios":"levelo://app?vid=d1d0d8c8-a7e1-4eed-b272-d5d51dff3c99"},"vehicle_type_id":"4","last_reported":1712941699,"current_range_meters":0,"station_id":"ce4bgvh2rcd13ifvqcs0","pricing_plan_id":"cebpf4jnsgd1na2vs0mg"},{"bike_id":"75281f02-a92c-4412-9948-d77a61b6b5e7","system_id":"levelo_inurba_marseille","lat":43.302759,"lon":5.400793,"is_reserved":false,"is_disabled":false,"rental_uris":{"android":"levelo://app?vid=75281f02-a92c-4412-9948-d77a61b6b5e7","ios":"levelo://app?vid=75281f02-a92c-4412-9948-d77a61b6b5e7"},"vehicle_type_id":"4","last_reported":1712941699,"current_range_meters":400,"station_id":"ce4bgvh2rcd13ifvqcs0","pricing_plan_id":"cebpf4jnsgd1na2vs0mg"},{"bike_id":"8a0a4126-da2c-4227-ac12-511be0f87b57","system_id":"levelo_inurba_marseille","lat":43.289307,"lon":5.38406,"is_reserved":false,"is_disabled":false,"rental_uris":{"android":"levelo://app?vid=8a0a4126-da2c-4227-ac12-511be0f87b57","ios":"levelo://app?vid=8a0a4126-da2c-4227-ac12-511be0f87b57"},"vehicle_type_id":"4","last_reported":1712941699,"current_range_meters":0,"station_id":"ce4bh612rcd13ifvqe6g","pricing_plan_id":"cebpf4jnsgd1na2vs0mg"},{"bike_id":"dcadf3c3-b550-4783-adc5-cec1659a2383","system_id":"levelo_inurba_marseille","lat":43.289307,"lon":5.38406,"is_reserved":false,"is_disabled":false,"rental_uris":{"android":"levelo://app?vid=dcadf3c3-b550-4783-adc5-cec1659a2383","ios":"levelo://app?vid=dcadf3c3-b550-4783-adc5-cec1659a2383"},"vehicle_type_id":"4","last_reported":1712941699,"current_range_meters":1600,"station_id":"ce4bh612rcd13ifvqe6g","pricing_plan_id":"cebpf4jnsgd1na2vs0mg"},{"bike_id":"44055a9e-ae7a-491d-b4f3-65a100ce0d80","system_id":"levelo_inurba_marseille","lat":43.286593,"lon":5.363346,"is_reserved":false,"is_disabled":false,"rental_uris":{"android":"levelo://app?vid=44055a9e-ae7a-491d-b4f3-65a100ce0d80","ios":"levelo://app?vid=44055a9e-ae7a-491d-b4f3-65a100ce0d80"},"vehicle_type_id":"4","last_reported":1712941699,"current_range_meters":4400,"station_id":"ce4bhah2rcd13ifvqej0","pricing_plan_id":"cebpf4jnsgd1na2vs0mg"},{"bike_id":"5c55b71c-b8f0-424d-908f-b2d1baf1b1b0","system_id":"levelo_inurba_marseille","lat":43.289307,"lon":5.38406,"is_reserved":false,"is_disabled":false,"rental_uris":{"android":"levelo://app?vid=5c55b71c-b8f0-424d-908f-b2d1baf1b1b0","ios":"levelo://app?vid=5c55b71c-b8f0-424d-908f-b2d1baf1b1b0"},"vehicle_type_id":"4","last_reported":1712941699,"current_range_meters":0,"station_id":"ce4bh612rcd13ifvqe6g","pricing_plan_id":"cebpf4jnsgd1na2vs0mg"},{"bike_id":"4e4d56c3-bdb5-4d48-8a39-8996391de563","system_id":"levelo_inurba_marseille","lat":43.303837,"lon":5.418724,"is_reserved":false,"is_disabled":false,"rental_uris":{"android":"levelo://app?vid=4e4d56c3-bdb5-4d48-8a39-8996391de563","ios":"levelo://app?vid=4e4d56c3-bdb5-4d48-8a39-8996391de563"},"vehicle_type_id":"4","last_reported":1712941699,"current_range_meters":21600,"station_id":"ce4bhop2rcd13ifvqh7g","pricing_plan_id":"cebpf4jnsgd1na2vs0mg"},{"bike_id":"3b070e4c-0a23-4ea0-a6e2-6cf74c248d29","system_id":"levelo_inurba_marseille","lat":43.302759,"lon":5.400793,"is_reserved":false,"is_disabled":false,"rental_uris":{"android":"levelo://app?vid=3b070e4c-0a23-4ea0-a6e2-6cf74c248d29","ios":"levelo://app?vid=3b070e4c-0a23-4ea0-a6e2-6cf74c248d29"},"vehicle_type_id":"4","last_reported":1712941699,"current_range_meters":800,"station_id":"ce4bgvh2rcd13ifvqcs0","pricing_plan_id":"cebpf4jnsgd1na2vs0mg"},{"bike_id":"e69cd15b-d64e-44ea-a202-9d9515260df2","system_id":"levelo_inurba_marseille","lat":43.286039,"lon":5.370681,"is_reserved":false,"is_disabled":false,"rental_uris":{"android":"levelo://app?vid=e69cd15b-d64e-44ea-a202-9d9515260df2","ios":"levelo://app?vid=e69cd15b-d64e-44ea-a202-9d9515260df2"},"vehicle_type_id":"4","last_reported":1712941699,"current_range_meters":3600,"station_id":"ce4bht12rcd13ifvqi60","pricing_plan_id":"cebpf4jnsgd1na2vs0mg"},{"bike_id":"86d2916e-2d93-46b1-8175-3bbc3e3c6249","system_id":"levelo_inurba_marseille","lat":43.287185,"lon":5.379373,"is_reserved":false,"is_disabled":false,"rental_uris":{"android":"levelo://app?vid=86d2916e-2d93-46b1-8175-3bbc3e3c6249","ios":"levelo://app?vid=86d2916e-2d93-46b1-8175-3bbc3e3c6249"},"vehicle_type_id":"4","last_reported":1712941699,"current_range_meters":1200,"station_id":"ce4bh9p2rcd13ifvqec0","pricing_plan_id":"cebpf4jnsgd1na2vs0mg"},{"bike_id":"882cc729-1273-433b-bc70-409fe035168e","system_id":"levelo_inurba_marseille","lat":43.287184,"lon":5.37937,"is_reserved":false,"is_disabled":false,"rental_uris":{"android":"levelo://app?vid=882cc729-1273-433b-bc70-409fe035168e","ios":"levelo://app?vid=882cc729-1273-433b-bc70-409fe035168e"},"vehicle_type_id":"4","last_reported":1712941699,"current_range_meters":0,"station_id":"ce4bh9p2rcd13ifvqec0","pricing_plan_id":"cebpf4jnsgd1na2vs0mg"},{"bike_id":"5735c490-e35f-4bd9-8e22-c773d74907fc","system_id":"levelo_inurba_marseille","lat":43.283998,"lon":5.375062,"is_reserved":false,"is_disabled":false,"rental_uris":{"android":"levelo://app?vid=5735c490-e35f-4bd9-8e22-c773d74907fc","ios":"levelo://app?vid=5735c490-e35f-4bd9-8e22-c773d74907fc"},"vehicle_type_id":"4","last_reported":1712941699,"current_range_meters":0,"station_id":"ce4bh412rcd13ifvqds0","pricing_plan_id":"cebpf4jnsgd1na2vs0mg"},{"bike_id":"4d4eb0a9-d5c6-4ddc-aba9-1e1de2227cce","system_id":"levelo_inurba_marseille","lat":43.316828,"lon":5.404723,"is_reserved":false,"is_disabled":false,"rental_uris":{"android":"levelo://app?vid=4d4eb0a9-d5c6-4ddc-aba9-1e1de2227cce","ios":"levelo://app?vid=4d4eb0a9-d5c6-4ddc-aba9-1e1de2227cce"},"vehicle_type_id":"4","last_reported":1712941699,"current_range_meters":6400,"station_id":"ce4bh012rcd13ifvqd00","pricing_plan_id":"cebpf4jnsgd1na2vs0mg"},{"bike_id":"433f23aa-e954-43ca-8463-7928d16eaaaf","system_id":"levelo_inurba_marseille","lat":43.295647,"lon":5.39761,"is_reserved":false,"is_disabled":false,"rental_uris":{"android":"levelo://app?vid=433f23aa-e954-43ca-8463-7928d16eaaaf","ios":"levelo://app?vid=433f23aa-e954-43ca-8463-7928d16eaaaf"},"vehicle_type_id":"4","last_reported":1712941699,"current_range_meters":0,"station_id":"","pricing_plan_id":"cebpf4jnsgd1na2vs0mg"},{"bike_id":"08fd1846-09f3-47bf-bfa8-21e0c970f426","system_id":"levelo_inurba_marseille","lat":43.29198,"lon":5.39318,"is_reserved":false,"is_disabled":false,"rental_uris":{"android":"levelo://app?vid=08fd1846-09f3-47bf-bfa8-21e0c970f426","ios":"levelo://app?vid=08fd1846-09f3-47bf-bfa8-21e0c970f426"},"vehicle_type_id":"4","last_reported":1712941699,"current_range_meters":0,"station_id":"ce4bh192rcd13ifvqdd0","pricing_plan_id":"cebpf4jnsgd1na2vs0mg"},{"bike_id":"1626ab45-8ecb-4a9d-b638-aee74694bec0","system_id":"levelo_inurba_marseille","lat":43.291994,"lon":5.392907,"is_reserved":false,"is_disabled":false,"rental_uris":{"android":"levelo://app?vid=1626ab45-8ecb-4a9d-b638-aee74694bec0","ios":"levelo://app?vid=1626ab45-8ecb-4a9d-b638-aee74694bec0"},"vehicle_type_id":"4","last_reported":1712941699,"current_range_meters":3600,"station_id":"ce4bh192rcd13ifvqdd0","pricing_plan_id":"cebpf4jnsgd1na2vs0mg"},{"bike_id":"613191ea-ab96-4931-9686-238de5751c63","system_id":"levelo_inurba_marseille","lat":43.29472,"lon":5.39741,"is_reserved":false,"is_disabled":false,"rental_uris":{"android":"levelo://app?vid=613191ea-ab96-4931-9686-238de5751c63","ios":"levelo://app?vid=613191ea-ab96-4931-9686-238de5751c63"},"vehicle_type_id":"4","last_reported":1712941699,"current_range_meters":13600,"station_id":"","pricing_plan_id":"cebpf4jnsgd1na2vs0mg"},{"bike_id":"6e3bdff8-fc73-4225-b0c5-141232bec75f","system_id":"levelo_inurba_marseille","lat":43.284538,"lon":5.358657,"is_reserved":false,"is_disabled":false,"rental_uris":{"android":"levelo://app?vid=6e3bdff8-fc73-4225-b0c5-141232bec75f","ios":"levelo://app?vid=6e3bdff8-fc73-4225-b0c5-141232bec75f"},"vehicle_type_id":"4","last_reported":1712941699,"current_range_meters":5200,"station_id":"ce4bhah2rcd13ifvqei0","pricing_plan_id":"cebpf4jnsgd1na2vs0mg"},{"bike_id":"e51468a5-1d09-40e8-a331-b7d511f9f4af","system_id":"levelo_inurba_marseille","lat":43.284538,"lon":5.358657,"is_reserved":false,"is_disabled":false,"rental_uris":{"android":"levelo://app?vid=e51468a5-1d09-40e8-a331-b7d511f9f4af","ios":"levelo://app?vid=e51468a5-1d09-40e8-a331-b7d511f9f4af"},"vehicle_type_id":"4","last_reported":1712941699,"current_range_meters":3200,"station_id":"ce4bhah2rcd13ifvqei0","pricing_plan_id":"cebpf4jnsgd1na2vs0mg"},{"bike_id":"14fc4820-2fa0-47fb-a313-ec956acc2014","system_id":"levelo_inurba_marseille","lat":43.2846,"lon":5.35879,"is_reserved":false,"is_disabled":false,"rental_uris":{"android":"levelo://app?vid=14fc4820-2fa0-47fb-a313-ec956acc2014","ios":"levelo://app?vid=14fc4820-2fa0-47fb-a313-ec956acc2014"},"vehicle_type_id":"4","last_reported":1712941699,"current_range_meters":0,"station_id":"ce4bhah2rcd13ifvqei0","pricing_plan_id":"cebpf4jnsgd1na2vs0mg"},{"bike_id":"23c34701-71d3-48d6-b183-e352882ff870","system_id":"levelo_inurba_marseille","lat":43.285856,"lon":5.350771,"is_reserved":false,"is_disabled":false,"rental_uris":{"android":"levelo://app?vid=23c34701-71d3-48d6-b183-e352882ff870","ios":"levelo://app?vid=23c34701-71d3-48d6-b183-e352882ff870"},"vehicle_type_id":"4","last_reported":1712941699,"current_range_meters":21200,"station_id":"ce4bhch2rcd13ifvqeug","pricing_plan_id":"cebpf4jnsgd1na2vs0mg"},{"bike_id":"e1691934-aff8-4fa2-9799-21f6d551e112","system_id":"levelo_inurba_marseille","lat":43.28621,"lon":5.35106,"is_reserved":false,"is_disabled":false,"rental_uris":{"android":"levelo://app?vid=e1691934-aff8-4fa2-9799-21f6d551e112","ios":"levelo://app?vid=e1691934-aff8-4fa2-9799-21f6d551e112"},"vehicle_type_id":"4","last_reported":1712941699,"current_range_meters":6400,"station_id":"ce4bhch2rcd13ifvqeug","pricing_plan_id":"cebpf4jnsgd1na2vs0mg"},{"bike_id":"601543cc-2dce-455a-a61e-d6f91d9de88e","system_id":"levelo_inurba_marseille","lat":43.28621,"lon":5.35104,"is_reserved":false,"is_disabled":false,"rental_uris":{"android":"levelo://app?vid=601543cc-2dce-455a-a61e-d6f91d9de88e","ios":"levelo://app?vid=601543cc-2dce-455a-a61e-d6f91d9de88e"},"vehicle_type_id":"4","last_reported":1712941699,"current_range_meters":6800,"station_id":"ce4bhch2rcd13ifvqeug","pricing_plan_id":"cebpf4jnsgd1na2vs0mg"},{"bike_id":"6eaa851c-f63f-43eb-8f99-dbd7bd3df560","system_id":"levelo_inurba_marseille","lat":43.28622,"lon":5.35097,"is_reserved":false,"is_disabled":false,"rental_uris":{"android":"levelo://app?vid=6eaa851c-f63f-43eb-8f99-dbd7bd3df560","ios":"levelo://app?vid=6eaa851c-f63f-43eb-8f99-dbd7bd3df560"},"vehicle_type_id":"4","last_reported":1712941699,"current_range_meters":30400,"station_id":"ce4bhch2rcd13ifvqeug","pricing_plan_id":"cebpf4jnsgd1na2vs0mg"},{"bike_id":"6bedf795-13ea-46f0-97bf-442b4be7d64f","system_id":"levelo_inurba_marseille","lat":43.28618,"lon":5.35109,"is_reserved":false,"is_disabled":false,"rental_uris":{"android":"levelo://app?vid=6bedf795-13ea-46f0-97bf-442b4be7d64f","ios":"levelo://app?vid=6bedf795-13ea-46f0-97bf-442b4be7d64f"},"vehicle_type_id":"4","last_reported":1712941699,"current_range_meters":0,"station_id":"ce4bhch2rcd13ifvqeug","pricing_plan_id":"cebpf4jnsgd1na2vs0mg"},{"bike_id":"25525f5b-0d08-4b79-8d2b-466d379abd8a","system_id":"levelo_inurba_marseille","lat":43.28619,"lon":5.35104,"is_reserved":false,"is_disabled":false,"rental_uris":{"android":"levelo://app?vid=25525f5b-0d08-4b79-8d2b-466d379abd8a","ios":"levelo://app?vid=25525f5b-0d08-4b79-8d2b-466d379abd8a"},"vehicle_type_id":"4","last_reported":1712941699,"current_range_meters":16800,"station_id":"ce4bhch2rcd13ifvqeug","pricing_plan_id":"cebpf4jnsgd1na2vs0mg"},{"bike_id":"d28c1308-e584-4482-b827-a28e8580ebec","system_id":"levelo_inurba_marseille","lat":43.285856,"lon":5.350771,"is_reserved":false,"is_disabled":false,"rental_uris":{"android":"levelo://app?vid=d28c1308-e584-4482-b827-a28e8580ebec","ios":"levelo://app?vid=d28c1308-e584-4482-b827-a28e8580ebec"},"vehicle_type_id":"4","last_reported":1712941699,"current_range_meters":31200,"station_id":"ce4bhch2rcd13ifvqeug","pricing_plan_id":"cebpf4jnsgd1na2vs0mg"},{"bike_id":"b06f486a-e036-4a2e-8fb6-71f76cc2995a","system_id":"levelo_inurba_marseille","lat":43.286183,"lon":5.35104,"is_reserved":false,"is_disabled":false,"rental_uris":{"android":"levelo://app?vid=b06f486a-e036-4a2e-8fb6-71f76cc2995a","ios":"levelo://app?vid=b06f486a-e036-4a2e-8fb6-71f76cc2995a"},"vehicle_type_id":"4","last_reported":1712941699,"current_range_meters":16000,"station_id":"ce4bhch2rcd13ifvqeug","pricing_plan_id":"cebpf4jnsgd1na2vs0mg"},{"bike_id":"87cca2f7-958b-41ea-989b-2ffec133006a","system_id":"levelo_inurba_marseille","lat":43.28618,"lon":5.35104,"is_reserved":false,"is_disabled":false,"rental_uris":{"android":"levelo://app?vid=87cca2f7-958b-41ea-989b-2ffec133006a","ios":"levelo://app?vid=87cca2f7-958b-41ea-989b-2ffec133006a"},"vehicle_type_id":"4","last_reported":1712941699,"current_range_meters":12400,"station_id":"ce4bhch2rcd13ifvqeug","pricing_plan_id":"cebpf4jnsgd1na2vs0mg"},{"bike_id":"4429b22d-b5bb-4ea4-99ce-d41b2dba4170","system_id":"levelo_inurba_marseille","lat":43.28616,"lon":5.35105,"is_reserved":false,"is_disabled":false,"rental_uris":{"android":"levelo://app?vid=4429b22d-b5bb-4ea4-99ce-d41b2dba4170","ios":"levelo://app?vid=4429b22d-b5bb-4ea4-99ce-d41b2dba4170"},"vehicle_type_id":"4","last_reported":1712941699,"current_range_meters":9600,"station_id":"ce4bhch2rcd13ifvqeug","pricing_plan_id":"cebpf4jnsgd1na2vs0mg"},{"bike_id":"566f6609-24e5-4ac2-9257-2c9281f9a384","system_id":"levelo_inurba_marseille","lat":43.28616,"lon":5.35104,"is_reserved":false,"is_disabled":false,"rental_uris":{"android":"levelo://app?vid=566f6609-24e5-4ac2-9257-2c9281f9a384","ios":"levelo://app?vid=566f6609-24e5-4ac2-9257-2c9281f9a384"},"vehicle_type_id":"4","last_reported":1712941699,"current_range_meters":12000,"station_id":"ce4bhch2rcd13ifvqeug","pricing_plan_id":"cebpf4jnsgd1na2vs0mg"},{"bike_id":"8a555876-8732-47cc-80aa-e5dce20d6424","system_id":"levelo_inurba_marseille","lat":43.285856,"lon":5.350771,"is_reserved":false,"is_disabled":false,"rental_uris":{"android":"levelo://app?vid=8a555876-8732-47cc-80aa-e5dce20d6424","ios":"levelo://app?vid=8a555876-8732-47cc-80aa-e5dce20d6424"},"vehicle_type_id":"4","last_reported":1712941699,"current_range_meters":31200,"station_id":"ce4bhch2rcd13ifvqeug","pricing_plan_id":"cebpf4jnsgd1na2vs0mg"},{"bike_id":"5616a614-c750-4791-a313-6775e61e1e43","system_id":"levelo_inurba_marseille","lat":43.28616,"lon":5.35102,"is_reserved":false,"is_disabled":false,"rental_uris":{"android":"levelo://app?vid=5616a614-c750-4791-a313-6775e61e1e43","ios":"levelo://app?vid=5616a614-c750-4791-a313-6775e61e1e43"},"vehicle_type_id":"4","last_reported":1712941699,"current_range_meters":25200,"station_id":"ce4bhch2rcd13ifvqeug","pricing_plan_id":"cebpf4jnsgd1na2vs0mg"},{"bike_id":"e2a1ecaf-39f0-47af-93e2-8c5f27cf9d3d","system_id":"levelo_inurba_marseille","lat":43.28614,"lon":5.35099,"is_reserved":false,"is_disabled":false,"rental_uris":{"android":"levelo://app?vid=e2a1ecaf-39f0-47af-93e2-8c5f27cf9d3d","ios":"levelo://app?vid=e2a1ecaf-39f0-47af-93e2-8c5f27cf9d3d"},"vehicle_type_id":"4","last_reported":1712941699,"current_range_meters":16800,"station_id":"ce4bhch2rcd13ifvqeug","pricing_plan_id":"cebpf4jnsgd1na2vs0mg"},{"bike_id":"6e8a8c60-d1b3-4dbd-b236-5f9667612dc7","system_id":"levelo_inurba_marseille","lat":43.28612,"lon":5.35105,"is_reserved":false,"is_disabled":false,"rental_uris":{"android":"levelo://app?vid=6e8a8c60-d1b3-4dbd-b236-5f9667612dc7","ios":"levelo://app?vid=6e8a8c60-d1b3-4dbd-b236-5f9667612dc7"},"vehicle_type_id":"4","last_reported":1712941699,"current_range_meters":24000,"station_id":"ce4bhch2rcd13ifvqeug","pricing_plan_id":"cebpf4jnsgd1na2vs0mg"},{"bike_id":"e5a75a09-68b8-4887-9d8f-c1bf116d1092","system_id":"levelo_inurba_marseille","lat":43.28614,"lon":5.35098,"is_reserved":false,"is_disabled":false,"rental_uris":{"android":"levelo://app?vid=e5a75a09-68b8-4887-9d8f-c1bf116d1092","ios":"levelo://app?vid=e5a75a09-68b8-4887-9d8f-c1bf116d1092"},"vehicle_type_id":"4","last_reported":1712941699,"current_range_meters":26800,"station_id":"ce4bhch2rcd13ifvqeug","pricing_plan_id":"cebpf4jnsgd1na2vs0mg"},{"bike_id":"b1d814aa-d8e4-4e0c-a0d8-3e3a9dc5272b","system_id":"levelo_inurba_marseille","lat":43.28612,"lon":5.35103,"is_reserved":false,"is_disabled":false,"rental_uris":{"android":"levelo://app?vid=b1d814aa-d8e4-4e0c-a0d8-3e3a9dc5272b","ios":"levelo://app?vid=b1d814aa-d8e4-4e0c-a0d8-3e3a9dc5272b"},"vehicle_type_id":"4","last_reported":1712941699,"current_range_meters":0,"station_id":"ce4bhch2rcd13ifvqeug","pricing_plan_id":"cebpf4jnsgd1na2vs0mg"},{"bike_id":"f9aca815-d1fd-40e9-9e42-37023f47862b","system_id":"levelo_inurba_marseille","lat":43.291994,"lon":5.392907,"is_reserved":false,"is_disabled":false,"rental_uris":{"android":"levelo://app?vid=f9aca815-d1fd-40e9-9e42-37023f47862b","ios":"levelo://app?vid=f9aca815-d1fd-40e9-9e42-37023f47862b"},"vehicle_type_id":"4","last_reported":1712941699,"current_range_meters":0,"station_id":"ce4bh192rcd13ifvqdd0","pricing_plan_id":"cebpf4jnsgd1na2vs0mg"},{"bike_id":"5c6a563e-d48d-4172-ad30-be103da5ad02","system_id":"levelo_inurba_marseille","lat":43.283998,"lon":5.375062,"is_reserved":false,"is_disabled":false,"rental_uris":{"android":"levelo://app?vid=5c6a563e-d48d-4172-ad30-be103da5ad02","ios":"levelo://app?vid=5c6a563e-d48d-4172-ad30-be103da5ad02"},"vehicle_type_id":"4","last_reported":1712941699,"current_range_meters":0,"station_id":"ce4bh412rcd13ifvqds0","pricing_plan_id":"cebpf4jnsgd1na2vs0mg"},{"bike_id":"b0a3384b-f5fc-4740-8496-f724d96b24b6","system_id":"levelo_inurba_marseille","lat":43.295713,"lon":5.399639,"is_reserved":false,"is_disabled":false,"rental_uris":{"android":"levelo://app?vid=b0a3384b-f5fc-4740-8496-f724d96b24b6","ios":"levelo://app?vid=b0a3384b-f5fc-4740-8496-f724d96b24b6"},"vehicle_type_id":"4","last_reported":1712941699,"current_range_meters":6000,"station_id":"ce4bh312rcd13ifvqdj0","pricing_plan_id":"cebpf4jnsgd1na2vs0mg"},{"bike_id":"1045ef38-7be3-470b-acf7-b7ffe9ecddeb","system_id":"levelo_inurba_marseille","lat":43.295713,"lon":5.399639,"is_reserved":false,"is_disabled":false,"rental_uris":{"android":"levelo://app?vid=1045ef38-7be3-470b-acf7-b7ffe9ecddeb","ios":"levelo://app?vid=1045ef38-7be3-470b-acf7-b7ffe9ecddeb"},"vehicle_type_id":"4","last_reported":1712941699,"current_range_meters":800,"station_id":"ce4bh312rcd13ifvqdj0","pricing_plan_id":"cebpf4jnsgd1na2vs0mg"},{"bike_id":"fa5c071f-fd66-44cd-aa4a-16c7fbed2c86","system_id":"levelo_inurba_marseille","lat":43.283941,"lon":5.375103,"is_reserved":false,"is_disabled":false,"rental_uris":{"android":"levelo://app?vid=fa5c071f-fd66-44cd-aa4a-16c7fbed2c86","ios":"levelo://app?vid=fa5c071f-fd66-44cd-aa4a-16c7fbed2c86"},"vehicle_type_id":"4","last_reported":1712941699,"current_range_meters":0,"station_id":"ce4bh412rcd13ifvqds0","pricing_plan_id":"cebpf4jnsgd1na2vs0mg"},{"bike_id":"c55c14d9-a75f-440e-b3b1-11e05a51300e","system_id":"levelo_inurba_marseille","lat":43.283998,"lon":5.375062,"is_reserved":false,"is_disabled":false,"rental_uris":{"android":"levelo://app?vid=c55c14d9-a75f-440e-b3b1-11e05a51300e","ios":"levelo://app?vid=c55c14d9-a75f-440e-b3b1-11e05a51300e"},"vehicle_type_id":"4","last_reported":1712941699,"current_range_meters":0,"station_id":"ce4bh412rcd13ifvqds0","pricing_plan_id":"cebpf4jnsgd1na2vs0mg"},