{"last_updated":1747552123,"ttl":60,"version":"2.2","data":{"bikes":[{"bike_id":"4629b8b4-4639-47a7-8c98-07518a3e2778","system_id":"levelo_inurba_marseille","lat":43.26031,"lon":5.37544,"is_reserved":false,"is_disabled":false,"rental_uris":{"android":"levelo://app?vid=4629b8b4-4639-47a7-8c98-07518a3e2778","ios":"levelo://app?vid=4629b8b4-4639-47a7-8c98-07518a3e2778"},"vehicle_type_id":"4","last_reported":1747552123,"current_range_meters":2800,"station_id":"ce4bhgh2rcd13ifvqfa0","pricing_plan_id":"cebpf4jnsgd1na2vs0mg"},{"bike_id":"9f0c1fb2-960c-4ed7-992e-e8d2729e9fd5","system_id":"levelo_inurba_marseille","lat":43.30805,"lon":5.38161,"is_reserved":false,"is_disabled":false,"rental_uris":{"android":"levelo://app?vid=9f0c1fb2-960c-4ed7-992e-e8d2729e9fd5","ios":"levelo://app?vid=9f0c1fb2-960c-4ed7-992e-e8d2729e9fd5"},"vehicle_type_id":"4","last_reported":1747552123,"current_range_meters":2800,"station_id":"ce4bgt12rcd13ifvqce0","pricing_plan_id":"cebpf4jnsgd1na2vs0mg"},{"bike_id":"6e612e7b-28be-478c-9618-97651a5de57b","system_id":"levelo_inurba_marseille","lat":43.24693,"lon":5.39537,"is_reserved":false,"is_disabled":false,"rental_uris":{"android":"levelo://app?vid=6e612e7b-28be-478c-9618-97651a5de57b","ios":"levelo://app?vid=6e612e7b-28be-478c-9618-97651a5de57b"},"vehicle_type_id":"4","last_reported":1747552123,"current_range_meters":3200,"station_id":"","pricing_plan_id":"cebpf4jnsgd1na2vs0mg"},{"bike_id":"ab7c2cbf-d2a6-486b-adbe-731d3f7954f0","system_id":"levelo_inurba_marseille","lat":43.30301,"lon":5.39231,"is_reserved":false,"is_disabled":true,"rental_uris":{"android":"levelo://app?vid=ab7c2cbf-d2a6-486b-adbe-731d3f7954f0","ios":"levelo://app?vid=ab7c2cbf-d2a6-486b-adbe-731d3f7954f0"},"vehicle_type_id":"4","last_reported":1747552123,"current_range_meters":3200,"station_id":"ce4bgkh2rcd13ifvqbk0","pricing_plan_id":"cebpf4jnsgd1na2vs0mg"},{"bike_id":"3200028d-adb7-46d7-854a-0d16d1a6f998","system_id":"levelo_inurba_marseille","lat":43.29798,"lon":5.38103,"is_reserved":false,"is_disabled":true,"rental_uris":{"android":"levelo://app?vid=3200028d-adb7-46d7-854a-0d16d1a6f998","ios":"levelo://app?vid=3200028d-adb7-46d7-854a-0d16d1a6f998"},"vehicle_type_id":"4","last_reported":1747552123,"current_range_meters":3600,"station_id":"ce4bgip2rcd13ifvqbb0","pricing_plan_id":"cebpf4jnsgd1na2vs0mg"},{"bike_id":"440ae94b-2d73-4f33-98f4-1a21eef1edba","system_id":"levelo_inurba_marseille","lat":43.26546,"lon":5.37298,"is_reserved":false,"is_disabled":false,"rental_uris":{"android":"levelo://app?vid=440ae94b-2d73-4f33-98f4-1a21eef1edba","ios":"levelo://app?vid=440ae94b-2d73-4f33-98f4-1a21eef1edba"},"vehicle_type_id":"4","last_reported":1747552123,"current_range_meters":3600,"station_id":"ce4bhg12rcd13ifvqf70","pricing_plan_id":"cebpf4jnsgd1na2vs0mg"},{"bike_id":"c6af509c-e30d-4e63-9de6-6f238c80ed2c","system_id":"levelo_inurba_marseille","lat":43.31714,"lon":5.40447,"is_reserved":false,"is_disabled":false,"rental_uris":{"android":"levelo://app?vid=c6af509c-e30d-4e63-9de6-6f238c80ed2c","ios":"levelo://app?vid=c6af509c-e30d-4e63-9de6-6f238c80ed2c"},"vehicle_type_id":"4","last_reported":1747552123,"current_range_meters":3600,"station_id":"ce4bh012rcd13ifvqd00","pricing_plan_id":"cebpf4jnsgd1na2vs0mg"},{"bike_id":"5e16ea8f-95fb-446c-ab51-fae1112c0aff","system_id":"levelo_inurba_marseille","lat":43.25935,"lon":5.40899,"is_reserved":false,"is_disabled":false,"rental_uris":{"android":"levelo://app?vid=5e16ea8f-95fb-446c-ab51-fae1112c0aff","ios":"levelo://app?vid=5e16ea8f-95fb-446c-ab51-fae1112c0aff"},"vehicle_type_id":"4","last_reported":1747552123,"current_range_meters":3600,"station_id":"ce4bhm92rcd13ifvqglg","pricing_plan_id":"cebpf4jnsgd1na2vs0mg"},{"bike_id":"6658a317-2c85-4f72-b81a-fe1f5c7392e1","system_id":"levelo_inurba_marseille","lat":43.245441,"lon":5.395221,"is_reserved":false,"is_disabled":false,"rental_uris":{"android":"levelo://app?vid=6658a317-2c85-4f72-b81a-fe1f5c7392e1","ios":"levelo://app?vid=6658a317-2c85-4f72-b81a-fe1f5c7392e1"},"vehicle_type_id":"4","last_reported":1747552123,"current_range_meters":3600,"station_id":"ce4bhlp2rcd13ifvqgjg","pricing_plan_id":"cebpf4jnsgd1na2vs0mg"},{"bike_id":"a4063de7-3465-4b39-9bf8-ef1a75de7c2d","system_id":"levelo_inurba_marseille","lat":43.28555,"lon":5.46094,"is_reserved":false,"is_disabled":false,"rental_uris":{"android":"levelo://app?vid=a4063de7-3465-4b39-9bf8-ef1a75de7c2d","ios":"levelo://app?vid=a4063de7-3465-4b39-9bf8-ef1a75de7c2d"},"vehicle_type_id":"4","last_reported":1747552123,"current_range_meters":3600,"station_id":"","pricing_plan_id":"cebpf4jnsgd1na2vs0mg"},{"bike_id":"44953568-b48b-4665-a85b-d42a09e1a988","system_id":"levelo_inurba_marseille","lat":43.26061,"lon":5.39389,"is_reserved":false,"is_disabled":false,"rental_uris":{"android":"levelo://app?vid=44953568-b48b-4665-a85b-d42a09e1a988","ios":"levelo://app?vid=44953568-b48b-4665-a85b-d42a09e1a988"},"vehicle_type_id":"4","last_reported":1747552123,"current_range_meters":3600,"station_id":"ce4bhh92rcd13ifvqfj0","pricing_plan_id":"cebpf4jnsgd1na2vs0mg"},{"bike_id":"dd3aa487-2f2c-45ed-be0f-fdd7021d2d16","system_id":"levelo_inurba_marseille","lat":43.30459,"lon":5.37897,"is_reserved":false,"is_disabled":false,"rental_uris":{"android":"levelo://app?vid=dd3aa487-2f2c-45ed-be0f-fdd7021d2d16","ios":"levelo://app?vid=dd3aa487-2f2c-45ed-be0f-fdd7021d2d16"},"vehicle_type_id":"4","last_reported":1747552123,"current_range_meters":4000,"station_id":"ce4bgup2rcd13ifvqcn0","pricing_plan_id":"cebpf4jnsgd1na2vs0mg"},{"bike_id":"343caff8-66ae-48de-8ad2-12268cecda98","system_id":"levelo_inurba_marseille","lat":43.24166,"lon":5.36443,"is_reserved":false,"is_disabled":false,"rental_uris":{"android":"levelo://app?vid=343caff8-66ae-48de-8ad2-12268cecda98","ios":"levelo://app?vid=343caff8-66ae-48de-8ad2-12268cecda98"},"vehicle_type_id":"4","last_reported":1747552123,"current_range_meters":3600,"station_id":"cpo36qri1sfpv3e86is0","pricing_plan_id":"cebpf4jnsgd1na2vs0mg"},{"bike_id":"e5faa87c-800f-4c13-bb95-4090fd787427","system_id":"levelo_inurba_marseille","lat":43.23319,"lon":5.39961,"is_reserved":false,"is_disabled":false,"rental_uris":{"android":"levelo://app?vid=e5faa87c-800f-4c13-bb95-4090fd787427","ios":"levelo://app?vid=e5faa87c-800f-4c13-bb95-4090fd787427"},"vehicle_type_id":"4","last_reported":1747552123,"current_range_meters":3600,"station_id":"","pricing_plan_id":"cebpf4jnsgd1na2vs0mg"},{"bike_id":"61d97dca-c1b9-4058-b0f9-5c4be17ad254","system_id":"levelo_inurba_marseille","lat":43.262,"lon":5.40392,"is_reserved":false,"is_disabled":false,"rental_uris":{"android":"levelo://app?vid=61d97dca-c1b9-4058-b0f9-5c4be17ad254","ios":"levelo://app?vid=61d97dca-c1b9-4058-b0f9-5c4be17ad254"},"vehicle_type_id":"4","last_reported":1747552123,"current_range_meters":3600,"station_id":"ce4bhmh2rcd13ifvqgmg","pricing_plan_id":"cebpf4jnsgd1na2vs0mg"},{"bike_id":"1676ddb4-29a5-4180-a7d8-067d530fbaf5","system_id":"levelo_inurba_marseille","lat":43.2881,"lon":5.35927,"is_reserved":false,"is_disabled":false,"rental_uris":{"android":"levelo://app?vid=1676ddb4-29a5-4180-a7d8-067d530fbaf5","ios":"levelo://app?vid=1676ddb4-29a5-4180-a7d8-067d530fbaf5"},"vehicle_type_id":"4","last_reported":1747552123,"current_range_meters":3600,"station_id":"","pricing_plan_id":"cebpf4jnsgd1na2vs0mg"},{"bike_id":"9dd0dc4e-2f10-4b94-9194-fefea78e6d31","system_id":"levelo_inurba_marseille","lat":43.29575,"lon":5.42283,"is_reserved":false,"is_disabled":false,"rental_uris":{"android":"levelo://app?vid=9dd0dc4e-2f10-4b94-9194-fefea78e6d31","ios":"levelo://app?vid=9dd0dc4e-2f10-4b94-9194-fefea78e6d31"},"vehicle_type_id":"4","last_reported":1747552123,"current_range_meters":4000,"station_id":"ce4bhph2rcd13ifvqhdg","pricing_plan_id":"cebpf4jnsgd1na2vs0mg"},{"bike_id":"1149469f-7f78-4eec-8ed1-2a7e28f37ee2","system_id":"levelo_inurba_marseille","lat":43.30139,"lon":5.39879,"is_reserved":false,"is_disabled":false,"rental_uris":{"android":"levelo://app?vid=1149469f-7f78-4eec-8ed1-2a7e28f37ee2","ios":"levelo://app?vid=1149469f-7f78-4eec-8ed1-2a7e28f37ee2"},"vehicle_type_id":"4","last_reported":1747552123,"current_range_meters":3600,"station_id":"ce4bh0h2rcd13ifvqd40","pricing_plan_id":"cebpf4jnsgd1na2vs0mg"},{"bike_id":"6d500971-4353-4229-b3cf-3802b55a172e","system_id":"levelo_inurba_marseille","lat":43.255937,"lon":5.382937,"is_reserved":false,"is_disabled":false,"rental_uris":{"android":"levelo://app?vid=6d500971-4353-4229-b3cf-3802b55a172e","ios":"levelo://app?vid=6d500971-4353-4229-b3cf-3802b55a172e"},"vehicle_type_id":"4","last_reported":1747552123,"current_range_meters":4400,"station_id":"","pricing_plan_id":"cebpf4jnsgd1na2vs0mg"},{"bike_id":"d48616d5-ae66-45d0-bc66-1075a9179bf3","system_id":"levelo_inurba_marseille","lat":43.30476,"lon":5.37907,"is_reserved":false,"is_disabled":false,"rental_uris":{"android":"levelo://app?vid=d48616d5-ae66-45d0-bc66-1075a9179bf3","ios":"levelo://app?vid=d48616d5-ae66-45d0-bc66-1075a9179bf3"},"vehicle_type_id":"4","last_reported":1747552123,"current_range_meters":4400,"station_id":"ce4bgup2rcd13ifvqcn0","pricing_plan_id":"cebpf4jnsgd1na2vs0mg"},{"bike_id":"3fa58c22-00c6-48db-914d-ec2861a3d890","system_id":"levelo_inurba_marseille","lat":43.310805,"lon":5.402316,"is_reserved":false,"is_disabled":false,"rental_uris":{"android":"levelo://app?vid=3fa58c22-00c6-48db-914d-ec2861a3d890","ios":"levelo://app?vid=3fa58c22-00c6-48db-914d-ec2861a3d890"},"vehicle_type_id":"4","last_reported":1747552123,"current_range_meters":4400,"station_id":"","pricing_plan_id":"cebpf4jnsgd1na2vs0mg"},{"bike_id":"bdea0a22-3926-4c76-a2cd-cf0a156c74ba","system_id":"levelo_inurba_marseille","lat":43.29613,"lon":5.37731,"is_reserved":false,"is_disabled":false,"rental_uris":{"android":"levelo://app?vid=bdea0a22-3926-4c76-a2cd-cf0a156c74ba","ios":"levelo://app?vid=bdea0a22-3926-4c76-a2cd-cf0a156c74ba"},"vehicle_type_id":"4","last_reported":1747552123,"current_range_meters":4800,"station_id":"ce4bgi92rcd13ifvqb90","pricing_plan_id":"cebpf4jnsgd1na2vs0mg"},{"bike_id":"6cd5c425-f8ac-4068-b8ea-a8bfbef29ee5","system_id":"levelo_inurba_marseille","lat":43.24995,"lon":5.37965,"is_reserved":false,"is_disabled":false,"rental_uris":{"android":"levelo://app?vid=6cd5c425-f8ac-4068-b8ea-a8bfbef29ee5","ios":"levelo://app?vid=6cd5c425-f8ac-4068-b8ea-a8bfbef29ee5"},"vehicle_type_id":"4","last_reported":1747552123,"current_range_meters":4800,"station_id":"","pricing_plan_id":"cebpf4jnsgd1na2vs0mg"},{"bike_id":"4d8c250d-3928-4865-ae84-e1d02ffdbb75","system_id":"levelo_inurba_marseille","lat":43.286973,"lon":5.399845,"is_reserved":false,"is_disabled":false,"rental_uris":{"android":"levelo://app?vid=4d8c250d-3928-4865-ae84-e1d02ffdbb75","ios":"levelo://app?vid=4d8c250d-3928-4865-ae84-e1d02ffdbb75"},"vehicle_type_id":"4","last_reported":1747552123,"current_range_meters":4800,"station_id":"ce4bho92rcd13ifvqh3g","pricing_plan_id":"cebpf4jnsgd1na2vs0mg"},{"bike_id":"394cadcc-3a78-4403-9bfc-1006acf0fb23","system_id":"levelo_inurba_marseille","lat":43.262002,"lon":5.379202,"is_reserved":false,"is_disabled":true,"rental_uris":{"android":"levelo://app?vid=394cadcc-3a78-4403-9bfc-1006acf0fb23","ios":"levelo://app?vid=394cadcc-3a78-4403-9bfc-1006acf0fb23"},"vehicle_type_id":"4","last_reported":1747552123,"current_range_meters":5600,"station_id":"ce4bhjp2rcd13ifvqg90","pricing_plan_id":"cebpf4jnsgd1na2vs0mg"},{"bike_id":"e2fc8af1-f5b5-4887-bcc2-61f17df64fdc","system_id":"levelo_inurba_marseille","lat":43.24666,"lon":5.38151,"is_reserved":false,"is_disabled":false,"rental_uris":{"android":"levelo://app?vid=e2fc8af1-f5b5-4887-bcc2-61f17df64fdc","ios":"levelo://app?vid=e2fc8af1-f5b5-4887-bcc2-61f17df64fdc"},"vehicle_type_id":"4","last_reported":1747552123,"current_range_meters":5600,"station_id":"ce4bhih2rcd13ifvqfr0","pricing_plan_id":"cebpf4jnsgd1na2vs0mg"},{"bike_id":"f33bcc92-628b-4e1a-ac29-2cee24632a5a","system_id":"levelo_inurba_marseille","lat":43.29164,"lon":5.37198,"is_reserved":false,"is_disabled":false,"rental_uris":{"android":"levelo://app?vid=f33bcc92-628b-4e1a-ac29-2cee24632a5a","ios":"levelo://app?vid=f33bcc92-628b-4e1a-ac29-2cee24632a5a"},"vehicle_type_id":"4","last_reported":1747552123,"current_range_meters":4800,"station_id":"ce4bha92rcd13ifvqeh0","pricing_plan_id":"cebpf4jnsgd1na2vs0mg"},{"bike_id":"36b1745a-43fa-4776-bad2-1802bcb8f390","system_id":"levelo_inurba_marseille","lat":43.298053,"lon":5.404098,"is_reserved":false,"is_disabled":false,"rental_uris":{"android":"levelo://app?vid=36b1745a-43fa-4776-bad2-1802bcb8f390","ios":"levelo://app?vid=36b1745a-43fa-4776-bad2-1802bcb8f390"},"vehicle_type_id":"4","last_reported":1747552123,"current_range_meters":5600,"station_id":"ce4bh112rcd13ifvqd90","pricing_plan_id":"cebpf4jnsgd1na2vs0mg"},{"bike_id":"3b843dca-d67a-4b0e-916b-710ebb36ec6d","system_id":"levelo_inurba_marseille","lat":43.32514,"lon":5.40154,"is_reserved":false,"is_disabled":false,"rental_uris":{"android":"levelo://app?vid=3b843dca-d67a-4b0e-916b-710ebb36ec6d","ios":"levelo://app?vid=3b843dca-d67a-4b0e-916b-710ebb36ec6d"},"vehicle_type_id":"4","last_reported":1747552123,"current_range_meters":6000,"station_id":"","pricing_plan_id":"cebpf4jnsgd1na2vs0mg"},{"bike_id":"50b03deb-4a17-4ac1-bbe7-2628a8d71bd3","system_id":"levelo_inurba_marseille","lat":43.26209,"lon":5.37445,"is_reserved":false,"is_disabled":false,"rental_uris":{"android":"levelo://app?vid=50b03deb-4a17-4ac1-bbe7-2628a8d71bd3","ios":"levelo://app?vid=50b03deb-4a17-4ac1-bbe7-2628a8d71bd3"},"vehicle_type_id":"4","last_reported":1747552123,"current_range_meters":6000,"station_id":"ce4bhgp2rcd13ifvqfc0","pricing_plan_id":"cebpf4jnsgd1na2vs0mg"},{"bike_id":"fd8cc24a-6707-458f-be40-b0fcf29dedae","system_id":"levelo_inurba_marseille","lat":43.28546,"lon":5.3951,"is_reserved":false,"is_disabled":false,"rental_uris":{"android":"levelo://app?vid=fd8cc24a-6707-458f-be40-b0fcf29dedae","ios":"levelo://app?vid=fd8cc24a-6707-458f-be40-b0fcf29dedae"},"vehicle_type_id":"4","last_reported":1747552123,"current_range_meters":6000,"station_id":"ce4bh292rcd13ifvqdg0","pricing_plan_id":"cebpf4jnsgd1na2vs0mg"},{"bike_id":"1e5a7839-d218-47a9-988d-f5fdcdfa5acb","system_id":"levelo_inurba_marseille","lat":43.258282,"lon":5.394478,"is_reserved":false,"is_disabled":false,"rental_uris":{"android":"levelo://app?vid=1e5a7839-d218-47a9-988d-f5fdcdfa5acb","ios":"levelo://app?vid=1e5a7839-d218-47a9-988d-f5fdcdfa5acb"},"vehicle_type_id":"4","last_reported":1747552123,"current_range_meters":6000,"station_id":"ce4bhip2rcd13ifvqft0","pricing_plan_id":"cebpf4jnsgd1na2vs0mg"},{"bike_id":"83df6560-d839-4cc1-b9c4-6c477190f614","system_id":"levelo_inurba_marseille","lat":43.243899,"lon":5.370767,"is_reserved":false,"is_disabled":true,"rental_uris":{"android":"levelo://app?vid=83df6560-d839-4cc1-b9c4-6c477190f614","ios":"levelo://app?vid=83df6560-d839-4cc1-b9c4-6c477190f614"},"vehicle_type_id":"4","last_reported":1747552123,"current_range_meters":6400,"station_id":"ce4bhhh2rcd13ifvqfk0","pricing_plan_id":"cebpf4jnsgd1na2vs0mg"},{"bike_id":"d2862c64-5cfe-4115-b651-eb3b107dc8f3","system_id":"levelo_inurba_marseille","lat":43.26211,"lon":5.37439,"is_reserved":false,"is_disabled":false,"rental_uris":{"android":"levelo://app?vid=d2862c64-5cfe-4115-b651-eb3b107dc8f3","ios":"levelo://app?vid=d2862c64-5cfe-4115-b651-eb3b107dc8f3"},"vehicle_type_id":"4","last_reported":1747552123,"current_range_meters":6400,"station_id":"ce4bhgp2rcd13ifvqfc0","pricing_plan_id":"cebpf4jnsgd1na2vs0mg"},{"bike_id":"21eed894-337c-4968-aa2d-88d606d3f8fe","system_id":"levelo_inurba_marseille","lat":43.26558,"lon":5.37283,"is_reserved":false,"is_disabled":false,"rental_uris":{"android":"levelo://app?vid=21eed894-337c-4968-aa2d-88d606d3f8fe","ios":"levelo://app?vid=21eed894-337c-4968-aa2d-88d606d3f8fe"},"vehicle_type_id":"4","last_reported":1747552123,"current_range_meters":6400,"station_id":"ce4bhg12rcd13ifvqf70","pricing_plan_id":"cebpf4jnsgd1na2vs0mg"},{"bike_id":"7711fff8-1c30-4c3a-aa27-6e5dbb51f698","system_id":"levelo_inurba_marseille","lat":43.25117,"lon":5.40318,"is_reserved":false,"is_disabled":false,"rental_uris":{"android":"levelo://app?vid=7711fff8-1c30-4c3a-aa27-6e5dbb51f698","ios":"levelo://app?vid=7711fff8-1c30-4c3a-aa27-6e5dbb51f698"},"vehicle_type_id":"4","last_reported":1747552123,"current_range_meters":6800,"station_id":"ce4bhlh2rcd13ifvqgig","pricing_plan_id":"cebpf4jnsgd1na2vs0mg"},{"bike_id":"872f7738-5e44-4ffb-a9c9-fd3653391711","system_id":"levelo_inurba_marseille","lat":43.281015,"lon":5.378517,"is_reserved":false,"is_disabled":true,"rental_uris":{"android":"levelo://app?vid=872f7738-5e44-4ffb-a9c9-fd3653391711","ios":"levelo://app?vid=872f7738-5e44-4ffb-a9c9-fd3653391711"},"vehicle_type_id":"4","last_reported":1747552123,"current_range_meters":6800,"station_id":"ce4bha12rcd13ifvqee0","pricing_plan_id":"cebpf4jnsgd1na2vs0mg"},{"bike_id":"cec55ccb-ee63-40ac-a911-b15d2275720b","system_id":"levelo_inurba_marseille","lat":43.2857,"lon":5.39498,"is_reserved":false,"is_disabled":false,"rental_uris":{"android":"levelo://app?vid=cec55ccb-ee63-40ac-a911-b15d2275720b","ios":"levelo://app?vid=cec55ccb-ee63-40ac-a911-b15d2275720b"},"vehicle_type_id":"4","last_reported":1747552123,"current_range_meters":6800,"station_id":"ce4bh292rcd13ifvqdg0","pricing_plan_id":"cebpf4jnsgd1na2vs0mg"},{"bike_id":"123ae55b-6b07-49b7-90aa-71520b895cea","system_id":"levelo_inurba_marseille","lat":43.270544,"lon":5.402625,"is_reserved":false,"is_disabled":false,"rental_uris":{"android":"levelo://app?vid=123ae55b-6b07-49b7-90aa-71520b895cea","ios":"levelo://app?vid=123ae55b-6b07-49b7-90aa-71520b895cea"},"vehicle_type_id":"4","last_reported":1747552123,"current_range_meters":6800,"station_id":"ce4bhk92rcd13ifvqgc0","pricing_plan_id":"cebpf4jnsgd1na2vs0mg"},{"bike_id":"c1d5f882-d71a-4c0b-b205-2bbfdb801b0f","system_id":"levelo_inurba_marseille","lat":43.32343,"lon":5.40604,"is_reserved":false,"is_disabled":false,"rental_uris":{"android":"levelo://app?vid=c1d5f882-d71a-4c0b-b205-2bbfdb801b0f","ios":"levelo://app?vid=c1d5f882-d71a-4c0b-b205-2bbfdb801b0f"},"vehicle_type_id":"4","last_reported":1747552123,"current_range_meters":6800,"station_id":"ce4bhq92rcd13ifvqhjg","pricing_plan_id":"cebpf4jnsgd1na2vs0mg"},{"bike_id":"80ce8948-82cf-42c6-8ab6-4636b50ac5f8","system_id":"levelo_inurba_marseille","lat":43.3154,"lon":5.38015,"is_reserved":false,"is_disabled":false,"rental_uris":{"android":"levelo://app?vid=80ce8948-82cf-42c6-8ab6-4636b50ac5f8","ios":"levelo://app?vid=80ce8948-82cf-42c6-8ab6-4636b50ac5f8"},"vehicle_type_id":"4","last_reported":1747552123,"current_range_meters":6800,"station_id":"ce4bhsp2rcd13ifvqi50","pricing_plan_id":"cebpf4jnsgd1na2vs0mg"},{"bike_id":"39295a67-818d-4c4b-acd8-ebcf53b310ba","system_id":"levelo_inurba_marseille","lat":43.3092,"lon":5.40139,"is_reserved":false,"is_disabled":false,"rental_uris":{"android":"levelo://app?vid=39295a67-818d-4c4b-acd8-ebcf53b310ba","ios":"levelo://app?vid=39295a67-818d-4c4b-acd8-ebcf53b310ba"},"vehicle_type_id":"4","last_reported":1747552123,"current_range_meters":6800,"station_id":"ce4bgvp2rcd13ifvqct0","pricing_plan_id":"cebpf4jnsgd1na2vs0mg"},{"bike_id":"3e073325-7c74-4b6c-b0bd-9716d89c3c37","system_id":"levelo_inurba_marseille","lat":43.265503,"lon":5.372839,"is_reserved":false,"is_disabled":false,"rental_uris":{"android":"levelo://app?vid=3e073325-7c74-4b6c-b0bd-9716d89c3c37","ios":"levelo://app?vid=3e073325-7c74-4b6c-b0bd-9716d89c3c37"},"vehicle_type_id":"4","last_reported":1747552123,"current_range_meters":6800,"station_id":"ce4bhg12rcd13ifvqf70","pricing_plan_id":"cebpf4jnsgd1na2vs0mg"},{"bike_id":"456df13e-096a-4823-8eea-67f822f45ee6","system_id":"levelo_inurba_marseille","lat":43.25116,"lon":5.40322,"is_reserved":false,"is_disabled":false,"rental_uris":{"android":"levelo://app?vid=456df13e-096a-4823-8eea-67f822f45ee6","ios":"levelo://app?vid=456df13e-096a-4823-8eea-67f822f45ee6"},"vehicle_type_id":"4","last_reported":1747552123,"current_range_meters":7200,"station_id":"ce4bhlh2rcd13ifvqgig","pricing_plan_id":"cebpf4jnsgd1na2vs0mg"},{"bike_id":"fdb61a9e-b53b-48c4-b0cb-6db5c626390b","system_id":"levelo_inurba_marseille","lat":43.29044,"lon":5.39975,"is_reserved":false,"is_disabled":true,"rental_uris":{"android":"levelo://app?vid=fdb61a9e-b53b-48c4-b0cb-6db5c626390b","ios":"levelo://app?vid=fdb61a9e-b53b-48c4-b0cb-6db5c626390b"},"vehicle_type_id":"4","last_reported":1747552123,"current_range_meters":7200,"station_id":"ce4bh392rcd13ifvqdm0","pricing_plan_id":"cebpf4jnsgd1na2vs0mg"},{"bike_id":"55fb771a-6e76-45c4-a9b7-cda97a0011d0","system_id":"levelo_inurba_marseille","lat":43.28743,"lon":5.38266,"is_reserved":false,"is_disabled":false,"rental_uris":{"android":"levelo://app?vid=55fb771a-6e76-45c4-a9b7-cda97a0011d0","ios":"levelo://app?vid=55fb771a-6e76-45c4-a9b7-cda97a0011d0"},"vehicle_type_id":"4","last_reported":1747552123,"current_range_meters":7200,"station_id":"","pricing_plan_id":"cebpf4jnsgd1na2vs0mg"},{"bike_id":"02a21c74-43cc-4172-b2ec-1664972f3581","system_id":"levelo_inurba_marseille","lat":43.30808,"lon":5.38179,"is_reserved":false,"is_disabled":false,"rental_uris":{"android":"levelo://app?vid=02a21c74-43cc-4172-b2ec-1664972f3581","ios":"levelo://app?vid=02a21c74-43cc-4172-b2ec-1664972f3581"},"vehicle_type_id":"4","last_reported":1747552123,"current_range_meters":7200,"station_id":"ce4bgt12rcd13ifvqce0","pricing_plan_id":"cebpf4jnsgd1na2vs0mg"},{"bike_id":"dd5b3d80-0491-40b6-8404-17c7b47f1dce","system_id":"levelo_inurba_marseille","lat":43.25103,"lon":5.40322,"is_reserved":false,"is_disabled":false,"rental_uris":{"android":"levelo://app?vid=dd5b3d80-0491-40b6-8404-17c7b47f1dce","ios":"levelo://app?vid=dd5b3d80-0491-40b6-8404-17c7b47f1dce"},"vehicle_type_id":"4","last_reported":1747552123,"current_range_meters":7200,"station_id":"ce4bhlh2rcd13ifvqgig","pricing_plan_id":"cebpf4jnsgd1na2vs0mg"},{"bike_id":"df978225-3a27-4228-8c4f-4fc5ea1b653f","system_id":"levelo_inurba_marseille","lat":43.26029,"lon":5.37539,"is_reserved":false,"is_disabled":false,"rental_uris":{"android":"levelo://app?vid=df978225-3a27-4228-8c4f-4fc5ea1b653f","ios":"levelo://app?vid=df978225-3a27-4228-8c4f-4fc5ea1b653f"},"vehicle_type_id":"4","last_reported":1747552123,"current_range_meters":7200,"station_id":"ce4bhgh2rcd13ifvqfa0","pricing_plan_id":"cebpf4jnsgd1na2vs0mg"},{"bike_id":"3713df8b-43d5-4d70-91a2-ef15d7bcf40b","system_id":"levelo_inurba_marseille","lat":43.25106,"lon":5.4035,"is_reserved":false,"is_disabled":false,"rental_uris":{"android":"levelo://app?vid=3713df8b-43d5-4d70-91a2-ef15d7bcf40b","ios":"levelo://app?vid=3713df8b-43d5-4d70-91a2-ef15d7bcf40b"},"vehicle_type_id":"4","last_reported":1747552123,"current_range_meters":8000,"station_id":"ce4bhlh2rcd13ifvqgig","pricing_plan_id":"cebpf4jnsgd1na2vs0mg"},{"bike_id":"b8e6468b-87db-4ff6-8122-ef13bf5b7c8c","system_id":"levelo_inurba_marseille","lat":43.31379,"lon":5.37916,"is_reserved":false,"is_disabled":false,"rental_uris":{"android":"levelo://app?vid=b8e6468b-87db-4ff6-8122-ef13bf5b7c8c","ios":"levelo://app?vid=b8e6468b-87db-4ff6-8122-ef13bf5b7c8c"},"vehicle_type_id":"4","last_reported":1747552123,"current_range_meters":8000,"station_id":"","pricing_plan_id":"cebpf4jnsgd1na2vs0mg"},{"bike_id":"d0cc36ba-dea5-4301-b9bc-2db32098db5e","system_id":"levelo_inurba_marseille","lat":43.25078,"lon":5.3952,"is_reserved":false,"is_disabled":false,"rental_uris":{"android":"levelo://app?vid=d0cc36ba-dea5-4301-b9bc-2db32098db5e","ios":"levelo://app?vid=d0cc36ba-dea5-4301-b9bc-2db32098db5e"},"vehicle_type_id":"4","last_reported":1747552123,"current_range_meters":8000,"station_id":"ce4bhm12rcd13ifvqgkg","pricing_plan_id":"cebpf4jnsgd1na2vs0mg"},{"bike_id":"af2f3908-848e-4879-9c80-b3ddea1b7f0a","system_id":"levelo_inurba_marseille","lat":43.311844,"lon":5.387728,"is_reserved":false,"is_disabled":true,"rental_uris":{"android":"levelo://app?vid=af2f3908-848e-4879-9c80-b3ddea1b7f0a","ios":"levelo://app?vid=af2f3908-848e-4879-9c80-b3ddea1b7f0a"},"vehicle_type_id":"4","last_reported":1747552123,"current_range_meters":8000,"station_id":"ce4bgv12rcd13ifvqcp0","pricing_plan_id":"cebpf4jnsgd1na2vs0mg"},{"bike_id":"9cad89f6-20ac-4a0d-8a49-e06f4ba590cf","system_id":"levelo_inurba_marseille","lat":43.321082,"lon":5.367799,"is_reserved":false,"is_disabled":false,"rental_uris":{"android":"levelo://app?vid=9cad89f6-20ac-4a0d-8a49-e06f4ba590cf","ios":"levelo://app?vid=9cad89f6-20ac-4a0d-8a49-e06f4ba590cf"},"vehicle_type_id":"4","last_reported":1747552123,"current_range_meters":8000,"station_id":"ce4bhrh2rcd13ifvqhug","pricing_plan_id":"cebpf4jnsgd1na2vs0mg"},{"bike_id":"5017954c-5dbd-4e13-b8ce-34ea20a4ac3e","system_id":"levelo_inurba_marseille","lat":43.26214,"lon":5.37437,"is_reserved":false,"is_disabled":false,"rental_uris":{"android":"levelo://app?vid=5017954c-5dbd-4e13-b8ce-34ea20a4ac3e","ios":"levelo://app?vid=5017954c-5dbd-4e13-b8ce-34ea20a4ac3e"},"vehicle_type_id":"4","last_reported":1747552123,"current_range_meters":8000,"station_id":"ce4bhgp2rcd13ifvqfc0","pricing_plan_id":"cebpf4jnsgd1na2vs0mg"},{"bike_id":"0e643c49-55b7-4013-9035-8e29a4bbf97b","system_id":"levelo_inurba_marseille","lat":43.2466,"lon":5.38166,"is_reserved":false,"is_disabled":false,"rental_uris":{"android":"levelo://app?vid=0e643c49-55b7-4013-9035-8e29a4bbf97b","ios":"levelo://app?vid=0e643c49-55b7-4013-9035-8e29a4bbf97b"},"vehicle_type_id":"4","last_reported":1747552123,"current_range_meters":8000,"station_id":"ce4bhih2rcd13ifvqfr0","pricing_plan_id":"cebpf4jnsgd1na2vs0mg"},{"bike_id":"82862649-485d-4988-aeb2-e287bb522774","system_id":"levelo_inurba_marseille","lat":43.289416,"lon":5.363995,"is_reserved":false,"is_disabled":false,"rental_uris":{"android":"levelo://app?vid=82862649-485d-4988-aeb2-e287bb522774","ios":"levelo://app?vid=82862649-485d-4988-aeb2-e287bb522774"},"vehicle_type_id":"4","last_reported":1747552123,"current_range_meters":8400,"station_id":"ce4bhc92rcd13ifvqetg","pricing_plan_id":"cebpf4jnsgd1na2vs0mg"},{"bike_id":"81c659b6-3a02-46e7-a46f-d340746ad32e","system_id":"levelo_inurba_marseille","lat":43.27381,"lon":5.36255,"is_reserved":false,"is_disabled":true,"rental_uris":{"android":"levelo://app?vid=81c659b6-3a02-46e7-a46f-d340746ad32e","ios":"levelo://app?vid=81c659b6-3a02-46e7-a46f-d340746ad32e"},"vehicle_type_id":"4","last_reported":1747552123,"current_range_meters":8400,"station_id":"ce4bhbh2rcd13ifvqeo0","pricing_plan_id":"cebpf4jnsgd1na2vs0mg"},{"bike_id":"5ea6f467-857b-4ea7-a4b9-4a241fcc702a","system_id":"levelo_inurba_marseille","lat":43.24688,"lon":5.38158,"is_reserved":false,"is_disabled":false,"rental_uris":{"android":"levelo://app?vid=5ea6f467-857b-4ea7-a4b9-4a241fcc702a","ios":"levelo://app?vid=5ea6f467-857b-4ea7-a4b9-4a241fcc702a"},"vehicle_type_id":"4","last_reported":1747552123,"current_range_meters":8400,"station_id":"ce4bhih2rcd13ifvqfr0","pricing_plan_id":"cebpf4jnsgd1na2vs0mg"},{"bike_id":"469b2637-3a55-4da5-8c17-69fb46d00262","system_id":"levelo_inurba_marseille","lat":43.28563,"lon":5.39525,"is_reserved":false,"is_disabled":false,"rental_uris":{"android":"levelo://app?vid=469b2637-3a55-4da5-8c17-69fb46d00262","ios":"levelo://app?vid=469b2637-3a55-4da5-8c17-69fb46d00262"},"vehicle_type_id":"4","last_reported":1747552123,"current_range_meters":8400,"station_id":"ce4bh292rcd13ifvqdg0","pricing_plan_id":"cebpf4jnsgd1na2vs0mg"},{"bike_id":"b48e3cd8-d494-4189-bd12-c9474ca594b4","system_id":"levelo_inurba_marseille","lat":43.29221,"lon":5.36064,"is_reserved":false,"is_disabled":false,"rental_uris":{"android":"levelo://app?vid=b48e3cd8-d494-4189-bd12-c9474ca594b4","ios":"levelo://app?vid=b48e3cd8-d494-4189-bd12-c9474ca594b4"},"vehicle_type_id":"4","last_reported":1747552123,"current_range_meters":8800,"station_id":"ce4bhbh2rcd13ifvqeqg","pricing_plan_id":"cebpf4jnsgd1na2vs0mg"},{"bike_id":"aa9446b4-e4c2-4e75-9648-971ccb772673","system_id":"levelo_inurba_marseille","lat":43.275103,"lon":5.42464,"is_reserved":false,"is_disabled":false,"rental_uris":{"android":"levelo://app?vid=aa9446b4-e4c2-4e75-9648-971ccb772673","ios":"levelo://app?vid=aa9446b4-e4c2-4e75-9648-971ccb772673"},"vehicle_type_id":"4","last_reported":1747552123,"current_range_meters":8800,"station_id":"ce4bhn92rcd13ifvqgrg","pricing_plan_id":"cebpf4jnsgd1na2vs0mg"},{"bike_id":"87b1d5a0-ca20-4099-8fc3-ab0909b77445","system_id":"levelo_inurba_marseille","lat":43.309293,"lon":5.401532,"is_reserved":false,"is_disabled":false,"rental_uris":{"android":"levelo://app?vid=87b1d5a0-ca20-4099-8fc3-ab0909b77445","ios":"levelo://app?vid=87b1d5a0-ca20-4099-8fc3-ab0909b77445"},"vehicle_type_id":"4","last_reported":1747552123,"current_range_meters":8800,"station_id":"ce4bgvp2rcd13ifvqct0","pricing_plan_id":"cebpf4jnsgd1na2vs0mg"},{"bike_id":"9edddd8d-d743-4631-997e-7bbefb54b44b","system_id":"levelo_inurba_marseille","lat":43.28442,"lon":5.35831,"is_reserved":false,"is_disabled":false,"rental_uris":{"android":"levelo://app?vid=9edddd8d-d743-4631-997e-7bbefb54b44b","ios":"levelo://app?vid=9edddd8d-d743-4631-997e-7bbefb54b44b"},"vehicle_type_id":"4","last_reported":1747552123,"current_range_meters":8800,"station_id":"ce4bhah2rcd13ifvqei0","pricing_plan_id":"cebpf4jnsgd1na2vs0mg"},{"bike_id":"9d205712-4faf-4521-a59b-52c8a122e1ca","system_id":"levelo_inurba_marseille","lat":43.307949,"lon":5.381575,"is_reserved":false,"is_disabled":true,"rental_uris":{"android":"levelo://app?vid=9d205712-4faf-4521-a59b-52c8a122e1ca","ios":"levelo://app?vid=9d205712-4faf-4521-a59b-52c8a122e1ca"},"vehicle_type_id":"4","last_reported":1747552123,"current_range_meters":8800,"station_id":"ce4bgt12rcd13ifvqce0","pricing_plan_id":"cebpf4jnsgd1na2vs0mg"},{"bike_id":"5c81d409-bb02-4f79-9610-2c9cefac4414","system_id":"levelo_inurba_marseille","lat":43.26565,"lon":5.37313,"is_reserved":false,"is_disabled":false,"rental_uris":{"android":"levelo://app?vid=5c81d409-bb02-4f79-9610-2c9cefac4414","ios":"levelo://app?vid=5c81d409-bb02-4f79-9610-2c9cefac4414"},"vehicle_type_id":"4","last_reported":1747552123,"current_range_meters":8800,"station_id":"ce4bhg12rcd13ifvqf70","pricing_plan_id":"cebpf4jnsgd1na2vs0mg"},{"bike_id":"132a3156-bf77-4eac-95e5-3b2890f8c554","system_id":"levelo_inurba_marseille","lat":43.316623,"lon":5.37411,"is_reserved":false,"is_disabled":false,"rental_uris":{"android":"levelo://app?vid=132a3156-bf77-4eac-95e5-3b2890f8c554","ios":"levelo://app?vid=132a3156-bf77-4eac-95e5-3b2890f8c554"},"vehicle_type_id":"4","last_reported":1747552123,"current_range_meters":8800,"station_id":"ce4bgth2rcd13ifvqch0","pricing_plan_id":"cebpf4jnsgd1na2vs0mg"},{"bike_id":"89b6e378-45a4-453c-b44a-d8e3186991b9","system_id":"levelo_inurba_marseille","lat":43.26204,"lon":5.37459,"is_reserved":false,"is_disabled":true,"rental_uris":{"android":"levelo://app?vid=89b6e378-45a4-453c-b44a-d8e3186991b9","ios":"levelo://app?vid=89b6e378-45a4-453c-b44a-d8e3186991b9"},"vehicle_type_id":"4","last_reported":1747552123,"current_range_meters":8800,"station_id":"ce4bhgp2rcd13ifvqfc0","pricing_plan_id":"cebpf4jnsgd1na2vs0mg"},{"bike_id":"0fb02880-5c6e-4026-9e4a-07529c572b44","system_id":"levelo_inurba_marseille","lat":43.25491,"lon":5.37381,"is_reserved":false,"is_disabled":false,"rental_uris":{"android":"levelo://app?vid=0fb02880-5c6e-4026-9e4a-07529c572b44","ios":"levelo://app?vid=0fb02880-5c6e-4026-9e4a-07529c572b44"},"vehicle_type_id":"4","last_reported":1747552123,"current_range_meters":9200,"station_id":"","pricing_plan_id":"cebpf4jnsgd1na2vs0mg"},{"bike_id":"953cb372-e37b-4b34-9fc7-227d922b64f1","system_id":"levelo_inurba_marseille","lat":43.2511,"lon":5.40326,"is_reserved":false,"is_disabled":false,"rental_uris":{"android":"levelo://app?vid=953cb372-e37b-4b34-9fc7-227d922b64f1","ios":"levelo://app?vid=953cb372-e37b-4b34-9fc7-227d922b64f1"},"vehicle_type_id":"4","last_reported":1747552123,"current_range_meters":9200,"station_id":"ce4bhlh2rcd13ifvqgig","pricing_plan_id":"cebpf4jnsgd1na2vs0mg"},{"bike_id":"792c9dbd-158e-4661-91d4-2c1ed379e655","system_id":"levelo_inurba_marseille","lat":43.2468,"lon":5.38166,"is_reserved":false,"is_disabled":false,"rental_uris":{"android":"levelo://app?vid=792c9dbd-158e-4661-91d4-2c1ed379e655","ios":"levelo://app?vid=792c9dbd-158e-4661-91d4-2c1ed379e655"},"vehicle_type_id":"4","last_reported":1747552123,"current_range_meters":9200,"station_id":"ce4bhih2rcd13ifvqfr0","pricing_plan_id":"cebpf4jnsgd1na2vs0mg"},{"bike_id":"b934e6da-efb5-4ac5-a51a-eb50220f6e1b","system_id":"levelo_inurba_marseille","lat":43.269784,"lon":5.405884,"is_reserved":false,"is_disabled":true,"rental_uris":{"android":"levelo://app?vid=b934e6da-efb5-4ac5-a51a-eb50220f6e1b","ios":"levelo://app?vid=b934e6da-efb5-4ac5-a51a-eb50220f6e1b"},"vehicle_type_id":"4","last_reported":1747552123,"current_range_meters":9200,"station_id":"","pricing_plan_id":"cebpf4jnsgd1na2vs0mg"},{"bike_id":"c0db4030-ef30-480b-a735-af5435a471ed","system_id":"levelo_inurba_marseille","lat":43.27724,"lon":5.42705,"is_reserved":false,"is_disabled":false,"rental_uris":{"android":"levelo://app?vid=c0db4030-ef30-480b-a735-af5435a471ed","ios":"levelo://app?vid=c0db4030-ef30-480b-a735-af5435a471ed"},"vehicle_type_id":"4","last_reported":1747552123,"current_range_meters":9200,"station_id":"","pricing_plan_id":"cebpf4jnsgd1na2vs0mg"},{"bike_id":"7aed1c5b-1dd2-4fe7-bde5-ae5b0cb23178","system_id":"levelo_inurba_marseille","lat":43.29561,"lon":5.37552,"is_reserved":false,"is_disabled":false,"rental_uris":{"android":"levelo://app?vid=7aed1c5b-1dd2-4fe7-bde5-ae5b0cb23178","ios":"levelo://app?vid=7aed1c5b-1dd2-4fe7-bde5-ae5b0cb23178"},"vehicle_type_id":"4","last_reported":1747552123,"current_range_meters":9200,"station_id":"ce4bgh92rcd13ifvqb50","pricing_plan_id":"cebpf4jnsgd1na2vs0mg"},{"bike_id":"02259454-0373-4186-8615-7b4434f1449b","system_id":"levelo_inurba_marseille","lat":43.26214,"lon":5.3747,"is_reserved":false,"is_disabled":false,"rental_uris":{"android":"levelo://app?vid=02259454-0373-4186-8615-7b4434f1449b","ios":"levelo://app?vid=02259454-0373-4186-8615-7b4434f1449b"},"vehicle_type_id":"4","last_reported":1747552123,"current_range_meters":9200,"station_id":"ce4bhgp2rcd13ifvqfc0","pricing_plan_id":"cebpf4jnsgd1na2vs0mg"},{"bike_id":"185fac30-0fda-4436-a2b9-4bd696102a3e","system_id":"levelo_inurba_marseille","lat":43.2621,"lon":5.37457,"is_reserved":false,"is_disabled":false,"rental_uris":{"android":"levelo://app?vid=185fac30-0fda-4436-a2b9-4bd696102a3e","ios":"levelo://app?vid=185fac30-0fda-4436-a2b9-4bd696102a3e"},"vehicle_type_id":"4","last_reported":1747552123,"current_range_meters":9200,"station_id":"ce4bhgp2rcd13ifvqfc0","pricing_plan_id":"cebpf4jnsgd1na2vs0mg"},{"bike_id":"8b1b9fc8-2f5f-49e8-b567-ad39dc989cb7","system_id":"levelo_inurba_marseille","lat":43.290249,"lon":5.375653,"is_reserved":false,"is_disabled":true,"rental_uris":{"android":"levelo://app?vid=8b1b9fc8-2f5f-49e8-b567-ad39dc989cb7","ios":"levelo://app?vid=8b1b9fc8-2f5f-49e8-b567-ad39dc989cb7"},"vehicle_type_id":"4","last_reported":1747552123,"current_range_meters":9200,"station_id":"ce4bh692rcd13ifvqe90","pricing_plan_id":"cebpf4jnsgd1na2vs0mg"},{"bike_id":"cdfe01e1-ffb2-42a3-bb4c-aaf58d73dad8","system_id":"levelo_inurba_marseille","lat":43.29006,"lon":5.35614,"is_reserved":false,"is_disabled":false,"rental_uris":{"android":"levelo://app?vid=cdfe01e1-ffb2-42a3-bb4c-aaf58d73dad8","ios":"levelo://app?vid=cdfe01e1-ffb2-42a3-bb4c-aaf58d73dad8"},"vehicle_type_id":"4","last_reported":1747552123,"current_range_meters":9200,"station_id":"ce4bhb92rcd13ifvqen0","pricing_plan_id":"cebpf4jnsgd1na2vs0mg"},{"bike_id":"fbb9dc35-fa9d-42e4-9fd8-bc3154190a90","system_id":"levelo_inurba_marseille","lat":43.30937,"lon":5.40133,"is_reserved":false,"is_disabled":false,"rental_uris":{"android":"levelo://app?vid=fbb9dc35-fa9d-42e4-9fd8-bc3154190a90","ios":"levelo://app?vid=fbb9dc35-fa9d-42e4-9fd8-bc3154190a90"},"vehicle_type_id":"4","last_reported":1747552123,"current_range_meters":9200,"station_id":"ce4bgvp2rcd13ifvqct0","pricing_plan_id":"cebpf4jnsgd1na2vs0mg"},{"bike_id":"db22b70b-7de1-403c-85af-ebb538cde99e","system_id":"levelo_inurba_marseille","lat":43.2986,"lon":5.39744,"is_reserved":false,"is_disabled":false,"rental_uris":{"android":"levelo://app?vid=db22b70b-7de1-403c-85af-ebb538cde99e","ios":"levelo://app?vid=db22b70b-7de1-403c-85af-ebb538cde99e"},"vehicle_type_id":"4","last_reported":1747552123,"current_range_meters":9600,"station_id":"ce4bh0h2rcd13ifvqd50","pricing_plan_id":"cebpf4jnsgd1na2vs0mg"},{"bike_id":"bed62950-6e37-4e1b-841e-3146778e769a","system_id":"levelo_inurba_marseille","lat":43.26026,"lon":5.37549,"is_reserved":false,"is_disabled":false,"rental_uris":{"android":"levelo://app?vid=bed62950-6e37-4e1b-841e-3146778e769a","ios":"levelo://app?vid=bed62950-6e37-4e1b-841e-3146778e769a"},"vehicle_type_id":"4","last_reported":1747552123,"current_range_meters":9600,"station_id":"ce4bhgh2rcd13ifvqfa0","pricing_plan_id":"cebpf4jnsgd1na2vs0mg"},{"bike_id":"b9a86e9b-6362-4615-bf7f-1be49e2b60ac","system_id":"levelo_inurba_marseille","lat":43.26207,"lon":5.37437,"is_reserved":false,"is_disabled":false,"rental_uris":{"android":"levelo://app?vid=b9a86e9b-6362-4615-bf7f-1be49e2b60ac","ios":"levelo://app?vid=b9a86e9b-6362-4615-bf7f-1be49e2b60ac"},"vehicle_type_id":"4","last_reported":1747552123,"current_range_meters":9600,"station_id":"ce4bhgp2rcd13ifvqfc0","pricing_plan_id":"cebpf4jnsgd1na2vs0mg"},{"bike_id":"3812098f-f79e-4494-b092-9699fb507498","system_id":"levelo_inurba_marseille","lat":43.2909,"lon":5.37045,"is_reserved":false,"is_disabled":true,"rental_uris":{"android":"levelo://app?vid=3812098f-f79e-4494-b092-9699fb507498","ios":"levelo://app?vid=3812098f-f79e-4494-b092-9699fb507498"},"vehicle_type_id":"4","last_reported":1747552123,"current_range_meters":9600,"station_id":"","pricing_plan_id":"cebpf4jnsgd1na2vs0mg"},{"bike_id":"9be12a09-efe5-495b-8ec3-e7e0d7473370","system_id":"levelo_inurba_marseille","lat":43.296014,"lon":5.380942,"is_reserved":false,"is_disabled":true,"rental_uris":{"android":"levelo://app?vid=9be12a09-efe5-495b-8ec3-e7e0d7473370","ios":"levelo://app?vid=9be12a09-efe5-495b-8ec3-e7e0d7473370"},"vehicle_type_id":"4","last_reported":1747552123,"current_range_meters":9600,"station_id":"ce4bgl12rcd13ifvqbo0","pricing_plan_id":"cebpf4jnsgd1na2vs0mg"},{"bike_id":"a623400b-858e-4dda-8d34-d28c08c93a18","system_id":"levelo_inurba_marseille","lat":43.26227,"lon":5.37496,"is_reserved":false,"is_disabled":false,"rental_uris":{"android":"levelo://app?vid=a623400b-858e-4dda-8d34-d28c08c93a18","ios":"levelo://app?vid=a623400b-858e-4dda-8d34-d28c08c93a18"},"vehicle_type_id":"4","last_reported":1747552123,"current_range_meters":9600,"station_id":"ce4bhgp2rcd13ifvqfc0","pricing_plan_id":"cebpf4jnsgd1na2vs0mg"},{"bike_id":"7502aaf2-e0b6-4e59-86da-36975a13a9d8","system_id":"levelo_inurba_marseille","lat":43.295264,"lon":5.374956,"is_reserved":false,"is_disabled":true,"rental_uris":{"android":"levelo://app?vid=7502aaf2-e0b6-4e59-86da-36975a13a9d8","ios":"levelo://app?vid=7502aaf2-e0b6-4e59-86da-36975a13a9d8"},"vehicle_type_id":"4","last_reported":1747552123,"current_range_meters":9600,"station_id":"ce4bgkp2rcd13ifvqbmg","pricing_plan_id":"cebpf4jnsgd1na2vs0mg"},{"bike_id":"4c33e9a2-0e5c-427f-a7cc-632c63a61d9d","system_id":"levelo_inurba_marseille","lat":43.28346,"lon":5.38122,"is_reserved":false,"is_disabled":true,"rental_uris":{"android":"levelo://app?vid=4c33e9a2-0e5c-427f-a7cc-632c63a61d9d","ios":"levelo://app?vid=4c33e9a2-0e5c-427f-a7cc-632c63a61d9d"},"vehicle_type_id":"4","last_reported":1747552123,"current_range_meters":9600,"station_id":"ce4bh412rcd13ifvqdr0","pricing_plan_id":"cebpf4jnsgd1na2vs0mg"},{"bike_id":"94cde674-815e-4ad1-b514-1d539d66a268","system_id":"levelo_inurba_marseille","lat":43.28456,"lon":5.35828,"is_reserved":false,"is_disabled":false,"rental_uris":{"android":"levelo://app?vid=94cde674-815e-4ad1-b514-1d539d66a268","ios":"levelo://app?vid=94cde674-815e-4ad1-b514-1d539d66a268"},"vehicle_type_id":"4","last_reported":1747552123,"current_range_meters":9600,"station_id":"ce4bhah2rcd13ifvqei0","pricing_plan_id":"cebpf4jnsgd1na2vs0mg"},{"bike_id":"3980d76b-e904-45ba-9bbd-4ee10919b44c","system_id":"levelo_inurba_marseille","lat":43.31069,"lon":5.38185,"is_reserved":false,"is_disabled":false,"rental_uris":{"android":"levelo://app?vid=3980d76b-e904-45ba-9bbd-4ee10919b44c","ios":"levelo://app?vid=3980d76b-e904-45ba-9bbd-4ee10919b44c"},"vehicle_type_id":"4","last_reported":1747552123,"current_range_meters":9600,"station_id":"","pricing_plan_id":"cebpf4jnsgd1na2vs0mg"},{"bike_id":"0f42c805-92e1-4274-b532-29e3edd02304","system_id":"levelo_inurba_marseille","lat":43.292819,"lon":5.401427,"is_reserved":false,"is_disabled":false,"rental_uris":{"android":"levelo://app?vid=0f42c805-92e1-4274-b532-29e3edd02304","ios":"levelo://app?vid=0f42c805-92e1-4274-b532-29e3edd02304"},"vehicle_type_id":"4","last_reported":1747552123,"current_range_meters":10000,"station_id":"ce4bh312rcd13ifvqdk0","pricing_plan_id":"cebpf4jnsgd1na2vs0mg"},{"bike_id":"0c34b593-39af-4c0b-aef0-e25cd680f42b","system_id":"levelo_inurba_marseille","lat":43.23191,"lon":5.39983,"is_reserved":false,"is_disabled":false,"rental_uris":{"android":"levelo://app?vid=0c34b593-39af-4c0b-aef0-e25cd680f42b","ios":"levelo://app?vid=0c34b593-39af-4c0b-aef0-e25cd680f42b"},"vehicle_type_id":"4","last_reported":1747552123,"current_range_meters":10000,"station_id":"ce4bhn12rcd13ifvqgqg","pricing_plan_id":"cebpf4jnsgd1na2vs0mg"},{"bike_id":"caf4c81d-8b81-4d8d-a4f9-9d00bac7ad70","system_id":"levelo_inurba_marseille","lat":43.307784,"lon":5.428193,"is_reserved":false,"is_disabled":false,"rental_uris":{"android":"levelo://app?vid=caf4c81d-8b81-4d8d-a4f9-9d00bac7ad70","ios":"levelo://app?vid=caf4c81d-8b81-4d8d-a4f9-9d00bac7ad70"},"vehicle_type_id":"4","last_reported":1747552123,"current_range_meters":10000,"station_id":"","pricing_plan_id":"cebpf4jnsgd1na2vs0mg"},{"bike_id":"a6c1623a-3bd8-493e-8c3a-8bf160eeb1bb","system_id":"levelo_inurba_marseille","lat":43.26213,"lon":5.37439,"is_reserved":false,"is_disabled":false,"rental_uris":{"android":"levelo://app?vid=a6c1623a-3bd8-493e-8c3a-8bf160eeb1bb","ios":"levelo://app?vid=a6c1623a-3bd8-493e-8c3a-8bf160eeb1bb"},"vehicle_type_id":"4","last_reported":1747552123,"current_range_meters":10000,"station_id":"ce4bhgp2rcd13ifvqfc0","pricing_plan_id":"cebpf4jnsgd1na2vs0mg"},{"bike_id":"9577c979-7b9a-49e8-b3b7-2bb6e0b57cd1","system_id":"levelo_inurba_marseille","lat":43.26939,"lon":5.40263,"is_reserved":false,"is_disabled":false,"rental_uris":{"android":"levelo://app?vid=9577c979-7b9a-49e8-b3b7-2bb6e0b57cd1","ios":"levelo://app?vid=9577c979-7b9a-49e8-b3b7-2bb6e0b57cd1"},"vehicle_type_id":"4","last_reported":1747552123,"current_range_meters":10000,"station_id":"cjm6bp8fraef2m0cb0m0","pricing_plan_id":"cebpf4jnsgd1na2vs0mg"},{"bike_id":"14603e41-b2dd-4757-a53c-2e366aa4f983","system_id":"levelo_inurba_marseille","lat":43.269935,"lon":5.42823,"is_reserved":false,"is_disabled":false,"rental_uris":{"android":"levelo://app?vid=14603e41-b2dd-4757-a53c-2e366aa4f983","ios":"levelo://app?vid=14603e41-b2dd-4757-a53c-2e366aa4f983"},"vehicle_type_id":"4","last_reported":1747552123,"current_range_meters":10000,"station_id":"","pricing_plan_id":"cebpf4jnsgd1na2vs0mg"},{"bike_id":"5ea24bfb-43dc-45e3-8e0e-da5900ff3f5d","system_id":"levelo_inurba_marseille","lat":43.27501,"lon":5.42465,"is_reserved":false,"is_disabled":false,"rental_uris":{"android":"levelo://app?vid=5ea24bfb-43dc-45e3-8e0e-da5900ff3f5d","ios":"levelo://app?vid=5ea24bfb-43dc-45e3-8e0e-da5900ff3f5d"},"vehicle_type_id":"4","last_reported":1747552123,"current_range_meters":10000,"station_id":"ce4bhn92rcd13ifvqgrg","pricing_plan_id":"cebpf4jnsgd1na2vs0mg"},{"bike_id":"c6e9421a-fcb0-4b3e-9f1a-1fed1b35433a","system_id":"levelo_inurba_marseille","lat":43.23168,"lon":5.43709,"is_reserved":false,"is_disabled":false,"rental_uris":{"android":"levelo://app?vid=c6e9421a-fcb0-4b3e-9f1a-1fed1b35433a","ios":"levelo://app?vid=c6e9421a-fcb0-4b3e-9f1a-1fed1b35433a"},"vehicle_type_id":"4","last_reported":1747552123,"current_range_meters":10800,"station_id":"ce4bhmp2rcd13ifvqgog","pricing_plan_id":"cebpf4jnsgd1na2vs0mg"},{"bike_id":"7d9dd8c1-69f5-4957-8992-21b219e4420c","system_id":"levelo_inurba_marseille","lat":43.24673,"lon":5.38184,"is_reserved":false,"is_disabled":false,"rental_uris":{"android":"levelo://app?vid=7d9dd8c1-69f5-4957-8992-21b219e4420c","ios":"levelo://app?vid=7d9dd8c1-69f5-4957-8992-21b219e4420c"},"vehicle_type_id":"4","last_reported":1747552123,"current_range_meters":10800,"station_id":"ce4bhih2rcd13ifvqfr0","pricing_plan_id":"cebpf4jnsgd1na2vs0mg"},{"bike_id":"ffc3ddf2-0082-4578-9e25-c91f5b4279bc","system_id":"levelo_inurba_marseille","lat":43.28329,"lon":5.41132,"is_reserved":false,"is_disabled":false,"rental_uris":{"android":"levelo://app?vid=ffc3ddf2-0082-4578-9e25-c91f5b4279bc","ios":"levelo://app?vid=ffc3ddf2-0082-4578-9e25-c91f5b4279bc"},"vehicle_type_id":"4","last_reported":1747552123,"current_range_meters":10800,"station_id":"","pricing_plan_id":"cebpf4jnsgd1na2vs0mg"},{"bike_id":"1b1a8a19-ff60-42a3-91b0-51a562bd9d98","system_id":"levelo_inurba_marseille","lat":43.26554,"lon":5.37285,"is_reserved":false,"is_disabled":false,"rental_uris":{"android":"levelo://app?vid=1b1a8a19-ff60-42a3-91b0-51a562bd9d98","ios":"levelo://app?vid=1b1a8a19-ff60-42a3-91b0-51a562bd9d98"},"vehicle_type_id":"4","last_reported":1747552123,"current_range_meters":10800,"station_id":"ce4bhg12rcd13ifvqf70","pricing_plan_id":"cebpf4jnsgd1na2vs0mg"},{"bike_id":"8dfe3edc-82df-4b5a-a412-16963c595c57","system_id":"levelo_inurba_marseille","lat":43.30882,"lon":5.396481,"is_reserved":false,"is_disabled":false,"rental_uris":{"android":"levelo://app?vid=8dfe3edc-82df-4b5a-a412-16963c595c57","ios":"levelo://app?vid=8dfe3edc-82df-4b5a-a412-16963c595c57"},"vehicle_type_id":"4","last_reported":1747552123,"current_range_meters":11200,"station_id":"ce4bh012rcd13ifvqcv0","pricing_plan_id":"cebpf4jnsgd1na2vs0mg"},{"bike_id":"7d080336-5a2d-419d-8d50-e49d93450255","system_id":"levelo_inurba_marseille","lat":43.29174,"lon":5.3713,"is_reserved":false,"is_disabled":true,"rental_uris":{"android":"levelo://app?vid=7d080336-5a2d-419d-8d50-e49d93450255","ios":"levelo://app?vid=7d080336-5a2d-419d-8d50-e49d93450255"},"vehicle_type_id":"4","last_reported":1747552123,"current_range_meters":11200,"station_id":"ce4bha92rcd13ifvqeh0","pricing_plan_id":"cebpf4jnsgd1na2vs0mg"},{"bike_id":"56de12ec-c2b3-4960-90ca-a3bf7841338a","system_id":"levelo_inurba_marseille","lat":43.24649,"lon":5.38895,"is_reserved":false,"is_disabled":false,"rental_uris":{"android":"levelo://app?vid=56de12ec-c2b3-4960-90ca-a3bf7841338a","ios":"levelo://app?vid=56de12ec-c2b3-4960-90ca-a3bf7841338a"},"vehicle_type_id":"4","last_reported":1747552123,"current_range_meters":11200,"station_id":"ce4bhg12rcd13ifvqf60","pricing_plan_id":"cebpf4jnsgd1na2vs0mg"},{"bike_id":"88c266e6-7038-494f-b358-90ca603fb435","system_id":"levelo_inurba_marseille","lat":43.295729,"lon":5.374992,"is_reserved":false,"is_disabled":true,"rental_uris":{"android":"levelo://app?vid=88c266e6-7038-494f-b358-90ca603fb435","ios":"levelo://app?vid=88c266e6-7038-494f-b358-90ca603fb435"},"vehicle_type_id":"4","last_reported":1747552123,"current_range_meters":11200,"station_id":"ce4bgh92rcd13ifvqb50","pricing_plan_id":"cebpf4jnsgd1na2vs0mg"},{"bike_id":"c608898e-58b6-42f7-903a-6008119c7a64","system_id":"levelo_inurba_marseille","lat":43.24074,"lon":5.37792,"is_reserved":false,"is_disabled":false,"rental_uris":{"android":"levelo://app?vid=c608898e-58b6-42f7-903a-6008119c7a64","ios":"levelo://app?vid=c608898e-58b6-42f7-903a-6008119c7a64"},"vehicle_type_id":"4","last_reported":1747552123,"current_range_meters":11200,"station_id":"ce4bhnp2rcd13ifvqgvg","pricing_plan_id":"cebpf4jnsgd1na2vs0mg"},{"bike_id":"27f05115-decc-4fbb-b226-cbb837efe701","system_id":"levelo_inurba_marseille","lat":43.30248,"lon":5.4008,"is_reserved":false,"is_disabled":false,"rental_uris":{"android":"levelo://app?vid=27f05115-decc-4fbb-b226-cbb837efe701","ios":"levelo://app?vid=27f05115-decc-4fbb-b226-cbb837efe701"},"vehicle_type_id":"4","last_reported":1747552123,"current_range_meters":11600,"station_id":"ce4bgvh2rcd13ifvqcs0","pricing_plan_id":"cebpf4jnsgd1na2vs0mg"},{"bike_id":"0fff26c1-ee5a-45bd-8576-8f20831a7bcd","system_id":"levelo_inurba_marseille","lat":43.29963,"lon":5.38473,"is_reserved":false,"is_disabled":true,"rental_uris":{"android":"levelo://app?vid=0fff26c1-ee5a-45bd-8576-8f20831a7bcd","ios":"levelo://app?vid=0fff26c1-ee5a-45bd-8576-8f20831a7bcd"},"vehicle_type_id":"4","last_reported":1747552123,"current_range_meters":11600,"station_id":"ce4bgj92rcd13ifvqbd0","pricing_plan_id":"cebpf4jnsgd1na2vs0mg"},{"bike_id":"1b2f0e19-c9dc-4000-8367-67c619535c14","system_id":"levelo_inurba_marseille","lat":43.29938,"lon":5.36488,"is_reserved":false,"is_disabled":true,"rental_uris":{"android":"levelo://app?vid=1b2f0e19-c9dc-4000-8367-67c619535c14","ios":"levelo://app?vid=1b2f0e19-c9dc-4000-8367-67c619535c14"},"vehicle_type_id":"4","last_reported":1747552123,"current_range_meters":11600,"station_id":"ce4bgm92rcd13ifvqbr0","pricing_plan_id":"cebpf4jnsgd1na2vs0mg"},{"bike_id":"6e1bd625-3ec1-43df-9657-36d71ae09f8d","system_id":"levelo_inurba_marseille","lat":43.337476,"lon":5.374868,"is_reserved":false,"is_disabled":false,"rental_uris":{"android":"levelo://app?vid=6e1bd625-3ec1-43df-9657-36d71ae09f8d","ios":"levelo://app?vid=6e1bd625-3ec1-43df-9657-36d71ae09f8d"},"vehicle_type_id":"4","last_reported":1747552123,"current_range_meters":11600,"station_id":"","pricing_plan_id":"cebpf4jnsgd1na2vs0mg"},{"bike_id":"94aeb92f-7c47-436f-8549-458a55a73225","system_id":"levelo_inurba_marseille","lat":43.29515,"lon":5.39051,"is_reserved":false,"is_disabled":false,"rental_uris":{"android":"levelo://app?vid=94aeb92f-7c47-436f-8549-458a55a73225","ios":"levelo://app?vid=94aeb92f-7c47-436f-8549-458a55a73225"},"vehicle_type_id":"4","last_reported":1747552123,"current_range_meters":11200,"station_id":"ce4bh3p2rcd13ifvqdp0","pricing_plan_id":"cebpf4jnsgd1na2vs0mg"},{"bike_id":"7238b89e-2b97-4bc5-95ab-4759c70767ab","system_id":"levelo_inurba_marseille","lat":43.311034,"lon":5.377687,"is_reserved":false,"is_disabled":false,"rental_uris":{"android":"levelo://app?vid=7238b89e-2b97-4bc5-95ab-4759c70767ab","ios":"levelo://app?vid=7238b89e-2b97-4bc5-95ab-4759c70767ab"},"vehicle_type_id":"4","last_reported":1747552123,"current_range_meters":12000,"station_id":"ce4bgt92rcd13ifvqcg0","pricing_plan_id":"cebpf4jnsgd1na2vs0mg"},{"bike_id":"cf6f4459-1140-4de7-8129-4462aa427c97","system_id":"levelo_inurba_marseille","lat":43.26552,"lon":5.37284,"is_reserved":false,"is_disabled":false,"rental_uris":{"android":"levelo://app?vid=cf6f4459-1140-4de7-8129-4462aa427c97","ios":"levelo://app?vid=cf6f4459-1140-4de7-8129-4462aa427c97"},"vehicle_type_id":"4","last_reported":1747552123,"current_range_meters":12000,"station_id":"ce4bhg12rcd13ifvqf70","pricing_plan_id":"cebpf4jnsgd1na2vs0mg"},{"bike_id":"0d6bd5fa-51d7-4151-9de2-9db0d7b9364d","system_id":"levelo_inurba_marseille","lat":43.28953,"lon":5.39984,"is_reserved":false,"is_disabled":false,"rental_uris":{"android":"levelo://app?vid=0d6bd5fa-51d7-4151-9de2-9db0d7b9364d","ios":"levelo://app?vid=0d6bd5fa-51d7-4151-9de2-9db0d7b9364d"},"vehicle_type_id":"4","last_reported":1747552123,"current_range_meters":12000,"station_id":"","pricing_plan_id":"cebpf4jnsgd1na2vs0mg"},{"bike_id":"e64dcb02-45aa-440e-8d2c-f478789eecc4","system_id":"levelo_inurba_marseille","lat":43.265554,"lon":5.372985,"is_reserved":false,"is_disabled":false,"rental_uris":{"android":"levelo://app?vid=e64dcb02-45aa-440e-8d2c-f478789eecc4","ios":"levelo://app?vid=e64dcb02-45aa-440e-8d2c-f478789eecc4"},"vehicle_type_id":"4","last_reported":1747552123,"current_range_meters":12000,"station_id":"ce4bhg12rcd13ifvqf70","pricing_plan_id":"cebpf4jnsgd1na2vs0mg"},{"bike_id":"6497e8af-9cff-445a-b8e6-44756e18332d","system_id":"levelo_inurba_marseille","lat":43.292299,"lon":5.360658,"is_reserved":false,"is_disabled":false,"rental_uris":{"android":"levelo://app?vid=6497e8af-9cff-445a-b8e6-44756e18332d","ios":"levelo://app?vid=6497e8af-9cff-445a-b8e6-44756e18332d"},"vehicle_type_id":"4","last_reported":1747552123,"current_range_meters":11600,"station_id":"ce4bhbh2rcd13ifvqeqg","pricing_plan_id":"cebpf4jnsgd1na2vs0mg"},{"bike_id":"f4422497-4aad-4e8b-bd52-83c14c78c01b","system_id":"levelo_inurba_marseille","lat":43.25115,"lon":5.40316,"is_reserved":false,"is_disabled":false,"rental_uris":{"android":"levelo://app?vid=f4422497-4aad-4e8b-bd52-83c14c78c01b","ios":"levelo://app?vid=f4422497-4aad-4e8b-bd52-83c14c78c01b"},"vehicle_type_id":"4","last_reported":1747552123,"current_range_meters":12000,"station_id":"ce4bhlh2rcd13ifvqgig","pricing_plan_id":"cebpf4jnsgd1na2vs0mg"},{"bike_id":"4739d0ee-0dbc-4b41-a171-18fe3d7e3cc9","system_id":"levelo_inurba_marseille","lat":43.29865,"lon":5.39735,"is_reserved":false,"is_disabled":false,"rental_uris":{"android":"levelo://app?vid=4739d0ee-0dbc-4b41-a171-18fe3d7e3cc9","ios":"levelo://app?vid=4739d0ee-0dbc-4b41-a171-18fe3d7e3cc9"},"vehicle_type_id":"4","last_reported":1747552123,"current_range_meters":12000,"station_id":"ce4bh0h2rcd13ifvqd50","pricing_plan_id":"cebpf4jnsgd1na2vs0mg"},{"bike_id":"b5d2c0e5-b1f9-4a97-8f33-5e893e8572ee","system_id":"levelo_inurba_marseille","lat":43.26186,"lon":5.37437,"is_reserved":false,"is_disabled":false,"rental_uris":{"android":"levelo://app?vid=b5d2c0e5-b1f9-4a97-8f33-5e893e8572ee","ios":"levelo://app?vid=b5d2c0e5-b1f9-4a97-8f33-5e893e8572ee"},"vehicle_type_id":"4","last_reported":1747552123,"current_range_meters":12000,"station_id":"ce4bhgp2rcd13ifvqfc0","pricing_plan_id":"cebpf4jnsgd1na2vs0mg"},{"bike_id":"4745dd8b-a0b2-49db-b417-8a28eecc51d4","system_id":"levelo_inurba_marseille","lat":43.24335,"lon":5.37995,"is_reserved":false,"is_disabled":false,"rental_uris":{"android":"levelo://app?vid=4745dd8b-a0b2-49db-b417-8a28eecc51d4","ios":"levelo://app?vid=4745dd8b-a0b2-49db-b417-8a28eecc51d4"},"vehicle_type_id":"4","last_reported":1747552123,"current_range_meters":12000,"station_id":"","pricing_plan_id":"cebpf4jnsgd1na2vs0mg"},{"bike_id":"98e134ff-6cb2-419d-a085-e204e5cdf7db","system_id":"levelo_inurba_marseille","lat":43.30549,"lon":5.38423,"is_reserved":false,"is_disabled":false,"rental_uris":{"android":"levelo://app?vid=98e134ff-6cb2-419d-a085-e204e5cdf7db","ios":"levelo://app?vid=98e134ff-6cb2-419d-a085-e204e5cdf7db"},"vehicle_type_id":"4","last_reported":1747552123,"current_range_meters":12400,"station_id":"ce4bgg92rcd13ifvqb30","pricing_plan_id":"cebpf4jnsgd1na2vs0mg"},{"bike_id":"3845b92b-2215-4a79-be64-fa2b0d45d0ba","system_id":"levelo_inurba_marseille","lat":43.30246,"lon":5.40067,"is_reserved":false,"is_disabled":false,"rental_uris":{"android":"levelo://app?vid=3845b92b-2215-4a79-be64-fa2b0d45d0ba","ios":"levelo://app?vid=3845b92b-2215-4a79-be64-fa2b0d45d0ba"},"vehicle_type_id":"4","last_reported":1747552123,"current_range_meters":12400,"station_id":"ce4bgvh2rcd13ifvqcs0","pricing_plan_id":"cebpf4jnsgd1na2vs0mg"},{"bike_id":"262036fe-d80c-4d06-a49b-dfb02bc52ea7","system_id":"levelo_inurba_marseille","lat":43.30945,"lon":5.40179,"is_reserved":false,"is_disabled":false,"rental_uris":{"android":"levelo://app?vid=262036fe-d80c-4d06-a49b-dfb02bc52ea7","ios":"levelo://app?vid=262036fe-d80c-4d06-a49b-dfb02bc52ea7"},"vehicle_type_id":"4","last_reported":1747552123,"current_range_meters":12800,"station_id":"ce4bgvp2rcd13ifvqct0","pricing_plan_id":"cebpf4jnsgd1na2vs0mg"},{"bike_id":"6ee7001e-07ad-49d2-9902-4e2095457f59","system_id":"levelo_inurba_marseille","lat":43.2707,"lon":5.42275,"is_reserved":false,"is_disabled":true,"rental_uris":{"android":"levelo://app?vid=6ee7001e-07ad-49d2-9902-4e2095457f59","ios":"levelo://app?vid=6ee7001e-07ad-49d2-9902-4e2095457f59"},"vehicle_type_id":"4","last_reported":1747552123,"current_range_meters":12800,"station_id":"ce4bhk92rcd13ifvqgb0","pricing_plan_id":"cebpf4jnsgd1na2vs0mg"},{"bike_id":"1b4dc95b-4f7c-45dc-ac35-a308bf3dea34","system_id":"levelo_inurba_marseille","lat":43.26192,"lon":5.37454,"is_reserved":false,"is_disabled":false,"rental_uris":{"android":"levelo://app?vid=1b4dc95b-4f7c-45dc-ac35-a308bf3dea34","ios":"levelo://app?vid=1b4dc95b-4f7c-45dc-ac35-a308bf3dea34"},"vehicle_type_id":"4","last_reported":1747552123,"current_range_meters":12800,"station_id":"ce4bhgp2rcd13ifvqfc0","pricing_plan_id":"cebpf4jnsgd1na2vs0mg"},{"bike_id":"d55f9225-e6ff-4e45-92e4-2cc2ba495a7c","system_id":"levelo_inurba_marseille","lat":43.30855,"lon":5.38247,"is_reserved":false,"is_disabled":false,"rental_uris":{"android":"levelo://app?vid=d55f9225-e6ff-4e45-92e4-2cc2ba495a7c","ios":"levelo://app?vid=d55f9225-e6ff-4e45-92e4-2cc2ba495a7c"},"vehicle_type_id":"4","last_reported":1747552123,"current_range_meters":12800,"station_id":"","pricing_plan_id":"cebpf4jnsgd1na2vs0mg"},{"bike_id":"584c70d0-0918-4aa0-b289-fcc6a9442003","system_id":"levelo_inurba_marseille","lat":43.25095,"lon":5.39541,"is_reserved":false,"is_disabled":false,"rental_uris":{"android":"levelo://app?vid=584c70d0-0918-4aa0-b289-fcc6a9442003","ios":"levelo://app?vid=584c70d0-0918-4aa0-b289-fcc6a9442003"},"vehicle_type_id":"4","last_reported":1747552123,"current_range_meters":12800,"station_id":"ce4bhm12rcd13ifvqgkg","pricing_plan_id":"cebpf4jnsgd1na2vs0mg"},{"bike_id":"a2e8ac07-c27d-4596-ac54-d8fb456abf0d","system_id":"levelo_inurba_marseille","lat":43.28257,"lon":5.42396,"is_reserved":false,"is_disabled":false,"rental_uris":{"android":"levelo://app?vid=a2e8ac07-c27d-4596-ac54-d8fb456abf0d","ios":"levelo://app?vid=a2e8ac07-c27d-4596-ac54-d8fb456abf0d"},"vehicle_type_id":"4","last_reported":1747552123,"current_range_meters":12800,"station_id":"","pricing_plan_id":"cebpf4jnsgd1na2vs0mg"},{"bike_id":"aa61bb3b-f474-4d4f-9448-e81fa1db67dc","system_id":"levelo_inurba_marseille","lat":43.30152,"lon":5.38083,"is_reserved":false,"is_disabled":false,"rental_uris":{"android":"levelo://app?vid=aa61bb3b-f474-4d4f-9448-e81fa1db67dc","ios":"levelo://app?vid=aa61bb3b-f474-4d4f-9448-e81fa1db67dc"},"vehicle_type_id":"4","last_reported":1747552123,"current_range_meters":12800,"station_id":"ce4bgjp2rcd13ifvqbh0","pricing_plan_id":"cebpf4jnsgd1na2vs0mg"},{"bike_id":"06fb6274-c887-4ce8-9273-400ecb3aef67","system_id":"levelo_inurba_marseille","lat":43.283976,"lon":5.460305,"is_reserved":false,"is_disabled":false,"rental_uris":{"android":"levelo://app?vid=06fb6274-c887-4ce8-9273-400ecb3aef67","ios":"levelo://app?vid=06fb6274-c887-4ce8-9273-400ecb3aef67"},"vehicle_type_id":"4","last_reported":1747552123,"current_range_meters":12800,"station_id":"","pricing_plan_id":"cebpf4jnsgd1na2vs0mg"},{"bike_id":"07e76d55-d7b0-45c1-ba5a-51f83c06a785","system_id":"levelo_inurba_marseille","lat":43.29278,"lon":5.4088,"is_reserved":false,"is_disabled":false,"rental_uris":{"android":"levelo://app?vid=07e76d55-d7b0-45c1-ba5a-51f83c06a785","ios":"levelo://app?vid=07e76d55-d7b0-45c1-ba5a-51f83c06a785"},"vehicle_type_id":"4","last_reported":1747552123,"current_range_meters":13600,"station_id":"ce4bh192rcd13ifvqdc0","pricing_plan_id":"cebpf4jnsgd1na2vs0mg"},{"bike_id":"55982159-14b0-423d-a8c0-c157cf2770cd","system_id":"levelo_inurba_marseille","lat":43.2777,"lon":5.36215,"is_reserved":false,"is_disabled":false,"rental_uris":{"android":"levelo://app?vid=55982159-14b0-423d-a8c0-c157cf2770cd","ios":"levelo://app?vid=55982159-14b0-423d-a8c0-c157cf2770cd"},"vehicle_type_id":"4","last_reported":1747552123,"current_range_meters":13600,"station_id":"","pricing_plan_id":"cebpf4jnsgd1na2vs0mg"},{"bike_id":"6bc97e27-c5a1-4b41-a53f-b39682e4c4d8","system_id":"levelo_inurba_marseille","lat":43.314811,"lon":5.373111,"is_reserved":false,"is_disabled":false,"rental_uris":{"android":"levelo://app?vid=6bc97e27-c5a1-4b41-a53f-b39682e4c4d8","ios":"levelo://app?vid=6bc97e27-c5a1-4b41-a53f-b39682e4c4d8"},"vehicle_type_id":"4","last_reported":1747552123,"current_range_meters":13600,"station_id":"ce4bgt12rcd13ifvqcd0","pricing_plan_id":"cebpf4jnsgd1na2vs0mg"},{"bike_id":"5911af4c-0fec-4cf2-a307-b3bae3f3f5c8","system_id":"levelo_inurba_marseille","lat":43.31322,"lon":5.39707,"is_reserved":false,"is_disabled":false,"rental_uris":{"android":"levelo://app?vid=5911af4c-0fec-4cf2-a307-b3bae3f3f5c8","ios":"levelo://app?vid=5911af4c-0fec-4cf2-a307-b3bae3f3f5c8"},"vehicle_type_id":"4","last_reported":1747552123,"current_range_meters":14000,"station_id":"ce4bgvp2rcd13ifvqcu0","pricing_plan_id":"cebpf4jnsgd1na2vs0mg"},{"bike_id":"2f0cadb4-d32c-481d-b010-d7df56ff1e9c","system_id":"levelo_inurba_marseille","lat":43.29268,"lon":5.40903,"is_reserved":false,"is_disabled":false,"rental_uris":{"android":"levelo://app?vid=2f0cadb4-d32c-481d-b010-d7df56ff1e9c","ios":"levelo://app?vid=2f0cadb4-d32c-481d-b010-d7df56ff1e9c"},"vehicle_type_id":"4","last_reported":1747552123,"current_range_meters":14000,"station_id":"ce4bh192rcd13ifvqdc0","pricing_plan_id":"cebpf4jnsgd1na2vs0mg"},{"bike_id":"b26a0dd7-cbdc-4ab7-8def-31c4b88b224a","system_id":"levelo_inurba_marseille","lat":43.31213,"lon":5.39243,"is_reserved":false,"is_disabled":false,"rental_uris":{"android":"levelo://app?vid=b26a0dd7-cbdc-4ab7-8def-31c4b88b224a","ios":"levelo://app?vid=b26a0dd7-cbdc-4ab7-8def-31c4b88b224a"},"vehicle_type_id":"4","last_reported":1747552123,"current_range_meters":14000,"station_id":"","pricing_plan_id":"cebpf4jnsgd1na2vs0mg"},{"bike_id":"40aa43f6-ce93-43ee-b5dc-7d91f99956e0","system_id":"levelo_inurba_marseille","lat":43.26217,"lon":5.37447,"is_reserved":false,"is_disabled":false,"rental_uris":{"android":"levelo://app?vid=40aa43f6-ce93-43ee-b5dc-7d91f99956e0","ios":"levelo://app?vid=40aa43f6-ce93-43ee-b5dc-7d91f99956e0"},"vehicle_type_id":"4","last_reported":1747552123,"current_range_meters":14000,"station_id":"ce4bhgp2rcd13ifvqfc0","pricing_plan_id":"cebpf4jnsgd1na2vs0mg"},{"bike_id":"4462e83f-f9da-46b7-b369-5dd2dc83114c","system_id":"levelo_inurba_marseille","lat":43.32356,"lon":5.40609,"is_reserved":false,"is_disabled":false,"rental_uris":{"android":"levelo://app?vid=4462e83f-f9da-46b7-b369-5dd2dc83114c","ios":"levelo://app?vid=4462e83f-f9da-46b7-b369-5dd2dc83114c"},"vehicle_type_id":"4","last_reported":1747552123,"current_range_meters":14000,"station_id":"ce4bhq92rcd13ifvqhjg","pricing_plan_id":"cebpf4jnsgd1na2vs0mg"},{"bike_id":"be2c3896-fa0c-4a27-a492-db322855c4b2","system_id":"levelo_inurba_marseille","lat":43.25118,"lon":5.40313,"is_reserved":false,"is_disabled":false,"rental_uris":{"android":"levelo://app?vid=be2c3896-fa0c-4a27-a492-db322855c4b2","ios":"levelo://app?vid=be2c3896-fa0c-4a27-a492-db322855c4b2"},"vehicle_type_id":"4","last_reported":1747552123,"current_range_meters":14000,"station_id":"ce4bhlh2rcd13ifvqgig","pricing_plan_id":"cebpf4jnsgd1na2vs0mg"},{"bike_id":"51a33848-f0f0-40ec-b6c6-8948c992d932","system_id":"levelo_inurba_marseille","lat":43.250848,"lon":5.395198,"is_reserved":false,"is_disabled":false,"rental_uris":{"android":"levelo://app?vid=51a33848-f0f0-40ec-b6c6-8948c992d932","ios":"levelo://app?vid=51a33848-f0f0-40ec-b6c6-8948c992d932"},"vehicle_type_id":"4","last_reported":1747552123,"current_range_meters":14000,"station_id":"ce4bhm12rcd13ifvqgkg","pricing_plan_id":"cebpf4jnsgd1na2vs0mg"},{"bike_id":"e8c092b6-ea1e-49b4-86f2-ae6140f06f6f","system_id":"levelo_inurba_marseille","lat":43.289192,"lon":5.383954,"is_reserved":false,"is_disabled":true,"rental_uris":{"android":"levelo://app?vid=e8c092b6-ea1e-49b4-86f2-ae6140f06f6f","ios":"levelo://app?vid=e8c092b6-ea1e-49b4-86f2-ae6140f06f6f"},"vehicle_type_id":"4","last_reported":1747552123,"current_range_meters":14000,"station_id":"","pricing_plan_id":"cebpf4jnsgd1na2vs0mg"},{"bike_id":"ddec036f-c36c-4a69-8dd2-c352daef1d5c","system_id":"levelo_inurba_marseille","lat":43.2439,"lon":5.37064,"is_reserved":false,"is_disabled":false,"rental_uris":{"android":"levelo://app?vid=ddec036f-c36c-4a69-8dd2-c352daef1d5c","ios":"levelo://app?vid=ddec036f-c36c-4a69-8dd2-c352daef1d5c"},"vehicle_type_id":"4","last_reported":1747552123,"current_range_meters":13600,"station_id":"ce4bhhh2rcd13ifvqfk0","pricing_plan_id":"cebpf4jnsgd1na2vs0mg"},{"bike_id":"0269fdbb-9a0f-4f64-9da3-f76152172653","system_id":"levelo_inurba_marseille","lat":43.262073,"lon":5.37437,"is_reserved":false,"is_disabled":false,"rental_uris":{"android":"levelo://app?vid=0269fdbb-9a0f-4f64-9da3-f76152172653","ios":"levelo://app?vid=0269fdbb-9a0f-4f64-9da3-f76152172653"},"vehicle_type_id":"4","last_reported":1747552123,"current_range_meters":14000,"station_id":"ce4bhgp2rcd13ifvqfc0","pricing_plan_id":"cebpf4jnsgd1na2vs0mg"},{"bike_id":"0ae67a56-97a5-4634-9c6d-d0b84621d979","system_id":"levelo_inurba_marseille","lat":43.298759,"lon":5.397378,"is_reserved":false,"is_disabled":false,"rental_uris":{"android":"levelo://app?vid=0ae67a56-97a5-4634-9c6d-d0b84621d979","ios":"levelo://app?vid=0ae67a56-97a5-4634-9c6d-d0b84621d979"},"vehicle_type_id":"4","last_reported":1747552123,"current_range_meters":14400,"station_id":"ce4bh0h2rcd13ifvqd50","pricing_plan_id":"cebpf4jnsgd1na2vs0mg"},{"bike_id":"eebd567d-2f71-46f2-a54f-625b45fe1b61","system_id":"levelo_inurba_marseille","lat":43.27963,"lon":5.41026,"is_reserved":false,"is_disabled":false,"rental_uris":{"android":"levelo://app?vid=eebd567d-2f71-46f2-a54f-625b45fe1b61","ios":"levelo://app?vid=eebd567d-2f71-46f2-a54f-625b45fe1b61"},"vehicle_type_id":"4","last_reported":1747552123,"current_range_meters":14400,"station_id":"ce4bhnp2rcd13ifvqh0g","pricing_plan_id":"cebpf4jnsgd1na2vs0mg"},{"bike_id":"6441fe85-8e29-4028-baf4-d7a123b8c2a3","system_id":"levelo_inurba_marseille","lat":43.29624,"lon":5.40603,"is_reserved":false,"is_disabled":false,"rental_uris":{"android":"levelo://app?vid=6441fe85-8e29-4028-baf4-d7a123b8c2a3","ios":"levelo://app?vid=6441fe85-8e29-4028-baf4-d7a123b8c2a3"},"vehicle_type_id":"4","last_reported":1747552123,"current_range_meters":14400,"station_id":"ce4bh0h2rcd13ifvqd60","pricing_plan_id":"cebpf4jnsgd1na2vs0mg"},{"bike_id":"bd01d5e0-033a-4a78-9389-11d5ff0601a2","system_id":"levelo_inurba_marseille","lat":43.2603,"lon":5.37552,"is_reserved":false,"is_disabled":false,"rental_uris":{"android":"levelo://app?vid=bd01d5e0-033a-4a78-9389-11d5ff0601a2","ios":"levelo://app?vid=bd01d5e0-033a-4a78-9389-11d5ff0601a2"},"vehicle_type_id":"4","last_reported":1747552123,"current_range_meters":14800,"station_id":"ce4bhgh2rcd13ifvqfa0","pricing_plan_id":"cebpf4jnsgd1na2vs0mg"},{"bike_id":"bd1589fc-912a-4341-8b2b-3e98f19f9576","system_id":"levelo_inurba_marseille","lat":43.25093,"lon":5.40319,"is_reserved":false,"is_disabled":false,"rental_uris":{"android":"levelo://app?vid=bd1589fc-912a-4341-8b2b-3e98f19f9576","ios":"levelo://app?vid=bd1589fc-912a-4341-8b2b-3e98f19f9576"},"vehicle_type_id":"4","last_reported":1747552123,"current_range_meters":14800,"station_id":"ce4bhlh2rcd13ifvqgig","pricing_plan_id":"cebpf4jnsgd1na2vs0mg"},{"bike_id":"cbff0bd8-ab69-455f-978e-8e044433b1ea","system_id":"levelo_inurba_marseille","lat":43.30343,"lon":5.4046,"is_reserved":false,"is_disabled":false,"rental_uris":{"android":"levelo://app?vid=cbff0bd8-ab69-455f-978e-8e044433b1ea","ios":"levelo://app?vid=cbff0bd8-ab69-455f-978e-8e044433b1ea"},"vehicle_type_id":"4","last_reported":1747552123,"current_range_meters":14800,"station_id":"ce4bh012rcd13ifvqd10","pricing_plan_id":"cebpf4jnsgd1na2vs0mg"},{"bike_id":"d8da70fb-a079-460a-9e23-65ed45fe0088","system_id":"levelo_inurba_marseille","lat":43.25498,"lon":5.37662,"is_reserved":false,"is_disabled":true,"rental_uris":{"android":"levelo://app?vid=d8da70fb-a079-460a-9e23-65ed45fe0088","ios":"levelo://app?vid=d8da70fb-a079-460a-9e23-65ed45fe0088"},"vehicle_type_id":"4","last_reported":1747552123,"current_range_meters":14800,"station_id":"ce4bhh12rcd13ifvqff0","pricing_plan_id":"cebpf4jnsgd1na2vs0mg"},{"bike_id":"d0d75341-e711-479e-a99e-551c4a0bc057","system_id":"levelo_inurba_marseille","lat":43.26678,"lon":5.38266,"is_reserved":false,"is_disabled":false,"rental_uris":{"android":"levelo://app?vid=d0d75341-e711-479e-a99e-551c4a0bc057","ios":"levelo://app?vid=d0d75341-e711-479e-a99e-551c4a0bc057"},"vehicle_type_id":"4","last_reported":1747552123,"current_range_meters":14400,"station_id":"ce4bhg92rcd13ifvqf90","pricing_plan_id":"cebpf4jnsgd1na2vs0mg"},{"bike_id":"cbf22af3-6c8f-4023-8971-3961263cafe8","system_id":"levelo_inurba_marseille","lat":43.286959,"lon":5.373936,"is_reserved":false,"is_disabled":true,"rental_uris":{"android":"levelo://app?vid=cbf22af3-6c8f-4023-8971-3961263cafe8","ios":"levelo://app?vid=cbf22af3-6c8f-4023-8971-3961263cafe8"},"vehicle_type_id":"4","last_reported":1747552123,"current_range_meters":14800,"station_id":"ce4bh3p2rcd13ifvqdq0","pricing_plan_id":"cebpf4jnsgd1na2vs0mg"},{"bike_id":"7d2d7b5f-e811-498d-8f6b-400813d554e3","system_id":"levelo_inurba_marseille","lat":43.2117,"lon":5.35054,"is_reserved":false,"is_disabled":true,"rental_uris":{"android":"levelo://app?vid=7d2d7b5f-e811-498d-8f6b-400813d554e3","ios":"levelo://app?vid=7d2d7b5f-e811-498d-8f6b-400813d554e3"},"vehicle_type_id":"4","last_reported":1747552123,"current_range_meters":14800,"station_id":"st_cvj6sg6p6f1abm77japg","pricing_plan_id":"cebpf4jnsgd1na2vs0mg"},{"bike_id":"942d70f0-6de3-463e-b885-a14fc7604da5","system_id":"levelo_inurba_marseille","lat":43.246699,"lon":5.381694,"is_reserved":false,"is_disabled":false,"rental_uris":{"android":"levelo://app?vid=942d70f0-6de3-463e-b885-a14fc7604da5","ios":"levelo://app?vid=942d70f0-6de3-463e-b885-a14fc7604da5"},"vehicle_type_id":"4","last_reported":1747552123,"current_range_meters":15200,"station_id":"ce4bhih2rcd13ifvqfr0","pricing_plan_id":"cebpf4jnsgd1na2vs0mg"},{"bike_id":"e2e6987e-5481-4622-b17c-38a70a9109d6","system_id":"levelo_inurba_marseille","lat":43.26192,"lon":5.37446,"is_reserved":false,"is_disabled":false,"rental_uris":{"android":"levelo://app?vid=e2e6987e-5481-4622-b17c-38a70a9109d6","ios":"levelo://app?vid=e2e6987e-5481-4622-b17c-38a70a9109d6"},"vehicle_type_id":"4","last_reported":1747552123,"current_range_meters":15200,"station_id":"ce4bhgp2rcd13ifvqfc0","pricing_plan_id":"cebpf4jnsgd1na2vs0mg"},{"bike_id":"0a672e4f-4d62-47b0-88d5-45b4c1c6a08c","system_id":"levelo_inurba_marseille","lat":43.29555,"lon":5.42312,"is_reserved":false,"is_disabled":false,"rental_uris":{"android":"levelo://app?vid=0a672e4f-4d62-47b0-88d5-45b4c1c6a08c","ios":"levelo://app?vid=0a672e4f-4d62-47b0-88d5-45b4c1c6a08c"},"vehicle_type_id":"4","last_reported":1747552123,"current_range_meters":15200,"station_id":"ce4bhph2rcd13ifvqhdg","pricing_plan_id":"cebpf4jnsgd1na2vs0mg"},{"bike_id":"c5ff94be-c2ea-413f-a053-ee20ee5d180d","system_id":"levelo_inurba_marseille","lat":43.31101,"lon":5.37785,"is_reserved":false,"is_disabled":false,"rental_uris":{"android":"levelo://app?vid=c5ff94be-c2ea-413f-a053-ee20ee5d180d","ios":"levelo://app?vid=c5ff94be-c2ea-413f-a053-ee20ee5d180d"},"vehicle_type_id":"4","last_reported":1747552123,"current_range_meters":15200,"station_id":"ce4bgt92rcd13ifvqcg0","pricing_plan_id":"cebpf4jnsgd1na2vs0mg"},{"bike_id":"7a31f435-63bc-4ff6-838b-d79912959956","system_id":"levelo_inurba_marseille","lat":43.2621,"lon":5.40452,"is_reserved":false,"is_disabled":false,"rental_uris":{"android":"levelo://app?vid=7a31f435-63bc-4ff6-838b-d79912959956","ios":"levelo://app?vid=7a31f435-63bc-4ff6-838b-d79912959956"},"vehicle_type_id":"4","last_reported":1747552123,"current_range_meters":15200,"station_id":"ce4bhmh2rcd13ifvqgmg","pricing_plan_id":"cebpf4jnsgd1na2vs0mg"},{"bike_id":"b947e013-2e44-4d3f-95bd-7fde4f81ce7e","system_id":"levelo_inurba_marseille","lat":43.323349,"lon":5.406202,"is_reserved":false,"is_disabled":false,"rental_uris":{"android":"levelo://app?vid=b947e013-2e44-4d3f-95bd-7fde4f81ce7e","ios":"levelo://app?vid=b947e013-2e44-4d3f-95bd-7fde4f81ce7e"},"vehicle_type_id":"4","last_reported":1747552123,"current_range_meters":15200,"station_id":"ce4bhq92rcd13ifvqhjg","pricing_plan_id":"cebpf4jnsgd1na2vs0mg"},{"bike_id":"168ff632-117e-4c12-8961-89fb008f2faf","system_id":"levelo_inurba_marseille","lat":43.27216,"lon":5.39183,"is_reserved":false,"is_disabled":true,"rental_uris":{"android":"levelo://app?vid=168ff632-117e-4c12-8961-89fb008f2faf","ios":"levelo://app?vid=168ff632-117e-4c12-8961-89fb008f2faf"},"vehicle_type_id":"4","last_reported":1747552123,"current_range_meters":16000,"station_id":"ce4bhhp2rcd13ifvqfm0","pricing_plan_id":"cebpf4jnsgd1na2vs0mg"},{"bike_id":"58887f66-7108-4294-a00e-551c17af804a","system_id":"levelo_inurba_marseille","lat":43.26234,"lon":5.40475,"is_reserved":false,"is_disabled":false,"rental_uris":{"android":"levelo://app?vid=58887f66-7108-4294-a00e-551c17af804a","ios":"levelo://app?vid=58887f66-7108-4294-a00e-551c17af804a"},"vehicle_type_id":"4","last_reported":1747552123,"current_range_meters":16000,"station_id":"ce4bhmh2rcd13ifvqgmg","pricing_plan_id":"cebpf4jnsgd1na2vs0mg"},{"bike_id":"b41619e3-6dbe-49d7-baca-02ff8f7f1d54","system_id":"levelo_inurba_marseille","lat":43.30936,"lon":5.40149,"is_reserved":false,"is_disabled":false,"rental_uris":{"android":"levelo://app?vid=b41619e3-6dbe-49d7-baca-02ff8f7f1d54","ios":"levelo://app?vid=b41619e3-6dbe-49d7-baca-02ff8f7f1d54"},"vehicle_type_id":"4","last_reported":1747552123,"current_range_meters":16000,"station_id":"ce4bgvp2rcd13ifvqct0","pricing_plan_id":"cebpf4jnsgd1na2vs0mg"},{"bike_id":"1b586395-d7b7-480d-8921-ab9290352404","system_id":"levelo_inurba_marseille","lat":43.32367,"lon":5.3676,"is_reserved":false,"is_disabled":false,"rental_uris":{"android":"levelo://app?vid=1b586395-d7b7-480d-8921-ab9290352404","ios":"levelo://app?vid=1b586395-d7b7-480d-8921-ab9290352404"},"vehicle_type_id":"4","last_reported":1747552123,"current_range_meters":16000,"station_id":"ce4bhsh2rcd13ifvqi2g","pricing_plan_id":"cebpf4jnsgd1na2vs0mg"},{"bike_id":"5dee036b-29cd-483a-bada-e312729a7e07","system_id":"levelo_inurba_marseille","lat":43.30796,"lon":5.38148,"is_reserved":false,"is_disabled":false,"rental_uris":{"android":"levelo://app?vid=5dee036b-29cd-483a-bada-e312729a7e07","ios":"levelo://app?vid=5dee036b-29cd-483a-bada-e312729a7e07"},"vehicle_type_id":"4","last_reported":1747552123,"current_range_meters":16000,"station_id":"ce4bgt12rcd13ifvqce0","pricing_plan_id":"cebpf4jnsgd1na2vs0mg"},{"bike_id":"74fbea3f-8a18-4fc8-8f56-6b744c75f57a","system_id":"levelo_inurba_marseille","lat":43.29875,"lon":5.39779,"is_reserved":false,"is_disabled":false,"rental_uris":{"android":"levelo://app?vid=74fbea3f-8a18-4fc8-8f56-6b744c75f57a","ios":"levelo://app?vid=74fbea3f-8a18-4fc8-8f56-6b744c75f57a"},"vehicle_type_id":"4","last_reported":1747552123,"current_range_meters":16000,"station_id":"ce4bh0h2rcd13ifvqd50","pricing_plan_id":"cebpf4jnsgd1na2vs0mg"},{"bike_id":"63ee7651-d7fc-446f-b34b-5f1be0f0febd","system_id":"levelo_inurba_marseille","lat":43.32337,"lon":5.40619,"is_reserved":false,"is_disabled":false,"rental_uris":{"android":"levelo://app?vid=63ee7651-d7fc-446f-b34b-5f1be0f0febd","ios":"levelo://app?vid=63ee7651-d7fc-446f-b34b-5f1be0f0febd"},"vehicle_type_id":"4","last_reported":1747552123,"current_range_meters":16000,"station_id":"ce4bhq92rcd13ifvqhjg","pricing_plan_id":"cebpf4jnsgd1na2vs0mg"},{"bike_id":"ed34fad4-c48e-4c1a-b9b1-8eb1cd77d573","system_id":"levelo_inurba_marseille","lat":43.31068,"lon":5.3871,"is_reserved":false,"is_disabled":false,"rental_uris":{"android":"levelo://app?vid=ed34fad4-c48e-4c1a-b9b1-8eb1cd77d573","ios":"levelo://app?vid=ed34fad4-c48e-4c1a-b9b1-8eb1cd77d573"},"vehicle_type_id":"4","last_reported":1747552123,"current_range_meters":16000,"station_id":"ce4bgv12rcd13ifvqcp0","pricing_plan_id":"cebpf4jnsgd1na2vs0mg"},{"bike_id":"6108af11-7c53-4634-92da-d3dcd6a2bc0a","system_id":"levelo_inurba_marseille","lat":43.26206,"lon":5.37438,"is_reserved":false,"is_disabled":false,"rental_uris":{"android":"levelo://app?vid=6108af11-7c53-4634-92da-d3dcd6a2bc0a","ios":"levelo://app?vid=6108af11-7c53-4634-92da-d3dcd6a2bc0a"},"vehicle_type_id":"4","last_reported":1747552123,"current_range_meters":16000,"station_id":"ce4bhgp2rcd13ifvqfc0","pricing_plan_id":"cebpf4jnsgd1na2vs0mg"},{"bike_id":"55074562-456f-4265-9165-ff017bb29e09","system_id":"levelo_inurba_marseille","lat":43.2657,"lon":5.37277,"is_reserved":false,"is_disabled":false,"rental_uris":{"android":"levelo://app?vid=55074562-456f-4265-9165-ff017bb29e09","ios":"levelo://app?vid=55074562-456f-4265-9165-ff017bb29e09"},"vehicle_type_id":"4","last_reported":1747552123,"current_range_meters":16400,"station_id":"ce4bhg12rcd13ifvqf70","pricing_plan_id":"cebpf4jnsgd1na2vs0mg"},{"bike_id":"2d43dba1-6ff7-4289-91c8-c617d5aac932","system_id":"levelo_inurba_marseille","lat":43.29574,"lon":5.375045,"is_reserved":false,"is_disabled":true,"rental_uris":{"android":"levelo://app?vid=2d43dba1-6ff7-4289-91c8-c617d5aac932","ios":"levelo://app?vid=2d43dba1-6ff7-4289-91c8-c617d5aac932"},"vehicle_type_id":"4","last_reported":1747552123,"current_range_meters":16400,"station_id":"ce4bgh92rcd13ifvqb50","pricing_plan_id":"cebpf4jnsgd1na2vs0mg"},{"bike_id":"19456222-7d38-48cf-a950-06daadd07927","system_id":"levelo_inurba_marseille","lat":43.25005,"lon":5.37515,"is_reserved":false,"is_disabled":false,"rental_uris":{"android":"levelo://app?vid=19456222-7d38-48cf-a950-06daadd07927","ios":"levelo://app?vid=19456222-7d38-48cf-a950-06daadd07927"},"vehicle_type_id":"4","last_reported":1747552123,"current_range_meters":16400,"station_id":"","pricing_plan_id":"cebpf4jnsgd1na2vs0mg"},{"bike_id":"2bbf1c89-73b6-44ff-bdbf-98c1def8dc4a","system_id":"levelo_inurba_marseille","lat":43.311217,"lon":5.377623,"is_reserved":false,"is_disabled":false,"rental_uris":{"android":"levelo://app?vid=2bbf1c89-73b6-44ff-bdbf-98c1def8dc4a","ios":"levelo://app?vid=2bbf1c89-73b6-44ff-bdbf-98c1def8dc4a"},"vehicle_type_id":"4","last_reported":1747552123,"current_range_meters":16400,"station_id":"ce4bgt92rcd13ifvqcg0","pricing_plan_id":"cebpf4jnsgd1na2vs0mg"},{"bike_id":"563abd07-28c4-473c-a3bc-3f7fe27e1ba3","system_id":"levelo_inurba_marseille","lat":43.30235,"lon":5.38423,"is_reserved":false,"is_disabled":false,"rental_uris":{"android":"levelo://app?vid=563abd07-28c4-473c-a3bc-3f7fe27e1ba3","ios":"levelo://app?vid=563abd07-28c4-473c-a3bc-3f7fe27e1ba3"},"vehicle_type_id":"4","last_reported":1747552123,"current_range_meters":16400,"station_id":"","pricing_plan_id":"cebpf4jnsgd1na2vs0mg"},{"bike_id":"7e51c783-7282-47be-b939-67f3cf3f0703","system_id":"levelo_inurba_marseille","lat":43.251097,"lon":5.403276,"is_reserved":false,"is_disabled":false,"rental_uris":{"android":"levelo://app?vid=7e51c783-7282-47be-b939-67f3cf3f0703","ios":"levelo://app?vid=7e51c783-7282-47be-b939-67f3cf3f0703"},"vehicle_type_id":"4","last_reported":1747552123,"current_range_meters":16400,"station_id":"ce4bhlh2rcd13ifvqgig","pricing_plan_id":"cebpf4jnsgd1na2vs0mg"},{"bike_id":"c38c0434-7c0b-4918-a236-1841e549db1d","system_id":"levelo_inurba_marseille","lat":43.251095,"lon":5.403249,"is_reserved":false,"is_disabled":false,"rental_uris":{"android":"levelo://app?vid=c38c0434-7c0b-4918-a236-1841e549db1d","ios":"levelo://app?vid=c38c0434-7c0b-4918-a236-1841e549db1d"},"vehicle_type_id":"4","last_reported":1747552123,"current_range_meters":16400,"station_id":"ce4bhlh2rcd13ifvqgig","pricing_plan_id":"cebpf4jnsgd1na2vs0mg"},{"bike_id":"5ddd41df-5811-4b09-99f7-599fa0ee82b0","system_id":"levelo_inurba_marseille","lat":43.24564,"lon":5.39543,"is_reserved":false,"is_disabled":false,"rental_uris":{"android":"levelo://app?vid=5ddd41df-5811-4b09-99f7-599fa0ee82b0","ios":"levelo://app?vid=5ddd41df-5811-4b09-99f7-599fa0ee82b0"},"vehicle_type_id":"4","last_reported":1747552123,"current_range_meters":16400,"station_id":"ce4bhlp2rcd13ifvqgjg","pricing_plan_id":"cebpf4jnsgd1na2vs0mg"},{"bike_id":"9db140ea-f24a-423b-a2f7-2a93fb555c02","system_id":"levelo_inurba_marseille","lat":43.26206,"lon":5.37449,"is_reserved":false,"is_disabled":false,"rental_uris":{"android":"levelo://app?vid=9db140ea-f24a-423b-a2f7-2a93fb555c02","ios":"levelo://app?vid=9db140ea-f24a-423b-a2f7-2a93fb555c02"},"vehicle_type_id":"4","last_reported":1747552123,"current_range_meters":16400,"station_id":"ce4bhgp2rcd13ifvqfc0","pricing_plan_id":"cebpf4jnsgd1na2vs0mg"},{"bike_id":"bf2b2bfb-9733-4bda-908d-03391ae976cc","system_id":"levelo_inurba_marseille","lat":43.311912,"lon":5.416241,"is_reserved":false,"is_disabled":false,"rental_uris":{"android":"levelo://app?vid=bf2b2bfb-9733-4bda-908d-03391ae976cc","ios":"levelo://app?vid=bf2b2bfb-9733-4bda-908d-03391ae976cc"},"vehicle_type_id":"4","last_reported":1747552123,"current_range_meters":16400,"station_id":"","pricing_plan_id":"cebpf4jnsgd1na2vs0mg"},{"bike_id":"c591037e-9bdc-4128-b08a-269580cd419f","system_id":"levelo_inurba_marseille","lat":43.31985,"lon":5.38143,"is_reserved":false,"is_disabled":false,"rental_uris":{"android":"levelo://app?vid=c591037e-9bdc-4128-b08a-269580cd419f","ios":"levelo://app?vid=c591037e-9bdc-4128-b08a-269580cd419f"},"vehicle_type_id":"4","last_reported":1747552123,"current_range_meters":16400,"station_id":"ce4bhr12rcd13ifvqhpg","pricing_plan_id":"cebpf4jnsgd1na2vs0mg"},{"bike_id":"a0869ad5-e57d-4757-9e0c-87b965585234","system_id":"levelo_inurba_marseille","lat":43.323388,"lon":5.406379,"is_reserved":false,"is_disabled":false,"rental_uris":{"android":"levelo://app?vid=a0869ad5-e57d-4757-9e0c-87b965585234","ios":"levelo://app?vid=a0869ad5-e57d-4757-9e0c-87b965585234"},"vehicle_type_id":"4","last_reported":1747552123,"current_range_meters":16400,"station_id":"ce4bhq92rcd13ifvqhjg","pricing_plan_id":"cebpf4jnsgd1na2vs0mg"},{"bike_id":"b99acb52-c4ed-4b13-b1af-f3021f273634","system_id":"levelo_inurba_marseille","lat":43.284579,"lon":5.358914,"is_reserved":false,"is_disabled":false,"rental_uris":{"android":"levelo://app?vid=b99acb52-c4ed-4b13-b1af-f3021f273634","ios":"levelo://app?vid=b99acb52-c4ed-4b13-b1af-f3021f273634"},"vehicle_type_id":"4","last_reported":1747552123,"current_range_meters":16800,"station_id":"ce4bhah2rcd13ifvqei0","pricing_plan_id":"cebpf4jnsgd1na2vs0mg"},{"bike_id":"db647a88-7197-40ac-aeb0-6195ce252bd5","system_id":"levelo_inurba_marseille","lat":43.310836,"lon":5.424424,"is_reserved":false,"is_disabled":false,"rental_uris":{"android":"levelo://app?vid=db647a88-7197-40ac-aeb0-6195ce252bd5","ios":"levelo://app?vid=db647a88-7197-40ac-aeb0-6195ce252bd5"},"vehicle_type_id":"4","last_reported":1747552123,"current_range_meters":16800,"station_id":"ce4bhp92rcd13ifvqhag","pricing_plan_id":"cebpf4jnsgd1na2vs0mg"},{"bike_id":"bcbdbd69-7be8-42f8-a855-a4358565de8f","system_id":"levelo_inurba_marseille","lat":43.27731,"lon":5.41398,"is_reserved":false,"is_disabled":false,"rental_uris":{"android":"levelo://app?vid=bcbdbd69-7be8-42f8-a855-a4358565de8f","ios":"levelo://app?vid=bcbdbd69-7be8-42f8-a855-a4358565de8f"},"vehicle_type_id":"4","last_reported":1747552123,"current_range_meters":16800,"station_id":"","pricing_plan_id":"cebpf4jnsgd1na2vs0mg"},{"bike_id":"a675f4e5-fc13-43cf-92f6-6acfa57913c0","system_id":"levelo_inurba_marseille","lat":43.290191,"lon":5.381396,"is_reserved":false,"is_disabled":true,"rental_uris":{"android":"levelo://app?vid=a675f4e5-fc13-43cf-92f6-6acfa57913c0","ios":"levelo://app?vid=a675f4e5-fc13-43cf-92f6-6acfa57913c0"},"vehicle_type_id":"4","last_reported":1747552123,"current_range_meters":16800,"station_id":"ce4bh4p2rcd13ifvqe1g","pricing_plan_id":"cebpf4jnsgd1na2vs0mg"},{"bike_id":"ee75602a-f143-4ba1-b3de-330c8991247c","system_id":"levelo_inurba_marseille","lat":43.314889,"lon":5.372987,"is_reserved":false,"is_disabled":false,"rental_uris":{"android":"levelo://app?vid=ee75602a-f143-4ba1-b3de-330c8991247c","ios":"levelo://app?vid=ee75602a-f143-4ba1-b3de-330c8991247c"},"vehicle_type_id":"4","last_reported":1747552123,"current_range_meters":16800,"station_id":"ce4bgt12rcd13ifvqcd0","pricing_plan_id":"cebpf4jnsgd1na2vs0mg"},{"bike_id":"33977c43-c3b5-4d10-8807-f6b7d4987b98","system_id":"levelo_inurba_marseille","lat":43.26678,"lon":5.38266,"is_reserved":false,"is_disabled":false,"rental_uris":{"android":"levelo://app?vid=33977c43-c3b5-4d10-8807-f6b7d4987b98","ios":"levelo://app?vid=33977c43-c3b5-4d10-8807-f6b7d4987b98"},"vehicle_type_id":"4","last_reported":1747552123,"current_range_meters":16800,"station_id":"ce4bhg92rcd13ifvqf90","pricing_plan_id":"cebpf4jnsgd1na2vs0mg"},{"bike_id":"86603db7-b462-4e72-8622-a2dee8bb2920","system_id":"levelo_inurba_marseille","lat":43.337444,"lon":5.374475,"is_reserved":false,"is_disabled":false,"rental_uris":{"android":"levelo://app?vid=86603db7-b462-4e72-8622-a2dee8bb2920","ios":"levelo://app?vid=86603db7-b462-4e72-8622-a2dee8bb2920"},"vehicle_type_id":"4","last_reported":1747552123,"current_range_meters":16800,"station_id":"","pricing_plan_id":"cebpf4jnsgd1na2vs0mg"},{"bike_id":"1e2f0c80-2ce7-417a-ae75-e6a168f4d00d","system_id":"levelo_inurba_marseille","lat":43.286089,"lon":5.386841,"is_reserved":false,"is_disabled":false,"rental_uris":{"android":"levelo://app?vid=1e2f0c80-2ce7-417a-ae75-e6a168f4d00d","ios":"levelo://app?vid=1e2f0c80-2ce7-417a-ae75-e6a168f4d00d"},"vehicle_type_id":"4","last_reported":1747552123,"current_range_meters":17200,"station_id":"","pricing_plan_id":"cebpf4jnsgd1na2vs0mg"},{"bike_id":"83aa0dd8-f3fb-4d63-b293-2e31248d70b9","system_id":"levelo_inurba_marseille","lat":43.30885,"lon":5.39649,"is_reserved":false,"is_disabled":false,"rental_uris":{"android":"levelo://app?vid=83aa0dd8-f3fb-4d63-b293-2e31248d70b9","ios":"levelo://app?vid=83aa0dd8-f3fb-4d63-b293-2e31248d70b9"},"vehicle_type_id":"4","last_reported":1747552123,"current_range_meters":17200,"station_id":"ce4bh012rcd13ifvqcv0","pricing_plan_id":"cebpf4jnsgd1na2vs0mg"},{"bike_id":"00f68976-1a0e-41c7-8ddb-5a49cd12af91","system_id":"levelo_inurba_marseille","lat":43.31714,"lon":5.43709,"is_reserved":false,"is_disabled":false,"rental_uris":{"android":"levelo://app?vid=00f68976-1a0e-41c7-8ddb-5a49cd12af91","ios":"levelo://app?vid=00f68976-1a0e-41c7-8ddb-5a49cd12af91"},"vehicle_type_id":"4","last_reported":1747552123,"current_range_meters":16800,"station_id":"ce4bhp92rcd13ifvqhcg","pricing_plan_id":"cebpf4jnsgd1na2vs0mg"},{"bike_id":"85b4e8df-d7b1-4304-83b9-1f0b4b6dc1b8","system_id":"levelo_inurba_marseille","lat":43.26203,"lon":5.37443,"is_reserved":false,"is_disabled":false,"rental_uris":{"android":"levelo://app?vid=85b4e8df-d7b1-4304-83b9-1f0b4b6dc1b8","ios":"levelo://app?vid=85b4e8df-d7b1-4304-83b9-1f0b4b6dc1b8"},"vehicle_type_id":"4","last_reported":1747552123,"current_range_meters":17200,"station_id":"ce4bhgp2rcd13ifvqfc0","pricing_plan_id":"cebpf4jnsgd1na2vs0mg"},{"bike_id":"cf99a182-05bd-4cbc-b6a6-6a33541bdb08","system_id":"levelo_inurba_marseille","lat":43.25103,"lon":5.40315,"is_reserved":false,"is_disabled":false,"rental_uris":{"android":"levelo://app?vid=cf99a182-05bd-4cbc-b6a6-6a33541bdb08","ios":"levelo://app?vid=cf99a182-05bd-4cbc-b6a6-6a33541bdb08"},"vehicle_type_id":"4","last_reported":1747552123,"current_range_meters":17200,"station_id":"ce4bhlh2rcd13ifvqgig","pricing_plan_id":"cebpf4jnsgd1na2vs0mg"},{"bike_id":"cec3f715-614f-4bf0-96bd-7080ba74ba99","system_id":"levelo_inurba_marseille","lat":43.31113,"lon":5.37766,"is_reserved":false,"is_disabled":false,"rental_uris":{"android":"levelo://app?vid=cec3f715-614f-4bf0-96bd-7080ba74ba99","ios":"levelo://app?vid=cec3f715-614f-4bf0-96bd-7080ba74ba99"},"vehicle_type_id":"4","last_reported":1747552123,"current_range_meters":17200,"station_id":"ce4bgt92rcd13ifvqcg0","pricing_plan_id":"cebpf4jnsgd1na2vs0mg"},{"bike_id":"bf5ae813-579c-457c-8bf8-b874e79e5881","system_id":"levelo_inurba_marseille","lat":43.270504,"lon":5.402702,"is_reserved":false,"is_disabled":false,"rental_uris":{"android":"levelo://app?vid=bf5ae813-579c-457c-8bf8-b874e79e5881","ios":"levelo://app?vid=bf5ae813-579c-457c-8bf8-b874e79e5881"},"vehicle_type_id":"4","last_reported":1747552123,"current_range_meters":17200,"station_id":"ce4bhk92rcd13ifvqgc0","pricing_plan_id":"cebpf4jnsgd1na2vs0mg"},{"bike_id":"b608ee5d-bf23-4ce8-a2bd-64e717b2445e","system_id":"levelo_inurba_marseille","lat":43.30376,"lon":5.42484,"is_reserved":false,"is_disabled":false,"rental_uris":{"android":"levelo://app?vid=b608ee5d-bf23-4ce8-a2bd-64e717b2445e","ios":"levelo://app?vid=b608ee5d-bf23-4ce8-a2bd-64e717b2445e"},"vehicle_type_id":"4","last_reported":1747552123,"current_range_meters":17600,"station_id":"ce4bhoh2rcd13ifvqh6g","pricing_plan_id":"cebpf4jnsgd1na2vs0mg"},{"bike_id":"32dfa9c0-62ae-4e7a-8782-8ca611974d6b","system_id":"levelo_inurba_marseille","lat":43.24539,"lon":5.39525,"is_reserved":false,"is_disabled":false,"rental_uris":{"android":"levelo://app?vid=32dfa9c0-62ae-4e7a-8782-8ca611974d6b","ios":"levelo://app?vid=32dfa9c0-62ae-4e7a-8782-8ca611974d6b"},"vehicle_type_id":"4","last_reported":1747552123,"current_range_meters":17200,"station_id":"ce4bhlp2rcd13ifvqgjg","pricing_plan_id":"cebpf4jnsgd1na2vs0mg"},{"bike_id":"a8085997-0af4-4667-a061-b271c4b9805c","system_id":"levelo_inurba_marseille","lat":43.292525,"lon":5.409134,"is_reserved":false,"is_disabled":false,"rental_uris":{"android":"levelo://app?vid=a8085997-0af4-4667-a061-b271c4b9805c","ios":"levelo://app?vid=a8085997-0af4-4667-a061-b271c4b9805c"},"vehicle_type_id":"4","last_reported":1747552123,"current_range_meters":17600,"station_id":"ce4bh192rcd13ifvqdc0","pricing_plan_id":"cebpf4jnsgd1na2vs0mg"},{"bike_id":"67f72f62-eb9d-4994-bbcf-c10b28dd838c","system_id":"levelo_inurba_marseille","lat":43.26545,"lon":5.39411,"is_reserved":false,"is_disabled":false,"rental_uris":{"android":"levelo://app?vid=67f72f62-eb9d-4994-bbcf-c10b28dd838c","ios":"levelo://app?vid=67f72f62-eb9d-4994-bbcf-c10b28dd838c"},"vehicle_type_id":"4","last_reported":1747552123,"current_range_meters":17600,"station_id":"","pricing_plan_id":"cebpf4jnsgd1na2vs0mg"},{"bike_id":"9d37deb4-0805-414a-a313-75f0a3191e31","system_id":"levelo_inurba_marseille","lat":43.29549,"lon":5.42284,"is_reserved":false,"is_disabled":false,"rental_uris":{"android":"levelo://app?vid=9d37deb4-0805-414a-a313-75f0a3191e31","ios":"levelo://app?vid=9d37deb4-0805-414a-a313-75f0a3191e31"},"vehicle_type_id":"4","last_reported":1747552123,"current_range_meters":18000,"station_id":"ce4bhph2rcd13ifvqhdg","pricing_plan_id":"cebpf4jnsgd1na2vs0mg"},{"bike_id":"e380e188-a303-474b-b80b-a2c302d00fcc","system_id":"levelo_inurba_marseille","lat":43.29789,"lon":5.39348,"is_reserved":false,"is_disabled":false,"rental_uris":{"android":"levelo://app?vid=e380e188-a303-474b-b80b-a2c302d00fcc","ios":"levelo://app?vid=e380e188-a303-474b-b80b-a2c302d00fcc"},"vehicle_type_id":"4","last_reported":1747552123,"current_range_meters":17600,"station_id":"chh1huq6cuj3fo74tm60","pricing_plan_id":"cebpf4jnsgd1na2vs0mg"},{"bike_id":"26ae3f71-446b-4d48-9715-d0cb78472fbf","system_id":"levelo_inurba_marseille","lat":43.31173,"lon":5.37,"is_reserved":false,"is_disabled":false,"rental_uris":{"android":"levelo://app?vid=26ae3f71-446b-4d48-9715-d0cb78472fbf","ios":"levelo://app?vid=26ae3f71-446b-4d48-9715-d0cb78472fbf"},"vehicle_type_id":"4","last_reported":1747552123,"current_range_meters":17600,"station_id":"","pricing_plan_id":"cebpf4jnsgd1na2vs0mg"},{"bike_id":"be3ec35b-7e11-40c2-8533-efbf69bf1bbb","system_id":"levelo_inurba_marseille","lat":43.26059,"lon":5.39392,"is_reserved":false,"is_disabled":true,"rental_uris":{"android":"levelo://app?vid=be3ec35b-7e11-40c2-8533-efbf69bf1bbb","ios":"levelo://app?vid=be3ec35b-7e11-40c2-8533-efbf69bf1bbb"},"vehicle_type_id":"4","last_reported":1747552123,"current_range_meters":18000,"station_id":"ce4bhh92rcd13ifvqfj0","pricing_plan_id":"cebpf4jnsgd1na2vs0mg"},{"bike_id":"5b2683ba-111a-4e84-bff7-82b5caa90717","system_id":"levelo_inurba_marseille","lat":43.279441,"lon":5.410483,"is_reserved":false,"is_disabled":false,"rental_uris":{"android":"levelo://app?vid=5b2683ba-111a-4e84-bff7-82b5caa90717","ios":"levelo://app?vid=5b2683ba-111a-4e84-bff7-82b5caa90717"},"vehicle_type_id":"4","last_reported":1747552123,"current_range_meters":18000,"station_id":"ce4bhnp2rcd13ifvqh0g","pricing_plan_id":"cebpf4jnsgd1na2vs0mg"},{"bike_id":"6fbd5d4b-3ac0-49e5-8785-b645d18c78bb","system_id":"levelo_inurba_marseille","lat":43.310825,"lon":5.424411,"is_reserved":false,"is_disabled":false,"rental_uris":{"android":"levelo://app?vid=6fbd5d4b-3ac0-49e5-8785-b645d18c78bb","ios":"levelo://app?vid=6fbd5d4b-3ac0-49e5-8785-b645d18c78bb"},"vehicle_type_id":"4","last_reported":1747552123,"current_range_meters":18000,"station_id":"ce4bhp92rcd13ifvqhag","pricing_plan_id":"cebpf4jnsgd1na2vs0mg"},{"bike_id":"7b5e997d-e5cd-43d5-81a9-e37676225382","system_id":"levelo_inurba_marseille","lat":43.31987,"lon":5.38144,"is_reserved":false,"is_disabled":false,"rental_uris":{"android":"levelo://app?vid=7b5e997d-e5cd-43d5-81a9-e37676225382","ios":"levelo://app?vid=7b5e997d-e5cd-43d5-81a9-e37676225382"},"vehicle_type_id":"4","last_reported":1747552123,"current_range_meters":18800,"station_id":"ce4bhr12rcd13ifvqhpg","pricing_plan_id":"cebpf4jnsgd1na2vs0mg"},{"bike_id":"25a6ab0d-3d76-40d0-bc6c-e1f216493645","system_id":"levelo_inurba_marseille","lat":43.21751,"lon":5.34599,"is_reserved":false,"is_disabled":false,"rental_uris":{"android":"levelo://app?vid=25a6ab0d-3d76-40d0-bc6c-e1f216493645","ios":"levelo://app?vid=25a6ab0d-3d76-40d0-bc6c-e1f216493645"},"vehicle_type_id":"4","last_reported":1747552123,"current_range_meters":18800,"station_id":"st_cvj6r9ubvosntc0bgbag","pricing_plan_id":"cebpf4jnsgd1na2vs0mg"},{"bike_id":"d01a736e-020a-425b-a980-155c39a26657","system_id":"levelo_inurba_marseille","lat":43.29535,"lon":5.37502,"is_reserved":false,"is_disabled":false,"rental_uris":{"android":"levelo://app?vid=d01a736e-020a-425b-a980-155c39a26657","ios":"levelo://app?vid=d01a736e-020a-425b-a980-155c39a26657"},"vehicle_type_id":"4","last_reported":1747552123,"current_range_meters":18800,"station_id":"ce4bgkp2rcd13ifvqbmg","pricing_plan_id":"cebpf4jnsgd1na2vs0mg"},{"bike_id":"11595ed8-8a87-4135-bacb-4f28f6f3f7c3","system_id":"levelo_inurba_marseille","lat":43.28446,"lon":5.35908,"is_reserved":false,"is_disabled":false,"rental_uris":{"android":"levelo://app?vid=11595ed8-8a87-4135-bacb-4f28f6f3f7c3","ios":"levelo://app?vid=11595ed8-8a87-4135-bacb-4f28f6f3f7c3"},"vehicle_type_id":"4","last_reported":1747552123,"current_range_meters":18800,"station_id":"ce4bhah2rcd13ifvqei0","pricing_plan_id":"cebpf4jnsgd1na2vs0mg"},{"bike_id":"049fbe1b-c405-4abb-92ed-64a5413617ef","system_id":"levelo_inurba_marseille","lat":43.26207,"lon":5.37432,"is_reserved":false,"is_disabled":false,"rental_uris":{"android":"levelo://app?vid=049fbe1b-c405-4abb-92ed-64a5413617ef","ios":"levelo://app?vid=049fbe1b-c405-4abb-92ed-64a5413617ef"},"vehicle_type_id":"4","last_reported":1747552123,"current_range_meters":18800,"station_id":"ce4bhgp2rcd13ifvqfc0","pricing_plan_id":"cebpf4jnsgd1na2vs0mg"},{"bike_id":"e02af135-527e-4f04-b463-540aa971dcbc","system_id":"levelo_inurba_marseille","lat":43.30935,"lon":5.40138,"is_reserved":false,"is_disabled":false,"rental_uris":{"android":"levelo://app?vid=e02af135-527e-4f04-b463-540aa971dcbc","ios":"levelo://app?vid=e02af135-527e-4f04-b463-540aa971dcbc"},"vehicle_type_id":"4","last_reported":1747552123,"current_range_meters":18800,"station_id":"ce4bgvp2rcd13ifvqct0","pricing_plan_id":"cebpf4jnsgd1na2vs0mg"},{"bike_id":"d39cae16-34b5-4b82-8fc6-cac28c889070","system_id":"levelo_inurba_marseille","lat":43.29459,"lon":5.38625,"is_reserved":false,"is_disabled":true,"rental_uris":{"android":"levelo://app?vid=d39cae16-34b5-4b82-8fc6-cac28c889070","ios":"levelo://app?vid=d39cae16-34b5-4b82-8fc6-cac28c889070"},"vehicle_type_id":"4","last_reported":1747552123,"current_range_meters":18800,"station_id":"ce4bh2h2rcd13ifvqdh0","pricing_plan_id":"cebpf4jnsgd1na2vs0mg"},{"bike_id":"877a22d1-f170-48d9-928d-8db764982ee8","system_id":"levelo_inurba_marseille","lat":43.231424,"lon":5.437117,"is_reserved":false,"is_disabled":false,"rental_uris":{"android":"levelo://app?vid=877a22d1-f170-48d9-928d-8db764982ee8","ios":"levelo://app?vid=877a22d1-f170-48d9-928d-8db764982ee8"},"vehicle_type_id":"4","last_reported":1747552123,"current_range_meters":18000,"station_id":"ce4bhmp2rcd13ifvqgog","pricing_plan_id":"cebpf4jnsgd1na2vs0mg"},{"bike_id":"188c0480-8788-40d0-af36-4aa2d4838ea7","system_id":"levelo_inurba_marseille","lat":43.26557,"lon":5.39006,"is_reserved":false,"is_disabled":false,"rental_uris":{"android":"levelo://app?vid=188c0480-8788-40d0-af36-4aa2d4838ea7","ios":"levelo://app?vid=188c0480-8788-40d0-af36-4aa2d4838ea7"},"vehicle_type_id":"4","last_reported":1747552123,"current_range_meters":18800,"station_id":"ce4bhe12rcd13ifvqf30","pricing_plan_id":"cebpf4jnsgd1na2vs0mg"},{"bike_id":"74779d32-87cf-4f23-b047-7955c944ddd2","system_id":"levelo_inurba_marseille","lat":43.29778,"lon":5.38111,"is_reserved":false,"is_disabled":true,"rental_uris":{"android":"levelo://app?vid=74779d32-87cf-4f23-b047-7955c944ddd2","ios":"levelo://app?vid=74779d32-87cf-4f23-b047-7955c944ddd2"},"vehicle_type_id":"4","last_reported":1747552123,"current_range_meters":18800,"station_id":"ce4bgip2rcd13ifvqbb0","pricing_plan_id":"cebpf4jnsgd1na2vs0mg"},{"bike_id":"09ce2cb9-244b-4c1a-90f3-24693dfa819d","system_id":"levelo_inurba_marseille","lat":43.26548,"lon":5.3728,"is_reserved":false,"is_disabled":false,"rental_uris":{"android":"levelo://app?vid=09ce2cb9-244b-4c1a-90f3-24693dfa819d","ios":"levelo://app?vid=09ce2cb9-244b-4c1a-90f3-24693dfa819d"},"vehicle_type_id":"4","last_reported":1747552123,"current_range_meters":18800,"station_id":"ce4bhg12rcd13ifvqf70","pricing_plan_id":"cebpf4jnsgd1na2vs0mg"},{"bike_id":"1a2305d1-8be9-429f-ad5f-2c1b076bbdfc","system_id":"levelo_inurba_marseille","lat":43.28458,"lon":5.35889,"is_reserved":false,"is_disabled":false,"rental_uris":{"android":"levelo://app?vid=1a2305d1-8be9-429f-ad5f-2c1b076bbdfc","ios":"levelo://app?vid=1a2305d1-8be9-429f-ad5f-2c1b076bbdfc"},"vehicle_type_id":"4","last_reported":1747552123,"current_range_meters":19200,"station_id":"ce4bhah2rcd13ifvqei0","pricing_plan_id":"cebpf4jnsgd1na2vs0mg"},{"bike_id":"8eca5ebf-2cf0-473c-bed3-061edaa3c6fe","system_id":"levelo_inurba_marseille","lat":43.2465,"lon":5.38905,"is_reserved":false,"is_disabled":false,"rental_uris":{"android":"levelo://app?vid=8eca5ebf-2cf0-473c-bed3-061edaa3c6fe","ios":"levelo://app?vid=8eca5ebf-2cf0-473c-bed3-061edaa3c6fe"},"vehicle_type_id":"4","last_reported":1747552123,"current_range_meters":19200,"station_id":"ce4bhg12rcd13ifvqf60","pricing_plan_id":"cebpf4jnsgd1na2vs0mg"},{"bike_id":"b3594d0a-6267-4611-9097-5bb94a2ba24f","system_id":"levelo_inurba_marseille","lat":43.311328,"lon":5.370043,"is_reserved":false,"is_disabled":false,"rental_uris":{"android":"levelo://app?vid=b3594d0a-6267-4611-9097-5bb94a2ba24f","ios":"levelo://app?vid=b3594d0a-6267-4611-9097-5bb94a2ba24f"},"vehicle_type_id":"4","last_reported":1747552123,"current_range_meters":19200,"station_id":"","pricing_plan_id":"cebpf4jnsgd1na2vs0mg"},{"bike_id":"5d140f7b-8225-4b01-9103-f17b88333a52","system_id":"levelo_inurba_marseille","lat":43.28476,"lon":5.38535,"is_reserved":false,"is_disabled":false,"rental_uris":{"android":"levelo://app?vid=5d140f7b-8225-4b01-9103-f17b88333a52","ios":"levelo://app?vid=5d140f7b-8225-4b01-9103-f17b88333a52"},"vehicle_type_id":"4","last_reported":1747552123,"current_range_meters":19200,"station_id":"ce4bh8p2rcd13ifvqeb0","pricing_plan_id":"cebpf4jnsgd1na2vs0mg"},{"bike_id":"59e832fc-a678-4432-af0a-7b87d64e5b52","system_id":"levelo_inurba_marseille","lat":43.231169,"lon":5.436902,"is_reserved":false,"is_disabled":false,"rental_uris":{"android":"levelo://app?vid=59e832fc-a678-4432-af0a-7b87d64e5b52","ios":"levelo://app?vid=59e832fc-a678-4432-af0a-7b87d64e5b52"},"vehicle_type_id":"4","last_reported":1747552123,"current_range_meters":19200,"station_id":"ce4bhmp2rcd13ifvqgog","pricing_plan_id":"cebpf4jnsgd1na2vs0mg"},{"bike_id":"0099895d-ba0f-4c4a-9e94-fccd236ff73f","system_id":"levelo_inurba_marseille","lat":43.292572,"lon":5.409029,"is_reserved":false,"is_disabled":false,"rental_uris":{"android":"levelo://app?vid=0099895d-ba0f-4c4a-9e94-fccd236ff73f","ios":"levelo://app?vid=0099895d-ba0f-4c4a-9e94-fccd236ff73f"},"vehicle_type_id":"4","last_reported":1747552123,"current_range_meters":19200,"station_id":"ce4bh192rcd13ifvqdc0","pricing_plan_id":"cebpf4jnsgd1na2vs0mg"},