{"last_updated":1730207892,"ttl":60,"version":"2.2","data":{"bikes":[{"bike_id":"de3286df-6c7c-495b-9d18-e4d7002cbb06","system_id":"levelo_inurba_marseille","lat":43.27837,"lon":5.39209,"is_reserved":false,"is_disabled":false,"rental_uris":{"android":"levelo://app?vid=de3286df-6c7c-495b-9d18-e4d7002cbb06","ios":"levelo://app?vid=de3286df-6c7c-495b-9d18-e4d7002cbb06"},"vehicle_type_id":"4","last_reported":1730207892,"current_range_meters":17200,"station_id":"ce4bhjp2rcd13ifvqga0","pricing_plan_id":"cebpf4jnsgd1na2vs0mg"},{"bike_id":"6daefb7d-890b-4927-bca4-1e9b57c2727d","system_id":"levelo_inurba_marseille","lat":43.27179,"lon":5.40996,"is_reserved":false,"is_disabled":false,"rental_uris":{"android":"levelo://app?vid=6daefb7d-890b-4927-bca4-1e9b57c2727d","ios":"levelo://app?vid=6daefb7d-890b-4927-bca4-1e9b57c2727d"},"vehicle_type_id":"4","last_reported":1730207892,"current_range_meters":7200,"station_id":"ce4bhl12rcd13ifvqgf0","pricing_plan_id":"cebpf4jnsgd1na2vs0mg"},{"bike_id":"4412fcda-f252-4c84-82b4-cfcfbd45622b","system_id":"levelo_inurba_marseille","lat":43.29892,"lon":5.43658,"is_reserved":false,"is_disabled":false,"rental_uris":{"android":"levelo://app?vid=4412fcda-f252-4c84-82b4-cfcfbd45622b","ios":"levelo://app?vid=4412fcda-f252-4c84-82b4-cfcfbd45622b"},"vehicle_type_id":"4","last_reported":1730207892,"current_range_meters":38800,"station_id":"ce4bhpp2rcd13ifvqhfg","pricing_plan_id":"cebpf4jnsgd1na2vs0mg"},{"bike_id":"7728c6cd-92bf-48f0-9848-309e67c38641","system_id":"levelo_inurba_marseille","lat":43.32292,"lon":5.382793,"is_reserved":false,"is_disabled":false,"rental_uris":{"android":"levelo://app?vid=7728c6cd-92bf-48f0-9848-309e67c38641","ios":"levelo://app?vid=7728c6cd-92bf-48f0-9848-309e67c38641"},"vehicle_type_id":"4","last_reported":1730207892,"current_range_meters":39200,"station_id":"ce4bhr12rcd13ifvqhqg","pricing_plan_id":"cebpf4jnsgd1na2vs0mg"},{"bike_id":"89146a8e-4b67-409d-b7c9-de2fbe50837a","system_id":"levelo_inurba_marseille","lat":43.24184,"lon":5.39722,"is_reserved":false,"is_disabled":false,"rental_uris":{"android":"levelo://app?vid=89146a8e-4b67-409d-b7c9-de2fbe50837a","ios":"levelo://app?vid=89146a8e-4b67-409d-b7c9-de2fbe50837a"},"vehicle_type_id":"4","last_reported":1730207892,"current_range_meters":30000,"station_id":"ce4bhn12rcd13ifvqgpg","pricing_plan_id":"cebpf4jnsgd1na2vs0mg"},{"bike_id":"00b405d9-96e7-4d4d-8ac1-f24f0f061eaf","system_id":"levelo_inurba_marseille","lat":43.3014,"lon":5.3741,"is_reserved":false,"is_disabled":false,"rental_uris":{"android":"levelo://app?vid=00b405d9-96e7-4d4d-8ac1-f24f0f061eaf","ios":"levelo://app?vid=00b405d9-96e7-4d4d-8ac1-f24f0f061eaf"},"vehicle_type_id":"4","last_reported":1730207892,"current_range_meters":13600,"station_id":"ce4bgs92rcd13ifvqcc0","pricing_plan_id":"cebpf4jnsgd1na2vs0mg"},{"bike_id":"7019b8ca-f923-42f4-b767-30d6c2983305","system_id":"levelo_inurba_marseille","lat":43.25106,"lon":5.40319,"is_reserved":false,"is_disabled":false,"rental_uris":{"android":"levelo://app?vid=7019b8ca-f923-42f4-b767-30d6c2983305","ios":"levelo://app?vid=7019b8ca-f923-42f4-b767-30d6c2983305"},"vehicle_type_id":"4","last_reported":1730207892,"current_range_meters":38800,"station_id":"ce4bhlh2rcd13ifvqgig","pricing_plan_id":"cebpf4jnsgd1na2vs0mg"},{"bike_id":"9cd28ed1-51d4-469f-80b1-db1aa7224fd9","system_id":"levelo_inurba_marseille","lat":43.31891,"lon":5.4074,"is_reserved":false,"is_disabled":false,"rental_uris":{"android":"levelo://app?vid=9cd28ed1-51d4-469f-80b1-db1aa7224fd9","ios":"levelo://app?vid=9cd28ed1-51d4-469f-80b1-db1aa7224fd9"},"vehicle_type_id":"4","last_reported":1730207892,"current_range_meters":35600,"station_id":"ce4bhq12rcd13ifvqhig","pricing_plan_id":"cebpf4jnsgd1na2vs0mg"},{"bike_id":"bc2aad60-c2be-4b76-a45d-a2666a9feb66","system_id":"levelo_inurba_marseille","lat":43.31362,"lon":5.38484,"is_reserved":false,"is_disabled":false,"rental_uris":{"android":"levelo://app?vid=bc2aad60-c2be-4b76-a45d-a2666a9feb66","ios":"levelo://app?vid=bc2aad60-c2be-4b76-a45d-a2666a9feb66"},"vehicle_type_id":"4","last_reported":1730207892,"current_range_meters":6800,"station_id":"ce4bgt92rcd13ifvqcf0","pricing_plan_id":"cebpf4jnsgd1na2vs0mg"},{"bike_id":"61e48d5b-8738-4698-84d5-5eec348f8969","system_id":"levelo_inurba_marseille","lat":43.29067,"lon":5.37154,"is_reserved":false,"is_disabled":false,"rental_uris":{"android":"levelo://app?vid=61e48d5b-8738-4698-84d5-5eec348f8969","ios":"levelo://app?vid=61e48d5b-8738-4698-84d5-5eec348f8969"},"vehicle_type_id":"4","last_reported":1730207892,"current_range_meters":9600,"station_id":"ce4bh5p2rcd13ifvqe4g","pricing_plan_id":"cebpf4jnsgd1na2vs0mg"},{"bike_id":"62c7e5a0-66c0-47ee-b181-1ce7d8b0d22b","system_id":"levelo_inurba_marseille","lat":43.31361,"lon":5.36696,"is_reserved":false,"is_disabled":false,"rental_uris":{"android":"levelo://app?vid=62c7e5a0-66c0-47ee-b181-1ce7d8b0d22b","ios":"levelo://app?vid=62c7e5a0-66c0-47ee-b181-1ce7d8b0d22b"},"vehicle_type_id":"4","last_reported":1730207892,"current_range_meters":39200,"station_id":"ce4bgr92rcd13ifvqc6g","pricing_plan_id":"cebpf4jnsgd1na2vs0mg"},{"bike_id":"0b73970e-e50e-44f9-a995-ef0c4aae8a41","system_id":"levelo_inurba_marseille","lat":43.29167,"lon":5.37157,"is_reserved":false,"is_disabled":false,"rental_uris":{"android":"levelo://app?vid=0b73970e-e50e-44f9-a995-ef0c4aae8a41","ios":"levelo://app?vid=0b73970e-e50e-44f9-a995-ef0c4aae8a41"},"vehicle_type_id":"4","last_reported":1730207892,"current_range_meters":16800,"station_id":"ce4bha92rcd13ifvqeh0","pricing_plan_id":"cebpf4jnsgd1na2vs0mg"},{"bike_id":"4efc610e-02b4-467c-acf9-9ee68f6b7bf5","system_id":"levelo_inurba_marseille","lat":43.23194,"lon":5.35549,"is_reserved":false,"is_disabled":false,"rental_uris":{"android":"levelo://app?vid=4efc610e-02b4-467c-acf9-9ee68f6b7bf5","ios":"levelo://app?vid=4efc610e-02b4-467c-acf9-9ee68f6b7bf5"},"vehicle_type_id":"4","last_reported":1730207892,"current_range_meters":38800,"station_id":"ce4bhu92rcd13ifvqi70","pricing_plan_id":"cebpf4jnsgd1na2vs0mg"},{"bike_id":"2a9814d4-73b2-43a3-87c9-02ea5c2f67fc","system_id":"levelo_inurba_marseille","lat":43.30147,"lon":5.38071,"is_reserved":false,"is_disabled":false,"rental_uris":{"android":"levelo://app?vid=2a9814d4-73b2-43a3-87c9-02ea5c2f67fc","ios":"levelo://app?vid=2a9814d4-73b2-43a3-87c9-02ea5c2f67fc"},"vehicle_type_id":"4","last_reported":1730207892,"current_range_meters":38800,"station_id":"ce4bgjp2rcd13ifvqbh0","pricing_plan_id":"cebpf4jnsgd1na2vs0mg"},{"bike_id":"960d455d-56ea-41f6-9c69-d1294353e87b","system_id":"levelo_inurba_marseille","lat":43.32479,"lon":5.36558,"is_reserved":false,"is_disabled":false,"rental_uris":{"android":"levelo://app?vid=960d455d-56ea-41f6-9c69-d1294353e87b","ios":"levelo://app?vid=960d455d-56ea-41f6-9c69-d1294353e87b"},"vehicle_type_id":"4","last_reported":1730207892,"current_range_meters":29600,"station_id":"ce4bhs12rcd13ifvqhvg","pricing_plan_id":"cebpf4jnsgd1na2vs0mg"},{"bike_id":"703412b6-5bff-4812-8759-8a99beeb3031","system_id":"levelo_inurba_marseille","lat":43.30911,"lon":5.36844,"is_reserved":false,"is_disabled":false,"rental_uris":{"android":"levelo://app?vid=703412b6-5bff-4812-8759-8a99beeb3031","ios":"levelo://app?vid=703412b6-5bff-4812-8759-8a99beeb3031"},"vehicle_type_id":"4","last_reported":1730207892,"current_range_meters":36800,"station_id":"ce4bgn92rcd13ifvqbvg","pricing_plan_id":"cebpf4jnsgd1na2vs0mg"},{"bike_id":"f5ef306f-8777-4d39-bf6c-113d3a251efe","system_id":"levelo_inurba_marseille","lat":43.303986,"lon":5.369885,"is_reserved":false,"is_disabled":false,"rental_uris":{"android":"levelo://app?vid=f5ef306f-8777-4d39-bf6c-113d3a251efe","ios":"levelo://app?vid=f5ef306f-8777-4d39-bf6c-113d3a251efe"},"vehicle_type_id":"4","last_reported":1730207892,"current_range_meters":28000,"station_id":"ce4bgqh2rcd13ifvqc5g","pricing_plan_id":"cebpf4jnsgd1na2vs0mg"},{"bike_id":"32575b86-9b07-4257-b684-9bcb660d5c42","system_id":"levelo_inurba_marseille","lat":43.22932,"lon":5.35372,"is_reserved":false,"is_disabled":false,"rental_uris":{"android":"levelo://app?vid=32575b86-9b07-4257-b684-9bcb660d5c42","ios":"levelo://app?vid=32575b86-9b07-4257-b684-9bcb660d5c42"},"vehicle_type_id":"4","last_reported":1730207892,"current_range_meters":4000,"station_id":"cpo3532slgdg3j2ikp40","pricing_plan_id":"cebpf4jnsgd1na2vs0mg"},{"bike_id":"8e1cf6e1-b26f-4ff5-aadf-710f6284a59f","system_id":"levelo_inurba_marseille","lat":43.28075,"lon":5.39635,"is_reserved":false,"is_disabled":false,"rental_uris":{"android":"levelo://app?vid=8e1cf6e1-b26f-4ff5-aadf-710f6284a59f","ios":"levelo://app?vid=8e1cf6e1-b26f-4ff5-aadf-710f6284a59f"},"vehicle_type_id":"4","last_reported":1730207892,"current_range_meters":39200,"station_id":"ce4bho12rcd13ifvqh2g","pricing_plan_id":"cebpf4jnsgd1na2vs0mg"},{"bike_id":"b7fb23b8-e68c-48d1-8b6b-477a231cd846","system_id":"levelo_inurba_marseille","lat":43.23176,"lon":5.3999,"is_reserved":false,"is_disabled":false,"rental_uris":{"android":"levelo://app?vid=b7fb23b8-e68c-48d1-8b6b-477a231cd846","ios":"levelo://app?vid=b7fb23b8-e68c-48d1-8b6b-477a231cd846"},"vehicle_type_id":"4","last_reported":1730207892,"current_range_meters":16400,"station_id":"ce4bhn12rcd13ifvqgqg","pricing_plan_id":"cebpf4jnsgd1na2vs0mg"},{"bike_id":"d8345d1e-36d0-463c-aadb-d17da6d61802","system_id":"levelo_inurba_marseille","lat":43.26571,"lon":5.39012,"is_reserved":false,"is_disabled":false,"rental_uris":{"android":"levelo://app?vid=d8345d1e-36d0-463c-aadb-d17da6d61802","ios":"levelo://app?vid=d8345d1e-36d0-463c-aadb-d17da6d61802"},"vehicle_type_id":"4","last_reported":1730207892,"current_range_meters":36000,"station_id":"ce4bhe12rcd13ifvqf30","pricing_plan_id":"cebpf4jnsgd1na2vs0mg"},{"bike_id":"a6317471-4c65-41d4-93a8-d19ee91e0105","system_id":"levelo_inurba_marseille","lat":43.2737,"lon":5.36248,"is_reserved":false,"is_disabled":false,"rental_uris":{"android":"levelo://app?vid=a6317471-4c65-41d4-93a8-d19ee91e0105","ios":"levelo://app?vid=a6317471-4c65-41d4-93a8-d19ee91e0105"},"vehicle_type_id":"4","last_reported":1730207892,"current_range_meters":30000,"station_id":"ce4bhbh2rcd13ifvqeo0","pricing_plan_id":"cebpf4jnsgd1na2vs0mg"},{"bike_id":"6eaea0d3-c68b-4350-aec2-1e9b9eaefa44","system_id":"levelo_inurba_marseille","lat":43.25087,"lon":5.39524,"is_reserved":false,"is_disabled":false,"rental_uris":{"android":"levelo://app?vid=6eaea0d3-c68b-4350-aec2-1e9b9eaefa44","ios":"levelo://app?vid=6eaea0d3-c68b-4350-aec2-1e9b9eaefa44"},"vehicle_type_id":"4","last_reported":1730207892,"current_range_meters":35200,"station_id":"ce4bhm12rcd13ifvqgkg","pricing_plan_id":"cebpf4jnsgd1na2vs0mg"},{"bike_id":"5f21ece6-e72f-4d13-84af-bde0371399e7","system_id":"levelo_inurba_marseille","lat":43.27203,"lon":5.39185,"is_reserved":false,"is_disabled":false,"rental_uris":{"android":"levelo://app?vid=5f21ece6-e72f-4d13-84af-bde0371399e7","ios":"levelo://app?vid=5f21ece6-e72f-4d13-84af-bde0371399e7"},"vehicle_type_id":"4","last_reported":1730207892,"current_range_meters":24800,"station_id":"ce4bhhp2rcd13ifvqfm0","pricing_plan_id":"cebpf4jnsgd1na2vs0mg"},{"bike_id":"3da962cf-d5a5-4928-9dd3-6dee9bd916c1","system_id":"levelo_inurba_marseille","lat":43.26569,"lon":5.3901,"is_reserved":false,"is_disabled":false,"rental_uris":{"android":"levelo://app?vid=3da962cf-d5a5-4928-9dd3-6dee9bd916c1","ios":"levelo://app?vid=3da962cf-d5a5-4928-9dd3-6dee9bd916c1"},"vehicle_type_id":"4","last_reported":1730207892,"current_range_meters":16000,"station_id":"ce4bhe12rcd13ifvqf30","pricing_plan_id":"cebpf4jnsgd1na2vs0mg"},{"bike_id":"6d9917f4-edb0-4eb1-a47b-efd1236cb8ea","system_id":"levelo_inurba_marseille","lat":43.298702,"lon":5.397341,"is_reserved":false,"is_disabled":false,"rental_uris":{"android":"levelo://app?vid=6d9917f4-edb0-4eb1-a47b-efd1236cb8ea","ios":"levelo://app?vid=6d9917f4-edb0-4eb1-a47b-efd1236cb8ea"},"vehicle_type_id":"4","last_reported":1730207892,"current_range_meters":23200,"station_id":"ce4bh0h2rcd13ifvqd50","pricing_plan_id":"cebpf4jnsgd1na2vs0mg"},{"bike_id":"4f3281e8-1a78-4c1e-b83a-b01b042e91bc","system_id":"levelo_inurba_marseille","lat":43.27042,"lon":5.40274,"is_reserved":false,"is_disabled":false,"rental_uris":{"android":"levelo://app?vid=4f3281e8-1a78-4c1e-b83a-b01b042e91bc","ios":"levelo://app?vid=4f3281e8-1a78-4c1e-b83a-b01b042e91bc"},"vehicle_type_id":"4","last_reported":1730207892,"current_range_meters":36000,"station_id":"ce4bhk92rcd13ifvqgc0","pricing_plan_id":"cebpf4jnsgd1na2vs0mg"},{"bike_id":"d51b208b-e724-45db-a4b8-03d2de0ce902","system_id":"levelo_inurba_marseille","lat":43.32335,"lon":5.4062,"is_reserved":false,"is_disabled":false,"rental_uris":{"android":"levelo://app?vid=d51b208b-e724-45db-a4b8-03d2de0ce902","ios":"levelo://app?vid=d51b208b-e724-45db-a4b8-03d2de0ce902"},"vehicle_type_id":"4","last_reported":1730207892,"current_range_meters":33600,"station_id":"ce4bhq92rcd13ifvqhjg","pricing_plan_id":"cebpf4jnsgd1na2vs0mg"},{"bike_id":"bdf63b9f-8930-45e7-8177-b607568d23e7","system_id":"levelo_inurba_marseille","lat":43.3054,"lon":5.36695,"is_reserved":false,"is_disabled":false,"rental_uris":{"android":"levelo://app?vid=bdf63b9f-8930-45e7-8177-b607568d23e7","ios":"levelo://app?vid=bdf63b9f-8930-45e7-8177-b607568d23e7"},"vehicle_type_id":"4","last_reported":1730207892,"current_range_meters":38000,"station_id":"ce4bgrp2rcd13ifvqc9g","pricing_plan_id":"cebpf4jnsgd1na2vs0mg"},{"bike_id":"8897d205-66a5-4afc-b22b-cefc8ff949a9","system_id":"levelo_inurba_marseille","lat":43.28426,"lon":5.34995,"is_reserved":false,"is_disabled":false,"rental_uris":{"android":"levelo://app?vid=8897d205-66a5-4afc-b22b-cefc8ff949a9","ios":"levelo://app?vid=8897d205-66a5-4afc-b22b-cefc8ff949a9"},"vehicle_type_id":"4","last_reported":1730207892,"current_range_meters":26800,"station_id":"ce4bhbh2rcd13ifvqepg","pricing_plan_id":"cebpf4jnsgd1na2vs0mg"},{"bike_id":"6b888c72-5ecd-4771-a3d9-80a55c284392","system_id":"levelo_inurba_marseille","lat":43.2953,"lon":5.39032,"is_reserved":false,"is_disabled":false,"rental_uris":{"android":"levelo://app?vid=6b888c72-5ecd-4771-a3d9-80a55c284392","ios":"levelo://app?vid=6b888c72-5ecd-4771-a3d9-80a55c284392"},"vehicle_type_id":"4","last_reported":1730207892,"current_range_meters":36000,"station_id":"ce4bh3p2rcd13ifvqdp0","pricing_plan_id":"cebpf4jnsgd1na2vs0mg"},{"bike_id":"ab1806ce-64b6-48f7-8a04-5dba704ad160","system_id":"levelo_inurba_marseille","lat":43.28407,"lon":5.37503,"is_reserved":false,"is_disabled":false,"rental_uris":{"android":"levelo://app?vid=ab1806ce-64b6-48f7-8a04-5dba704ad160","ios":"levelo://app?vid=ab1806ce-64b6-48f7-8a04-5dba704ad160"},"vehicle_type_id":"4","last_reported":1730207892,"current_range_meters":11600,"station_id":"ce4bh412rcd13ifvqds0","pricing_plan_id":"cebpf4jnsgd1na2vs0mg"},{"bike_id":"55a1a2ad-6554-439c-8d11-080937843c15","system_id":"levelo_inurba_marseille","lat":43.309608,"lon":5.39029,"is_reserved":false,"is_disabled":false,"rental_uris":{"android":"levelo://app?vid=55a1a2ad-6554-439c-8d11-080937843c15","ios":"levelo://app?vid=55a1a2ad-6554-439c-8d11-080937843c15"},"vehicle_type_id":"4","last_reported":1730207892,"current_range_meters":26800,"station_id":"ce4bgup2rcd13ifvqco0","pricing_plan_id":"cebpf4jnsgd1na2vs0mg"},{"bike_id":"d4275363-54ce-4b54-b962-c24a45945807","system_id":"levelo_inurba_marseille","lat":43.22926,"lon":5.35374,"is_reserved":false,"is_disabled":false,"rental_uris":{"android":"levelo://app?vid=d4275363-54ce-4b54-b962-c24a45945807","ios":"levelo://app?vid=d4275363-54ce-4b54-b962-c24a45945807"},"vehicle_type_id":"4","last_reported":1730207892,"current_range_meters":31200,"station_id":"cpo3532slgdg3j2ikp40","pricing_plan_id":"cebpf4jnsgd1na2vs0mg"},{"bike_id":"bb4b7363-6c72-44dd-908c-e58e2d4f2dae","system_id":"levelo_inurba_marseille","lat":43.29969,"lon":5.37177,"is_reserved":false,"is_disabled":false,"rental_uris":{"android":"levelo://app?vid=bb4b7363-6c72-44dd-908c-e58e2d4f2dae","ios":"levelo://app?vid=bb4b7363-6c72-44dd-908c-e58e2d4f2dae"},"vehicle_type_id":"4","last_reported":1730207892,"current_range_meters":39200,"station_id":"ce4bgr92rcd13ifvqc7g","pricing_plan_id":"cebpf4jnsgd1na2vs0mg"},{"bike_id":"2dec6767-de9d-4f2f-a633-8a4d56c593a2","system_id":"levelo_inurba_marseille","lat":43.31712,"lon":5.43711,"is_reserved":false,"is_disabled":false,"rental_uris":{"android":"levelo://app?vid=2dec6767-de9d-4f2f-a633-8a4d56c593a2","ios":"levelo://app?vid=2dec6767-de9d-4f2f-a633-8a4d56c593a2"},"vehicle_type_id":"4","last_reported":1730207892,"current_range_meters":10800,"station_id":"ce4bhp92rcd13ifvqhcg","pricing_plan_id":"cebpf4jnsgd1na2vs0mg"},{"bike_id":"1a01e51f-80b9-45b2-8546-6f6668da116a","system_id":"levelo_inurba_marseille","lat":43.25937,"lon":5.40896,"is_reserved":false,"is_disabled":false,"rental_uris":{"android":"levelo://app?vid=1a01e51f-80b9-45b2-8546-6f6668da116a","ios":"levelo://app?vid=1a01e51f-80b9-45b2-8546-6f6668da116a"},"vehicle_type_id":"4","last_reported":1730207892,"current_range_meters":34000,"station_id":"ce4bhm92rcd13ifvqglg","pricing_plan_id":"cebpf4jnsgd1na2vs0mg"},{"bike_id":"70bb78fe-4bef-4d56-a833-affc0bdfc9f3","system_id":"levelo_inurba_marseille","lat":43.2319,"lon":5.35556,"is_reserved":false,"is_disabled":false,"rental_uris":{"android":"levelo://app?vid=70bb78fe-4bef-4d56-a833-affc0bdfc9f3","ios":"levelo://app?vid=70bb78fe-4bef-4d56-a833-affc0bdfc9f3"},"vehicle_type_id":"4","last_reported":1730207892,"current_range_meters":40000,"station_id":"ce4bhu92rcd13ifvqi70","pricing_plan_id":"cebpf4jnsgd1na2vs0mg"},{"bike_id":"9eae14ce-387b-4159-b8b0-a9a39cdb7f55","system_id":"levelo_inurba_marseille","lat":43.2845,"lon":5.39202,"is_reserved":false,"is_disabled":false,"rental_uris":{"android":"levelo://app?vid=9eae14ce-387b-4159-b8b0-a9a39cdb7f55","ios":"levelo://app?vid=9eae14ce-387b-4159-b8b0-a9a39cdb7f55"},"vehicle_type_id":"4","last_reported":1730207892,"current_range_meters":11200,"station_id":"ce4bhoh2rcd13ifvqh5g","pricing_plan_id":"cebpf4jnsgd1na2vs0mg"},{"bike_id":"7d059a43-bb3c-4555-9e51-db21365b796b","system_id":"levelo_inurba_marseille","lat":43.25935,"lon":5.40903,"is_reserved":false,"is_disabled":false,"rental_uris":{"android":"levelo://app?vid=7d059a43-bb3c-4555-9e51-db21365b796b","ios":"levelo://app?vid=7d059a43-bb3c-4555-9e51-db21365b796b"},"vehicle_type_id":"4","last_reported":1730207892,"current_range_meters":32400,"station_id":"ce4bhm92rcd13ifvqglg","pricing_plan_id":"cebpf4jnsgd1na2vs0mg"},{"bike_id":"c5202c93-fa7d-440a-98a5-2daa5726ee19","system_id":"levelo_inurba_marseille","lat":43.28153,"lon":5.42648,"is_reserved":false,"is_disabled":false,"rental_uris":{"android":"levelo://app?vid=c5202c93-fa7d-440a-98a5-2daa5726ee19","ios":"levelo://app?vid=c5202c93-fa7d-440a-98a5-2daa5726ee19"},"vehicle_type_id":"4","last_reported":1730207892,"current_range_meters":35200,"station_id":"ce4bhnh2rcd13ifvqgug","pricing_plan_id":"cebpf4jnsgd1na2vs0mg"},{"bike_id":"a8cfd832-75f2-4eb7-b2f2-5940c1d98d0f","system_id":"levelo_inurba_marseille","lat":43.29914,"lon":5.37494,"is_reserved":false,"is_disabled":false,"rental_uris":{"android":"levelo://app?vid=a8cfd832-75f2-4eb7-b2f2-5940c1d98d0f","ios":"levelo://app?vid=a8cfd832-75f2-4eb7-b2f2-5940c1d98d0f"},"vehicle_type_id":"4","last_reported":1730207892,"current_range_meters":19600,"station_id":"ce4bgjh2rcd13ifvqbg0","pricing_plan_id":"cebpf4jnsgd1na2vs0mg"},{"bike_id":"2e828a1a-7200-48c5-9195-a82ce087efad","system_id":"levelo_inurba_marseille","lat":43.33768,"lon":5.37443,"is_reserved":false,"is_disabled":false,"rental_uris":{"android":"levelo://app?vid=2e828a1a-7200-48c5-9195-a82ce087efad","ios":"levelo://app?vid=2e828a1a-7200-48c5-9195-a82ce087efad"},"vehicle_type_id":"4","last_reported":1730207892,"current_range_meters":36800,"station_id":"","pricing_plan_id":"cebpf4jnsgd1na2vs0mg"},{"bike_id":"3973ceb5-1b1a-46aa-be50-65b822965aae","system_id":"levelo_inurba_marseille","lat":43.25931,"lon":5.40907,"is_reserved":false,"is_disabled":false,"rental_uris":{"android":"levelo://app?vid=3973ceb5-1b1a-46aa-be50-65b822965aae","ios":"levelo://app?vid=3973ceb5-1b1a-46aa-be50-65b822965aae"},"vehicle_type_id":"4","last_reported":1730207892,"current_range_meters":20000,"station_id":"ce4bhm92rcd13ifvqglg","pricing_plan_id":"cebpf4jnsgd1na2vs0mg"},{"bike_id":"410b4c54-92bd-43f2-a424-739e0d7ff316","system_id":"levelo_inurba_marseille","lat":43.301416,"lon":5.380848,"is_reserved":false,"is_disabled":false,"rental_uris":{"android":"levelo://app?vid=410b4c54-92bd-43f2-a424-739e0d7ff316","ios":"levelo://app?vid=410b4c54-92bd-43f2-a424-739e0d7ff316"},"vehicle_type_id":"4","last_reported":1730207892,"current_range_meters":34000,"station_id":"ce4bgjp2rcd13ifvqbh0","pricing_plan_id":"cebpf4jnsgd1na2vs0mg"},{"bike_id":"c01fb64b-6426-4995-babb-5025da8563b1","system_id":"levelo_inurba_marseille","lat":43.27972,"lon":5.38736,"is_reserved":false,"is_disabled":false,"rental_uris":{"android":"levelo://app?vid=c01fb64b-6426-4995-babb-5025da8563b1","ios":"levelo://app?vid=c01fb64b-6426-4995-babb-5025da8563b1"},"vehicle_type_id":"4","last_reported":1730207892,"current_range_meters":27200,"station_id":"ce4bhg12rcd13ifvqf80","pricing_plan_id":"cebpf4jnsgd1na2vs0mg"},{"bike_id":"13b146d8-3734-4cce-b5cd-62c338a5776b","system_id":"levelo_inurba_marseille","lat":43.26679,"lon":5.38263,"is_reserved":false,"is_disabled":false,"rental_uris":{"android":"levelo://app?vid=13b146d8-3734-4cce-b5cd-62c338a5776b","ios":"levelo://app?vid=13b146d8-3734-4cce-b5cd-62c338a5776b"},"vehicle_type_id":"4","last_reported":1730207892,"current_range_meters":20000,"station_id":"ce4bhg92rcd13ifvqf90","pricing_plan_id":"cebpf4jnsgd1na2vs0mg"},{"bike_id":"fcff9506-a563-4700-b908-e7d6c332ecaa","system_id":"levelo_inurba_marseille","lat":43.28346,"lon":5.38099,"is_reserved":false,"is_disabled":false,"rental_uris":{"android":"levelo://app?vid=fcff9506-a563-4700-b908-e7d6c332ecaa","ios":"levelo://app?vid=fcff9506-a563-4700-b908-e7d6c332ecaa"},"vehicle_type_id":"4","last_reported":1730207892,"current_range_meters":32000,"station_id":"ce4bh412rcd13ifvqdr0","pricing_plan_id":"cebpf4jnsgd1na2vs0mg"},{"bike_id":"1c36e968-b9ec-4e4e-a73e-52f85b4ded24","system_id":"levelo_inurba_marseille","lat":43.2718,"lon":5.40984,"is_reserved":false,"is_disabled":false,"rental_uris":{"android":"levelo://app?vid=1c36e968-b9ec-4e4e-a73e-52f85b4ded24","ios":"levelo://app?vid=1c36e968-b9ec-4e4e-a73e-52f85b4ded24"},"vehicle_type_id":"4","last_reported":1730207892,"current_range_meters":15200,"station_id":"ce4bhl12rcd13ifvqgf0","pricing_plan_id":"cebpf4jnsgd1na2vs0mg"},{"bike_id":"e625ddd5-61d5-441a-98c0-2154f83f35ae","system_id":"levelo_inurba_marseille","lat":43.23064,"lon":5.35489,"is_reserved":false,"is_disabled":false,"rental_uris":{"android":"levelo://app?vid=e625ddd5-61d5-441a-98c0-2154f83f35ae","ios":"levelo://app?vid=e625ddd5-61d5-441a-98c0-2154f83f35ae"},"vehicle_type_id":"4","last_reported":1730207892,"current_range_meters":20400,"station_id":"cpo3342slgdg3j2ifvpg","pricing_plan_id":"cebpf4jnsgd1na2vs0mg"},{"bike_id":"3a7aed31-8397-4295-bd04-5cea5b5228b4","system_id":"levelo_inurba_marseille","lat":43.29287,"lon":5.36851,"is_reserved":false,"is_disabled":false,"rental_uris":{"android":"levelo://app?vid=3a7aed31-8397-4295-bd04-5cea5b5228b4","ios":"levelo://app?vid=3a7aed31-8397-4295-bd04-5cea5b5228b4"},"vehicle_type_id":"4","last_reported":1730207892,"current_range_meters":7200,"station_id":"ce4bhbp2rcd13ifvqesg","pricing_plan_id":"cebpf4jnsgd1na2vs0mg"},{"bike_id":"c5081d89-e03c-4862-a260-5f6086905af2","system_id":"levelo_inurba_marseille","lat":43.28275,"lon":5.35082,"is_reserved":false,"is_disabled":false,"rental_uris":{"android":"levelo://app?vid=c5081d89-e03c-4862-a260-5f6086905af2","ios":"levelo://app?vid=c5081d89-e03c-4862-a260-5f6086905af2"},"vehicle_type_id":"4","last_reported":1730207892,"current_range_meters":37600,"station_id":"ce4bhbp2rcd13ifvqerg","pricing_plan_id":"cebpf4jnsgd1na2vs0mg"},{"bike_id":"92adf987-4779-4b78-ad9c-8e29ab9175f3","system_id":"levelo_inurba_marseille","lat":43.23196,"lon":5.35557,"is_reserved":false,"is_disabled":false,"rental_uris":{"android":"levelo://app?vid=92adf987-4779-4b78-ad9c-8e29ab9175f3","ios":"levelo://app?vid=92adf987-4779-4b78-ad9c-8e29ab9175f3"},"vehicle_type_id":"4","last_reported":1730207892,"current_range_meters":19200,"station_id":"ce4bhu92rcd13ifvqi70","pricing_plan_id":"cebpf4jnsgd1na2vs0mg"},{"bike_id":"d329e36a-23dc-4d04-8e0b-8708c2adc97a","system_id":"levelo_inurba_marseille","lat":43.2907,"lon":5.37171,"is_reserved":false,"is_disabled":false,"rental_uris":{"android":"levelo://app?vid=d329e36a-23dc-4d04-8e0b-8708c2adc97a","ios":"levelo://app?vid=d329e36a-23dc-4d04-8e0b-8708c2adc97a"},"vehicle_type_id":"4","last_reported":1730207892,"current_range_meters":32400,"station_id":"ce4bh5p2rcd13ifvqe4g","pricing_plan_id":"cebpf4jnsgd1na2vs0mg"},{"bike_id":"0249a363-75cb-4372-9d69-8fb60ab0fe4f","system_id":"levelo_inurba_marseille","lat":43.31071,"lon":5.38347,"is_reserved":false,"is_disabled":false,"rental_uris":{"android":"levelo://app?vid=0249a363-75cb-4372-9d69-8fb60ab0fe4f","ios":"levelo://app?vid=0249a363-75cb-4372-9d69-8fb60ab0fe4f"},"vehicle_type_id":"4","last_reported":1730207892,"current_range_meters":7200,"station_id":"ce4bgv92rcd13ifvqcr0","pricing_plan_id":"cebpf4jnsgd1na2vs0mg"},{"bike_id":"29710db7-af2f-4a78-884f-80a2c5272176","system_id":"levelo_inurba_marseille","lat":43.2844,"lon":5.39197,"is_reserved":false,"is_disabled":false,"rental_uris":{"android":"levelo://app?vid=29710db7-af2f-4a78-884f-80a2c5272176","ios":"levelo://app?vid=29710db7-af2f-4a78-884f-80a2c5272176"},"vehicle_type_id":"4","last_reported":1730207892,"current_range_meters":35600,"station_id":"ce4bhoh2rcd13ifvqh5g","pricing_plan_id":"cebpf4jnsgd1na2vs0mg"},{"bike_id":"bdd4b560-7456-474a-8d43-7d179515bc00","system_id":"levelo_inurba_marseille","lat":43.33759,"lon":5.37469,"is_reserved":false,"is_disabled":false,"rental_uris":{"android":"levelo://app?vid=bdd4b560-7456-474a-8d43-7d179515bc00","ios":"levelo://app?vid=bdd4b560-7456-474a-8d43-7d179515bc00"},"vehicle_type_id":"4","last_reported":1730207892,"current_range_meters":38400,"station_id":"","pricing_plan_id":"cebpf4jnsgd1na2vs0mg"},{"bike_id":"17f3f27b-c3de-4f76-87af-ae319edfcb41","system_id":"levelo_inurba_marseille","lat":43.2837,"lon":5.4,"is_reserved":false,"is_disabled":false,"rental_uris":{"android":"levelo://app?vid=17f3f27b-c3de-4f76-87af-ae319edfcb41","ios":"levelo://app?vid=17f3f27b-c3de-4f76-87af-ae319edfcb41"},"vehicle_type_id":"4","last_reported":1730207892,"current_range_meters":16800,"station_id":"","pricing_plan_id":"cebpf4jnsgd1na2vs0mg"},{"bike_id":"d9752bf7-9408-4393-b436-e95811aed54f","system_id":"levelo_inurba_marseille","lat":43.29027,"lon":5.3813,"is_reserved":false,"is_disabled":false,"rental_uris":{"android":"levelo://app?vid=d9752bf7-9408-4393-b436-e95811aed54f","ios":"levelo://app?vid=d9752bf7-9408-4393-b436-e95811aed54f"},"vehicle_type_id":"4","last_reported":1730207892,"current_range_meters":36400,"station_id":"ce4bh4p2rcd13ifvqe1g","pricing_plan_id":"cebpf4jnsgd1na2vs0mg"},{"bike_id":"8d4f7822-0722-481a-b9a5-b8b33ca89429","system_id":"levelo_inurba_marseille","lat":43.23151,"lon":5.43713,"is_reserved":false,"is_disabled":false,"rental_uris":{"android":"levelo://app?vid=8d4f7822-0722-481a-b9a5-b8b33ca89429","ios":"levelo://app?vid=8d4f7822-0722-481a-b9a5-b8b33ca89429"},"vehicle_type_id":"4","last_reported":1730207892,"current_range_meters":7200,"station_id":"ce4bhmp2rcd13ifvqgog","pricing_plan_id":"cebpf4jnsgd1na2vs0mg"},{"bike_id":"eab9ecc7-9085-459c-a4cf-9ae2ae1a387d","system_id":"levelo_inurba_marseille","lat":43.28274,"lon":5.3508,"is_reserved":false,"is_disabled":false,"rental_uris":{"android":"levelo://app?vid=eab9ecc7-9085-459c-a4cf-9ae2ae1a387d","ios":"levelo://app?vid=eab9ecc7-9085-459c-a4cf-9ae2ae1a387d"},"vehicle_type_id":"4","last_reported":1730207892,"current_range_meters":34000,"station_id":"ce4bhbp2rcd13ifvqerg","pricing_plan_id":"cebpf4jnsgd1na2vs0mg"},{"bike_id":"da028c4f-05bb-4fb6-85b3-ee7b5dce5575","system_id":"levelo_inurba_marseille","lat":43.29973,"lon":5.3718,"is_reserved":false,"is_disabled":false,"rental_uris":{"android":"levelo://app?vid=da028c4f-05bb-4fb6-85b3-ee7b5dce5575","ios":"levelo://app?vid=da028c4f-05bb-4fb6-85b3-ee7b5dce5575"},"vehicle_type_id":"4","last_reported":1730207892,"current_range_meters":39200,"station_id":"ce4bgr92rcd13ifvqc7g","pricing_plan_id":"cebpf4jnsgd1na2vs0mg"},{"bike_id":"3eacef56-e200-4054-9b0c-156c6ef1c7f9","system_id":"levelo_inurba_marseille","lat":43.32108,"lon":5.36777,"is_reserved":false,"is_disabled":false,"rental_uris":{"android":"levelo://app?vid=3eacef56-e200-4054-9b0c-156c6ef1c7f9","ios":"levelo://app?vid=3eacef56-e200-4054-9b0c-156c6ef1c7f9"},"vehicle_type_id":"4","last_reported":1730207892,"current_range_meters":36800,"station_id":"ce4bhrh2rcd13ifvqhug","pricing_plan_id":"cebpf4jnsgd1na2vs0mg"},{"bike_id":"0e6f47ea-ffaf-48d0-907a-7a28dc2c146f","system_id":"levelo_inurba_marseille","lat":43.25945,"lon":5.40903,"is_reserved":false,"is_disabled":false,"rental_uris":{"android":"levelo://app?vid=0e6f47ea-ffaf-48d0-907a-7a28dc2c146f","ios":"levelo://app?vid=0e6f47ea-ffaf-48d0-907a-7a28dc2c146f"},"vehicle_type_id":"4","last_reported":1730207892,"current_range_meters":32400,"station_id":"ce4bhm92rcd13ifvqglg","pricing_plan_id":"cebpf4jnsgd1na2vs0mg"},{"bike_id":"64696afc-c08c-4e39-a378-6d39b3ef6211","system_id":"levelo_inurba_marseille","lat":43.27375,"lon":5.36254,"is_reserved":false,"is_disabled":false,"rental_uris":{"android":"levelo://app?vid=64696afc-c08c-4e39-a378-6d39b3ef6211","ios":"levelo://app?vid=64696afc-c08c-4e39-a378-6d39b3ef6211"},"vehicle_type_id":"4","last_reported":1730207892,"current_range_meters":28400,"station_id":"ce4bhbh2rcd13ifvqeo0","pricing_plan_id":"cebpf4jnsgd1na2vs0mg"},{"bike_id":"8bea202a-b719-4be5-a825-91c8c8a8a149","system_id":"levelo_inurba_marseille","lat":43.28276,"lon":5.35068,"is_reserved":false,"is_disabled":false,"rental_uris":{"android":"levelo://app?vid=8bea202a-b719-4be5-a825-91c8c8a8a149","ios":"levelo://app?vid=8bea202a-b719-4be5-a825-91c8c8a8a149"},"vehicle_type_id":"4","last_reported":1730207892,"current_range_meters":20400,"station_id":"ce4bhbp2rcd13ifvqerg","pricing_plan_id":"cebpf4jnsgd1na2vs0mg"},{"bike_id":"cbe819f1-3ab4-417b-8152-92df37f54134","system_id":"levelo_inurba_marseille","lat":43.29909,"lon":5.38146,"is_reserved":false,"is_disabled":false,"rental_uris":{"android":"levelo://app?vid=cbe819f1-3ab4-417b-8152-92df37f54134","ios":"levelo://app?vid=cbe819f1-3ab4-417b-8152-92df37f54134"},"vehicle_type_id":"4","last_reported":1730207892,"current_range_meters":12800,"station_id":"ce4bgj12rcd13ifvqbc0","pricing_plan_id":"cebpf4jnsgd1na2vs0mg"},{"bike_id":"451822ca-24a8-47a9-b9ef-5af09da8b310","system_id":"levelo_inurba_marseille","lat":43.23154,"lon":5.43703,"is_reserved":false,"is_disabled":false,"rental_uris":{"android":"levelo://app?vid=451822ca-24a8-47a9-b9ef-5af09da8b310","ios":"levelo://app?vid=451822ca-24a8-47a9-b9ef-5af09da8b310"},"vehicle_type_id":"4","last_reported":1730207892,"current_range_meters":6800,"station_id":"ce4bhmp2rcd13ifvqgog","pricing_plan_id":"cebpf4jnsgd1na2vs0mg"},{"bike_id":"49865895-9d7f-41f5-b4ef-cb92d20871eb","system_id":"levelo_inurba_marseille","lat":43.26204,"lon":5.37441,"is_reserved":false,"is_disabled":false,"rental_uris":{"android":"levelo://app?vid=49865895-9d7f-41f5-b4ef-cb92d20871eb","ios":"levelo://app?vid=49865895-9d7f-41f5-b4ef-cb92d20871eb"},"vehicle_type_id":"4","last_reported":1730207892,"current_range_meters":28400,"station_id":"ce4bhgp2rcd13ifvqfc0","pricing_plan_id":"cebpf4jnsgd1na2vs0mg"},{"bike_id":"ae844abd-5f49-4e6c-8086-3880c1d44cf6","system_id":"levelo_inurba_marseille","lat":43.3266,"lon":5.40984,"is_reserved":false,"is_disabled":false,"rental_uris":{"android":"levelo://app?vid=ae844abd-5f49-4e6c-8086-3880c1d44cf6","ios":"levelo://app?vid=ae844abd-5f49-4e6c-8086-3880c1d44cf6"},"vehicle_type_id":"4","last_reported":1730207892,"current_range_meters":24400,"station_id":"ce4bhpp2rcd13ifvqhgg","pricing_plan_id":"cebpf4jnsgd1na2vs0mg"},{"bike_id":"7e700bcc-4f8e-4e3a-920a-5e247fc93a67","system_id":"levelo_inurba_marseille","lat":43.29931,"lon":5.36524,"is_reserved":false,"is_disabled":false,"rental_uris":{"android":"levelo://app?vid=7e700bcc-4f8e-4e3a-920a-5e247fc93a67","ios":"levelo://app?vid=7e700bcc-4f8e-4e3a-920a-5e247fc93a67"},"vehicle_type_id":"4","last_reported":1730207892,"current_range_meters":28400,"station_id":"ce4bgm92rcd13ifvqbr0","pricing_plan_id":"cebpf4jnsgd1na2vs0mg"},{"bike_id":"0249e3c7-0ee6-43ae-aea1-a5a682acfe38","system_id":"levelo_inurba_marseille","lat":43.26939,"lon":5.40253,"is_reserved":false,"is_disabled":false,"rental_uris":{"android":"levelo://app?vid=0249e3c7-0ee6-43ae-aea1-a5a682acfe38","ios":"levelo://app?vid=0249e3c7-0ee6-43ae-aea1-a5a682acfe38"},"vehicle_type_id":"4","last_reported":1730207892,"current_range_meters":38800,"station_id":"cjm6bp8fraef2m0cb0m0","pricing_plan_id":"cebpf4jnsgd1na2vs0mg"},{"bike_id":"f60e7435-1741-4fc5-9e6a-a9b52104acf1","system_id":"levelo_inurba_marseille","lat":43.29176,"lon":5.37156,"is_reserved":false,"is_disabled":false,"rental_uris":{"android":"levelo://app?vid=f60e7435-1741-4fc5-9e6a-a9b52104acf1","ios":"levelo://app?vid=f60e7435-1741-4fc5-9e6a-a9b52104acf1"},"vehicle_type_id":"4","last_reported":1730207892,"current_range_meters":38000,"station_id":"ce4bha92rcd13ifvqeh0","pricing_plan_id":"cebpf4jnsgd1na2vs0mg"},{"bike_id":"4bd3dc7a-cd73-4bb6-8f68-66aa73a42057","system_id":"levelo_inurba_marseille","lat":43.27058,"lon":5.40258,"is_reserved":false,"is_disabled":false,"rental_uris":{"android":"levelo://app?vid=4bd3dc7a-cd73-4bb6-8f68-66aa73a42057","ios":"levelo://app?vid=4bd3dc7a-cd73-4bb6-8f68-66aa73a42057"},"vehicle_type_id":"4","last_reported":1730207892,"current_range_meters":31200,"station_id":"ce4bhk92rcd13ifvqgc0","pricing_plan_id":"cebpf4jnsgd1na2vs0mg"},{"bike_id":"eaaf851c-1cf1-42e5-b40f-71a27a57f758","system_id":"levelo_inurba_marseille","lat":43.25931,"lon":5.409,"is_reserved":false,"is_disabled":false,"rental_uris":{"android":"levelo://app?vid=eaaf851c-1cf1-42e5-b40f-71a27a57f758","ios":"levelo://app?vid=eaaf851c-1cf1-42e5-b40f-71a27a57f758"},"vehicle_type_id":"4","last_reported":1730207892,"current_range_meters":26800,"station_id":"ce4bhm92rcd13ifvqglg","pricing_plan_id":"cebpf4jnsgd1na2vs0mg"},{"bike_id":"e58711fa-10f6-45dd-92af-ca00402b7e53","system_id":"levelo_inurba_marseille","lat":43.30912,"lon":5.36849,"is_reserved":false,"is_disabled":false,"rental_uris":{"android":"levelo://app?vid=e58711fa-10f6-45dd-92af-ca00402b7e53","ios":"levelo://app?vid=e58711fa-10f6-45dd-92af-ca00402b7e53"},"vehicle_type_id":"4","last_reported":1730207892,"current_range_meters":30400,"station_id":"ce4bgn92rcd13ifvqbvg","pricing_plan_id":"cebpf4jnsgd1na2vs0mg"},{"bike_id":"e40111e4-4deb-41a5-ac02-7465c5223951","system_id":"levelo_inurba_marseille","lat":43.286315,"lon":5.383531,"is_reserved":false,"is_disabled":false,"rental_uris":{"android":"levelo://app?vid=e40111e4-4deb-41a5-ac02-7465c5223951","ios":"levelo://app?vid=e40111e4-4deb-41a5-ac02-7465c5223951"},"vehicle_type_id":"4","last_reported":1730207892,"current_range_meters":16400,"station_id":"ce4bh4p2rcd13ifvqe1g","pricing_plan_id":"cebpf4jnsgd1na2vs0mg"},{"bike_id":"f274d9e8-1689-4183-b0e4-6ebbece185ac","system_id":"levelo_inurba_marseille","lat":43.26802,"lon":5.40262,"is_reserved":false,"is_disabled":false,"rental_uris":{"android":"levelo://app?vid=f274d9e8-1689-4183-b0e4-6ebbece185ac","ios":"levelo://app?vid=f274d9e8-1689-4183-b0e4-6ebbece185ac"},"vehicle_type_id":"4","last_reported":1730207892,"current_range_meters":40000,"station_id":"ce501612rcd8frsf0b60","pricing_plan_id":"cebpf4jnsgd1na2vs0mg"},{"bike_id":"c497513d-9d1d-4320-a1e3-875a8b21d4c5","system_id":"levelo_inurba_marseille","lat":43.27181,"lon":5.40996,"is_reserved":false,"is_disabled":false,"rental_uris":{"android":"levelo://app?vid=c497513d-9d1d-4320-a1e3-875a8b21d4c5","ios":"levelo://app?vid=c497513d-9d1d-4320-a1e3-875a8b21d4c5"},"vehicle_type_id":"4","last_reported":1730207892,"current_range_meters":36800,"station_id":"ce4bhl12rcd13ifvqgf0","pricing_plan_id":"cebpf4jnsgd1na2vs0mg"},{"bike_id":"f09b6f98-8f70-4e17-9b24-58d678c3f39f","system_id":"levelo_inurba_marseille","lat":43.32482,"lon":5.36558,"is_reserved":false,"is_disabled":false,"rental_uris":{"android":"levelo://app?vid=f09b6f98-8f70-4e17-9b24-58d678c3f39f","ios":"levelo://app?vid=f09b6f98-8f70-4e17-9b24-58d678c3f39f"},"vehicle_type_id":"4","last_reported":1730207892,"current_range_meters":11200,"station_id":"ce4bhs12rcd13ifvqhvg","pricing_plan_id":"cebpf4jnsgd1na2vs0mg"},{"bike_id":"4aa9ec8e-8a2f-4bf2-b664-653d737532aa","system_id":"levelo_inurba_marseille","lat":43.29553,"lon":5.42283,"is_reserved":false,"is_disabled":false,"rental_uris":{"android":"levelo://app?vid=4aa9ec8e-8a2f-4bf2-b664-653d737532aa","ios":"levelo://app?vid=4aa9ec8e-8a2f-4bf2-b664-653d737532aa"},"vehicle_type_id":"4","last_reported":1730207892,"current_range_meters":38800,"station_id":"ce4bhph2rcd13ifvqhdg","pricing_plan_id":"cebpf4jnsgd1na2vs0mg"},{"bike_id":"bd387d54-7b9e-4c1b-b709-6b77435ac16f","system_id":"levelo_inurba_marseille","lat":43.24395,"lon":5.37063,"is_reserved":false,"is_disabled":false,"rental_uris":{"android":"levelo://app?vid=bd387d54-7b9e-4c1b-b709-6b77435ac16f","ios":"levelo://app?vid=bd387d54-7b9e-4c1b-b709-6b77435ac16f"},"vehicle_type_id":"4","last_reported":1730207892,"current_range_meters":38000,"station_id":"ce4bhhh2rcd13ifvqfk0","pricing_plan_id":"cebpf4jnsgd1na2vs0mg"},{"bike_id":"eff6c5ad-dea6-4ce2-b40f-e81d26d61f17","system_id":"levelo_inurba_marseille","lat":43.28274,"lon":5.35074,"is_reserved":false,"is_disabled":false,"rental_uris":{"android":"levelo://app?vid=eff6c5ad-dea6-4ce2-b40f-e81d26d61f17","ios":"levelo://app?vid=eff6c5ad-dea6-4ce2-b40f-e81d26d61f17"},"vehicle_type_id":"4","last_reported":1730207892,"current_range_meters":38800,"station_id":"ce4bhbp2rcd13ifvqerg","pricing_plan_id":"cebpf4jnsgd1na2vs0mg"},{"bike_id":"46718d22-ae18-484b-bd22-3de22b369af2","system_id":"levelo_inurba_marseille","lat":43.29557,"lon":5.42288,"is_reserved":false,"is_disabled":false,"rental_uris":{"android":"levelo://app?vid=46718d22-ae18-484b-bd22-3de22b369af2","ios":"levelo://app?vid=46718d22-ae18-484b-bd22-3de22b369af2"},"vehicle_type_id":"4","last_reported":1730207892,"current_range_meters":38800,"station_id":"ce4bhph2rcd13ifvqhdg","pricing_plan_id":"cebpf4jnsgd1na2vs0mg"},{"bike_id":"d5c8fa42-2467-4cbe-a884-69b7df559269","system_id":"levelo_inurba_marseille","lat":43.27971,"lon":5.40055,"is_reserved":false,"is_disabled":false,"rental_uris":{"android":"levelo://app?vid=d5c8fa42-2467-4cbe-a884-69b7df559269","ios":"levelo://app?vid=d5c8fa42-2467-4cbe-a884-69b7df559269"},"vehicle_type_id":"4","last_reported":1730207892,"current_range_meters":38800,"station_id":"ce4bho92rcd13ifvqh4g","pricing_plan_id":"cebpf4jnsgd1na2vs0mg"},{"bike_id":"6af69e6e-b0b0-4d16-8557-eb53e44d6b24","system_id":"levelo_inurba_marseille","lat":43.28155,"lon":5.42641,"is_reserved":false,"is_disabled":false,"rental_uris":{"android":"levelo://app?vid=6af69e6e-b0b0-4d16-8557-eb53e44d6b24","ios":"levelo://app?vid=6af69e6e-b0b0-4d16-8557-eb53e44d6b24"},"vehicle_type_id":"4","last_reported":1730207892,"current_range_meters":36400,"station_id":"ce4bhnh2rcd13ifvqgug","pricing_plan_id":"cebpf4jnsgd1na2vs0mg"},{"bike_id":"923dd271-c71b-4b5f-b46e-1517f0168d18","system_id":"levelo_inurba_marseille","lat":43.29534,"lon":5.39054,"is_reserved":false,"is_disabled":false,"rental_uris":{"android":"levelo://app?vid=923dd271-c71b-4b5f-b46e-1517f0168d18","ios":"levelo://app?vid=923dd271-c71b-4b5f-b46e-1517f0168d18"},"vehicle_type_id":"4","last_reported":1730207892,"current_range_meters":18000,"station_id":"ce4bh3p2rcd13ifvqdp0","pricing_plan_id":"cebpf4jnsgd1na2vs0mg"},{"bike_id":"914a42a2-9ea4-426a-887d-56a8f63beaa4","system_id":"levelo_inurba_marseille","lat":43.30463,"lon":5.37906,"is_reserved":false,"is_disabled":false,"rental_uris":{"android":"levelo://app?vid=914a42a2-9ea4-426a-887d-56a8f63beaa4","ios":"levelo://app?vid=914a42a2-9ea4-426a-887d-56a8f63beaa4"},"vehicle_type_id":"4","last_reported":1730207892,"current_range_meters":19200,"station_id":"ce4bgup2rcd13ifvqcn0","pricing_plan_id":"cebpf4jnsgd1na2vs0mg"},{"bike_id":"1e4476f3-15fc-4fb9-8231-99b512b22599","system_id":"levelo_inurba_marseille","lat":43.337444,"lon":5.374475,"is_reserved":false,"is_disabled":false,"rental_uris":{"android":"levelo://app?vid=1e4476f3-15fc-4fb9-8231-99b512b22599","ios":"levelo://app?vid=1e4476f3-15fc-4fb9-8231-99b512b22599"},"vehicle_type_id":"4","last_reported":1730207892,"current_range_meters":38800,"station_id":"ce4bgvp2rcd13ifvqcu0","pricing_plan_id":"cebpf4jnsgd1na2vs0mg"},{"bike_id":"be383dfd-f6e4-4514-be85-96c9b0d78716","system_id":"levelo_inurba_marseille","lat":43.23054,"lon":5.35494,"is_reserved":false,"is_disabled":false,"rental_uris":{"android":"levelo://app?vid=be383dfd-f6e4-4514-be85-96c9b0d78716","ios":"levelo://app?vid=be383dfd-f6e4-4514-be85-96c9b0d78716"},"vehicle_type_id":"4","last_reported":1730207892,"current_range_meters":32000,"station_id":"cpo3342slgdg3j2ifvpg","pricing_plan_id":"cebpf4jnsgd1na2vs0mg"},{"bike_id":"647e3b2c-2306-4b03-b1c4-0e5226466248","system_id":"levelo_inurba_marseille","lat":43.29267,"lon":5.36839,"is_reserved":false,"is_disabled":false,"rental_uris":{"android":"levelo://app?vid=647e3b2c-2306-4b03-b1c4-0e5226466248","ios":"levelo://app?vid=647e3b2c-2306-4b03-b1c4-0e5226466248"},"vehicle_type_id":"4","last_reported":1730207892,"current_range_meters":36400,"station_id":"ce4bhbp2rcd13ifvqesg","pricing_plan_id":"cebpf4jnsgd1na2vs0mg"},{"bike_id":"b12425a9-456b-4240-9101-c3b9f8f5a488","system_id":"levelo_inurba_marseille","lat":43.32485,"lon":5.36561,"is_reserved":false,"is_disabled":false,"rental_uris":{"android":"levelo://app?vid=b12425a9-456b-4240-9101-c3b9f8f5a488","ios":"levelo://app?vid=b12425a9-456b-4240-9101-c3b9f8f5a488"},"vehicle_type_id":"4","last_reported":1730207892,"current_range_meters":39200,"station_id":"ce4bhs12rcd13ifvqhvg","pricing_plan_id":"cebpf4jnsgd1na2vs0mg"},{"bike_id":"6eadd10a-a6d8-410a-bf17-cb13ead6d052","system_id":"levelo_inurba_marseille","lat":43.27816,"lon":5.40719,"is_reserved":false,"is_disabled":false,"rental_uris":{"android":"levelo://app?vid=6eadd10a-a6d8-410a-bf17-cb13ead6d052","ios":"levelo://app?vid=6eadd10a-a6d8-410a-bf17-cb13ead6d052"},"vehicle_type_id":"4","last_reported":1730207892,"current_range_meters":10800,"station_id":"ce4bhnh2rcd13ifvqgtg","pricing_plan_id":"cebpf4jnsgd1na2vs0mg"},{"bike_id":"3587c9bc-d3f5-4a3e-86bb-219d71113e09","system_id":"levelo_inurba_marseille","lat":43.30421,"lon":5.37337,"is_reserved":false,"is_disabled":false,"rental_uris":{"android":"levelo://app?vid=3587c9bc-d3f5-4a3e-86bb-219d71113e09","ios":"levelo://app?vid=3587c9bc-d3f5-4a3e-86bb-219d71113e09"},"vehicle_type_id":"4","last_reported":1730207892,"current_range_meters":8000,"station_id":"","pricing_plan_id":"cebpf4jnsgd1na2vs0mg"},{"bike_id":"9afc8807-f832-4417-bd03-3c2b914835d8","system_id":"levelo_inurba_marseille","lat":43.306,"lon":5.37221,"is_reserved":false,"is_disabled":false,"rental_uris":{"android":"levelo://app?vid=9afc8807-f832-4417-bd03-3c2b914835d8","ios":"levelo://app?vid=9afc8807-f832-4417-bd03-3c2b914835d8"},"vehicle_type_id":"4","last_reported":1730207892,"current_range_meters":38800,"station_id":"ce4bgqh2rcd13ifvqc4g","pricing_plan_id":"cebpf4jnsgd1na2vs0mg"},{"bike_id":"5b6fd971-56a2-4509-9ff5-d0db31fae70e","system_id":"levelo_inurba_marseille","lat":43.291,"lon":5.38137,"is_reserved":false,"is_disabled":false,"rental_uris":{"android":"levelo://app?vid=5b6fd971-56a2-4509-9ff5-d0db31fae70e","ios":"levelo://app?vid=5b6fd971-56a2-4509-9ff5-d0db31fae70e"},"vehicle_type_id":"4","last_reported":1730207892,"current_range_meters":7200,"station_id":"ce4bh512rcd13ifvqe2g","pricing_plan_id":"cebpf4jnsgd1na2vs0mg"},{"bike_id":"3af184b2-4379-45ff-9c65-73bc96690fa2","system_id":"levelo_inurba_marseille","lat":43.3248,"lon":5.36573,"is_reserved":false,"is_disabled":false,"rental_uris":{"android":"levelo://app?vid=3af184b2-4379-45ff-9c65-73bc96690fa2","ios":"levelo://app?vid=3af184b2-4379-45ff-9c65-73bc96690fa2"},"vehicle_type_id":"4","last_reported":1730207892,"current_range_meters":30800,"station_id":"ce4bhs12rcd13ifvqhvg","pricing_plan_id":"cebpf4jnsgd1na2vs0mg"},{"bike_id":"eaee8ab2-76f5-4b37-b465-9eb26268ad5d","system_id":"levelo_inurba_marseille","lat":43.25938,"lon":5.40903,"is_reserved":false,"is_disabled":false,"rental_uris":{"android":"levelo://app?vid=eaee8ab2-76f5-4b37-b465-9eb26268ad5d","ios":"levelo://app?vid=eaee8ab2-76f5-4b37-b465-9eb26268ad5d"},"vehicle_type_id":"4","last_reported":1730207892,"current_range_meters":32800,"station_id":"ce4bhm92rcd13ifvqglg","pricing_plan_id":"cebpf4jnsgd1na2vs0mg"},{"bike_id":"962b0fae-e6ee-44d9-8f6c-fd6b447189de","system_id":"levelo_inurba_marseille","lat":43.25494,"lon":5.37644,"is_reserved":false,"is_disabled":false,"rental_uris":{"android":"levelo://app?vid=962b0fae-e6ee-44d9-8f6c-fd6b447189de","ios":"levelo://app?vid=962b0fae-e6ee-44d9-8f6c-fd6b447189de"},"vehicle_type_id":"4","last_reported":1730207892,"current_range_meters":31200,"station_id":"ce4bhkp2rcd13ifvqgd0","pricing_plan_id":"cebpf4jnsgd1na2vs0mg"},{"bike_id":"4cc9b611-227a-4675-8219-8592dde41f3f","system_id":"levelo_inurba_marseille","lat":43.28277,"lon":5.35084,"is_reserved":false,"is_disabled":false,"rental_uris":{"android":"levelo://app?vid=4cc9b611-227a-4675-8219-8592dde41f3f","ios":"levelo://app?vid=4cc9b611-227a-4675-8219-8592dde41f3f"},"vehicle_type_id":"4","last_reported":1730207892,"current_range_meters":15200,"station_id":"ce4bhbp2rcd13ifvqerg","pricing_plan_id":"cebpf4jnsgd1na2vs0mg"},{"bike_id":"1ad22c01-81fa-4f58-9a14-74883e4cb310","system_id":"levelo_inurba_marseille","lat":43.2984,"lon":5.36268,"is_reserved":false,"is_disabled":false,"rental_uris":{"android":"levelo://app?vid=1ad22c01-81fa-4f58-9a14-74883e4cb310","ios":"levelo://app?vid=1ad22c01-81fa-4f58-9a14-74883e4cb310"},"vehicle_type_id":"4","last_reported":1730207892,"current_range_meters":27600,"station_id":"ce4bgpp2rcd13ifvqc3g","pricing_plan_id":"cebpf4jnsgd1na2vs0mg"},{"bike_id":"f28b4ff5-536b-40af-9f77-18db00493e8a","system_id":"levelo_inurba_marseille","lat":43.26934,"lon":5.38921,"is_reserved":false,"is_disabled":false,"rental_uris":{"android":"levelo://app?vid=f28b4ff5-536b-40af-9f77-18db00493e8a","ios":"levelo://app?vid=f28b4ff5-536b-40af-9f77-18db00493e8a"},"vehicle_type_id":"4","last_reported":1730207892,"current_range_meters":14800,"station_id":"ce4bhhh2rcd13ifvqfl0","pricing_plan_id":"cebpf4jnsgd1na2vs0mg"},{"bike_id":"f3e26463-8533-44ad-a9ba-2e70a189ef33","system_id":"levelo_inurba_marseille","lat":43.2572,"lon":5.41115,"is_reserved":false,"is_disabled":false,"rental_uris":{"android":"levelo://app?vid=f3e26463-8533-44ad-a9ba-2e70a189ef33","ios":"levelo://app?vid=f3e26463-8533-44ad-a9ba-2e70a189ef33"},"vehicle_type_id":"4","last_reported":1730207892,"current_range_meters":33200,"station_id":"ce4bhkp2rcd13ifvqgd0","pricing_plan_id":"cebpf4jnsgd1na2vs0mg"},{"bike_id":"0f0d856c-9014-4ee2-b88c-b1733fc8a662","system_id":"levelo_inurba_marseille","lat":43.2558,"lon":5.38231,"is_reserved":false,"is_disabled":false,"rental_uris":{"android":"levelo://app?vid=0f0d856c-9014-4ee2-b88c-b1733fc8a662","ios":"levelo://app?vid=0f0d856c-9014-4ee2-b88c-b1733fc8a662"},"vehicle_type_id":"4","last_reported":1730207892,"current_range_meters":31200,"station_id":"ce4bhih2rcd13ifvqfs0","pricing_plan_id":"cebpf4jnsgd1na2vs0mg"},{"bike_id":"d63ff0fa-0048-44c6-b2c6-b7c44580de3a","system_id":"levelo_inurba_marseille","lat":43.2512,"lon":5.40314,"is_reserved":false,"is_disabled":false,"rental_uris":{"android":"levelo://app?vid=d63ff0fa-0048-44c6-b2c6-b7c44580de3a","ios":"levelo://app?vid=d63ff0fa-0048-44c6-b2c6-b7c44580de3a"},"vehicle_type_id":"4","last_reported":1730207892,"current_range_meters":40000,"station_id":"ce4bhlh2rcd13ifvqgig","pricing_plan_id":"cebpf4jnsgd1na2vs0mg"},{"bike_id":"0093b878-a738-4182-9740-b724eb693205","system_id":"levelo_inurba_marseille","lat":43.31362,"lon":5.36709,"is_reserved":false,"is_disabled":false,"rental_uris":{"android":"levelo://app?vid=0093b878-a738-4182-9740-b724eb693205","ios":"levelo://app?vid=0093b878-a738-4182-9740-b724eb693205"},"vehicle_type_id":"4","last_reported":1730207892,"current_range_meters":6400,"station_id":"ce4bgr92rcd13ifvqc6g","pricing_plan_id":"cebpf4jnsgd1na2vs0mg"},{"bike_id":"673db70d-0a85-41a9-93a5-7316d31cd8bb","system_id":"levelo_inurba_marseille","lat":43.24556,"lon":5.39528,"is_reserved":false,"is_disabled":false,"rental_uris":{"android":"levelo://app?vid=673db70d-0a85-41a9-93a5-7316d31cd8bb","ios":"levelo://app?vid=673db70d-0a85-41a9-93a5-7316d31cd8bb"},"vehicle_type_id":"4","last_reported":1730207892,"current_range_meters":38000,"station_id":"ce4bhlp2rcd13ifvqgjg","pricing_plan_id":"cebpf4jnsgd1na2vs0mg"},{"bike_id":"24556e7e-baca-4e76-8d48-c29c5524bdc3","system_id":"levelo_inurba_marseille","lat":43.27966,"lon":5.38727,"is_reserved":false,"is_disabled":false,"rental_uris":{"android":"levelo://app?vid=24556e7e-baca-4e76-8d48-c29c5524bdc3","ios":"levelo://app?vid=24556e7e-baca-4e76-8d48-c29c5524bdc3"},"vehicle_type_id":"4","last_reported":1730207892,"current_range_meters":20800,"station_id":"ce4bhg12rcd13ifvqf80","pricing_plan_id":"cebpf4jnsgd1na2vs0mg"},{"bike_id":"8936e54f-6419-4c4d-9666-8255bea7a277","system_id":"levelo_inurba_marseille","lat":43.28938,"lon":5.36639,"is_reserved":false,"is_disabled":false,"rental_uris":{"android":"levelo://app?vid=8936e54f-6419-4c4d-9666-8255bea7a277","ios":"levelo://app?vid=8936e54f-6419-4c4d-9666-8255bea7a277"},"vehicle_type_id":"4","last_reported":1730207892,"current_range_meters":33200,"station_id":"ce4bhap2rcd13ifvqek0","pricing_plan_id":"cebpf4jnsgd1na2vs0mg"},{"bike_id":"4bc79d6e-884e-4ca3-9370-a9cc9ff61c9c","system_id":"levelo_inurba_marseille","lat":43.25097,"lon":5.40343,"is_reserved":false,"is_disabled":false,"rental_uris":{"android":"levelo://app?vid=4bc79d6e-884e-4ca3-9370-a9cc9ff61c9c","ios":"levelo://app?vid=4bc79d6e-884e-4ca3-9370-a9cc9ff61c9c"},"vehicle_type_id":"4","last_reported":1730207892,"current_range_meters":24000,"station_id":"ce4bhlh2rcd13ifvqgig","pricing_plan_id":"cebpf4jnsgd1na2vs0mg"},{"bike_id":"a2f91a54-aabc-467a-bd1d-2399ad58ea1c","system_id":"levelo_inurba_marseille","lat":43.27207,"lon":5.3918,"is_reserved":false,"is_disabled":false,"rental_uris":{"android":"levelo://app?vid=a2f91a54-aabc-467a-bd1d-2399ad58ea1c","ios":"levelo://app?vid=a2f91a54-aabc-467a-bd1d-2399ad58ea1c"},"vehicle_type_id":"4","last_reported":1730207892,"current_range_meters":28800,"station_id":"ce4bhhp2rcd13ifvqfm0","pricing_plan_id":"cebpf4jnsgd1na2vs0mg"},{"bike_id":"4075e9b9-4bd6-45e3-a626-4029a23d7658","system_id":"levelo_inurba_marseille","lat":43.26501,"lon":5.39532,"is_reserved":false,"is_disabled":false,"rental_uris":{"android":"levelo://app?vid=4075e9b9-4bd6-45e3-a626-4029a23d7658","ios":"levelo://app?vid=4075e9b9-4bd6-45e3-a626-4029a23d7658"},"vehicle_type_id":"4","last_reported":1730207892,"current_range_meters":34000,"station_id":"ce4bhi12rcd13ifvqfq0","pricing_plan_id":"cebpf4jnsgd1na2vs0mg"},{"bike_id":"eb109ec6-50ef-428e-960b-d955caf19977","system_id":"levelo_inurba_marseille","lat":43.30251,"lon":5.40081,"is_reserved":false,"is_disabled":false,"rental_uris":{"android":"levelo://app?vid=eb109ec6-50ef-428e-960b-d955caf19977","ios":"levelo://app?vid=eb109ec6-50ef-428e-960b-d955caf19977"},"vehicle_type_id":"4","last_reported":1730207892,"current_range_meters":38000,"station_id":"ce4bgvh2rcd13ifvqcs0","pricing_plan_id":"cebpf4jnsgd1na2vs0mg"},{"bike_id":"2d112996-c7d2-4209-aa87-682cf98c81e1","system_id":"levelo_inurba_marseille","lat":43.3266,"lon":5.40992,"is_reserved":false,"is_disabled":false,"rental_uris":{"android":"levelo://app?vid=2d112996-c7d2-4209-aa87-682cf98c81e1","ios":"levelo://app?vid=2d112996-c7d2-4209-aa87-682cf98c81e1"},"vehicle_type_id":"4","last_reported":1730207892,"current_range_meters":27600,"station_id":"ce4bhpp2rcd13ifvqhgg","pricing_plan_id":"cebpf4jnsgd1na2vs0mg"},{"bike_id":"1488cb5b-ba01-4856-b5ef-dc4c1f7247e9","system_id":"levelo_inurba_marseille","lat":43.23959,"lon":5.36624,"is_reserved":false,"is_disabled":false,"rental_uris":{"android":"levelo://app?vid=1488cb5b-ba01-4856-b5ef-dc4c1f7247e9","ios":"levelo://app?vid=1488cb5b-ba01-4856-b5ef-dc4c1f7247e9"},"vehicle_type_id":"4","last_reported":1730207892,"current_range_meters":19600,"station_id":"ce4bhi12rcd13ifvqfp0","pricing_plan_id":"cebpf4jnsgd1na2vs0mg"},{"bike_id":"2428d0d4-0189-4b00-85c9-81366524f657","system_id":"levelo_inurba_marseille","lat":43.25932,"lon":5.40904,"is_reserved":false,"is_disabled":false,"rental_uris":{"android":"levelo://app?vid=2428d0d4-0189-4b00-85c9-81366524f657","ios":"levelo://app?vid=2428d0d4-0189-4b00-85c9-81366524f657"},"vehicle_type_id":"4","last_reported":1730207892,"current_range_meters":28400,"station_id":"ce4bhm92rcd13ifvqglg","pricing_plan_id":"cebpf4jnsgd1na2vs0mg"},{"bike_id":"f84af8d2-2ca2-4426-98b9-a818a62cd343","system_id":"levelo_inurba_marseille","lat":43.30599,"lon":5.37222,"is_reserved":false,"is_disabled":false,"rental_uris":{"android":"levelo://app?vid=f84af8d2-2ca2-4426-98b9-a818a62cd343","ios":"levelo://app?vid=f84af8d2-2ca2-4426-98b9-a818a62cd343"},"vehicle_type_id":"4","last_reported":1730207892,"current_range_meters":37600,"station_id":"ce4bgqh2rcd13ifvqc4g","pricing_plan_id":"cebpf4jnsgd1na2vs0mg"},{"bike_id":"66569125-ecb1-43c8-a535-8a5b9baeafc9","system_id":"levelo_inurba_marseille","lat":43.24556,"lon":5.3952,"is_reserved":false,"is_disabled":false,"rental_uris":{"android":"levelo://app?vid=66569125-ecb1-43c8-a535-8a5b9baeafc9","ios":"levelo://app?vid=66569125-ecb1-43c8-a535-8a5b9baeafc9"},"vehicle_type_id":"4","last_reported":1730207892,"current_range_meters":40000,"station_id":"ce4bhlp2rcd13ifvqgjg","pricing_plan_id":"cebpf4jnsgd1na2vs0mg"},{"bike_id":"692da094-28c3-4e08-afdc-8bdbe575bf3e","system_id":"levelo_inurba_marseille","lat":43.2997,"lon":5.3849,"is_reserved":false,"is_disabled":false,"rental_uris":{"android":"levelo://app?vid=692da094-28c3-4e08-afdc-8bdbe575bf3e","ios":"levelo://app?vid=692da094-28c3-4e08-afdc-8bdbe575bf3e"},"vehicle_type_id":"4","last_reported":1730207892,"current_range_meters":20400,"station_id":"ce4bgj92rcd13ifvqbd0","pricing_plan_id":"cebpf4jnsgd1na2vs0mg"},{"bike_id":"0dba16a8-482c-465e-99af-ae4635581383","system_id":"levelo_inurba_marseille","lat":43.30435,"lon":5.39746,"is_reserved":false,"is_disabled":false,"rental_uris":{"android":"levelo://app?vid=0dba16a8-482c-465e-99af-ae4635581383","ios":"levelo://app?vid=0dba16a8-482c-465e-99af-ae4635581383"},"vehicle_type_id":"4","last_reported":1730207892,"current_range_meters":27600,"station_id":"ce4bh092rcd13ifvqd20","pricing_plan_id":"cebpf4jnsgd1na2vs0mg"},{"bike_id":"d451966f-9a13-4708-9dff-99520abd1e77","system_id":"levelo_inurba_marseille","lat":43.32478,"lon":5.36546,"is_reserved":false,"is_disabled":false,"rental_uris":{"android":"levelo://app?vid=d451966f-9a13-4708-9dff-99520abd1e77","ios":"levelo://app?vid=d451966f-9a13-4708-9dff-99520abd1e77"},"vehicle_type_id":"4","last_reported":1730207892,"current_range_meters":31200,"station_id":"ce4bhs12rcd13ifvqhvg","pricing_plan_id":"cebpf4jnsgd1na2vs0mg"},{"bike_id":"dbda7efb-410d-4a2b-a65e-9bcd0c2c113c","system_id":"levelo_inurba_marseille","lat":43.25105,"lon":5.40327,"is_reserved":false,"is_disabled":false,"rental_uris":{"android":"levelo://app?vid=dbda7efb-410d-4a2b-a65e-9bcd0c2c113c","ios":"levelo://app?vid=dbda7efb-410d-4a2b-a65e-9bcd0c2c113c"},"vehicle_type_id":"4","last_reported":1730207892,"current_range_meters":15200,"station_id":"ce4bhlh2rcd13ifvqgig","pricing_plan_id":"cebpf4jnsgd1na2vs0mg"},{"bike_id":"53f40179-1243-4e83-8f7a-432c3bf8a957","system_id":"levelo_inurba_marseille","lat":43.29934,"lon":5.36553,"is_reserved":false,"is_disabled":false,"rental_uris":{"android":"levelo://app?vid=53f40179-1243-4e83-8f7a-432c3bf8a957","ios":"levelo://app?vid=53f40179-1243-4e83-8f7a-432c3bf8a957"},"vehicle_type_id":"4","last_reported":1730207892,"current_range_meters":36000,"station_id":"ce4bgm92rcd13ifvqbr0","pricing_plan_id":"cebpf4jnsgd1na2vs0mg"},{"bike_id":"1954d3e5-7825-414a-b409-e1e1b97ea1b3","system_id":"levelo_inurba_marseille","lat":43.31114,"lon":5.37768,"is_reserved":false,"is_disabled":false,"rental_uris":{"android":"levelo://app?vid=1954d3e5-7825-414a-b409-e1e1b97ea1b3","ios":"levelo://app?vid=1954d3e5-7825-414a-b409-e1e1b97ea1b3"},"vehicle_type_id":"4","last_reported":1730207892,"current_range_meters":38800,"station_id":"ce4bgt92rcd13ifvqcg0","pricing_plan_id":"cebpf4jnsgd1na2vs0mg"},{"bike_id":"18a380d3-848b-45b2-b3cc-da91c5b69e63","system_id":"levelo_inurba_marseille","lat":43.295779,"lon":5.36745,"is_reserved":false,"is_disabled":false,"rental_uris":{"android":"levelo://app?vid=18a380d3-848b-45b2-b3cc-da91c5b69e63","ios":"levelo://app?vid=18a380d3-848b-45b2-b3cc-da91c5b69e63"},"vehicle_type_id":"4","last_reported":1730207892,"current_range_meters":4400,"station_id":"ce4bgph2rcd13ifvqc2g","pricing_plan_id":"cebpf4jnsgd1na2vs0mg"},{"bike_id":"a1f83bf3-eed6-45ed-a98a-d29a1a4fe512","system_id":"levelo_inurba_marseille","lat":43.29958,"lon":5.41315,"is_reserved":false,"is_disabled":false,"rental_uris":{"android":"levelo://app?vid=a1f83bf3-eed6-45ed-a98a-d29a1a4fe512","ios":"levelo://app?vid=a1f83bf3-eed6-45ed-a98a-d29a1a4fe512"},"vehicle_type_id":"4","last_reported":1730207892,"current_range_meters":28400,"station_id":"ce4bhp12rcd13ifvqh9g","pricing_plan_id":"cebpf4jnsgd1na2vs0mg"},{"bike_id":"6c5c2d65-9bb4-4292-a94e-19dacaca1c03","system_id":"levelo_inurba_marseille","lat":43.2989,"lon":5.43652,"is_reserved":false,"is_disabled":false,"rental_uris":{"android":"levelo://app?vid=6c5c2d65-9bb4-4292-a94e-19dacaca1c03","ios":"levelo://app?vid=6c5c2d65-9bb4-4292-a94e-19dacaca1c03"},"vehicle_type_id":"4","last_reported":1730207892,"current_range_meters":38800,"station_id":"ce4bhpp2rcd13ifvqhfg","pricing_plan_id":"cebpf4jnsgd1na2vs0mg"},{"bike_id":"48b40471-10b4-460f-b2e3-6a20f16d57dd","system_id":"levelo_inurba_marseille","lat":43.255066,"lon":5.401039,"is_reserved":false,"is_disabled":false,"rental_uris":{"android":"levelo://app?vid=48b40471-10b4-460f-b2e3-6a20f16d57dd","ios":"levelo://app?vid=48b40471-10b4-460f-b2e3-6a20f16d57dd"},"vehicle_type_id":"4","last_reported":1730207892,"current_range_meters":36400,"station_id":"ce4bhlh2rcd13ifvqgig","pricing_plan_id":"cebpf4jnsgd1na2vs0mg"},{"bike_id":"bbe94dcd-b3ff-4e01-a340-9c001a158aa7","system_id":"levelo_inurba_marseille","lat":43.259318,"lon":5.409031,"is_reserved":false,"is_disabled":false,"rental_uris":{"android":"levelo://app?vid=bbe94dcd-b3ff-4e01-a340-9c001a158aa7","ios":"levelo://app?vid=bbe94dcd-b3ff-4e01-a340-9c001a158aa7"},"vehicle_type_id":"4","last_reported":1730207892,"current_range_meters":38800,"station_id":"ce4bhm92rcd13ifvqglg","pricing_plan_id":"cebpf4jnsgd1na2vs0mg"},{"bike_id":"969e1b27-1071-4761-a3e8-905e7b7f2620","system_id":"levelo_inurba_marseille","lat":43.30275,"lon":5.37704,"is_reserved":false,"is_disabled":false,"rental_uris":{"android":"levelo://app?vid=969e1b27-1071-4761-a3e8-905e7b7f2620","ios":"levelo://app?vid=969e1b27-1071-4761-a3e8-905e7b7f2620"},"vehicle_type_id":"4","last_reported":1730207892,"current_range_meters":13600,"station_id":"ce4bguh2rcd13ifvqcj0","pricing_plan_id":"cebpf4jnsgd1na2vs0mg"},{"bike_id":"a3e42a1f-d496-4d15-8821-5fde1ec13a05","system_id":"levelo_inurba_marseille","lat":43.276001,"lon":5.388635,"is_reserved":false,"is_disabled":false,"rental_uris":{"android":"levelo://app?vid=a3e42a1f-d496-4d15-8821-5fde1ec13a05","ios":"levelo://app?vid=a3e42a1f-d496-4d15-8821-5fde1ec13a05"},"vehicle_type_id":"4","last_reported":1730207892,"current_range_meters":27600,"station_id":"ce4bhgp2rcd13ifvqfe0","pricing_plan_id":"cebpf4jnsgd1na2vs0mg"},{"bike_id":"766801a5-7dbd-464a-bc56-398e14b9cf78","system_id":"levelo_inurba_marseille","lat":43.29805,"lon":5.37136,"is_reserved":false,"is_disabled":false,"rental_uris":{"android":"levelo://app?vid=766801a5-7dbd-464a-bc56-398e14b9cf78","ios":"levelo://app?vid=766801a5-7dbd-464a-bc56-398e14b9cf78"},"vehicle_type_id":"4","last_reported":1730207892,"current_range_meters":10800,"station_id":"","pricing_plan_id":"cebpf4jnsgd1na2vs0mg"},{"bike_id":"afc8a59e-718c-432c-b226-d6be0903e5fb","system_id":"levelo_inurba_marseille","lat":43.24385,"lon":5.37052,"is_reserved":false,"is_disabled":false,"rental_uris":{"android":"levelo://app?vid=afc8a59e-718c-432c-b226-d6be0903e5fb","ios":"levelo://app?vid=afc8a59e-718c-432c-b226-d6be0903e5fb"},"vehicle_type_id":"4","last_reported":1730207892,"current_range_meters":37600,"station_id":"ce4bhhh2rcd13ifvqfk0","pricing_plan_id":"cebpf4jnsgd1na2vs0mg"},{"bike_id":"370a73a2-b397-4dd4-9881-4f6997fda098","system_id":"levelo_inurba_marseille","lat":43.25116,"lon":5.40316,"is_reserved":false,"is_disabled":false,"rental_uris":{"android":"levelo://app?vid=370a73a2-b397-4dd4-9881-4f6997fda098","ios":"levelo://app?vid=370a73a2-b397-4dd4-9881-4f6997fda098"},"vehicle_type_id":"4","last_reported":1730207892,"current_range_meters":30800,"station_id":"ce4bhlh2rcd13ifvqgig","pricing_plan_id":"cebpf4jnsgd1na2vs0mg"},{"bike_id":"90213912-9450-4b7a-9275-368c4b290ce6","system_id":"levelo_inurba_marseille","lat":43.28699,"lon":5.39981,"is_reserved":false,"is_disabled":false,"rental_uris":{"android":"levelo://app?vid=90213912-9450-4b7a-9275-368c4b290ce6","ios":"levelo://app?vid=90213912-9450-4b7a-9275-368c4b290ce6"},"vehicle_type_id":"4","last_reported":1730207892,"current_range_meters":28800,"station_id":"ce4bho92rcd13ifvqh3g","pricing_plan_id":"cebpf4jnsgd1na2vs0mg"},{"bike_id":"ebfd215b-eac8-48c3-9979-ec9039d81f3f","system_id":"levelo_inurba_marseille","lat":43.28414,"lon":5.37526,"is_reserved":false,"is_disabled":false,"rental_uris":{"android":"levelo://app?vid=ebfd215b-eac8-48c3-9979-ec9039d81f3f","ios":"levelo://app?vid=ebfd215b-eac8-48c3-9979-ec9039d81f3f"},"vehicle_type_id":"4","last_reported":1730207892,"current_range_meters":6800,"station_id":"ce4bh412rcd13ifvqds0","pricing_plan_id":"cebpf4jnsgd1na2vs0mg"},{"bike_id":"4f42ae93-ebcd-465c-90e8-f8ab43b5d67e","system_id":"levelo_inurba_marseille","lat":43.24079,"lon":5.37749,"is_reserved":false,"is_disabled":false,"rental_uris":{"android":"levelo://app?vid=4f42ae93-ebcd-465c-90e8-f8ab43b5d67e","ios":"levelo://app?vid=4f42ae93-ebcd-465c-90e8-f8ab43b5d67e"},"vehicle_type_id":"4","last_reported":1730207892,"current_range_meters":33200,"station_id":"ce4bhnp2rcd13ifvqgvg","pricing_plan_id":"cebpf4jnsgd1na2vs0mg"},{"bike_id":"4ff9ff98-c9e0-44c4-ba8c-f2ebb3990daa","system_id":"levelo_inurba_marseille","lat":43.32484,"lon":5.36562,"is_reserved":false,"is_disabled":false,"rental_uris":{"android":"levelo://app?vid=4ff9ff98-c9e0-44c4-ba8c-f2ebb3990daa","ios":"levelo://app?vid=4ff9ff98-c9e0-44c4-ba8c-f2ebb3990daa"},"vehicle_type_id":"4","last_reported":1730207892,"current_range_meters":8000,"station_id":"ce4bhs12rcd13ifvqhvg","pricing_plan_id":"cebpf4jnsgd1na2vs0mg"},{"bike_id":"701652a3-98e8-4b48-b460-8cc91e13658a","system_id":"levelo_inurba_marseille","lat":43.30276,"lon":5.37698,"is_reserved":false,"is_disabled":false,"rental_uris":{"android":"levelo://app?vid=701652a3-98e8-4b48-b460-8cc91e13658a","ios":"levelo://app?vid=701652a3-98e8-4b48-b460-8cc91e13658a"},"vehicle_type_id":"4","last_reported":1730207892,"current_range_meters":25600,"station_id":"ce4bguh2rcd13ifvqcj0","pricing_plan_id":"cebpf4jnsgd1na2vs0mg"},{"bike_id":"8b05850c-f65e-477d-8ac1-432addd7d25c","system_id":"levelo_inurba_marseille","lat":43.29795,"lon":5.38098,"is_reserved":false,"is_disabled":false,"rental_uris":{"android":"levelo://app?vid=8b05850c-f65e-477d-8ac1-432addd7d25c","ios":"levelo://app?vid=8b05850c-f65e-477d-8ac1-432addd7d25c"},"vehicle_type_id":"4","last_reported":1730207892,"current_range_meters":33200,"station_id":"ce4bgip2rcd13ifvqbb0","pricing_plan_id":"cebpf4jnsgd1na2vs0mg"},{"bike_id":"84a34f64-d710-4f7b-8f16-f367a9f930e0","system_id":"levelo_inurba_marseille","lat":43.26065,"lon":5.39393,"is_reserved":false,"is_disabled":false,"rental_uris":{"android":"levelo://app?vid=84a34f64-d710-4f7b-8f16-f367a9f930e0","ios":"levelo://app?vid=84a34f64-d710-4f7b-8f16-f367a9f930e0"},"vehicle_type_id":"4","last_reported":1730207892,"current_range_meters":30400,"station_id":"ce4bhh92rcd13ifvqfj0","pricing_plan_id":"cebpf4jnsgd1na2vs0mg"},{"bike_id":"75cb1cc6-d5d2-4dcd-ae25-28283e0b065b","system_id":"levelo_inurba_marseille","lat":43.2961,"lon":5.37708,"is_reserved":false,"is_disabled":false,"rental_uris":{"android":"levelo://app?vid=75cb1cc6-d5d2-4dcd-ae25-28283e0b065b","ios":"levelo://app?vid=75cb1cc6-d5d2-4dcd-ae25-28283e0b065b"},"vehicle_type_id":"4","last_reported":1730207892,"current_range_meters":19200,"station_id":"ce4bgi92rcd13ifvqb90","pricing_plan_id":"cebpf4jnsgd1na2vs0mg"},{"bike_id":"181bef3f-1485-40bb-83af-377fe61dde0b","system_id":"levelo_inurba_marseille","lat":43.32481,"lon":5.36563,"is_reserved":false,"is_disabled":false,"rental_uris":{"android":"levelo://app?vid=181bef3f-1485-40bb-83af-377fe61dde0b","ios":"levelo://app?vid=181bef3f-1485-40bb-83af-377fe61dde0b"},"vehicle_type_id":"4","last_reported":1730207892,"current_range_meters":28000,"station_id":"ce4bhs12rcd13ifvqhvg","pricing_plan_id":"cebpf4jnsgd1na2vs0mg"},{"bike_id":"42a572ee-4cf3-46b6-b8f0-0a0e16109200","system_id":"levelo_inurba_marseille","lat":43.27208,"lon":5.39185,"is_reserved":false,"is_disabled":false,"rental_uris":{"android":"levelo://app?vid=42a572ee-4cf3-46b6-b8f0-0a0e16109200","ios":"levelo://app?vid=42a572ee-4cf3-46b6-b8f0-0a0e16109200"},"vehicle_type_id":"4","last_reported":1730207892,"current_range_meters":40000,"station_id":"ce4bhhp2rcd13ifvqfm0","pricing_plan_id":"cebpf4jnsgd1na2vs0mg"},{"bike_id":"c7757bea-4296-44dc-b490-1ebf01a3caf0","system_id":"levelo_inurba_marseille","lat":43.32477,"lon":5.3657,"is_reserved":false,"is_disabled":false,"rental_uris":{"android":"levelo://app?vid=c7757bea-4296-44dc-b490-1ebf01a3caf0","ios":"levelo://app?vid=c7757bea-4296-44dc-b490-1ebf01a3caf0"},"vehicle_type_id":"4","last_reported":1730207892,"current_range_meters":35600,"station_id":"ce4bhs12rcd13ifvqhvg","pricing_plan_id":"cebpf4jnsgd1na2vs0mg"},{"bike_id":"82938b73-db78-491a-8e6b-de7ae6d59fe5","system_id":"levelo_inurba_marseille","lat":43.3375,"lon":5.37442,"is_reserved":false,"is_disabled":false,"rental_uris":{"android":"levelo://app?vid=82938b73-db78-491a-8e6b-de7ae6d59fe5","ios":"levelo://app?vid=82938b73-db78-491a-8e6b-de7ae6d59fe5"},"vehicle_type_id":"4","last_reported":1730207892,"current_range_meters":36400,"station_id":"","pricing_plan_id":"cebpf4jnsgd1na2vs0mg"},{"bike_id":"9ad633bf-7d28-4e90-bd87-854101be9da9","system_id":"levelo_inurba_marseille","lat":43.29732,"lon":5.37687,"is_reserved":false,"is_disabled":false,"rental_uris":{"android":"levelo://app?vid=9ad633bf-7d28-4e90-bd87-854101be9da9","ios":"levelo://app?vid=9ad633bf-7d28-4e90-bd87-854101be9da9"},"vehicle_type_id":"4","last_reported":1730207892,"current_range_meters":39200,"station_id":"ce4bgkh2rcd13ifvqbl0","pricing_plan_id":"cebpf4jnsgd1na2vs0mg"},{"bike_id":"9849ea7b-4c4d-4e7c-9589-e7fd87a12308","system_id":"levelo_inurba_marseille","lat":43.26937,"lon":5.40252,"is_reserved":false,"is_disabled":false,"rental_uris":{"android":"levelo://app?vid=9849ea7b-4c4d-4e7c-9589-e7fd87a12308","ios":"levelo://app?vid=9849ea7b-4c4d-4e7c-9589-e7fd87a12308"},"vehicle_type_id":"4","last_reported":1730207892,"current_range_meters":10800,"station_id":"cjm6bp8fraef2m0cb0m0","pricing_plan_id":"cebpf4jnsgd1na2vs0mg"},{"bike_id":"6950f461-348d-4d8b-924e-796dff108d67","system_id":"levelo_inurba_marseille","lat":43.27062,"lon":5.40258,"is_reserved":false,"is_disabled":false,"rental_uris":{"android":"levelo://app?vid=6950f461-348d-4d8b-924e-796dff108d67","ios":"levelo://app?vid=6950f461-348d-4d8b-924e-796dff108d67"},"vehicle_type_id":"4","last_reported":1730207892,"current_range_meters":16400,"station_id":"ce4bhk92rcd13ifvqgc0","pricing_plan_id":"cebpf4jnsgd1na2vs0mg"},{"bike_id":"a0935dd9-358e-4292-a431-3aef466f1e71","system_id":"levelo_inurba_marseille","lat":43.29269,"lon":5.36842,"is_reserved":false,"is_disabled":false,"rental_uris":{"android":"levelo://app?vid=a0935dd9-358e-4292-a431-3aef466f1e71","ios":"levelo://app?vid=a0935dd9-358e-4292-a431-3aef466f1e71"},"vehicle_type_id":"4","last_reported":1730207892,"current_range_meters":16000,"station_id":"ce4bhbp2rcd13ifvqesg","pricing_plan_id":"cebpf4jnsgd1na2vs0mg"},{"bike_id":"5ec52240-6009-4841-b27e-a7da6a622246","system_id":"levelo_inurba_marseille","lat":43.3091,"lon":5.36844,"is_reserved":false,"is_disabled":false,"rental_uris":{"android":"levelo://app?vid=5ec52240-6009-4841-b27e-a7da6a622246","ios":"levelo://app?vid=5ec52240-6009-4841-b27e-a7da6a622246"},"vehicle_type_id":"4","last_reported":1730207892,"current_range_meters":26800,"station_id":"ce4bgn92rcd13ifvqbvg","pricing_plan_id":"cebpf4jnsgd1na2vs0mg"},{"bike_id":"89d3c348-377e-4df0-ab3e-d3c57ae204ed","system_id":"levelo_inurba_marseille","lat":43.30557,"lon":5.36553,"is_reserved":false,"is_disabled":false,"rental_uris":{"android":"levelo://app?vid=89d3c348-377e-4df0-ab3e-d3c57ae204ed","ios":"levelo://app?vid=89d3c348-377e-4df0-ab3e-d3c57ae204ed"},"vehicle_type_id":"4","last_reported":1730207892,"current_range_meters":33200,"station_id":"ce4bgs12rcd13ifvqcag","pricing_plan_id":"cebpf4jnsgd1na2vs0mg"},{"bike_id":"a06aaa3a-469c-4c08-9a71-0d7e5c362262","system_id":"levelo_inurba_marseille","lat":43.33724,"lon":5.39183,"is_reserved":false,"is_disabled":false,"rental_uris":{"android":"levelo://app?vid=a06aaa3a-469c-4c08-9a71-0d7e5c362262","ios":"levelo://app?vid=a06aaa3a-469c-4c08-9a71-0d7e5c362262"},"vehicle_type_id":"4","last_reported":1730207892,"current_range_meters":32400,"station_id":"ce4bhr92rcd13ifvqhsg","pricing_plan_id":"cebpf4jnsgd1na2vs0mg"},{"bike_id":"ce540e81-7361-4047-bbd5-3a85b0972108","system_id":"levelo_inurba_marseille","lat":43.27371,"lon":5.36258,"is_reserved":false,"is_disabled":false,"rental_uris":{"android":"levelo://app?vid=ce540e81-7361-4047-bbd5-3a85b0972108","ios":"levelo://app?vid=ce540e81-7361-4047-bbd5-3a85b0972108"},"vehicle_type_id":"4","last_reported":1730207892,"current_range_meters":11200,"station_id":"ce4bhbh2rcd13ifvqeo0","pricing_plan_id":"cebpf4jnsgd1na2vs0mg"},{"bike_id":"d5c33c2a-e98a-4d53-95a8-526daefb5965","system_id":"levelo_inurba_marseille","lat":43.25939,"lon":5.40893,"is_reserved":false,"is_disabled":false,"rental_uris":{"android":"levelo://app?vid=d5c33c2a-e98a-4d53-95a8-526daefb5965","ios":"levelo://app?vid=d5c33c2a-e98a-4d53-95a8-526daefb5965"},"vehicle_type_id":"4","last_reported":1730207892,"current_range_meters":24000,"station_id":"ce4bhm92rcd13ifvqglg","pricing_plan_id":"cebpf4jnsgd1na2vs0mg"},{"bike_id":"f6b14166-5cd0-4cb4-84b2-c28ae5c2c613","system_id":"levelo_inurba_marseille","lat":43.2315,"lon":5.43718,"is_reserved":false,"is_disabled":false,"rental_uris":{"android":"levelo://app?vid=f6b14166-5cd0-4cb4-84b2-c28ae5c2c613","ios":"levelo://app?vid=f6b14166-5cd0-4cb4-84b2-c28ae5c2c613"},"vehicle_type_id":"4","last_reported":1730207892,"current_range_meters":40000,"station_id":"ce4bhmp2rcd13ifvqgog","pricing_plan_id":"cebpf4jnsgd1na2vs0mg"},{"bike_id":"0284dd34-5e22-4e6c-8bba-fea56412b3f9","system_id":"levelo_inurba_marseille","lat":43.30462,"lon":5.37905,"is_reserved":false,"is_disabled":false,"rental_uris":{"android":"levelo://app?vid=0284dd34-5e22-4e6c-8bba-fea56412b3f9","ios":"levelo://app?vid=0284dd34-5e22-4e6c-8bba-fea56412b3f9"},"vehicle_type_id":"4","last_reported":1730207892,"current_range_meters":19200,"station_id":"ce4bgup2rcd13ifvqcn0","pricing_plan_id":"cebpf4jnsgd1na2vs0mg"},{"bike_id":"5f0a93c0-4671-4c41-bb96-1449b2858476","system_id":"levelo_inurba_marseille","lat":43.29873,"lon":5.3973,"is_reserved":false,"is_disabled":false,"rental_uris":{"android":"levelo://app?vid=5f0a93c0-4671-4c41-bb96-1449b2858476","ios":"levelo://app?vid=5f0a93c0-4671-4c41-bb96-1449b2858476"},"vehicle_type_id":"4","last_reported":1730207892,"current_range_meters":18800,"station_id":"ce4bh0h2rcd13ifvqd50","pricing_plan_id":"cebpf4jnsgd1na2vs0mg"},{"bike_id":"a404248e-6987-4d99-b20a-9cc9dfe309cc","system_id":"levelo_inurba_marseille","lat":43.24075,"lon":5.37756,"is_reserved":false,"is_disabled":false,"rental_uris":{"android":"levelo://app?vid=a404248e-6987-4d99-b20a-9cc9dfe309cc","ios":"levelo://app?vid=a404248e-6987-4d99-b20a-9cc9dfe309cc"},"vehicle_type_id":"4","last_reported":1730207892,"current_range_meters":10000,"station_id":"ce4bhnp2rcd13ifvqgvg","pricing_plan_id":"cebpf4jnsgd1na2vs0mg"},{"bike_id":"dc052536-7314-4423-b44a-b6eb319c30ea","system_id":"levelo_inurba_marseille","lat":43.29849,"lon":5.36275,"is_reserved":false,"is_disabled":false,"rental_uris":{"android":"levelo://app?vid=dc052536-7314-4423-b44a-b6eb319c30ea","ios":"levelo://app?vid=dc052536-7314-4423-b44a-b6eb319c30ea"},"vehicle_type_id":"4","last_reported":1730207892,"current_range_meters":38800,"station_id":"ce4bgpp2rcd13ifvqc3g","pricing_plan_id":"cebpf4jnsgd1na2vs0mg"},{"bike_id":"e8bf488a-9bce-436a-80fd-0ce6920f0cce","system_id":"levelo_inurba_marseille","lat":43.32654,"lon":5.40993,"is_reserved":false,"is_disabled":false,"rental_uris":{"android":"levelo://app?vid=e8bf488a-9bce-436a-80fd-0ce6920f0cce","ios":"levelo://app?vid=e8bf488a-9bce-436a-80fd-0ce6920f0cce"},"vehicle_type_id":"4","last_reported":1730207892,"current_range_meters":27200,"station_id":"ce4bhpp2rcd13ifvqhgg","pricing_plan_id":"cebpf4jnsgd1na2vs0mg"},{"bike_id":"5b0caea7-b0e5-4da2-a359-403550b56cfa","system_id":"levelo_inurba_marseille","lat":43.24165,"lon":5.36399,"is_reserved":false,"is_disabled":false,"rental_uris":{"android":"levelo://app?vid=5b0caea7-b0e5-4da2-a359-403550b56cfa","ios":"levelo://app?vid=5b0caea7-b0e5-4da2-a359-403550b56cfa"},"vehicle_type_id":"4","last_reported":1730207892,"current_range_meters":28000,"station_id":"cpo36qri1sfpv3e86is0","pricing_plan_id":"cebpf4jnsgd1na2vs0mg"},{"bike_id":"8cebbd3b-c409-482d-995a-e50323e46a38","system_id":"levelo_inurba_marseille","lat":43.23146,"lon":5.43724,"is_reserved":false,"is_disabled":false,"rental_uris":{"android":"levelo://app?vid=8cebbd3b-c409-482d-995a-e50323e46a38","ios":"levelo://app?vid=8cebbd3b-c409-482d-995a-e50323e46a38"},"vehicle_type_id":"4","last_reported":1730207892,"current_range_meters":22400,"station_id":"ce4bhmp2rcd13ifvqgog","pricing_plan_id":"cebpf4jnsgd1na2vs0mg"},{"bike_id":"860dac73-e074-4fc3-81d2-c120de524607","system_id":"levelo_inurba_marseille","lat":43.30556,"lon":5.36529,"is_reserved":false,"is_disabled":false,"rental_uris":{"android":"levelo://app?vid=860dac73-e074-4fc3-81d2-c120de524607","ios":"levelo://app?vid=860dac73-e074-4fc3-81d2-c120de524607"},"vehicle_type_id":"4","last_reported":1730207892,"current_range_meters":28000,"station_id":"ce4bgs12rcd13ifvqcag","pricing_plan_id":"cebpf4jnsgd1na2vs0mg"},{"bike_id":"97780ba9-af74-4311-831e-f12183887d32","system_id":"levelo_inurba_marseille","lat":43.337444,"lon":5.374475,"is_reserved":false,"is_disabled":false,"rental_uris":{"android":"levelo://app?vid=97780ba9-af74-4311-831e-f12183887d32","ios":"levelo://app?vid=97780ba9-af74-4311-831e-f12183887d32"},"vehicle_type_id":"4","last_reported":1730207892,"current_range_meters":26800,"station_id":"","pricing_plan_id":"cebpf4jnsgd1na2vs0mg"},{"bike_id":"0e3ee072-f89b-44fa-9683-d0e6bc4d21ec","system_id":"levelo_inurba_marseille","lat":43.29725,"lon":5.37686,"is_reserved":false,"is_disabled":false,"rental_uris":{"android":"levelo://app?vid=0e3ee072-f89b-44fa-9683-d0e6bc4d21ec","ios":"levelo://app?vid=0e3ee072-f89b-44fa-9683-d0e6bc4d21ec"},"vehicle_type_id":"4","last_reported":1730207892,"current_range_meters":36000,"station_id":"ce4bgkh2rcd13ifvqbl0","pricing_plan_id":"cebpf4jnsgd1na2vs0mg"},{"bike_id":"50e03f8d-f15b-4b74-be1f-7a714435fb83","system_id":"levelo_inurba_marseille","lat":43.31347,"lon":5.36713,"is_reserved":false,"is_disabled":false,"rental_uris":{"android":"levelo://app?vid=50e03f8d-f15b-4b74-be1f-7a714435fb83","ios":"levelo://app?vid=50e03f8d-f15b-4b74-be1f-7a714435fb83"},"vehicle_type_id":"4","last_reported":1730207892,"current_range_meters":28800,"station_id":"ce4bgr92rcd13ifvqc6g","pricing_plan_id":"cebpf4jnsgd1na2vs0mg"},{"bike_id":"23ff78b0-91a2-4675-af3d-06330ca6f02b","system_id":"levelo_inurba_marseille","lat":43.30784,"lon":5.3765,"is_reserved":false,"is_disabled":false,"rental_uris":{"android":"levelo://app?vid=23ff78b0-91a2-4675-af3d-06330ca6f02b","ios":"levelo://app?vid=23ff78b0-91a2-4675-af3d-06330ca6f02b"},"vehicle_type_id":"4","last_reported":1730207892,"current_range_meters":36000,"station_id":"ce4bgv92rcd13ifvqcq0","pricing_plan_id":"cebpf4jnsgd1na2vs0mg"},{"bike_id":"ef1bbf1d-91b2-4ffd-a332-3b8c840c794e","system_id":"levelo_inurba_marseille","lat":43.33098,"lon":5.38241,"is_reserved":false,"is_disabled":false,"rental_uris":{"android":"levelo://app?vid=ef1bbf1d-91b2-4ffd-a332-3b8c840c794e","ios":"levelo://app?vid=ef1bbf1d-91b2-4ffd-a332-3b8c840c794e"},"vehicle_type_id":"4","last_reported":1730207892,"current_range_meters":4000,"station_id":"","pricing_plan_id":"cebpf4jnsgd1na2vs0mg"},{"bike_id":"a0922752-0419-4646-a3bf-718323d46a77","system_id":"levelo_inurba_marseille","lat":43.266845,"lon":5.382773,"is_reserved":false,"is_disabled":false,"rental_uris":{"android":"levelo://app?vid=a0922752-0419-4646-a3bf-718323d46a77","ios":"levelo://app?vid=a0922752-0419-4646-a3bf-718323d46a77"},"vehicle_type_id":"4","last_reported":1730207892,"current_range_meters":14000,"station_id":"ce4bhjp2rcd13ifvqga0","pricing_plan_id":"cebpf4jnsgd1na2vs0mg"},{"bike_id":"bdf9382a-e106-48c6-bde4-0221e2fc0411","system_id":"levelo_inurba_marseille","lat":43.2656,"lon":5.37283,"is_reserved":false,"is_disabled":false,"rental_uris":{"android":"levelo://app?vid=bdf9382a-e106-48c6-bde4-0221e2fc0411","ios":"levelo://app?vid=bdf9382a-e106-48c6-bde4-0221e2fc0411"},"vehicle_type_id":"4","last_reported":1730207892,"current_range_meters":37600,"station_id":"ce4bhg12rcd13ifvqf70","pricing_plan_id":"cebpf4jnsgd1na2vs0mg"},{"bike_id":"9ca77ff2-0943-4245-ba45-ef8016c9ae7d","system_id":"levelo_inurba_marseille","lat":43.28441,"lon":5.39191,"is_reserved":false,"is_disabled":false,"rental_uris":{"android":"levelo://app?vid=9ca77ff2-0943-4245-ba45-ef8016c9ae7d","ios":"levelo://app?vid=9ca77ff2-0943-4245-ba45-ef8016c9ae7d"},"vehicle_type_id":"4","last_reported":1730207892,"current_range_meters":24400,"station_id":"ce4bhoh2rcd13ifvqh5g","pricing_plan_id":"cebpf4jnsgd1na2vs0mg"},{"bike_id":"889b21df-fcfd-4fc2-8975-9ed5904bc736","system_id":"levelo_inurba_marseille","lat":43.305415,"lon":5.366883,"is_reserved":false,"is_disabled":false,"rental_uris":{"android":"levelo://app?vid=889b21df-fcfd-4fc2-8975-9ed5904bc736","ios":"levelo://app?vid=889b21df-fcfd-4fc2-8975-9ed5904bc736"},"vehicle_type_id":"4","last_reported":1730207892,"current_range_meters":28000,"station_id":"ce4bgrp2rcd13ifvqc9g","pricing_plan_id":"cebpf4jnsgd1na2vs0mg"},{"bike_id":"92545d6c-760c-4e85-b9a1-da2bfffc0818","system_id":"levelo_inurba_marseille","lat":43.23154,"lon":5.43709,"is_reserved":false,"is_disabled":false,"rental_uris":{"android":"levelo://app?vid=92545d6c-760c-4e85-b9a1-da2bfffc0818","ios":"levelo://app?vid=92545d6c-760c-4e85-b9a1-da2bfffc0818"},"vehicle_type_id":"4","last_reported":1730207892,"current_range_meters":22800,"station_id":"ce4bhmp2rcd13ifvqgog","pricing_plan_id":"cebpf4jnsgd1na2vs0mg"},{"bike_id":"361a4032-142b-4de6-a3e9-eac34bd8ce13","system_id":"levelo_inurba_marseille","lat":43.24066,"lon":5.37753,"is_reserved":false,"is_disabled":false,"rental_uris":{"android":"levelo://app?vid=361a4032-142b-4de6-a3e9-eac34bd8ce13","ios":"levelo://app?vid=361a4032-142b-4de6-a3e9-eac34bd8ce13"},"vehicle_type_id":"4","last_reported":1730207892,"current_range_meters":30400,"station_id":"ce4bhnp2rcd13ifvqgvg","pricing_plan_id":"cebpf4jnsgd1na2vs0mg"},{"bike_id":"ec57d9c5-f721-4cf5-be59-bdea335a47ae","system_id":"levelo_inurba_marseille","lat":43.26494,"lon":5.39544,"is_reserved":false,"is_disabled":false,"rental_uris":{"android":"levelo://app?vid=ec57d9c5-f721-4cf5-be59-bdea335a47ae","ios":"levelo://app?vid=ec57d9c5-f721-4cf5-be59-bdea335a47ae"},"vehicle_type_id":"4","last_reported":1730207892,"current_range_meters":36800,"station_id":"ce4bhi12rcd13ifvqfq0","pricing_plan_id":"cebpf4jnsgd1na2vs0mg"},{"bike_id":"6d535ca1-ff3a-40d6-b7f0-6895af51c976","system_id":"levelo_inurba_marseille","lat":43.32285,"lon":5.38274,"is_reserved":false,"is_disabled":false,"rental_uris":{"android":"levelo://app?vid=6d535ca1-ff3a-40d6-b7f0-6895af51c976","ios":"levelo://app?vid=6d535ca1-ff3a-40d6-b7f0-6895af51c976"},"vehicle_type_id":"4","last_reported":1730207892,"current_range_meters":33200,"station_id":"ce4bhr12rcd13ifvqhqg","pricing_plan_id":"cebpf4jnsgd1na2vs0mg"},{"bike_id":"bd1d0c81-a505-473b-97ed-c2b8dcfa3ede","system_id":"levelo_inurba_marseille","lat":43.28432,"lon":5.34984,"is_reserved":false,"is_disabled":false,"rental_uris":{"android":"levelo://app?vid=bd1d0c81-a505-473b-97ed-c2b8dcfa3ede","ios":"levelo://app?vid=bd1d0c81-a505-473b-97ed-c2b8dcfa3ede"},"vehicle_type_id":"4","last_reported":1730207892,"current_range_meters":39200,"station_id":"ce4bhbh2rcd13ifvqepg","pricing_plan_id":"cebpf4jnsgd1na2vs0mg"},{"bike_id":"98d8ad1f-cce5-41a7-9713-584cc85a31c9","system_id":"levelo_inurba_marseille","lat":43.28151,"lon":5.42638,"is_reserved":false,"is_disabled":false,"rental_uris":{"android":"levelo://app?vid=98d8ad1f-cce5-41a7-9713-584cc85a31c9","ios":"levelo://app?vid=98d8ad1f-cce5-41a7-9713-584cc85a31c9"},"vehicle_type_id":"4","last_reported":1730207892,"current_range_meters":38000,"station_id":"ce4bhnh2rcd13ifvqgug","pricing_plan_id":"cebpf4jnsgd1na2vs0mg"},{"bike_id":"9df2b987-e0c3-498c-9a0f-2b09babaec11","system_id":"levelo_inurba_marseille","lat":43.2418,"lon":5.39724,"is_reserved":false,"is_disabled":false,"rental_uris":{"android":"levelo://app?vid=9df2b987-e0c3-498c-9a0f-2b09babaec11","ios":"levelo://app?vid=9df2b987-e0c3-498c-9a0f-2b09babaec11"},"vehicle_type_id":"4","last_reported":1730207892,"current_range_meters":29600,"station_id":"ce4bhn12rcd13ifvqgpg","pricing_plan_id":"cebpf4jnsgd1na2vs0mg"},{"bike_id":"833c8cf1-f0bb-4dfa-9e76-b7ad9cc96a70","system_id":"levelo_inurba_marseille","lat":43.337444,"lon":5.374475,"is_reserved":false,"is_disabled":false,"rental_uris":{"android":"levelo://app?vid=833c8cf1-f0bb-4dfa-9e76-b7ad9cc96a70","ios":"levelo://app?vid=833c8cf1-f0bb-4dfa-9e76-b7ad9cc96a70"},"vehicle_type_id":"4","last_reported":1730207892,"current_range_meters":36800,"station_id":"","pricing_plan_id":"cebpf4jnsgd1na2vs0mg"},{"bike_id":"15d40fcf-50fc-4f87-b166-60d73871351e","system_id":"levelo_inurba_marseille","lat":43.29875,"lon":5.38907,"is_reserved":false,"is_disabled":false,"rental_uris":{"android":"levelo://app?vid=15d40fcf-50fc-4f87-b166-60d73871351e","ios":"levelo://app?vid=15d40fcf-50fc-4f87-b166-60d73871351e"},"vehicle_type_id":"4","last_reported":1730207892,"current_range_meters":38400,"station_id":"ce4bh392rcd13ifvqdl0","pricing_plan_id":"cebpf4jnsgd1na2vs0mg"},{"bike_id":"aec282c3-324d-487a-8850-842dfff52168","system_id":"levelo_inurba_marseille","lat":43.23146,"lon":5.43711,"is_reserved":false,"is_disabled":false,"rental_uris":{"android":"levelo://app?vid=aec282c3-324d-487a-8850-842dfff52168","ios":"levelo://app?vid=aec282c3-324d-487a-8850-842dfff52168"},"vehicle_type_id":"4","last_reported":1730207892,"current_range_meters":24800,"station_id":"ce4bhmp2rcd13ifvqgog","pricing_plan_id":"cebpf4jnsgd1na2vs0mg"},{"bike_id":"71ca1ef6-5725-460f-9bb5-daec8bfd3521","system_id":"levelo_inurba_marseille","lat":43.33024,"lon":5.39037,"is_reserved":false,"is_disabled":false,"rental_uris":{"android":"levelo://app?vid=71ca1ef6-5725-460f-9bb5-daec8bfd3521","ios":"levelo://app?vid=71ca1ef6-5725-460f-9bb5-daec8bfd3521"},"vehicle_type_id":"4","last_reported":1730207892,"current_range_meters":26800,"station_id":"ce4bhr92rcd13ifvqhrg","pricing_plan_id":"cebpf4jnsgd1na2vs0mg"},{"bike_id":"e4735d37-a5fd-4c22-b065-5327fe43c356","system_id":"levelo_inurba_marseille","lat":43.31167,"lon":5.38718,"is_reserved":false,"is_disabled":false,"rental_uris":{"android":"levelo://app?vid=e4735d37-a5fd-4c22-b065-5327fe43c356","ios":"levelo://app?vid=e4735d37-a5fd-4c22-b065-5327fe43c356"},"vehicle_type_id":"4","last_reported":1730207892,"current_range_meters":16400,"station_id":"ce4bgv12rcd13ifvqcp0","pricing_plan_id":"cebpf4jnsgd1na2vs0mg"},{"bike_id":"160c3125-d109-49e3-a687-ede78b99dea2","system_id":"levelo_inurba_marseille","lat":43.23193,"lon":5.35543,"is_reserved":false,"is_disabled":false,"rental_uris":{"android":"levelo://app?vid=160c3125-d109-49e3-a687-ede78b99dea2","ios":"levelo://app?vid=160c3125-d109-49e3-a687-ede78b99dea2"},"vehicle_type_id":"4","last_reported":1730207892,"current_range_meters":16400,"station_id":"ce4bhu92rcd13ifvqi70","pricing_plan_id":"cebpf4jnsgd1na2vs0mg"},{"bike_id":"27edc2bb-9c3f-48e5-b1e5-ca1fd7b23862","system_id":"levelo_inurba_marseille","lat":43.2721,"lon":5.39175,"is_reserved":false,"is_disabled":false,"rental_uris":{"android":"levelo://app?vid=27edc2bb-9c3f-48e5-b1e5-ca1fd7b23862","ios":"levelo://app?vid=27edc2bb-9c3f-48e5-b1e5-ca1fd7b23862"},"vehicle_type_id":"4","last_reported":1730207892,"current_range_meters":40000,"station_id":"ce4bhhp2rcd13ifvqfm0","pricing_plan_id":"cebpf4jnsgd1na2vs0mg"},{"bike_id":"7a3f60d6-5589-44b2-bea7-8a929e9b6b4e","system_id":"levelo_inurba_marseille","lat":43.29896,"lon":5.43655,"is_reserved":false,"is_disabled":false,"rental_uris":{"android":"levelo://app?vid=7a3f60d6-5589-44b2-bea7-8a929e9b6b4e","ios":"levelo://app?vid=7a3f60d6-5589-44b2-bea7-8a929e9b6b4e"},"vehicle_type_id":"4","last_reported":1730207892,"current_range_meters":17200,"station_id":"ce4bhpp2rcd13ifvqhfg","pricing_plan_id":"cebpf4jnsgd1na2vs0mg"},{"bike_id":"58c76d7e-ede0-49b4-adb5-3e66ee6972dd","system_id":"levelo_inurba_marseille","lat":43.25937,"lon":5.40893,"is_reserved":false,"is_disabled":false,"rental_uris":{"android":"levelo://app?vid=58c76d7e-ede0-49b4-adb5-3e66ee6972dd","ios":"levelo://app?vid=58c76d7e-ede0-49b4-adb5-3e66ee6972dd"},"vehicle_type_id":"4","last_reported":1730207892,"current_range_meters":29600,"station_id":"ce4bhm92rcd13ifvqglg","pricing_plan_id":"cebpf4jnsgd1na2vs0mg"},{"bike_id":"b1acc04b-4ae4-4de3-9c48-0e964733e1f6","system_id":"levelo_inurba_marseille","lat":43.2418,"lon":5.39712,"is_reserved":false,"is_disabled":false,"rental_uris":{"android":"levelo://app?vid=b1acc04b-4ae4-4de3-9c48-0e964733e1f6","ios":"levelo://app?vid=b1acc04b-4ae4-4de3-9c48-0e964733e1f6"},"vehicle_type_id":"4","last_reported":1730207892,"current_range_meters":26800,"station_id":"ce4bhn12rcd13ifvqgpg","pricing_plan_id":"cebpf4jnsgd1na2vs0mg"},{"bike_id":"4610bff7-5313-41f8-8fdc-7e503ab891b4","system_id":"levelo_inurba_marseille","lat":43.27203,"lon":5.39178,"is_reserved":false,"is_disabled":false,"rental_uris":{"android":"levelo://app?vid=4610bff7-5313-41f8-8fdc-7e503ab891b4","ios":"levelo://app?vid=4610bff7-5313-41f8-8fdc-7e503ab891b4"},"vehicle_type_id":"4","last_reported":1730207892,"current_range_meters":14000,"station_id":"ce4bhhp2rcd13ifvqfm0","pricing_plan_id":"cebpf4jnsgd1na2vs0mg"},{"bike_id":"65fe9e28-0526-4b4d-8cb6-579b041ed280","system_id":"levelo_inurba_marseille","lat":43.29846,"lon":5.36264,"is_reserved":false,"is_disabled":false,"rental_uris":{"android":"levelo://app?vid=65fe9e28-0526-4b4d-8cb6-579b041ed280","ios":"levelo://app?vid=65fe9e28-0526-4b4d-8cb6-579b041ed280"},"vehicle_type_id":"4","last_reported":1730207892,"current_range_meters":38800,"station_id":"ce4bgpp2rcd13ifvqc3g","pricing_plan_id":"cebpf4jnsgd1na2vs0mg"},{"bike_id":"a8b4f3ce-2e97-420b-b470-f1b01c4991b6","system_id":"levelo_inurba_marseille","lat":43.29306,"lon":5.37181,"is_reserved":false,"is_disabled":false,"rental_uris":{"android":"levelo://app?vid=a8b4f3ce-2e97-420b-b470-f1b01c4991b6","ios":"levelo://app?vid=a8b4f3ce-2e97-420b-b470-f1b01c4991b6"},"vehicle_type_id":"4","last_reported":1730207892,"current_range_meters":33600,"station_id":"ce4bgh92rcd13ifvqb40","pricing_plan_id":"cebpf4jnsgd1na2vs0mg"},{"bike_id":"c6ce7946-f9ab-46ed-8999-ecbd91719ed9","system_id":"levelo_inurba_marseille","lat":43.25729,"lon":5.41104,"is_reserved":false,"is_disabled":false,"rental_uris":{"android":"levelo://app?vid=c6ce7946-f9ab-46ed-8999-ecbd91719ed9","ios":"levelo://app?vid=c6ce7946-f9ab-46ed-8999-ecbd91719ed9"},"vehicle_type_id":"4","last_reported":1730207892,"current_range_meters":11200,"station_id":"ce4bhkp2rcd13ifvqgd0","pricing_plan_id":"cebpf4jnsgd1na2vs0mg"},{"bike_id":"061ab869-7362-4f3b-8448-79798d6efd53","system_id":"levelo_inurba_marseille","lat":43.29572,"lon":5.37516,"is_reserved":false,"is_disabled":false,"rental_uris":{"android":"levelo://app?vid=061ab869-7362-4f3b-8448-79798d6efd53","ios":"levelo://app?vid=061ab869-7362-4f3b-8448-79798d6efd53"},"vehicle_type_id":"4","last_reported":1730207892,"current_range_meters":19600,"station_id":"ce4bgh92rcd13ifvqb50","pricing_plan_id":"cebpf4jnsgd1na2vs0mg"},{"bike_id":"fe93a8fb-ab0c-4f40-8b92-4476ceafbf21","system_id":"levelo_inurba_marseille","lat":43.30186,"lon":5.36612,"is_reserved":false,"is_disabled":false,"rental_uris":{"android":"levelo://app?vid=fe93a8fb-ab0c-4f40-8b92-4476ceafbf21","ios":"levelo://app?vid=fe93a8fb-ab0c-4f40-8b92-4476ceafbf21"},"vehicle_type_id":"4","last_reported":1730207892,"current_range_meters":39200,"station_id":"ce4bgrh2rcd13ifvqc8g","pricing_plan_id":"cebpf4jnsgd1na2vs0mg"},{"bike_id":"a83a4481-3dcc-408b-848f-58275877bee3","system_id":"levelo_inurba_marseille","lat":43.27997,"lon":5.40017,"is_reserved":false,"is_disabled":false,"rental_uris":{"android":"levelo://app?vid=a83a4481-3dcc-408b-848f-58275877bee3","ios":"levelo://app?vid=a83a4481-3dcc-408b-848f-58275877bee3"},"vehicle_type_id":"4","last_reported":1730207892,"current_range_meters":33600,"station_id":"ce4bho92rcd13ifvqh4g","pricing_plan_id":"cebpf4jnsgd1na2vs0mg"},{"bike_id":"b158e603-4038-4cf8-bb46-f6f43d2d314e","system_id":"levelo_inurba_marseille","lat":43.271088,"lon":5.408818,"is_reserved":false,"is_disabled":false,"rental_uris":{"android":"levelo://app?vid=b158e603-4038-4cf8-bb46-f6f43d2d314e","ios":"levelo://app?vid=b158e603-4038-4cf8-bb46-f6f43d2d314e"},"vehicle_type_id":"4","last_reported":1730207892,"current_range_meters":8800,"station_id":"","pricing_plan_id":"cebpf4jnsgd1na2vs0mg"},{"bike_id":"d3e057b4-c7c0-455e-918e-6a5b577f9496","system_id":"levelo_inurba_marseille","lat":43.24388,"lon":5.3706,"is_reserved":false,"is_disabled":false,"rental_uris":{"android":"levelo://app?vid=d3e057b4-c7c0-455e-918e-6a5b577f9496","ios":"levelo://app?vid=d3e057b4-c7c0-455e-918e-6a5b577f9496"},"vehicle_type_id":"4","last_reported":1730207892,"current_range_meters":18800,"station_id":"ce4bhhh2rcd13ifvqfk0","pricing_plan_id":"cebpf4jnsgd1na2vs0mg"},{"bike_id":"2234cf29-4f85-494d-828d-28b9e7ad84f4","system_id":"levelo_inurba_marseille","lat":43.30462,"lon":5.37902,"is_reserved":false,"is_disabled":false,"rental_uris":{"android":"levelo://app?vid=2234cf29-4f85-494d-828d-28b9e7ad84f4","ios":"levelo://app?vid=2234cf29-4f85-494d-828d-28b9e7ad84f4"},"vehicle_type_id":"4","last_reported":1730207892,"current_range_meters":38000,"station_id":"ce4bgup2rcd13ifvqcn0","pricing_plan_id":"cebpf4jnsgd1na2vs0mg"},{"bike_id":"a8cde6f8-d3bf-47c5-b196-b63adddb31ba","system_id":"levelo_inurba_marseille","lat":43.3136,"lon":5.38491,"is_reserved":false,"is_disabled":false,"rental_uris":{"android":"levelo://app?vid=a8cde6f8-d3bf-47c5-b196-b63adddb31ba","ios":"levelo://app?vid=a8cde6f8-d3bf-47c5-b196-b63adddb31ba"},"vehicle_type_id":"4","last_reported":1730207892,"current_range_meters":32400,"station_id":"ce4bgt92rcd13ifvqcf0","pricing_plan_id":"cebpf4jnsgd1na2vs0mg"},{"bike_id":"3a23b39f-7822-4db7-a163-d44b99f45303","system_id":"levelo_inurba_marseille","lat":43.306,"lon":5.37232,"is_reserved":false,"is_disabled":false,"rental_uris":{"android":"levelo://app?vid=3a23b39f-7822-4db7-a163-d44b99f45303","ios":"levelo://app?vid=3a23b39f-7822-4db7-a163-d44b99f45303"},"vehicle_type_id":"4","last_reported":1730207892,"current_range_meters":35600,"station_id":"ce4bgqh2rcd13ifvqc4g","pricing_plan_id":"cebpf4jnsgd1na2vs0mg"},{"bike_id":"867b409c-962e-4c75-aba2-14cc0f1bfda6","system_id":"levelo_inurba_marseille","lat":43.2418,"lon":5.39721,"is_reserved":false,"is_disabled":false,"rental_uris":{"android":"levelo://app?vid=867b409c-962e-4c75-aba2-14cc0f1bfda6","ios":"levelo://app?vid=867b409c-962e-4c75-aba2-14cc0f1bfda6"},"vehicle_type_id":"4","last_reported":1730207892,"current_range_meters":30000,"station_id":"ce4bhn12rcd13ifvqgpg","pricing_plan_id":"cebpf4jnsgd1na2vs0mg"},{"bike_id":"dfc48285-93bb-4bea-8425-1608f8b4c147","system_id":"levelo_inurba_marseille","lat":43.29296,"lon":5.37468,"is_reserved":false,"is_disabled":false,"rental_uris":{"android":"levelo://app?vid=dfc48285-93bb-4bea-8425-1608f8b4c147","ios":"levelo://app?vid=dfc48285-93bb-4bea-8425-1608f8b4c147"},"vehicle_type_id":"4","last_reported":1730207892,"current_range_meters":27600,"station_id":"ce4bgi12rcd13ifvqb70","pricing_plan_id":"cebpf4jnsgd1na2vs0mg"},{"bike_id":"e24765a5-e631-4950-85a7-d50d4da7738d","system_id":"levelo_inurba_marseille","lat":43.24269,"lon":5.36818,"is_reserved":false,"is_disabled":false,"rental_uris":{"android":"levelo://app?vid=e24765a5-e631-4950-85a7-d50d4da7738d","ios":"levelo://app?vid=e24765a5-e631-4950-85a7-d50d4da7738d"},"vehicle_type_id":"4","last_reported":1730207892,"current_range_meters":8400,"station_id":"","pricing_plan_id":"cebpf4jnsgd1na2vs0mg"},{"bike_id":"5cefe714-3e93-4616-88af-23e3ef686cd4","system_id":"levelo_inurba_marseille","lat":43.28933,"lon":5.38391,"is_reserved":false,"is_disabled":false,"rental_uris":{"android":"levelo://app?vid=5cefe714-3e93-4616-88af-23e3ef686cd4","ios":"levelo://app?vid=5cefe714-3e93-4616-88af-23e3ef686cd4"},"vehicle_type_id":"4","last_reported":1730207892,"current_range_meters":22800,"station_id":"ce4bh612rcd13ifvqe6g","pricing_plan_id":"cebpf4jnsgd1na2vs0mg"},{"bike_id":"4ea48b03-e1a0-4ceb-9b62-d6b948a876b8","system_id":"levelo_inurba_marseille","lat":43.28431,"lon":5.34986,"is_reserved":false,"is_disabled":false,"rental_uris":{"android":"levelo://app?vid=4ea48b03-e1a0-4ceb-9b62-d6b948a876b8","ios":"levelo://app?vid=4ea48b03-e1a0-4ceb-9b62-d6b948a876b8"},"vehicle_type_id":"4","last_reported":1730207892,"current_range_meters":27600,"station_id":"ce4bhbh2rcd13ifvqepg","pricing_plan_id":"cebpf4jnsgd1na2vs0mg"},{"bike_id":"a0b8a157-90c0-421f-b5ee-689aa0d9ce49","system_id":"levelo_inurba_marseille","lat":43.337444,"lon":5.374475,"is_reserved":false,"is_disabled":false,"rental_uris":{"android":"levelo://app?vid=a0b8a157-90c0-421f-b5ee-689aa0d9ce49","ios":"levelo://app?vid=a0b8a157-90c0-421f-b5ee-689aa0d9ce49"},"vehicle_type_id":"4","last_reported":1730207892,"current_range_meters":10800,"station_id":"","pricing_plan_id":"cebpf4jnsgd1na2vs0mg"},{"bike_id":"2fda6181-03f5-40ed-b158-4bcd6908625f","system_id":"levelo_inurba_marseille","lat":43.31681,"lon":5.4355,"is_reserved":false,"is_disabled":false,"rental_uris":{"android":"levelo://app?vid=2fda6181-03f5-40ed-b158-4bcd6908625f","ios":"levelo://app?vid=2fda6181-03f5-40ed-b158-4bcd6908625f"},"vehicle_type_id":"4","last_reported":1730207892,"current_range_meters":24000,"station_id":"","pricing_plan_id":"cebpf4jnsgd1na2vs0mg"},{"bike_id":"3147bfbd-3065-4ae9-a4cc-ec3dcd788d86","system_id":"levelo_inurba_marseille","lat":43.30606,"lon":5.37222,"is_reserved":false,"is_disabled":false,"rental_uris":{"android":"levelo://app?vid=3147bfbd-3065-4ae9-a4cc-ec3dcd788d86","ios":"levelo://app?vid=3147bfbd-3065-4ae9-a4cc-ec3dcd788d86"},"vehicle_type_id":"4","last_reported":1730207892,"current_range_meters":38800,"station_id":"ce4bgqh2rcd13ifvqc4g","pricing_plan_id":"cebpf4jnsgd1na2vs0mg"},{"bike_id":"42f33d93-d869-423b-8263-d4fe286325ee","system_id":"levelo_inurba_marseille","lat":43.24078,"lon":5.37751,"is_reserved":false,"is_disabled":false,"rental_uris":{"android":"levelo://app?vid=42f33d93-d869-423b-8263-d4fe286325ee","ios":"levelo://app?vid=42f33d93-d869-423b-8263-d4fe286325ee"},"vehicle_type_id":"4","last_reported":1730207892,"current_range_meters":5600,"station_id":"ce4bhnp2rcd13ifvqgvg","pricing_plan_id":"cebpf4jnsgd1na2vs0mg"},{"bike_id":"53f70b62-cacd-404a-985f-f7ea91aa90ba","system_id":"levelo_inurba_marseille","lat":43.28075,"lon":5.39643,"is_reserved":false,"is_disabled":false,"rental_uris":{"android":"levelo://app?vid=53f70b62-cacd-404a-985f-f7ea91aa90ba","ios":"levelo://app?vid=53f70b62-cacd-404a-985f-f7ea91aa90ba"},"vehicle_type_id":"4","last_reported":1730207892,"current_range_meters":38000,"station_id":"ce4bho12rcd13ifvqh2g","pricing_plan_id":"cebpf4jnsgd1na2vs0mg"},{"bike_id":"6d126f3e-2af9-470f-8e5c-b695ef9f023e","system_id":"levelo_inurba_marseille","lat":43.27422,"lon":5.39403,"is_reserved":false,"is_disabled":false,"rental_uris":{"android":"levelo://app?vid=6d126f3e-2af9-470f-8e5c-b695ef9f023e","ios":"levelo://app?vid=6d126f3e-2af9-470f-8e5c-b695ef9f023e"},"vehicle_type_id":"4","last_reported":1730207892,"current_range_meters":24800,"station_id":"ce4bhdp2rcd13ifvqf20","pricing_plan_id":"cebpf4jnsgd1na2vs0mg"},{"bike_id":"08fe1ba6-ff20-4387-a37e-f1c9cb573a12","system_id":"levelo_inurba_marseille","lat":43.32104,"lon":5.36774,"is_reserved":false,"is_disabled":false,"rental_uris":{"android":"levelo://app?vid=08fe1ba6-ff20-4387-a37e-f1c9cb573a12","ios":"levelo://app?vid=08fe1ba6-ff20-4387-a37e-f1c9cb573a12"},"vehicle_type_id":"4","last_reported":1730207892,"current_range_meters":30800,"station_id":"ce4bhrh2rcd13ifvqhug","pricing_plan_id":"cebpf4jnsgd1na2vs0mg"},{"bike_id":"dd5011c3-2cf4-4437-9f3b-dba7eb6bcfd1","system_id":"levelo_inurba_marseille","lat":43.30889,"lon":5.37187,"is_reserved":false,"is_disabled":false,"rental_uris":{"android":"levelo://app?vid=dd5011c3-2cf4-4437-9f3b-dba7eb6bcfd1","ios":"levelo://app?vid=dd5011c3-2cf4-4437-9f3b-dba7eb6bcfd1"},"vehicle_type_id":"4","last_reported":1730207892,"current_range_meters":37600,"station_id":"ce4bguh2rcd13ifvqckg","pricing_plan_id":"cebpf4jnsgd1na2vs0mg"},{"bike_id":"0e057e84-3b69-423c-919c-b55007581487","system_id":"levelo_inurba_marseille","lat":43.30903,"lon":5.37181,"is_reserved":false,"is_disabled":false,"rental_uris":{"android":"levelo://app?vid=0e057e84-3b69-423c-919c-b55007581487","ios":"levelo://app?vid=0e057e84-3b69-423c-919c-b55007581487"},"vehicle_type_id":"4","last_reported":1730207892,"current_range_meters":9200,"station_id":"ce4bguh2rcd13ifvqckg","pricing_plan_id":"cebpf4jnsgd1na2vs0mg"},{"bike_id":"a2c88a69-381f-47e9-9a04-33848e22832a","system_id":"levelo_inurba_marseille","lat":43.23191,"lon":5.4,"is_reserved":false,"is_disabled":false,"rental_uris":{"android":"levelo://app?vid=a2c88a69-381f-47e9-9a04-33848e22832a","ios":"levelo://app?vid=a2c88a69-381f-47e9-9a04-33848e22832a"},"vehicle_type_id":"4","last_reported":1730207892,"current_range_meters":29600,"station_id":"ce4bhn12rcd13ifvqgqg","pricing_plan_id":"cebpf4jnsgd1na2vs0mg"},{"bike_id":"5acf301e-b9a9-4b90-9de2-e841d054a6f0","system_id":"levelo_inurba_marseille","lat":43.337444,"lon":5.374475,"is_reserved":false,"is_disabled":false,"rental_uris":{"android":"levelo://app?vid=5acf301e-b9a9-4b90-9de2-e841d054a6f0","ios":"levelo://app?vid=5acf301e-b9a9-4b90-9de2-e841d054a6f0"},"vehicle_type_id":"4","last_reported":1730207892,"current_range_meters":12400,"station_id":"ce4bh0h2rcd13ifvqd50","pricing_plan_id":"cebpf4jnsgd1na2vs0mg"},{"bike_id":"42c5b94d-a6e1-4c0e-b3fa-74ef5f2ef0d2","system_id":"levelo_inurba_marseille","lat":43.2397,"lon":5.36621,"is_reserved":false,"is_disabled":false,"rental_uris":{"android":"levelo://app?vid=42c5b94d-a6e1-4c0e-b3fa-74ef5f2ef0d2","ios":"levelo://app?vid=42c5b94d-a6e1-4c0e-b3fa-74ef5f2ef0d2"},"vehicle_type_id":"4","last_reported":1730207892,"current_range_meters":22400,"station_id":"ce4bhi12rcd13ifvqfp0","pricing_plan_id":"cebpf4jnsgd1na2vs0mg"},