{"last_updated":1737713358,"ttl":60,"version":"2.2","data":{"bikes":[{"bike_id":"71025e83-daff-40eb-8f70-b8e1fc9300fb","system_id":"levelo_inurba_marseille","lat":43.22925,"lon":5.35385,"is_reserved":false,"is_disabled":false,"rental_uris":{"android":"levelo://app?vid=71025e83-daff-40eb-8f70-b8e1fc9300fb","ios":"levelo://app?vid=71025e83-daff-40eb-8f70-b8e1fc9300fb"},"vehicle_type_id":"4","last_reported":1737713359,"current_range_meters":38000,"station_id":"cpo3532slgdg3j2ikp40","pricing_plan_id":"cebpf4jnsgd1na2vs0mg"},{"bike_id":"be79a7d9-584d-4e78-ba7f-23d098ade1cb","system_id":"levelo_inurba_marseille","lat":43.29163,"lon":5.37151,"is_reserved":false,"is_disabled":false,"rental_uris":{"android":"levelo://app?vid=be79a7d9-584d-4e78-ba7f-23d098ade1cb","ios":"levelo://app?vid=be79a7d9-584d-4e78-ba7f-23d098ade1cb"},"vehicle_type_id":"4","last_reported":1737713359,"current_range_meters":30800,"station_id":"ce4bha92rcd13ifvqeh0","pricing_plan_id":"cebpf4jnsgd1na2vs0mg"},{"bike_id":"9c7eaa63-fad9-42a1-ac6c-648c1755a7f5","system_id":"levelo_inurba_marseille","lat":43.30096,"lon":5.37296,"is_reserved":false,"is_disabled":false,"rental_uris":{"android":"levelo://app?vid=9c7eaa63-fad9-42a1-ac6c-648c1755a7f5","ios":"levelo://app?vid=9c7eaa63-fad9-42a1-ac6c-648c1755a7f5"},"vehicle_type_id":"4","last_reported":1737713359,"current_range_meters":32000,"station_id":"","pricing_plan_id":"cebpf4jnsgd1na2vs0mg"},{"bike_id":"9237c4f7-a7a6-4cb7-8f11-8c16ed774395","system_id":"levelo_inurba_marseille","lat":43.30461,"lon":5.3791,"is_reserved":false,"is_disabled":false,"rental_uris":{"android":"levelo://app?vid=9237c4f7-a7a6-4cb7-8f11-8c16ed774395","ios":"levelo://app?vid=9237c4f7-a7a6-4cb7-8f11-8c16ed774395"},"vehicle_type_id":"4","last_reported":1737713359,"current_range_meters":24800,"station_id":"ce4bgup2rcd13ifvqcn0","pricing_plan_id":"cebpf4jnsgd1na2vs0mg"},{"bike_id":"45b08cc2-7cfd-4f56-8933-521f002668c9","system_id":"levelo_inurba_marseille","lat":43.29274,"lon":5.36845,"is_reserved":false,"is_disabled":false,"rental_uris":{"android":"levelo://app?vid=45b08cc2-7cfd-4f56-8933-521f002668c9","ios":"levelo://app?vid=45b08cc2-7cfd-4f56-8933-521f002668c9"},"vehicle_type_id":"4","last_reported":1737713359,"current_range_meters":36800,"station_id":"ce4bhbp2rcd13ifvqesg","pricing_plan_id":"cebpf4jnsgd1na2vs0mg"},{"bike_id":"1159e47a-842f-42ed-9154-31fbb2da896f","system_id":"levelo_inurba_marseille","lat":43.28965,"lon":5.37838,"is_reserved":false,"is_disabled":false,"rental_uris":{"android":"levelo://app?vid=1159e47a-842f-42ed-9154-31fbb2da896f","ios":"levelo://app?vid=1159e47a-842f-42ed-9154-31fbb2da896f"},"vehicle_type_id":"4","last_reported":1737713359,"current_range_meters":17600,"station_id":"ce4bh9p2rcd13ifvqed0","pricing_plan_id":"cebpf4jnsgd1na2vs0mg"},{"bike_id":"07b3636a-6565-4267-bb7f-3bdd825e382a","system_id":"levelo_inurba_marseille","lat":43.28707,"lon":5.400028,"is_reserved":false,"is_disabled":true,"rental_uris":{"android":"levelo://app?vid=07b3636a-6565-4267-bb7f-3bdd825e382a","ios":"levelo://app?vid=07b3636a-6565-4267-bb7f-3bdd825e382a"},"vehicle_type_id":"4","last_reported":1737713359,"current_range_meters":1200,"station_id":"ce4bho92rcd13ifvqh3g","pricing_plan_id":"cebpf4jnsgd1na2vs0mg"},{"bike_id":"915f0150-76c4-4dba-b274-15ea7a8605fa","system_id":"levelo_inurba_marseille","lat":43.30008,"lon":5.40076,"is_reserved":false,"is_disabled":false,"rental_uris":{"android":"levelo://app?vid=915f0150-76c4-4dba-b274-15ea7a8605fa","ios":"levelo://app?vid=915f0150-76c4-4dba-b274-15ea7a8605fa"},"vehicle_type_id":"4","last_reported":1737713359,"current_range_meters":24000,"station_id":"ce4bh0h2rcd13ifvqd60","pricing_plan_id":"cebpf4jnsgd1na2vs0mg"},{"bike_id":"eb97554e-9784-452b-b85e-e8331efd4fe5","system_id":"levelo_inurba_marseille","lat":43.31323,"lon":5.36722,"is_reserved":false,"is_disabled":false,"rental_uris":{"android":"levelo://app?vid=eb97554e-9784-452b-b85e-e8331efd4fe5","ios":"levelo://app?vid=eb97554e-9784-452b-b85e-e8331efd4fe5"},"vehicle_type_id":"4","last_reported":1737713359,"current_range_meters":38800,"station_id":"ce4bgr92rcd13ifvqc6g","pricing_plan_id":"cebpf4jnsgd1na2vs0mg"},{"bike_id":"cb0ff26d-12db-4f4f-8a1e-edf0f3766303","system_id":"levelo_inurba_marseille","lat":43.31261,"lon":5.36871,"is_reserved":false,"is_disabled":false,"rental_uris":{"android":"levelo://app?vid=cb0ff26d-12db-4f4f-8a1e-edf0f3766303","ios":"levelo://app?vid=cb0ff26d-12db-4f4f-8a1e-edf0f3766303"},"vehicle_type_id":"4","last_reported":1737713359,"current_range_meters":8800,"station_id":"ce4bgl92rcd13ifvqbq0","pricing_plan_id":"cebpf4jnsgd1na2vs0mg"},{"bike_id":"1530671e-43db-4f36-9c5a-d44e230d875b","system_id":"levelo_inurba_marseille","lat":43.2936,"lon":5.37851,"is_reserved":false,"is_disabled":false,"rental_uris":{"android":"levelo://app?vid=1530671e-43db-4f36-9c5a-d44e230d875b","ios":"levelo://app?vid=1530671e-43db-4f36-9c5a-d44e230d875b"},"vehicle_type_id":"4","last_reported":1737713359,"current_range_meters":38800,"station_id":"ce4bgjh2rcd13ifvqbf0","pricing_plan_id":"cebpf4jnsgd1na2vs0mg"},{"bike_id":"82f4c6d0-28c7-4041-af4f-8b561c06316e","system_id":"levelo_inurba_marseille","lat":43.29302,"lon":5.37454,"is_reserved":false,"is_disabled":false,"rental_uris":{"android":"levelo://app?vid=82f4c6d0-28c7-4041-af4f-8b561c06316e","ios":"levelo://app?vid=82f4c6d0-28c7-4041-af4f-8b561c06316e"},"vehicle_type_id":"4","last_reported":1737713359,"current_range_meters":38000,"station_id":"ce4bgi12rcd13ifvqb70","pricing_plan_id":"cebpf4jnsgd1na2vs0mg"},{"bike_id":"652ff0cc-8d87-46b0-add0-73b63008eda4","system_id":"levelo_inurba_marseille","lat":43.32549,"lon":5.41454,"is_reserved":false,"is_disabled":false,"rental_uris":{"android":"levelo://app?vid=652ff0cc-8d87-46b0-add0-73b63008eda4","ios":"levelo://app?vid=652ff0cc-8d87-46b0-add0-73b63008eda4"},"vehicle_type_id":"4","last_reported":1737713359,"current_range_meters":31200,"station_id":"ce4bhq12rcd13ifvqhhg","pricing_plan_id":"cebpf4jnsgd1na2vs0mg"},{"bike_id":"367c1a4d-e3ef-4cc4-8a53-e7c1e322176a","system_id":"levelo_inurba_marseille","lat":43.30153,"lon":5.38086,"is_reserved":false,"is_disabled":false,"rental_uris":{"android":"levelo://app?vid=367c1a4d-e3ef-4cc4-8a53-e7c1e322176a","ios":"levelo://app?vid=367c1a4d-e3ef-4cc4-8a53-e7c1e322176a"},"vehicle_type_id":"4","last_reported":1737713359,"current_range_meters":19600,"station_id":"ce4bgjp2rcd13ifvqbh0","pricing_plan_id":"cebpf4jnsgd1na2vs0mg"},{"bike_id":"fa235921-264c-45fa-9486-36940e44284c","system_id":"levelo_inurba_marseille","lat":43.255717,"lon":5.38247,"is_reserved":false,"is_disabled":false,"rental_uris":{"android":"levelo://app?vid=fa235921-264c-45fa-9486-36940e44284c","ios":"levelo://app?vid=fa235921-264c-45fa-9486-36940e44284c"},"vehicle_type_id":"4","last_reported":1737713359,"current_range_meters":38800,"station_id":"ce4bhih2rcd13ifvqfs0","pricing_plan_id":"cebpf4jnsgd1na2vs0mg"},{"bike_id":"b2d18654-c549-4f43-9593-2c68495e6f4c","system_id":"levelo_inurba_marseille","lat":43.3095,"lon":5.39025,"is_reserved":false,"is_disabled":true,"rental_uris":{"android":"levelo://app?vid=b2d18654-c549-4f43-9593-2c68495e6f4c","ios":"levelo://app?vid=b2d18654-c549-4f43-9593-2c68495e6f4c"},"vehicle_type_id":"4","last_reported":1737713359,"current_range_meters":38800,"station_id":"ce4bgup2rcd13ifvqco0","pricing_plan_id":"cebpf4jnsgd1na2vs0mg"},{"bike_id":"8408e6ee-ebfa-4996-ba7e-e340b7b92df8","system_id":"levelo_inurba_marseille","lat":43.30196,"lon":5.39479,"is_reserved":false,"is_disabled":false,"rental_uris":{"android":"levelo://app?vid=8408e6ee-ebfa-4996-ba7e-e340b7b92df8","ios":"levelo://app?vid=8408e6ee-ebfa-4996-ba7e-e340b7b92df8"},"vehicle_type_id":"4","last_reported":1737713359,"current_range_meters":4800,"station_id":"ce4bh0p2rcd13ifvqd70","pricing_plan_id":"cebpf4jnsgd1na2vs0mg"},{"bike_id":"59e599e2-aa0c-47e0-b327-0676fd03ab57","system_id":"levelo_inurba_marseille","lat":43.2417,"lon":5.36397,"is_reserved":false,"is_disabled":false,"rental_uris":{"android":"levelo://app?vid=59e599e2-aa0c-47e0-b327-0676fd03ab57","ios":"levelo://app?vid=59e599e2-aa0c-47e0-b327-0676fd03ab57"},"vehicle_type_id":"4","last_reported":1737713359,"current_range_meters":26000,"station_id":"cpo36qri1sfpv3e86is0","pricing_plan_id":"cebpf4jnsgd1na2vs0mg"},{"bike_id":"3169bea1-794e-4a56-bb06-3b17a235f305","system_id":"levelo_inurba_marseille","lat":43.2572,"lon":5.41118,"is_reserved":false,"is_disabled":false,"rental_uris":{"android":"levelo://app?vid=3169bea1-794e-4a56-bb06-3b17a235f305","ios":"levelo://app?vid=3169bea1-794e-4a56-bb06-3b17a235f305"},"vehicle_type_id":"4","last_reported":1737713359,"current_range_meters":38800,"station_id":"ce4bhkp2rcd13ifvqgd0","pricing_plan_id":"cebpf4jnsgd1na2vs0mg"},{"bike_id":"1472ea52-8fc9-449d-8cdc-fb5de31126e2","system_id":"levelo_inurba_marseille","lat":43.32473,"lon":5.36547,"is_reserved":false,"is_disabled":false,"rental_uris":{"android":"levelo://app?vid=1472ea52-8fc9-449d-8cdc-fb5de31126e2","ios":"levelo://app?vid=1472ea52-8fc9-449d-8cdc-fb5de31126e2"},"vehicle_type_id":"4","last_reported":1737713359,"current_range_meters":27200,"station_id":"ce4bhs12rcd13ifvqhvg","pricing_plan_id":"cebpf4jnsgd1na2vs0mg"},{"bike_id":"a7096c56-ee6c-4caa-8cc5-7bc6b6306671","system_id":"levelo_inurba_marseille","lat":43.313368,"lon":5.367175,"is_reserved":false,"is_disabled":false,"rental_uris":{"android":"levelo://app?vid=a7096c56-ee6c-4caa-8cc5-7bc6b6306671","ios":"levelo://app?vid=a7096c56-ee6c-4caa-8cc5-7bc6b6306671"},"vehicle_type_id":"4","last_reported":1737713359,"current_range_meters":27200,"station_id":"ce4bgr92rcd13ifvqc6g","pricing_plan_id":"cebpf4jnsgd1na2vs0mg"},{"bike_id":"056ed343-b9c5-4ee1-9000-c71459c47098","system_id":"levelo_inurba_marseille","lat":43.31686,"lon":5.40465,"is_reserved":false,"is_disabled":true,"rental_uris":{"android":"levelo://app?vid=056ed343-b9c5-4ee1-9000-c71459c47098","ios":"levelo://app?vid=056ed343-b9c5-4ee1-9000-c71459c47098"},"vehicle_type_id":"4","last_reported":1737713359,"current_range_meters":32800,"station_id":"ce4bh012rcd13ifvqd00","pricing_plan_id":"cebpf4jnsgd1na2vs0mg"},{"bike_id":"545d0c7e-8955-4a7d-89ad-8eb345691954","system_id":"levelo_inurba_marseille","lat":43.261808,"lon":5.374719,"is_reserved":false,"is_disabled":false,"rental_uris":{"android":"levelo://app?vid=545d0c7e-8955-4a7d-89ad-8eb345691954","ios":"levelo://app?vid=545d0c7e-8955-4a7d-89ad-8eb345691954"},"vehicle_type_id":"4","last_reported":1737713359,"current_range_meters":3200,"station_id":"ce4bhgp2rcd13ifvqfc0","pricing_plan_id":"cebpf4jnsgd1na2vs0mg"},{"bike_id":"d8e8b75f-a794-4d72-85e8-ae788703f778","system_id":"levelo_inurba_marseille","lat":43.30539,"lon":5.36727,"is_reserved":false,"is_disabled":false,"rental_uris":{"android":"levelo://app?vid=d8e8b75f-a794-4d72-85e8-ae788703f778","ios":"levelo://app?vid=d8e8b75f-a794-4d72-85e8-ae788703f778"},"vehicle_type_id":"4","last_reported":1737713359,"current_range_meters":38800,"station_id":"ce4bgrp2rcd13ifvqc9g","pricing_plan_id":"cebpf4jnsgd1na2vs0mg"},{"bike_id":"800072cb-ee31-4842-9e83-7d0a3b152503","system_id":"levelo_inurba_marseille","lat":43.27512,"lon":5.4246,"is_reserved":false,"is_disabled":false,"rental_uris":{"android":"levelo://app?vid=800072cb-ee31-4842-9e83-7d0a3b152503","ios":"levelo://app?vid=800072cb-ee31-4842-9e83-7d0a3b152503"},"vehicle_type_id":"4","last_reported":1737713359,"current_range_meters":27200,"station_id":"ce4bhn92rcd13ifvqgrg","pricing_plan_id":"cebpf4jnsgd1na2vs0mg"},{"bike_id":"391c1801-8b1b-44dd-bfa1-5f0e512fbf2a","system_id":"levelo_inurba_marseille","lat":43.31751,"lon":5.39018,"is_reserved":false,"is_disabled":false,"rental_uris":{"android":"levelo://app?vid=391c1801-8b1b-44dd-bfa1-5f0e512fbf2a","ios":"levelo://app?vid=391c1801-8b1b-44dd-bfa1-5f0e512fbf2a"},"vehicle_type_id":"4","last_reported":1737713359,"current_range_meters":34800,"station_id":"ce4bhqp2rcd13ifvqhng","pricing_plan_id":"cebpf4jnsgd1na2vs0mg"},{"bike_id":"6ef9b078-758c-484c-88ff-72c3a69da2c0","system_id":"levelo_inurba_marseille","lat":43.33602,"lon":5.41014,"is_reserved":false,"is_disabled":false,"rental_uris":{"android":"levelo://app?vid=6ef9b078-758c-484c-88ff-72c3a69da2c0","ios":"levelo://app?vid=6ef9b078-758c-484c-88ff-72c3a69da2c0"},"vehicle_type_id":"4","last_reported":1737713359,"current_range_meters":38800,"station_id":"ce4bhqh2rcd13ifvqhmg","pricing_plan_id":"cebpf4jnsgd1na2vs0mg"},{"bike_id":"c1054f6a-d900-4025-8a81-4629617e72af","system_id":"levelo_inurba_marseille","lat":43.29227,"lon":5.36066,"is_reserved":false,"is_disabled":false,"rental_uris":{"android":"levelo://app?vid=c1054f6a-d900-4025-8a81-4629617e72af","ios":"levelo://app?vid=c1054f6a-d900-4025-8a81-4629617e72af"},"vehicle_type_id":"4","last_reported":1737713359,"current_range_meters":18800,"station_id":"ce4bhbh2rcd13ifvqeqg","pricing_plan_id":"cebpf4jnsgd1na2vs0mg"},{"bike_id":"7dafa7e7-757d-4898-abdf-cf5305599df2","system_id":"levelo_inurba_marseille","lat":43.2989,"lon":5.37482,"is_reserved":false,"is_disabled":false,"rental_uris":{"android":"levelo://app?vid=7dafa7e7-757d-4898-abdf-cf5305599df2","ios":"levelo://app?vid=7dafa7e7-757d-4898-abdf-cf5305599df2"},"vehicle_type_id":"4","last_reported":1737713359,"current_range_meters":8400,"station_id":"ce4bgjh2rcd13ifvqbg0","pricing_plan_id":"cebpf4jnsgd1na2vs0mg"},{"bike_id":"720b7e3d-ec6c-4d8a-bd91-f2ce046d2245","system_id":"levelo_inurba_marseille","lat":43.23159,"lon":5.43714,"is_reserved":false,"is_disabled":false,"rental_uris":{"android":"levelo://app?vid=720b7e3d-ec6c-4d8a-bd91-f2ce046d2245","ios":"levelo://app?vid=720b7e3d-ec6c-4d8a-bd91-f2ce046d2245"},"vehicle_type_id":"4","last_reported":1737713359,"current_range_meters":7200,"station_id":"ce4bhmp2rcd13ifvqgog","pricing_plan_id":"cebpf4jnsgd1na2vs0mg"},{"bike_id":"1f755e2a-d0a1-47ad-a438-b244890a623b","system_id":"levelo_inurba_marseille","lat":43.27672,"lon":5.38881,"is_reserved":false,"is_disabled":false,"rental_uris":{"android":"levelo://app?vid=1f755e2a-d0a1-47ad-a438-b244890a623b","ios":"levelo://app?vid=1f755e2a-d0a1-47ad-a438-b244890a623b"},"vehicle_type_id":"4","last_reported":1737713359,"current_range_meters":16000,"station_id":"ce4bhi12rcd13ifvqfo0","pricing_plan_id":"cebpf4jnsgd1na2vs0mg"},{"bike_id":"5bdbe150-9b84-4e55-bac6-cff13ce5d19f","system_id":"levelo_inurba_marseille","lat":43.3054,"lon":5.36705,"is_reserved":false,"is_disabled":false,"rental_uris":{"android":"levelo://app?vid=5bdbe150-9b84-4e55-bac6-cff13ce5d19f","ios":"levelo://app?vid=5bdbe150-9b84-4e55-bac6-cff13ce5d19f"},"vehicle_type_id":"4","last_reported":1737713359,"current_range_meters":38800,"station_id":"ce4bgrp2rcd13ifvqc9g","pricing_plan_id":"cebpf4jnsgd1na2vs0mg"},{"bike_id":"00b188be-4b2a-468d-851f-d549564c3ac7","system_id":"levelo_inurba_marseille","lat":43.299482,"lon":5.365624,"is_reserved":false,"is_disabled":false,"rental_uris":{"android":"levelo://app?vid=00b188be-4b2a-468d-851f-d549564c3ac7","ios":"levelo://app?vid=00b188be-4b2a-468d-851f-d549564c3ac7"},"vehicle_type_id":"4","last_reported":1737713359,"current_range_meters":28000,"station_id":"ce4bgm92rcd13ifvqbr0","pricing_plan_id":"cebpf4jnsgd1na2vs0mg"},{"bike_id":"8a1bd02b-eb1f-4baa-91d8-931e841d92bb","system_id":"levelo_inurba_marseille","lat":43.2919,"lon":5.39327,"is_reserved":false,"is_disabled":false,"rental_uris":{"android":"levelo://app?vid=8a1bd02b-eb1f-4baa-91d8-931e841d92bb","ios":"levelo://app?vid=8a1bd02b-eb1f-4baa-91d8-931e841d92bb"},"vehicle_type_id":"4","last_reported":1737713359,"current_range_meters":16000,"station_id":"ce4bh192rcd13ifvqdd0","pricing_plan_id":"cebpf4jnsgd1na2vs0mg"},{"bike_id":"651de9ba-34f8-4bea-93ad-15a01c05be45","system_id":"levelo_inurba_marseille","lat":43.32082,"lon":5.36815,"is_reserved":false,"is_disabled":false,"rental_uris":{"android":"levelo://app?vid=651de9ba-34f8-4bea-93ad-15a01c05be45","ios":"levelo://app?vid=651de9ba-34f8-4bea-93ad-15a01c05be45"},"vehicle_type_id":"4","last_reported":1737713359,"current_range_meters":31200,"station_id":"ce4bhrh2rcd13ifvqhug","pricing_plan_id":"cebpf4jnsgd1na2vs0mg"},{"bike_id":"2b5f67dd-f0e0-4724-bc4a-a13b0862ca51","system_id":"levelo_inurba_marseille","lat":43.29927,"lon":5.38128,"is_reserved":false,"is_disabled":false,"rental_uris":{"android":"levelo://app?vid=2b5f67dd-f0e0-4724-bc4a-a13b0862ca51","ios":"levelo://app?vid=2b5f67dd-f0e0-4724-bc4a-a13b0862ca51"},"vehicle_type_id":"4","last_reported":1737713359,"current_range_meters":38800,"station_id":"ce4bgj12rcd13ifvqbc0","pricing_plan_id":"cebpf4jnsgd1na2vs0mg"},{"bike_id":"795fab8c-1b91-4f8b-9f05-af4bc7e4af27","system_id":"levelo_inurba_marseille","lat":43.28982,"lon":5.37833,"is_reserved":false,"is_disabled":false,"rental_uris":{"android":"levelo://app?vid=795fab8c-1b91-4f8b-9f05-af4bc7e4af27","ios":"levelo://app?vid=795fab8c-1b91-4f8b-9f05-af4bc7e4af27"},"vehicle_type_id":"4","last_reported":1737713359,"current_range_meters":36400,"station_id":"ce4bh9p2rcd13ifvqed0","pricing_plan_id":"cebpf4jnsgd1na2vs0mg"},{"bike_id":"df17b08c-c0a8-4101-b954-a8ea48a23f87","system_id":"levelo_inurba_marseille","lat":43.32603,"lon":5.41513,"is_reserved":false,"is_disabled":false,"rental_uris":{"android":"levelo://app?vid=df17b08c-c0a8-4101-b954-a8ea48a23f87","ios":"levelo://app?vid=df17b08c-c0a8-4101-b954-a8ea48a23f87"},"vehicle_type_id":"4","last_reported":1737713359,"current_range_meters":17200,"station_id":"","pricing_plan_id":"cebpf4jnsgd1na2vs0mg"},{"bike_id":"bd633c43-d6e2-4159-82f2-ca04c615c522","system_id":"levelo_inurba_marseille","lat":43.26781,"lon":5.3942,"is_reserved":false,"is_disabled":false,"rental_uris":{"android":"levelo://app?vid=bd633c43-d6e2-4159-82f2-ca04c615c522","ios":"levelo://app?vid=bd633c43-d6e2-4159-82f2-ca04c615c522"},"vehicle_type_id":"4","last_reported":1737713359,"current_range_meters":16000,"station_id":"ce4bhh12rcd13ifvqfg0","pricing_plan_id":"cebpf4jnsgd1na2vs0mg"},{"bike_id":"545ed6e3-0d7c-44d7-afc3-19d942ccdead","system_id":"levelo_inurba_marseille","lat":43.28267,"lon":5.35079,"is_reserved":false,"is_disabled":false,"rental_uris":{"android":"levelo://app?vid=545ed6e3-0d7c-44d7-afc3-19d942ccdead","ios":"levelo://app?vid=545ed6e3-0d7c-44d7-afc3-19d942ccdead"},"vehicle_type_id":"4","last_reported":1737713359,"current_range_meters":24000,"station_id":"ce4bhbp2rcd13ifvqerg","pricing_plan_id":"cebpf4jnsgd1na2vs0mg"},{"bike_id":"89eaf145-1bb6-49e6-838e-5b39f0571738","system_id":"levelo_inurba_marseille","lat":43.31363,"lon":5.38494,"is_reserved":false,"is_disabled":false,"rental_uris":{"android":"levelo://app?vid=89eaf145-1bb6-49e6-838e-5b39f0571738","ios":"levelo://app?vid=89eaf145-1bb6-49e6-838e-5b39f0571738"},"vehicle_type_id":"4","last_reported":1737713359,"current_range_meters":24000,"station_id":"ce4bgt92rcd13ifvqcf0","pricing_plan_id":"cebpf4jnsgd1na2vs0mg"},{"bike_id":"7dcac84a-63a7-4699-9ac1-6722dd5070da","system_id":"levelo_inurba_marseille","lat":43.28402,"lon":5.3752,"is_reserved":false,"is_disabled":false,"rental_uris":{"android":"levelo://app?vid=7dcac84a-63a7-4699-9ac1-6722dd5070da","ios":"levelo://app?vid=7dcac84a-63a7-4699-9ac1-6722dd5070da"},"vehicle_type_id":"4","last_reported":1737713359,"current_range_meters":27200,"station_id":"ce4bh412rcd13ifvqds0","pricing_plan_id":"cebpf4jnsgd1na2vs0mg"},{"bike_id":"781e08dd-496a-4d9a-ad41-4d4f4314f24b","system_id":"levelo_inurba_marseille","lat":43.317076,"lon":5.377462,"is_reserved":false,"is_disabled":false,"rental_uris":{"android":"levelo://app?vid=781e08dd-496a-4d9a-ad41-4d4f4314f24b","ios":"levelo://app?vid=781e08dd-496a-4d9a-ad41-4d4f4314f24b"},"vehicle_type_id":"4","last_reported":1737713359,"current_range_meters":38000,"station_id":"ce4bgth2rcd13ifvqch0","pricing_plan_id":"cebpf4jnsgd1na2vs0mg"},{"bike_id":"f74a82c9-5e54-4bd6-8eac-1181a9e04273","system_id":"levelo_inurba_marseille","lat":43.24146,"lon":5.36429,"is_reserved":false,"is_disabled":false,"rental_uris":{"android":"levelo://app?vid=f74a82c9-5e54-4bd6-8eac-1181a9e04273","ios":"levelo://app?vid=f74a82c9-5e54-4bd6-8eac-1181a9e04273"},"vehicle_type_id":"4","last_reported":1737713359,"current_range_meters":6800,"station_id":"cpo36qri1sfpv3e86is0","pricing_plan_id":"cebpf4jnsgd1na2vs0mg"},{"bike_id":"f827e8f9-c800-4013-832e-0a40b72cf6c2","system_id":"levelo_inurba_marseille","lat":43.25718,"lon":5.41109,"is_reserved":false,"is_disabled":false,"rental_uris":{"android":"levelo://app?vid=f827e8f9-c800-4013-832e-0a40b72cf6c2","ios":"levelo://app?vid=f827e8f9-c800-4013-832e-0a40b72cf6c2"},"vehicle_type_id":"4","last_reported":1737713359,"current_range_meters":9200,"station_id":"ce4bhkp2rcd13ifvqgd0","pricing_plan_id":"cebpf4jnsgd1na2vs0mg"},{"bike_id":"38bab1e0-29f8-4175-9dc1-1e06c6b8591f","system_id":"levelo_inurba_marseille","lat":43.25116,"lon":5.40321,"is_reserved":false,"is_disabled":false,"rental_uris":{"android":"levelo://app?vid=38bab1e0-29f8-4175-9dc1-1e06c6b8591f","ios":"levelo://app?vid=38bab1e0-29f8-4175-9dc1-1e06c6b8591f"},"vehicle_type_id":"4","last_reported":1737713359,"current_range_meters":33200,"station_id":"ce4bhlh2rcd13ifvqgig","pricing_plan_id":"cebpf4jnsgd1na2vs0mg"},{"bike_id":"cfdedc7f-c54c-4221-bdd9-4e63cc0e05ba","system_id":"levelo_inurba_marseille","lat":43.294433,"lon":5.39756,"is_reserved":false,"is_disabled":false,"rental_uris":{"android":"levelo://app?vid=cfdedc7f-c54c-4221-bdd9-4e63cc0e05ba","ios":"levelo://app?vid=cfdedc7f-c54c-4221-bdd9-4e63cc0e05ba"},"vehicle_type_id":"4","last_reported":1737713359,"current_range_meters":19600,"station_id":"ce4bh3h2rcd13ifvqdo0","pricing_plan_id":"cebpf4jnsgd1na2vs0mg"},{"bike_id":"1f4cc9a1-a6f1-42ee-8f62-d3fd1b2849a6","system_id":"levelo_inurba_marseille","lat":43.23188,"lon":5.3999,"is_reserved":false,"is_disabled":false,"rental_uris":{"android":"levelo://app?vid=1f4cc9a1-a6f1-42ee-8f62-d3fd1b2849a6","ios":"levelo://app?vid=1f4cc9a1-a6f1-42ee-8f62-d3fd1b2849a6"},"vehicle_type_id":"4","last_reported":1737713359,"current_range_meters":38800,"station_id":"ce4bhn12rcd13ifvqgqg","pricing_plan_id":"cebpf4jnsgd1na2vs0mg"},{"bike_id":"70028081-a6eb-4063-9c3e-108b4f1fc959","system_id":"levelo_inurba_marseille","lat":43.30489,"lon":5.37908,"is_reserved":false,"is_disabled":false,"rental_uris":{"android":"levelo://app?vid=70028081-a6eb-4063-9c3e-108b4f1fc959","ios":"levelo://app?vid=70028081-a6eb-4063-9c3e-108b4f1fc959"},"vehicle_type_id":"4","last_reported":1737713359,"current_range_meters":20000,"station_id":"ce4bgup2rcd13ifvqcn0","pricing_plan_id":"cebpf4jnsgd1na2vs0mg"},{"bike_id":"86e28c85-0561-4b05-a3de-214c2bb07b8f","system_id":"levelo_inurba_marseille","lat":43.287,"lon":5.37389,"is_reserved":false,"is_disabled":false,"rental_uris":{"android":"levelo://app?vid=86e28c85-0561-4b05-a3de-214c2bb07b8f","ios":"levelo://app?vid=86e28c85-0561-4b05-a3de-214c2bb07b8f"},"vehicle_type_id":"4","last_reported":1737713359,"current_range_meters":28000,"station_id":"ce4bh3p2rcd13ifvqdq0","pricing_plan_id":"cebpf4jnsgd1na2vs0mg"},{"bike_id":"9838cc78-2b53-49d3-ae13-82df62c4fd64","system_id":"levelo_inurba_marseille","lat":43.28415,"lon":5.4094,"is_reserved":false,"is_disabled":true,"rental_uris":{"android":"levelo://app?vid=9838cc78-2b53-49d3-ae13-82df62c4fd64","ios":"levelo://app?vid=9838cc78-2b53-49d3-ae13-82df62c4fd64"},"vehicle_type_id":"4","last_reported":1737713359,"current_range_meters":1200,"station_id":"","pricing_plan_id":"cebpf4jnsgd1na2vs0mg"},{"bike_id":"70f4baca-3d50-4fff-8ed7-e04bde78ff10","system_id":"levelo_inurba_marseille","lat":43.26191,"lon":5.37937,"is_reserved":false,"is_disabled":false,"rental_uris":{"android":"levelo://app?vid=70f4baca-3d50-4fff-8ed7-e04bde78ff10","ios":"levelo://app?vid=70f4baca-3d50-4fff-8ed7-e04bde78ff10"},"vehicle_type_id":"4","last_reported":1737713359,"current_range_meters":38800,"station_id":"ce4bhjp2rcd13ifvqg90","pricing_plan_id":"cebpf4jnsgd1na2vs0mg"},{"bike_id":"d18ba9c4-301e-4334-ab8c-9102f5285b2b","system_id":"levelo_inurba_marseille","lat":43.27498,"lon":5.4245,"is_reserved":false,"is_disabled":false,"rental_uris":{"android":"levelo://app?vid=d18ba9c4-301e-4334-ab8c-9102f5285b2b","ios":"levelo://app?vid=d18ba9c4-301e-4334-ab8c-9102f5285b2b"},"vehicle_type_id":"4","last_reported":1737713359,"current_range_meters":24800,"station_id":"ce4bhn92rcd13ifvqgrg","pricing_plan_id":"cebpf4jnsgd1na2vs0mg"},{"bike_id":"a77046c2-d040-410a-ace6-385af934e51c","system_id":"levelo_inurba_marseille","lat":43.30322,"lon":5.40434,"is_reserved":false,"is_disabled":false,"rental_uris":{"android":"levelo://app?vid=a77046c2-d040-410a-ace6-385af934e51c","ios":"levelo://app?vid=a77046c2-d040-410a-ace6-385af934e51c"},"vehicle_type_id":"4","last_reported":1737713359,"current_range_meters":9600,"station_id":"ce4bh012rcd13ifvqd10","pricing_plan_id":"cebpf4jnsgd1na2vs0mg"},{"bike_id":"bf096a89-ee72-4f37-85bd-7b3cf9f0cb41","system_id":"levelo_inurba_marseille","lat":43.31915,"lon":5.37918,"is_reserved":false,"is_disabled":false,"rental_uris":{"android":"levelo://app?vid=bf096a89-ee72-4f37-85bd-7b3cf9f0cb41","ios":"levelo://app?vid=bf096a89-ee72-4f37-85bd-7b3cf9f0cb41"},"vehicle_type_id":"4","last_reported":1737713359,"current_range_meters":36000,"station_id":"","pricing_plan_id":"cebpf4jnsgd1na2vs0mg"},{"bike_id":"80e5895e-87ca-4766-aea7-ebd2b05bb430","system_id":"levelo_inurba_marseille","lat":43.23962,"lon":5.36634,"is_reserved":false,"is_disabled":false,"rental_uris":{"android":"levelo://app?vid=80e5895e-87ca-4766-aea7-ebd2b05bb430","ios":"levelo://app?vid=80e5895e-87ca-4766-aea7-ebd2b05bb430"},"vehicle_type_id":"4","last_reported":1737713359,"current_range_meters":37600,"station_id":"ce4bhi12rcd13ifvqfp0","pricing_plan_id":"cebpf4jnsgd1na2vs0mg"},{"bike_id":"f7770a36-5a1c-4d0c-b873-623db0bb27c4","system_id":"levelo_inurba_marseille","lat":43.30932,"lon":5.36827,"is_reserved":false,"is_disabled":false,"rental_uris":{"android":"levelo://app?vid=f7770a36-5a1c-4d0c-b873-623db0bb27c4","ios":"levelo://app?vid=f7770a36-5a1c-4d0c-b873-623db0bb27c4"},"vehicle_type_id":"4","last_reported":1737713359,"current_range_meters":38800,"station_id":"ce4bgn92rcd13ifvqbvg","pricing_plan_id":"cebpf4jnsgd1na2vs0mg"},{"bike_id":"ceb7093b-e9c2-4f54-8fc8-5df291bf1049","system_id":"levelo_inurba_marseille","lat":43.30151,"lon":5.38098,"is_reserved":false,"is_disabled":true,"rental_uris":{"android":"levelo://app?vid=ceb7093b-e9c2-4f54-8fc8-5df291bf1049","ios":"levelo://app?vid=ceb7093b-e9c2-4f54-8fc8-5df291bf1049"},"vehicle_type_id":"4","last_reported":1737713359,"current_range_meters":25200,"station_id":"ce4bgjp2rcd13ifvqbh0","pricing_plan_id":"cebpf4jnsgd1na2vs0mg"},{"bike_id":"308e358e-cb1f-4b62-8103-eeb5731f0b2e","system_id":"levelo_inurba_marseille","lat":43.29503,"lon":5.37522,"is_reserved":false,"is_disabled":false,"rental_uris":{"android":"levelo://app?vid=308e358e-cb1f-4b62-8103-eeb5731f0b2e","ios":"levelo://app?vid=308e358e-cb1f-4b62-8103-eeb5731f0b2e"},"vehicle_type_id":"4","last_reported":1737713359,"current_range_meters":38000,"station_id":"ce4bgkp2rcd13ifvqbmg","pricing_plan_id":"cebpf4jnsgd1na2vs0mg"},{"bike_id":"8eb3ccb0-841f-4623-b82c-9e6a83756bc0","system_id":"levelo_inurba_marseille","lat":43.28443,"lon":5.3921,"is_reserved":false,"is_disabled":false,"rental_uris":{"android":"levelo://app?vid=8eb3ccb0-841f-4623-b82c-9e6a83756bc0","ios":"levelo://app?vid=8eb3ccb0-841f-4623-b82c-9e6a83756bc0"},"vehicle_type_id":"4","last_reported":1737713359,"current_range_meters":30400,"station_id":"ce4bhoh2rcd13ifvqh5g","pricing_plan_id":"cebpf4jnsgd1na2vs0mg"},{"bike_id":"ca086e44-bf3e-42cf-9cdd-4fb5146d5c95","system_id":"levelo_inurba_marseille","lat":43.30459,"lon":5.37908,"is_reserved":false,"is_disabled":false,"rental_uris":{"android":"levelo://app?vid=ca086e44-bf3e-42cf-9cdd-4fb5146d5c95","ios":"levelo://app?vid=ca086e44-bf3e-42cf-9cdd-4fb5146d5c95"},"vehicle_type_id":"4","last_reported":1737713359,"current_range_meters":38800,"station_id":"ce4bgup2rcd13ifvqcn0","pricing_plan_id":"cebpf4jnsgd1na2vs0mg"},{"bike_id":"c964a905-9270-455d-8da3-260e623933e5","system_id":"levelo_inurba_marseille","lat":43.26674,"lon":5.38283,"is_reserved":false,"is_disabled":false,"rental_uris":{"android":"levelo://app?vid=c964a905-9270-455d-8da3-260e623933e5","ios":"levelo://app?vid=c964a905-9270-455d-8da3-260e623933e5"},"vehicle_type_id":"4","last_reported":1737713359,"current_range_meters":38800,"station_id":"ce4bhg92rcd13ifvqf90","pricing_plan_id":"cebpf4jnsgd1na2vs0mg"},{"bike_id":"bf232eb6-ff63-4ac8-9eb0-5e3d769ec9cd","system_id":"levelo_inurba_marseille","lat":43.31379,"lon":5.36721,"is_reserved":false,"is_disabled":false,"rental_uris":{"android":"levelo://app?vid=bf232eb6-ff63-4ac8-9eb0-5e3d769ec9cd","ios":"levelo://app?vid=bf232eb6-ff63-4ac8-9eb0-5e3d769ec9cd"},"vehicle_type_id":"4","last_reported":1737713359,"current_range_meters":32800,"station_id":"ce4bgr92rcd13ifvqc6g","pricing_plan_id":"cebpf4jnsgd1na2vs0mg"},{"bike_id":"c1988350-f691-48f0-bd71-85602fbe285d","system_id":"levelo_inurba_marseille","lat":43.29787,"lon":5.38114,"is_reserved":false,"is_disabled":false,"rental_uris":{"android":"levelo://app?vid=c1988350-f691-48f0-bd71-85602fbe285d","ios":"levelo://app?vid=c1988350-f691-48f0-bd71-85602fbe285d"},"vehicle_type_id":"4","last_reported":1737713359,"current_range_meters":38800,"station_id":"ce4bgip2rcd13ifvqbb0","pricing_plan_id":"cebpf4jnsgd1na2vs0mg"},{"bike_id":"640dda4b-4e7a-4299-9a4a-d49064134585","system_id":"levelo_inurba_marseille","lat":43.262,"lon":5.37932,"is_reserved":false,"is_disabled":false,"rental_uris":{"android":"levelo://app?vid=640dda4b-4e7a-4299-9a4a-d49064134585","ios":"levelo://app?vid=640dda4b-4e7a-4299-9a4a-d49064134585"},"vehicle_type_id":"4","last_reported":1737713359,"current_range_meters":38800,"station_id":"ce4bhjp2rcd13ifvqg90","pricing_plan_id":"cebpf4jnsgd1na2vs0mg"},{"bike_id":"823f5e62-6792-4b71-9479-360bc5d7ee1c","system_id":"levelo_inurba_marseille","lat":43.29146,"lon":5.36141,"is_reserved":false,"is_disabled":false,"rental_uris":{"android":"levelo://app?vid=823f5e62-6792-4b71-9479-360bc5d7ee1c","ios":"levelo://app?vid=823f5e62-6792-4b71-9479-360bc5d7ee1c"},"vehicle_type_id":"4","last_reported":1737713359,"current_range_meters":32000,"station_id":"ce4bhbh2rcd13ifvqeqg","pricing_plan_id":"cebpf4jnsgd1na2vs0mg"},{"bike_id":"70fd6915-9ec6-4ec7-b798-83a37f71b358","system_id":"levelo_inurba_marseille","lat":43.24167,"lon":5.36399,"is_reserved":false,"is_disabled":false,"rental_uris":{"android":"levelo://app?vid=70fd6915-9ec6-4ec7-b798-83a37f71b358","ios":"levelo://app?vid=70fd6915-9ec6-4ec7-b798-83a37f71b358"},"vehicle_type_id":"4","last_reported":1737713359,"current_range_meters":30000,"station_id":"cpo36qri1sfpv3e86is0","pricing_plan_id":"cebpf4jnsgd1na2vs0mg"},{"bike_id":"067fcae1-6b55-4dbf-87ea-8f5e151e1a1f","system_id":"levelo_inurba_marseille","lat":43.29784,"lon":5.38109,"is_reserved":false,"is_disabled":false,"rental_uris":{"android":"levelo://app?vid=067fcae1-6b55-4dbf-87ea-8f5e151e1a1f","ios":"levelo://app?vid=067fcae1-6b55-4dbf-87ea-8f5e151e1a1f"},"vehicle_type_id":"4","last_reported":1737713359,"current_range_meters":22400,"station_id":"ce4bgip2rcd13ifvqbb0","pricing_plan_id":"cebpf4jnsgd1na2vs0mg"},{"bike_id":"b1350c89-a295-42ef-b3a2-f01d5d977dd1","system_id":"levelo_inurba_marseille","lat":43.30147,"lon":5.38101,"is_reserved":false,"is_disabled":false,"rental_uris":{"android":"levelo://app?vid=b1350c89-a295-42ef-b3a2-f01d5d977dd1","ios":"levelo://app?vid=b1350c89-a295-42ef-b3a2-f01d5d977dd1"},"vehicle_type_id":"4","last_reported":1737713359,"current_range_meters":17200,"station_id":"ce4bgjp2rcd13ifvqbh0","pricing_plan_id":"cebpf4jnsgd1na2vs0mg"},{"bike_id":"050bd42b-0fa4-4ea3-8a02-3c1196960ece","system_id":"levelo_inurba_marseille","lat":43.316436,"lon":5.374024,"is_reserved":false,"is_disabled":false,"rental_uris":{"android":"levelo://app?vid=050bd42b-0fa4-4ea3-8a02-3c1196960ece","ios":"levelo://app?vid=050bd42b-0fa4-4ea3-8a02-3c1196960ece"},"vehicle_type_id":"4","last_reported":1737713359,"current_range_meters":24400,"station_id":"","pricing_plan_id":"cebpf4jnsgd1na2vs0mg"},{"bike_id":"b8e3f34c-b1e0-40d9-833b-11a6b0e6c9c6","system_id":"levelo_inurba_marseille","lat":43.27513,"lon":5.42483,"is_reserved":false,"is_disabled":false,"rental_uris":{"android":"levelo://app?vid=b8e3f34c-b1e0-40d9-833b-11a6b0e6c9c6","ios":"levelo://app?vid=b8e3f34c-b1e0-40d9-833b-11a6b0e6c9c6"},"vehicle_type_id":"4","last_reported":1737713359,"current_range_meters":32000,"station_id":"ce4bhn92rcd13ifvqgrg","pricing_plan_id":"cebpf4jnsgd1na2vs0mg"},{"bike_id":"e3d72c5b-33fb-4d8e-8eae-71ee161e14bd","system_id":"levelo_inurba_marseille","lat":43.30895,"lon":5.3687,"is_reserved":false,"is_disabled":false,"rental_uris":{"android":"levelo://app?vid=e3d72c5b-33fb-4d8e-8eae-71ee161e14bd","ios":"levelo://app?vid=e3d72c5b-33fb-4d8e-8eae-71ee161e14bd"},"vehicle_type_id":"4","last_reported":1737713359,"current_range_meters":25200,"station_id":"ce4bgn92rcd13ifvqbvg","pricing_plan_id":"cebpf4jnsgd1na2vs0mg"},{"bike_id":"0ad149d9-6e33-405d-aa3c-5e42e0c0ed7d","system_id":"levelo_inurba_marseille","lat":43.28149,"lon":5.42651,"is_reserved":false,"is_disabled":false,"rental_uris":{"android":"levelo://app?vid=0ad149d9-6e33-405d-aa3c-5e42e0c0ed7d","ios":"levelo://app?vid=0ad149d9-6e33-405d-aa3c-5e42e0c0ed7d"},"vehicle_type_id":"4","last_reported":1737713359,"current_range_meters":38800,"station_id":"ce4bhnh2rcd13ifvqgug","pricing_plan_id":"cebpf4jnsgd1na2vs0mg"},{"bike_id":"2f4fa984-4c44-4974-abb6-1d4b539de1f0","system_id":"levelo_inurba_marseille","lat":43.28692,"lon":5.38657,"is_reserved":false,"is_disabled":true,"rental_uris":{"android":"levelo://app?vid=2f4fa984-4c44-4974-abb6-1d4b539de1f0","ios":"levelo://app?vid=2f4fa984-4c44-4974-abb6-1d4b539de1f0"},"vehicle_type_id":"4","last_reported":1737713359,"current_range_meters":32400,"station_id":"ce4bh492rcd13ifvqdug","pricing_plan_id":"cebpf4jnsgd1na2vs0mg"},{"bike_id":"347dd29e-9a9e-4a37-8ddd-6e2050aaff03","system_id":"levelo_inurba_marseille","lat":43.33716,"lon":5.39228,"is_reserved":false,"is_disabled":false,"rental_uris":{"android":"levelo://app?vid=347dd29e-9a9e-4a37-8ddd-6e2050aaff03","ios":"levelo://app?vid=347dd29e-9a9e-4a37-8ddd-6e2050aaff03"},"vehicle_type_id":"4","last_reported":1737713359,"current_range_meters":38400,"station_id":"ce4bhr92rcd13ifvqhsg","pricing_plan_id":"cebpf4jnsgd1na2vs0mg"},{"bike_id":"69ae49c8-dae4-483c-a6fa-9d4961c23e96","system_id":"levelo_inurba_marseille","lat":43.25825,"lon":5.39441,"is_reserved":false,"is_disabled":false,"rental_uris":{"android":"levelo://app?vid=69ae49c8-dae4-483c-a6fa-9d4961c23e96","ios":"levelo://app?vid=69ae49c8-dae4-483c-a6fa-9d4961c23e96"},"vehicle_type_id":"4","last_reported":1737713359,"current_range_meters":22800,"station_id":"ce4bhip2rcd13ifvqft0","pricing_plan_id":"cebpf4jnsgd1na2vs0mg"},{"bike_id":"d7dbec56-3cb4-42dd-970e-b1e8e7b8f352","system_id":"levelo_inurba_marseille","lat":43.26681,"lon":5.38301,"is_reserved":false,"is_disabled":false,"rental_uris":{"android":"levelo://app?vid=d7dbec56-3cb4-42dd-970e-b1e8e7b8f352","ios":"levelo://app?vid=d7dbec56-3cb4-42dd-970e-b1e8e7b8f352"},"vehicle_type_id":"4","last_reported":1737713359,"current_range_meters":38800,"station_id":"ce4bhg92rcd13ifvqf90","pricing_plan_id":"cebpf4jnsgd1na2vs0mg"},{"bike_id":"68f2ccb3-f174-4230-b667-71cfa289852c","system_id":"levelo_inurba_marseille","lat":43.28074,"lon":5.39661,"is_reserved":false,"is_disabled":false,"rental_uris":{"android":"levelo://app?vid=68f2ccb3-f174-4230-b667-71cfa289852c","ios":"levelo://app?vid=68f2ccb3-f174-4230-b667-71cfa289852c"},"vehicle_type_id":"4","last_reported":1737713359,"current_range_meters":10000,"station_id":"ce4bho12rcd13ifvqh2g","pricing_plan_id":"cebpf4jnsgd1na2vs0mg"},{"bike_id":"4553b969-7b05-4629-91cf-2232cce0116a","system_id":"levelo_inurba_marseille","lat":43.24079,"lon":5.37746,"is_reserved":false,"is_disabled":false,"rental_uris":{"android":"levelo://app?vid=4553b969-7b05-4629-91cf-2232cce0116a","ios":"levelo://app?vid=4553b969-7b05-4629-91cf-2232cce0116a"},"vehicle_type_id":"4","last_reported":1737713359,"current_range_meters":38800,"station_id":"ce4bhnp2rcd13ifvqgvg","pricing_plan_id":"cebpf4jnsgd1na2vs0mg"},{"bike_id":"90b8a1b1-ad54-458d-9362-f5197bbdf048","system_id":"levelo_inurba_marseille","lat":43.22927,"lon":5.3538,"is_reserved":false,"is_disabled":false,"rental_uris":{"android":"levelo://app?vid=90b8a1b1-ad54-458d-9362-f5197bbdf048","ios":"levelo://app?vid=90b8a1b1-ad54-458d-9362-f5197bbdf048"},"vehicle_type_id":"4","last_reported":1737713359,"current_range_meters":38400,"station_id":"cpo3532slgdg3j2ikp40","pricing_plan_id":"cebpf4jnsgd1na2vs0mg"},{"bike_id":"1c66e932-63ee-4c4b-a135-c1271c7dcb5e","system_id":"levelo_inurba_marseille","lat":43.26189,"lon":5.37933,"is_reserved":false,"is_disabled":false,"rental_uris":{"android":"levelo://app?vid=1c66e932-63ee-4c4b-a135-c1271c7dcb5e","ios":"levelo://app?vid=1c66e932-63ee-4c4b-a135-c1271c7dcb5e"},"vehicle_type_id":"4","last_reported":1737713359,"current_range_meters":17200,"station_id":"ce4bhjp2rcd13ifvqg90","pricing_plan_id":"cebpf4jnsgd1na2vs0mg"},{"bike_id":"957c5c39-c969-433b-b7aa-8c4e22652ec2","system_id":"levelo_inurba_marseille","lat":43.26949,"lon":5.38652,"is_reserved":false,"is_disabled":false,"rental_uris":{"android":"levelo://app?vid=957c5c39-c969-433b-b7aa-8c4e22652ec2","ios":"levelo://app?vid=957c5c39-c969-433b-b7aa-8c4e22652ec2"},"vehicle_type_id":"4","last_reported":1737713359,"current_range_meters":38800,"station_id":"ce4bhh92rcd13ifvqfh0","pricing_plan_id":"cebpf4jnsgd1na2vs0mg"},{"bike_id":"750f8951-c735-4fbb-8352-4d4326ecc358","system_id":"levelo_inurba_marseille","lat":43.33609,"lon":5.41022,"is_reserved":false,"is_disabled":false,"rental_uris":{"android":"levelo://app?vid=750f8951-c735-4fbb-8352-4d4326ecc358","ios":"levelo://app?vid=750f8951-c735-4fbb-8352-4d4326ecc358"},"vehicle_type_id":"4","last_reported":1737713359,"current_range_meters":24000,"station_id":"ce4bhqh2rcd13ifvqhmg","pricing_plan_id":"cebpf4jnsgd1na2vs0mg"},{"bike_id":"a3ad6f3b-805c-479e-b1ff-4179d35b5e6a","system_id":"levelo_inurba_marseille","lat":43.337444,"lon":5.374475,"is_reserved":false,"is_disabled":false,"rental_uris":{"android":"levelo://app?vid=a3ad6f3b-805c-479e-b1ff-4179d35b5e6a","ios":"levelo://app?vid=a3ad6f3b-805c-479e-b1ff-4179d35b5e6a"},"vehicle_type_id":"4","last_reported":1737713359,"current_range_meters":32400,"station_id":"","pricing_plan_id":"cebpf4jnsgd1na2vs0mg"},{"bike_id":"892132d6-6b6c-4d5b-9184-ef22870ce55b","system_id":"levelo_inurba_marseille","lat":43.27491,"lon":5.42462,"is_reserved":false,"is_disabled":false,"rental_uris":{"android":"levelo://app?vid=892132d6-6b6c-4d5b-9184-ef22870ce55b","ios":"levelo://app?vid=892132d6-6b6c-4d5b-9184-ef22870ce55b"},"vehicle_type_id":"4","last_reported":1737713359,"current_range_meters":38800,"station_id":"ce4bhn92rcd13ifvqgrg","pricing_plan_id":"cebpf4jnsgd1na2vs0mg"},{"bike_id":"daa9ee29-0392-40ab-a464-ab8fcab36ba2","system_id":"levelo_inurba_marseille","lat":43.3045,"lon":5.37902,"is_reserved":false,"is_disabled":false,"rental_uris":{"android":"levelo://app?vid=daa9ee29-0392-40ab-a464-ab8fcab36ba2","ios":"levelo://app?vid=daa9ee29-0392-40ab-a464-ab8fcab36ba2"},"vehicle_type_id":"4","last_reported":1737713359,"current_range_meters":30800,"station_id":"ce4bgup2rcd13ifvqcn0","pricing_plan_id":"cebpf4jnsgd1na2vs0mg"},{"bike_id":"9659fd74-b538-4064-9460-ec6db773f5ea","system_id":"levelo_inurba_marseille","lat":43.2814,"lon":5.42633,"is_reserved":false,"is_disabled":false,"rental_uris":{"android":"levelo://app?vid=9659fd74-b538-4064-9460-ec6db773f5ea","ios":"levelo://app?vid=9659fd74-b538-4064-9460-ec6db773f5ea"},"vehicle_type_id":"4","last_reported":1737713359,"current_range_meters":34000,"station_id":"ce4bhnh2rcd13ifvqgug","pricing_plan_id":"cebpf4jnsgd1na2vs0mg"},{"bike_id":"edfb65ba-7fc1-40c1-8d3a-72c49ef22fb0","system_id":"levelo_inurba_marseille","lat":43.30278,"lon":5.37722,"is_reserved":false,"is_disabled":false,"rental_uris":{"android":"levelo://app?vid=edfb65ba-7fc1-40c1-8d3a-72c49ef22fb0","ios":"levelo://app?vid=edfb65ba-7fc1-40c1-8d3a-72c49ef22fb0"},"vehicle_type_id":"4","last_reported":1737713359,"current_range_meters":36800,"station_id":"ce4bguh2rcd13ifvqcj0","pricing_plan_id":"cebpf4jnsgd1na2vs0mg"},{"bike_id":"9daa65c1-5b02-4166-8c0c-de6e8b6f5aaf","system_id":"levelo_inurba_marseille","lat":43.28036,"lon":5.36943,"is_reserved":false,"is_disabled":false,"rental_uris":{"android":"levelo://app?vid=9daa65c1-5b02-4166-8c0c-de6e8b6f5aaf","ios":"levelo://app?vid=9daa65c1-5b02-4166-8c0c-de6e8b6f5aaf"},"vehicle_type_id":"4","last_reported":1737713359,"current_range_meters":38000,"station_id":"ce4bha12rcd13ifvqef0","pricing_plan_id":"cebpf4jnsgd1na2vs0mg"},{"bike_id":"ce90fea6-ff2a-4d0b-bd4f-45ced0acf4c0","system_id":"levelo_inurba_marseille","lat":43.323616,"lon":5.367556,"is_reserved":false,"is_disabled":false,"rental_uris":{"android":"levelo://app?vid=ce90fea6-ff2a-4d0b-bd4f-45ced0acf4c0","ios":"levelo://app?vid=ce90fea6-ff2a-4d0b-bd4f-45ced0acf4c0"},"vehicle_type_id":"4","last_reported":1737713359,"current_range_meters":8400,"station_id":"ce4bhsh2rcd13ifvqi2g","pricing_plan_id":"cebpf4jnsgd1na2vs0mg"},{"bike_id":"9c61d5ad-40df-4745-ab79-e52cb6f6bafc","system_id":"levelo_inurba_marseille","lat":43.27996,"lon":5.40016,"is_reserved":false,"is_disabled":false,"rental_uris":{"android":"levelo://app?vid=9c61d5ad-40df-4745-ab79-e52cb6f6bafc","ios":"levelo://app?vid=9c61d5ad-40df-4745-ab79-e52cb6f6bafc"},"vehicle_type_id":"4","last_reported":1737713359,"current_range_meters":29600,"station_id":"ce4bho92rcd13ifvqh4g","pricing_plan_id":"cebpf4jnsgd1na2vs0mg"},{"bike_id":"ab13439f-1c4b-4b83-ac72-9f4e6d1f64cb","system_id":"levelo_inurba_marseille","lat":43.31247,"lon":5.37997,"is_reserved":false,"is_disabled":true,"rental_uris":{"android":"levelo://app?vid=ab13439f-1c4b-4b83-ac72-9f4e6d1f64cb","ios":"levelo://app?vid=ab13439f-1c4b-4b83-ac72-9f4e6d1f64cb"},"vehicle_type_id":"4","last_reported":1737713359,"current_range_meters":8000,"station_id":"","pricing_plan_id":"cebpf4jnsgd1na2vs0mg"},{"bike_id":"431299a0-21ec-4f6a-93fe-0d0fe6e96565","system_id":"levelo_inurba_marseille","lat":43.30301,"lon":5.36931,"is_reserved":false,"is_disabled":false,"rental_uris":{"android":"levelo://app?vid=431299a0-21ec-4f6a-93fe-0d0fe6e96565","ios":"levelo://app?vid=431299a0-21ec-4f6a-93fe-0d0fe6e96565"},"vehicle_type_id":"4","last_reported":1737713359,"current_range_meters":38400,"station_id":"ce4bgqh2rcd13ifvqc5g","pricing_plan_id":"cebpf4jnsgd1na2vs0mg"},{"bike_id":"02394dc5-85af-47df-a8e1-31c154c9e2cc","system_id":"levelo_inurba_marseille","lat":43.23194,"lon":5.39979,"is_reserved":false,"is_disabled":false,"rental_uris":{"android":"levelo://app?vid=02394dc5-85af-47df-a8e1-31c154c9e2cc","ios":"levelo://app?vid=02394dc5-85af-47df-a8e1-31c154c9e2cc"},"vehicle_type_id":"4","last_reported":1737713359,"current_range_meters":36800,"station_id":"ce4bhn12rcd13ifvqgqg","pricing_plan_id":"cebpf4jnsgd1na2vs0mg"},{"bike_id":"b647daaa-f6b6-44a5-9603-dc342d980de8","system_id":"levelo_inurba_marseille","lat":43.29191,"lon":5.3932,"is_reserved":false,"is_disabled":false,"rental_uris":{"android":"levelo://app?vid=b647daaa-f6b6-44a5-9603-dc342d980de8","ios":"levelo://app?vid=b647daaa-f6b6-44a5-9603-dc342d980de8"},"vehicle_type_id":"4","last_reported":1737713359,"current_range_meters":35600,"station_id":"ce4bh192rcd13ifvqdd0","pricing_plan_id":"cebpf4jnsgd1na2vs0mg"},{"bike_id":"201dfea6-23fc-4691-8d37-a6b61bbf22dd","system_id":"levelo_inurba_marseille","lat":43.28843,"lon":5.35839,"is_reserved":false,"is_disabled":false,"rental_uris":{"android":"levelo://app?vid=201dfea6-23fc-4691-8d37-a6b61bbf22dd","ios":"levelo://app?vid=201dfea6-23fc-4691-8d37-a6b61bbf22dd"},"vehicle_type_id":"4","last_reported":1737713359,"current_range_meters":36800,"station_id":"ce4bhb12rcd13ifvqem0","pricing_plan_id":"cebpf4jnsgd1na2vs0mg"},{"bike_id":"0d3f5817-39fa-40d7-ab9d-35c01033f435","system_id":"levelo_inurba_marseille","lat":43.26222,"lon":5.40448,"is_reserved":false,"is_disabled":false,"rental_uris":{"android":"levelo://app?vid=0d3f5817-39fa-40d7-ab9d-35c01033f435","ios":"levelo://app?vid=0d3f5817-39fa-40d7-ab9d-35c01033f435"},"vehicle_type_id":"4","last_reported":1737713359,"current_range_meters":3600,"station_id":"","pricing_plan_id":"cebpf4jnsgd1na2vs0mg"},{"bike_id":"adf37ecb-7a79-450c-982d-303eae1f41ff","system_id":"levelo_inurba_marseille","lat":43.26679,"lon":5.3829,"is_reserved":false,"is_disabled":false,"rental_uris":{"android":"levelo://app?vid=adf37ecb-7a79-450c-982d-303eae1f41ff","ios":"levelo://app?vid=adf37ecb-7a79-450c-982d-303eae1f41ff"},"vehicle_type_id":"4","last_reported":1737713359,"current_range_meters":38800,"station_id":"ce4bhg92rcd13ifvqf90","pricing_plan_id":"cebpf4jnsgd1na2vs0mg"},{"bike_id":"78b03264-0c2d-45b5-9b0a-cf7cc454c0c6","system_id":"levelo_inurba_marseille","lat":43.32486,"lon":5.36571,"is_reserved":false,"is_disabled":false,"rental_uris":{"android":"levelo://app?vid=78b03264-0c2d-45b5-9b0a-cf7cc454c0c6","ios":"levelo://app?vid=78b03264-0c2d-45b5-9b0a-cf7cc454c0c6"},"vehicle_type_id":"4","last_reported":1737713359,"current_range_meters":37600,"station_id":"ce4bhs12rcd13ifvqhvg","pricing_plan_id":"cebpf4jnsgd1na2vs0mg"},{"bike_id":"c8715ca0-d392-4611-93af-a8f4ebe3932f","system_id":"levelo_inurba_marseille","lat":43.2314,"lon":5.43734,"is_reserved":false,"is_disabled":false,"rental_uris":{"android":"levelo://app?vid=c8715ca0-d392-4611-93af-a8f4ebe3932f","ios":"levelo://app?vid=c8715ca0-d392-4611-93af-a8f4ebe3932f"},"vehicle_type_id":"4","last_reported":1737713359,"current_range_meters":4800,"station_id":"ce4bhmp2rcd13ifvqgog","pricing_plan_id":"cebpf4jnsgd1na2vs0mg"},{"bike_id":"36bb60b4-b8f4-4e84-b8f3-ebf21c6fc7c0","system_id":"levelo_inurba_marseille","lat":43.27364,"lon":5.36252,"is_reserved":false,"is_disabled":false,"rental_uris":{"android":"levelo://app?vid=36bb60b4-b8f4-4e84-b8f3-ebf21c6fc7c0","ios":"levelo://app?vid=36bb60b4-b8f4-4e84-b8f3-ebf21c6fc7c0"},"vehicle_type_id":"4","last_reported":1737713359,"current_range_meters":32000,"station_id":"ce4bhbh2rcd13ifvqeo0","pricing_plan_id":"cebpf4jnsgd1na2vs0mg"},{"bike_id":"efcccd97-a21c-4651-bca9-251bfff03385","system_id":"levelo_inurba_marseille","lat":43.29228,"lon":5.36073,"is_reserved":false,"is_disabled":false,"rental_uris":{"android":"levelo://app?vid=efcccd97-a21c-4651-bca9-251bfff03385","ios":"levelo://app?vid=efcccd97-a21c-4651-bca9-251bfff03385"},"vehicle_type_id":"4","last_reported":1737713359,"current_range_meters":27600,"station_id":"ce4bhbh2rcd13ifvqeqg","pricing_plan_id":"cebpf4jnsgd1na2vs0mg"},{"bike_id":"9b03d48d-85fe-4b53-a628-85299f17a941","system_id":"levelo_inurba_marseille","lat":43.30433,"lon":5.39753,"is_reserved":false,"is_disabled":false,"rental_uris":{"android":"levelo://app?vid=9b03d48d-85fe-4b53-a628-85299f17a941","ios":"levelo://app?vid=9b03d48d-85fe-4b53-a628-85299f17a941"},"vehicle_type_id":"4","last_reported":1737713359,"current_range_meters":38000,"station_id":"ce4bh092rcd13ifvqd20","pricing_plan_id":"cebpf4jnsgd1na2vs0mg"},{"bike_id":"86e74e3b-996a-4975-88d9-d5a7ed191bca","system_id":"levelo_inurba_marseille","lat":43.30585,"lon":5.36481,"is_reserved":false,"is_disabled":false,"rental_uris":{"android":"levelo://app?vid=86e74e3b-996a-4975-88d9-d5a7ed191bca","ios":"levelo://app?vid=86e74e3b-996a-4975-88d9-d5a7ed191bca"},"vehicle_type_id":"4","last_reported":1737713359,"current_range_meters":37600,"station_id":"","pricing_plan_id":"cebpf4jnsgd1na2vs0mg"},{"bike_id":"b9c19cab-accd-47e4-90fc-36ecbc5eb8d6","system_id":"levelo_inurba_marseille","lat":43.30532,"lon":5.3671,"is_reserved":false,"is_disabled":false,"rental_uris":{"android":"levelo://app?vid=b9c19cab-accd-47e4-90fc-36ecbc5eb8d6","ios":"levelo://app?vid=b9c19cab-accd-47e4-90fc-36ecbc5eb8d6"},"vehicle_type_id":"4","last_reported":1737713359,"current_range_meters":30800,"station_id":"ce4bgrp2rcd13ifvqc9g","pricing_plan_id":"cebpf4jnsgd1na2vs0mg"},{"bike_id":"8ef3fa62-0a6f-4835-9ef6-faeb3804ec0a","system_id":"levelo_inurba_marseille","lat":43.30901,"lon":5.36869,"is_reserved":false,"is_disabled":false,"rental_uris":{"android":"levelo://app?vid=8ef3fa62-0a6f-4835-9ef6-faeb3804ec0a","ios":"levelo://app?vid=8ef3fa62-0a6f-4835-9ef6-faeb3804ec0a"},"vehicle_type_id":"4","last_reported":1737713359,"current_range_meters":32000,"station_id":"ce4bgn92rcd13ifvqbvg","pricing_plan_id":"cebpf4jnsgd1na2vs0mg"},{"bike_id":"f8d47279-9ba1-467f-a5c2-954f8bee37fb","system_id":"levelo_inurba_marseille","lat":43.325407,"lon":5.41455,"is_reserved":false,"is_disabled":false,"rental_uris":{"android":"levelo://app?vid=f8d47279-9ba1-467f-a5c2-954f8bee37fb","ios":"levelo://app?vid=f8d47279-9ba1-467f-a5c2-954f8bee37fb"},"vehicle_type_id":"4","last_reported":1737713359,"current_range_meters":8400,"station_id":"ce4bhq12rcd13ifvqhhg","pricing_plan_id":"cebpf4jnsgd1na2vs0mg"},{"bike_id":"85a3042a-99ef-4a57-92d9-e9fccf7a3989","system_id":"levelo_inurba_marseille","lat":43.30454,"lon":5.37915,"is_reserved":false,"is_disabled":false,"rental_uris":{"android":"levelo://app?vid=85a3042a-99ef-4a57-92d9-e9fccf7a3989","ios":"levelo://app?vid=85a3042a-99ef-4a57-92d9-e9fccf7a3989"},"vehicle_type_id":"4","last_reported":1737713359,"current_range_meters":34000,"station_id":"ce4bgup2rcd13ifvqcn0","pricing_plan_id":"cebpf4jnsgd1na2vs0mg"},{"bike_id":"5924779a-80d8-4024-8d15-8de18a90c153","system_id":"levelo_inurba_marseille","lat":43.3032,"lon":5.40442,"is_reserved":false,"is_disabled":false,"rental_uris":{"android":"levelo://app?vid=5924779a-80d8-4024-8d15-8de18a90c153","ios":"levelo://app?vid=5924779a-80d8-4024-8d15-8de18a90c153"},"vehicle_type_id":"4","last_reported":1737713359,"current_range_meters":16800,"station_id":"ce4bh012rcd13ifvqd10","pricing_plan_id":"cebpf4jnsgd1na2vs0mg"},{"bike_id":"85c4b304-0a15-4fc1-b75d-cfc16b5afe60","system_id":"levelo_inurba_marseille","lat":43.22926,"lon":5.35387,"is_reserved":false,"is_disabled":false,"rental_uris":{"android":"levelo://app?vid=85c4b304-0a15-4fc1-b75d-cfc16b5afe60","ios":"levelo://app?vid=85c4b304-0a15-4fc1-b75d-cfc16b5afe60"},"vehicle_type_id":"4","last_reported":1737713359,"current_range_meters":38400,"station_id":"cpo3532slgdg3j2ikp40","pricing_plan_id":"cebpf4jnsgd1na2vs0mg"},{"bike_id":"2b9c0f13-1dd3-4779-9c6a-3f68333e7c09","system_id":"levelo_inurba_marseille","lat":43.27937,"lon":5.388,"is_reserved":false,"is_disabled":false,"rental_uris":{"android":"levelo://app?vid=2b9c0f13-1dd3-4779-9c6a-3f68333e7c09","ios":"levelo://app?vid=2b9c0f13-1dd3-4779-9c6a-3f68333e7c09"},"vehicle_type_id":"4","last_reported":1737713359,"current_range_meters":4000,"station_id":"","pricing_plan_id":"cebpf4jnsgd1na2vs0mg"},{"bike_id":"f7f20ea8-ac89-40b3-bd17-c73f31722701","system_id":"levelo_inurba_marseille","lat":43.29893,"lon":5.43671,"is_reserved":false,"is_disabled":false,"rental_uris":{"android":"levelo://app?vid=f7f20ea8-ac89-40b3-bd17-c73f31722701","ios":"levelo://app?vid=f7f20ea8-ac89-40b3-bd17-c73f31722701"},"vehicle_type_id":"4","last_reported":1737713359,"current_range_meters":38800,"station_id":"ce4bhpp2rcd13ifvqhfg","pricing_plan_id":"cebpf4jnsgd1na2vs0mg"},{"bike_id":"fb1048b7-e565-4e07-b82a-5f5a5712ce1d","system_id":"levelo_inurba_marseille","lat":43.321,"lon":5.36807,"is_reserved":false,"is_disabled":false,"rental_uris":{"android":"levelo://app?vid=fb1048b7-e565-4e07-b82a-5f5a5712ce1d","ios":"levelo://app?vid=fb1048b7-e565-4e07-b82a-5f5a5712ce1d"},"vehicle_type_id":"4","last_reported":1737713359,"current_range_meters":38400,"station_id":"ce4bhrh2rcd13ifvqhug","pricing_plan_id":"cebpf4jnsgd1na2vs0mg"},{"bike_id":"9399f45c-6cc4-4e81-8348-de9a24ee6a48","system_id":"levelo_inurba_marseille","lat":43.29227,"lon":5.36062,"is_reserved":false,"is_disabled":false,"rental_uris":{"android":"levelo://app?vid=9399f45c-6cc4-4e81-8348-de9a24ee6a48","ios":"levelo://app?vid=9399f45c-6cc4-4e81-8348-de9a24ee6a48"},"vehicle_type_id":"4","last_reported":1737713359,"current_range_meters":38800,"station_id":"ce4bhbh2rcd13ifvqeqg","pricing_plan_id":"cebpf4jnsgd1na2vs0mg"},{"bike_id":"2aeb1fe7-2455-4a37-a484-bbbf324c7cf2","system_id":"levelo_inurba_marseille","lat":43.32098,"lon":5.36823,"is_reserved":false,"is_disabled":false,"rental_uris":{"android":"levelo://app?vid=2aeb1fe7-2455-4a37-a484-bbbf324c7cf2","ios":"levelo://app?vid=2aeb1fe7-2455-4a37-a484-bbbf324c7cf2"},"vehicle_type_id":"4","last_reported":1737713359,"current_range_meters":8000,"station_id":"ce4bhrh2rcd13ifvqhug","pricing_plan_id":"cebpf4jnsgd1na2vs0mg"},{"bike_id":"88897026-3c29-4d99-a6a6-6f58ccce2763","system_id":"levelo_inurba_marseille","lat":43.30598,"lon":5.39354,"is_reserved":false,"is_disabled":false,"rental_uris":{"android":"levelo://app?vid=88897026-3c29-4d99-a6a6-6f58ccce2763","ios":"levelo://app?vid=88897026-3c29-4d99-a6a6-6f58ccce2763"},"vehicle_type_id":"4","last_reported":1737713359,"current_range_meters":28800,"station_id":"ce4bh0p2rcd13ifvqd80","pricing_plan_id":"cebpf4jnsgd1na2vs0mg"},{"bike_id":"5cbeeb31-e0c7-4911-9873-3974a5f601e5","system_id":"levelo_inurba_marseille","lat":43.27489,"lon":5.42465,"is_reserved":false,"is_disabled":false,"rental_uris":{"android":"levelo://app?vid=5cbeeb31-e0c7-4911-9873-3974a5f601e5","ios":"levelo://app?vid=5cbeeb31-e0c7-4911-9873-3974a5f601e5"},"vehicle_type_id":"4","last_reported":1737713359,"current_range_meters":36800,"station_id":"ce4bhn92rcd13ifvqgrg","pricing_plan_id":"cebpf4jnsgd1na2vs0mg"},{"bike_id":"4b419281-a02b-4271-a3fe-274821949ca8","system_id":"levelo_inurba_marseille","lat":43.30907,"lon":5.36853,"is_reserved":false,"is_disabled":false,"rental_uris":{"android":"levelo://app?vid=4b419281-a02b-4271-a3fe-274821949ca8","ios":"levelo://app?vid=4b419281-a02b-4271-a3fe-274821949ca8"},"vehicle_type_id":"4","last_reported":1737713359,"current_range_meters":26000,"station_id":"ce4bgn92rcd13ifvqbvg","pricing_plan_id":"cebpf4jnsgd1na2vs0mg"},{"bike_id":"3e40302e-344f-404b-ba1e-ee841ffe8e36","system_id":"levelo_inurba_marseille","lat":43.30476,"lon":5.37894,"is_reserved":false,"is_disabled":true,"rental_uris":{"android":"levelo://app?vid=3e40302e-344f-404b-ba1e-ee841ffe8e36","ios":"levelo://app?vid=3e40302e-344f-404b-ba1e-ee841ffe8e36"},"vehicle_type_id":"4","last_reported":1737713359,"current_range_meters":22000,"station_id":"ce4bgup2rcd13ifvqcn0","pricing_plan_id":"cebpf4jnsgd1na2vs0mg"},{"bike_id":"7a55f28a-5a5b-4ca4-9825-dee123c17d08","system_id":"levelo_inurba_marseille","lat":43.3212,"lon":5.36776,"is_reserved":false,"is_disabled":false,"rental_uris":{"android":"levelo://app?vid=7a55f28a-5a5b-4ca4-9825-dee123c17d08","ios":"levelo://app?vid=7a55f28a-5a5b-4ca4-9825-dee123c17d08"},"vehicle_type_id":"4","last_reported":1737713359,"current_range_meters":37600,"station_id":"ce4bhrh2rcd13ifvqhug","pricing_plan_id":"cebpf4jnsgd1na2vs0mg"},{"bike_id":"5b60a1f3-5775-4102-92d1-064456db193a","system_id":"levelo_inurba_marseille","lat":43.26949,"lon":5.38632,"is_reserved":false,"is_disabled":false,"rental_uris":{"android":"levelo://app?vid=5b60a1f3-5775-4102-92d1-064456db193a","ios":"levelo://app?vid=5b60a1f3-5775-4102-92d1-064456db193a"},"vehicle_type_id":"4","last_reported":1737713359,"current_range_meters":38800,"station_id":"ce4bhh92rcd13ifvqfh0","pricing_plan_id":"cebpf4jnsgd1na2vs0mg"},{"bike_id":"1866b730-9407-49e0-a852-864c76eb8dac","system_id":"levelo_inurba_marseille","lat":43.29024,"lon":5.38126,"is_reserved":false,"is_disabled":false,"rental_uris":{"android":"levelo://app?vid=1866b730-9407-49e0-a852-864c76eb8dac","ios":"levelo://app?vid=1866b730-9407-49e0-a852-864c76eb8dac"},"vehicle_type_id":"4","last_reported":1737713359,"current_range_meters":30400,"station_id":"ce4bh4p2rcd13ifvqe1g","pricing_plan_id":"cebpf4jnsgd1na2vs0mg"},{"bike_id":"7ae57d4a-987c-4a94-bf67-7089b41c8d83","system_id":"levelo_inurba_marseille","lat":43.27613,"lon":5.36118,"is_reserved":false,"is_disabled":false,"rental_uris":{"android":"levelo://app?vid=7ae57d4a-987c-4a94-bf67-7089b41c8d83","ios":"levelo://app?vid=7ae57d4a-987c-4a94-bf67-7089b41c8d83"},"vehicle_type_id":"4","last_reported":1737713359,"current_range_meters":38400,"station_id":"ce4bgj92rcd13ifvqbe0","pricing_plan_id":"cebpf4jnsgd1na2vs0mg"},{"bike_id":"bf6bd9f7-0228-4238-a949-59464d96c547","system_id":"levelo_inurba_marseille","lat":43.30931,"lon":5.36839,"is_reserved":false,"is_disabled":false,"rental_uris":{"android":"levelo://app?vid=bf6bd9f7-0228-4238-a949-59464d96c547","ios":"levelo://app?vid=bf6bd9f7-0228-4238-a949-59464d96c547"},"vehicle_type_id":"4","last_reported":1737713359,"current_range_meters":38800,"station_id":"ce4bgn92rcd13ifvqbvg","pricing_plan_id":"cebpf4jnsgd1na2vs0mg"},{"bike_id":"14460ec0-8ab7-4599-bc0f-7184ba5cd83d","system_id":"levelo_inurba_marseille","lat":43.30457,"lon":5.37909,"is_reserved":false,"is_disabled":false,"rental_uris":{"android":"levelo://app?vid=14460ec0-8ab7-4599-bc0f-7184ba5cd83d","ios":"levelo://app?vid=14460ec0-8ab7-4599-bc0f-7184ba5cd83d"},"vehicle_type_id":"4","last_reported":1737713359,"current_range_meters":20400,"station_id":"ce4bgup2rcd13ifvqcn0","pricing_plan_id":"cebpf4jnsgd1na2vs0mg"},{"bike_id":"a9d5e1db-41a7-4c05-bdc9-54e576288f5a","system_id":"levelo_inurba_marseille","lat":43.30969,"lon":5.39048,"is_reserved":false,"is_disabled":true,"rental_uris":{"android":"levelo://app?vid=a9d5e1db-41a7-4c05-bdc9-54e576288f5a","ios":"levelo://app?vid=a9d5e1db-41a7-4c05-bdc9-54e576288f5a"},"vehicle_type_id":"4","last_reported":1737713359,"current_range_meters":38800,"station_id":"ce4bgup2rcd13ifvqco0","pricing_plan_id":"cebpf4jnsgd1na2vs0mg"},{"bike_id":"35614ed7-a0df-4792-bca2-a1978fcd9fab","system_id":"levelo_inurba_marseille","lat":43.30797,"lon":5.43508,"is_reserved":false,"is_disabled":false,"rental_uris":{"android":"levelo://app?vid=35614ed7-a0df-4792-bca2-a1978fcd9fab","ios":"levelo://app?vid=35614ed7-a0df-4792-bca2-a1978fcd9fab"},"vehicle_type_id":"4","last_reported":1737713359,"current_range_meters":38400,"station_id":"ce4bhph2rcd13ifvqheg","pricing_plan_id":"cebpf4jnsgd1na2vs0mg"},{"bike_id":"c2b1d898-8d95-4b49-b324-a24f4f18a4a0","system_id":"levelo_inurba_marseille","lat":43.32525,"lon":5.41457,"is_reserved":false,"is_disabled":false,"rental_uris":{"android":"levelo://app?vid=c2b1d898-8d95-4b49-b324-a24f4f18a4a0","ios":"levelo://app?vid=c2b1d898-8d95-4b49-b324-a24f4f18a4a0"},"vehicle_type_id":"4","last_reported":1737713359,"current_range_meters":36400,"station_id":"ce4bhq12rcd13ifvqhhg","pricing_plan_id":"cebpf4jnsgd1na2vs0mg"},{"bike_id":"28c8c0d8-4bb2-40c7-97a3-48d0cd1d316d","system_id":"levelo_inurba_marseille","lat":43.26678,"lon":5.38267,"is_reserved":false,"is_disabled":true,"rental_uris":{"android":"levelo://app?vid=28c8c0d8-4bb2-40c7-97a3-48d0cd1d316d","ios":"levelo://app?vid=28c8c0d8-4bb2-40c7-97a3-48d0cd1d316d"},"vehicle_type_id":"4","last_reported":1737713359,"current_range_meters":0,"station_id":"ce4bhg92rcd13ifvqf90","pricing_plan_id":"cebpf4jnsgd1na2vs0mg"},{"bike_id":"8661b5e3-5c50-41b5-9990-f6cea7332865","system_id":"levelo_inurba_marseille","lat":43.29179,"lon":5.35792,"is_reserved":false,"is_disabled":false,"rental_uris":{"android":"levelo://app?vid=8661b5e3-5c50-41b5-9990-f6cea7332865","ios":"levelo://app?vid=8661b5e3-5c50-41b5-9990-f6cea7332865"},"vehicle_type_id":"4","last_reported":1737713359,"current_range_meters":37600,"station_id":"ce4bhb12rcd13ifvqel0","pricing_plan_id":"cebpf4jnsgd1na2vs0mg"},{"bike_id":"4c1c17e2-46ef-4dcf-a033-e04a343c7939","system_id":"levelo_inurba_marseille","lat":43.30292,"lon":5.39223,"is_reserved":false,"is_disabled":false,"rental_uris":{"android":"levelo://app?vid=4c1c17e2-46ef-4dcf-a033-e04a343c7939","ios":"levelo://app?vid=4c1c17e2-46ef-4dcf-a033-e04a343c7939"},"vehicle_type_id":"4","last_reported":1737713359,"current_range_meters":12000,"station_id":"ce4bgkh2rcd13ifvqbk0","pricing_plan_id":"cebpf4jnsgd1na2vs0mg"},{"bike_id":"6dfe6d30-c4ba-49ec-a7b3-dcb8463e7db8","system_id":"levelo_inurba_marseille","lat":43.27221,"lon":5.39193,"is_reserved":false,"is_disabled":false,"rental_uris":{"android":"levelo://app?vid=6dfe6d30-c4ba-49ec-a7b3-dcb8463e7db8","ios":"levelo://app?vid=6dfe6d30-c4ba-49ec-a7b3-dcb8463e7db8"},"vehicle_type_id":"4","last_reported":1737713359,"current_range_meters":27600,"station_id":"ce4bhhp2rcd13ifvqfm0","pricing_plan_id":"cebpf4jnsgd1na2vs0mg"},{"bike_id":"51f092b8-b7f4-4a0c-adcf-40af6cc2c85e","system_id":"levelo_inurba_marseille","lat":43.25941,"lon":5.40886,"is_reserved":false,"is_disabled":false,"rental_uris":{"android":"levelo://app?vid=51f092b8-b7f4-4a0c-adcf-40af6cc2c85e","ios":"levelo://app?vid=51f092b8-b7f4-4a0c-adcf-40af6cc2c85e"},"vehicle_type_id":"4","last_reported":1737713359,"current_range_meters":38800,"station_id":"ce4bhm92rcd13ifvqglg","pricing_plan_id":"cebpf4jnsgd1na2vs0mg"},{"bike_id":"cee4970b-2a7e-4e53-bc25-0033fcd91d47","system_id":"levelo_inurba_marseille","lat":43.30532,"lon":5.3654,"is_reserved":false,"is_disabled":false,"rental_uris":{"android":"levelo://app?vid=cee4970b-2a7e-4e53-bc25-0033fcd91d47","ios":"levelo://app?vid=cee4970b-2a7e-4e53-bc25-0033fcd91d47"},"vehicle_type_id":"4","last_reported":1737713359,"current_range_meters":34800,"station_id":"ce4bgs12rcd13ifvqcag","pricing_plan_id":"cebpf4jnsgd1na2vs0mg"},{"bike_id":"8189d985-ab91-4ff1-bb9d-2f862a50adc2","system_id":"levelo_inurba_marseille","lat":43.31756,"lon":5.40405,"is_reserved":false,"is_disabled":false,"rental_uris":{"android":"levelo://app?vid=8189d985-ab91-4ff1-bb9d-2f862a50adc2","ios":"levelo://app?vid=8189d985-ab91-4ff1-bb9d-2f862a50adc2"},"vehicle_type_id":"4","last_reported":1737713359,"current_range_meters":28000,"station_id":"","pricing_plan_id":"cebpf4jnsgd1na2vs0mg"},{"bike_id":"e5e4df67-dd0f-4661-9c3e-b4021a64b458","system_id":"levelo_inurba_marseille","lat":43.26943,"lon":5.38637,"is_reserved":false,"is_disabled":false,"rental_uris":{"android":"levelo://app?vid=e5e4df67-dd0f-4661-9c3e-b4021a64b458","ios":"levelo://app?vid=e5e4df67-dd0f-4661-9c3e-b4021a64b458"},"vehicle_type_id":"4","last_reported":1737713359,"current_range_meters":24000,"station_id":"ce4bhh92rcd13ifvqfh0","pricing_plan_id":"cebpf4jnsgd1na2vs0mg"},{"bike_id":"f7852742-3e4a-4e8d-a086-6b6a0282c38c","system_id":"levelo_inurba_marseille","lat":43.30465,"lon":5.37906,"is_reserved":false,"is_disabled":false,"rental_uris":{"android":"levelo://app?vid=f7852742-3e4a-4e8d-a086-6b6a0282c38c","ios":"levelo://app?vid=f7852742-3e4a-4e8d-a086-6b6a0282c38c"},"vehicle_type_id":"4","last_reported":1737713359,"current_range_meters":29600,"station_id":"ce4bgup2rcd13ifvqcn0","pricing_plan_id":"cebpf4jnsgd1na2vs0mg"},{"bike_id":"f23f0288-a55c-4862-a419-072a2b3fb42e","system_id":"levelo_inurba_marseille","lat":43.3095,"lon":5.39036,"is_reserved":false,"is_disabled":false,"rental_uris":{"android":"levelo://app?vid=f23f0288-a55c-4862-a419-072a2b3fb42e","ios":"levelo://app?vid=f23f0288-a55c-4862-a419-072a2b3fb42e"},"vehicle_type_id":"4","last_reported":1737713359,"current_range_meters":38800,"station_id":"ce4bgup2rcd13ifvqco0","pricing_plan_id":"cebpf4jnsgd1na2vs0mg"},{"bike_id":"1b8ccaf0-78e9-49fc-a573-a55f5a6259f1","system_id":"levelo_inurba_marseille","lat":43.27491,"lon":5.42477,"is_reserved":false,"is_disabled":false,"rental_uris":{"android":"levelo://app?vid=1b8ccaf0-78e9-49fc-a573-a55f5a6259f1","ios":"levelo://app?vid=1b8ccaf0-78e9-49fc-a573-a55f5a6259f1"},"vehicle_type_id":"4","last_reported":1737713359,"current_range_meters":10000,"station_id":"ce4bhn92rcd13ifvqgrg","pricing_plan_id":"cebpf4jnsgd1na2vs0mg"},{"bike_id":"c54405f6-19ca-4898-9c27-b06f2510a17d","system_id":"levelo_inurba_marseille","lat":43.29227,"lon":5.36068,"is_reserved":false,"is_disabled":false,"rental_uris":{"android":"levelo://app?vid=c54405f6-19ca-4898-9c27-b06f2510a17d","ios":"levelo://app?vid=c54405f6-19ca-4898-9c27-b06f2510a17d"},"vehicle_type_id":"4","last_reported":1737713359,"current_range_meters":35600,"station_id":"ce4bhbh2rcd13ifvqeqg","pricing_plan_id":"cebpf4jnsgd1na2vs0mg"},{"bike_id":"96b757d9-bc3b-420b-be19-28e6baef3842","system_id":"levelo_inurba_marseille","lat":43.29597,"lon":5.36744,"is_reserved":false,"is_disabled":false,"rental_uris":{"android":"levelo://app?vid=96b757d9-bc3b-420b-be19-28e6baef3842","ios":"levelo://app?vid=96b757d9-bc3b-420b-be19-28e6baef3842"},"vehicle_type_id":"4","last_reported":1737713359,"current_range_meters":34800,"station_id":"ce4bgph2rcd13ifvqc2g","pricing_plan_id":"cebpf4jnsgd1na2vs0mg"},{"bike_id":"90562b19-8802-4e76-a682-f90dad6ec469","system_id":"levelo_inurba_marseille","lat":43.29543,"lon":5.38558,"is_reserved":false,"is_disabled":true,"rental_uris":{"android":"levelo://app?vid=90562b19-8802-4e76-a682-f90dad6ec469","ios":"levelo://app?vid=90562b19-8802-4e76-a682-f90dad6ec469"},"vehicle_type_id":"4","last_reported":1737713359,"current_range_meters":0,"station_id":"ce4bgih2rcd13ifvqba0","pricing_plan_id":"cebpf4jnsgd1na2vs0mg"},{"bike_id":"9863b7f9-4316-4322-9f6c-3cc66b0448e2","system_id":"levelo_inurba_marseille","lat":43.279439,"lon":5.389008,"is_reserved":false,"is_disabled":true,"rental_uris":{"android":"levelo://app?vid=9863b7f9-4316-4322-9f6c-3cc66b0448e2","ios":"levelo://app?vid=9863b7f9-4316-4322-9f6c-3cc66b0448e2"},"vehicle_type_id":"4","last_reported":1737713359,"current_range_meters":20400,"station_id":"","pricing_plan_id":"cebpf4jnsgd1na2vs0mg"},{"bike_id":"52c76b33-891b-4417-9674-1dca51bf36cf","system_id":"levelo_inurba_marseille","lat":43.29856,"lon":5.36283,"is_reserved":false,"is_disabled":false,"rental_uris":{"android":"levelo://app?vid=52c76b33-891b-4417-9674-1dca51bf36cf","ios":"levelo://app?vid=52c76b33-891b-4417-9674-1dca51bf36cf"},"vehicle_type_id":"4","last_reported":1737713359,"current_range_meters":35200,"station_id":"ce4bgpp2rcd13ifvqc3g","pricing_plan_id":"cebpf4jnsgd1na2vs0mg"},{"bike_id":"ab927040-bfc3-4782-b1b3-ffbf9d71bc34","system_id":"levelo_inurba_marseille","lat":43.26717,"lon":5.38258,"is_reserved":false,"is_disabled":false,"rental_uris":{"android":"levelo://app?vid=ab927040-bfc3-4782-b1b3-ffbf9d71bc34","ios":"levelo://app?vid=ab927040-bfc3-4782-b1b3-ffbf9d71bc34"},"vehicle_type_id":"4","last_reported":1737713359,"current_range_meters":37600,"station_id":"ce4bhg92rcd13ifvqf90","pricing_plan_id":"cebpf4jnsgd1na2vs0mg"},{"bike_id":"9e2d13b9-d1b0-4762-93f4-a7dd29fa0c55","system_id":"levelo_inurba_marseille","lat":43.29238,"lon":5.36029,"is_reserved":false,"is_disabled":false,"rental_uris":{"android":"levelo://app?vid=9e2d13b9-d1b0-4762-93f4-a7dd29fa0c55","ios":"levelo://app?vid=9e2d13b9-d1b0-4762-93f4-a7dd29fa0c55"},"vehicle_type_id":"4","last_reported":1737713359,"current_range_meters":24000,"station_id":"ce4bhbh2rcd13ifvqeqg","pricing_plan_id":"cebpf4jnsgd1na2vs0mg"},{"bike_id":"e11d5e25-e272-47e7-bd8a-065bf108edeb","system_id":"levelo_inurba_marseille","lat":43.29241,"lon":5.3844,"is_reserved":false,"is_disabled":true,"rental_uris":{"android":"levelo://app?vid=e11d5e25-e272-47e7-bd8a-065bf108edeb","ios":"levelo://app?vid=e11d5e25-e272-47e7-bd8a-065bf108edeb"},"vehicle_type_id":"4","last_reported":1737713359,"current_range_meters":14800,"station_id":"ce4bh692rcd13ifvqea0","pricing_plan_id":"cebpf4jnsgd1na2vs0mg"},{"bike_id":"04049090-a616-4ef3-adff-13f2a9a876f1","system_id":"levelo_inurba_marseille","lat":43.29531,"lon":5.38547,"is_reserved":false,"is_disabled":false,"rental_uris":{"android":"levelo://app?vid=04049090-a616-4ef3-adff-13f2a9a876f1","ios":"levelo://app?vid=04049090-a616-4ef3-adff-13f2a9a876f1"},"vehicle_type_id":"4","last_reported":1737713359,"current_range_meters":8000,"station_id":"ce4bgih2rcd13ifvqba0","pricing_plan_id":"cebpf4jnsgd1na2vs0mg"},{"bike_id":"b9e800e7-6bc8-49a5-8a06-3cda05ad5aff","system_id":"levelo_inurba_marseille","lat":43.27909,"lon":5.39572,"is_reserved":false,"is_disabled":true,"rental_uris":{"android":"levelo://app?vid=b9e800e7-6bc8-49a5-8a06-3cda05ad5aff","ios":"levelo://app?vid=b9e800e7-6bc8-49a5-8a06-3cda05ad5aff"},"vehicle_type_id":"4","last_reported":1737713359,"current_range_meters":800,"station_id":"ce4bhf92rcd13ifvqf40","pricing_plan_id":"cebpf4jnsgd1na2vs0mg"},{"bike_id":"eb82a4fa-b45d-4357-8410-47675bcbc568","system_id":"levelo_inurba_marseille","lat":43.29587,"lon":5.3674,"is_reserved":false,"is_disabled":false,"rental_uris":{"android":"levelo://app?vid=eb82a4fa-b45d-4357-8410-47675bcbc568","ios":"levelo://app?vid=eb82a4fa-b45d-4357-8410-47675bcbc568"},"vehicle_type_id":"4","last_reported":1737713359,"current_range_meters":38800,"station_id":"ce4bgph2rcd13ifvqc2g","pricing_plan_id":"cebpf4jnsgd1na2vs0mg"},{"bike_id":"fb96c333-d038-4b1c-9f7d-d3a5abfa6e1c","system_id":"levelo_inurba_marseille","lat":43.32482,"lon":5.36567,"is_reserved":false,"is_disabled":false,"rental_uris":{"android":"levelo://app?vid=fb96c333-d038-4b1c-9f7d-d3a5abfa6e1c","ios":"levelo://app?vid=fb96c333-d038-4b1c-9f7d-d3a5abfa6e1c"},"vehicle_type_id":"4","last_reported":1737713359,"current_range_meters":22000,"station_id":"ce4bhs12rcd13ifvqhvg","pricing_plan_id":"cebpf4jnsgd1na2vs0mg"},{"bike_id":"a81de985-1589-4a0c-878e-938df3517d02","system_id":"levelo_inurba_marseille","lat":43.26775,"lon":5.39427,"is_reserved":false,"is_disabled":false,"rental_uris":{"android":"levelo://app?vid=a81de985-1589-4a0c-878e-938df3517d02","ios":"levelo://app?vid=a81de985-1589-4a0c-878e-938df3517d02"},"vehicle_type_id":"4","last_reported":1737713359,"current_range_meters":6400,"station_id":"ce4bhh12rcd13ifvqfg0","pricing_plan_id":"cebpf4jnsgd1na2vs0mg"},{"bike_id":"33a45743-f1bf-4099-a464-1889f1b8b115","system_id":"levelo_inurba_marseille","lat":43.30922,"lon":5.40152,"is_reserved":false,"is_disabled":false,"rental_uris":{"android":"levelo://app?vid=33a45743-f1bf-4099-a464-1889f1b8b115","ios":"levelo://app?vid=33a45743-f1bf-4099-a464-1889f1b8b115"},"vehicle_type_id":"4","last_reported":1737713359,"current_range_meters":37600,"station_id":"ce4bgvp2rcd13ifvqct0","pricing_plan_id":"cebpf4jnsgd1na2vs0mg"},{"bike_id":"c400706d-11d8-4109-af7f-04e1a2259d9b","system_id":"levelo_inurba_marseille","lat":43.298952,"lon":5.436598,"is_reserved":false,"is_disabled":false,"rental_uris":{"android":"levelo://app?vid=c400706d-11d8-4109-af7f-04e1a2259d9b","ios":"levelo://app?vid=c400706d-11d8-4109-af7f-04e1a2259d9b"},"vehicle_type_id":"4","last_reported":1737713359,"current_range_meters":6400,"station_id":"ce4bhpp2rcd13ifvqhfg","pricing_plan_id":"cebpf4jnsgd1na2vs0mg"},{"bike_id":"8542304e-3d2f-457a-940c-10f69bbb7cf1","system_id":"levelo_inurba_marseille","lat":43.27713,"lon":5.38938,"is_reserved":false,"is_disabled":false,"rental_uris":{"android":"levelo://app?vid=8542304e-3d2f-457a-940c-10f69bbb7cf1","ios":"levelo://app?vid=8542304e-3d2f-457a-940c-10f69bbb7cf1"},"vehicle_type_id":"4","last_reported":1737713359,"current_range_meters":4000,"station_id":"ce4bhi12rcd13ifvqfo0","pricing_plan_id":"cebpf4jnsgd1na2vs0mg"},{"bike_id":"e65017eb-8f52-4183-a9ec-6e2784f34809","system_id":"levelo_inurba_marseille","lat":43.30477,"lon":5.37906,"is_reserved":false,"is_disabled":true,"rental_uris":{"android":"levelo://app?vid=e65017eb-8f52-4183-a9ec-6e2784f34809","ios":"levelo://app?vid=e65017eb-8f52-4183-a9ec-6e2784f34809"},"vehicle_type_id":"4","last_reported":1737713359,"current_range_meters":800,"station_id":"ce4bgup2rcd13ifvqcn0","pricing_plan_id":"cebpf4jnsgd1na2vs0mg"},{"bike_id":"c3cbc0d2-7f12-4d55-8e09-4099d0113494","system_id":"levelo_inurba_marseille","lat":43.25698,"lon":5.41132,"is_reserved":false,"is_disabled":false,"rental_uris":{"android":"levelo://app?vid=c3cbc0d2-7f12-4d55-8e09-4099d0113494","ios":"levelo://app?vid=c3cbc0d2-7f12-4d55-8e09-4099d0113494"},"vehicle_type_id":"4","last_reported":1737713359,"current_range_meters":18000,"station_id":"ce4bhkp2rcd13ifvqgd0","pricing_plan_id":"cebpf4jnsgd1na2vs0mg"},{"bike_id":"c3ccfefb-c1f2-459b-aeea-f7492233dca7","system_id":"levelo_inurba_marseille","lat":43.25913,"lon":5.40896,"is_reserved":false,"is_disabled":false,"rental_uris":{"android":"levelo://app?vid=c3ccfefb-c1f2-459b-aeea-f7492233dca7","ios":"levelo://app?vid=c3ccfefb-c1f2-459b-aeea-f7492233dca7"},"vehicle_type_id":"4","last_reported":1737713359,"current_range_meters":36800,"station_id":"ce4bhm92rcd13ifvqglg","pricing_plan_id":"cebpf4jnsgd1na2vs0mg"},{"bike_id":"7c78a755-c7f5-4f07-a96b-621451d47948","system_id":"levelo_inurba_marseille","lat":43.29897,"lon":5.43664,"is_reserved":false,"is_disabled":false,"rental_uris":{"android":"levelo://app?vid=7c78a755-c7f5-4f07-a96b-621451d47948","ios":"levelo://app?vid=7c78a755-c7f5-4f07-a96b-621451d47948"},"vehicle_type_id":"4","last_reported":1737713359,"current_range_meters":8400,"station_id":"ce4bhpp2rcd13ifvqhfg","pricing_plan_id":"cebpf4jnsgd1na2vs0mg"},{"bike_id":"dd37f6b9-6262-45fa-8f49-512ebe1f5cb4","system_id":"levelo_inurba_marseille","lat":43.31344,"lon":5.38505,"is_reserved":false,"is_disabled":false,"rental_uris":{"android":"levelo://app?vid=dd37f6b9-6262-45fa-8f49-512ebe1f5cb4","ios":"levelo://app?vid=dd37f6b9-6262-45fa-8f49-512ebe1f5cb4"},"vehicle_type_id":"4","last_reported":1737713359,"current_range_meters":38800,"station_id":"ce4bgt92rcd13ifvqcf0","pricing_plan_id":"cebpf4jnsgd1na2vs0mg"},{"bike_id":"a0e5ffbd-6b2b-4898-8de3-993d08ce406a","system_id":"levelo_inurba_marseille","lat":43.28485,"lon":5.38413,"is_reserved":false,"is_disabled":false,"rental_uris":{"android":"levelo://app?vid=a0e5ffbd-6b2b-4898-8de3-993d08ce406a","ios":"levelo://app?vid=a0e5ffbd-6b2b-4898-8de3-993d08ce406a"},"vehicle_type_id":"4","last_reported":1737713359,"current_range_meters":38400,"station_id":"ce4bh512rcd13ifvqe3g","pricing_plan_id":"cebpf4jnsgd1na2vs0mg"},{"bike_id":"43d90015-f0e6-4feb-bd4a-baa3bb4469a5","system_id":"levelo_inurba_marseille","lat":43.27853,"lon":5.39199,"is_reserved":false,"is_disabled":false,"rental_uris":{"android":"levelo://app?vid=43d90015-f0e6-4feb-bd4a-baa3bb4469a5","ios":"levelo://app?vid=43d90015-f0e6-4feb-bd4a-baa3bb4469a5"},"vehicle_type_id":"4","last_reported":1737713359,"current_range_meters":33600,"station_id":"ce4bhjp2rcd13ifvqga0","pricing_plan_id":"cebpf4jnsgd1na2vs0mg"},{"bike_id":"6de854a3-ffe1-46b6-96bf-9ffcedf72ce7","system_id":"levelo_inurba_marseille","lat":43.30472,"lon":5.37915,"is_reserved":false,"is_disabled":false,"rental_uris":{"android":"levelo://app?vid=6de854a3-ffe1-46b6-96bf-9ffcedf72ce7","ios":"levelo://app?vid=6de854a3-ffe1-46b6-96bf-9ffcedf72ce7"},"vehicle_type_id":"4","last_reported":1737713359,"current_range_meters":24000,"station_id":"ce4bgup2rcd13ifvqcn0","pricing_plan_id":"cebpf4jnsgd1na2vs0mg"},{"bike_id":"e834d110-9757-4aa5-8921-77cbfa7c7c6e","system_id":"levelo_inurba_marseille","lat":43.28559,"lon":5.39509,"is_reserved":false,"is_disabled":true,"rental_uris":{"android":"levelo://app?vid=e834d110-9757-4aa5-8921-77cbfa7c7c6e","ios":"levelo://app?vid=e834d110-9757-4aa5-8921-77cbfa7c7c6e"},"vehicle_type_id":"4","last_reported":1737713359,"current_range_meters":38800,"station_id":"ce4bh292rcd13ifvqdg0","pricing_plan_id":"cebpf4jnsgd1na2vs0mg"},{"bike_id":"cf2395c4-7f22-48ff-a002-b5925f09d3ba","system_id":"levelo_inurba_marseille","lat":43.30925,"lon":5.36848,"is_reserved":false,"is_disabled":true,"rental_uris":{"android":"levelo://app?vid=cf2395c4-7f22-48ff-a002-b5925f09d3ba","ios":"levelo://app?vid=cf2395c4-7f22-48ff-a002-b5925f09d3ba"},"vehicle_type_id":"4","last_reported":1737713359,"current_range_meters":38000,"station_id":"ce4bgn92rcd13ifvqbvg","pricing_plan_id":"cebpf4jnsgd1na2vs0mg"},{"bike_id":"a306c3ff-a2c7-427d-bbab-aa33479e7626","system_id":"levelo_inurba_marseille","lat":43.30146,"lon":5.38076,"is_reserved":false,"is_disabled":false,"rental_uris":{"android":"levelo://app?vid=a306c3ff-a2c7-427d-bbab-aa33479e7626","ios":"levelo://app?vid=a306c3ff-a2c7-427d-bbab-aa33479e7626"},"vehicle_type_id":"4","last_reported":1737713359,"current_range_meters":30800,"station_id":"ce4bgjp2rcd13ifvqbh0","pricing_plan_id":"cebpf4jnsgd1na2vs0mg"},{"bike_id":"43ff2777-f47b-4773-9c12-c370aa058105","system_id":"levelo_inurba_marseille","lat":43.25018,"lon":5.38952,"is_reserved":false,"is_disabled":false,"rental_uris":{"android":"levelo://app?vid=43ff2777-f47b-4773-9c12-c370aa058105","ios":"levelo://app?vid=43ff2777-f47b-4773-9c12-c370aa058105"},"vehicle_type_id":"4","last_reported":1737713359,"current_range_meters":38800,"station_id":"ce4bhgp2rcd13ifvqfd0","pricing_plan_id":"cebpf4jnsgd1na2vs0mg"},{"bike_id":"690de51c-c5a3-4f54-bfd3-61e961c6956e","system_id":"levelo_inurba_marseille","lat":43.29293,"lon":5.37435,"is_reserved":false,"is_disabled":false,"rental_uris":{"android":"levelo://app?vid=690de51c-c5a3-4f54-bfd3-61e961c6956e","ios":"levelo://app?vid=690de51c-c5a3-4f54-bfd3-61e961c6956e"},"vehicle_type_id":"4","last_reported":1737713359,"current_range_meters":34800,"station_id":"ce4bgi12rcd13ifvqb70","pricing_plan_id":"cebpf4jnsgd1na2vs0mg"},{"bike_id":"d227e879-6f0b-45af-9e4a-c8e8361f18a7","system_id":"levelo_inurba_marseille","lat":43.23145,"lon":5.4373,"is_reserved":false,"is_disabled":false,"rental_uris":{"android":"levelo://app?vid=d227e879-6f0b-45af-9e4a-c8e8361f18a7","ios":"levelo://app?vid=d227e879-6f0b-45af-9e4a-c8e8361f18a7"},"vehicle_type_id":"4","last_reported":1737713359,"current_range_meters":9600,"station_id":"ce4bhmp2rcd13ifvqgog","pricing_plan_id":"cebpf4jnsgd1na2vs0mg"},{"bike_id":"bd28a8d1-43a3-411b-8e89-e91fc33f5dc5","system_id":"levelo_inurba_marseille","lat":43.24993,"lon":5.38948,"is_reserved":false,"is_disabled":false,"rental_uris":{"android":"levelo://app?vid=bd28a8d1-43a3-411b-8e89-e91fc33f5dc5","ios":"levelo://app?vid=bd28a8d1-43a3-411b-8e89-e91fc33f5dc5"},"vehicle_type_id":"4","last_reported":1737713359,"current_range_meters":38800,"station_id":"ce4bhgp2rcd13ifvqfd0","pricing_plan_id":"cebpf4jnsgd1na2vs0mg"},{"bike_id":"4065662d-885f-4acf-ae71-f2cd999fc11e","system_id":"levelo_inurba_marseille","lat":43.29307,"lon":5.37446,"is_reserved":false,"is_disabled":false,"rental_uris":{"android":"levelo://app?vid=4065662d-885f-4acf-ae71-f2cd999fc11e","ios":"levelo://app?vid=4065662d-885f-4acf-ae71-f2cd999fc11e"},"vehicle_type_id":"4","last_reported":1737713359,"current_range_meters":38800,"station_id":"ce4bgi12rcd13ifvqb70","pricing_plan_id":"cebpf4jnsgd1na2vs0mg"},{"bike_id":"51b693ec-6376-489f-b989-9f78de29a1f3","system_id":"levelo_inurba_marseille","lat":43.24166,"lon":5.36402,"is_reserved":false,"is_disabled":false,"rental_uris":{"android":"levelo://app?vid=51b693ec-6376-489f-b989-9f78de29a1f3","ios":"levelo://app?vid=51b693ec-6376-489f-b989-9f78de29a1f3"},"vehicle_type_id":"4","last_reported":1737713359,"current_range_meters":18800,"station_id":"cpo36qri1sfpv3e86is0","pricing_plan_id":"cebpf4jnsgd1na2vs0mg"},{"bike_id":"fa6415c6-150b-448b-9709-3aca739af766","system_id":"levelo_inurba_marseille","lat":43.304714,"lon":5.378969,"is_reserved":false,"is_disabled":false,"rental_uris":{"android":"levelo://app?vid=fa6415c6-150b-448b-9709-3aca739af766","ios":"levelo://app?vid=fa6415c6-150b-448b-9709-3aca739af766"},"vehicle_type_id":"4","last_reported":1737713359,"current_range_meters":34800,"station_id":"ce4bgup2rcd13ifvqcn0","pricing_plan_id":"cebpf4jnsgd1na2vs0mg"},{"bike_id":"de6fd782-7134-4e64-b9c3-cc2cfbe12552","system_id":"levelo_inurba_marseille","lat":43.31101,"lon":5.38834,"is_reserved":false,"is_disabled":false,"rental_uris":{"android":"levelo://app?vid=de6fd782-7134-4e64-b9c3-cc2cfbe12552","ios":"levelo://app?vid=de6fd782-7134-4e64-b9c3-cc2cfbe12552"},"vehicle_type_id":"4","last_reported":1737713359,"current_range_meters":32800,"station_id":"","pricing_plan_id":"cebpf4jnsgd1na2vs0mg"},{"bike_id":"13ff516e-16cf-4543-8540-9030b8b296b4","system_id":"levelo_inurba_marseille","lat":43.23179,"lon":5.35584,"is_reserved":false,"is_disabled":false,"rental_uris":{"android":"levelo://app?vid=13ff516e-16cf-4543-8540-9030b8b296b4","ios":"levelo://app?vid=13ff516e-16cf-4543-8540-9030b8b296b4"},"vehicle_type_id":"4","last_reported":1737713359,"current_range_meters":25600,"station_id":"ce4bhu92rcd13ifvqi70","pricing_plan_id":"cebpf4jnsgd1na2vs0mg"},{"bike_id":"38f1bf28-96e2-4929-83f0-f14ae15b6051","system_id":"levelo_inurba_marseille","lat":43.31065,"lon":5.42446,"is_reserved":false,"is_disabled":false,"rental_uris":{"android":"levelo://app?vid=38f1bf28-96e2-4929-83f0-f14ae15b6051","ios":"levelo://app?vid=38f1bf28-96e2-4929-83f0-f14ae15b6051"},"vehicle_type_id":"4","last_reported":1737713359,"current_range_meters":5600,"station_id":"ce4bhp92rcd13ifvqhag","pricing_plan_id":"cebpf4jnsgd1na2vs0mg"},{"bike_id":"492c07dc-b7d3-4558-a649-9d7e1f899b97","system_id":"levelo_inurba_marseille","lat":43.24065,"lon":5.37713,"is_reserved":false,"is_disabled":false,"rental_uris":{"android":"levelo://app?vid=492c07dc-b7d3-4558-a649-9d7e1f899b97","ios":"levelo://app?vid=492c07dc-b7d3-4558-a649-9d7e1f899b97"},"vehicle_type_id":"4","last_reported":1737713359,"current_range_meters":28000,"station_id":"ce4bhnp2rcd13ifvqgvg","pricing_plan_id":"cebpf4jnsgd1na2vs0mg"},{"bike_id":"7d7398a8-7c71-4d45-bd72-1d46447c6082","system_id":"levelo_inurba_marseille","lat":43.26953,"lon":5.38632,"is_reserved":false,"is_disabled":false,"rental_uris":{"android":"levelo://app?vid=7d7398a8-7c71-4d45-bd72-1d46447c6082","ios":"levelo://app?vid=7d7398a8-7c71-4d45-bd72-1d46447c6082"},"vehicle_type_id":"4","last_reported":1737713359,"current_range_meters":30400,"station_id":"ce4bhh92rcd13ifvqfh0","pricing_plan_id":"cebpf4jnsgd1na2vs0mg"},{"bike_id":"8a151ccc-edf6-40ab-a6a3-42b4ac96f698","system_id":"levelo_inurba_marseille","lat":43.28274,"lon":5.35077,"is_reserved":false,"is_disabled":true,"rental_uris":{"android":"levelo://app?vid=8a151ccc-edf6-40ab-a6a3-42b4ac96f698","ios":"levelo://app?vid=8a151ccc-edf6-40ab-a6a3-42b4ac96f698"},"vehicle_type_id":"4","last_reported":1737713359,"current_range_meters":24400,"station_id":"ce4bhbp2rcd13ifvqerg","pricing_plan_id":"cebpf4jnsgd1na2vs0mg"},{"bike_id":"5971ad5e-a484-4d3d-bdf2-2b149d5328ab","system_id":"levelo_inurba_marseille","lat":43.29031,"lon":5.40006,"is_reserved":false,"is_disabled":false,"rental_uris":{"android":"levelo://app?vid=5971ad5e-a484-4d3d-bdf2-2b149d5328ab","ios":"levelo://app?vid=5971ad5e-a484-4d3d-bdf2-2b149d5328ab"},"vehicle_type_id":"4","last_reported":1737713359,"current_range_meters":38800,"station_id":"ce4bh392rcd13ifvqdm0","pricing_plan_id":"cebpf4jnsgd1na2vs0mg"},{"bike_id":"7f0b73c5-af9a-4c10-9ae6-a4a4e527bef1","system_id":"levelo_inurba_marseille","lat":43.25567,"lon":5.38251,"is_reserved":false,"is_disabled":false,"rental_uris":{"android":"levelo://app?vid=7f0b73c5-af9a-4c10-9ae6-a4a4e527bef1","ios":"levelo://app?vid=7f0b73c5-af9a-4c10-9ae6-a4a4e527bef1"},"vehicle_type_id":"4","last_reported":1737713359,"current_range_meters":26800,"station_id":"ce4bhih2rcd13ifvqfs0","pricing_plan_id":"cebpf4jnsgd1na2vs0mg"},{"bike_id":"d793b4cd-3d60-4b4b-8463-8a0e0497ff20","system_id":"levelo_inurba_marseille","lat":43.310824,"lon":5.424339,"is_reserved":false,"is_disabled":false,"rental_uris":{"android":"levelo://app?vid=d793b4cd-3d60-4b4b-8463-8a0e0497ff20","ios":"levelo://app?vid=d793b4cd-3d60-4b4b-8463-8a0e0497ff20"},"vehicle_type_id":"4","last_reported":1737713359,"current_range_meters":12000,"station_id":"ce4bhp92rcd13ifvqhag","pricing_plan_id":"cebpf4jnsgd1na2vs0mg"},{"bike_id":"c07ffe20-21f2-4b01-b153-b7e93fc6ba8d","system_id":"levelo_inurba_marseille","lat":43.31724,"lon":5.42408,"is_reserved":false,"is_disabled":true,"rental_uris":{"android":"levelo://app?vid=c07ffe20-21f2-4b01-b153-b7e93fc6ba8d","ios":"levelo://app?vid=c07ffe20-21f2-4b01-b153-b7e93fc6ba8d"},"vehicle_type_id":"4","last_reported":1737713359,"current_range_meters":2000,"station_id":"ce4bhp92rcd13ifvqhbg","pricing_plan_id":"cebpf4jnsgd1na2vs0mg"},{"bike_id":"77095ef4-0d31-4afc-8269-69ef70de0dbc","system_id":"levelo_inurba_marseille","lat":43.30185,"lon":5.36635,"is_reserved":false,"is_disabled":false,"rental_uris":{"android":"levelo://app?vid=77095ef4-0d31-4afc-8269-69ef70de0dbc","ios":"levelo://app?vid=77095ef4-0d31-4afc-8269-69ef70de0dbc"},"vehicle_type_id":"4","last_reported":1737713359,"current_range_meters":38800,"station_id":"ce4bgrh2rcd13ifvqc8g","pricing_plan_id":"cebpf4jnsgd1na2vs0mg"},{"bike_id":"16221172-d6ef-4044-9a53-6d92389269bb","system_id":"levelo_inurba_marseille","lat":43.29252,"lon":5.40897,"is_reserved":false,"is_disabled":false,"rental_uris":{"android":"levelo://app?vid=16221172-d6ef-4044-9a53-6d92389269bb","ios":"levelo://app?vid=16221172-d6ef-4044-9a53-6d92389269bb"},"vehicle_type_id":"4","last_reported":1737713359,"current_range_meters":38000,"station_id":"ce4bh192rcd13ifvqdc0","pricing_plan_id":"cebpf4jnsgd1na2vs0mg"},{"bike_id":"5178f3b8-4850-44ff-ae1d-dcc1bc414688","system_id":"levelo_inurba_marseille","lat":43.30552,"lon":5.36539,"is_reserved":false,"is_disabled":false,"rental_uris":{"android":"levelo://app?vid=5178f3b8-4850-44ff-ae1d-dcc1bc414688","ios":"levelo://app?vid=5178f3b8-4850-44ff-ae1d-dcc1bc414688"},"vehicle_type_id":"4","last_reported":1737713359,"current_range_meters":36800,"station_id":"ce4bgs12rcd13ifvqcag","pricing_plan_id":"cebpf4jnsgd1na2vs0mg"},{"bike_id":"3b5db362-e586-4843-ac19-b18328203e89","system_id":"levelo_inurba_marseille","lat":43.30304,"lon":5.36884,"is_reserved":false,"is_disabled":false,"rental_uris":{"android":"levelo://app?vid=3b5db362-e586-4843-ac19-b18328203e89","ios":"levelo://app?vid=3b5db362-e586-4843-ac19-b18328203e89"},"vehicle_type_id":"4","last_reported":1737713359,"current_range_meters":29600,"station_id":"ce4bgqh2rcd13ifvqc5g","pricing_plan_id":"cebpf4jnsgd1na2vs0mg"},{"bike_id":"126d0a8d-2cf5-4b94-8d01-2b3876b3297a","system_id":"levelo_inurba_marseille","lat":43.31246,"lon":5.36901,"is_reserved":false,"is_disabled":false,"rental_uris":{"android":"levelo://app?vid=126d0a8d-2cf5-4b94-8d01-2b3876b3297a","ios":"levelo://app?vid=126d0a8d-2cf5-4b94-8d01-2b3876b3297a"},"vehicle_type_id":"4","last_reported":1737713359,"current_range_meters":38000,"station_id":"ce4bgl92rcd13ifvqbq0","pricing_plan_id":"cebpf4jnsgd1na2vs0mg"},{"bike_id":"7395b426-ae3f-4aae-a5ed-080fecf1fa10","system_id":"levelo_inurba_marseille","lat":43.27828,"lon":5.39214,"is_reserved":false,"is_disabled":false,"rental_uris":{"android":"levelo://app?vid=7395b426-ae3f-4aae-a5ed-080fecf1fa10","ios":"levelo://app?vid=7395b426-ae3f-4aae-a5ed-080fecf1fa10"},"vehicle_type_id":"4","last_reported":1737713359,"current_range_meters":16000,"station_id":"ce4bhjp2rcd13ifvqga0","pricing_plan_id":"cebpf4jnsgd1na2vs0mg"},{"bike_id":"5e97af20-8afc-41e0-9f59-c3eb3474cd31","system_id":"levelo_inurba_marseille","lat":43.29031,"lon":5.39969,"is_reserved":false,"is_disabled":false,"rental_uris":{"android":"levelo://app?vid=5e97af20-8afc-41e0-9f59-c3eb3474cd31","ios":"levelo://app?vid=5e97af20-8afc-41e0-9f59-c3eb3474cd31"},"vehicle_type_id":"4","last_reported":1737713359,"current_range_meters":37600,"station_id":"ce4bh392rcd13ifvqdm0","pricing_plan_id":"cebpf4jnsgd1na2vs0mg"},{"bike_id":"421d447e-f137-48f8-b50a-3cef6ba73d00","system_id":"levelo_inurba_marseille","lat":43.32354,"lon":5.36755,"is_reserved":false,"is_disabled":false,"rental_uris":{"android":"levelo://app?vid=421d447e-f137-48f8-b50a-3cef6ba73d00","ios":"levelo://app?vid=421d447e-f137-48f8-b50a-3cef6ba73d00"},"vehicle_type_id":"4","last_reported":1737713359,"current_range_meters":10000,"station_id":"ce4bhsh2rcd13ifvqi2g","pricing_plan_id":"cebpf4jnsgd1na2vs0mg"},{"bike_id":"17fabfd1-22b2-4c0e-9f3b-5216e4a2be58","system_id":"levelo_inurba_marseille","lat":43.27569,"lon":5.3843,"is_reserved":false,"is_disabled":false,"rental_uris":{"android":"levelo://app?vid=17fabfd1-22b2-4c0e-9f3b-5216e4a2be58","ios":"levelo://app?vid=17fabfd1-22b2-4c0e-9f3b-5216e4a2be58"},"vehicle_type_id":"4","last_reported":1737713359,"current_range_meters":24000,"station_id":"ce4bhh92rcd13ifvqfi0","pricing_plan_id":"cebpf4jnsgd1na2vs0mg"},{"bike_id":"4e03efb6-2921-480f-9991-f7a573272ffa","system_id":"levelo_inurba_marseille","lat":43.30952,"lon":5.39058,"is_reserved":false,"is_disabled":false,"rental_uris":{"android":"levelo://app?vid=4e03efb6-2921-480f-9991-f7a573272ffa","ios":"levelo://app?vid=4e03efb6-2921-480f-9991-f7a573272ffa"},"vehicle_type_id":"4","last_reported":1737713359,"current_range_meters":38000,"station_id":"ce4bgup2rcd13ifvqco0","pricing_plan_id":"cebpf4jnsgd1na2vs0mg"},{"bike_id":"75495e7c-20bd-4569-84c6-35df34ab244d","system_id":"levelo_inurba_marseille","lat":43.2989,"lon":5.4367,"is_reserved":false,"is_disabled":true,"rental_uris":{"android":"levelo://app?vid=75495e7c-20bd-4569-84c6-35df34ab244d","ios":"levelo://app?vid=75495e7c-20bd-4569-84c6-35df34ab244d"},"vehicle_type_id":"4","last_reported":1737713359,"current_range_meters":0,"station_id":"ce4bhpp2rcd13ifvqhfg","pricing_plan_id":"cebpf4jnsgd1na2vs0mg"},{"bike_id":"f78fd4fb-8ee7-4083-a40b-c012f8f853b8","system_id":"levelo_inurba_marseille","lat":43.33726,"lon":5.39214,"is_reserved":false,"is_disabled":false,"rental_uris":{"android":"levelo://app?vid=f78fd4fb-8ee7-4083-a40b-c012f8f853b8","ios":"levelo://app?vid=f78fd4fb-8ee7-4083-a40b-c012f8f853b8"},"vehicle_type_id":"4","last_reported":1737713359,"current_range_meters":37600,"station_id":"ce4bhr92rcd13ifvqhsg","pricing_plan_id":"cebpf4jnsgd1na2vs0mg"},{"bike_id":"2693e099-578a-4462-b03c-cb6a658dc0f3","system_id":"levelo_inurba_marseille","lat":43.29894,"lon":5.43666,"is_reserved":false,"is_disabled":false,"rental_uris":{"android":"levelo://app?vid=2693e099-578a-4462-b03c-cb6a658dc0f3","ios":"levelo://app?vid=2693e099-578a-4462-b03c-cb6a658dc0f3"},"vehicle_type_id":"4","last_reported":1737713359,"current_range_meters":38800,"station_id":"ce4bhpp2rcd13ifvqhfg","pricing_plan_id":"cebpf4jnsgd1na2vs0mg"},{"bike_id":"43fab1f2-fc5f-4ad2-a40c-6025ddcdd393","system_id":"levelo_inurba_marseille","lat":43.28908,"lon":5.36411,"is_reserved":false,"is_disabled":false,"rental_uris":{"android":"levelo://app?vid=43fab1f2-fc5f-4ad2-a40c-6025ddcdd393","ios":"levelo://app?vid=43fab1f2-fc5f-4ad2-a40c-6025ddcdd393"},"vehicle_type_id":"4","last_reported":1737713359,"current_range_meters":19200,"station_id":"","pricing_plan_id":"cebpf4jnsgd1na2vs0mg"},{"bike_id":"0683b8fa-bf66-4a85-b23f-305b1ef8e2c5","system_id":"levelo_inurba_marseille","lat":43.298908,"lon":5.436734,"is_reserved":false,"is_disabled":false,"rental_uris":{"android":"levelo://app?vid=0683b8fa-bf66-4a85-b23f-305b1ef8e2c5","ios":"levelo://app?vid=0683b8fa-bf66-4a85-b23f-305b1ef8e2c5"},"vehicle_type_id":"4","last_reported":1737713359,"current_range_meters":3200,"station_id":"ce4bhpp2rcd13ifvqhfg","pricing_plan_id":"cebpf4jnsgd1na2vs0mg"},{"bike_id":"6724d907-def9-40c0-b439-a702b1be2699","system_id":"levelo_inurba_marseille","lat":43.31384,"lon":5.36684,"is_reserved":false,"is_disabled":false,"rental_uris":{"android":"levelo://app?vid=6724d907-def9-40c0-b439-a702b1be2699","ios":"levelo://app?vid=6724d907-def9-40c0-b439-a702b1be2699"},"vehicle_type_id":"4","last_reported":1737713359,"current_range_meters":20000,"station_id":"","pricing_plan_id":"cebpf4jnsgd1na2vs0mg"},{"bike_id":"ef1d12bb-1dfe-4c4a-8538-cbf6c4ae9884","system_id":"levelo_inurba_marseille","lat":43.25111,"lon":5.40326,"is_reserved":false,"is_disabled":false,"rental_uris":{"android":"levelo://app?vid=ef1d12bb-1dfe-4c4a-8538-cbf6c4ae9884","ios":"levelo://app?vid=ef1d12bb-1dfe-4c4a-8538-cbf6c4ae9884"},"vehicle_type_id":"4","last_reported":1737713359,"current_range_meters":38800,"station_id":"ce4bhlh2rcd13ifvqgig","pricing_plan_id":"cebpf4jnsgd1na2vs0mg"},{"bike_id":"95c9e731-c839-4725-b03d-9f345f9903c3","system_id":"levelo_inurba_marseille","lat":43.28717,"lon":5.37942,"is_reserved":false,"is_disabled":false,"rental_uris":{"android":"levelo://app?vid=95c9e731-c839-4725-b03d-9f345f9903c3","ios":"levelo://app?vid=95c9e731-c839-4725-b03d-9f345f9903c3"},"vehicle_type_id":"4","last_reported":1737713359,"current_range_meters":38800,"station_id":"ce4bh9p2rcd13ifvqec0","pricing_plan_id":"cebpf4jnsgd1na2vs0mg"},{"bike_id":"55fa9a63-1046-4c0c-8d88-973abc543598","system_id":"levelo_inurba_marseille","lat":43.25031,"lon":5.38953,"is_reserved":false,"is_disabled":false,"rental_uris":{"android":"levelo://app?vid=55fa9a63-1046-4c0c-8d88-973abc543598","ios":"levelo://app?vid=55fa9a63-1046-4c0c-8d88-973abc543598"},"vehicle_type_id":"4","last_reported":1737713359,"current_range_meters":16000,"station_id":"ce4bhgp2rcd13ifvqfd0","pricing_plan_id":"cebpf4jnsgd1na2vs0mg"},{"bike_id":"776e3bd5-52ba-4861-9054-4a287de44a1a","system_id":"levelo_inurba_marseille","lat":43.27407,"lon":5.3936,"is_reserved":false,"is_disabled":false,"rental_uris":{"android":"levelo://app?vid=776e3bd5-52ba-4861-9054-4a287de44a1a","ios":"levelo://app?vid=776e3bd5-52ba-4861-9054-4a287de44a1a"},"vehicle_type_id":"4","last_reported":1737713359,"current_range_meters":30400,"station_id":"ce4bhdp2rcd13ifvqf20","pricing_plan_id":"cebpf4jnsgd1na2vs0mg"},{"bike_id":"1a01aff7-fff2-4217-8aa4-838677373331","system_id":"levelo_inurba_marseille","lat":43.25915,"lon":5.40919,"is_reserved":false,"is_disabled":false,"rental_uris":{"android":"levelo://app?vid=1a01aff7-fff2-4217-8aa4-838677373331","ios":"levelo://app?vid=1a01aff7-fff2-4217-8aa4-838677373331"},"vehicle_type_id":"4","last_reported":1737713359,"current_range_meters":8400,"station_id":"ce4bhm92rcd13ifvqglg","pricing_plan_id":"cebpf4jnsgd1na2vs0mg"},{"bike_id":"675d18a7-0a20-4386-a550-cf7a05c81b73","system_id":"levelo_inurba_marseille","lat":43.29074,"lon":5.37161,"is_reserved":false,"is_disabled":false,"rental_uris":{"android":"levelo://app?vid=675d18a7-0a20-4386-a550-cf7a05c81b73","ios":"levelo://app?vid=675d18a7-0a20-4386-a550-cf7a05c81b73"},"vehicle_type_id":"4","last_reported":1737713359,"current_range_meters":38800,"station_id":"ce4bh5p2rcd13ifvqe4g","pricing_plan_id":"cebpf4jnsgd1na2vs0mg"},{"bike_id":"f3e1e0cc-e386-4335-a525-4da71585ccf5","system_id":"levelo_inurba_marseille","lat":43.32529,"lon":5.41463,"is_reserved":false,"is_disabled":false,"rental_uris":{"android":"levelo://app?vid=f3e1e0cc-e386-4335-a525-4da71585ccf5","ios":"levelo://app?vid=f3e1e0cc-e386-4335-a525-4da71585ccf5"},"vehicle_type_id":"4","last_reported":1737713359,"current_range_meters":6800,"station_id":"ce4bhq12rcd13ifvqhhg","pricing_plan_id":"cebpf4jnsgd1na2vs0mg"},{"bike_id":"cba064fd-960d-49db-9c3e-d44224ddb378","system_id":"levelo_inurba_marseille","lat":43.30952,"lon":5.39039,"is_reserved":false,"is_disabled":false,"rental_uris":{"android":"levelo://app?vid=cba064fd-960d-49db-9c3e-d44224ddb378","ios":"levelo://app?vid=cba064fd-960d-49db-9c3e-d44224ddb378"},"vehicle_type_id":"4","last_reported":1737713359,"current_range_meters":11200,"station_id":"ce4bgup2rcd13ifvqco0","pricing_plan_id":"cebpf4jnsgd1na2vs0mg"},{"bike_id":"6a8a43a8-6ca9-4ca5-8079-ff2d04c51966","system_id":"levelo_inurba_marseille","lat":43.27494,"lon":5.42452,"is_reserved":false,"is_disabled":false,"rental_uris":{"android":"levelo://app?vid=6a8a43a8-6ca9-4ca5-8079-ff2d04c51966","ios":"levelo://app?vid=6a8a43a8-6ca9-4ca5-8079-ff2d04c51966"},"vehicle_type_id":"4","last_reported":1737713359,"current_range_meters":28400,"station_id":"ce4bhn92rcd13ifvqgrg","pricing_plan_id":"cebpf4jnsgd1na2vs0mg"},{"bike_id":"c617128d-a2a6-43a8-97b2-0a53e3467f9f","system_id":"levelo_inurba_marseille","lat":43.29022,"lon":5.39983,"is_reserved":false,"is_disabled":false,"rental_uris":{"android":"levelo://app?vid=c617128d-a2a6-43a8-97b2-0a53e3467f9f","ios":"levelo://app?vid=c617128d-a2a6-43a8-97b2-0a53e3467f9f"},"vehicle_type_id":"4","last_reported":1737713359,"current_range_meters":38800,"station_id":"ce4bh392rcd13ifvqdm0","pricing_plan_id":"cebpf4jnsgd1na2vs0mg"},{"bike_id":"a53e8fc0-7194-4114-b269-1fc7ecd51af7","system_id":"levelo_inurba_marseille","lat":43.29073,"lon":5.37144,"is_reserved":false,"is_disabled":false,"rental_uris":{"android":"levelo://app?vid=a53e8fc0-7194-4114-b269-1fc7ecd51af7","ios":"levelo://app?vid=a53e8fc0-7194-4114-b269-1fc7ecd51af7"},"vehicle_type_id":"4","last_reported":1737713359,"current_range_meters":16400,"station_id":"ce4bh5p2rcd13ifvqe4g","pricing_plan_id":"cebpf4jnsgd1na2vs0mg"},{"bike_id":"f8d8b0b7-a8be-4eb7-a01a-ea4766593c71","system_id":"levelo_inurba_marseille","lat":43.30461,"lon":5.37916,"is_reserved":false,"is_disabled":false,"rental_uris":{"android":"levelo://app?vid=f8d8b0b7-a8be-4eb7-a01a-ea4766593c71","ios":"levelo://app?vid=f8d8b0b7-a8be-4eb7-a01a-ea4766593c71"},"vehicle_type_id":"4","last_reported":1737713359,"current_range_meters":38000,"station_id":"ce4bgup2rcd13ifvqcn0","pricing_plan_id":"cebpf4jnsgd1na2vs0mg"},{"bike_id":"6137de50-75c6-406e-bd6b-a91c9acf8b34","system_id":"levelo_inurba_marseille","lat":43.2742,"lon":5.394185,"is_reserved":false,"is_disabled":false,"rental_uris":{"android":"levelo://app?vid=6137de50-75c6-406e-bd6b-a91c9acf8b34","ios":"levelo://app?vid=6137de50-75c6-406e-bd6b-a91c9acf8b34"},"vehicle_type_id":"4","last_reported":1737713359,"current_range_meters":37600,"station_id":"ce4bhdp2rcd13ifvqf20","pricing_plan_id":"cebpf4jnsgd1na2vs0mg"},{"bike_id":"a601e534-93bb-431d-9450-fb6c6c6a0b5d","system_id":"levelo_inurba_marseille","lat":43.30255,"lon":5.37747,"is_reserved":false,"is_disabled":false,"rental_uris":{"android":"levelo://app?vid=a601e534-93bb-431d-9450-fb6c6c6a0b5d","ios":"levelo://app?vid=a601e534-93bb-431d-9450-fb6c6c6a0b5d"},"vehicle_type_id":"4","last_reported":1737713359,"current_range_meters":38800,"station_id":"ce4bguh2rcd13ifvqcj0","pricing_plan_id":"cebpf4jnsgd1na2vs0mg"},{"bike_id":"672ac2db-9a65-4459-b513-eab28cc75d7f","system_id":"levelo_inurba_marseille","lat":43.27493,"lon":5.4245,"is_reserved":false,"is_disabled":false,"rental_uris":{"android":"levelo://app?vid=672ac2db-9a65-4459-b513-eab28cc75d7f","ios":"levelo://app?vid=672ac2db-9a65-4459-b513-eab28cc75d7f"},"vehicle_type_id":"4","last_reported":1737713359,"current_range_meters":38800,"station_id":"ce4bhn92rcd13ifvqgrg","pricing_plan_id":"cebpf4jnsgd1na2vs0mg"},{"bike_id":"db691793-afa9-4326-8e6a-c3d87dd107a8","system_id":"levelo_inurba_marseille","lat":43.28461,"lon":5.35885,"is_reserved":false,"is_disabled":false,"rental_uris":{"android":"levelo://app?vid=db691793-afa9-4326-8e6a-c3d87dd107a8","ios":"levelo://app?vid=db691793-afa9-4326-8e6a-c3d87dd107a8"},"vehicle_type_id":"4","last_reported":1737713359,"current_range_meters":26800,"station_id":"ce4bhah2rcd13ifvqei0","pricing_plan_id":"cebpf4jnsgd1na2vs0mg"},{"bike_id":"ab8668bb-d9e1-4d9b-8f02-f4c60e8b8560","system_id":"levelo_inurba_marseille","lat":43.30876,"lon":5.39651,"is_reserved":false,"is_disabled":false,"rental_uris":{"android":"levelo://app?vid=ab8668bb-d9e1-4d9b-8f02-f4c60e8b8560","ios":"levelo://app?vid=ab8668bb-d9e1-4d9b-8f02-f4c60e8b8560"},"vehicle_type_id":"4","last_reported":1737713359,"current_range_meters":20400,"station_id":"ce4bh012rcd13ifvqcv0","pricing_plan_id":"cebpf4jnsgd1na2vs0mg"},{"bike_id":"3530e1b0-6762-4cfd-8a4e-5635fcbed9b4","system_id":"levelo_inurba_marseille","lat":43.27373,"lon":5.36262,"is_reserved":false,"is_disabled":false,"rental_uris":{"android":"levelo://app?vid=3530e1b0-6762-4cfd-8a4e-5635fcbed9b4","ios":"levelo://app?vid=3530e1b0-6762-4cfd-8a4e-5635fcbed9b4"},"vehicle_type_id":"4","last_reported":1737713359,"current_range_meters":22000,"station_id":"ce4bhbh2rcd13ifvqeo0","pricing_plan_id":"cebpf4jnsgd1na2vs0mg"},{"bike_id":"47c50822-e53e-4206-86ae-fe935e102ea1","system_id":"levelo_inurba_marseille","lat":43.29035,"lon":5.40011,"is_reserved":false,"is_disabled":false,"rental_uris":{"android":"levelo://app?vid=47c50822-e53e-4206-86ae-fe935e102ea1","ios":"levelo://app?vid=47c50822-e53e-4206-86ae-fe935e102ea1"},"vehicle_type_id":"4","last_reported":1737713359,"current_range_meters":25200,"station_id":"ce4bh392rcd13ifvqdm0","pricing_plan_id":"cebpf4jnsgd1na2vs0mg"},{"bike_id":"4c4f250f-bd2f-4d27-9cb0-9af1e3584693","system_id":"levelo_inurba_marseille","lat":43.26673,"lon":5.38266,"is_reserved":false,"is_disabled":false,"rental_uris":{"android":"levelo://app?vid=4c4f250f-bd2f-4d27-9cb0-9af1e3584693","ios":"levelo://app?vid=4c4f250f-bd2f-4d27-9cb0-9af1e3584693"},"vehicle_type_id":"4","last_reported":1737713359,"current_range_meters":38800,"station_id":"ce4bhg92rcd13ifvqf90","pricing_plan_id":"cebpf4jnsgd1na2vs0mg"},