{"last_updated":1748084844,"ttl":60,"version":"2.2","data":{"bikes":[{"bike_id":"3c0ee1f8-f581-499c-bfe9-4bc8727ee38b","system_id":"levelo_inurba_marseille","lat":43.232013,"lon":5.43648,"is_reserved":false,"is_disabled":false,"rental_uris":{"android":"levelo://app?vid=3c0ee1f8-f581-499c-bfe9-4bc8727ee38b","ios":"levelo://app?vid=3c0ee1f8-f581-499c-bfe9-4bc8727ee38b"},"vehicle_type_id":"4","last_reported":1748084844,"current_range_meters":2800,"station_id":"","pricing_plan_id":"cebpf4jnsgd1na2vs0mg"},{"bike_id":"ea660bde-a504-4e2a-83fe-7f0975b9ee44","system_id":"levelo_inurba_marseille","lat":43.25875,"lon":5.39886,"is_reserved":false,"is_disabled":false,"rental_uris":{"android":"levelo://app?vid=ea660bde-a504-4e2a-83fe-7f0975b9ee44","ios":"levelo://app?vid=ea660bde-a504-4e2a-83fe-7f0975b9ee44"},"vehicle_type_id":"4","last_reported":1748084844,"current_range_meters":3200,"station_id":"ce4bhl92rcd13ifvqghg","pricing_plan_id":"cebpf4jnsgd1na2vs0mg"},{"bike_id":"1683889b-f6e9-46b6-abf5-204b3fc77132","system_id":"levelo_inurba_marseille","lat":43.29229,"lon":5.36055,"is_reserved":false,"is_disabled":false,"rental_uris":{"android":"levelo://app?vid=1683889b-f6e9-46b6-abf5-204b3fc77132","ios":"levelo://app?vid=1683889b-f6e9-46b6-abf5-204b3fc77132"},"vehicle_type_id":"4","last_reported":1748084844,"current_range_meters":3200,"station_id":"ce4bhbh2rcd13ifvqeqg","pricing_plan_id":"cebpf4jnsgd1na2vs0mg"},{"bike_id":"c7d81e91-7644-4c90-b035-9fc838afd42b","system_id":"levelo_inurba_marseille","lat":43.24387,"lon":5.37061,"is_reserved":false,"is_disabled":false,"rental_uris":{"android":"levelo://app?vid=c7d81e91-7644-4c90-b035-9fc838afd42b","ios":"levelo://app?vid=c7d81e91-7644-4c90-b035-9fc838afd42b"},"vehicle_type_id":"4","last_reported":1748084844,"current_range_meters":3200,"station_id":"ce4bhhh2rcd13ifvqfk0","pricing_plan_id":"cebpf4jnsgd1na2vs0mg"},{"bike_id":"bee1e79c-7807-4a69-a4ba-89323d1d852e","system_id":"levelo_inurba_marseille","lat":43.30503,"lon":5.3682,"is_reserved":false,"is_disabled":false,"rental_uris":{"android":"levelo://app?vid=bee1e79c-7807-4a69-a4ba-89323d1d852e","ios":"levelo://app?vid=bee1e79c-7807-4a69-a4ba-89323d1d852e"},"vehicle_type_id":"4","last_reported":1748084844,"current_range_meters":3200,"station_id":"","pricing_plan_id":"cebpf4jnsgd1na2vs0mg"},{"bike_id":"b2969ac0-e64d-4fcf-8dd2-74193cedd97e","system_id":"levelo_inurba_marseille","lat":43.3048,"lon":5.37909,"is_reserved":false,"is_disabled":false,"rental_uris":{"android":"levelo://app?vid=b2969ac0-e64d-4fcf-8dd2-74193cedd97e","ios":"levelo://app?vid=b2969ac0-e64d-4fcf-8dd2-74193cedd97e"},"vehicle_type_id":"4","last_reported":1748084844,"current_range_meters":2800,"station_id":"ce4bgup2rcd13ifvqcn0","pricing_plan_id":"cebpf4jnsgd1na2vs0mg"},{"bike_id":"06f95b26-70da-4673-bce6-f98f741b200c","system_id":"levelo_inurba_marseille","lat":43.29006,"lon":5.38137,"is_reserved":false,"is_disabled":false,"rental_uris":{"android":"levelo://app?vid=06f95b26-70da-4673-bce6-f98f741b200c","ios":"levelo://app?vid=06f95b26-70da-4673-bce6-f98f741b200c"},"vehicle_type_id":"4","last_reported":1748084844,"current_range_meters":3200,"station_id":"ce4bh4p2rcd13ifvqe1g","pricing_plan_id":"cebpf4jnsgd1na2vs0mg"},{"bike_id":"156061dd-ee6d-4f1b-be7a-f8e5bb67cb9b","system_id":"levelo_inurba_marseille","lat":43.27368,"lon":5.36241,"is_reserved":false,"is_disabled":false,"rental_uris":{"android":"levelo://app?vid=156061dd-ee6d-4f1b-be7a-f8e5bb67cb9b","ios":"levelo://app?vid=156061dd-ee6d-4f1b-be7a-f8e5bb67cb9b"},"vehicle_type_id":"4","last_reported":1748084844,"current_range_meters":3200,"station_id":"ce4bhbh2rcd13ifvqeo0","pricing_plan_id":"cebpf4jnsgd1na2vs0mg"},{"bike_id":"eeb11317-2964-4471-a619-853472e45acf","system_id":"levelo_inurba_marseille","lat":43.2316,"lon":5.43714,"is_reserved":false,"is_disabled":false,"rental_uris":{"android":"levelo://app?vid=eeb11317-2964-4471-a619-853472e45acf","ios":"levelo://app?vid=eeb11317-2964-4471-a619-853472e45acf"},"vehicle_type_id":"4","last_reported":1748084844,"current_range_meters":3600,"station_id":"ce4bhmp2rcd13ifvqgog","pricing_plan_id":"cebpf4jnsgd1na2vs0mg"},{"bike_id":"7b4361cf-2bb3-4038-9f06-54aaa9de58e9","system_id":"levelo_inurba_marseille","lat":43.30241,"lon":5.40062,"is_reserved":false,"is_disabled":false,"rental_uris":{"android":"levelo://app?vid=7b4361cf-2bb3-4038-9f06-54aaa9de58e9","ios":"levelo://app?vid=7b4361cf-2bb3-4038-9f06-54aaa9de58e9"},"vehicle_type_id":"4","last_reported":1748084844,"current_range_meters":3200,"station_id":"ce4bgvh2rcd13ifvqcs0","pricing_plan_id":"cebpf4jnsgd1na2vs0mg"},{"bike_id":"637a1ba8-1c3f-431d-8973-3ba0e6648fc3","system_id":"levelo_inurba_marseille","lat":43.284149,"lon":5.349759,"is_reserved":false,"is_disabled":false,"rental_uris":{"android":"levelo://app?vid=637a1ba8-1c3f-431d-8973-3ba0e6648fc3","ios":"levelo://app?vid=637a1ba8-1c3f-431d-8973-3ba0e6648fc3"},"vehicle_type_id":"4","last_reported":1748084844,"current_range_meters":3600,"station_id":"ce4bhbh2rcd13ifvqepg","pricing_plan_id":"cebpf4jnsgd1na2vs0mg"},{"bike_id":"6df43fae-0caa-428d-b1a9-93c58a9e5179","system_id":"levelo_inurba_marseille","lat":43.28286,"lon":5.35069,"is_reserved":false,"is_disabled":false,"rental_uris":{"android":"levelo://app?vid=6df43fae-0caa-428d-b1a9-93c58a9e5179","ios":"levelo://app?vid=6df43fae-0caa-428d-b1a9-93c58a9e5179"},"vehicle_type_id":"4","last_reported":1748084844,"current_range_meters":4000,"station_id":"ce4bhbp2rcd13ifvqerg","pricing_plan_id":"cebpf4jnsgd1na2vs0mg"},{"bike_id":"1f9eea13-5be2-4c61-91b5-49797e3c82ea","system_id":"levelo_inurba_marseille","lat":43.28267,"lon":5.35064,"is_reserved":false,"is_disabled":false,"rental_uris":{"android":"levelo://app?vid=1f9eea13-5be2-4c61-91b5-49797e3c82ea","ios":"levelo://app?vid=1f9eea13-5be2-4c61-91b5-49797e3c82ea"},"vehicle_type_id":"4","last_reported":1748084844,"current_range_meters":4000,"station_id":"","pricing_plan_id":"cebpf4jnsgd1na2vs0mg"},{"bike_id":"c0460b66-d1ff-4972-93f7-49bfc9f4eaf8","system_id":"levelo_inurba_marseille","lat":43.31995,"lon":5.38157,"is_reserved":false,"is_disabled":false,"rental_uris":{"android":"levelo://app?vid=c0460b66-d1ff-4972-93f7-49bfc9f4eaf8","ios":"levelo://app?vid=c0460b66-d1ff-4972-93f7-49bfc9f4eaf8"},"vehicle_type_id":"4","last_reported":1748084844,"current_range_meters":4000,"station_id":"ce4bhr12rcd13ifvqhpg","pricing_plan_id":"cebpf4jnsgd1na2vs0mg"},{"bike_id":"7dfdfdc8-9c79-46b6-9a4b-924773b53f29","system_id":"levelo_inurba_marseille","lat":43.26882,"lon":5.3916,"is_reserved":false,"is_disabled":false,"rental_uris":{"android":"levelo://app?vid=7dfdfdc8-9c79-46b6-9a4b-924773b53f29","ios":"levelo://app?vid=7dfdfdc8-9c79-46b6-9a4b-924773b53f29"},"vehicle_type_id":"4","last_reported":1748084844,"current_range_meters":4000,"station_id":"","pricing_plan_id":"cebpf4jnsgd1na2vs0mg"},{"bike_id":"642cb7b7-e7c4-4185-b975-0e4bd47c9f56","system_id":"levelo_inurba_marseille","lat":43.2559,"lon":5.38235,"is_reserved":false,"is_disabled":false,"rental_uris":{"android":"levelo://app?vid=642cb7b7-e7c4-4185-b975-0e4bd47c9f56","ios":"levelo://app?vid=642cb7b7-e7c4-4185-b975-0e4bd47c9f56"},"vehicle_type_id":"4","last_reported":1748084844,"current_range_meters":4000,"station_id":"ce4bhih2rcd13ifvqfs0","pricing_plan_id":"cebpf4jnsgd1na2vs0mg"},{"bike_id":"46e69b9d-d4dc-4b0a-892a-f2eeb48e6db5","system_id":"levelo_inurba_marseille","lat":43.292713,"lon":5.368382,"is_reserved":false,"is_disabled":false,"rental_uris":{"android":"levelo://app?vid=46e69b9d-d4dc-4b0a-892a-f2eeb48e6db5","ios":"levelo://app?vid=46e69b9d-d4dc-4b0a-892a-f2eeb48e6db5"},"vehicle_type_id":"4","last_reported":1748084844,"current_range_meters":4400,"station_id":"ce4bhbp2rcd13ifvqesg","pricing_plan_id":"cebpf4jnsgd1na2vs0mg"},{"bike_id":"e2d341e1-0789-46d1-be25-3abcb6af9d9e","system_id":"levelo_inurba_marseille","lat":43.22938,"lon":5.35358,"is_reserved":false,"is_disabled":false,"rental_uris":{"android":"levelo://app?vid=e2d341e1-0789-46d1-be25-3abcb6af9d9e","ios":"levelo://app?vid=e2d341e1-0789-46d1-be25-3abcb6af9d9e"},"vehicle_type_id":"4","last_reported":1748084844,"current_range_meters":4400,"station_id":"cpo3532slgdg3j2ikp40","pricing_plan_id":"cebpf4jnsgd1na2vs0mg"},{"bike_id":"ae5118b2-34b2-4d6c-8f2f-5ec3cd71528f","system_id":"levelo_inurba_marseille","lat":43.23193,"lon":5.35557,"is_reserved":false,"is_disabled":false,"rental_uris":{"android":"levelo://app?vid=ae5118b2-34b2-4d6c-8f2f-5ec3cd71528f","ios":"levelo://app?vid=ae5118b2-34b2-4d6c-8f2f-5ec3cd71528f"},"vehicle_type_id":"4","last_reported":1748084844,"current_range_meters":4400,"station_id":"ce4bhu92rcd13ifvqi70","pricing_plan_id":"cebpf4jnsgd1na2vs0mg"},{"bike_id":"7261e966-a507-4c4b-9cfa-6c022343145c","system_id":"levelo_inurba_marseille","lat":43.23147,"lon":5.43713,"is_reserved":false,"is_disabled":false,"rental_uris":{"android":"levelo://app?vid=7261e966-a507-4c4b-9cfa-6c022343145c","ios":"levelo://app?vid=7261e966-a507-4c4b-9cfa-6c022343145c"},"vehicle_type_id":"4","last_reported":1748084844,"current_range_meters":4400,"station_id":"ce4bhmp2rcd13ifvqgog","pricing_plan_id":"cebpf4jnsgd1na2vs0mg"},{"bike_id":"0a468410-ebf7-4475-9053-d7c48e49467c","system_id":"levelo_inurba_marseille","lat":43.24548,"lon":5.39523,"is_reserved":false,"is_disabled":false,"rental_uris":{"android":"levelo://app?vid=0a468410-ebf7-4475-9053-d7c48e49467c","ios":"levelo://app?vid=0a468410-ebf7-4475-9053-d7c48e49467c"},"vehicle_type_id":"4","last_reported":1748084844,"current_range_meters":4400,"station_id":"ce4bhlp2rcd13ifvqgjg","pricing_plan_id":"cebpf4jnsgd1na2vs0mg"},{"bike_id":"4f97bde3-5000-43d8-9008-47962fd13854","system_id":"levelo_inurba_marseille","lat":43.29527,"lon":5.38532,"is_reserved":false,"is_disabled":false,"rental_uris":{"android":"levelo://app?vid=4f97bde3-5000-43d8-9008-47962fd13854","ios":"levelo://app?vid=4f97bde3-5000-43d8-9008-47962fd13854"},"vehicle_type_id":"4","last_reported":1748084844,"current_range_meters":4400,"station_id":"ce4bgih2rcd13ifvqba0","pricing_plan_id":"cebpf4jnsgd1na2vs0mg"},{"bike_id":"71fdc692-9ba0-41ba-90e9-1d3d411aabce","system_id":"levelo_inurba_marseille","lat":43.28616,"lon":5.35104,"is_reserved":false,"is_disabled":false,"rental_uris":{"android":"levelo://app?vid=71fdc692-9ba0-41ba-90e9-1d3d411aabce","ios":"levelo://app?vid=71fdc692-9ba0-41ba-90e9-1d3d411aabce"},"vehicle_type_id":"4","last_reported":1748084844,"current_range_meters":4400,"station_id":"ce4bhch2rcd13ifvqeug","pricing_plan_id":"cebpf4jnsgd1na2vs0mg"},{"bike_id":"d222fed2-2bba-4995-9b1f-a47595733051","system_id":"levelo_inurba_marseille","lat":43.28338,"lon":5.381018,"is_reserved":false,"is_disabled":true,"rental_uris":{"android":"levelo://app?vid=d222fed2-2bba-4995-9b1f-a47595733051","ios":"levelo://app?vid=d222fed2-2bba-4995-9b1f-a47595733051"},"vehicle_type_id":"4","last_reported":1748084844,"current_range_meters":4400,"station_id":"ce4bh412rcd13ifvqdr0","pricing_plan_id":"cebpf4jnsgd1na2vs0mg"},{"bike_id":"3c41c67a-7377-41cb-a17d-4bf98015b5b5","system_id":"levelo_inurba_marseille","lat":43.25598,"lon":5.382363,"is_reserved":false,"is_disabled":false,"rental_uris":{"android":"levelo://app?vid=3c41c67a-7377-41cb-a17d-4bf98015b5b5","ios":"levelo://app?vid=3c41c67a-7377-41cb-a17d-4bf98015b5b5"},"vehicle_type_id":"4","last_reported":1748084844,"current_range_meters":4400,"station_id":"ce4bhih2rcd13ifvqfs0","pricing_plan_id":"cebpf4jnsgd1na2vs0mg"},{"bike_id":"30a0009c-60bf-4874-a9fb-9da4dd3cb21b","system_id":"levelo_inurba_marseille","lat":43.2417,"lon":5.36389,"is_reserved":false,"is_disabled":false,"rental_uris":{"android":"levelo://app?vid=30a0009c-60bf-4874-a9fb-9da4dd3cb21b","ios":"levelo://app?vid=30a0009c-60bf-4874-a9fb-9da4dd3cb21b"},"vehicle_type_id":"4","last_reported":1748084844,"current_range_meters":4400,"station_id":"cpo36qri1sfpv3e86is0","pricing_plan_id":"cebpf4jnsgd1na2vs0mg"},{"bike_id":"41f695d5-fa04-4e85-8b6e-56cefc114380","system_id":"levelo_inurba_marseille","lat":43.27824,"lon":5.36271,"is_reserved":false,"is_disabled":false,"rental_uris":{"android":"levelo://app?vid=41f695d5-fa04-4e85-8b6e-56cefc114380","ios":"levelo://app?vid=41f695d5-fa04-4e85-8b6e-56cefc114380"},"vehicle_type_id":"4","last_reported":1748084844,"current_range_meters":4400,"station_id":"","pricing_plan_id":"cebpf4jnsgd1na2vs0mg"},{"bike_id":"900926bd-c178-4fb1-9ad6-ba459192fc5c","system_id":"levelo_inurba_marseille","lat":43.241628,"lon":5.36405,"is_reserved":false,"is_disabled":false,"rental_uris":{"android":"levelo://app?vid=900926bd-c178-4fb1-9ad6-ba459192fc5c","ios":"levelo://app?vid=900926bd-c178-4fb1-9ad6-ba459192fc5c"},"vehicle_type_id":"4","last_reported":1748084844,"current_range_meters":4800,"station_id":"cpo36qri1sfpv3e86is0","pricing_plan_id":"cebpf4jnsgd1na2vs0mg"},{"bike_id":"e6fa4523-0292-4bbe-80f6-dccbd1be53bf","system_id":"levelo_inurba_marseille","lat":43.29274,"lon":5.36846,"is_reserved":false,"is_disabled":false,"rental_uris":{"android":"levelo://app?vid=e6fa4523-0292-4bbe-80f6-dccbd1be53bf","ios":"levelo://app?vid=e6fa4523-0292-4bbe-80f6-dccbd1be53bf"},"vehicle_type_id":"4","last_reported":1748084844,"current_range_meters":4800,"station_id":"ce4bhbp2rcd13ifvqesg","pricing_plan_id":"cebpf4jnsgd1na2vs0mg"},{"bike_id":"941a62f5-1f28-44dc-9533-56459a3fca8b","system_id":"levelo_inurba_marseille","lat":43.25507,"lon":5.37643,"is_reserved":false,"is_disabled":false,"rental_uris":{"android":"levelo://app?vid=941a62f5-1f28-44dc-9533-56459a3fca8b","ios":"levelo://app?vid=941a62f5-1f28-44dc-9533-56459a3fca8b"},"vehicle_type_id":"4","last_reported":1748084844,"current_range_meters":5600,"station_id":"ce4bhh12rcd13ifvqff0","pricing_plan_id":"cebpf4jnsgd1na2vs0mg"},{"bike_id":"ebe8fe59-b825-4fbe-b007-f5df100079d1","system_id":"levelo_inurba_marseille","lat":43.28255,"lon":5.35063,"is_reserved":false,"is_disabled":false,"rental_uris":{"android":"levelo://app?vid=ebe8fe59-b825-4fbe-b007-f5df100079d1","ios":"levelo://app?vid=ebe8fe59-b825-4fbe-b007-f5df100079d1"},"vehicle_type_id":"4","last_reported":1748084844,"current_range_meters":5600,"station_id":"ce4bhbp2rcd13ifvqerg","pricing_plan_id":"cebpf4jnsgd1na2vs0mg"},{"bike_id":"961131e8-cc7c-49d8-a136-73080ced3b3d","system_id":"levelo_inurba_marseille","lat":43.28612,"lon":5.35097,"is_reserved":false,"is_disabled":false,"rental_uris":{"android":"levelo://app?vid=961131e8-cc7c-49d8-a136-73080ced3b3d","ios":"levelo://app?vid=961131e8-cc7c-49d8-a136-73080ced3b3d"},"vehicle_type_id":"4","last_reported":1748084844,"current_range_meters":5600,"station_id":"ce4bhch2rcd13ifvqeug","pricing_plan_id":"cebpf4jnsgd1na2vs0mg"},{"bike_id":"7bb76d85-7067-4080-8295-481c4317a373","system_id":"levelo_inurba_marseille","lat":43.23971,"lon":5.36628,"is_reserved":false,"is_disabled":false,"rental_uris":{"android":"levelo://app?vid=7bb76d85-7067-4080-8295-481c4317a373","ios":"levelo://app?vid=7bb76d85-7067-4080-8295-481c4317a373"},"vehicle_type_id":"4","last_reported":1748084844,"current_range_meters":6000,"station_id":"ce4bhi12rcd13ifvqfp0","pricing_plan_id":"cebpf4jnsgd1na2vs0mg"},{"bike_id":"c139e568-30e4-4816-a4d0-47133acc2e30","system_id":"levelo_inurba_marseille","lat":43.312856,"lon":5.368481,"is_reserved":false,"is_disabled":false,"rental_uris":{"android":"levelo://app?vid=c139e568-30e4-4816-a4d0-47133acc2e30","ios":"levelo://app?vid=c139e568-30e4-4816-a4d0-47133acc2e30"},"vehicle_type_id":"4","last_reported":1748084844,"current_range_meters":6000,"station_id":"","pricing_plan_id":"cebpf4jnsgd1na2vs0mg"},{"bike_id":"f8c02a1b-6050-4da8-acbe-c562df6b45d4","system_id":"levelo_inurba_marseille","lat":43.21751,"lon":5.34607,"is_reserved":false,"is_disabled":false,"rental_uris":{"android":"levelo://app?vid=f8c02a1b-6050-4da8-acbe-c562df6b45d4","ios":"levelo://app?vid=f8c02a1b-6050-4da8-acbe-c562df6b45d4"},"vehicle_type_id":"4","last_reported":1748084844,"current_range_meters":6400,"station_id":"st_cvj6r9ubvosntc0bgbag","pricing_plan_id":"cebpf4jnsgd1na2vs0mg"},{"bike_id":"1585713a-27a0-452c-8afb-7a749a34d12b","system_id":"levelo_inurba_marseille","lat":43.30479,"lon":5.37921,"is_reserved":false,"is_disabled":false,"rental_uris":{"android":"levelo://app?vid=1585713a-27a0-452c-8afb-7a749a34d12b","ios":"levelo://app?vid=1585713a-27a0-452c-8afb-7a749a34d12b"},"vehicle_type_id":"4","last_reported":1748084844,"current_range_meters":6400,"station_id":"ce4bgup2rcd13ifvqcn0","pricing_plan_id":"cebpf4jnsgd1na2vs0mg"},{"bike_id":"619d9fa8-459d-42f1-93ce-9b4f05153aa7","system_id":"levelo_inurba_marseille","lat":43.28508,"lon":5.39147,"is_reserved":false,"is_disabled":false,"rental_uris":{"android":"levelo://app?vid=619d9fa8-459d-42f1-93ce-9b4f05153aa7","ios":"levelo://app?vid=619d9fa8-459d-42f1-93ce-9b4f05153aa7"},"vehicle_type_id":"4","last_reported":1748084844,"current_range_meters":6400,"station_id":"","pricing_plan_id":"cebpf4jnsgd1na2vs0mg"},{"bike_id":"56294843-7dc8-4ec3-8795-2f3d325c1fc5","system_id":"levelo_inurba_marseille","lat":43.26255,"lon":5.41285,"is_reserved":false,"is_disabled":false,"rental_uris":{"android":"levelo://app?vid=56294843-7dc8-4ec3-8795-2f3d325c1fc5","ios":"levelo://app?vid=56294843-7dc8-4ec3-8795-2f3d325c1fc5"},"vehicle_type_id":"4","last_reported":1748084844,"current_range_meters":6400,"station_id":"","pricing_plan_id":"cebpf4jnsgd1na2vs0mg"},{"bike_id":"a11991fb-9622-4d77-b88c-cb9e026dbeaa","system_id":"levelo_inurba_marseille","lat":43.26804,"lon":5.40266,"is_reserved":false,"is_disabled":false,"rental_uris":{"android":"levelo://app?vid=a11991fb-9622-4d77-b88c-cb9e026dbeaa","ios":"levelo://app?vid=a11991fb-9622-4d77-b88c-cb9e026dbeaa"},"vehicle_type_id":"4","last_reported":1748084844,"current_range_meters":6400,"station_id":"ce501612rcd8frsf0b60","pricing_plan_id":"cebpf4jnsgd1na2vs0mg"},{"bike_id":"1dddbd45-46b4-46af-a159-f5d8392f6c7d","system_id":"levelo_inurba_marseille","lat":43.24167,"lon":5.36402,"is_reserved":false,"is_disabled":false,"rental_uris":{"android":"levelo://app?vid=1dddbd45-46b4-46af-a159-f5d8392f6c7d","ios":"levelo://app?vid=1dddbd45-46b4-46af-a159-f5d8392f6c7d"},"vehicle_type_id":"4","last_reported":1748084844,"current_range_meters":6400,"station_id":"cpo36qri1sfpv3e86is0","pricing_plan_id":"cebpf4jnsgd1na2vs0mg"},{"bike_id":"a5e00525-4bff-4980-b92f-5d7869489908","system_id":"levelo_inurba_marseille","lat":43.24548,"lon":5.3952,"is_reserved":false,"is_disabled":false,"rental_uris":{"android":"levelo://app?vid=a5e00525-4bff-4980-b92f-5d7869489908","ios":"levelo://app?vid=a5e00525-4bff-4980-b92f-5d7869489908"},"vehicle_type_id":"4","last_reported":1748084844,"current_range_meters":6400,"station_id":"ce4bhlp2rcd13ifvqgjg","pricing_plan_id":"cebpf4jnsgd1na2vs0mg"},{"bike_id":"12d33206-ea21-4880-921d-41fcfdf53726","system_id":"levelo_inurba_marseille","lat":43.25715,"lon":5.41123,"is_reserved":false,"is_disabled":false,"rental_uris":{"android":"levelo://app?vid=12d33206-ea21-4880-921d-41fcfdf53726","ios":"levelo://app?vid=12d33206-ea21-4880-921d-41fcfdf53726"},"vehicle_type_id":"4","last_reported":1748084844,"current_range_meters":6400,"station_id":"ce4bhkp2rcd13ifvqgd0","pricing_plan_id":"cebpf4jnsgd1na2vs0mg"},{"bike_id":"21d73f39-bce3-450b-ad11-00ab222e8b72","system_id":"levelo_inurba_marseille","lat":43.29788,"lon":5.39347,"is_reserved":false,"is_disabled":false,"rental_uris":{"android":"levelo://app?vid=21d73f39-bce3-450b-ad11-00ab222e8b72","ios":"levelo://app?vid=21d73f39-bce3-450b-ad11-00ab222e8b72"},"vehicle_type_id":"4","last_reported":1748084844,"current_range_meters":6400,"station_id":"chh1huq6cuj3fo74tm60","pricing_plan_id":"cebpf4jnsgd1na2vs0mg"},{"bike_id":"b275b07d-d71e-4eaf-be95-d4d2b9133d74","system_id":"levelo_inurba_marseille","lat":43.27065,"lon":5.40268,"is_reserved":false,"is_disabled":false,"rental_uris":{"android":"levelo://app?vid=b275b07d-d71e-4eaf-be95-d4d2b9133d74","ios":"levelo://app?vid=b275b07d-d71e-4eaf-be95-d4d2b9133d74"},"vehicle_type_id":"4","last_reported":1748084844,"current_range_meters":6400,"station_id":"ce4bhk92rcd13ifvqgc0","pricing_plan_id":"cebpf4jnsgd1na2vs0mg"},{"bike_id":"cd2e1dc4-1c19-420f-b06d-e1e664d3c7f5","system_id":"levelo_inurba_marseille","lat":43.28626,"lon":5.35097,"is_reserved":false,"is_disabled":true,"rental_uris":{"android":"levelo://app?vid=cd2e1dc4-1c19-420f-b06d-e1e664d3c7f5","ios":"levelo://app?vid=cd2e1dc4-1c19-420f-b06d-e1e664d3c7f5"},"vehicle_type_id":"4","last_reported":1748084844,"current_range_meters":6800,"station_id":"ce4bhch2rcd13ifvqeug","pricing_plan_id":"cebpf4jnsgd1na2vs0mg"},{"bike_id":"aaffd52c-bb7d-4832-bee6-d0a27ec0df4d","system_id":"levelo_inurba_marseille","lat":43.28264,"lon":5.3507,"is_reserved":false,"is_disabled":false,"rental_uris":{"android":"levelo://app?vid=aaffd52c-bb7d-4832-bee6-d0a27ec0df4d","ios":"levelo://app?vid=aaffd52c-bb7d-4832-bee6-d0a27ec0df4d"},"vehicle_type_id":"4","last_reported":1748084844,"current_range_meters":6800,"station_id":"ce4bhbp2rcd13ifvqerg","pricing_plan_id":"cebpf4jnsgd1na2vs0mg"},{"bike_id":"4c964f5d-e069-4f21-b01b-d956923b5719","system_id":"levelo_inurba_marseille","lat":43.231843,"lon":5.399974,"is_reserved":false,"is_disabled":false,"rental_uris":{"android":"levelo://app?vid=4c964f5d-e069-4f21-b01b-d956923b5719","ios":"levelo://app?vid=4c964f5d-e069-4f21-b01b-d956923b5719"},"vehicle_type_id":"4","last_reported":1748084844,"current_range_meters":6800,"station_id":"ce4bhn12rcd13ifvqgqg","pricing_plan_id":"cebpf4jnsgd1na2vs0mg"},{"bike_id":"c17221d9-ee8e-4fe1-83c7-b8e2f74c4b4d","system_id":"levelo_inurba_marseille","lat":43.21748,"lon":5.34602,"is_reserved":false,"is_disabled":false,"rental_uris":{"android":"levelo://app?vid=c17221d9-ee8e-4fe1-83c7-b8e2f74c4b4d","ios":"levelo://app?vid=c17221d9-ee8e-4fe1-83c7-b8e2f74c4b4d"},"vehicle_type_id":"4","last_reported":1748084844,"current_range_meters":6800,"station_id":"st_cvj6r9ubvosntc0bgbag","pricing_plan_id":"cebpf4jnsgd1na2vs0mg"},{"bike_id":"93a11484-7612-4fe7-94a8-399f14fc78c6","system_id":"levelo_inurba_marseille","lat":43.27374,"lon":5.36252,"is_reserved":false,"is_disabled":false,"rental_uris":{"android":"levelo://app?vid=93a11484-7612-4fe7-94a8-399f14fc78c6","ios":"levelo://app?vid=93a11484-7612-4fe7-94a8-399f14fc78c6"},"vehicle_type_id":"4","last_reported":1748084844,"current_range_meters":6800,"station_id":"ce4bhbh2rcd13ifvqeo0","pricing_plan_id":"cebpf4jnsgd1na2vs0mg"},{"bike_id":"d3442389-9735-4568-8f47-c4651fa5ee09","system_id":"levelo_inurba_marseille","lat":43.30804,"lon":5.43521,"is_reserved":false,"is_disabled":false,"rental_uris":{"android":"levelo://app?vid=d3442389-9735-4568-8f47-c4651fa5ee09","ios":"levelo://app?vid=d3442389-9735-4568-8f47-c4651fa5ee09"},"vehicle_type_id":"4","last_reported":1748084844,"current_range_meters":6800,"station_id":"ce4bhph2rcd13ifvqheg","pricing_plan_id":"cebpf4jnsgd1na2vs0mg"},{"bike_id":"4cf28e08-80fc-4aa2-a4a6-103e94b1038c","system_id":"levelo_inurba_marseille","lat":43.22933,"lon":5.35368,"is_reserved":false,"is_disabled":false,"rental_uris":{"android":"levelo://app?vid=4cf28e08-80fc-4aa2-a4a6-103e94b1038c","ios":"levelo://app?vid=4cf28e08-80fc-4aa2-a4a6-103e94b1038c"},"vehicle_type_id":"4","last_reported":1748084844,"current_range_meters":6800,"station_id":"cpo3532slgdg3j2ikp40","pricing_plan_id":"cebpf4jnsgd1na2vs0mg"},{"bike_id":"7097370e-7a0d-4e71-be27-a879020555f9","system_id":"levelo_inurba_marseille","lat":43.2805,"lon":5.39703,"is_reserved":false,"is_disabled":false,"rental_uris":{"android":"levelo://app?vid=7097370e-7a0d-4e71-be27-a879020555f9","ios":"levelo://app?vid=7097370e-7a0d-4e71-be27-a879020555f9"},"vehicle_type_id":"4","last_reported":1748084844,"current_range_meters":7200,"station_id":"ce4bho12rcd13ifvqh2g","pricing_plan_id":"cebpf4jnsgd1na2vs0mg"},{"bike_id":"13992c98-3a55-4834-8e10-ed799204425d","system_id":"levelo_inurba_marseille","lat":43.2857,"lon":5.39494,"is_reserved":false,"is_disabled":false,"rental_uris":{"android":"levelo://app?vid=13992c98-3a55-4834-8e10-ed799204425d","ios":"levelo://app?vid=13992c98-3a55-4834-8e10-ed799204425d"},"vehicle_type_id":"4","last_reported":1748084844,"current_range_meters":6800,"station_id":"ce4bh292rcd13ifvqdg0","pricing_plan_id":"cebpf4jnsgd1na2vs0mg"},{"bike_id":"77b6a80d-22b6-4a59-b8b9-7cbec65c1273","system_id":"levelo_inurba_marseille","lat":43.24176,"lon":5.39714,"is_reserved":false,"is_disabled":false,"rental_uris":{"android":"levelo://app?vid=77b6a80d-22b6-4a59-b8b9-7cbec65c1273","ios":"levelo://app?vid=77b6a80d-22b6-4a59-b8b9-7cbec65c1273"},"vehicle_type_id":"4","last_reported":1748084844,"current_range_meters":7200,"station_id":"ce4bhn12rcd13ifvqgpg","pricing_plan_id":"cebpf4jnsgd1na2vs0mg"},{"bike_id":"8b18aff3-e35a-4135-bf5b-61cd5335dd6a","system_id":"levelo_inurba_marseille","lat":43.303754,"lon":5.42483,"is_reserved":false,"is_disabled":false,"rental_uris":{"android":"levelo://app?vid=8b18aff3-e35a-4135-bf5b-61cd5335dd6a","ios":"levelo://app?vid=8b18aff3-e35a-4135-bf5b-61cd5335dd6a"},"vehicle_type_id":"4","last_reported":1748084844,"current_range_meters":7200,"station_id":"ce4bhoh2rcd13ifvqh6g","pricing_plan_id":"cebpf4jnsgd1na2vs0mg"},{"bike_id":"16960063-5774-4c2b-ab9b-330fc550ccfb","system_id":"levelo_inurba_marseille","lat":43.27176,"lon":5.40994,"is_reserved":false,"is_disabled":false,"rental_uris":{"android":"levelo://app?vid=16960063-5774-4c2b-ab9b-330fc550ccfb","ios":"levelo://app?vid=16960063-5774-4c2b-ab9b-330fc550ccfb"},"vehicle_type_id":"4","last_reported":1748084844,"current_range_meters":7200,"station_id":"ce4bhl12rcd13ifvqgf0","pricing_plan_id":"cebpf4jnsgd1na2vs0mg"},{"bike_id":"2b86396e-671c-4280-889c-f1f78f8c1ce7","system_id":"levelo_inurba_marseille","lat":43.28415,"lon":5.34987,"is_reserved":false,"is_disabled":false,"rental_uris":{"android":"levelo://app?vid=2b86396e-671c-4280-889c-f1f78f8c1ce7","ios":"levelo://app?vid=2b86396e-671c-4280-889c-f1f78f8c1ce7"},"vehicle_type_id":"4","last_reported":1748084844,"current_range_meters":8000,"station_id":"ce4bhbh2rcd13ifvqepg","pricing_plan_id":"cebpf4jnsgd1na2vs0mg"},{"bike_id":"66ca27af-2591-43bb-a61f-ebdc1a930f92","system_id":"levelo_inurba_marseille","lat":43.30146,"lon":5.38081,"is_reserved":false,"is_disabled":false,"rental_uris":{"android":"levelo://app?vid=66ca27af-2591-43bb-a61f-ebdc1a930f92","ios":"levelo://app?vid=66ca27af-2591-43bb-a61f-ebdc1a930f92"},"vehicle_type_id":"4","last_reported":1748084844,"current_range_meters":8000,"station_id":"ce4bgjp2rcd13ifvqbh0","pricing_plan_id":"cebpf4jnsgd1na2vs0mg"},{"bike_id":"6ef8790d-72f1-4f98-91c0-4e1f72aec224","system_id":"levelo_inurba_marseille","lat":43.2468,"lon":5.38138,"is_reserved":false,"is_disabled":false,"rental_uris":{"android":"levelo://app?vid=6ef8790d-72f1-4f98-91c0-4e1f72aec224","ios":"levelo://app?vid=6ef8790d-72f1-4f98-91c0-4e1f72aec224"},"vehicle_type_id":"4","last_reported":1748084844,"current_range_meters":8000,"station_id":"ce4bhih2rcd13ifvqfr0","pricing_plan_id":"cebpf4jnsgd1na2vs0mg"},{"bike_id":"91fdaad5-417a-4200-986a-28591fa171eb","system_id":"levelo_inurba_marseille","lat":43.24984,"lon":5.38933,"is_reserved":false,"is_disabled":false,"rental_uris":{"android":"levelo://app?vid=91fdaad5-417a-4200-986a-28591fa171eb","ios":"levelo://app?vid=91fdaad5-417a-4200-986a-28591fa171eb"},"vehicle_type_id":"4","last_reported":1748084844,"current_range_meters":8000,"station_id":"ce4bhgp2rcd13ifvqfd0","pricing_plan_id":"cebpf4jnsgd1na2vs0mg"},{"bike_id":"9994d829-eef5-4120-b87a-71db47cc59cc","system_id":"levelo_inurba_marseille","lat":43.293115,"lon":5.374617,"is_reserved":false,"is_disabled":false,"rental_uris":{"android":"levelo://app?vid=9994d829-eef5-4120-b87a-71db47cc59cc","ios":"levelo://app?vid=9994d829-eef5-4120-b87a-71db47cc59cc"},"vehicle_type_id":"4","last_reported":1748084844,"current_range_meters":8000,"station_id":"ce4bgi12rcd13ifvqb70","pricing_plan_id":"cebpf4jnsgd1na2vs0mg"},{"bike_id":"c51f5ded-5c58-496e-94c7-5049ab4d1c2a","system_id":"levelo_inurba_marseille","lat":43.24551,"lon":5.39521,"is_reserved":false,"is_disabled":false,"rental_uris":{"android":"levelo://app?vid=c51f5ded-5c58-496e-94c7-5049ab4d1c2a","ios":"levelo://app?vid=c51f5ded-5c58-496e-94c7-5049ab4d1c2a"},"vehicle_type_id":"4","last_reported":1748084844,"current_range_meters":8000,"station_id":"ce4bhlp2rcd13ifvqgjg","pricing_plan_id":"cebpf4jnsgd1na2vs0mg"},{"bike_id":"77a16159-0be4-4905-8fe3-97a296f16673","system_id":"levelo_inurba_marseille","lat":43.323576,"lon":5.367539,"is_reserved":false,"is_disabled":false,"rental_uris":{"android":"levelo://app?vid=77a16159-0be4-4905-8fe3-97a296f16673","ios":"levelo://app?vid=77a16159-0be4-4905-8fe3-97a296f16673"},"vehicle_type_id":"4","last_reported":1748084844,"current_range_meters":8000,"station_id":"ce4bhsh2rcd13ifvqi2g","pricing_plan_id":"cebpf4jnsgd1na2vs0mg"},{"bike_id":"6c97fffd-bd2d-4ac1-bd38-d3d1094439a7","system_id":"levelo_inurba_marseille","lat":43.30288,"lon":5.37302,"is_reserved":false,"is_disabled":false,"rental_uris":{"android":"levelo://app?vid=6c97fffd-bd2d-4ac1-bd38-d3d1094439a7","ios":"levelo://app?vid=6c97fffd-bd2d-4ac1-bd38-d3d1094439a7"},"vehicle_type_id":"4","last_reported":1748084844,"current_range_meters":8000,"station_id":"","pricing_plan_id":"cebpf4jnsgd1na2vs0mg"},{"bike_id":"a8c15226-6645-48c5-a652-c1d00ee0a72b","system_id":"levelo_inurba_marseille","lat":43.23154,"lon":5.43715,"is_reserved":false,"is_disabled":false,"rental_uris":{"android":"levelo://app?vid=a8c15226-6645-48c5-a652-c1d00ee0a72b","ios":"levelo://app?vid=a8c15226-6645-48c5-a652-c1d00ee0a72b"},"vehicle_type_id":"4","last_reported":1748084844,"current_range_meters":8000,"station_id":"ce4bhmp2rcd13ifvqgog","pricing_plan_id":"cebpf4jnsgd1na2vs0mg"},{"bike_id":"619c4d39-4259-47e2-8f15-724670fa512e","system_id":"levelo_inurba_marseille","lat":43.2842,"lon":5.34991,"is_reserved":false,"is_disabled":false,"rental_uris":{"android":"levelo://app?vid=619c4d39-4259-47e2-8f15-724670fa512e","ios":"levelo://app?vid=619c4d39-4259-47e2-8f15-724670fa512e"},"vehicle_type_id":"4","last_reported":1748084844,"current_range_meters":8000,"station_id":"ce4bhbh2rcd13ifvqepg","pricing_plan_id":"cebpf4jnsgd1na2vs0mg"},{"bike_id":"fc995580-d8bc-4e2a-8bea-441818f574a6","system_id":"levelo_inurba_marseille","lat":43.27175,"lon":5.40996,"is_reserved":false,"is_disabled":false,"rental_uris":{"android":"levelo://app?vid=fc995580-d8bc-4e2a-8bea-441818f574a6","ios":"levelo://app?vid=fc995580-d8bc-4e2a-8bea-441818f574a6"},"vehicle_type_id":"4","last_reported":1748084844,"current_range_meters":8400,"station_id":"ce4bhl12rcd13ifvqgf0","pricing_plan_id":"cebpf4jnsgd1na2vs0mg"},{"bike_id":"1f1c07f6-d8fc-4693-b05d-4a27c4a90f0c","system_id":"levelo_inurba_marseille","lat":43.25511,"lon":5.37626,"is_reserved":false,"is_disabled":false,"rental_uris":{"android":"levelo://app?vid=1f1c07f6-d8fc-4693-b05d-4a27c4a90f0c","ios":"levelo://app?vid=1f1c07f6-d8fc-4693-b05d-4a27c4a90f0c"},"vehicle_type_id":"4","last_reported":1748084844,"current_range_meters":8400,"station_id":"ce4bhh12rcd13ifvqff0","pricing_plan_id":"cebpf4jnsgd1na2vs0mg"},{"bike_id":"5ff8edec-9293-4b86-ab9c-304650107990","system_id":"levelo_inurba_marseille","lat":43.24408,"lon":5.37078,"is_reserved":false,"is_disabled":false,"rental_uris":{"android":"levelo://app?vid=5ff8edec-9293-4b86-ab9c-304650107990","ios":"levelo://app?vid=5ff8edec-9293-4b86-ab9c-304650107990"},"vehicle_type_id":"4","last_reported":1748084844,"current_range_meters":8400,"station_id":"ce4bhhh2rcd13ifvqfk0","pricing_plan_id":"cebpf4jnsgd1na2vs0mg"},{"bike_id":"1bf6064e-3f50-4063-8e80-eb587c81d88b","system_id":"levelo_inurba_marseille","lat":43.31712,"lon":5.40432,"is_reserved":false,"is_disabled":false,"rental_uris":{"android":"levelo://app?vid=1bf6064e-3f50-4063-8e80-eb587c81d88b","ios":"levelo://app?vid=1bf6064e-3f50-4063-8e80-eb587c81d88b"},"vehicle_type_id":"4","last_reported":1748084844,"current_range_meters":8400,"station_id":"ce4bh012rcd13ifvqd00","pricing_plan_id":"cebpf4jnsgd1na2vs0mg"},{"bike_id":"11949e6c-20d0-495e-9b72-de20e2b093e3","system_id":"levelo_inurba_marseille","lat":43.28613,"lon":5.35106,"is_reserved":false,"is_disabled":false,"rental_uris":{"android":"levelo://app?vid=11949e6c-20d0-495e-9b72-de20e2b093e3","ios":"levelo://app?vid=11949e6c-20d0-495e-9b72-de20e2b093e3"},"vehicle_type_id":"4","last_reported":1748084844,"current_range_meters":8400,"station_id":"ce4bhch2rcd13ifvqeug","pricing_plan_id":"cebpf4jnsgd1na2vs0mg"},{"bike_id":"6035ceb8-4ced-4740-bd73-150c3af7f87d","system_id":"levelo_inurba_marseille","lat":43.24384,"lon":5.37063,"is_reserved":false,"is_disabled":false,"rental_uris":{"android":"levelo://app?vid=6035ceb8-4ced-4740-bd73-150c3af7f87d","ios":"levelo://app?vid=6035ceb8-4ced-4740-bd73-150c3af7f87d"},"vehicle_type_id":"4","last_reported":1748084844,"current_range_meters":8400,"station_id":"ce4bhhh2rcd13ifvqfk0","pricing_plan_id":"cebpf4jnsgd1na2vs0mg"},{"bike_id":"5a20a133-5c10-484a-b2a7-d93551fe08ea","system_id":"levelo_inurba_marseille","lat":43.28613,"lon":5.35103,"is_reserved":false,"is_disabled":false,"rental_uris":{"android":"levelo://app?vid=5a20a133-5c10-484a-b2a7-d93551fe08ea","ios":"levelo://app?vid=5a20a133-5c10-484a-b2a7-d93551fe08ea"},"vehicle_type_id":"4","last_reported":1748084844,"current_range_meters":8400,"station_id":"ce4bhch2rcd13ifvqeug","pricing_plan_id":"cebpf4jnsgd1na2vs0mg"},{"bike_id":"a0b0d364-fe4a-42b0-9e2f-4ba1df5120c9","system_id":"levelo_inurba_marseille","lat":43.24171,"lon":5.36389,"is_reserved":false,"is_disabled":false,"rental_uris":{"android":"levelo://app?vid=a0b0d364-fe4a-42b0-9e2f-4ba1df5120c9","ios":"levelo://app?vid=a0b0d364-fe4a-42b0-9e2f-4ba1df5120c9"},"vehicle_type_id":"4","last_reported":1748084844,"current_range_meters":8400,"station_id":"cpo36qri1sfpv3e86is0","pricing_plan_id":"cebpf4jnsgd1na2vs0mg"},{"bike_id":"1558526f-5739-49db-a8cb-43d331957259","system_id":"levelo_inurba_marseille","lat":43.323664,"lon":5.367554,"is_reserved":false,"is_disabled":false,"rental_uris":{"android":"levelo://app?vid=1558526f-5739-49db-a8cb-43d331957259","ios":"levelo://app?vid=1558526f-5739-49db-a8cb-43d331957259"},"vehicle_type_id":"4","last_reported":1748084844,"current_range_meters":8400,"station_id":"ce4bhsh2rcd13ifvqi2g","pricing_plan_id":"cebpf4jnsgd1na2vs0mg"},{"bike_id":"bc56d2ff-a99a-4aec-aa83-7e929a60a77e","system_id":"levelo_inurba_marseille","lat":43.24656,"lon":5.38888,"is_reserved":false,"is_disabled":false,"rental_uris":{"android":"levelo://app?vid=bc56d2ff-a99a-4aec-aa83-7e929a60a77e","ios":"levelo://app?vid=bc56d2ff-a99a-4aec-aa83-7e929a60a77e"},"vehicle_type_id":"4","last_reported":1748084844,"current_range_meters":8400,"station_id":"ce4bhg12rcd13ifvqf60","pricing_plan_id":"cebpf4jnsgd1na2vs0mg"},{"bike_id":"c9c5bef1-5303-4536-9374-ac0aef114419","system_id":"levelo_inurba_marseille","lat":43.245547,"lon":5.395223,"is_reserved":false,"is_disabled":false,"rental_uris":{"android":"levelo://app?vid=c9c5bef1-5303-4536-9374-ac0aef114419","ios":"levelo://app?vid=c9c5bef1-5303-4536-9374-ac0aef114419"},"vehicle_type_id":"4","last_reported":1748084844,"current_range_meters":8800,"station_id":"ce4bhlp2rcd13ifvqgjg","pricing_plan_id":"cebpf4jnsgd1na2vs0mg"},{"bike_id":"fa529a29-8d21-4f13-9783-e1708a99c344","system_id":"levelo_inurba_marseille","lat":43.246516,"lon":5.388955,"is_reserved":false,"is_disabled":false,"rental_uris":{"android":"levelo://app?vid=fa529a29-8d21-4f13-9783-e1708a99c344","ios":"levelo://app?vid=fa529a29-8d21-4f13-9783-e1708a99c344"},"vehicle_type_id":"4","last_reported":1748084844,"current_range_meters":8800,"station_id":"ce4bhlh2rcd13ifvqgig","pricing_plan_id":"cebpf4jnsgd1na2vs0mg"},{"bike_id":"d256c6a4-d35b-4c32-b7db-2bac8ab63b70","system_id":"levelo_inurba_marseille","lat":43.2319,"lon":5.35545,"is_reserved":false,"is_disabled":false,"rental_uris":{"android":"levelo://app?vid=d256c6a4-d35b-4c32-b7db-2bac8ab63b70","ios":"levelo://app?vid=d256c6a4-d35b-4c32-b7db-2bac8ab63b70"},"vehicle_type_id":"4","last_reported":1748084844,"current_range_meters":8800,"station_id":"ce4bhu92rcd13ifvqi70","pricing_plan_id":"cebpf4jnsgd1na2vs0mg"},{"bike_id":"4525f9a3-55f1-43a7-ae74-1a1c22f30cac","system_id":"levelo_inurba_marseille","lat":43.321059,"lon":5.367786,"is_reserved":false,"is_disabled":false,"rental_uris":{"android":"levelo://app?vid=4525f9a3-55f1-43a7-ae74-1a1c22f30cac","ios":"levelo://app?vid=4525f9a3-55f1-43a7-ae74-1a1c22f30cac"},"vehicle_type_id":"4","last_reported":1748084844,"current_range_meters":8800,"station_id":"ce4bhrh2rcd13ifvqhug","pricing_plan_id":"cebpf4jnsgd1na2vs0mg"},{"bike_id":"d2f552da-71df-4824-8e93-24fbcf507e5c","system_id":"levelo_inurba_marseille","lat":43.27369,"lon":5.36258,"is_reserved":false,"is_disabled":false,"rental_uris":{"android":"levelo://app?vid=d2f552da-71df-4824-8e93-24fbcf507e5c","ios":"levelo://app?vid=d2f552da-71df-4824-8e93-24fbcf507e5c"},"vehicle_type_id":"4","last_reported":1748084844,"current_range_meters":8800,"station_id":"ce4bhbh2rcd13ifvqeo0","pricing_plan_id":"cebpf4jnsgd1na2vs0mg"},{"bike_id":"40e802f4-1aa1-4ef9-bef8-c4063d4f5f5d","system_id":"levelo_inurba_marseille","lat":43.27371,"lon":5.36241,"is_reserved":false,"is_disabled":false,"rental_uris":{"android":"levelo://app?vid=40e802f4-1aa1-4ef9-bef8-c4063d4f5f5d","ios":"levelo://app?vid=40e802f4-1aa1-4ef9-bef8-c4063d4f5f5d"},"vehicle_type_id":"4","last_reported":1748084844,"current_range_meters":8800,"station_id":"ce4bhbh2rcd13ifvqeo0","pricing_plan_id":"cebpf4jnsgd1na2vs0mg"},{"bike_id":"2ea50577-1176-467c-8d1f-ce07d6571fb8","system_id":"levelo_inurba_marseille","lat":43.23183,"lon":5.35558,"is_reserved":false,"is_disabled":false,"rental_uris":{"android":"levelo://app?vid=2ea50577-1176-467c-8d1f-ce07d6571fb8","ios":"levelo://app?vid=2ea50577-1176-467c-8d1f-ce07d6571fb8"},"vehicle_type_id":"4","last_reported":1748084844,"current_range_meters":8800,"station_id":"ce4bhu92rcd13ifvqi70","pricing_plan_id":"cebpf4jnsgd1na2vs0mg"},{"bike_id":"bf662ae0-26e4-4bb7-9f9e-d0df53c116b8","system_id":"levelo_inurba_marseille","lat":43.23194,"lon":5.35549,"is_reserved":false,"is_disabled":false,"rental_uris":{"android":"levelo://app?vid=bf662ae0-26e4-4bb7-9f9e-d0df53c116b8","ios":"levelo://app?vid=bf662ae0-26e4-4bb7-9f9e-d0df53c116b8"},"vehicle_type_id":"4","last_reported":1748084844,"current_range_meters":8800,"station_id":"ce4bhu92rcd13ifvqi70","pricing_plan_id":"cebpf4jnsgd1na2vs0mg"},{"bike_id":"4ac5709c-3ac1-48ec-a7b2-7dcff754a800","system_id":"levelo_inurba_marseille","lat":43.25486,"lon":5.37664,"is_reserved":false,"is_disabled":false,"rental_uris":{"android":"levelo://app?vid=4ac5709c-3ac1-48ec-a7b2-7dcff754a800","ios":"levelo://app?vid=4ac5709c-3ac1-48ec-a7b2-7dcff754a800"},"vehicle_type_id":"4","last_reported":1748084844,"current_range_meters":9200,"station_id":"ce4bhh12rcd13ifvqff0","pricing_plan_id":"cebpf4jnsgd1na2vs0mg"},{"bike_id":"143c55ef-adba-4110-a7d8-a08f84a00786","system_id":"levelo_inurba_marseille","lat":43.30127,"lon":5.38064,"is_reserved":false,"is_disabled":false,"rental_uris":{"android":"levelo://app?vid=143c55ef-adba-4110-a7d8-a08f84a00786","ios":"levelo://app?vid=143c55ef-adba-4110-a7d8-a08f84a00786"},"vehicle_type_id":"4","last_reported":1748084844,"current_range_meters":9200,"station_id":"ce4bgjp2rcd13ifvqbh0","pricing_plan_id":"cebpf4jnsgd1na2vs0mg"},{"bike_id":"e5869932-f3eb-43ef-8f43-ae426b18a43f","system_id":"levelo_inurba_marseille","lat":43.246558,"lon":5.381633,"is_reserved":false,"is_disabled":false,"rental_uris":{"android":"levelo://app?vid=e5869932-f3eb-43ef-8f43-ae426b18a43f","ios":"levelo://app?vid=e5869932-f3eb-43ef-8f43-ae426b18a43f"},"vehicle_type_id":"4","last_reported":1748084844,"current_range_meters":9200,"station_id":"ce4bgs12rcd13ifvqcag","pricing_plan_id":"cebpf4jnsgd1na2vs0mg"},{"bike_id":"2a5ee49c-8cf6-4c69-8346-8dec9f034cb5","system_id":"levelo_inurba_marseille","lat":43.305457,"lon":5.36566,"is_reserved":false,"is_disabled":false,"rental_uris":{"android":"levelo://app?vid=2a5ee49c-8cf6-4c69-8346-8dec9f034cb5","ios":"levelo://app?vid=2a5ee49c-8cf6-4c69-8346-8dec9f034cb5"},"vehicle_type_id":"4","last_reported":1748084844,"current_range_meters":9200,"station_id":"ce4bgs12rcd13ifvqcag","pricing_plan_id":"cebpf4jnsgd1na2vs0mg"},{"bike_id":"eada8681-a9dc-4a77-83a1-2ead357553bf","system_id":"levelo_inurba_marseille","lat":43.27369,"lon":5.36246,"is_reserved":false,"is_disabled":false,"rental_uris":{"android":"levelo://app?vid=eada8681-a9dc-4a77-83a1-2ead357553bf","ios":"levelo://app?vid=eada8681-a9dc-4a77-83a1-2ead357553bf"},"vehicle_type_id":"4","last_reported":1748084844,"current_range_meters":9200,"station_id":"ce4bhbh2rcd13ifvqeo0","pricing_plan_id":"cebpf4jnsgd1na2vs0mg"},{"bike_id":"609cbc3b-407d-4149-a971-0cc122e85538","system_id":"levelo_inurba_marseille","lat":43.27203,"lon":5.40964,"is_reserved":false,"is_disabled":false,"rental_uris":{"android":"levelo://app?vid=609cbc3b-407d-4149-a971-0cc122e85538","ios":"levelo://app?vid=609cbc3b-407d-4149-a971-0cc122e85538"},"vehicle_type_id":"4","last_reported":1748084844,"current_range_meters":9200,"station_id":"ce4bhl12rcd13ifvqgf0","pricing_plan_id":"cebpf4jnsgd1na2vs0mg"},{"bike_id":"4ef35821-f11d-4641-9860-19473172fde6","system_id":"levelo_inurba_marseille","lat":43.24062,"lon":5.37762,"is_reserved":false,"is_disabled":false,"rental_uris":{"android":"levelo://app?vid=4ef35821-f11d-4641-9860-19473172fde6","ios":"levelo://app?vid=4ef35821-f11d-4641-9860-19473172fde6"},"vehicle_type_id":"4","last_reported":1748084844,"current_range_meters":9200,"station_id":"ce4bhnp2rcd13ifvqgvg","pricing_plan_id":"cebpf4jnsgd1na2vs0mg"},{"bike_id":"5abb8a77-fbf0-4d21-805b-29790cff0e49","system_id":"levelo_inurba_marseille","lat":43.31098,"lon":5.4245,"is_reserved":false,"is_disabled":false,"rental_uris":{"android":"levelo://app?vid=5abb8a77-fbf0-4d21-805b-29790cff0e49","ios":"levelo://app?vid=5abb8a77-fbf0-4d21-805b-29790cff0e49"},"vehicle_type_id":"4","last_reported":1748084844,"current_range_meters":9200,"station_id":"ce4bhp92rcd13ifvqhag","pricing_plan_id":"cebpf4jnsgd1na2vs0mg"},{"bike_id":"4fc507ed-2861-429b-899c-9490e6de6456","system_id":"levelo_inurba_marseille","lat":43.28859,"lon":5.35828,"is_reserved":false,"is_disabled":false,"rental_uris":{"android":"levelo://app?vid=4fc507ed-2861-429b-899c-9490e6de6456","ios":"levelo://app?vid=4fc507ed-2861-429b-899c-9490e6de6456"},"vehicle_type_id":"4","last_reported":1748084844,"current_range_meters":9600,"station_id":"ce4bhb12rcd13ifvqem0","pricing_plan_id":"cebpf4jnsgd1na2vs0mg"},{"bike_id":"b7ccc2f5-651c-459b-a19c-cfb97a6f0366","system_id":"levelo_inurba_marseille","lat":43.29796,"lon":5.39323,"is_reserved":false,"is_disabled":false,"rental_uris":{"android":"levelo://app?vid=b7ccc2f5-651c-459b-a19c-cfb97a6f0366","ios":"levelo://app?vid=b7ccc2f5-651c-459b-a19c-cfb97a6f0366"},"vehicle_type_id":"4","last_reported":1748084844,"current_range_meters":12800,"station_id":"chh1huq6cuj3fo74tm60","pricing_plan_id":"cebpf4jnsgd1na2vs0mg"},{"bike_id":"c16413fd-5d65-4ca2-8681-abb95bdf2d2a","system_id":"levelo_inurba_marseille","lat":43.30955,"lon":5.37112,"is_reserved":false,"is_disabled":false,"rental_uris":{"android":"levelo://app?vid=c16413fd-5d65-4ca2-8681-abb95bdf2d2a","ios":"levelo://app?vid=c16413fd-5d65-4ca2-8681-abb95bdf2d2a"},"vehicle_type_id":"4","last_reported":1748084844,"current_range_meters":9600,"station_id":"","pricing_plan_id":"cebpf4jnsgd1na2vs0mg"},{"bike_id":"3dd093d7-4f29-4dc3-9283-93be83826e38","system_id":"levelo_inurba_marseille","lat":43.30797,"lon":5.38163,"is_reserved":false,"is_disabled":false,"rental_uris":{"android":"levelo://app?vid=3dd093d7-4f29-4dc3-9283-93be83826e38","ios":"levelo://app?vid=3dd093d7-4f29-4dc3-9283-93be83826e38"},"vehicle_type_id":"4","last_reported":1748084844,"current_range_meters":10000,"station_id":"ce4bgt12rcd13ifvqce0","pricing_plan_id":"cebpf4jnsgd1na2vs0mg"},{"bike_id":"210769d1-9ae0-4026-89c7-782ca711d39d","system_id":"levelo_inurba_marseille","lat":43.32335,"lon":5.40622,"is_reserved":false,"is_disabled":false,"rental_uris":{"android":"levelo://app?vid=210769d1-9ae0-4026-89c7-782ca711d39d","ios":"levelo://app?vid=210769d1-9ae0-4026-89c7-782ca711d39d"},"vehicle_type_id":"4","last_reported":1748084844,"current_range_meters":10000,"station_id":"ce4bhq92rcd13ifvqhjg","pricing_plan_id":"cebpf4jnsgd1na2vs0mg"},{"bike_id":"15060533-3a3c-4c76-8d50-6799b5b45673","system_id":"levelo_inurba_marseille","lat":43.231961,"lon":5.355547,"is_reserved":false,"is_disabled":false,"rental_uris":{"android":"levelo://app?vid=15060533-3a3c-4c76-8d50-6799b5b45673","ios":"levelo://app?vid=15060533-3a3c-4c76-8d50-6799b5b45673"},"vehicle_type_id":"4","last_reported":1748084844,"current_range_meters":10000,"station_id":"ce4bhu92rcd13ifvqi70","pricing_plan_id":"cebpf4jnsgd1na2vs0mg"},{"bike_id":"399acf53-c968-4084-b7f0-c57373f1f3e0","system_id":"levelo_inurba_marseille","lat":43.29631,"lon":5.37163,"is_reserved":false,"is_disabled":false,"rental_uris":{"android":"levelo://app?vid=399acf53-c968-4084-b7f0-c57373f1f3e0","ios":"levelo://app?vid=399acf53-c968-4084-b7f0-c57373f1f3e0"},"vehicle_type_id":"4","last_reported":1748084844,"current_range_meters":10000,"station_id":"ce4bgnh2rcd13ifvqc0g","pricing_plan_id":"cebpf4jnsgd1na2vs0mg"},{"bike_id":"3baebd23-9c05-4ce5-8c45-7f891c62635b","system_id":"levelo_inurba_marseille","lat":43.28153,"lon":5.42646,"is_reserved":false,"is_disabled":false,"rental_uris":{"android":"levelo://app?vid=3baebd23-9c05-4ce5-8c45-7f891c62635b","ios":"levelo://app?vid=3baebd23-9c05-4ce5-8c45-7f891c62635b"},"vehicle_type_id":"4","last_reported":1748084844,"current_range_meters":10000,"station_id":"ce4bhnh2rcd13ifvqgug","pricing_plan_id":"cebpf4jnsgd1na2vs0mg"},{"bike_id":"d611a9c9-77d3-428f-b6dd-f104217f3cd7","system_id":"levelo_inurba_marseille","lat":43.32145,"lon":5.36745,"is_reserved":false,"is_disabled":false,"rental_uris":{"android":"levelo://app?vid=d611a9c9-77d3-428f-b6dd-f104217f3cd7","ios":"levelo://app?vid=d611a9c9-77d3-428f-b6dd-f104217f3cd7"},"vehicle_type_id":"4","last_reported":1748084844,"current_range_meters":10800,"station_id":"ce4bhrh2rcd13ifvqhug","pricing_plan_id":"cebpf4jnsgd1na2vs0mg"},{"bike_id":"52269cbf-94f1-4b3a-a7ea-52e773ac04c5","system_id":"levelo_inurba_marseille","lat":43.25554,"lon":5.38228,"is_reserved":false,"is_disabled":false,"rental_uris":{"android":"levelo://app?vid=52269cbf-94f1-4b3a-a7ea-52e773ac04c5","ios":"levelo://app?vid=52269cbf-94f1-4b3a-a7ea-52e773ac04c5"},"vehicle_type_id":"4","last_reported":1748084844,"current_range_meters":10800,"station_id":"ce4bhih2rcd13ifvqfs0","pricing_plan_id":"cebpf4jnsgd1na2vs0mg"},{"bike_id":"04b3a370-3dca-4d7f-95d6-a32ffe976d6e","system_id":"levelo_inurba_marseille","lat":43.28838,"lon":5.35858,"is_reserved":false,"is_disabled":false,"rental_uris":{"android":"levelo://app?vid=04b3a370-3dca-4d7f-95d6-a32ffe976d6e","ios":"levelo://app?vid=04b3a370-3dca-4d7f-95d6-a32ffe976d6e"},"vehicle_type_id":"4","last_reported":1748084844,"current_range_meters":10800,"station_id":"ce4bhb12rcd13ifvqem0","pricing_plan_id":"cebpf4jnsgd1na2vs0mg"},{"bike_id":"ea3ec259-8235-4c2f-b6ae-f3d3a4b8791d","system_id":"levelo_inurba_marseille","lat":43.29166,"lon":5.37161,"is_reserved":false,"is_disabled":false,"rental_uris":{"android":"levelo://app?vid=ea3ec259-8235-4c2f-b6ae-f3d3a4b8791d","ios":"levelo://app?vid=ea3ec259-8235-4c2f-b6ae-f3d3a4b8791d"},"vehicle_type_id":"4","last_reported":1748084844,"current_range_meters":10800,"station_id":"ce4bha92rcd13ifvqeh0","pricing_plan_id":"cebpf4jnsgd1na2vs0mg"},{"bike_id":"fc53f6f4-0963-4e4e-9440-68edf4f97a52","system_id":"levelo_inurba_marseille","lat":43.28861,"lon":5.3931,"is_reserved":false,"is_disabled":false,"rental_uris":{"android":"levelo://app?vid=fc53f6f4-0963-4e4e-9440-68edf4f97a52","ios":"levelo://app?vid=fc53f6f4-0963-4e4e-9440-68edf4f97a52"},"vehicle_type_id":"4","last_reported":1748084844,"current_range_meters":10800,"station_id":"ce4bh2p2rcd13ifvqdi0","pricing_plan_id":"cebpf4jnsgd1na2vs0mg"},{"bike_id":"62bbfb97-95ec-4403-a8c1-c0f1a11fe9ab","system_id":"levelo_inurba_marseille","lat":43.23965,"lon":5.36631,"is_reserved":false,"is_disabled":false,"rental_uris":{"android":"levelo://app?vid=62bbfb97-95ec-4403-a8c1-c0f1a11fe9ab","ios":"levelo://app?vid=62bbfb97-95ec-4403-a8c1-c0f1a11fe9ab"},"vehicle_type_id":"4","last_reported":1748084844,"current_range_meters":10800,"station_id":"ce4bhi12rcd13ifvqfp0","pricing_plan_id":"cebpf4jnsgd1na2vs0mg"},{"bike_id":"30f69e75-5381-4aa0-a638-db3441567877","system_id":"levelo_inurba_marseille","lat":43.241777,"lon":5.397325,"is_reserved":false,"is_disabled":false,"rental_uris":{"android":"levelo://app?vid=30f69e75-5381-4aa0-a638-db3441567877","ios":"levelo://app?vid=30f69e75-5381-4aa0-a638-db3441567877"},"vehicle_type_id":"4","last_reported":1748084844,"current_range_meters":10800,"station_id":"ce4bhn12rcd13ifvqgpg","pricing_plan_id":"cebpf4jnsgd1na2vs0mg"},{"bike_id":"2ac70f7b-35c0-4925-b3e6-9555f167e565","system_id":"levelo_inurba_marseille","lat":43.28842,"lon":5.35859,"is_reserved":false,"is_disabled":false,"rental_uris":{"android":"levelo://app?vid=2ac70f7b-35c0-4925-b3e6-9555f167e565","ios":"levelo://app?vid=2ac70f7b-35c0-4925-b3e6-9555f167e565"},"vehicle_type_id":"4","last_reported":1748084844,"current_range_meters":10800,"station_id":"ce4bhb12rcd13ifvqem0","pricing_plan_id":"cebpf4jnsgd1na2vs0mg"},{"bike_id":"f90791a6-5497-47d5-858f-c86b7638fc0f","system_id":"levelo_inurba_marseille","lat":43.211917,"lon":5.350737,"is_reserved":false,"is_disabled":false,"rental_uris":{"android":"levelo://app?vid=f90791a6-5497-47d5-858f-c86b7638fc0f","ios":"levelo://app?vid=f90791a6-5497-47d5-858f-c86b7638fc0f"},"vehicle_type_id":"4","last_reported":1748084844,"current_range_meters":10800,"station_id":"st_cvj6sg6p6f1abm77japg","pricing_plan_id":"cebpf4jnsgd1na2vs0mg"},{"bike_id":"fc8c72ad-ca61-42c6-ae90-f61b57e45328","system_id":"levelo_inurba_marseille","lat":43.27898,"lon":5.41858,"is_reserved":false,"is_disabled":false,"rental_uris":{"android":"levelo://app?vid=fc8c72ad-ca61-42c6-ae90-f61b57e45328","ios":"levelo://app?vid=fc8c72ad-ca61-42c6-ae90-f61b57e45328"},"vehicle_type_id":"4","last_reported":1748084844,"current_range_meters":11200,"station_id":"","pricing_plan_id":"cebpf4jnsgd1na2vs0mg"},{"bike_id":"9dd98ec0-36d7-4c70-af0b-30f908ba5eb2","system_id":"levelo_inurba_marseille","lat":43.29853,"lon":5.36274,"is_reserved":false,"is_disabled":true,"rental_uris":{"android":"levelo://app?vid=9dd98ec0-36d7-4c70-af0b-30f908ba5eb2","ios":"levelo://app?vid=9dd98ec0-36d7-4c70-af0b-30f908ba5eb2"},"vehicle_type_id":"4","last_reported":1748084844,"current_range_meters":11200,"station_id":"ce4bgpp2rcd13ifvqc3g","pricing_plan_id":"cebpf4jnsgd1na2vs0mg"},{"bike_id":"bd137163-7ff4-449d-9956-1ec9aa134cd4","system_id":"levelo_inurba_marseille","lat":43.23189,"lon":5.40008,"is_reserved":false,"is_disabled":false,"rental_uris":{"android":"levelo://app?vid=bd137163-7ff4-449d-9956-1ec9aa134cd4","ios":"levelo://app?vid=bd137163-7ff4-449d-9956-1ec9aa134cd4"},"vehicle_type_id":"4","last_reported":1748084844,"current_range_meters":11200,"station_id":"ce4bhn12rcd13ifvqgqg","pricing_plan_id":"cebpf4jnsgd1na2vs0mg"},{"bike_id":"6d6663f0-3764-4f68-9ecf-01cded168eeb","system_id":"levelo_inurba_marseille","lat":43.30929,"lon":5.40135,"is_reserved":false,"is_disabled":true,"rental_uris":{"android":"levelo://app?vid=6d6663f0-3764-4f68-9ecf-01cded168eeb","ios":"levelo://app?vid=6d6663f0-3764-4f68-9ecf-01cded168eeb"},"vehicle_type_id":"4","last_reported":1748084844,"current_range_meters":11200,"station_id":"ce4bgvp2rcd13ifvqct0","pricing_plan_id":"cebpf4jnsgd1na2vs0mg"},{"bike_id":"6e230062-3306-4892-a27a-d49c32e31f7d","system_id":"levelo_inurba_marseille","lat":43.25728,"lon":5.41108,"is_reserved":false,"is_disabled":false,"rental_uris":{"android":"levelo://app?vid=6e230062-3306-4892-a27a-d49c32e31f7d","ios":"levelo://app?vid=6e230062-3306-4892-a27a-d49c32e31f7d"},"vehicle_type_id":"4","last_reported":1748084844,"current_range_meters":11200,"station_id":"ce4bhkp2rcd13ifvqgd0","pricing_plan_id":"cebpf4jnsgd1na2vs0mg"},{"bike_id":"dfea5f14-efb9-4316-b5c1-27624b335498","system_id":"levelo_inurba_marseille","lat":43.2439,"lon":5.37062,"is_reserved":false,"is_disabled":false,"rental_uris":{"android":"levelo://app?vid=dfea5f14-efb9-4316-b5c1-27624b335498","ios":"levelo://app?vid=dfea5f14-efb9-4316-b5c1-27624b335498"},"vehicle_type_id":"4","last_reported":1748084844,"current_range_meters":11600,"station_id":"ce4bhhh2rcd13ifvqfk0","pricing_plan_id":"cebpf4jnsgd1na2vs0mg"},{"bike_id":"7c16cdd4-ee1f-4d0b-9734-a4cb81b4fd38","system_id":"levelo_inurba_marseille","lat":43.283545,"lon":5.350278,"is_reserved":false,"is_disabled":false,"rental_uris":{"android":"levelo://app?vid=7c16cdd4-ee1f-4d0b-9734-a4cb81b4fd38","ios":"levelo://app?vid=7c16cdd4-ee1f-4d0b-9734-a4cb81b4fd38"},"vehicle_type_id":"4","last_reported":1748084844,"current_range_meters":11600,"station_id":"ce4bhbp2rcd13ifvqerg","pricing_plan_id":"cebpf4jnsgd1na2vs0mg"},{"bike_id":"5cd0e45e-59bf-43bf-a16d-9b2668fef265","system_id":"levelo_inurba_marseille","lat":43.28613,"lon":5.350996,"is_reserved":false,"is_disabled":false,"rental_uris":{"android":"levelo://app?vid=5cd0e45e-59bf-43bf-a16d-9b2668fef265","ios":"levelo://app?vid=5cd0e45e-59bf-43bf-a16d-9b2668fef265"},"vehicle_type_id":"4","last_reported":1748084844,"current_range_meters":11600,"station_id":"","pricing_plan_id":"cebpf4jnsgd1na2vs0mg"},{"bike_id":"99a53482-887a-49d5-808a-2a3c9cd98615","system_id":"levelo_inurba_marseille","lat":43.2827,"lon":5.35056,"is_reserved":false,"is_disabled":false,"rental_uris":{"android":"levelo://app?vid=99a53482-887a-49d5-808a-2a3c9cd98615","ios":"levelo://app?vid=99a53482-887a-49d5-808a-2a3c9cd98615"},"vehicle_type_id":"4","last_reported":1748084844,"current_range_meters":11600,"station_id":"ce4bhbp2rcd13ifvqerg","pricing_plan_id":"cebpf4jnsgd1na2vs0mg"},{"bike_id":"37697a75-9b30-44ff-ad71-f0690e655233","system_id":"levelo_inurba_marseille","lat":43.30124,"lon":5.38788,"is_reserved":false,"is_disabled":true,"rental_uris":{"android":"levelo://app?vid=37697a75-9b30-44ff-ad71-f0690e655233","ios":"levelo://app?vid=37697a75-9b30-44ff-ad71-f0690e655233"},"vehicle_type_id":"4","last_reported":1748084844,"current_range_meters":11600,"station_id":"ce4bghh2rcd13ifvqb60","pricing_plan_id":"cebpf4jnsgd1na2vs0mg"},{"bike_id":"2f268830-e779-44c4-a910-51e55054ee54","system_id":"levelo_inurba_marseille","lat":43.29897,"lon":5.380846,"is_reserved":false,"is_disabled":true,"rental_uris":{"android":"levelo://app?vid=2f268830-e779-44c4-a910-51e55054ee54","ios":"levelo://app?vid=2f268830-e779-44c4-a910-51e55054ee54"},"vehicle_type_id":"4","last_reported":1748084844,"current_range_meters":11600,"station_id":"","pricing_plan_id":"cebpf4jnsgd1na2vs0mg"},{"bike_id":"2eade79b-0917-4c66-8514-04249621d42b","system_id":"levelo_inurba_marseille","lat":43.2559,"lon":5.38232,"is_reserved":false,"is_disabled":false,"rental_uris":{"android":"levelo://app?vid=2eade79b-0917-4c66-8514-04249621d42b","ios":"levelo://app?vid=2eade79b-0917-4c66-8514-04249621d42b"},"vehicle_type_id":"4","last_reported":1748084844,"current_range_meters":11600,"station_id":"ce4bhih2rcd13ifvqfs0","pricing_plan_id":"cebpf4jnsgd1na2vs0mg"},{"bike_id":"d24af453-d781-45a9-805b-3cd93bf73440","system_id":"levelo_inurba_marseille","lat":43.2293,"lon":5.3537,"is_reserved":false,"is_disabled":false,"rental_uris":{"android":"levelo://app?vid=d24af453-d781-45a9-805b-3cd93bf73440","ios":"levelo://app?vid=d24af453-d781-45a9-805b-3cd93bf73440"},"vehicle_type_id":"4","last_reported":1748084844,"current_range_meters":12000,"station_id":"cpo3532slgdg3j2ikp40","pricing_plan_id":"cebpf4jnsgd1na2vs0mg"},{"bike_id":"1bf250fd-00b7-4e69-a3d0-cfd9324cbd44","system_id":"levelo_inurba_marseille","lat":43.33768,"lon":5.37426,"is_reserved":false,"is_disabled":false,"rental_uris":{"android":"levelo://app?vid=1bf250fd-00b7-4e69-a3d0-cfd9324cbd44","ios":"levelo://app?vid=1bf250fd-00b7-4e69-a3d0-cfd9324cbd44"},"vehicle_type_id":"4","last_reported":1748084844,"current_range_meters":12000,"station_id":"","pricing_plan_id":"cebpf4jnsgd1na2vs0mg"},{"bike_id":"e20a6257-af21-4f1c-8def-c6620475d3a2","system_id":"levelo_inurba_marseille","lat":43.282666,"lon":5.350605,"is_reserved":false,"is_disabled":false,"rental_uris":{"android":"levelo://app?vid=e20a6257-af21-4f1c-8def-c6620475d3a2","ios":"levelo://app?vid=e20a6257-af21-4f1c-8def-c6620475d3a2"},"vehicle_type_id":"4","last_reported":1748084844,"current_range_meters":12000,"station_id":"","pricing_plan_id":"cebpf4jnsgd1na2vs0mg"},{"bike_id":"3a3f4bb9-8717-422e-a0c4-4d60b94c0b42","system_id":"levelo_inurba_marseille","lat":43.2717,"lon":5.41003,"is_reserved":false,"is_disabled":false,"rental_uris":{"android":"levelo://app?vid=3a3f4bb9-8717-422e-a0c4-4d60b94c0b42","ios":"levelo://app?vid=3a3f4bb9-8717-422e-a0c4-4d60b94c0b42"},"vehicle_type_id":"4","last_reported":1748084844,"current_range_meters":12000,"station_id":"ce4bhl12rcd13ifvqgf0","pricing_plan_id":"cebpf4jnsgd1na2vs0mg"},{"bike_id":"63f2d56e-9737-4b44-9a39-2285bc865d90","system_id":"levelo_inurba_marseille","lat":43.303778,"lon":5.424904,"is_reserved":false,"is_disabled":false,"rental_uris":{"android":"levelo://app?vid=63f2d56e-9737-4b44-9a39-2285bc865d90","ios":"levelo://app?vid=63f2d56e-9737-4b44-9a39-2285bc865d90"},"vehicle_type_id":"4","last_reported":1748084844,"current_range_meters":12000,"station_id":"ce4bhoh2rcd13ifvqh6g","pricing_plan_id":"cebpf4jnsgd1na2vs0mg"},{"bike_id":"2d6d5622-966f-4c1e-824c-84635347ec25","system_id":"levelo_inurba_marseille","lat":43.303751,"lon":5.424859,"is_reserved":false,"is_disabled":false,"rental_uris":{"android":"levelo://app?vid=2d6d5622-966f-4c1e-824c-84635347ec25","ios":"levelo://app?vid=2d6d5622-966f-4c1e-824c-84635347ec25"},"vehicle_type_id":"4","last_reported":1748084844,"current_range_meters":12400,"station_id":"ce4bhoh2rcd13ifvqh6g","pricing_plan_id":"cebpf4jnsgd1na2vs0mg"},{"bike_id":"baa15630-860b-47c6-a0d2-7b0c405cb2e6","system_id":"levelo_inurba_marseille","lat":43.28613,"lon":5.35108,"is_reserved":false,"is_disabled":false,"rental_uris":{"android":"levelo://app?vid=baa15630-860b-47c6-a0d2-7b0c405cb2e6","ios":"levelo://app?vid=baa15630-860b-47c6-a0d2-7b0c405cb2e6"},"vehicle_type_id":"4","last_reported":1748084844,"current_range_meters":12400,"station_id":"ce4bhch2rcd13ifvqeug","pricing_plan_id":"cebpf4jnsgd1na2vs0mg"},{"bike_id":"491f5b46-7b64-4138-81d2-8c7f6c671144","system_id":"levelo_inurba_marseille","lat":43.28611,"lon":5.35106,"is_reserved":false,"is_disabled":false,"rental_uris":{"android":"levelo://app?vid=491f5b46-7b64-4138-81d2-8c7f6c671144","ios":"levelo://app?vid=491f5b46-7b64-4138-81d2-8c7f6c671144"},"vehicle_type_id":"4","last_reported":1748084844,"current_range_meters":12400,"station_id":"ce4bhch2rcd13ifvqeug","pricing_plan_id":"cebpf4jnsgd1na2vs0mg"},{"bike_id":"481dfbdd-9500-4e0b-969b-7b958977ef45","system_id":"levelo_inurba_marseille","lat":43.27373,"lon":5.36242,"is_reserved":false,"is_disabled":false,"rental_uris":{"android":"levelo://app?vid=481dfbdd-9500-4e0b-969b-7b958977ef45","ios":"levelo://app?vid=481dfbdd-9500-4e0b-969b-7b958977ef45"},"vehicle_type_id":"4","last_reported":1748084844,"current_range_meters":12400,"station_id":"ce4bhbh2rcd13ifvqeo0","pricing_plan_id":"cebpf4jnsgd1na2vs0mg"},{"bike_id":"effc16e6-3cfa-4461-b0f9-d24e0aa8184f","system_id":"levelo_inurba_marseille","lat":43.2606,"lon":5.37527,"is_reserved":false,"is_disabled":false,"rental_uris":{"android":"levelo://app?vid=effc16e6-3cfa-4461-b0f9-d24e0aa8184f","ios":"levelo://app?vid=effc16e6-3cfa-4461-b0f9-d24e0aa8184f"},"vehicle_type_id":"4","last_reported":1748084844,"current_range_meters":12400,"station_id":"ce4bhgh2rcd13ifvqfa0","pricing_plan_id":"cebpf4jnsgd1na2vs0mg"},{"bike_id":"695e80c5-51e8-4715-aee4-fa689b542215","system_id":"levelo_inurba_marseille","lat":43.29927,"lon":5.36529,"is_reserved":false,"is_disabled":false,"rental_uris":{"android":"levelo://app?vid=695e80c5-51e8-4715-aee4-fa689b542215","ios":"levelo://app?vid=695e80c5-51e8-4715-aee4-fa689b542215"},"vehicle_type_id":"4","last_reported":1748084844,"current_range_meters":12400,"station_id":"ce4bgm92rcd13ifvqbr0","pricing_plan_id":"cebpf4jnsgd1na2vs0mg"},{"bike_id":"7bb277c8-8548-47e1-8e29-697ca300a8c0","system_id":"levelo_inurba_marseille","lat":43.23047,"lon":5.35506,"is_reserved":false,"is_disabled":false,"rental_uris":{"android":"levelo://app?vid=7bb277c8-8548-47e1-8e29-697ca300a8c0","ios":"levelo://app?vid=7bb277c8-8548-47e1-8e29-697ca300a8c0"},"vehicle_type_id":"4","last_reported":1748084844,"current_range_meters":12400,"station_id":"cpo3342slgdg3j2ifvpg","pricing_plan_id":"cebpf4jnsgd1na2vs0mg"},{"bike_id":"caca026b-8f8f-4fc3-8c03-b4a0b2dde3d2","system_id":"levelo_inurba_marseille","lat":43.231928,"lon":5.3999,"is_reserved":false,"is_disabled":false,"rental_uris":{"android":"levelo://app?vid=caca026b-8f8f-4fc3-8c03-b4a0b2dde3d2","ios":"levelo://app?vid=caca026b-8f8f-4fc3-8c03-b4a0b2dde3d2"},"vehicle_type_id":"4","last_reported":1748084844,"current_range_meters":12800,"station_id":"ce4bhn12rcd13ifvqgqg","pricing_plan_id":"cebpf4jnsgd1na2vs0mg"},{"bike_id":"ad4a9cea-566c-4de4-9b0e-9b6c1abc3b34","system_id":"levelo_inurba_marseille","lat":43.25579,"lon":5.38229,"is_reserved":false,"is_disabled":false,"rental_uris":{"android":"levelo://app?vid=ad4a9cea-566c-4de4-9b0e-9b6c1abc3b34","ios":"levelo://app?vid=ad4a9cea-566c-4de4-9b0e-9b6c1abc3b34"},"vehicle_type_id":"4","last_reported":1748084844,"current_range_meters":12800,"station_id":"ce4bhih2rcd13ifvqfs0","pricing_plan_id":"cebpf4jnsgd1na2vs0mg"},{"bike_id":"2ddc5248-a77e-4145-909e-f839632582d5","system_id":"levelo_inurba_marseille","lat":43.2737,"lon":5.36263,"is_reserved":false,"is_disabled":false,"rental_uris":{"android":"levelo://app?vid=2ddc5248-a77e-4145-909e-f839632582d5","ios":"levelo://app?vid=2ddc5248-a77e-4145-909e-f839632582d5"},"vehicle_type_id":"4","last_reported":1748084844,"current_range_meters":12800,"station_id":"ce4bhbh2rcd13ifvqeo0","pricing_plan_id":"cebpf4jnsgd1na2vs0mg"},{"bike_id":"2382c307-593e-4132-bb3b-612eddf78ffd","system_id":"levelo_inurba_marseille","lat":43.29228,"lon":5.36049,"is_reserved":false,"is_disabled":false,"rental_uris":{"android":"levelo://app?vid=2382c307-593e-4132-bb3b-612eddf78ffd","ios":"levelo://app?vid=2382c307-593e-4132-bb3b-612eddf78ffd"},"vehicle_type_id":"4","last_reported":1748084844,"current_range_meters":12800,"station_id":"ce4bhbh2rcd13ifvqeqg","pricing_plan_id":"cebpf4jnsgd1na2vs0mg"},{"bike_id":"ce654b9a-c2bb-4943-978a-2eda51937327","system_id":"levelo_inurba_marseille","lat":43.2582,"lon":5.3944,"is_reserved":false,"is_disabled":false,"rental_uris":{"android":"levelo://app?vid=ce654b9a-c2bb-4943-978a-2eda51937327","ios":"levelo://app?vid=ce654b9a-c2bb-4943-978a-2eda51937327"},"vehicle_type_id":"4","last_reported":1748084844,"current_range_meters":12800,"station_id":"ce4bhip2rcd13ifvqft0","pricing_plan_id":"cebpf4jnsgd1na2vs0mg"},{"bike_id":"958e962d-b450-4420-8f47-47183cf0866a","system_id":"levelo_inurba_marseille","lat":43.2416,"lon":5.3639,"is_reserved":false,"is_disabled":false,"rental_uris":{"android":"levelo://app?vid=958e962d-b450-4420-8f47-47183cf0866a","ios":"levelo://app?vid=958e962d-b450-4420-8f47-47183cf0866a"},"vehicle_type_id":"4","last_reported":1748084844,"current_range_meters":12800,"station_id":"cpo36qri1sfpv3e86is0","pricing_plan_id":"cebpf4jnsgd1na2vs0mg"},{"bike_id":"4f51fadd-c84f-4e01-bd1e-4fe52dd8c84a","system_id":"levelo_inurba_marseille","lat":43.23967,"lon":5.3662,"is_reserved":false,"is_disabled":false,"rental_uris":{"android":"levelo://app?vid=4f51fadd-c84f-4e01-bd1e-4fe52dd8c84a","ios":"levelo://app?vid=4f51fadd-c84f-4e01-bd1e-4fe52dd8c84a"},"vehicle_type_id":"4","last_reported":1748084844,"current_range_meters":12800,"station_id":"ce4bhi12rcd13ifvqfp0","pricing_plan_id":"cebpf4jnsgd1na2vs0mg"},{"bike_id":"41e8aa44-92d2-486b-a6d4-64aef19385db","system_id":"levelo_inurba_marseille","lat":43.255902,"lon":5.382084,"is_reserved":false,"is_disabled":false,"rental_uris":{"android":"levelo://app?vid=41e8aa44-92d2-486b-a6d4-64aef19385db","ios":"levelo://app?vid=41e8aa44-92d2-486b-a6d4-64aef19385db"},"vehicle_type_id":"4","last_reported":1748084844,"current_range_meters":12800,"station_id":"ce4bhih2rcd13ifvqfs0","pricing_plan_id":"cebpf4jnsgd1na2vs0mg"},{"bike_id":"88ac5a91-56d3-4573-b0f2-5c6bbb7d986b","system_id":"levelo_inurba_marseille","lat":43.2608,"lon":5.39638,"is_reserved":false,"is_disabled":false,"rental_uris":{"android":"levelo://app?vid=88ac5a91-56d3-4573-b0f2-5c6bbb7d986b","ios":"levelo://app?vid=88ac5a91-56d3-4573-b0f2-5c6bbb7d986b"},"vehicle_type_id":"4","last_reported":1748084844,"current_range_meters":12800,"station_id":"","pricing_plan_id":"cebpf4jnsgd1na2vs0mg"},{"bike_id":"38a33022-57dd-45f0-9335-082ff5b520fc","system_id":"levelo_inurba_marseille","lat":43.29306,"lon":5.37179,"is_reserved":false,"is_disabled":false,"rental_uris":{"android":"levelo://app?vid=38a33022-57dd-45f0-9335-082ff5b520fc","ios":"levelo://app?vid=38a33022-57dd-45f0-9335-082ff5b520fc"},"vehicle_type_id":"4","last_reported":1748084844,"current_range_meters":12800,"station_id":"ce4bgh92rcd13ifvqb40","pricing_plan_id":"cebpf4jnsgd1na2vs0mg"},{"bike_id":"463c9174-fe23-4718-a04a-ba2c314917bb","system_id":"levelo_inurba_marseille","lat":43.24392,"lon":5.37055,"is_reserved":false,"is_disabled":false,"rental_uris":{"android":"levelo://app?vid=463c9174-fe23-4718-a04a-ba2c314917bb","ios":"levelo://app?vid=463c9174-fe23-4718-a04a-ba2c314917bb"},"vehicle_type_id":"4","last_reported":1748084844,"current_range_meters":12800,"station_id":"ce4bhhh2rcd13ifvqfk0","pricing_plan_id":"cebpf4jnsgd1na2vs0mg"},{"bike_id":"6029d796-c7ac-40c1-a44c-f3866e8cbf6d","system_id":"levelo_inurba_marseille","lat":43.27065,"lon":5.40253,"is_reserved":false,"is_disabled":false,"rental_uris":{"android":"levelo://app?vid=6029d796-c7ac-40c1-a44c-f3866e8cbf6d","ios":"levelo://app?vid=6029d796-c7ac-40c1-a44c-f3866e8cbf6d"},"vehicle_type_id":"4","last_reported":1748084844,"current_range_meters":13600,"station_id":"ce4bhk92rcd13ifvqgc0","pricing_plan_id":"cebpf4jnsgd1na2vs0mg"},{"bike_id":"78c31783-0534-4c88-9353-9a13582a3f1f","system_id":"levelo_inurba_marseille","lat":43.27824,"lon":5.37731,"is_reserved":false,"is_disabled":false,"rental_uris":{"android":"levelo://app?vid=78c31783-0534-4c88-9353-9a13582a3f1f","ios":"levelo://app?vid=78c31783-0534-4c88-9353-9a13582a3f1f"},"vehicle_type_id":"4","last_reported":1748084844,"current_range_meters":13600,"station_id":"","pricing_plan_id":"cebpf4jnsgd1na2vs0mg"},{"bike_id":"3b6f9319-a659-433b-8578-d1c4e3e7989e","system_id":"levelo_inurba_marseille","lat":43.30918,"lon":5.36803,"is_reserved":false,"is_disabled":false,"rental_uris":{"android":"levelo://app?vid=3b6f9319-a659-433b-8578-d1c4e3e7989e","ios":"levelo://app?vid=3b6f9319-a659-433b-8578-d1c4e3e7989e"},"vehicle_type_id":"4","last_reported":1748084844,"current_range_meters":13600,"station_id":"ce4bgn92rcd13ifvqbvg","pricing_plan_id":"cebpf4jnsgd1na2vs0mg"},{"bike_id":"6abb9ab4-3976-4e3e-b994-f2f72ee02055","system_id":"levelo_inurba_marseille","lat":43.31797,"lon":5.36808,"is_reserved":false,"is_disabled":false,"rental_uris":{"android":"levelo://app?vid=6abb9ab4-3976-4e3e-b994-f2f72ee02055","ios":"levelo://app?vid=6abb9ab4-3976-4e3e-b994-f2f72ee02055"},"vehicle_type_id":"4","last_reported":1748084844,"current_range_meters":13600,"station_id":"","pricing_plan_id":"cebpf4jnsgd1na2vs0mg"},{"bike_id":"3ccb9c18-8496-4fe9-a51e-a7e04c1cbde8","system_id":"levelo_inurba_marseille","lat":43.29043,"lon":5.36979,"is_reserved":false,"is_disabled":true,"rental_uris":{"android":"levelo://app?vid=3ccb9c18-8496-4fe9-a51e-a7e04c1cbde8","ios":"levelo://app?vid=3ccb9c18-8496-4fe9-a51e-a7e04c1cbde8"},"vehicle_type_id":"4","last_reported":1748084844,"current_range_meters":13600,"station_id":"","pricing_plan_id":"cebpf4jnsgd1na2vs0mg"},{"bike_id":"19210598-7f3a-48cd-97e1-e8655b2bae59","system_id":"levelo_inurba_marseille","lat":43.21212,"lon":5.35057,"is_reserved":false,"is_disabled":false,"rental_uris":{"android":"levelo://app?vid=19210598-7f3a-48cd-97e1-e8655b2bae59","ios":"levelo://app?vid=19210598-7f3a-48cd-97e1-e8655b2bae59"},"vehicle_type_id":"4","last_reported":1748084844,"current_range_meters":13600,"station_id":"st_cvj6sg6p6f1abm77japg","pricing_plan_id":"cebpf4jnsgd1na2vs0mg"},{"bike_id":"6664c864-9468-4ed1-86ca-f50c9688803c","system_id":"levelo_inurba_marseille","lat":43.28418,"lon":5.34995,"is_reserved":false,"is_disabled":false,"rental_uris":{"android":"levelo://app?vid=6664c864-9468-4ed1-86ca-f50c9688803c","ios":"levelo://app?vid=6664c864-9468-4ed1-86ca-f50c9688803c"},"vehicle_type_id":"4","last_reported":1748084844,"current_range_meters":14000,"station_id":"ce4bhbh2rcd13ifvqepg","pricing_plan_id":"cebpf4jnsgd1na2vs0mg"},{"bike_id":"d332bae2-da7d-471f-a2e7-632a04962589","system_id":"levelo_inurba_marseille","lat":43.21201,"lon":5.3507,"is_reserved":false,"is_disabled":false,"rental_uris":{"android":"levelo://app?vid=d332bae2-da7d-471f-a2e7-632a04962589","ios":"levelo://app?vid=d332bae2-da7d-471f-a2e7-632a04962589"},"vehicle_type_id":"4","last_reported":1748084844,"current_range_meters":14000,"station_id":"st_cvj6sg6p6f1abm77japg","pricing_plan_id":"cebpf4jnsgd1na2vs0mg"},{"bike_id":"0a08c7ad-ab3f-40a3-ab92-225677223d43","system_id":"levelo_inurba_marseille","lat":43.26244,"lon":5.37583,"is_reserved":false,"is_disabled":false,"rental_uris":{"android":"levelo://app?vid=0a08c7ad-ab3f-40a3-ab92-225677223d43","ios":"levelo://app?vid=0a08c7ad-ab3f-40a3-ab92-225677223d43"},"vehicle_type_id":"4","last_reported":1748084844,"current_range_meters":14000,"station_id":"","pricing_plan_id":"cebpf4jnsgd1na2vs0mg"},{"bike_id":"c3431646-4237-482a-8545-f58492a24779","system_id":"levelo_inurba_marseille","lat":43.21747,"lon":5.34595,"is_reserved":false,"is_disabled":false,"rental_uris":{"android":"levelo://app?vid=c3431646-4237-482a-8545-f58492a24779","ios":"levelo://app?vid=c3431646-4237-482a-8545-f58492a24779"},"vehicle_type_id":"4","last_reported":1748084844,"current_range_meters":14000,"station_id":"st_cvj6r9ubvosntc0bgbag","pricing_plan_id":"cebpf4jnsgd1na2vs0mg"},{"bike_id":"8905f232-e5f6-4dc3-83f3-8ced1049cc59","system_id":"levelo_inurba_marseille","lat":43.28145,"lon":5.42655,"is_reserved":false,"is_disabled":false,"rental_uris":{"android":"levelo://app?vid=8905f232-e5f6-4dc3-83f3-8ced1049cc59","ios":"levelo://app?vid=8905f232-e5f6-4dc3-83f3-8ced1049cc59"},"vehicle_type_id":"4","last_reported":1748084844,"current_range_meters":14000,"station_id":"ce4bhnh2rcd13ifvqgug","pricing_plan_id":"cebpf4jnsgd1na2vs0mg"},{"bike_id":"433fe104-88d4-4ad3-b5f8-255601f00187","system_id":"levelo_inurba_marseille","lat":43.29276,"lon":5.36845,"is_reserved":false,"is_disabled":false,"rental_uris":{"android":"levelo://app?vid=433fe104-88d4-4ad3-b5f8-255601f00187","ios":"levelo://app?vid=433fe104-88d4-4ad3-b5f8-255601f00187"},"vehicle_type_id":"4","last_reported":1748084844,"current_range_meters":14000,"station_id":"ce4bhbp2rcd13ifvqesg","pricing_plan_id":"cebpf4jnsgd1na2vs0mg"},{"bike_id":"5a5dacb6-f26a-42aa-875a-05137988bd9f","system_id":"levelo_inurba_marseille","lat":43.21747,"lon":5.34608,"is_reserved":false,"is_disabled":false,"rental_uris":{"android":"levelo://app?vid=5a5dacb6-f26a-42aa-875a-05137988bd9f","ios":"levelo://app?vid=5a5dacb6-f26a-42aa-875a-05137988bd9f"},"vehicle_type_id":"4","last_reported":1748084844,"current_range_meters":14000,"station_id":"st_cvj6r9ubvosntc0bgbag","pricing_plan_id":"cebpf4jnsgd1na2vs0mg"},{"bike_id":"b72ccfd1-35cf-4b02-9c1a-90aef7c74e5f","system_id":"levelo_inurba_marseille","lat":43.24871,"lon":5.44186,"is_reserved":false,"is_disabled":false,"rental_uris":{"android":"levelo://app?vid=b72ccfd1-35cf-4b02-9c1a-90aef7c74e5f","ios":"levelo://app?vid=b72ccfd1-35cf-4b02-9c1a-90aef7c74e5f"},"vehicle_type_id":"4","last_reported":1748084844,"current_range_meters":14000,"station_id":"","pricing_plan_id":"cebpf4jnsgd1na2vs0mg"},{"bike_id":"da453a88-f81b-4e0f-9781-5a7f6c1d364c","system_id":"levelo_inurba_marseille","lat":43.337499,"lon":5.374469,"is_reserved":false,"is_disabled":false,"rental_uris":{"android":"levelo://app?vid=da453a88-f81b-4e0f-9781-5a7f6c1d364c","ios":"levelo://app?vid=da453a88-f81b-4e0f-9781-5a7f6c1d364c"},"vehicle_type_id":"4","last_reported":1748084844,"current_range_meters":14400,"station_id":"","pricing_plan_id":"cebpf4jnsgd1na2vs0mg"},{"bike_id":"850a46df-2483-490b-89a8-7f51e86b3310","system_id":"levelo_inurba_marseille","lat":43.298534,"lon":5.381042,"is_reserved":false,"is_disabled":false,"rental_uris":{"android":"levelo://app?vid=850a46df-2483-490b-89a8-7f51e86b3310","ios":"levelo://app?vid=850a46df-2483-490b-89a8-7f51e86b3310"},"vehicle_type_id":"4","last_reported":1748084844,"current_range_meters":14400,"station_id":"","pricing_plan_id":"cebpf4jnsgd1na2vs0mg"},{"bike_id":"8dc2e8e6-d24f-479a-9c35-9d38b038f7ef","system_id":"levelo_inurba_marseille","lat":43.25493,"lon":5.37649,"is_reserved":false,"is_disabled":false,"rental_uris":{"android":"levelo://app?vid=8dc2e8e6-d24f-479a-9c35-9d38b038f7ef","ios":"levelo://app?vid=8dc2e8e6-d24f-479a-9c35-9d38b038f7ef"},"vehicle_type_id":"4","last_reported":1748084844,"current_range_meters":14400,"station_id":"ce4bhh12rcd13ifvqff0","pricing_plan_id":"cebpf4jnsgd1na2vs0mg"},{"bike_id":"b01cd2e6-226e-44fb-bf6f-8ba24b4312f9","system_id":"levelo_inurba_marseille","lat":43.25511,"lon":5.37633,"is_reserved":false,"is_disabled":false,"rental_uris":{"android":"levelo://app?vid=b01cd2e6-226e-44fb-bf6f-8ba24b4312f9","ios":"levelo://app?vid=b01cd2e6-226e-44fb-bf6f-8ba24b4312f9"},"vehicle_type_id":"4","last_reported":1748084844,"current_range_meters":14400,"station_id":"ce4bhh12rcd13ifvqff0","pricing_plan_id":"cebpf4jnsgd1na2vs0mg"},{"bike_id":"41c86248-4a29-4ae8-aaee-57df3577c6ed","system_id":"levelo_inurba_marseille","lat":43.28268,"lon":5.35064,"is_reserved":false,"is_disabled":false,"rental_uris":{"android":"levelo://app?vid=41c86248-4a29-4ae8-aaee-57df3577c6ed","ios":"levelo://app?vid=41c86248-4a29-4ae8-aaee-57df3577c6ed"},"vehicle_type_id":"4","last_reported":1748084844,"current_range_meters":14000,"station_id":"ce4bhbp2rcd13ifvqerg","pricing_plan_id":"cebpf4jnsgd1na2vs0mg"},{"bike_id":"4b43d9d2-8342-4399-9465-dcbf62b66e2f","system_id":"levelo_inurba_marseille","lat":43.229383,"lon":5.353659,"is_reserved":false,"is_disabled":false,"rental_uris":{"android":"levelo://app?vid=4b43d9d2-8342-4399-9465-dcbf62b66e2f","ios":"levelo://app?vid=4b43d9d2-8342-4399-9465-dcbf62b66e2f"},"vehicle_type_id":"4","last_reported":1748084844,"current_range_meters":14400,"station_id":"cpo3532slgdg3j2ikp40","pricing_plan_id":"cebpf4jnsgd1na2vs0mg"},{"bike_id":"ac27c113-f0e6-4e53-9a74-f19e261b773f","system_id":"levelo_inurba_marseille","lat":43.29024,"lon":5.38646,"is_reserved":false,"is_disabled":false,"rental_uris":{"android":"levelo://app?vid=ac27c113-f0e6-4e53-9a74-f19e261b773f","ios":"levelo://app?vid=ac27c113-f0e6-4e53-9a74-f19e261b773f"},"vehicle_type_id":"4","last_reported":1748084844,"current_range_meters":14800,"station_id":"ce4bh4p2rcd13ifvqe0g","pricing_plan_id":"cebpf4jnsgd1na2vs0mg"},{"bike_id":"71eb39e9-61a5-4044-bf62-7651e2737293","system_id":"levelo_inurba_marseille","lat":43.2828,"lon":5.35068,"is_reserved":false,"is_disabled":false,"rental_uris":{"android":"levelo://app?vid=71eb39e9-61a5-4044-bf62-7651e2737293","ios":"levelo://app?vid=71eb39e9-61a5-4044-bf62-7651e2737293"},"vehicle_type_id":"4","last_reported":1748084844,"current_range_meters":14800,"station_id":"ce4bhbp2rcd13ifvqerg","pricing_plan_id":"cebpf4jnsgd1na2vs0mg"},{"bike_id":"9745d4ca-9fff-4bee-9e27-8d3ac452e027","system_id":"levelo_inurba_marseille","lat":43.249308,"lon":5.374069,"is_reserved":false,"is_disabled":false,"rental_uris":{"android":"levelo://app?vid=9745d4ca-9fff-4bee-9e27-8d3ac452e027","ios":"levelo://app?vid=9745d4ca-9fff-4bee-9e27-8d3ac452e027"},"vehicle_type_id":"4","last_reported":1748084844,"current_range_meters":14800,"station_id":"ce4bhgh2rcd13ifvqfb0","pricing_plan_id":"cebpf4jnsgd1na2vs0mg"},{"bike_id":"2590b38a-8ca2-49a0-bde0-596878e96876","system_id":"levelo_inurba_marseille","lat":43.28277,"lon":5.35074,"is_reserved":false,"is_disabled":false,"rental_uris":{"android":"levelo://app?vid=2590b38a-8ca2-49a0-bde0-596878e96876","ios":"levelo://app?vid=2590b38a-8ca2-49a0-bde0-596878e96876"},"vehicle_type_id":"4","last_reported":1748084844,"current_range_meters":15200,"station_id":"ce4bhbp2rcd13ifvqerg","pricing_plan_id":"cebpf4jnsgd1na2vs0mg"},{"bike_id":"64664a6d-80d9-4ffa-823c-b363612861b5","system_id":"levelo_inurba_marseille","lat":43.28941,"lon":5.36642,"is_reserved":false,"is_disabled":true,"rental_uris":{"android":"levelo://app?vid=64664a6d-80d9-4ffa-823c-b363612861b5","ios":"levelo://app?vid=64664a6d-80d9-4ffa-823c-b363612861b5"},"vehicle_type_id":"4","last_reported":1748084844,"current_range_meters":15200,"station_id":"ce4bhap2rcd13ifvqek0","pricing_plan_id":"cebpf4jnsgd1na2vs0mg"},{"bike_id":"ab63e507-8b19-4404-ab19-b64c7d919630","system_id":"levelo_inurba_marseille","lat":43.22498,"lon":5.3477,"is_reserved":false,"is_disabled":false,"rental_uris":{"android":"levelo://app?vid=ab63e507-8b19-4404-ab19-b64c7d919630","ios":"levelo://app?vid=ab63e507-8b19-4404-ab19-b64c7d919630"},"vehicle_type_id":"4","last_reported":1748084844,"current_range_meters":15200,"station_id":"st_cvj5dfep6f1abm77gieg","pricing_plan_id":"cebpf4jnsgd1na2vs0mg"},{"bike_id":"a3eae95d-50dc-46ab-a03d-8889ab5f0bf0","system_id":"levelo_inurba_marseille","lat":43.286129,"lon":5.35104,"is_reserved":false,"is_disabled":false,"rental_uris":{"android":"levelo://app?vid=a3eae95d-50dc-46ab-a03d-8889ab5f0bf0","ios":"levelo://app?vid=a3eae95d-50dc-46ab-a03d-8889ab5f0bf0"},"vehicle_type_id":"4","last_reported":1748084844,"current_range_meters":15200,"station_id":"ce4bhch2rcd13ifvqeug","pricing_plan_id":"cebpf4jnsgd1na2vs0mg"},{"bike_id":"a44f2506-8dc2-4f85-9270-adfcca72358c","system_id":"levelo_inurba_marseille","lat":43.232,"lon":5.35552,"is_reserved":false,"is_disabled":false,"rental_uris":{"android":"levelo://app?vid=a44f2506-8dc2-4f85-9270-adfcca72358c","ios":"levelo://app?vid=a44f2506-8dc2-4f85-9270-adfcca72358c"},"vehicle_type_id":"4","last_reported":1748084844,"current_range_meters":16000,"station_id":"ce4bhu92rcd13ifvqi70","pricing_plan_id":"cebpf4jnsgd1na2vs0mg"},{"bike_id":"81b1ea74-5ff4-422a-bfd1-3922585edd50","system_id":"levelo_inurba_marseille","lat":43.28493,"lon":5.39127,"is_reserved":false,"is_disabled":false,"rental_uris":{"android":"levelo://app?vid=81b1ea74-5ff4-422a-bfd1-3922585edd50","ios":"levelo://app?vid=81b1ea74-5ff4-422a-bfd1-3922585edd50"},"vehicle_type_id":"4","last_reported":1748084844,"current_range_meters":16000,"station_id":"","pricing_plan_id":"cebpf4jnsgd1na2vs0mg"},{"bike_id":"b15a2d71-ef21-4804-aa8a-fbcdb9a3abb4","system_id":"levelo_inurba_marseille","lat":43.29579,"lon":5.37476,"is_reserved":false,"is_disabled":false,"rental_uris":{"android":"levelo://app?vid=b15a2d71-ef21-4804-aa8a-fbcdb9a3abb4","ios":"levelo://app?vid=b15a2d71-ef21-4804-aa8a-fbcdb9a3abb4"},"vehicle_type_id":"4","last_reported":1748084844,"current_range_meters":16000,"station_id":"ce4bgh92rcd13ifvqb50","pricing_plan_id":"cebpf4jnsgd1na2vs0mg"},{"bike_id":"b14b938b-1494-4b3c-8d94-6a3c2d441b73","system_id":"levelo_inurba_marseille","lat":43.21747,"lon":5.34603,"is_reserved":false,"is_disabled":false,"rental_uris":{"android":"levelo://app?vid=b14b938b-1494-4b3c-8d94-6a3c2d441b73","ios":"levelo://app?vid=b14b938b-1494-4b3c-8d94-6a3c2d441b73"},"vehicle_type_id":"4","last_reported":1748084844,"current_range_meters":16000,"station_id":"st_cvj6r9ubvosntc0bgbag","pricing_plan_id":"cebpf4jnsgd1na2vs0mg"},{"bike_id":"29aaa5f6-ea15-4a30-9355-7e8dc7eaf811","system_id":"levelo_inurba_marseille","lat":43.27802,"lon":5.37462,"is_reserved":false,"is_disabled":false,"rental_uris":{"android":"levelo://app?vid=29aaa5f6-ea15-4a30-9355-7e8dc7eaf811","ios":"levelo://app?vid=29aaa5f6-ea15-4a30-9355-7e8dc7eaf811"},"vehicle_type_id":"4","last_reported":1748084844,"current_range_meters":16000,"station_id":"","pricing_plan_id":"cebpf4jnsgd1na2vs0mg"},{"bike_id":"7658d080-7d94-4e4e-9d81-39b5eb8e3a39","system_id":"levelo_inurba_marseille","lat":43.27184,"lon":5.40991,"is_reserved":false,"is_disabled":false,"rental_uris":{"android":"levelo://app?vid=7658d080-7d94-4e4e-9d81-39b5eb8e3a39","ios":"levelo://app?vid=7658d080-7d94-4e4e-9d81-39b5eb8e3a39"},"vehicle_type_id":"4","last_reported":1748084844,"current_range_meters":16000,"station_id":"ce4bhl12rcd13ifvqgf0","pricing_plan_id":"cebpf4jnsgd1na2vs0mg"},{"bike_id":"fb5ea1d0-6fa4-4437-9140-d3b49357b2a1","system_id":"levelo_inurba_marseille","lat":43.29279,"lon":5.3684,"is_reserved":false,"is_disabled":false,"rental_uris":{"android":"levelo://app?vid=fb5ea1d0-6fa4-4437-9140-d3b49357b2a1","ios":"levelo://app?vid=fb5ea1d0-6fa4-4437-9140-d3b49357b2a1"},"vehicle_type_id":"4","last_reported":1748084844,"current_range_meters":16000,"station_id":"ce4bhbp2rcd13ifvqesg","pricing_plan_id":"cebpf4jnsgd1na2vs0mg"},{"bike_id":"3b8b6328-1fb5-4dc5-b490-5e623bd6a5e3","system_id":"levelo_inurba_marseille","lat":43.27259,"lon":5.39199,"is_reserved":false,"is_disabled":false,"rental_uris":{"android":"levelo://app?vid=3b8b6328-1fb5-4dc5-b490-5e623bd6a5e3","ios":"levelo://app?vid=3b8b6328-1fb5-4dc5-b490-5e623bd6a5e3"},"vehicle_type_id":"4","last_reported":1748084844,"current_range_meters":16000,"station_id":"","pricing_plan_id":"cebpf4jnsgd1na2vs0mg"},{"bike_id":"25c1693a-9dd2-46ec-9983-f821c86b042b","system_id":"levelo_inurba_marseille","lat":43.28281,"lon":5.35059,"is_reserved":false,"is_disabled":false,"rental_uris":{"android":"levelo://app?vid=25c1693a-9dd2-46ec-9983-f821c86b042b","ios":"levelo://app?vid=25c1693a-9dd2-46ec-9983-f821c86b042b"},"vehicle_type_id":"4","last_reported":1748084844,"current_range_meters":16000,"station_id":"ce4bhbp2rcd13ifvqerg","pricing_plan_id":"cebpf4jnsgd1na2vs0mg"},{"bike_id":"18575cf2-ee5c-4172-a1f9-cf5662b123ed","system_id":"levelo_inurba_marseille","lat":43.21747,"lon":5.34603,"is_reserved":false,"is_disabled":false,"rental_uris":{"android":"levelo://app?vid=18575cf2-ee5c-4172-a1f9-cf5662b123ed","ios":"levelo://app?vid=18575cf2-ee5c-4172-a1f9-cf5662b123ed"},"vehicle_type_id":"4","last_reported":1748084844,"current_range_meters":16000,"station_id":"st_cvj6r9ubvosntc0bgbag","pricing_plan_id":"cebpf4jnsgd1na2vs0mg"},{"bike_id":"5e481a50-6484-45d1-841e-25978db0626d","system_id":"levelo_inurba_marseille","lat":43.23961,"lon":5.36644,"is_reserved":false,"is_disabled":false,"rental_uris":{"android":"levelo://app?vid=5e481a50-6484-45d1-841e-25978db0626d","ios":"levelo://app?vid=5e481a50-6484-45d1-841e-25978db0626d"},"vehicle_type_id":"4","last_reported":1748084844,"current_range_meters":15200,"station_id":"ce4bhi12rcd13ifvqfp0","pricing_plan_id":"cebpf4jnsgd1na2vs0mg"},{"bike_id":"28d1d16f-eb50-44e2-be6d-0d75193657dc","system_id":"levelo_inurba_marseille","lat":43.2693,"lon":5.38919,"is_reserved":false,"is_disabled":false,"rental_uris":{"android":"levelo://app?vid=28d1d16f-eb50-44e2-be6d-0d75193657dc","ios":"levelo://app?vid=28d1d16f-eb50-44e2-be6d-0d75193657dc"},"vehicle_type_id":"4","last_reported":1748084844,"current_range_meters":15200,"station_id":"ce4bhhh2rcd13ifvqfl0","pricing_plan_id":"cebpf4jnsgd1na2vs0mg"},{"bike_id":"5dc1ce20-b337-47e2-9fd0-5d18229ce268","system_id":"levelo_inurba_marseille","lat":43.24654,"lon":5.38892,"is_reserved":false,"is_disabled":false,"rental_uris":{"android":"levelo://app?vid=5dc1ce20-b337-47e2-9fd0-5d18229ce268","ios":"levelo://app?vid=5dc1ce20-b337-47e2-9fd0-5d18229ce268"},"vehicle_type_id":"4","last_reported":1748084844,"current_range_meters":16000,"station_id":"ce4bhg12rcd13ifvqf60","pricing_plan_id":"cebpf4jnsgd1na2vs0mg"},{"bike_id":"a4a2240a-4e8b-427f-a378-c7fd0cdca093","system_id":"levelo_inurba_marseille","lat":43.24546,"lon":5.39525,"is_reserved":false,"is_disabled":false,"rental_uris":{"android":"levelo://app?vid=a4a2240a-4e8b-427f-a378-c7fd0cdca093","ios":"levelo://app?vid=a4a2240a-4e8b-427f-a378-c7fd0cdca093"},"vehicle_type_id":"4","last_reported":1748084844,"current_range_meters":16000,"station_id":"ce4bhlp2rcd13ifvqgjg","pricing_plan_id":"cebpf4jnsgd1na2vs0mg"},{"bike_id":"05dd174b-9d4f-4a7a-85e3-bb808c3595f0","system_id":"levelo_inurba_marseille","lat":43.336081,"lon":5.410254,"is_reserved":false,"is_disabled":false,"rental_uris":{"android":"levelo://app?vid=05dd174b-9d4f-4a7a-85e3-bb808c3595f0","ios":"levelo://app?vid=05dd174b-9d4f-4a7a-85e3-bb808c3595f0"},"vehicle_type_id":"4","last_reported":1748084844,"current_range_meters":16000,"station_id":"ce4bhqh2rcd13ifvqhmg","pricing_plan_id":"cebpf4jnsgd1na2vs0mg"},{"bike_id":"c3b56345-bb94-49f4-afc5-caa79dccf181","system_id":"levelo_inurba_marseille","lat":43.21186,"lon":5.35058,"is_reserved":false,"is_disabled":false,"rental_uris":{"android":"levelo://app?vid=c3b56345-bb94-49f4-afc5-caa79dccf181","ios":"levelo://app?vid=c3b56345-bb94-49f4-afc5-caa79dccf181"},"vehicle_type_id":"4","last_reported":1748084844,"current_range_meters":16000,"station_id":"st_cvj6sg6p6f1abm77japg","pricing_plan_id":"cebpf4jnsgd1na2vs0mg"},{"bike_id":"f156f21b-0452-42dd-94c2-117a1fdc0948","system_id":"levelo_inurba_marseille","lat":43.29852,"lon":5.36288,"is_reserved":false,"is_disabled":false,"rental_uris":{"android":"levelo://app?vid=f156f21b-0452-42dd-94c2-117a1fdc0948","ios":"levelo://app?vid=f156f21b-0452-42dd-94c2-117a1fdc0948"},"vehicle_type_id":"4","last_reported":1748084844,"current_range_meters":16000,"station_id":"ce4bgpp2rcd13ifvqc3g","pricing_plan_id":"cebpf4jnsgd1na2vs0mg"},{"bike_id":"1d4a447a-6c34-4270-8c98-22bed3019ea1","system_id":"levelo_inurba_marseille","lat":43.23193,"lon":5.35549,"is_reserved":false,"is_disabled":false,"rental_uris":{"android":"levelo://app?vid=1d4a447a-6c34-4270-8c98-22bed3019ea1","ios":"levelo://app?vid=1d4a447a-6c34-4270-8c98-22bed3019ea1"},"vehicle_type_id":"4","last_reported":1748084844,"current_range_meters":16400,"station_id":"ce4bhu92rcd13ifvqi70","pricing_plan_id":"cebpf4jnsgd1na2vs0mg"},{"bike_id":"a3f9f063-ad8f-4e47-a150-e1268c775f59","system_id":"levelo_inurba_marseille","lat":43.30532,"lon":5.36522,"is_reserved":false,"is_disabled":false,"rental_uris":{"android":"levelo://app?vid=a3f9f063-ad8f-4e47-a150-e1268c775f59","ios":"levelo://app?vid=a3f9f063-ad8f-4e47-a150-e1268c775f59"},"vehicle_type_id":"4","last_reported":1748084844,"current_range_meters":16000,"station_id":"ce4bgs12rcd13ifvqcag","pricing_plan_id":"cebpf4jnsgd1na2vs0mg"},{"bike_id":"11f3c8da-0977-4efe-a4e4-811c61a8ddca","system_id":"levelo_inurba_marseille","lat":43.25,"lon":5.38922,"is_reserved":false,"is_disabled":false,"rental_uris":{"android":"levelo://app?vid=11f3c8da-0977-4efe-a4e4-811c61a8ddca","ios":"levelo://app?vid=11f3c8da-0977-4efe-a4e4-811c61a8ddca"},"vehicle_type_id":"4","last_reported":1748084844,"current_range_meters":16400,"station_id":"ce4bhgp2rcd13ifvqfd0","pricing_plan_id":"cebpf4jnsgd1na2vs0mg"},{"bike_id":"7066adaa-a820-4f04-90df-5a90a71518cc","system_id":"levelo_inurba_marseille","lat":43.229364,"lon":5.353776,"is_reserved":false,"is_disabled":false,"rental_uris":{"android":"levelo://app?vid=7066adaa-a820-4f04-90df-5a90a71518cc","ios":"levelo://app?vid=7066adaa-a820-4f04-90df-5a90a71518cc"},"vehicle_type_id":"4","last_reported":1748084844,"current_range_meters":16400,"station_id":"cpo3532slgdg3j2ikp40","pricing_plan_id":"cebpf4jnsgd1na2vs0mg"},{"bike_id":"3b398651-9f46-42d3-ab05-cf77a1c2764a","system_id":"levelo_inurba_marseille","lat":43.26942,"lon":5.40254,"is_reserved":false,"is_disabled":false,"rental_uris":{"android":"levelo://app?vid=3b398651-9f46-42d3-ab05-cf77a1c2764a","ios":"levelo://app?vid=3b398651-9f46-42d3-ab05-cf77a1c2764a"},"vehicle_type_id":"4","last_reported":1748084844,"current_range_meters":16400,"station_id":"cjm6bp8fraef2m0cb0m0","pricing_plan_id":"cebpf4jnsgd1na2vs0mg"},{"bike_id":"06c6206d-0e86-4d7a-bfcb-91c3af67c188","system_id":"levelo_inurba_marseille","lat":43.24657,"lon":5.38883,"is_reserved":false,"is_disabled":false,"rental_uris":{"android":"levelo://app?vid=06c6206d-0e86-4d7a-bfcb-91c3af67c188","ios":"levelo://app?vid=06c6206d-0e86-4d7a-bfcb-91c3af67c188"},"vehicle_type_id":"4","last_reported":1748084844,"current_range_meters":16400,"station_id":"ce4bhg12rcd13ifvqf60","pricing_plan_id":"cebpf4jnsgd1na2vs0mg"},{"bike_id":"ae82dacd-c0df-4962-a824-3013b01dea32","system_id":"levelo_inurba_marseille","lat":43.23967,"lon":5.36626,"is_reserved":false,"is_disabled":false,"rental_uris":{"android":"levelo://app?vid=ae82dacd-c0df-4962-a824-3013b01dea32","ios":"levelo://app?vid=ae82dacd-c0df-4962-a824-3013b01dea32"},"vehicle_type_id":"4","last_reported":1748084844,"current_range_meters":16400,"station_id":"ce4bhi12rcd13ifvqfp0","pricing_plan_id":"cebpf4jnsgd1na2vs0mg"},{"bike_id":"c3528111-cdf8-4bc6-8880-004b7c6d017b","system_id":"levelo_inurba_marseille","lat":43.26944,"lon":5.40259,"is_reserved":false,"is_disabled":false,"rental_uris":{"android":"levelo://app?vid=c3528111-cdf8-4bc6-8880-004b7c6d017b","ios":"levelo://app?vid=c3528111-cdf8-4bc6-8880-004b7c6d017b"},"vehicle_type_id":"4","last_reported":1748084844,"current_range_meters":16400,"station_id":"cjm6bp8fraef2m0cb0m0","pricing_plan_id":"cebpf4jnsgd1na2vs0mg"},{"bike_id":"0233fa99-31e9-4881-96b1-6f1d2a644672","system_id":"levelo_inurba_marseille","lat":43.21751,"lon":5.34597,"is_reserved":false,"is_disabled":false,"rental_uris":{"android":"levelo://app?vid=0233fa99-31e9-4881-96b1-6f1d2a644672","ios":"levelo://app?vid=0233fa99-31e9-4881-96b1-6f1d2a644672"},"vehicle_type_id":"4","last_reported":1748084844,"current_range_meters":16400,"station_id":"st_cvj6r9ubvosntc0bgbag","pricing_plan_id":"cebpf4jnsgd1na2vs0mg"},{"bike_id":"6a77fe1d-763d-4eee-8231-5bc443165748","system_id":"levelo_inurba_marseille","lat":43.29306,"lon":5.37179,"is_reserved":false,"is_disabled":false,"rental_uris":{"android":"levelo://app?vid=6a77fe1d-763d-4eee-8231-5bc443165748","ios":"levelo://app?vid=6a77fe1d-763d-4eee-8231-5bc443165748"},"vehicle_type_id":"4","last_reported":1748084844,"current_range_meters":16800,"station_id":"ce4bgh92rcd13ifvqb40","pricing_plan_id":"cebpf4jnsgd1na2vs0mg"},{"bike_id":"815b17c4-41f7-445f-b697-82e0fb0b7305","system_id":"levelo_inurba_marseille","lat":43.27365,"lon":5.36244,"is_reserved":false,"is_disabled":false,"rental_uris":{"android":"levelo://app?vid=815b17c4-41f7-445f-b697-82e0fb0b7305","ios":"levelo://app?vid=815b17c4-41f7-445f-b697-82e0fb0b7305"},"vehicle_type_id":"4","last_reported":1748084844,"current_range_meters":16800,"station_id":"ce4bhbh2rcd13ifvqeo0","pricing_plan_id":"cebpf4jnsgd1na2vs0mg"},{"bike_id":"d6d5c922-c36d-4a2f-9b16-782d074c6d68","system_id":"levelo_inurba_marseille","lat":43.25503,"lon":5.37645,"is_reserved":false,"is_disabled":false,"rental_uris":{"android":"levelo://app?vid=d6d5c922-c36d-4a2f-9b16-782d074c6d68","ios":"levelo://app?vid=d6d5c922-c36d-4a2f-9b16-782d074c6d68"},"vehicle_type_id":"4","last_reported":1748084844,"current_range_meters":16800,"station_id":"ce4bhh12rcd13ifvqff0","pricing_plan_id":"cebpf4jnsgd1na2vs0mg"},{"bike_id":"338aaf30-7fbd-41a4-aa7b-77d8e865b5d3","system_id":"levelo_inurba_marseille","lat":43.245442,"lon":5.395272,"is_reserved":false,"is_disabled":false,"rental_uris":{"android":"levelo://app?vid=338aaf30-7fbd-41a4-aa7b-77d8e865b5d3","ios":"levelo://app?vid=338aaf30-7fbd-41a4-aa7b-77d8e865b5d3"},"vehicle_type_id":"4","last_reported":1748084844,"current_range_meters":16800,"station_id":"ce4bhlp2rcd13ifvqgjg","pricing_plan_id":"cebpf4jnsgd1na2vs0mg"},{"bike_id":"21eccf17-b645-4665-b22f-82eefc134193","system_id":"levelo_inurba_marseille","lat":43.23157,"lon":5.43683,"is_reserved":false,"is_disabled":false,"rental_uris":{"android":"levelo://app?vid=21eccf17-b645-4665-b22f-82eefc134193","ios":"levelo://app?vid=21eccf17-b645-4665-b22f-82eefc134193"},"vehicle_type_id":"4","last_reported":1748084844,"current_range_meters":16800,"station_id":"ce4bhmp2rcd13ifvqgog","pricing_plan_id":"cebpf4jnsgd1na2vs0mg"},{"bike_id":"95bf5b38-7941-40b6-bd72-523b0ce20bf7","system_id":"levelo_inurba_marseille","lat":43.27563,"lon":5.38407,"is_reserved":false,"is_disabled":false,"rental_uris":{"android":"levelo://app?vid=95bf5b38-7941-40b6-bd72-523b0ce20bf7","ios":"levelo://app?vid=95bf5b38-7941-40b6-bd72-523b0ce20bf7"},"vehicle_type_id":"4","last_reported":1748084844,"current_range_meters":16800,"station_id":"ce4bhh92rcd13ifvqfi0","pricing_plan_id":"cebpf4jnsgd1na2vs0mg"},{"bike_id":"5fc2faff-c631-403e-8fa3-c1e07449d7a2","system_id":"levelo_inurba_marseille","lat":43.243961,"lon":5.370569,"is_reserved":false,"is_disabled":false,"rental_uris":{"android":"levelo://app?vid=5fc2faff-c631-403e-8fa3-c1e07449d7a2","ios":"levelo://app?vid=5fc2faff-c631-403e-8fa3-c1e07449d7a2"},"vehicle_type_id":"4","last_reported":1748084844,"current_range_meters":17200,"station_id":"ce4bhhh2rcd13ifvqfk0","pricing_plan_id":"cebpf4jnsgd1na2vs0mg"},{"bike_id":"c1c28c77-6e4f-43c3-b686-ac6e7f4f989c","system_id":"levelo_inurba_marseille","lat":43.28419,"lon":5.34992,"is_reserved":false,"is_disabled":false,"rental_uris":{"android":"levelo://app?vid=c1c28c77-6e4f-43c3-b686-ac6e7f4f989c","ios":"levelo://app?vid=c1c28c77-6e4f-43c3-b686-ac6e7f4f989c"},"vehicle_type_id":"4","last_reported":1748084844,"current_range_meters":17200,"station_id":"ce4bhbh2rcd13ifvqepg","pricing_plan_id":"cebpf4jnsgd1na2vs0mg"},{"bike_id":"dc673dd9-f7a1-4fa9-a051-bae452fb22d6","system_id":"levelo_inurba_marseille","lat":43.3078,"lon":5.43529,"is_reserved":false,"is_disabled":false,"rental_uris":{"android":"levelo://app?vid=dc673dd9-f7a1-4fa9-a051-bae452fb22d6","ios":"levelo://app?vid=dc673dd9-f7a1-4fa9-a051-bae452fb22d6"},"vehicle_type_id":"4","last_reported":1748084844,"current_range_meters":17200,"station_id":"ce4bhph2rcd13ifvqheg","pricing_plan_id":"cebpf4jnsgd1na2vs0mg"},{"bike_id":"c4e8c4f1-d5f5-4510-98c2-e4daad66adca","system_id":"levelo_inurba_marseille","lat":43.21753,"lon":5.34602,"is_reserved":false,"is_disabled":false,"rental_uris":{"android":"levelo://app?vid=c4e8c4f1-d5f5-4510-98c2-e4daad66adca","ios":"levelo://app?vid=c4e8c4f1-d5f5-4510-98c2-e4daad66adca"},"vehicle_type_id":"4","last_reported":1748084844,"current_range_meters":17200,"station_id":"st_cvj6r9ubvosntc0bgbag","pricing_plan_id":"cebpf4jnsgd1na2vs0mg"},{"bike_id":"d294229d-0afe-4675-ae8a-a0bb5339eba4","system_id":"levelo_inurba_marseille","lat":43.28419,"lon":5.35843,"is_reserved":false,"is_disabled":false,"rental_uris":{"android":"levelo://app?vid=d294229d-0afe-4675-ae8a-a0bb5339eba4","ios":"levelo://app?vid=d294229d-0afe-4675-ae8a-a0bb5339eba4"},"vehicle_type_id":"4","last_reported":1748084844,"current_range_meters":17200,"station_id":"ce4bhah2rcd13ifvqei0","pricing_plan_id":"cebpf4jnsgd1na2vs0mg"},{"bike_id":"bc214a8d-7792-401a-89de-02f4f2c81413","system_id":"levelo_inurba_marseille","lat":43.24174,"lon":5.36397,"is_reserved":false,"is_disabled":false,"rental_uris":{"android":"levelo://app?vid=bc214a8d-7792-401a-89de-02f4f2c81413","ios":"levelo://app?vid=bc214a8d-7792-401a-89de-02f4f2c81413"},"vehicle_type_id":"4","last_reported":1748084844,"current_range_meters":17200,"station_id":"cpo36qri1sfpv3e86is0","pricing_plan_id":"cebpf4jnsgd1na2vs0mg"},{"bike_id":"b959a865-fc01-4964-9b1d-7e25b047370d","system_id":"levelo_inurba_marseille","lat":43.23209,"lon":5.35594,"is_reserved":false,"is_disabled":false,"rental_uris":{"android":"levelo://app?vid=b959a865-fc01-4964-9b1d-7e25b047370d","ios":"levelo://app?vid=b959a865-fc01-4964-9b1d-7e25b047370d"},"vehicle_type_id":"4","last_reported":1748084844,"current_range_meters":17200,"station_id":"ce4bhu92rcd13ifvqi70","pricing_plan_id":"cebpf4jnsgd1na2vs0mg"},{"bike_id":"6aa2e3c7-8541-4478-b31e-aae6985ea66d","system_id":"levelo_inurba_marseille","lat":43.29416,"lon":5.38613,"is_reserved":false,"is_disabled":false,"rental_uris":{"android":"levelo://app?vid=6aa2e3c7-8541-4478-b31e-aae6985ea66d","ios":"levelo://app?vid=6aa2e3c7-8541-4478-b31e-aae6985ea66d"},"vehicle_type_id":"4","last_reported":1748084844,"current_range_meters":17200,"station_id":"ce4bh2h2rcd13ifvqdh0","pricing_plan_id":"cebpf4jnsgd1na2vs0mg"},{"bike_id":"7ba908d2-7e5a-4332-8ba6-bc0abc29770a","system_id":"levelo_inurba_marseille","lat":43.23207,"lon":5.35554,"is_reserved":false,"is_disabled":false,"rental_uris":{"android":"levelo://app?vid=7ba908d2-7e5a-4332-8ba6-bc0abc29770a","ios":"levelo://app?vid=7ba908d2-7e5a-4332-8ba6-bc0abc29770a"},"vehicle_type_id":"4","last_reported":1748084844,"current_range_meters":17200,"station_id":"ce4bhu92rcd13ifvqi70","pricing_plan_id":"cebpf4jnsgd1na2vs0mg"},{"bike_id":"398e2d46-03e9-4fa1-a053-110903addc9c","system_id":"levelo_inurba_marseille","lat":43.25708,"lon":5.41139,"is_reserved":false,"is_disabled":false,"rental_uris":{"android":"levelo://app?vid=398e2d46-03e9-4fa1-a053-110903addc9c","ios":"levelo://app?vid=398e2d46-03e9-4fa1-a053-110903addc9c"},"vehicle_type_id":"4","last_reported":1748084844,"current_range_meters":17200,"station_id":"ce4bhkp2rcd13ifvqgd0","pricing_plan_id":"cebpf4jnsgd1na2vs0mg"},{"bike_id":"634043e3-3d7f-46ef-a2fc-8cb4ab9f8f47","system_id":"levelo_inurba_marseille","lat":43.2176,"lon":5.3461,"is_reserved":false,"is_disabled":false,"rental_uris":{"android":"levelo://app?vid=634043e3-3d7f-46ef-a2fc-8cb4ab9f8f47","ios":"levelo://app?vid=634043e3-3d7f-46ef-a2fc-8cb4ab9f8f47"},"vehicle_type_id":"4","last_reported":1748084844,"current_range_meters":17600,"station_id":"st_cvj6r9ubvosntc0bgbag","pricing_plan_id":"cebpf4jnsgd1na2vs0mg"},{"bike_id":"e9496718-b841-4999-823d-28c5bee5d6f1","system_id":"levelo_inurba_marseille","lat":43.26541,"lon":5.389966,"is_reserved":false,"is_disabled":false,"rental_uris":{"android":"levelo://app?vid=e9496718-b841-4999-823d-28c5bee5d6f1","ios":"levelo://app?vid=e9496718-b841-4999-823d-28c5bee5d6f1"},"vehicle_type_id":"4","last_reported":1748084844,"current_range_meters":17600,"station_id":"ce4bhe12rcd13ifvqf30","pricing_plan_id":"cebpf4jnsgd1na2vs0mg"},{"bike_id":"dabc077c-bf8d-431d-a5ea-dcd441e9b7b1","system_id":"levelo_inurba_marseille","lat":43.24866,"lon":5.39737,"is_reserved":false,"is_disabled":false,"rental_uris":{"android":"levelo://app?vid=dabc077c-bf8d-431d-a5ea-dcd441e9b7b1","ios":"levelo://app?vid=dabc077c-bf8d-431d-a5ea-dcd441e9b7b1"},"vehicle_type_id":"4","last_reported":1748084844,"current_range_meters":17600,"station_id":"","pricing_plan_id":"cebpf4jnsgd1na2vs0mg"},{"bike_id":"5cc729c9-62bb-4ad1-a9a2-d4f4aeacd649","system_id":"levelo_inurba_marseille","lat":43.32319,"lon":5.36768,"is_reserved":false,"is_disabled":false,"rental_uris":{"android":"levelo://app?vid=5cc729c9-62bb-4ad1-a9a2-d4f4aeacd649","ios":"levelo://app?vid=5cc729c9-62bb-4ad1-a9a2-d4f4aeacd649"},"vehicle_type_id":"4","last_reported":1748084844,"current_range_meters":17600,"station_id":"ce4bhsh2rcd13ifvqi2g","pricing_plan_id":"cebpf4jnsgd1na2vs0mg"},{"bike_id":"7b86c4cc-f0b8-402d-8ff5-7d2405e4a83d","system_id":"levelo_inurba_marseille","lat":43.21748,"lon":5.34601,"is_reserved":false,"is_disabled":false,"rental_uris":{"android":"levelo://app?vid=7b86c4cc-f0b8-402d-8ff5-7d2405e4a83d","ios":"levelo://app?vid=7b86c4cc-f0b8-402d-8ff5-7d2405e4a83d"},"vehicle_type_id":"4","last_reported":1748084844,"current_range_meters":17600,"station_id":"st_cvj6r9ubvosntc0bgbag","pricing_plan_id":"cebpf4jnsgd1na2vs0mg"},{"bike_id":"1fcc2013-5331-4cfd-81d1-9ac33999f394","system_id":"levelo_inurba_marseille","lat":43.24059,"lon":5.3775,"is_reserved":false,"is_disabled":false,"rental_uris":{"android":"levelo://app?vid=1fcc2013-5331-4cfd-81d1-9ac33999f394","ios":"levelo://app?vid=1fcc2013-5331-4cfd-81d1-9ac33999f394"},"vehicle_type_id":"4","last_reported":1748084844,"current_range_meters":17600,"station_id":"ce4bhnp2rcd13ifvqgvg","pricing_plan_id":"cebpf4jnsgd1na2vs0mg"},{"bike_id":"21d330a0-a9dd-44f6-bb98-6605943389b6","system_id":"levelo_inurba_marseille","lat":43.29276,"lon":5.36859,"is_reserved":false,"is_disabled":false,"rental_uris":{"android":"levelo://app?vid=21d330a0-a9dd-44f6-bb98-6605943389b6","ios":"levelo://app?vid=21d330a0-a9dd-44f6-bb98-6605943389b6"},