{"last_updated":1731500220,"ttl":60,"version":"2.2","data":{"bikes":[{"bike_id":"7a79a734-8a1a-4504-a7cf-77568a3402bf","system_id":"levelo_inurba_marseille","lat":43.26494,"lon":5.39541,"is_reserved":false,"is_disabled":false,"rental_uris":{"android":"levelo://app?vid=7a79a734-8a1a-4504-a7cf-77568a3402bf","ios":"levelo://app?vid=7a79a734-8a1a-4504-a7cf-77568a3402bf"},"vehicle_type_id":"4","last_reported":1731500220,"current_range_meters":38000,"station_id":"ce4bhi12rcd13ifvqfq0","pricing_plan_id":"cebpf4jnsgd1na2vs0mg"},{"bike_id":"700f0841-a32a-4c21-9a6e-b775352b62df","system_id":"levelo_inurba_marseille","lat":43.30137,"lon":5.37423,"is_reserved":false,"is_disabled":false,"rental_uris":{"android":"levelo://app?vid=700f0841-a32a-4c21-9a6e-b775352b62df","ios":"levelo://app?vid=700f0841-a32a-4c21-9a6e-b775352b62df"},"vehicle_type_id":"4","last_reported":1731500220,"current_range_meters":12800,"station_id":"ce4bgs92rcd13ifvqcc0","pricing_plan_id":"cebpf4jnsgd1na2vs0mg"},{"bike_id":"52c3b47c-4ac8-4b12-96e0-93b36678801c","system_id":"levelo_inurba_marseille","lat":43.30548,"lon":5.36523,"is_reserved":false,"is_disabled":false,"rental_uris":{"android":"levelo://app?vid=52c3b47c-4ac8-4b12-96e0-93b36678801c","ios":"levelo://app?vid=52c3b47c-4ac8-4b12-96e0-93b36678801c"},"vehicle_type_id":"4","last_reported":1731500220,"current_range_meters":40000,"station_id":"ce4bgs12rcd13ifvqcag","pricing_plan_id":"cebpf4jnsgd1na2vs0mg"},{"bike_id":"a8b5795a-f92a-4c99-951c-d3c4edb74e83","system_id":"levelo_inurba_marseille","lat":43.28461,"lon":5.35884,"is_reserved":false,"is_disabled":false,"rental_uris":{"android":"levelo://app?vid=a8b5795a-f92a-4c99-951c-d3c4edb74e83","ios":"levelo://app?vid=a8b5795a-f92a-4c99-951c-d3c4edb74e83"},"vehicle_type_id":"4","last_reported":1731500220,"current_range_meters":38400,"station_id":"ce4bhah2rcd13ifvqei0","pricing_plan_id":"cebpf4jnsgd1na2vs0mg"},{"bike_id":"96ed4ea8-62c9-4783-a4f7-4d9f5dbe8a4a","system_id":"levelo_inurba_marseille","lat":43.29777,"lon":5.37117,"is_reserved":false,"is_disabled":false,"rental_uris":{"android":"levelo://app?vid=96ed4ea8-62c9-4783-a4f7-4d9f5dbe8a4a","ios":"levelo://app?vid=96ed4ea8-62c9-4783-a4f7-4d9f5dbe8a4a"},"vehicle_type_id":"4","last_reported":1731500220,"current_range_meters":19200,"station_id":"ce4bgop2rcd13ifvqc1g","pricing_plan_id":"cebpf4jnsgd1na2vs0mg"},{"bike_id":"093b143a-ecec-424e-b05a-301513aef236","system_id":"levelo_inurba_marseille","lat":43.25929,"lon":5.4091,"is_reserved":false,"is_disabled":false,"rental_uris":{"android":"levelo://app?vid=093b143a-ecec-424e-b05a-301513aef236","ios":"levelo://app?vid=093b143a-ecec-424e-b05a-301513aef236"},"vehicle_type_id":"4","last_reported":1731500220,"current_range_meters":32800,"station_id":"ce4bhm92rcd13ifvqglg","pricing_plan_id":"cebpf4jnsgd1na2vs0mg"},{"bike_id":"076142ae-6d4b-43fc-a370-8fb64459f581","system_id":"levelo_inurba_marseille","lat":43.23149,"lon":5.43716,"is_reserved":false,"is_disabled":false,"rental_uris":{"android":"levelo://app?vid=076142ae-6d4b-43fc-a370-8fb64459f581","ios":"levelo://app?vid=076142ae-6d4b-43fc-a370-8fb64459f581"},"vehicle_type_id":"4","last_reported":1731500220,"current_range_meters":4800,"station_id":"ce4bhmp2rcd13ifvqgog","pricing_plan_id":"cebpf4jnsgd1na2vs0mg"},{"bike_id":"c1de5622-387c-4994-95f3-05eb0113460a","system_id":"levelo_inurba_marseille","lat":43.28155,"lon":5.42648,"is_reserved":false,"is_disabled":false,"rental_uris":{"android":"levelo://app?vid=c1de5622-387c-4994-95f3-05eb0113460a","ios":"levelo://app?vid=c1de5622-387c-4994-95f3-05eb0113460a"},"vehicle_type_id":"4","last_reported":1731500220,"current_range_meters":39200,"station_id":"ce4bhnh2rcd13ifvqgug","pricing_plan_id":"cebpf4jnsgd1na2vs0mg"},{"bike_id":"99388fe0-b05f-4818-bf64-abc11253e5b0","system_id":"levelo_inurba_marseille","lat":43.27836,"lon":5.39209,"is_reserved":false,"is_disabled":false,"rental_uris":{"android":"levelo://app?vid=99388fe0-b05f-4818-bf64-abc11253e5b0","ios":"levelo://app?vid=99388fe0-b05f-4818-bf64-abc11253e5b0"},"vehicle_type_id":"4","last_reported":1731500220,"current_range_meters":39200,"station_id":"ce4bhjp2rcd13ifvqga0","pricing_plan_id":"cebpf4jnsgd1na2vs0mg"},{"bike_id":"667d0ae7-1b44-46dc-80f3-31c13849ab35","system_id":"levelo_inurba_marseille","lat":43.29574,"lon":5.37519,"is_reserved":false,"is_disabled":false,"rental_uris":{"android":"levelo://app?vid=667d0ae7-1b44-46dc-80f3-31c13849ab35","ios":"levelo://app?vid=667d0ae7-1b44-46dc-80f3-31c13849ab35"},"vehicle_type_id":"4","last_reported":1731500220,"current_range_meters":26800,"station_id":"ce4bgh92rcd13ifvqb50","pricing_plan_id":"cebpf4jnsgd1na2vs0mg"},{"bike_id":"db6c7606-e3a6-4e4d-8cb6-8cae45485c28","system_id":"levelo_inurba_marseille","lat":43.27179,"lon":5.40991,"is_reserved":false,"is_disabled":false,"rental_uris":{"android":"levelo://app?vid=db6c7606-e3a6-4e4d-8cb6-8cae45485c28","ios":"levelo://app?vid=db6c7606-e3a6-4e4d-8cb6-8cae45485c28"},"vehicle_type_id":"4","last_reported":1731500220,"current_range_meters":36800,"station_id":"ce4bhl12rcd13ifvqgf0","pricing_plan_id":"cebpf4jnsgd1na2vs0mg"},{"bike_id":"ca573efc-b310-4258-adf2-46821169ec26","system_id":"levelo_inurba_marseille","lat":43.306,"lon":5.37218,"is_reserved":false,"is_disabled":false,"rental_uris":{"android":"levelo://app?vid=ca573efc-b310-4258-adf2-46821169ec26","ios":"levelo://app?vid=ca573efc-b310-4258-adf2-46821169ec26"},"vehicle_type_id":"4","last_reported":1731500220,"current_range_meters":33200,"station_id":"ce4bgqh2rcd13ifvqc4g","pricing_plan_id":"cebpf4jnsgd1na2vs0mg"},{"bike_id":"40cd8bf0-9fae-4cf2-83d9-fb8fa42dd199","system_id":"levelo_inurba_marseille","lat":43.27375,"lon":5.36258,"is_reserved":false,"is_disabled":false,"rental_uris":{"android":"levelo://app?vid=40cd8bf0-9fae-4cf2-83d9-fb8fa42dd199","ios":"levelo://app?vid=40cd8bf0-9fae-4cf2-83d9-fb8fa42dd199"},"vehicle_type_id":"4","last_reported":1731500220,"current_range_meters":6800,"station_id":"ce4bhbh2rcd13ifvqeo0","pricing_plan_id":"cebpf4jnsgd1na2vs0mg"},{"bike_id":"0b942ed8-fbd0-47eb-aca2-23553ed1cd02","system_id":"levelo_inurba_marseille","lat":43.26811,"lon":5.40244,"is_reserved":false,"is_disabled":false,"rental_uris":{"android":"levelo://app?vid=0b942ed8-fbd0-47eb-aca2-23553ed1cd02","ios":"levelo://app?vid=0b942ed8-fbd0-47eb-aca2-23553ed1cd02"},"vehicle_type_id":"4","last_reported":1731500220,"current_range_meters":19600,"station_id":"ce501612rcd8frsf0b60","pricing_plan_id":"cebpf4jnsgd1na2vs0mg"},{"bike_id":"a886763f-d283-406b-b8e9-d902ada3b8f8","system_id":"levelo_inurba_marseille","lat":43.31706,"lon":5.37737,"is_reserved":false,"is_disabled":false,"rental_uris":{"android":"levelo://app?vid=a886763f-d283-406b-b8e9-d902ada3b8f8","ios":"levelo://app?vid=a886763f-d283-406b-b8e9-d902ada3b8f8"},"vehicle_type_id":"4","last_reported":1731500220,"current_range_meters":36000,"station_id":"ce4bgth2rcd13ifvqch0","pricing_plan_id":"cebpf4jnsgd1na2vs0mg"},{"bike_id":"6ffc763d-2de8-4ac0-9e32-c4288d8db4ff","system_id":"levelo_inurba_marseille","lat":43.29522,"lon":5.39038,"is_reserved":false,"is_disabled":false,"rental_uris":{"android":"levelo://app?vid=6ffc763d-2de8-4ac0-9e32-c4288d8db4ff","ios":"levelo://app?vid=6ffc763d-2de8-4ac0-9e32-c4288d8db4ff"},"vehicle_type_id":"4","last_reported":1731500220,"current_range_meters":28000,"station_id":"ce4bh3p2rcd13ifvqdp0","pricing_plan_id":"cebpf4jnsgd1na2vs0mg"},{"bike_id":"aafba3be-8c49-48d6-a342-ea9765fdc2f0","system_id":"levelo_inurba_marseille","lat":43.25578,"lon":5.3823,"is_reserved":false,"is_disabled":false,"rental_uris":{"android":"levelo://app?vid=aafba3be-8c49-48d6-a342-ea9765fdc2f0","ios":"levelo://app?vid=aafba3be-8c49-48d6-a342-ea9765fdc2f0"},"vehicle_type_id":"4","last_reported":1731500220,"current_range_meters":34800,"station_id":"ce4bhih2rcd13ifvqfs0","pricing_plan_id":"cebpf4jnsgd1na2vs0mg"},{"bike_id":"d25e222e-a7dc-43a1-8e91-81ef7c1f0e13","system_id":"levelo_inurba_marseille","lat":43.29303,"lon":5.37454,"is_reserved":false,"is_disabled":false,"rental_uris":{"android":"levelo://app?vid=d25e222e-a7dc-43a1-8e91-81ef7c1f0e13","ios":"levelo://app?vid=d25e222e-a7dc-43a1-8e91-81ef7c1f0e13"},"vehicle_type_id":"4","last_reported":1731500220,"current_range_meters":38000,"station_id":"ce4bgi12rcd13ifvqb70","pricing_plan_id":"cebpf4jnsgd1na2vs0mg"},{"bike_id":"993a2407-dea1-4de6-b3ec-4b72998a4778","system_id":"levelo_inurba_marseille","lat":43.30138,"lon":5.37417,"is_reserved":false,"is_disabled":false,"rental_uris":{"android":"levelo://app?vid=993a2407-dea1-4de6-b3ec-4b72998a4778","ios":"levelo://app?vid=993a2407-dea1-4de6-b3ec-4b72998a4778"},"vehicle_type_id":"4","last_reported":1731500220,"current_range_meters":8400,"station_id":"ce4bgs92rcd13ifvqcc0","pricing_plan_id":"cebpf4jnsgd1na2vs0mg"},{"bike_id":"b065bce8-4e5d-45ae-bca9-c0c11fccd4d6","system_id":"levelo_inurba_marseille","lat":43.30899,"lon":5.37189,"is_reserved":false,"is_disabled":false,"rental_uris":{"android":"levelo://app?vid=b065bce8-4e5d-45ae-bca9-c0c11fccd4d6","ios":"levelo://app?vid=b065bce8-4e5d-45ae-bca9-c0c11fccd4d6"},"vehicle_type_id":"4","last_reported":1731500220,"current_range_meters":30400,"station_id":"ce4bguh2rcd13ifvqckg","pricing_plan_id":"cebpf4jnsgd1na2vs0mg"},{"bike_id":"55d2d8b2-0246-4eea-b604-9e80591018f2","system_id":"levelo_inurba_marseille","lat":43.2318,"lon":5.39984,"is_reserved":false,"is_disabled":false,"rental_uris":{"android":"levelo://app?vid=55d2d8b2-0246-4eea-b604-9e80591018f2","ios":"levelo://app?vid=55d2d8b2-0246-4eea-b604-9e80591018f2"},"vehicle_type_id":"4","last_reported":1731500220,"current_range_meters":20800,"station_id":"ce4bhn12rcd13ifvqgqg","pricing_plan_id":"cebpf4jnsgd1na2vs0mg"},{"bike_id":"006c2d36-da0a-46e8-bbc3-f99c04e00114","system_id":"levelo_inurba_marseille","lat":43.29584,"lon":5.36742,"is_reserved":false,"is_disabled":false,"rental_uris":{"android":"levelo://app?vid=006c2d36-da0a-46e8-bbc3-f99c04e00114","ios":"levelo://app?vid=006c2d36-da0a-46e8-bbc3-f99c04e00114"},"vehicle_type_id":"4","last_reported":1731500220,"current_range_meters":38800,"station_id":"ce4bgph2rcd13ifvqc2g","pricing_plan_id":"cebpf4jnsgd1na2vs0mg"},{"bike_id":"c91f0ee3-acb2-4b3c-a695-03f49b422060","system_id":"levelo_inurba_marseille","lat":43.26953,"lon":5.38631,"is_reserved":false,"is_disabled":false,"rental_uris":{"android":"levelo://app?vid=c91f0ee3-acb2-4b3c-a695-03f49b422060","ios":"levelo://app?vid=c91f0ee3-acb2-4b3c-a695-03f49b422060"},"vehicle_type_id":"4","last_reported":1731500220,"current_range_meters":8000,"station_id":"ce4bhh92rcd13ifvqfh0","pricing_plan_id":"cebpf4jnsgd1na2vs0mg"},{"bike_id":"8af30ac5-53d6-43c8-8dc6-139021198761","system_id":"levelo_inurba_marseille","lat":43.30133,"lon":5.39864,"is_reserved":false,"is_disabled":false,"rental_uris":{"android":"levelo://app?vid=8af30ac5-53d6-43c8-8dc6-139021198761","ios":"levelo://app?vid=8af30ac5-53d6-43c8-8dc6-139021198761"},"vehicle_type_id":"4","last_reported":1731500220,"current_range_meters":8800,"station_id":"ce4bh0h2rcd13ifvqd40","pricing_plan_id":"cebpf4jnsgd1na2vs0mg"},{"bike_id":"dba2ac8c-70ab-402f-ad8d-8449c67865dc","system_id":"levelo_inurba_marseille","lat":43.28411,"lon":5.34976,"is_reserved":false,"is_disabled":false,"rental_uris":{"android":"levelo://app?vid=dba2ac8c-70ab-402f-ad8d-8449c67865dc","ios":"levelo://app?vid=dba2ac8c-70ab-402f-ad8d-8449c67865dc"},"vehicle_type_id":"4","last_reported":1731500220,"current_range_meters":25200,"station_id":"ce4bhbh2rcd13ifvqepg","pricing_plan_id":"cebpf4jnsgd1na2vs0mg"},{"bike_id":"b59a3fca-f496-4ca4-9d76-d0f4b2c8fc3f","system_id":"levelo_inurba_marseille","lat":43.30147,"lon":5.37434,"is_reserved":false,"is_disabled":false,"rental_uris":{"android":"levelo://app?vid=b59a3fca-f496-4ca4-9d76-d0f4b2c8fc3f","ios":"levelo://app?vid=b59a3fca-f496-4ca4-9d76-d0f4b2c8fc3f"},"vehicle_type_id":"4","last_reported":1731500220,"current_range_meters":39200,"station_id":"ce4bgs92rcd13ifvqcc0","pricing_plan_id":"cebpf4jnsgd1na2vs0mg"},{"bike_id":"e37b9905-395e-49f2-90a9-7537152014aa","system_id":"levelo_inurba_marseille","lat":43.25102,"lon":5.40328,"is_reserved":false,"is_disabled":false,"rental_uris":{"android":"levelo://app?vid=e37b9905-395e-49f2-90a9-7537152014aa","ios":"levelo://app?vid=e37b9905-395e-49f2-90a9-7537152014aa"},"vehicle_type_id":"4","last_reported":1731500220,"current_range_meters":20800,"station_id":"ce4bhlh2rcd13ifvqgig","pricing_plan_id":"cebpf4jnsgd1na2vs0mg"},{"bike_id":"93424700-31a1-4e96-956c-a547b28b31ca","system_id":"levelo_inurba_marseille","lat":43.26031,"lon":5.37545,"is_reserved":false,"is_disabled":false,"rental_uris":{"android":"levelo://app?vid=93424700-31a1-4e96-956c-a547b28b31ca","ios":"levelo://app?vid=93424700-31a1-4e96-956c-a547b28b31ca"},"vehicle_type_id":"4","last_reported":1731500220,"current_range_meters":22400,"station_id":"ce4bhgh2rcd13ifvqfa0","pricing_plan_id":"cebpf4jnsgd1na2vs0mg"},{"bike_id":"a028a484-532a-487f-bd85-a1cd04650edb","system_id":"levelo_inurba_marseille","lat":43.28155,"lon":5.42644,"is_reserved":false,"is_disabled":false,"rental_uris":{"android":"levelo://app?vid=a028a484-532a-487f-bd85-a1cd04650edb","ios":"levelo://app?vid=a028a484-532a-487f-bd85-a1cd04650edb"},"vehicle_type_id":"4","last_reported":1731500220,"current_range_meters":30000,"station_id":"ce4bhnh2rcd13ifvqgug","pricing_plan_id":"cebpf4jnsgd1na2vs0mg"},{"bike_id":"a05252be-63a4-41f8-b5a4-1a81d89d0c3c","system_id":"levelo_inurba_marseille","lat":43.23181,"lon":5.39986,"is_reserved":false,"is_disabled":false,"rental_uris":{"android":"levelo://app?vid=a05252be-63a4-41f8-b5a4-1a81d89d0c3c","ios":"levelo://app?vid=a05252be-63a4-41f8-b5a4-1a81d89d0c3c"},"vehicle_type_id":"4","last_reported":1731500220,"current_range_meters":38800,"station_id":"ce4bhn12rcd13ifvqgqg","pricing_plan_id":"cebpf4jnsgd1na2vs0mg"},{"bike_id":"48d89b43-fd8b-45da-84b7-53bcb4108c5c","system_id":"levelo_inurba_marseille","lat":43.29274,"lon":5.38453,"is_reserved":false,"is_disabled":false,"rental_uris":{"android":"levelo://app?vid=48d89b43-fd8b-45da-84b7-53bcb4108c5c","ios":"levelo://app?vid=48d89b43-fd8b-45da-84b7-53bcb4108c5c"},"vehicle_type_id":"4","last_reported":1731500220,"current_range_meters":24000,"station_id":"ce4bh692rcd13ifvqea0","pricing_plan_id":"cebpf4jnsgd1na2vs0mg"},{"bike_id":"435082a5-7b64-4bbd-841e-f7376692b97d","system_id":"levelo_inurba_marseille","lat":43.2857,"lon":5.39507,"is_reserved":false,"is_disabled":false,"rental_uris":{"android":"levelo://app?vid=435082a5-7b64-4bbd-841e-f7376692b97d","ios":"levelo://app?vid=435082a5-7b64-4bbd-841e-f7376692b97d"},"vehicle_type_id":"4","last_reported":1731500220,"current_range_meters":20000,"station_id":"ce4bh292rcd13ifvqdg0","pricing_plan_id":"cebpf4jnsgd1na2vs0mg"},{"bike_id":"4b65e34b-fea2-4791-84b9-55bb33f2833c","system_id":"levelo_inurba_marseille","lat":43.30274,"lon":5.37701,"is_reserved":false,"is_disabled":false,"rental_uris":{"android":"levelo://app?vid=4b65e34b-fea2-4791-84b9-55bb33f2833c","ios":"levelo://app?vid=4b65e34b-fea2-4791-84b9-55bb33f2833c"},"vehicle_type_id":"4","last_reported":1731500220,"current_range_meters":28400,"station_id":"ce4bguh2rcd13ifvqcj0","pricing_plan_id":"cebpf4jnsgd1na2vs0mg"},{"bike_id":"246a8c28-4308-4200-b216-f56be76aa9fd","system_id":"levelo_inurba_marseille","lat":43.25025,"lon":5.388791,"is_reserved":false,"is_disabled":false,"rental_uris":{"android":"levelo://app?vid=246a8c28-4308-4200-b216-f56be76aa9fd","ios":"levelo://app?vid=246a8c28-4308-4200-b216-f56be76aa9fd"},"vehicle_type_id":"4","last_reported":1731500220,"current_range_meters":14000,"station_id":"ce4bhgp2rcd13ifvqfd0","pricing_plan_id":"cebpf4jnsgd1na2vs0mg"},{"bike_id":"82fa6206-06e0-4097-8c4e-86ae4f57f7f0","system_id":"levelo_inurba_marseille","lat":43.29623,"lon":5.37151,"is_reserved":false,"is_disabled":false,"rental_uris":{"android":"levelo://app?vid=82fa6206-06e0-4097-8c4e-86ae4f57f7f0","ios":"levelo://app?vid=82fa6206-06e0-4097-8c4e-86ae4f57f7f0"},"vehicle_type_id":"4","last_reported":1731500220,"current_range_meters":39200,"station_id":"ce4bgnh2rcd13ifvqc0g","pricing_plan_id":"cebpf4jnsgd1na2vs0mg"},{"bike_id":"83b503a5-f698-4d8d-8131-b07f74f8e31f","system_id":"levelo_inurba_marseille","lat":43.29984,"lon":5.37171,"is_reserved":false,"is_disabled":false,"rental_uris":{"android":"levelo://app?vid=83b503a5-f698-4d8d-8131-b07f74f8e31f","ios":"levelo://app?vid=83b503a5-f698-4d8d-8131-b07f74f8e31f"},"vehicle_type_id":"4","last_reported":1731500220,"current_range_meters":11600,"station_id":"ce4bgr92rcd13ifvqc7g","pricing_plan_id":"cebpf4jnsgd1na2vs0mg"},{"bike_id":"208362fb-2f89-461a-b23e-024939bb7d15","system_id":"levelo_inurba_marseille","lat":43.28153,"lon":5.42649,"is_reserved":false,"is_disabled":false,"rental_uris":{"android":"levelo://app?vid=208362fb-2f89-461a-b23e-024939bb7d15","ios":"levelo://app?vid=208362fb-2f89-461a-b23e-024939bb7d15"},"vehicle_type_id":"4","last_reported":1731500220,"current_range_meters":11200,"station_id":"ce4bhnh2rcd13ifvqgug","pricing_plan_id":"cebpf4jnsgd1na2vs0mg"},{"bike_id":"03d47774-b3ef-4440-85ba-835eb7f33c88","system_id":"levelo_inurba_marseille","lat":43.3122,"lon":5.3685,"is_reserved":false,"is_disabled":false,"rental_uris":{"android":"levelo://app?vid=03d47774-b3ef-4440-85ba-835eb7f33c88","ios":"levelo://app?vid=03d47774-b3ef-4440-85ba-835eb7f33c88"},"vehicle_type_id":"4","last_reported":1731500220,"current_range_meters":38800,"station_id":"ce4bgl92rcd13ifvqbq0","pricing_plan_id":"cebpf4jnsgd1na2vs0mg"},{"bike_id":"b7c770fd-8ad6-4660-ac82-632577020760","system_id":"levelo_inurba_marseille","lat":43.29913,"lon":5.38136,"is_reserved":false,"is_disabled":false,"rental_uris":{"android":"levelo://app?vid=b7c770fd-8ad6-4660-ac82-632577020760","ios":"levelo://app?vid=b7c770fd-8ad6-4660-ac82-632577020760"},"vehicle_type_id":"4","last_reported":1731500220,"current_range_meters":37600,"station_id":"ce4bgj12rcd13ifvqbc0","pricing_plan_id":"cebpf4jnsgd1na2vs0mg"},{"bike_id":"2eedc177-66d3-43ad-8e2d-78e60ce845e8","system_id":"levelo_inurba_marseille","lat":43.22928,"lon":5.35379,"is_reserved":false,"is_disabled":false,"rental_uris":{"android":"levelo://app?vid=2eedc177-66d3-43ad-8e2d-78e60ce845e8","ios":"levelo://app?vid=2eedc177-66d3-43ad-8e2d-78e60ce845e8"},"vehicle_type_id":"4","last_reported":1731500220,"current_range_meters":38800,"station_id":"cpo3532slgdg3j2ikp40","pricing_plan_id":"cebpf4jnsgd1na2vs0mg"},{"bike_id":"632df92a-8745-46a3-94d3-89fd8a400289","system_id":"levelo_inurba_marseille","lat":43.2919,"lon":5.35798,"is_reserved":false,"is_disabled":false,"rental_uris":{"android":"levelo://app?vid=632df92a-8745-46a3-94d3-89fd8a400289","ios":"levelo://app?vid=632df92a-8745-46a3-94d3-89fd8a400289"},"vehicle_type_id":"4","last_reported":1731500220,"current_range_meters":21600,"station_id":"ce4bhb12rcd13ifvqel0","pricing_plan_id":"cebpf4jnsgd1na2vs0mg"},{"bike_id":"62fbbc34-d9e3-4d27-b4a2-d90356c75a05","system_id":"levelo_inurba_marseille","lat":43.308655,"lon":5.402774,"is_reserved":false,"is_disabled":false,"rental_uris":{"android":"levelo://app?vid=62fbbc34-d9e3-4d27-b4a2-d90356c75a05","ios":"levelo://app?vid=62fbbc34-d9e3-4d27-b4a2-d90356c75a05"},"vehicle_type_id":"4","last_reported":1731500220,"current_range_meters":12400,"station_id":"","pricing_plan_id":"cebpf4jnsgd1na2vs0mg"},{"bike_id":"e9132726-38b3-4d1b-8804-d7d0d0c41fbd","system_id":"levelo_inurba_marseille","lat":43.26784,"lon":5.39409,"is_reserved":false,"is_disabled":false,"rental_uris":{"android":"levelo://app?vid=e9132726-38b3-4d1b-8804-d7d0d0c41fbd","ios":"levelo://app?vid=e9132726-38b3-4d1b-8804-d7d0d0c41fbd"},"vehicle_type_id":"4","last_reported":1731500220,"current_range_meters":24000,"station_id":"ce4bhh12rcd13ifvqfg0","pricing_plan_id":"cebpf4jnsgd1na2vs0mg"},{"bike_id":"4d3db180-7b09-4241-99c3-a50935cba1fb","system_id":"levelo_inurba_marseille","lat":43.33018,"lon":5.39038,"is_reserved":false,"is_disabled":false,"rental_uris":{"android":"levelo://app?vid=4d3db180-7b09-4241-99c3-a50935cba1fb","ios":"levelo://app?vid=4d3db180-7b09-4241-99c3-a50935cba1fb"},"vehicle_type_id":"4","last_reported":1731500220,"current_range_meters":24800,"station_id":"ce4bhr92rcd13ifvqhrg","pricing_plan_id":"cebpf4jnsgd1na2vs0mg"},{"bike_id":"4d2f475b-1638-4691-8d5a-d976640dc564","system_id":"levelo_inurba_marseille","lat":43.27179,"lon":5.4099,"is_reserved":false,"is_disabled":false,"rental_uris":{"android":"levelo://app?vid=4d2f475b-1638-4691-8d5a-d976640dc564","ios":"levelo://app?vid=4d2f475b-1638-4691-8d5a-d976640dc564"},"vehicle_type_id":"4","last_reported":1731500220,"current_range_meters":40000,"station_id":"ce4bhl12rcd13ifvqgf0","pricing_plan_id":"cebpf4jnsgd1na2vs0mg"},{"bike_id":"63ea918c-0153-4b89-84a7-9bd4ea85e0e1","system_id":"levelo_inurba_marseille","lat":43.31716,"lon":5.37739,"is_reserved":false,"is_disabled":false,"rental_uris":{"android":"levelo://app?vid=63ea918c-0153-4b89-84a7-9bd4ea85e0e1","ios":"levelo://app?vid=63ea918c-0153-4b89-84a7-9bd4ea85e0e1"},"vehicle_type_id":"4","last_reported":1731500220,"current_range_meters":26800,"station_id":"ce4bgth2rcd13ifvqch0","pricing_plan_id":"cebpf4jnsgd1na2vs0mg"},{"bike_id":"197990db-9d96-4e77-b9f8-91d93b36d4cd","system_id":"levelo_inurba_marseille","lat":43.27605,"lon":5.36112,"is_reserved":false,"is_disabled":false,"rental_uris":{"android":"levelo://app?vid=197990db-9d96-4e77-b9f8-91d93b36d4cd","ios":"levelo://app?vid=197990db-9d96-4e77-b9f8-91d93b36d4cd"},"vehicle_type_id":"4","last_reported":1731500220,"current_range_meters":36000,"station_id":"ce4bgj92rcd13ifvqbe0","pricing_plan_id":"cebpf4jnsgd1na2vs0mg"},{"bike_id":"3d58b674-2361-46ad-a18d-9d6f073d81fd","system_id":"levelo_inurba_marseille","lat":43.30468,"lon":5.379,"is_reserved":false,"is_disabled":false,"rental_uris":{"android":"levelo://app?vid=3d58b674-2361-46ad-a18d-9d6f073d81fd","ios":"levelo://app?vid=3d58b674-2361-46ad-a18d-9d6f073d81fd"},"vehicle_type_id":"4","last_reported":1731500220,"current_range_meters":6400,"station_id":"ce4bgup2rcd13ifvqcn0","pricing_plan_id":"cebpf4jnsgd1na2vs0mg"},{"bike_id":"e9bb8950-76de-4c9d-9aff-35253f090ff2","system_id":"levelo_inurba_marseille","lat":43.28123,"lon":5.37863,"is_reserved":false,"is_disabled":false,"rental_uris":{"android":"levelo://app?vid=e9bb8950-76de-4c9d-9aff-35253f090ff2","ios":"levelo://app?vid=e9bb8950-76de-4c9d-9aff-35253f090ff2"},"vehicle_type_id":"4","last_reported":1731500220,"current_range_meters":36000,"station_id":"ce4bha12rcd13ifvqee0","pricing_plan_id":"cebpf4jnsgd1na2vs0mg"},{"bike_id":"49fa670f-b9b1-4e50-9716-ee8aba9a673c","system_id":"levelo_inurba_marseille","lat":43.28934,"lon":5.36633,"is_reserved":false,"is_disabled":false,"rental_uris":{"android":"levelo://app?vid=49fa670f-b9b1-4e50-9716-ee8aba9a673c","ios":"levelo://app?vid=49fa670f-b9b1-4e50-9716-ee8aba9a673c"},"vehicle_type_id":"4","last_reported":1731500220,"current_range_meters":23200,"station_id":"ce4bhap2rcd13ifvqek0","pricing_plan_id":"cebpf4jnsgd1na2vs0mg"},{"bike_id":"c44bc0c4-7c43-4f46-b860-7d9c7bedac00","system_id":"levelo_inurba_marseille","lat":43.25825,"lon":5.39434,"is_reserved":false,"is_disabled":false,"rental_uris":{"android":"levelo://app?vid=c44bc0c4-7c43-4f46-b860-7d9c7bedac00","ios":"levelo://app?vid=c44bc0c4-7c43-4f46-b860-7d9c7bedac00"},"vehicle_type_id":"4","last_reported":1731500220,"current_range_meters":8000,"station_id":"ce4bhip2rcd13ifvqft0","pricing_plan_id":"cebpf4jnsgd1na2vs0mg"},{"bike_id":"91af54ea-fd9c-4415-b163-861c100251d9","system_id":"levelo_inurba_marseille","lat":43.29704,"lon":5.37713,"is_reserved":false,"is_disabled":false,"rental_uris":{"android":"levelo://app?vid=91af54ea-fd9c-4415-b163-861c100251d9","ios":"levelo://app?vid=91af54ea-fd9c-4415-b163-861c100251d9"},"vehicle_type_id":"4","last_reported":1731500220,"current_range_meters":20000,"station_id":"ce4bgkh2rcd13ifvqbl0","pricing_plan_id":"cebpf4jnsgd1na2vs0mg"},{"bike_id":"18bcfc1f-db68-49d5-a96a-dd9151897671","system_id":"levelo_inurba_marseille","lat":43.2721,"lon":5.39186,"is_reserved":false,"is_disabled":false,"rental_uris":{"android":"levelo://app?vid=18bcfc1f-db68-49d5-a96a-dd9151897671","ios":"levelo://app?vid=18bcfc1f-db68-49d5-a96a-dd9151897671"},"vehicle_type_id":"4","last_reported":1731500220,"current_range_meters":27200,"station_id":"ce4bhhp2rcd13ifvqfm0","pricing_plan_id":"cebpf4jnsgd1na2vs0mg"},{"bike_id":"d939a8d3-7886-485f-80ff-eaccf3fd8656","system_id":"levelo_inurba_marseille","lat":43.23147,"lon":5.43709,"is_reserved":false,"is_disabled":false,"rental_uris":{"android":"levelo://app?vid=d939a8d3-7886-485f-80ff-eaccf3fd8656","ios":"levelo://app?vid=d939a8d3-7886-485f-80ff-eaccf3fd8656"},"vehicle_type_id":"4","last_reported":1731500220,"current_range_meters":14400,"station_id":"ce4bhmp2rcd13ifvqgog","pricing_plan_id":"cebpf4jnsgd1na2vs0mg"},{"bike_id":"b01f14ad-1c18-4774-a114-f5ad20e62224","system_id":"levelo_inurba_marseille","lat":43.32363,"lon":5.3888,"is_reserved":false,"is_disabled":false,"rental_uris":{"android":"levelo://app?vid=b01f14ad-1c18-4774-a114-f5ad20e62224","ios":"levelo://app?vid=b01f14ad-1c18-4774-a114-f5ad20e62224"},"vehicle_type_id":"4","last_reported":1731500220,"current_range_meters":32000,"station_id":"ce4bhqp2rcd13ifvqhog","pricing_plan_id":"cebpf4jnsgd1na2vs0mg"},{"bike_id":"79be6aad-1444-40ea-8f7e-d74a260a44d3","system_id":"levelo_inurba_marseille","lat":43.28402,"lon":5.3875,"is_reserved":false,"is_disabled":false,"rental_uris":{"android":"levelo://app?vid=79be6aad-1444-40ea-8f7e-d74a260a44d3","ios":"levelo://app?vid=79be6aad-1444-40ea-8f7e-d74a260a44d3"},"vehicle_type_id":"4","last_reported":1731500220,"current_range_meters":27600,"station_id":"ce4bh492rcd13ifvqdvg","pricing_plan_id":"cebpf4jnsgd1na2vs0mg"},{"bike_id":"f837d65c-08d4-4795-af41-b75537b060f1","system_id":"levelo_inurba_marseille","lat":43.264221,"lon":5.373481,"is_reserved":false,"is_disabled":false,"rental_uris":{"android":"levelo://app?vid=f837d65c-08d4-4795-af41-b75537b060f1","ios":"levelo://app?vid=f837d65c-08d4-4795-af41-b75537b060f1"},"vehicle_type_id":"4","last_reported":1731500220,"current_range_meters":27600,"station_id":"ce4bhih2rcd13ifvqfs0","pricing_plan_id":"cebpf4jnsgd1na2vs0mg"},{"bike_id":"437649f3-a87c-4ce4-b420-f3ce172adb90","system_id":"levelo_inurba_marseille","lat":43.2705,"lon":5.4026,"is_reserved":false,"is_disabled":false,"rental_uris":{"android":"levelo://app?vid=437649f3-a87c-4ce4-b420-f3ce172adb90","ios":"levelo://app?vid=437649f3-a87c-4ce4-b420-f3ce172adb90"},"vehicle_type_id":"4","last_reported":1731500220,"current_range_meters":26000,"station_id":"ce4bhk92rcd13ifvqgc0","pricing_plan_id":"cebpf4jnsgd1na2vs0mg"},{"bike_id":"c6235b76-b437-41c7-bf3b-054bae351996","system_id":"levelo_inurba_marseille","lat":43.26025,"lon":5.3755,"is_reserved":false,"is_disabled":false,"rental_uris":{"android":"levelo://app?vid=c6235b76-b437-41c7-bf3b-054bae351996","ios":"levelo://app?vid=c6235b76-b437-41c7-bf3b-054bae351996"},"vehicle_type_id":"4","last_reported":1731500220,"current_range_meters":8400,"station_id":"ce4bhgh2rcd13ifvqfa0","pricing_plan_id":"cebpf4jnsgd1na2vs0mg"},{"bike_id":"9eae61fd-8842-423d-85f6-15ca2d98307b","system_id":"levelo_inurba_marseille","lat":43.28365,"lon":5.3863,"is_reserved":false,"is_disabled":false,"rental_uris":{"android":"levelo://app?vid=9eae61fd-8842-423d-85f6-15ca2d98307b","ios":"levelo://app?vid=9eae61fd-8842-423d-85f6-15ca2d98307b"},"vehicle_type_id":"4","last_reported":1731500220,"current_range_meters":20800,"station_id":"ce4bh492rcd13ifvqdvg","pricing_plan_id":"cebpf4jnsgd1na2vs0mg"},{"bike_id":"702f8b6d-fb64-42a2-9c28-1be758cbcb6c","system_id":"levelo_inurba_marseille","lat":43.33023,"lon":5.39034,"is_reserved":false,"is_disabled":false,"rental_uris":{"android":"levelo://app?vid=702f8b6d-fb64-42a2-9c28-1be758cbcb6c","ios":"levelo://app?vid=702f8b6d-fb64-42a2-9c28-1be758cbcb6c"},"vehicle_type_id":"4","last_reported":1731500220,"current_range_meters":4800,"station_id":"ce4bhr92rcd13ifvqhrg","pricing_plan_id":"cebpf4jnsgd1na2vs0mg"},{"bike_id":"b842e741-9f0e-4bec-be27-76da0c47cfc0","system_id":"levelo_inurba_marseille","lat":43.29535,"lon":5.38539,"is_reserved":false,"is_disabled":false,"rental_uris":{"android":"levelo://app?vid=b842e741-9f0e-4bec-be27-76da0c47cfc0","ios":"levelo://app?vid=b842e741-9f0e-4bec-be27-76da0c47cfc0"},"vehicle_type_id":"4","last_reported":1731500220,"current_range_meters":30400,"station_id":"ce4bgih2rcd13ifvqba0","pricing_plan_id":"cebpf4jnsgd1na2vs0mg"},{"bike_id":"6d6e9e02-247a-4ba9-acbb-ee9eba5eea68","system_id":"levelo_inurba_marseille","lat":43.28414,"lon":5.34977,"is_reserved":false,"is_disabled":false,"rental_uris":{"android":"levelo://app?vid=6d6e9e02-247a-4ba9-acbb-ee9eba5eea68","ios":"levelo://app?vid=6d6e9e02-247a-4ba9-acbb-ee9eba5eea68"},"vehicle_type_id":"4","last_reported":1731500220,"current_range_meters":18800,"station_id":"ce4bhbh2rcd13ifvqepg","pricing_plan_id":"cebpf4jnsgd1na2vs0mg"},{"bike_id":"376d0760-e662-4933-a7b7-4fb53188f4cd","system_id":"levelo_inurba_marseille","lat":43.305966,"lon":5.372287,"is_reserved":false,"is_disabled":false,"rental_uris":{"android":"levelo://app?vid=376d0760-e662-4933-a7b7-4fb53188f4cd","ios":"levelo://app?vid=376d0760-e662-4933-a7b7-4fb53188f4cd"},"vehicle_type_id":"4","last_reported":1731500220,"current_range_meters":29600,"station_id":"ce4bgqh2rcd13ifvqc4g","pricing_plan_id":"cebpf4jnsgd1na2vs0mg"},{"bike_id":"8963f262-bdcb-43f5-9e37-237198779ba8","system_id":"levelo_inurba_marseille","lat":43.33773,"lon":5.37442,"is_reserved":false,"is_disabled":false,"rental_uris":{"android":"levelo://app?vid=8963f262-bdcb-43f5-9e37-237198779ba8","ios":"levelo://app?vid=8963f262-bdcb-43f5-9e37-237198779ba8"},"vehicle_type_id":"4","last_reported":1731500220,"current_range_meters":38400,"station_id":"","pricing_plan_id":"cebpf4jnsgd1na2vs0mg"},{"bike_id":"9e206ec4-3bc2-4292-bb12-90ccf987d885","system_id":"levelo_inurba_marseille","lat":43.337444,"lon":5.374475,"is_reserved":false,"is_disabled":false,"rental_uris":{"android":"levelo://app?vid=9e206ec4-3bc2-4292-bb12-90ccf987d885","ios":"levelo://app?vid=9e206ec4-3bc2-4292-bb12-90ccf987d885"},"vehicle_type_id":"4","last_reported":1731500220,"current_range_meters":37600,"station_id":"","pricing_plan_id":"cebpf4jnsgd1na2vs0mg"},{"bike_id":"398b47b3-a042-4cec-b1dd-254773a78263","system_id":"levelo_inurba_marseille","lat":43.27408,"lon":5.389505,"is_reserved":false,"is_disabled":false,"rental_uris":{"android":"levelo://app?vid=398b47b3-a042-4cec-b1dd-254773a78263","ios":"levelo://app?vid=398b47b3-a042-4cec-b1dd-254773a78263"},"vehicle_type_id":"4","last_reported":1731500220,"current_range_meters":9200,"station_id":"","pricing_plan_id":"cebpf4jnsgd1na2vs0mg"},{"bike_id":"80916e0d-2a45-4c6c-a333-20eaf11a3397","system_id":"levelo_inurba_marseille","lat":43.28701,"lon":5.37389,"is_reserved":false,"is_disabled":false,"rental_uris":{"android":"levelo://app?vid=80916e0d-2a45-4c6c-a333-20eaf11a3397","ios":"levelo://app?vid=80916e0d-2a45-4c6c-a333-20eaf11a3397"},"vehicle_type_id":"4","last_reported":1731500220,"current_range_meters":36000,"station_id":"ce4bh3p2rcd13ifvqdq0","pricing_plan_id":"cebpf4jnsgd1na2vs0mg"},{"bike_id":"b44fdb5b-1b83-4e62-8df0-625e1668db0c","system_id":"levelo_inurba_marseille","lat":43.307709,"lon":5.376177,"is_reserved":false,"is_disabled":false,"rental_uris":{"android":"levelo://app?vid=b44fdb5b-1b83-4e62-8df0-625e1668db0c","ios":"levelo://app?vid=b44fdb5b-1b83-4e62-8df0-625e1668db0c"},"vehicle_type_id":"4","last_reported":1731500220,"current_range_meters":17200,"station_id":"ce4bgv92rcd13ifvqcq0","pricing_plan_id":"cebpf4jnsgd1na2vs0mg"},{"bike_id":"92e3ad17-17c9-4714-a148-ef9436ad6113","system_id":"levelo_inurba_marseille","lat":43.2294,"lon":5.35379,"is_reserved":false,"is_disabled":false,"rental_uris":{"android":"levelo://app?vid=92e3ad17-17c9-4714-a148-ef9436ad6113","ios":"levelo://app?vid=92e3ad17-17c9-4714-a148-ef9436ad6113"},"vehicle_type_id":"4","last_reported":1731500220,"current_range_meters":37600,"station_id":"cpo3532slgdg3j2ikp40","pricing_plan_id":"cebpf4jnsgd1na2vs0mg"},{"bike_id":"14979d0f-d768-4ff0-a3b8-7528de05ba2f","system_id":"levelo_inurba_marseille","lat":43.31075,"lon":5.40098,"is_reserved":false,"is_disabled":false,"rental_uris":{"android":"levelo://app?vid=14979d0f-d768-4ff0-a3b8-7528de05ba2f","ios":"levelo://app?vid=14979d0f-d768-4ff0-a3b8-7528de05ba2f"},"vehicle_type_id":"4","last_reported":1731500220,"current_range_meters":38800,"station_id":"","pricing_plan_id":"cebpf4jnsgd1na2vs0mg"},{"bike_id":"9b318ec0-f4cc-4e60-af95-e2dced4e1b2d","system_id":"levelo_inurba_marseille","lat":43.25001,"lon":5.38925,"is_reserved":false,"is_disabled":false,"rental_uris":{"android":"levelo://app?vid=9b318ec0-f4cc-4e60-af95-e2dced4e1b2d","ios":"levelo://app?vid=9b318ec0-f4cc-4e60-af95-e2dced4e1b2d"},"vehicle_type_id":"4","last_reported":1731500220,"current_range_meters":40000,"station_id":"ce4bhgp2rcd13ifvqfd0","pricing_plan_id":"cebpf4jnsgd1na2vs0mg"},{"bike_id":"64e52bbc-57ef-48bd-aa34-00df367bb8aa","system_id":"levelo_inurba_marseille","lat":43.31521,"lon":5.38026,"is_reserved":false,"is_disabled":false,"rental_uris":{"android":"levelo://app?vid=64e52bbc-57ef-48bd-aa34-00df367bb8aa","ios":"levelo://app?vid=64e52bbc-57ef-48bd-aa34-00df367bb8aa"},"vehicle_type_id":"4","last_reported":1731500220,"current_range_meters":36400,"station_id":"ce4bhsp2rcd13ifvqi50","pricing_plan_id":"cebpf4jnsgd1na2vs0mg"},{"bike_id":"a0bffd38-f529-4b37-9227-fb3819a7a32a","system_id":"levelo_inurba_marseille","lat":43.29552,"lon":5.42281,"is_reserved":false,"is_disabled":false,"rental_uris":{"android":"levelo://app?vid=a0bffd38-f529-4b37-9227-fb3819a7a32a","ios":"levelo://app?vid=a0bffd38-f529-4b37-9227-fb3819a7a32a"},"vehicle_type_id":"4","last_reported":1731500220,"current_range_meters":34800,"station_id":"ce4bhph2rcd13ifvqhdg","pricing_plan_id":"cebpf4jnsgd1na2vs0mg"},{"bike_id":"beb7b9bd-a544-4d0c-b0ee-a6204f3f5108","system_id":"levelo_inurba_marseille","lat":43.291962,"lon":5.385193,"is_reserved":false,"is_disabled":false,"rental_uris":{"android":"levelo://app?vid=beb7b9bd-a544-4d0c-b0ee-a6204f3f5108","ios":"levelo://app?vid=beb7b9bd-a544-4d0c-b0ee-a6204f3f5108"},"vehicle_type_id":"4","last_reported":1731500220,"current_range_meters":28800,"station_id":"","pricing_plan_id":"cebpf4jnsgd1na2vs0mg"},{"bike_id":"82f309e6-c4ae-421f-89cb-1d64a8e0ef10","system_id":"levelo_inurba_marseille","lat":43.337444,"lon":5.374475,"is_reserved":false,"is_disabled":false,"rental_uris":{"android":"levelo://app?vid=82f309e6-c4ae-421f-89cb-1d64a8e0ef10","ios":"levelo://app?vid=82f309e6-c4ae-421f-89cb-1d64a8e0ef10"},"vehicle_type_id":"4","last_reported":1731500220,"current_range_meters":37600,"station_id":"","pricing_plan_id":"cebpf4jnsgd1na2vs0mg"},{"bike_id":"d2423466-98bc-4d3a-a5fc-c0d33f6c410d","system_id":"levelo_inurba_marseille","lat":43.337444,"lon":5.374475,"is_reserved":false,"is_disabled":false,"rental_uris":{"android":"levelo://app?vid=d2423466-98bc-4d3a-a5fc-c0d33f6c410d","ios":"levelo://app?vid=d2423466-98bc-4d3a-a5fc-c0d33f6c410d"},"vehicle_type_id":"4","last_reported":1731500220,"current_range_meters":37600,"station_id":"","pricing_plan_id":"cebpf4jnsgd1na2vs0mg"},{"bike_id":"94799805-b659-4768-97f9-77450de59c5f","system_id":"levelo_inurba_marseille","lat":43.30467,"lon":5.37902,"is_reserved":false,"is_disabled":false,"rental_uris":{"android":"levelo://app?vid=94799805-b659-4768-97f9-77450de59c5f","ios":"levelo://app?vid=94799805-b659-4768-97f9-77450de59c5f"},"vehicle_type_id":"4","last_reported":1731500220,"current_range_meters":10000,"station_id":"ce4bgup2rcd13ifvqcn0","pricing_plan_id":"cebpf4jnsgd1na2vs0mg"},{"bike_id":"42097afc-f053-4832-930a-50722b1c43de","system_id":"levelo_inurba_marseille","lat":43.292,"lon":5.39321,"is_reserved":false,"is_disabled":false,"rental_uris":{"android":"levelo://app?vid=42097afc-f053-4832-930a-50722b1c43de","ios":"levelo://app?vid=42097afc-f053-4832-930a-50722b1c43de"},"vehicle_type_id":"4","last_reported":1731500220,"current_range_meters":20000,"station_id":"ce4bh192rcd13ifvqdd0","pricing_plan_id":"cebpf4jnsgd1na2vs0mg"},{"bike_id":"6e4ab7d2-c1df-4ea4-bb4b-2f5c43ed5717","system_id":"levelo_inurba_marseille","lat":43.337444,"lon":5.374475,"is_reserved":false,"is_disabled":false,"rental_uris":{"android":"levelo://app?vid=6e4ab7d2-c1df-4ea4-bb4b-2f5c43ed5717","ios":"levelo://app?vid=6e4ab7d2-c1df-4ea4-bb4b-2f5c43ed5717"},"vehicle_type_id":"4","last_reported":1731500220,"current_range_meters":38000,"station_id":"","pricing_plan_id":"cebpf4jnsgd1na2vs0mg"},{"bike_id":"34557501-08f3-4655-9109-f7291fc8681e","system_id":"levelo_inurba_marseille","lat":43.29936,"lon":5.36533,"is_reserved":false,"is_disabled":false,"rental_uris":{"android":"levelo://app?vid=34557501-08f3-4655-9109-f7291fc8681e","ios":"levelo://app?vid=34557501-08f3-4655-9109-f7291fc8681e"},"vehicle_type_id":"4","last_reported":1731500220,"current_range_meters":4800,"station_id":"ce4bgm92rcd13ifvqbr0","pricing_plan_id":"cebpf4jnsgd1na2vs0mg"},{"bike_id":"b1f50a4e-bf80-417b-be95-adf7b4bc4b3b","system_id":"levelo_inurba_marseille","lat":43.30385,"lon":5.37004,"is_reserved":false,"is_disabled":false,"rental_uris":{"android":"levelo://app?vid=b1f50a4e-bf80-417b-be95-adf7b4bc4b3b","ios":"levelo://app?vid=b1f50a4e-bf80-417b-be95-adf7b4bc4b3b"},"vehicle_type_id":"4","last_reported":1731500220,"current_range_meters":36800,"station_id":"","pricing_plan_id":"cebpf4jnsgd1na2vs0mg"},{"bike_id":"ea20dc85-7cdb-4d31-a35b-b40e2563c0eb","system_id":"levelo_inurba_marseille","lat":43.29564,"lon":5.37527,"is_reserved":false,"is_disabled":false,"rental_uris":{"android":"levelo://app?vid=ea20dc85-7cdb-4d31-a35b-b40e2563c0eb","ios":"levelo://app?vid=ea20dc85-7cdb-4d31-a35b-b40e2563c0eb"},"vehicle_type_id":"4","last_reported":1731500220,"current_range_meters":19200,"station_id":"ce4bgh92rcd13ifvqb50","pricing_plan_id":"cebpf4jnsgd1na2vs0mg"},{"bike_id":"bae7f8c3-e950-477a-87e0-b07f456a283b","system_id":"levelo_inurba_marseille","lat":43.28935,"lon":5.36626,"is_reserved":false,"is_disabled":false,"rental_uris":{"android":"levelo://app?vid=bae7f8c3-e950-477a-87e0-b07f456a283b","ios":"levelo://app?vid=bae7f8c3-e950-477a-87e0-b07f456a283b"},"vehicle_type_id":"4","last_reported":1731500220,"current_range_meters":33600,"station_id":"ce4bhap2rcd13ifvqek0","pricing_plan_id":"cebpf4jnsgd1na2vs0mg"},{"bike_id":"2ea7aff9-03cc-4def-b7e3-6baa11e2bed4","system_id":"levelo_inurba_marseille","lat":43.232066,"lon":5.435627,"is_reserved":false,"is_disabled":false,"rental_uris":{"android":"levelo://app?vid=2ea7aff9-03cc-4def-b7e3-6baa11e2bed4","ios":"levelo://app?vid=2ea7aff9-03cc-4def-b7e3-6baa11e2bed4"},"vehicle_type_id":"4","last_reported":1731500220,"current_range_meters":38800,"station_id":"ce4bhmp2rcd13ifvqgog","pricing_plan_id":"cebpf4jnsgd1na2vs0mg"},{"bike_id":"b18f78b0-5af4-42e4-8f57-05146b997a5b","system_id":"levelo_inurba_marseille","lat":43.28038,"lon":5.36938,"is_reserved":false,"is_disabled":false,"rental_uris":{"android":"levelo://app?vid=b18f78b0-5af4-42e4-8f57-05146b997a5b","ios":"levelo://app?vid=b18f78b0-5af4-42e4-8f57-05146b997a5b"},"vehicle_type_id":"4","last_reported":1731500220,"current_range_meters":4400,"station_id":"ce4bha12rcd13ifvqef0","pricing_plan_id":"cebpf4jnsgd1na2vs0mg"},{"bike_id":"85718261-3746-4a85-9f1e-84adac851f6a","system_id":"levelo_inurba_marseille","lat":43.26031,"lon":5.37549,"is_reserved":false,"is_disabled":false,"rental_uris":{"android":"levelo://app?vid=85718261-3746-4a85-9f1e-84adac851f6a","ios":"levelo://app?vid=85718261-3746-4a85-9f1e-84adac851f6a"},"vehicle_type_id":"4","last_reported":1731500220,"current_range_meters":40000,"station_id":"ce4bhgh2rcd13ifvqfa0","pricing_plan_id":"cebpf4jnsgd1na2vs0mg"},{"bike_id":"9217fd7b-2849-4b14-8c8d-3a0f76cda9b1","system_id":"levelo_inurba_marseille","lat":43.26028,"lon":5.3755,"is_reserved":false,"is_disabled":false,"rental_uris":{"android":"levelo://app?vid=9217fd7b-2849-4b14-8c8d-3a0f76cda9b1","ios":"levelo://app?vid=9217fd7b-2849-4b14-8c8d-3a0f76cda9b1"},"vehicle_type_id":"4","last_reported":1731500220,"current_range_meters":37600,"station_id":"ce4bhgh2rcd13ifvqfa0","pricing_plan_id":"cebpf4jnsgd1na2vs0mg"},{"bike_id":"5ecd0368-34f8-4732-b8ef-587c377cbc95","system_id":"levelo_inurba_marseille","lat":43.30948,"lon":5.39027,"is_reserved":false,"is_disabled":false,"rental_uris":{"android":"levelo://app?vid=5ecd0368-34f8-4732-b8ef-587c377cbc95","ios":"levelo://app?vid=5ecd0368-34f8-4732-b8ef-587c377cbc95"},"vehicle_type_id":"4","last_reported":1731500220,"current_range_meters":7200,"station_id":"ce4bgup2rcd13ifvqco0","pricing_plan_id":"cebpf4jnsgd1na2vs0mg"},{"bike_id":"8ab31380-541d-42f0-8d43-32f524f361fc","system_id":"levelo_inurba_marseille","lat":43.26941,"lon":5.40256,"is_reserved":false,"is_disabled":false,"rental_uris":{"android":"levelo://app?vid=8ab31380-541d-42f0-8d43-32f524f361fc","ios":"levelo://app?vid=8ab31380-541d-42f0-8d43-32f524f361fc"},"vehicle_type_id":"4","last_reported":1731500220,"current_range_meters":11600,"station_id":"cjm6bp8fraef2m0cb0m0","pricing_plan_id":"cebpf4jnsgd1na2vs0mg"},{"bike_id":"a2a094b6-6d5f-4247-9e4b-728c0cc5e391","system_id":"levelo_inurba_marseille","lat":43.29902,"lon":5.38512,"is_reserved":false,"is_disabled":false,"rental_uris":{"android":"levelo://app?vid=a2a094b6-6d5f-4247-9e4b-728c0cc5e391","ios":"levelo://app?vid=a2a094b6-6d5f-4247-9e4b-728c0cc5e391"},"vehicle_type_id":"4","last_reported":1731500220,"current_range_meters":34000,"station_id":"ce4bh0p2rcd13ifvqd80","pricing_plan_id":"cebpf4jnsgd1na2vs0mg"},{"bike_id":"158757d0-f89c-452d-9746-6ab2aad19887","system_id":"levelo_inurba_marseille","lat":43.31223,"lon":5.36866,"is_reserved":false,"is_disabled":false,"rental_uris":{"android":"levelo://app?vid=158757d0-f89c-452d-9746-6ab2aad19887","ios":"levelo://app?vid=158757d0-f89c-452d-9746-6ab2aad19887"},"vehicle_type_id":"4","last_reported":1731500220,"current_range_meters":36400,"station_id":"ce4bgl92rcd13ifvqbq0","pricing_plan_id":"cebpf4jnsgd1na2vs0mg"},{"bike_id":"98f6c907-3424-4754-8bfa-a5680f951a52","system_id":"levelo_inurba_marseille","lat":43.32542,"lon":5.41431,"is_reserved":false,"is_disabled":false,"rental_uris":{"android":"levelo://app?vid=98f6c907-3424-4754-8bfa-a5680f951a52","ios":"levelo://app?vid=98f6c907-3424-4754-8bfa-a5680f951a52"},"vehicle_type_id":"4","last_reported":1731500220,"current_range_meters":20400,"station_id":"ce4bhq12rcd13ifvqhhg","pricing_plan_id":"cebpf4jnsgd1na2vs0mg"},{"bike_id":"0235ec7f-c118-4658-b455-fa4a6e5e8031","system_id":"levelo_inurba_marseille","lat":43.26942,"lon":5.40249,"is_reserved":false,"is_disabled":false,"rental_uris":{"android":"levelo://app?vid=0235ec7f-c118-4658-b455-fa4a6e5e8031","ios":"levelo://app?vid=0235ec7f-c118-4658-b455-fa4a6e5e8031"},"vehicle_type_id":"4","last_reported":1731500220,"current_range_meters":6800,"station_id":"cjm6bp8fraef2m0cb0m0","pricing_plan_id":"cebpf4jnsgd1na2vs0mg"},{"bike_id":"9111b3c4-7ddd-4e5e-9f57-7a2241ab6dea","system_id":"levelo_inurba_marseille","lat":43.33015,"lon":5.3904,"is_reserved":false,"is_disabled":false,"rental_uris":{"android":"levelo://app?vid=9111b3c4-7ddd-4e5e-9f57-7a2241ab6dea","ios":"levelo://app?vid=9111b3c4-7ddd-4e5e-9f57-7a2241ab6dea"},"vehicle_type_id":"4","last_reported":1731500220,"current_range_meters":24800,"station_id":"ce4bhr92rcd13ifvqhrg","pricing_plan_id":"cebpf4jnsgd1na2vs0mg"},{"bike_id":"ebad3fe3-45c6-49ab-a9a7-bd5380241ddd","system_id":"levelo_inurba_marseille","lat":43.27066,"lon":5.42278,"is_reserved":false,"is_disabled":false,"rental_uris":{"android":"levelo://app?vid=ebad3fe3-45c6-49ab-a9a7-bd5380241ddd","ios":"levelo://app?vid=ebad3fe3-45c6-49ab-a9a7-bd5380241ddd"},"vehicle_type_id":"4","last_reported":1731500220,"current_range_meters":27200,"station_id":"ce4bhk92rcd13ifvqgb0","pricing_plan_id":"cebpf4jnsgd1na2vs0mg"},{"bike_id":"e923985d-4de3-4aa5-a760-86abc772f1b0","system_id":"levelo_inurba_marseille","lat":43.26787,"lon":5.3941,"is_reserved":false,"is_disabled":false,"rental_uris":{"android":"levelo://app?vid=e923985d-4de3-4aa5-a760-86abc772f1b0","ios":"levelo://app?vid=e923985d-4de3-4aa5-a760-86abc772f1b0"},"vehicle_type_id":"4","last_reported":1731500220,"current_range_meters":38000,"station_id":"ce4bhh12rcd13ifvqfg0","pricing_plan_id":"cebpf4jnsgd1na2vs0mg"},{"bike_id":"d907ff91-a2b1-4d77-a7fd-29b5379c02bc","system_id":"levelo_inurba_marseille","lat":43.26574,"lon":5.38999,"is_reserved":false,"is_disabled":false,"rental_uris":{"android":"levelo://app?vid=d907ff91-a2b1-4d77-a7fd-29b5379c02bc","ios":"levelo://app?vid=d907ff91-a2b1-4d77-a7fd-29b5379c02bc"},"vehicle_type_id":"4","last_reported":1731500220,"current_range_meters":15200,"station_id":"ce4bhe12rcd13ifvqf30","pricing_plan_id":"cebpf4jnsgd1na2vs0mg"},{"bike_id":"48c3e5d8-eb99-4cab-8f2b-d8c533ec1788","system_id":"levelo_inurba_marseille","lat":43.32659,"lon":5.40989,"is_reserved":false,"is_disabled":false,"rental_uris":{"android":"levelo://app?vid=48c3e5d8-eb99-4cab-8f2b-d8c533ec1788","ios":"levelo://app?vid=48c3e5d8-eb99-4cab-8f2b-d8c533ec1788"},"vehicle_type_id":"4","last_reported":1731500220,"current_range_meters":34800,"station_id":"ce4bhpp2rcd13ifvqhgg","pricing_plan_id":"cebpf4jnsgd1na2vs0mg"},{"bike_id":"92a7a4b8-71a2-4d89-a912-8ce23346a0d1","system_id":"levelo_inurba_marseille","lat":43.29899,"lon":5.43715,"is_reserved":false,"is_disabled":false,"rental_uris":{"android":"levelo://app?vid=92a7a4b8-71a2-4d89-a912-8ce23346a0d1","ios":"levelo://app?vid=92a7a4b8-71a2-4d89-a912-8ce23346a0d1"},"vehicle_type_id":"4","last_reported":1731500220,"current_range_meters":6400,"station_id":"","pricing_plan_id":"cebpf4jnsgd1na2vs0mg"},{"bike_id":"cebb8e52-cd3c-4119-bb30-89bf6d0368de","system_id":"levelo_inurba_marseille","lat":43.29302,"lon":5.37455,"is_reserved":false,"is_disabled":false,"rental_uris":{"android":"levelo://app?vid=cebb8e52-cd3c-4119-bb30-89bf6d0368de","ios":"levelo://app?vid=cebb8e52-cd3c-4119-bb30-89bf6d0368de"},"vehicle_type_id":"4","last_reported":1731500220,"current_range_meters":35600,"station_id":"ce4bgi12rcd13ifvqb70","pricing_plan_id":"cebpf4jnsgd1na2vs0mg"},{"bike_id":"6beff130-26f9-4b61-a3e4-8f5583a6106d","system_id":"levelo_inurba_marseille","lat":43.29726,"lon":5.37688,"is_reserved":false,"is_disabled":false,"rental_uris":{"android":"levelo://app?vid=6beff130-26f9-4b61-a3e4-8f5583a6106d","ios":"levelo://app?vid=6beff130-26f9-4b61-a3e4-8f5583a6106d"},"vehicle_type_id":"4","last_reported":1731500220,"current_range_meters":36800,"station_id":"ce4bgkh2rcd13ifvqbl0","pricing_plan_id":"cebpf4jnsgd1na2vs0mg"},{"bike_id":"59ab4c3d-d580-439c-997c-0faf46e9228d","system_id":"levelo_inurba_marseille","lat":43.26942,"lon":5.40253,"is_reserved":false,"is_disabled":false,"rental_uris":{"android":"levelo://app?vid=59ab4c3d-d580-439c-997c-0faf46e9228d","ios":"levelo://app?vid=59ab4c3d-d580-439c-997c-0faf46e9228d"},"vehicle_type_id":"4","last_reported":1731500220,"current_range_meters":18000,"station_id":"cjm6bp8fraef2m0cb0m0","pricing_plan_id":"cebpf4jnsgd1na2vs0mg"},{"bike_id":"be88b65f-758c-41ae-bbef-9b7f5093def9","system_id":"levelo_inurba_marseille","lat":43.28414,"lon":5.34993,"is_reserved":false,"is_disabled":false,"rental_uris":{"android":"levelo://app?vid=be88b65f-758c-41ae-bbef-9b7f5093def9","ios":"levelo://app?vid=be88b65f-758c-41ae-bbef-9b7f5093def9"},"vehicle_type_id":"4","last_reported":1731500220,"current_range_meters":38400,"station_id":"ce4bhbh2rcd13ifvqepg","pricing_plan_id":"cebpf4jnsgd1na2vs0mg"},{"bike_id":"761abee1-15d3-4007-b807-d490f68060e7","system_id":"levelo_inurba_marseille","lat":43.3094,"lon":5.39039,"is_reserved":false,"is_disabled":false,"rental_uris":{"android":"levelo://app?vid=761abee1-15d3-4007-b807-d490f68060e7","ios":"levelo://app?vid=761abee1-15d3-4007-b807-d490f68060e7"},"vehicle_type_id":"4","last_reported":1731500220,"current_range_meters":28800,"station_id":"ce4bgup2rcd13ifvqco0","pricing_plan_id":"cebpf4jnsgd1na2vs0mg"},{"bike_id":"47fdd3bf-4cb5-4eed-812e-3770c79fd243","system_id":"levelo_inurba_marseille","lat":43.32107,"lon":5.3678,"is_reserved":false,"is_disabled":false,"rental_uris":{"android":"levelo://app?vid=47fdd3bf-4cb5-4eed-812e-3770c79fd243","ios":"levelo://app?vid=47fdd3bf-4cb5-4eed-812e-3770c79fd243"},"vehicle_type_id":"4","last_reported":1731500220,"current_range_meters":16000,"station_id":"ce4bhrh2rcd13ifvqhug","pricing_plan_id":"cebpf4jnsgd1na2vs0mg"},{"bike_id":"08ffe166-0edd-41b0-8f27-debae7f50846","system_id":"levelo_inurba_marseille","lat":43.32287,"lon":5.38262,"is_reserved":false,"is_disabled":false,"rental_uris":{"android":"levelo://app?vid=08ffe166-0edd-41b0-8f27-debae7f50846","ios":"levelo://app?vid=08ffe166-0edd-41b0-8f27-debae7f50846"},"vehicle_type_id":"4","last_reported":1731500220,"current_range_meters":29600,"station_id":"ce4bhr12rcd13ifvqhqg","pricing_plan_id":"cebpf4jnsgd1na2vs0mg"},{"bike_id":"952db8fa-94d4-4043-b999-090caae09c66","system_id":"levelo_inurba_marseille","lat":43.28727,"lon":5.36094,"is_reserved":false,"is_disabled":false,"rental_uris":{"android":"levelo://app?vid=952db8fa-94d4-4043-b999-090caae09c66","ios":"levelo://app?vid=952db8fa-94d4-4043-b999-090caae09c66"},"vehicle_type_id":"4","last_reported":1731500220,"current_range_meters":8400,"station_id":"cki0cbj6b192h4jlfktg","pricing_plan_id":"cebpf4jnsgd1na2vs0mg"},{"bike_id":"68f5de20-238b-41c3-a6c0-54ac841a57ea","system_id":"levelo_inurba_marseille","lat":43.32112,"lon":5.36774,"is_reserved":false,"is_disabled":false,"rental_uris":{"android":"levelo://app?vid=68f5de20-238b-41c3-a6c0-54ac841a57ea","ios":"levelo://app?vid=68f5de20-238b-41c3-a6c0-54ac841a57ea"},"vehicle_type_id":"4","last_reported":1731500220,"current_range_meters":9200,"station_id":"ce4bhrh2rcd13ifvqhug","pricing_plan_id":"cebpf4jnsgd1na2vs0mg"},{"bike_id":"06380225-2059-4a1b-ab66-74996d31bff2","system_id":"levelo_inurba_marseille","lat":43.3136,"lon":5.36709,"is_reserved":false,"is_disabled":false,"rental_uris":{"android":"levelo://app?vid=06380225-2059-4a1b-ab66-74996d31bff2","ios":"levelo://app?vid=06380225-2059-4a1b-ab66-74996d31bff2"},"vehicle_type_id":"4","last_reported":1731500220,"current_range_meters":14000,"station_id":"ce4bgr92rcd13ifvqc6g","pricing_plan_id":"cebpf4jnsgd1na2vs0mg"},{"bike_id":"91ce93f4-d367-4723-aec9-59605e905ef9","system_id":"levelo_inurba_marseille","lat":43.29719,"lon":5.37331,"is_reserved":false,"is_disabled":false,"rental_uris":{"android":"levelo://app?vid=91ce93f4-d367-4723-aec9-59605e905ef9","ios":"levelo://app?vid=91ce93f4-d367-4723-aec9-59605e905ef9"},"vehicle_type_id":"4","last_reported":1731500220,"current_range_meters":6400,"station_id":"ce4bgr92rcd13ifvqc7g","pricing_plan_id":"cebpf4jnsgd1na2vs0mg"},{"bike_id":"67c57be0-1a0b-42b5-b824-d820b30ea6ea","system_id":"levelo_inurba_marseille","lat":43.31746,"lon":5.43243,"is_reserved":false,"is_disabled":false,"rental_uris":{"android":"levelo://app?vid=67c57be0-1a0b-42b5-b824-d820b30ea6ea","ios":"levelo://app?vid=67c57be0-1a0b-42b5-b824-d820b30ea6ea"},"vehicle_type_id":"4","last_reported":1731500220,"current_range_meters":3200,"station_id":"ce4bhp92rcd13ifvqhbg","pricing_plan_id":"cebpf4jnsgd1na2vs0mg"},{"bike_id":"bd905f31-cfc9-44e9-aea9-10bc82628865","system_id":"levelo_inurba_marseille","lat":43.25724,"lon":5.41105,"is_reserved":false,"is_disabled":false,"rental_uris":{"android":"levelo://app?vid=bd905f31-cfc9-44e9-aea9-10bc82628865","ios":"levelo://app?vid=bd905f31-cfc9-44e9-aea9-10bc82628865"},"vehicle_type_id":"4","last_reported":1731500220,"current_range_meters":24000,"station_id":"ce4bhkp2rcd13ifvqgd0","pricing_plan_id":"cebpf4jnsgd1na2vs0mg"},{"bike_id":"b0babe9d-f60b-4893-b2c0-35c2d0981eeb","system_id":"levelo_inurba_marseille","lat":43.27423,"lon":5.39413,"is_reserved":false,"is_disabled":false,"rental_uris":{"android":"levelo://app?vid=b0babe9d-f60b-4893-b2c0-35c2d0981eeb","ios":"levelo://app?vid=b0babe9d-f60b-4893-b2c0-35c2d0981eeb"},"vehicle_type_id":"4","last_reported":1731500220,"current_range_meters":32800,"station_id":"ce4bhdp2rcd13ifvqf20","pricing_plan_id":"cebpf4jnsgd1na2vs0mg"},{"bike_id":"5b41e762-1614-46f6-92e6-bba5e7d3cb79","system_id":"levelo_inurba_marseille","lat":43.28464,"lon":5.35884,"is_reserved":false,"is_disabled":false,"rental_uris":{"android":"levelo://app?vid=5b41e762-1614-46f6-92e6-bba5e7d3cb79","ios":"levelo://app?vid=5b41e762-1614-46f6-92e6-bba5e7d3cb79"},"vehicle_type_id":"4","last_reported":1731500220,"current_range_meters":13600,"station_id":"ce4bhah2rcd13ifvqei0","pricing_plan_id":"cebpf4jnsgd1na2vs0mg"},{"bike_id":"f30ff5cf-3d38-4f86-bb4f-c254e8a50795","system_id":"levelo_inurba_marseille","lat":43.29602,"lon":5.37737,"is_reserved":false,"is_disabled":false,"rental_uris":{"android":"levelo://app?vid=f30ff5cf-3d38-4f86-bb4f-c254e8a50795","ios":"levelo://app?vid=f30ff5cf-3d38-4f86-bb4f-c254e8a50795"},"vehicle_type_id":"4","last_reported":1731500220,"current_range_meters":11200,"station_id":"ce4bgnh2rcd13ifvqc0g","pricing_plan_id":"cebpf4jnsgd1na2vs0mg"},{"bike_id":"70e78c93-084e-4ab7-a814-465f1ec8a7f0","system_id":"levelo_inurba_marseille","lat":43.23152,"lon":5.43696,"is_reserved":false,"is_disabled":false,"rental_uris":{"android":"levelo://app?vid=70e78c93-084e-4ab7-a814-465f1ec8a7f0","ios":"levelo://app?vid=70e78c93-084e-4ab7-a814-465f1ec8a7f0"},"vehicle_type_id":"4","last_reported":1731500220,"current_range_meters":28800,"station_id":"ce4bhmp2rcd13ifvqgog","pricing_plan_id":"cebpf4jnsgd1na2vs0mg"},{"bike_id":"cbb0d77d-e7a0-4f81-9899-f50e44b179ef","system_id":"levelo_inurba_marseille","lat":43.28037,"lon":5.36949,"is_reserved":false,"is_disabled":false,"rental_uris":{"android":"levelo://app?vid=cbb0d77d-e7a0-4f81-9899-f50e44b179ef","ios":"levelo://app?vid=cbb0d77d-e7a0-4f81-9899-f50e44b179ef"},"vehicle_type_id":"4","last_reported":1731500220,"current_range_meters":30800,"station_id":"ce4bha12rcd13ifvqef0","pricing_plan_id":"cebpf4jnsgd1na2vs0mg"},{"bike_id":"f2ff6cb7-9c75-4268-983c-1e09bc9ab498","system_id":"levelo_inurba_marseille","lat":43.337444,"lon":5.374475,"is_reserved":false,"is_disabled":false,"rental_uris":{"android":"levelo://app?vid=f2ff6cb7-9c75-4268-983c-1e09bc9ab498","ios":"levelo://app?vid=f2ff6cb7-9c75-4268-983c-1e09bc9ab498"},"vehicle_type_id":"4","last_reported":1731500220,"current_range_meters":37600,"station_id":"","pricing_plan_id":"cebpf4jnsgd1na2vs0mg"},{"bike_id":"2f807c10-0eda-484e-9a40-019d4160f5c5","system_id":"levelo_inurba_marseille","lat":43.3043,"lon":5.38877,"is_reserved":false,"is_disabled":false,"rental_uris":{"android":"levelo://app?vid=2f807c10-0eda-484e-9a40-019d4160f5c5","ios":"levelo://app?vid=2f807c10-0eda-484e-9a40-019d4160f5c5"},"vehicle_type_id":"4","last_reported":1731500220,"current_range_meters":32400,"station_id":"ce4bgk12rcd13ifvqbi0","pricing_plan_id":"cebpf4jnsgd1na2vs0mg"},{"bike_id":"8f464ff3-aa7d-4ea9-bcea-d89d89104cc0","system_id":"levelo_inurba_marseille","lat":43.29037,"lon":5.3996,"is_reserved":false,"is_disabled":false,"rental_uris":{"android":"levelo://app?vid=8f464ff3-aa7d-4ea9-bcea-d89d89104cc0","ios":"levelo://app?vid=8f464ff3-aa7d-4ea9-bcea-d89d89104cc0"},"vehicle_type_id":"4","last_reported":1731500220,"current_range_meters":34800,"station_id":"ce4bh392rcd13ifvqdm0","pricing_plan_id":"cebpf4jnsgd1na2vs0mg"},{"bike_id":"011d5cc7-4b30-4485-be14-08105a3bf2a0","system_id":"levelo_inurba_marseille","lat":43.240779,"lon":5.377589,"is_reserved":false,"is_disabled":false,"rental_uris":{"android":"levelo://app?vid=011d5cc7-4b30-4485-be14-08105a3bf2a0","ios":"levelo://app?vid=011d5cc7-4b30-4485-be14-08105a3bf2a0"},"vehicle_type_id":"4","last_reported":1731500220,"current_range_meters":8000,"station_id":"ce4bhnp2rcd13ifvqgvg","pricing_plan_id":"cebpf4jnsgd1na2vs0mg"},{"bike_id":"58e12413-d879-4dff-a084-333be006c499","system_id":"levelo_inurba_marseille","lat":43.29551,"lon":5.42279,"is_reserved":false,"is_disabled":false,"rental_uris":{"android":"levelo://app?vid=58e12413-d879-4dff-a084-333be006c499","ios":"levelo://app?vid=58e12413-d879-4dff-a084-333be006c499"},"vehicle_type_id":"4","last_reported":1731500220,"current_range_meters":30400,"station_id":"ce4bhph2rcd13ifvqhdg","pricing_plan_id":"cebpf4jnsgd1na2vs0mg"},{"bike_id":"39c0670f-c022-4156-8b50-e5b2d290269c","system_id":"levelo_inurba_marseille","lat":43.2885,"lon":5.39312,"is_reserved":false,"is_disabled":false,"rental_uris":{"android":"levelo://app?vid=39c0670f-c022-4156-8b50-e5b2d290269c","ios":"levelo://app?vid=39c0670f-c022-4156-8b50-e5b2d290269c"},"vehicle_type_id":"4","last_reported":1731500220,"current_range_meters":21600,"station_id":"ce4bh2p2rcd13ifvqdi0","pricing_plan_id":"cebpf4jnsgd1na2vs0mg"},{"bike_id":"4c2b4426-d635-4446-b8ac-011db0cfe387","system_id":"levelo_inurba_marseille","lat":43.28149,"lon":5.42644,"is_reserved":false,"is_disabled":false,"rental_uris":{"android":"levelo://app?vid=4c2b4426-d635-4446-b8ac-011db0cfe387","ios":"levelo://app?vid=4c2b4426-d635-4446-b8ac-011db0cfe387"},"vehicle_type_id":"4","last_reported":1731500220,"current_range_meters":30800,"station_id":"ce4bhnh2rcd13ifvqgug","pricing_plan_id":"cebpf4jnsgd1na2vs0mg"},{"bike_id":"45d643a4-b730-4eea-935e-ed3ef895fe08","system_id":"levelo_inurba_marseille","lat":43.29,"lon":5.35621,"is_reserved":false,"is_disabled":false,"rental_uris":{"android":"levelo://app?vid=45d643a4-b730-4eea-935e-ed3ef895fe08","ios":"levelo://app?vid=45d643a4-b730-4eea-935e-ed3ef895fe08"},"vehicle_type_id":"4","last_reported":1731500220,"current_range_meters":6800,"station_id":"ce4bhb92rcd13ifvqen0","pricing_plan_id":"cebpf4jnsgd1na2vs0mg"},{"bike_id":"74ac0a8a-281c-4c96-abf0-e674e2fc7c52","system_id":"levelo_inurba_marseille","lat":43.296268,"lon":5.371565,"is_reserved":false,"is_disabled":false,"rental_uris":{"android":"levelo://app?vid=74ac0a8a-281c-4c96-abf0-e674e2fc7c52","ios":"levelo://app?vid=74ac0a8a-281c-4c96-abf0-e674e2fc7c52"},"vehicle_type_id":"4","last_reported":1731500220,"current_range_meters":6400,"station_id":"ce4bgnh2rcd13ifvqc0g","pricing_plan_id":"cebpf4jnsgd1na2vs0mg"},{"bike_id":"6a74bd13-2f0d-4293-a500-24db67983d5b","system_id":"levelo_inurba_marseille","lat":43.23067,"lon":5.35493,"is_reserved":false,"is_disabled":false,"rental_uris":{"android":"levelo://app?vid=6a74bd13-2f0d-4293-a500-24db67983d5b","ios":"levelo://app?vid=6a74bd13-2f0d-4293-a500-24db67983d5b"},"vehicle_type_id":"4","last_reported":1731500220,"current_range_meters":36800,"station_id":"cpo3342slgdg3j2ifvpg","pricing_plan_id":"cebpf4jnsgd1na2vs0mg"},{"bike_id":"62b0f0a6-ae12-4b10-bfe0-2b5f4e12ee76","system_id":"levelo_inurba_marseille","lat":43.2705,"lon":5.4026,"is_reserved":false,"is_disabled":false,"rental_uris":{"android":"levelo://app?vid=62b0f0a6-ae12-4b10-bfe0-2b5f4e12ee76","ios":"levelo://app?vid=62b0f0a6-ae12-4b10-bfe0-2b5f4e12ee76"},"vehicle_type_id":"4","last_reported":1731500220,"current_range_meters":36000,"station_id":"ce4bhk92rcd13ifvqgc0","pricing_plan_id":"cebpf4jnsgd1na2vs0mg"},{"bike_id":"3caa1d9e-6fe8-4aac-9531-dcf4b02361a6","system_id":"levelo_inurba_marseille","lat":43.29,"lon":5.35616,"is_reserved":false,"is_disabled":false,"rental_uris":{"android":"levelo://app?vid=3caa1d9e-6fe8-4aac-9531-dcf4b02361a6","ios":"levelo://app?vid=3caa1d9e-6fe8-4aac-9531-dcf4b02361a6"},"vehicle_type_id":"4","last_reported":1731500220,"current_range_meters":4400,"station_id":"ce4bhb92rcd13ifvqen0","pricing_plan_id":"cebpf4jnsgd1na2vs0mg"},{"bike_id":"ddf51a43-0fff-4948-ad10-6f7a6747dc95","system_id":"levelo_inurba_marseille","lat":43.26939,"lon":5.40249,"is_reserved":false,"is_disabled":false,"rental_uris":{"android":"levelo://app?vid=ddf51a43-0fff-4948-ad10-6f7a6747dc95","ios":"levelo://app?vid=ddf51a43-0fff-4948-ad10-6f7a6747dc95"},"vehicle_type_id":"4","last_reported":1731500220,"current_range_meters":30800,"station_id":"cjm6bp8fraef2m0cb0m0","pricing_plan_id":"cebpf4jnsgd1na2vs0mg"},{"bike_id":"edb5229f-8e81-4dd3-b2f2-ec3f06e6eb1b","system_id":"levelo_inurba_marseille","lat":43.29915,"lon":5.37467,"is_reserved":false,"is_disabled":false,"rental_uris":{"android":"levelo://app?vid=edb5229f-8e81-4dd3-b2f2-ec3f06e6eb1b","ios":"levelo://app?vid=edb5229f-8e81-4dd3-b2f2-ec3f06e6eb1b"},"vehicle_type_id":"4","last_reported":1731500220,"current_range_meters":33600,"station_id":"ce4bgjh2rcd13ifvqbg0","pricing_plan_id":"cebpf4jnsgd1na2vs0mg"},{"bike_id":"36d53520-c7e3-464c-b836-eecedd4879f9","system_id":"levelo_inurba_marseille","lat":43.29543,"lon":5.4228,"is_reserved":false,"is_disabled":false,"rental_uris":{"android":"levelo://app?vid=36d53520-c7e3-464c-b836-eecedd4879f9","ios":"levelo://app?vid=36d53520-c7e3-464c-b836-eecedd4879f9"},"vehicle_type_id":"4","last_reported":1731500220,"current_range_meters":24400,"station_id":"ce4bhph2rcd13ifvqhdg","pricing_plan_id":"cebpf4jnsgd1na2vs0mg"},{"bike_id":"9d21ff4a-d516-4d71-a226-ead22ace12fd","system_id":"levelo_inurba_marseille","lat":43.25936,"lon":5.40904,"is_reserved":false,"is_disabled":false,"rental_uris":{"android":"levelo://app?vid=9d21ff4a-d516-4d71-a226-ead22ace12fd","ios":"levelo://app?vid=9d21ff4a-d516-4d71-a226-ead22ace12fd"},"vehicle_type_id":"4","last_reported":1731500220,"current_range_meters":18800,"station_id":"ce4bhm92rcd13ifvqglg","pricing_plan_id":"cebpf4jnsgd1na2vs0mg"},{"bike_id":"bbd4b080-8b87-447f-a0fa-2d278fcc6882","system_id":"levelo_inurba_marseille","lat":43.2922,"lon":5.400717,"is_reserved":false,"is_disabled":false,"rental_uris":{"android":"levelo://app?vid=bbd4b080-8b87-447f-a0fa-2d278fcc6882","ios":"levelo://app?vid=bbd4b080-8b87-447f-a0fa-2d278fcc6882"},"vehicle_type_id":"4","last_reported":1731500220,"current_range_meters":25200,"station_id":"","pricing_plan_id":"cebpf4jnsgd1na2vs0mg"},{"bike_id":"ecb7c274-90d0-4e95-92a1-62c481d46dcf","system_id":"levelo_inurba_marseille","lat":43.305328,"lon":5.365358,"is_reserved":false,"is_disabled":false,"rental_uris":{"android":"levelo://app?vid=ecb7c274-90d0-4e95-92a1-62c481d46dcf","ios":"levelo://app?vid=ecb7c274-90d0-4e95-92a1-62c481d46dcf"},"vehicle_type_id":"4","last_reported":1731500220,"current_range_meters":22000,"station_id":"ce4bgs12rcd13ifvqcag","pricing_plan_id":"cebpf4jnsgd1na2vs0mg"},{"bike_id":"87844030-11a4-48be-9712-850a09e699d9","system_id":"levelo_inurba_marseille","lat":43.297991,"lon":5.381118,"is_reserved":false,"is_disabled":false,"rental_uris":{"android":"levelo://app?vid=87844030-11a4-48be-9712-850a09e699d9","ios":"levelo://app?vid=87844030-11a4-48be-9712-850a09e699d9"},"vehicle_type_id":"4","last_reported":1731500220,"current_range_meters":2800,"station_id":"ce4bgip2rcd13ifvqbb0","pricing_plan_id":"cebpf4jnsgd1na2vs0mg"},{"bike_id":"4d4b08c4-4112-4c81-91f9-d6ee139fb526","system_id":"levelo_inurba_marseille","lat":43.28412,"lon":5.37507,"is_reserved":false,"is_disabled":false,"rental_uris":{"android":"levelo://app?vid=4d4b08c4-4112-4c81-91f9-d6ee139fb526","ios":"levelo://app?vid=4d4b08c4-4112-4c81-91f9-d6ee139fb526"},"vehicle_type_id":"4","last_reported":1731500220,"current_range_meters":7200,"station_id":"ce4bh412rcd13ifvqds0","pricing_plan_id":"cebpf4jnsgd1na2vs0mg"},{"bike_id":"3761d044-7e00-42eb-9818-997bcb524452","system_id":"levelo_inurba_marseille","lat":43.29618,"lon":5.37723,"is_reserved":false,"is_disabled":false,"rental_uris":{"android":"levelo://app?vid=3761d044-7e00-42eb-9818-997bcb524452","ios":"levelo://app?vid=3761d044-7e00-42eb-9818-997bcb524452"},"vehicle_type_id":"4","last_reported":1731500220,"current_range_meters":36000,"station_id":"ce4bgi92rcd13ifvqb90","pricing_plan_id":"cebpf4jnsgd1na2vs0mg"},{"bike_id":"f2f5f8a4-2807-4d2a-b405-e5154f4177df","system_id":"levelo_inurba_marseille","lat":43.26942,"lon":5.4024,"is_reserved":false,"is_disabled":false,"rental_uris":{"android":"levelo://app?vid=f2f5f8a4-2807-4d2a-b405-e5154f4177df","ios":"levelo://app?vid=f2f5f8a4-2807-4d2a-b405-e5154f4177df"},"vehicle_type_id":"4","last_reported":1731500220,"current_range_meters":39200,"station_id":"cjm6bp8fraef2m0cb0m0","pricing_plan_id":"cebpf4jnsgd1na2vs0mg"},{"bike_id":"151f9e6e-f9d5-40f4-8bbf-706fc2119638","system_id":"levelo_inurba_marseille","lat":43.30548,"lon":5.365163,"is_reserved":false,"is_disabled":false,"rental_uris":{"android":"levelo://app?vid=151f9e6e-f9d5-40f4-8bbf-706fc2119638","ios":"levelo://app?vid=151f9e6e-f9d5-40f4-8bbf-706fc2119638"},"vehicle_type_id":"4","last_reported":1731500220,"current_range_meters":39200,"station_id":"ce4bgs12rcd13ifvqcag","pricing_plan_id":"cebpf4jnsgd1na2vs0mg"},{"bike_id":"459a5777-57d4-4613-900e-258d8697c41c","system_id":"levelo_inurba_marseille","lat":43.28452,"lon":5.35877,"is_reserved":false,"is_disabled":false,"rental_uris":{"android":"levelo://app?vid=459a5777-57d4-4613-900e-258d8697c41c","ios":"levelo://app?vid=459a5777-57d4-4613-900e-258d8697c41c"},"vehicle_type_id":"4","last_reported":1731500220,"current_range_meters":25600,"station_id":"ce4bhah2rcd13ifvqei0","pricing_plan_id":"cebpf4jnsgd1na2vs0mg"},{"bike_id":"a1a68ca7-7e5c-4727-ad2a-f3b07dad5677","system_id":"levelo_inurba_marseille","lat":43.29303,"lon":5.37442,"is_reserved":false,"is_disabled":false,"rental_uris":{"android":"levelo://app?vid=a1a68ca7-7e5c-4727-ad2a-f3b07dad5677","ios":"levelo://app?vid=a1a68ca7-7e5c-4727-ad2a-f3b07dad5677"},"vehicle_type_id":"4","last_reported":1731500220,"current_range_meters":7200,"station_id":"ce4bgi12rcd13ifvqb70","pricing_plan_id":"cebpf4jnsgd1na2vs0mg"},{"bike_id":"88bda773-8a20-4b04-9a4d-d765138497c4","system_id":"levelo_inurba_marseille","lat":43.2993,"lon":5.36533,"is_reserved":false,"is_disabled":false,"rental_uris":{"android":"levelo://app?vid=88bda773-8a20-4b04-9a4d-d765138497c4","ios":"levelo://app?vid=88bda773-8a20-4b04-9a4d-d765138497c4"},"vehicle_type_id":"4","last_reported":1731500220,"current_range_meters":27200,"station_id":"ce4bgm92rcd13ifvqbr0","pricing_plan_id":"cebpf4jnsgd1na2vs0mg"},{"bike_id":"876d09ce-2269-4e21-a6c5-815dc7639960","system_id":"levelo_inurba_marseille","lat":43.30542,"lon":5.36517,"is_reserved":false,"is_disabled":false,"rental_uris":{"android":"levelo://app?vid=876d09ce-2269-4e21-a6c5-815dc7639960","ios":"levelo://app?vid=876d09ce-2269-4e21-a6c5-815dc7639960"},"vehicle_type_id":"4","last_reported":1731500220,"current_range_meters":8400,"station_id":"ce4bgs12rcd13ifvqcag","pricing_plan_id":"cebpf4jnsgd1na2vs0mg"},{"bike_id":"46657df0-44b4-4a5f-ab63-76d483334bab","system_id":"levelo_inurba_marseille","lat":43.26793,"lon":5.38915,"is_reserved":false,"is_disabled":false,"rental_uris":{"android":"levelo://app?vid=46657df0-44b4-4a5f-ab63-76d483334bab","ios":"levelo://app?vid=46657df0-44b4-4a5f-ab63-76d483334bab"},"vehicle_type_id":"4","last_reported":1731500220,"current_range_meters":36400,"station_id":"ce4bhhp2rcd13ifvqfm0","pricing_plan_id":"cebpf4jnsgd1na2vs0mg"},{"bike_id":"663fe4a2-0d70-41fa-b955-41308a60133b","system_id":"levelo_inurba_marseille","lat":43.28075,"lon":5.39656,"is_reserved":false,"is_disabled":false,"rental_uris":{"android":"levelo://app?vid=663fe4a2-0d70-41fa-b955-41308a60133b","ios":"levelo://app?vid=663fe4a2-0d70-41fa-b955-41308a60133b"},"vehicle_type_id":"4","last_reported":1731500220,"current_range_meters":20800,"station_id":"ce4bho12rcd13ifvqh2g","pricing_plan_id":"cebpf4jnsgd1na2vs0mg"},{"bike_id":"73a84f30-9cf2-4ded-935b-86b71022d8b5","system_id":"levelo_inurba_marseille","lat":43.29189,"lon":5.39337,"is_reserved":false,"is_disabled":false,"rental_uris":{"android":"levelo://app?vid=73a84f30-9cf2-4ded-935b-86b71022d8b5","ios":"levelo://app?vid=73a84f30-9cf2-4ded-935b-86b71022d8b5"},"vehicle_type_id":"4","last_reported":1731500220,"current_range_meters":12400,"station_id":"ce4bh192rcd13ifvqdd0","pricing_plan_id":"cebpf4jnsgd1na2vs0mg"},{"bike_id":"cd3964b1-33e8-42ec-9fbd-f1eb7c9fe073","system_id":"levelo_inurba_marseille","lat":43.29844,"lon":5.36269,"is_reserved":false,"is_disabled":false,"rental_uris":{"android":"levelo://app?vid=cd3964b1-33e8-42ec-9fbd-f1eb7c9fe073","ios":"levelo://app?vid=cd3964b1-33e8-42ec-9fbd-f1eb7c9fe073"},"vehicle_type_id":"4","last_reported":1731500220,"current_range_meters":28800,"station_id":"ce4bgpp2rcd13ifvqc3g","pricing_plan_id":"cebpf4jnsgd1na2vs0mg"},{"bike_id":"46944b35-c145-41c1-9bc6-9d1d7b50e3f8","system_id":"levelo_inurba_marseille","lat":43.28941,"lon":5.3641,"is_reserved":false,"is_disabled":false,"rental_uris":{"android":"levelo://app?vid=46944b35-c145-41c1-9bc6-9d1d7b50e3f8","ios":"levelo://app?vid=46944b35-c145-41c1-9bc6-9d1d7b50e3f8"},"vehicle_type_id":"4","last_reported":1731500220,"current_range_meters":29600,"station_id":"ce4bhc92rcd13ifvqetg","pricing_plan_id":"cebpf4jnsgd1na2vs0mg"},{"bike_id":"cb2c741b-eef5-49a9-92e5-08690e509ec7","system_id":"levelo_inurba_marseille","lat":43.272036,"lon":5.391843,"is_reserved":false,"is_disabled":false,"rental_uris":{"android":"levelo://app?vid=cb2c741b-eef5-49a9-92e5-08690e509ec7","ios":"levelo://app?vid=cb2c741b-eef5-49a9-92e5-08690e509ec7"},"vehicle_type_id":"4","last_reported":1731500220,"current_range_meters":24400,"station_id":"ce4bhhp2rcd13ifvqfm0","pricing_plan_id":"cebpf4jnsgd1na2vs0mg"},{"bike_id":"c5fb8d78-194a-4adb-8999-14199ad223bd","system_id":"levelo_inurba_marseille","lat":43.29225,"lon":5.36069,"is_reserved":false,"is_disabled":false,"rental_uris":{"android":"levelo://app?vid=c5fb8d78-194a-4adb-8999-14199ad223bd","ios":"levelo://app?vid=c5fb8d78-194a-4adb-8999-14199ad223bd"},"vehicle_type_id":"4","last_reported":1731500220,"current_range_meters":23200,"station_id":"ce4bhbh2rcd13ifvqeqg","pricing_plan_id":"cebpf4jnsgd1na2vs0mg"},{"bike_id":"ef64163f-5bc1-4988-9c95-855e4b6b89df","system_id":"levelo_inurba_marseille","lat":43.29575,"lon":5.37498,"is_reserved":false,"is_disabled":false,"rental_uris":{"android":"levelo://app?vid=ef64163f-5bc1-4988-9c95-855e4b6b89df","ios":"levelo://app?vid=ef64163f-5bc1-4988-9c95-855e4b6b89df"},"vehicle_type_id":"4","last_reported":1731500220,"current_range_meters":29600,"station_id":"ce4bgh92rcd13ifvqb50","pricing_plan_id":"cebpf4jnsgd1na2vs0mg"},{"bike_id":"0d9e2e7c-3ea7-4597-9cd0-3b3279e54150","system_id":"levelo_inurba_marseille","lat":43.23176,"lon":5.39985,"is_reserved":false,"is_disabled":false,"rental_uris":{"android":"levelo://app?vid=0d9e2e7c-3ea7-4597-9cd0-3b3279e54150","ios":"levelo://app?vid=0d9e2e7c-3ea7-4597-9cd0-3b3279e54150"},"vehicle_type_id":"4","last_reported":1731500220,"current_range_meters":28000,"station_id":"ce4bhn12rcd13ifvqgqg","pricing_plan_id":"cebpf4jnsgd1na2vs0mg"},{"bike_id":"2c3259f6-ceef-45be-96b5-228e6aa038d6","system_id":"levelo_inurba_marseille","lat":43.27816,"lon":5.40714,"is_reserved":false,"is_disabled":false,"rental_uris":{"android":"levelo://app?vid=2c3259f6-ceef-45be-96b5-228e6aa038d6","ios":"levelo://app?vid=2c3259f6-ceef-45be-96b5-228e6aa038d6"},"vehicle_type_id":"4","last_reported":1731500220,"current_range_meters":34000,"station_id":"ce4bhnh2rcd13ifvqgtg","pricing_plan_id":"cebpf4jnsgd1na2vs0mg"},{"bike_id":"96fe6358-351d-406d-9e28-03e2092ad6c5","system_id":"levelo_inurba_marseille","lat":43.31881,"lon":5.40735,"is_reserved":false,"is_disabled":false,"rental_uris":{"android":"levelo://app?vid=96fe6358-351d-406d-9e28-03e2092ad6c5","ios":"levelo://app?vid=96fe6358-351d-406d-9e28-03e2092ad6c5"},"vehicle_type_id":"4","last_reported":1731500220,"current_range_meters":10800,"station_id":"ce4bhq12rcd13ifvqhig","pricing_plan_id":"cebpf4jnsgd1na2vs0mg"},{"bike_id":"888d78ec-114f-4c17-9c14-c82bca33a261","system_id":"levelo_inurba_marseille","lat":43.30596,"lon":5.37226,"is_reserved":false,"is_disabled":false,"rental_uris":{"android":"levelo://app?vid=888d78ec-114f-4c17-9c14-c82bca33a261","ios":"levelo://app?vid=888d78ec-114f-4c17-9c14-c82bca33a261"},"vehicle_type_id":"4","last_reported":1731500220,"current_range_meters":40000,"station_id":"ce4bgqh2rcd13ifvqc4g","pricing_plan_id":"cebpf4jnsgd1na2vs0mg"},{"bike_id":"5b27cca6-e3e0-4887-9768-3e5941927366","system_id":"levelo_inurba_marseille","lat":43.25086,"lon":5.39518,"is_reserved":false,"is_disabled":false,"rental_uris":{"android":"levelo://app?vid=5b27cca6-e3e0-4887-9768-3e5941927366","ios":"levelo://app?vid=5b27cca6-e3e0-4887-9768-3e5941927366"},"vehicle_type_id":"4","last_reported":1731500220,"current_range_meters":33600,"station_id":"ce4bhm12rcd13ifvqgkg","pricing_plan_id":"cebpf4jnsgd1na2vs0mg"},{"bike_id":"5427ec44-65b5-4156-9be1-ec87130aec0f","system_id":"levelo_inurba_marseille","lat":43.33757,"lon":5.37436,"is_reserved":false,"is_disabled":false,"rental_uris":{"android":"levelo://app?vid=5427ec44-65b5-4156-9be1-ec87130aec0f","ios":"levelo://app?vid=5427ec44-65b5-4156-9be1-ec87130aec0f"},"vehicle_type_id":"4","last_reported":1731500220,"current_range_meters":25200,"station_id":"","pricing_plan_id":"cebpf4jnsgd1na2vs0mg"},{"bike_id":"72ce00a7-7352-4f16-a12f-396625191e85","system_id":"levelo_inurba_marseille","lat":43.2952,"lon":5.39398,"is_reserved":false,"is_disabled":false,"rental_uris":{"android":"levelo://app?vid=72ce00a7-7352-4f16-a12f-396625191e85","ios":"levelo://app?vid=72ce00a7-7352-4f16-a12f-396625191e85"},"vehicle_type_id":"4","last_reported":1731500220,"current_range_meters":24400,"station_id":"ce4bh292rcd13ifvqdf0","pricing_plan_id":"cebpf4jnsgd1na2vs0mg"},{"bike_id":"082e9e38-ed1e-4cc1-a3df-a88469374fe0","system_id":"levelo_inurba_marseille","lat":43.31227,"lon":5.36862,"is_reserved":false,"is_disabled":false,"rental_uris":{"android":"levelo://app?vid=082e9e38-ed1e-4cc1-a3df-a88469374fe0","ios":"levelo://app?vid=082e9e38-ed1e-4cc1-a3df-a88469374fe0"},"vehicle_type_id":"4","last_reported":1731500220,"current_range_meters":24000,"station_id":"ce4bgl92rcd13ifvqbq0","pricing_plan_id":"cebpf4jnsgd1na2vs0mg"},{"bike_id":"876741b3-360a-4ea8-a072-e61ecc49f8fa","system_id":"levelo_inurba_marseille","lat":43.291898,"lon":5.357965,"is_reserved":false,"is_disabled":false,"rental_uris":{"android":"levelo://app?vid=876741b3-360a-4ea8-a072-e61ecc49f8fa","ios":"levelo://app?vid=876741b3-360a-4ea8-a072-e61ecc49f8fa"},"vehicle_type_id":"4","last_reported":1731500220,"current_range_meters":11200,"station_id":"ce4bhb12rcd13ifvqel0","pricing_plan_id":"cebpf4jnsgd1na2vs0mg"},{"bike_id":"4f571ea2-eb4b-49bb-aeb6-ed0b7ca8f578","system_id":"levelo_inurba_marseille","lat":43.32538,"lon":5.41423,"is_reserved":false,"is_disabled":false,"rental_uris":{"android":"levelo://app?vid=4f571ea2-eb4b-49bb-aeb6-ed0b7ca8f578","ios":"levelo://app?vid=4f571ea2-eb4b-49bb-aeb6-ed0b7ca8f578"},"vehicle_type_id":"4","last_reported":1731500220,"current_range_meters":14000,"station_id":"ce4bhq12rcd13ifvqhhg","pricing_plan_id":"cebpf4jnsgd1na2vs0mg"},{"bike_id":"e96a31e5-ea53-4f5a-a60f-2d835756685c","system_id":"levelo_inurba_marseille","lat":43.30548,"lon":5.36513,"is_reserved":false,"is_disabled":false,"rental_uris":{"android":"levelo://app?vid=e96a31e5-ea53-4f5a-a60f-2d835756685c","ios":"levelo://app?vid=e96a31e5-ea53-4f5a-a60f-2d835756685c"},"vehicle_type_id":"4","last_reported":1731500220,"current_range_meters":36800,"station_id":"ce4bgs12rcd13ifvqcag","pricing_plan_id":"cebpf4jnsgd1na2vs0mg"},{"bike_id":"2c1d060f-bbab-4c3b-9cd9-fd01fc22708e","system_id":"levelo_inurba_marseille","lat":43.29438,"lon":5.39742,"is_reserved":false,"is_disabled":false,"rental_uris":{"android":"levelo://app?vid=2c1d060f-bbab-4c3b-9cd9-fd01fc22708e","ios":"levelo://app?vid=2c1d060f-bbab-4c3b-9cd9-fd01fc22708e"},"vehicle_type_id":"4","last_reported":1731500220,"current_range_meters":30800,"station_id":"ce4bh3h2rcd13ifvqdo0","pricing_plan_id":"cebpf4jnsgd1na2vs0mg"},{"bike_id":"a249744d-84d4-4fa8-a6cb-4941aaf23288","system_id":"levelo_inurba_marseille","lat":43.24542,"lon":5.39527,"is_reserved":false,"is_disabled":false,"rental_uris":{"android":"levelo://app?vid=a249744d-84d4-4fa8-a6cb-4941aaf23288","ios":"levelo://app?vid=a249744d-84d4-4fa8-a6cb-4941aaf23288"},"vehicle_type_id":"4","last_reported":1731500220,"current_range_meters":39200,"station_id":"ce4bhlp2rcd13ifvqgjg","pricing_plan_id":"cebpf4jnsgd1na2vs0mg"},{"bike_id":"8d94310c-ac7c-41cf-b6b5-93089085bd95","system_id":"levelo_inurba_marseille","lat":43.296448,"lon":5.374905,"is_reserved":false,"is_disabled":false,"rental_uris":{"android":"levelo://app?vid=8d94310c-ac7c-41cf-b6b5-93089085bd95","ios":"levelo://app?vid=8d94310c-ac7c-41cf-b6b5-93089085bd95"},"vehicle_type_id":"4","last_reported":1731500220,"current_range_meters":24000,"station_id":"ce4bgrh2rcd13ifvqc8g","pricing_plan_id":"cebpf4jnsgd1na2vs0mg"},{"bike_id":"ec2e996e-808c-4ee8-801b-7f33abeae8ee","system_id":"levelo_inurba_marseille","lat":43.30596,"lon":5.3936,"is_reserved":false,"is_disabled":false,"rental_uris":{"android":"levelo://app?vid=ec2e996e-808c-4ee8-801b-7f33abeae8ee","ios":"levelo://app?vid=ec2e996e-808c-4ee8-801b-7f33abeae8ee"},"vehicle_type_id":"4","last_reported":1731500220,"current_range_meters":24800,"station_id":"ce4bh0p2rcd13ifvqd80","pricing_plan_id":"cebpf4jnsgd1na2vs0mg"},{"bike_id":"a8e7bc15-df4b-4c8a-8171-d8d51586c834","system_id":"levelo_inurba_marseille","lat":43.337444,"lon":5.374475,"is_reserved":false,"is_disabled":false,"rental_uris":{"android":"levelo://app?vid=a8e7bc15-df4b-4c8a-8171-d8d51586c834","ios":"levelo://app?vid=a8e7bc15-df4b-4c8a-8171-d8d51586c834"},"vehicle_type_id":"4","last_reported":1731500220,"current_range_meters":32000,"station_id":"","pricing_plan_id":"cebpf4jnsgd1na2vs0mg"},{"bike_id":"fcf6be3b-3c7d-419c-bd1b-a8b7c6e79cce","system_id":"levelo_inurba_marseille","lat":43.3043,"lon":5.38891,"is_reserved":false,"is_disabled":false,"rental_uris":{"android":"levelo://app?vid=fcf6be3b-3c7d-419c-bd1b-a8b7c6e79cce","ios":"levelo://app?vid=fcf6be3b-3c7d-419c-bd1b-a8b7c6e79cce"},"vehicle_type_id":"4","last_reported":1731500220,"current_range_meters":39200,"station_id":"ce4bgk12rcd13ifvqbi0","pricing_plan_id":"cebpf4jnsgd1na2vs0mg"},{"bike_id":"32bff4c9-9e24-4055-bdf4-09829843cde3","system_id":"levelo_inurba_marseille","lat":43.28414,"lon":5.34988,"is_reserved":false,"is_disabled":false,"rental_uris":{"android":"levelo://app?vid=32bff4c9-9e24-4055-bdf4-09829843cde3","ios":"levelo://app?vid=32bff4c9-9e24-4055-bdf4-09829843cde3"},"vehicle_type_id":"4","last_reported":1731500220,"current_range_meters":39200,"station_id":"ce4bhbh2rcd13ifvqepg","pricing_plan_id":"cebpf4jnsgd1na2vs0mg"},{"bike_id":"13ab0539-0866-4ddf-bb86-ea00670533a7","system_id":"levelo_inurba_marseille","lat":43.30929,"lon":5.40147,"is_reserved":false,"is_disabled":false,"rental_uris":{"android":"levelo://app?vid=13ab0539-0866-4ddf-bb86-ea00670533a7","ios":"levelo://app?vid=13ab0539-0866-4ddf-bb86-ea00670533a7"},"vehicle_type_id":"4","last_reported":1731500220,"current_range_meters":20000,"station_id":"ce4bgvp2rcd13ifvqct0","pricing_plan_id":"cebpf4jnsgd1na2vs0mg"},{"bike_id":"b9b9ca99-abc1-4d74-b34d-2422c7c3d10f","system_id":"levelo_inurba_marseille","lat":43.32352,"lon":5.36747,"is_reserved":false,"is_disabled":false,"rental_uris":{"android":"levelo://app?vid=b9b9ca99-abc1-4d74-b34d-2422c7c3d10f","ios":"levelo://app?vid=b9b9ca99-abc1-4d74-b34d-2422c7c3d10f"},"vehicle_type_id":"4","last_reported":1731500220,"current_range_meters":32000,"station_id":"ce4bhsh2rcd13ifvqi2g","pricing_plan_id":"cebpf4jnsgd1na2vs0mg"},{"bike_id":"d6a467d4-3521-4e70-bb79-9c3cc51561dd","system_id":"levelo_inurba_marseille","lat":43.2927,"lon":5.36831,"is_reserved":false,"is_disabled":false,"rental_uris":{"android":"levelo://app?vid=d6a467d4-3521-4e70-bb79-9c3cc51561dd","ios":"levelo://app?vid=d6a467d4-3521-4e70-bb79-9c3cc51561dd"},"vehicle_type_id":"4","last_reported":1731500220,"current_range_meters":36400,"station_id":"ce4bhbp2rcd13ifvqesg","pricing_plan_id":"cebpf4jnsgd1na2vs0mg"},{"bike_id":"aeb9eafa-ef5b-4950-84eb-6ee40c9e3b2a","system_id":"levelo_inurba_marseille","lat":43.32538,"lon":5.41437,"is_reserved":false,"is_disabled":false,"rental_uris":{"android":"levelo://app?vid=aeb9eafa-ef5b-4950-84eb-6ee40c9e3b2a","ios":"levelo://app?vid=aeb9eafa-ef5b-4950-84eb-6ee40c9e3b2a"},"vehicle_type_id":"4","last_reported":1731500220,"current_range_meters":22400,"station_id":"ce4bhq12rcd13ifvqhhg","pricing_plan_id":"cebpf4jnsgd1na2vs0mg"},{"bike_id":"1b6aedf9-aa79-4e62-b4b6-0d4304a12219","system_id":"levelo_inurba_marseille","lat":43.31226,"lon":5.36851,"is_reserved":false,"is_disabled":false,"rental_uris":{"android":"levelo://app?vid=1b6aedf9-aa79-4e62-b4b6-0d4304a12219","ios":"levelo://app?vid=1b6aedf9-aa79-4e62-b4b6-0d4304a12219"},"vehicle_type_id":"4","last_reported":1731500220,"current_range_meters":16800,"station_id":"ce4bgl92rcd13ifvqbq0","pricing_plan_id":"cebpf4jnsgd1na2vs0mg"},{"bike_id":"27227666-be7d-4f0d-b6ab-7d496af6f3eb","system_id":"levelo_inurba_marseille","lat":43.33758,"lon":5.37429,"is_reserved":false,"is_disabled":false,"rental_uris":{"android":"levelo://app?vid=27227666-be7d-4f0d-b6ab-7d496af6f3eb","ios":"levelo://app?vid=27227666-be7d-4f0d-b6ab-7d496af6f3eb"},"vehicle_type_id":"4","last_reported":1731500220,"current_range_meters":38000,"station_id":"","pricing_plan_id":"cebpf4jnsgd1na2vs0mg"},{"bike_id":"4bdd709d-c09e-4132-8786-1e991b24a37e","system_id":"levelo_inurba_marseille","lat":43.23229,"lon":5.35589,"is_reserved":false,"is_disabled":false,"rental_uris":{"android":"levelo://app?vid=4bdd709d-c09e-4132-8786-1e991b24a37e","ios":"levelo://app?vid=4bdd709d-c09e-4132-8786-1e991b24a37e"},"vehicle_type_id":"4","last_reported":1731500220,"current_range_meters":32400,"station_id":"ce4bhu92rcd13ifvqi70","pricing_plan_id":"cebpf4jnsgd1na2vs0mg"},{"bike_id":"0abc7890-6052-4899-9333-58f0b9531924","system_id":"levelo_inurba_marseille","lat":43.28152,"lon":5.42655,"is_reserved":false,"is_disabled":false,"rental_uris":{"android":"levelo://app?vid=0abc7890-6052-4899-9333-58f0b9531924","ios":"levelo://app?vid=0abc7890-6052-4899-9333-58f0b9531924"},"vehicle_type_id":"4","last_reported":1731500220,"current_range_meters":8000,"station_id":"ce4bhnh2rcd13ifvqgug","pricing_plan_id":"cebpf4jnsgd1na2vs0mg"},{"bike_id":"21809597-df4b-4bb7-ac3d-1537178d4615","system_id":"levelo_inurba_marseille","lat":43.2587,"lon":5.39897,"is_reserved":false,"is_disabled":false,"rental_uris":{"android":"levelo://app?vid=21809597-df4b-4bb7-ac3d-1537178d4615","ios":"levelo://app?vid=21809597-df4b-4bb7-ac3d-1537178d4615"},"vehicle_type_id":"4","last_reported":1731500220,"current_range_meters":27600,"station_id":"ce4bhl92rcd13ifvqghg","pricing_plan_id":"cebpf4jnsgd1na2vs0mg"},{"bike_id":"857cf3b8-a499-4f71-a4af-951511031286","system_id":"levelo_inurba_marseille","lat":43.32477,"lon":5.36565,"is_reserved":false,"is_disabled":false,"rental_uris":{"android":"levelo://app?vid=857cf3b8-a499-4f71-a4af-951511031286","ios":"levelo://app?vid=857cf3b8-a499-4f71-a4af-951511031286"},"vehicle_type_id":"4","last_reported":1731500220,"current_range_meters":38000,"station_id":"ce4bhs12rcd13ifvqhvg","pricing_plan_id":"cebpf4jnsgd1na2vs0mg"},{"bike_id":"c60be017-4b8b-490b-8511-6acf2e29d6aa","system_id":"levelo_inurba_marseille","lat":43.29445,"lon":5.37413,"is_reserved":false,"is_disabled":false,"rental_uris":{"android":"levelo://app?vid=c60be017-4b8b-490b-8511-6acf2e29d6aa","ios":"levelo://app?vid=c60be017-4b8b-490b-8511-6acf2e29d6aa"},"vehicle_type_id":"4","last_reported":1731500220,"current_range_meters":18800,"station_id":"ce4bgpp2rcd13ifvqc3g","pricing_plan_id":"cebpf4jnsgd1na2vs0mg"},{"bike_id":"8d7031e1-e28c-4f5b-9ae1-aea8aa787be1","system_id":"levelo_inurba_marseille","lat":43.2978,"lon":5.37109,"is_reserved":false,"is_disabled":false,"rental_uris":{"android":"levelo://app?vid=8d7031e1-e28c-4f5b-9ae1-aea8aa787be1","ios":"levelo://app?vid=8d7031e1-e28c-4f5b-9ae1-aea8aa787be1"},"vehicle_type_id":"4","last_reported":1731500220,"current_range_meters":31200,"station_id":"ce4bgop2rcd13ifvqc1g","pricing_plan_id":"cebpf4jnsgd1na2vs0mg"},{"bike_id":"09f78ee2-ac0c-4eef-9e88-ec1ea61817e6","system_id":"levelo_inurba_marseille","lat":43.24645,"lon":5.3889,"is_reserved":false,"is_disabled":false,"rental_uris":{"android":"levelo://app?vid=09f78ee2-ac0c-4eef-9e88-ec1ea61817e6","ios":"levelo://app?vid=09f78ee2-ac0c-4eef-9e88-ec1ea61817e6"},"vehicle_type_id":"4","last_reported":1731500220,"current_range_meters":16000,"station_id":"ce4bhg12rcd13ifvqf60","pricing_plan_id":"cebpf4jnsgd1na2vs0mg"},{"bike_id":"61307e19-76e0-4e7b-b49a-0e1df84e9e7c","system_id":"levelo_inurba_marseille","lat":43.28726,"lon":5.36082,"is_reserved":false,"is_disabled":false,"rental_uris":{"android":"levelo://app?vid=61307e19-76e0-4e7b-b49a-0e1df84e9e7c","ios":"levelo://app?vid=61307e19-76e0-4e7b-b49a-0e1df84e9e7c"},"vehicle_type_id":"4","last_reported":1731500220,"current_range_meters":31200,"station_id":"cki0cbj6b192h4jlfktg","pricing_plan_id":"cebpf4jnsgd1na2vs0mg"},{"bike_id":"d0712474-5761-4467-8cf5-df1ccf85f085","system_id":"levelo_inurba_marseille","lat":43.26939,"lon":5.40246,"is_reserved":false,"is_disabled":false,"rental_uris":{"android":"levelo://app?vid=d0712474-5761-4467-8cf5-df1ccf85f085","ios":"levelo://app?vid=d0712474-5761-4467-8cf5-df1ccf85f085"},"vehicle_type_id":"4","last_reported":1731500220,"current_range_meters":38400,"station_id":"cjm6bp8fraef2m0cb0m0","pricing_plan_id":"cebpf4jnsgd1na2vs0mg"},{"bike_id":"b55fe61e-e2db-4c8d-940b-61d116c0d2b9","system_id":"levelo_inurba_marseille","lat":43.29185,"lon":5.35799,"is_reserved":false,"is_disabled":false,"rental_uris":{"android":"levelo://app?vid=b55fe61e-e2db-4c8d-940b-61d116c0d2b9","ios":"levelo://app?vid=b55fe61e-e2db-4c8d-940b-61d116c0d2b9"},"vehicle_type_id":"4","last_reported":1731500220,"current_range_meters":30400,"station_id":"ce4bhb12rcd13ifvqel0","pricing_plan_id":"cebpf4jnsgd1na2vs0mg"},{"bike_id":"81b42f6e-352b-4aea-a968-c33ef8348d01","system_id":"levelo_inurba_marseille","lat":43.23176,"lon":5.39991,"is_reserved":false,"is_disabled":false,"rental_uris":{"android":"levelo://app?vid=81b42f6e-352b-4aea-a968-c33ef8348d01","ios":"levelo://app?vid=81b42f6e-352b-4aea-a968-c33ef8348d01"},"vehicle_type_id":"4","last_reported":1731500220,"current_range_meters":35200,"station_id":"ce4bhn12rcd13ifvqgqg","pricing_plan_id":"cebpf4jnsgd1na2vs0mg"},{"bike_id":"5d1f4316-b04e-4ffe-949b-df676969a7da","system_id":"levelo_inurba_marseille","lat":43.27371,"lon":5.36249,"is_reserved":false,"is_disabled":false,"rental_uris":{"android":"levelo://app?vid=5d1f4316-b04e-4ffe-949b-df676969a7da","ios":"levelo://app?vid=5d1f4316-b04e-4ffe-949b-df676969a7da"},"vehicle_type_id":"4","last_reported":1731500220,"current_range_meters":40000,"station_id":"ce4bhbh2rcd13ifvqeo0","pricing_plan_id":"cebpf4jnsgd1na2vs0mg"},{"bike_id":"aac6894c-cd35-49e9-9f01-f9e8d8484c59","system_id":"levelo_inurba_marseille","lat":43.22929,"lon":5.35375,"is_reserved":false,"is_disabled":false,"rental_uris":{"android":"levelo://app?vid=aac6894c-cd35-49e9-9f01-f9e8d8484c59","ios":"levelo://app?vid=aac6894c-cd35-49e9-9f01-f9e8d8484c59"},"vehicle_type_id":"4","last_reported":1731500220,"current_range_meters":38000,"station_id":"cpo3532slgdg3j2ikp40","pricing_plan_id":"cebpf4jnsgd1na2vs0mg"},{"bike_id":"bfa262e7-b380-42c6-83c4-737aa5e276f3","system_id":"levelo_inurba_marseille","lat":43.28607,"lon":5.37063,"is_reserved":false,"is_disabled":false,"rental_uris":{"android":"levelo://app?vid=bfa262e7-b380-42c6-83c4-737aa5e276f3","ios":"levelo://app?vid=bfa262e7-b380-42c6-83c4-737aa5e276f3"},"vehicle_type_id":"4","last_reported":1731500220,"current_range_meters":37600,"station_id":"ce4bht12rcd13ifvqi60","pricing_plan_id":"cebpf4jnsgd1na2vs0mg"},{"bike_id":"bd242193-93e0-478c-97b8-f1cd0d1bbc8c","system_id":"levelo_inurba_marseille","lat":43.33023,"lon":5.39043,"is_reserved":false,"is_disabled":false,"rental_uris":{"android":"levelo://app?vid=bd242193-93e0-478c-97b8-f1cd0d1bbc8c","ios":"levelo://app?vid=bd242193-93e0-478c-97b8-f1cd0d1bbc8c"},"vehicle_type_id":"4","last_reported":1731500220,"current_range_meters":24800,"station_id":"ce4bhr92rcd13ifvqhrg","pricing_plan_id":"cebpf4jnsgd1na2vs0mg"},{"bike_id":"92885f01-41c7-46c8-83a8-31f8d3f31721","system_id":"levelo_inurba_marseille","lat":43.29554,"lon":5.4229,"is_reserved":false,"is_disabled":false,"rental_uris":{"android":"levelo://app?vid=92885f01-41c7-46c8-83a8-31f8d3f31721","ios":"levelo://app?vid=92885f01-41c7-46c8-83a8-31f8d3f31721"},"vehicle_type_id":"4","last_reported":1731500220,"current_range_meters":27200,"station_id":"ce4bhph2rcd13ifvqhdg","pricing_plan_id":"cebpf4jnsgd1na2vs0mg"},{"bike_id":"44694aa3-4bdd-4d1c-ba1e-acb1339bbc9e","system_id":"levelo_inurba_marseille","lat":43.31274,"lon":5.40156,"is_reserved":false,"is_disabled":false,"rental_uris":{"android":"levelo://app?vid=44694aa3-4bdd-4d1c-ba1e-acb1339bbc9e","ios":"levelo://app?vid=44694aa3-4bdd-4d1c-ba1e-acb1339bbc9e"},"vehicle_type_id":"4","last_reported":1731500220,"current_range_meters":38400,"station_id":"ce4bh092rcd13ifvqd30","pricing_plan_id":"cebpf4jnsgd1na2vs0mg"},{"bike_id":"2dd3a59e-c577-4e49-8917-15920aeb2fff","system_id":"levelo_inurba_marseille","lat":43.30308,"lon":5.36901,"is_reserved":false,"is_disabled":false,"rental_uris":{"android":"levelo://app?vid=2dd3a59e-c577-4e49-8917-15920aeb2fff","ios":"levelo://app?vid=2dd3a59e-c577-4e49-8917-15920aeb2fff"},"vehicle_type_id":"4","last_reported":1731500220,"current_range_meters":38400,"station_id":"ce4bgqh2rcd13ifvqc5g","pricing_plan_id":"cebpf4jnsgd1na2vs0mg"},{"bike_id":"8b84673e-100d-42bc-84fb-820630a1de63","system_id":"levelo_inurba_marseille","lat":43.31176,"lon":5.3872,"is_reserved":false,"is_disabled":false,"rental_uris":{"android":"levelo://app?vid=8b84673e-100d-42bc-84fb-820630a1de63","ios":"levelo://app?vid=8b84673e-100d-42bc-84fb-820630a1de63"},"vehicle_type_id":"4","last_reported":1731500220,"current_range_meters":38000,"station_id":"ce4bgv12rcd13ifvqcp0","pricing_plan_id":"cebpf4jnsgd1na2vs0mg"},{"bike_id":"f46df13f-b6d8-45e1-925b-e43d4a5ecba8","system_id":"levelo_inurba_marseille","lat":43.25821,"lon":5.39432,"is_reserved":false,"is_disabled":false,"rental_uris":{"android":"levelo://app?vid=f46df13f-b6d8-45e1-925b-e43d4a5ecba8","ios":"levelo://app?vid=f46df13f-b6d8-45e1-925b-e43d4a5ecba8"},"vehicle_type_id":"4","last_reported":1731500220,"current_range_meters":39200,"station_id":"ce4bhip2rcd13ifvqft0","pricing_plan_id":"cebpf4jnsgd1na2vs0mg"},{"bike_id":"2d1a27a5-c18f-4c10-908c-1de5a31b7222","system_id":"levelo_inurba_marseille","lat":43.2826,"lon":5.35081,"is_reserved":false,"is_disabled":false,"rental_uris":{"android":"levelo://app?vid=2d1a27a5-c18f-4c10-908c-1de5a31b7222","ios":"levelo://app?vid=2d1a27a5-c18f-4c10-908c-1de5a31b7222"},"vehicle_type_id":"4","last_reported":1731500220,"current_range_meters":38800,"station_id":"ce4bhbp2rcd13ifvqerg","pricing_plan_id":"cebpf4jnsgd1na2vs0mg"},{"bike_id":"77611f2f-2c01-4fba-b80c-54ce6a5eeb56","system_id":"levelo_inurba_marseille","lat":43.24168,"lon":5.36401,"is_reserved":false,"is_disabled":false,"rental_uris":{"android":"levelo://app?vid=77611f2f-2c01-4fba-b80c-54ce6a5eeb56","ios":"levelo://app?vid=77611f2f-2c01-4fba-b80c-54ce6a5eeb56"},"vehicle_type_id":"4","last_reported":1731500220,"current_range_meters":36800,"station_id":"cpo36qri1sfpv3e86is0","pricing_plan_id":"cebpf4jnsgd1na2vs0mg"},{"bike_id":"386171ad-5213-4a67-8a64-11cb717a6a70","system_id":"levelo_inurba_marseille","lat":43.28273,"lon":5.35074,"is_reserved":false,"is_disabled":false,"rental_uris":{"android":"levelo://app?vid=386171ad-5213-4a67-8a64-11cb717a6a70","ios":"levelo://app?vid=386171ad-5213-4a67-8a64-11cb717a6a70"},"vehicle_type_id":"4","last_reported":1731500220,"current_range_meters":38000,"station_id":"ce4bhbp2rcd13ifvqerg","pricing_plan_id":"cebpf4jnsgd1na2vs0mg"},{"bike_id":"b5d61de2-4d16-4433-8f69-5adcd6d20a8b","system_id":"levelo_inurba_marseille","lat":43.231567,"lon":5.436925,"is_reserved":false,"is_disabled":false,"rental_uris":{"android":"levelo://app?vid=b5d61de2-4d16-4433-8f69-5adcd6d20a8b","ios":"levelo://app?vid=b5d61de2-4d16-4433-8f69-5adcd6d20a8b"},"vehicle_type_id":"4","last_reported":1731500220,"current_range_meters":38800,"station_id":"ce4bhmp2rcd13ifvqgog","pricing_plan_id":"cebpf4jnsgd1na2vs0mg"},{"bike_id":"ff3a451a-1bc0-4f5e-8fb0-45dc7f95eaa9","system_id":"levelo_inurba_marseille","lat":43.33719,"lon":5.39186,"is_reserved":false,"is_disabled":false,"rental_uris":{"android":"levelo://app?vid=ff3a451a-1bc0-4f5e-8fb0-45dc7f95eaa9","ios":"levelo://app?vid=ff3a451a-1bc0-4f5e-8fb0-45dc7f95eaa9"},"vehicle_type_id":"4","last_reported":1731500220,"current_range_meters":27600,"station_id":"ce4bhr92rcd13ifvqhsg","pricing_plan_id":"cebpf4jnsgd1na2vs0mg"},{"bike_id":"82177570-77c8-45db-bec7-ab2b10dc4402","system_id":"levelo_inurba_marseille","lat":43.25085,"lon":5.39521,"is_reserved":false,"is_disabled":false,"rental_uris":{"android":"levelo://app?vid=82177570-77c8-45db-bec7-ab2b10dc4402","ios":"levelo://app?vid=82177570-77c8-45db-bec7-ab2b10dc4402"},"vehicle_type_id":"4","last_reported":1731500220,"current_range_meters":28800,"station_id":"ce4bhm12rcd13ifvqgkg","pricing_plan_id":"cebpf4jnsgd1na2vs0mg"},{"bike_id":"8f4d92ae-0222-4237-978d-920ba49e7c8f","system_id":"levelo_inurba_marseille","lat":43.2319,"lon":5.35555,"is_reserved":false,"is_disabled":false,"rental_uris":{"android":"levelo://app?vid=8f4d92ae-0222-4237-978d-920ba49e7c8f","ios":"levelo://app?vid=8f4d92ae-0222-4237-978d-920ba49e7c8f"},"vehicle_type_id":"4","last_reported":1731500220,"current_range_meters":38800,"station_id":"ce4bhu92rcd13ifvqi70","pricing_plan_id":"cebpf4jnsgd1na2vs0mg"},{"bike_id":"52dc9412-67c8-49d3-9b65-fd56a7322d31","system_id":"levelo_inurba_marseille","lat":43.29529,"lon":5.38542,"is_reserved":false,"is_disabled":false,"rental_uris":{"android":"levelo://app?vid=52dc9412-67c8-49d3-9b65-fd56a7322d31","ios":"levelo://app?vid=52dc9412-67c8-49d3-9b65-fd56a7322d31"},"vehicle_type_id":"4","last_reported":1731500220,"current_range_meters":10000,"station_id":"ce4bgih2rcd13ifvqba0","pricing_plan_id":"cebpf4jnsgd1na2vs0mg"},{"bike_id":"e57dee29-6ba7-4762-a162-ee3dbd8942a7","system_id":"levelo_inurba_marseille","lat":43.27543,"lon":5.42409,"is_reserved":false,"is_disabled":false,"rental_uris":{"android":"levelo://app?vid=e57dee29-6ba7-4762-a162-ee3dbd8942a7","ios":"levelo://app?vid=e57dee29-6ba7-4762-a162-ee3dbd8942a7"},"vehicle_type_id":"4","last_reported":1731500220,"current_range_meters":8400,"station_id":"","pricing_plan_id":"cebpf4jnsgd1na2vs0mg"},{"bike_id":"69b02fdd-f0e5-44a7-9b8c-007018621578","system_id":"levelo_inurba_marseille","lat":43.23959,"lon":5.36629,"is_reserved":false,"is_disabled":false,"rental_uris":{"android":"levelo://app?vid=69b02fdd-f0e5-44a7-9b8c-007018621578","ios":"levelo://app?vid=69b02fdd-f0e5-44a7-9b8c-007018621578"},"vehicle_type_id":"4","last_reported":1731500220,"current_range_meters":38000,"station_id":"ce4bhi12rcd13ifvqfp0","pricing_plan_id":"cebpf4jnsgd1na2vs0mg"},{"bike_id":"8ff3daf9-97e9-480f-95f9-4d1d61792a54","system_id":"levelo_inurba_marseille","lat":43.33758,"lon":5.37471,"is_reserved":false,"is_disabled":false,"rental_uris":{"android":"levelo://app?vid=8ff3daf9-97e9-480f-95f9-4d1d61792a54","ios":"levelo://app?vid=8ff3daf9-97e9-480f-95f9-4d1d61792a54"},"vehicle_type_id":"4","last_reported":1731500220,"current_range_meters":35600,"station_id":"","pricing_plan_id":"cebpf4jnsgd1na2vs0mg"},{"bike_id":"bf8c35df-f989-4e5e-8738-f6499d959ea2","system_id":"levelo_inurba_marseille","lat":43.26028,"lon":5.37547,"is_reserved":false,"is_disabled":false,"rental_uris":{"android":"levelo://app?vid=bf8c35df-f989-4e5e-8738-f6499d959ea2","ios":"levelo://app?vid=bf8c35df-f989-4e5e-8738-f6499d959ea2"},"vehicle_type_id":"4","last_reported":1731500220,"current_range_meters":38000,"station_id":"ce4bhgh2rcd13ifvqfa0","pricing_plan_id":"cebpf4jnsgd1na2vs0mg"},{"bike_id":"ddd15fcf-da4b-4639-bbe7-c9127fb5befc","system_id":"levelo_inurba_marseille","lat":43.33774,"lon":5.37423,"is_reserved":false,"is_disabled":false,"rental_uris":{"android":"levelo://app?vid=ddd15fcf-da4b-4639-bbe7-c9127fb5befc","ios":"levelo://app?vid=ddd15fcf-da4b-4639-bbe7-c9127fb5befc"},"vehicle_type_id":"4","last_reported":1731500220,"current_range_meters":34800,"station_id":"","pricing_plan_id":"cebpf4jnsgd1na2vs0mg"},{"bike_id":"e2331ffa-50b0-45e4-a14f-75cb550d92a2","system_id":"levelo_inurba_marseille","lat":43.33023,"lon":5.39035,"is_reserved":false,"is_disabled":false,"rental_uris":{"android":"levelo://app?vid=e2331ffa-50b0-45e4-a14f-75cb550d92a2","ios":"levelo://app?vid=e2331ffa-50b0-45e4-a14f-75cb550d92a2"},"vehicle_type_id":"4","last_reported":1731500220,"current_range_meters":20400,"station_id":"ce4bhr92rcd13ifvqhrg","pricing_plan_id":"cebpf4jnsgd1na2vs0mg"},{"bike_id":"efcc038e-ab81-4500-99a6-81049814b7dd","system_id":"levelo_inurba_marseille","lat":43.27809,"lon":5.40716,"is_reserved":false,"is_disabled":false,"rental_uris":{"android":"levelo://app?vid=efcc038e-ab81-4500-99a6-81049814b7dd","ios":"levelo://app?vid=efcc038e-ab81-4500-99a6-81049814b7dd"},"vehicle_type_id":"4","last_reported":1731500220,"current_range_meters":19600,"station_id":"ce4bhnh2rcd13ifvqgtg","pricing_plan_id":"cebpf4jnsgd1na2vs0mg"},{"bike_id":"5e2f656f-7dcd-4cde-9b3a-b4a907cb0a1c","system_id":"levelo_inurba_marseille","lat":43.28429,"lon":5.37512,"is_reserved":false,"is_disabled":false,"rental_uris":{"android":"levelo://app?vid=5e2f656f-7dcd-4cde-9b3a-b4a907cb0a1c","ios":"levelo://app?vid=5e2f656f-7dcd-4cde-9b3a-b4a907cb0a1c"},"vehicle_type_id":"4","last_reported":1731500220,"current_range_meters":14800,"station_id":"ce4bh412rcd13ifvqds0","pricing_plan_id":"cebpf4jnsgd1na2vs0mg"},{"bike_id":"3ee5675b-b4a0-4f03-8075-d5004f83396d","system_id":"levelo_inurba_marseille","lat":43.29915,"lon":5.37479,"is_reserved":false,"is_disabled":false,"rental_uris":{"android":"levelo://app?vid=3ee5675b-b4a0-4f03-8075-d5004f83396d","ios":"levelo://app?vid=3ee5675b-b4a0-4f03-8075-d5004f83396d"},"vehicle_type_id":"4","last_reported":1731500220,"current_range_meters":17200,"station_id":"ce4bgjh2rcd13ifvqbg0","pricing_plan_id":"cebpf4jnsgd1na2vs0mg"},{"bike_id":"f2eccdd2-cc87-4028-8108-61bd4254d80b","system_id":"levelo_inurba_marseille","lat":43.32341,"lon":5.40616,"is_reserved":false,"is_disabled":false,"rental_uris":{"android":"levelo://app?vid=f2eccdd2-cc87-4028-8108-61bd4254d80b","ios":"levelo://app?vid=f2eccdd2-cc87-4028-8108-61bd4254d80b"},"vehicle_type_id":"4","last_reported":1731500220,"current_range_meters":25600,"station_id":"ce4bhq92rcd13ifvqhjg","pricing_plan_id":"cebpf4jnsgd1na2vs0mg"},{"bike_id":"d65b1909-d5fd-4e2e-9f81-029071e3401a","system_id":"levelo_inurba_marseille","lat":43.27901,"lon":5.38016,"is_reserved":false,"is_disabled":false,"rental_uris":{"android":"levelo://app?vid=d65b1909-d5fd-4e2e-9f81-029071e3401a","ios":"levelo://app?vid=d65b1909-d5fd-4e2e-9f81-029071e3401a"},"vehicle_type_id":"4","last_reported":1731500220,"current_range_meters":20000,"station_id":"ce4bhf92rcd13ifvqf50","pricing_plan_id":"cebpf4jnsgd1na2vs0mg"},{"bike_id":"544f4379-0a8c-4ff0-89dd-43f8d527a5ce","system_id":"levelo_inurba_marseille","lat":43.31882,"lon":5.4073,"is_reserved":false,"is_disabled":false,"rental_uris":{"android":"levelo://app?vid=544f4379-0a8c-4ff0-89dd-43f8d527a5ce","ios":"levelo://app?vid=544f4379-0a8c-4ff0-89dd-43f8d527a5ce"},"vehicle_type_id":"4","last_reported":1731500220,"current_range_meters":22800,"station_id":"ce4bhq12rcd13ifvqhig","pricing_plan_id":"cebpf4jnsgd1na2vs0mg"},{"bike_id":"5a7ada83-8bd9-435c-927f-15b749117ee3","system_id":"levelo_inurba_marseille","lat":43.30547,"lon":5.3651,"is_reserved":false,"is_disabled":false,"rental_uris":{"android":"levelo://app?vid=5a7ada83-8bd9-435c-927f-15b749117ee3","ios":"levelo://app?vid=5a7ada83-8bd9-435c-927f-15b749117ee3"},"vehicle_type_id":"4","last_reported":1731500220,"current_range_meters":27600,"station_id":"ce4bgs12rcd13ifvqcag","pricing_plan_id":"cebpf4jnsgd1na2vs0mg"},{"bike_id":"d09a69b4-a6cd-4352-9b70-237c7ec2c287","system_id":"levelo_inurba_marseille","lat":43.29662,"lon":5.37692,"is_reserved":false,"is_disabled":false,"rental_uris":{"android":"levelo://app?vid=d09a69b4-a6cd-4352-9b70-237c7ec2c287","ios":"levelo://app?vid=d09a69b4-a6cd-4352-9b70-237c7ec2c287"},"vehicle_type_id":"4","last_reported":1731500220,"current_range_meters":26000,"station_id":"ce4bgi92rcd13ifvqb90","pricing_plan_id":"cebpf4jnsgd1na2vs0mg"},