{"last_updated":1714846118,"ttl":30,"version":"2.2","data":{"bikes":[{"bike_id":"78661f7c-d51b-4297-bf68-4cc8e7e8d32c","system_id":"levelo_inurba_marseille","lat":43.309076,"lon":5.368465,"is_reserved":false,"is_disabled":false,"rental_uris":{"android":"levelo://app?vid=78661f7c-d51b-4297-bf68-4cc8e7e8d32c","ios":"levelo://app?vid=78661f7c-d51b-4297-bf68-4cc8e7e8d32c"},"vehicle_type_id":"4","last_reported":1714846119,"current_range_meters":22400,"station_id":"ce4bgn92rcd13ifvqbvg","pricing_plan_id":"cebpf4jnsgd1na2vs0mg"},{"bike_id":"8a9396f6-567d-4bba-88c6-100df13284e1","system_id":"levelo_inurba_marseille","lat":43.314811,"lon":5.373103,"is_reserved":false,"is_disabled":false,"rental_uris":{"android":"levelo://app?vid=8a9396f6-567d-4bba-88c6-100df13284e1","ios":"levelo://app?vid=8a9396f6-567d-4bba-88c6-100df13284e1"},"vehicle_type_id":"4","last_reported":1714846119,"current_range_meters":19200,"station_id":"ce4bgt12rcd13ifvqcd0","pricing_plan_id":"cebpf4jnsgd1na2vs0mg"},{"bike_id":"ca9b18a6-1976-47db-8094-6c659c136881","system_id":"levelo_inurba_marseille","lat":43.314811,"lon":5.373103,"is_reserved":false,"is_disabled":false,"rental_uris":{"android":"levelo://app?vid=ca9b18a6-1976-47db-8094-6c659c136881","ios":"levelo://app?vid=ca9b18a6-1976-47db-8094-6c659c136881"},"vehicle_type_id":"4","last_reported":1714846119,"current_range_meters":3200,"station_id":"ce4bgt12rcd13ifvqcd0","pricing_plan_id":"cebpf4jnsgd1na2vs0mg"},{"bike_id":"c5182dd2-cb44-400f-8148-dca2a7034f7d","system_id":"levelo_inurba_marseille","lat":43.314811,"lon":5.373103,"is_reserved":false,"is_disabled":false,"rental_uris":{"android":"levelo://app?vid=c5182dd2-cb44-400f-8148-dca2a7034f7d","ios":"levelo://app?vid=c5182dd2-cb44-400f-8148-dca2a7034f7d"},"vehicle_type_id":"4","last_reported":1714846119,"current_range_meters":20400,"station_id":"ce4bgt12rcd13ifvqcd0","pricing_plan_id":"cebpf4jnsgd1na2vs0mg"},{"bike_id":"5dc6bb50-5601-4346-9d35-5e407a8857cb","system_id":"levelo_inurba_marseille","lat":43.314811,"lon":5.373103,"is_reserved":false,"is_disabled":false,"rental_uris":{"android":"levelo://app?vid=5dc6bb50-5601-4346-9d35-5e407a8857cb","ios":"levelo://app?vid=5dc6bb50-5601-4346-9d35-5e407a8857cb"},"vehicle_type_id":"4","last_reported":1714846119,"current_range_meters":4800,"station_id":"ce4bgt12rcd13ifvqcd0","pricing_plan_id":"cebpf4jnsgd1na2vs0mg"},{"bike_id":"ee8273c4-15f3-48b9-9e19-813e39508c5c","system_id":"levelo_inurba_marseille","lat":43.31504,"lon":5.37308,"is_reserved":false,"is_disabled":false,"rental_uris":{"android":"levelo://app?vid=ee8273c4-15f3-48b9-9e19-813e39508c5c","ios":"levelo://app?vid=ee8273c4-15f3-48b9-9e19-813e39508c5c"},"vehicle_type_id":"4","last_reported":1714846119,"current_range_meters":0,"station_id":"ce4bgt12rcd13ifvqcd0","pricing_plan_id":"cebpf4jnsgd1na2vs0mg"},{"bike_id":"8ce6722d-5e10-46c2-a0e6-c4b9454aeb06","system_id":"levelo_inurba_marseille","lat":43.314811,"lon":5.373104,"is_reserved":false,"is_disabled":false,"rental_uris":{"android":"levelo://app?vid=8ce6722d-5e10-46c2-a0e6-c4b9454aeb06","ios":"levelo://app?vid=8ce6722d-5e10-46c2-a0e6-c4b9454aeb06"},"vehicle_type_id":"4","last_reported":1714846119,"current_range_meters":0,"station_id":"ce4bgt12rcd13ifvqcd0","pricing_plan_id":"cebpf4jnsgd1na2vs0mg"},{"bike_id":"9025e321-c628-4187-8775-11b00b0143cc","system_id":"levelo_inurba_marseille","lat":43.309034,"lon":5.371783,"is_reserved":false,"is_disabled":false,"rental_uris":{"android":"levelo://app?vid=9025e321-c628-4187-8775-11b00b0143cc","ios":"levelo://app?vid=9025e321-c628-4187-8775-11b00b0143cc"},"vehicle_type_id":"4","last_reported":1714846119,"current_range_meters":21200,"station_id":"ce4bguh2rcd13ifvqckg","pricing_plan_id":"cebpf4jnsgd1na2vs0mg"},{"bike_id":"e44304a1-f966-4aed-8dbe-a5b38290e925","system_id":"levelo_inurba_marseille","lat":43.309039,"lon":5.371797,"is_reserved":false,"is_disabled":false,"rental_uris":{"android":"levelo://app?vid=e44304a1-f966-4aed-8dbe-a5b38290e925","ios":"levelo://app?vid=e44304a1-f966-4aed-8dbe-a5b38290e925"},"vehicle_type_id":"4","last_reported":1714846119,"current_range_meters":1600,"station_id":"ce4bguh2rcd13ifvqckg","pricing_plan_id":"cebpf4jnsgd1na2vs0mg"},{"bike_id":"5df19549-f6ac-4318-a16f-f7cbad590eb5","system_id":"levelo_inurba_marseille","lat":43.309039,"lon":5.371797,"is_reserved":false,"is_disabled":false,"rental_uris":{"android":"levelo://app?vid=5df19549-f6ac-4318-a16f-f7cbad590eb5","ios":"levelo://app?vid=5df19549-f6ac-4318-a16f-f7cbad590eb5"},"vehicle_type_id":"4","last_reported":1714846119,"current_range_meters":19600,"station_id":"ce4bguh2rcd13ifvqckg","pricing_plan_id":"cebpf4jnsgd1na2vs0mg"},{"bike_id":"5d5df8f2-9b5d-4042-8972-68c7084b625e","system_id":"levelo_inurba_marseille","lat":43.309039,"lon":5.371797,"is_reserved":false,"is_disabled":false,"rental_uris":{"android":"levelo://app?vid=5d5df8f2-9b5d-4042-8972-68c7084b625e","ios":"levelo://app?vid=5d5df8f2-9b5d-4042-8972-68c7084b625e"},"vehicle_type_id":"4","last_reported":1714846119,"current_range_meters":9600,"station_id":"ce4bguh2rcd13ifvqckg","pricing_plan_id":"cebpf4jnsgd1na2vs0mg"},{"bike_id":"c20e2a2c-c778-45f6-a6e9-830c94738547","system_id":"levelo_inurba_marseille","lat":43.317075,"lon":5.377367,"is_reserved":false,"is_disabled":false,"rental_uris":{"android":"levelo://app?vid=c20e2a2c-c778-45f6-a6e9-830c94738547","ios":"levelo://app?vid=c20e2a2c-c778-45f6-a6e9-830c94738547"},"vehicle_type_id":"4","last_reported":1714846119,"current_range_meters":17600,"station_id":"ce4bgth2rcd13ifvqch0","pricing_plan_id":"cebpf4jnsgd1na2vs0mg"},{"bike_id":"1c12942a-2a2b-4941-a162-eb524c618635","system_id":"levelo_inurba_marseille","lat":43.305989,"lon":5.37225,"is_reserved":false,"is_disabled":false,"rental_uris":{"android":"levelo://app?vid=1c12942a-2a2b-4941-a162-eb524c618635","ios":"levelo://app?vid=1c12942a-2a2b-4941-a162-eb524c618635"},"vehicle_type_id":"4","last_reported":1714846119,"current_range_meters":5600,"station_id":"ce4bgqh2rcd13ifvqc4g","pricing_plan_id":"cebpf4jnsgd1na2vs0mg"},{"bike_id":"d8105367-9c41-4e87-8e20-b217a6c19833","system_id":"levelo_inurba_marseille","lat":43.305989,"lon":5.37225,"is_reserved":false,"is_disabled":false,"rental_uris":{"android":"levelo://app?vid=d8105367-9c41-4e87-8e20-b217a6c19833","ios":"levelo://app?vid=d8105367-9c41-4e87-8e20-b217a6c19833"},"vehicle_type_id":"4","last_reported":1714846119,"current_range_meters":0,"station_id":"ce4bgqh2rcd13ifvqc4g","pricing_plan_id":"cebpf4jnsgd1na2vs0mg"},{"bike_id":"b26722e7-49ab-464d-9ccb-a403ffec33f3","system_id":"levelo_inurba_marseille","lat":43.305989,"lon":5.37225,"is_reserved":false,"is_disabled":false,"rental_uris":{"android":"levelo://app?vid=b26722e7-49ab-464d-9ccb-a403ffec33f3","ios":"levelo://app?vid=b26722e7-49ab-464d-9ccb-a403ffec33f3"},"vehicle_type_id":"4","last_reported":1714846119,"current_range_meters":27200,"station_id":"ce4bgqh2rcd13ifvqc4g","pricing_plan_id":"cebpf4jnsgd1na2vs0mg"},{"bike_id":"ac8d2186-4227-44a3-9ad6-7829be14ed4e","system_id":"levelo_inurba_marseille","lat":43.305989,"lon":5.37225,"is_reserved":false,"is_disabled":false,"rental_uris":{"android":"levelo://app?vid=ac8d2186-4227-44a3-9ad6-7829be14ed4e","ios":"levelo://app?vid=ac8d2186-4227-44a3-9ad6-7829be14ed4e"},"vehicle_type_id":"4","last_reported":1714846119,"current_range_meters":4000,"station_id":"ce4bgqh2rcd13ifvqc4g","pricing_plan_id":"cebpf4jnsgd1na2vs0mg"},{"bike_id":"caba3e79-e1e3-4625-947f-8cfabf09ef89","system_id":"levelo_inurba_marseille","lat":43.311131,"lon":5.377651,"is_reserved":false,"is_disabled":false,"rental_uris":{"android":"levelo://app?vid=caba3e79-e1e3-4625-947f-8cfabf09ef89","ios":"levelo://app?vid=caba3e79-e1e3-4625-947f-8cfabf09ef89"},"vehicle_type_id":"4","last_reported":1714846119,"current_range_meters":18000,"station_id":"ce4bgt92rcd13ifvqcg0","pricing_plan_id":"cebpf4jnsgd1na2vs0mg"},{"bike_id":"698f6823-1041-4e4a-acc0-8c776c357a85","system_id":"levelo_inurba_marseille","lat":43.31116,"lon":5.37772,"is_reserved":false,"is_disabled":false,"rental_uris":{"android":"levelo://app?vid=698f6823-1041-4e4a-acc0-8c776c357a85","ios":"levelo://app?vid=698f6823-1041-4e4a-acc0-8c776c357a85"},"vehicle_type_id":"4","last_reported":1714846119,"current_range_meters":0,"station_id":"ce4bgt92rcd13ifvqcg0","pricing_plan_id":"cebpf4jnsgd1na2vs0mg"},{"bike_id":"f602e06f-9493-4a38-85f7-290791a65772","system_id":"levelo_inurba_marseille","lat":43.311125,"lon":5.377624,"is_reserved":false,"is_disabled":false,"rental_uris":{"android":"levelo://app?vid=f602e06f-9493-4a38-85f7-290791a65772","ios":"levelo://app?vid=f602e06f-9493-4a38-85f7-290791a65772"},"vehicle_type_id":"4","last_reported":1714846119,"current_range_meters":5600,"station_id":"ce4bgt92rcd13ifvqcg0","pricing_plan_id":"cebpf4jnsgd1na2vs0mg"},{"bike_id":"ffebd206-224c-4233-b333-e74921364476","system_id":"levelo_inurba_marseille","lat":43.30792,"lon":5.37648,"is_reserved":false,"is_disabled":false,"rental_uris":{"android":"levelo://app?vid=ffebd206-224c-4233-b333-e74921364476","ios":"levelo://app?vid=ffebd206-224c-4233-b333-e74921364476"},"vehicle_type_id":"4","last_reported":1714846119,"current_range_meters":12800,"station_id":"ce4bgv92rcd13ifvqcq0","pricing_plan_id":"cebpf4jnsgd1na2vs0mg"},{"bike_id":"c8c0ea65-38f0-4a49-aec9-b1fd2dc61baa","system_id":"levelo_inurba_marseille","lat":43.303046,"lon":5.368981,"is_reserved":false,"is_disabled":false,"rental_uris":{"android":"levelo://app?vid=c8c0ea65-38f0-4a49-aec9-b1fd2dc61baa","ios":"levelo://app?vid=c8c0ea65-38f0-4a49-aec9-b1fd2dc61baa"},"vehicle_type_id":"4","last_reported":1714846119,"current_range_meters":14400,"station_id":"ce4bgqh2rcd13ifvqc5g","pricing_plan_id":"cebpf4jnsgd1na2vs0mg"},{"bike_id":"4ae4813f-510c-4921-b8e8-2b9a187250dc","system_id":"levelo_inurba_marseille","lat":43.303046,"lon":5.368981,"is_reserved":false,"is_disabled":false,"rental_uris":{"android":"levelo://app?vid=4ae4813f-510c-4921-b8e8-2b9a187250dc","ios":"levelo://app?vid=4ae4813f-510c-4921-b8e8-2b9a187250dc"},"vehicle_type_id":"4","last_reported":1714846119,"current_range_meters":28400,"station_id":"ce4bgqh2rcd13ifvqc5g","pricing_plan_id":"cebpf4jnsgd1na2vs0mg"},{"bike_id":"219d4853-6b8c-4e61-946a-95158e7a04fd","system_id":"levelo_inurba_marseille","lat":43.303046,"lon":5.368981,"is_reserved":false,"is_disabled":false,"rental_uris":{"android":"levelo://app?vid=219d4853-6b8c-4e61-946a-95158e7a04fd","ios":"levelo://app?vid=219d4853-6b8c-4e61-946a-95158e7a04fd"},"vehicle_type_id":"4","last_reported":1714846119,"current_range_meters":28800,"station_id":"ce4bgqh2rcd13ifvqc5g","pricing_plan_id":"cebpf4jnsgd1na2vs0mg"},{"bike_id":"23e183fa-2161-4dfb-8c1e-ed0f4f1ba189","system_id":"levelo_inurba_marseille","lat":43.30304,"lon":5.368987,"is_reserved":false,"is_disabled":false,"rental_uris":{"android":"levelo://app?vid=23e183fa-2161-4dfb-8c1e-ed0f4f1ba189","ios":"levelo://app?vid=23e183fa-2161-4dfb-8c1e-ed0f4f1ba189"},"vehicle_type_id":"4","last_reported":1714846119,"current_range_meters":14400,"station_id":"ce4bgqh2rcd13ifvqc5g","pricing_plan_id":"cebpf4jnsgd1na2vs0mg"},{"bike_id":"bee932e0-450b-4811-936a-095c4c48830a","system_id":"levelo_inurba_marseille","lat":43.303046,"lon":5.368981,"is_reserved":false,"is_disabled":false,"rental_uris":{"android":"levelo://app?vid=bee932e0-450b-4811-936a-095c4c48830a","ios":"levelo://app?vid=bee932e0-450b-4811-936a-095c4c48830a"},"vehicle_type_id":"4","last_reported":1714846119,"current_range_meters":20400,"station_id":"ce4bgqh2rcd13ifvqc5g","pricing_plan_id":"cebpf4jnsgd1na2vs0mg"},{"bike_id":"8091e401-9865-4569-b4fe-896fb49646bf","system_id":"levelo_inurba_marseille","lat":43.30198,"lon":5.36624,"is_reserved":false,"is_disabled":false,"rental_uris":{"android":"levelo://app?vid=8091e401-9865-4569-b4fe-896fb49646bf","ios":"levelo://app?vid=8091e401-9865-4569-b4fe-896fb49646bf"},"vehicle_type_id":"4","last_reported":1714846119,"current_range_meters":0,"station_id":"ce4bgrh2rcd13ifvqc8g","pricing_plan_id":"cebpf4jnsgd1na2vs0mg"},{"bike_id":"e5166a4e-2120-4dbf-b81e-a37d7a559be8","system_id":"levelo_inurba_marseille","lat":43.301939,"lon":5.366286,"is_reserved":false,"is_disabled":false,"rental_uris":{"android":"levelo://app?vid=e5166a4e-2120-4dbf-b81e-a37d7a559be8","ios":"levelo://app?vid=e5166a4e-2120-4dbf-b81e-a37d7a559be8"},"vehicle_type_id":"4","last_reported":1714846119,"current_range_meters":0,"station_id":"ce4bgrh2rcd13ifvqc8g","pricing_plan_id":"cebpf4jnsgd1na2vs0mg"},{"bike_id":"4ed7d093-ba29-42bf-9c91-2fcd39ddd58f","system_id":"levelo_inurba_marseille","lat":43.308012,"lon":5.381511,"is_reserved":false,"is_disabled":false,"rental_uris":{"android":"levelo://app?vid=4ed7d093-ba29-42bf-9c91-2fcd39ddd58f","ios":"levelo://app?vid=4ed7d093-ba29-42bf-9c91-2fcd39ddd58f"},"vehicle_type_id":"4","last_reported":1714846119,"current_range_meters":0,"station_id":"ce4bgt12rcd13ifvqce0","pricing_plan_id":"cebpf4jnsgd1na2vs0mg"},{"bike_id":"6e670ecb-2be1-4263-812b-185241c362f8","system_id":"levelo_inurba_marseille","lat":43.308012,"lon":5.381511,"is_reserved":false,"is_disabled":false,"rental_uris":{"android":"levelo://app?vid=6e670ecb-2be1-4263-812b-185241c362f8","ios":"levelo://app?vid=6e670ecb-2be1-4263-812b-185241c362f8"},"vehicle_type_id":"4","last_reported":1714846119,"current_range_meters":11600,"station_id":"ce4bgt12rcd13ifvqce0","pricing_plan_id":"cebpf4jnsgd1na2vs0mg"},{"bike_id":"9010bb3f-05ee-43ca-bcce-75da2b286970","system_id":"levelo_inurba_marseille","lat":43.30481,"lon":5.37891,"is_reserved":false,"is_disabled":false,"rental_uris":{"android":"levelo://app?vid=9010bb3f-05ee-43ca-bcce-75da2b286970","ios":"levelo://app?vid=9010bb3f-05ee-43ca-bcce-75da2b286970"},"vehicle_type_id":"4","last_reported":1714846119,"current_range_meters":0,"station_id":"ce4bgup2rcd13ifvqcn0","pricing_plan_id":"cebpf4jnsgd1na2vs0mg"},{"bike_id":"101066ae-4c11-4c7a-810f-e3b784dbaab2","system_id":"levelo_inurba_marseille","lat":43.32485,"lon":5.36563,"is_reserved":false,"is_disabled":false,"rental_uris":{"android":"levelo://app?vid=101066ae-4c11-4c7a-810f-e3b784dbaab2","ios":"levelo://app?vid=101066ae-4c11-4c7a-810f-e3b784dbaab2"},"vehicle_type_id":"4","last_reported":1714846119,"current_range_meters":14400,"station_id":"ce4bhs12rcd13ifvqhvg","pricing_plan_id":"cebpf4jnsgd1na2vs0mg"},{"bike_id":"efd3aca9-d980-4163-b30b-7a8c21162ec7","system_id":"levelo_inurba_marseille","lat":43.310804,"lon":5.38359,"is_reserved":false,"is_disabled":false,"rental_uris":{"android":"levelo://app?vid=efd3aca9-d980-4163-b30b-7a8c21162ec7","ios":"levelo://app?vid=efd3aca9-d980-4163-b30b-7a8c21162ec7"},"vehicle_type_id":"4","last_reported":1714846119,"current_range_meters":0,"station_id":"ce4bgv92rcd13ifvqcr0","pricing_plan_id":"cebpf4jnsgd1na2vs0mg"},{"bike_id":"4cc07240-6674-4a19-aa44-b364fcd6c48f","system_id":"levelo_inurba_marseille","lat":43.31071,"lon":5.38353,"is_reserved":false,"is_disabled":false,"rental_uris":{"android":"levelo://app?vid=4cc07240-6674-4a19-aa44-b364fcd6c48f","ios":"levelo://app?vid=4cc07240-6674-4a19-aa44-b364fcd6c48f"},"vehicle_type_id":"4","last_reported":1714846119,"current_range_meters":0,"station_id":"ce4bgv92rcd13ifvqcr0","pricing_plan_id":"cebpf4jnsgd1na2vs0mg"},{"bike_id":"16b26724-c679-400f-8b30-66d5fac16066","system_id":"levelo_inurba_marseille","lat":43.310804,"lon":5.38359,"is_reserved":false,"is_disabled":false,"rental_uris":{"android":"levelo://app?vid=16b26724-c679-400f-8b30-66d5fac16066","ios":"levelo://app?vid=16b26724-c679-400f-8b30-66d5fac16066"},"vehicle_type_id":"4","last_reported":1714846119,"current_range_meters":10000,"station_id":"ce4bgv92rcd13ifvqcr0","pricing_plan_id":"cebpf4jnsgd1na2vs0mg"},{"bike_id":"91979ece-a813-414f-b9d8-c028a877bae1","system_id":"levelo_inurba_marseille","lat":43.302784,"lon":5.377158,"is_reserved":false,"is_disabled":false,"rental_uris":{"android":"levelo://app?vid=91979ece-a813-414f-b9d8-c028a877bae1","ios":"levelo://app?vid=91979ece-a813-414f-b9d8-c028a877bae1"},"vehicle_type_id":"4","last_reported":1714846119,"current_range_meters":0,"station_id":"ce4bguh2rcd13ifvqcj0","pricing_plan_id":"cebpf4jnsgd1na2vs0mg"},{"bike_id":"9dd353bb-3d14-47be-9c02-3fc76c8fccab","system_id":"levelo_inurba_marseille","lat":43.301429,"lon":5.37413,"is_reserved":false,"is_disabled":false,"rental_uris":{"android":"levelo://app?vid=9dd353bb-3d14-47be-9c02-3fc76c8fccab","ios":"levelo://app?vid=9dd353bb-3d14-47be-9c02-3fc76c8fccab"},"vehicle_type_id":"4","last_reported":1714846119,"current_range_meters":10000,"station_id":"ce4bgs92rcd13ifvqcc0","pricing_plan_id":"cebpf4jnsgd1na2vs0mg"},{"bike_id":"e0f61700-862c-48da-8b86-035631a7d3df","system_id":"levelo_inurba_marseille","lat":43.301429,"lon":5.37413,"is_reserved":false,"is_disabled":false,"rental_uris":{"android":"levelo://app?vid=e0f61700-862c-48da-8b86-035631a7d3df","ios":"levelo://app?vid=e0f61700-862c-48da-8b86-035631a7d3df"},"vehicle_type_id":"4","last_reported":1714846119,"current_range_meters":4800,"station_id":"ce4bgs92rcd13ifvqcc0","pricing_plan_id":"cebpf4jnsgd1na2vs0mg"},{"bike_id":"511dc980-1b28-4790-bbba-39f407ed8741","system_id":"levelo_inurba_marseille","lat":43.302784,"lon":5.377158,"is_reserved":false,"is_disabled":false,"rental_uris":{"android":"levelo://app?vid=511dc980-1b28-4790-bbba-39f407ed8741","ios":"levelo://app?vid=511dc980-1b28-4790-bbba-39f407ed8741"},"vehicle_type_id":"4","last_reported":1714846119,"current_range_meters":0,"station_id":"ce4bguh2rcd13ifvqcj0","pricing_plan_id":"cebpf4jnsgd1na2vs0mg"},{"bike_id":"dd2d1459-a8d6-430b-9540-9825cdd1acc7","system_id":"levelo_inurba_marseille","lat":43.301429,"lon":5.37413,"is_reserved":false,"is_disabled":false,"rental_uris":{"android":"levelo://app?vid=dd2d1459-a8d6-430b-9540-9825cdd1acc7","ios":"levelo://app?vid=dd2d1459-a8d6-430b-9540-9825cdd1acc7"},"vehicle_type_id":"4","last_reported":1714846119,"current_range_meters":25200,"station_id":"ce4bgs92rcd13ifvqcc0","pricing_plan_id":"cebpf4jnsgd1na2vs0mg"},{"bike_id":"35bbad4d-8d62-4bd8-a00f-46d40f0e1298","system_id":"levelo_inurba_marseille","lat":43.301429,"lon":5.37413,"is_reserved":false,"is_disabled":false,"rental_uris":{"android":"levelo://app?vid=35bbad4d-8d62-4bd8-a00f-46d40f0e1298","ios":"levelo://app?vid=35bbad4d-8d62-4bd8-a00f-46d40f0e1298"},"vehicle_type_id":"4","last_reported":1714846119,"current_range_meters":0,"station_id":"ce4bgs92rcd13ifvqcc0","pricing_plan_id":"cebpf4jnsgd1na2vs0mg"},{"bike_id":"5e65810d-2570-4616-a371-322ebc46d54a","system_id":"levelo_inurba_marseille","lat":43.319935,"lon":5.381699,"is_reserved":false,"is_disabled":false,"rental_uris":{"android":"levelo://app?vid=5e65810d-2570-4616-a371-322ebc46d54a","ios":"levelo://app?vid=5e65810d-2570-4616-a371-322ebc46d54a"},"vehicle_type_id":"4","last_reported":1714846119,"current_range_meters":5600,"station_id":"ce4bhr12rcd13ifvqhpg","pricing_plan_id":"cebpf4jnsgd1na2vs0mg"},{"bike_id":"020005a5-982a-4dde-9e69-54296ffdcfdb","system_id":"levelo_inurba_marseille","lat":43.320022,"lon":5.381557,"is_reserved":false,"is_disabled":false,"rental_uris":{"android":"levelo://app?vid=020005a5-982a-4dde-9e69-54296ffdcfdb","ios":"levelo://app?vid=020005a5-982a-4dde-9e69-54296ffdcfdb"},"vehicle_type_id":"4","last_reported":1714846119,"current_range_meters":26800,"station_id":"","pricing_plan_id":"cebpf4jnsgd1na2vs0mg"},{"bike_id":"243e258c-8057-437f-ba0d-78ec9cebfc3d","system_id":"levelo_inurba_marseille","lat":43.32006,"lon":5.38161,"is_reserved":false,"is_disabled":false,"rental_uris":{"android":"levelo://app?vid=243e258c-8057-437f-ba0d-78ec9cebfc3d","ios":"levelo://app?vid=243e258c-8057-437f-ba0d-78ec9cebfc3d"},"vehicle_type_id":"4","last_reported":1714846119,"current_range_meters":4400,"station_id":"ce4bhr12rcd13ifvqhpg","pricing_plan_id":"cebpf4jnsgd1na2vs0mg"},{"bike_id":"771abfac-4ede-40b9-b478-52ebd38982b0","system_id":"levelo_inurba_marseille","lat":43.301156,"lon":5.375111,"is_reserved":false,"is_disabled":false,"rental_uris":{"android":"levelo://app?vid=771abfac-4ede-40b9-b478-52ebd38982b0","ios":"levelo://app?vid=771abfac-4ede-40b9-b478-52ebd38982b0"},"vehicle_type_id":"4","last_reported":1714846119,"current_range_meters":15200,"station_id":"","pricing_plan_id":"cebpf4jnsgd1na2vs0mg"},{"bike_id":"aca70e6c-2284-41d5-86f2-a006cddfc811","system_id":"levelo_inurba_marseille","lat":43.30534,"lon":5.38213,"is_reserved":false,"is_disabled":false,"rental_uris":{"android":"levelo://app?vid=aca70e6c-2284-41d5-86f2-a006cddfc811","ios":"levelo://app?vid=aca70e6c-2284-41d5-86f2-a006cddfc811"},"vehicle_type_id":"4","last_reported":1714846119,"current_range_meters":5600,"station_id":"","pricing_plan_id":"cebpf4jnsgd1na2vs0mg"},{"bike_id":"61a508aa-0292-48f1-b8aa-eb1757702e87","system_id":"levelo_inurba_marseille","lat":43.29944,"lon":5.36555,"is_reserved":false,"is_disabled":false,"rental_uris":{"android":"levelo://app?vid=61a508aa-0292-48f1-b8aa-eb1757702e87","ios":"levelo://app?vid=61a508aa-0292-48f1-b8aa-eb1757702e87"},"vehicle_type_id":"4","last_reported":1714846119,"current_range_meters":400,"station_id":"ce4bgm92rcd13ifvqbr0","pricing_plan_id":"cebpf4jnsgd1na2vs0mg"},{"bike_id":"f6d63a63-9565-4974-98a5-0916d35b3a56","system_id":"levelo_inurba_marseille","lat":43.299222,"lon":5.365554,"is_reserved":false,"is_disabled":false,"rental_uris":{"android":"levelo://app?vid=f6d63a63-9565-4974-98a5-0916d35b3a56","ios":"levelo://app?vid=f6d63a63-9565-4974-98a5-0916d35b3a56"},"vehicle_type_id":"4","last_reported":1714846119,"current_range_meters":0,"station_id":"ce4bgm92rcd13ifvqbr0","pricing_plan_id":"cebpf4jnsgd1na2vs0mg"},{"bike_id":"6c6d8b44-4f9c-4091-ae25-f47dc9c0db7c","system_id":"levelo_inurba_marseille","lat":43.29984,"lon":5.37183,"is_reserved":false,"is_disabled":false,"rental_uris":{"android":"levelo://app?vid=6c6d8b44-4f9c-4091-ae25-f47dc9c0db7c","ios":"levelo://app?vid=6c6d8b44-4f9c-4091-ae25-f47dc9c0db7c"},"vehicle_type_id":"4","last_reported":1714846119,"current_range_meters":12400,"station_id":"ce4bgr92rcd13ifvqc7g","pricing_plan_id":"cebpf4jnsgd1na2vs0mg"},{"bike_id":"16e1a2a3-cd28-4149-8d4d-560105cf1e55","system_id":"levelo_inurba_marseille","lat":43.299785,"lon":5.371818,"is_reserved":false,"is_disabled":false,"rental_uris":{"android":"levelo://app?vid=16e1a2a3-cd28-4149-8d4d-560105cf1e55","ios":"levelo://app?vid=16e1a2a3-cd28-4149-8d4d-560105cf1e55"},"vehicle_type_id":"4","last_reported":1714846119,"current_range_meters":5200,"station_id":"ce4bgr92rcd13ifvqc7g","pricing_plan_id":"cebpf4jnsgd1na2vs0mg"},{"bike_id":"3bc34530-b4be-48b6-9e82-ae7988e93b97","system_id":"levelo_inurba_marseille","lat":43.29851,"lon":5.36286,"is_reserved":false,"is_disabled":false,"rental_uris":{"android":"levelo://app?vid=3bc34530-b4be-48b6-9e82-ae7988e93b97","ios":"levelo://app?vid=3bc34530-b4be-48b6-9e82-ae7988e93b97"},"vehicle_type_id":"4","last_reported":1714846119,"current_range_meters":0,"station_id":"ce4bgpp2rcd13ifvqc3g","pricing_plan_id":"cebpf4jnsgd1na2vs0mg"},{"bike_id":"b5894ee4-f330-4a4d-b09f-48f8a19e7ac8","system_id":"levelo_inurba_marseille","lat":43.29852,"lon":5.36274,"is_reserved":false,"is_disabled":false,"rental_uris":{"android":"levelo://app?vid=b5894ee4-f330-4a4d-b09f-48f8a19e7ac8","ios":"levelo://app?vid=b5894ee4-f330-4a4d-b09f-48f8a19e7ac8"},"vehicle_type_id":"4","last_reported":1714846119,"current_range_meters":0,"station_id":"ce4bgpp2rcd13ifvqc3g","pricing_plan_id":"cebpf4jnsgd1na2vs0mg"},{"bike_id":"87503393-8254-4bba-878d-e1e3d9998523","system_id":"levelo_inurba_marseille","lat":43.305361,"lon":5.384269,"is_reserved":false,"is_disabled":false,"rental_uris":{"android":"levelo://app?vid=87503393-8254-4bba-878d-e1e3d9998523","ios":"levelo://app?vid=87503393-8254-4bba-878d-e1e3d9998523"},"vehicle_type_id":"4","last_reported":1714846119,"current_range_meters":0,"station_id":"ce4bgg92rcd13ifvqb30","pricing_plan_id":"cebpf4jnsgd1na2vs0mg"},{"bike_id":"2f2fdfb5-d0d7-442e-a2fe-4ae1913e2e6c","system_id":"levelo_inurba_marseille","lat":43.299243,"lon":5.37481,"is_reserved":false,"is_disabled":false,"rental_uris":{"android":"levelo://app?vid=2f2fdfb5-d0d7-442e-a2fe-4ae1913e2e6c","ios":"levelo://app?vid=2f2fdfb5-d0d7-442e-a2fe-4ae1913e2e6c"},"vehicle_type_id":"4","last_reported":1714846119,"current_range_meters":0,"station_id":"ce4bgjh2rcd13ifvqbg0","pricing_plan_id":"cebpf4jnsgd1na2vs0mg"},{"bike_id":"ccaefbe1-bc37-4996-929a-f48f52cf7e14","system_id":"levelo_inurba_marseille","lat":43.305383,"lon":5.384337,"is_reserved":false,"is_disabled":false,"rental_uris":{"android":"levelo://app?vid=ccaefbe1-bc37-4996-929a-f48f52cf7e14","ios":"levelo://app?vid=ccaefbe1-bc37-4996-929a-f48f52cf7e14"},"vehicle_type_id":"4","last_reported":1714846119,"current_range_meters":0,"station_id":"ce4bgg92rcd13ifvqb30","pricing_plan_id":"cebpf4jnsgd1na2vs0mg"},{"bike_id":"9deab46f-1596-49d7-8bb9-ab3bbe323ecf","system_id":"levelo_inurba_marseille","lat":43.299243,"lon":5.37481,"is_reserved":false,"is_disabled":false,"rental_uris":{"android":"levelo://app?vid=9deab46f-1596-49d7-8bb9-ab3bbe323ecf","ios":"levelo://app?vid=9deab46f-1596-49d7-8bb9-ab3bbe323ecf"},"vehicle_type_id":"4","last_reported":1714846119,"current_range_meters":16800,"station_id":"ce4bgjh2rcd13ifvqbg0","pricing_plan_id":"cebpf4jnsgd1na2vs0mg"},{"bike_id":"ac683b61-75c9-4643-bd5e-8386aedff523","system_id":"levelo_inurba_marseille","lat":43.305364,"lon":5.384119,"is_reserved":false,"is_disabled":false,"rental_uris":{"android":"levelo://app?vid=ac683b61-75c9-4643-bd5e-8386aedff523","ios":"levelo://app?vid=ac683b61-75c9-4643-bd5e-8386aedff523"},"vehicle_type_id":"4","last_reported":1714846119,"current_range_meters":400,"station_id":"ce4bgg92rcd13ifvqb30","pricing_plan_id":"cebpf4jnsgd1na2vs0mg"},{"bike_id":"da09df56-792a-40bb-a4c4-3caff087b773","system_id":"levelo_inurba_marseille","lat":43.299243,"lon":5.37481,"is_reserved":false,"is_disabled":false,"rental_uris":{"android":"levelo://app?vid=da09df56-792a-40bb-a4c4-3caff087b773","ios":"levelo://app?vid=da09df56-792a-40bb-a4c4-3caff087b773"},"vehicle_type_id":"4","last_reported":1714846119,"current_range_meters":16000,"station_id":"ce4bgjh2rcd13ifvqbg0","pricing_plan_id":"cebpf4jnsgd1na2vs0mg"},{"bike_id":"5246f83e-f664-4a6e-b72a-39621303d1fd","system_id":"levelo_inurba_marseille","lat":43.299243,"lon":5.37481,"is_reserved":false,"is_disabled":false,"rental_uris":{"android":"levelo://app?vid=5246f83e-f664-4a6e-b72a-39621303d1fd","ios":"levelo://app?vid=5246f83e-f664-4a6e-b72a-39621303d1fd"},"vehicle_type_id":"4","last_reported":1714846119,"current_range_meters":8000,"station_id":"ce4bgjh2rcd13ifvqbg0","pricing_plan_id":"cebpf4jnsgd1na2vs0mg"},{"bike_id":"42d411fa-e0bc-4c1c-8807-d0f4ff186cb8","system_id":"levelo_inurba_marseille","lat":43.299243,"lon":5.37481,"is_reserved":false,"is_disabled":false,"rental_uris":{"android":"levelo://app?vid=42d411fa-e0bc-4c1c-8807-d0f4ff186cb8","ios":"levelo://app?vid=42d411fa-e0bc-4c1c-8807-d0f4ff186cb8"},"vehicle_type_id":"4","last_reported":1714846119,"current_range_meters":30800,"station_id":"ce4bgjh2rcd13ifvqbg0","pricing_plan_id":"cebpf4jnsgd1na2vs0mg"},{"bike_id":"2d18849e-032d-4d81-b5a4-9ad147339139","system_id":"levelo_inurba_marseille","lat":43.29831,"lon":5.36249,"is_reserved":false,"is_disabled":false,"rental_uris":{"android":"levelo://app?vid=2d18849e-032d-4d81-b5a4-9ad147339139","ios":"levelo://app?vid=2d18849e-032d-4d81-b5a4-9ad147339139"},"vehicle_type_id":"4","last_reported":1714846119,"current_range_meters":16800,"station_id":"ce4bgpp2rcd13ifvqc3g","pricing_plan_id":"cebpf4jnsgd1na2vs0mg"},{"bike_id":"ebbf5d30-1e6c-466c-841d-43195c7bfad6","system_id":"levelo_inurba_marseille","lat":43.299243,"lon":5.37481,"is_reserved":false,"is_disabled":false,"rental_uris":{"android":"levelo://app?vid=ebbf5d30-1e6c-466c-841d-43195c7bfad6","ios":"levelo://app?vid=ebbf5d30-1e6c-466c-841d-43195c7bfad6"},"vehicle_type_id":"4","last_reported":1714846119,"current_range_meters":16400,"station_id":"ce4bgjh2rcd13ifvqbg0","pricing_plan_id":"cebpf4jnsgd1na2vs0mg"},{"bike_id":"d6fce4c1-517f-4771-97e9-eb8f729dc554","system_id":"levelo_inurba_marseille","lat":43.29795,"lon":5.37108,"is_reserved":false,"is_disabled":false,"rental_uris":{"android":"levelo://app?vid=d6fce4c1-517f-4771-97e9-eb8f729dc554","ios":"levelo://app?vid=d6fce4c1-517f-4771-97e9-eb8f729dc554"},"vehicle_type_id":"4","last_reported":1714846119,"current_range_meters":0,"station_id":"ce4bgop2rcd13ifvqc1g","pricing_plan_id":"cebpf4jnsgd1na2vs0mg"},{"bike_id":"4d30e1e8-1552-421f-a33e-1c86a2b8ccdf","system_id":"levelo_inurba_marseille","lat":43.297794,"lon":5.370888,"is_reserved":false,"is_disabled":false,"rental_uris":{"android":"levelo://app?vid=4d30e1e8-1552-421f-a33e-1c86a2b8ccdf","ios":"levelo://app?vid=4d30e1e8-1552-421f-a33e-1c86a2b8ccdf"},"vehicle_type_id":"4","last_reported":1714846119,"current_range_meters":3200,"station_id":"ce4bgop2rcd13ifvqc1g","pricing_plan_id":"cebpf4jnsgd1na2vs0mg"},{"bike_id":"46448b54-24e3-49a2-8650-d97995cb6344","system_id":"levelo_inurba_marseille","lat":43.297774,"lon":5.370875,"is_reserved":false,"is_disabled":false,"rental_uris":{"android":"levelo://app?vid=46448b54-24e3-49a2-8650-d97995cb6344","ios":"levelo://app?vid=46448b54-24e3-49a2-8650-d97995cb6344"},"vehicle_type_id":"4","last_reported":1714846119,"current_range_meters":22400,"station_id":"ce4bgop2rcd13ifvqc1g","pricing_plan_id":"cebpf4jnsgd1na2vs0mg"},{"bike_id":"ca855718-50a3-4c14-9a58-ac90d511459c","system_id":"levelo_inurba_marseille","lat":43.297774,"lon":5.370875,"is_reserved":false,"is_disabled":false,"rental_uris":{"android":"levelo://app?vid=ca855718-50a3-4c14-9a58-ac90d511459c","ios":"levelo://app?vid=ca855718-50a3-4c14-9a58-ac90d511459c"},"vehicle_type_id":"4","last_reported":1714846119,"current_range_meters":800,"station_id":"ce4bgop2rcd13ifvqc1g","pricing_plan_id":"cebpf4jnsgd1na2vs0mg"},{"bike_id":"7f71f127-5bb1-40b9-9a16-39ca6b15f4e6","system_id":"levelo_inurba_marseille","lat":43.322872,"lon":5.382756,"is_reserved":false,"is_disabled":false,"rental_uris":{"android":"levelo://app?vid=7f71f127-5bb1-40b9-9a16-39ca6b15f4e6","ios":"levelo://app?vid=7f71f127-5bb1-40b9-9a16-39ca6b15f4e6"},"vehicle_type_id":"4","last_reported":1714846119,"current_range_meters":1200,"station_id":"ce4bhr12rcd13ifvqhqg","pricing_plan_id":"cebpf4jnsgd1na2vs0mg"},{"bike_id":"0c91a896-5be5-4608-9727-196385e2f4da","system_id":"levelo_inurba_marseille","lat":43.322872,"lon":5.382756,"is_reserved":false,"is_disabled":false,"rental_uris":{"android":"levelo://app?vid=0c91a896-5be5-4608-9727-196385e2f4da","ios":"levelo://app?vid=0c91a896-5be5-4608-9727-196385e2f4da"},"vehicle_type_id":"4","last_reported":1714846119,"current_range_meters":2400,"station_id":"ce4bhr12rcd13ifvqhqg","pricing_plan_id":"cebpf4jnsgd1na2vs0mg"},{"bike_id":"79366eb4-9e97-4c92-8faa-2216973cf444","system_id":"levelo_inurba_marseille","lat":43.322872,"lon":5.382756,"is_reserved":false,"is_disabled":false,"rental_uris":{"android":"levelo://app?vid=79366eb4-9e97-4c92-8faa-2216973cf444","ios":"levelo://app?vid=79366eb4-9e97-4c92-8faa-2216973cf444"},"vehicle_type_id":"4","last_reported":1714846119,"current_range_meters":0,"station_id":"ce4bhr12rcd13ifvqhqg","pricing_plan_id":"cebpf4jnsgd1na2vs0mg"},{"bike_id":"8439f7de-38b8-414a-a9fb-781b5dcdf3a9","system_id":"levelo_inurba_marseille","lat":43.297163,"lon":5.365866,"is_reserved":false,"is_disabled":false,"rental_uris":{"android":"levelo://app?vid=8439f7de-38b8-414a-a9fb-781b5dcdf3a9","ios":"levelo://app?vid=8439f7de-38b8-414a-a9fb-781b5dcdf3a9"},"vehicle_type_id":"4","last_reported":1714846119,"current_range_meters":4000,"station_id":"ce4bgn12rcd13ifvqbt0","pricing_plan_id":"cebpf4jnsgd1na2vs0mg"},{"bike_id":"636e12ff-a966-4f8d-be43-52c5f430a7b6","system_id":"levelo_inurba_marseille","lat":43.29711,"lon":5.36612,"is_reserved":false,"is_disabled":false,"rental_uris":{"android":"levelo://app?vid=636e12ff-a966-4f8d-be43-52c5f430a7b6","ios":"levelo://app?vid=636e12ff-a966-4f8d-be43-52c5f430a7b6"},"vehicle_type_id":"4","last_reported":1714846119,"current_range_meters":400,"station_id":"ce4bgn12rcd13ifvqbt0","pricing_plan_id":"cebpf4jnsgd1na2vs0mg"},{"bike_id":"a4258fb0-f50b-42f5-9fbc-6f972f1d2c97","system_id":"levelo_inurba_marseille","lat":43.2971,"lon":5.36622,"is_reserved":false,"is_disabled":false,"rental_uris":{"android":"levelo://app?vid=a4258fb0-f50b-42f5-9fbc-6f972f1d2c97","ios":"levelo://app?vid=a4258fb0-f50b-42f5-9fbc-6f972f1d2c97"},"vehicle_type_id":"4","last_reported":1714846119,"current_range_meters":0,"station_id":"ce4bgn12rcd13ifvqbt0","pricing_plan_id":"cebpf4jnsgd1na2vs0mg"},{"bike_id":"54313295-5eb2-4eb9-a73b-7bb1e4eac381","system_id":"levelo_inurba_marseille","lat":43.300267,"lon":5.380023,"is_reserved":false,"is_disabled":false,"rental_uris":{"android":"levelo://app?vid=54313295-5eb2-4eb9-a73b-7bb1e4eac381","ios":"levelo://app?vid=54313295-5eb2-4eb9-a73b-7bb1e4eac381"},"vehicle_type_id":"4","last_reported":1714846119,"current_range_meters":0,"station_id":"","pricing_plan_id":"cebpf4jnsgd1na2vs0mg"},{"bike_id":"a13bd52b-0535-462a-805c-d17c9682c6c2","system_id":"levelo_inurba_marseille","lat":43.2968,"lon":5.37291,"is_reserved":false,"is_disabled":false,"rental_uris":{"android":"levelo://app?vid=a13bd52b-0535-462a-805c-d17c9682c6c2","ios":"levelo://app?vid=a13bd52b-0535-462a-805c-d17c9682c6c2"},"vehicle_type_id":"4","last_reported":1714846119,"current_range_meters":31200,"station_id":"ce4bgk12rcd13ifvqbj0","pricing_plan_id":"cebpf4jnsgd1na2vs0mg"},{"bike_id":"cd517462-8491-45d6-a35e-ec83beb913b4","system_id":"levelo_inurba_marseille","lat":43.29625,"lon":5.37152,"is_reserved":false,"is_disabled":false,"rental_uris":{"android":"levelo://app?vid=cd517462-8491-45d6-a35e-ec83beb913b4","ios":"levelo://app?vid=cd517462-8491-45d6-a35e-ec83beb913b4"},"vehicle_type_id":"4","last_reported":1714846119,"current_range_meters":24400,"station_id":"ce4bgnh2rcd13ifvqc0g","pricing_plan_id":"cebpf4jnsgd1na2vs0mg"},{"bike_id":"fe3f5172-c115-46c2-ab8c-a06f1ea05b4c","system_id":"levelo_inurba_marseille","lat":43.296131,"lon":5.370791,"is_reserved":false,"is_disabled":false,"rental_uris":{"android":"levelo://app?vid=fe3f5172-c115-46c2-ab8c-a06f1ea05b4c","ios":"levelo://app?vid=fe3f5172-c115-46c2-ab8c-a06f1ea05b4c"},"vehicle_type_id":"4","last_reported":1714846119,"current_range_meters":8800,"station_id":"ce4bgnh2rcd13ifvqc0g","pricing_plan_id":"cebpf4jnsgd1na2vs0mg"},{"bike_id":"886c72d0-02a4-45b9-95c5-fe7c921b6b82","system_id":"levelo_inurba_marseille","lat":43.29573,"lon":5.367355,"is_reserved":false,"is_disabled":false,"rental_uris":{"android":"levelo://app?vid=886c72d0-02a4-45b9-95c5-fe7c921b6b82","ios":"levelo://app?vid=886c72d0-02a4-45b9-95c5-fe7c921b6b82"},"vehicle_type_id":"4","last_reported":1714846119,"current_range_meters":14800,"station_id":"ce4bgph2rcd13ifvqc2g","pricing_plan_id":"cebpf4jnsgd1na2vs0mg"},{"bike_id":"c90fd867-cea0-45cd-9051-942a0bda66eb","system_id":"levelo_inurba_marseille","lat":43.296131,"lon":5.370791,"is_reserved":false,"is_disabled":false,"rental_uris":{"android":"levelo://app?vid=c90fd867-cea0-45cd-9051-942a0bda66eb","ios":"levelo://app?vid=c90fd867-cea0-45cd-9051-942a0bda66eb"},"vehicle_type_id":"4","last_reported":1714846119,"current_range_meters":8000,"station_id":"ce4bgnh2rcd13ifvqc0g","pricing_plan_id":"cebpf4jnsgd1na2vs0mg"},{"bike_id":"7b60db35-34fd-4a7d-8384-65580bf05024","system_id":"levelo_inurba_marseille","lat":43.296131,"lon":5.370791,"is_reserved":false,"is_disabled":false,"rental_uris":{"android":"levelo://app?vid=7b60db35-34fd-4a7d-8384-65580bf05024","ios":"levelo://app?vid=7b60db35-34fd-4a7d-8384-65580bf05024"},"vehicle_type_id":"4","last_reported":1714846119,"current_range_meters":3600,"station_id":"ce4bgnh2rcd13ifvqc0g","pricing_plan_id":"cebpf4jnsgd1na2vs0mg"},{"bike_id":"0e225068-9078-4552-b5ca-700337df0c1b","system_id":"levelo_inurba_marseille","lat":43.296129,"lon":5.370777,"is_reserved":false,"is_disabled":false,"rental_uris":{"android":"levelo://app?vid=0e225068-9078-4552-b5ca-700337df0c1b","ios":"levelo://app?vid=0e225068-9078-4552-b5ca-700337df0c1b"},"vehicle_type_id":"4","last_reported":1714846119,"current_range_meters":8400,"station_id":"ce4bgnh2rcd13ifvqc0g","pricing_plan_id":"cebpf4jnsgd1na2vs0mg"},{"bike_id":"41c67192-cde6-45fd-93b4-c8ec45a0af55","system_id":"levelo_inurba_marseille","lat":43.29573,"lon":5.367355,"is_reserved":false,"is_disabled":false,"rental_uris":{"android":"levelo://app?vid=41c67192-cde6-45fd-93b4-c8ec45a0af55","ios":"levelo://app?vid=41c67192-cde6-45fd-93b4-c8ec45a0af55"},"vehicle_type_id":"4","last_reported":1714846119,"current_range_meters":18800,"station_id":"ce4bgph2rcd13ifvqc2g","pricing_plan_id":"cebpf4jnsgd1na2vs0mg"},{"bike_id":"fb103991-b8c3-4f1f-baf2-7a5c3a5e75fa","system_id":"levelo_inurba_marseille","lat":43.29573,"lon":5.367355,"is_reserved":false,"is_disabled":false,"rental_uris":{"android":"levelo://app?vid=fb103991-b8c3-4f1f-baf2-7a5c3a5e75fa","ios":"levelo://app?vid=fb103991-b8c3-4f1f-baf2-7a5c3a5e75fa"},"vehicle_type_id":"4","last_reported":1714846119,"current_range_meters":9600,"station_id":"ce4bgph2rcd13ifvqc2g","pricing_plan_id":"cebpf4jnsgd1na2vs0mg"},{"bike_id":"cb26d1c5-fe66-418a-be86-b625b2063240","system_id":"levelo_inurba_marseille","lat":43.29573,"lon":5.367355,"is_reserved":false,"is_disabled":false,"rental_uris":{"android":"levelo://app?vid=cb26d1c5-fe66-418a-be86-b625b2063240","ios":"levelo://app?vid=cb26d1c5-fe66-418a-be86-b625b2063240"},"vehicle_type_id":"4","last_reported":1714846119,"current_range_meters":4400,"station_id":"ce4bgph2rcd13ifvqc2g","pricing_plan_id":"cebpf4jnsgd1na2vs0mg"},{"bike_id":"f0387026-4f5d-4966-b429-4a12378e9f9d","system_id":"levelo_inurba_marseille","lat":43.29576,"lon":5.36738,"is_reserved":false,"is_disabled":false,"rental_uris":{"android":"levelo://app?vid=f0387026-4f5d-4966-b429-4a12378e9f9d","ios":"levelo://app?vid=f0387026-4f5d-4966-b429-4a12378e9f9d"},"vehicle_type_id":"4","last_reported":1714846119,"current_range_meters":0,"station_id":"ce4bgph2rcd13ifvqc2g","pricing_plan_id":"cebpf4jnsgd1na2vs0mg"},{"bike_id":"f24d6b55-e7c9-4e1e-8e43-1f2e85c4fd44","system_id":"levelo_inurba_marseille","lat":43.2991,"lon":5.38129,"is_reserved":false,"is_disabled":false,"rental_uris":{"android":"levelo://app?vid=f24d6b55-e7c9-4e1e-8e43-1f2e85c4fd44","ios":"levelo://app?vid=f24d6b55-e7c9-4e1e-8e43-1f2e85c4fd44"},"vehicle_type_id":"4","last_reported":1714846119,"current_range_meters":18000,"station_id":"ce4bgj12rcd13ifvqbc0","pricing_plan_id":"cebpf4jnsgd1na2vs0mg"},{"bike_id":"22af2838-d478-482a-8b22-0091490a6e2c","system_id":"levelo_inurba_marseille","lat":43.296935,"lon":5.376544,"is_reserved":false,"is_disabled":false,"rental_uris":{"android":"levelo://app?vid=22af2838-d478-482a-8b22-0091490a6e2c","ios":"levelo://app?vid=22af2838-d478-482a-8b22-0091490a6e2c"},"vehicle_type_id":"4","last_reported":1714846119,"current_range_meters":1200,"station_id":"ce4bgkh2rcd13ifvqbl0","pricing_plan_id":"cebpf4jnsgd1na2vs0mg"},{"bike_id":"c03e9ad1-3a77-4800-bae5-08d7d97f65ab","system_id":"levelo_inurba_marseille","lat":43.296921,"lon":5.376579,"is_reserved":false,"is_disabled":false,"rental_uris":{"android":"levelo://app?vid=c03e9ad1-3a77-4800-bae5-08d7d97f65ab","ios":"levelo://app?vid=c03e9ad1-3a77-4800-bae5-08d7d97f65ab"},"vehicle_type_id":"4","last_reported":1714846119,"current_range_meters":12000,"station_id":"ce4bgkh2rcd13ifvqbl0","pricing_plan_id":"cebpf4jnsgd1na2vs0mg"},{"bike_id":"87af53f6-9d05-42b3-9530-657c0bce6992","system_id":"levelo_inurba_marseille","lat":43.29708,"lon":5.37694,"is_reserved":false,"is_disabled":false,"rental_uris":{"android":"levelo://app?vid=87af53f6-9d05-42b3-9530-657c0bce6992","ios":"levelo://app?vid=87af53f6-9d05-42b3-9530-657c0bce6992"},"vehicle_type_id":"4","last_reported":1714846119,"current_range_meters":5600,"station_id":"ce4bgkh2rcd13ifvqbl0","pricing_plan_id":"cebpf4jnsgd1na2vs0mg"},{"bike_id":"c86bf7d6-7ccf-454f-ba7f-aad61724ea6c","system_id":"levelo_inurba_marseille","lat":43.30956,"lon":5.3903,"is_reserved":false,"is_disabled":false,"rental_uris":{"android":"levelo://app?vid=c86bf7d6-7ccf-454f-ba7f-aad61724ea6c","ios":"levelo://app?vid=c86bf7d6-7ccf-454f-ba7f-aad61724ea6c"},"vehicle_type_id":"4","last_reported":1714846119,"current_range_meters":0,"station_id":"ce4bgup2rcd13ifvqco0","pricing_plan_id":"cebpf4jnsgd1na2vs0mg"},{"bike_id":"74fce3c6-3d1f-4fed-8348-2e21105b5cbe","system_id":"levelo_inurba_marseille","lat":43.309589,"lon":5.390258,"is_reserved":false,"is_disabled":false,"rental_uris":{"android":"levelo://app?vid=74fce3c6-3d1f-4fed-8348-2e21105b5cbe","ios":"levelo://app?vid=74fce3c6-3d1f-4fed-8348-2e21105b5cbe"},"vehicle_type_id":"4","last_reported":1714846119,"current_range_meters":800,"station_id":"ce4bgup2rcd13ifvqco0","pricing_plan_id":"cebpf4jnsgd1na2vs0mg"},{"bike_id":"662ac46e-d69a-410a-a1b5-084d3f6b9fd1","system_id":"levelo_inurba_marseille","lat":43.309589,"lon":5.390258,"is_reserved":false,"is_disabled":false,"rental_uris":{"android":"levelo://app?vid=662ac46e-d69a-410a-a1b5-084d3f6b9fd1","ios":"levelo://app?vid=662ac46e-d69a-410a-a1b5-084d3f6b9fd1"},"vehicle_type_id":"4","last_reported":1714846119,"current_range_meters":11200,"station_id":"ce4bgup2rcd13ifvqco0","pricing_plan_id":"cebpf4jnsgd1na2vs0mg"},{"bike_id":"f34dd900-9603-4a05-aa9e-f463f60e6098","system_id":"levelo_inurba_marseille","lat":43.309589,"lon":5.390258,"is_reserved":false,"is_disabled":false,"rental_uris":{"android":"levelo://app?vid=f34dd900-9603-4a05-aa9e-f463f60e6098","ios":"levelo://app?vid=f34dd900-9603-4a05-aa9e-f463f60e6098"},"vehicle_type_id":"4","last_reported":1714846119,"current_range_meters":20800,"station_id":"ce4bgup2rcd13ifvqco0","pricing_plan_id":"cebpf4jnsgd1na2vs0mg"},{"bike_id":"b15b1448-5f2b-4d9e-81f0-b6f0d0890980","system_id":"levelo_inurba_marseille","lat":43.309589,"lon":5.390258,"is_reserved":false,"is_disabled":false,"rental_uris":{"android":"levelo://app?vid=b15b1448-5f2b-4d9e-81f0-b6f0d0890980","ios":"levelo://app?vid=b15b1448-5f2b-4d9e-81f0-b6f0d0890980"},"vehicle_type_id":"4","last_reported":1714846119,"current_range_meters":18000,"station_id":"ce4bgup2rcd13ifvqco0","pricing_plan_id":"cebpf4jnsgd1na2vs0mg"},{"bike_id":"328c3314-86d4-4e13-ba61-ec946be5e6e4","system_id":"levelo_inurba_marseille","lat":43.309589,"lon":5.390258,"is_reserved":false,"is_disabled":false,"rental_uris":{"android":"levelo://app?vid=328c3314-86d4-4e13-ba61-ec946be5e6e4","ios":"levelo://app?vid=328c3314-86d4-4e13-ba61-ec946be5e6e4"},"vehicle_type_id":"4","last_reported":1714846119,"current_range_meters":7600,"station_id":"ce4bgup2rcd13ifvqco0","pricing_plan_id":"cebpf4jnsgd1na2vs0mg"},{"bike_id":"022293b7-7b1e-46c7-8bb0-d90f27c61c2e","system_id":"levelo_inurba_marseille","lat":43.309589,"lon":5.390258,"is_reserved":false,"is_disabled":false,"rental_uris":{"android":"levelo://app?vid=022293b7-7b1e-46c7-8bb0-d90f27c61c2e","ios":"levelo://app?vid=022293b7-7b1e-46c7-8bb0-d90f27c61c2e"},"vehicle_type_id":"4","last_reported":1714846119,"current_range_meters":19200,"station_id":"ce4bgup2rcd13ifvqco0","pricing_plan_id":"cebpf4jnsgd1na2vs0mg"},{"bike_id":"d2b16b60-cd0c-49c5-9dfc-cbe7a85d150e","system_id":"levelo_inurba_marseille","lat":43.30951,"lon":5.39044,"is_reserved":false,"is_disabled":false,"rental_uris":{"android":"levelo://app?vid=d2b16b60-cd0c-49c5-9dfc-cbe7a85d150e","ios":"levelo://app?vid=d2b16b60-cd0c-49c5-9dfc-cbe7a85d150e"},"vehicle_type_id":"4","last_reported":1714846119,"current_range_meters":0,"station_id":"ce4bgup2rcd13ifvqco0","pricing_plan_id":"cebpf4jnsgd1na2vs0mg"},{"bike_id":"7a900649-6a39-4b13-9fd6-020caf63220c","system_id":"levelo_inurba_marseille","lat":43.309589,"lon":5.390258,"is_reserved":false,"is_disabled":false,"rental_uris":{"android":"levelo://app?vid=7a900649-6a39-4b13-9fd6-020caf63220c","ios":"levelo://app?vid=7a900649-6a39-4b13-9fd6-020caf63220c"},"vehicle_type_id":"4","last_reported":1714846119,"current_range_meters":22400,"station_id":"ce4bgup2rcd13ifvqco0","pricing_plan_id":"cebpf4jnsgd1na2vs0mg"},{"bike_id":"561da395-a05b-4466-ab5a-5fca3d332145","system_id":"levelo_inurba_marseille","lat":43.30953,"lon":5.39048,"is_reserved":false,"is_disabled":false,"rental_uris":{"android":"levelo://app?vid=561da395-a05b-4466-ab5a-5fca3d332145","ios":"levelo://app?vid=561da395-a05b-4466-ab5a-5fca3d332145"},"vehicle_type_id":"4","last_reported":1714846119,"current_range_meters":2400,"station_id":"ce4bgup2rcd13ifvqco0","pricing_plan_id":"cebpf4jnsgd1na2vs0mg"},{"bike_id":"f4f7eb9f-bca1-4073-a996-abded8f23886","system_id":"levelo_inurba_marseille","lat":43.31196,"lon":5.391021,"is_reserved":false,"is_disabled":false,"rental_uris":{"android":"levelo://app?vid=f4f7eb9f-bca1-4073-a996-abded8f23886","ios":"levelo://app?vid=f4f7eb9f-bca1-4073-a996-abded8f23886"},"vehicle_type_id":"4","last_reported":1714846119,"current_range_meters":23200,"station_id":"","pricing_plan_id":"cebpf4jnsgd1na2vs0mg"},{"bike_id":"8bb8ce2e-f3b3-4f77-936d-d811cff27317","system_id":"levelo_inurba_marseille","lat":43.29809,"lon":5.381,"is_reserved":false,"is_disabled":false,"rental_uris":{"android":"levelo://app?vid=8bb8ce2e-f3b3-4f77-936d-d811cff27317","ios":"levelo://app?vid=8bb8ce2e-f3b3-4f77-936d-d811cff27317"},"vehicle_type_id":"4","last_reported":1714846119,"current_range_meters":17200,"station_id":"ce4bgip2rcd13ifvqbb0","pricing_plan_id":"cebpf4jnsgd1na2vs0mg"},{"bike_id":"cda37443-d7b9-4802-95a6-e7a8a0d20c6d","system_id":"levelo_inurba_marseille","lat":43.304278,"lon":5.388868,"is_reserved":false,"is_disabled":false,"rental_uris":{"android":"levelo://app?vid=cda37443-d7b9-4802-95a6-e7a8a0d20c6d","ios":"levelo://app?vid=cda37443-d7b9-4802-95a6-e7a8a0d20c6d"},"vehicle_type_id":"4","last_reported":1714846119,"current_range_meters":3600,"station_id":"ce4bgk12rcd13ifvqbi0","pricing_plan_id":"cebpf4jnsgd1na2vs0mg"},{"bike_id":"cd81d82a-7ad9-495b-9156-c15bf5fe8ff5","system_id":"levelo_inurba_marseille","lat":43.295748,"lon":5.37522,"is_reserved":false,"is_disabled":false,"rental_uris":{"android":"levelo://app?vid=cd81d82a-7ad9-495b-9156-c15bf5fe8ff5","ios":"levelo://app?vid=cd81d82a-7ad9-495b-9156-c15bf5fe8ff5"},"vehicle_type_id":"4","last_reported":1714846119,"current_range_meters":23600,"station_id":"ce4bgh92rcd13ifvqb50","pricing_plan_id":"cebpf4jnsgd1na2vs0mg"},{"bike_id":"2d6e550d-9ff4-4b14-99ff-a3aa73ce15e4","system_id":"levelo_inurba_marseille","lat":43.30437,"lon":5.38889,"is_reserved":false,"is_disabled":false,"rental_uris":{"android":"levelo://app?vid=2d6e550d-9ff4-4b14-99ff-a3aa73ce15e4","ios":"levelo://app?vid=2d6e550d-9ff4-4b14-99ff-a3aa73ce15e4"},"vehicle_type_id":"4","last_reported":1714846119,"current_range_meters":0,"station_id":"ce4bgk12rcd13ifvqbi0","pricing_plan_id":"cebpf4jnsgd1na2vs0mg"},{"bike_id":"cb602646-8c3f-4d03-8a6a-3f7ce4530690","system_id":"levelo_inurba_marseille","lat":43.304278,"lon":5.388868,"is_reserved":false,"is_disabled":false,"rental_uris":{"android":"levelo://app?vid=cb602646-8c3f-4d03-8a6a-3f7ce4530690","ios":"levelo://app?vid=cb602646-8c3f-4d03-8a6a-3f7ce4530690"},"vehicle_type_id":"4","last_reported":1714846119,"current_range_meters":22000,"station_id":"ce4bgk12rcd13ifvqbi0","pricing_plan_id":"cebpf4jnsgd1na2vs0mg"},{"bike_id":"9e7a710c-687f-4a92-a0f6-caf2bd81ccb8","system_id":"levelo_inurba_marseille","lat":43.304274,"lon":5.388873,"is_reserved":false,"is_disabled":false,"rental_uris":{"android":"levelo://app?vid=9e7a710c-687f-4a92-a0f6-caf2bd81ccb8","ios":"levelo://app?vid=9e7a710c-687f-4a92-a0f6-caf2bd81ccb8"},"vehicle_type_id":"4","last_reported":1714846119,"current_range_meters":20400,"station_id":"ce4bgk12rcd13ifvqbi0","pricing_plan_id":"cebpf4jnsgd1na2vs0mg"},{"bike_id":"7c2581f5-f909-422c-b4d2-ae1ee1024842","system_id":"levelo_inurba_marseille","lat":43.296277,"lon":5.377108,"is_reserved":false,"is_disabled":false,"rental_uris":{"android":"levelo://app?vid=7c2581f5-f909-422c-b4d2-ae1ee1024842","ios":"levelo://app?vid=7c2581f5-f909-422c-b4d2-ae1ee1024842"},"vehicle_type_id":"4","last_reported":1714846119,"current_range_meters":0,"station_id":"ce4bgi92rcd13ifvqb90","pricing_plan_id":"cebpf4jnsgd1na2vs0mg"},{"bike_id":"b36477a2-706b-414d-b137-d4df0b7965a0","system_id":"levelo_inurba_marseille","lat":43.296277,"lon":5.377108,"is_reserved":false,"is_disabled":false,"rental_uris":{"android":"levelo://app?vid=b36477a2-706b-414d-b137-d4df0b7965a0","ios":"levelo://app?vid=b36477a2-706b-414d-b137-d4df0b7965a0"},"vehicle_type_id":"4","last_reported":1714846119,"current_range_meters":13200,"station_id":"ce4bgi92rcd13ifvqb90","pricing_plan_id":"cebpf4jnsgd1na2vs0mg"},{"bike_id":"50eaa7b7-853f-4c86-a6b6-801eabb12f09","system_id":"levelo_inurba_marseille","lat":43.304274,"lon":5.388873,"is_reserved":false,"is_disabled":false,"rental_uris":{"android":"levelo://app?vid=50eaa7b7-853f-4c86-a6b6-801eabb12f09","ios":"levelo://app?vid=50eaa7b7-853f-4c86-a6b6-801eabb12f09"},"vehicle_type_id":"4","last_reported":1714846119,"current_range_meters":18400,"station_id":"ce4bgk12rcd13ifvqbi0","pricing_plan_id":"cebpf4jnsgd1na2vs0mg"},{"bike_id":"0c7a83b0-212e-44fd-bd34-4774422813d1","system_id":"levelo_inurba_marseille","lat":43.29623,"lon":5.37706,"is_reserved":false,"is_disabled":false,"rental_uris":{"android":"levelo://app?vid=0c7a83b0-212e-44fd-bd34-4774422813d1","ios":"levelo://app?vid=0c7a83b0-212e-44fd-bd34-4774422813d1"},"vehicle_type_id":"4","last_reported":1714846119,"current_range_meters":24400,"station_id":"ce4bgi92rcd13ifvqb90","pricing_plan_id":"cebpf4jnsgd1na2vs0mg"},{"bike_id":"60e08b9c-aa4d-40d3-8126-ca07b557651f","system_id":"levelo_inurba_marseille","lat":43.304274,"lon":5.388873,"is_reserved":false,"is_disabled":false,"rental_uris":{"android":"levelo://app?vid=60e08b9c-aa4d-40d3-8126-ca07b557651f","ios":"levelo://app?vid=60e08b9c-aa4d-40d3-8126-ca07b557651f"},"vehicle_type_id":"4","last_reported":1714846119,"current_range_meters":0,"station_id":"ce4bgk12rcd13ifvqbi0","pricing_plan_id":"cebpf4jnsgd1na2vs0mg"},{"bike_id":"9845911a-4c1a-4c2f-b598-4e364cf8fff1","system_id":"levelo_inurba_marseille","lat":43.295748,"lon":5.37522,"is_reserved":false,"is_disabled":false,"rental_uris":{"android":"levelo://app?vid=9845911a-4c1a-4c2f-b598-4e364cf8fff1","ios":"levelo://app?vid=9845911a-4c1a-4c2f-b598-4e364cf8fff1"},"vehicle_type_id":"4","last_reported":1714846119,"current_range_meters":20000,"station_id":"ce4bgh92rcd13ifvqb50","pricing_plan_id":"cebpf4jnsgd1na2vs0mg"},{"bike_id":"ee832532-b138-4f18-9d9a-480383dd1977","system_id":"levelo_inurba_marseille","lat":43.295748,"lon":5.37522,"is_reserved":false,"is_disabled":false,"rental_uris":{"android":"levelo://app?vid=ee832532-b138-4f18-9d9a-480383dd1977","ios":"levelo://app?vid=ee832532-b138-4f18-9d9a-480383dd1977"},"vehicle_type_id":"4","last_reported":1714846119,"current_range_meters":0,"station_id":"ce4bgh92rcd13ifvqb50","pricing_plan_id":"cebpf4jnsgd1na2vs0mg"},{"bike_id":"4a2c49e0-a7ae-4fdd-8e8f-7b01c3e1d79f","system_id":"levelo_inurba_marseille","lat":43.29973,"lon":5.38483,"is_reserved":false,"is_disabled":false,"rental_uris":{"android":"levelo://app?vid=4a2c49e0-a7ae-4fdd-8e8f-7b01c3e1d79f","ios":"levelo://app?vid=4a2c49e0-a7ae-4fdd-8e8f-7b01c3e1d79f"},"vehicle_type_id":"4","last_reported":1714846119,"current_range_meters":0,"station_id":"ce4bgj92rcd13ifvqbd0","pricing_plan_id":"cebpf4jnsgd1na2vs0mg"},{"bike_id":"5a0bcf2a-3b90-441e-9ac0-f024319346cc","system_id":"levelo_inurba_marseille","lat":43.299707,"lon":5.384859,"is_reserved":false,"is_disabled":false,"rental_uris":{"android":"levelo://app?vid=5a0bcf2a-3b90-441e-9ac0-f024319346cc","ios":"levelo://app?vid=5a0bcf2a-3b90-441e-9ac0-f024319346cc"},"vehicle_type_id":"4","last_reported":1714846119,"current_range_meters":4000,"station_id":"ce4bgj92rcd13ifvqbd0","pricing_plan_id":"cebpf4jnsgd1na2vs0mg"},{"bike_id":"06d15e87-8571-4140-9bcc-215761e7cb90","system_id":"levelo_inurba_marseille","lat":43.2998,"lon":5.38496,"is_reserved":false,"is_disabled":false,"rental_uris":{"android":"levelo://app?vid=06d15e87-8571-4140-9bcc-215761e7cb90","ios":"levelo://app?vid=06d15e87-8571-4140-9bcc-215761e7cb90"},"vehicle_type_id":"4","last_reported":1714846119,"current_range_meters":3600,"station_id":"ce4bgj92rcd13ifvqbd0","pricing_plan_id":"cebpf4jnsgd1na2vs0mg"},{"bike_id":"68a1fdf2-5bfa-4164-b1e1-94f8ad9f5e0e","system_id":"levelo_inurba_marseille","lat":43.295279,"lon":5.375048,"is_reserved":false,"is_disabled":false,"rental_uris":{"android":"levelo://app?vid=68a1fdf2-5bfa-4164-b1e1-94f8ad9f5e0e","ios":"levelo://app?vid=68a1fdf2-5bfa-4164-b1e1-94f8ad9f5e0e"},"vehicle_type_id":"4","last_reported":1714846119,"current_range_meters":11600,"station_id":"ce4bgkp2rcd13ifvqbmg","pricing_plan_id":"cebpf4jnsgd1na2vs0mg"},{"bike_id":"d35e8f88-54ef-4cb1-932b-4d6c2d7b384f","system_id":"levelo_inurba_marseille","lat":43.299707,"lon":5.384859,"is_reserved":false,"is_disabled":false,"rental_uris":{"android":"levelo://app?vid=d35e8f88-54ef-4cb1-932b-4d6c2d7b384f","ios":"levelo://app?vid=d35e8f88-54ef-4cb1-932b-4d6c2d7b384f"},"vehicle_type_id":"4","last_reported":1714846119,"current_range_meters":0,"station_id":"ce4bgj92rcd13ifvqbd0","pricing_plan_id":"cebpf4jnsgd1na2vs0mg"},{"bike_id":"c1ffc9a3-0f1c-428c-acfe-10ab937c9388","system_id":"levelo_inurba_marseille","lat":43.299717,"lon":5.384845,"is_reserved":false,"is_disabled":false,"rental_uris":{"android":"levelo://app?vid=c1ffc9a3-0f1c-428c-acfe-10ab937c9388","ios":"levelo://app?vid=c1ffc9a3-0f1c-428c-acfe-10ab937c9388"},"vehicle_type_id":"4","last_reported":1714846119,"current_range_meters":3200,"station_id":"ce4bgj92rcd13ifvqbd0","pricing_plan_id":"cebpf4jnsgd1na2vs0mg"},{"bike_id":"2096ea94-c06c-4960-a8a0-f4e4cbfda148","system_id":"levelo_inurba_marseille","lat":43.29527,"lon":5.37508,"is_reserved":false,"is_disabled":false,"rental_uris":{"android":"levelo://app?vid=2096ea94-c06c-4960-a8a0-f4e4cbfda148","ios":"levelo://app?vid=2096ea94-c06c-4960-a8a0-f4e4cbfda148"},"vehicle_type_id":"4","last_reported":1714846119,"current_range_meters":0,"station_id":"ce4bgkp2rcd13ifvqbmg","pricing_plan_id":"cebpf4jnsgd1na2vs0mg"},{"bike_id":"4574943c-f650-4791-beec-dfc7781a488e","system_id":"levelo_inurba_marseille","lat":43.29974,"lon":5.38494,"is_reserved":false,"is_disabled":false,"rental_uris":{"android":"levelo://app?vid=4574943c-f650-4791-beec-dfc7781a488e","ios":"levelo://app?vid=4574943c-f650-4791-beec-dfc7781a488e"},"vehicle_type_id":"4","last_reported":1714846119,"current_range_meters":5600,"station_id":"ce4bgj92rcd13ifvqbd0","pricing_plan_id":"cebpf4jnsgd1na2vs0mg"},{"bike_id":"038e677d-b522-42c2-a381-0929d466c336","system_id":"levelo_inurba_marseille","lat":43.299724,"lon":5.384848,"is_reserved":false,"is_disabled":false,"rental_uris":{"android":"levelo://app?vid=038e677d-b522-42c2-a381-0929d466c336","ios":"levelo://app?vid=038e677d-b522-42c2-a381-0929d466c336"},"vehicle_type_id":"4","last_reported":1714846119,"current_range_meters":0,"station_id":"ce4bgj92rcd13ifvqbd0","pricing_plan_id":"cebpf4jnsgd1na2vs0mg"},{"bike_id":"506e0ce7-836c-45d9-bbde-b731bc248c50","system_id":"levelo_inurba_marseille","lat":43.299717,"lon":5.384845,"is_reserved":false,"is_disabled":false,"rental_uris":{"android":"levelo://app?vid=506e0ce7-836c-45d9-bbde-b731bc248c50","ios":"levelo://app?vid=506e0ce7-836c-45d9-bbde-b731bc248c50"},"vehicle_type_id":"4","last_reported":1714846119,"current_range_meters":24000,"station_id":"ce4bgj92rcd13ifvqbd0","pricing_plan_id":"cebpf4jnsgd1na2vs0mg"},{"bike_id":"d730a991-8948-4848-a111-3dd69290782c","system_id":"levelo_inurba_marseille","lat":43.295279,"lon":5.375048,"is_reserved":false,"is_disabled":false,"rental_uris":{"android":"levelo://app?vid=d730a991-8948-4848-a111-3dd69290782c","ios":"levelo://app?vid=d730a991-8948-4848-a111-3dd69290782c"},"vehicle_type_id":"4","last_reported":1714846119,"current_range_meters":29600,"station_id":"ce4bgkp2rcd13ifvqbmg","pricing_plan_id":"cebpf4jnsgd1na2vs0mg"},{"bike_id":"aa202e16-712a-497c-aa9c-a7423802a40e","system_id":"levelo_inurba_marseille","lat":43.299717,"lon":5.384845,"is_reserved":false,"is_disabled":false,"rental_uris":{"android":"levelo://app?vid=aa202e16-712a-497c-aa9c-a7423802a40e","ios":"levelo://app?vid=aa202e16-712a-497c-aa9c-a7423802a40e"},"vehicle_type_id":"4","last_reported":1714846119,"current_range_meters":6400,"station_id":"ce4bgj92rcd13ifvqbd0","pricing_plan_id":"cebpf4jnsgd1na2vs0mg"},{"bike_id":"30c567d7-cd69-45fa-a9af-295ae9f2c0ae","system_id":"levelo_inurba_marseille","lat":43.29969,"lon":5.38503,"is_reserved":false,"is_disabled":false,"rental_uris":{"android":"levelo://app?vid=30c567d7-cd69-45fa-a9af-295ae9f2c0ae","ios":"levelo://app?vid=30c567d7-cd69-45fa-a9af-295ae9f2c0ae"},"vehicle_type_id":"4","last_reported":1714846119,"current_range_meters":6000,"station_id":"ce4bgj92rcd13ifvqbd0","pricing_plan_id":"cebpf4jnsgd1na2vs0mg"},{"bike_id":"ccc4a19c-6d16-4169-9411-b82c23d2efed","system_id":"levelo_inurba_marseille","lat":43.32368,"lon":5.38885,"is_reserved":false,"is_disabled":false,"rental_uris":{"android":"levelo://app?vid=ccc4a19c-6d16-4169-9411-b82c23d2efed","ios":"levelo://app?vid=ccc4a19c-6d16-4169-9411-b82c23d2efed"},"vehicle_type_id":"4","last_reported":1714846119,"current_range_meters":18800,"station_id":"ce4bhqp2rcd13ifvqhog","pricing_plan_id":"cebpf4jnsgd1na2vs0mg"},{"bike_id":"37541cb3-6805-4759-9c0d-c1408e404a3d","system_id":"levelo_inurba_marseille","lat":43.32367,"lon":5.388836,"is_reserved":false,"is_disabled":false,"rental_uris":{"android":"levelo://app?vid=37541cb3-6805-4759-9c0d-c1408e404a3d","ios":"levelo://app?vid=37541cb3-6805-4759-9c0d-c1408e404a3d"},"vehicle_type_id":"4","last_reported":1714846119,"current_range_meters":30400,"station_id":"ce4bhqp2rcd13ifvqhog","pricing_plan_id":"cebpf4jnsgd1na2vs0mg"},{"bike_id":"a9a80b76-2176-4175-a1f4-7218a7503681","system_id":"levelo_inurba_marseille","lat":43.32369,"lon":5.38891,"is_reserved":false,"is_disabled":false,"rental_uris":{"android":"levelo://app?vid=a9a80b76-2176-4175-a1f4-7218a7503681","ios":"levelo://app?vid=a9a80b76-2176-4175-a1f4-7218a7503681"},"vehicle_type_id":"4","last_reported":1714846119,"current_range_meters":12800,"station_id":"ce4bhqp2rcd13ifvqhog","pricing_plan_id":"cebpf4jnsgd1na2vs0mg"},{"bike_id":"b0ca8d39-6986-45f6-a75e-e079b7724175","system_id":"levelo_inurba_marseille","lat":43.29602,"lon":5.381084,"is_reserved":false,"is_disabled":false,"rental_uris":{"android":"levelo://app?vid=b0ca8d39-6986-45f6-a75e-e079b7724175","ios":"levelo://app?vid=b0ca8d39-6986-45f6-a75e-e079b7724175"},"vehicle_type_id":"4","last_reported":1714846119,"current_range_meters":0,"station_id":"ce4bgl12rcd13ifvqbo0","pricing_plan_id":"cebpf4jnsgd1na2vs0mg"},{"bike_id":"98f859a2-eb06-4e41-876f-4323edaf6e1e","system_id":"levelo_inurba_marseille","lat":43.29602,"lon":5.381084,"is_reserved":false,"is_disabled":false,"rental_uris":{"android":"levelo://app?vid=98f859a2-eb06-4e41-876f-4323edaf6e1e","ios":"levelo://app?vid=98f859a2-eb06-4e41-876f-4323edaf6e1e"},"vehicle_type_id":"4","last_reported":1714846119,"current_range_meters":0,"station_id":"ce4bgl12rcd13ifvqbo0","pricing_plan_id":"cebpf4jnsgd1na2vs0mg"},{"bike_id":"584aff44-49c3-459f-8641-b82a86326aae","system_id":"levelo_inurba_marseille","lat":43.29602,"lon":5.381084,"is_reserved":false,"is_disabled":false,"rental_uris":{"android":"levelo://app?vid=584aff44-49c3-459f-8641-b82a86326aae","ios":"levelo://app?vid=584aff44-49c3-459f-8641-b82a86326aae"},"vehicle_type_id":"4","last_reported":1714846119,"current_range_meters":20400,"station_id":"ce4bgl12rcd13ifvqbo0","pricing_plan_id":"cebpf4jnsgd1na2vs0mg"},{"bike_id":"f5a45de2-1469-42fc-b00c-3ce501865887","system_id":"levelo_inurba_marseille","lat":43.29602,"lon":5.381084,"is_reserved":false,"is_disabled":false,"rental_uris":{"android":"levelo://app?vid=f5a45de2-1469-42fc-b00c-3ce501865887","ios":"levelo://app?vid=f5a45de2-1469-42fc-b00c-3ce501865887"},"vehicle_type_id":"4","last_reported":1714846119,"current_range_meters":0,"station_id":"ce4bgl12rcd13ifvqbo0","pricing_plan_id":"cebpf4jnsgd1na2vs0mg"},{"bike_id":"33f92736-40ed-4b69-b3e5-9a550952f6a1","system_id":"levelo_inurba_marseille","lat":43.292749,"lon":5.368402,"is_reserved":false,"is_disabled":false,"rental_uris":{"android":"levelo://app?vid=33f92736-40ed-4b69-b3e5-9a550952f6a1","ios":"levelo://app?vid=33f92736-40ed-4b69-b3e5-9a550952f6a1"},"vehicle_type_id":"4","last_reported":1714846119,"current_range_meters":0,"station_id":"ce4bhbp2rcd13ifvqesg","pricing_plan_id":"cebpf4jnsgd1na2vs0mg"},{"bike_id":"bf50398d-e286-4426-96b6-d74211f56de0","system_id":"levelo_inurba_marseille","lat":43.2928,"lon":5.36841,"is_reserved":false,"is_disabled":false,"rental_uris":{"android":"levelo://app?vid=bf50398d-e286-4426-96b6-d74211f56de0","ios":"levelo://app?vid=bf50398d-e286-4426-96b6-d74211f56de0"},"vehicle_type_id":"4","last_reported":1714846119,"current_range_meters":0,"station_id":"ce4bhbp2rcd13ifvqesg","pricing_plan_id":"cebpf4jnsgd1na2vs0mg"},{"bike_id":"e71fd927-082a-40cb-bad1-7e3809a1065f","system_id":"levelo_inurba_marseille","lat":43.292749,"lon":5.368402,"is_reserved":false,"is_disabled":false,"rental_uris":{"android":"levelo://app?vid=e71fd927-082a-40cb-bad1-7e3809a1065f","ios":"levelo://app?vid=e71fd927-082a-40cb-bad1-7e3809a1065f"},"vehicle_type_id":"4","last_reported":1714846119,"current_range_meters":16000,"station_id":"ce4bhbp2rcd13ifvqesg","pricing_plan_id":"cebpf4jnsgd1na2vs0mg"},{"bike_id":"9475ba93-6d93-4536-9b75-270269b5f4f4","system_id":"levelo_inurba_marseille","lat":43.292749,"lon":5.368398,"is_reserved":false,"is_disabled":false,"rental_uris":{"android":"levelo://app?vid=9475ba93-6d93-4536-9b75-270269b5f4f4","ios":"levelo://app?vid=9475ba93-6d93-4536-9b75-270269b5f4f4"},"vehicle_type_id":"4","last_reported":1714846119,"current_range_meters":0,"station_id":"ce4bhbp2rcd13ifvqesg","pricing_plan_id":"cebpf4jnsgd1na2vs0mg"},{"bike_id":"bad348d0-8584-4d4d-97b0-dcc5e919031e","system_id":"levelo_inurba_marseille","lat":43.292749,"lon":5.368402,"is_reserved":false,"is_disabled":false,"rental_uris":{"android":"levelo://app?vid=bad348d0-8584-4d4d-97b0-dcc5e919031e","ios":"levelo://app?vid=bad348d0-8584-4d4d-97b0-dcc5e919031e"},"vehicle_type_id":"4","last_reported":1714846119,"current_range_meters":7200,"station_id":"ce4bhbp2rcd13ifvqesg","pricing_plan_id":"cebpf4jnsgd1na2vs0mg"},{"bike_id":"61bec491-cdb6-4b83-811f-f5ad88dec270","system_id":"levelo_inurba_marseille","lat":43.292749,"lon":5.368398,"is_reserved":false,"is_disabled":false,"rental_uris":{"android":"levelo://app?vid=61bec491-cdb6-4b83-811f-f5ad88dec270","ios":"levelo://app?vid=61bec491-cdb6-4b83-811f-f5ad88dec270"},"vehicle_type_id":"4","last_reported":1714846119,"current_range_meters":0,"station_id":"ce4bhbp2rcd13ifvqesg","pricing_plan_id":"cebpf4jnsgd1na2vs0mg"},{"bike_id":"33df7140-f056-4338-8360-3f5d570e70e9","system_id":"levelo_inurba_marseille","lat":43.29276,"lon":5.36845,"is_reserved":false,"is_disabled":false,"rental_uris":{"android":"levelo://app?vid=33df7140-f056-4338-8360-3f5d570e70e9","ios":"levelo://app?vid=33df7140-f056-4338-8360-3f5d570e70e9"},"vehicle_type_id":"4","last_reported":1714846119,"current_range_meters":4000,"station_id":"ce4bhbp2rcd13ifvqesg","pricing_plan_id":"cebpf4jnsgd1na2vs0mg"},{"bike_id":"234cb0fb-e4d7-4628-ae95-d08f5b6a1bc3","system_id":"levelo_inurba_marseille","lat":43.292749,"lon":5.368402,"is_reserved":false,"is_disabled":false,"rental_uris":{"android":"levelo://app?vid=234cb0fb-e4d7-4628-ae95-d08f5b6a1bc3","ios":"levelo://app?vid=234cb0fb-e4d7-4628-ae95-d08f5b6a1bc3"},"vehicle_type_id":"4","last_reported":1714846119,"current_range_meters":8000,"station_id":"ce4bhbp2rcd13ifvqesg","pricing_plan_id":"cebpf4jnsgd1na2vs0mg"},{"bike_id":"d4790766-311d-4cd6-b35b-59d8ca4fcd02","system_id":"levelo_inurba_marseille","lat":43.29273,"lon":5.36834,"is_reserved":false,"is_disabled":false,"rental_uris":{"android":"levelo://app?vid=d4790766-311d-4cd6-b35b-59d8ca4fcd02","ios":"levelo://app?vid=d4790766-311d-4cd6-b35b-59d8ca4fcd02"},"vehicle_type_id":"4","last_reported":1714846119,"current_range_meters":0,"station_id":"ce4bhbp2rcd13ifvqesg","pricing_plan_id":"cebpf4jnsgd1na2vs0mg"},{"bike_id":"9594b2bd-f7d4-4a00-a31c-89cd2d1045ac","system_id":"levelo_inurba_marseille","lat":43.293249,"lon":5.371578,"is_reserved":false,"is_disabled":false,"rental_uris":{"android":"levelo://app?vid=9594b2bd-f7d4-4a00-a31c-89cd2d1045ac","ios":"levelo://app?vid=9594b2bd-f7d4-4a00-a31c-89cd2d1045ac"},"vehicle_type_id":"4","last_reported":1714846119,"current_range_meters":25200,"station_id":"ce4bgh92rcd13ifvqb40","pricing_plan_id":"cebpf4jnsgd1na2vs0mg"},{"bike_id":"0358e7d1-025d-42ed-b338-9c26154ceb96","system_id":"levelo_inurba_marseille","lat":43.292749,"lon":5.368402,"is_reserved":false,"is_disabled":false,"rental_uris":{"android":"levelo://app?vid=0358e7d1-025d-42ed-b338-9c26154ceb96","ios":"levelo://app?vid=0358e7d1-025d-42ed-b338-9c26154ceb96"},"vehicle_type_id":"4","last_reported":1714846119,"current_range_meters":4400,"station_id":"ce4bhbp2rcd13ifvqesg","pricing_plan_id":"cebpf4jnsgd1na2vs0mg"},{"bike_id":"d3e54625-0960-432f-a28e-8a83b09203e8","system_id":"levelo_inurba_marseille","lat":43.292749,"lon":5.368398,"is_reserved":false,"is_disabled":false,"rental_uris":{"android":"levelo://app?vid=d3e54625-0960-432f-a28e-8a83b09203e8","ios":"levelo://app?vid=d3e54625-0960-432f-a28e-8a83b09203e8"},"vehicle_type_id":"4","last_reported":1714846119,"current_range_meters":2800,"station_id":"ce4bhbp2rcd13ifvqesg","pricing_plan_id":"cebpf4jnsgd1na2vs0mg"},{"bike_id":"09f7cb5d-9edd-47d2-a04e-f1b90dc48fc4","system_id":"levelo_inurba_marseille","lat":43.292749,"lon":5.368402,"is_reserved":false,"is_disabled":false,"rental_uris":{"android":"levelo://app?vid=09f7cb5d-9edd-47d2-a04e-f1b90dc48fc4","ios":"levelo://app?vid=09f7cb5d-9edd-47d2-a04e-f1b90dc48fc4"},"vehicle_type_id":"4","last_reported":1714846119,"current_range_meters":25200,"station_id":"ce4bhbp2rcd13ifvqesg","pricing_plan_id":"cebpf4jnsgd1na2vs0mg"},{"bike_id":"9c35b100-588a-43de-904c-40fa61555170","system_id":"levelo_inurba_marseille","lat":43.292749,"lon":5.368402,"is_reserved":false,"is_disabled":false,"rental_uris":{"android":"levelo://app?vid=9c35b100-588a-43de-904c-40fa61555170","ios":"levelo://app?vid=9c35b100-588a-43de-904c-40fa61555170"},"vehicle_type_id":"4","last_reported":1714846119,"current_range_meters":0,"station_id":"ce4bhbp2rcd13ifvqesg","pricing_plan_id":"cebpf4jnsgd1na2vs0mg"},{"bike_id":"244e51f4-a3a2-431e-a312-bd534f12b008","system_id":"levelo_inurba_marseille","lat":43.29314,"lon":5.37457,"is_reserved":false,"is_disabled":false,"rental_uris":{"android":"levelo://app?vid=244e51f4-a3a2-431e-a312-bd534f12b008","ios":"levelo://app?vid=244e51f4-a3a2-431e-a312-bd534f12b008"},"vehicle_type_id":"4","last_reported":1714846119,"current_range_meters":0,"station_id":"ce4bgi12rcd13ifvqb70","pricing_plan_id":"cebpf4jnsgd1na2vs0mg"},{"bike_id":"d49480f8-0a5d-4864-8603-20388b148ddb","system_id":"levelo_inurba_marseille","lat":43.29313,"lon":5.37461,"is_reserved":false,"is_disabled":false,"rental_uris":{"android":"levelo://app?vid=d49480f8-0a5d-4864-8603-20388b148ddb","ios":"levelo://app?vid=d49480f8-0a5d-4864-8603-20388b148ddb"},"vehicle_type_id":"4","last_reported":1714846119,"current_range_meters":0,"station_id":"ce4bgi12rcd13ifvqb70","pricing_plan_id":"cebpf4jnsgd1na2vs0mg"},{"bike_id":"f0fb9ef8-625d-4eba-a421-7bf46a65cb8e","system_id":"levelo_inurba_marseille","lat":43.305994,"lon":5.393687,"is_reserved":false,"is_disabled":false,"rental_uris":{"android":"levelo://app?vid=f0fb9ef8-625d-4eba-a421-7bf46a65cb8e","ios":"levelo://app?vid=f0fb9ef8-625d-4eba-a421-7bf46a65cb8e"},"vehicle_type_id":"4","last_reported":1714846119,"current_range_meters":20000,"station_id":"ce4bh0p2rcd13ifvqd80","pricing_plan_id":"cebpf4jnsgd1na2vs0mg"},{"bike_id":"fd9289f9-6f8f-458c-b0e1-742c747cd451","system_id":"levelo_inurba_marseille","lat":43.305994,"lon":5.393687,"is_reserved":false,"is_disabled":false,"rental_uris":{"android":"levelo://app?vid=fd9289f9-6f8f-458c-b0e1-742c747cd451","ios":"levelo://app?vid=fd9289f9-6f8f-458c-b0e1-742c747cd451"},"vehicle_type_id":"4","last_reported":1714846119,"current_range_meters":0,"station_id":"ce4bh0p2rcd13ifvqd80","pricing_plan_id":"cebpf4jnsgd1na2vs0mg"},{"bike_id":"9053f082-e8bb-46e6-a7a7-e7e4d030b7d7","system_id":"levelo_inurba_marseille","lat":43.305994,"lon":5.393687,"is_reserved":false,"is_disabled":false,"rental_uris":{"android":"levelo://app?vid=9053f082-e8bb-46e6-a7a7-e7e4d030b7d7","ios":"levelo://app?vid=9053f082-e8bb-46e6-a7a7-e7e4d030b7d7"},"vehicle_type_id":"4","last_reported":1714846119,"current_range_meters":18400,"station_id":"ce4bh0p2rcd13ifvqd80","pricing_plan_id":"cebpf4jnsgd1na2vs0mg"},{"bike_id":"4c02d467-4e1c-46bb-a6a3-f3834f9d6551","system_id":"levelo_inurba_marseille","lat":43.29301,"lon":5.3747,"is_reserved":false,"is_disabled":false,"rental_uris":{"android":"levelo://app?vid=4c02d467-4e1c-46bb-a6a3-f3834f9d6551","ios":"levelo://app?vid=4c02d467-4e1c-46bb-a6a3-f3834f9d6551"},"vehicle_type_id":"4","last_reported":1714846119,"current_range_meters":0,"station_id":"ce4bgi12rcd13ifvqb70","pricing_plan_id":"cebpf4jnsgd1na2vs0mg"},{"bike_id":"3eec1524-27b0-42b7-bfbe-388148065b5b","system_id":"levelo_inurba_marseille","lat":43.29298,"lon":5.37464,"is_reserved":false,"is_disabled":false,"rental_uris":{"android":"levelo://app?vid=3eec1524-27b0-42b7-bfbe-388148065b5b","ios":"levelo://app?vid=3eec1524-27b0-42b7-bfbe-388148065b5b"},"vehicle_type_id":"4","last_reported":1714846119,"current_range_meters":0,"station_id":"ce4bgi12rcd13ifvqb70","pricing_plan_id":"cebpf4jnsgd1na2vs0mg"},{"bike_id":"659b8f31-ae4d-474d-9566-efa3dfebd327","system_id":"levelo_inurba_marseille","lat":43.305994,"lon":5.393687,"is_reserved":false,"is_disabled":false,"rental_uris":{"android":"levelo://app?vid=659b8f31-ae4d-474d-9566-efa3dfebd327","ios":"levelo://app?vid=659b8f31-ae4d-474d-9566-efa3dfebd327"},"vehicle_type_id":"4","last_reported":1714846119,"current_range_meters":22400,"station_id":"ce4bh0p2rcd13ifvqd80","pricing_plan_id":"cebpf4jnsgd1na2vs0mg"},{"bike_id":"e7550aa0-5619-4d11-ac64-43577cab3b78","system_id":"levelo_inurba_marseille","lat":43.305994,"lon":5.393687,"is_reserved":false,"is_disabled":false,"rental_uris":{"android":"levelo://app?vid=e7550aa0-5619-4d11-ac64-43577cab3b78","ios":"levelo://app?vid=e7550aa0-5619-4d11-ac64-43577cab3b78"},"vehicle_type_id":"4","last_reported":1714846119,"current_range_meters":0,"station_id":"ce4bh0p2rcd13ifvqd80","pricing_plan_id":"cebpf4jnsgd1na2vs0mg"},{"bike_id":"f7b72733-d6d6-4f7f-a972-a73ca5507146","system_id":"levelo_inurba_marseille","lat":43.30307,"lon":5.39196,"is_reserved":false,"is_disabled":false,"rental_uris":{"android":"levelo://app?vid=f7b72733-d6d6-4f7f-a972-a73ca5507146","ios":"levelo://app?vid=f7b72733-d6d6-4f7f-a972-a73ca5507146"},"vehicle_type_id":"4","last_reported":1714846119,"current_range_meters":0,"station_id":"ce4bgkh2rcd13ifvqbk0","pricing_plan_id":"cebpf4jnsgd1na2vs0mg"},{"bike_id":"edbf454a-8e83-4a06-9fad-b74639e91cfc","system_id":"levelo_inurba_marseille","lat":43.303002,"lon":5.392142,"is_reserved":false,"is_disabled":false,"rental_uris":{"android":"levelo://app?vid=edbf454a-8e83-4a06-9fad-b74639e91cfc","ios":"levelo://app?vid=edbf454a-8e83-4a06-9fad-b74639e91cfc"},"vehicle_type_id":"4","last_reported":1714846119,"current_range_meters":12400,"station_id":"ce4bgkh2rcd13ifvqbk0","pricing_plan_id":"cebpf4jnsgd1na2vs0mg"},{"bike_id":"40e875f9-9854-4ee9-823b-7416eca0269d","system_id":"levelo_inurba_marseille","lat":43.2936,"lon":5.37835,"is_reserved":false,"is_disabled":false,"rental_uris":{"android":"levelo://app?vid=40e875f9-9854-4ee9-823b-7416eca0269d","ios":"levelo://app?vid=40e875f9-9854-4ee9-823b-7416eca0269d"},"vehicle_type_id":"4","last_reported":1714846119,"current_range_meters":24800,"station_id":"ce4bgjh2rcd13ifvqbf0","pricing_plan_id":"cebpf4jnsgd1na2vs0mg"},{"bike_id":"7224b4c9-12ae-4e17-8df0-9062a754a2a4","system_id":"levelo_inurba_marseille","lat":43.2936,"lon":5.37835,"is_reserved":false,"is_disabled":false,"rental_uris":{"android":"levelo://app?vid=7224b4c9-12ae-4e17-8df0-9062a754a2a4","ios":"levelo://app?vid=7224b4c9-12ae-4e17-8df0-9062a754a2a4"},"vehicle_type_id":"4","last_reported":1714846119,"current_range_meters":22000,"station_id":"ce4bgjh2rcd13ifvqbf0","pricing_plan_id":"cebpf4jnsgd1na2vs0mg"},{"bike_id":"9f783a00-e005-4f10-9078-11f952dd0b1d","system_id":"levelo_inurba_marseille","lat":43.2936,"lon":5.37835,"is_reserved":false,"is_disabled":false,"rental_uris":{"android":"levelo://app?vid=9f783a00-e005-4f10-9078-11f952dd0b1d","ios":"levelo://app?vid=9f783a00-e005-4f10-9078-11f952dd0b1d"},"vehicle_type_id":"4","last_reported":1714846119,"current_range_meters":21200,"station_id":"ce4bgjh2rcd13ifvqbf0","pricing_plan_id":"cebpf4jnsgd1na2vs0mg"},{"bike_id":"095be807-8d61-4fdc-bd00-461d8d58179e","system_id":"levelo_inurba_marseille","lat":43.2936,"lon":5.37835,"is_reserved":false,"is_disabled":false,"rental_uris":{"android":"levelo://app?vid=095be807-8d61-4fdc-bd00-461d8d58179e","ios":"levelo://app?vid=095be807-8d61-4fdc-bd00-461d8d58179e"},"vehicle_type_id":"4","last_reported":1714846119,"current_range_meters":18800,"station_id":"ce4bgjh2rcd13ifvqbf0","pricing_plan_id":"cebpf4jnsgd1na2vs0mg"},{"bike_id":"4e9c9b15-3819-47f0-8d69-ee1d7b6e0f1c","system_id":"levelo_inurba_marseille","lat":43.292391,"lon":5.360356,"is_reserved":false,"is_disabled":false,"rental_uris":{"android":"levelo://app?vid=4e9c9b15-3819-47f0-8d69-ee1d7b6e0f1c","ios":"levelo://app?vid=4e9c9b15-3819-47f0-8d69-ee1d7b6e0f1c"},"vehicle_type_id":"4","last_reported":1714846119,"current_range_meters":12800,"station_id":"ce4bhbh2rcd13ifvqeqg","pricing_plan_id":"cebpf4jnsgd1na2vs0mg"},{"bike_id":"a3875fc8-f1fa-4493-84b2-23161ea4f4be","system_id":"levelo_inurba_marseille","lat":43.302992,"lon":5.392136,"is_reserved":false,"is_disabled":false,"rental_uris":{"android":"levelo://app?vid=a3875fc8-f1fa-4493-84b2-23161ea4f4be","ios":"levelo://app?vid=a3875fc8-f1fa-4493-84b2-23161ea4f4be"},"vehicle_type_id":"4","last_reported":1714846119,"current_range_meters":2800,"station_id":"ce4bgkh2rcd13ifvqbk0","pricing_plan_id":"cebpf4jnsgd1na2vs0mg"},{"bike_id":"7a1816f3-e4a9-4d6c-a25a-be3c99bd4d37","system_id":"levelo_inurba_marseille","lat":43.292311,"lon":5.360731,"is_reserved":false,"is_disabled":false,"rental_uris":{"android":"levelo://app?vid=7a1816f3-e4a9-4d6c-a25a-be3c99bd4d37","ios":"levelo://app?vid=7a1816f3-e4a9-4d6c-a25a-be3c99bd4d37"},"vehicle_type_id":"4","last_reported":1714846119,"current_range_meters":18800,"station_id":"ce4bhbh2rcd13ifvqeqg","pricing_plan_id":"cebpf4jnsgd1na2vs0mg"},{"bike_id":"1bb615e6-dd0a-4c31-97ef-e3cd0dc9bfa5","system_id":"levelo_inurba_marseille","lat":43.292311,"lon":5.360731,"is_reserved":false,"is_disabled":false,"rental_uris":{"android":"levelo://app?vid=1bb615e6-dd0a-4c31-97ef-e3cd0dc9bfa5","ios":"levelo://app?vid=1bb615e6-dd0a-4c31-97ef-e3cd0dc9bfa5"},"vehicle_type_id":"4","last_reported":1714846119,"current_range_meters":17600,"station_id":"ce4bhbh2rcd13ifvqeqg","pricing_plan_id":"cebpf4jnsgd1na2vs0mg"},{"bike_id":"2546f055-5533-421e-b274-399736de53b2","system_id":"levelo_inurba_marseille","lat":43.30085,"lon":5.390856,"is_reserved":false,"is_disabled":false,"rental_uris":{"android":"levelo://app?vid=2546f055-5533-421e-b274-399736de53b2","ios":"levelo://app?vid=2546f055-5533-421e-b274-399736de53b2"},"vehicle_type_id":"4","last_reported":1714846119,"current_range_meters":0,"station_id":"ce4bh192rcd13ifvqdb0","pricing_plan_id":"cebpf4jnsgd1na2vs0mg"},{"bike_id":"737b7533-dd2f-4cdd-abdd-b718272d6643","system_id":"levelo_inurba_marseille","lat":43.292311,"lon":5.360731,"is_reserved":false,"is_disabled":false,"rental_uris":{"android":"levelo://app?vid=737b7533-dd2f-4cdd-abdd-b718272d6643","ios":"levelo://app?vid=737b7533-dd2f-4cdd-abdd-b718272d6643"},"vehicle_type_id":"4","last_reported":1714846119,"current_range_meters":25200,"station_id":"ce4bhbh2rcd13ifvqeqg","pricing_plan_id":"cebpf4jnsgd1na2vs0mg"},{"bike_id":"385c23c2-3232-4be5-8bee-1d1d3a8a3711","system_id":"levelo_inurba_marseille","lat":43.292311,"lon":5.360731,"is_reserved":false,"is_disabled":false,"rental_uris":{"android":"levelo://app?vid=385c23c2-3232-4be5-8bee-1d1d3a8a3711","ios":"levelo://app?vid=385c23c2-3232-4be5-8bee-1d1d3a8a3711"},"vehicle_type_id":"4","last_reported":1714846119,"current_range_meters":18400,"station_id":"ce4bhbh2rcd13ifvqeqg","pricing_plan_id":"cebpf4jnsgd1na2vs0mg"},{"bike_id":"89c8cc68-140b-482a-a3a0-2307ea1936c5","system_id":"levelo_inurba_marseille","lat":43.292311,"lon":5.360731,"is_reserved":false,"is_disabled":false,"rental_uris":{"android":"levelo://app?vid=89c8cc68-140b-482a-a3a0-2307ea1936c5","ios":"levelo://app?vid=89c8cc68-140b-482a-a3a0-2307ea1936c5"},"vehicle_type_id":"4","last_reported":1714846119,"current_range_meters":27200,"station_id":"ce4bhbh2rcd13ifvqeqg","pricing_plan_id":"cebpf4jnsgd1na2vs0mg"},{"bike_id":"1a48a573-d45e-412b-a1d0-bed1064cc4d7","system_id":"levelo_inurba_marseille","lat":43.292256,"lon":5.360932,"is_reserved":false,"is_disabled":false,"rental_uris":{"android":"levelo://app?vid=1a48a573-d45e-412b-a1d0-bed1064cc4d7","ios":"levelo://app?vid=1a48a573-d45e-412b-a1d0-bed1064cc4d7"},"vehicle_type_id":"4","last_reported":1714846119,"current_range_meters":2000,"station_id":"ce4bh2h2rcd13ifvqdh0","pricing_plan_id":"cebpf4jnsgd1na2vs0mg"},{"bike_id":"9a515628-7cbc-478b-b3f3-186a97db88c3","system_id":"levelo_inurba_marseille","lat":43.29227,"lon":5.36077,"is_reserved":false,"is_disabled":false,"rental_uris":{"android":"levelo://app?vid=9a515628-7cbc-478b-b3f3-186a97db88c3","ios":"levelo://app?vid=9a515628-7cbc-478b-b3f3-186a97db88c3"},"vehicle_type_id":"4","last_reported":1714846119,"current_range_meters":23200,"station_id":"ce4bhbh2rcd13ifvqeqg","pricing_plan_id":"cebpf4jnsgd1na2vs0mg"},{"bike_id":"a9db974f-4b33-4b2c-b0ed-04b8690c9b63","system_id":"levelo_inurba_marseille","lat":43.292311,"lon":5.360731,"is_reserved":false,"is_disabled":false,"rental_uris":{"android":"levelo://app?vid=a9db974f-4b33-4b2c-b0ed-04b8690c9b63","ios":"levelo://app?vid=a9db974f-4b33-4b2c-b0ed-04b8690c9b63"},"vehicle_type_id":"4","last_reported":1714846119,"current_range_meters":0,"station_id":"ce4bhbh2rcd13ifvqeqg","pricing_plan_id":"cebpf4jnsgd1na2vs0mg"},{"bike_id":"71d8ece1-e512-4d16-b6fb-f3b8a8cafdf7","system_id":"levelo_inurba_marseille","lat":43.292311,"lon":5.360731,"is_reserved":false,"is_disabled":false,"rental_uris":{"android":"levelo://app?vid=71d8ece1-e512-4d16-b6fb-f3b8a8cafdf7","ios":"levelo://app?vid=71d8ece1-e512-4d16-b6fb-f3b8a8cafdf7"},"vehicle_type_id":"4","last_reported":1714846119,"current_range_meters":12400,"station_id":"ce4bhbh2rcd13ifvqeqg","pricing_plan_id":"cebpf4jnsgd1na2vs0mg"},{"bike_id":"a2dce443-b00f-45dd-9fdf-bcfcef0bff53","system_id":"levelo_inurba_marseille","lat":43.29226,"lon":5.36074,"is_reserved":false,"is_disabled":false,"rental_uris":{"android":"levelo://app?vid=a2dce443-b00f-45dd-9fdf-bcfcef0bff53","ios":"levelo://app?vid=a2dce443-b00f-45dd-9fdf-bcfcef0bff53"},"vehicle_type_id":"4","last_reported":1714846119,"current_range_meters":15600,"station_id":"ce4bhbh2rcd13ifvqeqg","pricing_plan_id":"cebpf4jnsgd1na2vs0mg"},{"bike_id":"515fee84-6971-4ebc-aee5-26e546cff455","system_id":"levelo_inurba_marseille","lat":43.29228,"lon":5.36061,"is_reserved":false,"is_disabled":false,"rental_uris":{"android":"levelo://app?vid=515fee84-6971-4ebc-aee5-26e546cff455","ios":"levelo://app?vid=515fee84-6971-4ebc-aee5-26e546cff455"},"vehicle_type_id":"4","last_reported":1714846119,"current_range_meters":5200,"station_id":"ce4bhbh2rcd13ifvqeqg","pricing_plan_id":"cebpf4jnsgd1na2vs0mg"},{"bike_id":"e8065689-ddb7-46db-9389-432127892b45","system_id":"levelo_inurba_marseille","lat":43.292311,"lon":5.360731,"is_reserved":false,"is_disabled":false,"rental_uris":{"android":"levelo://app?vid=e8065689-ddb7-46db-9389-432127892b45","ios":"levelo://app?vid=e8065689-ddb7-46db-9389-432127892b45"},"vehicle_type_id":"4","last_reported":1714846119,"current_range_meters":17200,"station_id":"ce4bhbh2rcd13ifvqeqg","pricing_plan_id":"cebpf4jnsgd1na2vs0mg"},{"bike_id":"762ae49f-0517-464b-a8ea-865677364dd6","system_id":"levelo_inurba_marseille","lat":43.292311,"lon":5.360731,"is_reserved":false,"is_disabled":false,"rental_uris":{"android":"levelo://app?vid=762ae49f-0517-464b-a8ea-865677364dd6","ios":"levelo://app?vid=762ae49f-0517-464b-a8ea-865677364dd6"},"vehicle_type_id":"4","last_reported":1714846119,"current_range_meters":4400,"station_id":"ce4bhbh2rcd13ifvqeqg","pricing_plan_id":"cebpf4jnsgd1na2vs0mg"},{"bike_id":"8d30a18e-f1e7-48c5-9271-02620768d754","system_id":"levelo_inurba_marseille","lat":43.292311,"lon":5.360731,"is_reserved":false,"is_disabled":false,"rental_uris":{"android":"levelo://app?vid=8d30a18e-f1e7-48c5-9271-02620768d754","ios":"levelo://app?vid=8d30a18e-f1e7-48c5-9271-02620768d754"},"vehicle_type_id":"4","last_reported":1714846119,"current_range_meters":26000,"station_id":"ce4bhbh2rcd13ifvqeqg","pricing_plan_id":"cebpf4jnsgd1na2vs0mg"},{"bike_id":"74984510-a395-4d6d-8ada-fc10e2513e03","system_id":"levelo_inurba_marseille","lat":43.29223,"lon":5.36074,"is_reserved":false,"is_disabled":false,"rental_uris":{"android":"levelo://app?vid=74984510-a395-4d6d-8ada-fc10e2513e03","ios":"levelo://app?vid=74984510-a395-4d6d-8ada-fc10e2513e03"},"vehicle_type_id":"4","last_reported":1714846119,"current_range_meters":20800,"station_id":"ce4bhbh2rcd13ifvqeqg","pricing_plan_id":"cebpf4jnsgd1na2vs0mg"},{"bike_id":"5afaa0cf-f99b-4040-b7af-7b545fbe8b54","system_id":"levelo_inurba_marseille","lat":43.29225,"lon":5.36047,"is_reserved":false,"is_disabled":false,"rental_uris":{"android":"levelo://app?vid=5afaa0cf-f99b-4040-b7af-7b545fbe8b54","ios":"levelo://app?vid=5afaa0cf-f99b-4040-b7af-7b545fbe8b54"},"vehicle_type_id":"4","last_reported":1714846119,"current_range_meters":8800,"station_id":"ce4bhbh2rcd13ifvqeqg","pricing_plan_id":"cebpf4jnsgd1na2vs0mg"},{"bike_id":"832da4b9-d5e9-47df-8d76-863c8a430d3e","system_id":"levelo_inurba_marseille","lat":43.29219,"lon":5.36062,"is_reserved":false,"is_disabled":false,"rental_uris":{"android":"levelo://app?vid=832da4b9-d5e9-47df-8d76-863c8a430d3e","ios":"levelo://app?vid=832da4b9-d5e9-47df-8d76-863c8a430d3e"},"vehicle_type_id":"4","last_reported":1714846119,"current_range_meters":0,"station_id":"ce4bhbh2rcd13ifvqeqg","pricing_plan_id":"cebpf4jnsgd1na2vs0mg"},{"bike_id":"8a09bc70-5dcf-4587-b629-269e8aeabc21","system_id":"levelo_inurba_marseille","lat":43.29216,"lon":5.36072,"is_reserved":false,"is_disabled":false,"rental_uris":{"android":"levelo://app?vid=8a09bc70-5dcf-4587-b629-269e8aeabc21","ios":"levelo://app?vid=8a09bc70-5dcf-4587-b629-269e8aeabc21"},"vehicle_type_id":"4","last_reported":1714846119,"current_range_meters":17600,"station_id":"ce4bhbh2rcd13ifvqeqg","pricing_plan_id":"cebpf4jnsgd1na2vs0mg"},{"bike_id":"40d2dd70-ba5c-40dd-b96a-463b8181e50f","system_id":"levelo_inurba_marseille","lat":43.29217,"lon":5.36064,"is_reserved":false,"is_disabled":false,"rental_uris":{"android":"levelo://app?vid=40d2dd70-ba5c-40dd-b96a-463b8181e50f","ios":"levelo://app?vid=40d2dd70-ba5c-40dd-b96a-463b8181e50f"},"vehicle_type_id":"4","last_reported":1714846119,"current_range_meters":24800,"station_id":"ce4bhbh2rcd13ifvqeqg","pricing_plan_id":"cebpf4jnsgd1na2vs0mg"},{"bike_id":"7eaf9e70-dfbf-47b8-917d-74d44c999c2c","system_id":"levelo_inurba_marseille","lat":43.29216,"lon":5.360447,"is_reserved":false,"is_disabled":false,"rental_uris":{"android":"levelo://app?vid=7eaf9e70-dfbf-47b8-917d-74d44c999c2c","ios":"levelo://app?vid=7eaf9e70-dfbf-47b8-917d-74d44c999c2c"},"vehicle_type_id":"4","last_reported":1714846119,"current_range_meters":8000,"station_id":"ce4bhbh2rcd13ifvqeqg","pricing_plan_id":"cebpf4jnsgd1na2vs0mg"},{"bike_id":"491b371a-7541-4dc9-bdd7-d62fedbac2a1","system_id":"levelo_inurba_marseille","lat":43.292311,"lon":5.360731,"is_reserved":false,"is_disabled":false,"rental_uris":{"android":"levelo://app?vid=491b371a-7541-4dc9-bdd7-d62fedbac2a1","ios":"levelo://app?vid=491b371a-7541-4dc9-bdd7-d62fedbac2a1"},"vehicle_type_id":"4","last_reported":1714846119,"current_range_meters":27600,"station_id":"ce4bhbh2rcd13ifvqeqg","pricing_plan_id":"cebpf4jnsgd1na2vs0mg"},{"bike_id":"b1708037-a7e2-4fd5-91da-f069400e865b","system_id":"levelo_inurba_marseille","lat":43.292311,"lon":5.360731,"is_reserved":false,"is_disabled":false,"rental_uris":{"android":"levelo://app?vid=b1708037-a7e2-4fd5-91da-f069400e865b","ios":"levelo://app?vid=b1708037-a7e2-4fd5-91da-f069400e865b"},"vehicle_type_id":"4","last_reported":1714846119,"current_range_meters":29200,"station_id":"ce4bhbh2rcd13ifvqeqg","pricing_plan_id":"cebpf4jnsgd1na2vs0mg"},{"bike_id":"201dc656-b164-45a2-a1f4-0e224d65160f","system_id":"levelo_inurba_marseille","lat":43.291675,"lon":5.371583,"is_reserved":false,"is_disabled":false,"rental_uris":{"android":"levelo://app?vid=201dc656-b164-45a2-a1f4-0e224d65160f","ios":"levelo://app?vid=201dc656-b164-45a2-a1f4-0e224d65160f"},"vehicle_type_id":"4","last_reported":1714846119,"current_range_meters":12400,"station_id":"ce4bha92rcd13ifvqeh0","pricing_plan_id":"cebpf4jnsgd1na2vs0mg"},{"bike_id":"42ec815f-6955-43b8-8761-9fa738731a1d","system_id":"levelo_inurba_marseille","lat":43.291675,"lon":5.371583,"is_reserved":false,"is_disabled":false,"rental_uris":{"android":"levelo://app?vid=42ec815f-6955-43b8-8761-9fa738731a1d","ios":"levelo://app?vid=42ec815f-6955-43b8-8761-9fa738731a1d"},"vehicle_type_id":"4","last_reported":1714846119,"current_range_meters":4800,"station_id":"ce4bha92rcd13ifvqeh0","pricing_plan_id":"cebpf4jnsgd1na2vs0mg"},{"bike_id":"06affaf3-3810-4670-93c4-60448c233ae2","system_id":"levelo_inurba_marseille","lat":43.292005,"lon":5.357875,"is_reserved":false,"is_disabled":false,"rental_uris":{"android":"levelo://app?vid=06affaf3-3810-4670-93c4-60448c233ae2","ios":"levelo://app?vid=06affaf3-3810-4670-93c4-60448c233ae2"},"vehicle_type_id":"4","last_reported":1714846119,"current_range_meters":13600,"station_id":"ce4bhb12rcd13ifvqel0","pricing_plan_id":"cebpf4jnsgd1na2vs0mg"},{"bike_id":"ca8ca9a2-571d-4813-97e1-ca1a38ce1bfa","system_id":"levelo_inurba_marseille","lat":43.291994,"lon":5.357886,"is_reserved":false,"is_disabled":false,"rental_uris":{"android":"levelo://app?vid=ca8ca9a2-571d-4813-97e1-ca1a38ce1bfa","ios":"levelo://app?vid=ca8ca9a2-571d-4813-97e1-ca1a38ce1bfa"},"vehicle_type_id":"4","last_reported":1714846119,"current_range_meters":30000,"station_id":"ce4bhb12rcd13ifvqel0","pricing_plan_id":"cebpf4jnsgd1na2vs0mg"},{"bike_id":"f90d7f85-4b33-44b1-ab81-b59ea5f9710e","system_id":"levelo_inurba_marseille","lat":43.287184,"lon":5.37937,"is_reserved":false,"is_disabled":false,"rental_uris":{"android":"levelo://app?vid=f90d7f85-4b33-44b1-ab81-b59ea5f9710e","ios":"levelo://app?vid=f90d7f85-4b33-44b1-ab81-b59ea5f9710e"},"vehicle_type_id":"4","last_reported":1714846119,"current_range_meters":0,"station_id":"ce4bh9p2rcd13ifvqec0","pricing_plan_id":"cebpf4jnsgd1na2vs0mg"},{"bike_id":"f3b81fa7-360f-4d2a-92f1-7df5de25c83a","system_id":"levelo_inurba_marseille","lat":43.29195,"lon":5.358,"is_reserved":false,"is_disabled":false,"rental_uris":{"android":"levelo://app?vid=f3b81fa7-360f-4d2a-92f1-7df5de25c83a","ios":"levelo://app?vid=f3b81fa7-360f-4d2a-92f1-7df5de25c83a"},"vehicle_type_id":"4","last_reported":1714846119,"current_range_meters":29200,"station_id":"ce4bhb12rcd13ifvqel0","pricing_plan_id":"cebpf4jnsgd1na2vs0mg"},{"bike_id":"158cce2e-e042-41fd-922c-b11fc305ad3d","system_id":"levelo_inurba_marseille","lat":43.309038,"lon":5.396546,"is_reserved":false,"is_disabled":false,"rental_uris":{"android":"levelo://app?vid=158cce2e-e042-41fd-922c-b11fc305ad3d","ios":"levelo://app?vid=158cce2e-e042-41fd-922c-b11fc305ad3d"},"vehicle_type_id":"4","last_reported":1714846119,"current_range_meters":6800,"station_id":"ce4bh012rcd13ifvqcv0","pricing_plan_id":"cebpf4jnsgd1na2vs0mg"},{"bike_id":"661cde4f-6c43-4b3a-a06a-6c98cbfe2fcf","system_id":"levelo_inurba_marseille","lat":43.31328,"lon":5.39687,"is_reserved":false,"is_disabled":false,"rental_uris":{"android":"levelo://app?vid=661cde4f-6c43-4b3a-a06a-6c98cbfe2fcf","ios":"levelo://app?vid=661cde4f-6c43-4b3a-a06a-6c98cbfe2fcf"},"vehicle_type_id":"4","last_reported":1714846119,"current_range_meters":2000,"station_id":"ce4bgvp2rcd13ifvqcu0","pricing_plan_id":"cebpf4jnsgd1na2vs0mg"},{"bike_id":"4d95378e-86cd-494a-ba00-fd8cf84a1810","system_id":"levelo_inurba_marseille","lat":43.313291,"lon":5.396838,"is_reserved":false,"is_disabled":false,"rental_uris":{"android":"levelo://app?vid=4d95378e-86cd-494a-ba00-fd8cf84a1810","ios":"levelo://app?vid=4d95378e-86cd-494a-ba00-fd8cf84a1810"},"vehicle_type_id":"4","last_reported":1714846119,"current_range_meters":7600,"station_id":"ce4bgvp2rcd13ifvqcu0","pricing_plan_id":"cebpf4jnsgd1na2vs0mg"},{"bike_id":"a6186023-4465-45a8-8be7-55d1bb10b843","system_id":"levelo_inurba_marseille","lat":43.30891,"lon":5.39647,"is_reserved":false,"is_disabled":false,"rental_uris":{"android":"levelo://app?vid=a6186023-4465-45a8-8be7-55d1bb10b843","ios":"levelo://app?vid=a6186023-4465-45a8-8be7-55d1bb10b843"},"vehicle_type_id":"4","last_reported":1714846119,"current_range_meters":2000,"station_id":"ce4bh012rcd13ifvqcv0","pricing_plan_id":"cebpf4jnsgd1na2vs0mg"},{"bike_id":"4c177c31-4e61-4dc2-8590-c5e234d265d8","system_id":"levelo_inurba_marseille","lat":43.313291,"lon":5.396838,"is_reserved":false,"is_disabled":false,"rental_uris":{"android":"levelo://app?vid=4c177c31-4e61-4dc2-8590-c5e234d265d8","ios":"levelo://app?vid=4c177c31-4e61-4dc2-8590-c5e234d265d8"},"vehicle_type_id":"4","last_reported":1714846119,"current_range_meters":400,"station_id":"ce4bgvp2rcd13ifvqcu0","pricing_plan_id":"cebpf4jnsgd1na2vs0mg"},{"bike_id":"b8dcc656-ad89-42f2-b21d-3004b1d20e0b","system_id":"levelo_inurba_marseille","lat":43.313291,"lon":5.396838,"is_reserved":false,"is_disabled":false,"rental_uris":{"android":"levelo://app?vid=b8dcc656-ad89-42f2-b21d-3004b1d20e0b","ios":"levelo://app?vid=b8dcc656-ad89-42f2-b21d-3004b1d20e0b"},"vehicle_type_id":"4","last_reported":1714846119,"current_range_meters":3200,"station_id":"ce4bgvp2rcd13ifvqcu0","pricing_plan_id":"cebpf4jnsgd1na2vs0mg"},{"bike_id":"d65e0ea9-96a9-4e23-9191-20420e9d0202","system_id":"levelo_inurba_marseille","lat":43.29543,"lon":5.38546,"is_reserved":false,"is_disabled":false,"rental_uris":{"android":"levelo://app?vid=d65e0ea9-96a9-4e23-9191-20420e9d0202","ios":"levelo://app?vid=d65e0ea9-96a9-4e23-9191-20420e9d0202"},"vehicle_type_id":"4","last_reported":1714846119,"current_range_meters":0,"station_id":"ce4bgih2rcd13ifvqba0","pricing_plan_id":"cebpf4jnsgd1na2vs0mg"},{"bike_id":"c760330f-3714-47a3-866b-2c1aee8da918","system_id":"levelo_inurba_marseille","lat":43.29529,"lon":5.385581,"is_reserved":false,"is_disabled":false,"rental_uris":{"android":"levelo://app?vid=c760330f-3714-47a3-866b-2c1aee8da918","ios":"levelo://app?vid=c760330f-3714-47a3-866b-2c1aee8da918"},"vehicle_type_id":"4","last_reported":1714846119,"current_range_meters":5200,"station_id":"ce4bgih2rcd13ifvqba0","pricing_plan_id":"cebpf4jnsgd1na2vs0mg"},{"bike_id":"e9bd4867-9ed1-4a13-ae90-74ed70a542d6","system_id":"levelo_inurba_marseille","lat":43.29529,"lon":5.385581,"is_reserved":false,"is_disabled":false,"rental_uris":{"android":"levelo://app?vid=e9bd4867-9ed1-4a13-ae90-74ed70a542d6","ios":"levelo://app?vid=e9bd4867-9ed1-4a13-ae90-74ed70a542d6"},"vehicle_type_id":"4","last_reported":1714846119,"current_range_meters":27600,"station_id":"ce4bgih2rcd13ifvqba0","pricing_plan_id":"cebpf4jnsgd1na2vs0mg"},{"bike_id":"86d24ef4-02c6-4087-af16-8a3d0e2e445e","system_id":"levelo_inurba_marseille","lat":43.29538,"lon":5.38549,"is_reserved":false,"is_disabled":false,"rental_uris":{"android":"levelo://app?vid=86d24ef4-02c6-4087-af16-8a3d0e2e445e","ios":"levelo://app?vid=86d24ef4-02c6-4087-af16-8a3d0e2e445e"},"vehicle_type_id":"4","last_reported":1714846119,"current_range_meters":0,"station_id":"ce4bgih2rcd13ifvqba0","pricing_plan_id":"cebpf4jnsgd1na2vs0mg"},{"bike_id":"943371de-e7ba-484a-82a5-44e8381816ca","system_id":"levelo_inurba_marseille","lat":43.29531,"lon":5.38541,"is_reserved":false,"is_disabled":false,"rental_uris":{"android":"levelo://app?vid=943371de-e7ba-484a-82a5-44e8381816ca","ios":"levelo://app?vid=943371de-e7ba-484a-82a5-44e8381816ca"},"vehicle_type_id":"4","last_reported":1714846119,"current_range_meters":0,"station_id":"ce4bgih2rcd13ifvqba0","pricing_plan_id":"cebpf4jnsgd1na2vs0mg"},{"bike_id":"95375b15-664c-411b-826b-c73278b17cb7","system_id":"levelo_inurba_marseille","lat":43.29531,"lon":5.38544,"is_reserved":false,"is_disabled":false,"rental_uris":{"android":"levelo://app?vid=95375b15-664c-411b-826b-c73278b17cb7","ios":"levelo://app?vid=95375b15-664c-411b-826b-c73278b17cb7"},"vehicle_type_id":"4","last_reported":1714846119,"current_range_meters":0,"station_id":"ce4bgih2rcd13ifvqba0","pricing_plan_id":"cebpf4jnsgd1na2vs0mg"},{"bike_id":"8dffcb37-4075-4f5b-8faa-48181a5bf23a","system_id":"levelo_inurba_marseille","lat":43.290779,"lon":5.371482,"is_reserved":false,"is_disabled":false,"rental_uris":{"android":"levelo://app?vid=8dffcb37-4075-4f5b-8faa-48181a5bf23a","ios":"levelo://app?vid=8dffcb37-4075-4f5b-8faa-48181a5bf23a"},"vehicle_type_id":"4","last_reported":1714846119,"current_range_meters":3200,"station_id":"ce4bh5p2rcd13ifvqe4g","pricing_plan_id":"cebpf4jnsgd1na2vs0mg"},{"bike_id":"eeb8be2c-9c23-4ff3-9a6b-41a480122ce6","system_id":"levelo_inurba_marseille","lat":43.290779,"lon":5.371482,"is_reserved":false,"is_disabled":false,"rental_uris":{"android":"levelo://app?vid=eeb8be2c-9c23-4ff3-9a6b-41a480122ce6","ios":"levelo://app?vid=eeb8be2c-9c23-4ff3-9a6b-41a480122ce6"},"vehicle_type_id":"4","last_reported":1714846119,"current_range_meters":19200,"station_id":"ce4bh5p2rcd13ifvqe4g","pricing_plan_id":"cebpf4jnsgd1na2vs0mg"},{"bike_id":"bc0ac562-11a4-4508-918e-335a7785ed27","system_id":"levelo_inurba_marseille","lat":43.290779,"lon":5.371482,"is_reserved":false,"is_disabled":false,"rental_uris":{"android":"levelo://app?vid=bc0ac562-11a4-4508-918e-335a7785ed27","ios":"levelo://app?vid=bc0ac562-11a4-4508-918e-335a7785ed27"},"vehicle_type_id":"4","last_reported":1714846119,"current_range_meters":1600,"station_id":"ce4bh5p2rcd13ifvqe4g","pricing_plan_id":"cebpf4jnsgd1na2vs0mg"},{"bike_id":"ee23ad17-deed-4278-a3a2-d94e06abd7d8","system_id":"levelo_inurba_marseille","lat":43.290779,"lon":5.371482,"is_reserved":false,"is_disabled":false,"rental_uris":{"android":"levelo://app?vid=ee23ad17-deed-4278-a3a2-d94e06abd7d8","ios":"levelo://app?vid=ee23ad17-deed-4278-a3a2-d94e06abd7d8"},"vehicle_type_id":"4","last_reported":1714846119,"current_range_meters":2000,"station_id":"ce4bh5p2rcd13ifvqe4g","pricing_plan_id":"cebpf4jnsgd1na2vs0mg"},{"bike_id":"ba0c5e46-4709-44cf-8174-fb7a83a890af","system_id":"levelo_inurba_marseille","lat":43.290779,"lon":5.371482,"is_reserved":false,"is_disabled":false,"rental_uris":{"android":"levelo://app?vid=ba0c5e46-4709-44cf-8174-fb7a83a890af","ios":"levelo://app?vid=ba0c5e46-4709-44cf-8174-fb7a83a890af"},"vehicle_type_id":"4","last_reported":1714846119,"current_range_meters":0,"station_id":"ce4bh5p2rcd13ifvqe4g","pricing_plan_id":"cebpf4jnsgd1na2vs0mg"},{"bike_id":"5e2856da-55c9-4e38-8d48-b8ee35689cb7","system_id":"levelo_inurba_marseille","lat":43.290779,"lon":5.371482,"is_reserved":false,"is_disabled":false,"rental_uris":{"android":"levelo://app?vid=5e2856da-55c9-4e38-8d48-b8ee35689cb7","ios":"levelo://app?vid=5e2856da-55c9-4e38-8d48-b8ee35689cb7"},"vehicle_type_id":"4","last_reported":1714846119,"current_range_meters":3600,"station_id":"ce4bh5p2rcd13ifvqe4g","pricing_plan_id":"cebpf4jnsgd1na2vs0mg"},{"bike_id":"adc33a5e-52c7-4784-be60-b4cdb40066a3","system_id":"levelo_inurba_marseille","lat":43.302008,"lon":5.394694,"is_reserved":false,"is_disabled":false,"rental_uris":{"android":"levelo://app?vid=adc33a5e-52c7-4784-be60-b4cdb40066a3","ios":"levelo://app?vid=adc33a5e-52c7-4784-be60-b4cdb40066a3"},"vehicle_type_id":"4","last_reported":1714846119,"current_range_meters":0,"station_id":"ce4bh0p2rcd13ifvqd70","pricing_plan_id":"cebpf4jnsgd1na2vs0mg"},{"bike_id":"4e763303-471a-44c1-b384-6fb7fe573a98","system_id":"levelo_inurba_marseille","lat":43.29056,"lon":5.35914,"is_reserved":false,"is_disabled":false,"rental_uris":{"android":"levelo://app?vid=4e763303-471a-44c1-b384-6fb7fe573a98","ios":"levelo://app?vid=4e763303-471a-44c1-b384-6fb7fe573a98"},"vehicle_type_id":"4","last_reported":1714846119,"current_range_meters":22000,"station_id":"ce4bha92rcd13ifvqeg0","pricing_plan_id":"cebpf4jnsgd1na2vs0mg"},{"bike_id":"969ffc08-b931-46ed-b58d-44de9f73eeb5","system_id":"levelo_inurba_marseille","lat":43.290624,"lon":5.359245,"is_reserved":false,"is_disabled":false,"rental_uris":{"android":"levelo://app?vid=969ffc08-b931-46ed-b58d-44de9f73eeb5","ios":"levelo://app?vid=969ffc08-b931-46ed-b58d-44de9f73eeb5"},"vehicle_type_id":"4","last_reported":1714846119,"current_range_meters":20800,"station_id":"ce4bha92rcd13ifvqeg0","pricing_plan_id":"cebpf4jnsgd1na2vs0mg"},{"bike_id":"4d470d6c-6f2d-45c6-b729-b3508a86704a","system_id":"levelo_inurba_marseille","lat":43.290631,"lon":5.359244,"is_reserved":false,"is_disabled":false,"rental_uris":{"android":"levelo://app?vid=4d470d6c-6f2d-45c6-b729-b3508a86704a","ios":"levelo://app?vid=4d470d6c-6f2d-45c6-b729-b3508a86704a"},"vehicle_type_id":"4","last_reported":1714846119,"current_range_meters":24400,"station_id":"ce4bha92rcd13ifvqeg0","pricing_plan_id":"cebpf4jnsgd1na2vs0mg"},{"bike_id":"d7d21dfe-72da-464e-bea9-22040ea4afd0","system_id":"levelo_inurba_marseille","lat":43.290624,"lon":5.359245,"is_reserved":false,"is_disabled":false,"rental_uris":{"android":"levelo://app?vid=d7d21dfe-72da-464e-bea9-22040ea4afd0","ios":"levelo://app?vid=d7d21dfe-72da-464e-bea9-22040ea4afd0"},"vehicle_type_id":"4","last_reported":1714846119,"current_range_meters":3600,"station_id":"ce4bha92rcd13ifvqeg0","pricing_plan_id":"cebpf4jnsgd1na2vs0mg"},{"bike_id":"8570cfe9-172e-4f24-8658-2507370751a6","system_id":"levelo_inurba_marseille","lat":43.290631,"lon":5.359244,"is_reserved":false,"is_disabled":false,"rental_uris":{"android":"levelo://app?vid=8570cfe9-172e-4f24-8658-2507370751a6","ios":"levelo://app?vid=8570cfe9-172e-4f24-8658-2507370751a6"},"vehicle_type_id":"4","last_reported":1714846119,"current_range_meters":17600,"station_id":"ce4bha92rcd13ifvqeg0","pricing_plan_id":"cebpf4jnsgd1na2vs0mg"},{"bike_id":"aee65c6c-10b0-4652-8655-5aedadc379e9","system_id":"levelo_inurba_marseille","lat":43.290624,"lon":5.359245,"is_reserved":false,"is_disabled":false,"rental_uris":{"android":"levelo://app?vid=aee65c6c-10b0-4652-8655-5aedadc379e9","ios":"levelo://app?vid=aee65c6c-10b0-4652-8655-5aedadc379e9"},"vehicle_type_id":"4","last_reported":1714846119,"current_range_meters":18800,"station_id":"ce4bha92rcd13ifvqeg0","pricing_plan_id":"cebpf4jnsgd1na2vs0mg"},{"bike_id":"7f011a6d-9730-46af-af1a-de6daaf95cae","system_id":"levelo_inurba_marseille","lat":43.29033,"lon":5.37394,"is_reserved":false,"is_disabled":false,"rental_uris":{"android":"levelo://app?vid=7f011a6d-9730-46af-af1a-de6daaf95cae","ios":"levelo://app?vid=7f011a6d-9730-46af-af1a-de6daaf95cae"},"vehicle_type_id":"4","last_reported":1714846119,"current_range_meters":0,"station_id":"","pricing_plan_id":"cebpf4jnsgd1na2vs0mg"},{"bike_id":"b902c007-d4e8-402d-8d80-e47ee8609c3a","system_id":"levelo_inurba_marseille","lat":43.290631,"lon":5.359244,"is_reserved":false,"is_disabled":false,"rental_uris":{"android":"levelo://app?vid=b902c007-d4e8-402d-8d80-e47ee8609c3a","ios":"levelo://app?vid=b902c007-d4e8-402d-8d80-e47ee8609c3a"},"vehicle_type_id":"4","last_reported":1714846119,"current_range_meters":14400,"station_id":"ce4bha92rcd13ifvqeg0","pricing_plan_id":"cebpf4jnsgd1na2vs0mg"},{"bike_id":"c2712559-658d-44f1-be1b-67a8c2d05695","system_id":"levelo_inurba_marseille","lat":43.290631,"lon":5.359244,"is_reserved":false,"is_disabled":false,"rental_uris":{"android":"levelo://app?vid=c2712559-658d-44f1-be1b-67a8c2d05695","ios":"levelo://app?vid=c2712559-658d-44f1-be1b-67a8c2d05695"},"vehicle_type_id":"4","last_reported":1714846119,"current_range_meters":9600,"station_id":"ce4bha92rcd13ifvqeg0","pricing_plan_id":"cebpf4jnsgd1na2vs0mg"},