{"last_updated":1762715220,"ttl":60,"version":"2.2","data":{"bikes":[{"bike_id":"b9d796cd-4069-46b7-8bdd-a6a57c6a6ce3","system_id":"levelo_inurba_marseille","lat":43.30123,"lon":5.38748,"is_reserved":false,"is_disabled":false,"rental_uris":{"android":"levelo://app?vid=b9d796cd-4069-46b7-8bdd-a6a57c6a6ce3","ios":"levelo://app?vid=b9d796cd-4069-46b7-8bdd-a6a57c6a6ce3"},"vehicle_type_id":"4","last_reported":1762715220,"current_range_meters":2800,"station_id":"ce4bghh2rcd13ifvqb60","pricing_plan_id":"cebpf4jnsgd1na2vs0mg"},{"bike_id":"29e8bf77-58c4-453b-9926-1b7e0e1fe626","system_id":"levelo_inurba_marseille","lat":43.31329,"lon":5.39691,"is_reserved":false,"is_disabled":false,"rental_uris":{"android":"levelo://app?vid=29e8bf77-58c4-453b-9926-1b7e0e1fe626","ios":"levelo://app?vid=29e8bf77-58c4-453b-9926-1b7e0e1fe626"},"vehicle_type_id":"4","last_reported":1762715220,"current_range_meters":2800,"station_id":"ce4bgvp2rcd13ifvqcu0","pricing_plan_id":"cebpf4jnsgd1na2vs0mg"},{"bike_id":"d151ff79-4f3d-488f-ab83-2269f7906bf1","system_id":"levelo_inurba_marseille","lat":43.28873,"lon":5.35872,"is_reserved":false,"is_disabled":false,"rental_uris":{"android":"levelo://app?vid=d151ff79-4f3d-488f-ab83-2269f7906bf1","ios":"levelo://app?vid=d151ff79-4f3d-488f-ab83-2269f7906bf1"},"vehicle_type_id":"4","last_reported":1762715220,"current_range_meters":2800,"station_id":"ce4bhb12rcd13ifvqem0","pricing_plan_id":"cebpf4jnsgd1na2vs0mg"},{"bike_id":"bab182a0-c03b-4bf3-b853-bf377d7366d6","system_id":"levelo_inurba_marseille","lat":43.30127,"lon":5.387876,"is_reserved":false,"is_disabled":false,"rental_uris":{"android":"levelo://app?vid=bab182a0-c03b-4bf3-b853-bf377d7366d6","ios":"levelo://app?vid=bab182a0-c03b-4bf3-b853-bf377d7366d6"},"vehicle_type_id":"4","last_reported":1762715220,"current_range_meters":2800,"station_id":"","pricing_plan_id":"cebpf4jnsgd1na2vs0mg"},{"bike_id":"a07da0d4-ab14-47df-806c-961491172ca6","system_id":"levelo_inurba_marseille","lat":43.29092,"lon":5.38146,"is_reserved":false,"is_disabled":false,"rental_uris":{"android":"levelo://app?vid=a07da0d4-ab14-47df-806c-961491172ca6","ios":"levelo://app?vid=a07da0d4-ab14-47df-806c-961491172ca6"},"vehicle_type_id":"4","last_reported":1762715220,"current_range_meters":3200,"station_id":"ce4bh512rcd13ifvqe2g","pricing_plan_id":"cebpf4jnsgd1na2vs0mg"},{"bike_id":"8784674e-83e9-4315-9cd1-48309a476f3a","system_id":"levelo_inurba_marseille","lat":43.28367,"lon":5.38093,"is_reserved":false,"is_disabled":false,"rental_uris":{"android":"levelo://app?vid=8784674e-83e9-4315-9cd1-48309a476f3a","ios":"levelo://app?vid=8784674e-83e9-4315-9cd1-48309a476f3a"},"vehicle_type_id":"4","last_reported":1762715220,"current_range_meters":3200,"station_id":"ce4bh412rcd13ifvqdr0","pricing_plan_id":"cebpf4jnsgd1na2vs0mg"},{"bike_id":"ca5649c9-59f1-4f52-a555-7400b2143da8","system_id":"levelo_inurba_marseille","lat":43.225325,"lon":5.348343,"is_reserved":false,"is_disabled":false,"rental_uris":{"android":"levelo://app?vid=ca5649c9-59f1-4f52-a555-7400b2143da8","ios":"levelo://app?vid=ca5649c9-59f1-4f52-a555-7400b2143da8"},"vehicle_type_id":"4","last_reported":1762715220,"current_range_meters":3200,"station_id":"","pricing_plan_id":"cebpf4jnsgd1na2vs0mg"},{"bike_id":"d356d629-6509-4386-9408-910f27e13324","system_id":"levelo_inurba_marseille","lat":43.26491,"lon":5.39541,"is_reserved":false,"is_disabled":false,"rental_uris":{"android":"levelo://app?vid=d356d629-6509-4386-9408-910f27e13324","ios":"levelo://app?vid=d356d629-6509-4386-9408-910f27e13324"},"vehicle_type_id":"4","last_reported":1762715220,"current_range_meters":3200,"station_id":"ce4bhi12rcd13ifvqfq0","pricing_plan_id":"cebpf4jnsgd1na2vs0mg"},{"bike_id":"a0ea519d-554f-42a0-93a3-d4c181552c78","system_id":"levelo_inurba_marseille","lat":43.31273,"lon":5.37774,"is_reserved":false,"is_disabled":false,"rental_uris":{"android":"levelo://app?vid=a0ea519d-554f-42a0-93a3-d4c181552c78","ios":"levelo://app?vid=a0ea519d-554f-42a0-93a3-d4c181552c78"},"vehicle_type_id":"4","last_reported":1762715220,"current_range_meters":3200,"station_id":"","pricing_plan_id":"cebpf4jnsgd1na2vs0mg"},{"bike_id":"f5d2272d-8d75-4267-906e-d5d9c342cd35","system_id":"levelo_inurba_marseille","lat":43.26942,"lon":5.40258,"is_reserved":false,"is_disabled":false,"rental_uris":{"android":"levelo://app?vid=f5d2272d-8d75-4267-906e-d5d9c342cd35","ios":"levelo://app?vid=f5d2272d-8d75-4267-906e-d5d9c342cd35"},"vehicle_type_id":"4","last_reported":1762715220,"current_range_meters":3200,"station_id":"cjm6bp8fraef2m0cb0m0","pricing_plan_id":"cebpf4jnsgd1na2vs0mg"},{"bike_id":"846b6c4b-1c4a-4a9a-9470-1fcf775aab85","system_id":"levelo_inurba_marseille","lat":43.2869,"lon":5.37389,"is_reserved":false,"is_disabled":false,"rental_uris":{"android":"levelo://app?vid=846b6c4b-1c4a-4a9a-9470-1fcf775aab85","ios":"levelo://app?vid=846b6c4b-1c4a-4a9a-9470-1fcf775aab85"},"vehicle_type_id":"4","last_reported":1762715220,"current_range_meters":3600,"station_id":"ce4bh3p2rcd13ifvqdq0","pricing_plan_id":"cebpf4jnsgd1na2vs0mg"},{"bike_id":"0654eb57-9895-4847-8803-3caae6d17b47","system_id":"levelo_inurba_marseille","lat":43.22536,"lon":5.34837,"is_reserved":false,"is_disabled":false,"rental_uris":{"android":"levelo://app?vid=0654eb57-9895-4847-8803-3caae6d17b47","ios":"levelo://app?vid=0654eb57-9895-4847-8803-3caae6d17b47"},"vehicle_type_id":"4","last_reported":1762715220,"current_range_meters":3600,"station_id":"","pricing_plan_id":"cebpf4jnsgd1na2vs0mg"},{"bike_id":"238d576a-6a62-4737-b701-23f2278e2ae9","system_id":"levelo_inurba_marseille","lat":43.30116,"lon":5.43097,"is_reserved":false,"is_disabled":false,"rental_uris":{"android":"levelo://app?vid=238d576a-6a62-4737-b701-23f2278e2ae9","ios":"levelo://app?vid=238d576a-6a62-4737-b701-23f2278e2ae9"},"vehicle_type_id":"4","last_reported":1762715220,"current_range_meters":3600,"station_id":"st_d3js3co5814s73ftftug","pricing_plan_id":"cebpf4jnsgd1na2vs0mg"},{"bike_id":"45539b52-e5c9-49b6-85a7-e30d01e90d60","system_id":"levelo_inurba_marseille","lat":43.29264,"lon":5.38428,"is_reserved":false,"is_disabled":true,"rental_uris":{"android":"levelo://app?vid=45539b52-e5c9-49b6-85a7-e30d01e90d60","ios":"levelo://app?vid=45539b52-e5c9-49b6-85a7-e30d01e90d60"},"vehicle_type_id":"4","last_reported":1762715220,"current_range_meters":3600,"station_id":"ce4bh692rcd13ifvqea0","pricing_plan_id":"cebpf4jnsgd1na2vs0mg"},{"bike_id":"5c17ed12-8897-4f84-bbfc-85419a7f8038","system_id":"levelo_inurba_marseille","lat":43.27103,"lon":5.39391,"is_reserved":false,"is_disabled":false,"rental_uris":{"android":"levelo://app?vid=5c17ed12-8897-4f84-bbfc-85419a7f8038","ios":"levelo://app?vid=5c17ed12-8897-4f84-bbfc-85419a7f8038"},"vehicle_type_id":"4","last_reported":1762715220,"current_range_meters":4000,"station_id":"","pricing_plan_id":"cebpf4jnsgd1na2vs0mg"},{"bike_id":"64921815-0d90-47e2-95b6-b5073223f3e6","system_id":"levelo_inurba_marseille","lat":43.28866,"lon":5.39305,"is_reserved":false,"is_disabled":false,"rental_uris":{"android":"levelo://app?vid=64921815-0d90-47e2-95b6-b5073223f3e6","ios":"levelo://app?vid=64921815-0d90-47e2-95b6-b5073223f3e6"},"vehicle_type_id":"4","last_reported":1762715220,"current_range_meters":4000,"station_id":"ce4bh2p2rcd13ifvqdi0","pricing_plan_id":"cebpf4jnsgd1na2vs0mg"},{"bike_id":"0663adb8-01ba-4ee8-ac38-46d57a1cbc2e","system_id":"levelo_inurba_marseille","lat":43.290982,"lon":5.381373,"is_reserved":false,"is_disabled":false,"rental_uris":{"android":"levelo://app?vid=0663adb8-01ba-4ee8-ac38-46d57a1cbc2e","ios":"levelo://app?vid=0663adb8-01ba-4ee8-ac38-46d57a1cbc2e"},"vehicle_type_id":"4","last_reported":1762715220,"current_range_meters":4000,"station_id":"ce4bh512rcd13ifvqe2g","pricing_plan_id":"cebpf4jnsgd1na2vs0mg"},{"bike_id":"e88dfb4f-0061-4eb1-b11b-aed4b3c65357","system_id":"levelo_inurba_marseille","lat":43.307752,"lon":5.376495,"is_reserved":false,"is_disabled":false,"rental_uris":{"android":"levelo://app?vid=e88dfb4f-0061-4eb1-b11b-aed4b3c65357","ios":"levelo://app?vid=e88dfb4f-0061-4eb1-b11b-aed4b3c65357"},"vehicle_type_id":"4","last_reported":1762715220,"current_range_meters":4000,"station_id":"ce4bgr92rcd13ifvqc7g","pricing_plan_id":"cebpf4jnsgd1na2vs0mg"},{"bike_id":"590a4c07-8ca4-4e4d-8751-46c9db908a72","system_id":"levelo_inurba_marseille","lat":43.27026,"lon":5.38784,"is_reserved":false,"is_disabled":false,"rental_uris":{"android":"levelo://app?vid=590a4c07-8ca4-4e4d-8751-46c9db908a72","ios":"levelo://app?vid=590a4c07-8ca4-4e4d-8751-46c9db908a72"},"vehicle_type_id":"4","last_reported":1762715220,"current_range_meters":4400,"station_id":"","pricing_plan_id":"cebpf4jnsgd1na2vs0mg"},{"bike_id":"68279d0e-ad69-4648-b3eb-0f6abb72ebc1","system_id":"levelo_inurba_marseille","lat":43.29267,"lon":5.36849,"is_reserved":false,"is_disabled":false,"rental_uris":{"android":"levelo://app?vid=68279d0e-ad69-4648-b3eb-0f6abb72ebc1","ios":"levelo://app?vid=68279d0e-ad69-4648-b3eb-0f6abb72ebc1"},"vehicle_type_id":"4","last_reported":1762715220,"current_range_meters":4400,"station_id":"ce4bhbp2rcd13ifvqesg","pricing_plan_id":"cebpf4jnsgd1na2vs0mg"},{"bike_id":"b05048b6-3636-4628-97b9-678771374061","system_id":"levelo_inurba_marseille","lat":43.30451,"lon":5.36744,"is_reserved":false,"is_disabled":true,"rental_uris":{"android":"levelo://app?vid=b05048b6-3636-4628-97b9-678771374061","ios":"levelo://app?vid=b05048b6-3636-4628-97b9-678771374061"},"vehicle_type_id":"4","last_reported":1762715220,"current_range_meters":4400,"station_id":"","pricing_plan_id":"cebpf4jnsgd1na2vs0mg"},{"bike_id":"1c2923dc-b9e5-4f81-8ba2-ca98a0c0802c","system_id":"levelo_inurba_marseille","lat":43.29528,"lon":5.37493,"is_reserved":false,"is_disabled":false,"rental_uris":{"android":"levelo://app?vid=1c2923dc-b9e5-4f81-8ba2-ca98a0c0802c","ios":"levelo://app?vid=1c2923dc-b9e5-4f81-8ba2-ca98a0c0802c"},"vehicle_type_id":"4","last_reported":1762715220,"current_range_meters":4400,"station_id":"ce4bgkp2rcd13ifvqbmg","pricing_plan_id":"cebpf4jnsgd1na2vs0mg"},{"bike_id":"d13f7aac-3326-47eb-8c83-0485dd333747","system_id":"levelo_inurba_marseille","lat":43.30487,"lon":5.39264,"is_reserved":false,"is_disabled":false,"rental_uris":{"android":"levelo://app?vid=d13f7aac-3326-47eb-8c83-0485dd333747","ios":"levelo://app?vid=d13f7aac-3326-47eb-8c83-0485dd333747"},"vehicle_type_id":"4","last_reported":1762715220,"current_range_meters":4400,"station_id":"","pricing_plan_id":"cebpf4jnsgd1na2vs0mg"},{"bike_id":"ad041111-c257-4c47-bf6b-6b3219c81d3f","system_id":"levelo_inurba_marseille","lat":43.2927,"lon":5.36849,"is_reserved":false,"is_disabled":false,"rental_uris":{"android":"levelo://app?vid=ad041111-c257-4c47-bf6b-6b3219c81d3f","ios":"levelo://app?vid=ad041111-c257-4c47-bf6b-6b3219c81d3f"},"vehicle_type_id":"4","last_reported":1762715220,"current_range_meters":4400,"station_id":"ce4bhbp2rcd13ifvqesg","pricing_plan_id":"cebpf4jnsgd1na2vs0mg"},{"bike_id":"26aad628-bd01-4664-890e-ba85447bad9f","system_id":"levelo_inurba_marseille","lat":43.303332,"lon":5.40429,"is_reserved":false,"is_disabled":true,"rental_uris":{"android":"levelo://app?vid=26aad628-bd01-4664-890e-ba85447bad9f","ios":"levelo://app?vid=26aad628-bd01-4664-890e-ba85447bad9f"},"vehicle_type_id":"4","last_reported":1762715220,"current_range_meters":4800,"station_id":"ce4bh012rcd13ifvqd10","pricing_plan_id":"cebpf4jnsgd1na2vs0mg"},{"bike_id":"6c6f65b3-0314-4d51-ad33-575d2b20e8f4","system_id":"levelo_inurba_marseille","lat":43.21743,"lon":5.34622,"is_reserved":false,"is_disabled":true,"rental_uris":{"android":"levelo://app?vid=6c6f65b3-0314-4d51-ad33-575d2b20e8f4","ios":"levelo://app?vid=6c6f65b3-0314-4d51-ad33-575d2b20e8f4"},"vehicle_type_id":"4","last_reported":1762715220,"current_range_meters":4800,"station_id":"st_cvj6r9ubvosntc0bgbag","pricing_plan_id":"cebpf4jnsgd1na2vs0mg"},{"bike_id":"a77cd884-7438-4db7-92ce-52e3989fba0f","system_id":"levelo_inurba_marseille","lat":43.25926,"lon":5.409111,"is_reserved":false,"is_disabled":false,"rental_uris":{"android":"levelo://app?vid=a77cd884-7438-4db7-92ce-52e3989fba0f","ios":"levelo://app?vid=a77cd884-7438-4db7-92ce-52e3989fba0f"},"vehicle_type_id":"4","last_reported":1762715220,"current_range_meters":4800,"station_id":"ce4bhm92rcd13ifvqglg","pricing_plan_id":"cebpf4jnsgd1na2vs0mg"},{"bike_id":"64b3f462-cfcd-41e4-8f65-af836ff19b48","system_id":"levelo_inurba_marseille","lat":43.24231,"lon":5.39376,"is_reserved":false,"is_disabled":false,"rental_uris":{"android":"levelo://app?vid=64b3f462-cfcd-41e4-8f65-af836ff19b48","ios":"levelo://app?vid=64b3f462-cfcd-41e4-8f65-af836ff19b48"},"vehicle_type_id":"4","last_reported":1762715220,"current_range_meters":4800,"station_id":"","pricing_plan_id":"cebpf4jnsgd1na2vs0mg"},{"bike_id":"549cd593-1672-463b-931a-93ed20086de4","system_id":"levelo_inurba_marseille","lat":43.30597,"lon":5.39341,"is_reserved":false,"is_disabled":false,"rental_uris":{"android":"levelo://app?vid=549cd593-1672-463b-931a-93ed20086de4","ios":"levelo://app?vid=549cd593-1672-463b-931a-93ed20086de4"},"vehicle_type_id":"4","last_reported":1762715220,"current_range_meters":5600,"station_id":"ce4bh0p2rcd13ifvqd80","pricing_plan_id":"cebpf4jnsgd1na2vs0mg"},{"bike_id":"78b4c311-b3d0-4884-b0da-6082785efb0e","system_id":"levelo_inurba_marseille","lat":43.28468,"lon":5.48499,"is_reserved":false,"is_disabled":false,"rental_uris":{"android":"levelo://app?vid=78b4c311-b3d0-4884-b0da-6082785efb0e","ios":"levelo://app?vid=78b4c311-b3d0-4884-b0da-6082785efb0e"},"vehicle_type_id":"4","last_reported":1762715220,"current_range_meters":5600,"station_id":"st_d3svhcjqgbts73a3dn0g","pricing_plan_id":"cebpf4jnsgd1na2vs0mg"},{"bike_id":"bf678751-927e-4eb6-aa4c-9c912328124e","system_id":"levelo_inurba_marseille","lat":43.29512,"lon":5.39403,"is_reserved":false,"is_disabled":false,"rental_uris":{"android":"levelo://app?vid=bf678751-927e-4eb6-aa4c-9c912328124e","ios":"levelo://app?vid=bf678751-927e-4eb6-aa4c-9c912328124e"},"vehicle_type_id":"4","last_reported":1762715220,"current_range_meters":5600,"station_id":"ce4bh292rcd13ifvqdf0","pricing_plan_id":"cebpf4jnsgd1na2vs0mg"},{"bike_id":"4ae6bb60-9efe-4d8c-94e1-63f581df3da8","system_id":"levelo_inurba_marseille","lat":43.301368,"lon":5.374268,"is_reserved":false,"is_disabled":false,"rental_uris":{"android":"levelo://app?vid=4ae6bb60-9efe-4d8c-94e1-63f581df3da8","ios":"levelo://app?vid=4ae6bb60-9efe-4d8c-94e1-63f581df3da8"},"vehicle_type_id":"4","last_reported":1762715220,"current_range_meters":5600,"station_id":"ce4bgs92rcd13ifvqcc0","pricing_plan_id":"cebpf4jnsgd1na2vs0mg"},{"bike_id":"b7fe65a5-bce2-4069-a453-0e8d0cd686f1","system_id":"levelo_inurba_marseille","lat":43.28104,"lon":5.37828,"is_reserved":false,"is_disabled":false,"rental_uris":{"android":"levelo://app?vid=b7fe65a5-bce2-4069-a453-0e8d0cd686f1","ios":"levelo://app?vid=b7fe65a5-bce2-4069-a453-0e8d0cd686f1"},"vehicle_type_id":"4","last_reported":1762715220,"current_range_meters":5600,"station_id":"ce4bha12rcd13ifvqee0","pricing_plan_id":"cebpf4jnsgd1na2vs0mg"},{"bike_id":"42ffc309-6178-47b6-ab94-85dcc0e3c0c8","system_id":"levelo_inurba_marseille","lat":43.29885,"lon":5.39729,"is_reserved":false,"is_disabled":false,"rental_uris":{"android":"levelo://app?vid=42ffc309-6178-47b6-ab94-85dcc0e3c0c8","ios":"levelo://app?vid=42ffc309-6178-47b6-ab94-85dcc0e3c0c8"},"vehicle_type_id":"4","last_reported":1762715220,"current_range_meters":5600,"station_id":"ce4bh0h2rcd13ifvqd50","pricing_plan_id":"cebpf4jnsgd1na2vs0mg"},{"bike_id":"01dad655-af99-4ee4-a01f-ad31d9b8ad38","system_id":"levelo_inurba_marseille","lat":43.301393,"lon":5.387717,"is_reserved":false,"is_disabled":false,"rental_uris":{"android":"levelo://app?vid=01dad655-af99-4ee4-a01f-ad31d9b8ad38","ios":"levelo://app?vid=01dad655-af99-4ee4-a01f-ad31d9b8ad38"},"vehicle_type_id":"4","last_reported":1762715220,"current_range_meters":5600,"station_id":"ce4bghh2rcd13ifvqb60","pricing_plan_id":"cebpf4jnsgd1na2vs0mg"},{"bike_id":"5320d673-8f17-42b0-b637-4e20de7189dd","system_id":"levelo_inurba_marseille","lat":43.30201,"lon":5.3663,"is_reserved":false,"is_disabled":true,"rental_uris":{"android":"levelo://app?vid=5320d673-8f17-42b0-b637-4e20de7189dd","ios":"levelo://app?vid=5320d673-8f17-42b0-b637-4e20de7189dd"},"vehicle_type_id":"4","last_reported":1762715220,"current_range_meters":6000,"station_id":"ce4bgrh2rcd13ifvqc8g","pricing_plan_id":"cebpf4jnsgd1na2vs0mg"},{"bike_id":"9dda5635-a624-436d-9b12-22fb00320230","system_id":"levelo_inurba_marseille","lat":43.29322,"lon":5.37155,"is_reserved":false,"is_disabled":false,"rental_uris":{"android":"levelo://app?vid=9dda5635-a624-436d-9b12-22fb00320230","ios":"levelo://app?vid=9dda5635-a624-436d-9b12-22fb00320230"},"vehicle_type_id":"4","last_reported":1762715220,"current_range_meters":6000,"station_id":"","pricing_plan_id":"cebpf4jnsgd1na2vs0mg"},{"bike_id":"d48959de-0e94-4a5f-bd58-3ffb4cd3dc67","system_id":"levelo_inurba_marseille","lat":43.311235,"lon":5.377595,"is_reserved":false,"is_disabled":false,"rental_uris":{"android":"levelo://app?vid=d48959de-0e94-4a5f-bd58-3ffb4cd3dc67","ios":"levelo://app?vid=d48959de-0e94-4a5f-bd58-3ffb4cd3dc67"},"vehicle_type_id":"4","last_reported":1762715220,"current_range_meters":6000,"station_id":"ce4bgt92rcd13ifvqcg0","pricing_plan_id":"cebpf4jnsgd1na2vs0mg"},{"bike_id":"b4f3e2c3-b646-4e1c-b01e-391ad05e0328","system_id":"levelo_inurba_marseille","lat":43.28066,"lon":5.37006,"is_reserved":false,"is_disabled":false,"rental_uris":{"android":"levelo://app?vid=b4f3e2c3-b646-4e1c-b01e-391ad05e0328","ios":"levelo://app?vid=b4f3e2c3-b646-4e1c-b01e-391ad05e0328"},"vehicle_type_id":"4","last_reported":1762715220,"current_range_meters":6000,"station_id":"","pricing_plan_id":"cebpf4jnsgd1na2vs0mg"},{"bike_id":"a12ab74b-c8b3-4fa2-8a59-ddfe5bb64df0","system_id":"levelo_inurba_marseille","lat":43.2841,"lon":5.37513,"is_reserved":false,"is_disabled":false,"rental_uris":{"android":"levelo://app?vid=a12ab74b-c8b3-4fa2-8a59-ddfe5bb64df0","ios":"levelo://app?vid=a12ab74b-c8b3-4fa2-8a59-ddfe5bb64df0"},"vehicle_type_id":"4","last_reported":1762715220,"current_range_meters":6000,"station_id":"ce4bh412rcd13ifvqds0","pricing_plan_id":"cebpf4jnsgd1na2vs0mg"},{"bike_id":"95565d88-4e0c-4b5d-b6d1-9a4c73bcb1f1","system_id":"levelo_inurba_marseille","lat":43.33755,"lon":5.37407,"is_reserved":false,"is_disabled":false,"rental_uris":{"android":"levelo://app?vid=95565d88-4e0c-4b5d-b6d1-9a4c73bcb1f1","ios":"levelo://app?vid=95565d88-4e0c-4b5d-b6d1-9a4c73bcb1f1"},"vehicle_type_id":"4","last_reported":1762715220,"current_range_meters":6000,"station_id":"","pricing_plan_id":"cebpf4jnsgd1na2vs0mg"},{"bike_id":"df352faa-2ce9-4ca5-9104-2315dcc709a5","system_id":"levelo_inurba_marseille","lat":43.298823,"lon":5.389093,"is_reserved":false,"is_disabled":false,"rental_uris":{"android":"levelo://app?vid=df352faa-2ce9-4ca5-9104-2315dcc709a5","ios":"levelo://app?vid=df352faa-2ce9-4ca5-9104-2315dcc709a5"},"vehicle_type_id":"4","last_reported":1762715220,"current_range_meters":6400,"station_id":"ce4bh392rcd13ifvqdl0","pricing_plan_id":"cebpf4jnsgd1na2vs0mg"},{"bike_id":"7bf6bc91-d593-4c49-a8ea-3bf6b510d01c","system_id":"levelo_inurba_marseille","lat":43.28733,"lon":5.39999,"is_reserved":false,"is_disabled":false,"rental_uris":{"android":"levelo://app?vid=7bf6bc91-d593-4c49-a8ea-3bf6b510d01c","ios":"levelo://app?vid=7bf6bc91-d593-4c49-a8ea-3bf6b510d01c"},"vehicle_type_id":"4","last_reported":1762715220,"current_range_meters":6400,"station_id":"ce4bho92rcd13ifvqh3g","pricing_plan_id":"cebpf4jnsgd1na2vs0mg"},{"bike_id":"382f597e-181c-4839-b1de-04339df9aa55","system_id":"levelo_inurba_marseille","lat":43.26805,"lon":5.40259,"is_reserved":false,"is_disabled":true,"rental_uris":{"android":"levelo://app?vid=382f597e-181c-4839-b1de-04339df9aa55","ios":"levelo://app?vid=382f597e-181c-4839-b1de-04339df9aa55"},"vehicle_type_id":"4","last_reported":1762715220,"current_range_meters":6400,"station_id":"ce501612rcd8frsf0b60","pricing_plan_id":"cebpf4jnsgd1na2vs0mg"},{"bike_id":"f363c5ea-b0d5-4b42-bac4-449e94bf9898","system_id":"levelo_inurba_marseille","lat":43.286591,"lon":5.386738,"is_reserved":false,"is_disabled":false,"rental_uris":{"android":"levelo://app?vid=f363c5ea-b0d5-4b42-bac4-449e94bf9898","ios":"levelo://app?vid=f363c5ea-b0d5-4b42-bac4-449e94bf9898"},"vehicle_type_id":"4","last_reported":1762715220,"current_range_meters":6400,"station_id":"","pricing_plan_id":"cebpf4jnsgd1na2vs0mg"},{"bike_id":"9f611ac1-6f6a-4437-9025-ea87f35606a4","system_id":"levelo_inurba_marseille","lat":43.2855,"lon":5.37783,"is_reserved":false,"is_disabled":false,"rental_uris":{"android":"levelo://app?vid=9f611ac1-6f6a-4437-9025-ea87f35606a4","ios":"levelo://app?vid=9f611ac1-6f6a-4437-9025-ea87f35606a4"},"vehicle_type_id":"4","last_reported":1762715220,"current_range_meters":6400,"station_id":"","pricing_plan_id":"cebpf4jnsgd1na2vs0mg"},{"bike_id":"6bdb3a33-a48d-46d4-b6ff-e6738dd53272","system_id":"levelo_inurba_marseille","lat":43.25332,"lon":5.42166,"is_reserved":false,"is_disabled":false,"rental_uris":{"android":"levelo://app?vid=6bdb3a33-a48d-46d4-b6ff-e6738dd53272","ios":"levelo://app?vid=6bdb3a33-a48d-46d4-b6ff-e6738dd53272"},"vehicle_type_id":"4","last_reported":1762715220,"current_range_meters":6400,"station_id":"st_d2m65c5bi1j21697t3ng","pricing_plan_id":"cebpf4jnsgd1na2vs0mg"},{"bike_id":"887a19c9-ace5-43d7-b87a-a7010d68320f","system_id":"levelo_inurba_marseille","lat":43.30092,"lon":5.39069,"is_reserved":false,"is_disabled":false,"rental_uris":{"android":"levelo://app?vid=887a19c9-ace5-43d7-b87a-a7010d68320f","ios":"levelo://app?vid=887a19c9-ace5-43d7-b87a-a7010d68320f"},"vehicle_type_id":"4","last_reported":1762715220,"current_range_meters":6400,"station_id":"ce4bh192rcd13ifvqdb0","pricing_plan_id":"cebpf4jnsgd1na2vs0mg"},{"bike_id":"c3d92383-a21a-4257-84a1-4edbe4f24ff9","system_id":"levelo_inurba_marseille","lat":43.26488,"lon":5.40944,"is_reserved":false,"is_disabled":false,"rental_uris":{"android":"levelo://app?vid=c3d92383-a21a-4257-84a1-4edbe4f24ff9","ios":"levelo://app?vid=c3d92383-a21a-4257-84a1-4edbe4f24ff9"},"vehicle_type_id":"4","last_reported":1762715220,"current_range_meters":6400,"station_id":"","pricing_plan_id":"cebpf4jnsgd1na2vs0mg"},{"bike_id":"e898f7d7-e625-467e-99a6-2f70094037c1","system_id":"levelo_inurba_marseille","lat":43.29185,"lon":5.39326,"is_reserved":false,"is_disabled":false,"rental_uris":{"android":"levelo://app?vid=e898f7d7-e625-467e-99a6-2f70094037c1","ios":"levelo://app?vid=e898f7d7-e625-467e-99a6-2f70094037c1"},"vehicle_type_id":"4","last_reported":1762715220,"current_range_meters":6400,"station_id":"ce4bh192rcd13ifvqdd0","pricing_plan_id":"cebpf4jnsgd1na2vs0mg"},{"bike_id":"33c55ef3-f133-4ad9-8902-78ba36612b34","system_id":"levelo_inurba_marseille","lat":43.28794,"lon":5.3584,"is_reserved":false,"is_disabled":true,"rental_uris":{"android":"levelo://app?vid=33c55ef3-f133-4ad9-8902-78ba36612b34","ios":"levelo://app?vid=33c55ef3-f133-4ad9-8902-78ba36612b34"},"vehicle_type_id":"4","last_reported":1762715220,"current_range_meters":6400,"station_id":"","pricing_plan_id":"cebpf4jnsgd1na2vs0mg"},{"bike_id":"83cc8866-925e-4014-92dc-88ca79f35a44","system_id":"levelo_inurba_marseille","lat":43.280328,"lon":5.387194,"is_reserved":false,"is_disabled":false,"rental_uris":{"android":"levelo://app?vid=83cc8866-925e-4014-92dc-88ca79f35a44","ios":"levelo://app?vid=83cc8866-925e-4014-92dc-88ca79f35a44"},"vehicle_type_id":"4","last_reported":1762715220,"current_range_meters":6800,"station_id":"ce4bhu92rcd13ifvqi70","pricing_plan_id":"cebpf4jnsgd1na2vs0mg"},{"bike_id":"d510b29d-06c6-4a67-8cee-2182097a14e2","system_id":"levelo_inurba_marseille","lat":43.29262,"lon":5.37608,"is_reserved":false,"is_disabled":true,"rental_uris":{"android":"levelo://app?vid=d510b29d-06c6-4a67-8cee-2182097a14e2","ios":"levelo://app?vid=d510b29d-06c6-4a67-8cee-2182097a14e2"},"vehicle_type_id":"4","last_reported":1762715220,"current_range_meters":6800,"station_id":"ce4bgi12rcd13ifvqb80","pricing_plan_id":"cebpf4jnsgd1na2vs0mg"},{"bike_id":"cd36fb7c-4385-47bd-96a8-f8889a6e3476","system_id":"levelo_inurba_marseille","lat":43.2989,"lon":5.43652,"is_reserved":false,"is_disabled":false,"rental_uris":{"android":"levelo://app?vid=cd36fb7c-4385-47bd-96a8-f8889a6e3476","ios":"levelo://app?vid=cd36fb7c-4385-47bd-96a8-f8889a6e3476"},"vehicle_type_id":"4","last_reported":1762715220,"current_range_meters":6800,"station_id":"ce4bhpp2rcd13ifvqhfg","pricing_plan_id":"cebpf4jnsgd1na2vs0mg"},{"bike_id":"321d43c2-a97c-419e-a110-a172b4ee23e9","system_id":"levelo_inurba_marseille","lat":43.2616,"lon":5.41784,"is_reserved":false,"is_disabled":false,"rental_uris":{"android":"levelo://app?vid=321d43c2-a97c-419e-a110-a172b4ee23e9","ios":"levelo://app?vid=321d43c2-a97c-419e-a110-a172b4ee23e9"},"vehicle_type_id":"4","last_reported":1762715220,"current_range_meters":6800,"station_id":"","pricing_plan_id":"cebpf4jnsgd1na2vs0mg"},{"bike_id":"59736966-d2af-4cbc-8ac5-e955aeb2f190","system_id":"levelo_inurba_marseille","lat":43.28869,"lon":5.42511,"is_reserved":false,"is_disabled":false,"rental_uris":{"android":"levelo://app?vid=59736966-d2af-4cbc-8ac5-e955aeb2f190","ios":"levelo://app?vid=59736966-d2af-4cbc-8ac5-e955aeb2f190"},"vehicle_type_id":"4","last_reported":1762715220,"current_range_meters":6800,"station_id":"st_d3b462108ojc7389ooeg","pricing_plan_id":"cebpf4jnsgd1na2vs0mg"},{"bike_id":"3b294fa9-3f9f-4381-a2a8-e3592d375a68","system_id":"levelo_inurba_marseille","lat":43.26706,"lon":5.39692,"is_reserved":false,"is_disabled":false,"rental_uris":{"android":"levelo://app?vid=3b294fa9-3f9f-4381-a2a8-e3592d375a68","ios":"levelo://app?vid=3b294fa9-3f9f-4381-a2a8-e3592d375a68"},"vehicle_type_id":"4","last_reported":1762715220,"current_range_meters":6800,"station_id":"","pricing_plan_id":"cebpf4jnsgd1na2vs0mg"},{"bike_id":"910cc3ae-7ba4-48e5-a244-931e2df10a06","system_id":"levelo_inurba_marseille","lat":43.27097,"lon":5.3923,"is_reserved":false,"is_disabled":false,"rental_uris":{"android":"levelo://app?vid=910cc3ae-7ba4-48e5-a244-931e2df10a06","ios":"levelo://app?vid=910cc3ae-7ba4-48e5-a244-931e2df10a06"},"vehicle_type_id":"4","last_reported":1762715220,"current_range_meters":6800,"station_id":"","pricing_plan_id":"cebpf4jnsgd1na2vs0mg"},{"bike_id":"71797dc3-6552-442e-8fa4-5fb49456e8bb","system_id":"levelo_inurba_marseille","lat":43.30303,"lon":5.39206,"is_reserved":false,"is_disabled":true,"rental_uris":{"android":"levelo://app?vid=71797dc3-6552-442e-8fa4-5fb49456e8bb","ios":"levelo://app?vid=71797dc3-6552-442e-8fa4-5fb49456e8bb"},"vehicle_type_id":"4","last_reported":1762715220,"current_range_meters":7200,"station_id":"ce4bgkh2rcd13ifvqbk0","pricing_plan_id":"cebpf4jnsgd1na2vs0mg"},{"bike_id":"dce6c1e6-7f1a-4c82-96b4-8ba2a1930222","system_id":"levelo_inurba_marseille","lat":43.28325,"lon":5.39978,"is_reserved":false,"is_disabled":false,"rental_uris":{"android":"levelo://app?vid=dce6c1e6-7f1a-4c82-96b4-8ba2a1930222","ios":"levelo://app?vid=dce6c1e6-7f1a-4c82-96b4-8ba2a1930222"},"vehicle_type_id":"4","last_reported":1762715220,"current_range_meters":7200,"station_id":"","pricing_plan_id":"cebpf4jnsgd1na2vs0mg"},{"bike_id":"a98eb5f7-2b78-4fcd-8cc1-f9604b535f51","system_id":"levelo_inurba_marseille","lat":43.30201,"lon":5.39465,"is_reserved":false,"is_disabled":true,"rental_uris":{"android":"levelo://app?vid=a98eb5f7-2b78-4fcd-8cc1-f9604b535f51","ios":"levelo://app?vid=a98eb5f7-2b78-4fcd-8cc1-f9604b535f51"},"vehicle_type_id":"4","last_reported":1762715220,"current_range_meters":7200,"station_id":"ce4bh0p2rcd13ifvqd70","pricing_plan_id":"cebpf4jnsgd1na2vs0mg"},{"bike_id":"76fac608-1184-49da-941d-7da5b297ff5f","system_id":"levelo_inurba_marseille","lat":43.22533,"lon":5.348348,"is_reserved":false,"is_disabled":false,"rental_uris":{"android":"levelo://app?vid=76fac608-1184-49da-941d-7da5b297ff5f","ios":"levelo://app?vid=76fac608-1184-49da-941d-7da5b297ff5f"},"vehicle_type_id":"4","last_reported":1762715220,"current_range_meters":7200,"station_id":"","pricing_plan_id":"cebpf4jnsgd1na2vs0mg"},{"bike_id":"22ea6527-1b4f-4381-9f81-bf2a895d0734","system_id":"levelo_inurba_marseille","lat":43.26233,"lon":5.40461,"is_reserved":false,"is_disabled":false,"rental_uris":{"android":"levelo://app?vid=22ea6527-1b4f-4381-9f81-bf2a895d0734","ios":"levelo://app?vid=22ea6527-1b4f-4381-9f81-bf2a895d0734"},"vehicle_type_id":"4","last_reported":1762715220,"current_range_meters":8000,"station_id":"ce4bhmh2rcd13ifvqgmg","pricing_plan_id":"cebpf4jnsgd1na2vs0mg"},{"bike_id":"442762ec-c63e-401d-b6f3-9f05023e1085","system_id":"levelo_inurba_marseille","lat":43.29844,"lon":5.36276,"is_reserved":false,"is_disabled":false,"rental_uris":{"android":"levelo://app?vid=442762ec-c63e-401d-b6f3-9f05023e1085","ios":"levelo://app?vid=442762ec-c63e-401d-b6f3-9f05023e1085"},"vehicle_type_id":"4","last_reported":1762715220,"current_range_meters":8000,"station_id":"ce4bgpp2rcd13ifvqc3g","pricing_plan_id":"cebpf4jnsgd1na2vs0mg"},{"bike_id":"f37d4b8e-aa42-4cfe-ad96-12a778fb2f49","system_id":"levelo_inurba_marseille","lat":43.30147,"lon":5.38092,"is_reserved":false,"is_disabled":false,"rental_uris":{"android":"levelo://app?vid=f37d4b8e-aa42-4cfe-ad96-12a778fb2f49","ios":"levelo://app?vid=f37d4b8e-aa42-4cfe-ad96-12a778fb2f49"},"vehicle_type_id":"4","last_reported":1762715220,"current_range_meters":8000,"station_id":"ce4bgjp2rcd13ifvqbh0","pricing_plan_id":"cebpf4jnsgd1na2vs0mg"},{"bike_id":"eebc5784-c52f-4fc2-8365-58506d90e59c","system_id":"levelo_inurba_marseille","lat":43.29955,"lon":5.37217,"is_reserved":false,"is_disabled":false,"rental_uris":{"android":"levelo://app?vid=eebc5784-c52f-4fc2-8365-58506d90e59c","ios":"levelo://app?vid=eebc5784-c52f-4fc2-8365-58506d90e59c"},"vehicle_type_id":"4","last_reported":1762715220,"current_range_meters":8000,"station_id":"ce4bgr92rcd13ifvqc7g","pricing_plan_id":"cebpf4jnsgd1na2vs0mg"},{"bike_id":"d58162db-574a-44f0-b573-b59c9312a09d","system_id":"levelo_inurba_marseille","lat":43.28275,"lon":5.35058,"is_reserved":false,"is_disabled":true,"rental_uris":{"android":"levelo://app?vid=d58162db-574a-44f0-b573-b59c9312a09d","ios":"levelo://app?vid=d58162db-574a-44f0-b573-b59c9312a09d"},"vehicle_type_id":"4","last_reported":1762715220,"current_range_meters":8000,"station_id":"ce4bhbp2rcd13ifvqerg","pricing_plan_id":"cebpf4jnsgd1na2vs0mg"},{"bike_id":"32b63ec1-dcb6-4225-b2b3-43dbc67504f6","system_id":"levelo_inurba_marseille","lat":43.295306,"lon":5.385386,"is_reserved":false,"is_disabled":false,"rental_uris":{"android":"levelo://app?vid=32b63ec1-dcb6-4225-b2b3-43dbc67504f6","ios":"levelo://app?vid=32b63ec1-dcb6-4225-b2b3-43dbc67504f6"},"vehicle_type_id":"4","last_reported":1762715220,"current_range_meters":8000,"station_id":"ce4bgih2rcd13ifvqba0","pricing_plan_id":"cebpf4jnsgd1na2vs0mg"},{"bike_id":"f3d248a3-b0bc-455d-971f-11b5195ed1a4","system_id":"levelo_inurba_marseille","lat":43.31272,"lon":5.40171,"is_reserved":false,"is_disabled":false,"rental_uris":{"android":"levelo://app?vid=f3d248a3-b0bc-455d-971f-11b5195ed1a4","ios":"levelo://app?vid=f3d248a3-b0bc-455d-971f-11b5195ed1a4"},"vehicle_type_id":"4","last_reported":1762715220,"current_range_meters":8000,"station_id":"ce4bh092rcd13ifvqd30","pricing_plan_id":"cebpf4jnsgd1na2vs0mg"},{"bike_id":"3bda8a2f-5c54-4676-8e67-eadbed4fe6b4","system_id":"levelo_inurba_marseille","lat":43.31481,"lon":5.37305,"is_reserved":false,"is_disabled":false,"rental_uris":{"android":"levelo://app?vid=3bda8a2f-5c54-4676-8e67-eadbed4fe6b4","ios":"levelo://app?vid=3bda8a2f-5c54-4676-8e67-eadbed4fe6b4"},"vehicle_type_id":"4","last_reported":1762715220,"current_range_meters":8000,"station_id":"ce4bgt12rcd13ifvqcd0","pricing_plan_id":"cebpf4jnsgd1na2vs0mg"},{"bike_id":"870a9ad1-db35-4ab0-bc9a-84476efc6571","system_id":"levelo_inurba_marseille","lat":43.3279,"lon":5.42643,"is_reserved":false,"is_disabled":false,"rental_uris":{"android":"levelo://app?vid=870a9ad1-db35-4ab0-bc9a-84476efc6571","ios":"levelo://app?vid=870a9ad1-db35-4ab0-bc9a-84476efc6571"},"vehicle_type_id":"4","last_reported":1762715220,"current_range_meters":8000,"station_id":"","pricing_plan_id":"cebpf4jnsgd1na2vs0mg"},{"bike_id":"d2991a60-dcfa-4252-8f9d-bfff4b1dc433","system_id":"levelo_inurba_marseille","lat":43.31071,"lon":5.37099,"is_reserved":false,"is_disabled":false,"rental_uris":{"android":"levelo://app?vid=d2991a60-dcfa-4252-8f9d-bfff4b1dc433","ios":"levelo://app?vid=d2991a60-dcfa-4252-8f9d-bfff4b1dc433"},"vehicle_type_id":"4","last_reported":1762715220,"current_range_meters":8000,"station_id":"","pricing_plan_id":"cebpf4jnsgd1na2vs0mg"},{"bike_id":"ee8a6f5b-ead0-4b3d-9578-f41b331671c4","system_id":"levelo_inurba_marseille","lat":43.29527,"lon":5.37503,"is_reserved":false,"is_disabled":false,"rental_uris":{"android":"levelo://app?vid=ee8a6f5b-ead0-4b3d-9578-f41b331671c4","ios":"levelo://app?vid=ee8a6f5b-ead0-4b3d-9578-f41b331671c4"},"vehicle_type_id":"4","last_reported":1762715220,"current_range_meters":8000,"station_id":"ce4bgkp2rcd13ifvqbmg","pricing_plan_id":"cebpf4jnsgd1na2vs0mg"},{"bike_id":"b0c85de4-4949-440b-9fc8-d237b1e9634a","system_id":"levelo_inurba_marseille","lat":43.29248,"lon":5.3844,"is_reserved":false,"is_disabled":false,"rental_uris":{"android":"levelo://app?vid=b0c85de4-4949-440b-9fc8-d237b1e9634a","ios":"levelo://app?vid=b0c85de4-4949-440b-9fc8-d237b1e9634a"},"vehicle_type_id":"4","last_reported":1762715220,"current_range_meters":8000,"station_id":"ce4bh692rcd13ifvqea0","pricing_plan_id":"cebpf4jnsgd1na2vs0mg"},{"bike_id":"e450deb8-309d-4937-82fe-392d05b86b2f","system_id":"levelo_inurba_marseille","lat":43.29872,"lon":5.39709,"is_reserved":false,"is_disabled":false,"rental_uris":{"android":"levelo://app?vid=e450deb8-309d-4937-82fe-392d05b86b2f","ios":"levelo://app?vid=e450deb8-309d-4937-82fe-392d05b86b2f"},"vehicle_type_id":"4","last_reported":1762715220,"current_range_meters":8400,"station_id":"ce4bh0h2rcd13ifvqd50","pricing_plan_id":"cebpf4jnsgd1na2vs0mg"},{"bike_id":"825a1957-d327-49da-97b3-2485c79c40e7","system_id":"levelo_inurba_marseille","lat":43.21749,"lon":5.34604,"is_reserved":false,"is_disabled":true,"rental_uris":{"android":"levelo://app?vid=825a1957-d327-49da-97b3-2485c79c40e7","ios":"levelo://app?vid=825a1957-d327-49da-97b3-2485c79c40e7"},"vehicle_type_id":"4","last_reported":1762715220,"current_range_meters":8400,"station_id":"st_cvj6r9ubvosntc0bgbag","pricing_plan_id":"cebpf4jnsgd1na2vs0mg"},{"bike_id":"53ca8b77-f904-4e8a-b112-59c12a9cf69b","system_id":"levelo_inurba_marseille","lat":43.29188,"lon":5.38593,"is_reserved":false,"is_disabled":false,"rental_uris":{"android":"levelo://app?vid=53ca8b77-f904-4e8a-b112-59c12a9cf69b","ios":"levelo://app?vid=53ca8b77-f904-4e8a-b112-59c12a9cf69b"},"vehicle_type_id":"4","last_reported":1762715220,"current_range_meters":8400,"station_id":"","pricing_plan_id":"cebpf4jnsgd1na2vs0mg"},{"bike_id":"b64cebd6-5396-4a6d-ab87-c6f1865bf5b4","system_id":"levelo_inurba_marseille","lat":43.29265,"lon":5.3844,"is_reserved":false,"is_disabled":false,"rental_uris":{"android":"levelo://app?vid=b64cebd6-5396-4a6d-ab87-c6f1865bf5b4","ios":"levelo://app?vid=b64cebd6-5396-4a6d-ab87-c6f1865bf5b4"},"vehicle_type_id":"4","last_reported":1762715220,"current_range_meters":8400,"station_id":"ce4bh692rcd13ifvqea0","pricing_plan_id":"cebpf4jnsgd1na2vs0mg"},{"bike_id":"7dc066f6-86cb-461a-a166-46e87c5236cf","system_id":"levelo_inurba_marseille","lat":43.29039,"lon":5.3757,"is_reserved":false,"is_disabled":false,"rental_uris":{"android":"levelo://app?vid=7dc066f6-86cb-461a-a166-46e87c5236cf","ios":"levelo://app?vid=7dc066f6-86cb-461a-a166-46e87c5236cf"},"vehicle_type_id":"4","last_reported":1762715220,"current_range_meters":8800,"station_id":"ce4bh692rcd13ifvqe90","pricing_plan_id":"cebpf4jnsgd1na2vs0mg"},{"bike_id":"13bfdce1-4031-483a-8bcf-efe3f207320a","system_id":"levelo_inurba_marseille","lat":43.27945,"lon":5.4106,"is_reserved":false,"is_disabled":false,"rental_uris":{"android":"levelo://app?vid=13bfdce1-4031-483a-8bcf-efe3f207320a","ios":"levelo://app?vid=13bfdce1-4031-483a-8bcf-efe3f207320a"},"vehicle_type_id":"4","last_reported":1762715220,"current_range_meters":8800,"station_id":"ce4bhnp2rcd13ifvqh0g","pricing_plan_id":"cebpf4jnsgd1na2vs0mg"},{"bike_id":"896c40fe-c4e1-425f-8e49-201dadbdb19d","system_id":"levelo_inurba_marseille","lat":43.29093,"lon":5.3813,"is_reserved":false,"is_disabled":false,"rental_uris":{"android":"levelo://app?vid=896c40fe-c4e1-425f-8e49-201dadbdb19d","ios":"levelo://app?vid=896c40fe-c4e1-425f-8e49-201dadbdb19d"},"vehicle_type_id":"4","last_reported":1762715220,"current_range_meters":8800,"station_id":"ce4bh512rcd13ifvqe2g","pricing_plan_id":"cebpf4jnsgd1na2vs0mg"},{"bike_id":"4f7db020-266e-46ac-ab4d-30611e12645e","system_id":"levelo_inurba_marseille","lat":43.28705,"lon":5.37392,"is_reserved":false,"is_disabled":false,"rental_uris":{"android":"levelo://app?vid=4f7db020-266e-46ac-ab4d-30611e12645e","ios":"levelo://app?vid=4f7db020-266e-46ac-ab4d-30611e12645e"},"vehicle_type_id":"4","last_reported":1762715220,"current_range_meters":8800,"station_id":"ce4bh3p2rcd13ifvqdq0","pricing_plan_id":"cebpf4jnsgd1na2vs0mg"},{"bike_id":"fec91c3a-85e6-40ff-973e-d2a33b3b293e","system_id":"levelo_inurba_marseille","lat":43.24953,"lon":5.40492,"is_reserved":false,"is_disabled":false,"rental_uris":{"android":"levelo://app?vid=fec91c3a-85e6-40ff-973e-d2a33b3b293e","ios":"levelo://app?vid=fec91c3a-85e6-40ff-973e-d2a33b3b293e"},"vehicle_type_id":"4","last_reported":1762715220,"current_range_meters":8800,"station_id":"st_d2ngiaodas8pm72gd1h0","pricing_plan_id":"cebpf4jnsgd1na2vs0mg"},{"bike_id":"6e516340-9641-4325-9cd8-46780776c1ed","system_id":"levelo_inurba_marseille","lat":43.30561,"lon":5.36725,"is_reserved":false,"is_disabled":true,"rental_uris":{"android":"levelo://app?vid=6e516340-9641-4325-9cd8-46780776c1ed","ios":"levelo://app?vid=6e516340-9641-4325-9cd8-46780776c1ed"},"vehicle_type_id":"4","last_reported":1762715220,"current_range_meters":8800,"station_id":"ce4bgrp2rcd13ifvqc9g","pricing_plan_id":"cebpf4jnsgd1na2vs0mg"},{"bike_id":"ae7d26d8-fc4b-44bf-a212-2922d1680c4e","system_id":"levelo_inurba_marseille","lat":43.2926,"lon":5.38448,"is_reserved":false,"is_disabled":false,"rental_uris":{"android":"levelo://app?vid=ae7d26d8-fc4b-44bf-a212-2922d1680c4e","ios":"levelo://app?vid=ae7d26d8-fc4b-44bf-a212-2922d1680c4e"},"vehicle_type_id":"4","last_reported":1762715220,"current_range_meters":8800,"station_id":"ce4bh692rcd13ifvqea0","pricing_plan_id":"cebpf4jnsgd1na2vs0mg"},{"bike_id":"cf673477-a61f-4da4-8a76-fe54343e980e","system_id":"levelo_inurba_marseille","lat":43.30795,"lon":5.43514,"is_reserved":false,"is_disabled":true,"rental_uris":{"android":"levelo://app?vid=cf673477-a61f-4da4-8a76-fe54343e980e","ios":"levelo://app?vid=cf673477-a61f-4da4-8a76-fe54343e980e"},"vehicle_type_id":"4","last_reported":1762715220,"current_range_meters":8800,"station_id":"","pricing_plan_id":"cebpf4jnsgd1na2vs0mg"},{"bike_id":"c1a8951c-0b8b-4e04-9556-ddc347871e56","system_id":"levelo_inurba_marseille","lat":43.3361,"lon":5.35461,"is_reserved":false,"is_disabled":false,"rental_uris":{"android":"levelo://app?vid=c1a8951c-0b8b-4e04-9556-ddc347871e56","ios":"levelo://app?vid=c1a8951c-0b8b-4e04-9556-ddc347871e56"},"vehicle_type_id":"4","last_reported":1762715220,"current_range_meters":8800,"station_id":"","pricing_plan_id":"cebpf4jnsgd1na2vs0mg"},{"bike_id":"2d40df95-0ed4-4d72-8506-f0747e37b79c","system_id":"levelo_inurba_marseille","lat":43.26506,"lon":5.3953,"is_reserved":false,"is_disabled":false,"rental_uris":{"android":"levelo://app?vid=2d40df95-0ed4-4d72-8506-f0747e37b79c","ios":"levelo://app?vid=2d40df95-0ed4-4d72-8506-f0747e37b79c"},"vehicle_type_id":"4","last_reported":1762715220,"current_range_meters":8800,"station_id":"ce4bhi12rcd13ifvqfq0","pricing_plan_id":"cebpf4jnsgd1na2vs0mg"},{"bike_id":"2ef34e31-d328-489d-9ccb-aa759213a5fa","system_id":"levelo_inurba_marseille","lat":43.2952,"lon":5.39046,"is_reserved":false,"is_disabled":false,"rental_uris":{"android":"levelo://app?vid=2ef34e31-d328-489d-9ccb-aa759213a5fa","ios":"levelo://app?vid=2ef34e31-d328-489d-9ccb-aa759213a5fa"},"vehicle_type_id":"4","last_reported":1762715220,"current_range_meters":8800,"station_id":"ce4bh3p2rcd13ifvqdp0","pricing_plan_id":"cebpf4jnsgd1na2vs0mg"},{"bike_id":"6fb9aaeb-fd54-4120-8c7f-cb19a69f6629","system_id":"levelo_inurba_marseille","lat":43.23559,"lon":5.37414,"is_reserved":false,"is_disabled":false,"rental_uris":{"android":"levelo://app?vid=6fb9aaeb-fd54-4120-8c7f-cb19a69f6629","ios":"levelo://app?vid=6fb9aaeb-fd54-4120-8c7f-cb19a69f6629"},"vehicle_type_id":"4","last_reported":1762715220,"current_range_meters":9200,"station_id":"","pricing_plan_id":"cebpf4jnsgd1na2vs0mg"},{"bike_id":"15db09df-59b0-446a-87c5-e354a3319258","system_id":"levelo_inurba_marseille","lat":43.28483,"lon":5.4839,"is_reserved":false,"is_disabled":false,"rental_uris":{"android":"levelo://app?vid=15db09df-59b0-446a-87c5-e354a3319258","ios":"levelo://app?vid=15db09df-59b0-446a-87c5-e354a3319258"},"vehicle_type_id":"4","last_reported":1762715220,"current_range_meters":9200,"station_id":"","pricing_plan_id":"cebpf4jnsgd1na2vs0mg"},{"bike_id":"4e46764b-172e-4219-94b9-7bd84d6dcb0b","system_id":"levelo_inurba_marseille","lat":43.28564,"lon":5.39483,"is_reserved":false,"is_disabled":false,"rental_uris":{"android":"levelo://app?vid=4e46764b-172e-4219-94b9-7bd84d6dcb0b","ios":"levelo://app?vid=4e46764b-172e-4219-94b9-7bd84d6dcb0b"},"vehicle_type_id":"4","last_reported":1762715220,"current_range_meters":9200,"station_id":"ce4bh292rcd13ifvqdg0","pricing_plan_id":"cebpf4jnsgd1na2vs0mg"},{"bike_id":"f47ec199-1317-4e40-a550-9c8108dad808","system_id":"levelo_inurba_marseille","lat":43.27967,"lon":5.43618,"is_reserved":false,"is_disabled":false,"rental_uris":{"android":"levelo://app?vid=f47ec199-1317-4e40-a550-9c8108dad808","ios":"levelo://app?vid=f47ec199-1317-4e40-a550-9c8108dad808"},"vehicle_type_id":"4","last_reported":1762715220,"current_range_meters":9200,"station_id":"","pricing_plan_id":"cebpf4jnsgd1na2vs0mg"},{"bike_id":"e4d3b7cf-657b-4e9c-b7d4-254357ebc4f2","system_id":"levelo_inurba_marseille","lat":43.28934,"lon":5.38386,"is_reserved":false,"is_disabled":false,"rental_uris":{"android":"levelo://app?vid=e4d3b7cf-657b-4e9c-b7d4-254357ebc4f2","ios":"levelo://app?vid=e4d3b7cf-657b-4e9c-b7d4-254357ebc4f2"},"vehicle_type_id":"4","last_reported":1762715220,"current_range_meters":9200,"station_id":"ce4bh612rcd13ifvqe6g","pricing_plan_id":"cebpf4jnsgd1na2vs0mg"},{"bike_id":"21dcb4e2-bef4-415f-aa59-cd0b9e2cb07b","system_id":"levelo_inurba_marseille","lat":43.22836,"lon":5.43498,"is_reserved":false,"is_disabled":false,"rental_uris":{"android":"levelo://app?vid=21dcb4e2-bef4-415f-aa59-cd0b9e2cb07b","ios":"levelo://app?vid=21dcb4e2-bef4-415f-aa59-cd0b9e2cb07b"},"vehicle_type_id":"4","last_reported":1762715220,"current_range_meters":9200,"station_id":"","pricing_plan_id":"cebpf4jnsgd1na2vs0mg"},{"bike_id":"9b54ead1-ca6b-4a0d-8cc9-a299e8f5378f","system_id":"levelo_inurba_marseille","lat":43.25334,"lon":5.42172,"is_reserved":false,"is_disabled":false,"rental_uris":{"android":"levelo://app?vid=9b54ead1-ca6b-4a0d-8cc9-a299e8f5378f","ios":"levelo://app?vid=9b54ead1-ca6b-4a0d-8cc9-a299e8f5378f"},"vehicle_type_id":"4","last_reported":1762715220,"current_range_meters":9600,"station_id":"st_d2m65c5bi1j21697t3ng","pricing_plan_id":"cebpf4jnsgd1na2vs0mg"},{"bike_id":"d32acf6f-21aa-4fbf-bed6-33d296ca0f9f","system_id":"levelo_inurba_marseille","lat":43.21747,"lon":5.34598,"is_reserved":false,"is_disabled":true,"rental_uris":{"android":"levelo://app?vid=d32acf6f-21aa-4fbf-bed6-33d296ca0f9f","ios":"levelo://app?vid=d32acf6f-21aa-4fbf-bed6-33d296ca0f9f"},"vehicle_type_id":"4","last_reported":1762715220,"current_range_meters":9600,"station_id":"st_cvj6r9ubvosntc0bgbag","pricing_plan_id":"cebpf4jnsgd1na2vs0mg"},{"bike_id":"3dd9af7e-5414-441c-9884-e5acf3f1e97c","system_id":"levelo_inurba_marseille","lat":43.30327,"lon":5.40443,"is_reserved":false,"is_disabled":false,"rental_uris":{"android":"levelo://app?vid=3dd9af7e-5414-441c-9884-e5acf3f1e97c","ios":"levelo://app?vid=3dd9af7e-5414-441c-9884-e5acf3f1e97c"},"vehicle_type_id":"4","last_reported":1762715220,"current_range_meters":10000,"station_id":"ce4bh012rcd13ifvqd10","pricing_plan_id":"cebpf4jnsgd1na2vs0mg"},{"bike_id":"3c6ac483-c31e-4f0d-b45d-e64d2207e4f3","system_id":"levelo_inurba_marseille","lat":43.246609,"lon":5.381587,"is_reserved":false,"is_disabled":false,"rental_uris":{"android":"levelo://app?vid=3c6ac483-c31e-4f0d-b45d-e64d2207e4f3","ios":"levelo://app?vid=3c6ac483-c31e-4f0d-b45d-e64d2207e4f3"},"vehicle_type_id":"4","last_reported":1762715220,"current_range_meters":10000,"station_id":"","pricing_plan_id":"cebpf4jnsgd1na2vs0mg"},{"bike_id":"a295ba32-0f8c-4040-97e9-6718d320f978","system_id":"levelo_inurba_marseille","lat":43.225311,"lon":5.348363,"is_reserved":false,"is_disabled":false,"rental_uris":{"android":"levelo://app?vid=a295ba32-0f8c-4040-97e9-6718d320f978","ios":"levelo://app?vid=a295ba32-0f8c-4040-97e9-6718d320f978"},"vehicle_type_id":"4","last_reported":1762715220,"current_range_meters":10000,"station_id":"","pricing_plan_id":"cebpf4jnsgd1na2vs0mg"},{"bike_id":"70d9c20f-602a-46ec-8f7f-3d4f9ec60b0d","system_id":"levelo_inurba_marseille","lat":43.28706,"lon":5.39974,"is_reserved":false,"is_disabled":false,"rental_uris":{"android":"levelo://app?vid=70d9c20f-602a-46ec-8f7f-3d4f9ec60b0d","ios":"levelo://app?vid=70d9c20f-602a-46ec-8f7f-3d4f9ec60b0d"},"vehicle_type_id":"4","last_reported":1762715220,"current_range_meters":10000,"station_id":"ce4bho92rcd13ifvqh3g","pricing_plan_id":"cebpf4jnsgd1na2vs0mg"},{"bike_id":"b00160e5-0f1e-4247-8e30-db8a28ff00c2","system_id":"levelo_inurba_marseille","lat":43.27057,"lon":5.40254,"is_reserved":false,"is_disabled":false,"rental_uris":{"android":"levelo://app?vid=b00160e5-0f1e-4247-8e30-db8a28ff00c2","ios":"levelo://app?vid=b00160e5-0f1e-4247-8e30-db8a28ff00c2"},"vehicle_type_id":"4","last_reported":1762715220,"current_range_meters":10000,"station_id":"ce4bhk92rcd13ifvqgc0","pricing_plan_id":"cebpf4jnsgd1na2vs0mg"},{"bike_id":"964837e4-8d0a-48d8-914d-6fb3ee8bed6e","system_id":"levelo_inurba_marseille","lat":43.29522,"lon":5.39038,"is_reserved":false,"is_disabled":false,"rental_uris":{"android":"levelo://app?vid=964837e4-8d0a-48d8-914d-6fb3ee8bed6e","ios":"levelo://app?vid=964837e4-8d0a-48d8-914d-6fb3ee8bed6e"},"vehicle_type_id":"4","last_reported":1762715220,"current_range_meters":10000,"station_id":"ce4bh3p2rcd13ifvqdp0","pricing_plan_id":"cebpf4jnsgd1na2vs0mg"},{"bike_id":"36d97ac2-08a1-4df2-be3f-3b061581104b","system_id":"levelo_inurba_marseille","lat":43.27174,"lon":5.40996,"is_reserved":false,"is_disabled":false,"rental_uris":{"android":"levelo://app?vid=36d97ac2-08a1-4df2-be3f-3b061581104b","ios":"levelo://app?vid=36d97ac2-08a1-4df2-be3f-3b061581104b"},"vehicle_type_id":"4","last_reported":1762715220,"current_range_meters":10000,"station_id":"ce4bhl12rcd13ifvqgf0","pricing_plan_id":"cebpf4jnsgd1na2vs0mg"},{"bike_id":"35ed8210-e075-48c9-bd28-fe22f73453bc","system_id":"levelo_inurba_marseille","lat":43.26034,"lon":5.41734,"is_reserved":false,"is_disabled":false,"rental_uris":{"android":"levelo://app?vid=35ed8210-e075-48c9-bd28-fe22f73453bc","ios":"levelo://app?vid=35ed8210-e075-48c9-bd28-fe22f73453bc"},"vehicle_type_id":"4","last_reported":1762715220,"current_range_meters":10000,"station_id":"","pricing_plan_id":"cebpf4jnsgd1na2vs0mg"},{"bike_id":"4726d70b-2f50-4f35-9ebc-f59d6b02f224","system_id":"levelo_inurba_marseille","lat":43.29017,"lon":5.38132,"is_reserved":false,"is_disabled":false,"rental_uris":{"android":"levelo://app?vid=4726d70b-2f50-4f35-9ebc-f59d6b02f224","ios":"levelo://app?vid=4726d70b-2f50-4f35-9ebc-f59d6b02f224"},"vehicle_type_id":"4","last_reported":1762715220,"current_range_meters":10800,"station_id":"ce4bh4p2rcd13ifvqe1g","pricing_plan_id":"cebpf4jnsgd1na2vs0mg"},{"bike_id":"317822ad-eebe-4d49-be47-de3738a7f974","system_id":"levelo_inurba_marseille","lat":43.33149,"lon":5.3771,"is_reserved":false,"is_disabled":false,"rental_uris":{"android":"levelo://app?vid=317822ad-eebe-4d49-be47-de3738a7f974","ios":"levelo://app?vid=317822ad-eebe-4d49-be47-de3738a7f974"},"vehicle_type_id":"4","last_reported":1762715220,"current_range_meters":10800,"station_id":"st_d46cu089ee8s73dldbu0","pricing_plan_id":"cebpf4jnsgd1na2vs0mg"},{"bike_id":"596188eb-72db-49b8-ad39-95c154941fc6","system_id":"levelo_inurba_marseille","lat":43.29975,"lon":5.38517,"is_reserved":false,"is_disabled":false,"rental_uris":{"android":"levelo://app?vid=596188eb-72db-49b8-ad39-95c154941fc6","ios":"levelo://app?vid=596188eb-72db-49b8-ad39-95c154941fc6"},"vehicle_type_id":"4","last_reported":1762715220,"current_range_meters":10800,"station_id":"ce4bgj92rcd13ifvqbd0","pricing_plan_id":"cebpf4jnsgd1na2vs0mg"},{"bike_id":"885f8f49-9773-4335-851d-81f7654baeeb","system_id":"levelo_inurba_marseille","lat":43.25337,"lon":5.42175,"is_reserved":false,"is_disabled":false,"rental_uris":{"android":"levelo://app?vid=885f8f49-9773-4335-851d-81f7654baeeb","ios":"levelo://app?vid=885f8f49-9773-4335-851d-81f7654baeeb"},"vehicle_type_id":"4","last_reported":1762715220,"current_range_meters":10800,"station_id":"st_d2m65c5bi1j21697t3ng","pricing_plan_id":"cebpf4jnsgd1na2vs0mg"},{"bike_id":"06b572d6-d95a-4f1a-9a9a-b316897ad6d5","system_id":"levelo_inurba_marseille","lat":43.29545,"lon":5.3752,"is_reserved":false,"is_disabled":false,"rental_uris":{"android":"levelo://app?vid=06b572d6-d95a-4f1a-9a9a-b316897ad6d5","ios":"levelo://app?vid=06b572d6-d95a-4f1a-9a9a-b316897ad6d5"},"vehicle_type_id":"4","last_reported":1762715220,"current_range_meters":10800,"station_id":"ce4bgkp2rcd13ifvqbmg","pricing_plan_id":"cebpf4jnsgd1na2vs0mg"},{"bike_id":"bcb7664a-39c2-46f8-930f-41cebd3d0b86","system_id":"levelo_inurba_marseille","lat":43.21191,"lon":5.35074,"is_reserved":false,"is_disabled":true,"rental_uris":{"android":"levelo://app?vid=bcb7664a-39c2-46f8-930f-41cebd3d0b86","ios":"levelo://app?vid=bcb7664a-39c2-46f8-930f-41cebd3d0b86"},"vehicle_type_id":"4","last_reported":1762715220,"current_range_meters":10800,"station_id":"st_cvj6sg6p6f1abm77japg","pricing_plan_id":"cebpf4jnsgd1na2vs0mg"},{"bike_id":"ac1012d0-7872-4c6e-85e6-fc8eaff39396","system_id":"levelo_inurba_marseille","lat":43.28459,"lon":5.3589,"is_reserved":false,"is_disabled":true,"rental_uris":{"android":"levelo://app?vid=ac1012d0-7872-4c6e-85e6-fc8eaff39396","ios":"levelo://app?vid=ac1012d0-7872-4c6e-85e6-fc8eaff39396"},"vehicle_type_id":"4","last_reported":1762715220,"current_range_meters":10800,"station_id":"ce4bhah2rcd13ifvqei0","pricing_plan_id":"cebpf4jnsgd1na2vs0mg"},{"bike_id":"f8b94d25-64d9-4fa4-8eb0-62cfd4b2af8b","system_id":"levelo_inurba_marseille","lat":43.3059,"lon":5.39345,"is_reserved":false,"is_disabled":false,"rental_uris":{"android":"levelo://app?vid=f8b94d25-64d9-4fa4-8eb0-62cfd4b2af8b","ios":"levelo://app?vid=f8b94d25-64d9-4fa4-8eb0-62cfd4b2af8b"},"vehicle_type_id":"4","last_reported":1762715220,"current_range_meters":10800,"station_id":"","pricing_plan_id":"cebpf4jnsgd1na2vs0mg"},{"bike_id":"67efb670-bce5-4049-8122-c2052c82e196","system_id":"levelo_inurba_marseille","lat":43.29535,"lon":5.38545,"is_reserved":false,"is_disabled":false,"rental_uris":{"android":"levelo://app?vid=67efb670-bce5-4049-8122-c2052c82e196","ios":"levelo://app?vid=67efb670-bce5-4049-8122-c2052c82e196"},"vehicle_type_id":"4","last_reported":1762715220,"current_range_meters":11200,"station_id":"ce4bgih2rcd13ifvqba0","pricing_plan_id":"cebpf4jnsgd1na2vs0mg"},{"bike_id":"90e75491-f300-4cd4-95d9-4fcce675996b","system_id":"levelo_inurba_marseille","lat":43.28408,"lon":5.37513,"is_reserved":false,"is_disabled":true,"rental_uris":{"android":"levelo://app?vid=90e75491-f300-4cd4-95d9-4fcce675996b","ios":"levelo://app?vid=90e75491-f300-4cd4-95d9-4fcce675996b"},"vehicle_type_id":"4","last_reported":1762715220,"current_range_meters":11200,"station_id":"ce4bh412rcd13ifvqds0","pricing_plan_id":"cebpf4jnsgd1na2vs0mg"},{"bike_id":"9104b884-a442-47e5-a4ac-968f9aa44120","system_id":"levelo_inurba_marseille","lat":43.289294,"lon":5.384061,"is_reserved":false,"is_disabled":false,"rental_uris":{"android":"levelo://app?vid=9104b884-a442-47e5-a4ac-968f9aa44120","ios":"levelo://app?vid=9104b884-a442-47e5-a4ac-968f9aa44120"},"vehicle_type_id":"4","last_reported":1762715220,"current_range_meters":11200,"station_id":"","pricing_plan_id":"cebpf4jnsgd1na2vs0mg"},{"bike_id":"ed1dbdd3-0791-4a44-9f5d-628006694503","system_id":"levelo_inurba_marseille","lat":43.29173,"lon":5.3931,"is_reserved":false,"is_disabled":false,"rental_uris":{"android":"levelo://app?vid=ed1dbdd3-0791-4a44-9f5d-628006694503","ios":"levelo://app?vid=ed1dbdd3-0791-4a44-9f5d-628006694503"},"vehicle_type_id":"4","last_reported":1762715220,"current_range_meters":11200,"station_id":"ce4bh192rcd13ifvqdd0","pricing_plan_id":"cebpf4jnsgd1na2vs0mg"},{"bike_id":"a867e5d6-fd86-463c-bc0b-85e61417626c","system_id":"levelo_inurba_marseille","lat":43.29563,"lon":5.3753,"is_reserved":false,"is_disabled":false,"rental_uris":{"android":"levelo://app?vid=a867e5d6-fd86-463c-bc0b-85e61417626c","ios":"levelo://app?vid=a867e5d6-fd86-463c-bc0b-85e61417626c"},"vehicle_type_id":"4","last_reported":1762715220,"current_range_meters":11200,"station_id":"ce4bgh92rcd13ifvqb50","pricing_plan_id":"cebpf4jnsgd1na2vs0mg"},{"bike_id":"33934821-bb3f-4fcb-b888-2da30727e56e","system_id":"levelo_inurba_marseille","lat":43.25335,"lon":5.42181,"is_reserved":false,"is_disabled":false,"rental_uris":{"android":"levelo://app?vid=33934821-bb3f-4fcb-b888-2da30727e56e","ios":"levelo://app?vid=33934821-bb3f-4fcb-b888-2da30727e56e"},"vehicle_type_id":"4","last_reported":1762715220,"current_range_meters":11200,"station_id":"st_d2m65c5bi1j21697t3ng","pricing_plan_id":"cebpf4jnsgd1na2vs0mg"},{"bike_id":"5997c6b0-b0f4-4848-a8f1-63ca201df211","system_id":"levelo_inurba_marseille","lat":43.33892,"lon":5.41577,"is_reserved":false,"is_disabled":false,"rental_uris":{"android":"levelo://app?vid=5997c6b0-b0f4-4848-a8f1-63ca201df211","ios":"levelo://app?vid=5997c6b0-b0f4-4848-a8f1-63ca201df211"},"vehicle_type_id":"4","last_reported":1762715220,"current_range_meters":11200,"station_id":"","pricing_plan_id":"cebpf4jnsgd1na2vs0mg"},{"bike_id":"68e2a4eb-9515-41fd-aa1c-8497e40ac482","system_id":"levelo_inurba_marseille","lat":43.29899,"lon":5.38139,"is_reserved":false,"is_disabled":true,"rental_uris":{"android":"levelo://app?vid=68e2a4eb-9515-41fd-aa1c-8497e40ac482","ios":"levelo://app?vid=68e2a4eb-9515-41fd-aa1c-8497e40ac482"},"vehicle_type_id":"4","last_reported":1762715220,"current_range_meters":11600,"station_id":"ce4bgj12rcd13ifvqbc0","pricing_plan_id":"cebpf4jnsgd1na2vs0mg"},{"bike_id":"5125590e-b656-481a-bd72-5ede6bd3a625","system_id":"levelo_inurba_marseille","lat":43.28668,"lon":5.38667,"is_reserved":false,"is_disabled":false,"rental_uris":{"android":"levelo://app?vid=5125590e-b656-481a-bd72-5ede6bd3a625","ios":"levelo://app?vid=5125590e-b656-481a-bd72-5ede6bd3a625"},"vehicle_type_id":"4","last_reported":1762715220,"current_range_meters":11600,"station_id":"ce4bh492rcd13ifvqdug","pricing_plan_id":"cebpf4jnsgd1na2vs0mg"},{"bike_id":"d2935332-efbe-4952-85d6-d15f1a845dc4","system_id":"levelo_inurba_marseille","lat":43.29515,"lon":5.39045,"is_reserved":false,"is_disabled":false,"rental_uris":{"android":"levelo://app?vid=d2935332-efbe-4952-85d6-d15f1a845dc4","ios":"levelo://app?vid=d2935332-efbe-4952-85d6-d15f1a845dc4"},"vehicle_type_id":"4","last_reported":1762715220,"current_range_meters":12000,"station_id":"ce4bh3p2rcd13ifvqdp0","pricing_plan_id":"cebpf4jnsgd1na2vs0mg"},{"bike_id":"98a850cc-53c2-4014-98f7-042c47c8231b","system_id":"levelo_inurba_marseille","lat":43.31199,"lon":5.37417,"is_reserved":false,"is_disabled":false,"rental_uris":{"android":"levelo://app?vid=98a850cc-53c2-4014-98f7-042c47c8231b","ios":"levelo://app?vid=98a850cc-53c2-4014-98f7-042c47c8231b"},"vehicle_type_id":"4","last_reported":1762715220,"current_range_meters":12000,"station_id":"","pricing_plan_id":"cebpf4jnsgd1na2vs0mg"},{"bike_id":"679253a5-b71a-442d-82e2-ab1132f11eb3","system_id":"levelo_inurba_marseille","lat":43.29444,"lon":5.39751,"is_reserved":false,"is_disabled":false,"rental_uris":{"android":"levelo://app?vid=679253a5-b71a-442d-82e2-ab1132f11eb3","ios":"levelo://app?vid=679253a5-b71a-442d-82e2-ab1132f11eb3"},"vehicle_type_id":"4","last_reported":1762715220,"current_range_meters":12000,"station_id":"ce4bh3h2rcd13ifvqdo0","pricing_plan_id":"cebpf4jnsgd1na2vs0mg"},{"bike_id":"983dc5b0-caf0-492a-b2a9-2ae5b87c5f34","system_id":"levelo_inurba_marseille","lat":43.31479,"lon":5.37307,"is_reserved":false,"is_disabled":false,"rental_uris":{"android":"levelo://app?vid=983dc5b0-caf0-492a-b2a9-2ae5b87c5f34","ios":"levelo://app?vid=983dc5b0-caf0-492a-b2a9-2ae5b87c5f34"},"vehicle_type_id":"4","last_reported":1762715220,"current_range_meters":12000,"station_id":"ce4bgt12rcd13ifvqcd0","pricing_plan_id":"cebpf4jnsgd1na2vs0mg"},{"bike_id":"f48f8926-092b-4366-b477-e5f03ba66b63","system_id":"levelo_inurba_marseille","lat":43.29026,"lon":5.38638,"is_reserved":false,"is_disabled":false,"rental_uris":{"android":"levelo://app?vid=f48f8926-092b-4366-b477-e5f03ba66b63","ios":"levelo://app?vid=f48f8926-092b-4366-b477-e5f03ba66b63"},"vehicle_type_id":"4","last_reported":1762715220,"current_range_meters":12000,"station_id":"ce4bh4p2rcd13ifvqe0g","pricing_plan_id":"cebpf4jnsgd1na2vs0mg"},{"bike_id":"296b35f4-bf34-48bd-a614-0084f905815f","system_id":"levelo_inurba_marseille","lat":43.29938,"lon":5.364,"is_reserved":false,"is_disabled":false,"rental_uris":{"android":"levelo://app?vid=296b35f4-bf34-48bd-a614-0084f905815f","ios":"levelo://app?vid=296b35f4-bf34-48bd-a614-0084f905815f"},"vehicle_type_id":"4","last_reported":1762715220,"current_range_meters":12000,"station_id":"","pricing_plan_id":"cebpf4jnsgd1na2vs0mg"},{"bike_id":"d8a2355e-a776-4b85-8a3e-22368796688d","system_id":"levelo_inurba_marseille","lat":43.30794,"lon":5.36854,"is_reserved":false,"is_disabled":false,"rental_uris":{"android":"levelo://app?vid=d8a2355e-a776-4b85-8a3e-22368796688d","ios":"levelo://app?vid=d8a2355e-a776-4b85-8a3e-22368796688d"},"vehicle_type_id":"4","last_reported":1762715220,"current_range_meters":12000,"station_id":"","pricing_plan_id":"cebpf4jnsgd1na2vs0mg"},{"bike_id":"5f51530e-ad6d-4525-9dbe-df8ccdff7435","system_id":"levelo_inurba_marseille","lat":43.31604,"lon":5.38198,"is_reserved":false,"is_disabled":false,"rental_uris":{"android":"levelo://app?vid=5f51530e-ad6d-4525-9dbe-df8ccdff7435","ios":"levelo://app?vid=5f51530e-ad6d-4525-9dbe-df8ccdff7435"},"vehicle_type_id":"4","last_reported":1762715220,"current_range_meters":12000,"station_id":"","pricing_plan_id":"cebpf4jnsgd1na2vs0mg"},{"bike_id":"1b7b97a0-5b82-4d5b-8355-c9230f03c2fa","system_id":"levelo_inurba_marseille","lat":43.31115,"lon":5.37758,"is_reserved":false,"is_disabled":false,"rental_uris":{"android":"levelo://app?vid=1b7b97a0-5b82-4d5b-8355-c9230f03c2fa","ios":"levelo://app?vid=1b7b97a0-5b82-4d5b-8355-c9230f03c2fa"},"vehicle_type_id":"4","last_reported":1762715220,"current_range_meters":12400,"station_id":"ce4bgt92rcd13ifvqcg0","pricing_plan_id":"cebpf4jnsgd1na2vs0mg"},{"bike_id":"423018be-cf49-420b-922f-649e63c41c96","system_id":"levelo_inurba_marseille","lat":43.30092,"lon":5.39071,"is_reserved":false,"is_disabled":false,"rental_uris":{"android":"levelo://app?vid=423018be-cf49-420b-922f-649e63c41c96","ios":"levelo://app?vid=423018be-cf49-420b-922f-649e63c41c96"},"vehicle_type_id":"4","last_reported":1762715220,"current_range_meters":12400,"station_id":"ce4bh192rcd13ifvqdb0","pricing_plan_id":"cebpf4jnsgd1na2vs0mg"},{"bike_id":"99f2ea0a-7c72-440f-bfcf-af329d8d0c40","system_id":"levelo_inurba_marseille","lat":43.2987,"lon":5.39727,"is_reserved":false,"is_disabled":false,"rental_uris":{"android":"levelo://app?vid=99f2ea0a-7c72-440f-bfcf-af329d8d0c40","ios":"levelo://app?vid=99f2ea0a-7c72-440f-bfcf-af329d8d0c40"},"vehicle_type_id":"4","last_reported":1762715220,"current_range_meters":12400,"station_id":"ce4bh0h2rcd13ifvqd50","pricing_plan_id":"cebpf4jnsgd1na2vs0mg"},{"bike_id":"fee4f445-bba8-4be4-a3da-4decf51271b2","system_id":"levelo_inurba_marseille","lat":43.31831,"lon":5.40719,"is_reserved":false,"is_disabled":false,"rental_uris":{"android":"levelo://app?vid=fee4f445-bba8-4be4-a3da-4decf51271b2","ios":"levelo://app?vid=fee4f445-bba8-4be4-a3da-4decf51271b2"},"vehicle_type_id":"4","last_reported":1762715220,"current_range_meters":12400,"station_id":"","pricing_plan_id":"cebpf4jnsgd1na2vs0mg"},{"bike_id":"e655bbfc-cf85-4720-a36e-14d23aa89e90","system_id":"levelo_inurba_marseille","lat":43.29679,"lon":5.37296,"is_reserved":false,"is_disabled":false,"rental_uris":{"android":"levelo://app?vid=e655bbfc-cf85-4720-a36e-14d23aa89e90","ios":"levelo://app?vid=e655bbfc-cf85-4720-a36e-14d23aa89e90"},"vehicle_type_id":"4","last_reported":1762715220,"current_range_meters":12400,"station_id":"ce4bgk12rcd13ifvqbj0","pricing_plan_id":"cebpf4jnsgd1na2vs0mg"},{"bike_id":"0c05f950-5c38-473d-8501-a2115d71888e","system_id":"levelo_inurba_marseille","lat":43.29616,"lon":5.38091,"is_reserved":false,"is_disabled":false,"rental_uris":{"android":"levelo://app?vid=0c05f950-5c38-473d-8501-a2115d71888e","ios":"levelo://app?vid=0c05f950-5c38-473d-8501-a2115d71888e"},"vehicle_type_id":"4","last_reported":1762715220,"current_range_meters":12400,"station_id":"ce4bgl12rcd13ifvqbo0","pricing_plan_id":"cebpf4jnsgd1na2vs0mg"},{"bike_id":"7cea3aa3-8595-412e-9037-c0a2ede6fb7d","system_id":"levelo_inurba_marseille","lat":43.27069,"lon":5.42278,"is_reserved":false,"is_disabled":false,"rental_uris":{"android":"levelo://app?vid=7cea3aa3-8595-412e-9037-c0a2ede6fb7d","ios":"levelo://app?vid=7cea3aa3-8595-412e-9037-c0a2ede6fb7d"},"vehicle_type_id":"4","last_reported":1762715220,"current_range_meters":12400,"station_id":"ce4bhk92rcd13ifvqgb0","pricing_plan_id":"cebpf4jnsgd1na2vs0mg"},{"bike_id":"f501d507-6827-4985-b941-0c1340b30440","system_id":"levelo_inurba_marseille","lat":43.297467,"lon":5.381091,"is_reserved":false,"is_disabled":false,"rental_uris":{"android":"levelo://app?vid=f501d507-6827-4985-b941-0c1340b30440","ios":"levelo://app?vid=f501d507-6827-4985-b941-0c1340b30440"},"vehicle_type_id":"4","last_reported":1762715220,"current_range_meters":12400,"station_id":"ce4bghh2rcd13ifvqb60","pricing_plan_id":"cebpf4jnsgd1na2vs0mg"},{"bike_id":"6cd219e3-13d1-49b1-9ecd-d8ce87e01064","system_id":"levelo_inurba_marseille","lat":43.3372,"lon":5.39185,"is_reserved":false,"is_disabled":false,"rental_uris":{"android":"levelo://app?vid=6cd219e3-13d1-49b1-9ecd-d8ce87e01064","ios":"levelo://app?vid=6cd219e3-13d1-49b1-9ecd-d8ce87e01064"},"vehicle_type_id":"4","last_reported":1762715220,"current_range_meters":12400,"station_id":"ce4bhr92rcd13ifvqhsg","pricing_plan_id":"cebpf4jnsgd1na2vs0mg"},{"bike_id":"4eac3eb9-9ac1-4ff6-ad57-ed359befeed2","system_id":"levelo_inurba_marseille","lat":43.22867,"lon":5.40243,"is_reserved":false,"is_disabled":false,"rental_uris":{"android":"levelo://app?vid=4eac3eb9-9ac1-4ff6-ad57-ed359befeed2","ios":"levelo://app?vid=4eac3eb9-9ac1-4ff6-ad57-ed359befeed2"},"vehicle_type_id":"4","last_reported":1762715220,"current_range_meters":12400,"station_id":"","pricing_plan_id":"cebpf4jnsgd1na2vs0mg"},{"bike_id":"9247ec75-2bdd-4bed-a043-9462e3d86f7b","system_id":"levelo_inurba_marseille","lat":43.28707,"lon":5.37385,"is_reserved":false,"is_disabled":false,"rental_uris":{"android":"levelo://app?vid=9247ec75-2bdd-4bed-a043-9462e3d86f7b","ios":"levelo://app?vid=9247ec75-2bdd-4bed-a043-9462e3d86f7b"},"vehicle_type_id":"4","last_reported":1762715220,"current_range_meters":12400,"station_id":"ce4bh3p2rcd13ifvqdq0","pricing_plan_id":"cebpf4jnsgd1na2vs0mg"},{"bike_id":"011885d6-b9a2-42f0-8ecf-f03890eae760","system_id":"levelo_inurba_marseille","lat":43.30613,"lon":5.37201,"is_reserved":false,"is_disabled":false,"rental_uris":{"android":"levelo://app?vid=011885d6-b9a2-42f0-8ecf-f03890eae760","ios":"levelo://app?vid=011885d6-b9a2-42f0-8ecf-f03890eae760"},"vehicle_type_id":"4","last_reported":1762715220,"current_range_meters":12800,"station_id":"ce4bgqh2rcd13ifvqc4g","pricing_plan_id":"cebpf4jnsgd1na2vs0mg"},{"bike_id":"50da1aee-7d19-41f6-8a84-c20fda02cba2","system_id":"levelo_inurba_marseille","lat":43.27311,"lon":5.39069,"is_reserved":false,"is_disabled":false,"rental_uris":{"android":"levelo://app?vid=50da1aee-7d19-41f6-8a84-c20fda02cba2","ios":"levelo://app?vid=50da1aee-7d19-41f6-8a84-c20fda02cba2"},"vehicle_type_id":"4","last_reported":1762715220,"current_range_meters":12800,"station_id":"ce4bhgp2rcd13ifvqfe0","pricing_plan_id":"cebpf4jnsgd1na2vs0mg"},{"bike_id":"48bfc02c-df06-413f-a642-f28369b4c0dd","system_id":"levelo_inurba_marseille","lat":43.29546,"lon":5.37488,"is_reserved":false,"is_disabled":false,"rental_uris":{"android":"levelo://app?vid=48bfc02c-df06-413f-a642-f28369b4c0dd","ios":"levelo://app?vid=48bfc02c-df06-413f-a642-f28369b4c0dd"},"vehicle_type_id":"4","last_reported":1762715220,"current_range_meters":12800,"station_id":"ce4bgkp2rcd13ifvqbmg","pricing_plan_id":"cebpf4jnsgd1na2vs0mg"},{"bike_id":"1e40bf4a-2a1a-44b7-b08a-f8e06a146d4c","system_id":"levelo_inurba_marseille","lat":43.28029,"lon":5.36959,"is_reserved":false,"is_disabled":false,"rental_uris":{"android":"levelo://app?vid=1e40bf4a-2a1a-44b7-b08a-f8e06a146d4c","ios":"levelo://app?vid=1e40bf4a-2a1a-44b7-b08a-f8e06a146d4c"},"vehicle_type_id":"4","last_reported":1762715220,"current_range_meters":13600,"station_id":"ce4bha12rcd13ifvqef0","pricing_plan_id":"cebpf4jnsgd1na2vs0mg"},{"bike_id":"96ebd95e-43d7-4dda-805b-d986b86e7c3f","system_id":"levelo_inurba_marseille","lat":43.29262,"lon":5.38436,"is_reserved":false,"is_disabled":false,"rental_uris":{"android":"levelo://app?vid=96ebd95e-43d7-4dda-805b-d986b86e7c3f","ios":"levelo://app?vid=96ebd95e-43d7-4dda-805b-d986b86e7c3f"},"vehicle_type_id":"4","last_reported":1762715220,"current_range_meters":13600,"station_id":"ce4bh692rcd13ifvqea0","pricing_plan_id":"cebpf4jnsgd1na2vs0mg"},{"bike_id":"f08621f1-92b2-4985-8a3a-96dd283a7c2b","system_id":"levelo_inurba_marseille","lat":43.31354,"lon":5.37932,"is_reserved":false,"is_disabled":false,"rental_uris":{"android":"levelo://app?vid=f08621f1-92b2-4985-8a3a-96dd283a7c2b","ios":"levelo://app?vid=f08621f1-92b2-4985-8a3a-96dd283a7c2b"},"vehicle_type_id":"4","last_reported":1762715220,"current_range_meters":13600,"station_id":"","pricing_plan_id":"cebpf4jnsgd1na2vs0mg"},{"bike_id":"819643e0-75a1-4796-afef-8e5f318a5dda","system_id":"levelo_inurba_marseille","lat":43.308698,"lon":5.36833,"is_reserved":false,"is_disabled":false,"rental_uris":{"android":"levelo://app?vid=819643e0-75a1-4796-afef-8e5f318a5dda","ios":"levelo://app?vid=819643e0-75a1-4796-afef-8e5f318a5dda"},"vehicle_type_id":"4","last_reported":1762715220,"current_range_meters":13600,"station_id":"ce4bgn92rcd13ifvqbvg","pricing_plan_id":"cebpf4jnsgd1na2vs0mg"},{"bike_id":"c9c0218e-5898-4ead-bb0c-afbef39d8a26","system_id":"levelo_inurba_marseille","lat":43.25015,"lon":5.3893,"is_reserved":false,"is_disabled":false,"rental_uris":{"android":"levelo://app?vid=c9c0218e-5898-4ead-bb0c-afbef39d8a26","ios":"levelo://app?vid=c9c0218e-5898-4ead-bb0c-afbef39d8a26"},"vehicle_type_id":"4","last_reported":1762715220,"current_range_meters":14000,"station_id":"ce4bhgp2rcd13ifvqfd0","pricing_plan_id":"cebpf4jnsgd1na2vs0mg"},{"bike_id":"3f229283-4156-40f5-8b33-733d496807b4","system_id":"levelo_inurba_marseille","lat":43.29282,"lon":5.37286,"is_reserved":false,"is_disabled":false,"rental_uris":{"android":"levelo://app?vid=3f229283-4156-40f5-8b33-733d496807b4","ios":"levelo://app?vid=3f229283-4156-40f5-8b33-733d496807b4"},"vehicle_type_id":"4","last_reported":1762715220,"current_range_meters":14000,"station_id":"","pricing_plan_id":"cebpf4jnsgd1na2vs0mg"},{"bike_id":"7f1560c8-13ef-49dd-9347-bcd38cfb31c5","system_id":"levelo_inurba_marseille","lat":43.258215,"lon":5.394366,"is_reserved":false,"is_disabled":false,"rental_uris":{"android":"levelo://app?vid=7f1560c8-13ef-49dd-9347-bcd38cfb31c5","ios":"levelo://app?vid=7f1560c8-13ef-49dd-9347-bcd38cfb31c5"},"vehicle_type_id":"4","last_reported":1762715220,"current_range_meters":14000,"station_id":"ce4bhip2rcd13ifvqft0","pricing_plan_id":"cebpf4jnsgd1na2vs0mg"},{"bike_id":"4c9e791d-9729-4c1a-bc68-55604a3ae65e","system_id":"levelo_inurba_marseille","lat":43.30951,"lon":5.39037,"is_reserved":false,"is_disabled":false,"rental_uris":{"android":"levelo://app?vid=4c9e791d-9729-4c1a-bc68-55604a3ae65e","ios":"levelo://app?vid=4c9e791d-9729-4c1a-bc68-55604a3ae65e"},"vehicle_type_id":"4","last_reported":1762715220,"current_range_meters":14000,"station_id":"ce4bgup2rcd13ifvqco0","pricing_plan_id":"cebpf4jnsgd1na2vs0mg"},{"bike_id":"970709d9-5b24-44bb-beb3-4dbbfc3d4098","system_id":"levelo_inurba_marseille","lat":43.28732,"lon":5.39948,"is_reserved":false,"is_disabled":true,"rental_uris":{"android":"levelo://app?vid=970709d9-5b24-44bb-beb3-4dbbfc3d4098","ios":"levelo://app?vid=970709d9-5b24-44bb-beb3-4dbbfc3d4098"},"vehicle_type_id":"4","last_reported":1762715220,"current_range_meters":14000,"station_id":"ce4bho92rcd13ifvqh3g","pricing_plan_id":"cebpf4jnsgd1na2vs0mg"},{"bike_id":"489cb375-491d-4882-9a41-9c04153f3ea9","system_id":"levelo_inurba_marseille","lat":43.30642,"lon":5.40075,"is_reserved":false,"is_disabled":false,"rental_uris":{"android":"levelo://app?vid=489cb375-491d-4882-9a41-9c04153f3ea9","ios":"levelo://app?vid=489cb375-491d-4882-9a41-9c04153f3ea9"},"vehicle_type_id":"4","last_reported":1762715220,"current_range_meters":14000,"station_id":"ce4bh112rcd13ifvqda0","pricing_plan_id":"cebpf4jnsgd1na2vs0mg"},{"bike_id":"1b608766-d12f-43b3-8b68-b0135e72a218","system_id":"levelo_inurba_marseille","lat":43.30244,"lon":5.40061,"is_reserved":false,"is_disabled":true,"rental_uris":{"android":"levelo://app?vid=1b608766-d12f-43b3-8b68-b0135e72a218","ios":"levelo://app?vid=1b608766-d12f-43b3-8b68-b0135e72a218"},"vehicle_type_id":"4","last_reported":1762715220,"current_range_meters":14000,"station_id":"ce4bgvh2rcd13ifvqcs0","pricing_plan_id":"cebpf4jnsgd1na2vs0mg"},{"bike_id":"a9d08e4c-0813-4aef-85b1-1d50cf456f69","system_id":"levelo_inurba_marseille","lat":43.21746,"lon":5.34608,"is_reserved":false,"is_disabled":true,"rental_uris":{"android":"levelo://app?vid=a9d08e4c-0813-4aef-85b1-1d50cf456f69","ios":"levelo://app?vid=a9d08e4c-0813-4aef-85b1-1d50cf456f69"},"vehicle_type_id":"4","last_reported":1762715220,"current_range_meters":14400,"station_id":"st_cvj6r9ubvosntc0bgbag","pricing_plan_id":"cebpf4jnsgd1na2vs0mg"},{"bike_id":"b6ba799f-93a0-474d-970a-cd786094f7da","system_id":"levelo_inurba_marseille","lat":43.28457,"lon":5.38377,"is_reserved":false,"is_disabled":true,"rental_uris":{"android":"levelo://app?vid=b6ba799f-93a0-474d-970a-cd786094f7da","ios":"levelo://app?vid=b6ba799f-93a0-474d-970a-cd786094f7da"},"vehicle_type_id":"4","last_reported":1762715220,"current_range_meters":14400,"station_id":"ce4bh512rcd13ifvqe3g","pricing_plan_id":"cebpf4jnsgd1na2vs0mg"},{"bike_id":"5d3ef183-d25b-4276-9865-55ad221c81ae","system_id":"levelo_inurba_marseille","lat":43.293016,"lon":5.374659,"is_reserved":false,"is_disabled":false,"rental_uris":{"android":"levelo://app?vid=5d3ef183-d25b-4276-9865-55ad221c81ae","ios":"levelo://app?vid=5d3ef183-d25b-4276-9865-55ad221c81ae"},"vehicle_type_id":"4","last_reported":1762715220,"current_range_meters":14400,"station_id":"ce4bh3p2rcd13ifvqdp0","pricing_plan_id":"cebpf4jnsgd1na2vs0mg"},{"bike_id":"d6907741-003a-4b7f-9dbb-039941ccc88e","system_id":"levelo_inurba_marseille","lat":43.31799,"lon":5.40971,"is_reserved":false,"is_disabled":false,"rental_uris":{"android":"levelo://app?vid=d6907741-003a-4b7f-9dbb-039941ccc88e","ios":"levelo://app?vid=d6907741-003a-4b7f-9dbb-039941ccc88e"},"vehicle_type_id":"4","last_reported":1762715220,"current_range_meters":14400,"station_id":"","pricing_plan_id":"cebpf4jnsgd1na2vs0mg"},{"bike_id":"f0f552c9-dd5b-44e5-8d71-e97f687d54ee","system_id":"levelo_inurba_marseille","lat":43.28437,"lon":5.3499,"is_reserved":false,"is_disabled":true,"rental_uris":{"android":"levelo://app?vid=f0f552c9-dd5b-44e5-8d71-e97f687d54ee","ios":"levelo://app?vid=f0f552c9-dd5b-44e5-8d71-e97f687d54ee"},"vehicle_type_id":"4","last_reported":1762715220,"current_range_meters":14400,"station_id":"ce4bhbh2rcd13ifvqepg","pricing_plan_id":"cebpf4jnsgd1na2vs0mg"},{"bike_id":"5f8aa6fb-8ca9-4eb4-98b1-9637621ad027","system_id":"levelo_inurba_marseille","lat":43.29566,"lon":5.37522,"is_reserved":false,"is_disabled":false,"rental_uris":{"android":"levelo://app?vid=5f8aa6fb-8ca9-4eb4-98b1-9637621ad027","ios":"levelo://app?vid=5f8aa6fb-8ca9-4eb4-98b1-9637621ad027"},"vehicle_type_id":"4","last_reported":1762715220,"current_range_meters":14400,"station_id":"ce4bgh92rcd13ifvqb50","pricing_plan_id":"cebpf4jnsgd1na2vs0mg"},{"bike_id":"43cb9076-7a94-4429-8c54-2748966c577e","system_id":"levelo_inurba_marseille","lat":43.290302,"lon":5.386531,"is_reserved":false,"is_disabled":false,"rental_uris":{"android":"levelo://app?vid=43cb9076-7a94-4429-8c54-2748966c577e","ios":"levelo://app?vid=43cb9076-7a94-4429-8c54-2748966c577e"},"vehicle_type_id":"4","last_reported":1762715220,"current_range_meters":14400,"station_id":"ce4bh4p2rcd13ifvqe0g","pricing_plan_id":"cebpf4jnsgd1na2vs0mg"},{"bike_id":"812ec9d1-5013-4449-a5bc-d76110a8adbf","system_id":"levelo_inurba_marseille","lat":43.271935,"lon":5.41022,"is_reserved":false,"is_disabled":false,"rental_uris":{"android":"levelo://app?vid=812ec9d1-5013-4449-a5bc-d76110a8adbf","ios":"levelo://app?vid=812ec9d1-5013-4449-a5bc-d76110a8adbf"},"vehicle_type_id":"4","last_reported":1762715220,"current_range_meters":14400,"station_id":"ce4bhl12rcd13ifvqgf0","pricing_plan_id":"cebpf4jnsgd1na2vs0mg"},{"bike_id":"4ab9847f-31fc-4a91-ae16-90168b5b9e42","system_id":"levelo_inurba_marseille","lat":43.340825,"lon":5.409937,"is_reserved":false,"is_disabled":false,"rental_uris":{"android":"levelo://app?vid=4ab9847f-31fc-4a91-ae16-90168b5b9e42","ios":"levelo://app?vid=4ab9847f-31fc-4a91-ae16-90168b5b9e42"},"vehicle_type_id":"4","last_reported":1762715220,"current_range_meters":14400,"station_id":"ce4bhqh2rcd13ifvqhlg","pricing_plan_id":"cebpf4jnsgd1na2vs0mg"},{"bike_id":"f4cd1f76-686b-443b-bf62-c78f0f11dda9","system_id":"levelo_inurba_marseille","lat":43.28434,"lon":5.37527,"is_reserved":false,"is_disabled":true,"rental_uris":{"android":"levelo://app?vid=f4cd1f76-686b-443b-bf62-c78f0f11dda9","ios":"levelo://app?vid=f4cd1f76-686b-443b-bf62-c78f0f11dda9"},"vehicle_type_id":"4","last_reported":1762715220,"current_range_meters":14800,"station_id":"ce4bh412rcd13ifvqds0","pricing_plan_id":"cebpf4jnsgd1na2vs0mg"},{"bike_id":"ab4ac132-5519-4aac-ac12-8b8c2929bb7e","system_id":"levelo_inurba_marseille","lat":43.32302,"lon":5.38493,"is_reserved":false,"is_disabled":false,"rental_uris":{"android":"levelo://app?vid=ab4ac132-5519-4aac-ac12-8b8c2929bb7e","ios":"levelo://app?vid=ab4ac132-5519-4aac-ac12-8b8c2929bb7e"},"vehicle_type_id":"4","last_reported":1762715220,"current_range_meters":14800,"station_id":"st_d45171o9ee8s73djdqug","pricing_plan_id":"cebpf4jnsgd1na2vs0mg"},{"bike_id":"db3d3c9f-fdae-49c0-91c9-bc09c870fa24","system_id":"levelo_inurba_marseille","lat":43.30917,"lon":5.36849,"is_reserved":false,"is_disabled":false,"rental_uris":{"android":"levelo://app?vid=db3d3c9f-fdae-49c0-91c9-bc09c870fa24","ios":"levelo://app?vid=db3d3c9f-fdae-49c0-91c9-bc09c870fa24"},"vehicle_type_id":"4","last_reported":1762715220,"current_range_meters":14800,"station_id":"ce4bgn92rcd13ifvqbvg","pricing_plan_id":"cebpf4jnsgd1na2vs0mg"},{"bike_id":"747628a0-abbb-4017-9b13-b0ee432b38ab","system_id":"levelo_inurba_marseille","lat":43.28399,"lon":5.37539,"is_reserved":false,"is_disabled":false,"rental_uris":{"android":"levelo://app?vid=747628a0-abbb-4017-9b13-b0ee432b38ab","ios":"levelo://app?vid=747628a0-abbb-4017-9b13-b0ee432b38ab"},"vehicle_type_id":"4","last_reported":1762715220,"current_range_meters":14800,"station_id":"ce4bh412rcd13ifvqds0","pricing_plan_id":"cebpf4jnsgd1na2vs0mg"},{"bike_id":"dd3ddf20-d34f-4ace-af1d-3473c95da697","system_id":"levelo_inurba_marseille","lat":43.28675,"lon":5.38669,"is_reserved":false,"is_disabled":false,"rental_uris":{"android":"levelo://app?vid=dd3ddf20-d34f-4ace-af1d-3473c95da697","ios":"levelo://app?vid=dd3ddf20-d34f-4ace-af1d-3473c95da697"},"vehicle_type_id":"4","last_reported":1762715220,"current_range_meters":14800,"station_id":"ce4bh492rcd13ifvqdug","pricing_plan_id":"cebpf4jnsgd1na2vs0mg"},{"bike_id":"3143d237-0eb0-4787-8b57-284af0d319a8","system_id":"levelo_inurba_marseille","lat":43.2949,"lon":5.43306,"is_reserved":false,"is_disabled":false,"rental_uris":{"android":"levelo://app?vid=3143d237-0eb0-4787-8b57-284af0d319a8","ios":"levelo://app?vid=3143d237-0eb0-4787-8b57-284af0d319a8"},"vehicle_type_id":"4","last_reported":1762715220,"current_range_meters":14800,"station_id":"st_d3j5ugp08ojc73fj9d10","pricing_plan_id":"cebpf4jnsgd1na2vs0mg"},{"bike_id":"e196242a-3e46-4463-8c7f-4fd161b5afa1","system_id":"levelo_inurba_marseille","lat":43.29309,"lon":5.37167,"is_reserved":false,"is_disabled":false,"rental_uris":{"android":"levelo://app?vid=e196242a-3e46-4463-8c7f-4fd161b5afa1","ios":"levelo://app?vid=e196242a-3e46-4463-8c7f-4fd161b5afa1"},"vehicle_type_id":"4","last_reported":1762715220,"current_range_meters":14800,"station_id":"ce4bgh92rcd13ifvqb40","pricing_plan_id":"cebpf4jnsgd1na2vs0mg"},{"bike_id":"f6b2fed1-0ca2-423d-8dec-4ae2abcb7d8f","system_id":"levelo_inurba_marseille","lat":43.30665,"lon":5.42383,"is_reserved":false,"is_disabled":true,"rental_uris":{"android":"levelo://app?vid=f6b2fed1-0ca2-423d-8dec-4ae2abcb7d8f","ios":"levelo://app?vid=f6b2fed1-0ca2-423d-8dec-4ae2abcb7d8f"},"vehicle_type_id":"4","last_reported":1762715220,"current_range_meters":15200,"station_id":"st_cvj6ca6bvosntc0bfgr0","pricing_plan_id":"cebpf4jnsgd1na2vs0mg"},{"bike_id":"005cc95c-2b3f-44b3-aa70-095a7d7dd41a","system_id":"levelo_inurba_marseille","lat":43.29626,"lon":5.37162,"is_reserved":false,"is_disabled":true,"rental_uris":{"android":"levelo://app?vid=005cc95c-2b3f-44b3-aa70-095a7d7dd41a","ios":"levelo://app?vid=005cc95c-2b3f-44b3-aa70-095a7d7dd41a"},"vehicle_type_id":"4","last_reported":1762715220,"current_range_meters":15200,"station_id":"ce4bgnh2rcd13ifvqc0g","pricing_plan_id":"cebpf4jnsgd1na2vs0mg"},{"bike_id":"8142a16a-13a8-4636-80c8-f6fe96871316","system_id":"levelo_inurba_marseille","lat":43.24396,"lon":5.37069,"is_reserved":false,"is_disabled":true,"rental_uris":{"android":"levelo://app?vid=8142a16a-13a8-4636-80c8-f6fe96871316","ios":"levelo://app?vid=8142a16a-13a8-4636-80c8-f6fe96871316"},"vehicle_type_id":"4","last_reported":1762715220,"current_range_meters":15200,"station_id":"ce4bhhh2rcd13ifvqfk0","pricing_plan_id":"cebpf4jnsgd1na2vs0mg"},{"bike_id":"07618fb4-fdf4-452a-a76e-4b0defae3541","system_id":"levelo_inurba_marseille","lat":43.22536,"lon":5.34836,"is_reserved":false,"is_disabled":false,"rental_uris":{"android":"levelo://app?vid=07618fb4-fdf4-452a-a76e-4b0defae3541","ios":"levelo://app?vid=07618fb4-fdf4-452a-a76e-4b0defae3541"},"vehicle_type_id":"4","last_reported":1762715220,"current_range_meters":15200,"station_id":"","pricing_plan_id":"cebpf4jnsgd1na2vs0mg"},{"bike_id":"aaf560bb-adf8-4d7c-b749-b4c5ca2f2663","system_id":"levelo_inurba_marseille","lat":43.23967,"lon":5.36609,"is_reserved":false,"is_disabled":true,"rental_uris":{"android":"levelo://app?vid=aaf560bb-adf8-4d7c-b749-b4c5ca2f2663","ios":"levelo://app?vid=aaf560bb-adf8-4d7c-b749-b4c5ca2f2663"},"vehicle_type_id":"4","last_reported":1762715220,"current_range_meters":15200,"station_id":"ce4bhi12rcd13ifvqfp0","pricing_plan_id":"cebpf4jnsgd1na2vs0mg"},{"bike_id":"4b7ef6ba-2750-47cb-a39a-f84add1f21f7","system_id":"levelo_inurba_marseille","lat":43.29193,"lon":5.35798,"is_reserved":false,"is_disabled":false,"rental_uris":{"android":"levelo://app?vid=4b7ef6ba-2750-47cb-a39a-f84add1f21f7","ios":"levelo://app?vid=4b7ef6ba-2750-47cb-a39a-f84add1f21f7"},"vehicle_type_id":"4","last_reported":1762715220,"current_range_meters":15200,"station_id":"ce4bhb12rcd13ifvqel0","pricing_plan_id":"cebpf4jnsgd1na2vs0mg"},{"bike_id":"cba3e69c-93a1-4d79-bc9c-e5985c3ce704","system_id":"levelo_inurba_marseille","lat":43.25725,"lon":5.4111,"is_reserved":false,"is_disabled":false,"rental_uris":{"android":"levelo://app?vid=cba3e69c-93a1-4d79-bc9c-e5985c3ce704","ios":"levelo://app?vid=cba3e69c-93a1-4d79-bc9c-e5985c3ce704"},"vehicle_type_id":"4","last_reported":1762715220,"current_range_meters":15200,"station_id":"ce4bhkp2rcd13ifvqgd0","pricing_plan_id":"cebpf4jnsgd1na2vs0mg"},{"bike_id":"1739d96a-3dc8-4b2d-bf20-9609414f6c0c","system_id":"levelo_inurba_marseille","lat":43.28083,"lon":5.39657,"is_reserved":false,"is_disabled":false,"rental_uris":{"android":"levelo://app?vid=1739d96a-3dc8-4b2d-bf20-9609414f6c0c","ios":"levelo://app?vid=1739d96a-3dc8-4b2d-bf20-9609414f6c0c"},"vehicle_type_id":"4","last_reported":1762715220,"current_range_meters":15200,"station_id":"ce4bho12rcd13ifvqh2g","pricing_plan_id":"cebpf4jnsgd1na2vs0mg"},{"bike_id":"cadc2b4f-d601-4361-829c-0bc74426ed08","system_id":"levelo_inurba_marseille","lat":43.26573,"lon":5.38998,"is_reserved":false,"is_disabled":false,"rental_uris":{"android":"levelo://app?vid=cadc2b4f-d601-4361-829c-0bc74426ed08","ios":"levelo://app?vid=cadc2b4f-d601-4361-829c-0bc74426ed08"},"vehicle_type_id":"4","last_reported":1762715220,"current_range_meters":15200,"station_id":"ce4bhe12rcd13ifvqf30","pricing_plan_id":"cebpf4jnsgd1na2vs0mg"},{"bike_id":"b4cb9bc3-2674-422b-8c74-5594292dd02e","system_id":"levelo_inurba_marseille","lat":43.27517,"lon":5.37509,"is_reserved":false,"is_disabled":false,"rental_uris":{"android":"levelo://app?vid=b4cb9bc3-2674-422b-8c74-5594292dd02e","ios":"levelo://app?vid=b4cb9bc3-2674-422b-8c74-5594292dd02e"},"vehicle_type_id":"4","last_reported":1762715220,"current_range_meters":15200,"station_id":"","pricing_plan_id":"cebpf4jnsgd1na2vs0mg"},{"bike_id":"63d30812-700e-441e-9d99-f15a237c026e","system_id":"levelo_inurba_marseille","lat":43.30617,"lon":5.37213,"is_reserved":false,"is_disabled":false,"rental_uris":{"android":"levelo://app?vid=63d30812-700e-441e-9d99-f15a237c026e","ios":"levelo://app?vid=63d30812-700e-441e-9d99-f15a237c026e"},"vehicle_type_id":"4","last_reported":1762715220,"current_range_meters":15200,"station_id":"ce4bgqh2rcd13ifvqc4g","pricing_plan_id":"cebpf4jnsgd1na2vs0mg"},{"bike_id":"11962e8a-76ab-44eb-8122-13a5f13dfe01","system_id":"levelo_inurba_marseille","lat":43.25339,"lon":5.42167,"is_reserved":false,"is_disabled":false,"rental_uris":{"android":"levelo://app?vid=11962e8a-76ab-44eb-8122-13a5f13dfe01","ios":"levelo://app?vid=11962e8a-76ab-44eb-8122-13a5f13dfe01"},"vehicle_type_id":"4","last_reported":1762715220,"current_range_meters":15200,"station_id":"st_d2m65c5bi1j21697t3ng","pricing_plan_id":"cebpf4jnsgd1na2vs0mg"},{"bike_id":"58cf60bf-f6d3-414c-94b1-3361a2e15ca6","system_id":"levelo_inurba_marseille","lat":43.258221,"lon":5.39438,"is_reserved":false,"is_disabled":false,"rental_uris":{"android":"levelo://app?vid=58cf60bf-f6d3-414c-94b1-3361a2e15ca6","ios":"levelo://app?vid=58cf60bf-f6d3-414c-94b1-3361a2e15ca6"},"vehicle_type_id":"4","last_reported":1762715220,"current_range_meters":16000,"station_id":"ce4bhip2rcd13ifvqft0","pricing_plan_id":"cebpf4jnsgd1na2vs0mg"},{"bike_id":"cf41bac8-b3bf-4d78-b58b-1504370da1f3","system_id":"levelo_inurba_marseille","lat":43.21749,"lon":5.34601,"is_reserved":false,"is_disabled":true,"rental_uris":{"android":"levelo://app?vid=cf41bac8-b3bf-4d78-b58b-1504370da1f3","ios":"levelo://app?vid=cf41bac8-b3bf-4d78-b58b-1504370da1f3"},"vehicle_type_id":"4","last_reported":1762715220,"current_range_meters":16000,"station_id":"st_cvj6r9ubvosntc0bgbag","pricing_plan_id":"cebpf4jnsgd1na2vs0mg"},{"bike_id":"4a299e7b-fa77-4d39-93fa-a705e8d40c9f","system_id":"levelo_inurba_marseille","lat":43.3133,"lon":5.37923,"is_reserved":false,"is_disabled":false,"rental_uris":{"android":"levelo://app?vid=4a299e7b-fa77-4d39-93fa-a705e8d40c9f","ios":"levelo://app?vid=4a299e7b-fa77-4d39-93fa-a705e8d40c9f"},"vehicle_type_id":"4","last_reported":1762715220,"current_range_meters":16000,"station_id":"","pricing_plan_id":"cebpf4jnsgd1na2vs0mg"},{"bike_id":"6199e56c-f956-47a4-a044-e3277198394e","system_id":"levelo_inurba_marseille","lat":43.29027,"lon":5.3863,"is_reserved":false,"is_disabled":false,"rental_uris":{"android":"levelo://app?vid=6199e56c-f956-47a4-a044-e3277198394e","ios":"levelo://app?vid=6199e56c-f956-47a4-a044-e3277198394e"},"vehicle_type_id":"4","last_reported":1762715220,"current_range_meters":16000,"station_id":"ce4bh4p2rcd13ifvqe0g","pricing_plan_id":"cebpf4jnsgd1na2vs0mg"},{"bike_id":"93284a1c-afbf-49f5-b952-7e8704cbb35f","system_id":"levelo_inurba_marseille","lat":43.28081,"lon":5.39656,"is_reserved":false,"is_disabled":false,"rental_uris":{"android":"levelo://app?vid=93284a1c-afbf-49f5-b952-7e8704cbb35f","ios":"levelo://app?vid=93284a1c-afbf-49f5-b952-7e8704cbb35f"},"vehicle_type_id":"4","last_reported":1762715220,"current_range_meters":16000,"station_id":"ce4bho12rcd13ifvqh2g","pricing_plan_id":"cebpf4jnsgd1na2vs0mg"},{"bike_id":"64725ac1-395a-481e-bde8-055721d47e95","system_id":"levelo_inurba_marseille","lat":43.29258,"lon":5.36855,"is_reserved":false,"is_disabled":false,"rental_uris":{"android":"levelo://app?vid=64725ac1-395a-481e-bde8-055721d47e95","ios":"levelo://app?vid=64725ac1-395a-481e-bde8-055721d47e95"},"vehicle_type_id":"4","last_reported":1762715220,"current_range_meters":16400,"station_id":"ce4bhbp2rcd13ifvqesg","pricing_plan_id":"cebpf4jnsgd1na2vs0mg"},{"bike_id":"ac8a8750-1d87-4cf8-9c77-e78b99da5512","system_id":"levelo_inurba_marseille","lat":43.23605,"lon":5.361713,"is_reserved":false,"is_disabled":false,"rental_uris":{"android":"levelo://app?vid=ac8a8750-1d87-4cf8-9c77-e78b99da5512","ios":"levelo://app?vid=ac8a8750-1d87-4cf8-9c77-e78b99da5512"},"vehicle_type_id":"4","last_reported":1762715220,"current_range_meters":16400,"station_id":"","pricing_plan_id":"cebpf4jnsgd1na2vs0mg"},{"bike_id":"896a0fc4-e98e-425f-b646-7db4d5ace172","system_id":"levelo_inurba_marseille","lat":43.3199,"lon":5.38155,"is_reserved":false,"is_disabled":false,"rental_uris":{"android":"levelo://app?vid=896a0fc4-e98e-425f-b646-7db4d5ace172","ios":"levelo://app?vid=896a0fc4-e98e-425f-b646-7db4d5ace172"},"vehicle_type_id":"4","last_reported":1762715220,"current_range_meters":16400,"station_id":"ce4bhr12rcd13ifvqhpg","pricing_plan_id":"cebpf4jnsgd1na2vs0mg"},{"bike_id":"3a0b0389-8241-4f85-8827-75bf3c0f39cd","system_id":"levelo_inurba_marseille","lat":43.29589,"lon":5.38098,"is_reserved":false,"is_disabled":false,"rental_uris":{"android":"levelo://app?vid=3a0b0389-8241-4f85-8827-75bf3c0f39cd","ios":"levelo://app?vid=3a0b0389-8241-4f85-8827-75bf3c0f39cd"},"vehicle_type_id":"4","last_reported":1762715220,"current_range_meters":16400,"station_id":"ce4bgl12rcd13ifvqbo0","pricing_plan_id":"cebpf4jnsgd1na2vs0mg"},{"bike_id":"7603e9dc-aeba-4336-8528-c8dd60c64f25","system_id":"levelo_inurba_marseille","lat":43.29852,"lon":5.38268,"is_reserved":false,"is_disabled":false,"rental_uris":{"android":"levelo://app?vid=7603e9dc-aeba-4336-8528-c8dd60c64f25","ios":"levelo://app?vid=7603e9dc-aeba-4336-8528-c8dd60c64f25"},"vehicle_type_id":"4","last_reported":1762715220,"current_range_meters":16400,"station_id":"","pricing_plan_id":"cebpf4jnsgd1na2vs0mg"},{"bike_id":"24de70df-9b80-4721-8771-f61cb7be1ef9","system_id":"levelo_inurba_marseille","lat":43.3192,"lon":5.38126,"is_reserved":false,"is_disabled":false,"rental_uris":{"android":"levelo://app?vid=24de70df-9b80-4721-8771-f61cb7be1ef9","ios":"levelo://app?vid=24de70df-9b80-4721-8771-f61cb7be1ef9"},"vehicle_type_id":"4","last_reported":1762715220,"current_range_meters":16400,"station_id":"","pricing_plan_id":"cebpf4jnsgd1na2vs0mg"},{"bike_id":"d331b58f-0754-4181-93f7-d4d5e2f8b496","system_id":"levelo_inurba_marseille","lat":43.225347,"lon":5.348291,"is_reserved":false,"is_disabled":false,"rental_uris":{"android":"levelo://app?vid=d331b58f-0754-4181-93f7-d4d5e2f8b496","ios":"levelo://app?vid=d331b58f-0754-4181-93f7-d4d5e2f8b496"},"vehicle_type_id":"4","last_reported":1762715220,"current_range_meters":16400,"station_id":"","pricing_plan_id":"cebpf4jnsgd1na2vs0mg"},{"bike_id":"ec5ac57e-a7ae-4c70-842f-51abe4665844","system_id":"levelo_inurba_marseille","lat":43.291931,"lon":5.393264,"is_reserved":false,"is_disabled":false,"rental_uris":{"android":"levelo://app?vid=ec5ac57e-a7ae-4c70-842f-51abe4665844","ios":"levelo://app?vid=ec5ac57e-a7ae-4c70-842f-51abe4665844"},"vehicle_type_id":"4","last_reported":1762715220,"current_range_meters":16400,"station_id":"ce4bh192rcd13ifvqdd0","pricing_plan_id":"cebpf4jnsgd1na2vs0mg"},{"bike_id":"ab0e43cb-a956-4182-86da-4951f4b56d3d","system_id":"levelo_inurba_marseille","lat":43.33599,"lon":5.41019,"is_reserved":false,"is_disabled":false,"rental_uris":{"android":"levelo://app?vid=ab0e43cb-a956-4182-86da-4951f4b56d3d","ios":"levelo://app?vid=ab0e43cb-a956-4182-86da-4951f4b56d3d"},"vehicle_type_id":"4","last_reported":1762715220,"current_range_meters":16400,"station_id":"ce4bhqh2rcd13ifvqhmg","pricing_plan_id":"cebpf4jnsgd1na2vs0mg"},{"bike_id":"77dd386a-c491-4903-b512-c2486567c465","system_id":"levelo_inurba_marseille","lat":43.28921,"lon":5.36615,"is_reserved":false,"is_disabled":false,"rental_uris":{"android":"levelo://app?vid=77dd386a-c491-4903-b512-c2486567c465","ios":"levelo://app?vid=77dd386a-c491-4903-b512-c2486567c465"},"vehicle_type_id":"4","last_reported":1762715220,"current_range_meters":16400,"station_id":"ce4bhap2rcd13ifvqek0","pricing_plan_id":"cebpf4jnsgd1na2vs0mg"},{"bike_id":"9ffb887d-f5c0-4f0b-a885-cb9bd73a4726","system_id":"levelo_inurba_marseille","lat":43.28035,"lon":5.36951,"is_reserved":false,"is_disabled":false,"rental_uris":{"android":"levelo://app?vid=9ffb887d-f5c0-4f0b-a885-cb9bd73a4726","ios":"levelo://app?vid=9ffb887d-f5c0-4f0b-a885-cb9bd73a4726"},"vehicle_type_id":"4","last_reported":1762715220,"current_range_meters":16400,"station_id":"ce4bha12rcd13ifvqef0","pricing_plan_id":"cebpf4jnsgd1na2vs0mg"},{"bike_id":"39ff6a52-7c15-4e36-9056-950efe8be9ca","system_id":"levelo_inurba_marseille","lat":43.28472,"lon":5.48434,"is_reserved":false,"is_disabled":false,"rental_uris":{"android":"levelo://app?vid=39ff6a52-7c15-4e36-9056-950efe8be9ca","ios":"levelo://app?vid=39ff6a52-7c15-4e36-9056-950efe8be9ca"},"vehicle_type_id":"4","last_reported":1762715220,"current_range_meters":16400,"station_id":"st_d3svhcjqgbts73a3dn0g","pricing_plan_id":"cebpf4jnsgd1na2vs0mg"},{"bike_id":"89c75c41-6d49-4f5f-ac08-26cbdcb3dde5","system_id":"levelo_inurba_marseille","lat":43.26246,"lon":5.40461,"is_reserved":false,"is_disabled":false,"rental_uris":{"android":"levelo://app?vid=89c75c41-6d49-4f5f-ac08-26cbdcb3dde5","ios":"levelo://app?vid=89c75c41-6d49-4f5f-ac08-26cbdcb3dde5"},"vehicle_type_id":"4","last_reported":1762715220,"current_range_meters":16800,"station_id":"ce4bhmh2rcd13ifvqgmg","pricing_plan_id":"cebpf4jnsgd1na2vs0mg"},{"bike_id":"2d003246-289e-4235-87e3-d86a55465f5e","system_id":"levelo_inurba_marseille","lat":43.29892,"lon":5.37537,"is_reserved":false,"is_disabled":false,"rental_uris":{"android":"levelo://app?vid=2d003246-289e-4235-87e3-d86a55465f5e","ios":"levelo://app?vid=2d003246-289e-4235-87e3-d86a55465f5e"},"vehicle_type_id":"4","last_reported":1762715220,"current_range_meters":16800,"station_id":"","pricing_plan_id":"cebpf4jnsgd1na2vs0mg"},{"bike_id":"96807a8e-1b45-4a36-b7ed-92091f4bcaf6","system_id":"levelo_inurba_marseille","lat":43.309306,"lon":5.401424,"is_reserved":false,"is_disabled":false,"rental_uris":{"android":"levelo://app?vid=96807a8e-1b45-4a36-b7ed-92091f4bcaf6","ios":"levelo://app?vid=96807a8e-1b45-4a36-b7ed-92091f4bcaf6"},"vehicle_type_id":"4","last_reported":1762715220,"current_range_meters":16800,"station_id":"","pricing_plan_id":"cebpf4jnsgd1na2vs0mg"},{"bike_id":"0d831e30-a7b9-4f89-ac61-1ea599320841","system_id":"levelo_inurba_marseille","lat":43.29548,"lon":5.39391,"is_reserved":false,"is_disabled":false,"rental_uris":{"android":"levelo://app?vid=0d831e30-a7b9-4f89-ac61-1ea599320841","ios":"levelo://app?vid=0d831e30-a7b9-4f89-ac61-1ea599320841"},"vehicle_type_id":"4","last_reported":1762715220,"current_range_meters":16800,"station_id":"ce4bh292rcd13ifvqdf0","pricing_plan_id":"cebpf4jnsgd1na2vs0mg"},{"bike_id":"ce7c9cbe-1cf0-440b-8517-42dbc2436f11","system_id":"levelo_inurba_marseille","lat":43.28717,"lon":5.37938,"is_reserved":false,"is_disabled":false,"rental_uris":{"android":"levelo://app?vid=ce7c9cbe-1cf0-440b-8517-42dbc2436f11","ios":"levelo://app?vid=ce7c9cbe-1cf0-440b-8517-42dbc2436f11"},"vehicle_type_id":"4","last_reported":1762715220,"current_range_meters":16800,"station_id":"ce4bh9p2rcd13ifvqec0","pricing_plan_id":"cebpf4jnsgd1na2vs0mg"},{"bike_id":"5c7b08ae-c183-4bed-ab74-e16082ee82f3","system_id":"levelo_inurba_marseille","lat":43.279966,"lon":5.416636,"is_reserved":false,"is_disabled":false,"rental_uris":{"android":"levelo://app?vid=5c7b08ae-c183-4bed-ab74-e16082ee82f3","ios":"levelo://app?vid=5c7b08ae-c183-4bed-ab74-e16082ee82f3"},"vehicle_type_id":"4","last_reported":1762715220,"current_range_meters":16800,"station_id":"ce4bho12rcd13ifvqh1g","pricing_plan_id":"cebpf4jnsgd1na2vs0mg"},{"bike_id":"e17839a3-96d6-489d-881e-36b6da5aeb29","system_id":"levelo_inurba_marseille","lat":43.28604,"lon":5.37071,"is_reserved":false,"is_disabled":true,"rental_uris":{"android":"levelo://app?vid=e17839a3-96d6-489d-881e-36b6da5aeb29","ios":"levelo://app?vid=e17839a3-96d6-489d-881e-36b6da5aeb29"},"vehicle_type_id":"4","last_reported":1762715220,"current_range_meters":16800,"station_id":"ce4bht12rcd13ifvqi60","pricing_plan_id":"cebpf4jnsgd1na2vs0mg"},{"bike_id":"be7d44a9-c2ac-4470-9b15-8b11d6742a31","system_id":"levelo_inurba_marseille","lat":43.274247,"lon":5.394137,"is_reserved":false,"is_disabled":false,"rental_uris":{"android":"levelo://app?vid=be7d44a9-c2ac-4470-9b15-8b11d6742a31","ios":"levelo://app?vid=be7d44a9-c2ac-4470-9b15-8b11d6742a31"},"vehicle_type_id":"4","last_reported":1762715220,"current_range_meters":17200,"station_id":"ce4bhdp2rcd13ifvqf20","pricing_plan_id":"cebpf4jnsgd1na2vs0mg"},{"bike_id":"b7f863e9-9f52-44ed-bc99-f5f46c6b6703","system_id":"levelo_inurba_marseille","lat":43.27991,"lon":5.4002,"is_reserved":false,"is_disabled":false,"rental_uris":{"android":"levelo://app?vid=b7f863e9-9f52-44ed-bc99-f5f46c6b6703","ios":"levelo://app?vid=b7f863e9-9f52-44ed-bc99-f5f46c6b6703"},"vehicle_type_id":"4","last_reported":1762715220,"current_range_meters":17200,"station_id":"ce4bho92rcd13ifvqh4g","pricing_plan_id":"cebpf4jnsgd1na2vs0mg"},{"bike_id":"b9b835fc-f242-4745-9659-98dc5b1d9432","system_id":"levelo_inurba_marseille","lat":43.29981,"lon":5.37179,"is_reserved":false,"is_disabled":false,"rental_uris":{"android":"levelo://app?vid=b9b835fc-f242-4745-9659-98dc5b1d9432","ios":"levelo://app?vid=b9b835fc-f242-4745-9659-98dc5b1d9432"},"vehicle_type_id":"4","last_reported":1762715220,"current_range_meters":17200,"station_id":"ce4bgr92rcd13ifvqc7g","pricing_plan_id":"cebpf4jnsgd1na2vs0mg"},{"bike_id":"5a723a11-ec10-4ab9-bbb5-7de5f4548894","system_id":"levelo_inurba_marseille","lat":43.2952,"lon":5.39039,"is_reserved":false,"is_disabled":false,"rental_uris":{"android":"levelo://app?vid=5a723a11-ec10-4ab9-bbb5-7de5f4548894","ios":"levelo://app?vid=5a723a11-ec10-4ab9-bbb5-7de5f4548894"},"vehicle_type_id":"4","last_reported":1762715220,"current_range_meters":17200,"station_id":"ce4bh3p2rcd13ifvqdp0","pricing_plan_id":"cebpf4jnsgd1na2vs0mg"},{"bike_id":"eb568d02-d052-4fa6-ada3-e0e373aa32fd","system_id":"levelo_inurba_marseille","lat":43.29197,"lon":5.39317,"is_reserved":false,"is_disabled":false,"rental_uris":{"android":"levelo://app?vid=eb568d02-d052-4fa6-ada3-e0e373aa32fd","ios":"levelo://app?vid=eb568d02-d052-4fa6-ada3-e0e373aa32fd"},"vehicle_type_id":"4","last_reported":1762715220,"current_range_meters":17200,"station_id":"ce4bh192rcd13ifvqdd0","pricing_plan_id":"cebpf4jnsgd1na2vs0mg"},{"bike_id":"a17e4c74-5774-4556-8e8d-3f21edde9d59","system_id":"levelo_inurba_marseille","lat":43.30582,"lon":5.38977,"is_reserved":false,"is_disabled":false,"rental_uris":{"android":"levelo://app?vid=a17e4c74-5774-4556-8e8d-3f21edde9d59","ios":"levelo://app?vid=a17e4c74-5774-4556-8e8d-3f21edde9d59"},"vehicle_type_id":"4","last_reported":1762715220,"current_range_meters":17200,"station_id":"","pricing_plan_id":"cebpf4jnsgd1na2vs0mg"},{"bike_id":"2283060d-dbb1-4bd7-b1b3-a1fba1903200","system_id":"levelo_inurba_marseille","lat":43.24671,"lon":5.38155,"is_reserved":false,"is_disabled":false,"rental_uris":{"android":"levelo://app?vid=2283060d-dbb1-4bd7-b1b3-a1fba1903200","ios":"levelo://app?vid=2283060d-dbb1-4bd7-b1b3-a1fba1903200"},"vehicle_type_id":"4","last_reported":1762715220,"current_range_meters":17200,"station_id":"ce4bhih2rcd13ifvqfr0","pricing_plan_id":"cebpf4jnsgd1na2vs0mg"},{"bike_id":"58afb123-caf0-4f8c-8a2d-b3a6669c0bc6","system_id":"levelo_inurba_marseille","lat":43.248008,"lon":5.374569,"is_reserved":false,"is_disabled":true,"rental_uris":{"android":"levelo://app?vid=58afb123-caf0-4f8c-8a2d-b3a6669c0bc6","ios":"levelo://app?vid=58afb123-caf0-4f8c-8a2d-b3a6669c0bc6"},"vehicle_type_id":"4","last_reported":1762715220,"current_range_meters":17200,"station_id":"","pricing_plan_id":"cebpf4jnsgd1na2vs0mg"},{"bike_id":"4114116c-196d-4c78-afb8-35d7b30b4a38","system_id":"levelo_inurba_marseille","lat":43.23193,"lon":5.35549,"is_reserved":false,"is_disabled":true,"rental_uris":{"android":"levelo://app?vid=4114116c-196d-4c78-afb8-35d7b30b4a38","ios":"levelo://app?vid=4114116c-196d-4c78-afb8-35d7b30b4a38"},"vehicle_type_id":"4","last_reported":1762715220,"current_range_meters":17200,"station_id":"ce4bhu92rcd13ifvqi70","pricing_plan_id":"cebpf4jnsgd1na2vs0mg"},{"bike_id":"cb5b6599-d35b-4e94-b533-dd10068a618a","system_id":"levelo_inurba_marseille","lat":43.28446,"lon":5.39207,"is_reserved":false,"is_disabled":false,"rental_uris":{"android":"levelo://app?vid=cb5b6599-d35b-4e94-b533-dd10068a618a","ios":"levelo://app?vid=cb5b6599-d35b-4e94-b533-dd10068a618a"},"vehicle_type_id":"4","last_reported":1762715220,"current_range_meters":17200,"station_id":"ce4bhoh2rcd13ifvqh5g","pricing_plan_id":"cebpf4jnsgd1na2vs0mg"},{"bike_id":"93b49ebf-d9fa-49cd-9da3-22e867a810f3","system_id":"levelo_inurba_marseille","lat":43.297501,"lon":5.411139,"is_reserved":false,"is_disabled":false,"rental_uris":{"android":"levelo://app?vid=93b49ebf-d9fa-49cd-9da3-22e867a810f3","ios":"levelo://app?vid=93b49ebf-d9fa-49cd-9da3-22e867a810f3"},"vehicle_type_id":"4","last_reported":1762715220,"current_range_meters":17200,"station_id":"","pricing_plan_id":"cebpf4jnsgd1na2vs0mg"},{"bike_id":"bd5f8506-f345-40e8-ae51-1efb099c8943","system_id":"levelo_inurba_marseille","lat":43.32694,"lon":5.39198,"is_reserved":false,"is_disabled":false,"rental_uris":{"android":"levelo://app?vid=bd5f8506-f345-40e8-ae51-1efb099c8943","ios":"levelo://app?vid=bd5f8506-f345-40e8-ae51-1efb099c8943"},"vehicle_type_id":"4","last_reported":1762715220,"current_range_meters":17200,"station_id":"","pricing_plan_id":"cebpf4jnsgd1na2vs0mg"},{"bike_id":"4b72655c-6fd8-4bfa-adae-22ba574c2189","system_id":"levelo_inurba_marseille","lat":43.29569,"lon":5.37527,"is_reserved":false,"is_disabled":false,"rental_uris":{"android":"levelo://app?vid=4b72655c-6fd8-4bfa-adae-22ba574c2189","ios":"levelo://app?vid=4b72655c-6fd8-4bfa-adae-22ba574c2189"},"vehicle_type_id":"4","last_reported":1762715220,"current_range_meters":17200,"station_id":"ce4bgh92rcd13ifvqb50","pricing_plan_id":"cebpf4jnsgd1na2vs0mg"},{"bike_id":"dcb3a940-33b3-4203-88d9-1084cf68a01e","system_id":"levelo_inurba_marseille","lat":43.24657,"lon":5.43137,"is_reserved":false,"is_disabled":false,"rental_uris":{"android":"levelo://app?vid=dcb3a940-33b3-4203-88d9-1084cf68a01e","ios":"levelo://app?vid=dcb3a940-33b3-4203-88d9-1084cf68a01e"},"vehicle_type_id":"4","last_reported":1762715220,"current_range_meters":17600,"station_id":"st_d2m6c4gdas8pm72e190g","pricing_plan_id":"cebpf4jnsgd1na2vs0mg"},