{"last_updated":1714777668,"ttl":30,"version":"2.2","data":{"bikes":[{"bike_id":"98ae3155-780f-470b-a5ed-f52a352d6d9f","system_id":"levelo_inurba_marseille","lat":43.313523,"lon":5.367026,"is_reserved":false,"is_disabled":false,"rental_uris":{"android":"levelo://app?vid=98ae3155-780f-470b-a5ed-f52a352d6d9f","ios":"levelo://app?vid=98ae3155-780f-470b-a5ed-f52a352d6d9f"},"vehicle_type_id":"4","last_reported":1714777668,"current_range_meters":0,"station_id":"ce4bgr92rcd13ifvqc6g","pricing_plan_id":"cebpf4jnsgd1na2vs0mg"},{"bike_id":"69008581-b196-4d93-97d2-394f5c35a235","system_id":"levelo_inurba_marseille","lat":43.313391,"lon":5.36706,"is_reserved":false,"is_disabled":false,"rental_uris":{"android":"levelo://app?vid=69008581-b196-4d93-97d2-394f5c35a235","ios":"levelo://app?vid=69008581-b196-4d93-97d2-394f5c35a235"},"vehicle_type_id":"4","last_reported":1714777668,"current_range_meters":31200,"station_id":"ce4bgr92rcd13ifvqc6g","pricing_plan_id":"cebpf4jnsgd1na2vs0mg"},{"bike_id":"e8d193b0-64e8-4308-a485-80c17af5bf17","system_id":"levelo_inurba_marseille","lat":43.312239,"lon":5.368562,"is_reserved":false,"is_disabled":false,"rental_uris":{"android":"levelo://app?vid=e8d193b0-64e8-4308-a485-80c17af5bf17","ios":"levelo://app?vid=e8d193b0-64e8-4308-a485-80c17af5bf17"},"vehicle_type_id":"4","last_reported":1714777668,"current_range_meters":30800,"station_id":"ce4bgl92rcd13ifvqbq0","pricing_plan_id":"cebpf4jnsgd1na2vs0mg"},{"bike_id":"86f1fba8-c873-4460-b4f2-ea811e069a5e","system_id":"levelo_inurba_marseille","lat":43.309076,"lon":5.368465,"is_reserved":false,"is_disabled":false,"rental_uris":{"android":"levelo://app?vid=86f1fba8-c873-4460-b4f2-ea811e069a5e","ios":"levelo://app?vid=86f1fba8-c873-4460-b4f2-ea811e069a5e"},"vehicle_type_id":"4","last_reported":1714777668,"current_range_meters":4800,"station_id":"ce4bgn92rcd13ifvqbvg","pricing_plan_id":"cebpf4jnsgd1na2vs0mg"},{"bike_id":"ef0c74d2-2d88-4dc8-9663-ed41e14699fa","system_id":"levelo_inurba_marseille","lat":43.30895,"lon":5.36672,"is_reserved":false,"is_disabled":false,"rental_uris":{"android":"levelo://app?vid=ef0c74d2-2d88-4dc8-9663-ed41e14699fa","ios":"levelo://app?vid=ef0c74d2-2d88-4dc8-9663-ed41e14699fa"},"vehicle_type_id":"4","last_reported":1714777668,"current_range_meters":22800,"station_id":"","pricing_plan_id":"cebpf4jnsgd1na2vs0mg"},{"bike_id":"387487d5-f3dd-4efc-b23d-73e8f04bd721","system_id":"levelo_inurba_marseille","lat":43.314811,"lon":5.373103,"is_reserved":false,"is_disabled":false,"rental_uris":{"android":"levelo://app?vid=387487d5-f3dd-4efc-b23d-73e8f04bd721","ios":"levelo://app?vid=387487d5-f3dd-4efc-b23d-73e8f04bd721"},"vehicle_type_id":"4","last_reported":1714777668,"current_range_meters":12800,"station_id":"ce4bgt12rcd13ifvqcd0","pricing_plan_id":"cebpf4jnsgd1na2vs0mg"},{"bike_id":"b42ee5bb-c1e3-43f2-ba30-d8f33cde3e73","system_id":"levelo_inurba_marseille","lat":43.314811,"lon":5.373103,"is_reserved":false,"is_disabled":false,"rental_uris":{"android":"levelo://app?vid=b42ee5bb-c1e3-43f2-ba30-d8f33cde3e73","ios":"levelo://app?vid=b42ee5bb-c1e3-43f2-ba30-d8f33cde3e73"},"vehicle_type_id":"4","last_reported":1714777668,"current_range_meters":29200,"station_id":"ce4bgt12rcd13ifvqcd0","pricing_plan_id":"cebpf4jnsgd1na2vs0mg"},{"bike_id":"13814cbf-a43d-47bf-b60d-47a06591f2fc","system_id":"levelo_inurba_marseille","lat":43.314811,"lon":5.373103,"is_reserved":false,"is_disabled":false,"rental_uris":{"android":"levelo://app?vid=13814cbf-a43d-47bf-b60d-47a06591f2fc","ios":"levelo://app?vid=13814cbf-a43d-47bf-b60d-47a06591f2fc"},"vehicle_type_id":"4","last_reported":1714777668,"current_range_meters":20800,"station_id":"ce4bgt12rcd13ifvqcd0","pricing_plan_id":"cebpf4jnsgd1na2vs0mg"},{"bike_id":"f4732869-18ac-4b31-aa60-9bfd79c55270","system_id":"levelo_inurba_marseille","lat":43.314811,"lon":5.373103,"is_reserved":false,"is_disabled":false,"rental_uris":{"android":"levelo://app?vid=f4732869-18ac-4b31-aa60-9bfd79c55270","ios":"levelo://app?vid=f4732869-18ac-4b31-aa60-9bfd79c55270"},"vehicle_type_id":"4","last_reported":1714777668,"current_range_meters":31200,"station_id":"ce4bgt12rcd13ifvqcd0","pricing_plan_id":"cebpf4jnsgd1na2vs0mg"},{"bike_id":"71138fa3-f539-4196-a21f-fb5fb249eb7e","system_id":"levelo_inurba_marseille","lat":43.314811,"lon":5.373103,"is_reserved":false,"is_disabled":false,"rental_uris":{"android":"levelo://app?vid=71138fa3-f539-4196-a21f-fb5fb249eb7e","ios":"levelo://app?vid=71138fa3-f539-4196-a21f-fb5fb249eb7e"},"vehicle_type_id":"4","last_reported":1714777668,"current_range_meters":31600,"station_id":"ce4bgt12rcd13ifvqcd0","pricing_plan_id":"cebpf4jnsgd1na2vs0mg"},{"bike_id":"11f40c3d-2ddb-4019-987c-79d16c140bca","system_id":"levelo_inurba_marseille","lat":43.314811,"lon":5.373103,"is_reserved":false,"is_disabled":false,"rental_uris":{"android":"levelo://app?vid=11f40c3d-2ddb-4019-987c-79d16c140bca","ios":"levelo://app?vid=11f40c3d-2ddb-4019-987c-79d16c140bca"},"vehicle_type_id":"4","last_reported":1714777668,"current_range_meters":22000,"station_id":"ce4bgt12rcd13ifvqcd0","pricing_plan_id":"cebpf4jnsgd1na2vs0mg"},{"bike_id":"f250a560-5ebd-4d10-9e5e-dc66479945d1","system_id":"levelo_inurba_marseille","lat":43.314811,"lon":5.373104,"is_reserved":false,"is_disabled":false,"rental_uris":{"android":"levelo://app?vid=f250a560-5ebd-4d10-9e5e-dc66479945d1","ios":"levelo://app?vid=f250a560-5ebd-4d10-9e5e-dc66479945d1"},"vehicle_type_id":"4","last_reported":1714777668,"current_range_meters":12000,"station_id":"ce4bgt12rcd13ifvqcd0","pricing_plan_id":"cebpf4jnsgd1na2vs0mg"},{"bike_id":"f1c0d4b0-4687-4b38-8481-65726d9fc76e","system_id":"levelo_inurba_marseille","lat":43.309039,"lon":5.371797,"is_reserved":false,"is_disabled":false,"rental_uris":{"android":"levelo://app?vid=f1c0d4b0-4687-4b38-8481-65726d9fc76e","ios":"levelo://app?vid=f1c0d4b0-4687-4b38-8481-65726d9fc76e"},"vehicle_type_id":"4","last_reported":1714777668,"current_range_meters":10800,"station_id":"ce4bguh2rcd13ifvqckg","pricing_plan_id":"cebpf4jnsgd1na2vs0mg"},{"bike_id":"347476af-1919-436b-bc2b-91323c37a594","system_id":"levelo_inurba_marseille","lat":43.309039,"lon":5.371797,"is_reserved":false,"is_disabled":false,"rental_uris":{"android":"levelo://app?vid=347476af-1919-436b-bc2b-91323c37a594","ios":"levelo://app?vid=347476af-1919-436b-bc2b-91323c37a594"},"vehicle_type_id":"4","last_reported":1714777668,"current_range_meters":0,"station_id":"ce4bguh2rcd13ifvqckg","pricing_plan_id":"cebpf4jnsgd1na2vs0mg"},{"bike_id":"0b7b0d96-7580-4d6e-b473-1d1365dc2219","system_id":"levelo_inurba_marseille","lat":43.309039,"lon":5.371797,"is_reserved":false,"is_disabled":false,"rental_uris":{"android":"levelo://app?vid=0b7b0d96-7580-4d6e-b473-1d1365dc2219","ios":"levelo://app?vid=0b7b0d96-7580-4d6e-b473-1d1365dc2219"},"vehicle_type_id":"4","last_reported":1714777668,"current_range_meters":25600,"station_id":"ce4bguh2rcd13ifvqckg","pricing_plan_id":"cebpf4jnsgd1na2vs0mg"},{"bike_id":"f484057d-25f9-4f72-8d2f-7b3a9b962718","system_id":"levelo_inurba_marseille","lat":43.309034,"lon":5.371783,"is_reserved":false,"is_disabled":false,"rental_uris":{"android":"levelo://app?vid=f484057d-25f9-4f72-8d2f-7b3a9b962718","ios":"levelo://app?vid=f484057d-25f9-4f72-8d2f-7b3a9b962718"},"vehicle_type_id":"4","last_reported":1714777668,"current_range_meters":0,"station_id":"ce4bguh2rcd13ifvqckg","pricing_plan_id":"cebpf4jnsgd1na2vs0mg"},{"bike_id":"c2debd6b-5e63-4796-bc0f-f5ad938a9d44","system_id":"levelo_inurba_marseille","lat":43.309034,"lon":5.371783,"is_reserved":false,"is_disabled":false,"rental_uris":{"android":"levelo://app?vid=c2debd6b-5e63-4796-bc0f-f5ad938a9d44","ios":"levelo://app?vid=c2debd6b-5e63-4796-bc0f-f5ad938a9d44"},"vehicle_type_id":"4","last_reported":1714777668,"current_range_meters":2800,"station_id":"ce4bguh2rcd13ifvqckg","pricing_plan_id":"cebpf4jnsgd1na2vs0mg"},{"bike_id":"deb9e2af-c173-4c67-a0c9-5d2924863615","system_id":"levelo_inurba_marseille","lat":43.309034,"lon":5.371783,"is_reserved":false,"is_disabled":false,"rental_uris":{"android":"levelo://app?vid=deb9e2af-c173-4c67-a0c9-5d2924863615","ios":"levelo://app?vid=deb9e2af-c173-4c67-a0c9-5d2924863615"},"vehicle_type_id":"4","last_reported":1714777668,"current_range_meters":5600,"station_id":"ce4bguh2rcd13ifvqckg","pricing_plan_id":"cebpf4jnsgd1na2vs0mg"},{"bike_id":"a2dae483-1169-4338-91bc-3d1728f33b78","system_id":"levelo_inurba_marseille","lat":43.305989,"lon":5.37225,"is_reserved":false,"is_disabled":false,"rental_uris":{"android":"levelo://app?vid=a2dae483-1169-4338-91bc-3d1728f33b78","ios":"levelo://app?vid=a2dae483-1169-4338-91bc-3d1728f33b78"},"vehicle_type_id":"4","last_reported":1714777668,"current_range_meters":7200,"station_id":"ce4bgqh2rcd13ifvqc4g","pricing_plan_id":"cebpf4jnsgd1na2vs0mg"},{"bike_id":"4c255b08-2c21-4eae-8257-014a60a65ed7","system_id":"levelo_inurba_marseille","lat":43.305989,"lon":5.37225,"is_reserved":false,"is_disabled":false,"rental_uris":{"android":"levelo://app?vid=4c255b08-2c21-4eae-8257-014a60a65ed7","ios":"levelo://app?vid=4c255b08-2c21-4eae-8257-014a60a65ed7"},"vehicle_type_id":"4","last_reported":1714777668,"current_range_meters":29200,"station_id":"ce4bgqh2rcd13ifvqc4g","pricing_plan_id":"cebpf4jnsgd1na2vs0mg"},{"bike_id":"4dfee0c5-3c7f-4634-b3d2-75debcfc1c6d","system_id":"levelo_inurba_marseille","lat":43.305989,"lon":5.37225,"is_reserved":false,"is_disabled":false,"rental_uris":{"android":"levelo://app?vid=4dfee0c5-3c7f-4634-b3d2-75debcfc1c6d","ios":"levelo://app?vid=4dfee0c5-3c7f-4634-b3d2-75debcfc1c6d"},"vehicle_type_id":"4","last_reported":1714777668,"current_range_meters":16400,"station_id":"ce4bgqh2rcd13ifvqc4g","pricing_plan_id":"cebpf4jnsgd1na2vs0mg"},{"bike_id":"aa43bc9d-9e38-4066-a5ff-7675fe41f23b","system_id":"levelo_inurba_marseille","lat":43.305989,"lon":5.37225,"is_reserved":false,"is_disabled":false,"rental_uris":{"android":"levelo://app?vid=aa43bc9d-9e38-4066-a5ff-7675fe41f23b","ios":"levelo://app?vid=aa43bc9d-9e38-4066-a5ff-7675fe41f23b"},"vehicle_type_id":"4","last_reported":1714777668,"current_range_meters":2000,"station_id":"ce4bgqh2rcd13ifvqc4g","pricing_plan_id":"cebpf4jnsgd1na2vs0mg"},{"bike_id":"28bc727c-31ff-40d3-ab84-f225ecdeec1e","system_id":"levelo_inurba_marseille","lat":43.305989,"lon":5.37225,"is_reserved":false,"is_disabled":false,"rental_uris":{"android":"levelo://app?vid=28bc727c-31ff-40d3-ab84-f225ecdeec1e","ios":"levelo://app?vid=28bc727c-31ff-40d3-ab84-f225ecdeec1e"},"vehicle_type_id":"4","last_reported":1714777668,"current_range_meters":14800,"station_id":"ce4bgqh2rcd13ifvqc4g","pricing_plan_id":"cebpf4jnsgd1na2vs0mg"},{"bike_id":"cf35f12b-fe72-4bdd-beeb-579c8d84711a","system_id":"levelo_inurba_marseille","lat":43.311125,"lon":5.377624,"is_reserved":false,"is_disabled":false,"rental_uris":{"android":"levelo://app?vid=cf35f12b-fe72-4bdd-beeb-579c8d84711a","ios":"levelo://app?vid=cf35f12b-fe72-4bdd-beeb-579c8d84711a"},"vehicle_type_id":"4","last_reported":1714777668,"current_range_meters":30400,"station_id":"ce4bgt92rcd13ifvqcg0","pricing_plan_id":"cebpf4jnsgd1na2vs0mg"},{"bike_id":"430c7868-bc49-4b80-b2da-a278a6a3ac54","system_id":"levelo_inurba_marseille","lat":43.311131,"lon":5.377651,"is_reserved":false,"is_disabled":false,"rental_uris":{"android":"levelo://app?vid=430c7868-bc49-4b80-b2da-a278a6a3ac54","ios":"levelo://app?vid=430c7868-bc49-4b80-b2da-a278a6a3ac54"},"vehicle_type_id":"4","last_reported":1714777668,"current_range_meters":4800,"station_id":"ce4bgt92rcd13ifvqcg0","pricing_plan_id":"cebpf4jnsgd1na2vs0mg"},{"bike_id":"b86359a0-b192-404a-81e2-5e8bb528d818","system_id":"levelo_inurba_marseille","lat":43.311131,"lon":5.377651,"is_reserved":false,"is_disabled":false,"rental_uris":{"android":"levelo://app?vid=b86359a0-b192-404a-81e2-5e8bb528d818","ios":"levelo://app?vid=b86359a0-b192-404a-81e2-5e8bb528d818"},"vehicle_type_id":"4","last_reported":1714777668,"current_range_meters":9600,"station_id":"ce4bgt92rcd13ifvqcg0","pricing_plan_id":"cebpf4jnsgd1na2vs0mg"},{"bike_id":"2b24a726-4896-46e2-a43c-a69976633517","system_id":"levelo_inurba_marseille","lat":43.311131,"lon":5.377651,"is_reserved":false,"is_disabled":false,"rental_uris":{"android":"levelo://app?vid=2b24a726-4896-46e2-a43c-a69976633517","ios":"levelo://app?vid=2b24a726-4896-46e2-a43c-a69976633517"},"vehicle_type_id":"4","last_reported":1714777668,"current_range_meters":13200,"station_id":"ce4bgt92rcd13ifvqcg0","pricing_plan_id":"cebpf4jnsgd1na2vs0mg"},{"bike_id":"790ee748-dc09-42ee-9586-85f60ba74bae","system_id":"levelo_inurba_marseille","lat":43.311125,"lon":5.377624,"is_reserved":false,"is_disabled":false,"rental_uris":{"android":"levelo://app?vid=790ee748-dc09-42ee-9586-85f60ba74bae","ios":"levelo://app?vid=790ee748-dc09-42ee-9586-85f60ba74bae"},"vehicle_type_id":"4","last_reported":1714777668,"current_range_meters":23200,"station_id":"ce4bgt92rcd13ifvqcg0","pricing_plan_id":"cebpf4jnsgd1na2vs0mg"},{"bike_id":"0b7adaa5-d1d7-4cd1-8c16-0eb3e5fcedda","system_id":"levelo_inurba_marseille","lat":43.311125,"lon":5.377624,"is_reserved":false,"is_disabled":false,"rental_uris":{"android":"levelo://app?vid=0b7adaa5-d1d7-4cd1-8c16-0eb3e5fcedda","ios":"levelo://app?vid=0b7adaa5-d1d7-4cd1-8c16-0eb3e5fcedda"},"vehicle_type_id":"4","last_reported":1714777668,"current_range_meters":4800,"station_id":"ce4bgt92rcd13ifvqcg0","pricing_plan_id":"cebpf4jnsgd1na2vs0mg"},{"bike_id":"496321d1-8a52-431f-9445-aefc2cc10381","system_id":"levelo_inurba_marseille","lat":43.311173,"lon":5.377644,"is_reserved":false,"is_disabled":false,"rental_uris":{"android":"levelo://app?vid=496321d1-8a52-431f-9445-aefc2cc10381","ios":"levelo://app?vid=496321d1-8a52-431f-9445-aefc2cc10381"},"vehicle_type_id":"4","last_reported":1714777668,"current_range_meters":25600,"station_id":"ce4bgt92rcd13ifvqcg0","pricing_plan_id":"cebpf4jnsgd1na2vs0mg"},{"bike_id":"9934b240-73e2-4c68-affe-da3e9e536ef9","system_id":"levelo_inurba_marseille","lat":43.311125,"lon":5.377624,"is_reserved":false,"is_disabled":false,"rental_uris":{"android":"levelo://app?vid=9934b240-73e2-4c68-affe-da3e9e536ef9","ios":"levelo://app?vid=9934b240-73e2-4c68-affe-da3e9e536ef9"},"vehicle_type_id":"4","last_reported":1714777668,"current_range_meters":31200,"station_id":"ce4bgt92rcd13ifvqcg0","pricing_plan_id":"cebpf4jnsgd1na2vs0mg"},{"bike_id":"7ec2972b-e8d4-41d7-b803-47273bab9a8d","system_id":"levelo_inurba_marseille","lat":43.311131,"lon":5.377651,"is_reserved":false,"is_disabled":false,"rental_uris":{"android":"levelo://app?vid=7ec2972b-e8d4-41d7-b803-47273bab9a8d","ios":"levelo://app?vid=7ec2972b-e8d4-41d7-b803-47273bab9a8d"},"vehicle_type_id":"4","last_reported":1714777668,"current_range_meters":23600,"station_id":"ce4bgt92rcd13ifvqcg0","pricing_plan_id":"cebpf4jnsgd1na2vs0mg"},{"bike_id":"289f5e91-732d-405d-a2f3-89eccaf6e37a","system_id":"levelo_inurba_marseille","lat":43.311125,"lon":5.377624,"is_reserved":false,"is_disabled":false,"rental_uris":{"android":"levelo://app?vid=289f5e91-732d-405d-a2f3-89eccaf6e37a","ios":"levelo://app?vid=289f5e91-732d-405d-a2f3-89eccaf6e37a"},"vehicle_type_id":"4","last_reported":1714777668,"current_range_meters":400,"station_id":"ce4bgt92rcd13ifvqcg0","pricing_plan_id":"cebpf4jnsgd1na2vs0mg"},{"bike_id":"31db974c-c28c-454c-ab80-0933c1dd6ed3","system_id":"levelo_inurba_marseille","lat":43.307945,"lon":5.376487,"is_reserved":false,"is_disabled":false,"rental_uris":{"android":"levelo://app?vid=31db974c-c28c-454c-ab80-0933c1dd6ed3","ios":"levelo://app?vid=31db974c-c28c-454c-ab80-0933c1dd6ed3"},"vehicle_type_id":"4","last_reported":1714777668,"current_range_meters":29200,"station_id":"ce4bgv92rcd13ifvqcq0","pricing_plan_id":"cebpf4jnsgd1na2vs0mg"},{"bike_id":"c60ea721-624e-497c-b024-62b1ad2c0b94","system_id":"levelo_inurba_marseille","lat":43.307945,"lon":5.376487,"is_reserved":false,"is_disabled":false,"rental_uris":{"android":"levelo://app?vid=c60ea721-624e-497c-b024-62b1ad2c0b94","ios":"levelo://app?vid=c60ea721-624e-497c-b024-62b1ad2c0b94"},"vehicle_type_id":"4","last_reported":1714777668,"current_range_meters":10400,"station_id":"ce4bgv92rcd13ifvqcq0","pricing_plan_id":"cebpf4jnsgd1na2vs0mg"},{"bike_id":"a89702c4-f7b1-4a22-9488-7e92337af37c","system_id":"levelo_inurba_marseille","lat":43.307945,"lon":5.376487,"is_reserved":false,"is_disabled":false,"rental_uris":{"android":"levelo://app?vid=a89702c4-f7b1-4a22-9488-7e92337af37c","ios":"levelo://app?vid=a89702c4-f7b1-4a22-9488-7e92337af37c"},"vehicle_type_id":"4","last_reported":1714777668,"current_range_meters":16800,"station_id":"ce4bgv92rcd13ifvqcq0","pricing_plan_id":"cebpf4jnsgd1na2vs0mg"},{"bike_id":"86baad8d-ed04-458b-a936-4483d9eb95e2","system_id":"levelo_inurba_marseille","lat":43.307945,"lon":5.376487,"is_reserved":false,"is_disabled":false,"rental_uris":{"android":"levelo://app?vid=86baad8d-ed04-458b-a936-4483d9eb95e2","ios":"levelo://app?vid=86baad8d-ed04-458b-a936-4483d9eb95e2"},"vehicle_type_id":"4","last_reported":1714777668,"current_range_meters":16000,"station_id":"ce4bgv92rcd13ifvqcq0","pricing_plan_id":"cebpf4jnsgd1na2vs0mg"},{"bike_id":"c43d6d98-27d6-46a6-ad6f-5b7ca9f08b92","system_id":"levelo_inurba_marseille","lat":43.317075,"lon":5.377367,"is_reserved":false,"is_disabled":false,"rental_uris":{"android":"levelo://app?vid=c43d6d98-27d6-46a6-ad6f-5b7ca9f08b92","ios":"levelo://app?vid=c43d6d98-27d6-46a6-ad6f-5b7ca9f08b92"},"vehicle_type_id":"4","last_reported":1714777668,"current_range_meters":8800,"station_id":"ce4bgth2rcd13ifvqch0","pricing_plan_id":"cebpf4jnsgd1na2vs0mg"},{"bike_id":"79941350-30c4-4ec5-9dd2-151c4381308c","system_id":"levelo_inurba_marseille","lat":43.317075,"lon":5.377367,"is_reserved":false,"is_disabled":false,"rental_uris":{"android":"levelo://app?vid=79941350-30c4-4ec5-9dd2-151c4381308c","ios":"levelo://app?vid=79941350-30c4-4ec5-9dd2-151c4381308c"},"vehicle_type_id":"4","last_reported":1714777668,"current_range_meters":21600,"station_id":"ce4bgth2rcd13ifvqch0","pricing_plan_id":"cebpf4jnsgd1na2vs0mg"},{"bike_id":"147735a4-2e2c-4a6b-9c5a-21eb219cc018","system_id":"levelo_inurba_marseille","lat":43.317075,"lon":5.377367,"is_reserved":false,"is_disabled":false,"rental_uris":{"android":"levelo://app?vid=147735a4-2e2c-4a6b-9c5a-21eb219cc018","ios":"levelo://app?vid=147735a4-2e2c-4a6b-9c5a-21eb219cc018"},"vehicle_type_id":"4","last_reported":1714777668,"current_range_meters":18000,"station_id":"ce4bgth2rcd13ifvqch0","pricing_plan_id":"cebpf4jnsgd1na2vs0mg"},{"bike_id":"99d66f7b-2ebe-4936-92b5-2748601520c9","system_id":"levelo_inurba_marseille","lat":43.317075,"lon":5.377367,"is_reserved":false,"is_disabled":false,"rental_uris":{"android":"levelo://app?vid=99d66f7b-2ebe-4936-92b5-2748601520c9","ios":"levelo://app?vid=99d66f7b-2ebe-4936-92b5-2748601520c9"},"vehicle_type_id":"4","last_reported":1714777668,"current_range_meters":28800,"station_id":"ce4bgth2rcd13ifvqch0","pricing_plan_id":"cebpf4jnsgd1na2vs0mg"},{"bike_id":"9f75e496-236b-4501-93c9-18ca058e14b9","system_id":"levelo_inurba_marseille","lat":43.317075,"lon":5.377367,"is_reserved":false,"is_disabled":false,"rental_uris":{"android":"levelo://app?vid=9f75e496-236b-4501-93c9-18ca058e14b9","ios":"levelo://app?vid=9f75e496-236b-4501-93c9-18ca058e14b9"},"vehicle_type_id":"4","last_reported":1714777668,"current_range_meters":12800,"station_id":"ce4bgth2rcd13ifvqch0","pricing_plan_id":"cebpf4jnsgd1na2vs0mg"},{"bike_id":"8868dd8f-c75e-48ef-a209-bf77b08abb92","system_id":"levelo_inurba_marseille","lat":43.315289,"lon":5.380349,"is_reserved":false,"is_disabled":false,"rental_uris":{"android":"levelo://app?vid=8868dd8f-c75e-48ef-a209-bf77b08abb92","ios":"levelo://app?vid=8868dd8f-c75e-48ef-a209-bf77b08abb92"},"vehicle_type_id":"4","last_reported":1714777668,"current_range_meters":31600,"station_id":"ce4bhsp2rcd13ifvqi50","pricing_plan_id":"cebpf4jnsgd1na2vs0mg"},{"bike_id":"843a2394-f12b-430a-94a5-9de3545f59fd","system_id":"levelo_inurba_marseille","lat":43.315293,"lon":5.380349,"is_reserved":false,"is_disabled":false,"rental_uris":{"android":"levelo://app?vid=843a2394-f12b-430a-94a5-9de3545f59fd","ios":"levelo://app?vid=843a2394-f12b-430a-94a5-9de3545f59fd"},"vehicle_type_id":"4","last_reported":1714777668,"current_range_meters":31600,"station_id":"ce4bhsp2rcd13ifvqi50","pricing_plan_id":"cebpf4jnsgd1na2vs0mg"},{"bike_id":"e122a721-421d-4d3a-8577-e5a76308d588","system_id":"levelo_inurba_marseille","lat":43.315289,"lon":5.380349,"is_reserved":false,"is_disabled":false,"rental_uris":{"android":"levelo://app?vid=e122a721-421d-4d3a-8577-e5a76308d588","ios":"levelo://app?vid=e122a721-421d-4d3a-8577-e5a76308d588"},"vehicle_type_id":"4","last_reported":1714777668,"current_range_meters":14400,"station_id":"ce4bhsp2rcd13ifvqi50","pricing_plan_id":"cebpf4jnsgd1na2vs0mg"},{"bike_id":"742a3dac-15c5-4959-903e-fe0445dce0f4","system_id":"levelo_inurba_marseille","lat":43.30266,"lon":5.36555,"is_reserved":false,"is_disabled":false,"rental_uris":{"android":"levelo://app?vid=742a3dac-15c5-4959-903e-fe0445dce0f4","ios":"levelo://app?vid=742a3dac-15c5-4959-903e-fe0445dce0f4"},"vehicle_type_id":"4","last_reported":1714777668,"current_range_meters":12800,"station_id":"","pricing_plan_id":"cebpf4jnsgd1na2vs0mg"},{"bike_id":"bc56b1fc-fdaa-405b-8ab7-76d1696e5de8","system_id":"levelo_inurba_marseille","lat":43.315289,"lon":5.380349,"is_reserved":false,"is_disabled":false,"rental_uris":{"android":"levelo://app?vid=bc56b1fc-fdaa-405b-8ab7-76d1696e5de8","ios":"levelo://app?vid=bc56b1fc-fdaa-405b-8ab7-76d1696e5de8"},"vehicle_type_id":"4","last_reported":1714777668,"current_range_meters":30800,"station_id":"ce4bhsp2rcd13ifvqi50","pricing_plan_id":"cebpf4jnsgd1na2vs0mg"},{"bike_id":"4a12fe43-233d-4932-8f8c-98005063d081","system_id":"levelo_inurba_marseille","lat":43.30263,"lon":5.3656,"is_reserved":false,"is_disabled":false,"rental_uris":{"android":"levelo://app?vid=4a12fe43-233d-4932-8f8c-98005063d081","ios":"levelo://app?vid=4a12fe43-233d-4932-8f8c-98005063d081"},"vehicle_type_id":"4","last_reported":1714777668,"current_range_meters":8000,"station_id":"","pricing_plan_id":"cebpf4jnsgd1na2vs0mg"},{"bike_id":"998272b4-3a8a-43d1-8102-7f21194a824f","system_id":"levelo_inurba_marseille","lat":43.315293,"lon":5.380349,"is_reserved":false,"is_disabled":false,"rental_uris":{"android":"levelo://app?vid=998272b4-3a8a-43d1-8102-7f21194a824f","ios":"levelo://app?vid=998272b4-3a8a-43d1-8102-7f21194a824f"},"vehicle_type_id":"4","last_reported":1714777668,"current_range_meters":6800,"station_id":"ce4bhsp2rcd13ifvqi50","pricing_plan_id":"cebpf4jnsgd1na2vs0mg"},{"bike_id":"e502e0fc-e20e-463c-a897-caaaf0e4bf8e","system_id":"levelo_inurba_marseille","lat":43.308012,"lon":5.381511,"is_reserved":false,"is_disabled":false,"rental_uris":{"android":"levelo://app?vid=e502e0fc-e20e-463c-a897-caaaf0e4bf8e","ios":"levelo://app?vid=e502e0fc-e20e-463c-a897-caaaf0e4bf8e"},"vehicle_type_id":"4","last_reported":1714777668,"current_range_meters":23600,"station_id":"ce4bgt12rcd13ifvqce0","pricing_plan_id":"cebpf4jnsgd1na2vs0mg"},{"bike_id":"aaadc0b5-cf8d-42a8-b81e-ea4a35ad9da0","system_id":"levelo_inurba_marseille","lat":43.308012,"lon":5.381511,"is_reserved":false,"is_disabled":false,"rental_uris":{"android":"levelo://app?vid=aaadc0b5-cf8d-42a8-b81e-ea4a35ad9da0","ios":"levelo://app?vid=aaadc0b5-cf8d-42a8-b81e-ea4a35ad9da0"},"vehicle_type_id":"4","last_reported":1714777668,"current_range_meters":18400,"station_id":"ce4bgt12rcd13ifvqce0","pricing_plan_id":"cebpf4jnsgd1na2vs0mg"},{"bike_id":"ba2dc9a6-9e0d-42a6-9d46-d883cd806734","system_id":"levelo_inurba_marseille","lat":43.308012,"lon":5.381511,"is_reserved":false,"is_disabled":false,"rental_uris":{"android":"levelo://app?vid=ba2dc9a6-9e0d-42a6-9d46-d883cd806734","ios":"levelo://app?vid=ba2dc9a6-9e0d-42a6-9d46-d883cd806734"},"vehicle_type_id":"4","last_reported":1714777668,"current_range_meters":24000,"station_id":"ce4bgt12rcd13ifvqce0","pricing_plan_id":"cebpf4jnsgd1na2vs0mg"},{"bike_id":"bbf5118e-d69b-4dac-aaf6-f2cf0f3a692f","system_id":"levelo_inurba_marseille","lat":43.308012,"lon":5.381511,"is_reserved":false,"is_disabled":false,"rental_uris":{"android":"levelo://app?vid=bbf5118e-d69b-4dac-aaf6-f2cf0f3a692f","ios":"levelo://app?vid=bbf5118e-d69b-4dac-aaf6-f2cf0f3a692f"},"vehicle_type_id":"4","last_reported":1714777668,"current_range_meters":13600,"station_id":"ce4bgt12rcd13ifvqce0","pricing_plan_id":"cebpf4jnsgd1na2vs0mg"},{"bike_id":"f102f2ba-1a85-481b-ac25-9f62401121a6","system_id":"levelo_inurba_marseille","lat":43.308012,"lon":5.381511,"is_reserved":false,"is_disabled":false,"rental_uris":{"android":"levelo://app?vid=f102f2ba-1a85-481b-ac25-9f62401121a6","ios":"levelo://app?vid=f102f2ba-1a85-481b-ac25-9f62401121a6"},"vehicle_type_id":"4","last_reported":1714777668,"current_range_meters":26800,"station_id":"ce4bgt12rcd13ifvqce0","pricing_plan_id":"cebpf4jnsgd1na2vs0mg"},{"bike_id":"427cfae1-9017-4f78-a9b4-58cddf6830ef","system_id":"levelo_inurba_marseille","lat":43.308012,"lon":5.381511,"is_reserved":false,"is_disabled":false,"rental_uris":{"android":"levelo://app?vid=427cfae1-9017-4f78-a9b4-58cddf6830ef","ios":"levelo://app?vid=427cfae1-9017-4f78-a9b4-58cddf6830ef"},"vehicle_type_id":"4","last_reported":1714777668,"current_range_meters":6400,"station_id":"ce4bgt12rcd13ifvqce0","pricing_plan_id":"cebpf4jnsgd1na2vs0mg"},{"bike_id":"667c3e66-4226-40ee-8161-27fae8346197","system_id":"levelo_inurba_marseille","lat":43.308012,"lon":5.381511,"is_reserved":false,"is_disabled":false,"rental_uris":{"android":"levelo://app?vid=667c3e66-4226-40ee-8161-27fae8346197","ios":"levelo://app?vid=667c3e66-4226-40ee-8161-27fae8346197"},"vehicle_type_id":"4","last_reported":1714777668,"current_range_meters":23600,"station_id":"ce4bgt12rcd13ifvqce0","pricing_plan_id":"cebpf4jnsgd1na2vs0mg"},{"bike_id":"ad816130-1f84-40d1-af92-366b084c18a0","system_id":"levelo_inurba_marseille","lat":43.304606,"lon":5.379026,"is_reserved":false,"is_disabled":false,"rental_uris":{"android":"levelo://app?vid=ad816130-1f84-40d1-af92-366b084c18a0","ios":"levelo://app?vid=ad816130-1f84-40d1-af92-366b084c18a0"},"vehicle_type_id":"4","last_reported":1714777668,"current_range_meters":19600,"station_id":"ce4bgup2rcd13ifvqcn0","pricing_plan_id":"cebpf4jnsgd1na2vs0mg"},{"bike_id":"d39d311e-53ed-4a64-9b21-5b5f6b368764","system_id":"levelo_inurba_marseille","lat":43.324771,"lon":5.36557,"is_reserved":false,"is_disabled":false,"rental_uris":{"android":"levelo://app?vid=d39d311e-53ed-4a64-9b21-5b5f6b368764","ios":"levelo://app?vid=d39d311e-53ed-4a64-9b21-5b5f6b368764"},"vehicle_type_id":"4","last_reported":1714777668,"current_range_meters":14800,"station_id":"ce4bhs12rcd13ifvqhvg","pricing_plan_id":"cebpf4jnsgd1na2vs0mg"},{"bike_id":"34baa4d6-a523-496d-b988-eda377da6b9b","system_id":"levelo_inurba_marseille","lat":43.304606,"lon":5.379026,"is_reserved":false,"is_disabled":false,"rental_uris":{"android":"levelo://app?vid=34baa4d6-a523-496d-b988-eda377da6b9b","ios":"levelo://app?vid=34baa4d6-a523-496d-b988-eda377da6b9b"},"vehicle_type_id":"4","last_reported":1714777668,"current_range_meters":28000,"station_id":"ce4bgup2rcd13ifvqcn0","pricing_plan_id":"cebpf4jnsgd1na2vs0mg"},{"bike_id":"e3e5c3a1-7d82-4028-ac0c-c5221fbf5170","system_id":"levelo_inurba_marseille","lat":43.304606,"lon":5.379026,"is_reserved":false,"is_disabled":false,"rental_uris":{"android":"levelo://app?vid=e3e5c3a1-7d82-4028-ac0c-c5221fbf5170","ios":"levelo://app?vid=e3e5c3a1-7d82-4028-ac0c-c5221fbf5170"},"vehicle_type_id":"4","last_reported":1714777668,"current_range_meters":31200,"station_id":"ce4bgup2rcd13ifvqcn0","pricing_plan_id":"cebpf4jnsgd1na2vs0mg"},{"bike_id":"4ecf1310-b05d-4109-8ee3-de0bb58656b7","system_id":"levelo_inurba_marseille","lat":43.324771,"lon":5.365593,"is_reserved":false,"is_disabled":false,"rental_uris":{"android":"levelo://app?vid=4ecf1310-b05d-4109-8ee3-de0bb58656b7","ios":"levelo://app?vid=4ecf1310-b05d-4109-8ee3-de0bb58656b7"},"vehicle_type_id":"4","last_reported":1714777668,"current_range_meters":8400,"station_id":"ce4bhs12rcd13ifvqhvg","pricing_plan_id":"cebpf4jnsgd1na2vs0mg"},{"bike_id":"f1810f30-de1d-43db-99e3-9ac794fc962f","system_id":"levelo_inurba_marseille","lat":43.32478,"lon":5.3656,"is_reserved":false,"is_disabled":false,"rental_uris":{"android":"levelo://app?vid=f1810f30-de1d-43db-99e3-9ac794fc962f","ios":"levelo://app?vid=f1810f30-de1d-43db-99e3-9ac794fc962f"},"vehicle_type_id":"4","last_reported":1714777668,"current_range_meters":0,"station_id":"ce4bhs12rcd13ifvqhvg","pricing_plan_id":"cebpf4jnsgd1na2vs0mg"},{"bike_id":"c9f81f15-290b-43d3-ac09-210ea497e19c","system_id":"levelo_inurba_marseille","lat":43.324771,"lon":5.36557,"is_reserved":false,"is_disabled":false,"rental_uris":{"android":"levelo://app?vid=c9f81f15-290b-43d3-ac09-210ea497e19c","ios":"levelo://app?vid=c9f81f15-290b-43d3-ac09-210ea497e19c"},"vehicle_type_id":"4","last_reported":1714777668,"current_range_meters":13200,"station_id":"ce4bhs12rcd13ifvqhvg","pricing_plan_id":"cebpf4jnsgd1na2vs0mg"},{"bike_id":"46ddee76-99a1-44b8-8282-c8d365225419","system_id":"levelo_inurba_marseille","lat":43.32484,"lon":5.36565,"is_reserved":false,"is_disabled":false,"rental_uris":{"android":"levelo://app?vid=46ddee76-99a1-44b8-8282-c8d365225419","ios":"levelo://app?vid=46ddee76-99a1-44b8-8282-c8d365225419"},"vehicle_type_id":"4","last_reported":1714777668,"current_range_meters":2800,"station_id":"ce4bhs12rcd13ifvqhvg","pricing_plan_id":"cebpf4jnsgd1na2vs0mg"},{"bike_id":"dff9f089-e9ad-49de-be1b-ef405955dfcc","system_id":"levelo_inurba_marseille","lat":43.324771,"lon":5.36557,"is_reserved":false,"is_disabled":false,"rental_uris":{"android":"levelo://app?vid=dff9f089-e9ad-49de-be1b-ef405955dfcc","ios":"levelo://app?vid=dff9f089-e9ad-49de-be1b-ef405955dfcc"},"vehicle_type_id":"4","last_reported":1714777668,"current_range_meters":7200,"station_id":"ce4bhs12rcd13ifvqhvg","pricing_plan_id":"cebpf4jnsgd1na2vs0mg"},{"bike_id":"b0823445-1a25-4002-b6ce-d5585de184f7","system_id":"levelo_inurba_marseille","lat":43.324771,"lon":5.36557,"is_reserved":false,"is_disabled":false,"rental_uris":{"android":"levelo://app?vid=b0823445-1a25-4002-b6ce-d5585de184f7","ios":"levelo://app?vid=b0823445-1a25-4002-b6ce-d5585de184f7"},"vehicle_type_id":"4","last_reported":1714777668,"current_range_meters":12800,"station_id":"ce4bhs12rcd13ifvqhvg","pricing_plan_id":"cebpf4jnsgd1na2vs0mg"},{"bike_id":"647aa01f-b9c0-4ea3-9e12-9435fa686078","system_id":"levelo_inurba_marseille","lat":43.324771,"lon":5.36557,"is_reserved":false,"is_disabled":false,"rental_uris":{"android":"levelo://app?vid=647aa01f-b9c0-4ea3-9e12-9435fa686078","ios":"levelo://app?vid=647aa01f-b9c0-4ea3-9e12-9435fa686078"},"vehicle_type_id":"4","last_reported":1714777668,"current_range_meters":16800,"station_id":"ce4bhs12rcd13ifvqhvg","pricing_plan_id":"cebpf4jnsgd1na2vs0mg"},{"bike_id":"ae2a2cb3-b925-4c94-87d6-cedaefaea00b","system_id":"levelo_inurba_marseille","lat":43.324771,"lon":5.36557,"is_reserved":false,"is_disabled":false,"rental_uris":{"android":"levelo://app?vid=ae2a2cb3-b925-4c94-87d6-cedaefaea00b","ios":"levelo://app?vid=ae2a2cb3-b925-4c94-87d6-cedaefaea00b"},"vehicle_type_id":"4","last_reported":1714777668,"current_range_meters":26000,"station_id":"ce4bhs12rcd13ifvqhvg","pricing_plan_id":"cebpf4jnsgd1na2vs0mg"},{"bike_id":"0fdc7add-ba2e-4869-8c0c-d31af864f4d3","system_id":"levelo_inurba_marseille","lat":43.324771,"lon":5.36557,"is_reserved":false,"is_disabled":false,"rental_uris":{"android":"levelo://app?vid=0fdc7add-ba2e-4869-8c0c-d31af864f4d3","ios":"levelo://app?vid=0fdc7add-ba2e-4869-8c0c-d31af864f4d3"},"vehicle_type_id":"4","last_reported":1714777668,"current_range_meters":21200,"station_id":"ce4bhs12rcd13ifvqhvg","pricing_plan_id":"cebpf4jnsgd1na2vs0mg"},{"bike_id":"e0baa39e-cffd-4823-bd93-a1ffe73b5a4c","system_id":"levelo_inurba_marseille","lat":43.324873,"lon":5.365561,"is_reserved":false,"is_disabled":false,"rental_uris":{"android":"levelo://app?vid=e0baa39e-cffd-4823-bd93-a1ffe73b5a4c","ios":"levelo://app?vid=e0baa39e-cffd-4823-bd93-a1ffe73b5a4c"},"vehicle_type_id":"4","last_reported":1714777668,"current_range_meters":0,"station_id":"ce4bhs12rcd13ifvqhvg","pricing_plan_id":"cebpf4jnsgd1na2vs0mg"},{"bike_id":"256c823b-b7bb-46dd-a050-7771d5cf3f00","system_id":"levelo_inurba_marseille","lat":43.302784,"lon":5.377158,"is_reserved":false,"is_disabled":false,"rental_uris":{"android":"levelo://app?vid=256c823b-b7bb-46dd-a050-7771d5cf3f00","ios":"levelo://app?vid=256c823b-b7bb-46dd-a050-7771d5cf3f00"},"vehicle_type_id":"4","last_reported":1714777668,"current_range_meters":23600,"station_id":"ce4bguh2rcd13ifvqcj0","pricing_plan_id":"cebpf4jnsgd1na2vs0mg"},{"bike_id":"ef03f8a1-3084-44f5-8efb-04962435749b","system_id":"levelo_inurba_marseille","lat":43.310804,"lon":5.38359,"is_reserved":false,"is_disabled":false,"rental_uris":{"android":"levelo://app?vid=ef03f8a1-3084-44f5-8efb-04962435749b","ios":"levelo://app?vid=ef03f8a1-3084-44f5-8efb-04962435749b"},"vehicle_type_id":"4","last_reported":1714777668,"current_range_meters":1600,"station_id":"ce4bgv92rcd13ifvqcr0","pricing_plan_id":"cebpf4jnsgd1na2vs0mg"},{"bike_id":"ab28f178-7e8d-430c-8dd6-c7a30df44e25","system_id":"levelo_inurba_marseille","lat":43.310804,"lon":5.38359,"is_reserved":false,"is_disabled":false,"rental_uris":{"android":"levelo://app?vid=ab28f178-7e8d-430c-8dd6-c7a30df44e25","ios":"levelo://app?vid=ab28f178-7e8d-430c-8dd6-c7a30df44e25"},"vehicle_type_id":"4","last_reported":1714777668,"current_range_meters":20800,"station_id":"ce4bgv92rcd13ifvqcr0","pricing_plan_id":"cebpf4jnsgd1na2vs0mg"},{"bike_id":"57ac3197-d7e6-4e3b-854e-1dd01b51e4d3","system_id":"levelo_inurba_marseille","lat":43.302784,"lon":5.377158,"is_reserved":false,"is_disabled":false,"rental_uris":{"android":"levelo://app?vid=57ac3197-d7e6-4e3b-854e-1dd01b51e4d3","ios":"levelo://app?vid=57ac3197-d7e6-4e3b-854e-1dd01b51e4d3"},"vehicle_type_id":"4","last_reported":1714777668,"current_range_meters":29200,"station_id":"ce4bguh2rcd13ifvqcj0","pricing_plan_id":"cebpf4jnsgd1na2vs0mg"},{"bike_id":"6fd06229-356a-4d04-9ce9-287d1231fd1d","system_id":"levelo_inurba_marseille","lat":43.302784,"lon":5.377158,"is_reserved":false,"is_disabled":false,"rental_uris":{"android":"levelo://app?vid=6fd06229-356a-4d04-9ce9-287d1231fd1d","ios":"levelo://app?vid=6fd06229-356a-4d04-9ce9-287d1231fd1d"},"vehicle_type_id":"4","last_reported":1714777668,"current_range_meters":17600,"station_id":"ce4bguh2rcd13ifvqcj0","pricing_plan_id":"cebpf4jnsgd1na2vs0mg"},{"bike_id":"4421eb03-1f6b-4efb-bf0b-4c2f1e9274d1","system_id":"levelo_inurba_marseille","lat":43.302784,"lon":5.377158,"is_reserved":false,"is_disabled":false,"rental_uris":{"android":"levelo://app?vid=4421eb03-1f6b-4efb-bf0b-4c2f1e9274d1","ios":"levelo://app?vid=4421eb03-1f6b-4efb-bf0b-4c2f1e9274d1"},"vehicle_type_id":"4","last_reported":1714777668,"current_range_meters":4800,"station_id":"ce4bguh2rcd13ifvqcj0","pricing_plan_id":"cebpf4jnsgd1na2vs0mg"},{"bike_id":"e8abf879-fab1-433a-9910-13fd46a76e73","system_id":"levelo_inurba_marseille","lat":43.310804,"lon":5.38359,"is_reserved":false,"is_disabled":false,"rental_uris":{"android":"levelo://app?vid=e8abf879-fab1-433a-9910-13fd46a76e73","ios":"levelo://app?vid=e8abf879-fab1-433a-9910-13fd46a76e73"},"vehicle_type_id":"4","last_reported":1714777668,"current_range_meters":2400,"station_id":"ce4bgv92rcd13ifvqcr0","pricing_plan_id":"cebpf4jnsgd1na2vs0mg"},{"bike_id":"4bd725df-d867-4fbd-9803-6d9b367d2dc1","system_id":"levelo_inurba_marseille","lat":43.302784,"lon":5.377158,"is_reserved":false,"is_disabled":false,"rental_uris":{"android":"levelo://app?vid=4bd725df-d867-4fbd-9803-6d9b367d2dc1","ios":"levelo://app?vid=4bd725df-d867-4fbd-9803-6d9b367d2dc1"},"vehicle_type_id":"4","last_reported":1714777668,"current_range_meters":25600,"station_id":"ce4bguh2rcd13ifvqcj0","pricing_plan_id":"cebpf4jnsgd1na2vs0mg"},{"bike_id":"f821cae5-8336-40b5-9be5-4c154d507450","system_id":"levelo_inurba_marseille","lat":43.302784,"lon":5.377158,"is_reserved":false,"is_disabled":false,"rental_uris":{"android":"levelo://app?vid=f821cae5-8336-40b5-9be5-4c154d507450","ios":"levelo://app?vid=f821cae5-8336-40b5-9be5-4c154d507450"},"vehicle_type_id":"4","last_reported":1714777668,"current_range_meters":10400,"station_id":"ce4bguh2rcd13ifvqcj0","pricing_plan_id":"cebpf4jnsgd1na2vs0mg"},{"bike_id":"020005a5-982a-4dde-9e69-54296ffdcfdb","system_id":"levelo_inurba_marseille","lat":43.31997,"lon":5.38142,"is_reserved":false,"is_disabled":false,"rental_uris":{"android":"levelo://app?vid=020005a5-982a-4dde-9e69-54296ffdcfdb","ios":"levelo://app?vid=020005a5-982a-4dde-9e69-54296ffdcfdb"},"vehicle_type_id":"4","last_reported":1714777668,"current_range_meters":30400,"station_id":"","pricing_plan_id":"cebpf4jnsgd1na2vs0mg"},{"bike_id":"c1f1f3e2-29ae-4735-9acc-84ac57ea055d","system_id":"levelo_inurba_marseille","lat":43.319935,"lon":5.381699,"is_reserved":false,"is_disabled":false,"rental_uris":{"android":"levelo://app?vid=c1f1f3e2-29ae-4735-9acc-84ac57ea055d","ios":"levelo://app?vid=c1f1f3e2-29ae-4735-9acc-84ac57ea055d"},"vehicle_type_id":"4","last_reported":1714777668,"current_range_meters":28800,"station_id":"ce4bhr12rcd13ifvqhpg","pricing_plan_id":"cebpf4jnsgd1na2vs0mg"},{"bike_id":"b0959917-704f-420e-84f5-05bbf386e8b4","system_id":"levelo_inurba_marseille","lat":43.319935,"lon":5.381699,"is_reserved":false,"is_disabled":false,"rental_uris":{"android":"levelo://app?vid=b0959917-704f-420e-84f5-05bbf386e8b4","ios":"levelo://app?vid=b0959917-704f-420e-84f5-05bbf386e8b4"},"vehicle_type_id":"4","last_reported":1714777668,"current_range_meters":29600,"station_id":"ce4bhr12rcd13ifvqhpg","pricing_plan_id":"cebpf4jnsgd1na2vs0mg"},{"bike_id":"0d08a466-6e9f-49b7-8f58-29ada7342f71","system_id":"levelo_inurba_marseille","lat":43.31997,"lon":5.38147,"is_reserved":false,"is_disabled":false,"rental_uris":{"android":"levelo://app?vid=0d08a466-6e9f-49b7-8f58-29ada7342f71","ios":"levelo://app?vid=0d08a466-6e9f-49b7-8f58-29ada7342f71"},"vehicle_type_id":"4","last_reported":1714777668,"current_range_meters":7600,"station_id":"ce4bhr12rcd13ifvqhpg","pricing_plan_id":"cebpf4jnsgd1na2vs0mg"},{"bike_id":"49fcb0ac-2e45-4cf7-ae33-022aff39b137","system_id":"levelo_inurba_marseille","lat":43.319935,"lon":5.381699,"is_reserved":false,"is_disabled":false,"rental_uris":{"android":"levelo://app?vid=49fcb0ac-2e45-4cf7-ae33-022aff39b137","ios":"levelo://app?vid=49fcb0ac-2e45-4cf7-ae33-022aff39b137"},"vehicle_type_id":"4","last_reported":1714777668,"current_range_meters":20400,"station_id":"ce4bhr12rcd13ifvqhpg","pricing_plan_id":"cebpf4jnsgd1na2vs0mg"},{"bike_id":"7b143536-6f52-4dc3-97ca-1af41a3dc9b2","system_id":"levelo_inurba_marseille","lat":43.313571,"lon":5.384829,"is_reserved":false,"is_disabled":false,"rental_uris":{"android":"levelo://app?vid=7b143536-6f52-4dc3-97ca-1af41a3dc9b2","ios":"levelo://app?vid=7b143536-6f52-4dc3-97ca-1af41a3dc9b2"},"vehicle_type_id":"4","last_reported":1714777668,"current_range_meters":4800,"station_id":"ce4bgt92rcd13ifvqcf0","pricing_plan_id":"cebpf4jnsgd1na2vs0mg"},{"bike_id":"9dc6e245-e488-45a8-be5b-adbeef067bbd","system_id":"levelo_inurba_marseille","lat":43.313571,"lon":5.384829,"is_reserved":false,"is_disabled":false,"rental_uris":{"android":"levelo://app?vid=9dc6e245-e488-45a8-be5b-adbeef067bbd","ios":"levelo://app?vid=9dc6e245-e488-45a8-be5b-adbeef067bbd"},"vehicle_type_id":"4","last_reported":1714777668,"current_range_meters":20000,"station_id":"ce4bgt92rcd13ifvqcf0","pricing_plan_id":"cebpf4jnsgd1na2vs0mg"},{"bike_id":"01fb301b-cffc-4dc6-bd7d-64ea8beb1231","system_id":"levelo_inurba_marseille","lat":43.313571,"lon":5.384829,"is_reserved":false,"is_disabled":false,"rental_uris":{"android":"levelo://app?vid=01fb301b-cffc-4dc6-bd7d-64ea8beb1231","ios":"levelo://app?vid=01fb301b-cffc-4dc6-bd7d-64ea8beb1231"},"vehicle_type_id":"4","last_reported":1714777668,"current_range_meters":28800,"station_id":"ce4bgt92rcd13ifvqcf0","pricing_plan_id":"cebpf4jnsgd1na2vs0mg"},{"bike_id":"e781cf5a-e7cf-49ef-afd6-9854de6cbf76","system_id":"levelo_inurba_marseille","lat":43.313571,"lon":5.384829,"is_reserved":false,"is_disabled":false,"rental_uris":{"android":"levelo://app?vid=e781cf5a-e7cf-49ef-afd6-9854de6cbf76","ios":"levelo://app?vid=e781cf5a-e7cf-49ef-afd6-9854de6cbf76"},"vehicle_type_id":"4","last_reported":1714777668,"current_range_meters":30000,"station_id":"ce4bgt92rcd13ifvqcf0","pricing_plan_id":"cebpf4jnsgd1na2vs0mg"},{"bike_id":"b6bfd86b-3faa-445d-b153-91b257debdaf","system_id":"levelo_inurba_marseille","lat":43.313571,"lon":5.384829,"is_reserved":false,"is_disabled":false,"rental_uris":{"android":"levelo://app?vid=b6bfd86b-3faa-445d-b153-91b257debdaf","ios":"levelo://app?vid=b6bfd86b-3faa-445d-b153-91b257debdaf"},"vehicle_type_id":"4","last_reported":1714777668,"current_range_meters":12000,"station_id":"ce4bgt92rcd13ifvqcf0","pricing_plan_id":"cebpf4jnsgd1na2vs0mg"},{"bike_id":"887eb9a7-1ffd-4f1a-a44a-691280294353","system_id":"levelo_inurba_marseille","lat":43.313571,"lon":5.384829,"is_reserved":false,"is_disabled":false,"rental_uris":{"android":"levelo://app?vid=887eb9a7-1ffd-4f1a-a44a-691280294353","ios":"levelo://app?vid=887eb9a7-1ffd-4f1a-a44a-691280294353"},"vehicle_type_id":"4","last_reported":1714777668,"current_range_meters":0,"station_id":"ce4bgt92rcd13ifvqcf0","pricing_plan_id":"cebpf4jnsgd1na2vs0mg"},{"bike_id":"0bfcb5b0-6f33-4f72-95d3-ff348eec3a73","system_id":"levelo_inurba_marseille","lat":43.313571,"lon":5.384829,"is_reserved":false,"is_disabled":false,"rental_uris":{"android":"levelo://app?vid=0bfcb5b0-6f33-4f72-95d3-ff348eec3a73","ios":"levelo://app?vid=0bfcb5b0-6f33-4f72-95d3-ff348eec3a73"},"vehicle_type_id":"4","last_reported":1714777668,"current_range_meters":25200,"station_id":"ce4bgt92rcd13ifvqcf0","pricing_plan_id":"cebpf4jnsgd1na2vs0mg"},{"bike_id":"5542412b-a453-4036-872e-961014dfe15b","system_id":"levelo_inurba_marseille","lat":43.299724,"lon":5.371829,"is_reserved":false,"is_disabled":false,"rental_uris":{"android":"levelo://app?vid=5542412b-a453-4036-872e-961014dfe15b","ios":"levelo://app?vid=5542412b-a453-4036-872e-961014dfe15b"},"vehicle_type_id":"4","last_reported":1714777668,"current_range_meters":26400,"station_id":"ce4bgr92rcd13ifvqc7g","pricing_plan_id":"cebpf4jnsgd1na2vs0mg"},{"bike_id":"a5b7ff84-5ab2-42f1-af0b-3aa2dabd8da6","system_id":"levelo_inurba_marseille","lat":43.305364,"lon":5.384119,"is_reserved":false,"is_disabled":false,"rental_uris":{"android":"levelo://app?vid=a5b7ff84-5ab2-42f1-af0b-3aa2dabd8da6","ios":"levelo://app?vid=a5b7ff84-5ab2-42f1-af0b-3aa2dabd8da6"},"vehicle_type_id":"4","last_reported":1714777668,"current_range_meters":27600,"station_id":"ce4bgg92rcd13ifvqb30","pricing_plan_id":"cebpf4jnsgd1na2vs0mg"},{"bike_id":"2483d83f-4ec2-485c-8577-090d52f4fe40","system_id":"levelo_inurba_marseille","lat":43.305364,"lon":5.384119,"is_reserved":false,"is_disabled":false,"rental_uris":{"android":"levelo://app?vid=2483d83f-4ec2-485c-8577-090d52f4fe40","ios":"levelo://app?vid=2483d83f-4ec2-485c-8577-090d52f4fe40"},"vehicle_type_id":"4","last_reported":1714777668,"current_range_meters":26800,"station_id":"ce4bgg92rcd13ifvqb30","pricing_plan_id":"cebpf4jnsgd1na2vs0mg"},{"bike_id":"dc2d3a4f-8e5d-4420-8162-33ae06b66bd6","system_id":"levelo_inurba_marseille","lat":43.305364,"lon":5.384119,"is_reserved":false,"is_disabled":false,"rental_uris":{"android":"levelo://app?vid=dc2d3a4f-8e5d-4420-8162-33ae06b66bd6","ios":"levelo://app?vid=dc2d3a4f-8e5d-4420-8162-33ae06b66bd6"},"vehicle_type_id":"4","last_reported":1714777668,"current_range_meters":31200,"station_id":"ce4bgg92rcd13ifvqb30","pricing_plan_id":"cebpf4jnsgd1na2vs0mg"},{"bike_id":"96ba951d-82c5-4b0e-9914-409ccfe675fe","system_id":"levelo_inurba_marseille","lat":43.311722,"lon":5.387247,"is_reserved":false,"is_disabled":false,"rental_uris":{"android":"levelo://app?vid=96ba951d-82c5-4b0e-9914-409ccfe675fe","ios":"levelo://app?vid=96ba951d-82c5-4b0e-9914-409ccfe675fe"},"vehicle_type_id":"4","last_reported":1714777668,"current_range_meters":24800,"station_id":"ce4bgv12rcd13ifvqcp0","pricing_plan_id":"cebpf4jnsgd1na2vs0mg"},{"bike_id":"3d4d792b-8cdf-4380-8ce0-4952c066a680","system_id":"levelo_inurba_marseille","lat":43.311722,"lon":5.387247,"is_reserved":false,"is_disabled":false,"rental_uris":{"android":"levelo://app?vid=3d4d792b-8cdf-4380-8ce0-4952c066a680","ios":"levelo://app?vid=3d4d792b-8cdf-4380-8ce0-4952c066a680"},"vehicle_type_id":"4","last_reported":1714777668,"current_range_meters":11200,"station_id":"ce4bgv12rcd13ifvqcp0","pricing_plan_id":"cebpf4jnsgd1na2vs0mg"},{"bike_id":"723ab91d-b6d3-43be-8524-74ec8622a35f","system_id":"levelo_inurba_marseille","lat":43.311722,"lon":5.387247,"is_reserved":false,"is_disabled":false,"rental_uris":{"android":"levelo://app?vid=723ab91d-b6d3-43be-8524-74ec8622a35f","ios":"levelo://app?vid=723ab91d-b6d3-43be-8524-74ec8622a35f"},"vehicle_type_id":"4","last_reported":1714777668,"current_range_meters":24400,"station_id":"ce4bgv12rcd13ifvqcp0","pricing_plan_id":"cebpf4jnsgd1na2vs0mg"},{"bike_id":"65702961-a79d-4d16-b4cc-34cfdb4d5e90","system_id":"levelo_inurba_marseille","lat":43.311722,"lon":5.387247,"is_reserved":false,"is_disabled":false,"rental_uris":{"android":"levelo://app?vid=65702961-a79d-4d16-b4cc-34cfdb4d5e90","ios":"levelo://app?vid=65702961-a79d-4d16-b4cc-34cfdb4d5e90"},"vehicle_type_id":"4","last_reported":1714777668,"current_range_meters":0,"station_id":"ce4bgv12rcd13ifvqcp0","pricing_plan_id":"cebpf4jnsgd1na2vs0mg"},{"bike_id":"8ed3db0c-c058-4196-9277-091fba2785ab","system_id":"levelo_inurba_marseille","lat":43.311722,"lon":5.387247,"is_reserved":false,"is_disabled":false,"rental_uris":{"android":"levelo://app?vid=8ed3db0c-c058-4196-9277-091fba2785ab","ios":"levelo://app?vid=8ed3db0c-c058-4196-9277-091fba2785ab"},"vehicle_type_id":"4","last_reported":1714777668,"current_range_meters":10800,"station_id":"ce4bgv12rcd13ifvqcp0","pricing_plan_id":"cebpf4jnsgd1na2vs0mg"},{"bike_id":"b62405c6-ccb2-4b09-8783-f8b744bceec9","system_id":"levelo_inurba_marseille","lat":43.311722,"lon":5.387247,"is_reserved":false,"is_disabled":false,"rental_uris":{"android":"levelo://app?vid=b62405c6-ccb2-4b09-8783-f8b744bceec9","ios":"levelo://app?vid=b62405c6-ccb2-4b09-8783-f8b744bceec9"},"vehicle_type_id":"4","last_reported":1714777668,"current_range_meters":26800,"station_id":"ce4bgv12rcd13ifvqcp0","pricing_plan_id":"cebpf4jnsgd1na2vs0mg"},{"bike_id":"7f6d6379-d6a8-4247-a627-f53182167b24","system_id":"levelo_inurba_marseille","lat":43.311722,"lon":5.387247,"is_reserved":false,"is_disabled":false,"rental_uris":{"android":"levelo://app?vid=7f6d6379-d6a8-4247-a627-f53182167b24","ios":"levelo://app?vid=7f6d6379-d6a8-4247-a627-f53182167b24"},"vehicle_type_id":"4","last_reported":1714777668,"current_range_meters":5600,"station_id":"ce4bgv12rcd13ifvqcp0","pricing_plan_id":"cebpf4jnsgd1na2vs0mg"},{"bike_id":"bf4acb4c-d38a-427d-940e-57842c74ee30","system_id":"levelo_inurba_marseille","lat":43.311722,"lon":5.387247,"is_reserved":false,"is_disabled":false,"rental_uris":{"android":"levelo://app?vid=bf4acb4c-d38a-427d-940e-57842c74ee30","ios":"levelo://app?vid=bf4acb4c-d38a-427d-940e-57842c74ee30"},"vehicle_type_id":"4","last_reported":1714777668,"current_range_meters":6000,"station_id":"ce4bgv12rcd13ifvqcp0","pricing_plan_id":"cebpf4jnsgd1na2vs0mg"},{"bike_id":"eb421157-6de9-47f7-b2a5-5ae88ce632f3","system_id":"levelo_inurba_marseille","lat":43.311722,"lon":5.387247,"is_reserved":false,"is_disabled":false,"rental_uris":{"android":"levelo://app?vid=eb421157-6de9-47f7-b2a5-5ae88ce632f3","ios":"levelo://app?vid=eb421157-6de9-47f7-b2a5-5ae88ce632f3"},"vehicle_type_id":"4","last_reported":1714777668,"current_range_meters":30800,"station_id":"ce4bgv12rcd13ifvqcp0","pricing_plan_id":"cebpf4jnsgd1na2vs0mg"},{"bike_id":"ba4d4fc8-0eef-480a-a664-759486ad6179","system_id":"levelo_inurba_marseille","lat":43.311722,"lon":5.387247,"is_reserved":false,"is_disabled":false,"rental_uris":{"android":"levelo://app?vid=ba4d4fc8-0eef-480a-a664-759486ad6179","ios":"levelo://app?vid=ba4d4fc8-0eef-480a-a664-759486ad6179"},"vehicle_type_id":"4","last_reported":1714777668,"current_range_meters":4800,"station_id":"ce4bgv12rcd13ifvqcp0","pricing_plan_id":"cebpf4jnsgd1na2vs0mg"},{"bike_id":"c02a6d9c-a87f-4a46-a3ed-9e09f1c176ae","system_id":"levelo_inurba_marseille","lat":43.311722,"lon":5.387247,"is_reserved":false,"is_disabled":false,"rental_uris":{"android":"levelo://app?vid=c02a6d9c-a87f-4a46-a3ed-9e09f1c176ae","ios":"levelo://app?vid=c02a6d9c-a87f-4a46-a3ed-9e09f1c176ae"},"vehicle_type_id":"4","last_reported":1714777668,"current_range_meters":1200,"station_id":"ce4bgv12rcd13ifvqcp0","pricing_plan_id":"cebpf4jnsgd1na2vs0mg"},{"bike_id":"a843b226-b201-4c5f-9dc7-b92e67dbb58f","system_id":"levelo_inurba_marseille","lat":43.311722,"lon":5.387247,"is_reserved":false,"is_disabled":false,"rental_uris":{"android":"levelo://app?vid=a843b226-b201-4c5f-9dc7-b92e67dbb58f","ios":"levelo://app?vid=a843b226-b201-4c5f-9dc7-b92e67dbb58f"},"vehicle_type_id":"4","last_reported":1714777668,"current_range_meters":28800,"station_id":"ce4bgv12rcd13ifvqcp0","pricing_plan_id":"cebpf4jnsgd1na2vs0mg"},{"bike_id":"77aaeb51-e4ab-4731-845b-a5d9b3fa3250","system_id":"levelo_inurba_marseille","lat":43.311722,"lon":5.387247,"is_reserved":false,"is_disabled":false,"rental_uris":{"android":"levelo://app?vid=77aaeb51-e4ab-4731-845b-a5d9b3fa3250","ios":"levelo://app?vid=77aaeb51-e4ab-4731-845b-a5d9b3fa3250"},"vehicle_type_id":"4","last_reported":1714777668,"current_range_meters":29200,"station_id":"ce4bgv12rcd13ifvqcp0","pricing_plan_id":"cebpf4jnsgd1na2vs0mg"},{"bike_id":"31b63daa-8468-4f9c-ab96-0552f4f18eb3","system_id":"levelo_inurba_marseille","lat":43.311722,"lon":5.387247,"is_reserved":false,"is_disabled":false,"rental_uris":{"android":"levelo://app?vid=31b63daa-8468-4f9c-ab96-0552f4f18eb3","ios":"levelo://app?vid=31b63daa-8468-4f9c-ab96-0552f4f18eb3"},"vehicle_type_id":"4","last_reported":1714777668,"current_range_meters":22800,"station_id":"ce4bgv12rcd13ifvqcp0","pricing_plan_id":"cebpf4jnsgd1na2vs0mg"},{"bike_id":"555a5a61-e1ce-4845-a284-6d354e09f249","system_id":"levelo_inurba_marseille","lat":43.311722,"lon":5.387247,"is_reserved":false,"is_disabled":false,"rental_uris":{"android":"levelo://app?vid=555a5a61-e1ce-4845-a284-6d354e09f249","ios":"levelo://app?vid=555a5a61-e1ce-4845-a284-6d354e09f249"},"vehicle_type_id":"4","last_reported":1714777668,"current_range_meters":23600,"station_id":"ce4bgv12rcd13ifvqcp0","pricing_plan_id":"cebpf4jnsgd1na2vs0mg"},{"bike_id":"a1c8dcb4-18aa-420d-b0de-dc9af6fe06c1","system_id":"levelo_inurba_marseille","lat":43.311722,"lon":5.387247,"is_reserved":false,"is_disabled":false,"rental_uris":{"android":"levelo://app?vid=a1c8dcb4-18aa-420d-b0de-dc9af6fe06c1","ios":"levelo://app?vid=a1c8dcb4-18aa-420d-b0de-dc9af6fe06c1"},"vehicle_type_id":"4","last_reported":1714777668,"current_range_meters":31600,"station_id":"ce4bgv12rcd13ifvqcp0","pricing_plan_id":"cebpf4jnsgd1na2vs0mg"},{"bike_id":"37ec529b-209a-4ee2-9135-cec3258dd8a0","system_id":"levelo_inurba_marseille","lat":43.311722,"lon":5.387247,"is_reserved":false,"is_disabled":false,"rental_uris":{"android":"levelo://app?vid=37ec529b-209a-4ee2-9135-cec3258dd8a0","ios":"levelo://app?vid=37ec529b-209a-4ee2-9135-cec3258dd8a0"},"vehicle_type_id":"4","last_reported":1714777668,"current_range_meters":20800,"station_id":"ce4bgv12rcd13ifvqcp0","pricing_plan_id":"cebpf4jnsgd1na2vs0mg"},{"bike_id":"401b4e8d-a018-47bc-acbe-29a9f7fbed06","system_id":"levelo_inurba_marseille","lat":43.311722,"lon":5.387247,"is_reserved":false,"is_disabled":false,"rental_uris":{"android":"levelo://app?vid=401b4e8d-a018-47bc-acbe-29a9f7fbed06","ios":"levelo://app?vid=401b4e8d-a018-47bc-acbe-29a9f7fbed06"},"vehicle_type_id":"4","last_reported":1714777668,"current_range_meters":27200,"station_id":"ce4bgv12rcd13ifvqcp0","pricing_plan_id":"cebpf4jnsgd1na2vs0mg"},{"bike_id":"7fcf2946-b2e6-4cd3-93b8-67de68ea6a3f","system_id":"levelo_inurba_marseille","lat":43.311722,"lon":5.387247,"is_reserved":false,"is_disabled":false,"rental_uris":{"android":"levelo://app?vid=7fcf2946-b2e6-4cd3-93b8-67de68ea6a3f","ios":"levelo://app?vid=7fcf2946-b2e6-4cd3-93b8-67de68ea6a3f"},"vehicle_type_id":"4","last_reported":1714777668,"current_range_meters":22800,"station_id":"ce4bgv12rcd13ifvqcp0","pricing_plan_id":"cebpf4jnsgd1na2vs0mg"},{"bike_id":"bbf12aef-c896-4eba-9912-955e92ef3dcc","system_id":"levelo_inurba_marseille","lat":43.311722,"lon":5.387247,"is_reserved":false,"is_disabled":false,"rental_uris":{"android":"levelo://app?vid=bbf12aef-c896-4eba-9912-955e92ef3dcc","ios":"levelo://app?vid=bbf12aef-c896-4eba-9912-955e92ef3dcc"},"vehicle_type_id":"4","last_reported":1714777668,"current_range_meters":0,"station_id":"ce4bgv12rcd13ifvqcp0","pricing_plan_id":"cebpf4jnsgd1na2vs0mg"},{"bike_id":"4d1ad18d-fcf0-41db-8722-62d249505af2","system_id":"levelo_inurba_marseille","lat":43.311722,"lon":5.387247,"is_reserved":false,"is_disabled":false,"rental_uris":{"android":"levelo://app?vid=4d1ad18d-fcf0-41db-8722-62d249505af2","ios":"levelo://app?vid=4d1ad18d-fcf0-41db-8722-62d249505af2"},"vehicle_type_id":"4","last_reported":1714777668,"current_range_meters":15200,"station_id":"ce4bgv12rcd13ifvqcp0","pricing_plan_id":"cebpf4jnsgd1na2vs0mg"},{"bike_id":"67a77d0a-ffff-4bde-9839-a5c73f026ffb","system_id":"levelo_inurba_marseille","lat":43.29807,"lon":5.36338,"is_reserved":false,"is_disabled":false,"rental_uris":{"android":"levelo://app?vid=67a77d0a-ffff-4bde-9839-a5c73f026ffb","ios":"levelo://app?vid=67a77d0a-ffff-4bde-9839-a5c73f026ffb"},"vehicle_type_id":"4","last_reported":1714777668,"current_range_meters":0,"station_id":"","pricing_plan_id":"cebpf4jnsgd1na2vs0mg"},{"bike_id":"20066fa0-2238-4069-8e4f-43395030da59","system_id":"levelo_inurba_marseille","lat":43.297794,"lon":5.370888,"is_reserved":false,"is_disabled":false,"rental_uris":{"android":"levelo://app?vid=20066fa0-2238-4069-8e4f-43395030da59","ios":"levelo://app?vid=20066fa0-2238-4069-8e4f-43395030da59"},"vehicle_type_id":"4","last_reported":1714777668,"current_range_meters":8000,"station_id":"ce4bgop2rcd13ifvqc1g","pricing_plan_id":"cebpf4jnsgd1na2vs0mg"},{"bike_id":"365872b1-eb55-4ed4-95a3-89070482bb73","system_id":"levelo_inurba_marseille","lat":43.297774,"lon":5.370875,"is_reserved":false,"is_disabled":false,"rental_uris":{"android":"levelo://app?vid=365872b1-eb55-4ed4-95a3-89070482bb73","ios":"levelo://app?vid=365872b1-eb55-4ed4-95a3-89070482bb73"},"vehicle_type_id":"4","last_reported":1714777668,"current_range_meters":20000,"station_id":"ce4bgop2rcd13ifvqc1g","pricing_plan_id":"cebpf4jnsgd1na2vs0mg"},{"bike_id":"11114326-796f-4b77-b37a-d927086c7a84","system_id":"levelo_inurba_marseille","lat":43.297774,"lon":5.370875,"is_reserved":false,"is_disabled":false,"rental_uris":{"android":"levelo://app?vid=11114326-796f-4b77-b37a-d927086c7a84","ios":"levelo://app?vid=11114326-796f-4b77-b37a-d927086c7a84"},"vehicle_type_id":"4","last_reported":1714777668,"current_range_meters":2400,"station_id":"ce4bgop2rcd13ifvqc1g","pricing_plan_id":"cebpf4jnsgd1na2vs0mg"},{"bike_id":"14eddade-44a2-4c4b-8f32-fc2a6ba4aa96","system_id":"levelo_inurba_marseille","lat":43.32284,"lon":5.38254,"is_reserved":false,"is_disabled":false,"rental_uris":{"android":"levelo://app?vid=14eddade-44a2-4c4b-8f32-fc2a6ba4aa96","ios":"levelo://app?vid=14eddade-44a2-4c4b-8f32-fc2a6ba4aa96"},"vehicle_type_id":"4","last_reported":1714777668,"current_range_meters":2400,"station_id":"ce4bhr12rcd13ifvqhqg","pricing_plan_id":"cebpf4jnsgd1na2vs0mg"},{"bike_id":"24bfce79-49c0-4d56-bbb7-b05564436c1b","system_id":"levelo_inurba_marseille","lat":43.322872,"lon":5.382756,"is_reserved":false,"is_disabled":false,"rental_uris":{"android":"levelo://app?vid=24bfce79-49c0-4d56-bbb7-b05564436c1b","ios":"levelo://app?vid=24bfce79-49c0-4d56-bbb7-b05564436c1b"},"vehicle_type_id":"4","last_reported":1714777668,"current_range_meters":25200,"station_id":"ce4bhr12rcd13ifvqhqg","pricing_plan_id":"cebpf4jnsgd1na2vs0mg"},{"bike_id":"69fde129-74e3-4f3c-a0f7-dac086e4a3ae","system_id":"levelo_inurba_marseille","lat":43.322872,"lon":5.382756,"is_reserved":false,"is_disabled":false,"rental_uris":{"android":"levelo://app?vid=69fde129-74e3-4f3c-a0f7-dac086e4a3ae","ios":"levelo://app?vid=69fde129-74e3-4f3c-a0f7-dac086e4a3ae"},"vehicle_type_id":"4","last_reported":1714777668,"current_range_meters":13200,"station_id":"ce4bhr12rcd13ifvqhqg","pricing_plan_id":"cebpf4jnsgd1na2vs0mg"},{"bike_id":"44445573-c00c-4006-b77e-b3f10af38fdb","system_id":"levelo_inurba_marseille","lat":43.322872,"lon":5.382756,"is_reserved":false,"is_disabled":false,"rental_uris":{"android":"levelo://app?vid=44445573-c00c-4006-b77e-b3f10af38fdb","ios":"levelo://app?vid=44445573-c00c-4006-b77e-b3f10af38fdb"},"vehicle_type_id":"4","last_reported":1714777668,"current_range_meters":30000,"station_id":"ce4bhr12rcd13ifvqhqg","pricing_plan_id":"cebpf4jnsgd1na2vs0mg"},{"bike_id":"bf05c7e9-e88e-4c69-88f7-f629dd1b5787","system_id":"levelo_inurba_marseille","lat":43.322872,"lon":5.382756,"is_reserved":false,"is_disabled":false,"rental_uris":{"android":"levelo://app?vid=bf05c7e9-e88e-4c69-88f7-f629dd1b5787","ios":"levelo://app?vid=bf05c7e9-e88e-4c69-88f7-f629dd1b5787"},"vehicle_type_id":"4","last_reported":1714777668,"current_range_meters":24400,"station_id":"ce4bhr12rcd13ifvqhqg","pricing_plan_id":"cebpf4jnsgd1na2vs0mg"},{"bike_id":"419a2b5c-4238-4e2c-8bf0-24105af66f38","system_id":"levelo_inurba_marseille","lat":43.322872,"lon":5.382756,"is_reserved":false,"is_disabled":false,"rental_uris":{"android":"levelo://app?vid=419a2b5c-4238-4e2c-8bf0-24105af66f38","ios":"levelo://app?vid=419a2b5c-4238-4e2c-8bf0-24105af66f38"},"vehicle_type_id":"4","last_reported":1714777668,"current_range_meters":8000,"station_id":"ce4bhr12rcd13ifvqhqg","pricing_plan_id":"cebpf4jnsgd1na2vs0mg"},{"bike_id":"ee5d5f57-aa9f-4035-ad0b-fffa8eb347a1","system_id":"levelo_inurba_marseille","lat":43.322872,"lon":5.382756,"is_reserved":false,"is_disabled":false,"rental_uris":{"android":"levelo://app?vid=ee5d5f57-aa9f-4035-ad0b-fffa8eb347a1","ios":"levelo://app?vid=ee5d5f57-aa9f-4035-ad0b-fffa8eb347a1"},"vehicle_type_id":"4","last_reported":1714777668,"current_range_meters":30800,"station_id":"ce4bhr12rcd13ifvqhqg","pricing_plan_id":"cebpf4jnsgd1na2vs0mg"},{"bike_id":"20e0b06a-25d4-4137-9fd3-d07bb00f838c","system_id":"levelo_inurba_marseille","lat":43.322872,"lon":5.382756,"is_reserved":false,"is_disabled":false,"rental_uris":{"android":"levelo://app?vid=20e0b06a-25d4-4137-9fd3-d07bb00f838c","ios":"levelo://app?vid=20e0b06a-25d4-4137-9fd3-d07bb00f838c"},"vehicle_type_id":"4","last_reported":1714777668,"current_range_meters":30400,"station_id":"ce4bhr12rcd13ifvqhqg","pricing_plan_id":"cebpf4jnsgd1na2vs0mg"},{"bike_id":"d15c365d-48f4-41ec-8a15-8c93a9cf008b","system_id":"levelo_inurba_marseille","lat":43.322872,"lon":5.382756,"is_reserved":false,"is_disabled":false,"rental_uris":{"android":"levelo://app?vid=d15c365d-48f4-41ec-8a15-8c93a9cf008b","ios":"levelo://app?vid=d15c365d-48f4-41ec-8a15-8c93a9cf008b"},"vehicle_type_id":"4","last_reported":1714777668,"current_range_meters":29600,"station_id":"ce4bhr12rcd13ifvqhqg","pricing_plan_id":"cebpf4jnsgd1na2vs0mg"},{"bike_id":"c2cb268d-cc56-48a1-94ad-93ecabbd44aa","system_id":"levelo_inurba_marseille","lat":43.297163,"lon":5.365866,"is_reserved":false,"is_disabled":false,"rental_uris":{"android":"levelo://app?vid=c2cb268d-cc56-48a1-94ad-93ecabbd44aa","ios":"levelo://app?vid=c2cb268d-cc56-48a1-94ad-93ecabbd44aa"},"vehicle_type_id":"4","last_reported":1714777668,"current_range_meters":12800,"station_id":"ce4bgn12rcd13ifvqbt0","pricing_plan_id":"cebpf4jnsgd1na2vs0mg"},{"bike_id":"50e1b46b-852f-417a-afa6-d252038b00d3","system_id":"levelo_inurba_marseille","lat":43.297163,"lon":5.365866,"is_reserved":false,"is_disabled":false,"rental_uris":{"android":"levelo://app?vid=50e1b46b-852f-417a-afa6-d252038b00d3","ios":"levelo://app?vid=50e1b46b-852f-417a-afa6-d252038b00d3"},"vehicle_type_id":"4","last_reported":1714777668,"current_range_meters":0,"station_id":"ce4bgn12rcd13ifvqbt0","pricing_plan_id":"cebpf4jnsgd1na2vs0mg"},{"bike_id":"a66e10e3-e095-477e-b5b3-12b34eec5518","system_id":"levelo_inurba_marseille","lat":43.297163,"lon":5.365866,"is_reserved":false,"is_disabled":false,"rental_uris":{"android":"levelo://app?vid=a66e10e3-e095-477e-b5b3-12b34eec5518","ios":"levelo://app?vid=a66e10e3-e095-477e-b5b3-12b34eec5518"},"vehicle_type_id":"4","last_reported":1714777668,"current_range_meters":14400,"station_id":"ce4bgn12rcd13ifvqbt0","pricing_plan_id":"cebpf4jnsgd1na2vs0mg"},{"bike_id":"c60df9e3-5b1f-4810-8505-f9ce9e4d5ba6","system_id":"levelo_inurba_marseille","lat":43.308012,"lon":5.381511,"is_reserved":false,"is_disabled":false,"rental_uris":{"android":"levelo://app?vid=c60df9e3-5b1f-4810-8505-f9ce9e4d5ba6","ios":"levelo://app?vid=c60df9e3-5b1f-4810-8505-f9ce9e4d5ba6"},"vehicle_type_id":"4","last_reported":1714777668,"current_range_meters":5600,"station_id":"ce4bgt12rcd13ifvqce0","pricing_plan_id":"cebpf4jnsgd1na2vs0mg"},{"bike_id":"8e6a75ec-8486-4d80-81f3-136d6c31c7ba","system_id":"levelo_inurba_marseille","lat":43.309589,"lon":5.390258,"is_reserved":false,"is_disabled":false,"rental_uris":{"android":"levelo://app?vid=8e6a75ec-8486-4d80-81f3-136d6c31c7ba","ios":"levelo://app?vid=8e6a75ec-8486-4d80-81f3-136d6c31c7ba"},"vehicle_type_id":"4","last_reported":1714777668,"current_range_meters":19600,"station_id":"ce4bgup2rcd13ifvqco0","pricing_plan_id":"cebpf4jnsgd1na2vs0mg"},{"bike_id":"20d99301-0dfe-4fa2-a8b1-05297836445f","system_id":"levelo_inurba_marseille","lat":43.337168,"lon":5.391825,"is_reserved":false,"is_disabled":false,"rental_uris":{"android":"levelo://app?vid=20d99301-0dfe-4fa2-a8b1-05297836445f","ios":"levelo://app?vid=20d99301-0dfe-4fa2-a8b1-05297836445f"},"vehicle_type_id":"4","last_reported":1714777668,"current_range_meters":28000,"station_id":"ce4bhr92rcd13ifvqhsg","pricing_plan_id":"cebpf4jnsgd1na2vs0mg"},{"bike_id":"c28caed4-5cba-44e5-b0da-16222e7b4786","system_id":"levelo_inurba_marseille","lat":43.296921,"lon":5.376579,"is_reserved":false,"is_disabled":false,"rental_uris":{"android":"levelo://app?vid=c28caed4-5cba-44e5-b0da-16222e7b4786","ios":"levelo://app?vid=c28caed4-5cba-44e5-b0da-16222e7b4786"},"vehicle_type_id":"4","last_reported":1714777668,"current_range_meters":12000,"station_id":"ce4bgkh2rcd13ifvqbl0","pricing_plan_id":"cebpf4jnsgd1na2vs0mg"},{"bike_id":"4fc7412a-6baa-4e66-b127-0922cc7d0213","system_id":"levelo_inurba_marseille","lat":43.299028,"lon":5.381509,"is_reserved":false,"is_disabled":false,"rental_uris":{"android":"levelo://app?vid=4fc7412a-6baa-4e66-b127-0922cc7d0213","ios":"levelo://app?vid=4fc7412a-6baa-4e66-b127-0922cc7d0213"},"vehicle_type_id":"4","last_reported":1714777668,"current_range_meters":25600,"station_id":"ce4bgj12rcd13ifvqbc0","pricing_plan_id":"cebpf4jnsgd1na2vs0mg"},{"bike_id":"09514dd1-4734-44aa-9d33-addab6265a30","system_id":"levelo_inurba_marseille","lat":43.309589,"lon":5.390258,"is_reserved":false,"is_disabled":false,"rental_uris":{"android":"levelo://app?vid=09514dd1-4734-44aa-9d33-addab6265a30","ios":"levelo://app?vid=09514dd1-4734-44aa-9d33-addab6265a30"},"vehicle_type_id":"4","last_reported":1714777668,"current_range_meters":5600,"station_id":"ce4bgup2rcd13ifvqco0","pricing_plan_id":"cebpf4jnsgd1na2vs0mg"},{"bike_id":"98fb5c26-8a54-4789-bb84-396dfa752b95","system_id":"levelo_inurba_marseille","lat":43.299028,"lon":5.381509,"is_reserved":false,"is_disabled":false,"rental_uris":{"android":"levelo://app?vid=98fb5c26-8a54-4789-bb84-396dfa752b95","ios":"levelo://app?vid=98fb5c26-8a54-4789-bb84-396dfa752b95"},"vehicle_type_id":"4","last_reported":1714777668,"current_range_meters":12400,"station_id":"ce4bgj12rcd13ifvqbc0","pricing_plan_id":"cebpf4jnsgd1na2vs0mg"},{"bike_id":"966c3a13-80a2-4265-be17-eafd266a791d","system_id":"levelo_inurba_marseille","lat":43.299028,"lon":5.381509,"is_reserved":false,"is_disabled":false,"rental_uris":{"android":"levelo://app?vid=966c3a13-80a2-4265-be17-eafd266a791d","ios":"levelo://app?vid=966c3a13-80a2-4265-be17-eafd266a791d"},"vehicle_type_id":"4","last_reported":1714777668,"current_range_meters":19200,"station_id":"ce4bgj12rcd13ifvqbc0","pricing_plan_id":"cebpf4jnsgd1na2vs0mg"},{"bike_id":"907e582f-04c7-4766-829d-d0c00d3fe552","system_id":"levelo_inurba_marseille","lat":43.299028,"lon":5.381509,"is_reserved":false,"is_disabled":false,"rental_uris":{"android":"levelo://app?vid=907e582f-04c7-4766-829d-d0c00d3fe552","ios":"levelo://app?vid=907e582f-04c7-4766-829d-d0c00d3fe552"},"vehicle_type_id":"4","last_reported":1714777668,"current_range_meters":19600,"station_id":"ce4bgj12rcd13ifvqbc0","pricing_plan_id":"cebpf4jnsgd1na2vs0mg"},{"bike_id":"11b91646-ee83-40e9-950a-b135c63ca0bc","system_id":"levelo_inurba_marseille","lat":43.30946,"lon":5.39025,"is_reserved":false,"is_disabled":false,"rental_uris":{"android":"levelo://app?vid=11b91646-ee83-40e9-950a-b135c63ca0bc","ios":"levelo://app?vid=11b91646-ee83-40e9-950a-b135c63ca0bc"},"vehicle_type_id":"4","last_reported":1714777668,"current_range_meters":400,"station_id":"ce4bgup2rcd13ifvqco0","pricing_plan_id":"cebpf4jnsgd1na2vs0mg"},{"bike_id":"4a8d9d33-5d44-429d-8d5e-d85ea715ee91","system_id":"levelo_inurba_marseille","lat":43.309589,"lon":5.390258,"is_reserved":false,"is_disabled":false,"rental_uris":{"android":"levelo://app?vid=4a8d9d33-5d44-429d-8d5e-d85ea715ee91","ios":"levelo://app?vid=4a8d9d33-5d44-429d-8d5e-d85ea715ee91"},"vehicle_type_id":"4","last_reported":1714777668,"current_range_meters":11200,"station_id":"ce4bgup2rcd13ifvqco0","pricing_plan_id":"cebpf4jnsgd1na2vs0mg"},{"bike_id":"5037ecba-f260-41f1-a68e-ccd0373520dc","system_id":"levelo_inurba_marseille","lat":43.309589,"lon":5.390258,"is_reserved":false,"is_disabled":false,"rental_uris":{"android":"levelo://app?vid=5037ecba-f260-41f1-a68e-ccd0373520dc","ios":"levelo://app?vid=5037ecba-f260-41f1-a68e-ccd0373520dc"},"vehicle_type_id":"4","last_reported":1714777668,"current_range_meters":0,"station_id":"ce4bgup2rcd13ifvqco0","pricing_plan_id":"cebpf4jnsgd1na2vs0mg"},{"bike_id":"8a503fec-35d7-472f-8a82-c8f1bb4dde26","system_id":"levelo_inurba_marseille","lat":43.299028,"lon":5.381509,"is_reserved":false,"is_disabled":false,"rental_uris":{"android":"levelo://app?vid=8a503fec-35d7-472f-8a82-c8f1bb4dde26","ios":"levelo://app?vid=8a503fec-35d7-472f-8a82-c8f1bb4dde26"},"vehicle_type_id":"4","last_reported":1714777668,"current_range_meters":5200,"station_id":"ce4bgj12rcd13ifvqbc0","pricing_plan_id":"cebpf4jnsgd1na2vs0mg"},{"bike_id":"e90da5c5-551a-40e0-ad5d-21790f5ea408","system_id":"levelo_inurba_marseille","lat":43.299028,"lon":5.381509,"is_reserved":false,"is_disabled":false,"rental_uris":{"android":"levelo://app?vid=e90da5c5-551a-40e0-ad5d-21790f5ea408","ios":"levelo://app?vid=e90da5c5-551a-40e0-ad5d-21790f5ea408"},"vehicle_type_id":"4","last_reported":1714777668,"current_range_meters":16000,"station_id":"ce4bgj12rcd13ifvqbc0","pricing_plan_id":"cebpf4jnsgd1na2vs0mg"},{"bike_id":"561bc95b-49b0-4a42-b386-44925f62e6ff","system_id":"levelo_inurba_marseille","lat":43.299028,"lon":5.381509,"is_reserved":false,"is_disabled":false,"rental_uris":{"android":"levelo://app?vid=561bc95b-49b0-4a42-b386-44925f62e6ff","ios":"levelo://app?vid=561bc95b-49b0-4a42-b386-44925f62e6ff"},"vehicle_type_id":"4","last_reported":1714777668,"current_range_meters":9200,"station_id":"ce4bgj12rcd13ifvqbc0","pricing_plan_id":"cebpf4jnsgd1na2vs0mg"},{"bike_id":"275037ca-b9e7-4498-858f-649730157fbd","system_id":"levelo_inurba_marseille","lat":43.309589,"lon":5.390258,"is_reserved":false,"is_disabled":false,"rental_uris":{"android":"levelo://app?vid=275037ca-b9e7-4498-858f-649730157fbd","ios":"levelo://app?vid=275037ca-b9e7-4498-858f-649730157fbd"},"vehicle_type_id":"4","last_reported":1714777668,"current_range_meters":31200,"station_id":"ce4bgup2rcd13ifvqco0","pricing_plan_id":"cebpf4jnsgd1na2vs0mg"},{"bike_id":"b63265be-7ab3-4ed8-9f48-c00f3b4167e9","system_id":"levelo_inurba_marseille","lat":43.309589,"lon":5.390258,"is_reserved":false,"is_disabled":false,"rental_uris":{"android":"levelo://app?vid=b63265be-7ab3-4ed8-9f48-c00f3b4167e9","ios":"levelo://app?vid=b63265be-7ab3-4ed8-9f48-c00f3b4167e9"},"vehicle_type_id":"4","last_reported":1714777668,"current_range_meters":6400,"station_id":"ce4bgup2rcd13ifvqco0","pricing_plan_id":"cebpf4jnsgd1na2vs0mg"},{"bike_id":"dfa4cf12-dfce-41ed-bfc7-3dc1fc79a521","system_id":"levelo_inurba_marseille","lat":43.299028,"lon":5.381509,"is_reserved":false,"is_disabled":false,"rental_uris":{"android":"levelo://app?vid=dfa4cf12-dfce-41ed-bfc7-3dc1fc79a521","ios":"levelo://app?vid=dfa4cf12-dfce-41ed-bfc7-3dc1fc79a521"},"vehicle_type_id":"4","last_reported":1714777668,"current_range_meters":10800,"station_id":"ce4bgj12rcd13ifvqbc0","pricing_plan_id":"cebpf4jnsgd1na2vs0mg"},{"bike_id":"60506aab-2952-48d9-a64a-1aae92b7bd5a","system_id":"levelo_inurba_marseille","lat":43.309589,"lon":5.390258,"is_reserved":false,"is_disabled":false,"rental_uris":{"android":"levelo://app?vid=60506aab-2952-48d9-a64a-1aae92b7bd5a","ios":"levelo://app?vid=60506aab-2952-48d9-a64a-1aae92b7bd5a"},"vehicle_type_id":"4","last_reported":1714777668,"current_range_meters":7600,"station_id":"ce4bgup2rcd13ifvqco0","pricing_plan_id":"cebpf4jnsgd1na2vs0mg"},{"bike_id":"faf594fe-6442-4e3d-8bf9-52889a83cc0f","system_id":"levelo_inurba_marseille","lat":43.317557,"lon":5.390173,"is_reserved":false,"is_disabled":false,"rental_uris":{"android":"levelo://app?vid=faf594fe-6442-4e3d-8bf9-52889a83cc0f","ios":"levelo://app?vid=faf594fe-6442-4e3d-8bf9-52889a83cc0f"},"vehicle_type_id":"4","last_reported":1714777668,"current_range_meters":29200,"station_id":"ce4bhqp2rcd13ifvqhng","pricing_plan_id":"cebpf4jnsgd1na2vs0mg"},{"bike_id":"ed35472a-5121-4a33-a108-610704d40653","system_id":"levelo_inurba_marseille","lat":43.31759,"lon":5.39015,"is_reserved":false,"is_disabled":false,"rental_uris":{"android":"levelo://app?vid=ed35472a-5121-4a33-a108-610704d40653","ios":"levelo://app?vid=ed35472a-5121-4a33-a108-610704d40653"},"vehicle_type_id":"4","last_reported":1714777668,"current_range_meters":10000,"station_id":"ce4bhqp2rcd13ifvqhng","pricing_plan_id":"cebpf4jnsgd1na2vs0mg"},{"bike_id":"8342e0a4-f969-42e3-bab6-635654b6e385","system_id":"levelo_inurba_marseille","lat":43.317557,"lon":5.390173,"is_reserved":false,"is_disabled":false,"rental_uris":{"android":"levelo://app?vid=8342e0a4-f969-42e3-bab6-635654b6e385","ios":"levelo://app?vid=8342e0a4-f969-42e3-bab6-635654b6e385"},"vehicle_type_id":"4","last_reported":1714777668,"current_range_meters":19600,"station_id":"ce4bhqp2rcd13ifvqhng","pricing_plan_id":"cebpf4jnsgd1na2vs0mg"},{"bike_id":"165cfbcc-b269-4f37-8842-fda900dbaa6e","system_id":"levelo_inurba_marseille","lat":43.317557,"lon":5.390173,"is_reserved":false,"is_disabled":false,"rental_uris":{"android":"levelo://app?vid=165cfbcc-b269-4f37-8842-fda900dbaa6e","ios":"levelo://app?vid=165cfbcc-b269-4f37-8842-fda900dbaa6e"},"vehicle_type_id":"4","last_reported":1714777668,"current_range_meters":20400,"station_id":"ce4bhqp2rcd13ifvqhng","pricing_plan_id":"cebpf4jnsgd1na2vs0mg"},{"bike_id":"3f8869ab-9ec3-47e0-b114-b27821d34dc5","system_id":"levelo_inurba_marseille","lat":43.31755,"lon":5.39019,"is_reserved":false,"is_disabled":false,"rental_uris":{"android":"levelo://app?vid=3f8869ab-9ec3-47e0-b114-b27821d34dc5","ios":"levelo://app?vid=3f8869ab-9ec3-47e0-b114-b27821d34dc5"},"vehicle_type_id":"4","last_reported":1714777668,"current_range_meters":2400,"station_id":"ce4bhqp2rcd13ifvqhng","pricing_plan_id":"cebpf4jnsgd1na2vs0mg"},{"bike_id":"ce69f143-0cb3-4e36-995e-37d60055d325","system_id":"levelo_inurba_marseille","lat":43.317557,"lon":5.390173,"is_reserved":false,"is_disabled":false,"rental_uris":{"android":"levelo://app?vid=ce69f143-0cb3-4e36-995e-37d60055d325","ios":"levelo://app?vid=ce69f143-0cb3-4e36-995e-37d60055d325"},"vehicle_type_id":"4","last_reported":1714777668,"current_range_meters":13600,"station_id":"ce4bhqp2rcd13ifvqhng","pricing_plan_id":"cebpf4jnsgd1na2vs0mg"},{"bike_id":"60f68e51-1956-4351-9ccf-1ffa5693853a","system_id":"levelo_inurba_marseille","lat":43.309112,"lon":5.390617,"is_reserved":false,"is_disabled":false,"rental_uris":{"android":"levelo://app?vid=60f68e51-1956-4351-9ccf-1ffa5693853a","ios":"levelo://app?vid=60f68e51-1956-4351-9ccf-1ffa5693853a"},"vehicle_type_id":"4","last_reported":1714777668,"current_range_meters":11600,"station_id":"ce4bgup2rcd13ifvqco0","pricing_plan_id":"cebpf4jnsgd1na2vs0mg"},{"bike_id":"2c4c6e3e-2cc6-44b5-be81-4cd461b32220","system_id":"levelo_inurba_marseille","lat":43.298037,"lon":5.381066,"is_reserved":false,"is_disabled":false,"rental_uris":{"android":"levelo://app?vid=2c4c6e3e-2cc6-44b5-be81-4cd461b32220","ios":"levelo://app?vid=2c4c6e3e-2cc6-44b5-be81-4cd461b32220"},"vehicle_type_id":"4","last_reported":1714777668,"current_range_meters":16800,"station_id":"ce4bgip2rcd13ifvqbb0","pricing_plan_id":"cebpf4jnsgd1na2vs0mg"},{"bike_id":"0979f368-fcc5-4f9a-ab9b-84bbcc5d053e","system_id":"levelo_inurba_marseille","lat":43.298037,"lon":5.381066,"is_reserved":false,"is_disabled":false,"rental_uris":{"android":"levelo://app?vid=0979f368-fcc5-4f9a-ab9b-84bbcc5d053e","ios":"levelo://app?vid=0979f368-fcc5-4f9a-ab9b-84bbcc5d053e"},"vehicle_type_id":"4","last_reported":1714777668,"current_range_meters":0,"station_id":"ce4bgip2rcd13ifvqbb0","pricing_plan_id":"cebpf4jnsgd1na2vs0mg"},{"bike_id":"951189b6-0f1a-4204-b7d6-62e2ae9d51e0","system_id":"levelo_inurba_marseille","lat":43.298037,"lon":5.381066,"is_reserved":false,"is_disabled":false,"rental_uris":{"android":"levelo://app?vid=951189b6-0f1a-4204-b7d6-62e2ae9d51e0","ios":"levelo://app?vid=951189b6-0f1a-4204-b7d6-62e2ae9d51e0"},"vehicle_type_id":"4","last_reported":1714777668,"current_range_meters":16400,"station_id":"ce4bgip2rcd13ifvqbb0","pricing_plan_id":"cebpf4jnsgd1na2vs0mg"},{"bike_id":"628f86f6-41ba-4310-95ab-bc60a8c0a351","system_id":"levelo_inurba_marseille","lat":43.309589,"lon":5.390258,"is_reserved":false,"is_disabled":false,"rental_uris":{"android":"levelo://app?vid=628f86f6-41ba-4310-95ab-bc60a8c0a351","ios":"levelo://app?vid=628f86f6-41ba-4310-95ab-bc60a8c0a351"},"vehicle_type_id":"4","last_reported":1714777668,"current_range_meters":1200,"station_id":"ce4bgup2rcd13ifvqco0","pricing_plan_id":"cebpf4jnsgd1na2vs0mg"},{"bike_id":"b3ea618b-2c36-45b5-ac14-0bf42084e5ad","system_id":"levelo_inurba_marseille","lat":43.304286,"lon":5.388772,"is_reserved":false,"is_disabled":false,"rental_uris":{"android":"levelo://app?vid=b3ea618b-2c36-45b5-ac14-0bf42084e5ad","ios":"levelo://app?vid=b3ea618b-2c36-45b5-ac14-0bf42084e5ad"},"vehicle_type_id":"4","last_reported":1714777668,"current_range_meters":20400,"station_id":"ce4bgk12rcd13ifvqbi0","pricing_plan_id":"cebpf4jnsgd1na2vs0mg"},{"bike_id":"3d1dba52-1f8d-4657-b07a-84ad583002af","system_id":"levelo_inurba_marseille","lat":43.30442,"lon":5.38893,"is_reserved":false,"is_disabled":false,"rental_uris":{"android":"levelo://app?vid=3d1dba52-1f8d-4657-b07a-84ad583002af","ios":"levelo://app?vid=3d1dba52-1f8d-4657-b07a-84ad583002af"},"vehicle_type_id":"4","last_reported":1714777668,"current_range_meters":20000,"station_id":"ce4bgk12rcd13ifvqbi0","pricing_plan_id":"cebpf4jnsgd1na2vs0mg"},{"bike_id":"d9663889-855b-4f0c-a0de-b3fa32897cdb","system_id":"levelo_inurba_marseille","lat":43.304278,"lon":5.388868,"is_reserved":false,"is_disabled":false,"rental_uris":{"android":"levelo://app?vid=d9663889-855b-4f0c-a0de-b3fa32897cdb","ios":"levelo://app?vid=d9663889-855b-4f0c-a0de-b3fa32897cdb"},"vehicle_type_id":"4","last_reported":1714777668,"current_range_meters":16800,"station_id":"ce4bgk12rcd13ifvqbi0","pricing_plan_id":"cebpf4jnsgd1na2vs0mg"},{"bike_id":"1cbcdd0f-efc8-4900-a6af-7f06c5ca2a2d","system_id":"levelo_inurba_marseille","lat":43.304278,"lon":5.388868,"is_reserved":false,"is_disabled":false,"rental_uris":{"android":"levelo://app?vid=1cbcdd0f-efc8-4900-a6af-7f06c5ca2a2d","ios":"levelo://app?vid=1cbcdd0f-efc8-4900-a6af-7f06c5ca2a2d"},"vehicle_type_id":"4","last_reported":1714777668,"current_range_meters":11200,"station_id":"ce4bgk12rcd13ifvqbi0","pricing_plan_id":"cebpf4jnsgd1na2vs0mg"},{"bike_id":"1c137256-3d06-44ee-bfef-a0c7daac867e","system_id":"levelo_inurba_marseille","lat":43.30431,"lon":5.38893,"is_reserved":false,"is_disabled":false,"rental_uris":{"android":"levelo://app?vid=1c137256-3d06-44ee-bfef-a0c7daac867e","ios":"levelo://app?vid=1c137256-3d06-44ee-bfef-a0c7daac867e"},"vehicle_type_id":"4","last_reported":1714777668,"current_range_meters":26000,"station_id":"ce4bgk12rcd13ifvqbi0","pricing_plan_id":"cebpf4jnsgd1na2vs0mg"},{"bike_id":"85446f06-a42e-4df1-9723-e3f44e258016","system_id":"levelo_inurba_marseille","lat":43.304278,"lon":5.388868,"is_reserved":false,"is_disabled":false,"rental_uris":{"android":"levelo://app?vid=85446f06-a42e-4df1-9723-e3f44e258016","ios":"levelo://app?vid=85446f06-a42e-4df1-9723-e3f44e258016"},"vehicle_type_id":"4","last_reported":1714777668,"current_range_meters":2800,"station_id":"ce4bgk12rcd13ifvqbi0","pricing_plan_id":"cebpf4jnsgd1na2vs0mg"},{"bike_id":"a45f2bb8-84be-4e8b-9a41-9aa007be3a58","system_id":"levelo_inurba_marseille","lat":43.304274,"lon":5.388873,"is_reserved":false,"is_disabled":false,"rental_uris":{"android":"levelo://app?vid=a45f2bb8-84be-4e8b-9a41-9aa007be3a58","ios":"levelo://app?vid=a45f2bb8-84be-4e8b-9a41-9aa007be3a58"},"vehicle_type_id":"4","last_reported":1714777668,"current_range_meters":23200,"station_id":"ce4bgk12rcd13ifvqbi0","pricing_plan_id":"cebpf4jnsgd1na2vs0mg"},{"bike_id":"600d0051-2ac0-404d-b96c-9b8d0812b407","system_id":"levelo_inurba_marseille","lat":43.30425,"lon":5.38895,"is_reserved":false,"is_disabled":false,"rental_uris":{"android":"levelo://app?vid=600d0051-2ac0-404d-b96c-9b8d0812b407","ios":"levelo://app?vid=600d0051-2ac0-404d-b96c-9b8d0812b407"},"vehicle_type_id":"4","last_reported":1714777668,"current_range_meters":27200,"station_id":"ce4bgk12rcd13ifvqbi0","pricing_plan_id":"cebpf4jnsgd1na2vs0mg"},{"bike_id":"d2506bfd-5ef0-42e5-bd07-4965d17f1689","system_id":"levelo_inurba_marseille","lat":43.296143,"lon":5.377083,"is_reserved":false,"is_disabled":false,"rental_uris":{"android":"levelo://app?vid=d2506bfd-5ef0-42e5-bd07-4965d17f1689","ios":"levelo://app?vid=d2506bfd-5ef0-42e5-bd07-4965d17f1689"},"vehicle_type_id":"4","last_reported":1714777668,"current_range_meters":0,"station_id":"ce4bgi92rcd13ifvqb90","pricing_plan_id":"cebpf4jnsgd1na2vs0mg"},{"bike_id":"c931bf9b-03d9-46db-82b4-c11c9a51c4f8","system_id":"levelo_inurba_marseille","lat":43.296277,"lon":5.377108,"is_reserved":false,"is_disabled":false,"rental_uris":{"android":"levelo://app?vid=c931bf9b-03d9-46db-82b4-c11c9a51c4f8","ios":"levelo://app?vid=c931bf9b-03d9-46db-82b4-c11c9a51c4f8"},"vehicle_type_id":"4","last_reported":1714777668,"current_range_meters":6000,"station_id":"ce4bgi92rcd13ifvqb90","pricing_plan_id":"cebpf4jnsgd1na2vs0mg"},{"bike_id":"f2d9e4a1-3d8f-421f-923f-b56dcce1293e","system_id":"levelo_inurba_marseille","lat":43.2954,"lon":5.37496,"is_reserved":false,"is_disabled":false,"rental_uris":{"android":"levelo://app?vid=f2d9e4a1-3d8f-421f-923f-b56dcce1293e","ios":"levelo://app?vid=f2d9e4a1-3d8f-421f-923f-b56dcce1293e"},"vehicle_type_id":"4","last_reported":1714777668,"current_range_meters":4800,"station_id":"ce4bgkp2rcd13ifvqbmg","pricing_plan_id":"cebpf4jnsgd1na2vs0mg"},{"bike_id":"20656f3a-32d0-4585-b1d0-bc6dc0dacfcc","system_id":"levelo_inurba_marseille","lat":43.296263,"lon":5.377094,"is_reserved":false,"is_disabled":false,"rental_uris":{"android":"levelo://app?vid=20656f3a-32d0-4585-b1d0-bc6dc0dacfcc","ios":"levelo://app?vid=20656f3a-32d0-4585-b1d0-bc6dc0dacfcc"},"vehicle_type_id":"4","last_reported":1714777668,"current_range_meters":17200,"station_id":"ce4bgi92rcd13ifvqb90","pricing_plan_id":"cebpf4jnsgd1na2vs0mg"},{"bike_id":"a7830c64-8dd0-4946-8bb2-79854ab5185a","system_id":"levelo_inurba_marseille","lat":43.299707,"lon":5.384859,"is_reserved":false,"is_disabled":false,"rental_uris":{"android":"levelo://app?vid=a7830c64-8dd0-4946-8bb2-79854ab5185a","ios":"levelo://app?vid=a7830c64-8dd0-4946-8bb2-79854ab5185a"},"vehicle_type_id":"4","last_reported":1714777668,"current_range_meters":29200,"station_id":"ce4bgj92rcd13ifvqbd0","pricing_plan_id":"cebpf4jnsgd1na2vs0mg"},{"bike_id":"9d8c5811-38f7-45c3-83b9-fde46415794c","system_id":"levelo_inurba_marseille","lat":43.299707,"lon":5.384859,"is_reserved":false,"is_disabled":false,"rental_uris":{"android":"levelo://app?vid=9d8c5811-38f7-45c3-83b9-fde46415794c","ios":"levelo://app?vid=9d8c5811-38f7-45c3-83b9-fde46415794c"},"vehicle_type_id":"4","last_reported":1714777668,"current_range_meters":22800,"station_id":"ce4bgj92rcd13ifvqbd0","pricing_plan_id":"cebpf4jnsgd1na2vs0mg"},{"bike_id":"c8947b97-98ee-4a49-8ddc-934a0f4f6dfa","system_id":"levelo_inurba_marseille","lat":43.299717,"lon":5.384845,"is_reserved":false,"is_disabled":false,"rental_uris":{"android":"levelo://app?vid=c8947b97-98ee-4a49-8ddc-934a0f4f6dfa","ios":"levelo://app?vid=c8947b97-98ee-4a49-8ddc-934a0f4f6dfa"},"vehicle_type_id":"4","last_reported":1714777668,"current_range_meters":24400,"station_id":"ce4bgj92rcd13ifvqbd0","pricing_plan_id":"cebpf4jnsgd1na2vs0mg"},{"bike_id":"0e361f5d-f499-48ee-a725-5b404fbec2bf","system_id":"levelo_inurba_marseille","lat":43.29512,"lon":5.37513,"is_reserved":false,"is_disabled":false,"rental_uris":{"android":"levelo://app?vid=0e361f5d-f499-48ee-a725-5b404fbec2bf","ios":"levelo://app?vid=0e361f5d-f499-48ee-a725-5b404fbec2bf"},"vehicle_type_id":"4","last_reported":1714777668,"current_range_meters":4800,"station_id":"ce4bgkp2rcd13ifvqbmg","pricing_plan_id":"cebpf4jnsgd1na2vs0mg"},{"bike_id":"3355b1b9-7afe-47c7-a5d9-cbe570280f7d","system_id":"levelo_inurba_marseille","lat":43.299717,"lon":5.384845,"is_reserved":false,"is_disabled":false,"rental_uris":{"android":"levelo://app?vid=3355b1b9-7afe-47c7-a5d9-cbe570280f7d","ios":"levelo://app?vid=3355b1b9-7afe-47c7-a5d9-cbe570280f7d"},"vehicle_type_id":"4","last_reported":1714777668,"current_range_meters":4800,"station_id":"ce4bgj92rcd13ifvqbd0","pricing_plan_id":"cebpf4jnsgd1na2vs0mg"},{"bike_id":"550cd7d5-0917-4810-9e00-93254432af1a","system_id":"levelo_inurba_marseille","lat":43.32371,"lon":5.38864,"is_reserved":false,"is_disabled":false,"rental_uris":{"android":"levelo://app?vid=550cd7d5-0917-4810-9e00-93254432af1a","ios":"levelo://app?vid=550cd7d5-0917-4810-9e00-93254432af1a"},"vehicle_type_id":"4","last_reported":1714777668,"current_range_meters":4800,"station_id":"ce4bhqp2rcd13ifvqhog","pricing_plan_id":"cebpf4jnsgd1na2vs0mg"},{"bike_id":"ac8668e1-e249-40ea-b0e6-d73636acbb50","system_id":"levelo_inurba_marseille","lat":43.32367,"lon":5.388836,"is_reserved":false,"is_disabled":false,"rental_uris":{"android":"levelo://app?vid=ac8668e1-e249-40ea-b0e6-d73636acbb50","ios":"levelo://app?vid=ac8668e1-e249-40ea-b0e6-d73636acbb50"},"vehicle_type_id":"4","last_reported":1714777668,"current_range_meters":22000,"station_id":"ce4bhqp2rcd13ifvqhog","pricing_plan_id":"cebpf4jnsgd1na2vs0mg"},{"bike_id":"83114130-60a3-4e7c-8c47-2ec4f65591df","system_id":"levelo_inurba_marseille","lat":43.32365,"lon":5.38875,"is_reserved":false,"is_disabled":false,"rental_uris":{"android":"levelo://app?vid=83114130-60a3-4e7c-8c47-2ec4f65591df","ios":"levelo://app?vid=83114130-60a3-4e7c-8c47-2ec4f65591df"},"vehicle_type_id":"4","last_reported":1714777668,"current_range_meters":28800,"station_id":"ce4bhqp2rcd13ifvqhog","pricing_plan_id":"cebpf4jnsgd1na2vs0mg"},{"bike_id":"78141cd7-b778-4dab-b370-90618f44f9c5","system_id":"levelo_inurba_marseille","lat":43.32367,"lon":5.388836,"is_reserved":false,"is_disabled":false,"rental_uris":{"android":"levelo://app?vid=78141cd7-b778-4dab-b370-90618f44f9c5","ios":"levelo://app?vid=78141cd7-b778-4dab-b370-90618f44f9c5"},"vehicle_type_id":"4","last_reported":1714777668,"current_range_meters":31200,"station_id":"ce4bhqp2rcd13ifvqhog","pricing_plan_id":"cebpf4jnsgd1na2vs0mg"},{"bike_id":"ec5399c7-4bcf-4957-ae0c-f370694eaab6","system_id":"levelo_inurba_marseille","lat":43.32362,"lon":5.38882,"is_reserved":false,"is_disabled":false,"rental_uris":{"android":"levelo://app?vid=ec5399c7-4bcf-4957-ae0c-f370694eaab6","ios":"levelo://app?vid=ec5399c7-4bcf-4957-ae0c-f370694eaab6"},"vehicle_type_id":"4","last_reported":1714777668,"current_range_meters":2000,"station_id":"ce4bhqp2rcd13ifvqhog","pricing_plan_id":"cebpf4jnsgd1na2vs0mg"},{"bike_id":"a34c7616-7d09-44f7-ad72-11b366e85360","system_id":"levelo_inurba_marseille","lat":43.32367,"lon":5.388836,"is_reserved":false,"is_disabled":false,"rental_uris":{"android":"levelo://app?vid=a34c7616-7d09-44f7-ad72-11b366e85360","ios":"levelo://app?vid=a34c7616-7d09-44f7-ad72-11b366e85360"},"vehicle_type_id":"4","last_reported":1714777668,"current_range_meters":30400,"station_id":"ce4bhqp2rcd13ifvqhog","pricing_plan_id":"cebpf4jnsgd1na2vs0mg"},{"bike_id":"50dba0cd-9a3b-437e-9316-a8e80865b48d","system_id":"levelo_inurba_marseille","lat":43.32367,"lon":5.388836,"is_reserved":false,"is_disabled":false,"rental_uris":{"android":"levelo://app?vid=50dba0cd-9a3b-437e-9316-a8e80865b48d","ios":"levelo://app?vid=50dba0cd-9a3b-437e-9316-a8e80865b48d"},"vehicle_type_id":"4","last_reported":1714777668,"current_range_meters":26800,"station_id":"ce4bhqp2rcd13ifvqhog","pricing_plan_id":"cebpf4jnsgd1na2vs0mg"},{"bike_id":"b1abc65a-d911-4232-b113-c25623b25df0","system_id":"levelo_inurba_marseille","lat":43.32367,"lon":5.388836,"is_reserved":false,"is_disabled":false,"rental_uris":{"android":"levelo://app?vid=b1abc65a-d911-4232-b113-c25623b25df0","ios":"levelo://app?vid=b1abc65a-d911-4232-b113-c25623b25df0"},"vehicle_type_id":"4","last_reported":1714777668,"current_range_meters":22800,"station_id":"ce4bhqp2rcd13ifvqhog","pricing_plan_id":"cebpf4jnsgd1na2vs0mg"},{"bike_id":"c7a9bec9-a9b9-4925-9cc2-f3f62ea602b7","system_id":"levelo_inurba_marseille","lat":43.32367,"lon":5.388836,"is_reserved":false,"is_disabled":false,"rental_uris":{"android":"levelo://app?vid=c7a9bec9-a9b9-4925-9cc2-f3f62ea602b7","ios":"levelo://app?vid=c7a9bec9-a9b9-4925-9cc2-f3f62ea602b7"},"vehicle_type_id":"4","last_reported":1714777668,"current_range_meters":2800,"station_id":"ce4bhqp2rcd13ifvqhog","pricing_plan_id":"cebpf4jnsgd1na2vs0mg"},{"bike_id":"48151189-ca5c-42a5-914a-1f363fba7703","system_id":"levelo_inurba_marseille","lat":43.32367,"lon":5.388836,"is_reserved":false,"is_disabled":false,"rental_uris":{"android":"levelo://app?vid=48151189-ca5c-42a5-914a-1f363fba7703","ios":"levelo://app?vid=48151189-ca5c-42a5-914a-1f363fba7703"},"vehicle_type_id":"4","last_reported":1714777668,"current_range_meters":16400,"station_id":"ce4bhqp2rcd13ifvqhog","pricing_plan_id":"cebpf4jnsgd1na2vs0mg"},{"bike_id":"5f0453e5-778b-4235-af9e-69261effb984","system_id":"levelo_inurba_marseille","lat":43.32367,"lon":5.388836,"is_reserved":false,"is_disabled":false,"rental_uris":{"android":"levelo://app?vid=5f0453e5-778b-4235-af9e-69261effb984","ios":"levelo://app?vid=5f0453e5-778b-4235-af9e-69261effb984"},"vehicle_type_id":"4","last_reported":1714777668,"current_range_meters":27600,"station_id":"ce4bhqp2rcd13ifvqhog","pricing_plan_id":"cebpf4jnsgd1na2vs0mg"},{"bike_id":"58761d7e-287d-4b94-b096-ac0f916ae787","system_id":"levelo_inurba_marseille","lat":43.29602,"lon":5.381084,"is_reserved":false,"is_disabled":false,"rental_uris":{"android":"levelo://app?vid=58761d7e-287d-4b94-b096-ac0f916ae787","ios":"levelo://app?vid=58761d7e-287d-4b94-b096-ac0f916ae787"},"vehicle_type_id":"4","last_reported":1714777668,"current_range_meters":24400,"station_id":"ce4bgl12rcd13ifvqbo0","pricing_plan_id":"cebpf4jnsgd1na2vs0mg"},{"bike_id":"36fd4ae5-d780-4f17-aa40-430db214b4e9","system_id":"levelo_inurba_marseille","lat":43.292749,"lon":5.368402,"is_reserved":false,"is_disabled":false,"rental_uris":{"android":"levelo://app?vid=36fd4ae5-d780-4f17-aa40-430db214b4e9","ios":"levelo://app?vid=36fd4ae5-d780-4f17-aa40-430db214b4e9"},"vehicle_type_id":"4","last_reported":1714777668,"current_range_meters":2800,"station_id":"ce4bhbp2rcd13ifvqesg","pricing_plan_id":"cebpf4jnsgd1na2vs0mg"},{"bike_id":"e67460d1-ed44-48bf-9548-0daffd72280c","system_id":"levelo_inurba_marseille","lat":43.29314,"lon":5.37172,"is_reserved":false,"is_disabled":false,"rental_uris":{"android":"levelo://app?vid=e67460d1-ed44-48bf-9548-0daffd72280c","ios":"levelo://app?vid=e67460d1-ed44-48bf-9548-0daffd72280c"},"vehicle_type_id":"4","last_reported":1714777668,"current_range_meters":0,"station_id":"ce4bgh92rcd13ifvqb40","pricing_plan_id":"cebpf4jnsgd1na2vs0mg"},{"bike_id":"918c13a5-b082-4b46-a119-8b17134ee38d","system_id":"levelo_inurba_marseille","lat":43.292749,"lon":5.368402,"is_reserved":false,"is_disabled":false,"rental_uris":{"android":"levelo://app?vid=918c13a5-b082-4b46-a119-8b17134ee38d","ios":"levelo://app?vid=918c13a5-b082-4b46-a119-8b17134ee38d"},"vehicle_type_id":"4","last_reported":1714777668,"current_range_meters":0,"station_id":"ce4bhbp2rcd13ifvqesg","pricing_plan_id":"cebpf4jnsgd1na2vs0mg"},{"bike_id":"19d0826f-0961-4ef7-92cb-b8f7f684d2f8","system_id":"levelo_inurba_marseille","lat":43.293091,"lon":5.371776,"is_reserved":false,"is_disabled":false,"rental_uris":{"android":"levelo://app?vid=19d0826f-0961-4ef7-92cb-b8f7f684d2f8","ios":"levelo://app?vid=19d0826f-0961-4ef7-92cb-b8f7f684d2f8"},"vehicle_type_id":"4","last_reported":1714777668,"current_range_meters":0,"station_id":"ce4bgh92rcd13ifvqb40","pricing_plan_id":"cebpf4jnsgd1na2vs0mg"},{"bike_id":"5088975e-b178-48c6-801f-4dd8aa4cdfdd","system_id":"levelo_inurba_marseille","lat":43.29306,"lon":5.37163,"is_reserved":false,"is_disabled":false,"rental_uris":{"android":"levelo://app?vid=5088975e-b178-48c6-801f-4dd8aa4cdfdd","ios":"levelo://app?vid=5088975e-b178-48c6-801f-4dd8aa4cdfdd"},"vehicle_type_id":"4","last_reported":1714777668,"current_range_meters":400,"station_id":"ce4bgh92rcd13ifvqb40","pricing_plan_id":"cebpf4jnsgd1na2vs0mg"},{"bike_id":"02225e91-497f-4655-babc-b3f689665834","system_id":"levelo_inurba_marseille","lat":43.29307,"lon":5.37173,"is_reserved":false,"is_disabled":false,"rental_uris":{"android":"levelo://app?vid=02225e91-497f-4655-babc-b3f689665834","ios":"levelo://app?vid=02225e91-497f-4655-babc-b3f689665834"},"vehicle_type_id":"4","last_reported":1714777668,"current_range_meters":20800,"station_id":"ce4bgh92rcd13ifvqb40","pricing_plan_id":"cebpf4jnsgd1na2vs0mg"},{"bike_id":"0d713afb-f148-4c31-9e2f-84953329c5de","system_id":"levelo_inurba_marseille","lat":43.293259,"lon":5.371586,"is_reserved":false,"is_disabled":false,"rental_uris":{"android":"levelo://app?vid=0d713afb-f148-4c31-9e2f-84953329c5de","ios":"levelo://app?vid=0d713afb-f148-4c31-9e2f-84953329c5de"},"vehicle_type_id":"4","last_reported":1714777668,"current_range_meters":21600,"station_id":"ce4bgh92rcd13ifvqb40","pricing_plan_id":"cebpf4jnsgd1na2vs0mg"},{"bike_id":"3798cf92-c1a3-43af-a257-654f401eab6d","system_id":"levelo_inurba_marseille","lat":43.292749,"lon":5.368398,"is_reserved":false,"is_disabled":false,"rental_uris":{"android":"levelo://app?vid=3798cf92-c1a3-43af-a257-654f401eab6d","ios":"levelo://app?vid=3798cf92-c1a3-43af-a257-654f401eab6d"},"vehicle_type_id":"4","last_reported":1714777668,"current_range_meters":17600,"station_id":"ce4bhbp2rcd13ifvqesg","pricing_plan_id":"cebpf4jnsgd1na2vs0mg"},{"bike_id":"a1fb853f-04f8-499d-8ec7-7a158a6fdd42","system_id":"levelo_inurba_marseille","lat":43.29302,"lon":5.37173,"is_reserved":false,"is_disabled":false,"rental_uris":{"android":"levelo://app?vid=a1fb853f-04f8-499d-8ec7-7a158a6fdd42","ios":"levelo://app?vid=a1fb853f-04f8-499d-8ec7-7a158a6fdd42"},"vehicle_type_id":"4","last_reported":1714777668,"current_range_meters":0,"station_id":"ce4bgh92rcd13ifvqb40","pricing_plan_id":"cebpf4jnsgd1na2vs0mg"},{"bike_id":"fda48e49-eae9-4203-8d7a-e31285ee5b8f","system_id":"levelo_inurba_marseille","lat":43.293001,"lon":5.371713,"is_reserved":false,"is_disabled":false,"rental_uris":{"android":"levelo://app?vid=fda48e49-eae9-4203-8d7a-e31285ee5b8f","ios":"levelo://app?vid=fda48e49-eae9-4203-8d7a-e31285ee5b8f"},"vehicle_type_id":"4","last_reported":1714777668,"current_range_meters":4400,"station_id":"ce4bgh92rcd13ifvqb40","pricing_plan_id":"cebpf4jnsgd1na2vs0mg"},{"bike_id":"4d0b2878-e701-4e8c-8643-68cd9810e9fc","system_id":"levelo_inurba_marseille","lat":43.292749,"lon":5.368402,"is_reserved":false,"is_disabled":false,"rental_uris":{"android":"levelo://app?vid=4d0b2878-e701-4e8c-8643-68cd9810e9fc","ios":"levelo://app?vid=4d0b2878-e701-4e8c-8643-68cd9810e9fc"},"vehicle_type_id":"4","last_reported":1714777668,"current_range_meters":14000,"station_id":"ce4bhbp2rcd13ifvqesg","pricing_plan_id":"cebpf4jnsgd1na2vs0mg"},{"bike_id":"b928624d-1440-4ebc-acbd-2e9e3da1baeb","system_id":"levelo_inurba_marseille","lat":43.292749,"lon":5.368398,"is_reserved":false,"is_disabled":false,"rental_uris":{"android":"levelo://app?vid=b928624d-1440-4ebc-acbd-2e9e3da1baeb","ios":"levelo://app?vid=b928624d-1440-4ebc-acbd-2e9e3da1baeb"},"vehicle_type_id":"4","last_reported":1714777668,"current_range_meters":24000,"station_id":"ce4bhbp2rcd13ifvqesg","pricing_plan_id":"cebpf4jnsgd1na2vs0mg"},{"bike_id":"0707b84e-00af-4fbb-8228-f280cb261bc0","system_id":"levelo_inurba_marseille","lat":43.292749,"lon":5.368402,"is_reserved":false,"is_disabled":false,"rental_uris":{"android":"levelo://app?vid=0707b84e-00af-4fbb-8228-f280cb261bc0","ios":"levelo://app?vid=0707b84e-00af-4fbb-8228-f280cb261bc0"},"vehicle_type_id":"4","last_reported":1714777668,"current_range_meters":20400,"station_id":"ce4bhbp2rcd13ifvqesg","pricing_plan_id":"cebpf4jnsgd1na2vs0mg"},{"bike_id":"cf27026d-2d9c-4c45-97da-52823a7eb677","system_id":"levelo_inurba_marseille","lat":43.292749,"lon":5.368402,"is_reserved":false,"is_disabled":false,"rental_uris":{"android":"levelo://app?vid=cf27026d-2d9c-4c45-97da-52823a7eb677","ios":"levelo://app?vid=cf27026d-2d9c-4c45-97da-52823a7eb677"},"vehicle_type_id":"4","last_reported":1714777668,"current_range_meters":30400,"station_id":"ce4bhbp2rcd13ifvqesg","pricing_plan_id":"cebpf4jnsgd1na2vs0mg"},{"bike_id":"09f7cb5d-9edd-47d2-a04e-f1b90dc48fc4","system_id":"levelo_inurba_marseille","lat":43.292749,"lon":5.368402,"is_reserved":false,"is_disabled":false,"rental_uris":{"android":"levelo://app?vid=09f7cb5d-9edd-47d2-a04e-f1b90dc48fc4","ios":"levelo://app?vid=09f7cb5d-9edd-47d2-a04e-f1b90dc48fc4"},"vehicle_type_id":"4","last_reported":1714777668,"current_range_meters":28800,"station_id":"ce4bhbp2rcd13ifvqesg","pricing_plan_id":"cebpf4jnsgd1na2vs0mg"},{"bike_id":"b3bb1d1d-ca6c-4c04-9a39-ba9d720066bb","system_id":"levelo_inurba_marseille","lat":43.292749,"lon":5.368402,"is_reserved":false,"is_disabled":false,"rental_uris":{"android":"levelo://app?vid=b3bb1d1d-ca6c-4c04-9a39-ba9d720066bb","ios":"levelo://app?vid=b3bb1d1d-ca6c-4c04-9a39-ba9d720066bb"},"vehicle_type_id":"4","last_reported":1714777668,"current_range_meters":400,"station_id":"ce4bhbp2rcd13ifvqesg","pricing_plan_id":"cebpf4jnsgd1na2vs0mg"},{"bike_id":"cd6f3653-8d24-4830-8d11-5de55e86be15","system_id":"levelo_inurba_marseille","lat":43.305994,"lon":5.393687,"is_reserved":false,"is_disabled":false,"rental_uris":{"android":"levelo://app?vid=cd6f3653-8d24-4830-8d11-5de55e86be15","ios":"levelo://app?vid=cd6f3653-8d24-4830-8d11-5de55e86be15"},"vehicle_type_id":"4","last_reported":1714777668,"current_range_meters":17600,"station_id":"ce4bh0p2rcd13ifvqd80","pricing_plan_id":"cebpf4jnsgd1na2vs0mg"},{"bike_id":"0eddc9c9-23f0-4ed9-ac8f-2e725fd61aa5","system_id":"levelo_inurba_marseille","lat":43.305994,"lon":5.393687,"is_reserved":false,"is_disabled":false,"rental_uris":{"android":"levelo://app?vid=0eddc9c9-23f0-4ed9-ac8f-2e725fd61aa5","ios":"levelo://app?vid=0eddc9c9-23f0-4ed9-ac8f-2e725fd61aa5"},"vehicle_type_id":"4","last_reported":1714777668,"current_range_meters":3200,"station_id":"ce4bh0p2rcd13ifvqd80","pricing_plan_id":"cebpf4jnsgd1na2vs0mg"},{"bike_id":"1dd02db2-c5f9-4e20-9944-e680b0a504e6","system_id":"levelo_inurba_marseille","lat":43.305994,"lon":5.393687,"is_reserved":false,"is_disabled":false,"rental_uris":{"android":"levelo://app?vid=1dd02db2-c5f9-4e20-9944-e680b0a504e6","ios":"levelo://app?vid=1dd02db2-c5f9-4e20-9944-e680b0a504e6"},"vehicle_type_id":"4","last_reported":1714777668,"current_range_meters":17200,"station_id":"ce4bh0p2rcd13ifvqd80","pricing_plan_id":"cebpf4jnsgd1na2vs0mg"},{"bike_id":"17f5b2c8-fdb5-44fb-a9d3-ff00f1b1a1a5","system_id":"levelo_inurba_marseille","lat":43.305994,"lon":5.393687,"is_reserved":false,"is_disabled":false,"rental_uris":{"android":"levelo://app?vid=17f5b2c8-fdb5-44fb-a9d3-ff00f1b1a1a5","ios":"levelo://app?vid=17f5b2c8-fdb5-44fb-a9d3-ff00f1b1a1a5"},"vehicle_type_id":"4","last_reported":1714777668,"current_range_meters":0,"station_id":"ce4bh0p2rcd13ifvqd80","pricing_plan_id":"cebpf4jnsgd1na2vs0mg"},{"bike_id":"c7b78ce2-658b-43d2-9b20-3acf204d1c41","system_id":"levelo_inurba_marseille","lat":43.30302,"lon":5.39198,"is_reserved":false,"is_disabled":false,"rental_uris":{"android":"levelo://app?vid=c7b78ce2-658b-43d2-9b20-3acf204d1c41","ios":"levelo://app?vid=c7b78ce2-658b-43d2-9b20-3acf204d1c41"},"vehicle_type_id":"4","last_reported":1714777668,"current_range_meters":0,"station_id":"ce4bgkh2rcd13ifvqbk0","pricing_plan_id":"cebpf4jnsgd1na2vs0mg"},{"bike_id":"bd182602-0f76-46ec-aa35-4d6ad132089b","system_id":"levelo_inurba_marseille","lat":43.29274,"lon":5.3748,"is_reserved":false,"is_disabled":false,"rental_uris":{"android":"levelo://app?vid=bd182602-0f76-46ec-aa35-4d6ad132089b","ios":"levelo://app?vid=bd182602-0f76-46ec-aa35-4d6ad132089b"},"vehicle_type_id":"4","last_reported":1714777668,"current_range_meters":16400,"station_id":"ce4bgi12rcd13ifvqb70","pricing_plan_id":"cebpf4jnsgd1na2vs0mg"},{"bike_id":"fe27c918-afa8-42f5-8933-b4d38f157c7c","system_id":"levelo_inurba_marseille","lat":43.2936,"lon":5.37835,"is_reserved":false,"is_disabled":false,"rental_uris":{"android":"levelo://app?vid=fe27c918-afa8-42f5-8933-b4d38f157c7c","ios":"levelo://app?vid=fe27c918-afa8-42f5-8933-b4d38f157c7c"},"vehicle_type_id":"4","last_reported":1714777668,"current_range_meters":1600,"station_id":"ce4bgjh2rcd13ifvqbf0","pricing_plan_id":"cebpf4jnsgd1na2vs0mg"},{"bike_id":"9878c034-303b-41ee-b001-30d372946c63","system_id":"levelo_inurba_marseille","lat":43.30085,"lon":5.390856,"is_reserved":false,"is_disabled":false,"rental_uris":{"android":"levelo://app?vid=9878c034-303b-41ee-b001-30d372946c63","ios":"levelo://app?vid=9878c034-303b-41ee-b001-30d372946c63"},"vehicle_type_id":"4","last_reported":1714777668,"current_range_meters":13200,"station_id":"ce4bh192rcd13ifvqdb0","pricing_plan_id":"cebpf4jnsgd1na2vs0mg"},{"bike_id":"724c95e4-530b-417a-b2a1-5e3c29394f55","system_id":"levelo_inurba_marseille","lat":43.300852,"lon":5.390859,"is_reserved":false,"is_disabled":false,"rental_uris":{"android":"levelo://app?vid=724c95e4-530b-417a-b2a1-5e3c29394f55","ios":"levelo://app?vid=724c95e4-530b-417a-b2a1-5e3c29394f55"},"vehicle_type_id":"4","last_reported":1714777668,"current_range_meters":2800,"station_id":"ce4bh192rcd13ifvqdb0","pricing_plan_id":"cebpf4jnsgd1na2vs0mg"},{"bike_id":"9dbdecfc-3e17-4d65-892c-1ff9c3444ae4","system_id":"levelo_inurba_marseille","lat":43.298764,"lon":5.388973,"is_reserved":false,"is_disabled":false,"rental_uris":{"android":"levelo://app?vid=9dbdecfc-3e17-4d65-892c-1ff9c3444ae4","ios":"levelo://app?vid=9dbdecfc-3e17-4d65-892c-1ff9c3444ae4"},"vehicle_type_id":"4","last_reported":1714777668,"current_range_meters":31600,"station_id":"ce4bh392rcd13ifvqdl0","pricing_plan_id":"cebpf4jnsgd1na2vs0mg"},{"bike_id":"9d5d91d3-b15d-4c9f-bd74-4244ec656023","system_id":"levelo_inurba_marseille","lat":43.298764,"lon":5.388973,"is_reserved":false,"is_disabled":false,"rental_uris":{"android":"levelo://app?vid=9d5d91d3-b15d-4c9f-bd74-4244ec656023","ios":"levelo://app?vid=9d5d91d3-b15d-4c9f-bd74-4244ec656023"},"vehicle_type_id":"4","last_reported":1714777668,"current_range_meters":11600,"station_id":"ce4bh392rcd13ifvqdl0","pricing_plan_id":"cebpf4jnsgd1na2vs0mg"},