{"last_updated":1777059792,"ttl":60,"version":"2.2","data":{"bikes":[{"bike_id":"c31b65d4-2e4e-49a5-99b3-29c702408241","system_id":"levelo_inurba_marseille","lat":43.25148,"lon":5.37522,"is_reserved":false,"is_disabled":false,"rental_uris":{"android":"levelo://app?vid=c31b65d4-2e4e-49a5-99b3-29c702408241","ios":"levelo://app?vid=c31b65d4-2e4e-49a5-99b3-29c702408241"},"vehicle_type_id":"4","last_reported":1777059792,"current_range_meters":1200,"station_id":"","pricing_plan_id":"cebpf4jnsgd1na2vs0mg"},{"bike_id":"792eb6da-76d7-4209-8d13-167beb1b7c47","system_id":"levelo_inurba_marseille","lat":43.29099,"lon":5.38139,"is_reserved":false,"is_disabled":false,"rental_uris":{"android":"levelo://app?vid=792eb6da-76d7-4209-8d13-167beb1b7c47","ios":"levelo://app?vid=792eb6da-76d7-4209-8d13-167beb1b7c47"},"vehicle_type_id":"4","last_reported":1777059792,"current_range_meters":2800,"station_id":"ce4bh512rcd13ifvqe2g","pricing_plan_id":"cebpf4jnsgd1na2vs0mg"},{"bike_id":"22b3bf16-b347-4c1c-9de0-4f0a619d8fdc","system_id":"levelo_inurba_marseille","lat":43.28615,"lon":5.39878,"is_reserved":false,"is_disabled":false,"rental_uris":{"android":"levelo://app?vid=22b3bf16-b347-4c1c-9de0-4f0a619d8fdc","ios":"levelo://app?vid=22b3bf16-b347-4c1c-9de0-4f0a619d8fdc"},"vehicle_type_id":"4","last_reported":1777059792,"current_range_meters":2800,"station_id":"st_d4a7ka997mjs738ck50g","pricing_plan_id":"cebpf4jnsgd1na2vs0mg"},{"bike_id":"763ee762-64f3-4f52-b6e7-a919c0d7e0b8","system_id":"levelo_inurba_marseille","lat":43.28225,"lon":5.39069,"is_reserved":false,"is_disabled":false,"rental_uris":{"android":"levelo://app?vid=763ee762-64f3-4f52-b6e7-a919c0d7e0b8","ios":"levelo://app?vid=763ee762-64f3-4f52-b6e7-a919c0d7e0b8"},"vehicle_type_id":"4","last_reported":1777059792,"current_range_meters":2800,"station_id":"ce4bhn92rcd13ifvqgsg","pricing_plan_id":"cebpf4jnsgd1na2vs0mg"},{"bike_id":"6ee960ff-129a-4236-887e-76d8f3ffb499","system_id":"levelo_inurba_marseille","lat":43.31485,"lon":5.3731,"is_reserved":false,"is_disabled":false,"rental_uris":{"android":"levelo://app?vid=6ee960ff-129a-4236-887e-76d8f3ffb499","ios":"levelo://app?vid=6ee960ff-129a-4236-887e-76d8f3ffb499"},"vehicle_type_id":"4","last_reported":1777059792,"current_range_meters":2800,"station_id":"ce4bgt12rcd13ifvqcd0","pricing_plan_id":"cebpf4jnsgd1na2vs0mg"},{"bike_id":"dc3d93ea-ae84-4a55-9dbf-fa49417dc298","system_id":"levelo_inurba_marseille","lat":43.25741,"lon":5.38659,"is_reserved":false,"is_disabled":false,"rental_uris":{"android":"levelo://app?vid=dc3d93ea-ae84-4a55-9dbf-fa49417dc298","ios":"levelo://app?vid=dc3d93ea-ae84-4a55-9dbf-fa49417dc298"},"vehicle_type_id":"4","last_reported":1777059792,"current_range_meters":2800,"station_id":"","pricing_plan_id":"cebpf4jnsgd1na2vs0mg"},{"bike_id":"ff933ecc-1d0a-474c-ae2c-2e3d54cef27d","system_id":"levelo_inurba_marseille","lat":43.30893,"lon":5.39657,"is_reserved":false,"is_disabled":false,"rental_uris":{"android":"levelo://app?vid=ff933ecc-1d0a-474c-ae2c-2e3d54cef27d","ios":"levelo://app?vid=ff933ecc-1d0a-474c-ae2c-2e3d54cef27d"},"vehicle_type_id":"4","last_reported":1777059792,"current_range_meters":2800,"station_id":"ce4bh012rcd13ifvqcv0","pricing_plan_id":"cebpf4jnsgd1na2vs0mg"},{"bike_id":"adcf4ce1-d1e6-4939-8827-1b39fbd4d052","system_id":"levelo_inurba_marseille","lat":43.25543,"lon":5.38287,"is_reserved":false,"is_disabled":false,"rental_uris":{"android":"levelo://app?vid=adcf4ce1-d1e6-4939-8827-1b39fbd4d052","ios":"levelo://app?vid=adcf4ce1-d1e6-4939-8827-1b39fbd4d052"},"vehicle_type_id":"4","last_reported":1777059792,"current_range_meters":2800,"station_id":"","pricing_plan_id":"cebpf4jnsgd1na2vs0mg"},{"bike_id":"8c1a2ef2-c087-437f-a16e-f54651ee67d6","system_id":"levelo_inurba_marseille","lat":43.25338,"lon":5.42171,"is_reserved":false,"is_disabled":false,"rental_uris":{"android":"levelo://app?vid=8c1a2ef2-c087-437f-a16e-f54651ee67d6","ios":"levelo://app?vid=8c1a2ef2-c087-437f-a16e-f54651ee67d6"},"vehicle_type_id":"4","last_reported":1777059792,"current_range_meters":2800,"station_id":"st_d2m65c5bi1j21697t3ng","pricing_plan_id":"cebpf4jnsgd1na2vs0mg"},{"bike_id":"5b4c1bfa-a4bb-4dae-b02e-c6365b8a2a96","system_id":"levelo_inurba_marseille","lat":43.28681,"lon":5.46708,"is_reserved":false,"is_disabled":false,"rental_uris":{"android":"levelo://app?vid=5b4c1bfa-a4bb-4dae-b02e-c6365b8a2a96","ios":"levelo://app?vid=5b4c1bfa-a4bb-4dae-b02e-c6365b8a2a96"},"vehicle_type_id":"4","last_reported":1777059792,"current_range_meters":2800,"station_id":"st_d6tc3vkotcvc738tfjhg","pricing_plan_id":"cebpf4jnsgd1na2vs0mg"},{"bike_id":"5a65e4ce-6ae9-46a9-8b43-4807dee35377","system_id":"levelo_inurba_marseille","lat":43.29933,"lon":5.36552,"is_reserved":false,"is_disabled":false,"rental_uris":{"android":"levelo://app?vid=5a65e4ce-6ae9-46a9-8b43-4807dee35377","ios":"levelo://app?vid=5a65e4ce-6ae9-46a9-8b43-4807dee35377"},"vehicle_type_id":"4","last_reported":1777059792,"current_range_meters":2800,"station_id":"ce4bgm92rcd13ifvqbr0","pricing_plan_id":"cebpf4jnsgd1na2vs0mg"},{"bike_id":"8d5b1cbe-3779-4bd5-837f-fef8ab499e14","system_id":"levelo_inurba_marseille","lat":43.27054,"lon":5.40258,"is_reserved":false,"is_disabled":false,"rental_uris":{"android":"levelo://app?vid=8d5b1cbe-3779-4bd5-837f-fef8ab499e14","ios":"levelo://app?vid=8d5b1cbe-3779-4bd5-837f-fef8ab499e14"},"vehicle_type_id":"4","last_reported":1777059792,"current_range_meters":2800,"station_id":"ce4bhk92rcd13ifvqgc0","pricing_plan_id":"cebpf4jnsgd1na2vs0mg"},{"bike_id":"9c3677d0-627f-49f8-bd9c-64ba96ef4fce","system_id":"levelo_inurba_marseille","lat":43.28473,"lon":5.48408,"is_reserved":false,"is_disabled":false,"rental_uris":{"android":"levelo://app?vid=9c3677d0-627f-49f8-bd9c-64ba96ef4fce","ios":"levelo://app?vid=9c3677d0-627f-49f8-bd9c-64ba96ef4fce"},"vehicle_type_id":"4","last_reported":1777059792,"current_range_meters":2800,"station_id":"","pricing_plan_id":"cebpf4jnsgd1na2vs0mg"},{"bike_id":"30a2e2ae-c8dc-4c77-9898-e3e0a0b8ba9f","system_id":"levelo_inurba_marseille","lat":43.30912,"lon":5.40153,"is_reserved":false,"is_disabled":false,"rental_uris":{"android":"levelo://app?vid=30a2e2ae-c8dc-4c77-9898-e3e0a0b8ba9f","ios":"levelo://app?vid=30a2e2ae-c8dc-4c77-9898-e3e0a0b8ba9f"},"vehicle_type_id":"4","last_reported":1777059792,"current_range_meters":2800,"station_id":"ce4bgvp2rcd13ifvqct0","pricing_plan_id":"cebpf4jnsgd1na2vs0mg"},{"bike_id":"9d993c45-1aee-481c-b576-0ee69822ada1","system_id":"levelo_inurba_marseille","lat":43.25449,"lon":5.37665,"is_reserved":false,"is_disabled":false,"rental_uris":{"android":"levelo://app?vid=9d993c45-1aee-481c-b576-0ee69822ada1","ios":"levelo://app?vid=9d993c45-1aee-481c-b576-0ee69822ada1"},"vehicle_type_id":"4","last_reported":1777059792,"current_range_meters":2800,"station_id":"","pricing_plan_id":"cebpf4jnsgd1na2vs0mg"},{"bike_id":"05bb86e4-9ef9-45b6-9708-967b37315c91","system_id":"levelo_inurba_marseille","lat":43.24394,"lon":5.37048,"is_reserved":false,"is_disabled":false,"rental_uris":{"android":"levelo://app?vid=05bb86e4-9ef9-45b6-9708-967b37315c91","ios":"levelo://app?vid=05bb86e4-9ef9-45b6-9708-967b37315c91"},"vehicle_type_id":"4","last_reported":1777059792,"current_range_meters":2800,"station_id":"ce4bhhh2rcd13ifvqfk0","pricing_plan_id":"cebpf4jnsgd1na2vs0mg"},{"bike_id":"2270c834-d8c9-4d4c-946a-7742ecbf16a4","system_id":"levelo_inurba_marseille","lat":43.30759,"lon":5.4247,"is_reserved":false,"is_disabled":false,"rental_uris":{"android":"levelo://app?vid=2270c834-d8c9-4d4c-946a-7742ecbf16a4","ios":"levelo://app?vid=2270c834-d8c9-4d4c-946a-7742ecbf16a4"},"vehicle_type_id":"4","last_reported":1777059792,"current_range_meters":3200,"station_id":"st_cvj6ca6bvosntc0bfgr0","pricing_plan_id":"cebpf4jnsgd1na2vs0mg"},{"bike_id":"ea4f8e7e-1810-4cbe-af6e-b93b97482b8d","system_id":"levelo_inurba_marseille","lat":43.28028,"lon":5.36942,"is_reserved":false,"is_disabled":false,"rental_uris":{"android":"levelo://app?vid=ea4f8e7e-1810-4cbe-af6e-b93b97482b8d","ios":"levelo://app?vid=ea4f8e7e-1810-4cbe-af6e-b93b97482b8d"},"vehicle_type_id":"4","last_reported":1777059792,"current_range_meters":3200,"station_id":"ce4bha12rcd13ifvqef0","pricing_plan_id":"cebpf4jnsgd1na2vs0mg"},{"bike_id":"8f975cf4-69f4-4fd4-8c34-d7df8df21514","system_id":"levelo_inurba_marseille","lat":43.33756,"lon":5.37464,"is_reserved":false,"is_disabled":false,"rental_uris":{"android":"levelo://app?vid=8f975cf4-69f4-4fd4-8c34-d7df8df21514","ios":"levelo://app?vid=8f975cf4-69f4-4fd4-8c34-d7df8df21514"},"vehicle_type_id":"4","last_reported":1777059792,"current_range_meters":3200,"station_id":"st_d46cu089ee8s73dldbu0","pricing_plan_id":"cebpf4jnsgd1na2vs0mg"},{"bike_id":"834b42dd-c834-4d07-8472-508d0f1414b8","system_id":"levelo_inurba_marseille","lat":43.28844,"lon":5.39265,"is_reserved":false,"is_disabled":false,"rental_uris":{"android":"levelo://app?vid=834b42dd-c834-4d07-8472-508d0f1414b8","ios":"levelo://app?vid=834b42dd-c834-4d07-8472-508d0f1414b8"},"vehicle_type_id":"4","last_reported":1777059792,"current_range_meters":3200,"station_id":"ce4bh2p2rcd13ifvqdi0","pricing_plan_id":"cebpf4jnsgd1na2vs0mg"},{"bike_id":"fab422c3-3e71-460a-9231-398cabf4cd0f","system_id":"levelo_inurba_marseille","lat":43.2319,"lon":5.35567,"is_reserved":false,"is_disabled":true,"rental_uris":{"android":"levelo://app?vid=fab422c3-3e71-460a-9231-398cabf4cd0f","ios":"levelo://app?vid=fab422c3-3e71-460a-9231-398cabf4cd0f"},"vehicle_type_id":"4","last_reported":1777059792,"current_range_meters":3200,"station_id":"ce4bhu92rcd13ifvqi70","pricing_plan_id":"cebpf4jnsgd1na2vs0mg"},{"bike_id":"5b6b783e-0d52-4bbd-b5a7-c33df0c76194","system_id":"levelo_inurba_marseille","lat":43.28233,"lon":5.37058,"is_reserved":false,"is_disabled":false,"rental_uris":{"android":"levelo://app?vid=5b6b783e-0d52-4bbd-b5a7-c33df0c76194","ios":"levelo://app?vid=5b6b783e-0d52-4bbd-b5a7-c33df0c76194"},"vehicle_type_id":"4","last_reported":1777059792,"current_range_meters":3200,"station_id":"","pricing_plan_id":"cebpf4jnsgd1na2vs0mg"},{"bike_id":"a767dc6e-2f51-4d71-9e29-f318a1beff69","system_id":"levelo_inurba_marseille","lat":43.30019,"lon":5.36669,"is_reserved":false,"is_disabled":false,"rental_uris":{"android":"levelo://app?vid=a767dc6e-2f51-4d71-9e29-f318a1beff69","ios":"levelo://app?vid=a767dc6e-2f51-4d71-9e29-f318a1beff69"},"vehicle_type_id":"4","last_reported":1777059792,"current_range_meters":3200,"station_id":"","pricing_plan_id":"cebpf4jnsgd1na2vs0mg"},{"bike_id":"a26ba7ec-52ec-442f-aead-29b85d969da4","system_id":"levelo_inurba_marseille","lat":43.305969,"lon":5.393634,"is_reserved":false,"is_disabled":false,"rental_uris":{"android":"levelo://app?vid=a26ba7ec-52ec-442f-aead-29b85d969da4","ios":"levelo://app?vid=a26ba7ec-52ec-442f-aead-29b85d969da4"},"vehicle_type_id":"4","last_reported":1777059792,"current_range_meters":3200,"station_id":"ce4bh0p2rcd13ifvqd80","pricing_plan_id":"cebpf4jnsgd1na2vs0mg"},{"bike_id":"77bae04d-b155-4a06-9049-fda6a4b9e974","system_id":"levelo_inurba_marseille","lat":43.29147,"lon":5.42616,"is_reserved":false,"is_disabled":false,"rental_uris":{"android":"levelo://app?vid=77bae04d-b155-4a06-9049-fda6a4b9e974","ios":"levelo://app?vid=77bae04d-b155-4a06-9049-fda6a4b9e974"},"vehicle_type_id":"4","last_reported":1777059792,"current_range_meters":3600,"station_id":"","pricing_plan_id":"cebpf4jnsgd1na2vs0mg"},{"bike_id":"1aaf0100-915b-4670-a711-1dd0c7417865","system_id":"levelo_inurba_marseille","lat":43.24064,"lon":5.37738,"is_reserved":false,"is_disabled":false,"rental_uris":{"android":"levelo://app?vid=1aaf0100-915b-4670-a711-1dd0c7417865","ios":"levelo://app?vid=1aaf0100-915b-4670-a711-1dd0c7417865"},"vehicle_type_id":"4","last_reported":1777059792,"current_range_meters":3600,"station_id":"ce4bhnp2rcd13ifvqgvg","pricing_plan_id":"cebpf4jnsgd1na2vs0mg"},{"bike_id":"87cdb95c-813f-44ea-8261-e58ae463baf5","system_id":"levelo_inurba_marseille","lat":43.2789,"lon":5.3799,"is_reserved":false,"is_disabled":false,"rental_uris":{"android":"levelo://app?vid=87cdb95c-813f-44ea-8261-e58ae463baf5","ios":"levelo://app?vid=87cdb95c-813f-44ea-8261-e58ae463baf5"},"vehicle_type_id":"4","last_reported":1777059792,"current_range_meters":3600,"station_id":"ce4bhf92rcd13ifvqf50","pricing_plan_id":"cebpf4jnsgd1na2vs0mg"},{"bike_id":"aaa3a0fb-b8fb-4025-9eb0-46e744d06c9c","system_id":"levelo_inurba_marseille","lat":43.28482,"lon":5.38567,"is_reserved":false,"is_disabled":false,"rental_uris":{"android":"levelo://app?vid=aaa3a0fb-b8fb-4025-9eb0-46e744d06c9c","ios":"levelo://app?vid=aaa3a0fb-b8fb-4025-9eb0-46e744d06c9c"},"vehicle_type_id":"4","last_reported":1777059792,"current_range_meters":3600,"station_id":"ce4bh8p2rcd13ifvqeb0","pricing_plan_id":"cebpf4jnsgd1na2vs0mg"},{"bike_id":"5ca01c26-b7c5-43b7-9543-1902a9483527","system_id":"levelo_inurba_marseille","lat":43.30588,"lon":5.3722,"is_reserved":false,"is_disabled":false,"rental_uris":{"android":"levelo://app?vid=5ca01c26-b7c5-43b7-9543-1902a9483527","ios":"levelo://app?vid=5ca01c26-b7c5-43b7-9543-1902a9483527"},"vehicle_type_id":"4","last_reported":1777059792,"current_range_meters":3600,"station_id":"ce4bgqh2rcd13ifvqc4g","pricing_plan_id":"cebpf4jnsgd1na2vs0mg"},{"bike_id":"0a557f2f-d9e8-4593-822e-b7f959fbb634","system_id":"levelo_inurba_marseille","lat":43.2799,"lon":5.40008,"is_reserved":false,"is_disabled":false,"rental_uris":{"android":"levelo://app?vid=0a557f2f-d9e8-4593-822e-b7f959fbb634","ios":"levelo://app?vid=0a557f2f-d9e8-4593-822e-b7f959fbb634"},"vehicle_type_id":"4","last_reported":1777059792,"current_range_meters":3600,"station_id":"ce4bho92rcd13ifvqh4g","pricing_plan_id":"cebpf4jnsgd1na2vs0mg"},{"bike_id":"b32de1d0-f32a-465c-ac10-5ec2894d7e3e","system_id":"levelo_inurba_marseille","lat":43.29181,"lon":5.35814,"is_reserved":false,"is_disabled":false,"rental_uris":{"android":"levelo://app?vid=b32de1d0-f32a-465c-ac10-5ec2894d7e3e","ios":"levelo://app?vid=b32de1d0-f32a-465c-ac10-5ec2894d7e3e"},"vehicle_type_id":"4","last_reported":1777059792,"current_range_meters":3600,"station_id":"ce4bhb12rcd13ifvqel0","pricing_plan_id":"cebpf4jnsgd1na2vs0mg"},{"bike_id":"be3395ac-ccc9-4697-8504-3a4d24ca70ac","system_id":"levelo_inurba_marseille","lat":43.29703,"lon":5.36612,"is_reserved":false,"is_disabled":false,"rental_uris":{"android":"levelo://app?vid=be3395ac-ccc9-4697-8504-3a4d24ca70ac","ios":"levelo://app?vid=be3395ac-ccc9-4697-8504-3a4d24ca70ac"},"vehicle_type_id":"4","last_reported":1777059792,"current_range_meters":3600,"station_id":"ce4bgn12rcd13ifvqbt0","pricing_plan_id":"cebpf4jnsgd1na2vs0mg"},{"bike_id":"d2409fef-1531-42bf-8d38-c8fbcf39e6c8","system_id":"levelo_inurba_marseille","lat":43.23057,"lon":5.3549,"is_reserved":false,"is_disabled":false,"rental_uris":{"android":"levelo://app?vid=d2409fef-1531-42bf-8d38-c8fbcf39e6c8","ios":"levelo://app?vid=d2409fef-1531-42bf-8d38-c8fbcf39e6c8"},"vehicle_type_id":"4","last_reported":1777059792,"current_range_meters":4000,"station_id":"cpo3342slgdg3j2ifvpg","pricing_plan_id":"cebpf4jnsgd1na2vs0mg"},{"bike_id":"20c3670a-57f9-4aca-b674-acf22d26b0f8","system_id":"levelo_inurba_marseille","lat":43.23961,"lon":5.36627,"is_reserved":false,"is_disabled":true,"rental_uris":{"android":"levelo://app?vid=20c3670a-57f9-4aca-b674-acf22d26b0f8","ios":"levelo://app?vid=20c3670a-57f9-4aca-b674-acf22d26b0f8"},"vehicle_type_id":"4","last_reported":1777059792,"current_range_meters":4000,"station_id":"ce4bhi12rcd13ifvqfp0","pricing_plan_id":"cebpf4jnsgd1na2vs0mg"},{"bike_id":"6180becc-b7c0-4d8a-a9da-46c1cf2430b3","system_id":"levelo_inurba_marseille","lat":43.29237,"lon":5.36072,"is_reserved":false,"is_disabled":false,"rental_uris":{"android":"levelo://app?vid=6180becc-b7c0-4d8a-a9da-46c1cf2430b3","ios":"levelo://app?vid=6180becc-b7c0-4d8a-a9da-46c1cf2430b3"},"vehicle_type_id":"4","last_reported":1777059792,"current_range_meters":4000,"station_id":"ce4bhbh2rcd13ifvqeqg","pricing_plan_id":"cebpf4jnsgd1na2vs0mg"},{"bike_id":"21f54f03-a722-40e7-abe8-6a0eb3086bb4","system_id":"levelo_inurba_marseille","lat":43.26794,"lon":5.39414,"is_reserved":false,"is_disabled":false,"rental_uris":{"android":"levelo://app?vid=21f54f03-a722-40e7-abe8-6a0eb3086bb4","ios":"levelo://app?vid=21f54f03-a722-40e7-abe8-6a0eb3086bb4"},"vehicle_type_id":"4","last_reported":1777059792,"current_range_meters":4000,"station_id":"ce4bhh12rcd13ifvqfg0","pricing_plan_id":"cebpf4jnsgd1na2vs0mg"},{"bike_id":"85f5270b-6e34-439a-a5f5-8347faba4ea2","system_id":"levelo_inurba_marseille","lat":43.31175,"lon":5.3872,"is_reserved":false,"is_disabled":false,"rental_uris":{"android":"levelo://app?vid=85f5270b-6e34-439a-a5f5-8347faba4ea2","ios":"levelo://app?vid=85f5270b-6e34-439a-a5f5-8347faba4ea2"},"vehicle_type_id":"4","last_reported":1777059792,"current_range_meters":4000,"station_id":"ce4bgv12rcd13ifvqcp0","pricing_plan_id":"cebpf4jnsgd1na2vs0mg"},{"bike_id":"8cface65-b4eb-461b-bfbf-47e7ffe88fe6","system_id":"levelo_inurba_marseille","lat":43.27455,"lon":5.43894,"is_reserved":false,"is_disabled":false,"rental_uris":{"android":"levelo://app?vid=8cface65-b4eb-461b-bfbf-47e7ffe88fe6","ios":"levelo://app?vid=8cface65-b4eb-461b-bfbf-47e7ffe88fe6"},"vehicle_type_id":"4","last_reported":1777059792,"current_range_meters":4000,"station_id":"","pricing_plan_id":"cebpf4jnsgd1na2vs0mg"},{"bike_id":"9902a08b-c22a-478d-86dd-b5c7aaff324b","system_id":"levelo_inurba_marseille","lat":43.25501,"lon":5.37651,"is_reserved":false,"is_disabled":false,"rental_uris":{"android":"levelo://app?vid=9902a08b-c22a-478d-86dd-b5c7aaff324b","ios":"levelo://app?vid=9902a08b-c22a-478d-86dd-b5c7aaff324b"},"vehicle_type_id":"4","last_reported":1777059792,"current_range_meters":4000,"station_id":"ce4bhh12rcd13ifvqff0","pricing_plan_id":"cebpf4jnsgd1na2vs0mg"},{"bike_id":"f4d9ef01-6b22-4474-afe1-c4f05b6d6ca5","system_id":"levelo_inurba_marseille","lat":43.27071,"lon":5.42288,"is_reserved":false,"is_disabled":false,"rental_uris":{"android":"levelo://app?vid=f4d9ef01-6b22-4474-afe1-c4f05b6d6ca5","ios":"levelo://app?vid=f4d9ef01-6b22-4474-afe1-c4f05b6d6ca5"},"vehicle_type_id":"4","last_reported":1777059792,"current_range_meters":4000,"station_id":"ce4bhk92rcd13ifvqgb0","pricing_plan_id":"cebpf4jnsgd1na2vs0mg"},{"bike_id":"96da6ec7-f386-4fa1-bc97-225371557e0e","system_id":"levelo_inurba_marseille","lat":43.30952,"lon":5.39021,"is_reserved":false,"is_disabled":false,"rental_uris":{"android":"levelo://app?vid=96da6ec7-f386-4fa1-bc97-225371557e0e","ios":"levelo://app?vid=96da6ec7-f386-4fa1-bc97-225371557e0e"},"vehicle_type_id":"4","last_reported":1777059792,"current_range_meters":4400,"station_id":"ce4bgup2rcd13ifvqco0","pricing_plan_id":"cebpf4jnsgd1na2vs0mg"},{"bike_id":"ecdd1e60-1fc1-490d-889b-d83c1e7933b8","system_id":"levelo_inurba_marseille","lat":43.23958,"lon":5.36638,"is_reserved":false,"is_disabled":false,"rental_uris":{"android":"levelo://app?vid=ecdd1e60-1fc1-490d-889b-d83c1e7933b8","ios":"levelo://app?vid=ecdd1e60-1fc1-490d-889b-d83c1e7933b8"},"vehicle_type_id":"4","last_reported":1777059792,"current_range_meters":4400,"station_id":"ce4bhi12rcd13ifvqfp0","pricing_plan_id":"cebpf4jnsgd1na2vs0mg"},{"bike_id":"50ad27c5-4cc2-4b29-aa01-94bdfa36d853","system_id":"levelo_inurba_marseille","lat":43.29251,"lon":5.40904,"is_reserved":false,"is_disabled":false,"rental_uris":{"android":"levelo://app?vid=50ad27c5-4cc2-4b29-aa01-94bdfa36d853","ios":"levelo://app?vid=50ad27c5-4cc2-4b29-aa01-94bdfa36d853"},"vehicle_type_id":"4","last_reported":1777059792,"current_range_meters":4400,"station_id":"ce4bh192rcd13ifvqdc0","pricing_plan_id":"cebpf4jnsgd1na2vs0mg"},{"bike_id":"ea3c1786-161a-49ba-9999-4db433e959c3","system_id":"levelo_inurba_marseille","lat":43.24445,"lon":5.40922,"is_reserved":false,"is_disabled":false,"rental_uris":{"android":"levelo://app?vid=ea3c1786-161a-49ba-9999-4db433e959c3","ios":"levelo://app?vid=ea3c1786-161a-49ba-9999-4db433e959c3"},"vehicle_type_id":"4","last_reported":1777059792,"current_range_meters":4400,"station_id":"","pricing_plan_id":"cebpf4jnsgd1na2vs0mg"},{"bike_id":"e82c5f15-7416-40c4-aff4-bfd73fce1db9","system_id":"levelo_inurba_marseille","lat":43.24395,"lon":5.3706,"is_reserved":false,"is_disabled":false,"rental_uris":{"android":"levelo://app?vid=e82c5f15-7416-40c4-aff4-bfd73fce1db9","ios":"levelo://app?vid=e82c5f15-7416-40c4-aff4-bfd73fce1db9"},"vehicle_type_id":"4","last_reported":1777059792,"current_range_meters":4400,"station_id":"ce4bhhh2rcd13ifvqfk0","pricing_plan_id":"cebpf4jnsgd1na2vs0mg"},{"bike_id":"f7d2c842-67cc-480e-93ef-1402adc37955","system_id":"levelo_inurba_marseille","lat":43.2894,"lon":5.36632,"is_reserved":false,"is_disabled":false,"rental_uris":{"android":"levelo://app?vid=f7d2c842-67cc-480e-93ef-1402adc37955","ios":"levelo://app?vid=f7d2c842-67cc-480e-93ef-1402adc37955"},"vehicle_type_id":"4","last_reported":1777059792,"current_range_meters":4400,"station_id":"ce4bhap2rcd13ifvqek0","pricing_plan_id":"cebpf4jnsgd1na2vs0mg"},{"bike_id":"0a029182-49f8-4d07-bab8-bee176ca1173","system_id":"levelo_inurba_marseille","lat":43.3095,"lon":5.40156,"is_reserved":false,"is_disabled":false,"rental_uris":{"android":"levelo://app?vid=0a029182-49f8-4d07-bab8-bee176ca1173","ios":"levelo://app?vid=0a029182-49f8-4d07-bab8-bee176ca1173"},"vehicle_type_id":"4","last_reported":1777059792,"current_range_meters":4400,"station_id":"ce4bgvp2rcd13ifvqct0","pricing_plan_id":"cebpf4jnsgd1na2vs0mg"},{"bike_id":"79dd9a77-c442-4f8d-8010-bcc63037b679","system_id":"levelo_inurba_marseille","lat":43.26683,"lon":5.38278,"is_reserved":false,"is_disabled":false,"rental_uris":{"android":"levelo://app?vid=79dd9a77-c442-4f8d-8010-bcc63037b679","ios":"levelo://app?vid=79dd9a77-c442-4f8d-8010-bcc63037b679"},"vehicle_type_id":"4","last_reported":1777059792,"current_range_meters":4400,"station_id":"ce4bhg92rcd13ifvqf90","pricing_plan_id":"cebpf4jnsgd1na2vs0mg"},{"bike_id":"43ce53e8-705e-47ea-858b-d4f31fae32e9","system_id":"levelo_inurba_marseille","lat":43.26206,"lon":5.37929,"is_reserved":false,"is_disabled":false,"rental_uris":{"android":"levelo://app?vid=43ce53e8-705e-47ea-858b-d4f31fae32e9","ios":"levelo://app?vid=43ce53e8-705e-47ea-858b-d4f31fae32e9"},"vehicle_type_id":"4","last_reported":1777059792,"current_range_meters":4400,"station_id":"ce4bhjp2rcd13ifvqg90","pricing_plan_id":"cebpf4jnsgd1na2vs0mg"},{"bike_id":"1d5e94c1-98e0-4ab7-9c74-d3e919090feb","system_id":"levelo_inurba_marseille","lat":43.3089,"lon":5.37195,"is_reserved":false,"is_disabled":false,"rental_uris":{"android":"levelo://app?vid=1d5e94c1-98e0-4ab7-9c74-d3e919090feb","ios":"levelo://app?vid=1d5e94c1-98e0-4ab7-9c74-d3e919090feb"},"vehicle_type_id":"4","last_reported":1777059792,"current_range_meters":4400,"station_id":"ce4bguh2rcd13ifvqckg","pricing_plan_id":"cebpf4jnsgd1na2vs0mg"},{"bike_id":"67cea062-d66f-4a7a-9c0a-41e54e217db1","system_id":"levelo_inurba_marseille","lat":43.29588,"lon":5.38987,"is_reserved":false,"is_disabled":false,"rental_uris":{"android":"levelo://app?vid=67cea062-d66f-4a7a-9c0a-41e54e217db1","ios":"levelo://app?vid=67cea062-d66f-4a7a-9c0a-41e54e217db1"},"vehicle_type_id":"4","last_reported":1777059792,"current_range_meters":4800,"station_id":"","pricing_plan_id":"cebpf4jnsgd1na2vs0mg"},{"bike_id":"53d0b464-9d84-4ebb-a788-233487c8451c","system_id":"levelo_inurba_marseille","lat":43.33261,"lon":5.37783,"is_reserved":false,"is_disabled":false,"rental_uris":{"android":"levelo://app?vid=53d0b464-9d84-4ebb-a788-233487c8451c","ios":"levelo://app?vid=53d0b464-9d84-4ebb-a788-233487c8451c"},"vehicle_type_id":"4","last_reported":1777059792,"current_range_meters":4800,"station_id":"","pricing_plan_id":"cebpf4jnsgd1na2vs0mg"},{"bike_id":"fd8d4b90-85c6-45fd-adb3-215c68fcfe63","system_id":"levelo_inurba_marseille","lat":43.29967,"lon":5.385,"is_reserved":false,"is_disabled":false,"rental_uris":{"android":"levelo://app?vid=fd8d4b90-85c6-45fd-adb3-215c68fcfe63","ios":"levelo://app?vid=fd8d4b90-85c6-45fd-adb3-215c68fcfe63"},"vehicle_type_id":"4","last_reported":1777059792,"current_range_meters":4800,"station_id":"ce4bgj92rcd13ifvqbd0","pricing_plan_id":"cebpf4jnsgd1na2vs0mg"},{"bike_id":"0955fbf9-5e9d-4c8e-ae77-9d9788b3a05d","system_id":"levelo_inurba_marseille","lat":43.29031,"lon":5.38648,"is_reserved":false,"is_disabled":false,"rental_uris":{"android":"levelo://app?vid=0955fbf9-5e9d-4c8e-ae77-9d9788b3a05d","ios":"levelo://app?vid=0955fbf9-5e9d-4c8e-ae77-9d9788b3a05d"},"vehicle_type_id":"4","last_reported":1777059792,"current_range_meters":4800,"station_id":"ce4bh4p2rcd13ifvqe0g","pricing_plan_id":"cebpf4jnsgd1na2vs0mg"},{"bike_id":"416a18e8-cfad-45f6-9579-0f51ebff9cdb","system_id":"levelo_inurba_marseille","lat":43.29526,"lon":5.38548,"is_reserved":false,"is_disabled":false,"rental_uris":{"android":"levelo://app?vid=416a18e8-cfad-45f6-9579-0f51ebff9cdb","ios":"levelo://app?vid=416a18e8-cfad-45f6-9579-0f51ebff9cdb"},"vehicle_type_id":"4","last_reported":1777059792,"current_range_meters":4800,"station_id":"","pricing_plan_id":"cebpf4jnsgd1na2vs0mg"},{"bike_id":"3a246150-2733-42f7-9c95-1936464ee9f0","system_id":"levelo_inurba_marseille","lat":43.30413,"lon":5.41288,"is_reserved":false,"is_disabled":false,"rental_uris":{"android":"levelo://app?vid=3a246150-2733-42f7-9c95-1936464ee9f0","ios":"levelo://app?vid=3a246150-2733-42f7-9c95-1936464ee9f0"},"vehicle_type_id":"4","last_reported":1777059792,"current_range_meters":5600,"station_id":"ce4bhop2rcd13ifvqh8g","pricing_plan_id":"cebpf4jnsgd1na2vs0mg"},{"bike_id":"aa41c1ca-06bf-4f99-a4f0-2ffbf6776f59","system_id":"levelo_inurba_marseille","lat":43.287,"lon":5.374,"is_reserved":false,"is_disabled":false,"rental_uris":{"android":"levelo://app?vid=aa41c1ca-06bf-4f99-a4f0-2ffbf6776f59","ios":"levelo://app?vid=aa41c1ca-06bf-4f99-a4f0-2ffbf6776f59"},"vehicle_type_id":"4","last_reported":1777059792,"current_range_meters":5600,"station_id":"ce4bh3p2rcd13ifvqdq0","pricing_plan_id":"cebpf4jnsgd1na2vs0mg"},{"bike_id":"146def8f-c25a-4a36-bb78-c0e04f65294e","system_id":"levelo_inurba_marseille","lat":43.28878,"lon":5.43038,"is_reserved":false,"is_disabled":false,"rental_uris":{"android":"levelo://app?vid=146def8f-c25a-4a36-bb78-c0e04f65294e","ios":"levelo://app?vid=146def8f-c25a-4a36-bb78-c0e04f65294e"},"vehicle_type_id":"4","last_reported":1777059792,"current_range_meters":5600,"station_id":"","pricing_plan_id":"cebpf4jnsgd1na2vs0mg"},{"bike_id":"0c22485a-a711-4725-8592-dab240ed7b73","system_id":"levelo_inurba_marseille","lat":43.23962,"lon":5.36639,"is_reserved":false,"is_disabled":false,"rental_uris":{"android":"levelo://app?vid=0c22485a-a711-4725-8592-dab240ed7b73","ios":"levelo://app?vid=0c22485a-a711-4725-8592-dab240ed7b73"},"vehicle_type_id":"4","last_reported":1777059792,"current_range_meters":5600,"station_id":"ce4bhi12rcd13ifvqfp0","pricing_plan_id":"cebpf4jnsgd1na2vs0mg"},{"bike_id":"f9d776ed-d176-4406-acc7-15a6d98838d7","system_id":"levelo_inurba_marseille","lat":43.28406,"lon":5.37533,"is_reserved":false,"is_disabled":false,"rental_uris":{"android":"levelo://app?vid=f9d776ed-d176-4406-acc7-15a6d98838d7","ios":"levelo://app?vid=f9d776ed-d176-4406-acc7-15a6d98838d7"},"vehicle_type_id":"4","last_reported":1777059792,"current_range_meters":5600,"station_id":"ce4bh412rcd13ifvqds0","pricing_plan_id":"cebpf4jnsgd1na2vs0mg"},{"bike_id":"f635884f-b385-419a-a193-8933ec3342b5","system_id":"levelo_inurba_marseille","lat":43.29968,"lon":5.38498,"is_reserved":false,"is_disabled":false,"rental_uris":{"android":"levelo://app?vid=f635884f-b385-419a-a193-8933ec3342b5","ios":"levelo://app?vid=f635884f-b385-419a-a193-8933ec3342b5"},"vehicle_type_id":"4","last_reported":1777059792,"current_range_meters":5600,"station_id":"ce4bgj92rcd13ifvqbd0","pricing_plan_id":"cebpf4jnsgd1na2vs0mg"},{"bike_id":"001ed0b6-f80d-40bc-93ea-a2f882ed6577","system_id":"levelo_inurba_marseille","lat":43.31115,"lon":5.37758,"is_reserved":false,"is_disabled":true,"rental_uris":{"android":"levelo://app?vid=001ed0b6-f80d-40bc-93ea-a2f882ed6577","ios":"levelo://app?vid=001ed0b6-f80d-40bc-93ea-a2f882ed6577"},"vehicle_type_id":"4","last_reported":1777059792,"current_range_meters":5600,"station_id":"ce4bgt92rcd13ifvqcg0","pricing_plan_id":"cebpf4jnsgd1na2vs0mg"},{"bike_id":"5f175e08-dda7-4473-bc41-9aeade0a9eac","system_id":"levelo_inurba_marseille","lat":43.29498,"lon":5.39054,"is_reserved":false,"is_disabled":false,"rental_uris":{"android":"levelo://app?vid=5f175e08-dda7-4473-bc41-9aeade0a9eac","ios":"levelo://app?vid=5f175e08-dda7-4473-bc41-9aeade0a9eac"},"vehicle_type_id":"4","last_reported":1777059792,"current_range_meters":5600,"station_id":"ce4bh3p2rcd13ifvqdp0","pricing_plan_id":"cebpf4jnsgd1na2vs0mg"},{"bike_id":"89cb976b-df3a-46fc-a9ef-0025de561630","system_id":"levelo_inurba_marseille","lat":43.2944,"lon":5.43412,"is_reserved":false,"is_disabled":false,"rental_uris":{"android":"levelo://app?vid=89cb976b-df3a-46fc-a9ef-0025de561630","ios":"levelo://app?vid=89cb976b-df3a-46fc-a9ef-0025de561630"},"vehicle_type_id":"4","last_reported":1777059792,"current_range_meters":5600,"station_id":"","pricing_plan_id":"cebpf4jnsgd1na2vs0mg"},{"bike_id":"508b5c81-26cf-4830-9052-ae9b52dfb4ee","system_id":"levelo_inurba_marseille","lat":43.29027,"lon":5.3866,"is_reserved":false,"is_disabled":false,"rental_uris":{"android":"levelo://app?vid=508b5c81-26cf-4830-9052-ae9b52dfb4ee","ios":"levelo://app?vid=508b5c81-26cf-4830-9052-ae9b52dfb4ee"},"vehicle_type_id":"4","last_reported":1777059792,"current_range_meters":5600,"station_id":"ce4bh4p2rcd13ifvqe0g","pricing_plan_id":"cebpf4jnsgd1na2vs0mg"},{"bike_id":"250b15a8-ae72-4a04-beeb-15324439784f","system_id":"levelo_inurba_marseille","lat":43.31487,"lon":5.37313,"is_reserved":false,"is_disabled":false,"rental_uris":{"android":"levelo://app?vid=250b15a8-ae72-4a04-beeb-15324439784f","ios":"levelo://app?vid=250b15a8-ae72-4a04-beeb-15324439784f"},"vehicle_type_id":"4","last_reported":1777059792,"current_range_meters":5600,"station_id":"ce4bgt12rcd13ifvqcd0","pricing_plan_id":"cebpf4jnsgd1na2vs0mg"},{"bike_id":"514ee31d-5c05-4c37-a397-4f07ce639b2d","system_id":"levelo_inurba_marseille","lat":43.28442,"lon":5.39185,"is_reserved":false,"is_disabled":false,"rental_uris":{"android":"levelo://app?vid=514ee31d-5c05-4c37-a397-4f07ce639b2d","ios":"levelo://app?vid=514ee31d-5c05-4c37-a397-4f07ce639b2d"},"vehicle_type_id":"4","last_reported":1777059792,"current_range_meters":5600,"station_id":"ce4bhoh2rcd13ifvqh5g","pricing_plan_id":"cebpf4jnsgd1na2vs0mg"},{"bike_id":"772d936e-51c7-4d62-a6be-f4adb8e331a7","system_id":"levelo_inurba_marseille","lat":43.249442,"lon":5.404913,"is_reserved":false,"is_disabled":false,"rental_uris":{"android":"levelo://app?vid=772d936e-51c7-4d62-a6be-f4adb8e331a7","ios":"levelo://app?vid=772d936e-51c7-4d62-a6be-f4adb8e331a7"},"vehicle_type_id":"4","last_reported":1777059792,"current_range_meters":5600,"station_id":"ce4bhlh2rcd13ifvqgig","pricing_plan_id":"cebpf4jnsgd1na2vs0mg"},{"bike_id":"9ebef588-8ea8-403a-b405-3bd9f97ec101","system_id":"levelo_inurba_marseille","lat":43.29617,"lon":5.3773,"is_reserved":false,"is_disabled":false,"rental_uris":{"android":"levelo://app?vid=9ebef588-8ea8-403a-b405-3bd9f97ec101","ios":"levelo://app?vid=9ebef588-8ea8-403a-b405-3bd9f97ec101"},"vehicle_type_id":"4","last_reported":1777059792,"current_range_meters":6000,"station_id":"ce4bgi92rcd13ifvqb90","pricing_plan_id":"cebpf4jnsgd1na2vs0mg"},{"bike_id":"bf941743-da61-4fe3-9e32-46f004a7578b","system_id":"levelo_inurba_marseille","lat":43.28614,"lon":5.3708,"is_reserved":false,"is_disabled":false,"rental_uris":{"android":"levelo://app?vid=bf941743-da61-4fe3-9e32-46f004a7578b","ios":"levelo://app?vid=bf941743-da61-4fe3-9e32-46f004a7578b"},"vehicle_type_id":"4","last_reported":1777059792,"current_range_meters":6000,"station_id":"ce4bht12rcd13ifvqi60","pricing_plan_id":"cebpf4jnsgd1na2vs0mg"},{"bike_id":"b704bf25-df87-4964-badb-98cb3f66348c","system_id":"levelo_inurba_marseille","lat":43.2767,"lon":5.38926,"is_reserved":false,"is_disabled":false,"rental_uris":{"android":"levelo://app?vid=b704bf25-df87-4964-badb-98cb3f66348c","ios":"levelo://app?vid=b704bf25-df87-4964-badb-98cb3f66348c"},"vehicle_type_id":"4","last_reported":1777059792,"current_range_meters":6000,"station_id":"ce4bhi12rcd13ifvqfo0","pricing_plan_id":"cebpf4jnsgd1na2vs0mg"},{"bike_id":"0802d81a-fc51-4a40-b8bd-5dbd8906e7aa","system_id":"levelo_inurba_marseille","lat":43.30953,"lon":5.39051,"is_reserved":false,"is_disabled":false,"rental_uris":{"android":"levelo://app?vid=0802d81a-fc51-4a40-b8bd-5dbd8906e7aa","ios":"levelo://app?vid=0802d81a-fc51-4a40-b8bd-5dbd8906e7aa"},"vehicle_type_id":"4","last_reported":1777059792,"current_range_meters":6000,"station_id":"ce4bgup2rcd13ifvqco0","pricing_plan_id":"cebpf4jnsgd1na2vs0mg"},{"bike_id":"eb54d19c-192d-4b9f-8d7f-dd3accd1602e","system_id":"levelo_inurba_marseille","lat":43.24816,"lon":5.37455,"is_reserved":false,"is_disabled":false,"rental_uris":{"android":"levelo://app?vid=eb54d19c-192d-4b9f-8d7f-dd3accd1602e","ios":"levelo://app?vid=eb54d19c-192d-4b9f-8d7f-dd3accd1602e"},"vehicle_type_id":"4","last_reported":1777059792,"current_range_meters":6000,"station_id":"ce4bhgh2rcd13ifvqfb0","pricing_plan_id":"cebpf4jnsgd1na2vs0mg"},{"bike_id":"c025fe4d-f167-4f80-bde7-0dfb9be7b37b","system_id":"levelo_inurba_marseille","lat":43.28482,"lon":5.48397,"is_reserved":false,"is_disabled":false,"rental_uris":{"android":"levelo://app?vid=c025fe4d-f167-4f80-bde7-0dfb9be7b37b","ios":"levelo://app?vid=c025fe4d-f167-4f80-bde7-0dfb9be7b37b"},"vehicle_type_id":"4","last_reported":1777059792,"current_range_meters":6000,"station_id":"","pricing_plan_id":"cebpf4jnsgd1na2vs0mg"},{"bike_id":"b723bff1-1eac-46ab-8fbc-73caf5bddf1a","system_id":"levelo_inurba_marseille","lat":43.29903,"lon":5.37458,"is_reserved":false,"is_disabled":false,"rental_uris":{"android":"levelo://app?vid=b723bff1-1eac-46ab-8fbc-73caf5bddf1a","ios":"levelo://app?vid=b723bff1-1eac-46ab-8fbc-73caf5bddf1a"},"vehicle_type_id":"4","last_reported":1777059792,"current_range_meters":6000,"station_id":"ce4bgjh2rcd13ifvqbg0","pricing_plan_id":"cebpf4jnsgd1na2vs0mg"},{"bike_id":"6a979988-2dd0-41f2-9c5f-0c6cc10fba5f","system_id":"levelo_inurba_marseille","lat":43.24156,"lon":5.36411,"is_reserved":false,"is_disabled":false,"rental_uris":{"android":"levelo://app?vid=6a979988-2dd0-41f2-9c5f-0c6cc10fba5f","ios":"levelo://app?vid=6a979988-2dd0-41f2-9c5f-0c6cc10fba5f"},"vehicle_type_id":"4","last_reported":1777059792,"current_range_meters":6000,"station_id":"cpo36qri1sfpv3e86is0","pricing_plan_id":"cebpf4jnsgd1na2vs0mg"},{"bike_id":"e2038d5d-c5b3-4712-9818-971c481e380c","system_id":"levelo_inurba_marseille","lat":43.28418,"lon":5.37513,"is_reserved":false,"is_disabled":false,"rental_uris":{"android":"levelo://app?vid=e2038d5d-c5b3-4712-9818-971c481e380c","ios":"levelo://app?vid=e2038d5d-c5b3-4712-9818-971c481e380c"},"vehicle_type_id":"4","last_reported":1777059792,"current_range_meters":6000,"station_id":"","pricing_plan_id":"cebpf4jnsgd1na2vs0mg"},{"bike_id":"4e792e19-7973-4766-b248-14fc3cd2dc95","system_id":"levelo_inurba_marseille","lat":43.24385,"lon":5.37081,"is_reserved":false,"is_disabled":false,"rental_uris":{"android":"levelo://app?vid=4e792e19-7973-4766-b248-14fc3cd2dc95","ios":"levelo://app?vid=4e792e19-7973-4766-b248-14fc3cd2dc95"},"vehicle_type_id":"4","last_reported":1777059792,"current_range_meters":6000,"station_id":"ce4bhhh2rcd13ifvqfk0","pricing_plan_id":"cebpf4jnsgd1na2vs0mg"},{"bike_id":"bf78c83b-2ae6-447f-a3f5-401dbd1438d5","system_id":"levelo_inurba_marseille","lat":43.29573,"lon":5.39993,"is_reserved":false,"is_disabled":false,"rental_uris":{"android":"levelo://app?vid=bf78c83b-2ae6-447f-a3f5-401dbd1438d5","ios":"levelo://app?vid=bf78c83b-2ae6-447f-a3f5-401dbd1438d5"},"vehicle_type_id":"4","last_reported":1777059792,"current_range_meters":6000,"station_id":"ce4bh312rcd13ifvqdj0","pricing_plan_id":"cebpf4jnsgd1na2vs0mg"},{"bike_id":"1f3906dd-948e-4d18-9bb2-b2fc350fa481","system_id":"levelo_inurba_marseille","lat":43.27417,"lon":5.39388,"is_reserved":false,"is_disabled":true,"rental_uris":{"android":"levelo://app?vid=1f3906dd-948e-4d18-9bb2-b2fc350fa481","ios":"levelo://app?vid=1f3906dd-948e-4d18-9bb2-b2fc350fa481"},"vehicle_type_id":"4","last_reported":1777059792,"current_range_meters":6000,"station_id":"ce4bhdp2rcd13ifvqf20","pricing_plan_id":"cebpf4jnsgd1na2vs0mg"},{"bike_id":"e00985dd-0b9c-4883-8a91-d09e406e1f1d","system_id":"levelo_inurba_marseille","lat":43.2885,"lon":5.39312,"is_reserved":false,"is_disabled":false,"rental_uris":{"android":"levelo://app?vid=e00985dd-0b9c-4883-8a91-d09e406e1f1d","ios":"levelo://app?vid=e00985dd-0b9c-4883-8a91-d09e406e1f1d"},"vehicle_type_id":"4","last_reported":1777059792,"current_range_meters":6000,"station_id":"ce4bh2p2rcd13ifvqdi0","pricing_plan_id":"cebpf4jnsgd1na2vs0mg"},{"bike_id":"2f5837b5-417d-4465-9514-c2e400d5dd41","system_id":"levelo_inurba_marseille","lat":43.2535,"lon":5.42181,"is_reserved":false,"is_disabled":false,"rental_uris":{"android":"levelo://app?vid=2f5837b5-417d-4465-9514-c2e400d5dd41","ios":"levelo://app?vid=2f5837b5-417d-4465-9514-c2e400d5dd41"},"vehicle_type_id":"4","last_reported":1777059792,"current_range_meters":6000,"station_id":"st_d2m65c5bi1j21697t3ng","pricing_plan_id":"cebpf4jnsgd1na2vs0mg"},{"bike_id":"eb0bc669-27ac-4a41-b200-c9414b34635e","system_id":"levelo_inurba_marseille","lat":43.29266,"lon":5.40904,"is_reserved":false,"is_disabled":true,"rental_uris":{"android":"levelo://app?vid=eb0bc669-27ac-4a41-b200-c9414b34635e","ios":"levelo://app?vid=eb0bc669-27ac-4a41-b200-c9414b34635e"},"vehicle_type_id":"4","last_reported":1777059792,"current_range_meters":6400,"station_id":"ce4bh192rcd13ifvqdc0","pricing_plan_id":"cebpf4jnsgd1na2vs0mg"},{"bike_id":"aa897415-67a0-4b07-b64e-cbc8da7d4792","system_id":"levelo_inurba_marseille","lat":43.24179,"lon":5.36392,"is_reserved":false,"is_disabled":false,"rental_uris":{"android":"levelo://app?vid=aa897415-67a0-4b07-b64e-cbc8da7d4792","ios":"levelo://app?vid=aa897415-67a0-4b07-b64e-cbc8da7d4792"},"vehicle_type_id":"4","last_reported":1777059792,"current_range_meters":6400,"station_id":"cpo36qri1sfpv3e86is0","pricing_plan_id":"cebpf4jnsgd1na2vs0mg"},{"bike_id":"03d50329-e768-413f-8f2a-24897a3a945b","system_id":"levelo_inurba_marseille","lat":43.24801,"lon":5.37449,"is_reserved":false,"is_disabled":false,"rental_uris":{"android":"levelo://app?vid=03d50329-e768-413f-8f2a-24897a3a945b","ios":"levelo://app?vid=03d50329-e768-413f-8f2a-24897a3a945b"},"vehicle_type_id":"4","last_reported":1777059792,"current_range_meters":6400,"station_id":"ce4bhgh2rcd13ifvqfb0","pricing_plan_id":"cebpf4jnsgd1na2vs0mg"},{"bike_id":"be0930f3-9e0a-47a5-bdbd-77b334870bac","system_id":"levelo_inurba_marseille","lat":43.28947,"lon":5.36638,"is_reserved":false,"is_disabled":false,"rental_uris":{"android":"levelo://app?vid=be0930f3-9e0a-47a5-bdbd-77b334870bac","ios":"levelo://app?vid=be0930f3-9e0a-47a5-bdbd-77b334870bac"},"vehicle_type_id":"4","last_reported":1777059792,"current_range_meters":6400,"station_id":"ce4bhap2rcd13ifvqek0","pricing_plan_id":"cebpf4jnsgd1na2vs0mg"},{"bike_id":"50b3537d-0369-460e-8281-426df86e0856","system_id":"levelo_inurba_marseille","lat":43.30071,"lon":5.36431,"is_reserved":false,"is_disabled":false,"rental_uris":{"android":"levelo://app?vid=50b3537d-0369-460e-8281-426df86e0856","ios":"levelo://app?vid=50b3537d-0369-460e-8281-426df86e0856"},"vehicle_type_id":"4","last_reported":1777059792,"current_range_meters":6400,"station_id":"","pricing_plan_id":"cebpf4jnsgd1na2vs0mg"},{"bike_id":"3718d017-507d-448e-bcdc-da80c1989ac4","system_id":"levelo_inurba_marseille","lat":43.28418,"lon":5.43463,"is_reserved":false,"is_disabled":false,"rental_uris":{"android":"levelo://app?vid=3718d017-507d-448e-bcdc-da80c1989ac4","ios":"levelo://app?vid=3718d017-507d-448e-bcdc-da80c1989ac4"},"vehicle_type_id":"4","last_reported":1777059792,"current_range_meters":6400,"station_id":"","pricing_plan_id":"cebpf4jnsgd1na2vs0mg"},{"bike_id":"fdf3dd89-6cd6-4e05-83bc-82e85d94588f","system_id":"levelo_inurba_marseille","lat":43.29806,"lon":5.38081,"is_reserved":false,"is_disabled":false,"rental_uris":{"android":"levelo://app?vid=fdf3dd89-6cd6-4e05-83bc-82e85d94588f","ios":"levelo://app?vid=fdf3dd89-6cd6-4e05-83bc-82e85d94588f"},"vehicle_type_id":"4","last_reported":1777059792,"current_range_meters":6400,"station_id":"ce4bgip2rcd13ifvqbb0","pricing_plan_id":"cebpf4jnsgd1na2vs0mg"},{"bike_id":"d4578027-cf0c-4653-85fc-03385bd8ac3c","system_id":"levelo_inurba_marseille","lat":43.29064,"lon":5.35908,"is_reserved":false,"is_disabled":false,"rental_uris":{"android":"levelo://app?vid=d4578027-cf0c-4653-85fc-03385bd8ac3c","ios":"levelo://app?vid=d4578027-cf0c-4653-85fc-03385bd8ac3c"},"vehicle_type_id":"4","last_reported":1777059792,"current_range_meters":6400,"station_id":"ce4bha92rcd13ifvqeg0","pricing_plan_id":"cebpf4jnsgd1na2vs0mg"},{"bike_id":"f6157f8d-14ba-421d-a987-e5a784d023b3","system_id":"levelo_inurba_marseille","lat":43.28688,"lon":5.38627,"is_reserved":false,"is_disabled":false,"rental_uris":{"android":"levelo://app?vid=f6157f8d-14ba-421d-a987-e5a784d023b3","ios":"levelo://app?vid=f6157f8d-14ba-421d-a987-e5a784d023b3"},"vehicle_type_id":"4","last_reported":1777059792,"current_range_meters":6400,"station_id":"ce4bh492rcd13ifvqdug","pricing_plan_id":"cebpf4jnsgd1na2vs0mg"},{"bike_id":"4453c01c-b844-4c68-8e60-1655e94625b7","system_id":"levelo_inurba_marseille","lat":43.27462,"lon":5.43898,"is_reserved":false,"is_disabled":false,"rental_uris":{"android":"levelo://app?vid=4453c01c-b844-4c68-8e60-1655e94625b7","ios":"levelo://app?vid=4453c01c-b844-4c68-8e60-1655e94625b7"},"vehicle_type_id":"4","last_reported":1777059792,"current_range_meters":6400,"station_id":"","pricing_plan_id":"cebpf4jnsgd1na2vs0mg"},{"bike_id":"1ca2062a-70d3-41b2-96c1-f93d0f6a777b","system_id":"levelo_inurba_marseille","lat":43.24545,"lon":5.39521,"is_reserved":false,"is_disabled":false,"rental_uris":{"android":"levelo://app?vid=1ca2062a-70d3-41b2-96c1-f93d0f6a777b","ios":"levelo://app?vid=1ca2062a-70d3-41b2-96c1-f93d0f6a777b"},"vehicle_type_id":"4","last_reported":1777059792,"current_range_meters":6400,"station_id":"ce4bhlp2rcd13ifvqgjg","pricing_plan_id":"cebpf4jnsgd1na2vs0mg"},{"bike_id":"917bdf8f-7c9f-416b-b1d0-b3f8c80147ac","system_id":"levelo_inurba_marseille","lat":43.28665,"lon":5.38664,"is_reserved":false,"is_disabled":false,"rental_uris":{"android":"levelo://app?vid=917bdf8f-7c9f-416b-b1d0-b3f8c80147ac","ios":"levelo://app?vid=917bdf8f-7c9f-416b-b1d0-b3f8c80147ac"},"vehicle_type_id":"4","last_reported":1777059792,"current_range_meters":6400,"station_id":"ce4bh492rcd13ifvqdug","pricing_plan_id":"cebpf4jnsgd1na2vs0mg"},{"bike_id":"c153b3f7-0c39-4669-87ba-aeaabe7d058a","system_id":"levelo_inurba_marseille","lat":43.25499,"lon":5.37651,"is_reserved":false,"is_disabled":false,"rental_uris":{"android":"levelo://app?vid=c153b3f7-0c39-4669-87ba-aeaabe7d058a","ios":"levelo://app?vid=c153b3f7-0c39-4669-87ba-aeaabe7d058a"},"vehicle_type_id":"4","last_reported":1777059792,"current_range_meters":6400,"station_id":"ce4bhh12rcd13ifvqff0","pricing_plan_id":"cebpf4jnsgd1na2vs0mg"},{"bike_id":"2cfc41f8-4c9e-4983-b2b2-db59471dc99d","system_id":"levelo_inurba_marseille","lat":43.28411,"lon":5.34997,"is_reserved":false,"is_disabled":false,"rental_uris":{"android":"levelo://app?vid=2cfc41f8-4c9e-4983-b2b2-db59471dc99d","ios":"levelo://app?vid=2cfc41f8-4c9e-4983-b2b2-db59471dc99d"},"vehicle_type_id":"4","last_reported":1777059792,"current_range_meters":6400,"station_id":"ce4bhbh2rcd13ifvqepg","pricing_plan_id":"cebpf4jnsgd1na2vs0mg"},{"bike_id":"622584cb-705a-49c3-bd1e-17a23a08fe4b","system_id":"levelo_inurba_marseille","lat":43.30421,"lon":5.38903,"is_reserved":false,"is_disabled":false,"rental_uris":{"android":"levelo://app?vid=622584cb-705a-49c3-bd1e-17a23a08fe4b","ios":"levelo://app?vid=622584cb-705a-49c3-bd1e-17a23a08fe4b"},"vehicle_type_id":"4","last_reported":1777059792,"current_range_meters":6400,"station_id":"ce4bgk12rcd13ifvqbi0","pricing_plan_id":"cebpf4jnsgd1na2vs0mg"},{"bike_id":"fbad382b-d0e0-4b4d-b7e9-7eaeef0c00e6","system_id":"levelo_inurba_marseille","lat":43.25649,"lon":5.39002,"is_reserved":false,"is_disabled":false,"rental_uris":{"android":"levelo://app?vid=fbad382b-d0e0-4b4d-b7e9-7eaeef0c00e6","ios":"levelo://app?vid=fbad382b-d0e0-4b4d-b7e9-7eaeef0c00e6"},"vehicle_type_id":"4","last_reported":1777059792,"current_range_meters":6800,"station_id":"","pricing_plan_id":"cebpf4jnsgd1na2vs0mg"},{"bike_id":"c4a6cf3f-a5b9-43d7-91d0-4da564433a66","system_id":"levelo_inurba_marseille","lat":43.30146,"lon":5.37422,"is_reserved":false,"is_disabled":false,"rental_uris":{"android":"levelo://app?vid=c4a6cf3f-a5b9-43d7-91d0-4da564433a66","ios":"levelo://app?vid=c4a6cf3f-a5b9-43d7-91d0-4da564433a66"},"vehicle_type_id":"4","last_reported":1777059792,"current_range_meters":6800,"station_id":"ce4bgs92rcd13ifvqcc0","pricing_plan_id":"cebpf4jnsgd1na2vs0mg"},{"bike_id":"3762a15a-49a2-4fc6-b2e6-a79b5f91a12f","system_id":"levelo_inurba_marseille","lat":43.28477,"lon":5.48396,"is_reserved":false,"is_disabled":false,"rental_uris":{"android":"levelo://app?vid=3762a15a-49a2-4fc6-b2e6-a79b5f91a12f","ios":"levelo://app?vid=3762a15a-49a2-4fc6-b2e6-a79b5f91a12f"},"vehicle_type_id":"4","last_reported":1777059792,"current_range_meters":6800,"station_id":"st_d3svhcjqgbts73a3dn0g","pricing_plan_id":"cebpf4jnsgd1na2vs0mg"},{"bike_id":"8a4d316b-7dfb-42df-8aea-4c7d58210d7a","system_id":"levelo_inurba_marseille","lat":43.31257,"lon":5.43062,"is_reserved":false,"is_disabled":false,"rental_uris":{"android":"levelo://app?vid=8a4d316b-7dfb-42df-8aea-4c7d58210d7a","ios":"levelo://app?vid=8a4d316b-7dfb-42df-8aea-4c7d58210d7a"},"vehicle_type_id":"4","last_reported":1777059792,"current_range_meters":6800,"station_id":"","pricing_plan_id":"cebpf4jnsgd1na2vs0mg"},{"bike_id":"cd21f6c1-a1f8-4978-8025-1d254a6bf514","system_id":"levelo_inurba_marseille","lat":43.28475,"lon":5.48395,"is_reserved":false,"is_disabled":false,"rental_uris":{"android":"levelo://app?vid=cd21f6c1-a1f8-4978-8025-1d254a6bf514","ios":"levelo://app?vid=cd21f6c1-a1f8-4978-8025-1d254a6bf514"},"vehicle_type_id":"4","last_reported":1777059792,"current_range_meters":6800,"station_id":"st_d3svhcjqgbts73a3dn0g","pricing_plan_id":"cebpf4jnsgd1na2vs0mg"},{"bike_id":"b38d89b8-c3c9-4fae-b6f2-09980d89f2e9","system_id":"levelo_inurba_marseille","lat":43.28482,"lon":5.48405,"is_reserved":false,"is_disabled":false,"rental_uris":{"android":"levelo://app?vid=b38d89b8-c3c9-4fae-b6f2-09980d89f2e9","ios":"levelo://app?vid=b38d89b8-c3c9-4fae-b6f2-09980d89f2e9"},"vehicle_type_id":"4","last_reported":1777059792,"current_range_meters":6800,"station_id":"st_d3svhcjqgbts73a3dn0g","pricing_plan_id":"cebpf4jnsgd1na2vs0mg"},{"bike_id":"40457f83-17ec-403e-b602-4d357d73bc74","system_id":"levelo_inurba_marseille","lat":43.29307,"lon":5.37456,"is_reserved":false,"is_disabled":false,"rental_uris":{"android":"levelo://app?vid=40457f83-17ec-403e-b602-4d357d73bc74","ios":"levelo://app?vid=40457f83-17ec-403e-b602-4d357d73bc74"},"vehicle_type_id":"4","last_reported":1777059792,"current_range_meters":6800,"station_id":"ce4bgi12rcd13ifvqb70","pricing_plan_id":"cebpf4jnsgd1na2vs0mg"},{"bike_id":"3eee31c2-6753-4af0-82f0-da506018a4c0","system_id":"levelo_inurba_marseille","lat":43.29981,"lon":5.38509,"is_reserved":false,"is_disabled":false,"rental_uris":{"android":"levelo://app?vid=3eee31c2-6753-4af0-82f0-da506018a4c0","ios":"levelo://app?vid=3eee31c2-6753-4af0-82f0-da506018a4c0"},"vehicle_type_id":"4","last_reported":1777059792,"current_range_meters":6800,"station_id":"ce4bgj92rcd13ifvqbd0","pricing_plan_id":"cebpf4jnsgd1na2vs0mg"},{"bike_id":"06edec6a-5805-469e-9aae-fb51ca9b0dbc","system_id":"levelo_inurba_marseille","lat":43.31994,"lon":5.38158,"is_reserved":false,"is_disabled":false,"rental_uris":{"android":"levelo://app?vid=06edec6a-5805-469e-9aae-fb51ca9b0dbc","ios":"levelo://app?vid=06edec6a-5805-469e-9aae-fb51ca9b0dbc"},"vehicle_type_id":"4","last_reported":1777059792,"current_range_meters":6800,"station_id":"ce4bhr12rcd13ifvqhpg","pricing_plan_id":"cebpf4jnsgd1na2vs0mg"},{"bike_id":"e8d6ce3d-1aa9-47ef-9b48-93862ee5f7fd","system_id":"levelo_inurba_marseille","lat":43.21267,"lon":5.35432,"is_reserved":false,"is_disabled":false,"rental_uris":{"android":"levelo://app?vid=e8d6ce3d-1aa9-47ef-9b48-93862ee5f7fd","ios":"levelo://app?vid=e8d6ce3d-1aa9-47ef-9b48-93862ee5f7fd"},"vehicle_type_id":"4","last_reported":1777059792,"current_range_meters":6800,"station_id":"","pricing_plan_id":"cebpf4jnsgd1na2vs0mg"},{"bike_id":"b1b5eac6-0ca7-4857-97a5-0ae773d754c8","system_id":"levelo_inurba_marseille","lat":43.25342,"lon":5.42174,"is_reserved":false,"is_disabled":false,"rental_uris":{"android":"levelo://app?vid=b1b5eac6-0ca7-4857-97a5-0ae773d754c8","ios":"levelo://app?vid=b1b5eac6-0ca7-4857-97a5-0ae773d754c8"},"vehicle_type_id":"4","last_reported":1777059792,"current_range_meters":6800,"station_id":"st_d2m65c5bi1j21697t3ng","pricing_plan_id":"cebpf4jnsgd1na2vs0mg"},{"bike_id":"c5144401-e972-4445-9dc7-2e728caa9411","system_id":"levelo_inurba_marseille","lat":43.2319,"lon":5.39979,"is_reserved":false,"is_disabled":false,"rental_uris":{"android":"levelo://app?vid=c5144401-e972-4445-9dc7-2e728caa9411","ios":"levelo://app?vid=c5144401-e972-4445-9dc7-2e728caa9411"},"vehicle_type_id":"4","last_reported":1777059792,"current_range_meters":6800,"station_id":"ce4bhn12rcd13ifvqgqg","pricing_plan_id":"cebpf4jnsgd1na2vs0mg"},{"bike_id":"500c3cdf-5e69-46f4-9694-d063e2b1b8f7","system_id":"levelo_inurba_marseille","lat":43.31324,"lon":5.39685,"is_reserved":false,"is_disabled":false,"rental_uris":{"android":"levelo://app?vid=500c3cdf-5e69-46f4-9694-d063e2b1b8f7","ios":"levelo://app?vid=500c3cdf-5e69-46f4-9694-d063e2b1b8f7"},"vehicle_type_id":"4","last_reported":1777059792,"current_range_meters":6800,"station_id":"ce4bgvp2rcd13ifvqcu0","pricing_plan_id":"cebpf4jnsgd1na2vs0mg"},{"bike_id":"d760f7a1-e346-4d66-b3b9-029df51a5d5e","system_id":"levelo_inurba_marseille","lat":43.29297,"lon":5.37444,"is_reserved":false,"is_disabled":false,"rental_uris":{"android":"levelo://app?vid=d760f7a1-e346-4d66-b3b9-029df51a5d5e","ios":"levelo://app?vid=d760f7a1-e346-4d66-b3b9-029df51a5d5e"},"vehicle_type_id":"4","last_reported":1777059792,"current_range_meters":6800,"station_id":"ce4bgi12rcd13ifvqb70","pricing_plan_id":"cebpf4jnsgd1na2vs0mg"},{"bike_id":"ea6bc3d8-c579-4ee0-b380-751e60996d33","system_id":"levelo_inurba_marseille","lat":43.31218,"lon":5.36873,"is_reserved":false,"is_disabled":false,"rental_uris":{"android":"levelo://app?vid=ea6bc3d8-c579-4ee0-b380-751e60996d33","ios":"levelo://app?vid=ea6bc3d8-c579-4ee0-b380-751e60996d33"},"vehicle_type_id":"4","last_reported":1777059792,"current_range_meters":6800,"station_id":"ce4bgl92rcd13ifvqbq0","pricing_plan_id":"cebpf4jnsgd1na2vs0mg"},{"bike_id":"7e26327c-b51f-4a0c-8642-a9b92f586618","system_id":"levelo_inurba_marseille","lat":43.29279,"lon":5.37478,"is_reserved":false,"is_disabled":false,"rental_uris":{"android":"levelo://app?vid=7e26327c-b51f-4a0c-8642-a9b92f586618","ios":"levelo://app?vid=7e26327c-b51f-4a0c-8642-a9b92f586618"},"vehicle_type_id":"4","last_reported":1777059792,"current_range_meters":6800,"station_id":"ce4bgi12rcd13ifvqb70","pricing_plan_id":"cebpf4jnsgd1na2vs0mg"},{"bike_id":"f3b66ab9-5402-4a54-abb4-bb6d93771ba9","system_id":"levelo_inurba_marseille","lat":43.29258,"lon":5.38442,"is_reserved":false,"is_disabled":false,"rental_uris":{"android":"levelo://app?vid=f3b66ab9-5402-4a54-abb4-bb6d93771ba9","ios":"levelo://app?vid=f3b66ab9-5402-4a54-abb4-bb6d93771ba9"},"vehicle_type_id":"4","last_reported":1777059792,"current_range_meters":6800,"station_id":"ce4bh692rcd13ifvqea0","pricing_plan_id":"cebpf4jnsgd1na2vs0mg"},{"bike_id":"dd2047c2-bb91-49cf-b349-a50990a16979","system_id":"levelo_inurba_marseille","lat":43.2902,"lon":5.38131,"is_reserved":false,"is_disabled":true,"rental_uris":{"android":"levelo://app?vid=dd2047c2-bb91-49cf-b349-a50990a16979","ios":"levelo://app?vid=dd2047c2-bb91-49cf-b349-a50990a16979"},"vehicle_type_id":"4","last_reported":1777059792,"current_range_meters":6800,"station_id":"ce4bh4p2rcd13ifvqe1g","pricing_plan_id":"cebpf4jnsgd1na2vs0mg"},{"bike_id":"511a07b4-6464-4c78-9aa6-e1013bbe91a1","system_id":"levelo_inurba_marseille","lat":43.32109,"lon":5.36776,"is_reserved":false,"is_disabled":false,"rental_uris":{"android":"levelo://app?vid=511a07b4-6464-4c78-9aa6-e1013bbe91a1","ios":"levelo://app?vid=511a07b4-6464-4c78-9aa6-e1013bbe91a1"},"vehicle_type_id":"4","last_reported":1777059792,"current_range_meters":6800,"station_id":"ce4bhrh2rcd13ifvqhug","pricing_plan_id":"cebpf4jnsgd1na2vs0mg"},{"bike_id":"2e8b0c24-db8b-40e4-910b-f7bfab0dd911","system_id":"levelo_inurba_marseille","lat":43.3095,"lon":5.39034,"is_reserved":false,"is_disabled":false,"rental_uris":{"android":"levelo://app?vid=2e8b0c24-db8b-40e4-910b-f7bfab0dd911","ios":"levelo://app?vid=2e8b0c24-db8b-40e4-910b-f7bfab0dd911"},"vehicle_type_id":"4","last_reported":1777059792,"current_range_meters":6800,"station_id":"ce4bgup2rcd13ifvqco0","pricing_plan_id":"cebpf4jnsgd1na2vs0mg"},{"bike_id":"90fac789-06e9-4c33-94b9-e82543e03c21","system_id":"levelo_inurba_marseille","lat":43.27382,"lon":5.36252,"is_reserved":false,"is_disabled":true,"rental_uris":{"android":"levelo://app?vid=90fac789-06e9-4c33-94b9-e82543e03c21","ios":"levelo://app?vid=90fac789-06e9-4c33-94b9-e82543e03c21"},"vehicle_type_id":"4","last_reported":1777059792,"current_range_meters":6800,"station_id":"ce4bhbh2rcd13ifvqeo0","pricing_plan_id":"cebpf4jnsgd1na2vs0mg"},{"bike_id":"7b762317-bf78-4be6-a22c-583e5016bcc0","system_id":"levelo_inurba_marseille","lat":43.29578,"lon":5.37515,"is_reserved":false,"is_disabled":false,"rental_uris":{"android":"levelo://app?vid=7b762317-bf78-4be6-a22c-583e5016bcc0","ios":"levelo://app?vid=7b762317-bf78-4be6-a22c-583e5016bcc0"},"vehicle_type_id":"4","last_reported":1777059792,"current_range_meters":6800,"station_id":"ce4bgh92rcd13ifvqb50","pricing_plan_id":"cebpf4jnsgd1na2vs0mg"},{"bike_id":"91a0131b-f3ba-41c1-9cf2-9122fb1ca495","system_id":"levelo_inurba_marseille","lat":43.31235,"lon":5.36882,"is_reserved":false,"is_disabled":false,"rental_uris":{"android":"levelo://app?vid=91a0131b-f3ba-41c1-9cf2-9122fb1ca495","ios":"levelo://app?vid=91a0131b-f3ba-41c1-9cf2-9122fb1ca495"},"vehicle_type_id":"4","last_reported":1777059792,"current_range_meters":6800,"station_id":"ce4bgl92rcd13ifvqbq0","pricing_plan_id":"cebpf4jnsgd1na2vs0mg"},{"bike_id":"783c184a-b441-48fa-8c33-a402db65b787","system_id":"levelo_inurba_marseille","lat":43.2926,"lon":5.38428,"is_reserved":false,"is_disabled":false,"rental_uris":{"android":"levelo://app?vid=783c184a-b441-48fa-8c33-a402db65b787","ios":"levelo://app?vid=783c184a-b441-48fa-8c33-a402db65b787"},"vehicle_type_id":"4","last_reported":1777059792,"current_range_meters":6800,"station_id":"ce4bh692rcd13ifvqea0","pricing_plan_id":"cebpf4jnsgd1na2vs0mg"},{"bike_id":"1f582608-2655-4ba4-b095-16566a7cd559","system_id":"levelo_inurba_marseille","lat":43.31802,"lon":5.44558,"is_reserved":false,"is_disabled":false,"rental_uris":{"android":"levelo://app?vid=1f582608-2655-4ba4-b095-16566a7cd559","ios":"levelo://app?vid=1f582608-2655-4ba4-b095-16566a7cd559"},"vehicle_type_id":"4","last_reported":1777059792,"current_range_meters":6800,"station_id":"","pricing_plan_id":"cebpf4jnsgd1na2vs0mg"},{"bike_id":"f8b71621-9ee0-4284-b9b2-be8fa047ba8a","system_id":"levelo_inurba_marseille","lat":43.30128,"lon":5.43114,"is_reserved":false,"is_disabled":false,"rental_uris":{"android":"levelo://app?vid=f8b71621-9ee0-4284-b9b2-be8fa047ba8a","ios":"levelo://app?vid=f8b71621-9ee0-4284-b9b2-be8fa047ba8a"},"vehicle_type_id":"4","last_reported":1777059792,"current_range_meters":6800,"station_id":"st_d3js3co5814s73ftftug","pricing_plan_id":"cebpf4jnsgd1na2vs0mg"},{"bike_id":"ae2736b2-7770-4b7b-82a1-0fab885495d7","system_id":"levelo_inurba_marseille","lat":43.24806,"lon":5.37459,"is_reserved":false,"is_disabled":false,"rental_uris":{"android":"levelo://app?vid=ae2736b2-7770-4b7b-82a1-0fab885495d7","ios":"levelo://app?vid=ae2736b2-7770-4b7b-82a1-0fab885495d7"},"vehicle_type_id":"4","last_reported":1777059792,"current_range_meters":6800,"station_id":"ce4bhgh2rcd13ifvqfb0","pricing_plan_id":"cebpf4jnsgd1na2vs0mg"},{"bike_id":"27cd71a7-0940-4415-a67f-21597fbf1cd9","system_id":"levelo_inurba_marseille","lat":43.33019,"lon":5.39031,"is_reserved":false,"is_disabled":false,"rental_uris":{"android":"levelo://app?vid=27cd71a7-0940-4415-a67f-21597fbf1cd9","ios":"levelo://app?vid=27cd71a7-0940-4415-a67f-21597fbf1cd9"},"vehicle_type_id":"4","last_reported":1777059792,"current_range_meters":7200,"station_id":"ce4bhr92rcd13ifvqhrg","pricing_plan_id":"cebpf4jnsgd1na2vs0mg"},{"bike_id":"732477f8-f155-4d59-a54d-b8bf4e772643","system_id":"levelo_inurba_marseille","lat":43.30139,"lon":5.3814,"is_reserved":false,"is_disabled":false,"rental_uris":{"android":"levelo://app?vid=732477f8-f155-4d59-a54d-b8bf4e772643","ios":"levelo://app?vid=732477f8-f155-4d59-a54d-b8bf4e772643"},"vehicle_type_id":"4","last_reported":1777059792,"current_range_meters":7200,"station_id":"ce4bgjp2rcd13ifvqbh0","pricing_plan_id":"cebpf4jnsgd1na2vs0mg"},{"bike_id":"6f631be2-9031-45d6-9cc9-313a62890dc7","system_id":"levelo_inurba_marseille","lat":43.27903,"lon":5.37988,"is_reserved":false,"is_disabled":false,"rental_uris":{"android":"levelo://app?vid=6f631be2-9031-45d6-9cc9-313a62890dc7","ios":"levelo://app?vid=6f631be2-9031-45d6-9cc9-313a62890dc7"},"vehicle_type_id":"4","last_reported":1777059792,"current_range_meters":7200,"station_id":"ce4bhf92rcd13ifvqf50","pricing_plan_id":"cebpf4jnsgd1na2vs0mg"},{"bike_id":"e8d002b1-199e-4516-8ed6-821a0c98040c","system_id":"levelo_inurba_marseille","lat":43.33754,"lon":5.37534,"is_reserved":false,"is_disabled":false,"rental_uris":{"android":"levelo://app?vid=e8d002b1-199e-4516-8ed6-821a0c98040c","ios":"levelo://app?vid=e8d002b1-199e-4516-8ed6-821a0c98040c"},"vehicle_type_id":"4","last_reported":1777059792,"current_range_meters":7200,"station_id":"st_d46cu089ee8s73dldbu0","pricing_plan_id":"cebpf4jnsgd1na2vs0mg"},{"bike_id":"8fb84350-1a94-4bc1-975c-56b8215e2ec6","system_id":"levelo_inurba_marseille","lat":43.27463,"lon":5.43904,"is_reserved":false,"is_disabled":false,"rental_uris":{"android":"levelo://app?vid=8fb84350-1a94-4bc1-975c-56b8215e2ec6","ios":"levelo://app?vid=8fb84350-1a94-4bc1-975c-56b8215e2ec6"},"vehicle_type_id":"4","last_reported":1777059792,"current_range_meters":7200,"station_id":"","pricing_plan_id":"cebpf4jnsgd1na2vs0mg"},{"bike_id":"a7b87245-c28d-4f8d-becb-31bbaad379e8","system_id":"levelo_inurba_marseille","lat":43.28384,"lon":5.38661,"is_reserved":false,"is_disabled":true,"rental_uris":{"android":"levelo://app?vid=a7b87245-c28d-4f8d-becb-31bbaad379e8","ios":"levelo://app?vid=a7b87245-c28d-4f8d-becb-31bbaad379e8"},"vehicle_type_id":"4","last_reported":1777059792,"current_range_meters":7200,"station_id":"ce4bh492rcd13ifvqdvg","pricing_plan_id":"cebpf4jnsgd1na2vs0mg"},{"bike_id":"de3793bf-3187-4210-ba00-6fb9593e1096","system_id":"levelo_inurba_marseille","lat":43.29962,"lon":5.36518,"is_reserved":false,"is_disabled":false,"rental_uris":{"android":"levelo://app?vid=de3793bf-3187-4210-ba00-6fb9593e1096","ios":"levelo://app?vid=de3793bf-3187-4210-ba00-6fb9593e1096"},"vehicle_type_id":"4","last_reported":1777059792,"current_range_meters":7200,"station_id":"ce4bgm92rcd13ifvqbr0","pricing_plan_id":"cebpf4jnsgd1na2vs0mg"},{"bike_id":"eef32bbb-31eb-4f7a-9442-de88e2844d28","system_id":"levelo_inurba_marseille","lat":43.28258,"lon":5.3509,"is_reserved":false,"is_disabled":false,"rental_uris":{"android":"levelo://app?vid=eef32bbb-31eb-4f7a-9442-de88e2844d28","ios":"levelo://app?vid=eef32bbb-31eb-4f7a-9442-de88e2844d28"},"vehicle_type_id":"4","last_reported":1777059792,"current_range_meters":7200,"station_id":"ce4bhbp2rcd13ifvqerg","pricing_plan_id":"cebpf4jnsgd1na2vs0mg"},{"bike_id":"bab7cad4-d1a4-434a-ada5-56f652707f0f","system_id":"levelo_inurba_marseille","lat":43.29333,"lon":5.37134,"is_reserved":false,"is_disabled":false,"rental_uris":{"android":"levelo://app?vid=bab7cad4-d1a4-434a-ada5-56f652707f0f","ios":"levelo://app?vid=bab7cad4-d1a4-434a-ada5-56f652707f0f"},"vehicle_type_id":"4","last_reported":1777059792,"current_range_meters":7200,"station_id":"ce4bgh92rcd13ifvqb40","pricing_plan_id":"cebpf4jnsgd1na2vs0mg"},{"bike_id":"ec19aaad-2410-439f-9123-e83fa1c535f8","system_id":"levelo_inurba_marseille","lat":43.28261,"lon":5.37893,"is_reserved":false,"is_disabled":false,"rental_uris":{"android":"levelo://app?vid=ec19aaad-2410-439f-9123-e83fa1c535f8","ios":"levelo://app?vid=ec19aaad-2410-439f-9123-e83fa1c535f8"},"vehicle_type_id":"4","last_reported":1777059792,"current_range_meters":7200,"station_id":"","pricing_plan_id":"cebpf4jnsgd1na2vs0mg"},{"bike_id":"2764cb08-a9d1-46a8-9876-e107237b38fb","system_id":"levelo_inurba_marseille","lat":43.29524,"lon":5.39035,"is_reserved":false,"is_disabled":false,"rental_uris":{"android":"levelo://app?vid=2764cb08-a9d1-46a8-9876-e107237b38fb","ios":"levelo://app?vid=2764cb08-a9d1-46a8-9876-e107237b38fb"},"vehicle_type_id":"4","last_reported":1777059792,"current_range_meters":7200,"station_id":"ce4bh3p2rcd13ifvqdp0","pricing_plan_id":"cebpf4jnsgd1na2vs0mg"},{"bike_id":"7ab9e9d2-55c6-492f-8e60-126c7a6965ab","system_id":"levelo_inurba_marseille","lat":43.2798,"lon":5.37042,"is_reserved":false,"is_disabled":false,"rental_uris":{"android":"levelo://app?vid=7ab9e9d2-55c6-492f-8e60-126c7a6965ab","ios":"levelo://app?vid=7ab9e9d2-55c6-492f-8e60-126c7a6965ab"},"vehicle_type_id":"4","last_reported":1777059792,"current_range_meters":7200,"station_id":"","pricing_plan_id":"cebpf4jnsgd1na2vs0mg"},{"bike_id":"4ce8ebc3-20a6-4a54-8e15-6c4772b86e6e","system_id":"levelo_inurba_marseille","lat":43.29536,"lon":5.38542,"is_reserved":false,"is_disabled":false,"rental_uris":{"android":"levelo://app?vid=4ce8ebc3-20a6-4a54-8e15-6c4772b86e6e","ios":"levelo://app?vid=4ce8ebc3-20a6-4a54-8e15-6c4772b86e6e"},"vehicle_type_id":"4","last_reported":1777059792,"current_range_meters":7200,"station_id":"ce4bgih2rcd13ifvqba0","pricing_plan_id":"cebpf4jnsgd1na2vs0mg"},{"bike_id":"27c42ac1-b3ae-44d2-a7ac-ec95314cb289","system_id":"levelo_inurba_marseille","lat":43.28416,"lon":5.34989,"is_reserved":false,"is_disabled":false,"rental_uris":{"android":"levelo://app?vid=27c42ac1-b3ae-44d2-a7ac-ec95314cb289","ios":"levelo://app?vid=27c42ac1-b3ae-44d2-a7ac-ec95314cb289"},"vehicle_type_id":"4","last_reported":1777059792,"current_range_meters":8000,"station_id":"ce4bhbh2rcd13ifvqepg","pricing_plan_id":"cebpf4jnsgd1na2vs0mg"},{"bike_id":"fac18b38-217d-4ebb-afdc-778279e8703e","system_id":"levelo_inurba_marseille","lat":43.29527,"lon":5.394,"is_reserved":false,"is_disabled":false,"rental_uris":{"android":"levelo://app?vid=fac18b38-217d-4ebb-afdc-778279e8703e","ios":"levelo://app?vid=fac18b38-217d-4ebb-afdc-778279e8703e"},"vehicle_type_id":"4","last_reported":1777059792,"current_range_meters":8000,"station_id":"ce4bh292rcd13ifvqdf0","pricing_plan_id":"cebpf4jnsgd1na2vs0mg"},{"bike_id":"3d157094-1633-4b6b-b41f-2648a50f3eee","system_id":"levelo_inurba_marseille","lat":43.31494,"lon":5.37305,"is_reserved":false,"is_disabled":false,"rental_uris":{"android":"levelo://app?vid=3d157094-1633-4b6b-b41f-2648a50f3eee","ios":"levelo://app?vid=3d157094-1633-4b6b-b41f-2648a50f3eee"},"vehicle_type_id":"4","last_reported":1777059792,"current_range_meters":8000,"station_id":"ce4bgt12rcd13ifvqcd0","pricing_plan_id":"cebpf4jnsgd1na2vs0mg"},{"bike_id":"f9c28b33-e7ba-4f82-bdba-494d269ab6b2","system_id":"levelo_inurba_marseille","lat":43.29164,"lon":5.39291,"is_reserved":false,"is_disabled":false,"rental_uris":{"android":"levelo://app?vid=f9c28b33-e7ba-4f82-bdba-494d269ab6b2","ios":"levelo://app?vid=f9c28b33-e7ba-4f82-bdba-494d269ab6b2"},"vehicle_type_id":"4","last_reported":1777059792,"current_range_meters":8000,"station_id":"ce4bh192rcd13ifvqdd0","pricing_plan_id":"cebpf4jnsgd1na2vs0mg"},{"bike_id":"eeac2ee0-be9f-48ee-a8da-259774c71024","system_id":"levelo_inurba_marseille","lat":43.2841,"lon":5.35009,"is_reserved":false,"is_disabled":false,"rental_uris":{"android":"levelo://app?vid=eeac2ee0-be9f-48ee-a8da-259774c71024","ios":"levelo://app?vid=eeac2ee0-be9f-48ee-a8da-259774c71024"},"vehicle_type_id":"4","last_reported":1777059792,"current_range_meters":8000,"station_id":"ce4bhbh2rcd13ifvqepg","pricing_plan_id":"cebpf4jnsgd1na2vs0mg"},{"bike_id":"18ee4449-686a-4257-a830-821bcc128ad8","system_id":"levelo_inurba_marseille","lat":43.29496,"lon":5.38546,"is_reserved":false,"is_disabled":false,"rental_uris":{"android":"levelo://app?vid=18ee4449-686a-4257-a830-821bcc128ad8","ios":"levelo://app?vid=18ee4449-686a-4257-a830-821bcc128ad8"},"vehicle_type_id":"4","last_reported":1777059792,"current_range_meters":8000,"station_id":"ce4bgih2rcd13ifvqba0","pricing_plan_id":"cebpf4jnsgd1na2vs0mg"},{"bike_id":"9be1fb83-d98a-48d3-b8d6-227019da0299","system_id":"levelo_inurba_marseille","lat":43.25477,"lon":5.37648,"is_reserved":false,"is_disabled":false,"rental_uris":{"android":"levelo://app?vid=9be1fb83-d98a-48d3-b8d6-227019da0299","ios":"levelo://app?vid=9be1fb83-d98a-48d3-b8d6-227019da0299"},"vehicle_type_id":"4","last_reported":1777059792,"current_range_meters":8000,"station_id":"ce4bhh12rcd13ifvqff0","pricing_plan_id":"cebpf4jnsgd1na2vs0mg"},{"bike_id":"60be4b0d-4c83-4300-8220-7b23e159ba6b","system_id":"levelo_inurba_marseille","lat":43.24806,"lon":5.37453,"is_reserved":false,"is_disabled":false,"rental_uris":{"android":"levelo://app?vid=60be4b0d-4c83-4300-8220-7b23e159ba6b","ios":"levelo://app?vid=60be4b0d-4c83-4300-8220-7b23e159ba6b"},"vehicle_type_id":"4","last_reported":1777059792,"current_range_meters":8000,"station_id":"ce4bhgh2rcd13ifvqfb0","pricing_plan_id":"cebpf4jnsgd1na2vs0mg"},{"bike_id":"3ed6b35b-f49a-4bf4-8be0-195ccf6d0e40","system_id":"levelo_inurba_marseille","lat":43.29248,"lon":5.38452,"is_reserved":false,"is_disabled":false,"rental_uris":{"android":"levelo://app?vid=3ed6b35b-f49a-4bf4-8be0-195ccf6d0e40","ios":"levelo://app?vid=3ed6b35b-f49a-4bf4-8be0-195ccf6d0e40"},"vehicle_type_id":"4","last_reported":1777059792,"current_range_meters":8000,"station_id":"ce4bh692rcd13ifvqea0","pricing_plan_id":"cebpf4jnsgd1na2vs0mg"},{"bike_id":"33b474e7-79ff-4803-b72e-82f4ac2d8854","system_id":"levelo_inurba_marseille","lat":43.30892,"lon":5.39626,"is_reserved":false,"is_disabled":false,"rental_uris":{"android":"levelo://app?vid=33b474e7-79ff-4803-b72e-82f4ac2d8854","ios":"levelo://app?vid=33b474e7-79ff-4803-b72e-82f4ac2d8854"},"vehicle_type_id":"4","last_reported":1777059792,"current_range_meters":8000,"station_id":"ce4bh012rcd13ifvqcv0","pricing_plan_id":"cebpf4jnsgd1na2vs0mg"},{"bike_id":"431c7097-8dc4-4bd7-a7ea-6265d5f64819","system_id":"levelo_inurba_marseille","lat":43.23193,"lon":5.35551,"is_reserved":false,"is_disabled":false,"rental_uris":{"android":"levelo://app?vid=431c7097-8dc4-4bd7-a7ea-6265d5f64819","ios":"levelo://app?vid=431c7097-8dc4-4bd7-a7ea-6265d5f64819"},"vehicle_type_id":"4","last_reported":1777059792,"current_range_meters":8000,"station_id":"ce4bhu92rcd13ifvqi70","pricing_plan_id":"cebpf4jnsgd1na2vs0mg"},{"bike_id":"6683f1c1-5438-4145-9f5d-8b7a78196c6b","system_id":"levelo_inurba_marseille","lat":43.28224,"lon":5.35083,"is_reserved":false,"is_disabled":false,"rental_uris":{"android":"levelo://app?vid=6683f1c1-5438-4145-9f5d-8b7a78196c6b","ios":"levelo://app?vid=6683f1c1-5438-4145-9f5d-8b7a78196c6b"},"vehicle_type_id":"4","last_reported":1777059792,"current_range_meters":8000,"station_id":"","pricing_plan_id":"cebpf4jnsgd1na2vs0mg"},{"bike_id":"25da488e-77a1-4b15-a23b-57f58235fca3","system_id":"levelo_inurba_marseille","lat":43.26053,"lon":5.39387,"is_reserved":false,"is_disabled":false,"rental_uris":{"android":"levelo://app?vid=25da488e-77a1-4b15-a23b-57f58235fca3","ios":"levelo://app?vid=25da488e-77a1-4b15-a23b-57f58235fca3"},"vehicle_type_id":"4","last_reported":1777059792,"current_range_meters":8000,"station_id":"ce4bhh92rcd13ifvqfj0","pricing_plan_id":"cebpf4jnsgd1na2vs0mg"},{"bike_id":"68385ad1-5a71-4622-9ac2-dcc837084f17","system_id":"levelo_inurba_marseille","lat":43.24055,"lon":5.37744,"is_reserved":false,"is_disabled":false,"rental_uris":{"android":"levelo://app?vid=68385ad1-5a71-4622-9ac2-dcc837084f17","ios":"levelo://app?vid=68385ad1-5a71-4622-9ac2-dcc837084f17"},"vehicle_type_id":"4","last_reported":1777059792,"current_range_meters":8000,"station_id":"ce4bhnp2rcd13ifvqgvg","pricing_plan_id":"cebpf4jnsgd1na2vs0mg"},{"bike_id":"a7398d3c-309c-40e4-8059-f2e4acd33fe1","system_id":"levelo_inurba_marseille","lat":43.31988,"lon":5.38165,"is_reserved":false,"is_disabled":false,"rental_uris":{"android":"levelo://app?vid=a7398d3c-309c-40e4-8059-f2e4acd33fe1","ios":"levelo://app?vid=a7398d3c-309c-40e4-8059-f2e4acd33fe1"},"vehicle_type_id":"4","last_reported":1777059792,"current_range_meters":8000,"station_id":"ce4bhr12rcd13ifvqhpg","pricing_plan_id":"cebpf4jnsgd1na2vs0mg"},{"bike_id":"c6becd0f-a8ab-46ad-a330-526a833609ac","system_id":"levelo_inurba_marseille","lat":43.29869,"lon":5.3973,"is_reserved":false,"is_disabled":false,"rental_uris":{"android":"levelo://app?vid=c6becd0f-a8ab-46ad-a330-526a833609ac","ios":"levelo://app?vid=c6becd0f-a8ab-46ad-a330-526a833609ac"},"vehicle_type_id":"4","last_reported":1777059792,"current_range_meters":8000,"station_id":"ce4bh0h2rcd13ifvqd50","pricing_plan_id":"cebpf4jnsgd1na2vs0mg"},{"bike_id":"a748cb5a-6e0a-4ecb-b83c-da5775a99539","system_id":"levelo_inurba_marseille","lat":43.29878,"lon":5.38914,"is_reserved":false,"is_disabled":false,"rental_uris":{"android":"levelo://app?vid=a748cb5a-6e0a-4ecb-b83c-da5775a99539","ios":"levelo://app?vid=a748cb5a-6e0a-4ecb-b83c-da5775a99539"},"vehicle_type_id":"4","last_reported":1777059792,"current_range_meters":8000,"station_id":"ce4bh392rcd13ifvqdl0","pricing_plan_id":"cebpf4jnsgd1na2vs0mg"},{"bike_id":"c7ac0306-6afc-4781-8692-f962ddfe1a23","system_id":"levelo_inurba_marseille","lat":43.3235,"lon":5.36744,"is_reserved":false,"is_disabled":false,"rental_uris":{"android":"levelo://app?vid=c7ac0306-6afc-4781-8692-f962ddfe1a23","ios":"levelo://app?vid=c7ac0306-6afc-4781-8692-f962ddfe1a23"},"vehicle_type_id":"4","last_reported":1777059792,"current_range_meters":8000,"station_id":"ce4bhsh2rcd13ifvqi2g","pricing_plan_id":"cebpf4jnsgd1na2vs0mg"},{"bike_id":"988ae902-d473-4df8-8011-5624c821d915","system_id":"levelo_inurba_marseille","lat":43.29516,"lon":5.39035,"is_reserved":false,"is_disabled":false,"rental_uris":{"android":"levelo://app?vid=988ae902-d473-4df8-8011-5624c821d915","ios":"levelo://app?vid=988ae902-d473-4df8-8011-5624c821d915"},"vehicle_type_id":"4","last_reported":1777059792,"current_range_meters":8400,"station_id":"ce4bh3p2rcd13ifvqdp0","pricing_plan_id":"cebpf4jnsgd1na2vs0mg"},{"bike_id":"ef1780af-1aea-4e08-82c2-da4d0be385bf","system_id":"levelo_inurba_marseille","lat":43.29007,"lon":5.36043,"is_reserved":false,"is_disabled":false,"rental_uris":{"android":"levelo://app?vid=ef1780af-1aea-4e08-82c2-da4d0be385bf","ios":"levelo://app?vid=ef1780af-1aea-4e08-82c2-da4d0be385bf"},"vehicle_type_id":"4","last_reported":1777059792,"current_range_meters":8400,"station_id":"","pricing_plan_id":"cebpf4jnsgd1na2vs0mg"},{"bike_id":"4af5f932-71ad-4954-ac3b-fecb2a352994","system_id":"levelo_inurba_marseille","lat":43.32349,"lon":5.36765,"is_reserved":false,"is_disabled":false,"rental_uris":{"android":"levelo://app?vid=4af5f932-71ad-4954-ac3b-fecb2a352994","ios":"levelo://app?vid=4af5f932-71ad-4954-ac3b-fecb2a352994"},"vehicle_type_id":"4","last_reported":1777059792,"current_range_meters":8400,"station_id":"ce4bhsh2rcd13ifvqi2g","pricing_plan_id":"cebpf4jnsgd1na2vs0mg"},{"bike_id":"929ec495-3063-4e3b-9b6e-b622e307d6fd","system_id":"levelo_inurba_marseille","lat":43.29519,"lon":5.38558,"is_reserved":false,"is_disabled":false,"rental_uris":{"android":"levelo://app?vid=929ec495-3063-4e3b-9b6e-b622e307d6fd","ios":"levelo://app?vid=929ec495-3063-4e3b-9b6e-b622e307d6fd"},"vehicle_type_id":"4","last_reported":1777059792,"current_range_meters":8400,"station_id":"ce4bgih2rcd13ifvqba0","pricing_plan_id":"cebpf4jnsgd1na2vs0mg"},{"bike_id":"aa7eae9a-7e22-4160-bf18-ed075094121e","system_id":"levelo_inurba_marseille","lat":43.29193,"lon":5.39305,"is_reserved":false,"is_disabled":false,"rental_uris":{"android":"levelo://app?vid=aa7eae9a-7e22-4160-bf18-ed075094121e","ios":"levelo://app?vid=aa7eae9a-7e22-4160-bf18-ed075094121e"},"vehicle_type_id":"4","last_reported":1777059792,"current_range_meters":8400,"station_id":"ce4bh192rcd13ifvqdd0","pricing_plan_id":"cebpf4jnsgd1na2vs0mg"},{"bike_id":"f44d6bc2-2424-4075-9f05-9a1fd1edfab6","system_id":"levelo_inurba_marseille","lat":43.28033,"lon":5.36958,"is_reserved":false,"is_disabled":false,"rental_uris":{"android":"levelo://app?vid=f44d6bc2-2424-4075-9f05-9a1fd1edfab6","ios":"levelo://app?vid=f44d6bc2-2424-4075-9f05-9a1fd1edfab6"},"vehicle_type_id":"4","last_reported":1777059792,"current_range_meters":8400,"station_id":"ce4bha12rcd13ifvqef0","pricing_plan_id":"cebpf4jnsgd1na2vs0mg"},{"bike_id":"f44165f1-5359-41e1-b21c-e200cb05c7bb","system_id":"levelo_inurba_marseille","lat":43.2922,"lon":5.36061,"is_reserved":false,"is_disabled":false,"rental_uris":{"android":"levelo://app?vid=f44165f1-5359-41e1-b21c-e200cb05c7bb","ios":"levelo://app?vid=f44165f1-5359-41e1-b21c-e200cb05c7bb"},"vehicle_type_id":"4","last_reported":1777059792,"current_range_meters":8400,"station_id":"ce4bhbh2rcd13ifvqeqg","pricing_plan_id":"cebpf4jnsgd1na2vs0mg"},{"bike_id":"487de52d-8377-4a2f-bcff-bc1b51b966ef","system_id":"levelo_inurba_marseille","lat":43.28942,"lon":5.36626,"is_reserved":false,"is_disabled":false,"rental_uris":{"android":"levelo://app?vid=487de52d-8377-4a2f-bcff-bc1b51b966ef","ios":"levelo://app?vid=487de52d-8377-4a2f-bcff-bc1b51b966ef"},"vehicle_type_id":"4","last_reported":1777059792,"current_range_meters":8400,"station_id":"ce4bhap2rcd13ifvqek0","pricing_plan_id":"cebpf4jnsgd1na2vs0mg"},{"bike_id":"cc1c1d4e-5932-4186-84a7-d94a32cc212c","system_id":"levelo_inurba_marseille","lat":43.27912,"lon":5.38005,"is_reserved":false,"is_disabled":false,"rental_uris":{"android":"levelo://app?vid=cc1c1d4e-5932-4186-84a7-d94a32cc212c","ios":"levelo://app?vid=cc1c1d4e-5932-4186-84a7-d94a32cc212c"},"vehicle_type_id":"4","last_reported":1777059792,"current_range_meters":8400,"station_id":"ce4bhf92rcd13ifvqf50","pricing_plan_id":"cebpf4jnsgd1na2vs0mg"},{"bike_id":"1370c3f0-6074-43de-a93b-f7f87c829b3b","system_id":"levelo_inurba_marseille","lat":43.2912,"lon":5.39985,"is_reserved":false,"is_disabled":false,"rental_uris":{"android":"levelo://app?vid=1370c3f0-6074-43de-a93b-f7f87c829b3b","ios":"levelo://app?vid=1370c3f0-6074-43de-a93b-f7f87c829b3b"},"vehicle_type_id":"4","last_reported":1777059792,"current_range_meters":8400,"station_id":"","pricing_plan_id":"cebpf4jnsgd1na2vs0mg"},{"bike_id":"a3dee876-3af2-46d4-9131-1dd0997e500a","system_id":"levelo_inurba_marseille","lat":43.244,"lon":5.3707,"is_reserved":false,"is_disabled":true,"rental_uris":{"android":"levelo://app?vid=a3dee876-3af2-46d4-9131-1dd0997e500a","ios":"levelo://app?vid=a3dee876-3af2-46d4-9131-1dd0997e500a"},"vehicle_type_id":"4","last_reported":1777059792,"current_range_meters":8400,"station_id":"ce4bhhh2rcd13ifvqfk0","pricing_plan_id":"cebpf4jnsgd1na2vs0mg"},{"bike_id":"db1ea52d-9371-4874-846f-e62be4fb7d9a","system_id":"levelo_inurba_marseille","lat":43.29959,"lon":5.38511,"is_reserved":false,"is_disabled":false,"rental_uris":{"android":"levelo://app?vid=db1ea52d-9371-4874-846f-e62be4fb7d9a","ios":"levelo://app?vid=db1ea52d-9371-4874-846f-e62be4fb7d9a"},"vehicle_type_id":"4","last_reported":1777059792,"current_range_meters":8400,"station_id":"ce4bgj92rcd13ifvqbd0","pricing_plan_id":"cebpf4jnsgd1na2vs0mg"},{"bike_id":"b40c767f-85e8-4be1-8197-6b3c86d386fc","system_id":"levelo_inurba_marseille","lat":43.26198,"lon":5.37431,"is_reserved":false,"is_disabled":false,"rental_uris":{"android":"levelo://app?vid=b40c767f-85e8-4be1-8197-6b3c86d386fc","ios":"levelo://app?vid=b40c767f-85e8-4be1-8197-6b3c86d386fc"},"vehicle_type_id":"4","last_reported":1777059792,"current_range_meters":8400,"station_id":"ce4bhgp2rcd13ifvqfc0","pricing_plan_id":"cebpf4jnsgd1na2vs0mg"},{"bike_id":"909cae9d-5222-473b-aef5-d47a9de17fb2","system_id":"levelo_inurba_marseille","lat":43.28228,"lon":5.35106,"is_reserved":false,"is_disabled":false,"rental_uris":{"android":"levelo://app?vid=909cae9d-5222-473b-aef5-d47a9de17fb2","ios":"levelo://app?vid=909cae9d-5222-473b-aef5-d47a9de17fb2"},"vehicle_type_id":"4","last_reported":1777059792,"current_range_meters":8400,"station_id":"","pricing_plan_id":"cebpf4jnsgd1na2vs0mg"},{"bike_id":"05483cf0-c1ae-4465-a083-0bc3c7400548","system_id":"levelo_inurba_marseille","lat":43.27703,"lon":5.38845,"is_reserved":false,"is_disabled":true,"rental_uris":{"android":"levelo://app?vid=05483cf0-c1ae-4465-a083-0bc3c7400548","ios":"levelo://app?vid=05483cf0-c1ae-4465-a083-0bc3c7400548"},"vehicle_type_id":"4","last_reported":1777059792,"current_range_meters":8400,"station_id":"ce4bhi12rcd13ifvqfo0","pricing_plan_id":"cebpf4jnsgd1na2vs0mg"},{"bike_id":"ddef2dd6-6243-43e9-8e3f-d1a8299bf8e2","system_id":"levelo_inurba_marseille","lat":43.29516,"lon":5.38528,"is_reserved":false,"is_disabled":false,"rental_uris":{"android":"levelo://app?vid=ddef2dd6-6243-43e9-8e3f-d1a8299bf8e2","ios":"levelo://app?vid=ddef2dd6-6243-43e9-8e3f-d1a8299bf8e2"},"vehicle_type_id":"4","last_reported":1777059792,"current_range_meters":8400,"station_id":"ce4bgih2rcd13ifvqba0","pricing_plan_id":"cebpf4jnsgd1na2vs0mg"},{"bike_id":"a8b7eaa1-6f34-431e-a84f-354312f1ae3a","system_id":"levelo_inurba_marseille","lat":43.2408,"lon":5.37773,"is_reserved":false,"is_disabled":false,"rental_uris":{"android":"levelo://app?vid=a8b7eaa1-6f34-431e-a84f-354312f1ae3a","ios":"levelo://app?vid=a8b7eaa1-6f34-431e-a84f-354312f1ae3a"},"vehicle_type_id":"4","last_reported":1777059792,"current_range_meters":8400,"station_id":"ce4bhnp2rcd13ifvqgvg","pricing_plan_id":"cebpf4jnsgd1na2vs0mg"},{"bike_id":"8b8b5db3-e95a-497f-b84a-b89a12682ca4","system_id":"levelo_inurba_marseille","lat":43.29829,"lon":5.44046,"is_reserved":false,"is_disabled":false,"rental_uris":{"android":"levelo://app?vid=8b8b5db3-e95a-497f-b84a-b89a12682ca4","ios":"levelo://app?vid=8b8b5db3-e95a-497f-b84a-b89a12682ca4"},"vehicle_type_id":"4","last_reported":1777059792,"current_range_meters":8400,"station_id":"st_d3jp68qikq2c7381ktn0","pricing_plan_id":"cebpf4jnsgd1na2vs0mg"},{"bike_id":"b000728b-1637-4a4e-ae71-291f2ae04e19","system_id":"levelo_inurba_marseille","lat":43.28887,"lon":5.39995,"is_reserved":false,"is_disabled":false,"rental_uris":{"android":"levelo://app?vid=b000728b-1637-4a4e-ae71-291f2ae04e19","ios":"levelo://app?vid=b000728b-1637-4a4e-ae71-291f2ae04e19"},"vehicle_type_id":"4","last_reported":1777059792,"current_range_meters":8400,"station_id":"","pricing_plan_id":"cebpf4jnsgd1na2vs0mg"},{"bike_id":"973940ce-e545-4d71-9396-486542a3f8e7","system_id":"levelo_inurba_marseille","lat":43.28626,"lon":5.35103,"is_reserved":false,"is_disabled":false,"rental_uris":{"android":"levelo://app?vid=973940ce-e545-4d71-9396-486542a3f8e7","ios":"levelo://app?vid=973940ce-e545-4d71-9396-486542a3f8e7"},"vehicle_type_id":"4","last_reported":1777059792,"current_range_meters":8400,"station_id":"ce4bhch2rcd13ifvqeug","pricing_plan_id":"cebpf4jnsgd1na2vs0mg"},{"bike_id":"261b4d20-3fce-4a9a-b1df-f7d9447249df","system_id":"levelo_inurba_marseille","lat":43.28472,"lon":5.48409,"is_reserved":false,"is_disabled":false,"rental_uris":{"android":"levelo://app?vid=261b4d20-3fce-4a9a-b1df-f7d9447249df","ios":"levelo://app?vid=261b4d20-3fce-4a9a-b1df-f7d9447249df"},"vehicle_type_id":"4","last_reported":1777059792,"current_range_meters":8400,"station_id":"st_d3svhcjqgbts73a3dn0g","pricing_plan_id":"cebpf4jnsgd1na2vs0mg"},{"bike_id":"b283fd5f-1458-40ff-848e-28f9c48db2a9","system_id":"levelo_inurba_marseille","lat":43.29437,"lon":5.3973,"is_reserved":false,"is_disabled":false,"rental_uris":{"android":"levelo://app?vid=b283fd5f-1458-40ff-848e-28f9c48db2a9","ios":"levelo://app?vid=b283fd5f-1458-40ff-848e-28f9c48db2a9"},"vehicle_type_id":"4","last_reported":1777059792,"current_range_meters":8400,"station_id":"ce4bh3h2rcd13ifvqdo0","pricing_plan_id":"cebpf4jnsgd1na2vs0mg"},{"bike_id":"75a682ee-b43a-49a5-a92f-41f2c40445d1","system_id":"levelo_inurba_marseille","lat":43.27928,"lon":5.41062,"is_reserved":false,"is_disabled":false,"rental_uris":{"android":"levelo://app?vid=75a682ee-b43a-49a5-a92f-41f2c40445d1","ios":"levelo://app?vid=75a682ee-b43a-49a5-a92f-41f2c40445d1"},"vehicle_type_id":"4","last_reported":1777059792,"current_range_meters":8400,"station_id":"ce4bhnp2rcd13ifvqh0g","pricing_plan_id":"cebpf4jnsgd1na2vs0mg"},{"bike_id":"7a69ea77-881a-4771-9115-4df032584bb0","system_id":"levelo_inurba_marseille","lat":43.28692,"lon":5.37418,"is_reserved":false,"is_disabled":false,"rental_uris":{"android":"levelo://app?vid=7a69ea77-881a-4771-9115-4df032584bb0","ios":"levelo://app?vid=7a69ea77-881a-4771-9115-4df032584bb0"},"vehicle_type_id":"4","last_reported":1777059792,"current_range_meters":8400,"station_id":"ce4bh3p2rcd13ifvqdq0","pricing_plan_id":"cebpf4jnsgd1na2vs0mg"},{"bike_id":"ade02f80-485a-4c7f-905d-6ce91ea21403","system_id":"levelo_inurba_marseille","lat":43.28935,"lon":5.36401,"is_reserved":false,"is_disabled":false,"rental_uris":{"android":"levelo://app?vid=ade02f80-485a-4c7f-905d-6ce91ea21403","ios":"levelo://app?vid=ade02f80-485a-4c7f-905d-6ce91ea21403"},"vehicle_type_id":"4","last_reported":1777059792,"current_range_meters":8400,"station_id":"ce4bhc92rcd13ifvqetg","pricing_plan_id":"cebpf4jnsgd1na2vs0mg"},{"bike_id":"63131830-f21d-48cf-a095-6475b04a1b6b","system_id":"levelo_inurba_marseille","lat":43.29437,"lon":5.39743,"is_reserved":false,"is_disabled":false,"rental_uris":{"android":"levelo://app?vid=63131830-f21d-48cf-a095-6475b04a1b6b","ios":"levelo://app?vid=63131830-f21d-48cf-a095-6475b04a1b6b"},"vehicle_type_id":"4","last_reported":1777059792,"current_range_meters":8400,"station_id":"ce4bh3h2rcd13ifvqdo0","pricing_plan_id":"cebpf4jnsgd1na2vs0mg"},{"bike_id":"4ce71f71-1a28-4592-bd5c-1940ff667306","system_id":"levelo_inurba_marseille","lat":43.30893,"lon":5.36864,"is_reserved":false,"is_disabled":false,"rental_uris":{"android":"levelo://app?vid=4ce71f71-1a28-4592-bd5c-1940ff667306","ios":"levelo://app?vid=4ce71f71-1a28-4592-bd5c-1940ff667306"},"vehicle_type_id":"4","last_reported":1777059792,"current_range_meters":8800,"station_id":"ce4bgn92rcd13ifvqbvg","pricing_plan_id":"cebpf4jnsgd1na2vs0mg"},{"bike_id":"6a382a26-93df-4b4f-99b6-0161544321ed","system_id":"levelo_inurba_marseille","lat":43.28304,"lon":5.35082,"is_reserved":false,"is_disabled":true,"rental_uris":{"android":"levelo://app?vid=6a382a26-93df-4b4f-99b6-0161544321ed","ios":"levelo://app?vid=6a382a26-93df-4b4f-99b6-0161544321ed"},"vehicle_type_id":"4","last_reported":1777059792,"current_range_meters":8800,"station_id":"ce4bhbp2rcd13ifvqerg","pricing_plan_id":"cebpf4jnsgd1na2vs0mg"},{"bike_id":"0ce641a1-ca62-4f05-b894-4a72f77b98f2","system_id":"levelo_inurba_marseille","lat":43.32393,"lon":5.36681,"is_reserved":false,"is_disabled":false,"rental_uris":{"android":"levelo://app?vid=0ce641a1-ca62-4f05-b894-4a72f77b98f2","ios":"levelo://app?vid=0ce641a1-ca62-4f05-b894-4a72f77b98f2"},"vehicle_type_id":"4","last_reported":1777059792,"current_range_meters":8800,"station_id":"","pricing_plan_id":"cebpf4jnsgd1na2vs0mg"},{"bike_id":"4e7f60dc-2079-4f51-9d09-01d31cdd2f9b","system_id":"levelo_inurba_marseille","lat":43.24634,"lon":5.4314,"is_reserved":false,"is_disabled":false,"rental_uris":{"android":"levelo://app?vid=4e7f60dc-2079-4f51-9d09-01d31cdd2f9b","ios":"levelo://app?vid=4e7f60dc-2079-4f51-9d09-01d31cdd2f9b"},"vehicle_type_id":"4","last_reported":1777059792,"current_range_meters":8800,"station_id":"st_d2m6c4gdas8pm72e190g","pricing_plan_id":"cebpf4jnsgd1na2vs0mg"},{"bike_id":"c27c14c5-d60c-48fb-84ce-ac2a5ae3f6eb","system_id":"levelo_inurba_marseille","lat":43.28637,"lon":5.35092,"is_reserved":false,"is_disabled":false,"rental_uris":{"android":"levelo://app?vid=c27c14c5-d60c-48fb-84ce-ac2a5ae3f6eb","ios":"levelo://app?vid=c27c14c5-d60c-48fb-84ce-ac2a5ae3f6eb"},"vehicle_type_id":"4","last_reported":1777059792,"current_range_meters":8800,"station_id":"ce4bhch2rcd13ifvqeug","pricing_plan_id":"cebpf4jnsgd1na2vs0mg"},{"bike_id":"59f48208-4eb0-401a-bc03-cd5be5cad306","system_id":"levelo_inurba_marseille","lat":43.268024,"lon":5.402782,"is_reserved":false,"is_disabled":false,"rental_uris":{"android":"levelo://app?vid=59f48208-4eb0-401a-bc03-cd5be5cad306","ios":"levelo://app?vid=59f48208-4eb0-401a-bc03-cd5be5cad306"},"vehicle_type_id":"4","last_reported":1777059792,"current_range_meters":8800,"station_id":"ce501612rcd8frsf0b60","pricing_plan_id":"cebpf4jnsgd1na2vs0mg"},{"bike_id":"438ef943-6365-44b4-889f-44915622d8c6","system_id":"levelo_inurba_marseille","lat":43.31118,"lon":5.37756,"is_reserved":false,"is_disabled":false,"rental_uris":{"android":"levelo://app?vid=438ef943-6365-44b4-889f-44915622d8c6","ios":"levelo://app?vid=438ef943-6365-44b4-889f-44915622d8c6"},"vehicle_type_id":"4","last_reported":1777059792,"current_range_meters":8800,"station_id":"ce4bgt92rcd13ifvqcg0","pricing_plan_id":"cebpf4jnsgd1na2vs0mg"},{"bike_id":"1d368fe1-0c8f-4a40-864c-b54082c58fa1","system_id":"levelo_inurba_marseille","lat":43.33536,"lon":5.37458,"is_reserved":false,"is_disabled":false,"rental_uris":{"android":"levelo://app?vid=1d368fe1-0c8f-4a40-864c-b54082c58fa1","ios":"levelo://app?vid=1d368fe1-0c8f-4a40-864c-b54082c58fa1"},"vehicle_type_id":"4","last_reported":1777059792,"current_range_meters":8800,"station_id":"st_d46tts09ee8s73dlu43g","pricing_plan_id":"cebpf4jnsgd1na2vs0mg"},{"bike_id":"15f36b0e-6f5e-405f-a52c-15b8f33605e6","system_id":"levelo_inurba_marseille","lat":43.270401,"lon":5.387338,"is_reserved":false,"is_disabled":false,"rental_uris":{"android":"levelo://app?vid=15f36b0e-6f5e-405f-a52c-15b8f33605e6","ios":"levelo://app?vid=15f36b0e-6f5e-405f-a52c-15b8f33605e6"},"vehicle_type_id":"4","last_reported":1777059792,"current_range_meters":8800,"station_id":"ce4bhh92rcd13ifvqfh0","pricing_plan_id":"cebpf4jnsgd1na2vs0mg"},{"bike_id":"7fa87b61-11e7-4868-9780-860d1b684f07","system_id":"levelo_inurba_marseille","lat":43.28081,"lon":5.39651,"is_reserved":false,"is_disabled":false,"rental_uris":{"android":"levelo://app?vid=7fa87b61-11e7-4868-9780-860d1b684f07","ios":"levelo://app?vid=7fa87b61-11e7-4868-9780-860d1b684f07"},"vehicle_type_id":"4","last_reported":1777059792,"current_range_meters":8800,"station_id":"ce4bho12rcd13ifvqh2g","pricing_plan_id":"cebpf4jnsgd1na2vs0mg"},{"bike_id":"851295c3-468d-4148-95d8-ad52f26696d5","system_id":"levelo_inurba_marseille","lat":43.24158,"lon":5.3641,"is_reserved":false,"is_disabled":false,"rental_uris":{"android":"levelo://app?vid=851295c3-468d-4148-95d8-ad52f26696d5","ios":"levelo://app?vid=851295c3-468d-4148-95d8-ad52f26696d5"},"vehicle_type_id":"4","last_reported":1777059792,"current_range_meters":8800,"station_id":"cpo36qri1sfpv3e86is0","pricing_plan_id":"cebpf4jnsgd1na2vs0mg"},{"bike_id":"5e255dd5-743a-434d-815c-738436cca911","system_id":"levelo_inurba_marseille","lat":43.24663,"lon":5.38151,"is_reserved":false,"is_disabled":false,"rental_uris":{"android":"levelo://app?vid=5e255dd5-743a-434d-815c-738436cca911","ios":"levelo://app?vid=5e255dd5-743a-434d-815c-738436cca911"},"vehicle_type_id":"4","last_reported":1777059792,"current_range_meters":8800,"station_id":"ce4bhih2rcd13ifvqfr0","pricing_plan_id":"cebpf4jnsgd1na2vs0mg"},{"bike_id":"61537e0b-fb61-480f-8274-9eae9f38cb80","system_id":"levelo_inurba_marseille","lat":43.299679,"lon":5.385081,"is_reserved":false,"is_disabled":false,"rental_uris":{"android":"levelo://app?vid=61537e0b-fb61-480f-8274-9eae9f38cb80","ios":"levelo://app?vid=61537e0b-fb61-480f-8274-9eae9f38cb80"},"vehicle_type_id":"4","last_reported":1777059792,"current_range_meters":8800,"station_id":"ce4bgj92rcd13ifvqbd0","pricing_plan_id":"cebpf4jnsgd1na2vs0mg"},{"bike_id":"48725464-dbb6-451e-b66b-16552dc7c5db","system_id":"levelo_inurba_marseille","lat":43.29449,"lon":5.3745,"is_reserved":false,"is_disabled":false,"rental_uris":{"android":"levelo://app?vid=48725464-dbb6-451e-b66b-16552dc7c5db","ios":"levelo://app?vid=48725464-dbb6-451e-b66b-16552dc7c5db"},"vehicle_type_id":"4","last_reported":1777059792,"current_range_meters":8800,"station_id":"","pricing_plan_id":"cebpf4jnsgd1na2vs0mg"},{"bike_id":"4d5b4915-5fc0-4782-a3a4-e445cc2cf470","system_id":"levelo_inurba_marseille","lat":43.29871,"lon":5.42101,"is_reserved":false,"is_disabled":false,"rental_uris":{"android":"levelo://app?vid=4d5b4915-5fc0-4782-a3a4-e445cc2cf470","ios":"levelo://app?vid=4d5b4915-5fc0-4782-a3a4-e445cc2cf470"},"vehicle_type_id":"4","last_reported":1777059792,"current_range_meters":8800,"station_id":"st_d6tc004otcvc738tfe70","pricing_plan_id":"cebpf4jnsgd1na2vs0mg"},{"bike_id":"2d0d8cfa-1a1b-4384-821d-ac73d9150238","system_id":"levelo_inurba_marseille","lat":43.29023,"lon":5.38633,"is_reserved":false,"is_disabled":false,"rental_uris":{"android":"levelo://app?vid=2d0d8cfa-1a1b-4384-821d-ac73d9150238","ios":"levelo://app?vid=2d0d8cfa-1a1b-4384-821d-ac73d9150238"},"vehicle_type_id":"4","last_reported":1777059792,"current_range_meters":8800,"station_id":"ce4bh4p2rcd13ifvqe0g","pricing_plan_id":"cebpf4jnsgd1na2vs0mg"},{"bike_id":"d45cb37b-6ea6-49f7-8ce4-0a992f339285","system_id":"levelo_inurba_marseille","lat":43.31129,"lon":5.38579,"is_reserved":false,"is_disabled":false,"rental_uris":{"android":"levelo://app?vid=d45cb37b-6ea6-49f7-8ce4-0a992f339285","ios":"levelo://app?vid=d45cb37b-6ea6-49f7-8ce4-0a992f339285"},"vehicle_type_id":"4","last_reported":1777059792,"current_range_meters":8800,"station_id":"","pricing_plan_id":"cebpf4jnsgd1na2vs0mg"},{"bike_id":"92aa62cf-f128-49f7-9b7e-a1b28669bee8","system_id":"levelo_inurba_marseille","lat":43.2465,"lon":5.38155,"is_reserved":false,"is_disabled":false,"rental_uris":{"android":"levelo://app?vid=92aa62cf-f128-49f7-9b7e-a1b28669bee8","ios":"levelo://app?vid=92aa62cf-f128-49f7-9b7e-a1b28669bee8"},"vehicle_type_id":"4","last_reported":1777059792,"current_range_meters":8800,"station_id":"ce4bhih2rcd13ifvqfr0","pricing_plan_id":"cebpf4jnsgd1na2vs0mg"},{"bike_id":"80918275-e8a2-4166-b037-a54c0800b365","system_id":"levelo_inurba_marseille","lat":43.26955,"lon":5.38634,"is_reserved":false,"is_disabled":false,"rental_uris":{"android":"levelo://app?vid=80918275-e8a2-4166-b037-a54c0800b365","ios":"levelo://app?vid=80918275-e8a2-4166-b037-a54c0800b365"},"vehicle_type_id":"4","last_reported":1777059792,"current_range_meters":8800,"station_id":"ce4bhh92rcd13ifvqfh0","pricing_plan_id":"cebpf4jnsgd1na2vs0mg"},{"bike_id":"5091d3df-140a-4a96-ba1e-f44ab742c57b","system_id":"levelo_inurba_marseille","lat":43.23168,"lon":5.40005,"is_reserved":false,"is_disabled":true,"rental_uris":{"android":"levelo://app?vid=5091d3df-140a-4a96-ba1e-f44ab742c57b","ios":"levelo://app?vid=5091d3df-140a-4a96-ba1e-f44ab742c57b"},"vehicle_type_id":"4","last_reported":1777059792,"current_range_meters":8800,"station_id":"ce4bhn12rcd13ifvqgqg","pricing_plan_id":"cebpf4jnsgd1na2vs0mg"},{"bike_id":"ebf4bd81-18d0-4300-ba98-4ecb924642b0","system_id":"levelo_inurba_marseille","lat":43.26779,"lon":5.38418,"is_reserved":false,"is_disabled":false,"rental_uris":{"android":"levelo://app?vid=ebf4bd81-18d0-4300-ba98-4ecb924642b0","ios":"levelo://app?vid=ebf4bd81-18d0-4300-ba98-4ecb924642b0"},"vehicle_type_id":"4","last_reported":1777059792,"current_range_meters":8800,"station_id":"","pricing_plan_id":"cebpf4jnsgd1na2vs0mg"},{"bike_id":"3a4c01f4-403d-4e43-9b94-4f7c3c869903","system_id":"levelo_inurba_marseille","lat":43.31235,"lon":5.3687,"is_reserved":false,"is_disabled":false,"rental_uris":{"android":"levelo://app?vid=3a4c01f4-403d-4e43-9b94-4f7c3c869903","ios":"levelo://app?vid=3a4c01f4-403d-4e43-9b94-4f7c3c869903"},"vehicle_type_id":"4","last_reported":1777059792,"current_range_meters":8800,"station_id":"ce4bgl92rcd13ifvqbq0","pricing_plan_id":"cebpf4jnsgd1na2vs0mg"},{"bike_id":"fd30c586-b0b0-4b6f-bfd3-806b5d051fce","system_id":"levelo_inurba_marseille","lat":43.29791,"lon":5.3811,"is_reserved":false,"is_disabled":false,"rental_uris":{"android":"levelo://app?vid=fd30c586-b0b0-4b6f-bfd3-806b5d051fce","ios":"levelo://app?vid=fd30c586-b0b0-4b6f-bfd3-806b5d051fce"},"vehicle_type_id":"4","last_reported":1777059792,"current_range_meters":8800,"station_id":"ce4bgip2rcd13ifvqbb0","pricing_plan_id":"cebpf4jnsgd1na2vs0mg"},{"bike_id":"15f5d563-3377-470f-b622-305c84fcc1d5","system_id":"levelo_inurba_marseille","lat":43.29257,"lon":5.3762,"is_reserved":false,"is_disabled":false,"rental_uris":{"android":"levelo://app?vid=15f5d563-3377-470f-b622-305c84fcc1d5","ios":"levelo://app?vid=15f5d563-3377-470f-b622-305c84fcc1d5"},"vehicle_type_id":"4","last_reported":1777059792,"current_range_meters":8800,"station_id":"ce4bgi12rcd13ifvqb80","pricing_plan_id":"cebpf4jnsgd1na2vs0mg"},{"bike_id":"57ec443c-17dc-48a4-897f-17260d6e713b","system_id":"levelo_inurba_marseille","lat":43.29969,"lon":5.38518,"is_reserved":false,"is_disabled":false,"rental_uris":{"android":"levelo://app?vid=57ec443c-17dc-48a4-897f-17260d6e713b","ios":"levelo://app?vid=57ec443c-17dc-48a4-897f-17260d6e713b"},"vehicle_type_id":"4","last_reported":1777059792,"current_range_meters":9200,"station_id":"ce4bgj92rcd13ifvqbd0","pricing_plan_id":"cebpf4jnsgd1na2vs0mg"},{"bike_id":"c88bc297-b2dd-4311-bf53-1d6b1fc22b29","system_id":"levelo_inurba_marseille","lat":43.28946,"lon":5.36398,"is_reserved":false,"is_disabled":false,"rental_uris":{"android":"levelo://app?vid=c88bc297-b2dd-4311-bf53-1d6b1fc22b29","ios":"levelo://app?vid=c88bc297-b2dd-4311-bf53-1d6b1fc22b29"},"vehicle_type_id":"4","last_reported":1777059792,"current_range_meters":9200,"station_id":"ce4bhc92rcd13ifvqetg","pricing_plan_id":"cebpf4jnsgd1na2vs0mg"},{"bike_id":"e823ebc2-0ba4-4a28-8e44-b1a52b2626ca","system_id":"levelo_inurba_marseille","lat":43.28861,"lon":5.37677,"is_reserved":false,"is_disabled":false,"rental_uris":{"android":"levelo://app?vid=e823ebc2-0ba4-4a28-8e44-b1a52b2626ca","ios":"levelo://app?vid=e823ebc2-0ba4-4a28-8e44-b1a52b2626ca"},"vehicle_type_id":"4","last_reported":1777059792,"current_range_meters":9200,"station_id":"","pricing_plan_id":"cebpf4jnsgd1na2vs0mg"},{"bike_id":"517b465b-1cbe-47c0-8062-1f1f68f9139f","system_id":"levelo_inurba_marseille","lat":43.23205,"lon":5.35561,"is_reserved":false,"is_disabled":false,"rental_uris":{"android":"levelo://app?vid=517b465b-1cbe-47c0-8062-1f1f68f9139f","ios":"levelo://app?vid=517b465b-1cbe-47c0-8062-1f1f68f9139f"},"vehicle_type_id":"4","last_reported":1777059792,"current_range_meters":9200,"station_id":"ce4bhu92rcd13ifvqi70","pricing_plan_id":"cebpf4jnsgd1na2vs0mg"},{"bike_id":"bdae5112-53af-4a7b-a92d-ba3c89aa9aa3","system_id":"levelo_inurba_marseille","lat":43.29532,"lon":5.38526,"is_reserved":false,"is_disabled":false,"rental_uris":{"android":"levelo://app?vid=bdae5112-53af-4a7b-a92d-ba3c89aa9aa3","ios":"levelo://app?vid=bdae5112-53af-4a7b-a92d-ba3c89aa9aa3"},"vehicle_type_id":"4","last_reported":1777059792,"current_range_meters":9200,"station_id":"ce4bgih2rcd13ifvqba0","pricing_plan_id":"cebpf4jnsgd1na2vs0mg"},{"bike_id":"e6975b40-ab38-438c-8a87-d704956c4d5a","system_id":"levelo_inurba_marseille","lat":43.29673,"lon":5.37299,"is_reserved":false,"is_disabled":false,"rental_uris":{"android":"levelo://app?vid=e6975b40-ab38-438c-8a87-d704956c4d5a","ios":"levelo://app?vid=e6975b40-ab38-438c-8a87-d704956c4d5a"},"vehicle_type_id":"4","last_reported":1777059792,"current_range_meters":9200,"station_id":"ce4bgk12rcd13ifvqbj0","pricing_plan_id":"cebpf4jnsgd1na2vs0mg"},{"bike_id":"2150e900-bc36-4714-8063-0320eae925a9","system_id":"levelo_inurba_marseille","lat":43.23962,"lon":5.36625,"is_reserved":false,"is_disabled":false,"rental_uris":{"android":"levelo://app?vid=2150e900-bc36-4714-8063-0320eae925a9","ios":"levelo://app?vid=2150e900-bc36-4714-8063-0320eae925a9"},"vehicle_type_id":"4","last_reported":1777059792,"current_range_meters":9200,"station_id":"ce4bhi12rcd13ifvqfp0","pricing_plan_id":"cebpf4jnsgd1na2vs0mg"},{"bike_id":"40f3f475-eb88-4c37-9cce-0198a0dada9d","system_id":"levelo_inurba_marseille","lat":43.31373,"lon":5.38491,"is_reserved":false,"is_disabled":false,"rental_uris":{"android":"levelo://app?vid=40f3f475-eb88-4c37-9cce-0198a0dada9d","ios":"levelo://app?vid=40f3f475-eb88-4c37-9cce-0198a0dada9d"},"vehicle_type_id":"4","last_reported":1777059792,"current_range_meters":9200,"station_id":"ce4bgt92rcd13ifvqcf0","pricing_plan_id":"cebpf4jnsgd1na2vs0mg"},{"bike_id":"209a1e0e-3362-4edd-96ea-0b3dd24da529","system_id":"levelo_inurba_marseille","lat":43.23964,"lon":5.36636,"is_reserved":false,"is_disabled":false,"rental_uris":{"android":"levelo://app?vid=209a1e0e-3362-4edd-96ea-0b3dd24da529","ios":"levelo://app?vid=209a1e0e-3362-4edd-96ea-0b3dd24da529"},"vehicle_type_id":"4","last_reported":1777059792,"current_range_meters":9200,"station_id":"ce4bhi12rcd13ifvqfp0","pricing_plan_id":"cebpf4jnsgd1na2vs0mg"},{"bike_id":"30f3eb60-f173-472f-8a94-153bd61e2bbb","system_id":"levelo_inurba_marseille","lat":43.28618,"lon":5.35111,"is_reserved":false,"is_disabled":false,"rental_uris":{"android":"levelo://app?vid=30f3eb60-f173-472f-8a94-153bd61e2bbb","ios":"levelo://app?vid=30f3eb60-f173-472f-8a94-153bd61e2bbb"},"vehicle_type_id":"4","last_reported":1777059792,"current_range_meters":9200,"station_id":"ce4bhch2rcd13ifvqeug","pricing_plan_id":"cebpf4jnsgd1na2vs0mg"},{"bike_id":"541dbded-315f-4ca8-ac49-47fcb4294bb7","system_id":"levelo_inurba_marseille","lat":43.33464,"lon":5.37472,"is_reserved":false,"is_disabled":false,"rental_uris":{"android":"levelo://app?vid=541dbded-315f-4ca8-ac49-47fcb4294bb7","ios":"levelo://app?vid=541dbded-315f-4ca8-ac49-47fcb4294bb7"},"vehicle_type_id":"4","last_reported":1777059792,"current_range_meters":9200,"station_id":"st_d46tts09ee8s73dlu43g","pricing_plan_id":"cebpf4jnsgd1na2vs0mg"},{"bike_id":"d5e2cb25-ab04-42d4-bc2e-9bf753ff6c1e","system_id":"levelo_inurba_marseille","lat":43.29789,"lon":5.38093,"is_reserved":false,"is_disabled":false,"rental_uris":{"android":"levelo://app?vid=d5e2cb25-ab04-42d4-bc2e-9bf753ff6c1e","ios":"levelo://app?vid=d5e2cb25-ab04-42d4-bc2e-9bf753ff6c1e"},"vehicle_type_id":"4","last_reported":1777059792,"current_range_meters":9200,"station_id":"ce4bgip2rcd13ifvqbb0","pricing_plan_id":"cebpf4jnsgd1na2vs0mg"},{"bike_id":"29b991e9-102f-4f6e-9f11-956c772d9182","system_id":"levelo_inurba_marseille","lat":43.29536,"lon":5.38136,"is_reserved":false,"is_disabled":false,"rental_uris":{"android":"levelo://app?vid=29b991e9-102f-4f6e-9f11-956c772d9182","ios":"levelo://app?vid=29b991e9-102f-4f6e-9f11-956c772d9182"},"vehicle_type_id":"4","last_reported":1777059792,"current_range_meters":9200,"station_id":"","pricing_plan_id":"cebpf4jnsgd1na2vs0mg"},{"bike_id":"39729f61-9713-4954-8126-8a79b667f08e","system_id":"levelo_inurba_marseille","lat":43.27959,"lon":5.38712,"is_reserved":false,"is_disabled":false,"rental_uris":{"android":"levelo://app?vid=39729f61-9713-4954-8126-8a79b667f08e","ios":"levelo://app?vid=39729f61-9713-4954-8126-8a79b667f08e"},"vehicle_type_id":"4","last_reported":1777059792,"current_range_meters":9200,"station_id":"ce4bhg12rcd13ifvqf80","pricing_plan_id":"cebpf4jnsgd1na2vs0mg"},{"bike_id":"915f3511-b21b-4a84-8018-3a43f6b1a303","system_id":"levelo_inurba_marseille","lat":43.27074,"lon":5.42282,"is_reserved":false,"is_disabled":false,"rental_uris":{"android":"levelo://app?vid=915f3511-b21b-4a84-8018-3a43f6b1a303","ios":"levelo://app?vid=915f3511-b21b-4a84-8018-3a43f6b1a303"},"vehicle_type_id":"4","last_reported":1777059792,"current_range_meters":9200,"station_id":"ce4bhk92rcd13ifvqgb0","pricing_plan_id":"cebpf4jnsgd1na2vs0mg"},{"bike_id":"80d34ee4-9695-41ba-bcd8-fb44ac5753a6","system_id":"levelo_inurba_marseille","lat":43.28556,"lon":5.44092,"is_reserved":false,"is_disabled":false,"rental_uris":{"android":"levelo://app?vid=80d34ee4-9695-41ba-bcd8-fb44ac5753a6","ios":"levelo://app?vid=80d34ee4-9695-41ba-bcd8-fb44ac5753a6"},