{"last_updated":1683828493,"ttl":30,"version":"2.2","data":{"bikes":[{"bike_id":"7ab9e8c2-f1d9-463f-b374-faf00b0a0eb5","system_id":"levelo_inurba_marseille","lat":43.31289,"lon":5.37052,"is_reserved":false,"is_disabled":false,"rental_uris":{"android":"levelo://app?vid=7ab9e8c2-f1d9-463f-b374-faf00b0a0eb5","ios":"levelo://app?vid=7ab9e8c2-f1d9-463f-b374-faf00b0a0eb5"},"vehicle_type_id":"4","last_reported":1683828494,"current_range_meters":7200,"station_id":"","pricing_plan_id":"free"},{"bike_id":"03e7b75b-4947-4eb2-80bb-93a1ad5206bb","system_id":"levelo_inurba_marseille","lat":43.305368,"lon":5.367343,"is_reserved":false,"is_disabled":false,"rental_uris":{"android":"levelo://app?vid=03e7b75b-4947-4eb2-80bb-93a1ad5206bb","ios":"levelo://app?vid=03e7b75b-4947-4eb2-80bb-93a1ad5206bb"},"vehicle_type_id":"4","last_reported":1683828494,"current_range_meters":0,"station_id":"ce4bgrp2rcd13ifvqc9g","pricing_plan_id":"free"},{"bike_id":"d9a25064-85dc-4503-8d37-0fbafb8b33fd","system_id":"levelo_inurba_marseille","lat":43.305989,"lon":5.37225,"is_reserved":false,"is_disabled":false,"rental_uris":{"android":"levelo://app?vid=d9a25064-85dc-4503-8d37-0fbafb8b33fd","ios":"levelo://app?vid=d9a25064-85dc-4503-8d37-0fbafb8b33fd"},"vehicle_type_id":"4","last_reported":1683828494,"current_range_meters":0,"station_id":"ce4bgqh2rcd13ifvqc4g","pricing_plan_id":"free"},{"bike_id":"a436e9d4-1155-488b-881e-0c6b85ea3e61","system_id":"levelo_inurba_marseille","lat":43.311131,"lon":5.377651,"is_reserved":false,"is_disabled":false,"rental_uris":{"android":"levelo://app?vid=a436e9d4-1155-488b-881e-0c6b85ea3e61","ios":"levelo://app?vid=a436e9d4-1155-488b-881e-0c6b85ea3e61"},"vehicle_type_id":"4","last_reported":1683828494,"current_range_meters":2000,"station_id":"ce4bgt92rcd13ifvqcg0","pricing_plan_id":"free"},{"bike_id":"d3ac7778-5b55-49d1-8991-9427c20b6f4e","system_id":"levelo_inurba_marseille","lat":43.311131,"lon":5.377651,"is_reserved":false,"is_disabled":false,"rental_uris":{"android":"levelo://app?vid=d3ac7778-5b55-49d1-8991-9427c20b6f4e","ios":"levelo://app?vid=d3ac7778-5b55-49d1-8991-9427c20b6f4e"},"vehicle_type_id":"4","last_reported":1683828494,"current_range_meters":14000,"station_id":"ce4bgt92rcd13ifvqcg0","pricing_plan_id":"free"},{"bike_id":"723e541b-b3b5-4705-b4a0-f4216dc1f63d","system_id":"levelo_inurba_marseille","lat":43.317075,"lon":5.377367,"is_reserved":false,"is_disabled":false,"rental_uris":{"android":"levelo://app?vid=723e541b-b3b5-4705-b4a0-f4216dc1f63d","ios":"levelo://app?vid=723e541b-b3b5-4705-b4a0-f4216dc1f63d"},"vehicle_type_id":"4","last_reported":1683828494,"current_range_meters":27600,"station_id":"ce4bgth2rcd13ifvqch0","pricing_plan_id":"free"},{"bike_id":"4221342e-76e5-4d7c-b575-209d85f4eb38","system_id":"levelo_inurba_marseille","lat":43.315289,"lon":5.380349,"is_reserved":false,"is_disabled":false,"rental_uris":{"android":"levelo://app?vid=4221342e-76e5-4d7c-b575-209d85f4eb38","ios":"levelo://app?vid=4221342e-76e5-4d7c-b575-209d85f4eb38"},"vehicle_type_id":"4","last_reported":1683828494,"current_range_meters":13200,"station_id":"ce4bhsp2rcd13ifvqi50","pricing_plan_id":"free"},{"bike_id":"6346b5c0-56e4-4e78-ba59-35beaf45fb91","system_id":"levelo_inurba_marseille","lat":43.315289,"lon":5.380349,"is_reserved":false,"is_disabled":false,"rental_uris":{"android":"levelo://app?vid=6346b5c0-56e4-4e78-ba59-35beaf45fb91","ios":"levelo://app?vid=6346b5c0-56e4-4e78-ba59-35beaf45fb91"},"vehicle_type_id":"4","last_reported":1683828494,"current_range_meters":12400,"station_id":"ce4bhsp2rcd13ifvqi50","pricing_plan_id":"free"},{"bike_id":"2c8475c0-1a43-4a99-81b1-26b2942d9b26","system_id":"levelo_inurba_marseille","lat":43.307963,"lon":5.381533,"is_reserved":false,"is_disabled":false,"rental_uris":{"android":"levelo://app?vid=2c8475c0-1a43-4a99-81b1-26b2942d9b26","ios":"levelo://app?vid=2c8475c0-1a43-4a99-81b1-26b2942d9b26"},"vehicle_type_id":"4","last_reported":1683828494,"current_range_meters":17600,"station_id":"ce4bgt12rcd13ifvqce0","pricing_plan_id":"free"},{"bike_id":"0173f322-e719-48da-9d6c-3820fa9de83f","system_id":"levelo_inurba_marseille","lat":43.31359,"lon":5.3849,"is_reserved":false,"is_disabled":false,"rental_uris":{"android":"levelo://app?vid=0173f322-e719-48da-9d6c-3820fa9de83f","ios":"levelo://app?vid=0173f322-e719-48da-9d6c-3820fa9de83f"},"vehicle_type_id":"4","last_reported":1683828494,"current_range_meters":0,"station_id":"ce4bgt92rcd13ifvqcf0","pricing_plan_id":"free"},{"bike_id":"8f9ca879-420d-4b6f-9ed6-56a221e33559","system_id":"levelo_inurba_marseille","lat":43.313571,"lon":5.384829,"is_reserved":false,"is_disabled":false,"rental_uris":{"android":"levelo://app?vid=8f9ca879-420d-4b6f-9ed6-56a221e33559","ios":"levelo://app?vid=8f9ca879-420d-4b6f-9ed6-56a221e33559"},"vehicle_type_id":"4","last_reported":1683828494,"current_range_meters":18800,"station_id":"ce4bgt92rcd13ifvqcf0","pricing_plan_id":"free"},{"bike_id":"1b6c118b-4a50-47ab-8648-8408902d5fcf","system_id":"levelo_inurba_marseille","lat":43.313571,"lon":5.384829,"is_reserved":false,"is_disabled":false,"rental_uris":{"android":"levelo://app?vid=1b6c118b-4a50-47ab-8648-8408902d5fcf","ios":"levelo://app?vid=1b6c118b-4a50-47ab-8648-8408902d5fcf"},"vehicle_type_id":"4","last_reported":1683828494,"current_range_meters":0,"station_id":"ce4bgt92rcd13ifvqcf0","pricing_plan_id":"free"},{"bike_id":"87f4f7a0-e835-4266-a6a6-6b76db8494eb","system_id":"levelo_inurba_marseille","lat":43.313571,"lon":5.384829,"is_reserved":false,"is_disabled":false,"rental_uris":{"android":"levelo://app?vid=87f4f7a0-e835-4266-a6a6-6b76db8494eb","ios":"levelo://app?vid=87f4f7a0-e835-4266-a6a6-6b76db8494eb"},"vehicle_type_id":"4","last_reported":1683828494,"current_range_meters":31600,"station_id":"ce4bgt92rcd13ifvqcf0","pricing_plan_id":"free"},{"bike_id":"1bfcdf5a-36f8-48b2-b9a5-9188d410d8db","system_id":"levelo_inurba_marseille","lat":43.29957,"lon":5.36541,"is_reserved":false,"is_disabled":false,"rental_uris":{"android":"levelo://app?vid=1bfcdf5a-36f8-48b2-b9a5-9188d410d8db","ios":"levelo://app?vid=1bfcdf5a-36f8-48b2-b9a5-9188d410d8db"},"vehicle_type_id":"4","last_reported":1683828494,"current_range_meters":2800,"station_id":"ce4bgm92rcd13ifvqbr0","pricing_plan_id":"free"},{"bike_id":"11355a26-ce04-4637-b186-e63c722271b4","system_id":"levelo_inurba_marseille","lat":43.31367,"lon":5.38518,"is_reserved":false,"is_disabled":false,"rental_uris":{"android":"levelo://app?vid=11355a26-ce04-4637-b186-e63c722271b4","ios":"levelo://app?vid=11355a26-ce04-4637-b186-e63c722271b4"},"vehicle_type_id":"4","last_reported":1683828494,"current_range_meters":14000,"station_id":"","pricing_plan_id":"free"},{"bike_id":"a501f3a9-421f-45e3-b94b-66cd2e47cdb5","system_id":"levelo_inurba_marseille","lat":43.299243,"lon":5.37481,"is_reserved":false,"is_disabled":false,"rental_uris":{"android":"levelo://app?vid=a501f3a9-421f-45e3-b94b-66cd2e47cdb5","ios":"levelo://app?vid=a501f3a9-421f-45e3-b94b-66cd2e47cdb5"},"vehicle_type_id":"4","last_reported":1683828494,"current_range_meters":20800,"station_id":"ce4bgjh2rcd13ifvqbg0","pricing_plan_id":"free"},{"bike_id":"0f4b5a65-b68f-4dc4-8580-f5e3fe1b8a7d","system_id":"levelo_inurba_marseille","lat":43.298433,"lon":5.362774,"is_reserved":false,"is_disabled":false,"rental_uris":{"android":"levelo://app?vid=0f4b5a65-b68f-4dc4-8580-f5e3fe1b8a7d","ios":"levelo://app?vid=0f4b5a65-b68f-4dc4-8580-f5e3fe1b8a7d"},"vehicle_type_id":"4","last_reported":1683828494,"current_range_meters":2400,"station_id":"ce4bgpp2rcd13ifvqc3g","pricing_plan_id":"free"},{"bike_id":"129e8e0f-e0e8-4f0b-ad30-3f1aba3cd7a8","system_id":"levelo_inurba_marseille","lat":43.305364,"lon":5.384119,"is_reserved":false,"is_disabled":false,"rental_uris":{"android":"levelo://app?vid=129e8e0f-e0e8-4f0b-ad30-3f1aba3cd7a8","ios":"levelo://app?vid=129e8e0f-e0e8-4f0b-ad30-3f1aba3cd7a8"},"vehicle_type_id":"4","last_reported":1683828494,"current_range_meters":28000,"station_id":"ce4bgg92rcd13ifvqb30","pricing_plan_id":"free"},{"bike_id":"7bdc0bd4-f90c-4edf-81be-64579f3e3e2a","system_id":"levelo_inurba_marseille","lat":43.299243,"lon":5.37481,"is_reserved":false,"is_disabled":false,"rental_uris":{"android":"levelo://app?vid=7bdc0bd4-f90c-4edf-81be-64579f3e3e2a","ios":"levelo://app?vid=7bdc0bd4-f90c-4edf-81be-64579f3e3e2a"},"vehicle_type_id":"4","last_reported":1683828494,"current_range_meters":4800,"station_id":"ce4bgjh2rcd13ifvqbg0","pricing_plan_id":"free"},{"bike_id":"4e9fb02e-8d07-4734-8b19-06bf3b6d9f04","system_id":"levelo_inurba_marseille","lat":43.311722,"lon":5.387247,"is_reserved":false,"is_disabled":false,"rental_uris":{"android":"levelo://app?vid=4e9fb02e-8d07-4734-8b19-06bf3b6d9f04","ios":"levelo://app?vid=4e9fb02e-8d07-4734-8b19-06bf3b6d9f04"},"vehicle_type_id":"4","last_reported":1683828494,"current_range_meters":22800,"station_id":"ce4bgv12rcd13ifvqcp0","pricing_plan_id":"free"},{"bike_id":"2f96f4b7-d3f1-4b87-b98f-caf50ba6d13d","system_id":"levelo_inurba_marseille","lat":43.32774,"lon":5.36699,"is_reserved":false,"is_disabled":false,"rental_uris":{"android":"levelo://app?vid=2f96f4b7-d3f1-4b87-b98f-caf50ba6d13d","ios":"levelo://app?vid=2f96f4b7-d3f1-4b87-b98f-caf50ba6d13d"},"vehicle_type_id":"4","last_reported":1683828494,"current_range_meters":19600,"station_id":"","pricing_plan_id":"free"},{"bike_id":"b1262093-6340-4ea8-b5dd-a5236523aa86","system_id":"levelo_inurba_marseille","lat":43.297832,"lon":5.371089,"is_reserved":false,"is_disabled":false,"rental_uris":{"android":"levelo://app?vid=b1262093-6340-4ea8-b5dd-a5236523aa86","ios":"levelo://app?vid=b1262093-6340-4ea8-b5dd-a5236523aa86"},"vehicle_type_id":"4","last_reported":1683828494,"current_range_meters":11200,"station_id":"","pricing_plan_id":"free"},{"bike_id":"9466398a-ab63-492b-a983-e43b41d0acd9","system_id":"levelo_inurba_marseille","lat":43.32832,"lon":5.36682,"is_reserved":false,"is_disabled":false,"rental_uris":{"android":"levelo://app?vid=9466398a-ab63-492b-a983-e43b41d0acd9","ios":"levelo://app?vid=9466398a-ab63-492b-a983-e43b41d0acd9"},"vehicle_type_id":"4","last_reported":1683828494,"current_range_meters":8800,"station_id":"ce4bhs92rcd13ifvqi0g","pricing_plan_id":"free"},{"bike_id":"afcb6986-356b-4859-8c29-ac34da7debef","system_id":"levelo_inurba_marseille","lat":43.32834,"lon":5.36677,"is_reserved":false,"is_disabled":false,"rental_uris":{"android":"levelo://app?vid=afcb6986-356b-4859-8c29-ac34da7debef","ios":"levelo://app?vid=afcb6986-356b-4859-8c29-ac34da7debef"},"vehicle_type_id":"4","last_reported":1683828494,"current_range_meters":23200,"station_id":"ce4bhs92rcd13ifvqi0g","pricing_plan_id":"free"},{"bike_id":"a43bb755-57b3-4dca-9972-7e70c5be6ed9","system_id":"levelo_inurba_marseille","lat":43.32835,"lon":5.36677,"is_reserved":false,"is_disabled":false,"rental_uris":{"android":"levelo://app?vid=a43bb755-57b3-4dca-9972-7e70c5be6ed9","ios":"levelo://app?vid=a43bb755-57b3-4dca-9972-7e70c5be6ed9"},"vehicle_type_id":"4","last_reported":1683828494,"current_range_meters":10400,"station_id":"ce4bhs92rcd13ifvqi0g","pricing_plan_id":"free"},{"bike_id":"2be82f79-e3a2-4567-8fca-bd9d15afdecb","system_id":"levelo_inurba_marseille","lat":43.32838,"lon":5.36694,"is_reserved":false,"is_disabled":false,"rental_uris":{"android":"levelo://app?vid=2be82f79-e3a2-4567-8fca-bd9d15afdecb","ios":"levelo://app?vid=2be82f79-e3a2-4567-8fca-bd9d15afdecb"},"vehicle_type_id":"4","last_reported":1683828494,"current_range_meters":24000,"station_id":"ce4bhs92rcd13ifvqi0g","pricing_plan_id":"free"},{"bike_id":"b4b5d2f8-79bb-4164-9d73-764bd2366590","system_id":"levelo_inurba_marseille","lat":43.32839,"lon":5.36679,"is_reserved":false,"is_disabled":false,"rental_uris":{"android":"levelo://app?vid=b4b5d2f8-79bb-4164-9d73-764bd2366590","ios":"levelo://app?vid=b4b5d2f8-79bb-4164-9d73-764bd2366590"},"vehicle_type_id":"4","last_reported":1683828494,"current_range_meters":0,"station_id":"ce4bhs92rcd13ifvqi0g","pricing_plan_id":"free"},{"bike_id":"8de187a8-1d8c-4396-beb9-cb6032030250","system_id":"levelo_inurba_marseille","lat":43.290624,"lon":5.359245,"is_reserved":false,"is_disabled":false,"rental_uris":{"android":"levelo://app?vid=8de187a8-1d8c-4396-beb9-cb6032030250","ios":"levelo://app?vid=8de187a8-1d8c-4396-beb9-cb6032030250"},"vehicle_type_id":"4","last_reported":1683828494,"current_range_meters":23600,"station_id":"ce4bha92rcd13ifvqeg0","pricing_plan_id":"free"},{"bike_id":"9db086e2-c5f4-4246-bfe3-5cd54baed79f","system_id":"levelo_inurba_marseille","lat":43.31761,"lon":5.39013,"is_reserved":false,"is_disabled":false,"rental_uris":{"android":"levelo://app?vid=9db086e2-c5f4-4246-bfe3-5cd54baed79f","ios":"levelo://app?vid=9db086e2-c5f4-4246-bfe3-5cd54baed79f"},"vehicle_type_id":"4","last_reported":1683828494,"current_range_meters":25200,"station_id":"ce4bhqp2rcd13ifvqhng","pricing_plan_id":"free"},{"bike_id":"18247572-db94-47e1-9692-beac11a93a7b","system_id":"levelo_inurba_marseille","lat":43.317557,"lon":5.390173,"is_reserved":false,"is_disabled":false,"rental_uris":{"android":"levelo://app?vid=18247572-db94-47e1-9692-beac11a93a7b","ios":"levelo://app?vid=18247572-db94-47e1-9692-beac11a93a7b"},"vehicle_type_id":"4","last_reported":1683828494,"current_range_meters":3200,"station_id":"ce4bhqp2rcd13ifvqhng","pricing_plan_id":"free"},{"bike_id":"2d7ddae0-75c5-4f27-bb77-758cf5ca3c9f","system_id":"levelo_inurba_marseille","lat":43.317557,"lon":5.390173,"is_reserved":false,"is_disabled":false,"rental_uris":{"android":"levelo://app?vid=2d7ddae0-75c5-4f27-bb77-758cf5ca3c9f","ios":"levelo://app?vid=2d7ddae0-75c5-4f27-bb77-758cf5ca3c9f"},"vehicle_type_id":"4","last_reported":1683828494,"current_range_meters":15200,"station_id":"ce4bhqp2rcd13ifvqhng","pricing_plan_id":"free"},{"bike_id":"d14cb25f-7525-43d3-94a5-9ca2ca6fb094","system_id":"levelo_inurba_marseille","lat":43.298037,"lon":5.381066,"is_reserved":false,"is_disabled":false,"rental_uris":{"android":"levelo://app?vid=d14cb25f-7525-43d3-94a5-9ca2ca6fb094","ios":"levelo://app?vid=d14cb25f-7525-43d3-94a5-9ca2ca6fb094"},"vehicle_type_id":"4","last_reported":1683828494,"current_range_meters":0,"station_id":"ce4bgip2rcd13ifvqbb0","pricing_plan_id":"free"},{"bike_id":"6bc1a11e-d140-40c9-bdce-836101608ae8","system_id":"levelo_inurba_marseille","lat":43.295748,"lon":5.37522,"is_reserved":false,"is_disabled":false,"rental_uris":{"android":"levelo://app?vid=6bc1a11e-d140-40c9-bdce-836101608ae8","ios":"levelo://app?vid=6bc1a11e-d140-40c9-bdce-836101608ae8"},"vehicle_type_id":"4","last_reported":1683828494,"current_range_meters":28000,"station_id":"ce4bgh92rcd13ifvqb50","pricing_plan_id":"free"},{"bike_id":"89f542f1-53e0-4e10-970b-5d8bdfaabea7","system_id":"levelo_inurba_marseille","lat":43.304278,"lon":5.388868,"is_reserved":false,"is_disabled":false,"rental_uris":{"android":"levelo://app?vid=89f542f1-53e0-4e10-970b-5d8bdfaabea7","ios":"levelo://app?vid=89f542f1-53e0-4e10-970b-5d8bdfaabea7"},"vehicle_type_id":"4","last_reported":1683828494,"current_range_meters":2800,"station_id":"ce4bgk12rcd13ifvqbi0","pricing_plan_id":"free"},{"bike_id":"a060e1be-274b-4750-8f63-54d442b43867","system_id":"levelo_inurba_marseille","lat":43.298037,"lon":5.381066,"is_reserved":false,"is_disabled":false,"rental_uris":{"android":"levelo://app?vid=a060e1be-274b-4750-8f63-54d442b43867","ios":"levelo://app?vid=a060e1be-274b-4750-8f63-54d442b43867"},"vehicle_type_id":"4","last_reported":1683828494,"current_range_meters":17200,"station_id":"ce4bgip2rcd13ifvqbb0","pricing_plan_id":"free"},{"bike_id":"9e93f480-559d-4809-b122-b6f585021bd0","system_id":"levelo_inurba_marseille","lat":43.299707,"lon":5.384859,"is_reserved":false,"is_disabled":false,"rental_uris":{"android":"levelo://app?vid=9e93f480-559d-4809-b122-b6f585021bd0","ios":"levelo://app?vid=9e93f480-559d-4809-b122-b6f585021bd0"},"vehicle_type_id":"4","last_reported":1683828494,"current_range_meters":21200,"station_id":"ce4bgj92rcd13ifvqbd0","pricing_plan_id":"free"},{"bike_id":"ea800d87-ed56-492e-8b31-021d01ec4653","system_id":"levelo_inurba_marseille","lat":43.299679,"lon":5.384821,"is_reserved":false,"is_disabled":false,"rental_uris":{"android":"levelo://app?vid=ea800d87-ed56-492e-8b31-021d01ec4653","ios":"levelo://app?vid=ea800d87-ed56-492e-8b31-021d01ec4653"},"vehicle_type_id":"4","last_reported":1683828494,"current_range_meters":12800,"station_id":"","pricing_plan_id":"free"},{"bike_id":"d8674403-c254-4d4c-a1aa-f38206a93b1a","system_id":"levelo_inurba_marseille","lat":43.29965,"lon":5.38495,"is_reserved":false,"is_disabled":false,"rental_uris":{"android":"levelo://app?vid=d8674403-c254-4d4c-a1aa-f38206a93b1a","ios":"levelo://app?vid=d8674403-c254-4d4c-a1aa-f38206a93b1a"},"vehicle_type_id":"4","last_reported":1683828494,"current_range_meters":8000,"station_id":"ce4bgj92rcd13ifvqbd0","pricing_plan_id":"free"},{"bike_id":"46d400b2-840f-4f45-91a2-1af939052c37","system_id":"levelo_inurba_marseille","lat":43.299724,"lon":5.384848,"is_reserved":false,"is_disabled":false,"rental_uris":{"android":"levelo://app?vid=46d400b2-840f-4f45-91a2-1af939052c37","ios":"levelo://app?vid=46d400b2-840f-4f45-91a2-1af939052c37"},"vehicle_type_id":"4","last_reported":1683828494,"current_range_meters":0,"station_id":"ce4bgj92rcd13ifvqbd0","pricing_plan_id":"free"},{"bike_id":"f826386b-b73d-4b30-8e7b-8f80505a2b60","system_id":"levelo_inurba_marseille","lat":43.29602,"lon":5.381084,"is_reserved":false,"is_disabled":false,"rental_uris":{"android":"levelo://app?vid=f826386b-b73d-4b30-8e7b-8f80505a2b60","ios":"levelo://app?vid=f826386b-b73d-4b30-8e7b-8f80505a2b60"},"vehicle_type_id":"4","last_reported":1683828494,"current_range_meters":0,"station_id":"ce4bgl12rcd13ifvqbo0","pricing_plan_id":"free"},{"bike_id":"fe3210e6-329e-4a2b-9d66-5f6f2d768533","system_id":"levelo_inurba_marseille","lat":43.29602,"lon":5.381084,"is_reserved":false,"is_disabled":false,"rental_uris":{"android":"levelo://app?vid=fe3210e6-329e-4a2b-9d66-5f6f2d768533","ios":"levelo://app?vid=fe3210e6-329e-4a2b-9d66-5f6f2d768533"},"vehicle_type_id":"4","last_reported":1683828494,"current_range_meters":4400,"station_id":"ce4bgl12rcd13ifvqbo0","pricing_plan_id":"free"},{"bike_id":"98d78bc9-213b-409f-b453-a21eb8d5cad5","system_id":"levelo_inurba_marseille","lat":43.29312,"lon":5.37183,"is_reserved":false,"is_disabled":false,"rental_uris":{"android":"levelo://app?vid=98d78bc9-213b-409f-b453-a21eb8d5cad5","ios":"levelo://app?vid=98d78bc9-213b-409f-b453-a21eb8d5cad5"},"vehicle_type_id":"4","last_reported":1683828494,"current_range_meters":4000,"station_id":"ce4bgh92rcd13ifvqb40","pricing_plan_id":"free"},{"bike_id":"3ae8073d-c162-413a-bde3-2489929faf3c","system_id":"levelo_inurba_marseille","lat":43.29304,"lon":5.37182,"is_reserved":false,"is_disabled":false,"rental_uris":{"android":"levelo://app?vid=3ae8073d-c162-413a-bde3-2489929faf3c","ios":"levelo://app?vid=3ae8073d-c162-413a-bde3-2489929faf3c"},"vehicle_type_id":"4","last_reported":1683828494,"current_range_meters":18400,"station_id":"","pricing_plan_id":"free"},{"bike_id":"760962fd-c841-4e06-b559-7b85c18f75f5","system_id":"levelo_inurba_marseille","lat":43.293009,"lon":5.374584,"is_reserved":false,"is_disabled":false,"rental_uris":{"android":"levelo://app?vid=760962fd-c841-4e06-b559-7b85c18f75f5","ios":"levelo://app?vid=760962fd-c841-4e06-b559-7b85c18f75f5"},"vehicle_type_id":"4","last_reported":1683828494,"current_range_meters":19200,"station_id":"ce4bgi12rcd13ifvqb70","pricing_plan_id":"free"},{"bike_id":"b763b471-9916-4c62-944a-ac0a5fb05e71","system_id":"levelo_inurba_marseille","lat":43.2936,"lon":5.37835,"is_reserved":false,"is_disabled":false,"rental_uris":{"android":"levelo://app?vid=b763b471-9916-4c62-944a-ac0a5fb05e71","ios":"levelo://app?vid=b763b471-9916-4c62-944a-ac0a5fb05e71"},"vehicle_type_id":"4","last_reported":1683828494,"current_range_meters":0,"station_id":"ce4bgjh2rcd13ifvqbf0","pricing_plan_id":"free"},{"bike_id":"2064b884-7dc7-4d4f-9000-db39822e19a6","system_id":"levelo_inurba_marseille","lat":43.2936,"lon":5.37835,"is_reserved":false,"is_disabled":false,"rental_uris":{"android":"levelo://app?vid=2064b884-7dc7-4d4f-9000-db39822e19a6","ios":"levelo://app?vid=2064b884-7dc7-4d4f-9000-db39822e19a6"},"vehicle_type_id":"4","last_reported":1683828494,"current_range_meters":19600,"station_id":"ce4bgjh2rcd13ifvqbf0","pricing_plan_id":"free"},{"bike_id":"444ccc45-eb43-4f31-9cb8-0253a709a12f","system_id":"levelo_inurba_marseille","lat":43.30085,"lon":5.390856,"is_reserved":false,"is_disabled":false,"rental_uris":{"android":"levelo://app?vid=444ccc45-eb43-4f31-9cb8-0253a709a12f","ios":"levelo://app?vid=444ccc45-eb43-4f31-9cb8-0253a709a12f"},"vehicle_type_id":"4","last_reported":1683828494,"current_range_meters":4400,"station_id":"ce4bh192rcd13ifvqdb0","pricing_plan_id":"free"},{"bike_id":"17e38c6f-8dff-4bea-a5be-8045ae669134","system_id":"levelo_inurba_marseille","lat":43.30085,"lon":5.390856,"is_reserved":false,"is_disabled":false,"rental_uris":{"android":"levelo://app?vid=17e38c6f-8dff-4bea-a5be-8045ae669134","ios":"levelo://app?vid=17e38c6f-8dff-4bea-a5be-8045ae669134"},"vehicle_type_id":"4","last_reported":1683828494,"current_range_meters":13600,"station_id":"ce4bh192rcd13ifvqdb0","pricing_plan_id":"free"},{"bike_id":"e9db0986-493b-4262-859b-8bc0106589a4","system_id":"levelo_inurba_marseille","lat":43.30085,"lon":5.390856,"is_reserved":false,"is_disabled":false,"rental_uris":{"android":"levelo://app?vid=e9db0986-493b-4262-859b-8bc0106589a4","ios":"levelo://app?vid=e9db0986-493b-4262-859b-8bc0106589a4"},"vehicle_type_id":"4","last_reported":1683828494,"current_range_meters":6000,"station_id":"ce4bh192rcd13ifvqdb0","pricing_plan_id":"free"},{"bike_id":"b7219bf8-0bb2-4aa2-9212-1cf6ad39f73b","system_id":"levelo_inurba_marseille","lat":43.291671,"lon":5.371575,"is_reserved":false,"is_disabled":false,"rental_uris":{"android":"levelo://app?vid=b7219bf8-0bb2-4aa2-9212-1cf6ad39f73b","ios":"levelo://app?vid=b7219bf8-0bb2-4aa2-9212-1cf6ad39f73b"},"vehicle_type_id":"4","last_reported":1683828494,"current_range_meters":10800,"station_id":"ce4bha92rcd13ifvqeh0","pricing_plan_id":"free"},{"bike_id":"c9eff404-d811-402f-a231-268a136ebc0e","system_id":"levelo_inurba_marseille","lat":43.309038,"lon":5.396546,"is_reserved":false,"is_disabled":false,"rental_uris":{"android":"levelo://app?vid=c9eff404-d811-402f-a231-268a136ebc0e","ios":"levelo://app?vid=c9eff404-d811-402f-a231-268a136ebc0e"},"vehicle_type_id":"4","last_reported":1683828494,"current_range_meters":13600,"station_id":"ce4bh012rcd13ifvqcv0","pricing_plan_id":"free"},{"bike_id":"31c5a1e8-bfaf-4990-8025-b20e8c878a8e","system_id":"levelo_inurba_marseille","lat":43.29837,"lon":5.38912,"is_reserved":false,"is_disabled":false,"rental_uris":{"android":"levelo://app?vid=31c5a1e8-bfaf-4990-8025-b20e8c878a8e","ios":"levelo://app?vid=31c5a1e8-bfaf-4990-8025-b20e8c878a8e"},"vehicle_type_id":"4","last_reported":1683828494,"current_range_meters":14800,"station_id":"","pricing_plan_id":"free"},{"bike_id":"8e291836-c71f-4e6a-9d2c-3f10b76f718e","system_id":"levelo_inurba_marseille","lat":43.29198,"lon":5.35814,"is_reserved":false,"is_disabled":false,"rental_uris":{"android":"levelo://app?vid=8e291836-c71f-4e6a-9d2c-3f10b76f718e","ios":"levelo://app?vid=8e291836-c71f-4e6a-9d2c-3f10b76f718e"},"vehicle_type_id":"4","last_reported":1683828494,"current_range_meters":17200,"station_id":"","pricing_plan_id":"free"},{"bike_id":"b1688492-1a62-4d1e-a0f8-928de1a5ce80","system_id":"levelo_inurba_marseille","lat":43.309038,"lon":5.396546,"is_reserved":false,"is_disabled":false,"rental_uris":{"android":"levelo://app?vid=b1688492-1a62-4d1e-a0f8-928de1a5ce80","ios":"levelo://app?vid=b1688492-1a62-4d1e-a0f8-928de1a5ce80"},"vehicle_type_id":"4","last_reported":1683828494,"current_range_meters":6400,"station_id":"ce4bh012rcd13ifvqcv0","pricing_plan_id":"free"},{"bike_id":"a1fe5b59-7da8-425a-a401-7bcb1737e24f","system_id":"levelo_inurba_marseille","lat":43.29195,"lon":5.35811,"is_reserved":false,"is_disabled":false,"rental_uris":{"android":"levelo://app?vid=a1fe5b59-7da8-425a-a401-7bcb1737e24f","ios":"levelo://app?vid=a1fe5b59-7da8-425a-a401-7bcb1737e24f"},"vehicle_type_id":"4","last_reported":1683828494,"current_range_meters":6400,"station_id":"","pricing_plan_id":"free"},{"bike_id":"25045dd8-a0f4-47bb-bfb2-e0d16918d83f","system_id":"levelo_inurba_marseille","lat":43.29195,"lon":5.3581,"is_reserved":false,"is_disabled":false,"rental_uris":{"android":"levelo://app?vid=25045dd8-a0f4-47bb-bfb2-e0d16918d83f","ios":"levelo://app?vid=25045dd8-a0f4-47bb-bfb2-e0d16918d83f"},"vehicle_type_id":"4","last_reported":1683828494,"current_range_meters":22800,"station_id":"","pricing_plan_id":"free"},{"bike_id":"d75d0732-878b-4369-882e-f19fe8db6782","system_id":"levelo_inurba_marseille","lat":43.29194,"lon":5.35805,"is_reserved":false,"is_disabled":false,"rental_uris":{"android":"levelo://app?vid=d75d0732-878b-4369-882e-f19fe8db6782","ios":"levelo://app?vid=d75d0732-878b-4369-882e-f19fe8db6782"},"vehicle_type_id":"4","last_reported":1683828494,"current_range_meters":15200,"station_id":"","pricing_plan_id":"free"},{"bike_id":"2d84eec1-e57a-40a9-9df2-9a10bce36c5c","system_id":"levelo_inurba_marseille","lat":43.313483,"lon":5.39686,"is_reserved":false,"is_disabled":false,"rental_uris":{"android":"levelo://app?vid=2d84eec1-e57a-40a9-9df2-9a10bce36c5c","ios":"levelo://app?vid=2d84eec1-e57a-40a9-9df2-9a10bce36c5c"},"vehicle_type_id":"4","last_reported":1683828494,"current_range_meters":0,"station_id":"ce4bgvp2rcd13ifvqcu0","pricing_plan_id":"free"},{"bike_id":"0dfd11e8-1e45-4eaa-a4b3-7df68941afaa","system_id":"levelo_inurba_marseille","lat":43.309038,"lon":5.396546,"is_reserved":false,"is_disabled":false,"rental_uris":{"android":"levelo://app?vid=0dfd11e8-1e45-4eaa-a4b3-7df68941afaa","ios":"levelo://app?vid=0dfd11e8-1e45-4eaa-a4b3-7df68941afaa"},"vehicle_type_id":"4","last_reported":1683828494,"current_range_meters":17600,"station_id":"ce4bh012rcd13ifvqcv0","pricing_plan_id":"free"},{"bike_id":"25f5f09c-0b52-446e-9450-b23e62cf5cae","system_id":"levelo_inurba_marseille","lat":43.29194,"lon":5.35796,"is_reserved":false,"is_disabled":false,"rental_uris":{"android":"levelo://app?vid=25f5f09c-0b52-446e-9450-b23e62cf5cae","ios":"levelo://app?vid=25f5f09c-0b52-446e-9450-b23e62cf5cae"},"vehicle_type_id":"4","last_reported":1683828494,"current_range_meters":15600,"station_id":"","pricing_plan_id":"free"},{"bike_id":"d006bad3-204f-4c36-987e-2279f7203bb9","system_id":"levelo_inurba_marseille","lat":43.31328,"lon":5.39688,"is_reserved":false,"is_disabled":false,"rental_uris":{"android":"levelo://app?vid=d006bad3-204f-4c36-987e-2279f7203bb9","ios":"levelo://app?vid=d006bad3-204f-4c36-987e-2279f7203bb9"},"vehicle_type_id":"4","last_reported":1683828494,"current_range_meters":10400,"station_id":"ce4bgvp2rcd13ifvqcu0","pricing_plan_id":"free"},{"bike_id":"a8dfed8a-56df-4e30-9215-2620076dd475","system_id":"levelo_inurba_marseille","lat":43.31331,"lon":5.39688,"is_reserved":false,"is_disabled":false,"rental_uris":{"android":"levelo://app?vid=a8dfed8a-56df-4e30-9215-2620076dd475","ios":"levelo://app?vid=a8dfed8a-56df-4e30-9215-2620076dd475"},"vehicle_type_id":"4","last_reported":1683828494,"current_range_meters":6800,"station_id":"ce4bgvp2rcd13ifvqcu0","pricing_plan_id":"free"},{"bike_id":"b95c60c6-66e5-426e-8cdb-2728632759a7","system_id":"levelo_inurba_marseille","lat":43.313291,"lon":5.396838,"is_reserved":false,"is_disabled":false,"rental_uris":{"android":"levelo://app?vid=b95c60c6-66e5-426e-8cdb-2728632759a7","ios":"levelo://app?vid=b95c60c6-66e5-426e-8cdb-2728632759a7"},"vehicle_type_id":"4","last_reported":1683828494,"current_range_meters":1200,"station_id":"ce4bgvp2rcd13ifvqcu0","pricing_plan_id":"free"},{"bike_id":"bbdb49f9-a9d2-4746-8164-05438f82bf6c","system_id":"levelo_inurba_marseille","lat":43.309038,"lon":5.396546,"is_reserved":false,"is_disabled":false,"rental_uris":{"android":"levelo://app?vid=bbdb49f9-a9d2-4746-8164-05438f82bf6c","ios":"levelo://app?vid=bbdb49f9-a9d2-4746-8164-05438f82bf6c"},"vehicle_type_id":"4","last_reported":1683828494,"current_range_meters":30000,"station_id":"ce4bh012rcd13ifvqcv0","pricing_plan_id":"free"},{"bike_id":"d2e75ebe-0993-4e0d-9f3d-1ae3b492e118","system_id":"levelo_inurba_marseille","lat":43.29193,"lon":5.35794,"is_reserved":false,"is_disabled":false,"rental_uris":{"android":"levelo://app?vid=d2e75ebe-0993-4e0d-9f3d-1ae3b492e118","ios":"levelo://app?vid=d2e75ebe-0993-4e0d-9f3d-1ae3b492e118"},"vehicle_type_id":"4","last_reported":1683828494,"current_range_meters":30000,"station_id":"","pricing_plan_id":"free"},{"bike_id":"e082fd77-22a5-4ec4-967c-54ab5ee9323a","system_id":"levelo_inurba_marseille","lat":43.29191,"lon":5.35802,"is_reserved":false,"is_disabled":false,"rental_uris":{"android":"levelo://app?vid=e082fd77-22a5-4ec4-967c-54ab5ee9323a","ios":"levelo://app?vid=e082fd77-22a5-4ec4-967c-54ab5ee9323a"},"vehicle_type_id":"4","last_reported":1683828494,"current_range_meters":26400,"station_id":"","pricing_plan_id":"free"},{"bike_id":"4f9350fc-4b13-4992-84b3-2a3efeccacae","system_id":"levelo_inurba_marseille","lat":43.309038,"lon":5.396546,"is_reserved":false,"is_disabled":false,"rental_uris":{"android":"levelo://app?vid=4f9350fc-4b13-4992-84b3-2a3efeccacae","ios":"levelo://app?vid=4f9350fc-4b13-4992-84b3-2a3efeccacae"},"vehicle_type_id":"4","last_reported":1683828494,"current_range_meters":21600,"station_id":"ce4bh012rcd13ifvqcv0","pricing_plan_id":"free"},{"bike_id":"89194808-5c37-4adc-8194-0c75e8d3c734","system_id":"levelo_inurba_marseille","lat":43.313291,"lon":5.396838,"is_reserved":false,"is_disabled":false,"rental_uris":{"android":"levelo://app?vid=89194808-5c37-4adc-8194-0c75e8d3c734","ios":"levelo://app?vid=89194808-5c37-4adc-8194-0c75e8d3c734"},"vehicle_type_id":"4","last_reported":1683828494,"current_range_meters":1200,"station_id":"ce4bgvp2rcd13ifvqcu0","pricing_plan_id":"free"},{"bike_id":"6b9313bb-eb8b-43db-85bd-9639e8d98403","system_id":"levelo_inurba_marseille","lat":43.309038,"lon":5.396546,"is_reserved":false,"is_disabled":false,"rental_uris":{"android":"levelo://app?vid=6b9313bb-eb8b-43db-85bd-9639e8d98403","ios":"levelo://app?vid=6b9313bb-eb8b-43db-85bd-9639e8d98403"},"vehicle_type_id":"4","last_reported":1683828494,"current_range_meters":15200,"station_id":"ce4bh012rcd13ifvqcv0","pricing_plan_id":"free"},{"bike_id":"2d72918a-0a65-455b-9f4a-e5125fa03012","system_id":"levelo_inurba_marseille","lat":43.3133,"lon":5.39693,"is_reserved":false,"is_disabled":false,"rental_uris":{"android":"levelo://app?vid=2d72918a-0a65-455b-9f4a-e5125fa03012","ios":"levelo://app?vid=2d72918a-0a65-455b-9f4a-e5125fa03012"},"vehicle_type_id":"4","last_reported":1683828494,"current_range_meters":4000,"station_id":"ce4bgvp2rcd13ifvqcu0","pricing_plan_id":"free"},{"bike_id":"33c3dea9-4c1f-452f-89ed-554afd0b40fc","system_id":"levelo_inurba_marseille","lat":43.309038,"lon":5.396546,"is_reserved":false,"is_disabled":false,"rental_uris":{"android":"levelo://app?vid=33c3dea9-4c1f-452f-89ed-554afd0b40fc","ios":"levelo://app?vid=33c3dea9-4c1f-452f-89ed-554afd0b40fc"},"vehicle_type_id":"4","last_reported":1683828494,"current_range_meters":18000,"station_id":"ce4bh012rcd13ifvqcv0","pricing_plan_id":"free"},{"bike_id":"f0bacf1e-5ca7-4e49-99b4-d044c3fbdea0","system_id":"levelo_inurba_marseille","lat":43.31329,"lon":5.39694,"is_reserved":false,"is_disabled":false,"rental_uris":{"android":"levelo://app?vid=f0bacf1e-5ca7-4e49-99b4-d044c3fbdea0","ios":"levelo://app?vid=f0bacf1e-5ca7-4e49-99b4-d044c3fbdea0"},"vehicle_type_id":"4","last_reported":1683828494,"current_range_meters":1600,"station_id":"ce4bgvp2rcd13ifvqcu0","pricing_plan_id":"free"},{"bike_id":"64957ad6-c5dd-4ff0-bea5-0f2ac1a63040","system_id":"levelo_inurba_marseille","lat":43.313291,"lon":5.396838,"is_reserved":false,"is_disabled":false,"rental_uris":{"android":"levelo://app?vid=64957ad6-c5dd-4ff0-bea5-0f2ac1a63040","ios":"levelo://app?vid=64957ad6-c5dd-4ff0-bea5-0f2ac1a63040"},"vehicle_type_id":"4","last_reported":1683828494,"current_range_meters":0,"station_id":"ce4bgvp2rcd13ifvqcu0","pricing_plan_id":"free"},{"bike_id":"9c781ae8-341e-4c24-9287-7dca908894b0","system_id":"levelo_inurba_marseille","lat":43.31327,"lon":5.39696,"is_reserved":false,"is_disabled":false,"rental_uris":{"android":"levelo://app?vid=9c781ae8-341e-4c24-9287-7dca908894b0","ios":"levelo://app?vid=9c781ae8-341e-4c24-9287-7dca908894b0"},"vehicle_type_id":"4","last_reported":1683828494,"current_range_meters":10800,"station_id":"ce4bgvp2rcd13ifvqcu0","pricing_plan_id":"free"},{"bike_id":"867a0806-578c-4311-aec3-987ab4749fe5","system_id":"levelo_inurba_marseille","lat":43.313291,"lon":5.396838,"is_reserved":false,"is_disabled":false,"rental_uris":{"android":"levelo://app?vid=867a0806-578c-4311-aec3-987ab4749fe5","ios":"levelo://app?vid=867a0806-578c-4311-aec3-987ab4749fe5"},"vehicle_type_id":"4","last_reported":1683828494,"current_range_meters":8000,"station_id":"ce4bgvp2rcd13ifvqcu0","pricing_plan_id":"free"},{"bike_id":"b126e2a7-b553-466f-8a1c-72be379b30c0","system_id":"levelo_inurba_marseille","lat":43.313291,"lon":5.396838,"is_reserved":false,"is_disabled":false,"rental_uris":{"android":"levelo://app?vid=b126e2a7-b553-466f-8a1c-72be379b30c0","ios":"levelo://app?vid=b126e2a7-b553-466f-8a1c-72be379b30c0"},"vehicle_type_id":"4","last_reported":1683828494,"current_range_meters":19200,"station_id":"ce4bgvp2rcd13ifvqcu0","pricing_plan_id":"free"},{"bike_id":"8cff9d44-c78f-4cd2-b6f4-f78b5b90e1b4","system_id":"levelo_inurba_marseille","lat":43.309038,"lon":5.396546,"is_reserved":false,"is_disabled":false,"rental_uris":{"android":"levelo://app?vid=8cff9d44-c78f-4cd2-b6f4-f78b5b90e1b4","ios":"levelo://app?vid=8cff9d44-c78f-4cd2-b6f4-f78b5b90e1b4"},"vehicle_type_id":"4","last_reported":1683828494,"current_range_meters":31200,"station_id":"ce4bh012rcd13ifvqcv0","pricing_plan_id":"free"},{"bike_id":"b4e70447-9dd5-4676-bd54-a6d81b157cdc","system_id":"levelo_inurba_marseille","lat":43.29199,"lon":5.35726,"is_reserved":false,"is_disabled":false,"rental_uris":{"android":"levelo://app?vid=b4e70447-9dd5-4676-bd54-a6d81b157cdc","ios":"levelo://app?vid=b4e70447-9dd5-4676-bd54-a6d81b157cdc"},"vehicle_type_id":"4","last_reported":1683828494,"current_range_meters":7600,"station_id":"ce4bhb12rcd13ifvqel0","pricing_plan_id":"free"},{"bike_id":"b5fe510c-6df3-47c7-b1a4-b887a08664e9","system_id":"levelo_inurba_marseille","lat":43.309038,"lon":5.396546,"is_reserved":false,"is_disabled":false,"rental_uris":{"android":"levelo://app?vid=b5fe510c-6df3-47c7-b1a4-b887a08664e9","ios":"levelo://app?vid=b5fe510c-6df3-47c7-b1a4-b887a08664e9"},"vehicle_type_id":"4","last_reported":1683828494,"current_range_meters":3200,"station_id":"ce4bh012rcd13ifvqcv0","pricing_plan_id":"free"},{"bike_id":"f914b029-b209-4859-98d9-9ed72b8b0164","system_id":"levelo_inurba_marseille","lat":43.29529,"lon":5.385581,"is_reserved":false,"is_disabled":false,"rental_uris":{"android":"levelo://app?vid=f914b029-b209-4859-98d9-9ed72b8b0164","ios":"levelo://app?vid=f914b029-b209-4859-98d9-9ed72b8b0164"},"vehicle_type_id":"4","last_reported":1683828494,"current_range_meters":11200,"station_id":"ce4bgih2rcd13ifvqba0","pricing_plan_id":"free"},{"bike_id":"e5e504eb-9178-4085-a38b-5ff1b13c7685","system_id":"levelo_inurba_marseille","lat":43.29529,"lon":5.385581,"is_reserved":false,"is_disabled":false,"rental_uris":{"android":"levelo://app?vid=e5e504eb-9178-4085-a38b-5ff1b13c7685","ios":"levelo://app?vid=e5e504eb-9178-4085-a38b-5ff1b13c7685"},"vehicle_type_id":"4","last_reported":1683828494,"current_range_meters":0,"station_id":"ce4bgih2rcd13ifvqba0","pricing_plan_id":"free"},{"bike_id":"3a9c5cbc-282d-4ba5-a11f-73b912ce0ce5","system_id":"levelo_inurba_marseille","lat":43.29529,"lon":5.385581,"is_reserved":false,"is_disabled":false,"rental_uris":{"android":"levelo://app?vid=3a9c5cbc-282d-4ba5-a11f-73b912ce0ce5","ios":"levelo://app?vid=3a9c5cbc-282d-4ba5-a11f-73b912ce0ce5"},"vehicle_type_id":"4","last_reported":1683828494,"current_range_meters":6800,"station_id":"ce4bgih2rcd13ifvqba0","pricing_plan_id":"free"},{"bike_id":"3c665711-a129-4dfb-ab0e-efcb6c69ada2","system_id":"levelo_inurba_marseille","lat":43.290624,"lon":5.359245,"is_reserved":false,"is_disabled":false,"rental_uris":{"android":"levelo://app?vid=3c665711-a129-4dfb-ab0e-efcb6c69ada2","ios":"levelo://app?vid=3c665711-a129-4dfb-ab0e-efcb6c69ada2"},"vehicle_type_id":"4","last_reported":1683828494,"current_range_meters":30000,"station_id":"ce4bha92rcd13ifvqeg0","pricing_plan_id":"free"},{"bike_id":"7f3c77d8-4946-4230-8235-b9d0af99c19e","system_id":"levelo_inurba_marseille","lat":43.302008,"lon":5.394694,"is_reserved":false,"is_disabled":false,"rental_uris":{"android":"levelo://app?vid=7f3c77d8-4946-4230-8235-b9d0af99c19e","ios":"levelo://app?vid=7f3c77d8-4946-4230-8235-b9d0af99c19e"},"vehicle_type_id":"4","last_reported":1683828494,"current_range_meters":25600,"station_id":"ce4bh0p2rcd13ifvqd70","pricing_plan_id":"free"},{"bike_id":"6883e0f4-906f-4b01-ab2f-47aa484bf1c6","system_id":"levelo_inurba_marseille","lat":43.302008,"lon":5.394694,"is_reserved":false,"is_disabled":false,"rental_uris":{"android":"levelo://app?vid=6883e0f4-906f-4b01-ab2f-47aa484bf1c6","ios":"levelo://app?vid=6883e0f4-906f-4b01-ab2f-47aa484bf1c6"},"vehicle_type_id":"4","last_reported":1683828494,"current_range_meters":13600,"station_id":"ce4bh0p2rcd13ifvqd70","pricing_plan_id":"free"},{"bike_id":"0f1a3e25-d7ad-4bb3-834e-b8da79851e7a","system_id":"levelo_inurba_marseille","lat":43.302008,"lon":5.394694,"is_reserved":false,"is_disabled":false,"rental_uris":{"android":"levelo://app?vid=0f1a3e25-d7ad-4bb3-834e-b8da79851e7a","ios":"levelo://app?vid=0f1a3e25-d7ad-4bb3-834e-b8da79851e7a"},"vehicle_type_id":"4","last_reported":1683828494,"current_range_meters":10800,"station_id":"ce4bh0p2rcd13ifvqd70","pricing_plan_id":"free"},{"bike_id":"e1fe4519-b91b-411a-9f3b-cda3c220af65","system_id":"levelo_inurba_marseille","lat":43.290631,"lon":5.359244,"is_reserved":false,"is_disabled":false,"rental_uris":{"android":"levelo://app?vid=e1fe4519-b91b-411a-9f3b-cda3c220af65","ios":"levelo://app?vid=e1fe4519-b91b-411a-9f3b-cda3c220af65"},"vehicle_type_id":"4","last_reported":1683828494,"current_range_meters":2000,"station_id":"ce4bha92rcd13ifvqeg0","pricing_plan_id":"free"},{"bike_id":"1cf08647-289f-4c70-9bcb-d09997202342","system_id":"levelo_inurba_marseille","lat":43.290624,"lon":5.359245,"is_reserved":false,"is_disabled":false,"rental_uris":{"android":"levelo://app?vid=1cf08647-289f-4c70-9bcb-d09997202342","ios":"levelo://app?vid=1cf08647-289f-4c70-9bcb-d09997202342"},"vehicle_type_id":"4","last_reported":1683828494,"current_range_meters":12400,"station_id":"ce4bha92rcd13ifvqeg0","pricing_plan_id":"free"},{"bike_id":"4c033138-1ea8-4e67-9998-ad8ff532c267","system_id":"levelo_inurba_marseille","lat":43.290631,"lon":5.359244,"is_reserved":false,"is_disabled":false,"rental_uris":{"android":"levelo://app?vid=4c033138-1ea8-4e67-9998-ad8ff532c267","ios":"levelo://app?vid=4c033138-1ea8-4e67-9998-ad8ff532c267"},"vehicle_type_id":"4","last_reported":1683828494,"current_range_meters":15200,"station_id":"ce4bha92rcd13ifvqeg0","pricing_plan_id":"free"},{"bike_id":"2bb2b1b1-0125-4088-8954-301dd3529db7","system_id":"levelo_inurba_marseille","lat":43.290631,"lon":5.359244,"is_reserved":false,"is_disabled":false,"rental_uris":{"android":"levelo://app?vid=2bb2b1b1-0125-4088-8954-301dd3529db7","ios":"levelo://app?vid=2bb2b1b1-0125-4088-8954-301dd3529db7"},"vehicle_type_id":"4","last_reported":1683828494,"current_range_meters":20000,"station_id":"ce4bha92rcd13ifvqeg0","pricing_plan_id":"free"},{"bike_id":"052936a8-56b2-481e-b15e-eb204ed9d977","system_id":"levelo_inurba_marseille","lat":43.290319,"lon":5.375732,"is_reserved":false,"is_disabled":false,"rental_uris":{"android":"levelo://app?vid=052936a8-56b2-481e-b15e-eb204ed9d977","ios":"levelo://app?vid=052936a8-56b2-481e-b15e-eb204ed9d977"},"vehicle_type_id":"4","last_reported":1683828494,"current_range_meters":0,"station_id":"ce4bh692rcd13ifvqe90","pricing_plan_id":"free"},{"bike_id":"8eee0747-ffb3-480c-b5b5-a751ff0b52bf","system_id":"levelo_inurba_marseille","lat":43.289184,"lon":5.366408,"is_reserved":false,"is_disabled":false,"rental_uris":{"android":"levelo://app?vid=8eee0747-ffb3-480c-b5b5-a751ff0b52bf","ios":"levelo://app?vid=8eee0747-ffb3-480c-b5b5-a751ff0b52bf"},"vehicle_type_id":"4","last_reported":1683828494,"current_range_meters":20000,"station_id":"ce4bhap2rcd13ifvqek0","pricing_plan_id":"free"},{"bike_id":"2dc843f1-1b1a-423e-8bfb-58185196a2eb","system_id":"levelo_inurba_marseille","lat":43.289184,"lon":5.366408,"is_reserved":false,"is_disabled":false,"rental_uris":{"android":"levelo://app?vid=2dc843f1-1b1a-423e-8bfb-58185196a2eb","ios":"levelo://app?vid=2dc843f1-1b1a-423e-8bfb-58185196a2eb"},"vehicle_type_id":"4","last_reported":1683828494,"current_range_meters":8000,"station_id":"ce4bhap2rcd13ifvqek0","pricing_plan_id":"free"},{"bike_id":"4262a1c6-36e4-4ea7-916c-0268aba9f47b","system_id":"levelo_inurba_marseille","lat":43.289184,"lon":5.366408,"is_reserved":false,"is_disabled":false,"rental_uris":{"android":"levelo://app?vid=4262a1c6-36e4-4ea7-916c-0268aba9f47b","ios":"levelo://app?vid=4262a1c6-36e4-4ea7-916c-0268aba9f47b"},"vehicle_type_id":"4","last_reported":1683828494,"current_range_meters":3200,"station_id":"ce4bhap2rcd13ifvqek0","pricing_plan_id":"free"},{"bike_id":"583c04d8-b24c-4d27-95b6-6082a11af535","system_id":"levelo_inurba_marseille","lat":43.289184,"lon":5.366408,"is_reserved":false,"is_disabled":false,"rental_uris":{"android":"levelo://app?vid=583c04d8-b24c-4d27-95b6-6082a11af535","ios":"levelo://app?vid=583c04d8-b24c-4d27-95b6-6082a11af535"},"vehicle_type_id":"4","last_reported":1683828494,"current_range_meters":2800,"station_id":"ce4bhap2rcd13ifvqek0","pricing_plan_id":"free"},{"bike_id":"e111a872-0e4a-4d2d-9c55-ed8c418a0876","system_id":"levelo_inurba_marseille","lat":43.289184,"lon":5.366408,"is_reserved":false,"is_disabled":false,"rental_uris":{"android":"levelo://app?vid=e111a872-0e4a-4d2d-9c55-ed8c418a0876","ios":"levelo://app?vid=e111a872-0e4a-4d2d-9c55-ed8c418a0876"},"vehicle_type_id":"4","last_reported":1683828494,"current_range_meters":5200,"station_id":"ce4bhap2rcd13ifvqek0","pricing_plan_id":"free"},{"bike_id":"00b7aaba-66ad-4cc1-a2b8-4c56ee6463f9","system_id":"levelo_inurba_marseille","lat":43.289184,"lon":5.366408,"is_reserved":false,"is_disabled":false,"rental_uris":{"android":"levelo://app?vid=00b7aaba-66ad-4cc1-a2b8-4c56ee6463f9","ios":"levelo://app?vid=00b7aaba-66ad-4cc1-a2b8-4c56ee6463f9"},"vehicle_type_id":"4","last_reported":1683828494,"current_range_meters":0,"station_id":"ce4bhap2rcd13ifvqek0","pricing_plan_id":"free"},{"bike_id":"6418cfe3-e288-4faa-91a0-067a51615c36","system_id":"levelo_inurba_marseille","lat":43.289184,"lon":5.366408,"is_reserved":false,"is_disabled":false,"rental_uris":{"android":"levelo://app?vid=6418cfe3-e288-4faa-91a0-067a51615c36","ios":"levelo://app?vid=6418cfe3-e288-4faa-91a0-067a51615c36"},"vehicle_type_id":"4","last_reported":1683828494,"current_range_meters":16800,"station_id":"ce4bhap2rcd13ifvqek0","pricing_plan_id":"free"},{"bike_id":"3fdfb80d-ee11-4924-a2c2-cb9766dc9a0b","system_id":"levelo_inurba_marseille","lat":43.289468,"lon":5.363719,"is_reserved":false,"is_disabled":false,"rental_uris":{"android":"levelo://app?vid=3fdfb80d-ee11-4924-a2c2-cb9766dc9a0b","ios":"levelo://app?vid=3fdfb80d-ee11-4924-a2c2-cb9766dc9a0b"},"vehicle_type_id":"4","last_reported":1683828494,"current_range_meters":7200,"station_id":"ce4bhc92rcd13ifvqetg","pricing_plan_id":"free"},{"bike_id":"96508dd3-e75e-447b-9060-f0fce6780cc4","system_id":"levelo_inurba_marseille","lat":43.289468,"lon":5.363719,"is_reserved":false,"is_disabled":false,"rental_uris":{"android":"levelo://app?vid=96508dd3-e75e-447b-9060-f0fce6780cc4","ios":"levelo://app?vid=96508dd3-e75e-447b-9060-f0fce6780cc4"},"vehicle_type_id":"4","last_reported":1683828494,"current_range_meters":11200,"station_id":"ce4bhc92rcd13ifvqetg","pricing_plan_id":"free"},{"bike_id":"181fd9eb-a9cc-4115-be8b-9c936cc8ddb2","system_id":"levelo_inurba_marseille","lat":43.290417,"lon":5.355965,"is_reserved":false,"is_disabled":false,"rental_uris":{"android":"levelo://app?vid=181fd9eb-a9cc-4115-be8b-9c936cc8ddb2","ios":"levelo://app?vid=181fd9eb-a9cc-4115-be8b-9c936cc8ddb2"},"vehicle_type_id":"4","last_reported":1683828494,"current_range_meters":0,"station_id":"ce4bhb92rcd13ifvqen0","pricing_plan_id":"free"},{"bike_id":"c3932da8-d821-47ba-aaea-6c6aa4910ea8","system_id":"levelo_inurba_marseille","lat":43.304274,"lon":5.397513,"is_reserved":false,"is_disabled":false,"rental_uris":{"android":"levelo://app?vid=c3932da8-d821-47ba-aaea-6c6aa4910ea8","ios":"levelo://app?vid=c3932da8-d821-47ba-aaea-6c6aa4910ea8"},"vehicle_type_id":"4","last_reported":1683828494,"current_range_meters":6400,"station_id":"ce4bh092rcd13ifvqd20","pricing_plan_id":"free"},{"bike_id":"7bb299d9-9cb5-4740-be12-195a3f22ecf9","system_id":"levelo_inurba_marseille","lat":43.29271,"lon":5.38443,"is_reserved":false,"is_disabled":false,"rental_uris":{"android":"levelo://app?vid=7bb299d9-9cb5-4740-be12-195a3f22ecf9","ios":"levelo://app?vid=7bb299d9-9cb5-4740-be12-195a3f22ecf9"},"vehicle_type_id":"4","last_reported":1683828494,"current_range_meters":3200,"station_id":"ce4bh692rcd13ifvqea0","pricing_plan_id":"free"},{"bike_id":"3ee2ffc4-7c03-4962-b2a9-259c9092630b","system_id":"levelo_inurba_marseille","lat":43.29272,"lon":5.38446,"is_reserved":false,"is_disabled":false,"rental_uris":{"android":"levelo://app?vid=3ee2ffc4-7c03-4962-b2a9-259c9092630b","ios":"levelo://app?vid=3ee2ffc4-7c03-4962-b2a9-259c9092630b"},"vehicle_type_id":"4","last_reported":1683828494,"current_range_meters":12000,"station_id":"ce4bh692rcd13ifvqea0","pricing_plan_id":"free"},{"bike_id":"7c994ecb-dc12-47ae-900f-8fdd05506c1e","system_id":"levelo_inurba_marseille","lat":43.292644,"lon":5.384257,"is_reserved":false,"is_disabled":false,"rental_uris":{"android":"levelo://app?vid=7c994ecb-dc12-47ae-900f-8fdd05506c1e","ios":"levelo://app?vid=7c994ecb-dc12-47ae-900f-8fdd05506c1e"},"vehicle_type_id":"4","last_reported":1683828494,"current_range_meters":23200,"station_id":"ce4bh692rcd13ifvqea0","pricing_plan_id":"free"},{"bike_id":"f2472e12-e93a-494a-96cd-cd325e63c26a","system_id":"levelo_inurba_marseille","lat":43.29266,"lon":5.38455,"is_reserved":false,"is_disabled":false,"rental_uris":{"android":"levelo://app?vid=f2472e12-e93a-494a-96cd-cd325e63c26a","ios":"levelo://app?vid=f2472e12-e93a-494a-96cd-cd325e63c26a"},"vehicle_type_id":"4","last_reported":1683828494,"current_range_meters":0,"station_id":"ce4bh692rcd13ifvqea0","pricing_plan_id":"free"},{"bike_id":"456e8726-12bf-49f3-bd96-8f3bacff3318","system_id":"levelo_inurba_marseille","lat":43.290103,"lon":5.356114,"is_reserved":false,"is_disabled":false,"rental_uris":{"android":"levelo://app?vid=456e8726-12bf-49f3-bd96-8f3bacff3318","ios":"levelo://app?vid=456e8726-12bf-49f3-bd96-8f3bacff3318"},"vehicle_type_id":"4","last_reported":1683828494,"current_range_meters":1200,"station_id":"ce4bhb92rcd13ifvqen0","pricing_plan_id":"free"},{"bike_id":"75896dd4-6382-42e4-9f9c-b166af27695d","system_id":"levelo_inurba_marseille","lat":43.29012,"lon":5.35612,"is_reserved":false,"is_disabled":false,"rental_uris":{"android":"levelo://app?vid=75896dd4-6382-42e4-9f9c-b166af27695d","ios":"levelo://app?vid=75896dd4-6382-42e4-9f9c-b166af27695d"},"vehicle_type_id":"4","last_reported":1683828494,"current_range_meters":24400,"station_id":"ce4bhb92rcd13ifvqen0","pricing_plan_id":"free"},{"bike_id":"878682fe-ce53-4ea9-84ba-17996af6e452","system_id":"levelo_inurba_marseille","lat":43.290103,"lon":5.356114,"is_reserved":false,"is_disabled":false,"rental_uris":{"android":"levelo://app?vid=878682fe-ce53-4ea9-84ba-17996af6e452","ios":"levelo://app?vid=878682fe-ce53-4ea9-84ba-17996af6e452"},"vehicle_type_id":"4","last_reported":1683828494,"current_range_meters":31600,"station_id":"ce4bhb92rcd13ifvqen0","pricing_plan_id":"free"},{"bike_id":"95a5db77-a05c-4b27-9415-2c6d1879f56d","system_id":"levelo_inurba_marseille","lat":43.2901,"lon":5.35617,"is_reserved":false,"is_disabled":false,"rental_uris":{"android":"levelo://app?vid=95a5db77-a05c-4b27-9415-2c6d1879f56d","ios":"levelo://app?vid=95a5db77-a05c-4b27-9415-2c6d1879f56d"},"vehicle_type_id":"4","last_reported":1683828494,"current_range_meters":20400,"station_id":"ce4bhb92rcd13ifvqen0","pricing_plan_id":"free"},{"bike_id":"1b7ea463-b32a-4479-a408-bd3709b61c63","system_id":"levelo_inurba_marseille","lat":43.290104,"lon":5.356111,"is_reserved":false,"is_disabled":false,"rental_uris":{"android":"levelo://app?vid=1b7ea463-b32a-4479-a408-bd3709b61c63","ios":"levelo://app?vid=1b7ea463-b32a-4479-a408-bd3709b61c63"},"vehicle_type_id":"4","last_reported":1683828494,"current_range_meters":15600,"station_id":"ce4bhb92rcd13ifvqen0","pricing_plan_id":"free"},{"bike_id":"211b7316-10de-4bc7-a044-db2211126bbf","system_id":"levelo_inurba_marseille","lat":43.3304,"lon":5.3892,"is_reserved":false,"is_disabled":false,"rental_uris":{"android":"levelo://app?vid=211b7316-10de-4bc7-a044-db2211126bbf","ios":"levelo://app?vid=211b7316-10de-4bc7-a044-db2211126bbf"},"vehicle_type_id":"4","last_reported":1683828494,"current_range_meters":18400,"station_id":"ce4bhr92rcd13ifvqhrg","pricing_plan_id":"free"},{"bike_id":"518082fb-52cc-4c89-97e5-f9686a606b88","system_id":"levelo_inurba_marseille","lat":43.290104,"lon":5.356111,"is_reserved":false,"is_disabled":false,"rental_uris":{"android":"levelo://app?vid=518082fb-52cc-4c89-97e5-f9686a606b88","ios":"levelo://app?vid=518082fb-52cc-4c89-97e5-f9686a606b88"},"vehicle_type_id":"4","last_reported":1683828494,"current_range_meters":23200,"station_id":"ce4bhb92rcd13ifvqen0","pricing_plan_id":"free"},{"bike_id":"64618708-f932-40a4-b226-b3eaffff2ff9","system_id":"levelo_inurba_marseille","lat":43.290104,"lon":5.356111,"is_reserved":false,"is_disabled":false,"rental_uris":{"android":"levelo://app?vid=64618708-f932-40a4-b226-b3eaffff2ff9","ios":"levelo://app?vid=64618708-f932-40a4-b226-b3eaffff2ff9"},"vehicle_type_id":"4","last_reported":1683828494,"current_range_meters":17600,"station_id":"ce4bhb92rcd13ifvqen0","pricing_plan_id":"free"},{"bike_id":"7e3c8b47-15fd-4b01-ab5b-c4715c415b4f","system_id":"levelo_inurba_marseille","lat":43.290104,"lon":5.356111,"is_reserved":false,"is_disabled":false,"rental_uris":{"android":"levelo://app?vid=7e3c8b47-15fd-4b01-ab5b-c4715c415b4f","ios":"levelo://app?vid=7e3c8b47-15fd-4b01-ab5b-c4715c415b4f"},"vehicle_type_id":"4","last_reported":1683828494,"current_range_meters":12800,"station_id":"ce4bhb92rcd13ifvqen0","pricing_plan_id":"free"},{"bike_id":"eb9c1069-6fcc-4052-90a5-6b75bbaeaa66","system_id":"levelo_inurba_marseille","lat":43.33044,"lon":5.38918,"is_reserved":false,"is_disabled":false,"rental_uris":{"android":"levelo://app?vid=eb9c1069-6fcc-4052-90a5-6b75bbaeaa66","ios":"levelo://app?vid=eb9c1069-6fcc-4052-90a5-6b75bbaeaa66"},"vehicle_type_id":"4","last_reported":1683828494,"current_range_meters":7600,"station_id":"ce4bhr92rcd13ifvqhrg","pricing_plan_id":"free"},{"bike_id":"fc29cd69-c79b-40e9-8a0b-d5aab5e56704","system_id":"levelo_inurba_marseille","lat":43.290104,"lon":5.356111,"is_reserved":false,"is_disabled":false,"rental_uris":{"android":"levelo://app?vid=fc29cd69-c79b-40e9-8a0b-d5aab5e56704","ios":"levelo://app?vid=fc29cd69-c79b-40e9-8a0b-d5aab5e56704"},"vehicle_type_id":"4","last_reported":1683828494,"current_range_meters":23600,"station_id":"ce4bhb92rcd13ifvqen0","pricing_plan_id":"free"},{"bike_id":"f55f9613-885a-4d9f-b9d0-876dd874452b","system_id":"levelo_inurba_marseille","lat":43.33047,"lon":5.38916,"is_reserved":false,"is_disabled":false,"rental_uris":{"android":"levelo://app?vid=f55f9613-885a-4d9f-b9d0-876dd874452b","ios":"levelo://app?vid=f55f9613-885a-4d9f-b9d0-876dd874452b"},"vehicle_type_id":"4","last_reported":1683828494,"current_range_meters":22800,"station_id":"ce4bhr92rcd13ifvqhrg","pricing_plan_id":"free"},{"bike_id":"291e92dd-c2ab-4c58-b1dd-0973f1c413d5","system_id":"levelo_inurba_marseille","lat":43.33048,"lon":5.38917,"is_reserved":false,"is_disabled":false,"rental_uris":{"android":"levelo://app?vid=291e92dd-c2ab-4c58-b1dd-0973f1c413d5","ios":"levelo://app?vid=291e92dd-c2ab-4c58-b1dd-0973f1c413d5"},"vehicle_type_id":"4","last_reported":1683828494,"current_range_meters":24800,"station_id":"ce4bhr92rcd13ifvqhrg","pricing_plan_id":"free"},{"bike_id":"154bd7a0-b17c-47e4-a248-4f695cb75ec6","system_id":"levelo_inurba_marseille","lat":43.33046,"lon":5.38921,"is_reserved":false,"is_disabled":false,"rental_uris":{"android":"levelo://app?vid=154bd7a0-b17c-47e4-a248-4f695cb75ec6","ios":"levelo://app?vid=154bd7a0-b17c-47e4-a248-4f695cb75ec6"},"vehicle_type_id":"4","last_reported":1683828494,"current_range_meters":23200,"station_id":"ce4bhr92rcd13ifvqhrg","pricing_plan_id":"free"},{"bike_id":"672e5e77-3d3d-45b5-a880-92c10c0cdc66","system_id":"levelo_inurba_marseille","lat":43.290103,"lon":5.356114,"is_reserved":false,"is_disabled":false,"rental_uris":{"android":"levelo://app?vid=672e5e77-3d3d-45b5-a880-92c10c0cdc66","ios":"levelo://app?vid=672e5e77-3d3d-45b5-a880-92c10c0cdc66"},"vehicle_type_id":"4","last_reported":1683828494,"current_range_meters":29200,"station_id":"ce4bhb92rcd13ifvqen0","pricing_plan_id":"free"},{"bike_id":"faa96f17-b2d0-4d0e-ac12-1ca775556f52","system_id":"levelo_inurba_marseille","lat":43.29003,"lon":5.35613,"is_reserved":false,"is_disabled":false,"rental_uris":{"android":"levelo://app?vid=faa96f17-b2d0-4d0e-ac12-1ca775556f52","ios":"levelo://app?vid=faa96f17-b2d0-4d0e-ac12-1ca775556f52"},"vehicle_type_id":"4","last_reported":1683828494,"current_range_meters":21200,"station_id":"ce4bhb92rcd13ifvqen0","pricing_plan_id":"free"},{"bike_id":"203b2f11-a3b5-475b-8f41-939e1d33a596","system_id":"levelo_inurba_marseille","lat":43.33049,"lon":5.3892,"is_reserved":false,"is_disabled":false,"rental_uris":{"android":"levelo://app?vid=203b2f11-a3b5-475b-8f41-939e1d33a596","ios":"levelo://app?vid=203b2f11-a3b5-475b-8f41-939e1d33a596"},"vehicle_type_id":"4","last_reported":1683828494,"current_range_meters":27200,"station_id":"ce4bhr92rcd13ifvqhrg","pricing_plan_id":"free"},{"bike_id":"22a789aa-dc67-4ff6-b512-159a5e831dfe","system_id":"levelo_inurba_marseille","lat":43.29002,"lon":5.35608,"is_reserved":false,"is_disabled":false,"rental_uris":{"android":"levelo://app?vid=22a789aa-dc67-4ff6-b512-159a5e831dfe","ios":"levelo://app?vid=22a789aa-dc67-4ff6-b512-159a5e831dfe"},"vehicle_type_id":"4","last_reported":1683828494,"current_range_meters":0,"station_id":"ce4bhb92rcd13ifvqen0","pricing_plan_id":"free"},{"bike_id":"94f7f6e0-6812-4bb8-bfbd-23abae7854e7","system_id":"levelo_inurba_marseille","lat":43.28996,"lon":5.35608,"is_reserved":false,"is_disabled":false,"rental_uris":{"android":"levelo://app?vid=94f7f6e0-6812-4bb8-bfbd-23abae7854e7","ios":"levelo://app?vid=94f7f6e0-6812-4bb8-bfbd-23abae7854e7"},"vehicle_type_id":"4","last_reported":1683828494,"current_range_meters":16400,"station_id":"","pricing_plan_id":"free"},{"bike_id":"8c721ff0-e282-4012-95bf-c974ef16ab4d","system_id":"levelo_inurba_marseille","lat":43.295169,"lon":5.390426,"is_reserved":false,"is_disabled":false,"rental_uris":{"android":"levelo://app?vid=8c721ff0-e282-4012-95bf-c974ef16ab4d","ios":"levelo://app?vid=8c721ff0-e282-4012-95bf-c974ef16ab4d"},"vehicle_type_id":"4","last_reported":1683828494,"current_range_meters":28000,"station_id":"ce4bh3p2rcd13ifvqdp0","pricing_plan_id":"free"},{"bike_id":"78afcde5-1ffa-4614-b6a9-cece171a98a5","system_id":"levelo_inurba_marseille","lat":43.2901,"lon":5.381269,"is_reserved":false,"is_disabled":false,"rental_uris":{"android":"levelo://app?vid=78afcde5-1ffa-4614-b6a9-cece171a98a5","ios":"levelo://app?vid=78afcde5-1ffa-4614-b6a9-cece171a98a5"},"vehicle_type_id":"4","last_reported":1683828494,"current_range_meters":19200,"station_id":"ce4bh4p2rcd13ifvqe1g","pricing_plan_id":"free"},{"bike_id":"4f252e65-e480-4a8f-9278-ab1dfd67121e","system_id":"levelo_inurba_marseille","lat":43.28856,"lon":5.358371,"is_reserved":false,"is_disabled":false,"rental_uris":{"android":"levelo://app?vid=4f252e65-e480-4a8f-9278-ab1dfd67121e","ios":"levelo://app?vid=4f252e65-e480-4a8f-9278-ab1dfd67121e"},"vehicle_type_id":"4","last_reported":1683828494,"current_range_meters":0,"station_id":"ce4bhb12rcd13ifvqem0","pricing_plan_id":"free"},{"bike_id":"07c09652-a375-4e07-b544-478aed47fcbb","system_id":"levelo_inurba_marseille","lat":43.28856,"lon":5.358371,"is_reserved":false,"is_disabled":false,"rental_uris":{"android":"levelo://app?vid=07c09652-a375-4e07-b544-478aed47fcbb","ios":"levelo://app?vid=07c09652-a375-4e07-b544-478aed47fcbb"},"vehicle_type_id":"4","last_reported":1683828494,"current_range_meters":3200,"station_id":"ce4bhb12rcd13ifvqem0","pricing_plan_id":"free"},{"bike_id":"5b09ff4e-44aa-473c-b19e-cc495c36479c","system_id":"levelo_inurba_marseille","lat":43.28856,"lon":5.358371,"is_reserved":false,"is_disabled":false,"rental_uris":{"android":"levelo://app?vid=5b09ff4e-44aa-473c-b19e-cc495c36479c","ios":"levelo://app?vid=5b09ff4e-44aa-473c-b19e-cc495c36479c"},"vehicle_type_id":"4","last_reported":1683828494,"current_range_meters":14000,"station_id":"ce4bhb12rcd13ifvqem0","pricing_plan_id":"free"},{"bike_id":"5092c268-7bfe-4872-8dbb-ea7a979d6715","system_id":"levelo_inurba_marseille","lat":43.28856,"lon":5.358371,"is_reserved":false,"is_disabled":false,"rental_uris":{"android":"levelo://app?vid=5092c268-7bfe-4872-8dbb-ea7a979d6715","ios":"levelo://app?vid=5092c268-7bfe-4872-8dbb-ea7a979d6715"},"vehicle_type_id":"4","last_reported":1683828494,"current_range_meters":2800,"station_id":"ce4bhb12rcd13ifvqem0","pricing_plan_id":"free"},{"bike_id":"0693a76e-00d0-4673-ad0e-13d8a14367c2","system_id":"levelo_inurba_marseille","lat":43.28856,"lon":5.358371,"is_reserved":false,"is_disabled":false,"rental_uris":{"android":"levelo://app?vid=0693a76e-00d0-4673-ad0e-13d8a14367c2","ios":"levelo://app?vid=0693a76e-00d0-4673-ad0e-13d8a14367c2"},"vehicle_type_id":"4","last_reported":1683828494,"current_range_meters":5200,"station_id":"ce4bhb12rcd13ifvqem0","pricing_plan_id":"free"},{"bike_id":"1ae28bd7-c220-4767-bb54-a194de2d1ca9","system_id":"levelo_inurba_marseille","lat":43.28856,"lon":5.358371,"is_reserved":false,"is_disabled":false,"rental_uris":{"android":"levelo://app?vid=1ae28bd7-c220-4767-bb54-a194de2d1ca9","ios":"levelo://app?vid=1ae28bd7-c220-4767-bb54-a194de2d1ca9"},"vehicle_type_id":"4","last_reported":1683828494,"current_range_meters":14400,"station_id":"ce4bhb12rcd13ifvqem0","pricing_plan_id":"free"},{"bike_id":"c4021901-a9c3-4d42-b783-ce6991355322","system_id":"levelo_inurba_marseille","lat":43.33089,"lon":5.39076,"is_reserved":false,"is_disabled":false,"rental_uris":{"android":"levelo://app?vid=c4021901-a9c3-4d42-b783-ce6991355322","ios":"levelo://app?vid=c4021901-a9c3-4d42-b783-ce6991355322"},"vehicle_type_id":"4","last_reported":1683828494,"current_range_meters":400,"station_id":"","pricing_plan_id":"free"},{"bike_id":"b4b39268-3abf-4f4a-a0e4-52244da9a53a","system_id":"levelo_inurba_marseille","lat":43.28856,"lon":5.358371,"is_reserved":false,"is_disabled":false,"rental_uris":{"android":"levelo://app?vid=b4b39268-3abf-4f4a-a0e4-52244da9a53a","ios":"levelo://app?vid=b4b39268-3abf-4f4a-a0e4-52244da9a53a"},"vehicle_type_id":"4","last_reported":1683828494,"current_range_meters":21200,"station_id":"ce4bhb12rcd13ifvqem0","pricing_plan_id":"free"},{"bike_id":"74e4edad-791b-402d-b641-bdd8c2d7a929","system_id":"levelo_inurba_marseille","lat":43.33746,"lon":5.37424,"is_reserved":false,"is_disabled":false,"rental_uris":{"android":"levelo://app?vid=74e4edad-791b-402d-b641-bdd8c2d7a929","ios":"levelo://app?vid=74e4edad-791b-402d-b641-bdd8c2d7a929"},"vehicle_type_id":"4","last_reported":1683828494,"current_range_meters":20000,"station_id":"","pricing_plan_id":"free"},{"bike_id":"b580e0e2-2f8d-4df7-94bc-e067ad6ab0cb","system_id":"levelo_inurba_marseille","lat":43.32678,"lon":5.39605,"is_reserved":false,"is_disabled":false,"rental_uris":{"android":"levelo://app?vid=b580e0e2-2f8d-4df7-94bc-e067ad6ab0cb","ios":"levelo://app?vid=b580e0e2-2f8d-4df7-94bc-e067ad6ab0cb"},"vehicle_type_id":"4","last_reported":1683828494,"current_range_meters":15200,"station_id":"","pricing_plan_id":"free"},{"bike_id":"7c56c76c-733e-4eb1-9830-931e734057aa","system_id":"levelo_inurba_marseille","lat":43.33761,"lon":5.37457,"is_reserved":false,"is_disabled":false,"rental_uris":{"android":"levelo://app?vid=7c56c76c-733e-4eb1-9830-931e734057aa","ios":"levelo://app?vid=7c56c76c-733e-4eb1-9830-931e734057aa"},"vehicle_type_id":"4","last_reported":1683828494,"current_range_meters":28000,"station_id":"","pricing_plan_id":"free"},{"bike_id":"32594d5b-d499-44fe-a9c3-f12b9f641060","system_id":"levelo_inurba_marseille","lat":43.33772,"lon":5.37427,"is_reserved":false,"is_disabled":false,"rental_uris":{"android":"levelo://app?vid=32594d5b-d499-44fe-a9c3-f12b9f641060","ios":"levelo://app?vid=32594d5b-d499-44fe-a9c3-f12b9f641060"},"vehicle_type_id":"4","last_reported":1683828494,"current_range_meters":1600,"station_id":"","pricing_plan_id":"free"},{"bike_id":"fddf6e6a-550c-4e87-a875-20323655eaee","system_id":"levelo_inurba_marseille","lat":43.301117,"lon":5.398795,"is_reserved":false,"is_disabled":false,"rental_uris":{"android":"levelo://app?vid=fddf6e6a-550c-4e87-a875-20323655eaee","ios":"levelo://app?vid=fddf6e6a-550c-4e87-a875-20323655eaee"},"vehicle_type_id":"4","last_reported":1683828494,"current_range_meters":6000,"station_id":"ce4bh0h2rcd13ifvqd40","pricing_plan_id":"free"},{"bike_id":"d24ad7ed-46a3-4b2d-92c9-021a931905ff","system_id":"levelo_inurba_marseille","lat":43.28667,"lon":5.36365,"is_reserved":false,"is_disabled":false,"rental_uris":{"android":"levelo://app?vid=d24ad7ed-46a3-4b2d-92c9-021a931905ff","ios":"levelo://app?vid=d24ad7ed-46a3-4b2d-92c9-021a931905ff"},"vehicle_type_id":"4","last_reported":1683828494,"current_range_meters":29600,"station_id":"ce4bhah2rcd13ifvqej0","pricing_plan_id":"free"},{"bike_id":"d441cbd0-9a33-4251-b3c0-d5fc7cc23380","system_id":"levelo_inurba_marseille","lat":43.295196,"lon":5.39397,"is_reserved":false,"is_disabled":false,"rental_uris":{"android":"levelo://app?vid=d441cbd0-9a33-4251-b3c0-d5fc7cc23380","ios":"levelo://app?vid=d441cbd0-9a33-4251-b3c0-d5fc7cc23380"},"vehicle_type_id":"4","last_reported":1683828494,"current_range_meters":7600,"station_id":"ce4bh292rcd13ifvqdf0","pricing_plan_id":"free"},{"bike_id":"7931051b-ff7d-4ca7-bbc7-027abafb1061","system_id":"levelo_inurba_marseille","lat":43.295196,"lon":5.39397,"is_reserved":false,"is_disabled":false,"rental_uris":{"android":"levelo://app?vid=7931051b-ff7d-4ca7-bbc7-027abafb1061","ios":"levelo://app?vid=7931051b-ff7d-4ca7-bbc7-027abafb1061"},"vehicle_type_id":"4","last_reported":1683828494,"current_range_meters":3200,"station_id":"ce4bh292rcd13ifvqdf0","pricing_plan_id":"free"},{"bike_id":"b1435322-0ceb-4aa9-94a0-41d173c47623","system_id":"levelo_inurba_marseille","lat":43.295196,"lon":5.39397,"is_reserved":false,"is_disabled":false,"rental_uris":{"android":"levelo://app?vid=b1435322-0ceb-4aa9-94a0-41d173c47623","ios":"levelo://app?vid=b1435322-0ceb-4aa9-94a0-41d173c47623"},"vehicle_type_id":"4","last_reported":1683828494,"current_range_meters":16800,"station_id":"ce4bh292rcd13ifvqdf0","pricing_plan_id":"free"},{"bike_id":"86796564-7a35-4c56-9e78-992fd500dba1","system_id":"levelo_inurba_marseille","lat":43.295196,"lon":5.39397,"is_reserved":false,"is_disabled":false,"rental_uris":{"android":"levelo://app?vid=86796564-7a35-4c56-9e78-992fd500dba1","ios":"levelo://app?vid=86796564-7a35-4c56-9e78-992fd500dba1"},"vehicle_type_id":"4","last_reported":1683828494,"current_range_meters":5600,"station_id":"ce4bh292rcd13ifvqdf0","pricing_plan_id":"free"},{"bike_id":"60855d81-876a-44af-b1a2-30b11bf99067","system_id":"levelo_inurba_marseille","lat":43.29874,"lon":5.39752,"is_reserved":false,"is_disabled":false,"rental_uris":{"android":"levelo://app?vid=60855d81-876a-44af-b1a2-30b11bf99067","ios":"levelo://app?vid=60855d81-876a-44af-b1a2-30b11bf99067"},"vehicle_type_id":"4","last_reported":1683828494,"current_range_meters":25600,"station_id":"ce4bh0h2rcd13ifvqd50","pricing_plan_id":"free"},{"bike_id":"e26a7435-4807-451c-ac90-8e489a65cae7","system_id":"levelo_inurba_marseille","lat":43.295194,"lon":5.39397,"is_reserved":false,"is_disabled":false,"rental_uris":{"android":"levelo://app?vid=e26a7435-4807-451c-ac90-8e489a65cae7","ios":"levelo://app?vid=e26a7435-4807-451c-ac90-8e489a65cae7"},"vehicle_type_id":"4","last_reported":1683828494,"current_range_meters":16800,"station_id":"ce4bh292rcd13ifvqdf0","pricing_plan_id":"free"},{"bike_id":"2287a716-1792-426a-83d7-694d279d4ff9","system_id":"levelo_inurba_marseille","lat":43.295194,"lon":5.39397,"is_reserved":false,"is_disabled":false,"rental_uris":{"android":"levelo://app?vid=2287a716-1792-426a-83d7-694d279d4ff9","ios":"levelo://app?vid=2287a716-1792-426a-83d7-694d279d4ff9"},"vehicle_type_id":"4","last_reported":1683828494,"current_range_meters":7600,"station_id":"ce4bh292rcd13ifvqdf0","pricing_plan_id":"free"},{"bike_id":"6f6273e5-d914-4a15-8fa7-e3d298df410e","system_id":"levelo_inurba_marseille","lat":43.295196,"lon":5.39397,"is_reserved":false,"is_disabled":false,"rental_uris":{"android":"levelo://app?vid=6f6273e5-d914-4a15-8fa7-e3d298df410e","ios":"levelo://app?vid=6f6273e5-d914-4a15-8fa7-e3d298df410e"},"vehicle_type_id":"4","last_reported":1683828494,"current_range_meters":11600,"station_id":"ce4bh292rcd13ifvqdf0","pricing_plan_id":"free"},{"bike_id":"97f95c39-5732-431f-90c5-b1f54f8a94d5","system_id":"levelo_inurba_marseille","lat":43.295194,"lon":5.39397,"is_reserved":false,"is_disabled":false,"rental_uris":{"android":"levelo://app?vid=97f95c39-5732-431f-90c5-b1f54f8a94d5","ios":"levelo://app?vid=97f95c39-5732-431f-90c5-b1f54f8a94d5"},"vehicle_type_id":"4","last_reported":1683828494,"current_range_meters":17200,"station_id":"ce4bh292rcd13ifvqdf0","pricing_plan_id":"free"},{"bike_id":"47cbb5c8-4490-44d5-850f-82139616c211","system_id":"levelo_inurba_marseille","lat":43.29521,"lon":5.39408,"is_reserved":false,"is_disabled":false,"rental_uris":{"android":"levelo://app?vid=47cbb5c8-4490-44d5-850f-82139616c211","ios":"levelo://app?vid=47cbb5c8-4490-44d5-850f-82139616c211"},"vehicle_type_id":"4","last_reported":1683828494,"current_range_meters":18000,"station_id":"ce4bh292rcd13ifvqdf0","pricing_plan_id":"free"},{"bike_id":"b4627458-4bc9-46f5-9a1a-36d47117fe15","system_id":"levelo_inurba_marseille","lat":43.295194,"lon":5.39397,"is_reserved":false,"is_disabled":false,"rental_uris":{"android":"levelo://app?vid=b4627458-4bc9-46f5-9a1a-36d47117fe15","ios":"levelo://app?vid=b4627458-4bc9-46f5-9a1a-36d47117fe15"},"vehicle_type_id":"4","last_reported":1683828494,"current_range_meters":5600,"station_id":"ce4bh292rcd13ifvqdf0","pricing_plan_id":"free"},{"bike_id":"994f47c5-07d6-4bbb-9a39-4a95ca61ca6f","system_id":"levelo_inurba_marseille","lat":43.295194,"lon":5.39397,"is_reserved":false,"is_disabled":false,"rental_uris":{"android":"levelo://app?vid=994f47c5-07d6-4bbb-9a39-4a95ca61ca6f","ios":"levelo://app?vid=994f47c5-07d6-4bbb-9a39-4a95ca61ca6f"},"vehicle_type_id":"4","last_reported":1683828494,"current_range_meters":0,"station_id":"ce4bh292rcd13ifvqdf0","pricing_plan_id":"free"},{"bike_id":"49c74d0c-fd5a-4e97-80bc-8dad227aa936","system_id":"levelo_inurba_marseille","lat":43.302759,"lon":5.400793,"is_reserved":false,"is_disabled":false,"rental_uris":{"android":"levelo://app?vid=49c74d0c-fd5a-4e97-80bc-8dad227aa936","ios":"levelo://app?vid=49c74d0c-fd5a-4e97-80bc-8dad227aa936"},"vehicle_type_id":"4","last_reported":1683828494,"current_range_meters":12400,"station_id":"ce4bgvh2rcd13ifvqcs0","pricing_plan_id":"free"},{"bike_id":"848f2907-dab2-4967-8fd0-41eb23c24209","system_id":"levelo_inurba_marseille","lat":43.286039,"lon":5.370679,"is_reserved":false,"is_disabled":false,"rental_uris":{"android":"levelo://app?vid=848f2907-dab2-4967-8fd0-41eb23c24209","ios":"levelo://app?vid=848f2907-dab2-4967-8fd0-41eb23c24209"},"vehicle_type_id":"4","last_reported":1683828494,"current_range_meters":31600,"station_id":"ce4bht12rcd13ifvqi60","pricing_plan_id":"free"},{"bike_id":"88d37bc9-034e-490f-80e5-628dbb2fb464","system_id":"levelo_inurba_marseille","lat":43.302759,"lon":5.400793,"is_reserved":false,"is_disabled":false,"rental_uris":{"android":"levelo://app?vid=88d37bc9-034e-490f-80e5-628dbb2fb464","ios":"levelo://app?vid=88d37bc9-034e-490f-80e5-628dbb2fb464"},"vehicle_type_id":"4","last_reported":1683828494,"current_range_meters":1200,"station_id":"ce4bgvh2rcd13ifvqcs0","pricing_plan_id":"free"},{"bike_id":"ceb320f3-fdfb-40f2-bd4e-849f86cf3d64","system_id":"levelo_inurba_marseille","lat":43.286039,"lon":5.370679,"is_reserved":false,"is_disabled":false,"rental_uris":{"android":"levelo://app?vid=ceb320f3-fdfb-40f2-bd4e-849f86cf3d64","ios":"levelo://app?vid=ceb320f3-fdfb-40f2-bd4e-849f86cf3d64"},"vehicle_type_id":"4","last_reported":1683828494,"current_range_meters":12000,"station_id":"ce4bht12rcd13ifvqi60","pricing_plan_id":"free"},{"bike_id":"a8321a2f-8aba-4b04-bfbb-e735d24c28fb","system_id":"levelo_inurba_marseille","lat":43.286039,"lon":5.370679,"is_reserved":false,"is_disabled":false,"rental_uris":{"android":"levelo://app?vid=a8321a2f-8aba-4b04-bfbb-e735d24c28fb","ios":"levelo://app?vid=a8321a2f-8aba-4b04-bfbb-e735d24c28fb"},"vehicle_type_id":"4","last_reported":1683828494,"current_range_meters":18000,"station_id":"ce4bht12rcd13ifvqi60","pricing_plan_id":"free"},{"bike_id":"5b7eac43-bb0c-419c-95c4-d0bec1a8aab0","system_id":"levelo_inurba_marseille","lat":43.286039,"lon":5.370679,"is_reserved":false,"is_disabled":false,"rental_uris":{"android":"levelo://app?vid=5b7eac43-bb0c-419c-95c4-d0bec1a8aab0","ios":"levelo://app?vid=5b7eac43-bb0c-419c-95c4-d0bec1a8aab0"},"vehicle_type_id":"4","last_reported":1683828494,"current_range_meters":29200,"station_id":"ce4bht12rcd13ifvqi60","pricing_plan_id":"free"},{"bike_id":"723c4c28-3f87-4ee4-83ac-04dd82f97fb1","system_id":"levelo_inurba_marseille","lat":43.286039,"lon":5.370679,"is_reserved":false,"is_disabled":false,"rental_uris":{"android":"levelo://app?vid=723c4c28-3f87-4ee4-83ac-04dd82f97fb1","ios":"levelo://app?vid=723c4c28-3f87-4ee4-83ac-04dd82f97fb1"},"vehicle_type_id":"4","last_reported":1683828494,"current_range_meters":9600,"station_id":"ce4bht12rcd13ifvqi60","pricing_plan_id":"free"},{"bike_id":"281fa2d6-5cc6-4700-9a84-d76537d8c9d0","system_id":"levelo_inurba_marseille","lat":43.286039,"lon":5.370679,"is_reserved":false,"is_disabled":false,"rental_uris":{"android":"levelo://app?vid=281fa2d6-5cc6-4700-9a84-d76537d8c9d0","ios":"levelo://app?vid=281fa2d6-5cc6-4700-9a84-d76537d8c9d0"},"vehicle_type_id":"4","last_reported":1683828494,"current_range_meters":31600,"station_id":"ce4bht12rcd13ifvqi60","pricing_plan_id":"free"},{"bike_id":"742fc298-88d3-40c0-8b42-a3eae1a7061e","system_id":"levelo_inurba_marseille","lat":43.286039,"lon":5.370681,"is_reserved":false,"is_disabled":false,"rental_uris":{"android":"levelo://app?vid=742fc298-88d3-40c0-8b42-a3eae1a7061e","ios":"levelo://app?vid=742fc298-88d3-40c0-8b42-a3eae1a7061e"},"vehicle_type_id":"4","last_reported":1683828494,"current_range_meters":30400,"station_id":"ce4bht12rcd13ifvqi60","pricing_plan_id":"free"},{"bike_id":"c34f11f0-30b7-433f-8ee6-2d835895c44d","system_id":"levelo_inurba_marseille","lat":43.286039,"lon":5.370679,"is_reserved":false,"is_disabled":false,"rental_uris":{"android":"levelo://app?vid=c34f11f0-30b7-433f-8ee6-2d835895c44d","ios":"levelo://app?vid=c34f11f0-30b7-433f-8ee6-2d835895c44d"},"vehicle_type_id":"4","last_reported":1683828494,"current_range_meters":28400,"station_id":"ce4bht12rcd13ifvqi60","pricing_plan_id":"free"},{"bike_id":"e515d082-b630-45a5-8415-1a214d2a93f9","system_id":"levelo_inurba_marseille","lat":43.33853,"lon":5.3555,"is_reserved":false,"is_disabled":false,"rental_uris":{"android":"levelo://app?vid=e515d082-b630-45a5-8415-1a214d2a93f9","ios":"levelo://app?vid=e515d082-b630-45a5-8415-1a214d2a93f9"},"vehicle_type_id":"4","last_reported":1683828494,"current_range_meters":1600,"station_id":"","pricing_plan_id":"free"},{"bike_id":"e9de2bf1-79b4-4e4f-825b-c823633b6caa","system_id":"levelo_inurba_marseille","lat":43.316517,"lon":5.404375,"is_reserved":false,"is_disabled":false,"rental_uris":{"android":"levelo://app?vid=e9de2bf1-79b4-4e4f-825b-c823633b6caa","ios":"levelo://app?vid=e9de2bf1-79b4-4e4f-825b-c823633b6caa"},"vehicle_type_id":"4","last_reported":1683828494,"current_range_meters":10800,"station_id":"ce4bh012rcd13ifvqd00","pricing_plan_id":"free"},{"bike_id":"afb0e273-e365-48b3-809f-c448745728a3","system_id":"levelo_inurba_marseille","lat":43.284534,"lon":5.358662,"is_reserved":false,"is_disabled":false,"rental_uris":{"android":"levelo://app?vid=afb0e273-e365-48b3-809f-c448745728a3","ios":"levelo://app?vid=afb0e273-e365-48b3-809f-c448745728a3"},"vehicle_type_id":"4","last_reported":1683828494,"current_range_meters":22000,"station_id":"ce4bhah2rcd13ifvqei0","pricing_plan_id":"free"},{"bike_id":"05c88aa4-2137-4669-afc4-5b2eac840005","system_id":"levelo_inurba_marseille","lat":43.284534,"lon":5.358662,"is_reserved":false,"is_disabled":false,"rental_uris":{"android":"levelo://app?vid=05c88aa4-2137-4669-afc4-5b2eac840005","ios":"levelo://app?vid=05c88aa4-2137-4669-afc4-5b2eac840005"},"vehicle_type_id":"4","last_reported":1683828494,"current_range_meters":30800,"station_id":"ce4bhah2rcd13ifvqei0","pricing_plan_id":"free"},{"bike_id":"85121a95-064d-47df-998d-286191cc92a4","system_id":"levelo_inurba_marseille","lat":43.284534,"lon":5.358662,"is_reserved":false,"is_disabled":false,"rental_uris":{"android":"levelo://app?vid=85121a95-064d-47df-998d-286191cc92a4","ios":"levelo://app?vid=85121a95-064d-47df-998d-286191cc92a4"},"vehicle_type_id":"4","last_reported":1683828494,"current_range_meters":24000,"station_id":"ce4bhah2rcd13ifvqei0","pricing_plan_id":"free"},{"bike_id":"c99af658-0625-425c-bb12-0f719b23fac1","system_id":"levelo_inurba_marseille","lat":43.284534,"lon":5.358662,"is_reserved":false,"is_disabled":false,"rental_uris":{"android":"levelo://app?vid=c99af658-0625-425c-bb12-0f719b23fac1","ios":"levelo://app?vid=c99af658-0625-425c-bb12-0f719b23fac1"},"vehicle_type_id":"4","last_reported":1683828494,"current_range_meters":18400,"station_id":"ce4bhah2rcd13ifvqei0","pricing_plan_id":"free"},{"bike_id":"1b44bec4-7364-4c8f-b3ec-d7d366e6a842","system_id":"levelo_inurba_marseille","lat":43.284534,"lon":5.358662,"is_reserved":false,"is_disabled":false,"rental_uris":{"android":"levelo://app?vid=1b44bec4-7364-4c8f-b3ec-d7d366e6a842","ios":"levelo://app?vid=1b44bec4-7364-4c8f-b3ec-d7d366e6a842"},"vehicle_type_id":"4","last_reported":1683828494,"current_range_meters":2800,"station_id":"ce4bhah2rcd13ifvqei0","pricing_plan_id":"free"},{"bike_id":"617f8467-f49b-4b42-afec-1f9f6d39c9c2","system_id":"levelo_inurba_marseille","lat":43.284534,"lon":5.358662,"is_reserved":false,"is_disabled":false,"rental_uris":{"android":"levelo://app?vid=617f8467-f49b-4b42-afec-1f9f6d39c9c2","ios":"levelo://app?vid=617f8467-f49b-4b42-afec-1f9f6d39c9c2"},"vehicle_type_id":"4","last_reported":1683828494,"current_range_meters":18800,"station_id":"ce4bhah2rcd13ifvqei0","pricing_plan_id":"free"},{"bike_id":"1bddfe32-b8b3-407e-a30f-a339622a801b","system_id":"levelo_inurba_marseille","lat":43.284534,"lon":5.358662,"is_reserved":false,"is_disabled":false,"rental_uris":{"android":"levelo://app?vid=1bddfe32-b8b3-407e-a30f-a339622a801b","ios":"levelo://app?vid=1bddfe32-b8b3-407e-a30f-a339622a801b"},"vehicle_type_id":"4","last_reported":1683828494,"current_range_meters":9200,"station_id":"ce4bhah2rcd13ifvqei0","pricing_plan_id":"free"},{"bike_id":"6d89ad4c-f4b2-4789-92ab-9559fc79f6f3","system_id":"levelo_inurba_marseille","lat":43.284534,"lon":5.358662,"is_reserved":false,"is_disabled":false,"rental_uris":{"android":"levelo://app?vid=6d89ad4c-f4b2-4789-92ab-9559fc79f6f3","ios":"levelo://app?vid=6d89ad4c-f4b2-4789-92ab-9559fc79f6f3"},"vehicle_type_id":"4","last_reported":1683828494,"current_range_meters":9200,"station_id":"ce4bhah2rcd13ifvqei0","pricing_plan_id":"free"},{"bike_id":"f79a4966-49fb-4116-934f-6bac4987897d","system_id":"levelo_inurba_marseille","lat":43.284534,"lon":5.358662,"is_reserved":false,"is_disabled":false,"rental_uris":{"android":"levelo://app?vid=f79a4966-49fb-4116-934f-6bac4987897d","ios":"levelo://app?vid=f79a4966-49fb-4116-934f-6bac4987897d"},"vehicle_type_id":"4","last_reported":1683828494,"current_range_meters":6800,"station_id":"ce4bhah2rcd13ifvqei0","pricing_plan_id":"free"},{"bike_id":"a1cc02e3-52e7-4fbe-812f-ee00656d299e","system_id":"levelo_inurba_marseille","lat":43.284534,"lon":5.358662,"is_reserved":false,"is_disabled":false,"rental_uris":{"android":"levelo://app?vid=a1cc02e3-52e7-4fbe-812f-ee00656d299e","ios":"levelo://app?vid=a1cc02e3-52e7-4fbe-812f-ee00656d299e"},"vehicle_type_id":"4","last_reported":1683828494,"current_range_meters":0,"station_id":"ce4bhah2rcd13ifvqei0","pricing_plan_id":"free"},{"bike_id":"7f91c3c9-a6ec-4cc3-a3f5-75698355bff8","system_id":"levelo_inurba_marseille","lat":43.284534,"lon":5.358662,"is_reserved":false,"is_disabled":false,"rental_uris":{"android":"levelo://app?vid=7f91c3c9-a6ec-4cc3-a3f5-75698355bff8","ios":"levelo://app?vid=7f91c3c9-a6ec-4cc3-a3f5-75698355bff8"},"vehicle_type_id":"4","last_reported":1683828494,"current_range_meters":21200,"station_id":"ce4bhah2rcd13ifvqei0","pricing_plan_id":"free"},{"bike_id":"40870914-e4fe-4b6f-87cd-8ebcc4f1f989","system_id":"levelo_inurba_marseille","lat":43.284534,"lon":5.358662,"is_reserved":false,"is_disabled":false,"rental_uris":{"android":"levelo://app?vid=40870914-e4fe-4b6f-87cd-8ebcc4f1f989","ios":"levelo://app?vid=40870914-e4fe-4b6f-87cd-8ebcc4f1f989"},"vehicle_type_id":"4","last_reported":1683828494,"current_range_meters":18400,"station_id":"ce4bhah2rcd13ifvqei0","pricing_plan_id":"free"},{"bike_id":"12908d3c-c2e0-4563-8026-b48589b429ea","system_id":"levelo_inurba_marseille","lat":43.284534,"lon":5.358662,"is_reserved":false,"is_disabled":false,"rental_uris":{"android":"levelo://app?vid=12908d3c-c2e0-4563-8026-b48589b429ea","ios":"levelo://app?vid=12908d3c-c2e0-4563-8026-b48589b429ea"},"vehicle_type_id":"4","last_reported":1683828494,"current_range_meters":18000,"station_id":"ce4bhah2rcd13ifvqei0","pricing_plan_id":"free"},{"bike_id":"13ba9912-c11e-4101-baf6-0b833c059427","system_id":"levelo_inurba_marseille","lat":43.284534,"lon":5.358662,"is_reserved":false,"is_disabled":false,"rental_uris":{"android":"levelo://app?vid=13ba9912-c11e-4101-baf6-0b833c059427","ios":"levelo://app?vid=13ba9912-c11e-4101-baf6-0b833c059427"},"vehicle_type_id":"4","last_reported":1683828494,"current_range_meters":22800,"station_id":"ce4bhah2rcd13ifvqei0","pricing_plan_id":"free"},{"bike_id":"640eed80-2be7-4c55-86da-808b254b4973","system_id":"levelo_inurba_marseille","lat":43.284534,"lon":5.358662,"is_reserved":false,"is_disabled":false,"rental_uris":{"android":"levelo://app?vid=640eed80-2be7-4c55-86da-808b254b4973","ios":"levelo://app?vid=640eed80-2be7-4c55-86da-808b254b4973"},"vehicle_type_id":"4","last_reported":1683828494,"current_range_meters":14800,"station_id":"ce4bhah2rcd13ifvqei0","pricing_plan_id":"free"},{"bike_id":"06b74a32-1e69-484f-996c-7950204b7711","system_id":"levelo_inurba_marseille","lat":43.285848,"lon":5.350787,"is_reserved":false,"is_disabled":false,"rental_uris":{"android":"levelo://app?vid=06b74a32-1e69-484f-996c-7950204b7711","ios":"levelo://app?vid=06b74a32-1e69-484f-996c-7950204b7711"},"vehicle_type_id":"4","last_reported":1683828494,"current_range_meters":1600,"station_id":"ce4bhch2rcd13ifvqeug","pricing_plan_id":"free"},{"bike_id":"f41f0cc4-e547-4138-992b-5ac069152eb9","system_id":"levelo_inurba_marseille","lat":43.28624,"lon":5.35104,"is_reserved":false,"is_disabled":false,"rental_uris":{"android":"levelo://app?vid=f41f0cc4-e547-4138-992b-5ac069152eb9","ios":"levelo://app?vid=f41f0cc4-e547-4138-992b-5ac069152eb9"},"vehicle_type_id":"4","last_reported":1683828494,"current_range_meters":7200,"station_id":"","pricing_plan_id":"free"},{"bike_id":"1e39daf2-c4e4-4938-aed1-42b448241ab9","system_id":"levelo_inurba_marseille","lat":43.285856,"lon":5.350771,"is_reserved":false,"is_disabled":false,"rental_uris":{"android":"levelo://app?vid=1e39daf2-c4e4-4938-aed1-42b448241ab9","ios":"levelo://app?vid=1e39daf2-c4e4-4938-aed1-42b448241ab9"},"vehicle_type_id":"4","last_reported":1683828494,"current_range_meters":14000,"station_id":"ce4bhch2rcd13ifvqeug","pricing_plan_id":"free"},{"bike_id":"5a85cd83-df86-46cb-be56-9337d30690fa","system_id":"levelo_inurba_marseille","lat":43.28617,"lon":5.35101,"is_reserved":false,"is_disabled":false,"rental_uris":{"android":"levelo://app?vid=5a85cd83-df86-46cb-be56-9337d30690fa","ios":"levelo://app?vid=5a85cd83-df86-46cb-be56-9337d30690fa"},"vehicle_type_id":"4","last_reported":1683828494,"current_range_meters":20400,"station_id":"","pricing_plan_id":"free"},{"bike_id":"b3345545-3256-4e30-9a35-4c79ece76446","system_id":"levelo_inurba_marseille","lat":43.28449,"lon":5.37617,"is_reserved":false,"is_disabled":false,"rental_uris":{"android":"levelo://app?vid=b3345545-3256-4e30-9a35-4c79ece76446","ios":"levelo://app?vid=b3345545-3256-4e30-9a35-4c79ece76446"},"vehicle_type_id":"4","last_reported":1683828494,"current_range_meters":24400,"station_id":"","pricing_plan_id":"free"},{"bike_id":"24584e6d-b035-42a9-a11d-e15f7f8ed874","system_id":"levelo_inurba_marseille","lat":43.295713,"lon":5.399639,"is_reserved":false,"is_disabled":false,"rental_uris":{"android":"levelo://app?vid=24584e6d-b035-42a9-a11d-e15f7f8ed874","ios":"levelo://app?vid=24584e6d-b035-42a9-a11d-e15f7f8ed874"},"vehicle_type_id":"4","last_reported":1683828494,"current_range_meters":14800,"station_id":"ce4bh312rcd13ifvqdj0","pricing_plan_id":"free"},{"bike_id":"b6394904-dd16-4319-b0e6-0b08b12b5000","system_id":"levelo_inurba_marseille","lat":43.295713,"lon":5.399639,"is_reserved":false,"is_disabled":false,"rental_uris":{"android":"levelo://app?vid=b6394904-dd16-4319-b0e6-0b08b12b5000","ios":"levelo://app?vid=b6394904-dd16-4319-b0e6-0b08b12b5000"},"vehicle_type_id":"4","last_reported":1683828494,"current_range_meters":6800,"station_id":"ce4bh312rcd13ifvqdj0","pricing_plan_id":"free"},{"bike_id":"14552f0d-0862-4cef-a769-0797b2d41be6","system_id":"levelo_inurba_marseille","lat":43.295713,"lon":5.399639,"is_reserved":false,"is_disabled":false,"rental_uris":{"android":"levelo://app?vid=14552f0d-0862-4cef-a769-0797b2d41be6","ios":"levelo://app?vid=14552f0d-0862-4cef-a769-0797b2d41be6"},"vehicle_type_id":"4","last_reported":1683828494,"current_range_meters":14400,"station_id":"ce4bh312rcd13ifvqdj0","pricing_plan_id":"free"},{"bike_id":"b8e100a5-df0c-48b9-a151-6820cc49a9bd","system_id":"levelo_inurba_marseille","lat":43.295713,"lon":5.399639,"is_reserved":false,"is_disabled":false,"rental_uris":{"android":"levelo://app?vid=b8e100a5-df0c-48b9-a151-6820cc49a9bd","ios":"levelo://app?vid=b8e100a5-df0c-48b9-a151-6820cc49a9bd"},"vehicle_type_id":"4","last_reported":1683828494,"current_range_meters":11200,"station_id":"ce4bh312rcd13ifvqdj0","pricing_plan_id":"free"},{"bike_id":"f5158d6a-c7de-495b-9c98-2596c38a17b9","system_id":"levelo_inurba_marseille","lat":43.295713,"lon":5.399639,"is_reserved":false,"is_disabled":false,"rental_uris":{"android":"levelo://app?vid=f5158d6a-c7de-495b-9c98-2596c38a17b9","ios":"levelo://app?vid=f5158d6a-c7de-495b-9c98-2596c38a17b9"},"vehicle_type_id":"4","last_reported":1683828494,"current_range_meters":5600,"station_id":"ce4bh312rcd13ifvqdj0","pricing_plan_id":"free"},{"bike_id":"0f75063a-86e9-4c44-b0b1-04195895913e","system_id":"levelo_inurba_marseille","lat":43.295713,"lon":5.399639,"is_reserved":false,"is_disabled":false,"rental_uris":{"android":"levelo://app?vid=0f75063a-86e9-4c44-b0b1-04195895913e","ios":"levelo://app?vid=0f75063a-86e9-4c44-b0b1-04195895913e"},"vehicle_type_id":"4","last_reported":1683828494,"current_range_meters":9600,"station_id":"ce4bh312rcd13ifvqdj0","pricing_plan_id":"free"},{"bike_id":"4a1a2b5f-fb67-4847-82ff-234080a38293","system_id":"levelo_inurba_marseille","lat":43.295713,"lon":5.399639,"is_reserved":false,"is_disabled":false,"rental_uris":{"android":"levelo://app?vid=4a1a2b5f-fb67-4847-82ff-234080a38293","ios":"levelo://app?vid=4a1a2b5f-fb67-4847-82ff-234080a38293"},"vehicle_type_id":"4","last_reported":1683828494,"current_range_meters":10800,"station_id":"ce4bh312rcd13ifvqdj0","pricing_plan_id":"free"},{"bike_id":"ace944aa-c13f-4e13-b00e-6cab56cb58b0","system_id":"levelo_inurba_marseille","lat":43.295713,"lon":5.399639,"is_reserved":false,"is_disabled":false,"rental_uris":{"android":"levelo://app?vid=ace944aa-c13f-4e13-b00e-6cab56cb58b0","ios":"levelo://app?vid=ace944aa-c13f-4e13-b00e-6cab56cb58b0"},"vehicle_type_id":"4","last_reported":1683828494,"current_range_meters":5600,"station_id":"ce4bh312rcd13ifvqdj0","pricing_plan_id":"free"},{"bike_id":"631c5092-dee8-4edb-bbec-f0908119c310","system_id":"levelo_inurba_marseille","lat":43.295713,"lon":5.399639,"is_reserved":false,"is_disabled":false,"rental_uris":{"android":"levelo://app?vid=631c5092-dee8-4edb-bbec-f0908119c310","ios":"levelo://app?vid=631c5092-dee8-4edb-bbec-f0908119c310"},"vehicle_type_id":"4","last_reported":1683828494,"current_range_meters":8400,"station_id":"ce4bh312rcd13ifvqdj0","pricing_plan_id":"free"},{"bike_id":"ac5ba004-58a3-48e8-b5e1-bcc67fe7a186","system_id":"levelo_inurba_marseille","lat":43.34261,"lon":5.35947,"is_reserved":false,"is_disabled":false,"rental_uris":{"android":"levelo://app?vid=ac5ba004-58a3-48e8-b5e1-bcc67fe7a186","ios":"levelo://app?vid=ac5ba004-58a3-48e8-b5e1-bcc67fe7a186"},"vehicle_type_id":"4","last_reported":1683828494,"current_range_meters":4400,"station_id":"","pricing_plan_id":"free"},{"bike_id":"e42acbca-7aa7-4614-9197-e8173e156243","system_id":"levelo_inurba_marseille","lat":43.32345,"lon":5.40608,"is_reserved":false,"is_disabled":false,"rental_uris":{"android":"levelo://app?vid=e42acbca-7aa7-4614-9197-e8173e156243","ios":"levelo://app?vid=e42acbca-7aa7-4614-9197-e8173e156243"},"vehicle_type_id":"4","last_reported":1683828494,"current_range_meters":7200,"station_id":"ce4bhq92rcd13ifvqhjg","pricing_plan_id":"free"},{"bike_id":"6e266bcc-23ff-4526-b4a4-ae5bbd4ec7f0","system_id":"levelo_inurba_marseille","lat":43.32344,"lon":5.40615,"is_reserved":false,"is_disabled":false,"rental_uris":{"android":"levelo://app?vid=6e266bcc-23ff-4526-b4a4-ae5bbd4ec7f0","ios":"levelo://app?vid=6e266bcc-23ff-4526-b4a4-ae5bbd4ec7f0"},"vehicle_type_id":"4","last_reported":1683828494,"current_range_meters":0,"station_id":"ce4bhq92rcd13ifvqhjg","pricing_plan_id":"free"},{"bike_id":"2b0fdaae-91d6-43da-a59e-9e00ba0f32cc","system_id":"levelo_inurba_marseille","lat":43.32347,"lon":5.40614,"is_reserved":false,"is_disabled":false,"rental_uris":{"android":"levelo://app?vid=2b0fdaae-91d6-43da-a59e-9e00ba0f32cc","ios":"levelo://app?vid=2b0fdaae-91d6-43da-a59e-9e00ba0f32cc"},"vehicle_type_id":"4","last_reported":1683828494,"current_range_meters":22000,"station_id":"ce4bhq92rcd13ifvqhjg","pricing_plan_id":"free"},{"bike_id":"eb635cac-8510-43ba-8a97-bed76aa25b9a","system_id":"levelo_inurba_marseille","lat":43.32346,"lon":5.40615,"is_reserved":false,"is_disabled":false,"rental_uris":{"android":"levelo://app?vid=eb635cac-8510-43ba-8a97-bed76aa25b9a","ios":"levelo://app?vid=eb635cac-8510-43ba-8a97-bed76aa25b9a"},"vehicle_type_id":"4","last_reported":1683828494,"current_range_meters":16000,"station_id":"ce4bhq92rcd13ifvqhjg","pricing_plan_id":"free"},{"bike_id":"1706a7fd-7e17-4ae3-87e6-aa72d154eb0a","system_id":"levelo_inurba_marseille","lat":43.32345,"lon":5.40616,"is_reserved":false,"is_disabled":false,"rental_uris":{"android":"levelo://app?vid=1706a7fd-7e17-4ae3-87e6-aa72d154eb0a","ios":"levelo://app?vid=1706a7fd-7e17-4ae3-87e6-aa72d154eb0a"},"vehicle_type_id":"4","last_reported":1683828494,"current_range_meters":10000,"station_id":"ce4bhq92rcd13ifvqhjg","pricing_plan_id":"free"},{"bike_id":"a8c10397-8878-4d69-b421-fa87e0fc128e","system_id":"levelo_inurba_marseille","lat":43.33723,"lon":5.39192,"is_reserved":false,"is_disabled":false,"rental_uris":{"android":"levelo://app?vid=a8c10397-8878-4d69-b421-fa87e0fc128e","ios":"levelo://app?vid=a8c10397-8878-4d69-b421-fa87e0fc128e"},"vehicle_type_id":"4","last_reported":1683828494,"current_range_meters":28000,"station_id":"ce4bhr92rcd13ifvqhsg","pricing_plan_id":"free"},{"bike_id":"d5f60ce2-1625-40e2-bbbc-1e0a2766b755","system_id":"levelo_inurba_marseille","lat":43.33725,"lon":5.39189,"is_reserved":false,"is_disabled":false,"rental_uris":{"android":"levelo://app?vid=d5f60ce2-1625-40e2-bbbc-1e0a2766b755","ios":"levelo://app?vid=d5f60ce2-1625-40e2-bbbc-1e0a2766b755"},"vehicle_type_id":"4","last_reported":1683828494,"current_range_meters":6000,"station_id":"ce4bhr92rcd13ifvqhsg","pricing_plan_id":"free"},{"bike_id":"a332e820-b12d-4eee-bd0d-4ba8f8d1755f","system_id":"levelo_inurba_marseille","lat":43.32344,"lon":5.4062,"is_reserved":false,"is_disabled":false,"rental_uris":{"android":"levelo://app?vid=a332e820-b12d-4eee-bd0d-4ba8f8d1755f","ios":"levelo://app?vid=a332e820-b12d-4eee-bd0d-4ba8f8d1755f"},"vehicle_type_id":"4","last_reported":1683828494,"current_range_meters":4000,"station_id":"ce4bhq92rcd13ifvqhjg","pricing_plan_id":"free"},{"bike_id":"6091acd8-aecd-4aef-997c-91388a787ee5","system_id":"levelo_inurba_marseille","lat":43.32359,"lon":5.40629,"is_reserved":false,"is_disabled":false,"rental_uris":{"android":"levelo://app?vid=6091acd8-aecd-4aef-997c-91388a787ee5","ios":"levelo://app?vid=6091acd8-aecd-4aef-997c-91388a787ee5"},"vehicle_type_id":"4","last_reported":1683828494,"current_range_meters":27600,"station_id":"","pricing_plan_id":"free"},{"bike_id":"1675f962-3b43-47aa-877f-e8676b6bbec2","system_id":"levelo_inurba_marseille","lat":43.288497,"lon":5.393089,"is_reserved":false,"is_disabled":false,"rental_uris":{"android":"levelo://app?vid=1675f962-3b43-47aa-877f-e8676b6bbec2","ios":"levelo://app?vid=1675f962-3b43-47aa-877f-e8676b6bbec2"},"vehicle_type_id":"4","last_reported":1683828494,"current_range_meters":17200,"station_id":"ce4bh2p2rcd13ifvqdi0","pricing_plan_id":"free"},{"bike_id":"d288b67f-c8ee-4cfd-8da5-5de89652c5ff","system_id":"levelo_inurba_marseille","lat":43.288501,"lon":5.393087,"is_reserved":false,"is_disabled":false,"rental_uris":{"android":"levelo://app?vid=d288b67f-c8ee-4cfd-8da5-5de89652c5ff","ios":"levelo://app?vid=d288b67f-c8ee-4cfd-8da5-5de89652c5ff"},"vehicle_type_id":"4","last_reported":1683828494,"current_range_meters":0,"station_id":"ce4bh2p2rcd13ifvqdi0","pricing_plan_id":"free"},{"bike_id":"f9c4849c-f9a0-4998-a89d-41901fa9b968","system_id":"levelo_inurba_marseille","lat":43.284219,"lon":5.3497,"is_reserved":false,"is_disabled":false,"rental_uris":{"android":"levelo://app?vid=f9c4849c-f9a0-4998-a89d-41901fa9b968","ios":"levelo://app?vid=f9c4849c-f9a0-4998-a89d-41901fa9b968"},"vehicle_type_id":"4","last_reported":1683828494,"current_range_meters":0,"station_id":"ce4bhbh2rcd13ifvqepg","pricing_plan_id":"free"},{"bike_id":"2b6c2a40-41fb-4b32-993b-accd395b6bcc","system_id":"levelo_inurba_marseille","lat":43.288497,"lon":5.393089,"is_reserved":false,"is_disabled":false,"rental_uris":{"android":"levelo://app?vid=2b6c2a40-41fb-4b32-993b-accd395b6bcc","ios":"levelo://app?vid=2b6c2a40-41fb-4b32-993b-accd395b6bcc"},"vehicle_type_id":"4","last_reported":1683828494,"current_range_meters":15600,"station_id":"ce4bh2p2rcd13ifvqdi0","pricing_plan_id":"free"},{"bike_id":"e4edc18c-75f7-4518-9545-e4d272fd0bb7","system_id":"levelo_inurba_marseille","lat":43.284219,"lon":5.3497,"is_reserved":false,"is_disabled":false,"rental_uris":{"android":"levelo://app?vid=e4edc18c-75f7-4518-9545-e4d272fd0bb7","ios":"levelo://app?vid=e4edc18c-75f7-4518-9545-e4d272fd0bb7"},"vehicle_type_id":"4","last_reported":1683828494,"current_range_meters":16800,"station_id":"ce4bhbh2rcd13ifvqepg","pricing_plan_id":"free"},{"bike_id":"d577e509-edc7-4d1d-9cab-aa5d7733f234","system_id":"levelo_inurba_marseille","lat":43.288497,"lon":5.393089,"is_reserved":false,"is_disabled":false,"rental_uris":{"android":"levelo://app?vid=d577e509-edc7-4d1d-9cab-aa5d7733f234","ios":"levelo://app?vid=d577e509-edc7-4d1d-9cab-aa5d7733f234"},"vehicle_type_id":"4","last_reported":1683828494,"current_range_meters":16000,"station_id":"ce4bh2p2rcd13ifvqdi0","pricing_plan_id":"free"},{"bike_id":"229d063b-e527-46a9-8277-34f7cc8ab069","system_id":"levelo_inurba_marseille","lat":43.28433,"lon":5.3499,"is_reserved":false,"is_disabled":false,"rental_uris":{"android":"levelo://app?vid=229d063b-e527-46a9-8277-34f7cc8ab069","ios":"levelo://app?vid=229d063b-e527-46a9-8277-34f7cc8ab069"},"vehicle_type_id":"4","last_reported":1683828494,"current_range_meters":13600,"station_id":"ce4bhbh2rcd13ifvqepg","pricing_plan_id":"free"},{"bike_id":"f8df75cb-b783-441a-a36e-b5767d1f0548","system_id":"levelo_inurba_marseille","lat":43.28431,"lon":5.34994,"is_reserved":false,"is_disabled":false,"rental_uris":{"android":"levelo://app?vid=f8df75cb-b783-441a-a36e-b5767d1f0548","ios":"levelo://app?vid=f8df75cb-b783-441a-a36e-b5767d1f0548"},"vehicle_type_id":"4","last_reported":1683828494,"current_range_meters":6800,"station_id":"ce4bhbh2rcd13ifvqepg","pricing_plan_id":"free"},{"bike_id":"c276e5cf-6f24-4ea5-ae8d-ed76ecd32b9a","system_id":"levelo_inurba_marseille","lat":43.284219,"lon":5.3497,"is_reserved":false,"is_disabled":false,"rental_uris":{"android":"levelo://app?vid=c276e5cf-6f24-4ea5-ae8d-ed76ecd32b9a","ios":"levelo://app?vid=c276e5cf-6f24-4ea5-ae8d-ed76ecd32b9a"},"vehicle_type_id":"4","last_reported":1683828494,"current_range_meters":0,"station_id":"ce4bhbh2rcd13ifvqepg","pricing_plan_id":"free"},{"bike_id":"e2f27deb-78d1-4024-9ce3-227411583954","system_id":"levelo_inurba_marseille","lat":43.28427,"lon":5.34998,"is_reserved":false,"is_disabled":false,"rental_uris":{"android":"levelo://app?vid=e2f27deb-78d1-4024-9ce3-227411583954","ios":"levelo://app?vid=e2f27deb-78d1-4024-9ce3-227411583954"},"vehicle_type_id":"4","last_reported":1683828494,"current_range_meters":2400,"station_id":"ce4bhbh2rcd13ifvqepg","pricing_plan_id":"free"},{"bike_id":"6c513a3a-9e00-40c8-a281-b8d6cfb293c4","system_id":"levelo_inurba_marseille","lat":43.28424,"lon":5.3499,"is_reserved":false,"is_disabled":false,"rental_uris":{"android":"levelo://app?vid=6c513a3a-9e00-40c8-a281-b8d6cfb293c4","ios":"levelo://app?vid=6c513a3a-9e00-40c8-a281-b8d6cfb293c4"},"vehicle_type_id":"4","last_reported":1683828494,"current_range_meters":31200,"station_id":"ce4bhbh2rcd13ifvqepg","pricing_plan_id":"free"},{"bike_id":"ae0d0725-006a-4fe0-8464-dc3a91b02281","system_id":"levelo_inurba_marseille","lat":43.284217,"lon":5.349697,"is_reserved":false,"is_disabled":false,"rental_uris":{"android":"levelo://app?vid=ae0d0725-006a-4fe0-8464-dc3a91b02281","ios":"levelo://app?vid=ae0d0725-006a-4fe0-8464-dc3a91b02281"},"vehicle_type_id":"4","last_reported":1683828494,"current_range_meters":23200,"station_id":"ce4bhbh2rcd13ifvqepg","pricing_plan_id":"free"},{"bike_id":"f129971d-869c-498f-b6ed-244ef30fef4e","system_id":"levelo_inurba_marseille","lat":43.284193,"lon":5.349878,"is_reserved":false,"is_disabled":false,"rental_uris":{"android":"levelo://app?vid=f129971d-869c-498f-b6ed-244ef30fef4e","ios":"levelo://app?vid=f129971d-869c-498f-b6ed-244ef30fef4e"},"vehicle_type_id":"4","last_reported":1683828494,"current_range_meters":9600,"station_id":"ce4bhbh2rcd13ifvqepg","pricing_plan_id":"free"},{"bike_id":"fb20ba3b-5a71-4711-92ba-0f5fab14a7c7","system_id":"levelo_inurba_marseille","lat":43.2842,"lon":5.34975,"is_reserved":false,"is_disabled":false,"rental_uris":{"android":"levelo://app?vid=fb20ba3b-5a71-4711-92ba-0f5fab14a7c7","ios":"levelo://app?vid=fb20ba3b-5a71-4711-92ba-0f5fab14a7c7"},"vehicle_type_id":"4","last_reported":1683828494,"current_range_meters":16800,"station_id":"ce4bhbh2rcd13ifvqepg","pricing_plan_id":"free"},{"bike_id":"606fb348-0009-4d34-947d-600356e6962a","system_id":"levelo_inurba_marseille","lat":43.28276,"lon":5.35076,"is_reserved":false,"is_disabled":false,"rental_uris":{"android":"levelo://app?vid=606fb348-0009-4d34-947d-600356e6962a","ios":"levelo://app?vid=606fb348-0009-4d34-947d-600356e6962a"},"vehicle_type_id":"4","last_reported":1683828494,"current_range_meters":11200,"station_id":"ce4bhbp2rcd13ifvqerg","pricing_plan_id":"free"},{"bike_id":"d9072fff-4132-4065-9e99-b3a4ca82804d","system_id":"levelo_inurba_marseille","lat":43.28039,"lon":5.369297,"is_reserved":false,"is_disabled":false,"rental_uris":{"android":"levelo://app?vid=d9072fff-4132-4065-9e99-b3a4ca82804d","ios":"levelo://app?vid=d9072fff-4132-4065-9e99-b3a4ca82804d"},"vehicle_type_id":"4","last_reported":1683828494,"current_range_meters":4800,"station_id":"ce4bha12rcd13ifvqef0","pricing_plan_id":"free"},{"bike_id":"a12d7beb-6b7d-48a3-aa8b-77306a94282f","system_id":"levelo_inurba_marseille","lat":43.28039,"lon":5.369297,"is_reserved":false,"is_disabled":false,"rental_uris":{"android":"levelo://app?vid=a12d7beb-6b7d-48a3-aa8b-77306a94282f","ios":"levelo://app?vid=a12d7beb-6b7d-48a3-aa8b-77306a94282f"},"vehicle_type_id":"4","last_reported":1683828494,"current_range_meters":12000,"station_id":"ce4bha12rcd13ifvqef0","pricing_plan_id":"free"},{"bike_id":"f76b1fef-3187-4dc8-ab12-b22e30a27644","system_id":"levelo_inurba_marseille","lat":43.28039,"lon":5.369297,"is_reserved":false,"is_disabled":false,"rental_uris":{"android":"levelo://app?vid=f76b1fef-3187-4dc8-ab12-b22e30a27644","ios":"levelo://app?vid=f76b1fef-3187-4dc8-ab12-b22e30a27644"},"vehicle_type_id":"4","last_reported":1683828494,"current_range_meters":16400,"station_id":"ce4bha12rcd13ifvqef0","pricing_plan_id":"free"},{"bike_id":"da417126-53ce-40f0-93c1-7553523ef6f4","system_id":"levelo_inurba_marseille","lat":43.296327,"lon":5.405812,"is_reserved":false,"is_disabled":false,"rental_uris":{"android":"levelo://app?vid=da417126-53ce-40f0-93c1-7553523ef6f4","ios":"levelo://app?vid=da417126-53ce-40f0-93c1-7553523ef6f4"},"vehicle_type_id":"4","last_reported":1683828494,"current_range_meters":3600,"station_id":"ce4bh0h2rcd13ifvqd60","pricing_plan_id":"free"},{"bike_id":"5eb88cd2-3c4c-464f-b283-db2112351693","system_id":"levelo_inurba_marseille","lat":43.29636,"lon":5.40592,"is_reserved":false,"is_disabled":false,"rental_uris":{"android":"levelo://app?vid=5eb88cd2-3c4c-464f-b283-db2112351693","ios":"levelo://app?vid=5eb88cd2-3c4c-464f-b283-db2112351693"},"vehicle_type_id":"4","last_reported":1683828494,"current_range_meters":31200,"station_id":"ce4bh0h2rcd13ifvqd60","pricing_plan_id":"free"},{"bike_id":"54c470fd-4954-47e6-8776-b852351854a9","system_id":"levelo_inurba_marseille","lat":43.29635,"lon":5.40593,"is_reserved":false,"is_disabled":false,"rental_uris":{"android":"levelo://app?vid=54c470fd-4954-47e6-8776-b852351854a9","ios":"levelo://app?vid=54c470fd-4954-47e6-8776-b852351854a9"},"vehicle_type_id":"4","last_reported":1683828494,"current_range_meters":12400,"station_id":"ce4bh0h2rcd13ifvqd60","pricing_plan_id":"free"},{"bike_id":"b7dc7839-4445-42fe-aa0a-0d6fa294f7fd","system_id":"levelo_inurba_marseille","lat":43.2963,"lon":5.40592,"is_reserved":false,"is_disabled":false,"rental_uris":{"android":"levelo://app?vid=b7dc7839-4445-42fe-aa0a-0d6fa294f7fd","ios":"levelo://app?vid=b7dc7839-4445-42fe-aa0a-0d6fa294f7fd"},"vehicle_type_id":"4","last_reported":1683828494,"current_range_meters":8800,"station_id":"ce4bh0h2rcd13ifvqd60","pricing_plan_id":"free"},{"bike_id":"441ec2f1-aa67-4373-a27d-a6dbe49b8b64","system_id":"levelo_inurba_marseille","lat":43.296263,"lon":5.40601,"is_reserved":false,"is_disabled":false,"rental_uris":{"android":"levelo://app?vid=441ec2f1-aa67-4373-a27d-a6dbe49b8b64","ios":"levelo://app?vid=441ec2f1-aa67-4373-a27d-a6dbe49b8b64"},"vehicle_type_id":"4","last_reported":1683828494,"current_range_meters":31200,"station_id":"ce4bh0h2rcd13ifvqd60","pricing_plan_id":"free"},