{"last_updated":1752135330,"ttl":60,"version":"2.2","data":{"bikes":[{"bike_id":"cd20cfea-2f2f-444d-a882-a49b6cf370eb","system_id":"levelo_inurba_marseille","lat":43.337444,"lon":5.374475,"is_reserved":false,"is_disabled":true,"rental_uris":{"android":"levelo://app?vid=cd20cfea-2f2f-444d-a882-a49b6cf370eb","ios":"levelo://app?vid=cd20cfea-2f2f-444d-a882-a49b6cf370eb"},"vehicle_type_id":"4","last_reported":1752135330,"current_range_meters":0,"station_id":"","pricing_plan_id":"cebpf4jnsgd1na2vs0mg"},{"bike_id":"3da29fb8-fc97-44c6-b9ac-31dd456b2fd4","system_id":"levelo_inurba_marseille","lat":43.33771,"lon":5.37424,"is_reserved":false,"is_disabled":true,"rental_uris":{"android":"levelo://app?vid=3da29fb8-fc97-44c6-b9ac-31dd456b2fd4","ios":"levelo://app?vid=3da29fb8-fc97-44c6-b9ac-31dd456b2fd4"},"vehicle_type_id":"4","last_reported":1752135330,"current_range_meters":0,"station_id":"","pricing_plan_id":"cebpf4jnsgd1na2vs0mg"},{"bike_id":"01861ad8-a8d7-4be6-816e-651927c87584","system_id":"levelo_inurba_marseille","lat":43.33751,"lon":5.37456,"is_reserved":false,"is_disabled":true,"rental_uris":{"android":"levelo://app?vid=01861ad8-a8d7-4be6-816e-651927c87584","ios":"levelo://app?vid=01861ad8-a8d7-4be6-816e-651927c87584"},"vehicle_type_id":"4","last_reported":1752135330,"current_range_meters":0,"station_id":"","pricing_plan_id":"cebpf4jnsgd1na2vs0mg"},{"bike_id":"24cb9089-93ac-4b36-9d4e-b77f1a42140d","system_id":"levelo_inurba_marseille","lat":43.31339,"lon":5.36781,"is_reserved":false,"is_disabled":true,"rental_uris":{"android":"levelo://app?vid=24cb9089-93ac-4b36-9d4e-b77f1a42140d","ios":"levelo://app?vid=24cb9089-93ac-4b36-9d4e-b77f1a42140d"},"vehicle_type_id":"4","last_reported":1752135330,"current_range_meters":0,"station_id":"","pricing_plan_id":"cebpf4jnsgd1na2vs0mg"},{"bike_id":"37f2becd-23f9-4f13-a711-38b8024eeec7","system_id":"levelo_inurba_marseille","lat":43.33768,"lon":5.37516,"is_reserved":false,"is_disabled":true,"rental_uris":{"android":"levelo://app?vid=37f2becd-23f9-4f13-a711-38b8024eeec7","ios":"levelo://app?vid=37f2becd-23f9-4f13-a711-38b8024eeec7"},"vehicle_type_id":"4","last_reported":1752135330,"current_range_meters":0,"station_id":"","pricing_plan_id":"cebpf4jnsgd1na2vs0mg"},{"bike_id":"b8fcd1b8-e383-4c4c-a466-f8393a965939","system_id":"levelo_inurba_marseille","lat":43.21753,"lon":5.34593,"is_reserved":false,"is_disabled":true,"rental_uris":{"android":"levelo://app?vid=b8fcd1b8-e383-4c4c-a466-f8393a965939","ios":"levelo://app?vid=b8fcd1b8-e383-4c4c-a466-f8393a965939"},"vehicle_type_id":"4","last_reported":1752135330,"current_range_meters":0,"station_id":"","pricing_plan_id":"cebpf4jnsgd1na2vs0mg"},{"bike_id":"53b1a31e-8ada-40c0-8d64-113a81233c84","system_id":"levelo_inurba_marseille","lat":43.36403,"lon":5.3192,"is_reserved":false,"is_disabled":true,"rental_uris":{"android":"levelo://app?vid=53b1a31e-8ada-40c0-8d64-113a81233c84","ios":"levelo://app?vid=53b1a31e-8ada-40c0-8d64-113a81233c84"},"vehicle_type_id":"4","last_reported":1752135330,"current_range_meters":0,"station_id":"","pricing_plan_id":"cebpf4jnsgd1na2vs0mg"},{"bike_id":"8c0cacb6-e724-4873-a451-af728b9459a6","system_id":"levelo_inurba_marseille","lat":43.30949,"lon":5.39039,"is_reserved":false,"is_disabled":true,"rental_uris":{"android":"levelo://app?vid=8c0cacb6-e724-4873-a451-af728b9459a6","ios":"levelo://app?vid=8c0cacb6-e724-4873-a451-af728b9459a6"},"vehicle_type_id":"4","last_reported":1752135330,"current_range_meters":0,"station_id":"ce4bgup2rcd13ifvqco0","pricing_plan_id":"cebpf4jnsgd1na2vs0mg"},{"bike_id":"e712d100-9513-4979-85ae-3889528565c7","system_id":"levelo_inurba_marseille","lat":43.24389,"lon":5.37066,"is_reserved":false,"is_disabled":true,"rental_uris":{"android":"levelo://app?vid=e712d100-9513-4979-85ae-3889528565c7","ios":"levelo://app?vid=e712d100-9513-4979-85ae-3889528565c7"},"vehicle_type_id":"4","last_reported":1752135330,"current_range_meters":0,"station_id":"ce4bhhh2rcd13ifvqfk0","pricing_plan_id":"cebpf4jnsgd1na2vs0mg"},{"bike_id":"1624adf7-6992-425d-8d80-f7305009c345","system_id":"levelo_inurba_marseille","lat":43.26229,"lon":5.40439,"is_reserved":false,"is_disabled":true,"rental_uris":{"android":"levelo://app?vid=1624adf7-6992-425d-8d80-f7305009c345","ios":"levelo://app?vid=1624adf7-6992-425d-8d80-f7305009c345"},"vehicle_type_id":"4","last_reported":1752135330,"current_range_meters":0,"station_id":"ce4bhmh2rcd13ifvqgmg","pricing_plan_id":"cebpf4jnsgd1na2vs0mg"},{"bike_id":"aaded38d-a184-451b-807b-af3cdd8a6d8a","system_id":"levelo_inurba_marseille","lat":43.24188,"lon":5.39719,"is_reserved":false,"is_disabled":true,"rental_uris":{"android":"levelo://app?vid=aaded38d-a184-451b-807b-af3cdd8a6d8a","ios":"levelo://app?vid=aaded38d-a184-451b-807b-af3cdd8a6d8a"},"vehicle_type_id":"4","last_reported":1752135330,"current_range_meters":0,"station_id":"ce4bhn12rcd13ifvqgpg","pricing_plan_id":"cebpf4jnsgd1na2vs0mg"},{"bike_id":"d0afdcac-61f9-451b-b809-cdf62d609c75","system_id":"levelo_inurba_marseille","lat":43.29544,"lon":5.42263,"is_reserved":false,"is_disabled":true,"rental_uris":{"android":"levelo://app?vid=d0afdcac-61f9-451b-b809-cdf62d609c75","ios":"levelo://app?vid=d0afdcac-61f9-451b-b809-cdf62d609c75"},"vehicle_type_id":"4","last_reported":1752135330,"current_range_meters":0,"station_id":"ce4bhph2rcd13ifvqhdg","pricing_plan_id":"cebpf4jnsgd1na2vs0mg"},{"bike_id":"8c96b343-d668-4141-aee1-41d37666636e","system_id":"levelo_inurba_marseille","lat":43.32336,"lon":5.40619,"is_reserved":false,"is_disabled":true,"rental_uris":{"android":"levelo://app?vid=8c96b343-d668-4141-aee1-41d37666636e","ios":"levelo://app?vid=8c96b343-d668-4141-aee1-41d37666636e"},"vehicle_type_id":"4","last_reported":1752135330,"current_range_meters":0,"station_id":"ce4bhq92rcd13ifvqhjg","pricing_plan_id":"cebpf4jnsgd1na2vs0mg"},{"bike_id":"b056ce9b-7b21-4183-8507-73b1a35e2dda","system_id":"levelo_inurba_marseille","lat":43.23193,"lon":5.35555,"is_reserved":false,"is_disabled":true,"rental_uris":{"android":"levelo://app?vid=b056ce9b-7b21-4183-8507-73b1a35e2dda","ios":"levelo://app?vid=b056ce9b-7b21-4183-8507-73b1a35e2dda"},"vehicle_type_id":"4","last_reported":1752135330,"current_range_meters":0,"station_id":"ce4bhu92rcd13ifvqi70","pricing_plan_id":"cebpf4jnsgd1na2vs0mg"},{"bike_id":"1ea07c30-7637-4836-8280-b70950b610b5","system_id":"levelo_inurba_marseille","lat":43.22507,"lon":5.34778,"is_reserved":false,"is_disabled":true,"rental_uris":{"android":"levelo://app?vid=1ea07c30-7637-4836-8280-b70950b610b5","ios":"levelo://app?vid=1ea07c30-7637-4836-8280-b70950b610b5"},"vehicle_type_id":"4","last_reported":1752135330,"current_range_meters":0,"station_id":"st_cvj5dfep6f1abm77gieg","pricing_plan_id":"cebpf4jnsgd1na2vs0mg"},{"bike_id":"9dbe87cc-21c9-4b6c-952c-c09e35887f80","system_id":"levelo_inurba_marseille","lat":43.217437,"lon":5.34613,"is_reserved":false,"is_disabled":true,"rental_uris":{"android":"levelo://app?vid=9dbe87cc-21c9-4b6c-952c-c09e35887f80","ios":"levelo://app?vid=9dbe87cc-21c9-4b6c-952c-c09e35887f80"},"vehicle_type_id":"4","last_reported":1752135330,"current_range_meters":0,"station_id":"st_cvj6r9ubvosntc0bgbag","pricing_plan_id":"cebpf4jnsgd1na2vs0mg"},{"bike_id":"5745f131-cd4a-4ac9-bdc2-7385b3c3e0a5","system_id":"levelo_inurba_marseille","lat":43.21741,"lon":5.34615,"is_reserved":false,"is_disabled":true,"rental_uris":{"android":"levelo://app?vid=5745f131-cd4a-4ac9-bdc2-7385b3c3e0a5","ios":"levelo://app?vid=5745f131-cd4a-4ac9-bdc2-7385b3c3e0a5"},"vehicle_type_id":"4","last_reported":1752135330,"current_range_meters":0,"station_id":"st_cvj6r9ubvosntc0bgbag","pricing_plan_id":"cebpf4jnsgd1na2vs0mg"},{"bike_id":"2581b7c5-1b42-4417-a9e6-cbdbedb7a2dd","system_id":"levelo_inurba_marseille","lat":43.217479,"lon":5.346035,"is_reserved":false,"is_disabled":true,"rental_uris":{"android":"levelo://app?vid=2581b7c5-1b42-4417-a9e6-cbdbedb7a2dd","ios":"levelo://app?vid=2581b7c5-1b42-4417-a9e6-cbdbedb7a2dd"},"vehicle_type_id":"4","last_reported":1752135330,"current_range_meters":0,"station_id":"st_cvj6r9ubvosntc0bgbag","pricing_plan_id":"cebpf4jnsgd1na2vs0mg"},{"bike_id":"336eaf6b-6955-4ef9-8dfa-abf06b057d2c","system_id":"levelo_inurba_marseille","lat":43.211879,"lon":5.350691,"is_reserved":false,"is_disabled":true,"rental_uris":{"android":"levelo://app?vid=336eaf6b-6955-4ef9-8dfa-abf06b057d2c","ios":"levelo://app?vid=336eaf6b-6955-4ef9-8dfa-abf06b057d2c"},"vehicle_type_id":"4","last_reported":1752135330,"current_range_meters":0,"station_id":"st_cvj6sg6p6f1abm77japg","pricing_plan_id":"cebpf4jnsgd1na2vs0mg"},{"bike_id":"6661cbd2-6ba2-4b46-b15e-1188df0f29d7","system_id":"levelo_inurba_marseille","lat":43.21185,"lon":5.35066,"is_reserved":false,"is_disabled":true,"rental_uris":{"android":"levelo://app?vid=6661cbd2-6ba2-4b46-b15e-1188df0f29d7","ios":"levelo://app?vid=6661cbd2-6ba2-4b46-b15e-1188df0f29d7"},"vehicle_type_id":"4","last_reported":1752135330,"current_range_meters":0,"station_id":"st_cvj6sg6p6f1abm77japg","pricing_plan_id":"cebpf4jnsgd1na2vs0mg"},{"bike_id":"db841109-9b56-4777-86e2-06fbf4ef1649","system_id":"levelo_inurba_marseille","lat":43.311189,"lon":5.397409,"is_reserved":false,"is_disabled":true,"rental_uris":{"android":"levelo://app?vid=db841109-9b56-4777-86e2-06fbf4ef1649","ios":"levelo://app?vid=db841109-9b56-4777-86e2-06fbf4ef1649"},"vehicle_type_id":"4","last_reported":1752135330,"current_range_meters":800,"station_id":"","pricing_plan_id":"cebpf4jnsgd1na2vs0mg"},{"bike_id":"afdddef6-a7bb-43b0-84e3-64b66406f2aa","system_id":"levelo_inurba_marseille","lat":43.29375,"lon":5.37846,"is_reserved":false,"is_disabled":true,"rental_uris":{"android":"levelo://app?vid=afdddef6-a7bb-43b0-84e3-64b66406f2aa","ios":"levelo://app?vid=afdddef6-a7bb-43b0-84e3-64b66406f2aa"},"vehicle_type_id":"4","last_reported":1752135330,"current_range_meters":800,"station_id":"ce4bgjh2rcd13ifvqbf0","pricing_plan_id":"cebpf4jnsgd1na2vs0mg"},{"bike_id":"3ed5cffb-5775-49c1-a07a-bbec5519275b","system_id":"levelo_inurba_marseille","lat":43.24167,"lon":5.39722,"is_reserved":false,"is_disabled":true,"rental_uris":{"android":"levelo://app?vid=3ed5cffb-5775-49c1-a07a-bbec5519275b","ios":"levelo://app?vid=3ed5cffb-5775-49c1-a07a-bbec5519275b"},"vehicle_type_id":"4","last_reported":1752135330,"current_range_meters":1200,"station_id":"ce4bhn12rcd13ifvqgpg","pricing_plan_id":"cebpf4jnsgd1na2vs0mg"},{"bike_id":"5ce39f79-aff1-446c-be6e-5b7a8fe0dcce","system_id":"levelo_inurba_marseille","lat":43.31472,"lon":5.38332,"is_reserved":false,"is_disabled":true,"rental_uris":{"android":"levelo://app?vid=5ce39f79-aff1-446c-be6e-5b7a8fe0dcce","ios":"levelo://app?vid=5ce39f79-aff1-446c-be6e-5b7a8fe0dcce"},"vehicle_type_id":"4","last_reported":1752135330,"current_range_meters":1600,"station_id":"","pricing_plan_id":"cebpf4jnsgd1na2vs0mg"},{"bike_id":"a2ce34df-6b9d-4a23-800c-aa4aa107bd85","system_id":"levelo_inurba_marseille","lat":43.312485,"lon":5.368852,"is_reserved":false,"is_disabled":true,"rental_uris":{"android":"levelo://app?vid=a2ce34df-6b9d-4a23-800c-aa4aa107bd85","ios":"levelo://app?vid=a2ce34df-6b9d-4a23-800c-aa4aa107bd85"},"vehicle_type_id":"4","last_reported":1752135330,"current_range_meters":2000,"station_id":"ce4bgl92rcd13ifvqbq0","pricing_plan_id":"cebpf4jnsgd1na2vs0mg"},{"bike_id":"7d4b87a8-52e7-4a66-970d-fa6aa1b96452","system_id":"levelo_inurba_marseille","lat":43.28491,"lon":5.38406,"is_reserved":false,"is_disabled":false,"rental_uris":{"android":"levelo://app?vid=7d4b87a8-52e7-4a66-970d-fa6aa1b96452","ios":"levelo://app?vid=7d4b87a8-52e7-4a66-970d-fa6aa1b96452"},"vehicle_type_id":"4","last_reported":1752135330,"current_range_meters":2000,"station_id":"ce4bh512rcd13ifvqe3g","pricing_plan_id":"cebpf4jnsgd1na2vs0mg"},{"bike_id":"8d58d7f6-0ec5-43d2-9092-b56ea57b8741","system_id":"levelo_inurba_marseille","lat":43.28433,"lon":5.34985,"is_reserved":false,"is_disabled":true,"rental_uris":{"android":"levelo://app?vid=8d58d7f6-0ec5-43d2-9092-b56ea57b8741","ios":"levelo://app?vid=8d58d7f6-0ec5-43d2-9092-b56ea57b8741"},"vehicle_type_id":"4","last_reported":1752135330,"current_range_meters":2000,"station_id":"ce4bhbh2rcd13ifvqepg","pricing_plan_id":"cebpf4jnsgd1na2vs0mg"},{"bike_id":"7cfb0384-64b9-4525-8e01-0109a0d5149f","system_id":"levelo_inurba_marseille","lat":43.25938,"lon":5.40902,"is_reserved":false,"is_disabled":true,"rental_uris":{"android":"levelo://app?vid=7cfb0384-64b9-4525-8e01-0109a0d5149f","ios":"levelo://app?vid=7cfb0384-64b9-4525-8e01-0109a0d5149f"},"vehicle_type_id":"4","last_reported":1752135330,"current_range_meters":2000,"station_id":"ce4bhm92rcd13ifvqglg","pricing_plan_id":"cebpf4jnsgd1na2vs0mg"},{"bike_id":"66c13d66-f181-445b-9188-1c41e0c587f1","system_id":"levelo_inurba_marseille","lat":43.25934,"lon":5.40897,"is_reserved":false,"is_disabled":true,"rental_uris":{"android":"levelo://app?vid=66c13d66-f181-445b-9188-1c41e0c587f1","ios":"levelo://app?vid=66c13d66-f181-445b-9188-1c41e0c587f1"},"vehicle_type_id":"4","last_reported":1752135330,"current_range_meters":2000,"station_id":"ce4bhm92rcd13ifvqglg","pricing_plan_id":"cebpf4jnsgd1na2vs0mg"},{"bike_id":"f9736b8b-f335-4624-b2c2-da59cd9e1054","system_id":"levelo_inurba_marseille","lat":43.30959,"lon":5.39051,"is_reserved":false,"is_disabled":false,"rental_uris":{"android":"levelo://app?vid=f9736b8b-f335-4624-b2c2-da59cd9e1054","ios":"levelo://app?vid=f9736b8b-f335-4624-b2c2-da59cd9e1054"},"vehicle_type_id":"4","last_reported":1752135330,"current_range_meters":2800,"station_id":"ce4bgup2rcd13ifvqco0","pricing_plan_id":"cebpf4jnsgd1na2vs0mg"},{"bike_id":"ccd262e4-6071-43e8-883e-4f56cf04a09c","system_id":"levelo_inurba_marseille","lat":43.269337,"lon":5.389282,"is_reserved":false,"is_disabled":false,"rental_uris":{"android":"levelo://app?vid=ccd262e4-6071-43e8-883e-4f56cf04a09c","ios":"levelo://app?vid=ccd262e4-6071-43e8-883e-4f56cf04a09c"},"vehicle_type_id":"4","last_reported":1752135330,"current_range_meters":2800,"station_id":"ce4bhhh2rcd13ifvqfl0","pricing_plan_id":"cebpf4jnsgd1na2vs0mg"},{"bike_id":"c8d750af-b103-4d60-8907-d8513a6863fb","system_id":"levelo_inurba_marseille","lat":43.25936,"lon":5.40904,"is_reserved":false,"is_disabled":false,"rental_uris":{"android":"levelo://app?vid=c8d750af-b103-4d60-8907-d8513a6863fb","ios":"levelo://app?vid=c8d750af-b103-4d60-8907-d8513a6863fb"},"vehicle_type_id":"4","last_reported":1752135330,"current_range_meters":2800,"station_id":"ce4bhm92rcd13ifvqglg","pricing_plan_id":"cebpf4jnsgd1na2vs0mg"},{"bike_id":"888522e3-39b6-4ff3-ad74-ff6c6f771157","system_id":"levelo_inurba_marseille","lat":43.29498,"lon":5.40255,"is_reserved":false,"is_disabled":false,"rental_uris":{"android":"levelo://app?vid=888522e3-39b6-4ff3-ad74-ff6c6f771157","ios":"levelo://app?vid=888522e3-39b6-4ff3-ad74-ff6c6f771157"},"vehicle_type_id":"4","last_reported":1752135330,"current_range_meters":3200,"station_id":"","pricing_plan_id":"cebpf4jnsgd1na2vs0mg"},{"bike_id":"6e20dbb2-ba79-4d2a-bc09-8c7740e09a8b","system_id":"levelo_inurba_marseille","lat":43.23966,"lon":5.36622,"is_reserved":false,"is_disabled":false,"rental_uris":{"android":"levelo://app?vid=6e20dbb2-ba79-4d2a-bc09-8c7740e09a8b","ios":"levelo://app?vid=6e20dbb2-ba79-4d2a-bc09-8c7740e09a8b"},"vehicle_type_id":"4","last_reported":1752135330,"current_range_meters":3600,"station_id":"ce4bhi12rcd13ifvqfp0","pricing_plan_id":"cebpf4jnsgd1na2vs0mg"},{"bike_id":"8637aaab-14e2-473e-bb8c-7f0817f7d7db","system_id":"levelo_inurba_marseille","lat":43.32482,"lon":5.36569,"is_reserved":false,"is_disabled":false,"rental_uris":{"android":"levelo://app?vid=8637aaab-14e2-473e-bb8c-7f0817f7d7db","ios":"levelo://app?vid=8637aaab-14e2-473e-bb8c-7f0817f7d7db"},"vehicle_type_id":"4","last_reported":1752135330,"current_range_meters":3600,"station_id":"ce4bhs12rcd13ifvqhvg","pricing_plan_id":"cebpf4jnsgd1na2vs0mg"},{"bike_id":"323b107d-22f0-4d8a-8cd0-c280dd2323e0","system_id":"levelo_inurba_marseille","lat":43.3236,"lon":5.367677,"is_reserved":false,"is_disabled":false,"rental_uris":{"android":"levelo://app?vid=323b107d-22f0-4d8a-8cd0-c280dd2323e0","ios":"levelo://app?vid=323b107d-22f0-4d8a-8cd0-c280dd2323e0"},"vehicle_type_id":"4","last_reported":1752135330,"current_range_meters":3600,"station_id":"ce4bhsh2rcd13ifvqi2g","pricing_plan_id":"cebpf4jnsgd1na2vs0mg"},{"bike_id":"e4f25fde-6bfa-4d4e-832a-8a27df98d447","system_id":"levelo_inurba_marseille","lat":43.29173,"lon":5.37508,"is_reserved":false,"is_disabled":false,"rental_uris":{"android":"levelo://app?vid=e4f25fde-6bfa-4d4e-832a-8a27df98d447","ios":"levelo://app?vid=e4f25fde-6bfa-4d4e-832a-8a27df98d447"},"vehicle_type_id":"4","last_reported":1752135330,"current_range_meters":4000,"station_id":"","pricing_plan_id":"cebpf4jnsgd1na2vs0mg"},{"bike_id":"3bad8be9-54cc-42e0-bd67-ef1c578608e0","system_id":"levelo_inurba_marseille","lat":43.3053,"lon":5.36716,"is_reserved":false,"is_disabled":false,"rental_uris":{"android":"levelo://app?vid=3bad8be9-54cc-42e0-bd67-ef1c578608e0","ios":"levelo://app?vid=3bad8be9-54cc-42e0-bd67-ef1c578608e0"},"vehicle_type_id":"4","last_reported":1752135330,"current_range_meters":4000,"station_id":"ce4bgrp2rcd13ifvqc9g","pricing_plan_id":"cebpf4jnsgd1na2vs0mg"},{"bike_id":"28c2815d-a42b-4111-bdae-b53d7b9e42a1","system_id":"levelo_inurba_marseille","lat":43.28921,"lon":5.36381,"is_reserved":false,"is_disabled":false,"rental_uris":{"android":"levelo://app?vid=28c2815d-a42b-4111-bdae-b53d7b9e42a1","ios":"levelo://app?vid=28c2815d-a42b-4111-bdae-b53d7b9e42a1"},"vehicle_type_id":"4","last_reported":1752135330,"current_range_meters":4000,"station_id":"ce4bhc92rcd13ifvqetg","pricing_plan_id":"cebpf4jnsgd1na2vs0mg"},{"bike_id":"6472f5f9-6ffc-46db-85ac-dc406a84ea63","system_id":"levelo_inurba_marseille","lat":43.26688,"lon":5.38277,"is_reserved":false,"is_disabled":false,"rental_uris":{"android":"levelo://app?vid=6472f5f9-6ffc-46db-85ac-dc406a84ea63","ios":"levelo://app?vid=6472f5f9-6ffc-46db-85ac-dc406a84ea63"},"vehicle_type_id":"4","last_reported":1752135330,"current_range_meters":4000,"station_id":"ce4bhg92rcd13ifvqf90","pricing_plan_id":"cebpf4jnsgd1na2vs0mg"},{"bike_id":"97b636d4-ce76-4469-91f2-cb71a35c75e9","system_id":"levelo_inurba_marseille","lat":43.29527,"lon":5.38656,"is_reserved":false,"is_disabled":false,"rental_uris":{"android":"levelo://app?vid=97b636d4-ce76-4469-91f2-cb71a35c75e9","ios":"levelo://app?vid=97b636d4-ce76-4469-91f2-cb71a35c75e9"},"vehicle_type_id":"4","last_reported":1752135330,"current_range_meters":4800,"station_id":"","pricing_plan_id":"cebpf4jnsgd1na2vs0mg"},{"bike_id":"837eb663-4d8b-4d33-8fcd-5017634e8617","system_id":"levelo_inurba_marseille","lat":43.29308,"lon":5.37449,"is_reserved":false,"is_disabled":false,"rental_uris":{"android":"levelo://app?vid=837eb663-4d8b-4d33-8fcd-5017634e8617","ios":"levelo://app?vid=837eb663-4d8b-4d33-8fcd-5017634e8617"},"vehicle_type_id":"4","last_reported":1752135330,"current_range_meters":4800,"station_id":"ce4bgi12rcd13ifvqb70","pricing_plan_id":"cebpf4jnsgd1na2vs0mg"},{"bike_id":"4d2c5827-71ef-4f02-b248-dcec2d4f8eab","system_id":"levelo_inurba_marseille","lat":43.309561,"lon":5.390336,"is_reserved":false,"is_disabled":false,"rental_uris":{"android":"levelo://app?vid=4d2c5827-71ef-4f02-b248-dcec2d4f8eab","ios":"levelo://app?vid=4d2c5827-71ef-4f02-b248-dcec2d4f8eab"},"vehicle_type_id":"4","last_reported":1752135330,"current_range_meters":4800,"station_id":"ce4bgup2rcd13ifvqco0","pricing_plan_id":"cebpf4jnsgd1na2vs0mg"},{"bike_id":"dfd3bc03-8b18-40aa-8821-8de46a301c4c","system_id":"levelo_inurba_marseille","lat":43.2593,"lon":5.40897,"is_reserved":false,"is_disabled":false,"rental_uris":{"android":"levelo://app?vid=dfd3bc03-8b18-40aa-8821-8de46a301c4c","ios":"levelo://app?vid=dfd3bc03-8b18-40aa-8821-8de46a301c4c"},"vehicle_type_id":"4","last_reported":1752135330,"current_range_meters":4800,"station_id":"ce4bhm92rcd13ifvqglg","pricing_plan_id":"cebpf4jnsgd1na2vs0mg"},{"bike_id":"3a35dad5-0705-4cbf-98ec-ea1499198ab2","system_id":"levelo_inurba_marseille","lat":43.27999,"lon":5.40005,"is_reserved":false,"is_disabled":false,"rental_uris":{"android":"levelo://app?vid=3a35dad5-0705-4cbf-98ec-ea1499198ab2","ios":"levelo://app?vid=3a35dad5-0705-4cbf-98ec-ea1499198ab2"},"vehicle_type_id":"4","last_reported":1752135330,"current_range_meters":4800,"station_id":"ce4bho92rcd13ifvqh4g","pricing_plan_id":"cebpf4jnsgd1na2vs0mg"},{"bike_id":"c57b10c9-737b-4a1d-8c66-6b60445b2b27","system_id":"levelo_inurba_marseille","lat":43.29352,"lon":5.37837,"is_reserved":false,"is_disabled":false,"rental_uris":{"android":"levelo://app?vid=c57b10c9-737b-4a1d-8c66-6b60445b2b27","ios":"levelo://app?vid=c57b10c9-737b-4a1d-8c66-6b60445b2b27"},"vehicle_type_id":"4","last_reported":1752135330,"current_range_meters":5600,"station_id":"ce4bgjh2rcd13ifvqbf0","pricing_plan_id":"cebpf4jnsgd1na2vs0mg"},{"bike_id":"842c4346-36bb-41e4-a498-e56def3118bd","system_id":"levelo_inurba_marseille","lat":43.2931,"lon":5.3718,"is_reserved":false,"is_disabled":false,"rental_uris":{"android":"levelo://app?vid=842c4346-36bb-41e4-a498-e56def3118bd","ios":"levelo://app?vid=842c4346-36bb-41e4-a498-e56def3118bd"},"vehicle_type_id":"4","last_reported":1752135330,"current_range_meters":6000,"station_id":"ce4bgh92rcd13ifvqb40","pricing_plan_id":"cebpf4jnsgd1na2vs0mg"},{"bike_id":"e3701a7b-6034-4581-a54d-c3b07490a7d9","system_id":"levelo_inurba_marseille","lat":43.29044,"lon":5.39957,"is_reserved":false,"is_disabled":false,"rental_uris":{"android":"levelo://app?vid=e3701a7b-6034-4581-a54d-c3b07490a7d9","ios":"levelo://app?vid=e3701a7b-6034-4581-a54d-c3b07490a7d9"},"vehicle_type_id":"4","last_reported":1752135330,"current_range_meters":6000,"station_id":"ce4bh392rcd13ifvqdm0","pricing_plan_id":"cebpf4jnsgd1na2vs0mg"},{"bike_id":"2156ffba-5875-416b-8f94-d396235d58f4","system_id":"levelo_inurba_marseille","lat":43.28609,"lon":5.35104,"is_reserved":false,"is_disabled":false,"rental_uris":{"android":"levelo://app?vid=2156ffba-5875-416b-8f94-d396235d58f4","ios":"levelo://app?vid=2156ffba-5875-416b-8f94-d396235d58f4"},"vehicle_type_id":"4","last_reported":1752135330,"current_range_meters":6000,"station_id":"ce4bhch2rcd13ifvqeug","pricing_plan_id":"cebpf4jnsgd1na2vs0mg"},{"bike_id":"a204c034-491b-41f0-9126-fc30d6354c79","system_id":"levelo_inurba_marseille","lat":43.23966,"lon":5.36629,"is_reserved":false,"is_disabled":false,"rental_uris":{"android":"levelo://app?vid=a204c034-491b-41f0-9126-fc30d6354c79","ios":"levelo://app?vid=a204c034-491b-41f0-9126-fc30d6354c79"},"vehicle_type_id":"4","last_reported":1752135330,"current_range_meters":6000,"station_id":"ce4bhi12rcd13ifvqfp0","pricing_plan_id":"cebpf4jnsgd1na2vs0mg"},{"bike_id":"cb1a0b66-2325-4ef5-b04a-3c40cd1fb5be","system_id":"levelo_inurba_marseille","lat":43.28716,"lon":5.37942,"is_reserved":false,"is_disabled":false,"rental_uris":{"android":"levelo://app?vid=cb1a0b66-2325-4ef5-b04a-3c40cd1fb5be","ios":"levelo://app?vid=cb1a0b66-2325-4ef5-b04a-3c40cd1fb5be"},"vehicle_type_id":"4","last_reported":1752135330,"current_range_meters":6400,"station_id":"ce4bh9p2rcd13ifvqec0","pricing_plan_id":"cebpf4jnsgd1na2vs0mg"},{"bike_id":"5a335969-d3de-4e6a-aaf6-309bfebf8197","system_id":"levelo_inurba_marseille","lat":43.29344,"lon":5.37412,"is_reserved":false,"is_disabled":false,"rental_uris":{"android":"levelo://app?vid=5a335969-d3de-4e6a-aaf6-309bfebf8197","ios":"levelo://app?vid=5a335969-d3de-4e6a-aaf6-309bfebf8197"},"vehicle_type_id":"4","last_reported":1752135330,"current_range_meters":7200,"station_id":"","pricing_plan_id":"cebpf4jnsgd1na2vs0mg"},{"bike_id":"c13b0f83-81c2-40eb-bc65-90f9f08be7ca","system_id":"levelo_inurba_marseille","lat":43.26226,"lon":5.40452,"is_reserved":false,"is_disabled":false,"rental_uris":{"android":"levelo://app?vid=c13b0f83-81c2-40eb-bc65-90f9f08be7ca","ios":"levelo://app?vid=c13b0f83-81c2-40eb-bc65-90f9f08be7ca"},"vehicle_type_id":"4","last_reported":1752135330,"current_range_meters":7200,"station_id":"ce4bhmh2rcd13ifvqgmg","pricing_plan_id":"cebpf4jnsgd1na2vs0mg"},{"bike_id":"ce09a6c7-b341-4488-a538-26468f87b477","system_id":"levelo_inurba_marseille","lat":43.3249,"lon":5.36556,"is_reserved":false,"is_disabled":false,"rental_uris":{"android":"levelo://app?vid=ce09a6c7-b341-4488-a538-26468f87b477","ios":"levelo://app?vid=ce09a6c7-b341-4488-a538-26468f87b477"},"vehicle_type_id":"4","last_reported":1752135330,"current_range_meters":8400,"station_id":"ce4bhs12rcd13ifvqhvg","pricing_plan_id":"cebpf4jnsgd1na2vs0mg"},{"bike_id":"ee57a736-5ecb-4eac-bf22-e60a05ccd09c","system_id":"levelo_inurba_marseille","lat":43.29036,"lon":5.37561,"is_reserved":false,"is_disabled":false,"rental_uris":{"android":"levelo://app?vid=ee57a736-5ecb-4eac-bf22-e60a05ccd09c","ios":"levelo://app?vid=ee57a736-5ecb-4eac-bf22-e60a05ccd09c"},"vehicle_type_id":"4","last_reported":1752135330,"current_range_meters":8800,"station_id":"ce4bh692rcd13ifvqe90","pricing_plan_id":"cebpf4jnsgd1na2vs0mg"},{"bike_id":"2354f4ca-20d1-4b1b-b469-739d1656dff6","system_id":"levelo_inurba_marseille","lat":43.29003,"lon":5.37614,"is_reserved":false,"is_disabled":false,"rental_uris":{"android":"levelo://app?vid=2354f4ca-20d1-4b1b-b469-739d1656dff6","ios":"levelo://app?vid=2354f4ca-20d1-4b1b-b469-739d1656dff6"},"vehicle_type_id":"4","last_reported":1752135330,"current_range_meters":8800,"station_id":"ce4bh692rcd13ifvqe90","pricing_plan_id":"cebpf4jnsgd1na2vs0mg"},{"bike_id":"07c6620f-1eb7-44b1-a56d-83e04bdb2d9e","system_id":"levelo_inurba_marseille","lat":43.26224,"lon":5.37909,"is_reserved":false,"is_disabled":false,"rental_uris":{"android":"levelo://app?vid=07c6620f-1eb7-44b1-a56d-83e04bdb2d9e","ios":"levelo://app?vid=07c6620f-1eb7-44b1-a56d-83e04bdb2d9e"},"vehicle_type_id":"4","last_reported":1752135330,"current_range_meters":8800,"station_id":"ce4bhjp2rcd13ifvqg90","pricing_plan_id":"cebpf4jnsgd1na2vs0mg"},{"bike_id":"63b42577-c8b2-41d0-af77-a317978faa91","system_id":"levelo_inurba_marseille","lat":43.32512,"lon":5.36558,"is_reserved":false,"is_disabled":false,"rental_uris":{"android":"levelo://app?vid=63b42577-c8b2-41d0-af77-a317978faa91","ios":"levelo://app?vid=63b42577-c8b2-41d0-af77-a317978faa91"},"vehicle_type_id":"4","last_reported":1752135330,"current_range_meters":9200,"station_id":"ce4bhs12rcd13ifvqhvg","pricing_plan_id":"cebpf4jnsgd1na2vs0mg"},{"bike_id":"21f9e3de-040f-4bf8-bb63-c366c0b621f8","system_id":"levelo_inurba_marseille","lat":43.33546,"lon":5.41106,"is_reserved":false,"is_disabled":false,"rental_uris":{"android":"levelo://app?vid=21f9e3de-040f-4bf8-bb63-c366c0b621f8","ios":"levelo://app?vid=21f9e3de-040f-4bf8-bb63-c366c0b621f8"},"vehicle_type_id":"4","last_reported":1752135330,"current_range_meters":9600,"station_id":"","pricing_plan_id":"cebpf4jnsgd1na2vs0mg"},{"bike_id":"f573a8fb-f1f8-47c4-901e-ddf2739a5cca","system_id":"levelo_inurba_marseille","lat":43.359989,"lon":5.324796,"is_reserved":false,"is_disabled":false,"rental_uris":{"android":"levelo://app?vid=f573a8fb-f1f8-47c4-901e-ddf2739a5cca","ios":"levelo://app?vid=f573a8fb-f1f8-47c4-901e-ddf2739a5cca"},"vehicle_type_id":"4","last_reported":1752135330,"current_range_meters":9600,"station_id":"","pricing_plan_id":"cebpf4jnsgd1na2vs0mg"},{"bike_id":"dba9c860-a69d-45c0-b77a-05c4a69316c3","system_id":"levelo_inurba_marseille","lat":43.31265,"lon":5.36817,"is_reserved":false,"is_disabled":false,"rental_uris":{"android":"levelo://app?vid=dba9c860-a69d-45c0-b77a-05c4a69316c3","ios":"levelo://app?vid=dba9c860-a69d-45c0-b77a-05c4a69316c3"},"vehicle_type_id":"4","last_reported":1752135330,"current_range_meters":9600,"station_id":"ce4bgl92rcd13ifvqbq0","pricing_plan_id":"cebpf4jnsgd1na2vs0mg"},{"bike_id":"a7a01d83-66a5-42b2-9365-39c5dd2ba432","system_id":"levelo_inurba_marseille","lat":43.31354,"lon":5.36717,"is_reserved":false,"is_disabled":false,"rental_uris":{"android":"levelo://app?vid=a7a01d83-66a5-42b2-9365-39c5dd2ba432","ios":"levelo://app?vid=a7a01d83-66a5-42b2-9365-39c5dd2ba432"},"vehicle_type_id":"4","last_reported":1752135330,"current_range_meters":9600,"station_id":"ce4bgr92rcd13ifvqc6g","pricing_plan_id":"cebpf4jnsgd1na2vs0mg"},{"bike_id":"84e7e709-4e4f-4764-818c-af719435bfca","system_id":"levelo_inurba_marseille","lat":43.31991,"lon":5.37295,"is_reserved":false,"is_disabled":false,"rental_uris":{"android":"levelo://app?vid=84e7e709-4e4f-4764-818c-af719435bfca","ios":"levelo://app?vid=84e7e709-4e4f-4764-818c-af719435bfca"},"vehicle_type_id":"4","last_reported":1752135330,"current_range_meters":10000,"station_id":"","pricing_plan_id":"cebpf4jnsgd1na2vs0mg"},{"bike_id":"01652994-7fb3-4ab4-9534-771ddec57a5c","system_id":"levelo_inurba_marseille","lat":43.309634,"lon":5.390358,"is_reserved":false,"is_disabled":false,"rental_uris":{"android":"levelo://app?vid=01652994-7fb3-4ab4-9534-771ddec57a5c","ios":"levelo://app?vid=01652994-7fb3-4ab4-9534-771ddec57a5c"},"vehicle_type_id":"4","last_reported":1752135330,"current_range_meters":10000,"station_id":"ce4bgup2rcd13ifvqco0","pricing_plan_id":"cebpf4jnsgd1na2vs0mg"},{"bike_id":"6e947ffd-047e-43c1-8386-5433bcac337c","system_id":"levelo_inurba_marseille","lat":43.29637,"lon":5.40595,"is_reserved":false,"is_disabled":false,"rental_uris":{"android":"levelo://app?vid=6e947ffd-047e-43c1-8386-5433bcac337c","ios":"levelo://app?vid=6e947ffd-047e-43c1-8386-5433bcac337c"},"vehicle_type_id":"4","last_reported":1752135330,"current_range_meters":10000,"station_id":"ce4bh0h2rcd13ifvqd60","pricing_plan_id":"cebpf4jnsgd1na2vs0mg"},{"bike_id":"964059b0-e6e4-4a2e-8f94-56b7ad9c5f3c","system_id":"levelo_inurba_marseille","lat":43.255024,"lon":5.376516,"is_reserved":false,"is_disabled":false,"rental_uris":{"android":"levelo://app?vid=964059b0-e6e4-4a2e-8f94-56b7ad9c5f3c","ios":"levelo://app?vid=964059b0-e6e4-4a2e-8f94-56b7ad9c5f3c"},"vehicle_type_id":"4","last_reported":1752135330,"current_range_meters":10000,"station_id":"ce4bhh12rcd13ifvqff0","pricing_plan_id":"cebpf4jnsgd1na2vs0mg"},{"bike_id":"c1112645-4afe-48f5-ad14-82e9f41607b0","system_id":"levelo_inurba_marseille","lat":43.25823,"lon":5.39436,"is_reserved":false,"is_disabled":false,"rental_uris":{"android":"levelo://app?vid=c1112645-4afe-48f5-ad14-82e9f41607b0","ios":"levelo://app?vid=c1112645-4afe-48f5-ad14-82e9f41607b0"},"vehicle_type_id":"4","last_reported":1752135330,"current_range_meters":10000,"station_id":"ce4bhip2rcd13ifvqft0","pricing_plan_id":"cebpf4jnsgd1na2vs0mg"},{"bike_id":"cb8db8c5-e9dd-4a16-a0e6-554c3d555317","system_id":"levelo_inurba_marseille","lat":43.25717,"lon":5.41113,"is_reserved":false,"is_disabled":false,"rental_uris":{"android":"levelo://app?vid=cb8db8c5-e9dd-4a16-a0e6-554c3d555317","ios":"levelo://app?vid=cb8db8c5-e9dd-4a16-a0e6-554c3d555317"},"vehicle_type_id":"4","last_reported":1752135330,"current_range_meters":10000,"station_id":"ce4bhkp2rcd13ifvqgd0","pricing_plan_id":"cebpf4jnsgd1na2vs0mg"},{"bike_id":"2d64afdf-b178-46a8-beda-f561b7aa30f5","system_id":"levelo_inurba_marseille","lat":43.27953,"lon":5.41045,"is_reserved":false,"is_disabled":false,"rental_uris":{"android":"levelo://app?vid=2d64afdf-b178-46a8-beda-f561b7aa30f5","ios":"levelo://app?vid=2d64afdf-b178-46a8-beda-f561b7aa30f5"},"vehicle_type_id":"4","last_reported":1752135330,"current_range_meters":10000,"station_id":"ce4bhnp2rcd13ifvqh0g","pricing_plan_id":"cebpf4jnsgd1na2vs0mg"},{"bike_id":"4975b22d-8c48-452f-bd19-7a9d3ed7c378","system_id":"levelo_inurba_marseille","lat":43.29676,"lon":5.37424,"is_reserved":false,"is_disabled":false,"rental_uris":{"android":"levelo://app?vid=4975b22d-8c48-452f-bd19-7a9d3ed7c378","ios":"levelo://app?vid=4975b22d-8c48-452f-bd19-7a9d3ed7c378"},"vehicle_type_id":"4","last_reported":1752135330,"current_range_meters":10800,"station_id":"","pricing_plan_id":"cebpf4jnsgd1na2vs0mg"},{"bike_id":"6e5c2657-ccb8-4153-8b94-2143bc427a03","system_id":"levelo_inurba_marseille","lat":43.22463,"lon":5.34738,"is_reserved":false,"is_disabled":false,"rental_uris":{"android":"levelo://app?vid=6e5c2657-ccb8-4153-8b94-2143bc427a03","ios":"levelo://app?vid=6e5c2657-ccb8-4153-8b94-2143bc427a03"},"vehicle_type_id":"4","last_reported":1752135330,"current_range_meters":11200,"station_id":"","pricing_plan_id":"cebpf4jnsgd1na2vs0mg"},{"bike_id":"fddbf0e1-54a0-4a84-bd5c-c3a161fdae73","system_id":"levelo_inurba_marseille","lat":43.2628,"lon":5.3722,"is_reserved":false,"is_disabled":false,"rental_uris":{"android":"levelo://app?vid=fddbf0e1-54a0-4a84-bd5c-c3a161fdae73","ios":"levelo://app?vid=fddbf0e1-54a0-4a84-bd5c-c3a161fdae73"},"vehicle_type_id":"4","last_reported":1752135330,"current_range_meters":11200,"station_id":"","pricing_plan_id":"cebpf4jnsgd1na2vs0mg"},{"bike_id":"81aa29b4-3cb0-4d5c-93db-dd204ffc56d7","system_id":"levelo_inurba_marseille","lat":43.28463,"lon":5.35885,"is_reserved":false,"is_disabled":false,"rental_uris":{"android":"levelo://app?vid=81aa29b4-3cb0-4d5c-93db-dd204ffc56d7","ios":"levelo://app?vid=81aa29b4-3cb0-4d5c-93db-dd204ffc56d7"},"vehicle_type_id":"4","last_reported":1752135330,"current_range_meters":11200,"station_id":"ce4bhah2rcd13ifvqei0","pricing_plan_id":"cebpf4jnsgd1na2vs0mg"},{"bike_id":"40410b54-d0dc-4bcd-9e15-3289fa653ebf","system_id":"levelo_inurba_marseille","lat":43.25938,"lon":5.40888,"is_reserved":false,"is_disabled":false,"rental_uris":{"android":"levelo://app?vid=40410b54-d0dc-4bcd-9e15-3289fa653ebf","ios":"levelo://app?vid=40410b54-d0dc-4bcd-9e15-3289fa653ebf"},"vehicle_type_id":"4","last_reported":1752135330,"current_range_meters":11200,"station_id":"ce4bhm92rcd13ifvqglg","pricing_plan_id":"cebpf4jnsgd1na2vs0mg"},{"bike_id":"833f97ec-e704-4051-ab3b-2e9eb58f71d0","system_id":"levelo_inurba_marseille","lat":43.30257,"lon":5.37524,"is_reserved":false,"is_disabled":false,"rental_uris":{"android":"levelo://app?vid=833f97ec-e704-4051-ab3b-2e9eb58f71d0","ios":"levelo://app?vid=833f97ec-e704-4051-ab3b-2e9eb58f71d0"},"vehicle_type_id":"4","last_reported":1752135330,"current_range_meters":11600,"station_id":"","pricing_plan_id":"cebpf4jnsgd1na2vs0mg"},{"bike_id":"f5c16f07-bc6f-4121-91a7-5ad90eec4f34","system_id":"levelo_inurba_marseille","lat":43.312066,"lon":5.373228,"is_reserved":false,"is_disabled":false,"rental_uris":{"android":"levelo://app?vid=f5c16f07-bc6f-4121-91a7-5ad90eec4f34","ios":"levelo://app?vid=f5c16f07-bc6f-4121-91a7-5ad90eec4f34"},"vehicle_type_id":"4","last_reported":1752135330,"current_range_meters":11600,"station_id":"","pricing_plan_id":"cebpf4jnsgd1na2vs0mg"},{"bike_id":"6ef5f3ea-45a5-4129-a8bc-9005968550f8","system_id":"levelo_inurba_marseille","lat":43.3043,"lon":5.36841,"is_reserved":false,"is_disabled":false,"rental_uris":{"android":"levelo://app?vid=6ef5f3ea-45a5-4129-a8bc-9005968550f8","ios":"levelo://app?vid=6ef5f3ea-45a5-4129-a8bc-9005968550f8"},"vehicle_type_id":"4","last_reported":1752135330,"current_range_meters":11600,"station_id":"","pricing_plan_id":"cebpf4jnsgd1na2vs0mg"},{"bike_id":"10c590a8-f9a6-461b-bb6c-d4e1492dd051","system_id":"levelo_inurba_marseille","lat":43.29541,"lon":5.37487,"is_reserved":false,"is_disabled":false,"rental_uris":{"android":"levelo://app?vid=10c590a8-f9a6-461b-bb6c-d4e1492dd051","ios":"levelo://app?vid=10c590a8-f9a6-461b-bb6c-d4e1492dd051"},"vehicle_type_id":"4","last_reported":1752135330,"current_range_meters":11600,"station_id":"ce4bgkp2rcd13ifvqbmg","pricing_plan_id":"cebpf4jnsgd1na2vs0mg"},{"bike_id":"c4e27960-38b9-4506-942a-a90a18501230","system_id":"levelo_inurba_marseille","lat":43.25808,"lon":5.39448,"is_reserved":false,"is_disabled":false,"rental_uris":{"android":"levelo://app?vid=c4e27960-38b9-4506-942a-a90a18501230","ios":"levelo://app?vid=c4e27960-38b9-4506-942a-a90a18501230"},"vehicle_type_id":"4","last_reported":1752135330,"current_range_meters":11600,"station_id":"ce4bhip2rcd13ifvqft0","pricing_plan_id":"cebpf4jnsgd1na2vs0mg"},{"bike_id":"08b86981-7d14-42d7-8c0b-9c4d988dcb09","system_id":"levelo_inurba_marseille","lat":43.24551,"lon":5.39526,"is_reserved":false,"is_disabled":false,"rental_uris":{"android":"levelo://app?vid=08b86981-7d14-42d7-8c0b-9c4d988dcb09","ios":"levelo://app?vid=08b86981-7d14-42d7-8c0b-9c4d988dcb09"},"vehicle_type_id":"4","last_reported":1752135330,"current_range_meters":11600,"station_id":"ce4bhlp2rcd13ifvqgjg","pricing_plan_id":"cebpf4jnsgd1na2vs0mg"},{"bike_id":"5e8d18e2-764a-4fc5-9b62-9521e8b3009b","system_id":"levelo_inurba_marseille","lat":43.25942,"lon":5.40901,"is_reserved":false,"is_disabled":false,"rental_uris":{"android":"levelo://app?vid=5e8d18e2-764a-4fc5-9b62-9521e8b3009b","ios":"levelo://app?vid=5e8d18e2-764a-4fc5-9b62-9521e8b3009b"},"vehicle_type_id":"4","last_reported":1752135330,"current_range_meters":11600,"station_id":"ce4bhm92rcd13ifvqglg","pricing_plan_id":"cebpf4jnsgd1na2vs0mg"},{"bike_id":"b757ffbb-2b71-4330-9f60-5f8a9d46d16e","system_id":"levelo_inurba_marseille","lat":43.29685,"lon":5.37072,"is_reserved":false,"is_disabled":false,"rental_uris":{"android":"levelo://app?vid=b757ffbb-2b71-4330-9f60-5f8a9d46d16e","ios":"levelo://app?vid=b757ffbb-2b71-4330-9f60-5f8a9d46d16e"},"vehicle_type_id":"4","last_reported":1752135330,"current_range_meters":12000,"station_id":"","pricing_plan_id":"cebpf4jnsgd1na2vs0mg"},{"bike_id":"b2caa530-bb19-4cc6-a6bd-61e3e1d7432e","system_id":"levelo_inurba_marseille","lat":43.33763,"lon":5.37461,"is_reserved":false,"is_disabled":false,"rental_uris":{"android":"levelo://app?vid=b2caa530-bb19-4cc6-a6bd-61e3e1d7432e","ios":"levelo://app?vid=b2caa530-bb19-4cc6-a6bd-61e3e1d7432e"},"vehicle_type_id":"4","last_reported":1752135330,"current_range_meters":12000,"station_id":"","pricing_plan_id":"cebpf4jnsgd1na2vs0mg"},{"bike_id":"bdec9338-a93f-4db0-9771-3d1a325cb616","system_id":"levelo_inurba_marseille","lat":43.26932,"lon":5.38919,"is_reserved":false,"is_disabled":false,"rental_uris":{"android":"levelo://app?vid=bdec9338-a93f-4db0-9771-3d1a325cb616","ios":"levelo://app?vid=bdec9338-a93f-4db0-9771-3d1a325cb616"},"vehicle_type_id":"4","last_reported":1752135330,"current_range_meters":12000,"station_id":"ce4bhhh2rcd13ifvqfl0","pricing_plan_id":"cebpf4jnsgd1na2vs0mg"},{"bike_id":"5bcdf73e-ccd6-4100-9c8c-fafedda18047","system_id":"levelo_inurba_marseille","lat":43.25932,"lon":5.40892,"is_reserved":false,"is_disabled":false,"rental_uris":{"android":"levelo://app?vid=5bcdf73e-ccd6-4100-9c8c-fafedda18047","ios":"levelo://app?vid=5bcdf73e-ccd6-4100-9c8c-fafedda18047"},"vehicle_type_id":"4","last_reported":1752135330,"current_range_meters":12000,"station_id":"ce4bhm92rcd13ifvqglg","pricing_plan_id":"cebpf4jnsgd1na2vs0mg"},{"bike_id":"d05d22e7-34a7-4c31-b3ec-291d775d4a2d","system_id":"levelo_inurba_marseille","lat":43.284109,"lon":5.34981,"is_reserved":false,"is_disabled":false,"rental_uris":{"android":"levelo://app?vid=d05d22e7-34a7-4c31-b3ec-291d775d4a2d","ios":"levelo://app?vid=d05d22e7-34a7-4c31-b3ec-291d775d4a2d"},"vehicle_type_id":"4","last_reported":1752135330,"current_range_meters":12400,"station_id":"","pricing_plan_id":"cebpf4jnsgd1na2vs0mg"},{"bike_id":"ac1d7306-8670-4bd1-9b7b-914bd97c1198","system_id":"levelo_inurba_marseille","lat":43.29715,"lon":5.36613,"is_reserved":false,"is_disabled":false,"rental_uris":{"android":"levelo://app?vid=ac1d7306-8670-4bd1-9b7b-914bd97c1198","ios":"levelo://app?vid=ac1d7306-8670-4bd1-9b7b-914bd97c1198"},"vehicle_type_id":"4","last_reported":1752135330,"current_range_meters":12400,"station_id":"ce4bgn12rcd13ifvqbt0","pricing_plan_id":"cebpf4jnsgd1na2vs0mg"},{"bike_id":"6e93340a-10fb-42ac-b2a9-fb75920a6378","system_id":"levelo_inurba_marseille","lat":43.30891,"lon":5.37187,"is_reserved":false,"is_disabled":false,"rental_uris":{"android":"levelo://app?vid=6e93340a-10fb-42ac-b2a9-fb75920a6378","ios":"levelo://app?vid=6e93340a-10fb-42ac-b2a9-fb75920a6378"},"vehicle_type_id":"4","last_reported":1752135330,"current_range_meters":12400,"station_id":"ce4bguh2rcd13ifvqckg","pricing_plan_id":"cebpf4jnsgd1na2vs0mg"},{"bike_id":"833d3f83-00f4-4656-8d54-523c544842c8","system_id":"levelo_inurba_marseille","lat":43.25933,"lon":5.40887,"is_reserved":false,"is_disabled":false,"rental_uris":{"android":"levelo://app?vid=833d3f83-00f4-4656-8d54-523c544842c8","ios":"levelo://app?vid=833d3f83-00f4-4656-8d54-523c544842c8"},"vehicle_type_id":"4","last_reported":1752135330,"current_range_meters":12400,"station_id":"ce4bhm92rcd13ifvqglg","pricing_plan_id":"cebpf4jnsgd1na2vs0mg"},{"bike_id":"1be39311-cfa5-4cbb-b93d-fb0870d6e611","system_id":"levelo_inurba_marseille","lat":43.211908,"lon":5.350701,"is_reserved":false,"is_disabled":false,"rental_uris":{"android":"levelo://app?vid=1be39311-cfa5-4cbb-b93d-fb0870d6e611","ios":"levelo://app?vid=1be39311-cfa5-4cbb-b93d-fb0870d6e611"},"vehicle_type_id":"4","last_reported":1752135330,"current_range_meters":12400,"station_id":"st_cvj6sg6p6f1abm77japg","pricing_plan_id":"cebpf4jnsgd1na2vs0mg"},{"bike_id":"320f2a33-deaa-4e0a-a3d5-c39ce8ad680a","system_id":"levelo_inurba_marseille","lat":43.315807,"lon":5.37422,"is_reserved":false,"is_disabled":false,"rental_uris":{"android":"levelo://app?vid=320f2a33-deaa-4e0a-a3d5-c39ce8ad680a","ios":"levelo://app?vid=320f2a33-deaa-4e0a-a3d5-c39ce8ad680a"},"vehicle_type_id":"4","last_reported":1752135330,"current_range_meters":12800,"station_id":"","pricing_plan_id":"cebpf4jnsgd1na2vs0mg"},{"bike_id":"2a2c2ba3-f4e7-4476-b21e-559d75857b71","system_id":"levelo_inurba_marseille","lat":43.27067,"lon":5.42293,"is_reserved":false,"is_disabled":false,"rental_uris":{"android":"levelo://app?vid=2a2c2ba3-f4e7-4476-b21e-559d75857b71","ios":"levelo://app?vid=2a2c2ba3-f4e7-4476-b21e-559d75857b71"},"vehicle_type_id":"4","last_reported":1752135330,"current_range_meters":12800,"station_id":"ce4bhk92rcd13ifvqgb0","pricing_plan_id":"cebpf4jnsgd1na2vs0mg"},{"bike_id":"f0072ec1-662a-49bd-ab86-ddbdeeede61b","system_id":"levelo_inurba_marseille","lat":43.30879,"lon":5.37192,"is_reserved":false,"is_disabled":false,"rental_uris":{"android":"levelo://app?vid=f0072ec1-662a-49bd-ab86-ddbdeeede61b","ios":"levelo://app?vid=f0072ec1-662a-49bd-ab86-ddbdeeede61b"},"vehicle_type_id":"4","last_reported":1752135330,"current_range_meters":13600,"station_id":"ce4bguh2rcd13ifvqckg","pricing_plan_id":"cebpf4jnsgd1na2vs0mg"},{"bike_id":"b78cbcab-4bd8-4ccd-80c5-fe2347875384","system_id":"levelo_inurba_marseille","lat":43.26931,"lon":5.38923,"is_reserved":false,"is_disabled":false,"rental_uris":{"android":"levelo://app?vid=b78cbcab-4bd8-4ccd-80c5-fe2347875384","ios":"levelo://app?vid=b78cbcab-4bd8-4ccd-80c5-fe2347875384"},"vehicle_type_id":"4","last_reported":1752135330,"current_range_meters":13600,"station_id":"ce4bhhh2rcd13ifvqfl0","pricing_plan_id":"cebpf4jnsgd1na2vs0mg"},{"bike_id":"a3057c6e-819e-4cef-92f3-62ac29a368bf","system_id":"levelo_inurba_marseille","lat":43.25833,"lon":5.39422,"is_reserved":false,"is_disabled":false,"rental_uris":{"android":"levelo://app?vid=a3057c6e-819e-4cef-92f3-62ac29a368bf","ios":"levelo://app?vid=a3057c6e-819e-4cef-92f3-62ac29a368bf"},"vehicle_type_id":"4","last_reported":1752135330,"current_range_meters":13600,"station_id":"ce4bhip2rcd13ifvqft0","pricing_plan_id":"cebpf4jnsgd1na2vs0mg"},{"bike_id":"ebb1f799-da2f-4ea7-919d-9e4695535d7b","system_id":"levelo_inurba_marseille","lat":43.29792,"lon":5.37104,"is_reserved":false,"is_disabled":false,"rental_uris":{"android":"levelo://app?vid=ebb1f799-da2f-4ea7-919d-9e4695535d7b","ios":"levelo://app?vid=ebb1f799-da2f-4ea7-919d-9e4695535d7b"},"vehicle_type_id":"4","last_reported":1752135330,"current_range_meters":14400,"station_id":"ce4bgop2rcd13ifvqc1g","pricing_plan_id":"cebpf4jnsgd1na2vs0mg"},{"bike_id":"4b13f0f2-3808-456a-b409-65e2d4ffb9c9","system_id":"levelo_inurba_marseille","lat":43.30541,"lon":5.36704,"is_reserved":false,"is_disabled":false,"rental_uris":{"android":"levelo://app?vid=4b13f0f2-3808-456a-b409-65e2d4ffb9c9","ios":"levelo://app?vid=4b13f0f2-3808-456a-b409-65e2d4ffb9c9"},"vehicle_type_id":"4","last_reported":1752135330,"current_range_meters":14800,"station_id":"ce4bgrp2rcd13ifvqc9g","pricing_plan_id":"cebpf4jnsgd1na2vs0mg"},{"bike_id":"5d0022e6-363f-48be-9419-8f4dd58f6b14","system_id":"levelo_inurba_marseille","lat":43.29858,"lon":5.39731,"is_reserved":false,"is_disabled":false,"rental_uris":{"android":"levelo://app?vid=5d0022e6-363f-48be-9419-8f4dd58f6b14","ios":"levelo://app?vid=5d0022e6-363f-48be-9419-8f4dd58f6b14"},"vehicle_type_id":"4","last_reported":1752135330,"current_range_meters":14800,"station_id":"ce4bh0h2rcd13ifvqd50","pricing_plan_id":"cebpf4jnsgd1na2vs0mg"},{"bike_id":"e8129e6f-b371-4a04-b025-d1f174a2320b","system_id":"levelo_inurba_marseille","lat":43.28413,"lon":5.34988,"is_reserved":false,"is_disabled":false,"rental_uris":{"android":"levelo://app?vid=e8129e6f-b371-4a04-b025-d1f174a2320b","ios":"levelo://app?vid=e8129e6f-b371-4a04-b025-d1f174a2320b"},"vehicle_type_id":"4","last_reported":1752135330,"current_range_meters":14800,"station_id":"ce4bhbh2rcd13ifvqepg","pricing_plan_id":"cebpf4jnsgd1na2vs0mg"},{"bike_id":"bf9e85a4-d185-43c1-ad21-f42cf123275c","system_id":"levelo_inurba_marseille","lat":43.24082,"lon":5.37749,"is_reserved":false,"is_disabled":false,"rental_uris":{"android":"levelo://app?vid=bf9e85a4-d185-43c1-ad21-f42cf123275c","ios":"levelo://app?vid=bf9e85a4-d185-43c1-ad21-f42cf123275c"},"vehicle_type_id":"4","last_reported":1752135330,"current_range_meters":14800,"station_id":"ce4bhnp2rcd13ifvqgvg","pricing_plan_id":"cebpf4jnsgd1na2vs0mg"},{"bike_id":"73fe94e8-74f9-41f0-85e9-7d8c52adf2fc","system_id":"levelo_inurba_marseille","lat":43.212674,"lon":5.35289,"is_reserved":false,"is_disabled":false,"rental_uris":{"android":"levelo://app?vid=73fe94e8-74f9-41f0-85e9-7d8c52adf2fc","ios":"levelo://app?vid=73fe94e8-74f9-41f0-85e9-7d8c52adf2fc"},"vehicle_type_id":"4","last_reported":1752135330,"current_range_meters":15200,"station_id":"","pricing_plan_id":"cebpf4jnsgd1na2vs0mg"},{"bike_id":"87d13c3c-9453-4492-8a8f-f2b4c8e828c6","system_id":"levelo_inurba_marseille","lat":43.26177,"lon":5.37049,"is_reserved":false,"is_disabled":false,"rental_uris":{"android":"levelo://app?vid=87d13c3c-9453-4492-8a8f-f2b4c8e828c6","ios":"levelo://app?vid=87d13c3c-9453-4492-8a8f-f2b4c8e828c6"},"vehicle_type_id":"4","last_reported":1752135330,"current_range_meters":15200,"station_id":"","pricing_plan_id":"cebpf4jnsgd1na2vs0mg"},{"bike_id":"e75173ba-092f-4e3c-b2e1-128bf1f9d79b","system_id":"levelo_inurba_marseille","lat":43.21748,"lon":5.34601,"is_reserved":false,"is_disabled":false,"rental_uris":{"android":"levelo://app?vid=e75173ba-092f-4e3c-b2e1-128bf1f9d79b","ios":"levelo://app?vid=e75173ba-092f-4e3c-b2e1-128bf1f9d79b"},"vehicle_type_id":"4","last_reported":1752135330,"current_range_meters":15200,"station_id":"","pricing_plan_id":"cebpf4jnsgd1na2vs0mg"},{"bike_id":"feaa7e3a-cbe4-4489-be11-8a12d7eec173","system_id":"levelo_inurba_marseille","lat":43.25174,"lon":5.42486,"is_reserved":false,"is_disabled":false,"rental_uris":{"android":"levelo://app?vid=feaa7e3a-cbe4-4489-be11-8a12d7eec173","ios":"levelo://app?vid=feaa7e3a-cbe4-4489-be11-8a12d7eec173"},"vehicle_type_id":"4","last_reported":1752135330,"current_range_meters":15200,"station_id":"","pricing_plan_id":"cebpf4jnsgd1na2vs0mg"},{"bike_id":"b540a757-5018-4045-a161-7dd9642cea96","system_id":"levelo_inurba_marseille","lat":43.31376,"lon":5.36707,"is_reserved":false,"is_disabled":false,"rental_uris":{"android":"levelo://app?vid=b540a757-5018-4045-a161-7dd9642cea96","ios":"levelo://app?vid=b540a757-5018-4045-a161-7dd9642cea96"},"vehicle_type_id":"4","last_reported":1752135330,"current_range_meters":15200,"station_id":"ce4bgr92rcd13ifvqc6g","pricing_plan_id":"cebpf4jnsgd1na2vs0mg"},{"bike_id":"90bd7138-0e22-4d68-8fc5-6aa62229126f","system_id":"levelo_inurba_marseille","lat":43.27843,"lon":5.39203,"is_reserved":false,"is_disabled":false,"rental_uris":{"android":"levelo://app?vid=90bd7138-0e22-4d68-8fc5-6aa62229126f","ios":"levelo://app?vid=90bd7138-0e22-4d68-8fc5-6aa62229126f"},"vehicle_type_id":"4","last_reported":1752135330,"current_range_meters":15200,"station_id":"ce4bhjp2rcd13ifvqga0","pricing_plan_id":"cebpf4jnsgd1na2vs0mg"},{"bike_id":"07e23da8-1aab-44d7-8d40-309109ee0205","system_id":"levelo_inurba_marseille","lat":43.32364,"lon":5.36749,"is_reserved":false,"is_disabled":false,"rental_uris":{"android":"levelo://app?vid=07e23da8-1aab-44d7-8d40-309109ee0205","ios":"levelo://app?vid=07e23da8-1aab-44d7-8d40-309109ee0205"},"vehicle_type_id":"4","last_reported":1752135330,"current_range_meters":15200,"station_id":"ce4bhsh2rcd13ifvqi2g","pricing_plan_id":"cebpf4jnsgd1na2vs0mg"},{"bike_id":"de010bc4-5e98-41bd-aed3-9094f259cc5a","system_id":"levelo_inurba_marseille","lat":43.24169,"lon":5.36392,"is_reserved":false,"is_disabled":false,"rental_uris":{"android":"levelo://app?vid=de010bc4-5e98-41bd-aed3-9094f259cc5a","ios":"levelo://app?vid=de010bc4-5e98-41bd-aed3-9094f259cc5a"},"vehicle_type_id":"4","last_reported":1752135330,"current_range_meters":15200,"station_id":"cpo36qri1sfpv3e86is0","pricing_plan_id":"cebpf4jnsgd1na2vs0mg"},{"bike_id":"d3e8264f-5e78-41b8-b5b0-557e389e6623","system_id":"levelo_inurba_marseille","lat":43.31371,"lon":5.37159,"is_reserved":false,"is_disabled":false,"rental_uris":{"android":"levelo://app?vid=d3e8264f-5e78-41b8-b5b0-557e389e6623","ios":"levelo://app?vid=d3e8264f-5e78-41b8-b5b0-557e389e6623"},"vehicle_type_id":"4","last_reported":1752135330,"current_range_meters":16000,"station_id":"","pricing_plan_id":"cebpf4jnsgd1na2vs0mg"},{"bike_id":"55105142-3666-4ef7-8f20-17f02baa8c73","system_id":"levelo_inurba_marseille","lat":43.30889,"lon":5.36844,"is_reserved":false,"is_disabled":false,"rental_uris":{"android":"levelo://app?vid=55105142-3666-4ef7-8f20-17f02baa8c73","ios":"levelo://app?vid=55105142-3666-4ef7-8f20-17f02baa8c73"},"vehicle_type_id":"4","last_reported":1752135330,"current_range_meters":16000,"station_id":"ce4bgn92rcd13ifvqbvg","pricing_plan_id":"cebpf4jnsgd1na2vs0mg"},{"bike_id":"866130cb-cfca-49b1-8b3a-b80ff3bcd209","system_id":"levelo_inurba_marseille","lat":43.29065,"lon":5.37551,"is_reserved":false,"is_disabled":false,"rental_uris":{"android":"levelo://app?vid=866130cb-cfca-49b1-8b3a-b80ff3bcd209","ios":"levelo://app?vid=866130cb-cfca-49b1-8b3a-b80ff3bcd209"},"vehicle_type_id":"4","last_reported":1752135330,"current_range_meters":16000,"station_id":"ce4bh692rcd13ifvqe90","pricing_plan_id":"cebpf4jnsgd1na2vs0mg"},{"bike_id":"6de3655f-011a-4dea-9eaa-073285913e1d","system_id":"levelo_inurba_marseille","lat":43.27971,"lon":5.38746,"is_reserved":false,"is_disabled":false,"rental_uris":{"android":"levelo://app?vid=6de3655f-011a-4dea-9eaa-073285913e1d","ios":"levelo://app?vid=6de3655f-011a-4dea-9eaa-073285913e1d"},"vehicle_type_id":"4","last_reported":1752135330,"current_range_meters":16000,"station_id":"ce4bhg12rcd13ifvqf80","pricing_plan_id":"cebpf4jnsgd1na2vs0mg"},{"bike_id":"173c3f1b-49ba-4b24-8f5e-0c0f92cf127b","system_id":"levelo_inurba_marseille","lat":43.28007,"lon":5.40001,"is_reserved":false,"is_disabled":false,"rental_uris":{"android":"levelo://app?vid=173c3f1b-49ba-4b24-8f5e-0c0f92cf127b","ios":"levelo://app?vid=173c3f1b-49ba-4b24-8f5e-0c0f92cf127b"},"vehicle_type_id":"4","last_reported":1752135330,"current_range_meters":16000,"station_id":"ce4bho92rcd13ifvqh4g","pricing_plan_id":"cebpf4jnsgd1na2vs0mg"},{"bike_id":"f373e4a8-33e3-4f72-ae8e-e7ab386910f4","system_id":"levelo_inurba_marseille","lat":43.22501,"lon":5.34795,"is_reserved":false,"is_disabled":false,"rental_uris":{"android":"levelo://app?vid=f373e4a8-33e3-4f72-ae8e-e7ab386910f4","ios":"levelo://app?vid=f373e4a8-33e3-4f72-ae8e-e7ab386910f4"},"vehicle_type_id":"4","last_reported":1752135330,"current_range_meters":16000,"station_id":"st_cvj5dfep6f1abm77gieg","pricing_plan_id":"cebpf4jnsgd1na2vs0mg"},{"bike_id":"069759f3-8488-4973-b337-5e447fc27e24","system_id":"levelo_inurba_marseille","lat":43.2121,"lon":5.35079,"is_reserved":false,"is_disabled":false,"rental_uris":{"android":"levelo://app?vid=069759f3-8488-4973-b337-5e447fc27e24","ios":"levelo://app?vid=069759f3-8488-4973-b337-5e447fc27e24"},"vehicle_type_id":"4","last_reported":1752135330,"current_range_meters":16000,"station_id":"st_cvj6sg6p6f1abm77japg","pricing_plan_id":"cebpf4jnsgd1na2vs0mg"},{"bike_id":"9f5e74ce-2459-4c6f-a171-f6d1e8a1ed83","system_id":"levelo_inurba_marseille","lat":43.31857,"lon":5.37551,"is_reserved":false,"is_disabled":false,"rental_uris":{"android":"levelo://app?vid=9f5e74ce-2459-4c6f-a171-f6d1e8a1ed83","ios":"levelo://app?vid=9f5e74ce-2459-4c6f-a171-f6d1e8a1ed83"},"vehicle_type_id":"4","last_reported":1752135330,"current_range_meters":16400,"station_id":"","pricing_plan_id":"cebpf4jnsgd1na2vs0mg"},{"bike_id":"4c36c8b2-241f-4b9f-8864-958ca40e2121","system_id":"levelo_inurba_marseille","lat":43.295907,"lon":5.375062,"is_reserved":false,"is_disabled":false,"rental_uris":{"android":"levelo://app?vid=4c36c8b2-241f-4b9f-8864-958ca40e2121","ios":"levelo://app?vid=4c36c8b2-241f-4b9f-8864-958ca40e2121"},"vehicle_type_id":"4","last_reported":1752135330,"current_range_meters":16400,"station_id":"ce4bgh92rcd13ifvqb50","pricing_plan_id":"cebpf4jnsgd1na2vs0mg"},{"bike_id":"37d24ae8-ab60-4ff1-9d36-77e365c878e4","system_id":"levelo_inurba_marseille","lat":43.29848,"lon":5.3626,"is_reserved":false,"is_disabled":false,"rental_uris":{"android":"levelo://app?vid=37d24ae8-ab60-4ff1-9d36-77e365c878e4","ios":"levelo://app?vid=37d24ae8-ab60-4ff1-9d36-77e365c878e4"},"vehicle_type_id":"4","last_reported":1752135330,"current_range_meters":16400,"station_id":"ce4bgpp2rcd13ifvqc3g","pricing_plan_id":"cebpf4jnsgd1na2vs0mg"},{"bike_id":"1e421ed6-4fd2-444a-9fe9-6e933b537944","system_id":"levelo_inurba_marseille","lat":43.31493,"lon":5.37285,"is_reserved":false,"is_disabled":false,"rental_uris":{"android":"levelo://app?vid=1e421ed6-4fd2-444a-9fe9-6e933b537944","ios":"levelo://app?vid=1e421ed6-4fd2-444a-9fe9-6e933b537944"},"vehicle_type_id":"4","last_reported":1752135330,"current_range_meters":16400,"station_id":"ce4bgt12rcd13ifvqcd0","pricing_plan_id":"cebpf4jnsgd1na2vs0mg"},{"bike_id":"faaab940-0be7-4848-b168-5dee72a7f61d","system_id":"levelo_inurba_marseille","lat":43.30409,"lon":5.41298,"is_reserved":false,"is_disabled":false,"rental_uris":{"android":"levelo://app?vid=faaab940-0be7-4848-b168-5dee72a7f61d","ios":"levelo://app?vid=faaab940-0be7-4848-b168-5dee72a7f61d"},"vehicle_type_id":"4","last_reported":1752135330,"current_range_meters":16400,"station_id":"ce4bhop2rcd13ifvqh8g","pricing_plan_id":"cebpf4jnsgd1na2vs0mg"},{"bike_id":"2c64ba4a-afe6-4331-bd5a-f8a563f672ee","system_id":"levelo_inurba_marseille","lat":43.298473,"lon":5.362897,"is_reserved":false,"is_disabled":false,"rental_uris":{"android":"levelo://app?vid=2c64ba4a-afe6-4331-bd5a-f8a563f672ee","ios":"levelo://app?vid=2c64ba4a-afe6-4331-bd5a-f8a563f672ee"},"vehicle_type_id":"4","last_reported":1752135330,"current_range_meters":16800,"station_id":"ce4bgpp2rcd13ifvqc3g","pricing_plan_id":"cebpf4jnsgd1na2vs0mg"},{"bike_id":"60f252a0-b806-466e-8b75-6fcb2b29b6c8","system_id":"levelo_inurba_marseille","lat":43.26507,"lon":5.3953,"is_reserved":false,"is_disabled":false,"rental_uris":{"android":"levelo://app?vid=60f252a0-b806-466e-8b75-6fcb2b29b6c8","ios":"levelo://app?vid=60f252a0-b806-466e-8b75-6fcb2b29b6c8"},"vehicle_type_id":"4","last_reported":1752135330,"current_range_meters":16800,"station_id":"ce4bhi12rcd13ifvqfq0","pricing_plan_id":"cebpf4jnsgd1na2vs0mg"},{"bike_id":"f6b68386-3ed3-46d8-a753-e4018caf76f2","system_id":"levelo_inurba_marseille","lat":43.2784,"lon":5.39202,"is_reserved":false,"is_disabled":false,"rental_uris":{"android":"levelo://app?vid=f6b68386-3ed3-46d8-a753-e4018caf76f2","ios":"levelo://app?vid=f6b68386-3ed3-46d8-a753-e4018caf76f2"},"vehicle_type_id":"4","last_reported":1752135330,"current_range_meters":16800,"station_id":"ce4bhjp2rcd13ifvqga0","pricing_plan_id":"cebpf4jnsgd1na2vs0mg"},{"bike_id":"185afeba-d808-4e02-a0a9-f1c6681a8cc4","system_id":"levelo_inurba_marseille","lat":43.31762,"lon":5.38988,"is_reserved":false,"is_disabled":false,"rental_uris":{"android":"levelo://app?vid=185afeba-d808-4e02-a0a9-f1c6681a8cc4","ios":"levelo://app?vid=185afeba-d808-4e02-a0a9-f1c6681a8cc4"},"vehicle_type_id":"4","last_reported":1752135330,"current_range_meters":16800,"station_id":"ce4bhqp2rcd13ifvqhng","pricing_plan_id":"cebpf4jnsgd1na2vs0mg"},{"bike_id":"f0a2192f-8d3a-482d-a043-32b763a8959f","system_id":"levelo_inurba_marseille","lat":43.25451,"lon":5.37946,"is_reserved":false,"is_disabled":false,"rental_uris":{"android":"levelo://app?vid=f0a2192f-8d3a-482d-a043-32b763a8959f","ios":"levelo://app?vid=f0a2192f-8d3a-482d-a043-32b763a8959f"},"vehicle_type_id":"4","last_reported":1752135330,"current_range_meters":17200,"station_id":"","pricing_plan_id":"cebpf4jnsgd1na2vs0mg"},{"bike_id":"bd5228ab-002e-4f81-bbd3-2baf5452f591","system_id":"levelo_inurba_marseille","lat":43.27827,"lon":5.41434,"is_reserved":false,"is_disabled":false,"rental_uris":{"android":"levelo://app?vid=bd5228ab-002e-4f81-bbd3-2baf5452f591","ios":"levelo://app?vid=bd5228ab-002e-4f81-bbd3-2baf5452f591"},"vehicle_type_id":"4","last_reported":1752135330,"current_range_meters":17200,"station_id":"","pricing_plan_id":"cebpf4jnsgd1na2vs0mg"},{"bike_id":"fa87fcb5-aacb-41a1-a789-0296bbd02085","system_id":"levelo_inurba_marseille","lat":43.24589,"lon":5.37373,"is_reserved":false,"is_disabled":false,"rental_uris":{"android":"levelo://app?vid=fa87fcb5-aacb-41a1-a789-0296bbd02085","ios":"levelo://app?vid=fa87fcb5-aacb-41a1-a789-0296bbd02085"},"vehicle_type_id":"4","last_reported":1752135330,"current_range_meters":17200,"station_id":"","pricing_plan_id":"cebpf4jnsgd1na2vs0mg"},{"bike_id":"4e209b0c-855f-4b51-8120-2faef8673853","system_id":"levelo_inurba_marseille","lat":43.306102,"lon":5.3689,"is_reserved":false,"is_disabled":false,"rental_uris":{"android":"levelo://app?vid=4e209b0c-855f-4b51-8120-2faef8673853","ios":"levelo://app?vid=4e209b0c-855f-4b51-8120-2faef8673853"},"vehicle_type_id":"4","last_reported":1752135330,"current_range_meters":17200,"station_id":"","pricing_plan_id":"cebpf4jnsgd1na2vs0mg"},{"bike_id":"8300e476-6e25-4263-ba7c-ae5e23795374","system_id":"levelo_inurba_marseille","lat":43.31361,"lon":5.38488,"is_reserved":false,"is_disabled":false,"rental_uris":{"android":"levelo://app?vid=8300e476-6e25-4263-ba7c-ae5e23795374","ios":"levelo://app?vid=8300e476-6e25-4263-ba7c-ae5e23795374"},"vehicle_type_id":"4","last_reported":1752135330,"current_range_meters":17200,"station_id":"ce4bgt92rcd13ifvqcf0","pricing_plan_id":"cebpf4jnsgd1na2vs0mg"},{"bike_id":"aea8d665-2d91-46d6-a00b-d6caf3043c90","system_id":"levelo_inurba_marseille","lat":43.25934,"lon":5.40903,"is_reserved":false,"is_disabled":false,"rental_uris":{"android":"levelo://app?vid=aea8d665-2d91-46d6-a00b-d6caf3043c90","ios":"levelo://app?vid=aea8d665-2d91-46d6-a00b-d6caf3043c90"},"vehicle_type_id":"4","last_reported":1752135330,"current_range_meters":17200,"station_id":"ce4bhm92rcd13ifvqglg","pricing_plan_id":"cebpf4jnsgd1na2vs0mg"},{"bike_id":"c7bc0b85-c966-4913-8908-15a71d65944b","system_id":"levelo_inurba_marseille","lat":43.35477,"lon":5.35713,"is_reserved":false,"is_disabled":false,"rental_uris":{"android":"levelo://app?vid=c7bc0b85-c966-4913-8908-15a71d65944b","ios":"levelo://app?vid=c7bc0b85-c966-4913-8908-15a71d65944b"},"vehicle_type_id":"4","last_reported":1752135330,"current_range_meters":17600,"station_id":"","pricing_plan_id":"cebpf4jnsgd1na2vs0mg"},{"bike_id":"55eb3ee3-207d-45c9-a356-7e275a6ee08e","system_id":"levelo_inurba_marseille","lat":43.322208,"lon":5.407363,"is_reserved":false,"is_disabled":false,"rental_uris":{"android":"levelo://app?vid=55eb3ee3-207d-45c9-a356-7e275a6ee08e","ios":"levelo://app?vid=55eb3ee3-207d-45c9-a356-7e275a6ee08e"},"vehicle_type_id":"4","last_reported":1752135330,"current_range_meters":17600,"station_id":"ce4bh092rcd13ifvqd30","pricing_plan_id":"cebpf4jnsgd1na2vs0mg"},{"bike_id":"fe910ec4-e73b-42a2-b416-c150717d4aa4","system_id":"levelo_inurba_marseille","lat":43.28953,"lon":5.39624,"is_reserved":false,"is_disabled":false,"rental_uris":{"android":"levelo://app?vid=fe910ec4-e73b-42a2-b416-c150717d4aa4","ios":"levelo://app?vid=fe910ec4-e73b-42a2-b416-c150717d4aa4"},"vehicle_type_id":"4","last_reported":1752135330,"current_range_meters":17600,"station_id":"ce4bh3h2rcd13ifvqdn0","pricing_plan_id":"cebpf4jnsgd1na2vs0mg"},{"bike_id":"3f1e511b-5aaf-4e4b-88f5-5c145434c478","system_id":"levelo_inurba_marseille","lat":43.28078,"lon":5.39658,"is_reserved":false,"is_disabled":false,"rental_uris":{"android":"levelo://app?vid=3f1e511b-5aaf-4e4b-88f5-5c145434c478","ios":"levelo://app?vid=3f1e511b-5aaf-4e4b-88f5-5c145434c478"},"vehicle_type_id":"4","last_reported":1752135330,"current_range_meters":17600,"station_id":"ce4bho12rcd13ifvqh2g","pricing_plan_id":"cebpf4jnsgd1na2vs0mg"},{"bike_id":"d2191847-bfce-41b3-a3bd-67bae65b9b15","system_id":"levelo_inurba_marseille","lat":43.33748,"lon":5.39153,"is_reserved":false,"is_disabled":false,"rental_uris":{"android":"levelo://app?vid=d2191847-bfce-41b3-a3bd-67bae65b9b15","ios":"levelo://app?vid=d2191847-bfce-41b3-a3bd-67bae65b9b15"},"vehicle_type_id":"4","last_reported":1752135330,"current_range_meters":17600,"station_id":"ce4bhr92rcd13ifvqhsg","pricing_plan_id":"cebpf4jnsgd1na2vs0mg"},{"bike_id":"ee1ac907-8623-4d00-ac01-d41dd90be9fe","system_id":"levelo_inurba_marseille","lat":43.21192,"lon":5.35073,"is_reserved":false,"is_disabled":false,"rental_uris":{"android":"levelo://app?vid=ee1ac907-8623-4d00-ac01-d41dd90be9fe","ios":"levelo://app?vid=ee1ac907-8623-4d00-ac01-d41dd90be9fe"},"vehicle_type_id":"4","last_reported":1752135330,"current_range_meters":17600,"station_id":"st_cvj6sg6p6f1abm77japg","pricing_plan_id":"cebpf4jnsgd1na2vs0mg"},{"bike_id":"a5a6c2c1-2d48-4581-8647-6eab6c0bbb54","system_id":"levelo_inurba_marseille","lat":43.2635,"lon":5.3738,"is_reserved":false,"is_disabled":false,"rental_uris":{"android":"levelo://app?vid=a5a6c2c1-2d48-4581-8647-6eab6c0bbb54","ios":"levelo://app?vid=a5a6c2c1-2d48-4581-8647-6eab6c0bbb54"},"vehicle_type_id":"4","last_reported":1752135330,"current_range_meters":18000,"station_id":"","pricing_plan_id":"cebpf4jnsgd1na2vs0mg"},{"bike_id":"24b17f7b-dff1-4936-b27a-7c2c6813a894","system_id":"levelo_inurba_marseille","lat":43.245797,"lon":5.373864,"is_reserved":false,"is_disabled":false,"rental_uris":{"android":"levelo://app?vid=24b17f7b-dff1-4936-b27a-7c2c6813a894","ios":"levelo://app?vid=24b17f7b-dff1-4936-b27a-7c2c6813a894"},"vehicle_type_id":"4","last_reported":1752135330,"current_range_meters":18000,"station_id":"","pricing_plan_id":"cebpf4jnsgd1na2vs0mg"},{"bike_id":"b8ee2471-cd0f-4e6b-add6-2a6b5ae46f71","system_id":"levelo_inurba_marseille","lat":43.292668,"lon":5.384328,"is_reserved":false,"is_disabled":false,"rental_uris":{"android":"levelo://app?vid=b8ee2471-cd0f-4e6b-add6-2a6b5ae46f71","ios":"levelo://app?vid=b8ee2471-cd0f-4e6b-add6-2a6b5ae46f71"},"vehicle_type_id":"4","last_reported":1752135330,"current_range_meters":18000,"station_id":"ce4bh692rcd13ifvqea0","pricing_plan_id":"cebpf4jnsgd1na2vs0mg"},{"bike_id":"cc91f022-5f4f-478d-8287-995a3efb66d1","system_id":"levelo_inurba_marseille","lat":43.26059,"lon":5.40455,"is_reserved":false,"is_disabled":false,"rental_uris":{"android":"levelo://app?vid=cc91f022-5f4f-478d-8287-995a3efb66d1","ios":"levelo://app?vid=cc91f022-5f4f-478d-8287-995a3efb66d1"},"vehicle_type_id":"4","last_reported":1752135330,"current_range_meters":18000,"station_id":"ce4bhmh2rcd13ifvqgmg","pricing_plan_id":"cebpf4jnsgd1na2vs0mg"},{"bike_id":"885a4f7a-b630-4979-8079-f23273e8b02f","system_id":"levelo_inurba_marseille","lat":43.241779,"lon":5.397226,"is_reserved":false,"is_disabled":false,"rental_uris":{"android":"levelo://app?vid=885a4f7a-b630-4979-8079-f23273e8b02f","ios":"levelo://app?vid=885a4f7a-b630-4979-8079-f23273e8b02f"},"vehicle_type_id":"4","last_reported":1752135330,"current_range_meters":18000,"station_id":"ce4bhn12rcd13ifvqgpg","pricing_plan_id":"cebpf4jnsgd1na2vs0mg"},{"bike_id":"ac60abaa-7fa5-4365-ab57-f3de135402cd","system_id":"levelo_inurba_marseille","lat":43.241757,"lon":5.397083,"is_reserved":false,"is_disabled":false,"rental_uris":{"android":"levelo://app?vid=ac60abaa-7fa5-4365-ab57-f3de135402cd","ios":"levelo://app?vid=ac60abaa-7fa5-4365-ab57-f3de135402cd"},"vehicle_type_id":"4","last_reported":1752135330,"current_range_meters":18000,"station_id":"ce4bhn12rcd13ifvqgpg","pricing_plan_id":"cebpf4jnsgd1na2vs0mg"},{"bike_id":"8f89e4f3-495a-4317-bd6d-37a19186d65b","system_id":"levelo_inurba_marseille","lat":43.337225,"lon":5.391856,"is_reserved":false,"is_disabled":false,"rental_uris":{"android":"levelo://app?vid=8f89e4f3-495a-4317-bd6d-37a19186d65b","ios":"levelo://app?vid=8f89e4f3-495a-4317-bd6d-37a19186d65b"},"vehicle_type_id":"4","last_reported":1752135330,"current_range_meters":18000,"station_id":"ce4bhr92rcd13ifvqhsg","pricing_plan_id":"cebpf4jnsgd1na2vs0mg"},{"bike_id":"5948c1b8-e115-4dc5-a5c7-90cad69d0936","system_id":"levelo_inurba_marseille","lat":43.31916,"lon":5.37317,"is_reserved":false,"is_disabled":false,"rental_uris":{"android":"levelo://app?vid=5948c1b8-e115-4dc5-a5c7-90cad69d0936","ios":"levelo://app?vid=5948c1b8-e115-4dc5-a5c7-90cad69d0936"},"vehicle_type_id":"4","last_reported":1752135330,"current_range_meters":18800,"station_id":"","pricing_plan_id":"cebpf4jnsgd1na2vs0mg"},{"bike_id":"88f769ff-a100-4dbb-af44-987642627754","system_id":"levelo_inurba_marseille","lat":43.30724,"lon":5.39998,"is_reserved":false,"is_disabled":false,"rental_uris":{"android":"levelo://app?vid=88f769ff-a100-4dbb-af44-987642627754","ios":"levelo://app?vid=88f769ff-a100-4dbb-af44-987642627754"},"vehicle_type_id":"4","last_reported":1752135330,"current_range_meters":18800,"station_id":"","pricing_plan_id":"cebpf4jnsgd1na2vs0mg"},{"bike_id":"4eb3e89a-7968-47c0-8e0f-6c6a788dca56","system_id":"levelo_inurba_marseille","lat":43.29842,"lon":5.36267,"is_reserved":false,"is_disabled":false,"rental_uris":{"android":"levelo://app?vid=4eb3e89a-7968-47c0-8e0f-6c6a788dca56","ios":"levelo://app?vid=4eb3e89a-7968-47c0-8e0f-6c6a788dca56"},"vehicle_type_id":"4","last_reported":1752135330,"current_range_meters":18800,"station_id":"ce4bgpp2rcd13ifvqc3g","pricing_plan_id":"cebpf4jnsgd1na2vs0mg"},{"bike_id":"5126538c-e379-41f9-b8aa-b60309da16d4","system_id":"levelo_inurba_marseille","lat":43.298507,"lon":5.36279,"is_reserved":false,"is_disabled":false,"rental_uris":{"android":"levelo://app?vid=5126538c-e379-41f9-b8aa-b60309da16d4","ios":"levelo://app?vid=5126538c-e379-41f9-b8aa-b60309da16d4"},"vehicle_type_id":"4","last_reported":1752135330,"current_range_meters":18800,"station_id":"ce4bgpp2rcd13ifvqc3g","pricing_plan_id":"cebpf4jnsgd1na2vs0mg"},{"bike_id":"d229c5ed-362a-4c88-8447-ac4fb77ea2c9","system_id":"levelo_inurba_marseille","lat":43.305338,"lon":5.365817,"is_reserved":false,"is_disabled":false,"rental_uris":{"android":"levelo://app?vid=d229c5ed-362a-4c88-8447-ac4fb77ea2c9","ios":"levelo://app?vid=d229c5ed-362a-4c88-8447-ac4fb77ea2c9"},"vehicle_type_id":"4","last_reported":1752135330,"current_range_meters":18800,"station_id":"ce4bgs12rcd13ifvqcag","pricing_plan_id":"cebpf4jnsgd1na2vs0mg"},{"bike_id":"60874c31-8863-473e-b6cb-37b5bb31df57","system_id":"levelo_inurba_marseille","lat":43.28272,"lon":5.35063,"is_reserved":false,"is_disabled":false,"rental_uris":{"android":"levelo://app?vid=60874c31-8863-473e-b6cb-37b5bb31df57","ios":"levelo://app?vid=60874c31-8863-473e-b6cb-37b5bb31df57"},"vehicle_type_id":"4","last_reported":1752135330,"current_range_meters":18800,"station_id":"ce4bhbp2rcd13ifvqerg","pricing_plan_id":"cebpf4jnsgd1na2vs0mg"},{"bike_id":"d39178c4-b7be-4d48-9ac4-b9c12a67227c","system_id":"levelo_inurba_marseille","lat":43.25926,"lon":5.40877,"is_reserved":false,"is_disabled":false,"rental_uris":{"android":"levelo://app?vid=d39178c4-b7be-4d48-9ac4-b9c12a67227c","ios":"levelo://app?vid=d39178c4-b7be-4d48-9ac4-b9c12a67227c"},"vehicle_type_id":"4","last_reported":1752135330,"current_range_meters":18800,"station_id":"ce4bhm92rcd13ifvqglg","pricing_plan_id":"cebpf4jnsgd1na2vs0mg"},{"bike_id":"386ac6c9-5fc7-4a38-b181-1cf955b205b5","system_id":"levelo_inurba_marseille","lat":43.25933,"lon":5.40908,"is_reserved":false,"is_disabled":false,"rental_uris":{"android":"levelo://app?vid=386ac6c9-5fc7-4a38-b181-1cf955b205b5","ios":"levelo://app?vid=386ac6c9-5fc7-4a38-b181-1cf955b205b5"},"vehicle_type_id":"4","last_reported":1752135330,"current_range_meters":18800,"station_id":"ce4bhm92rcd13ifvqglg","pricing_plan_id":"cebpf4jnsgd1na2vs0mg"},{"bike_id":"06149d83-500e-45ca-8e61-eff77bde7f9b","system_id":"levelo_inurba_marseille","lat":43.24179,"lon":5.39722,"is_reserved":false,"is_disabled":false,"rental_uris":{"android":"levelo://app?vid=06149d83-500e-45ca-8e61-eff77bde7f9b","ios":"levelo://app?vid=06149d83-500e-45ca-8e61-eff77bde7f9b"},"vehicle_type_id":"4","last_reported":1752135330,"current_range_meters":18800,"station_id":"ce4bhn12rcd13ifvqgpg","pricing_plan_id":"cebpf4jnsgd1na2vs0mg"},{"bike_id":"fb8dd0a5-9183-4ff0-8320-686e06c9a124","system_id":"levelo_inurba_marseille","lat":43.29901,"lon":5.43668,"is_reserved":false,"is_disabled":false,"rental_uris":{"android":"levelo://app?vid=fb8dd0a5-9183-4ff0-8320-686e06c9a124","ios":"levelo://app?vid=fb8dd0a5-9183-4ff0-8320-686e06c9a124"},"vehicle_type_id":"4","last_reported":1752135330,"current_range_meters":18800,"station_id":"ce4bhpp2rcd13ifvqhfg","pricing_plan_id":"cebpf4jnsgd1na2vs0mg"},{"bike_id":"8469f67b-5dff-42f1-9d24-0a69a7c8f643","system_id":"levelo_inurba_marseille","lat":43.32264,"lon":5.38277,"is_reserved":false,"is_disabled":false,"rental_uris":{"android":"levelo://app?vid=8469f67b-5dff-42f1-9d24-0a69a7c8f643","ios":"levelo://app?vid=8469f67b-5dff-42f1-9d24-0a69a7c8f643"},"vehicle_type_id":"4","last_reported":1752135330,"current_range_meters":18800,"station_id":"ce4bhr12rcd13ifvqhqg","pricing_plan_id":"cebpf4jnsgd1na2vs0mg"},{"bike_id":"a3d06fdd-d90f-4da8-9200-8f61c005f0a2","system_id":"levelo_inurba_marseille","lat":43.22507,"lon":5.34752,"is_reserved":false,"is_disabled":false,"rental_uris":{"android":"levelo://app?vid=a3d06fdd-d90f-4da8-9200-8f61c005f0a2","ios":"levelo://app?vid=a3d06fdd-d90f-4da8-9200-8f61c005f0a2"},"vehicle_type_id":"4","last_reported":1752135330,"current_range_meters":18800,"station_id":"st_cvj5dfep6f1abm77gieg","pricing_plan_id":"cebpf4jnsgd1na2vs0mg"},{"bike_id":"4c20d321-0bc9-42d0-9308-79703d497ae9","system_id":"levelo_inurba_marseille","lat":43.284789,"lon":5.384169,"is_reserved":false,"is_disabled":false,"rental_uris":{"android":"levelo://app?vid=4c20d321-0bc9-42d0-9308-79703d497ae9","ios":"levelo://app?vid=4c20d321-0bc9-42d0-9308-79703d497ae9"},"vehicle_type_id":"4","last_reported":1752135330,"current_range_meters":19200,"station_id":"","pricing_plan_id":"cebpf4jnsgd1na2vs0mg"},{"bike_id":"690c7b89-2076-4033-bf09-8e7aace2d8d0","system_id":"levelo_inurba_marseille","lat":43.31207,"lon":5.36861,"is_reserved":false,"is_disabled":false,"rental_uris":{"android":"levelo://app?vid=690c7b89-2076-4033-bf09-8e7aace2d8d0","ios":"levelo://app?vid=690c7b89-2076-4033-bf09-8e7aace2d8d0"},"vehicle_type_id":"4","last_reported":1752135330,"current_range_meters":19200,"station_id":"ce4bgl92rcd13ifvqbq0","pricing_plan_id":"cebpf4jnsgd1na2vs0mg"},{"bike_id":"cadcdd94-6f30-4473-bcb1-9df418f342aa","system_id":"levelo_inurba_marseille","lat":43.24389,"lon":5.37064,"is_reserved":false,"is_disabled":false,"rental_uris":{"android":"levelo://app?vid=cadcdd94-6f30-4473-bcb1-9df418f342aa","ios":"levelo://app?vid=cadcdd94-6f30-4473-bcb1-9df418f342aa"},"vehicle_type_id":"4","last_reported":1752135330,"current_range_meters":19200,"station_id":"ce4bhhh2rcd13ifvqfk0","pricing_plan_id":"cebpf4jnsgd1na2vs0mg"},{"bike_id":"a37c81c5-d096-4e6d-b1b3-5bbb8251fbd0","system_id":"levelo_inurba_marseille","lat":43.243888,"lon":5.370651,"is_reserved":false,"is_disabled":false,"rental_uris":{"android":"levelo://app?vid=a37c81c5-d096-4e6d-b1b3-5bbb8251fbd0","ios":"levelo://app?vid=a37c81c5-d096-4e6d-b1b3-5bbb8251fbd0"},"vehicle_type_id":"4","last_reported":1752135330,"current_range_meters":19200,"station_id":"ce4bhhh2rcd13ifvqfk0","pricing_plan_id":"cebpf4jnsgd1na2vs0mg"},{"bike_id":"a772997c-52b4-4655-afac-b63fc06c4a2e","system_id":"levelo_inurba_marseille","lat":43.285709,"lon":5.394975,"is_reserved":false,"is_disabled":false,"rental_uris":{"android":"levelo://app?vid=a772997c-52b4-4655-afac-b63fc06c4a2e","ios":"levelo://app?vid=a772997c-52b4-4655-afac-b63fc06c4a2e"},"vehicle_type_id":"4","last_reported":1752135330,"current_range_meters":19200,"station_id":"ce4bhs12rcd13ifvqhvg","pricing_plan_id":"cebpf4jnsgd1na2vs0mg"},{"bike_id":"ccd8088e-665d-407d-bc70-2c07bf9cec81","system_id":"levelo_inurba_marseille","lat":43.22929,"lon":5.35367,"is_reserved":false,"is_disabled":false,"rental_uris":{"android":"levelo://app?vid=ccd8088e-665d-407d-bc70-2c07bf9cec81","ios":"levelo://app?vid=ccd8088e-665d-407d-bc70-2c07bf9cec81"},"vehicle_type_id":"4","last_reported":1752135330,"current_range_meters":19200,"station_id":"cpo3532slgdg3j2ikp40","pricing_plan_id":"cebpf4jnsgd1na2vs0mg"},{"bike_id":"29a0a180-d29f-4a4e-a71b-d1d9d42cb217","system_id":"levelo_inurba_marseille","lat":43.211891,"lon":5.350711,"is_reserved":false,"is_disabled":false,"rental_uris":{"android":"levelo://app?vid=29a0a180-d29f-4a4e-a71b-d1d9d42cb217","ios":"levelo://app?vid=29a0a180-d29f-4a4e-a71b-d1d9d42cb217"},"vehicle_type_id":"4","last_reported":1752135330,"current_range_meters":19200,"station_id":"st_cvj6sg6p6f1abm77japg","pricing_plan_id":"cebpf4jnsgd1na2vs0mg"},{"bike_id":"595e9351-a7ce-45de-8995-771f7d9fe86e","system_id":"levelo_inurba_marseille","lat":43.309243,"lon":5.378088,"is_reserved":false,"is_disabled":false,"rental_uris":{"android":"levelo://app?vid=595e9351-a7ce-45de-8995-771f7d9fe86e","ios":"levelo://app?vid=595e9351-a7ce-45de-8995-771f7d9fe86e"},"vehicle_type_id":"4","last_reported":1752135330,"current_range_meters":19600,"station_id":"","pricing_plan_id":"cebpf4jnsgd1na2vs0mg"},{"bike_id":"849676d6-b573-40d8-942a-11f45b203e43","system_id":"levelo_inurba_marseille","lat":43.3096,"lon":5.39039,"is_reserved":false,"is_disabled":false,"rental_uris":{"android":"levelo://app?vid=849676d6-b573-40d8-942a-11f45b203e43","ios":"levelo://app?vid=849676d6-b573-40d8-942a-11f45b203e43"},"vehicle_type_id":"4","last_reported":1752135330,"current_range_meters":19600,"station_id":"ce4bgup2rcd13ifvqco0","pricing_plan_id":"cebpf4jnsgd1na2vs0mg"},{"bike_id":"d33cbabe-8724-4b7d-a873-a5476968f7d3","system_id":"levelo_inurba_marseille","lat":43.2843,"lon":5.34984,"is_reserved":false,"is_disabled":false,"rental_uris":{"android":"levelo://app?vid=d33cbabe-8724-4b7d-a873-a5476968f7d3","ios":"levelo://app?vid=d33cbabe-8724-4b7d-a873-a5476968f7d3"},"vehicle_type_id":"4","last_reported":1752135330,"current_range_meters":19600,"station_id":"ce4bhbh2rcd13ifvqepg","pricing_plan_id":"cebpf4jnsgd1na2vs0mg"},{"bike_id":"0c71d80c-8034-41eb-b7ca-bddafa9cfece","system_id":"levelo_inurba_marseille","lat":43.26688,"lon":5.38266,"is_reserved":false,"is_disabled":false,"rental_uris":{"android":"levelo://app?vid=0c71d80c-8034-41eb-b7ca-bddafa9cfece","ios":"levelo://app?vid=0c71d80c-8034-41eb-b7ca-bddafa9cfece"},"vehicle_type_id":"4","last_reported":1752135330,"current_range_meters":19600,"station_id":"ce4bhg92rcd13ifvqf90","pricing_plan_id":"cebpf4jnsgd1na2vs0mg"},{"bike_id":"6d526cf2-f7c6-43f0-8c10-b635af2f14a9","system_id":"levelo_inurba_marseille","lat":43.229367,"lon":5.353737,"is_reserved":false,"is_disabled":false,"rental_uris":{"android":"levelo://app?vid=6d526cf2-f7c6-43f0-8c10-b635af2f14a9","ios":"levelo://app?vid=6d526cf2-f7c6-43f0-8c10-b635af2f14a9"},"vehicle_type_id":"4","last_reported":1752135330,"current_range_meters":19600,"station_id":"cpo3532slgdg3j2ikp40","pricing_plan_id":"cebpf4jnsgd1na2vs0mg"},{"bike_id":"cb8db05c-7ef4-4fcf-b321-cdc13d7cccad","system_id":"levelo_inurba_marseille","lat":43.29077,"lon":5.35567,"is_reserved":false,"is_disabled":false,"rental_uris":{"android":"levelo://app?vid=cb8db05c-7ef4-4fcf-b321-cdc13d7cccad","ios":"levelo://app?vid=cb8db05c-7ef4-4fcf-b321-cdc13d7cccad"},"vehicle_type_id":"4","last_reported":1752135330,"current_range_meters":20000,"station_id":"","pricing_plan_id":"cebpf4jnsgd1na2vs0mg"},{"bike_id":"52bbed55-bb43-4609-aa14-ca80dd09df26","system_id":"levelo_inurba_marseille","lat":43.337427,"lon":5.374762,"is_reserved":false,"is_disabled":false,"rental_uris":{"android":"levelo://app?vid=52bbed55-bb43-4609-aa14-ca80dd09df26","ios":"levelo://app?vid=52bbed55-bb43-4609-aa14-ca80dd09df26"},"vehicle_type_id":"4","last_reported":1752135330,"current_range_meters":20000,"station_id":"","pricing_plan_id":"cebpf4jnsgd1na2vs0mg"},{"bike_id":"459b1709-f0d9-4318-b979-4c28c66c145d","system_id":"levelo_inurba_marseille","lat":43.29175,"lon":5.37147,"is_reserved":false,"is_disabled":false,"rental_uris":{"android":"levelo://app?vid=459b1709-f0d9-4318-b979-4c28c66c145d","ios":"levelo://app?vid=459b1709-f0d9-4318-b979-4c28c66c145d"},"vehicle_type_id":"4","last_reported":1752135330,"current_range_meters":20000,"station_id":"ce4bha92rcd13ifvqeh0","pricing_plan_id":"cebpf4jnsgd1na2vs0mg"},{"bike_id":"3868b2ef-f1d7-4406-b81a-e6d547be94ff","system_id":"levelo_inurba_marseille","lat":43.29168,"lon":5.37165,"is_reserved":false,"is_disabled":false,"rental_uris":{"android":"levelo://app?vid=3868b2ef-f1d7-4406-b81a-e6d547be94ff","ios":"levelo://app?vid=3868b2ef-f1d7-4406-b81a-e6d547be94ff"},"vehicle_type_id":"4","last_reported":1752135330,"current_range_meters":20000,"station_id":"ce4bha92rcd13ifvqeh0","pricing_plan_id":"cebpf4jnsgd1na2vs0mg"},{"bike_id":"d30caf52-2397-4e7f-8fa4-abe2a7db27b2","system_id":"levelo_inurba_marseille","lat":43.25942,"lon":5.40888,"is_reserved":false,"is_disabled":false,"rental_uris":{"android":"levelo://app?vid=d30caf52-2397-4e7f-8fa4-abe2a7db27b2","ios":"levelo://app?vid=d30caf52-2397-4e7f-8fa4-abe2a7db27b2"},"vehicle_type_id":"4","last_reported":1752135330,"current_range_meters":20000,"station_id":"ce4bhm92rcd13ifvqglg","pricing_plan_id":"cebpf4jnsgd1na2vs0mg"},{"bike_id":"e3a75ee9-c614-467b-8cc2-f813bcef2ab1","system_id":"levelo_inurba_marseille","lat":43.33743,"lon":5.3919,"is_reserved":false,"is_disabled":false,"rental_uris":{"android":"levelo://app?vid=e3a75ee9-c614-467b-8cc2-f813bcef2ab1","ios":"levelo://app?vid=e3a75ee9-c614-467b-8cc2-f813bcef2ab1"},"vehicle_type_id":"4","last_reported":1752135330,"current_range_meters":20000,"station_id":"ce4bhr92rcd13ifvqhsg","pricing_plan_id":"cebpf4jnsgd1na2vs0mg"},{"bike_id":"449ed129-2f06-47da-936f-6e63a3609258","system_id":"levelo_inurba_marseille","lat":43.23203,"lon":5.35539,"is_reserved":false,"is_disabled":false,"rental_uris":{"android":"levelo://app?vid=449ed129-2f06-47da-936f-6e63a3609258","ios":"levelo://app?vid=449ed129-2f06-47da-936f-6e63a3609258"},"vehicle_type_id":"4","last_reported":1752135330,"current_range_meters":20000,"station_id":"ce4bhu92rcd13ifvqi70","pricing_plan_id":"cebpf4jnsgd1na2vs0mg"},{"bike_id":"baded31f-14f6-420b-848e-602cf108c48b","system_id":"levelo_inurba_marseille","lat":43.27991,"lon":5.38645,"is_reserved":false,"is_disabled":false,"rental_uris":{"android":"levelo://app?vid=baded31f-14f6-420b-848e-602cf108c48b","ios":"levelo://app?vid=baded31f-14f6-420b-848e-602cf108c48b"},"vehicle_type_id":"4","last_reported":1752135330,"current_range_meters":20400,"station_id":"","pricing_plan_id":"cebpf4jnsgd1na2vs0mg"},{"bike_id":"4ca69d49-63d1-4772-9006-09bcfa098c08","system_id":"levelo_inurba_marseille","lat":43.26161,"lon":5.37468,"is_reserved":false,"is_disabled":false,"rental_uris":{"android":"levelo://app?vid=4ca69d49-63d1-4772-9006-09bcfa098c08","ios":"levelo://app?vid=4ca69d49-63d1-4772-9006-09bcfa098c08"},"vehicle_type_id":"4","last_reported":1752135330,"current_range_meters":20400,"station_id":"","pricing_plan_id":"cebpf4jnsgd1na2vs0mg"},{"bike_id":"9f3c5f2e-d4be-4bd4-9865-c7acb5e49047","system_id":"levelo_inurba_marseille","lat":43.30397,"lon":5.42441,"is_reserved":false,"is_disabled":false,"rental_uris":{"android":"levelo://app?vid=9f3c5f2e-d4be-4bd4-9865-c7acb5e49047","ios":"levelo://app?vid=9f3c5f2e-d4be-4bd4-9865-c7acb5e49047"},"vehicle_type_id":"4","last_reported":1752135330,"current_range_meters":20400,"station_id":"ce4bghh2rcd13ifvqb60","pricing_plan_id":"cebpf4jnsgd1na2vs0mg"},{"bike_id":"a0419746-6e10-4f26-9315-4e5e1d9cd1d2","system_id":"levelo_inurba_marseille","lat":43.243959,"lon":5.370544,"is_reserved":false,"is_disabled":false,"rental_uris":{"android":"levelo://app?vid=a0419746-6e10-4f26-9315-4e5e1d9cd1d2","ios":"levelo://app?vid=a0419746-6e10-4f26-9315-4e5e1d9cd1d2"},"vehicle_type_id":"4","last_reported":1752135330,"current_range_meters":20400,"station_id":"ce4bhhh2rcd13ifvqfk0","pricing_plan_id":"cebpf4jnsgd1na2vs0mg"},{"bike_id":"a11671c1-3afa-4977-92ba-76b5ac1b176c","system_id":"levelo_inurba_marseille","lat":43.24389,"lon":5.37059,"is_reserved":false,"is_disabled":false,"rental_uris":{"android":"levelo://app?vid=a11671c1-3afa-4977-92ba-76b5ac1b176c","ios":"levelo://app?vid=a11671c1-3afa-4977-92ba-76b5ac1b176c"},"vehicle_type_id":"4","last_reported":1752135330,"current_range_meters":20400,"station_id":"ce4bhhh2rcd13ifvqfk0","pricing_plan_id":"cebpf4jnsgd1na2vs0mg"},{"bike_id":"fde530d0-eeed-4692-bb9c-2c65ba0cdd9f","system_id":"levelo_inurba_marseille","lat":43.30867,"lon":5.42586,"is_reserved":false,"is_disabled":false,"rental_uris":{"android":"levelo://app?vid=fde530d0-eeed-4692-bb9c-2c65ba0cdd9f","ios":"levelo://app?vid=fde530d0-eeed-4692-bb9c-2c65ba0cdd9f"},"vehicle_type_id":"4","last_reported":1752135330,"current_range_meters":20800,"station_id":"","pricing_plan_id":"cebpf4jnsgd1na2vs0mg"},{"bike_id":"a4ec11bb-3564-4bcb-a741-9a9daab4a909","system_id":"levelo_inurba_marseille","lat":43.30483,"lon":5.38165,"is_reserved":false,"is_disabled":false,"rental_uris":{"android":"levelo://app?vid=a4ec11bb-3564-4bcb-a741-9a9daab4a909","ios":"levelo://app?vid=a4ec11bb-3564-4bcb-a741-9a9daab4a909"},"vehicle_type_id":"4","last_reported":1752135330,"current_range_meters":20800,"station_id":"","pricing_plan_id":"cebpf4jnsgd1na2vs0mg"},{"bike_id":"3b3682b2-a3ac-453c-90db-bd9316437ea5","system_id":"levelo_inurba_marseille","lat":43.30459,"lon":5.379,"is_reserved":false,"is_disabled":false,"rental_uris":{"android":"levelo://app?vid=3b3682b2-a3ac-453c-90db-bd9316437ea5","ios":"levelo://app?vid=3b3682b2-a3ac-453c-90db-bd9316437ea5"},"vehicle_type_id":"4","last_reported":1752135330,"current_range_meters":20800,"station_id":"ce4bgup2rcd13ifvqcn0","pricing_plan_id":"cebpf4jnsgd1na2vs0mg"},{"bike_id":"1ef45ada-6acd-40b8-934a-cc3e41469574","system_id":"levelo_inurba_marseille","lat":43.2899,"lon":5.37826,"is_reserved":false,"is_disabled":false,"rental_uris":{"android":"levelo://app?vid=1ef45ada-6acd-40b8-934a-cc3e41469574","ios":"levelo://app?vid=1ef45ada-6acd-40b8-934a-cc3e41469574"},"vehicle_type_id":"4","last_reported":1752135330,"current_range_meters":20800,"station_id":"ce4bh9p2rcd13ifvqed0","pricing_plan_id":"cebpf4jnsgd1na2vs0mg"},{"bike_id":"5fe92c5e-fa9e-45c0-be11-d78eca02c30f","system_id":"levelo_inurba_marseille","lat":43.29007,"lon":5.35603,"is_reserved":false,"is_disabled":false,"rental_uris":{"android":"levelo://app?vid=5fe92c5e-fa9e-45c0-be11-d78eca02c30f","ios":"levelo://app?vid=5fe92c5e-fa9e-45c0-be11-d78eca02c30f"},"vehicle_type_id":"4","last_reported":1752135330,"current_range_meters":20800,"station_id":"ce4bhb92rcd13ifvqen0","pricing_plan_id":"cebpf4jnsgd1na2vs0mg"},{"bike_id":"5e4bb725-0a7c-42b6-8717-a55d114feeb5","system_id":"levelo_inurba_marseille","lat":43.32467,"lon":5.36558,"is_reserved":false,"is_disabled":false,"rental_uris":{"android":"levelo://app?vid=5e4bb725-0a7c-42b6-8717-a55d114feeb5","ios":"levelo://app?vid=5e4bb725-0a7c-42b6-8717-a55d114feeb5"},"vehicle_type_id":"4","last_reported":1752135330,"current_range_meters":20800,"station_id":"ce4bhs12rcd13ifvqhvg","pricing_plan_id":"cebpf4jnsgd1na2vs0mg"},{"bike_id":"495b42e7-c480-4c9f-af1d-45f0e83f40b6","system_id":"levelo_inurba_marseille","lat":43.21746,"lon":5.34607,"is_reserved":false,"is_disabled":false,"rental_uris":{"android":"levelo://app?vid=495b42e7-c480-4c9f-af1d-45f0e83f40b6","ios":"levelo://app?vid=495b42e7-c480-4c9f-af1d-45f0e83f40b6"},"vehicle_type_id":"4","last_reported":1752135330,"current_range_meters":20800,"station_id":"st_cvj6r9ubvosntc0bgbag","pricing_plan_id":"cebpf4jnsgd1na2vs0mg"},{"bike_id":"e8ae14dc-e51d-4bb9-9f22-0ee34cf1122b","system_id":"levelo_inurba_marseille","lat":43.30962,"lon":5.39033,"is_reserved":false,"is_disabled":false,"rental_uris":{"android":"levelo://app?vid=e8ae14dc-e51d-4bb9-9f22-0ee34cf1122b","ios":"levelo://app?vid=e8ae14dc-e51d-4bb9-9f22-0ee34cf1122b"},"vehicle_type_id":"4","last_reported":1752135330,"current_range_meters":21600,"station_id":"ce4bgup2rcd13ifvqco0","pricing_plan_id":"cebpf4jnsgd1na2vs0mg"},{"bike_id":"1852f27c-5ef8-4e0e-8c19-0afc85e86de6","system_id":"levelo_inurba_marseille","lat":43.29036,"lon":5.39957,"is_reserved":false,"is_disabled":false,"rental_uris":{"android":"levelo://app?vid=1852f27c-5ef8-4e0e-8c19-0afc85e86de6","ios":"levelo://app?vid=1852f27c-5ef8-4e0e-8c19-0afc85e86de6"},"vehicle_type_id":"4","last_reported":1752135330,"current_range_meters":21600,"station_id":"ce4bh392rcd13ifvqdm0","pricing_plan_id":"cebpf4jnsgd1na2vs0mg"},{"bike_id":"5de1a785-81cf-4041-927f-e6f11cc5a58b","system_id":"levelo_inurba_marseille","lat":43.289446,"lon":5.354981,"is_reserved":false,"is_disabled":false,"rental_uris":{"android":"levelo://app?vid=5de1a785-81cf-4041-927f-e6f11cc5a58b","ios":"levelo://app?vid=5de1a785-81cf-4041-927f-e6f11cc5a58b"},"vehicle_type_id":"4","last_reported":1752135330,"current_range_meters":21600,"station_id":"ce4bhbh2rcd13ifvqeo0","pricing_plan_id":"cebpf4jnsgd1na2vs0mg"},{"bike_id":"46919a72-5d6d-42c1-866c-e3a4ef0c4923","system_id":"levelo_inurba_marseille","lat":43.2606,"lon":5.39396,"is_reserved":false,"is_disabled":false,"rental_uris":{"android":"levelo://app?vid=46919a72-5d6d-42c1-866c-e3a4ef0c4923","ios":"levelo://app?vid=46919a72-5d6d-42c1-866c-e3a4ef0c4923"},"vehicle_type_id":"4","last_reported":1752135330,"current_range_meters":21600,"station_id":"ce4bhh92rcd13ifvqfj0","pricing_plan_id":"cebpf4jnsgd1na2vs0mg"},{"bike_id":"46fc09ac-fa4c-4486-9e38-4669a690649a","system_id":"levelo_inurba_marseille","lat":43.27073,"lon":5.42281,"is_reserved":false,"is_disabled":false,"rental_uris":{"android":"levelo://app?vid=46fc09ac-fa4c-4486-9e38-4669a690649a","ios":"levelo://app?vid=46fc09ac-fa4c-4486-9e38-4669a690649a"},"vehicle_type_id":"4","last_reported":1752135330,"current_range_meters":21600,"station_id":"ce4bhk92rcd13ifvqgb0","pricing_plan_id":"cebpf4jnsgd1na2vs0mg"},{"bike_id":"06ec5e73-7c37-4d7d-9933-e904369ec74e","system_id":"levelo_inurba_marseille","lat":43.323602,"lon":5.367624,"is_reserved":false,"is_disabled":false,"rental_uris":{"android":"levelo://app?vid=06ec5e73-7c37-4d7d-9933-e904369ec74e","ios":"levelo://app?vid=06ec5e73-7c37-4d7d-9933-e904369ec74e"},"vehicle_type_id":"4","last_reported":1752135330,"current_range_meters":21600,"station_id":"ce4bhsh2rcd13ifvqi2g","pricing_plan_id":"cebpf4jnsgd1na2vs0mg"},{"bike_id":"dc71cfe7-dd5b-4120-8a55-db3cfcbd08fa","system_id":"levelo_inurba_marseille","lat":43.27859,"lon":5.37435,"is_reserved":false,"is_disabled":false,"rental_uris":{"android":"levelo://app?vid=dc71cfe7-dd5b-4120-8a55-db3cfcbd08fa","ios":"levelo://app?vid=dc71cfe7-dd5b-4120-8a55-db3cfcbd08fa"},"vehicle_type_id":"4","last_reported":1752135330,"current_range_meters":22000,"station_id":"","pricing_plan_id":"cebpf4jnsgd1na2vs0mg"},{"bike_id":"6a445661-c27f-4e83-8005-f07873db907e","system_id":"levelo_inurba_marseille","lat":43.304587,"lon":5.367501,"is_reserved":false,"is_disabled":false,"rental_uris":{"android":"levelo://app?vid=6a445661-c27f-4e83-8005-f07873db907e","ios":"levelo://app?vid=6a445661-c27f-4e83-8005-f07873db907e"},"vehicle_type_id":"4","last_reported":1752135330,"current_range_meters":22000,"station_id":"ce4bgvp2rcd13ifvqct0","pricing_plan_id":"cebpf4jnsgd1na2vs0mg"},{"bike_id":"a5090234-21f4-4fee-9ce8-93a7776cea60","system_id":"levelo_inurba_marseille","lat":43.29869,"lon":5.39728,"is_reserved":false,"is_disabled":false,"rental_uris":{"android":"levelo://app?vid=a5090234-21f4-4fee-9ce8-93a7776cea60","ios":"levelo://app?vid=a5090234-21f4-4fee-9ce8-93a7776cea60"},"vehicle_type_id":"4","last_reported":1752135330,"current_range_meters":22000,"station_id":"ce4bh0h2rcd13ifvqd50","pricing_plan_id":"cebpf4jnsgd1na2vs0mg"},{"bike_id":"c6a3c035-22ae-4315-bd74-3d3193b28524","system_id":"levelo_inurba_marseille","lat":43.28259,"lon":5.35072,"is_reserved":false,"is_disabled":false,"rental_uris":{"android":"levelo://app?vid=c6a3c035-22ae-4315-bd74-3d3193b28524","ios":"levelo://app?vid=c6a3c035-22ae-4315-bd74-3d3193b28524"},"vehicle_type_id":"4","last_reported":1752135330,"current_range_meters":22000,"station_id":"ce4bhbp2rcd13ifvqerg","pricing_plan_id":"cebpf4jnsgd1na2vs0mg"},{"bike_id":"b8cd50f2-4dd9-415d-9ee4-6aec216879f2","system_id":"levelo_inurba_marseille","lat":43.26691,"lon":5.38249,"is_reserved":false,"is_disabled":false,"rental_uris":{"android":"levelo://app?vid=b8cd50f2-4dd9-415d-9ee4-6aec216879f2","ios":"levelo://app?vid=b8cd50f2-4dd9-415d-9ee4-6aec216879f2"},"vehicle_type_id":"4","last_reported":1752135330,"current_range_meters":22000,"station_id":"ce4bhg92rcd13ifvqf90","pricing_plan_id":"cebpf4jnsgd1na2vs0mg"},{"bike_id":"5fa281ea-b2b7-4806-a59d-87d02c76b268","system_id":"levelo_inurba_marseille","lat":43.25927,"lon":5.40903,"is_reserved":false,"is_disabled":false,"rental_uris":{"android":"levelo://app?vid=5fa281ea-b2b7-4806-a59d-87d02c76b268","ios":"levelo://app?vid=5fa281ea-b2b7-4806-a59d-87d02c76b268"},"vehicle_type_id":"4","last_reported":1752135330,"current_range_meters":22000,"station_id":"ce4bhm92rcd13ifvqglg","pricing_plan_id":"cebpf4jnsgd1na2vs0mg"},{"bike_id":"aa7ceb26-92c0-422f-a5e8-33aba8183910","system_id":"levelo_inurba_marseille","lat":43.33609,"lon":5.41033,"is_reserved":false,"is_disabled":false,"rental_uris":{"android":"levelo://app?vid=aa7ceb26-92c0-422f-a5e8-33aba8183910","ios":"levelo://app?vid=aa7ceb26-92c0-422f-a5e8-33aba8183910"},"vehicle_type_id":"4","last_reported":1752135330,"current_range_meters":22000,"station_id":"ce4bhqh2rcd13ifvqhmg","pricing_plan_id":"cebpf4jnsgd1na2vs0mg"},{"bike_id":"6b6f65eb-ce38-4f32-94da-5b561c4f5694","system_id":"levelo_inurba_marseille","lat":43.32292,"lon":5.38256,"is_reserved":false,"is_disabled":false,"rental_uris":{"android":"levelo://app?vid=6b6f65eb-ce38-4f32-94da-5b561c4f5694","ios":"levelo://app?vid=6b6f65eb-ce38-4f32-94da-5b561c4f5694"},"vehicle_type_id":"4","last_reported":1752135330,"current_range_meters":22000,"station_id":"ce4bhr12rcd13ifvqhqg","pricing_plan_id":"cebpf4jnsgd1na2vs0mg"},{"bike_id":"7b5cd6ce-df57-4328-854d-cb2d1407ab18","system_id":"levelo_inurba_marseille","lat":43.33014,"lon":5.39021,"is_reserved":false,"is_disabled":false,"rental_uris":{"android":"levelo://app?vid=7b5cd6ce-df57-4328-854d-cb2d1407ab18","ios":"levelo://app?vid=7b5cd6ce-df57-4328-854d-cb2d1407ab18"},"vehicle_type_id":"4","last_reported":1752135330,"current_range_meters":22000,"station_id":"ce4bhr92rcd13ifvqhrg","pricing_plan_id":"cebpf4jnsgd1na2vs0mg"},{"bike_id":"dafa5a87-b26d-4379-9a6b-1f02133b78a6","system_id":"levelo_inurba_marseille","lat":43.211903,"lon":5.350698,"is_reserved":false,"is_disabled":false,"rental_uris":{"android":"levelo://app?vid=dafa5a87-b26d-4379-9a6b-1f02133b78a6","ios":"levelo://app?vid=dafa5a87-b26d-4379-9a6b-1f02133b78a6"},"vehicle_type_id":"4","last_reported":1752135330,"current_range_meters":22000,"station_id":"st_cvj6sg6p6f1abm77japg","pricing_plan_id":"cebpf4jnsgd1na2vs0mg"},{"bike_id":"37b84a38-055a-4a6e-a56a-8ff3d0c1b2ec","system_id":"levelo_inurba_marseille","lat":43.211929,"lon":5.350753,"is_reserved":false,"is_disabled":false,"rental_uris":{"android":"levelo://app?vid=37b84a38-055a-4a6e-a56a-8ff3d0c1b2ec","ios":"levelo://app?vid=37b84a38-055a-4a6e-a56a-8ff3d0c1b2ec"},"vehicle_type_id":"4","last_reported":1752135330,"current_range_meters":22000,"station_id":"st_cvj6sg6p6f1abm77japg","pricing_plan_id":"cebpf4jnsgd1na2vs0mg"},{"bike_id":"0fdbfa71-2a8e-49c7-9f88-38b5ed6ae89d","system_id":"levelo_inurba_marseille","lat":43.28128,"lon":5.38906,"is_reserved":false,"is_disabled":false,"rental_uris":{"android":"levelo://app?vid=0fdbfa71-2a8e-49c7-9f88-38b5ed6ae89d","ios":"levelo://app?vid=0fdbfa71-2a8e-49c7-9f88-38b5ed6ae89d"},"vehicle_type_id":"4","last_reported":1752135330,"current_range_meters":22400,"station_id":"","pricing_plan_id":"cebpf4jnsgd1na2vs0mg"},{"bike_id":"fc2f2fc1-dfd7-4df0-a884-3f73196a2b3e","system_id":"levelo_inurba_marseille","lat":43.25922,"lon":5.40966,"is_reserved":false,"is_disabled":false,"rental_uris":{"android":"levelo://app?vid=fc2f2fc1-dfd7-4df0-a884-3f73196a2b3e","ios":"levelo://app?vid=fc2f2fc1-dfd7-4df0-a884-3f73196a2b3e"},"vehicle_type_id":"4","last_reported":1752135330,"current_range_meters":22400,"station_id":"","pricing_plan_id":"cebpf4jnsgd1na2vs0mg"},{"bike_id":"610dfba5-bd96-4704-a223-01611f903308","system_id":"levelo_inurba_marseille","lat":43.29957,"lon":5.37158,"is_reserved":false,"is_disabled":false,"rental_uris":{"android":"levelo://app?vid=610dfba5-bd96-4704-a223-01611f903308","ios":"levelo://app?vid=610dfba5-bd96-4704-a223-01611f903308"},"vehicle_type_id":"4","last_reported":1752135330,"current_range_meters":22400,"station_id":"ce4bgr92rcd13ifvqc7g","pricing_plan_id":"cebpf4jnsgd1na2vs0mg"},{"bike_id":"b8646cb8-4a72-4d3b-b28f-c425c7e45312","system_id":"levelo_inurba_marseille","lat":43.2744,"lon":5.39412,"is_reserved":false,"is_disabled":false,"rental_uris":{"android":"levelo://app?vid=b8646cb8-4a72-4d3b-b28f-c425c7e45312","ios":"levelo://app?vid=b8646cb8-4a72-4d3b-b28f-c425c7e45312"},"vehicle_type_id":"4","last_reported":1752135330,"current_range_meters":22400,"station_id":"ce4bhdp2rcd13ifvqf20","pricing_plan_id":"cebpf4jnsgd1na2vs0mg"},{"bike_id":"dbba3321-20c7-4989-a7b5-ea9ab2c4b3e8","system_id":"levelo_inurba_marseille","lat":43.261935,"lon":5.374477,"is_reserved":false,"is_disabled":false,"rental_uris":{"android":"levelo://app?vid=dbba3321-20c7-4989-a7b5-ea9ab2c4b3e8","ios":"levelo://app?vid=dbba3321-20c7-4989-a7b5-ea9ab2c4b3e8"},"vehicle_type_id":"4","last_reported":1752135330,"current_range_meters":22400,"station_id":"ce4bhgp2rcd13ifvqfc0","pricing_plan_id":"cebpf4jnsgd1na2vs0mg"},{"bike_id":"70170900-ecbf-4aa8-8f55-552a7afbd1bf","system_id":"levelo_inurba_marseille","lat":43.26483,"lon":5.39554,"is_reserved":false,"is_disabled":false,"rental_uris":{"android":"levelo://app?vid=70170900-ecbf-4aa8-8f55-552a7afbd1bf","ios":"levelo://app?vid=70170900-ecbf-4aa8-8f55-552a7afbd1bf"},"vehicle_type_id":"4","last_reported":1752135330,"current_range_meters":22400,"station_id":"ce4bhi12rcd13ifvqfq0","pricing_plan_id":"cebpf4jnsgd1na2vs0mg"},{"bike_id":"65c6d2d7-a7dc-45ec-9f2f-fb7430e6281d","system_id":"levelo_inurba_marseille","lat":43.32346,"lon":5.36742,"is_reserved":false,"is_disabled":false,"rental_uris":{"android":"levelo://app?vid=65c6d2d7-a7dc-45ec-9f2f-fb7430e6281d","ios":"levelo://app?vid=65c6d2d7-a7dc-45ec-9f2f-fb7430e6281d"},"vehicle_type_id":"4","last_reported":1752135330,"current_range_meters":22400,"station_id":"ce4bhsh2rcd13ifvqi2g","pricing_plan_id":"cebpf4jnsgd1na2vs0mg"},{"bike_id":"5f9facdb-d1e1-40e1-8ceb-766e4b9ac193","system_id":"levelo_inurba_marseille","lat":43.21754,"lon":5.345992,"is_reserved":false,"is_disabled":false,"rental_uris":{"android":"levelo://app?vid=5f9facdb-d1e1-40e1-8ceb-766e4b9ac193","ios":"levelo://app?vid=5f9facdb-d1e1-40e1-8ceb-766e4b9ac193"},"vehicle_type_id":"4","last_reported":1752135330,"current_range_meters":22800,"station_id":"","pricing_plan_id":"cebpf4jnsgd1na2vs0mg"},{"bike_id":"43b90c82-97e0-4fa7-8b67-2448f07d529e","system_id":"levelo_inurba_marseille","lat":43.211906,"lon":5.350693,"is_reserved":false,"is_disabled":false,"rental_uris":{"android":"levelo://app?vid=43b90c82-97e0-4fa7-8b67-2448f07d529e","ios":"levelo://app?vid=43b90c82-97e0-4fa7-8b67-2448f07d529e"},"vehicle_type_id":"4","last_reported":1752135330,"current_range_meters":22800,"station_id":"","pricing_plan_id":"cebpf4jnsgd1na2vs0mg"},{"bike_id":"046fa2a0-9fb2-4690-9995-70f0621686d6","system_id":"levelo_inurba_marseille","lat":43.259435,"lon":5.409033,"is_reserved":false,"is_disabled":false,"rental_uris":{"android":"levelo://app?vid=046fa2a0-9fb2-4690-9995-70f0621686d6","ios":"levelo://app?vid=046fa2a0-9fb2-4690-9995-70f0621686d6"},"vehicle_type_id":"4","last_reported":1752135330,"current_range_meters":22800,"station_id":"","pricing_plan_id":"cebpf4jnsgd1na2vs0mg"},{"bike_id":"f332e000-93b0-43bc-9c83-504d0a1a53c4","system_id":"levelo_inurba_marseille","lat":43.30521,"lon":5.36688,"is_reserved":false,"is_disabled":false,"rental_uris":{"android":"levelo://app?vid=f332e000-93b0-43bc-9c83-504d0a1a53c4","ios":"levelo://app?vid=f332e000-93b0-43bc-9c83-504d0a1a53c4"},"vehicle_type_id":"4","last_reported":1752135330,"current_range_meters":22800,"station_id":"ce4bgrp2rcd13ifvqc9g","pricing_plan_id":"cebpf4jnsgd1na2vs0mg"},{"bike_id":"ab9ed231-39d4-4c7d-8dd6-65d1140ec98f","system_id":"levelo_inurba_marseille","lat":43.31185,"lon":5.38692,"is_reserved":false,"is_disabled":false,"rental_uris":{"android":"levelo://app?vid=ab9ed231-39d4-4c7d-8dd6-65d1140ec98f","ios":"levelo://app?vid=ab9ed231-39d4-4c7d-8dd6-65d1140ec98f"},"vehicle_type_id":"4","last_reported":1752135330,"current_range_meters":22800,"station_id":"ce4bgv12rcd13ifvqcp0","pricing_plan_id":"cebpf4jnsgd1na2vs0mg"},{"bike_id":"01307df2-a512-481a-8b5c-47e495a06826","system_id":"levelo_inurba_marseille","lat":43.28617,"lon":5.351,"is_reserved":false,"is_disabled":false,"rental_uris":{"android":"levelo://app?vid=01307df2-a512-481a-8b5c-47e495a06826","ios":"levelo://app?vid=01307df2-a512-481a-8b5c-47e495a06826"},"vehicle_type_id":"4","last_reported":1752135330,"current_range_meters":22800,"station_id":"ce4bhch2rcd13ifvqeug","pricing_plan_id":"cebpf4jnsgd1na2vs0mg"},{"bike_id":"64f10ec8-b23a-4bf1-ae67-d220a1529eb7","system_id":"levelo_inurba_marseille","lat":43.27302,"lon":5.39106,"is_reserved":false,"is_disabled":false,"rental_uris":{"android":"levelo://app?vid=64f10ec8-b23a-4bf1-ae67-d220a1529eb7","ios":"levelo://app?vid=64f10ec8-b23a-4bf1-ae67-d220a1529eb7"},"vehicle_type_id":"4","last_reported":1752135330,"current_range_meters":22800,"station_id":"ce4bhgp2rcd13ifvqfe0","pricing_plan_id":"cebpf4jnsgd1na2vs0mg"},{"bike_id":"6a7099b5-2747-4f5a-9d33-b0f90b21119f","system_id":"levelo_inurba_marseille","lat":43.24394,"lon":5.37051,"is_reserved":false,"is_disabled":false,"rental_uris":{"android":"levelo://app?vid=6a7099b5-2747-4f5a-9d33-b0f90b21119f","ios":"levelo://app?vid=6a7099b5-2747-4f5a-9d33-b0f90b21119f"},"vehicle_type_id":"4","last_reported":1752135330,"current_range_meters":22800,"station_id":"ce4bhhh2rcd13ifvqfk0","pricing_plan_id":"cebpf4jnsgd1na2vs0mg"},{"bike_id":"c5074096-07a4-4672-842f-b87495c6d77c","system_id":"levelo_inurba_marseille","lat":43.3373,"lon":5.39185,"is_reserved":false,"is_disabled":false,"rental_uris":{"android":"levelo://app?vid=c5074096-07a4-4672-842f-b87495c6d77c","ios":"levelo://app?vid=c5074096-07a4-4672-842f-b87495c6d77c"},"vehicle_type_id":"4","last_reported":1752135330,"current_range_meters":22800,"station_id":"ce4bhr92rcd13ifvqhsg","pricing_plan_id":"cebpf4jnsgd1na2vs0mg"},{"bike_id":"1e41aa5c-bba0-457f-978e-c89116d30194","system_id":"levelo_inurba_marseille","lat":43.32513,"lon":5.36545,"is_reserved":false,"is_disabled":false,"rental_uris":{"android":"levelo://app?vid=1e41aa5c-bba0-457f-978e-c89116d30194","ios":"levelo://app?vid=1e41aa5c-bba0-457f-978e-c89116d30194"},"vehicle_type_id":"4","last_reported":1752135330,"current_range_meters":22800,"station_id":"ce4bhs12rcd13ifvqhvg","pricing_plan_id":"cebpf4jnsgd1na2vs0mg"},{"bike_id":"7dd4258d-8fe1-466b-bba8-036a896c4262","system_id":"levelo_inurba_marseille","lat":43.23193,"lon":5.35557,"is_reserved":false,"is_disabled":false,"rental_uris":{"android":"levelo://app?vid=7dd4258d-8fe1-466b-bba8-036a896c4262","ios":"levelo://app?vid=7dd4258d-8fe1-466b-bba8-036a896c4262"},"vehicle_type_id":"4","last_reported":1752135330,"current_range_meters":22800,"station_id":"ce4bhu92rcd13ifvqi70","pricing_plan_id":"cebpf4jnsgd1na2vs0mg"},