{"last_updated":1685369168,"ttl":30,"version":"2.2","data":{"bikes":[{"bike_id":"8c2c6a1f-bfcd-48a0-be6c-00b274b3cc94","system_id":"levelo_inurba_marseille","lat":43.31363,"lon":5.36697,"is_reserved":false,"is_disabled":false,"rental_uris":{"android":"levelo://app?vid=8c2c6a1f-bfcd-48a0-be6c-00b274b3cc94","ios":"levelo://app?vid=8c2c6a1f-bfcd-48a0-be6c-00b274b3cc94"},"vehicle_type_id":"4","last_reported":1685369169,"current_range_meters":28800,"station_id":"","pricing_plan_id":"free"},{"bike_id":"402ccca3-6035-40e5-adb3-51301963a9d6","system_id":"levelo_inurba_marseille","lat":43.31371,"lon":5.36695,"is_reserved":false,"is_disabled":false,"rental_uris":{"android":"levelo://app?vid=402ccca3-6035-40e5-adb3-51301963a9d6","ios":"levelo://app?vid=402ccca3-6035-40e5-adb3-51301963a9d6"},"vehicle_type_id":"4","last_reported":1685369169,"current_range_meters":29600,"station_id":"","pricing_plan_id":"free"},{"bike_id":"f5283d3b-cdd9-431d-b947-2400e1e55a44","system_id":"levelo_inurba_marseille","lat":43.31242,"lon":5.36852,"is_reserved":false,"is_disabled":false,"rental_uris":{"android":"levelo://app?vid=f5283d3b-cdd9-431d-b947-2400e1e55a44","ios":"levelo://app?vid=f5283d3b-cdd9-431d-b947-2400e1e55a44"},"vehicle_type_id":"4","last_reported":1685369169,"current_range_meters":31200,"station_id":"ce4bgl92rcd13ifvqbq0","pricing_plan_id":"free"},{"bike_id":"2ca57ba2-b93c-4a01-a2da-34c64b4df9cc","system_id":"levelo_inurba_marseille","lat":43.31231,"lon":5.36851,"is_reserved":false,"is_disabled":false,"rental_uris":{"android":"levelo://app?vid=2ca57ba2-b93c-4a01-a2da-34c64b4df9cc","ios":"levelo://app?vid=2ca57ba2-b93c-4a01-a2da-34c64b4df9cc"},"vehicle_type_id":"4","last_reported":1685369169,"current_range_meters":29200,"station_id":"ce4bgl92rcd13ifvqbq0","pricing_plan_id":"free"},{"bike_id":"0077bbf9-38f1-4511-907e-3972b2141d66","system_id":"levelo_inurba_marseille","lat":43.31234,"lon":5.36853,"is_reserved":false,"is_disabled":false,"rental_uris":{"android":"levelo://app?vid=0077bbf9-38f1-4511-907e-3972b2141d66","ios":"levelo://app?vid=0077bbf9-38f1-4511-907e-3972b2141d66"},"vehicle_type_id":"4","last_reported":1685369169,"current_range_meters":30000,"station_id":"ce4bgl92rcd13ifvqbq0","pricing_plan_id":"free"},{"bike_id":"6506bcc2-b846-45f6-a165-8fb31e4eea8e","system_id":"levelo_inurba_marseille","lat":43.31233,"lon":5.36854,"is_reserved":false,"is_disabled":false,"rental_uris":{"android":"levelo://app?vid=6506bcc2-b846-45f6-a165-8fb31e4eea8e","ios":"levelo://app?vid=6506bcc2-b846-45f6-a165-8fb31e4eea8e"},"vehicle_type_id":"4","last_reported":1685369169,"current_range_meters":8000,"station_id":"ce4bgl92rcd13ifvqbq0","pricing_plan_id":"free"},{"bike_id":"01597115-3ff6-48f6-a95f-5aa90ffcff55","system_id":"levelo_inurba_marseille","lat":43.31225,"lon":5.36857,"is_reserved":false,"is_disabled":false,"rental_uris":{"android":"levelo://app?vid=01597115-3ff6-48f6-a95f-5aa90ffcff55","ios":"levelo://app?vid=01597115-3ff6-48f6-a95f-5aa90ffcff55"},"vehicle_type_id":"4","last_reported":1685369169,"current_range_meters":27200,"station_id":"ce4bgl92rcd13ifvqbq0","pricing_plan_id":"free"},{"bike_id":"9325ecf4-ff47-40c3-bdbb-ecbdb9361211","system_id":"levelo_inurba_marseille","lat":43.31225,"lon":5.36858,"is_reserved":false,"is_disabled":false,"rental_uris":{"android":"levelo://app?vid=9325ecf4-ff47-40c3-bdbb-ecbdb9361211","ios":"levelo://app?vid=9325ecf4-ff47-40c3-bdbb-ecbdb9361211"},"vehicle_type_id":"4","last_reported":1685369169,"current_range_meters":31200,"station_id":"ce4bgl92rcd13ifvqbq0","pricing_plan_id":"free"},{"bike_id":"41ffa87d-a512-4f94-a2e8-70f21f89ce53","system_id":"levelo_inurba_marseille","lat":43.3149,"lon":5.37299,"is_reserved":false,"is_disabled":false,"rental_uris":{"android":"levelo://app?vid=41ffa87d-a512-4f94-a2e8-70f21f89ce53","ios":"levelo://app?vid=41ffa87d-a512-4f94-a2e8-70f21f89ce53"},"vehicle_type_id":"4","last_reported":1685369169,"current_range_meters":31200,"station_id":"ce4bgt12rcd13ifvqcd0","pricing_plan_id":"free"},{"bike_id":"37a434f9-42e3-4af9-8bb2-d31cc17ca9dc","system_id":"levelo_inurba_marseille","lat":43.31484,"lon":5.37304,"is_reserved":false,"is_disabled":false,"rental_uris":{"android":"levelo://app?vid=37a434f9-42e3-4af9-8bb2-d31cc17ca9dc","ios":"levelo://app?vid=37a434f9-42e3-4af9-8bb2-d31cc17ca9dc"},"vehicle_type_id":"4","last_reported":1685369169,"current_range_meters":19200,"station_id":"ce4bgt12rcd13ifvqcd0","pricing_plan_id":"free"},{"bike_id":"fb845587-1cce-4283-8985-9fe21f142ed3","system_id":"levelo_inurba_marseille","lat":43.31489,"lon":5.37308,"is_reserved":false,"is_disabled":false,"rental_uris":{"android":"levelo://app?vid=fb845587-1cce-4283-8985-9fe21f142ed3","ios":"levelo://app?vid=fb845587-1cce-4283-8985-9fe21f142ed3"},"vehicle_type_id":"4","last_reported":1685369169,"current_range_meters":27600,"station_id":"ce4bgt12rcd13ifvqcd0","pricing_plan_id":"free"},{"bike_id":"d226e977-3f0b-4b0c-a0e0-157c44aec210","system_id":"levelo_inurba_marseille","lat":43.31491,"lon":5.37307,"is_reserved":false,"is_disabled":false,"rental_uris":{"android":"levelo://app?vid=d226e977-3f0b-4b0c-a0e0-157c44aec210","ios":"levelo://app?vid=d226e977-3f0b-4b0c-a0e0-157c44aec210"},"vehicle_type_id":"4","last_reported":1685369169,"current_range_meters":28000,"station_id":"ce4bgt12rcd13ifvqcd0","pricing_plan_id":"free"},{"bike_id":"23b18efb-ea05-418b-a97f-c634d85706bb","system_id":"levelo_inurba_marseille","lat":43.30541,"lon":5.3653,"is_reserved":false,"is_disabled":false,"rental_uris":{"android":"levelo://app?vid=23b18efb-ea05-418b-a97f-c634d85706bb","ios":"levelo://app?vid=23b18efb-ea05-418b-a97f-c634d85706bb"},"vehicle_type_id":"4","last_reported":1685369169,"current_range_meters":30800,"station_id":"","pricing_plan_id":"free"},{"bike_id":"f53dd880-efd1-4313-8e3f-3a0b94620b39","system_id":"levelo_inurba_marseille","lat":43.305368,"lon":5.367343,"is_reserved":false,"is_disabled":false,"rental_uris":{"android":"levelo://app?vid=f53dd880-efd1-4313-8e3f-3a0b94620b39","ios":"levelo://app?vid=f53dd880-efd1-4313-8e3f-3a0b94620b39"},"vehicle_type_id":"4","last_reported":1685369169,"current_range_meters":19600,"station_id":"ce4bgrp2rcd13ifvqc9g","pricing_plan_id":"free"},{"bike_id":"cfe8b94b-e6f8-4730-bb47-d0b7129b7594","system_id":"levelo_inurba_marseille","lat":43.30912,"lon":5.37665,"is_reserved":false,"is_disabled":false,"rental_uris":{"android":"levelo://app?vid=cfe8b94b-e6f8-4730-bb47-d0b7129b7594","ios":"levelo://app?vid=cfe8b94b-e6f8-4730-bb47-d0b7129b7594"},"vehicle_type_id":"4","last_reported":1685369169,"current_range_meters":20400,"station_id":"","pricing_plan_id":"free"},{"bike_id":"bfdd1e9b-6280-49f7-b9b8-d698e08c570c","system_id":"levelo_inurba_marseille","lat":43.317075,"lon":5.377367,"is_reserved":false,"is_disabled":false,"rental_uris":{"android":"levelo://app?vid=bfdd1e9b-6280-49f7-b9b8-d698e08c570c","ios":"levelo://app?vid=bfdd1e9b-6280-49f7-b9b8-d698e08c570c"},"vehicle_type_id":"4","last_reported":1685369169,"current_range_meters":21600,"station_id":"ce4bgth2rcd13ifvqch0","pricing_plan_id":"free"},{"bike_id":"ac46bd21-4552-4c0d-9719-e4d4af40510d","system_id":"levelo_inurba_marseille","lat":43.317075,"lon":5.377367,"is_reserved":false,"is_disabled":false,"rental_uris":{"android":"levelo://app?vid=ac46bd21-4552-4c0d-9719-e4d4af40510d","ios":"levelo://app?vid=ac46bd21-4552-4c0d-9719-e4d4af40510d"},"vehicle_type_id":"4","last_reported":1685369169,"current_range_meters":23200,"station_id":"ce4bgth2rcd13ifvqch0","pricing_plan_id":"free"},{"bike_id":"b59b3220-e811-4092-aa16-9a1fa3cd1848","system_id":"levelo_inurba_marseille","lat":43.303046,"lon":5.368981,"is_reserved":false,"is_disabled":false,"rental_uris":{"android":"levelo://app?vid=b59b3220-e811-4092-aa16-9a1fa3cd1848","ios":"levelo://app?vid=b59b3220-e811-4092-aa16-9a1fa3cd1848"},"vehicle_type_id":"4","last_reported":1685369169,"current_range_meters":26000,"station_id":"ce4bgqh2rcd13ifvqc5g","pricing_plan_id":"free"},{"bike_id":"da851cf8-4932-4297-83dc-62775fdaf438","system_id":"levelo_inurba_marseille","lat":43.303046,"lon":5.368981,"is_reserved":false,"is_disabled":false,"rental_uris":{"android":"levelo://app?vid=da851cf8-4932-4297-83dc-62775fdaf438","ios":"levelo://app?vid=da851cf8-4932-4297-83dc-62775fdaf438"},"vehicle_type_id":"4","last_reported":1685369169,"current_range_meters":5600,"station_id":"ce4bgqh2rcd13ifvqc5g","pricing_plan_id":"free"},{"bike_id":"9a7d1a88-7bc5-4bee-a909-7b1c07088442","system_id":"levelo_inurba_marseille","lat":43.315293,"lon":5.380349,"is_reserved":false,"is_disabled":false,"rental_uris":{"android":"levelo://app?vid=9a7d1a88-7bc5-4bee-a909-7b1c07088442","ios":"levelo://app?vid=9a7d1a88-7bc5-4bee-a909-7b1c07088442"},"vehicle_type_id":"4","last_reported":1685369169,"current_range_meters":24400,"station_id":"ce4bhsp2rcd13ifvqi50","pricing_plan_id":"free"},{"bike_id":"db297c34-d4b1-4342-a5ff-9683d5f35f5f","system_id":"levelo_inurba_marseille","lat":43.315293,"lon":5.380349,"is_reserved":false,"is_disabled":false,"rental_uris":{"android":"levelo://app?vid=db297c34-d4b1-4342-a5ff-9683d5f35f5f","ios":"levelo://app?vid=db297c34-d4b1-4342-a5ff-9683d5f35f5f"},"vehicle_type_id":"4","last_reported":1685369169,"current_range_meters":22800,"station_id":"ce4bhsp2rcd13ifvqi50","pricing_plan_id":"free"},{"bike_id":"d03dfde3-848d-4a12-b8c5-302f4c16e8c3","system_id":"levelo_inurba_marseille","lat":43.31556,"lon":5.38048,"is_reserved":false,"is_disabled":false,"rental_uris":{"android":"levelo://app?vid=d03dfde3-848d-4a12-b8c5-302f4c16e8c3","ios":"levelo://app?vid=d03dfde3-848d-4a12-b8c5-302f4c16e8c3"},"vehicle_type_id":"4","last_reported":1685369169,"current_range_meters":17600,"station_id":"","pricing_plan_id":"free"},{"bike_id":"57e17d8c-27ab-4bb0-adb8-d7cb70c28c3a","system_id":"levelo_inurba_marseille","lat":43.308012,"lon":5.381511,"is_reserved":false,"is_disabled":false,"rental_uris":{"android":"levelo://app?vid=57e17d8c-27ab-4bb0-adb8-d7cb70c28c3a","ios":"levelo://app?vid=57e17d8c-27ab-4bb0-adb8-d7cb70c28c3a"},"vehicle_type_id":"4","last_reported":1685369169,"current_range_meters":16400,"station_id":"ce4bgt12rcd13ifvqce0","pricing_plan_id":"free"},{"bike_id":"852568bb-af62-4419-9117-f549719712aa","system_id":"levelo_inurba_marseille","lat":43.313571,"lon":5.384829,"is_reserved":false,"is_disabled":false,"rental_uris":{"android":"levelo://app?vid=852568bb-af62-4419-9117-f549719712aa","ios":"levelo://app?vid=852568bb-af62-4419-9117-f549719712aa"},"vehicle_type_id":"4","last_reported":1685369169,"current_range_meters":22400,"station_id":"ce4bgt92rcd13ifvqcf0","pricing_plan_id":"free"},{"bike_id":"9794ebc2-fd04-4cf3-a739-433cfdc56ec0","system_id":"levelo_inurba_marseille","lat":43.298433,"lon":5.362774,"is_reserved":false,"is_disabled":false,"rental_uris":{"android":"levelo://app?vid=9794ebc2-fd04-4cf3-a739-433cfdc56ec0","ios":"levelo://app?vid=9794ebc2-fd04-4cf3-a739-433cfdc56ec0"},"vehicle_type_id":"4","last_reported":1685369169,"current_range_meters":31200,"station_id":"ce4bgpp2rcd13ifvqc3g","pricing_plan_id":"free"},{"bike_id":"14f2d4ab-ef49-4fce-a47b-7cdf9b51c3ed","system_id":"levelo_inurba_marseille","lat":43.298433,"lon":5.362774,"is_reserved":false,"is_disabled":false,"rental_uris":{"android":"levelo://app?vid=14f2d4ab-ef49-4fce-a47b-7cdf9b51c3ed","ios":"levelo://app?vid=14f2d4ab-ef49-4fce-a47b-7cdf9b51c3ed"},"vehicle_type_id":"4","last_reported":1685369169,"current_range_meters":31200,"station_id":"ce4bgpp2rcd13ifvqc3g","pricing_plan_id":"free"},{"bike_id":"32ac4872-a7f6-4554-92f2-c23f93201e2e","system_id":"levelo_inurba_marseille","lat":43.299243,"lon":5.374807,"is_reserved":false,"is_disabled":false,"rental_uris":{"android":"levelo://app?vid=32ac4872-a7f6-4554-92f2-c23f93201e2e","ios":"levelo://app?vid=32ac4872-a7f6-4554-92f2-c23f93201e2e"},"vehicle_type_id":"4","last_reported":1685369169,"current_range_meters":28800,"station_id":"ce4bgjh2rcd13ifvqbg0","pricing_plan_id":"free"},{"bike_id":"c6eaa14b-f15c-469f-acbc-1b40f09cee80","system_id":"levelo_inurba_marseille","lat":43.305364,"lon":5.384119,"is_reserved":false,"is_disabled":false,"rental_uris":{"android":"levelo://app?vid=c6eaa14b-f15c-469f-acbc-1b40f09cee80","ios":"levelo://app?vid=c6eaa14b-f15c-469f-acbc-1b40f09cee80"},"vehicle_type_id":"4","last_reported":1685369169,"current_range_meters":800,"station_id":"ce4bgg92rcd13ifvqb30","pricing_plan_id":"free"},{"bike_id":"e150754d-3f81-4480-b32a-2e4cda41131c","system_id":"levelo_inurba_marseille","lat":43.299243,"lon":5.374807,"is_reserved":false,"is_disabled":false,"rental_uris":{"android":"levelo://app?vid=e150754d-3f81-4480-b32a-2e4cda41131c","ios":"levelo://app?vid=e150754d-3f81-4480-b32a-2e4cda41131c"},"vehicle_type_id":"4","last_reported":1685369169,"current_range_meters":30800,"station_id":"ce4bgjh2rcd13ifvqbg0","pricing_plan_id":"free"},{"bike_id":"29ad4b04-07aa-44fc-8077-e581ede00671","system_id":"levelo_inurba_marseille","lat":43.29847,"lon":5.36264,"is_reserved":false,"is_disabled":false,"rental_uris":{"android":"levelo://app?vid=29ad4b04-07aa-44fc-8077-e581ede00671","ios":"levelo://app?vid=29ad4b04-07aa-44fc-8077-e581ede00671"},"vehicle_type_id":"4","last_reported":1685369169,"current_range_meters":25200,"station_id":"ce4bgpp2rcd13ifvqc3g","pricing_plan_id":"free"},{"bike_id":"b25cc5b4-d216-4f8f-9d1a-3288096e7a4a","system_id":"levelo_inurba_marseille","lat":43.311722,"lon":5.387247,"is_reserved":false,"is_disabled":false,"rental_uris":{"android":"levelo://app?vid=b25cc5b4-d216-4f8f-9d1a-3288096e7a4a","ios":"levelo://app?vid=b25cc5b4-d216-4f8f-9d1a-3288096e7a4a"},"vehicle_type_id":"4","last_reported":1685369169,"current_range_meters":22800,"station_id":"ce4bgv12rcd13ifvqcp0","pricing_plan_id":"free"},{"bike_id":"d11da2d4-50ab-475d-a497-999f76f85bd5","system_id":"levelo_inurba_marseille","lat":43.32745,"lon":5.36701,"is_reserved":false,"is_disabled":false,"rental_uris":{"android":"levelo://app?vid=d11da2d4-50ab-475d-a497-999f76f85bd5","ios":"levelo://app?vid=d11da2d4-50ab-475d-a497-999f76f85bd5"},"vehicle_type_id":"4","last_reported":1685369169,"current_range_meters":22000,"station_id":"","pricing_plan_id":"free"},{"bike_id":"d4b2e9e9-8426-4fe8-9cf8-bce87d802d5a","system_id":"levelo_inurba_marseille","lat":43.299243,"lon":5.37481,"is_reserved":false,"is_disabled":false,"rental_uris":{"android":"levelo://app?vid=d4b2e9e9-8426-4fe8-9cf8-bce87d802d5a","ios":"levelo://app?vid=d4b2e9e9-8426-4fe8-9cf8-bce87d802d5a"},"vehicle_type_id":"4","last_reported":1685369169,"current_range_meters":6400,"station_id":"ce4bgjh2rcd13ifvqbg0","pricing_plan_id":"free"},{"bike_id":"eaaaca8a-5144-400c-a545-6580a399e6dc","system_id":"levelo_inurba_marseille","lat":43.328371,"lon":5.366912,"is_reserved":false,"is_disabled":false,"rental_uris":{"android":"levelo://app?vid=eaaaca8a-5144-400c-a545-6580a399e6dc","ios":"levelo://app?vid=eaaaca8a-5144-400c-a545-6580a399e6dc"},"vehicle_type_id":"4","last_reported":1685369169,"current_range_meters":16000,"station_id":"ce4bhs92rcd13ifvqi0g","pricing_plan_id":"free"},{"bike_id":"5895156f-f83a-4b54-a0b5-57f02c18ef1a","system_id":"levelo_inurba_marseille","lat":43.328371,"lon":5.366912,"is_reserved":false,"is_disabled":false,"rental_uris":{"android":"levelo://app?vid=5895156f-f83a-4b54-a0b5-57f02c18ef1a","ios":"levelo://app?vid=5895156f-f83a-4b54-a0b5-57f02c18ef1a"},"vehicle_type_id":"4","last_reported":1685369169,"current_range_meters":22000,"station_id":"ce4bhs92rcd13ifvqi0g","pricing_plan_id":"free"},{"bike_id":"6afd2251-95ae-444b-b246-c09edb72787d","system_id":"levelo_inurba_marseille","lat":43.328371,"lon":5.366912,"is_reserved":false,"is_disabled":false,"rental_uris":{"android":"levelo://app?vid=6afd2251-95ae-444b-b246-c09edb72787d","ios":"levelo://app?vid=6afd2251-95ae-444b-b246-c09edb72787d"},"vehicle_type_id":"4","last_reported":1685369169,"current_range_meters":8000,"station_id":"ce4bhs92rcd13ifvqi0g","pricing_plan_id":"free"},{"bike_id":"c2741c10-7cff-43b9-a82e-ab82b471ad42","system_id":"levelo_inurba_marseille","lat":43.328371,"lon":5.366912,"is_reserved":false,"is_disabled":false,"rental_uris":{"android":"levelo://app?vid=c2741c10-7cff-43b9-a82e-ab82b471ad42","ios":"levelo://app?vid=c2741c10-7cff-43b9-a82e-ab82b471ad42"},"vehicle_type_id":"4","last_reported":1685369169,"current_range_meters":13200,"station_id":"ce4bhs92rcd13ifvqi0g","pricing_plan_id":"free"},{"bike_id":"60edb3b2-d8e9-4c71-b2fa-9e940834a4e9","system_id":"levelo_inurba_marseille","lat":43.3283,"lon":5.36694,"is_reserved":false,"is_disabled":false,"rental_uris":{"android":"levelo://app?vid=60edb3b2-d8e9-4c71-b2fa-9e940834a4e9","ios":"levelo://app?vid=60edb3b2-d8e9-4c71-b2fa-9e940834a4e9"},"vehicle_type_id":"4","last_reported":1685369169,"current_range_meters":24800,"station_id":"ce4bhs92rcd13ifvqi0g","pricing_plan_id":"free"},{"bike_id":"f08d3ff7-6373-470d-97ea-f064c0d82dc7","system_id":"levelo_inurba_marseille","lat":43.328371,"lon":5.366912,"is_reserved":false,"is_disabled":false,"rental_uris":{"android":"levelo://app?vid=f08d3ff7-6373-470d-97ea-f064c0d82dc7","ios":"levelo://app?vid=f08d3ff7-6373-470d-97ea-f064c0d82dc7"},"vehicle_type_id":"4","last_reported":1685369169,"current_range_meters":0,"station_id":"ce4bhs92rcd13ifvqi0g","pricing_plan_id":"free"},{"bike_id":"85bd337c-95b8-41c4-acad-eea10ed96e55","system_id":"levelo_inurba_marseille","lat":43.328371,"lon":5.366912,"is_reserved":false,"is_disabled":false,"rental_uris":{"android":"levelo://app?vid=85bd337c-95b8-41c4-acad-eea10ed96e55","ios":"levelo://app?vid=85bd337c-95b8-41c4-acad-eea10ed96e55"},"vehicle_type_id":"4","last_reported":1685369169,"current_range_meters":9600,"station_id":"ce4bhs92rcd13ifvqi0g","pricing_plan_id":"free"},{"bike_id":"c411fcec-14f2-4650-b657-d5fd41572356","system_id":"levelo_inurba_marseille","lat":43.328371,"lon":5.366912,"is_reserved":false,"is_disabled":false,"rental_uris":{"android":"levelo://app?vid=c411fcec-14f2-4650-b657-d5fd41572356","ios":"levelo://app?vid=c411fcec-14f2-4650-b657-d5fd41572356"},"vehicle_type_id":"4","last_reported":1685369169,"current_range_meters":0,"station_id":"ce4bhs92rcd13ifvqi0g","pricing_plan_id":"free"},{"bike_id":"450e3cce-c604-4299-8daa-749739d3bfa4","system_id":"levelo_inurba_marseille","lat":43.328332,"lon":5.366961,"is_reserved":false,"is_disabled":false,"rental_uris":{"android":"levelo://app?vid=450e3cce-c604-4299-8daa-749739d3bfa4","ios":"levelo://app?vid=450e3cce-c604-4299-8daa-749739d3bfa4"},"vehicle_type_id":"4","last_reported":1685369169,"current_range_meters":15600,"station_id":"","pricing_plan_id":"free"},{"bike_id":"8f0a4c23-4ab7-4e70-bd7a-002306f9d904","system_id":"levelo_inurba_marseille","lat":43.32834,"lon":5.36688,"is_reserved":false,"is_disabled":false,"rental_uris":{"android":"levelo://app?vid=8f0a4c23-4ab7-4e70-bd7a-002306f9d904","ios":"levelo://app?vid=8f0a4c23-4ab7-4e70-bd7a-002306f9d904"},"vehicle_type_id":"4","last_reported":1685369169,"current_range_meters":23200,"station_id":"ce4bhs92rcd13ifvqi0g","pricing_plan_id":"free"},{"bike_id":"b2167ae3-9111-4186-b73c-41631f5b8dfe","system_id":"levelo_inurba_marseille","lat":43.296129,"lon":5.370777,"is_reserved":false,"is_disabled":false,"rental_uris":{"android":"levelo://app?vid=b2167ae3-9111-4186-b73c-41631f5b8dfe","ios":"levelo://app?vid=b2167ae3-9111-4186-b73c-41631f5b8dfe"},"vehicle_type_id":"4","last_reported":1685369169,"current_range_meters":4800,"station_id":"ce4bgnh2rcd13ifvqc0g","pricing_plan_id":"free"},{"bike_id":"7d04fe79-fb45-4a2b-b502-f667a5382c41","system_id":"levelo_inurba_marseille","lat":43.29573,"lon":5.367355,"is_reserved":false,"is_disabled":false,"rental_uris":{"android":"levelo://app?vid=7d04fe79-fb45-4a2b-b502-f667a5382c41","ios":"levelo://app?vid=7d04fe79-fb45-4a2b-b502-f667a5382c41"},"vehicle_type_id":"4","last_reported":1685369169,"current_range_meters":24800,"station_id":"ce4bgph2rcd13ifvqc2g","pricing_plan_id":"free"},{"bike_id":"449759b2-5b5a-40c3-a4bc-e6e2625c0748","system_id":"levelo_inurba_marseille","lat":43.296921,"lon":5.376579,"is_reserved":false,"is_disabled":false,"rental_uris":{"android":"levelo://app?vid=449759b2-5b5a-40c3-a4bc-e6e2625c0748","ios":"levelo://app?vid=449759b2-5b5a-40c3-a4bc-e6e2625c0748"},"vehicle_type_id":"4","last_reported":1685369169,"current_range_meters":18800,"station_id":"ce4bgkh2rcd13ifvqbl0","pricing_plan_id":"free"},{"bike_id":"848a4754-a9bd-4ea4-aeb8-79eeb094ec86","system_id":"levelo_inurba_marseille","lat":43.296921,"lon":5.376579,"is_reserved":false,"is_disabled":false,"rental_uris":{"android":"levelo://app?vid=848a4754-a9bd-4ea4-aeb8-79eeb094ec86","ios":"levelo://app?vid=848a4754-a9bd-4ea4-aeb8-79eeb094ec86"},"vehicle_type_id":"4","last_reported":1685369169,"current_range_meters":9200,"station_id":"ce4bgkh2rcd13ifvqbl0","pricing_plan_id":"free"},{"bike_id":"cd41a3d8-ef81-4eca-8804-4aed0d6d4c77","system_id":"levelo_inurba_marseille","lat":43.304278,"lon":5.388868,"is_reserved":false,"is_disabled":false,"rental_uris":{"android":"levelo://app?vid=cd41a3d8-ef81-4eca-8804-4aed0d6d4c77","ios":"levelo://app?vid=cd41a3d8-ef81-4eca-8804-4aed0d6d4c77"},"vehicle_type_id":"4","last_reported":1685369169,"current_range_meters":7600,"station_id":"ce4bgk12rcd13ifvqbi0","pricing_plan_id":"free"},{"bike_id":"04de5cee-5e6f-4480-a817-13e95ffc2a82","system_id":"levelo_inurba_marseille","lat":43.29631,"lon":5.377117,"is_reserved":false,"is_disabled":false,"rental_uris":{"android":"levelo://app?vid=04de5cee-5e6f-4480-a817-13e95ffc2a82","ios":"levelo://app?vid=04de5cee-5e6f-4480-a817-13e95ffc2a82"},"vehicle_type_id":"4","last_reported":1685369169,"current_range_meters":21600,"station_id":"","pricing_plan_id":"free"},{"bike_id":"7a78ba38-d3df-4d2c-92ca-918f54bbacfa","system_id":"levelo_inurba_marseille","lat":43.29781,"lon":5.38093,"is_reserved":false,"is_disabled":false,"rental_uris":{"android":"levelo://app?vid=7a78ba38-d3df-4d2c-92ca-918f54bbacfa","ios":"levelo://app?vid=7a78ba38-d3df-4d2c-92ca-918f54bbacfa"},"vehicle_type_id":"4","last_reported":1685369169,"current_range_meters":29600,"station_id":"","pricing_plan_id":"free"},{"bike_id":"f693d567-73fd-423f-a974-d77740b14361","system_id":"levelo_inurba_marseille","lat":43.295279,"lon":5.375048,"is_reserved":false,"is_disabled":false,"rental_uris":{"android":"levelo://app?vid=f693d567-73fd-423f-a974-d77740b14361","ios":"levelo://app?vid=f693d567-73fd-423f-a974-d77740b14361"},"vehicle_type_id":"4","last_reported":1685369169,"current_range_meters":26800,"station_id":"ce4bgkp2rcd13ifvqbmg","pricing_plan_id":"free"},{"bike_id":"0c3f56f6-f32e-4c42-a0a3-93e7c9f9946c","system_id":"levelo_inurba_marseille","lat":43.303228,"lon":5.38968,"is_reserved":false,"is_disabled":false,"rental_uris":{"android":"levelo://app?vid=0c3f56f6-f32e-4c42-a0a3-93e7c9f9946c","ios":"levelo://app?vid=0c3f56f6-f32e-4c42-a0a3-93e7c9f9946c"},"vehicle_type_id":"4","last_reported":1685369169,"current_range_meters":12400,"station_id":"","pricing_plan_id":"free"},{"bike_id":"c9d7e724-1e6e-4647-91da-efaf3ca6bd7c","system_id":"levelo_inurba_marseille","lat":43.292749,"lon":5.368402,"is_reserved":false,"is_disabled":false,"rental_uris":{"android":"levelo://app?vid=c9d7e724-1e6e-4647-91da-efaf3ca6bd7c","ios":"levelo://app?vid=c9d7e724-1e6e-4647-91da-efaf3ca6bd7c"},"vehicle_type_id":"4","last_reported":1685369169,"current_range_meters":0,"station_id":"ce4bhbp2rcd13ifvqesg","pricing_plan_id":"free"},{"bike_id":"c36d6354-bc56-43ff-a444-1cc15357ad35","system_id":"levelo_inurba_marseille","lat":43.293009,"lon":5.374584,"is_reserved":false,"is_disabled":false,"rental_uris":{"android":"levelo://app?vid=c36d6354-bc56-43ff-a444-1cc15357ad35","ios":"levelo://app?vid=c36d6354-bc56-43ff-a444-1cc15357ad35"},"vehicle_type_id":"4","last_reported":1685369169,"current_range_meters":19200,"station_id":"ce4bgi12rcd13ifvqb70","pricing_plan_id":"free"},{"bike_id":"66d3f9ff-b15d-4c03-9975-7a6388d6105f","system_id":"levelo_inurba_marseille","lat":43.305994,"lon":5.393687,"is_reserved":false,"is_disabled":false,"rental_uris":{"android":"levelo://app?vid=66d3f9ff-b15d-4c03-9975-7a6388d6105f","ios":"levelo://app?vid=66d3f9ff-b15d-4c03-9975-7a6388d6105f"},"vehicle_type_id":"4","last_reported":1685369169,"current_range_meters":28800,"station_id":"ce4bh0p2rcd13ifvqd80","pricing_plan_id":"free"},{"bike_id":"e2c01d3b-5ae7-4453-8171-0204f74e54b0","system_id":"levelo_inurba_marseille","lat":43.305994,"lon":5.393687,"is_reserved":false,"is_disabled":false,"rental_uris":{"android":"levelo://app?vid=e2c01d3b-5ae7-4453-8171-0204f74e54b0","ios":"levelo://app?vid=e2c01d3b-5ae7-4453-8171-0204f74e54b0"},"vehicle_type_id":"4","last_reported":1685369169,"current_range_meters":16400,"station_id":"ce4bh0p2rcd13ifvqd80","pricing_plan_id":"free"},{"bike_id":"836672ec-3fcb-40fa-824c-a3216f835031","system_id":"levelo_inurba_marseille","lat":43.305994,"lon":5.393687,"is_reserved":false,"is_disabled":false,"rental_uris":{"android":"levelo://app?vid=836672ec-3fcb-40fa-824c-a3216f835031","ios":"levelo://app?vid=836672ec-3fcb-40fa-824c-a3216f835031"},"vehicle_type_id":"4","last_reported":1685369169,"current_range_meters":24000,"station_id":"ce4bh0p2rcd13ifvqd80","pricing_plan_id":"free"},{"bike_id":"c6ce1797-1024-4b00-bf0e-667753eeba35","system_id":"levelo_inurba_marseille","lat":43.291671,"lon":5.371575,"is_reserved":false,"is_disabled":false,"rental_uris":{"android":"levelo://app?vid=c6ce1797-1024-4b00-bf0e-667753eeba35","ios":"levelo://app?vid=c6ce1797-1024-4b00-bf0e-667753eeba35"},"vehicle_type_id":"4","last_reported":1685369169,"current_range_meters":13200,"station_id":"ce4bha92rcd13ifvqeh0","pricing_plan_id":"free"},{"bike_id":"b82be188-b1c5-47e1-8b58-34fdd0756c46","system_id":"levelo_inurba_marseille","lat":43.291671,"lon":5.371575,"is_reserved":false,"is_disabled":false,"rental_uris":{"android":"levelo://app?vid=b82be188-b1c5-47e1-8b58-34fdd0756c46","ios":"levelo://app?vid=b82be188-b1c5-47e1-8b58-34fdd0756c46"},"vehicle_type_id":"4","last_reported":1685369169,"current_range_meters":23600,"station_id":"ce4bha92rcd13ifvqeh0","pricing_plan_id":"free"},{"bike_id":"63d04ad4-7a7f-4c31-a219-face742f63d4","system_id":"levelo_inurba_marseille","lat":43.291675,"lon":5.371583,"is_reserved":false,"is_disabled":false,"rental_uris":{"android":"levelo://app?vid=63d04ad4-7a7f-4c31-a219-face742f63d4","ios":"levelo://app?vid=63d04ad4-7a7f-4c31-a219-face742f63d4"},"vehicle_type_id":"4","last_reported":1685369169,"current_range_meters":8400,"station_id":"ce4bha92rcd13ifvqeh0","pricing_plan_id":"free"},{"bike_id":"fad5bf84-d3c2-404d-9f1d-6032786c4bf2","system_id":"levelo_inurba_marseille","lat":43.292663,"lon":5.376389,"is_reserved":false,"is_disabled":false,"rental_uris":{"android":"levelo://app?vid=fad5bf84-d3c2-404d-9f1d-6032786c4bf2","ios":"levelo://app?vid=fad5bf84-d3c2-404d-9f1d-6032786c4bf2"},"vehicle_type_id":"4","last_reported":1685369169,"current_range_meters":1600,"station_id":"ce4bgi12rcd13ifvqb80","pricing_plan_id":"free"},{"bike_id":"180ebdc5-f8bc-4730-a32a-124a84033bfa","system_id":"levelo_inurba_marseille","lat":43.291671,"lon":5.371575,"is_reserved":false,"is_disabled":false,"rental_uris":{"android":"levelo://app?vid=180ebdc5-f8bc-4730-a32a-124a84033bfa","ios":"levelo://app?vid=180ebdc5-f8bc-4730-a32a-124a84033bfa"},"vehicle_type_id":"4","last_reported":1685369169,"current_range_meters":5200,"station_id":"ce4bha92rcd13ifvqeh0","pricing_plan_id":"free"},{"bike_id":"56601529-13b3-46dd-81e3-b58c915f3409","system_id":"levelo_inurba_marseille","lat":43.291994,"lon":5.357886,"is_reserved":false,"is_disabled":false,"rental_uris":{"android":"levelo://app?vid=56601529-13b3-46dd-81e3-b58c915f3409","ios":"levelo://app?vid=56601529-13b3-46dd-81e3-b58c915f3409"},"vehicle_type_id":"4","last_reported":1685369169,"current_range_meters":24400,"station_id":"ce4bhb12rcd13ifvqel0","pricing_plan_id":"free"},{"bike_id":"0f407b3c-69d4-47d5-bddd-7aab65bef3ae","system_id":"levelo_inurba_marseille","lat":43.309038,"lon":5.396546,"is_reserved":false,"is_disabled":false,"rental_uris":{"android":"levelo://app?vid=0f407b3c-69d4-47d5-bddd-7aab65bef3ae","ios":"levelo://app?vid=0f407b3c-69d4-47d5-bddd-7aab65bef3ae"},"vehicle_type_id":"4","last_reported":1685369169,"current_range_meters":0,"station_id":"ce4bh012rcd13ifvqcv0","pricing_plan_id":"free"},{"bike_id":"db9d0b8c-a66e-4144-a40d-f2a5f8a93f17","system_id":"levelo_inurba_marseille","lat":43.29345,"lon":5.38337,"is_reserved":false,"is_disabled":false,"rental_uris":{"android":"levelo://app?vid=db9d0b8c-a66e-4144-a40d-f2a5f8a93f17","ios":"levelo://app?vid=db9d0b8c-a66e-4144-a40d-f2a5f8a93f17"},"vehicle_type_id":"4","last_reported":1685369169,"current_range_meters":6400,"station_id":"","pricing_plan_id":"free"},{"bike_id":"e7a8065b-a2e2-405f-b448-546c18730072","system_id":"levelo_inurba_marseille","lat":43.304296,"lon":5.397513,"is_reserved":false,"is_disabled":false,"rental_uris":{"android":"levelo://app?vid=e7a8065b-a2e2-405f-b448-546c18730072","ios":"levelo://app?vid=e7a8065b-a2e2-405f-b448-546c18730072"},"vehicle_type_id":"4","last_reported":1685369169,"current_range_meters":14000,"station_id":"ce4bh092rcd13ifvqd20","pricing_plan_id":"free"},{"bike_id":"1e20fd75-8871-4521-823e-7cbc58b85678","system_id":"levelo_inurba_marseille","lat":43.292644,"lon":5.384257,"is_reserved":false,"is_disabled":false,"rental_uris":{"android":"levelo://app?vid=1e20fd75-8871-4521-823e-7cbc58b85678","ios":"levelo://app?vid=1e20fd75-8871-4521-823e-7cbc58b85678"},"vehicle_type_id":"4","last_reported":1685369169,"current_range_meters":2000,"station_id":"ce4bh692rcd13ifvqea0","pricing_plan_id":"free"},{"bike_id":"6991c74a-2305-457d-bf08-6a5f09dc88d9","system_id":"levelo_inurba_marseille","lat":43.290104,"lon":5.356111,"is_reserved":false,"is_disabled":false,"rental_uris":{"android":"levelo://app?vid=6991c74a-2305-457d-bf08-6a5f09dc88d9","ios":"levelo://app?vid=6991c74a-2305-457d-bf08-6a5f09dc88d9"},"vehicle_type_id":"4","last_reported":1685369169,"current_range_meters":14000,"station_id":"ce4bhb92rcd13ifvqen0","pricing_plan_id":"free"},{"bike_id":"07e89104-8138-4009-bf67-895f3ffb9d2c","system_id":"levelo_inurba_marseille","lat":43.290104,"lon":5.356111,"is_reserved":false,"is_disabled":false,"rental_uris":{"android":"levelo://app?vid=07e89104-8138-4009-bf67-895f3ffb9d2c","ios":"levelo://app?vid=07e89104-8138-4009-bf67-895f3ffb9d2c"},"vehicle_type_id":"4","last_reported":1685369169,"current_range_meters":0,"station_id":"ce4bhb92rcd13ifvqen0","pricing_plan_id":"free"},{"bike_id":"1df24979-3539-405d-bfce-a44406c642ab","system_id":"levelo_inurba_marseille","lat":43.290103,"lon":5.356114,"is_reserved":false,"is_disabled":false,"rental_uris":{"android":"levelo://app?vid=1df24979-3539-405d-bfce-a44406c642ab","ios":"levelo://app?vid=1df24979-3539-405d-bfce-a44406c642ab"},"vehicle_type_id":"4","last_reported":1685369169,"current_range_meters":31200,"station_id":"ce4bhb92rcd13ifvqen0","pricing_plan_id":"free"},{"bike_id":"fe62d238-88b8-458f-8813-48ddea6a398a","system_id":"levelo_inurba_marseille","lat":43.290103,"lon":5.356114,"is_reserved":false,"is_disabled":false,"rental_uris":{"android":"levelo://app?vid=fe62d238-88b8-458f-8813-48ddea6a398a","ios":"levelo://app?vid=fe62d238-88b8-458f-8813-48ddea6a398a"},"vehicle_type_id":"4","last_reported":1685369169,"current_range_meters":8400,"station_id":"ce4bhb92rcd13ifvqen0","pricing_plan_id":"free"},{"bike_id":"ca812c18-6585-4061-b55d-729317489c8e","system_id":"levelo_inurba_marseille","lat":43.290103,"lon":5.356114,"is_reserved":false,"is_disabled":false,"rental_uris":{"android":"levelo://app?vid=ca812c18-6585-4061-b55d-729317489c8e","ios":"levelo://app?vid=ca812c18-6585-4061-b55d-729317489c8e"},"vehicle_type_id":"4","last_reported":1685369169,"current_range_meters":20800,"station_id":"ce4bhb92rcd13ifvqen0","pricing_plan_id":"free"},{"bike_id":"50caaf01-0994-435e-873a-bb084b3329e6","system_id":"levelo_inurba_marseille","lat":43.290104,"lon":5.356111,"is_reserved":false,"is_disabled":false,"rental_uris":{"android":"levelo://app?vid=50caaf01-0994-435e-873a-bb084b3329e6","ios":"levelo://app?vid=50caaf01-0994-435e-873a-bb084b3329e6"},"vehicle_type_id":"4","last_reported":1685369169,"current_range_meters":3200,"station_id":"ce4bhb92rcd13ifvqen0","pricing_plan_id":"free"},{"bike_id":"775d4997-d729-4fa0-aaf8-4476b76bf40a","system_id":"levelo_inurba_marseille","lat":43.290103,"lon":5.356114,"is_reserved":false,"is_disabled":false,"rental_uris":{"android":"levelo://app?vid=775d4997-d729-4fa0-aaf8-4476b76bf40a","ios":"levelo://app?vid=775d4997-d729-4fa0-aaf8-4476b76bf40a"},"vehicle_type_id":"4","last_reported":1685369169,"current_range_meters":31200,"station_id":"ce4bhb92rcd13ifvqen0","pricing_plan_id":"free"},{"bike_id":"2641c9cc-e65a-4b4c-8484-0fde50f54c52","system_id":"levelo_inurba_marseille","lat":43.290104,"lon":5.356111,"is_reserved":false,"is_disabled":false,"rental_uris":{"android":"levelo://app?vid=2641c9cc-e65a-4b4c-8484-0fde50f54c52","ios":"levelo://app?vid=2641c9cc-e65a-4b4c-8484-0fde50f54c52"},"vehicle_type_id":"4","last_reported":1685369169,"current_range_meters":5200,"station_id":"ce4bhb92rcd13ifvqen0","pricing_plan_id":"free"},{"bike_id":"31a55886-d950-4b40-a2b8-c89848aaae11","system_id":"levelo_inurba_marseille","lat":43.290104,"lon":5.356111,"is_reserved":false,"is_disabled":false,"rental_uris":{"android":"levelo://app?vid=31a55886-d950-4b40-a2b8-c89848aaae11","ios":"levelo://app?vid=31a55886-d950-4b40-a2b8-c89848aaae11"},"vehicle_type_id":"4","last_reported":1685369169,"current_range_meters":12000,"station_id":"ce4bhb92rcd13ifvqen0","pricing_plan_id":"free"},{"bike_id":"bcfa29d1-0de9-4ea5-a956-a83f5863519c","system_id":"levelo_inurba_marseille","lat":43.290103,"lon":5.356114,"is_reserved":false,"is_disabled":false,"rental_uris":{"android":"levelo://app?vid=bcfa29d1-0de9-4ea5-a956-a83f5863519c","ios":"levelo://app?vid=bcfa29d1-0de9-4ea5-a956-a83f5863519c"},"vehicle_type_id":"4","last_reported":1685369169,"current_range_meters":1200,"station_id":"ce4bhb92rcd13ifvqen0","pricing_plan_id":"free"},{"bike_id":"e6593a28-a6fe-4a3b-bcf5-f3be98f89d03","system_id":"levelo_inurba_marseille","lat":43.289743,"lon":5.378304,"is_reserved":false,"is_disabled":false,"rental_uris":{"android":"levelo://app?vid=e6593a28-a6fe-4a3b-bcf5-f3be98f89d03","ios":"levelo://app?vid=e6593a28-a6fe-4a3b-bcf5-f3be98f89d03"},"vehicle_type_id":"4","last_reported":1685369169,"current_range_meters":21600,"station_id":"ce4bh9p2rcd13ifvqed0","pricing_plan_id":"free"},{"bike_id":"0774dd54-4e7f-4a7a-8676-81fe58350a35","system_id":"levelo_inurba_marseille","lat":43.297814,"lon":5.393513,"is_reserved":false,"is_disabled":false,"rental_uris":{"android":"levelo://app?vid=0774dd54-4e7f-4a7a-8676-81fe58350a35","ios":"levelo://app?vid=0774dd54-4e7f-4a7a-8676-81fe58350a35"},"vehicle_type_id":"4","last_reported":1685369169,"current_range_meters":8000,"station_id":"chh1huq6cuj3fo74tm60","pricing_plan_id":"free"},{"bike_id":"d6b7120f-92ec-4ca1-866e-0ddb9c76a8e8","system_id":"levelo_inurba_marseille","lat":43.289743,"lon":5.378304,"is_reserved":false,"is_disabled":false,"rental_uris":{"android":"levelo://app?vid=d6b7120f-92ec-4ca1-866e-0ddb9c76a8e8","ios":"levelo://app?vid=d6b7120f-92ec-4ca1-866e-0ddb9c76a8e8"},"vehicle_type_id":"4","last_reported":1685369169,"current_range_meters":13600,"station_id":"ce4bh9p2rcd13ifvqed0","pricing_plan_id":"free"},{"bike_id":"fdf430fa-53aa-4aef-9b83-5a484e3b5f9d","system_id":"levelo_inurba_marseille","lat":43.28856,"lon":5.358371,"is_reserved":false,"is_disabled":false,"rental_uris":{"android":"levelo://app?vid=fdf430fa-53aa-4aef-9b83-5a484e3b5f9d","ios":"levelo://app?vid=fdf430fa-53aa-4aef-9b83-5a484e3b5f9d"},"vehicle_type_id":"4","last_reported":1685369169,"current_range_meters":400,"station_id":"ce4bhb12rcd13ifvqem0","pricing_plan_id":"free"},{"bike_id":"141c14ea-594b-43ee-894e-8c44af1dcd73","system_id":"levelo_inurba_marseille","lat":43.33737,"lon":5.37449,"is_reserved":false,"is_disabled":false,"rental_uris":{"android":"levelo://app?vid=141c14ea-594b-43ee-894e-8c44af1dcd73","ios":"levelo://app?vid=141c14ea-594b-43ee-894e-8c44af1dcd73"},"vehicle_type_id":"4","last_reported":1685369169,"current_range_meters":29600,"station_id":"","pricing_plan_id":"free"},{"bike_id":"493860ce-e063-4684-ab33-c360eaf64153","system_id":"levelo_inurba_marseille","lat":43.33744,"lon":5.37451,"is_reserved":false,"is_disabled":false,"rental_uris":{"android":"levelo://app?vid=493860ce-e063-4684-ab33-c360eaf64153","ios":"levelo://app?vid=493860ce-e063-4684-ab33-c360eaf64153"},"vehicle_type_id":"4","last_reported":1685369169,"current_range_meters":14000,"station_id":"","pricing_plan_id":"free"},{"bike_id":"c67b547c-3fcb-4384-8614-e15f558fec55","system_id":"levelo_inurba_marseille","lat":43.33744,"lon":5.37451,"is_reserved":false,"is_disabled":false,"rental_uris":{"android":"levelo://app?vid=c67b547c-3fcb-4384-8614-e15f558fec55","ios":"levelo://app?vid=c67b547c-3fcb-4384-8614-e15f558fec55"},"vehicle_type_id":"4","last_reported":1685369169,"current_range_meters":23200,"station_id":"","pricing_plan_id":"free"},{"bike_id":"5aaf445f-f097-4041-99e9-0b2edc8a39b1","system_id":"levelo_inurba_marseille","lat":43.33754,"lon":5.37444,"is_reserved":false,"is_disabled":false,"rental_uris":{"android":"levelo://app?vid=5aaf445f-f097-4041-99e9-0b2edc8a39b1","ios":"levelo://app?vid=5aaf445f-f097-4041-99e9-0b2edc8a39b1"},"vehicle_type_id":"4","last_reported":1685369169,"current_range_meters":29600,"station_id":"","pricing_plan_id":"free"},{"bike_id":"556c6db1-2600-4c2b-9521-aae8453517c1","system_id":"levelo_inurba_marseille","lat":43.3376,"lon":5.37441,"is_reserved":false,"is_disabled":false,"rental_uris":{"android":"levelo://app?vid=556c6db1-2600-4c2b-9521-aae8453517c1","ios":"levelo://app?vid=556c6db1-2600-4c2b-9521-aae8453517c1"},"vehicle_type_id":"4","last_reported":1685369169,"current_range_meters":10400,"station_id":"","pricing_plan_id":"free"},{"bike_id":"127f85b4-8b6f-4c78-826f-9d919cb40b51","system_id":"levelo_inurba_marseille","lat":43.301117,"lon":5.398795,"is_reserved":false,"is_disabled":false,"rental_uris":{"android":"levelo://app?vid=127f85b4-8b6f-4c78-826f-9d919cb40b51","ios":"levelo://app?vid=127f85b4-8b6f-4c78-826f-9d919cb40b51"},"vehicle_type_id":"4","last_reported":1685369169,"current_range_meters":30800,"station_id":"ce4bh0h2rcd13ifvqd40","pricing_plan_id":"free"},{"bike_id":"7a868709-18ee-45db-9d44-2b32bee2ed0d","system_id":"levelo_inurba_marseille","lat":43.286591,"lon":5.363346,"is_reserved":false,"is_disabled":false,"rental_uris":{"android":"levelo://app?vid=7a868709-18ee-45db-9d44-2b32bee2ed0d","ios":"levelo://app?vid=7a868709-18ee-45db-9d44-2b32bee2ed0d"},"vehicle_type_id":"4","last_reported":1685369169,"current_range_meters":0,"station_id":"ce4bhah2rcd13ifvqej0","pricing_plan_id":"free"},{"bike_id":"50aa40cb-9bc9-403e-bf1b-da9b4e541005","system_id":"levelo_inurba_marseille","lat":43.295194,"lon":5.39397,"is_reserved":false,"is_disabled":false,"rental_uris":{"android":"levelo://app?vid=50aa40cb-9bc9-403e-bf1b-da9b4e541005","ios":"levelo://app?vid=50aa40cb-9bc9-403e-bf1b-da9b4e541005"},"vehicle_type_id":"4","last_reported":1685369169,"current_range_meters":0,"station_id":"ce4bh292rcd13ifvqdf0","pricing_plan_id":"free"},{"bike_id":"d3e537d1-03ec-49f6-88a6-6c8e0fa687fa","system_id":"levelo_inurba_marseille","lat":43.29031,"lon":5.38646,"is_reserved":false,"is_disabled":false,"rental_uris":{"android":"levelo://app?vid=d3e537d1-03ec-49f6-88a6-6c8e0fa687fa","ios":"levelo://app?vid=d3e537d1-03ec-49f6-88a6-6c8e0fa687fa"},"vehicle_type_id":"4","last_reported":1685369169,"current_range_meters":7600,"station_id":"ce4bh4p2rcd13ifvqe0g","pricing_plan_id":"free"},{"bike_id":"4da8f2fa-c98c-4c83-a611-acb8fffe0a63","system_id":"levelo_inurba_marseille","lat":43.290336,"lon":5.386425,"is_reserved":false,"is_disabled":false,"rental_uris":{"android":"levelo://app?vid=4da8f2fa-c98c-4c83-a611-acb8fffe0a63","ios":"levelo://app?vid=4da8f2fa-c98c-4c83-a611-acb8fffe0a63"},"vehicle_type_id":"4","last_reported":1685369169,"current_range_meters":13600,"station_id":"ce4bh4p2rcd13ifvqe0g","pricing_plan_id":"free"},{"bike_id":"25fffc27-ded8-4a26-92cc-a4e715852c7d","system_id":"levelo_inurba_marseille","lat":43.290336,"lon":5.386425,"is_reserved":false,"is_disabled":false,"rental_uris":{"android":"levelo://app?vid=25fffc27-ded8-4a26-92cc-a4e715852c7d","ios":"levelo://app?vid=25fffc27-ded8-4a26-92cc-a4e715852c7d"},"vehicle_type_id":"4","last_reported":1685369169,"current_range_meters":16400,"station_id":"ce4bh4p2rcd13ifvqe0g","pricing_plan_id":"free"},{"bike_id":"68d661a0-8baa-4d8e-afc3-c3806d7118cf","system_id":"levelo_inurba_marseille","lat":43.302759,"lon":5.400793,"is_reserved":false,"is_disabled":false,"rental_uris":{"android":"levelo://app?vid=68d661a0-8baa-4d8e-afc3-c3806d7118cf","ios":"levelo://app?vid=68d661a0-8baa-4d8e-afc3-c3806d7118cf"},"vehicle_type_id":"4","last_reported":1685369169,"current_range_meters":8800,"station_id":"ce4bgvh2rcd13ifvqcs0","pricing_plan_id":"free"},{"bike_id":"8fd09611-a4e6-47af-8ca8-c31ca3536f03","system_id":"levelo_inurba_marseille","lat":43.286039,"lon":5.370679,"is_reserved":false,"is_disabled":false,"rental_uris":{"android":"levelo://app?vid=8fd09611-a4e6-47af-8ca8-c31ca3536f03","ios":"levelo://app?vid=8fd09611-a4e6-47af-8ca8-c31ca3536f03"},"vehicle_type_id":"4","last_reported":1685369169,"current_range_meters":20800,"station_id":"ce4bht12rcd13ifvqi60","pricing_plan_id":"free"},{"bike_id":"38451d79-bc0b-4751-80df-943e398fc710","system_id":"levelo_inurba_marseille","lat":43.286039,"lon":5.370679,"is_reserved":false,"is_disabled":false,"rental_uris":{"android":"levelo://app?vid=38451d79-bc0b-4751-80df-943e398fc710","ios":"levelo://app?vid=38451d79-bc0b-4751-80df-943e398fc710"},"vehicle_type_id":"4","last_reported":1685369169,"current_range_meters":29200,"station_id":"ce4bht12rcd13ifvqi60","pricing_plan_id":"free"},{"bike_id":"27c9bb12-b55b-4911-92f3-3205d394ec1f","system_id":"levelo_inurba_marseille","lat":43.28611,"lon":5.37068,"is_reserved":false,"is_disabled":false,"rental_uris":{"android":"levelo://app?vid=27c9bb12-b55b-4911-92f3-3205d394ec1f","ios":"levelo://app?vid=27c9bb12-b55b-4911-92f3-3205d394ec1f"},"vehicle_type_id":"4","last_reported":1685369169,"current_range_meters":15600,"station_id":"ce4bhgp2rcd13ifvqfc0","pricing_plan_id":"free"},{"bike_id":"635422f4-e69e-4423-81ba-e4f61abf28f6","system_id":"levelo_inurba_marseille","lat":43.286039,"lon":5.370679,"is_reserved":false,"is_disabled":false,"rental_uris":{"android":"levelo://app?vid=635422f4-e69e-4423-81ba-e4f61abf28f6","ios":"levelo://app?vid=635422f4-e69e-4423-81ba-e4f61abf28f6"},"vehicle_type_id":"4","last_reported":1685369169,"current_range_meters":6800,"station_id":"ce4bht12rcd13ifvqi60","pricing_plan_id":"free"},{"bike_id":"f7a370c7-8668-496d-afc4-3ec5e0434232","system_id":"levelo_inurba_marseille","lat":43.287184,"lon":5.37937,"is_reserved":false,"is_disabled":false,"rental_uris":{"android":"levelo://app?vid=f7a370c7-8668-496d-afc4-3ec5e0434232","ios":"levelo://app?vid=f7a370c7-8668-496d-afc4-3ec5e0434232"},"vehicle_type_id":"4","last_reported":1685369169,"current_range_meters":4800,"station_id":"ce4bh9p2rcd13ifvqec0","pricing_plan_id":"free"},{"bike_id":"34e17799-735f-4d3c-a2e2-bb6a5d488e18","system_id":"levelo_inurba_marseille","lat":43.31641,"lon":5.40432,"is_reserved":false,"is_disabled":false,"rental_uris":{"android":"levelo://app?vid=34e17799-735f-4d3c-a2e2-bb6a5d488e18","ios":"levelo://app?vid=34e17799-735f-4d3c-a2e2-bb6a5d488e18"},"vehicle_type_id":"4","last_reported":1685369169,"current_range_meters":6800,"station_id":"ce4bh012rcd13ifvqd00","pricing_plan_id":"free"},{"bike_id":"6ea7cbf7-5ab7-4e1d-8316-d66a8ab54960","system_id":"levelo_inurba_marseille","lat":43.291994,"lon":5.392907,"is_reserved":false,"is_disabled":false,"rental_uris":{"android":"levelo://app?vid=6ea7cbf7-5ab7-4e1d-8316-d66a8ab54960","ios":"levelo://app?vid=6ea7cbf7-5ab7-4e1d-8316-d66a8ab54960"},"vehicle_type_id":"4","last_reported":1685369169,"current_range_meters":21200,"station_id":"ce4bh192rcd13ifvqdd0","pricing_plan_id":"free"},{"bike_id":"2456e5b1-827a-4a09-a4da-d720351412b4","system_id":"levelo_inurba_marseille","lat":43.284538,"lon":5.358657,"is_reserved":false,"is_disabled":false,"rental_uris":{"android":"levelo://app?vid=2456e5b1-827a-4a09-a4da-d720351412b4","ios":"levelo://app?vid=2456e5b1-827a-4a09-a4da-d720351412b4"},"vehicle_type_id":"4","last_reported":1685369169,"current_range_meters":18800,"station_id":"ce4bhah2rcd13ifvqei0","pricing_plan_id":"free"},{"bike_id":"a448b1b4-b6a6-4941-ba1e-572bb3b14be3","system_id":"levelo_inurba_marseille","lat":43.284538,"lon":5.358657,"is_reserved":false,"is_disabled":false,"rental_uris":{"android":"levelo://app?vid=a448b1b4-b6a6-4941-ba1e-572bb3b14be3","ios":"levelo://app?vid=a448b1b4-b6a6-4941-ba1e-572bb3b14be3"},"vehicle_type_id":"4","last_reported":1685369169,"current_range_meters":26800,"station_id":"ce4bhah2rcd13ifvqei0","pricing_plan_id":"free"},{"bike_id":"1ccfe290-9a0f-4bd1-ace6-af6afaf73117","system_id":"levelo_inurba_marseille","lat":43.284538,"lon":5.358657,"is_reserved":false,"is_disabled":false,"rental_uris":{"android":"levelo://app?vid=1ccfe290-9a0f-4bd1-ace6-af6afaf73117","ios":"levelo://app?vid=1ccfe290-9a0f-4bd1-ace6-af6afaf73117"},"vehicle_type_id":"4","last_reported":1685369169,"current_range_meters":18800,"station_id":"ce4bhah2rcd13ifvqei0","pricing_plan_id":"free"},{"bike_id":"ba121738-0cb6-44a2-8d20-c3754a326cad","system_id":"levelo_inurba_marseille","lat":43.28626,"lon":5.35103,"is_reserved":false,"is_disabled":false,"rental_uris":{"android":"levelo://app?vid=ba121738-0cb6-44a2-8d20-c3754a326cad","ios":"levelo://app?vid=ba121738-0cb6-44a2-8d20-c3754a326cad"},"vehicle_type_id":"4","last_reported":1685369169,"current_range_meters":25600,"station_id":"","pricing_plan_id":"free"},{"bike_id":"d166c49f-2d6f-4844-9f70-fa02f7c16541","system_id":"levelo_inurba_marseille","lat":43.28617,"lon":5.3511,"is_reserved":false,"is_disabled":false,"rental_uris":{"android":"levelo://app?vid=d166c49f-2d6f-4844-9f70-fa02f7c16541","ios":"levelo://app?vid=d166c49f-2d6f-4844-9f70-fa02f7c16541"},"vehicle_type_id":"4","last_reported":1685369169,"current_range_meters":800,"station_id":"","pricing_plan_id":"free"},{"bike_id":"7d0ce5b7-7c22-4977-a515-21bdbacf9a39","system_id":"levelo_inurba_marseille","lat":43.285856,"lon":5.350771,"is_reserved":false,"is_disabled":false,"rental_uris":{"android":"levelo://app?vid=7d0ce5b7-7c22-4977-a515-21bdbacf9a39","ios":"levelo://app?vid=7d0ce5b7-7c22-4977-a515-21bdbacf9a39"},"vehicle_type_id":"4","last_reported":1685369169,"current_range_meters":9600,"station_id":"ce4bhch2rcd13ifvqeug","pricing_plan_id":"free"},{"bike_id":"5c7ad9cd-8713-4a53-bca2-04b5aaaea61b","system_id":"levelo_inurba_marseille","lat":43.28615,"lon":5.35105,"is_reserved":false,"is_disabled":false,"rental_uris":{"android":"levelo://app?vid=5c7ad9cd-8713-4a53-bca2-04b5aaaea61b","ios":"levelo://app?vid=5c7ad9cd-8713-4a53-bca2-04b5aaaea61b"},"vehicle_type_id":"4","last_reported":1685369169,"current_range_meters":2800,"station_id":"","pricing_plan_id":"free"},{"bike_id":"244fadeb-34d4-4aca-8e18-cbee6ccef617","system_id":"levelo_inurba_marseille","lat":43.28615,"lon":5.35104,"is_reserved":false,"is_disabled":false,"rental_uris":{"android":"levelo://app?vid=244fadeb-34d4-4aca-8e18-cbee6ccef617","ios":"levelo://app?vid=244fadeb-34d4-4aca-8e18-cbee6ccef617"},"vehicle_type_id":"4","last_reported":1685369169,"current_range_meters":20400,"station_id":"","pricing_plan_id":"free"},{"bike_id":"3bbdcbf4-b0fb-4dc3-9438-544a9550ef3c","system_id":"levelo_inurba_marseille","lat":43.28478,"lon":5.38391,"is_reserved":false,"is_disabled":false,"rental_uris":{"android":"levelo://app?vid=3bbdcbf4-b0fb-4dc3-9438-544a9550ef3c","ios":"levelo://app?vid=3bbdcbf4-b0fb-4dc3-9438-544a9550ef3c"},"vehicle_type_id":"4","last_reported":1685369169,"current_range_meters":19600,"station_id":"ce4bh512rcd13ifvqe3g","pricing_plan_id":"free"},{"bike_id":"b87cd4fd-33a1-4250-8339-e950be315a21","system_id":"levelo_inurba_marseille","lat":43.288501,"lon":5.393087,"is_reserved":false,"is_disabled":false,"rental_uris":{"android":"levelo://app?vid=b87cd4fd-33a1-4250-8339-e950be315a21","ios":"levelo://app?vid=b87cd4fd-33a1-4250-8339-e950be315a21"},"vehicle_type_id":"4","last_reported":1685369169,"current_range_meters":17200,"station_id":"ce4bh2p2rcd13ifvqdi0","pricing_plan_id":"free"},{"bike_id":"e55c8806-2faf-4a90-b0aa-8903dc5ef437","system_id":"levelo_inurba_marseille","lat":43.288501,"lon":5.393087,"is_reserved":false,"is_disabled":false,"rental_uris":{"android":"levelo://app?vid=e55c8806-2faf-4a90-b0aa-8903dc5ef437","ios":"levelo://app?vid=e55c8806-2faf-4a90-b0aa-8903dc5ef437"},"vehicle_type_id":"4","last_reported":1685369169,"current_range_meters":31200,"station_id":"ce4bh2p2rcd13ifvqdi0","pricing_plan_id":"free"},{"bike_id":"c7754c9c-13f5-46c3-8089-1c3fafd6d761","system_id":"levelo_inurba_marseille","lat":43.288501,"lon":5.393087,"is_reserved":false,"is_disabled":false,"rental_uris":{"android":"levelo://app?vid=c7754c9c-13f5-46c3-8089-1c3fafd6d761","ios":"levelo://app?vid=c7754c9c-13f5-46c3-8089-1c3fafd6d761"},"vehicle_type_id":"4","last_reported":1685369169,"current_range_meters":26800,"station_id":"ce4bh2p2rcd13ifvqdi0","pricing_plan_id":"free"},{"bike_id":"7c216435-060f-4d0f-b3ff-861dbbf1e69f","system_id":"levelo_inurba_marseille","lat":43.288501,"lon":5.393087,"is_reserved":false,"is_disabled":false,"rental_uris":{"android":"levelo://app?vid=7c216435-060f-4d0f-b3ff-861dbbf1e69f","ios":"levelo://app?vid=7c216435-060f-4d0f-b3ff-861dbbf1e69f"},"vehicle_type_id":"4","last_reported":1685369169,"current_range_meters":29200,"station_id":"ce4bh2p2rcd13ifvqdi0","pricing_plan_id":"free"},{"bike_id":"804eac5c-cd74-4b45-90fe-5c523f8687ad","system_id":"levelo_inurba_marseille","lat":43.28855,"lon":5.39322,"is_reserved":false,"is_disabled":false,"rental_uris":{"android":"levelo://app?vid=804eac5c-cd74-4b45-90fe-5c523f8687ad","ios":"levelo://app?vid=804eac5c-cd74-4b45-90fe-5c523f8687ad"},"vehicle_type_id":"4","last_reported":1685369169,"current_range_meters":26400,"station_id":"ce4bh2p2rcd13ifvqdi0","pricing_plan_id":"free"},{"bike_id":"9ae4d7bf-d5f7-4e66-bf6f-9b6f487b8b62","system_id":"levelo_inurba_marseille","lat":43.28847,"lon":5.39321,"is_reserved":false,"is_disabled":false,"rental_uris":{"android":"levelo://app?vid=9ae4d7bf-d5f7-4e66-bf6f-9b6f487b8b62","ios":"levelo://app?vid=9ae4d7bf-d5f7-4e66-bf6f-9b6f487b8b62"},"vehicle_type_id":"4","last_reported":1685369169,"current_range_meters":31600,"station_id":"ce4bh2p2rcd13ifvqdi0","pricing_plan_id":"free"},{"bike_id":"64732a70-fce7-4154-a8c9-9672eb72f483","system_id":"levelo_inurba_marseille","lat":43.284219,"lon":5.3497,"is_reserved":false,"is_disabled":false,"rental_uris":{"android":"levelo://app?vid=64732a70-fce7-4154-a8c9-9672eb72f483","ios":"levelo://app?vid=64732a70-fce7-4154-a8c9-9672eb72f483"},"vehicle_type_id":"4","last_reported":1685369169,"current_range_meters":31600,"station_id":"ce4bhbh2rcd13ifvqepg","pricing_plan_id":"free"},{"bike_id":"e2626984-2b11-48b6-bff3-7e0da5fb0ac7","system_id":"levelo_inurba_marseille","lat":43.284219,"lon":5.3497,"is_reserved":false,"is_disabled":false,"rental_uris":{"android":"levelo://app?vid=e2626984-2b11-48b6-bff3-7e0da5fb0ac7","ios":"levelo://app?vid=e2626984-2b11-48b6-bff3-7e0da5fb0ac7"},"vehicle_type_id":"4","last_reported":1685369169,"current_range_meters":27600,"station_id":"ce4bhbh2rcd13ifvqepg","pricing_plan_id":"free"},{"bike_id":"3c7ca04a-d89f-4b76-b2f2-f7ba9382ef25","system_id":"levelo_inurba_marseille","lat":43.28429,"lon":5.34993,"is_reserved":false,"is_disabled":false,"rental_uris":{"android":"levelo://app?vid=3c7ca04a-d89f-4b76-b2f2-f7ba9382ef25","ios":"levelo://app?vid=3c7ca04a-d89f-4b76-b2f2-f7ba9382ef25"},"vehicle_type_id":"4","last_reported":1685369169,"current_range_meters":24400,"station_id":"ce4bhbh2rcd13ifvqepg","pricing_plan_id":"free"},{"bike_id":"d69085d6-5092-444e-a2f0-3f1295fa8d50","system_id":"levelo_inurba_marseille","lat":43.284219,"lon":5.3497,"is_reserved":false,"is_disabled":false,"rental_uris":{"android":"levelo://app?vid=d69085d6-5092-444e-a2f0-3f1295fa8d50","ios":"levelo://app?vid=d69085d6-5092-444e-a2f0-3f1295fa8d50"},"vehicle_type_id":"4","last_reported":1685369169,"current_range_meters":9200,"station_id":"ce4bhbh2rcd13ifvqepg","pricing_plan_id":"free"},{"bike_id":"8814a642-7f18-4f8b-b81b-f4474527ccb2","system_id":"levelo_inurba_marseille","lat":43.284219,"lon":5.3497,"is_reserved":false,"is_disabled":false,"rental_uris":{"android":"levelo://app?vid=8814a642-7f18-4f8b-b81b-f4474527ccb2","ios":"levelo://app?vid=8814a642-7f18-4f8b-b81b-f4474527ccb2"},"vehicle_type_id":"4","last_reported":1685369169,"current_range_meters":30000,"station_id":"ce4bhbh2rcd13ifvqepg","pricing_plan_id":"free"},{"bike_id":"fce8a2b4-1212-4155-9443-b461d8b77465","system_id":"levelo_inurba_marseille","lat":43.284219,"lon":5.3497,"is_reserved":false,"is_disabled":false,"rental_uris":{"android":"levelo://app?vid=fce8a2b4-1212-4155-9443-b461d8b77465","ios":"levelo://app?vid=fce8a2b4-1212-4155-9443-b461d8b77465"},"vehicle_type_id":"4","last_reported":1685369169,"current_range_meters":30000,"station_id":"ce4bhbh2rcd13ifvqepg","pricing_plan_id":"free"},{"bike_id":"997aad4a-7a02-4932-9d5e-12ffcda6a693","system_id":"levelo_inurba_marseille","lat":43.28423,"lon":5.34988,"is_reserved":false,"is_disabled":false,"rental_uris":{"android":"levelo://app?vid=997aad4a-7a02-4932-9d5e-12ffcda6a693","ios":"levelo://app?vid=997aad4a-7a02-4932-9d5e-12ffcda6a693"},"vehicle_type_id":"4","last_reported":1685369169,"current_range_meters":31200,"station_id":"ce4bhbh2rcd13ifvqepg","pricing_plan_id":"free"},{"bike_id":"6aa63b05-16a0-4a87-a1fb-a3f95acee867","system_id":"levelo_inurba_marseille","lat":43.284219,"lon":5.3497,"is_reserved":false,"is_disabled":false,"rental_uris":{"android":"levelo://app?vid=6aa63b05-16a0-4a87-a1fb-a3f95acee867","ios":"levelo://app?vid=6aa63b05-16a0-4a87-a1fb-a3f95acee867"},"vehicle_type_id":"4","last_reported":1685369169,"current_range_meters":31600,"station_id":"ce4bhbh2rcd13ifvqepg","pricing_plan_id":"free"},{"bike_id":"2f521c2c-8c89-4edc-8e0b-a75fc32ca095","system_id":"levelo_inurba_marseille","lat":43.284219,"lon":5.3497,"is_reserved":false,"is_disabled":false,"rental_uris":{"android":"levelo://app?vid=2f521c2c-8c89-4edc-8e0b-a75fc32ca095","ios":"levelo://app?vid=2f521c2c-8c89-4edc-8e0b-a75fc32ca095"},"vehicle_type_id":"4","last_reported":1685369169,"current_range_meters":9600,"station_id":"ce4bhbh2rcd13ifvqepg","pricing_plan_id":"free"},{"bike_id":"48e64f0d-f8b4-4326-b0a6-3b181201547d","system_id":"levelo_inurba_marseille","lat":43.28425,"lon":5.34975,"is_reserved":false,"is_disabled":false,"rental_uris":{"android":"levelo://app?vid=48e64f0d-f8b4-4326-b0a6-3b181201547d","ios":"levelo://app?vid=48e64f0d-f8b4-4326-b0a6-3b181201547d"},"vehicle_type_id":"4","last_reported":1685369169,"current_range_meters":28000,"station_id":"ce4bhbh2rcd13ifvqepg","pricing_plan_id":"free"},{"bike_id":"ce429d90-d737-4307-a97c-9bef8896c4f3","system_id":"levelo_inurba_marseille","lat":43.284219,"lon":5.3497,"is_reserved":false,"is_disabled":false,"rental_uris":{"android":"levelo://app?vid=ce429d90-d737-4307-a97c-9bef8896c4f3","ios":"levelo://app?vid=ce429d90-d737-4307-a97c-9bef8896c4f3"},"vehicle_type_id":"4","last_reported":1685369169,"current_range_meters":31600,"station_id":"ce4bhbh2rcd13ifvqepg","pricing_plan_id":"free"},{"bike_id":"7f26a831-ef87-4067-ae81-e01f335dc546","system_id":"levelo_inurba_marseille","lat":43.284219,"lon":5.3497,"is_reserved":false,"is_disabled":false,"rental_uris":{"android":"levelo://app?vid=7f26a831-ef87-4067-ae81-e01f335dc546","ios":"levelo://app?vid=7f26a831-ef87-4067-ae81-e01f335dc546"},"vehicle_type_id":"4","last_reported":1685369169,"current_range_meters":31200,"station_id":"ce4bhbh2rcd13ifvqepg","pricing_plan_id":"free"},{"bike_id":"5f581570-a5ac-49b3-a9ce-22540a19a64a","system_id":"levelo_inurba_marseille","lat":43.284219,"lon":5.3497,"is_reserved":false,"is_disabled":false,"rental_uris":{"android":"levelo://app?vid=5f581570-a5ac-49b3-a9ce-22540a19a64a","ios":"levelo://app?vid=5f581570-a5ac-49b3-a9ce-22540a19a64a"},"vehicle_type_id":"4","last_reported":1685369169,"current_range_meters":31600,"station_id":"ce4bhbh2rcd13ifvqepg","pricing_plan_id":"free"},{"bike_id":"c00bf755-034a-4160-914f-cd8a1035af91","system_id":"levelo_inurba_marseille","lat":43.284217,"lon":5.349697,"is_reserved":false,"is_disabled":false,"rental_uris":{"android":"levelo://app?vid=c00bf755-034a-4160-914f-cd8a1035af91","ios":"levelo://app?vid=c00bf755-034a-4160-914f-cd8a1035af91"},"vehicle_type_id":"4","last_reported":1685369169,"current_range_meters":31600,"station_id":"ce4bhbh2rcd13ifvqepg","pricing_plan_id":"free"},{"bike_id":"f8539a12-4486-4f2b-a3d0-be47f9d8ea76","system_id":"levelo_inurba_marseille","lat":43.28423,"lon":5.34971,"is_reserved":false,"is_disabled":false,"rental_uris":{"android":"levelo://app?vid=f8539a12-4486-4f2b-a3d0-be47f9d8ea76","ios":"levelo://app?vid=f8539a12-4486-4f2b-a3d0-be47f9d8ea76"},"vehicle_type_id":"4","last_reported":1685369169,"current_range_meters":23200,"station_id":"ce4bhbh2rcd13ifvqepg","pricing_plan_id":"free"},{"bike_id":"a038deb6-ce19-4bc9-956e-69c76ba209ea","system_id":"levelo_inurba_marseille","lat":43.284219,"lon":5.3497,"is_reserved":false,"is_disabled":false,"rental_uris":{"android":"levelo://app?vid=a038deb6-ce19-4bc9-956e-69c76ba209ea","ios":"levelo://app?vid=a038deb6-ce19-4bc9-956e-69c76ba209ea"},"vehicle_type_id":"4","last_reported":1685369169,"current_range_meters":25200,"station_id":"ce4bhbh2rcd13ifvqepg","pricing_plan_id":"free"},{"bike_id":"2b57ec76-c10c-43d1-8793-b124297ca9ed","system_id":"levelo_inurba_marseille","lat":43.2842,"lon":5.34971,"is_reserved":false,"is_disabled":false,"rental_uris":{"android":"levelo://app?vid=2b57ec76-c10c-43d1-8793-b124297ca9ed","ios":"levelo://app?vid=2b57ec76-c10c-43d1-8793-b124297ca9ed"},"vehicle_type_id":"4","last_reported":1685369169,"current_range_meters":22000,"station_id":"ce4bhbh2rcd13ifvqepg","pricing_plan_id":"free"},{"bike_id":"5a2be5dd-0e8e-432e-acb7-39258a4fed0a","system_id":"levelo_inurba_marseille","lat":43.289363,"lon":5.396322,"is_reserved":false,"is_disabled":false,"rental_uris":{"android":"levelo://app?vid=5a2be5dd-0e8e-432e-acb7-39258a4fed0a","ios":"levelo://app?vid=5a2be5dd-0e8e-432e-acb7-39258a4fed0a"},"vehicle_type_id":"4","last_reported":1685369169,"current_range_meters":28400,"station_id":"ce4bh3h2rcd13ifvqdn0","pricing_plan_id":"free"},{"bike_id":"ddaa344f-f14d-44bd-8bad-c8ac81d65c75","system_id":"levelo_inurba_marseille","lat":43.2827,"lon":5.35061,"is_reserved":false,"is_disabled":false,"rental_uris":{"android":"levelo://app?vid=ddaa344f-f14d-44bd-8bad-c8ac81d65c75","ios":"levelo://app?vid=ddaa344f-f14d-44bd-8bad-c8ac81d65c75"},"vehicle_type_id":"4","last_reported":1685369169,"current_range_meters":22400,"station_id":"ce4bhbp2rcd13ifvqerg","pricing_plan_id":"free"},{"bike_id":"080b0474-0f0f-4424-b238-65af765efbee","system_id":"levelo_inurba_marseille","lat":43.28263,"lon":5.35079,"is_reserved":false,"is_disabled":false,"rental_uris":{"android":"levelo://app?vid=080b0474-0f0f-4424-b238-65af765efbee","ios":"levelo://app?vid=080b0474-0f0f-4424-b238-65af765efbee"},"vehicle_type_id":"4","last_reported":1685369169,"current_range_meters":0,"station_id":"ce4bhbp2rcd13ifvqerg","pricing_plan_id":"free"},{"bike_id":"824d221b-5588-4248-8630-185fa4112b0e","system_id":"levelo_inurba_marseille","lat":43.282744,"lon":5.350533,"is_reserved":false,"is_disabled":false,"rental_uris":{"android":"levelo://app?vid=824d221b-5588-4248-8630-185fa4112b0e","ios":"levelo://app?vid=824d221b-5588-4248-8630-185fa4112b0e"},"vehicle_type_id":"4","last_reported":1685369169,"current_range_meters":31600,"station_id":"ce4bhbp2rcd13ifvqerg","pricing_plan_id":"free"},{"bike_id":"6bcbb29b-71ac-4717-ad1d-3686c2d9d64f","system_id":"levelo_inurba_marseille","lat":43.282744,"lon":5.350533,"is_reserved":false,"is_disabled":false,"rental_uris":{"android":"levelo://app?vid=6bcbb29b-71ac-4717-ad1d-3686c2d9d64f","ios":"levelo://app?vid=6bcbb29b-71ac-4717-ad1d-3686c2d9d64f"},"vehicle_type_id":"4","last_reported":1685369169,"current_range_meters":13600,"station_id":"ce4bhbp2rcd13ifvqerg","pricing_plan_id":"free"},{"bike_id":"1f902dab-7cd7-43cb-b0d5-d36893fac438","system_id":"levelo_inurba_marseille","lat":43.28257,"lon":5.35065,"is_reserved":false,"is_disabled":false,"rental_uris":{"android":"levelo://app?vid=1f902dab-7cd7-43cb-b0d5-d36893fac438","ios":"levelo://app?vid=1f902dab-7cd7-43cb-b0d5-d36893fac438"},"vehicle_type_id":"4","last_reported":1685369169,"current_range_meters":2800,"station_id":"ce4bhbp2rcd13ifvqerg","pricing_plan_id":"free"},{"bike_id":"a9cb8cd1-08fc-4097-9e90-7dd08072f93c","system_id":"levelo_inurba_marseille","lat":43.280382,"lon":5.369291,"is_reserved":false,"is_disabled":false,"rental_uris":{"android":"levelo://app?vid=a9cb8cd1-08fc-4097-9e90-7dd08072f93c","ios":"levelo://app?vid=a9cb8cd1-08fc-4097-9e90-7dd08072f93c"},"vehicle_type_id":"4","last_reported":1685369169,"current_range_meters":1600,"station_id":"ce4bha12rcd13ifvqef0","pricing_plan_id":"free"},{"bike_id":"0588983e-3c25-4872-ad53-c8740fea039e","system_id":"levelo_inurba_marseille","lat":43.280382,"lon":5.369291,"is_reserved":false,"is_disabled":false,"rental_uris":{"android":"levelo://app?vid=0588983e-3c25-4872-ad53-c8740fea039e","ios":"levelo://app?vid=0588983e-3c25-4872-ad53-c8740fea039e"},"vehicle_type_id":"4","last_reported":1685369169,"current_range_meters":31600,"station_id":"ce4bha12rcd13ifvqef0","pricing_plan_id":"free"},{"bike_id":"215e220d-f3fe-4834-9e49-5f5486208978","system_id":"levelo_inurba_marseille","lat":43.29039,"lon":5.39957,"is_reserved":false,"is_disabled":false,"rental_uris":{"android":"levelo://app?vid=215e220d-f3fe-4834-9e49-5f5486208978","ios":"levelo://app?vid=215e220d-f3fe-4834-9e49-5f5486208978"},"vehicle_type_id":"4","last_reported":1685369169,"current_range_meters":31600,"station_id":"","pricing_plan_id":"free"},{"bike_id":"fa695d2f-bfae-4b30-9092-1ee881cc122a","system_id":"levelo_inurba_marseille","lat":43.29041,"lon":5.39961,"is_reserved":false,"is_disabled":false,"rental_uris":{"android":"levelo://app?vid=fa695d2f-bfae-4b30-9092-1ee881cc122a","ios":"levelo://app?vid=fa695d2f-bfae-4b30-9092-1ee881cc122a"},"vehicle_type_id":"4","last_reported":1685369169,"current_range_meters":27600,"station_id":"","pricing_plan_id":"free"},{"bike_id":"4d23f321-1a67-4056-99a3-4cc33e1dfea1","system_id":"levelo_inurba_marseille","lat":43.29041,"lon":5.399634,"is_reserved":false,"is_disabled":false,"rental_uris":{"android":"levelo://app?vid=4d23f321-1a67-4056-99a3-4cc33e1dfea1","ios":"levelo://app?vid=4d23f321-1a67-4056-99a3-4cc33e1dfea1"},"vehicle_type_id":"4","last_reported":1685369169,"current_range_meters":23600,"station_id":"ce4bh392rcd13ifvqdm0","pricing_plan_id":"free"},{"bike_id":"b6a4d590-4d55-4ee1-865a-2a2bf08d1ad9","system_id":"levelo_inurba_marseille","lat":43.28438,"lon":5.39182,"is_reserved":false,"is_disabled":false,"rental_uris":{"android":"levelo://app?vid=b6a4d590-4d55-4ee1-865a-2a2bf08d1ad9","ios":"levelo://app?vid=b6a4d590-4d55-4ee1-865a-2a2bf08d1ad9"},"vehicle_type_id":"4","last_reported":1685369169,"current_range_meters":30400,"station_id":"ce4bhoh2rcd13ifvqh5g","pricing_plan_id":"free"},{"bike_id":"8f523799-960f-4e2c-80af-b0e33bc0accd","system_id":"levelo_inurba_marseille","lat":43.284462,"lon":5.392121,"is_reserved":false,"is_disabled":false,"rental_uris":{"android":"levelo://app?vid=8f523799-960f-4e2c-80af-b0e33bc0accd","ios":"levelo://app?vid=8f523799-960f-4e2c-80af-b0e33bc0accd"},"vehicle_type_id":"4","last_reported":1685369169,"current_range_meters":4400,"station_id":"ce4bhoh2rcd13ifvqh5g","pricing_plan_id":"free"},{"bike_id":"6d1f6b91-b9ce-4b5c-a5f9-7032cd39a047","system_id":"levelo_inurba_marseille","lat":43.28703,"lon":5.39985,"is_reserved":false,"is_disabled":false,"rental_uris":{"android":"levelo://app?vid=6d1f6b91-b9ce-4b5c-a5f9-7032cd39a047","ios":"levelo://app?vid=6d1f6b91-b9ce-4b5c-a5f9-7032cd39a047"},"vehicle_type_id":"4","last_reported":1685369169,"current_range_meters":5200,"station_id":"ce4bho92rcd13ifvqh3g","pricing_plan_id":"free"},{"bike_id":"3514d0e4-32eb-4e5c-92d9-91ad79339907","system_id":"levelo_inurba_marseille","lat":43.299579,"lon":5.413255,"is_reserved":false,"is_disabled":false,"rental_uris":{"android":"levelo://app?vid=3514d0e4-32eb-4e5c-92d9-91ad79339907","ios":"levelo://app?vid=3514d0e4-32eb-4e5c-92d9-91ad79339907"},"vehicle_type_id":"4","last_reported":1685369169,"current_range_meters":28400,"station_id":"ce4bhp12rcd13ifvqh9g","pricing_plan_id":"free"},{"bike_id":"d7e4e9e4-bcca-426c-86eb-756130cae472","system_id":"levelo_inurba_marseille","lat":43.299579,"lon":5.413255,"is_reserved":false,"is_disabled":false,"rental_uris":{"android":"levelo://app?vid=d7e4e9e4-bcca-426c-86eb-756130cae472","ios":"levelo://app?vid=d7e4e9e4-bcca-426c-86eb-756130cae472"},"vehicle_type_id":"4","last_reported":1685369169,"current_range_meters":30000,"station_id":"ce4bhp12rcd13ifvqh9g","pricing_plan_id":"free"},{"bike_id":"1984afc9-4c20-4c9d-b1fe-e89ff70f7f52","system_id":"levelo_inurba_marseille","lat":43.279742,"lon":5.38744,"is_reserved":false,"is_disabled":false,"rental_uris":{"android":"levelo://app?vid=1984afc9-4c20-4c9d-b1fe-e89ff70f7f52","ios":"levelo://app?vid=1984afc9-4c20-4c9d-b1fe-e89ff70f7f52"},"vehicle_type_id":"4","last_reported":1685369169,"current_range_meters":0,"station_id":"ce4bhg12rcd13ifvqf80","pricing_plan_id":"free"},{"bike_id":"01988e69-77c4-41bb-a59a-f92df6fceffd","system_id":"levelo_inurba_marseille","lat":43.27625,"lon":5.36104,"is_reserved":false,"is_disabled":false,"rental_uris":{"android":"levelo://app?vid=01988e69-77c4-41bb-a59a-f92df6fceffd","ios":"levelo://app?vid=01988e69-77c4-41bb-a59a-f92df6fceffd"},"vehicle_type_id":"4","last_reported":1685369169,"current_range_meters":22000,"station_id":"ce4bgj92rcd13ifvqbe0","pricing_plan_id":"free"},{"bike_id":"4d334810-6f4b-4c1d-a3f0-85988ce1a134","system_id":"levelo_inurba_marseille","lat":43.276179,"lon":5.361009,"is_reserved":false,"is_disabled":false,"rental_uris":{"android":"levelo://app?vid=4d334810-6f4b-4c1d-a3f0-85988ce1a134","ios":"levelo://app?vid=4d334810-6f4b-4c1d-a3f0-85988ce1a134"},"vehicle_type_id":"4","last_reported":1685369169,"current_range_meters":24800,"station_id":"ce4bgj92rcd13ifvqbe0","pricing_plan_id":"free"},{"bike_id":"d2962c44-638a-4c17-84a2-da7b217bdd9a","system_id":"levelo_inurba_marseille","lat":43.276179,"lon":5.361009,"is_reserved":false,"is_disabled":false,"rental_uris":{"android":"levelo://app?vid=d2962c44-638a-4c17-84a2-da7b217bdd9a","ios":"levelo://app?vid=d2962c44-638a-4c17-84a2-da7b217bdd9a"},"vehicle_type_id":"4","last_reported":1685369169,"current_range_meters":22400,"station_id":"ce4bgj92rcd13ifvqbe0","pricing_plan_id":"free"},{"bike_id":"8759bf43-7532-4593-b61a-84bfac5bb080","system_id":"levelo_inurba_marseille","lat":43.27619,"lon":5.36107,"is_reserved":false,"is_disabled":false,"rental_uris":{"android":"levelo://app?vid=8759bf43-7532-4593-b61a-84bfac5bb080","ios":"levelo://app?vid=8759bf43-7532-4593-b61a-84bfac5bb080"},"vehicle_type_id":"4","last_reported":1685369169,"current_range_meters":3200,"station_id":"ce4bgj92rcd13ifvqbe0","pricing_plan_id":"free"},{"bike_id":"60a09ca2-0258-47ca-ac36-25c1327d0259","system_id":"levelo_inurba_marseille","lat":43.276179,"lon":5.361009,"is_reserved":false,"is_disabled":false,"rental_uris":{"android":"levelo://app?vid=60a09ca2-0258-47ca-ac36-25c1327d0259","ios":"levelo://app?vid=60a09ca2-0258-47ca-ac36-25c1327d0259"},"vehicle_type_id":"4","last_reported":1685369169,"current_range_meters":31200,"station_id":"ce4bgj92rcd13ifvqbe0","pricing_plan_id":"free"},{"bike_id":"479a73e1-fc59-4def-ae77-a88abf40d31c","system_id":"levelo_inurba_marseille","lat":43.276179,"lon":5.361009,"is_reserved":false,"is_disabled":false,"rental_uris":{"android":"levelo://app?vid=479a73e1-fc59-4def-ae77-a88abf40d31c","ios":"levelo://app?vid=479a73e1-fc59-4def-ae77-a88abf40d31c"},"vehicle_type_id":"4","last_reported":1685369169,"current_range_meters":28400,"station_id":"ce4bgj92rcd13ifvqbe0","pricing_plan_id":"free"},{"bike_id":"3c23a1ba-2251-441d-bb72-cfe28ecee408","system_id":"levelo_inurba_marseille","lat":43.27616,"lon":5.36105,"is_reserved":false,"is_disabled":false,"rental_uris":{"android":"levelo://app?vid=3c23a1ba-2251-441d-bb72-cfe28ecee408","ios":"levelo://app?vid=3c23a1ba-2251-441d-bb72-cfe28ecee408"},"vehicle_type_id":"4","last_reported":1685369169,"current_range_meters":24800,"station_id":"ce4bgj92rcd13ifvqbe0","pricing_plan_id":"free"},{"bike_id":"a2e9cbfa-4b2b-4934-a99d-91122d833ef6","system_id":"levelo_inurba_marseille","lat":43.276179,"lon":5.361009,"is_reserved":false,"is_disabled":false,"rental_uris":{"android":"levelo://app?vid=a2e9cbfa-4b2b-4934-a99d-91122d833ef6","ios":"levelo://app?vid=a2e9cbfa-4b2b-4934-a99d-91122d833ef6"},"vehicle_type_id":"4","last_reported":1685369169,"current_range_meters":28000,"station_id":"ce4bgj92rcd13ifvqbe0","pricing_plan_id":"free"},{"bike_id":"eca66c1d-ae2c-4bc5-ae81-3fed2c4309c4","system_id":"levelo_inurba_marseille","lat":43.27613,"lon":5.36101,"is_reserved":false,"is_disabled":false,"rental_uris":{"android":"levelo://app?vid=eca66c1d-ae2c-4bc5-ae81-3fed2c4309c4","ios":"levelo://app?vid=eca66c1d-ae2c-4bc5-ae81-3fed2c4309c4"},"vehicle_type_id":"4","last_reported":1685369169,"current_range_meters":24400,"station_id":"ce4bgj92rcd13ifvqbe0","pricing_plan_id":"free"},{"bike_id":"ca6faf05-0f3b-4010-a2f1-8fb9acd54108","system_id":"levelo_inurba_marseille","lat":43.303837,"lon":5.418724,"is_reserved":false,"is_disabled":false,"rental_uris":{"android":"levelo://app?vid=ca6faf05-0f3b-4010-a2f1-8fb9acd54108","ios":"levelo://app?vid=ca6faf05-0f3b-4010-a2f1-8fb9acd54108"},"vehicle_type_id":"4","last_reported":1685369169,"current_range_meters":31200,"station_id":"ce4bhop2rcd13ifvqh7g","pricing_plan_id":"free"},{"bike_id":"28557466-730d-4265-9ea6-7ed3c2b43adc","system_id":"levelo_inurba_marseille","lat":43.278401,"lon":5.392152,"is_reserved":false,"is_disabled":false,"rental_uris":{"android":"levelo://app?vid=28557466-730d-4265-9ea6-7ed3c2b43adc","ios":"levelo://app?vid=28557466-730d-4265-9ea6-7ed3c2b43adc"},"vehicle_type_id":"4","last_reported":1685369169,"current_range_meters":0,"station_id":"ce4bhjp2rcd13ifvqga0","pricing_plan_id":"free"},{"bike_id":"7020803e-294f-43b3-8a89-45d1c3ea1642","system_id":"levelo_inurba_marseille","lat":43.27384,"lon":5.36259,"is_reserved":false,"is_disabled":false,"rental_uris":{"android":"levelo://app?vid=7020803e-294f-43b3-8a89-45d1c3ea1642","ios":"levelo://app?vid=7020803e-294f-43b3-8a89-45d1c3ea1642"},"vehicle_type_id":"4","last_reported":1685369169,"current_range_meters":17600,"station_id":"","pricing_plan_id":"free"},{"bike_id":"24ad0e13-cb14-48e0-b660-9badb475eb88","system_id":"levelo_inurba_marseille","lat":43.27379,"lon":5.36253,"is_reserved":false,"is_disabled":false,"rental_uris":{"android":"levelo://app?vid=24ad0e13-cb14-48e0-b660-9badb475eb88","ios":"levelo://app?vid=24ad0e13-cb14-48e0-b660-9badb475eb88"},"vehicle_type_id":"4","last_reported":1685369169,"current_range_meters":28800,"station_id":"ce4bhbh2rcd13ifvqeo0","pricing_plan_id":"free"},{"bike_id":"9b6482df-d2d8-4192-97f4-80d72ec8b52e","system_id":"levelo_inurba_marseille","lat":43.27378,"lon":5.36254,"is_reserved":false,"is_disabled":false,"rental_uris":{"android":"levelo://app?vid=9b6482df-d2d8-4192-97f4-80d72ec8b52e","ios":"levelo://app?vid=9b6482df-d2d8-4192-97f4-80d72ec8b52e"},"vehicle_type_id":"4","last_reported":1685369169,"current_range_meters":1200,"station_id":"ce4bhbh2rcd13ifvqeo0","pricing_plan_id":"free"},{"bike_id":"5e5c7c9c-63f9-48ab-98a4-d0e33c266d63","system_id":"levelo_inurba_marseille","lat":43.27378,"lon":5.36253,"is_reserved":false,"is_disabled":false,"rental_uris":{"android":"levelo://app?vid=5e5c7c9c-63f9-48ab-98a4-d0e33c266d63","ios":"levelo://app?vid=5e5c7c9c-63f9-48ab-98a4-d0e33c266d63"},"vehicle_type_id":"4","last_reported":1685369169,"current_range_meters":25200,"station_id":"ce4bhbh2rcd13ifvqeo0","pricing_plan_id":"free"},{"bike_id":"6b18c260-0afd-45bd-84e1-65bdf2b61f10","system_id":"levelo_inurba_marseille","lat":43.27378,"lon":5.36253,"is_reserved":false,"is_disabled":false,"rental_uris":{"android":"levelo://app?vid=6b18c260-0afd-45bd-84e1-65bdf2b61f10","ios":"levelo://app?vid=6b18c260-0afd-45bd-84e1-65bdf2b61f10"},"vehicle_type_id":"4","last_reported":1685369169,"current_range_meters":14400,"station_id":"ce4bhbh2rcd13ifvqeo0","pricing_plan_id":"free"},{"bike_id":"b793c0c5-6fbb-4154-be9c-3a0a7a2319a2","system_id":"levelo_inurba_marseille","lat":43.27378,"lon":5.36253,"is_reserved":false,"is_disabled":false,"rental_uris":{"android":"levelo://app?vid=b793c0c5-6fbb-4154-be9c-3a0a7a2319a2","ios":"levelo://app?vid=b793c0c5-6fbb-4154-be9c-3a0a7a2319a2"},"vehicle_type_id":"4","last_reported":1685369169,"current_range_meters":31600,"station_id":"ce4bhbh2rcd13ifvqeo0","pricing_plan_id":"free"},{"bike_id":"e6d61afc-5559-4b31-8bb0-3eeedf01a145","system_id":"levelo_inurba_marseille","lat":43.27378,"lon":5.36251,"is_reserved":false,"is_disabled":false,"rental_uris":{"android":"levelo://app?vid=e6d61afc-5559-4b31-8bb0-3eeedf01a145","ios":"levelo://app?vid=e6d61afc-5559-4b31-8bb0-3eeedf01a145"},"vehicle_type_id":"4","last_reported":1685369169,"current_range_meters":20800,"station_id":"ce4bhbh2rcd13ifvqeo0","pricing_plan_id":"free"},{"bike_id":"8605cfd3-b346-4722-b856-fd123a8f741a","system_id":"levelo_inurba_marseille","lat":43.27377,"lon":5.36252,"is_reserved":false,"is_disabled":false,"rental_uris":{"android":"levelo://app?vid=8605cfd3-b346-4722-b856-fd123a8f741a","ios":"levelo://app?vid=8605cfd3-b346-4722-b856-fd123a8f741a"},"vehicle_type_id":"4","last_reported":1685369169,"current_range_meters":4400,"station_id":"ce4bhbh2rcd13ifvqeo0","pricing_plan_id":"free"},{"bike_id":"6bac119f-7fdc-462a-b9aa-b2ea52a69389","system_id":"levelo_inurba_marseille","lat":43.27377,"lon":5.36249,"is_reserved":false,"is_disabled":false,"rental_uris":{"android":"levelo://app?vid=6bac119f-7fdc-462a-b9aa-b2ea52a69389","ios":"levelo://app?vid=6bac119f-7fdc-462a-b9aa-b2ea52a69389"},"vehicle_type_id":"4","last_reported":1685369169,"current_range_meters":22400,"station_id":"ce4bhbh2rcd13ifvqeo0","pricing_plan_id":"free"},{"bike_id":"d25491cd-4a67-422d-a385-910d2bff5a5f","system_id":"levelo_inurba_marseille","lat":43.27376,"lon":5.36254,"is_reserved":false,"is_disabled":false,"rental_uris":{"android":"levelo://app?vid=d25491cd-4a67-422d-a385-910d2bff5a5f","ios":"levelo://app?vid=d25491cd-4a67-422d-a385-910d2bff5a5f"},"vehicle_type_id":"4","last_reported":1685369169,"current_range_meters":12800,"station_id":"ce4bhbh2rcd13ifvqeo0","pricing_plan_id":"free"},{"bike_id":"90028714-f1a0-4dbd-8ede-050aa4b12b73","system_id":"levelo_inurba_marseille","lat":43.27375,"lon":5.36249,"is_reserved":false,"is_disabled":false,"rental_uris":{"android":"levelo://app?vid=90028714-f1a0-4dbd-8ede-050aa4b12b73","ios":"levelo://app?vid=90028714-f1a0-4dbd-8ede-050aa4b12b73"},"vehicle_type_id":"4","last_reported":1685369169,"current_range_meters":18800,"station_id":"ce4bhbh2rcd13ifvqeo0","pricing_plan_id":"free"},{"bike_id":"612e2309-ea76-4e77-90fb-7a3a0f1ddabd","system_id":"levelo_inurba_marseille","lat":43.27375,"lon":5.36248,"is_reserved":false,"is_disabled":false,"rental_uris":{"android":"levelo://app?vid=612e2309-ea76-4e77-90fb-7a3a0f1ddabd","ios":"levelo://app?vid=612e2309-ea76-4e77-90fb-7a3a0f1ddabd"},"vehicle_type_id":"4","last_reported":1685369169,"current_range_meters":6400,"station_id":"ce4bhbh2rcd13ifvqeo0","pricing_plan_id":"free"},{"bike_id":"24001c60-21fc-47db-9007-08af1f6d3561","system_id":"levelo_inurba_marseille","lat":43.273609,"lon":5.362708,"is_reserved":false,"is_disabled":false,"rental_uris":{"android":"levelo://app?vid=24001c60-21fc-47db-9007-08af1f6d3561","ios":"levelo://app?vid=24001c60-21fc-47db-9007-08af1f6d3561"},"vehicle_type_id":"4","last_reported":1685369169,"current_range_meters":14800,"station_id":"ce4bhbh2rcd13ifvqeo0","pricing_plan_id":"free"},{"bike_id":"6b5f54f9-c011-41b0-ac12-8651404aa7b5","system_id":"levelo_inurba_marseille","lat":43.27374,"lon":5.36254,"is_reserved":false,"is_disabled":false,"rental_uris":{"android":"levelo://app?vid=6b5f54f9-c011-41b0-ac12-8651404aa7b5","ios":"levelo://app?vid=6b5f54f9-c011-41b0-ac12-8651404aa7b5"},"vehicle_type_id":"4","last_reported":1685369169,"current_range_meters":18000,"station_id":"ce4bhbh2rcd13ifvqeo0","pricing_plan_id":"free"},{"bike_id":"391924ae-d2ff-4e26-a69e-cd4bc56deca3","system_id":"levelo_inurba_marseille","lat":43.273609,"lon":5.362708,"is_reserved":false,"is_disabled":false,"rental_uris":{"android":"levelo://app?vid=391924ae-d2ff-4e26-a69e-cd4bc56deca3","ios":"levelo://app?vid=391924ae-d2ff-4e26-a69e-cd4bc56deca3"},"vehicle_type_id":"4","last_reported":1685369169,"current_range_meters":30000,"station_id":"ce4bhbh2rcd13ifvqeo0","pricing_plan_id":"free"},{"bike_id":"1f9fbc39-f010-4190-a08d-1dcfa098a0a6","system_id":"levelo_inurba_marseille","lat":43.27373,"lon":5.36254,"is_reserved":false,"is_disabled":false,"rental_uris":{"android":"levelo://app?vid=1f9fbc39-f010-4190-a08d-1dcfa098a0a6","ios":"levelo://app?vid=1f9fbc39-f010-4190-a08d-1dcfa098a0a6"},"vehicle_type_id":"4","last_reported":1685369169,"current_range_meters":14800,"station_id":"ce4bhbh2rcd13ifvqeo0","pricing_plan_id":"free"},{"bike_id":"c9479f6c-dd6a-43b7-86d1-59fddd68cfd8","system_id":"levelo_inurba_marseille","lat":43.27373,"lon":5.36252,"is_reserved":false,"is_disabled":false,"rental_uris":{"android":"levelo://app?vid=c9479f6c-dd6a-43b7-86d1-59fddd68cfd8","ios":"levelo://app?vid=c9479f6c-dd6a-43b7-86d1-59fddd68cfd8"},"vehicle_type_id":"4","last_reported":1685369169,"current_range_meters":28000,"station_id":"ce4bhbh2rcd13ifvqeo0","pricing_plan_id":"free"},{"bike_id":"85cfc301-dd03-4d26-9397-68f5e98cae37","system_id":"levelo_inurba_marseille","lat":43.27566,"lon":5.38418,"is_reserved":false,"is_disabled":false,"rental_uris":{"android":"levelo://app?vid=85cfc301-dd03-4d26-9397-68f5e98cae37","ios":"levelo://app?vid=85cfc301-dd03-4d26-9397-68f5e98cae37"},"vehicle_type_id":"4","last_reported":1685369169,"current_range_meters":26800,"station_id":"","pricing_plan_id":"free"},{"bike_id":"ff645cf7-de40-47c8-814d-b4e7df3d0296","system_id":"levelo_inurba_marseille","lat":43.273609,"lon":5.362708,"is_reserved":false,"is_disabled":false,"rental_uris":{"android":"levelo://app?vid=ff645cf7-de40-47c8-814d-b4e7df3d0296","ios":"levelo://app?vid=ff645cf7-de40-47c8-814d-b4e7df3d0296"},"vehicle_type_id":"4","last_reported":1685369169,"current_range_meters":31600,"station_id":"ce4bhbh2rcd13ifvqeo0","pricing_plan_id":"free"},{"bike_id":"2fc8c0f9-64b4-4b45-9975-a87f703ed9eb","system_id":"levelo_inurba_marseille","lat":43.273609,"lon":5.362708,"is_reserved":false,"is_disabled":false,"rental_uris":{"android":"levelo://app?vid=2fc8c0f9-64b4-4b45-9975-a87f703ed9eb","ios":"levelo://app?vid=2fc8c0f9-64b4-4b45-9975-a87f703ed9eb"},"vehicle_type_id":"4","last_reported":1685369169,"current_range_meters":31600,"station_id":"ce4bhbh2rcd13ifvqeo0","pricing_plan_id":"free"},{"bike_id":"cd50e38f-be01-4043-b35c-a9a528b15b22","system_id":"levelo_inurba_marseille","lat":43.27372,"lon":5.36251,"is_reserved":false,"is_disabled":false,"rental_uris":{"android":"levelo://app?vid=cd50e38f-be01-4043-b35c-a9a528b15b22","ios":"levelo://app?vid=cd50e38f-be01-4043-b35c-a9a528b15b22"},"vehicle_type_id":"4","last_reported":1685369169,"current_range_meters":20800,"station_id":"ce4bhbh2rcd13ifvqeo0","pricing_plan_id":"free"},{"bike_id":"b17318f2-8ca9-44be-9033-bcc68967c998","system_id":"levelo_inurba_marseille","lat":43.27372,"lon":5.36251,"is_reserved":false,"is_disabled":false,"rental_uris":{"android":"levelo://app?vid=b17318f2-8ca9-44be-9033-bcc68967c998","ios":"levelo://app?vid=b17318f2-8ca9-44be-9033-bcc68967c998"},"vehicle_type_id":"4","last_reported":1685369169,"current_range_meters":25200,"station_id":"ce4bhbh2rcd13ifvqeo0","pricing_plan_id":"free"},{"bike_id":"4b518eea-3ade-417b-9f42-e5bc7ba9e638","system_id":"levelo_inurba_marseille","lat":43.273609,"lon":5.362708,"is_reserved":false,"is_disabled":false,"rental_uris":{"android":"levelo://app?vid=4b518eea-3ade-417b-9f42-e5bc7ba9e638","ios":"levelo://app?vid=4b518eea-3ade-417b-9f42-e5bc7ba9e638"},"vehicle_type_id":"4","last_reported":1685369169,"current_range_meters":31600,"station_id":"ce4bhbh2rcd13ifvqeo0","pricing_plan_id":"free"},{"bike_id":"957ed6cd-f078-4701-96fd-7f3fe454d542","system_id":"levelo_inurba_marseille","lat":43.273609,"lon":5.362708,"is_reserved":false,"is_disabled":false,"rental_uris":{"android":"levelo://app?vid=957ed6cd-f078-4701-96fd-7f3fe454d542","ios":"levelo://app?vid=957ed6cd-f078-4701-96fd-7f3fe454d542"},"vehicle_type_id":"4","last_reported":1685369169,"current_range_meters":4800,"station_id":"ce4bhbh2rcd13ifvqeo0","pricing_plan_id":"free"},{"bike_id":"94023db1-6bb7-415c-8a3e-28a4f1a183de","system_id":"levelo_inurba_marseille","lat":43.27369,"lon":5.36247,"is_reserved":false,"is_disabled":false,"rental_uris":{"android":"levelo://app?vid=94023db1-6bb7-415c-8a3e-28a4f1a183de","ios":"levelo://app?vid=94023db1-6bb7-415c-8a3e-28a4f1a183de"},"vehicle_type_id":"4","last_reported":1685369169,"current_range_meters":19600,"station_id":"ce4bhbh2rcd13ifvqeo0","pricing_plan_id":"free"},{"bike_id":"78a3dbcd-8d00-43e0-a5fd-eebbea8c4401","system_id":"levelo_inurba_marseille","lat":43.273609,"lon":5.362708,"is_reserved":false,"is_disabled":false,"rental_uris":{"android":"levelo://app?vid=78a3dbcd-8d00-43e0-a5fd-eebbea8c4401","ios":"levelo://app?vid=78a3dbcd-8d00-43e0-a5fd-eebbea8c4401"},"vehicle_type_id":"4","last_reported":1685369169,"current_range_meters":20000,"station_id":"ce4bhbh2rcd13ifvqeo0","pricing_plan_id":"free"},{"bike_id":"dfd821b6-1cff-4c91-9436-b16e7721e3b1","system_id":"levelo_inurba_marseille","lat":43.273609,"lon":5.362708,"is_reserved":false,"is_disabled":false,"rental_uris":{"android":"levelo://app?vid=dfd821b6-1cff-4c91-9436-b16e7721e3b1","ios":"levelo://app?vid=dfd821b6-1cff-4c91-9436-b16e7721e3b1"},"vehicle_type_id":"4","last_reported":1685369169,"current_range_meters":17200,"station_id":"ce4bhbh2rcd13ifvqeo0","pricing_plan_id":"free"},{"bike_id":"6390dd97-3f50-4160-bb3e-8286a27a0e7b","system_id":"levelo_inurba_marseille","lat":43.31675,"lon":5.42259,"is_reserved":false,"is_disabled":false,"rental_uris":{"android":"levelo://app?vid=6390dd97-3f50-4160-bb3e-8286a27a0e7b","ios":"levelo://app?vid=6390dd97-3f50-4160-bb3e-8286a27a0e7b"},"vehicle_type_id":"4","last_reported":1685369169,"current_range_meters":25200,"station_id":"","pricing_plan_id":"free"},{"bike_id":"91b49189-18df-431a-bbbf-f0b2350181de","system_id":"levelo_inurba_marseille","lat":43.28428,"lon":5.4079,"is_reserved":false,"is_disabled":false,"rental_uris":{"android":"levelo://app?vid=91b49189-18df-431a-bbbf-f0b2350181de","ios":"levelo://app?vid=91b49189-18df-431a-bbbf-f0b2350181de"},"vehicle_type_id":"4","last_reported":1685369169,"current_range_meters":3200,"station_id":"","pricing_plan_id":"free"},{"bike_id":"059976e0-b637-4f88-a529-de53e0dbfa58","system_id":"levelo_inurba_marseille","lat":43.317121,"lon":5.423936,"is_reserved":false,"is_disabled":false,"rental_uris":{"android":"levelo://app?vid=059976e0-b637-4f88-a529-de53e0dbfa58","ios":"levelo://app?vid=059976e0-b637-4f88-a529-de53e0dbfa58"},"vehicle_type_id":"4","last_reported":1685369169,"current_range_meters":19600,"station_id":"ce4bhp92rcd13ifvqhbg","pricing_plan_id":"free"},{"bike_id":"b6fde87d-9380-4612-9856-6a4c15e474d5","system_id":"levelo_inurba_marseille","lat":43.31087,"lon":5.42428,"is_reserved":false,"is_disabled":false,"rental_uris":{"android":"levelo://app?vid=b6fde87d-9380-4612-9856-6a4c15e474d5","ios":"levelo://app?vid=b6fde87d-9380-4612-9856-6a4c15e474d5"},"vehicle_type_id":"4","last_reported":1685369169,"current_range_meters":31200,"station_id":"ce4bhp92rcd13ifvqhag","pricing_plan_id":"free"},{"bike_id":"6b586849-4cb2-4f0c-a6d8-7549b3a03b77","system_id":"levelo_inurba_marseille","lat":43.311,"lon":5.42429,"is_reserved":false,"is_disabled":false,"rental_uris":{"android":"levelo://app?vid=6b586849-4cb2-4f0c-a6d8-7549b3a03b77","ios":"levelo://app?vid=6b586849-4cb2-4f0c-a6d8-7549b3a03b77"},"vehicle_type_id":"4","last_reported":1685369169,"current_range_meters":26400,"station_id":"ce4bhp92rcd13ifvqhag","pricing_plan_id":"free"},{"bike_id":"423d90a1-8135-41cd-9f7a-f9b10b8aa251","system_id":"levelo_inurba_marseille","lat":43.31083,"lon":5.42428,"is_reserved":false,"is_disabled":false,"rental_uris":{"android":"levelo://app?vid=423d90a1-8135-41cd-9f7a-f9b10b8aa251","ios":"levelo://app?vid=423d90a1-8135-41cd-9f7a-f9b10b8aa251"},"vehicle_type_id":"4","last_reported":1685369169,"current_range_meters":30400,"station_id":"ce4bhp92rcd13ifvqhag","pricing_plan_id":"free"},{"bike_id":"a836af40-09af-4eb0-8db9-1fc5b0f18843","system_id":"levelo_inurba_marseille","lat":43.27322,"lon":5.39089,"is_reserved":false,"is_disabled":false,"rental_uris":{"android":"levelo://app?vid=a836af40-09af-4eb0-8db9-1fc5b0f18843","ios":"levelo://app?vid=a836af40-09af-4eb0-8db9-1fc5b0f18843"},"vehicle_type_id":"4","last_reported":1685369169,"current_range_meters":0,"station_id":"ce4bhgp2rcd13ifvqfe0","pricing_plan_id":"free"},{"bike_id":"4ccce2f7-ce49-4f2d-854c-e845debf3029","system_id":"levelo_inurba_marseille","lat":43.30419,"lon":5.42538,"is_reserved":false,"is_disabled":false,"rental_uris":{"android":"levelo://app?vid=4ccce2f7-ce49-4f2d-854c-e845debf3029","ios":"levelo://app?vid=4ccce2f7-ce49-4f2d-854c-e845debf3029"},"vehicle_type_id":"4","last_reported":1685369169,"current_range_meters":14400,"station_id":"ce4bhoh2rcd13ifvqh6g","pricing_plan_id":"free"},{"bike_id":"03330d11-492d-443f-a226-02c81e516f72","system_id":"levelo_inurba_marseille","lat":43.295523,"lon":5.422926,"is_reserved":false,"is_disabled":false,"rental_uris":{"android":"levelo://app?vid=03330d11-492d-443f-a226-02c81e516f72","ios":"levelo://app?vid=03330d11-492d-443f-a226-02c81e516f72"},"vehicle_type_id":"4","last_reported":1685369169,"current_range_meters":13200,"station_id":"ce4bhph2rcd13ifvqhdg","pricing_plan_id":"free"},{"bike_id":"a9bc1dc0-e33b-421b-8c87-51487a0e0095","system_id":"levelo_inurba_marseille","lat":43.295523,"lon":5.422926,"is_reserved":false,"is_disabled":false,"rental_uris":{"android":"levelo://app?vid=a9bc1dc0-e33b-421b-8c87-51487a0e0095","ios":"levelo://app?vid=a9bc1dc0-e33b-421b-8c87-51487a0e0095"},"vehicle_type_id":"4","last_reported":1685369169,"current_range_meters":25200,"station_id":"ce4bhph2rcd13ifvqhdg","pricing_plan_id":"free"},{"bike_id":"299436fa-beb1-42d8-adc3-eaa8116e0f78","system_id":"levelo_inurba_marseille","lat":43.295523,"lon":5.422926,"is_reserved":false,"is_disabled":false,"rental_uris":{"android":"levelo://app?vid=299436fa-beb1-42d8-adc3-eaa8116e0f78","ios":"levelo://app?vid=299436fa-beb1-42d8-adc3-eaa8116e0f78"},"vehicle_type_id":"4","last_reported":1685369169,"current_range_meters":6400,"station_id":"ce4bhph2rcd13ifvqhdg","pricing_plan_id":"free"},{"bike_id":"006b1477-59d9-4abf-bf30-fe468e8a0337","system_id":"levelo_inurba_marseille","lat":43.30782,"lon":5.42766,"is_reserved":false,"is_disabled":false,"rental_uris":{"android":"levelo://app?vid=006b1477-59d9-4abf-bf30-fe468e8a0337","ios":"levelo://app?vid=006b1477-59d9-4abf-bf30-fe468e8a0337"},"vehicle_type_id":"4","last_reported":1685369169,"current_range_meters":26800,"station_id":"","pricing_plan_id":"free"},{"bike_id":"6235f814-7127-447d-8248-ba0ad6a4b85f","system_id":"levelo_inurba_marseille","lat":43.26681,"lon":5.382694,"is_reserved":false,"is_disabled":false,"rental_uris":{"android":"levelo://app?vid=6235f814-7127-447d-8248-ba0ad6a4b85f","ios":"levelo://app?vid=6235f814-7127-447d-8248-ba0ad6a4b85f"},"vehicle_type_id":"4","last_reported":1685369169,"current_range_meters":2800,"station_id":"ce4bhg92rcd13ifvqf90","pricing_plan_id":"free"},{"bike_id":"426cc59b-3558-4da0-813c-099799295961","system_id":"levelo_inurba_marseille","lat":43.26564,"lon":5.37278,"is_reserved":false,"is_disabled":false,"rental_uris":{"android":"levelo://app?vid=426cc59b-3558-4da0-813c-099799295961","ios":"levelo://app?vid=426cc59b-3558-4da0-813c-099799295961"},"vehicle_type_id":"4","last_reported":1685369169,"current_range_meters":24800,"station_id":"ce4bhg12rcd13ifvqf70","pricing_plan_id":"free"},{"bike_id":"be43125f-3f29-4d6f-ada1-c2763dce5d88","system_id":"levelo_inurba_marseille","lat":43.265714,"lon":5.372891,"is_reserved":false,"is_disabled":false,"rental_uris":{"android":"levelo://app?vid=be43125f-3f29-4d6f-ada1-c2763dce5d88","ios":"levelo://app?vid=be43125f-3f29-4d6f-ada1-c2763dce5d88"},"vehicle_type_id":"4","last_reported":1685369169,"current_range_meters":23600,"station_id":"ce4bhg12rcd13ifvqf70","pricing_plan_id":"free"},{"bike_id":"0f017e38-1240-478f-92c4-d9bcc9b156cc","system_id":"levelo_inurba_marseille","lat":43.26561,"lon":5.37285,"is_reserved":false,"is_disabled":false,"rental_uris":{"android":"levelo://app?vid=0f017e38-1240-478f-92c4-d9bcc9b156cc","ios":"levelo://app?vid=0f017e38-1240-478f-92c4-d9bcc9b156cc"},"vehicle_type_id":"4","last_reported":1685369169,"current_range_meters":18000,"station_id":"ce4bhg12rcd13ifvqf70","pricing_plan_id":"free"},{"bike_id":"1ec20cc1-7363-4af0-a4b4-2ec760666506","system_id":"levelo_inurba_marseille","lat":43.265714,"lon":5.372891,"is_reserved":false,"is_disabled":false,"rental_uris":{"android":"levelo://app?vid=1ec20cc1-7363-4af0-a4b4-2ec760666506","ios":"levelo://app?vid=1ec20cc1-7363-4af0-a4b4-2ec760666506"},"vehicle_type_id":"4","last_reported":1685369169,"current_range_meters":29600,"station_id":"ce4bhg12rcd13ifvqf70","pricing_plan_id":"free"},{"bike_id":"abd4d2c0-af42-4958-befb-b3bef5860100","system_id":"levelo_inurba_marseille","lat":43.2656,"lon":5.37281,"is_reserved":false,"is_disabled":false,"rental_uris":{"android":"levelo://app?vid=abd4d2c0-af42-4958-befb-b3bef5860100","ios":"levelo://app?vid=abd4d2c0-af42-4958-befb-b3bef5860100"},"vehicle_type_id":"4","last_reported":1685369169,"current_range_meters":24000,"station_id":"ce4bhg12rcd13ifvqf70","pricing_plan_id":"free"},{"bike_id":"3dffe15a-600f-4cf4-aed2-9fffe8f7e374","system_id":"levelo_inurba_marseille","lat":43.2656,"lon":5.37283,"is_reserved":false,"is_disabled":false,"rental_uris":{"android":"levelo://app?vid=3dffe15a-600f-4cf4-aed2-9fffe8f7e374","ios":"levelo://app?vid=3dffe15a-600f-4cf4-aed2-9fffe8f7e374"},"vehicle_type_id":"4","last_reported":1685369169,"current_range_meters":14800,"station_id":"ce4bhg12rcd13ifvqf70","pricing_plan_id":"free"},{"bike_id":"3812abe1-f8c6-4e5a-af26-c190ebe0f72d","system_id":"levelo_inurba_marseille","lat":43.2656,"lon":5.37286,"is_reserved":false,"is_disabled":false,"rental_uris":{"android":"levelo://app?vid=3812abe1-f8c6-4e5a-af26-c190ebe0f72d","ios":"levelo://app?vid=3812abe1-f8c6-4e5a-af26-c190ebe0f72d"},"vehicle_type_id":"4","last_reported":1685369169,"current_range_meters":0,"station_id":"ce4bhg12rcd13ifvqf70","pricing_plan_id":"free"},{"bike_id":"5ba7147a-28d3-41fe-91cd-95ed86d30593","system_id":"levelo_inurba_marseille","lat":43.26558,"lon":5.37285,"is_reserved":false,"is_disabled":false,"rental_uris":{"android":"levelo://app?vid=5ba7147a-28d3-41fe-91cd-95ed86d30593","ios":"levelo://app?vid=5ba7147a-28d3-41fe-91cd-95ed86d30593"},"vehicle_type_id":"4","last_reported":1685369169,"current_range_meters":13200,"station_id":"ce4bhg12rcd13ifvqf70","pricing_plan_id":"free"},{"bike_id":"28073e52-8ac4-4b0d-83e6-dfcd5ef1bc4d","system_id":"levelo_inurba_marseille","lat":43.265714,"lon":5.372891,"is_reserved":false,"is_disabled":false,"rental_uris":{"android":"levelo://app?vid=28073e52-8ac4-4b0d-83e6-dfcd5ef1bc4d","ios":"levelo://app?vid=28073e52-8ac4-4b0d-83e6-dfcd5ef1bc4d"},"vehicle_type_id":"4","last_reported":1685369169,"current_range_meters":28800,"station_id":"ce4bhg12rcd13ifvqf70","pricing_plan_id":"free"},{"bike_id":"d2a3fbd8-b2b0-4cab-a7fb-cdad8d8dcecd","system_id":"levelo_inurba_marseille","lat":43.26557,"lon":5.3729,"is_reserved":false,"is_disabled":false,"rental_uris":{"android":"levelo://app?vid=d2a3fbd8-b2b0-4cab-a7fb-cdad8d8dcecd","ios":"levelo://app?vid=d2a3fbd8-b2b0-4cab-a7fb-cdad8d8dcecd"},"vehicle_type_id":"4","last_reported":1685369169,"current_range_meters":25200,"station_id":"ce4bhg12rcd13ifvqf70","pricing_plan_id":"free"},{"bike_id":"c0e4234a-a56d-45aa-aecb-c166b01b41b9","system_id":"levelo_inurba_marseille","lat":43.26556,"lon":5.37279,"is_reserved":false,"is_disabled":false,"rental_uris":{"android":"levelo://app?vid=c0e4234a-a56d-45aa-aecb-c166b01b41b9","ios":"levelo://app?vid=c0e4234a-a56d-45aa-aecb-c166b01b41b9"},"vehicle_type_id":"4","last_reported":1685369169,"current_range_meters":0,"station_id":"ce4bhg12rcd13ifvqf70","pricing_plan_id":"free"},{"bike_id":"3473e9f9-eb91-411a-8f44-e85863d6c3ff","system_id":"levelo_inurba_marseille","lat":43.26556,"lon":5.37283,"is_reserved":false,"is_disabled":false,"rental_uris":{"android":"levelo://app?vid=3473e9f9-eb91-411a-8f44-e85863d6c3ff","ios":"levelo://app?vid=3473e9f9-eb91-411a-8f44-e85863d6c3ff"},"vehicle_type_id":"4","last_reported":1685369169,"current_range_meters":19200,"station_id":"ce4bhg12rcd13ifvqf70","pricing_plan_id":"free"},{"bike_id":"9e8d5639-c72d-4001-b6c6-b41f74a1feb8","system_id":"levelo_inurba_marseille","lat":43.26555,"lon":5.37282,"is_reserved":false,"is_disabled":false,"rental_uris":{"android":"levelo://app?vid=9e8d5639-c72d-4001-b6c6-b41f74a1feb8","ios":"levelo://app?vid=9e8d5639-c72d-4001-b6c6-b41f74a1feb8"},"vehicle_type_id":"4","last_reported":1685369169,"current_range_meters":24800,"station_id":"ce4bhg12rcd13ifvqf70","pricing_plan_id":"free"},{"bike_id":"cf9f1a90-a3bc-40bc-81dd-12452a4a29ea","system_id":"levelo_inurba_marseille","lat":43.26554,"lon":5.37281,"is_reserved":false,"is_disabled":false,"rental_uris":{"android":"levelo://app?vid=cf9f1a90-a3bc-40bc-81dd-12452a4a29ea","ios":"levelo://app?vid=cf9f1a90-a3bc-40bc-81dd-12452a4a29ea"},"vehicle_type_id":"4","last_reported":1685369169,"current_range_meters":30000,"station_id":"ce4bhg12rcd13ifvqf70","pricing_plan_id":"free"},{"bike_id":"d9d9b657-7cdd-4600-acb5-7fc6140ff404","system_id":"levelo_inurba_marseille","lat":43.26548,"lon":5.372857,"is_reserved":false,"is_disabled":false,"rental_uris":{"android":"levelo://app?vid=d9d9b657-7cdd-4600-acb5-7fc6140ff404","ios":"levelo://app?vid=d9d9b657-7cdd-4600-acb5-7fc6140ff404"},"vehicle_type_id":"4","last_reported":1685369169,"current_range_meters":2800,"station_id":"ce4bh492rcd13ifvqdvg","pricing_plan_id":"free"},{"bike_id":"97f92444-dc7f-4ac8-885e-43ac50454dc0","system_id":"levelo_inurba_marseille","lat":43.31679,"lon":5.4333,"is_reserved":false,"is_disabled":false,"rental_uris":{"android":"levelo://app?vid=97f92444-dc7f-4ac8-885e-43ac50454dc0","ios":"levelo://app?vid=97f92444-dc7f-4ac8-885e-43ac50454dc0"},"vehicle_type_id":"4","last_reported":1685369169,"current_range_meters":0,"station_id":"","pricing_plan_id":"free"},{"bike_id":"30211e9f-243d-4d61-8965-7b9f27f18fc6","system_id":"levelo_inurba_marseille","lat":43.26408,"lon":5.37115,"is_reserved":false,"is_disabled":false,"rental_uris":{"android":"levelo://app?vid=30211e9f-243d-4d61-8965-7b9f27f18fc6","ios":"levelo://app?vid=30211e9f-243d-4d61-8965-7b9f27f18fc6"},"vehicle_type_id":"4","last_reported":1685369169,"current_range_meters":16000,"station_id":"","pricing_plan_id":"free"},{"bike_id":"212d3630-e7ff-453a-a1e9-1b485c58aa3b","system_id":"levelo_inurba_marseille","lat":43.27996,"lon":5.416624,"is_reserved":false,"is_disabled":false,"rental_uris":{"android":"levelo://app?vid=212d3630-e7ff-453a-a1e9-1b485c58aa3b","ios":"levelo://app?vid=212d3630-e7ff-453a-a1e9-1b485c58aa3b"},"vehicle_type_id":"4","last_reported":1685369169,"current_range_meters":0,"station_id":"ce4bho12rcd13ifvqh1g","pricing_plan_id":"free"},{"bike_id":"2fd275e7-f120-4615-a5d7-f1584c5d628a","system_id":"levelo_inurba_marseille","lat":43.267966,"lon":5.393976,"is_reserved":false,"is_disabled":false,"rental_uris":{"android":"levelo://app?vid=2fd275e7-f120-4615-a5d7-f1584c5d628a","ios":"levelo://app?vid=2fd275e7-f120-4615-a5d7-f1584c5d628a"},"vehicle_type_id":"4","last_reported":1685369169,"current_range_meters":12000,"station_id":"ce4bhh12rcd13ifvqfg0","pricing_plan_id":"free"},{"bike_id":"5c4de956-ef36-400e-861e-1425de19ecb1","system_id":"levelo_inurba_marseille","lat":43.26781,"lon":5.39424,"is_reserved":false,"is_disabled":false,"rental_uris":{"android":"levelo://app?vid=5c4de956-ef36-400e-861e-1425de19ecb1","ios":"levelo://app?vid=5c4de956-ef36-400e-861e-1425de19ecb1"},"vehicle_type_id":"4","last_reported":1685369169,"current_range_meters":28000,"station_id":"","pricing_plan_id":"free"},{"bike_id":"60c18c84-3649-4205-947b-702d8f650b02","system_id":"levelo_inurba_marseille","lat":43.308,"lon":5.43516,"is_reserved":false,"is_disabled":false,"rental_uris":{"android":"levelo://app?vid=60c18c84-3649-4205-947b-702d8f650b02","ios":"levelo://app?vid=60c18c84-3649-4205-947b-702d8f650b02"},"vehicle_type_id":"4","last_reported":1685369169,"current_range_meters":23200,"station_id":"","pricing_plan_id":"free"},{"bike_id":"020e9bac-1d44-4b98-b809-6bfdeb9de9d1","system_id":"levelo_inurba_marseille","lat":43.30808,"lon":5.43521,"is_reserved":false,"is_disabled":false,"rental_uris":{"android":"levelo://app?vid=020e9bac-1d44-4b98-b809-6bfdeb9de9d1","ios":"levelo://app?vid=020e9bac-1d44-4b98-b809-6bfdeb9de9d1"},"vehicle_type_id":"4","last_reported":1685369169,"current_range_meters":4800,"station_id":"","pricing_plan_id":"free"},{"bike_id":"d1851c0a-6e9b-458b-921f-ce85e914c0c7","system_id":"levelo_inurba_marseille","lat":43.30794,"lon":5.43526,"is_reserved":false,"is_disabled":false,"rental_uris":{"android":"levelo://app?vid=d1851c0a-6e9b-458b-921f-ce85e914c0c7","ios":"levelo://app?vid=d1851c0a-6e9b-458b-921f-ce85e914c0c7"},"vehicle_type_id":"4","last_reported":1685369169,"current_range_meters":12400,"station_id":"","pricing_plan_id":"free"},{"bike_id":"9fcbfb34-69a9-46b4-aade-fb00fb17d1a0","system_id":"levelo_inurba_marseille","lat":43.265569,"lon":5.390047,"is_reserved":false,"is_disabled":false,"rental_uris":{"android":"levelo://app?vid=9fcbfb34-69a9-46b4-aade-fb00fb17d1a0","ios":"levelo://app?vid=9fcbfb34-69a9-46b4-aade-fb00fb17d1a0"},"vehicle_type_id":"4","last_reported":1685369169,"current_range_meters":24400,"station_id":"ce4bhe12rcd13ifvqf30","pricing_plan_id":"free"},{"bike_id":"0b77215d-ca37-484c-a835-28acc8c8f602","system_id":"levelo_inurba_marseille","lat":43.26561,"lon":5.39004,"is_reserved":false,"is_disabled":false,"rental_uris":{"android":"levelo://app?vid=0b77215d-ca37-484c-a835-28acc8c8f602","ios":"levelo://app?vid=0b77215d-ca37-484c-a835-28acc8c8f602"},"vehicle_type_id":"4","last_reported":1685369169,"current_range_meters":31600,"station_id":"ce4bhe12rcd13ifvqf30","pricing_plan_id":"free"},{"bike_id":"1cc7d565-8458-4d3b-b098-40665789b0b9","system_id":"levelo_inurba_marseille","lat":43.265569,"lon":5.390047,"is_reserved":false,"is_disabled":false,"rental_uris":{"android":"levelo://app?vid=1cc7d565-8458-4d3b-b098-40665789b0b9","ios":"levelo://app?vid=1cc7d565-8458-4d3b-b098-40665789b0b9"},"vehicle_type_id":"4","last_reported":1685369169,"current_range_meters":5600,"station_id":"ce4bhe12rcd13ifvqf30","pricing_plan_id":"free"},{"bike_id":"2fcc0c23-ac53-41eb-a2d4-d3336177ee7b","system_id":"levelo_inurba_marseille","lat":43.32322,"lon":5.4356,"is_reserved":false,"is_disabled":false,"rental_uris":{"android":"levelo://app?vid=2fcc0c23-ac53-41eb-a2d4-d3336177ee7b","ios":"levelo://app?vid=2fcc0c23-ac53-41eb-a2d4-d3336177ee7b"},"vehicle_type_id":"4","last_reported":1685369169,"current_range_meters":11600,"station_id":"","pricing_plan_id":"free"},{"bike_id":"c3cc2de5-e889-4c45-933f-c567fdc3fc07","system_id":"levelo_inurba_marseille","lat":43.261782,"lon":5.374515,"is_reserved":false,"is_disabled":false,"rental_uris":{"android":"levelo://app?vid=c3cc2de5-e889-4c45-933f-c567fdc3fc07","ios":"levelo://app?vid=c3cc2de5-e889-4c45-933f-c567fdc3fc07"},