{"last_updated":1708635988,"ttl":30,"version":"2.2","data":{"bikes":[{"bike_id":"6a0f8630-8d41-4d1b-9cd0-6e5f521d118c","system_id":"levelo_inurba_marseille","lat":43.312239,"lon":5.368562,"is_reserved":false,"is_disabled":false,"rental_uris":{"android":"levelo://app?vid=6a0f8630-8d41-4d1b-9cd0-6e5f521d118c","ios":"levelo://app?vid=6a0f8630-8d41-4d1b-9cd0-6e5f521d118c"},"vehicle_type_id":"4","last_reported":1708635988,"current_range_meters":30400,"station_id":"ce4bgl92rcd13ifvqbq0","pricing_plan_id":"cebpf4jnsgd1na2vs0mg"},{"bike_id":"a22b2807-0766-4e35-8fe0-849dd5555f22","system_id":"levelo_inurba_marseille","lat":43.312239,"lon":5.368562,"is_reserved":false,"is_disabled":false,"rental_uris":{"android":"levelo://app?vid=a22b2807-0766-4e35-8fe0-849dd5555f22","ios":"levelo://app?vid=a22b2807-0766-4e35-8fe0-849dd5555f22"},"vehicle_type_id":"4","last_reported":1708635988,"current_range_meters":25600,"station_id":"ce4bgl92rcd13ifvqbq0","pricing_plan_id":"cebpf4jnsgd1na2vs0mg"},{"bike_id":"d18227a0-173d-415a-807e-f3ca9021ae1e","system_id":"levelo_inurba_marseille","lat":43.314811,"lon":5.373103,"is_reserved":false,"is_disabled":false,"rental_uris":{"android":"levelo://app?vid=d18227a0-173d-415a-807e-f3ca9021ae1e","ios":"levelo://app?vid=d18227a0-173d-415a-807e-f3ca9021ae1e"},"vehicle_type_id":"4","last_reported":1708635988,"current_range_meters":0,"station_id":"ce4bgt12rcd13ifvqcd0","pricing_plan_id":"cebpf4jnsgd1na2vs0mg"},{"bike_id":"4dc81bfc-c4c1-42af-b9f7-458de1b062be","system_id":"levelo_inurba_marseille","lat":43.314913,"lon":5.373074,"is_reserved":false,"is_disabled":false,"rental_uris":{"android":"levelo://app?vid=4dc81bfc-c4c1-42af-b9f7-458de1b062be","ios":"levelo://app?vid=4dc81bfc-c4c1-42af-b9f7-458de1b062be"},"vehicle_type_id":"4","last_reported":1708635988,"current_range_meters":2000,"station_id":"ce4bgt12rcd13ifvqcd0","pricing_plan_id":"cebpf4jnsgd1na2vs0mg"},{"bike_id":"99815800-d115-435f-a6a5-78c05eb26021","system_id":"levelo_inurba_marseille","lat":43.314811,"lon":5.373104,"is_reserved":false,"is_disabled":false,"rental_uris":{"android":"levelo://app?vid=99815800-d115-435f-a6a5-78c05eb26021","ios":"levelo://app?vid=99815800-d115-435f-a6a5-78c05eb26021"},"vehicle_type_id":"4","last_reported":1708635988,"current_range_meters":23600,"station_id":"ce4bgt12rcd13ifvqcd0","pricing_plan_id":"cebpf4jnsgd1na2vs0mg"},{"bike_id":"7d8332d7-456c-4187-a1f5-1419b8f13f02","system_id":"levelo_inurba_marseille","lat":43.309039,"lon":5.371797,"is_reserved":false,"is_disabled":false,"rental_uris":{"android":"levelo://app?vid=7d8332d7-456c-4187-a1f5-1419b8f13f02","ios":"levelo://app?vid=7d8332d7-456c-4187-a1f5-1419b8f13f02"},"vehicle_type_id":"4","last_reported":1708635988,"current_range_meters":10400,"station_id":"ce4bguh2rcd13ifvqckg","pricing_plan_id":"cebpf4jnsgd1na2vs0mg"},{"bike_id":"b96bfb73-a671-445f-9d7b-0950d5284968","system_id":"levelo_inurba_marseille","lat":43.30537,"lon":5.367345,"is_reserved":false,"is_disabled":false,"rental_uris":{"android":"levelo://app?vid=b96bfb73-a671-445f-9d7b-0950d5284968","ios":"levelo://app?vid=b96bfb73-a671-445f-9d7b-0950d5284968"},"vehicle_type_id":"4","last_reported":1708635988,"current_range_meters":10800,"station_id":"ce4bgrp2rcd13ifvqc9g","pricing_plan_id":"cebpf4jnsgd1na2vs0mg"},{"bike_id":"001f5559-d656-4f07-a1fc-3c3d02d0465f","system_id":"levelo_inurba_marseille","lat":43.305989,"lon":5.37225,"is_reserved":false,"is_disabled":false,"rental_uris":{"android":"levelo://app?vid=001f5559-d656-4f07-a1fc-3c3d02d0465f","ios":"levelo://app?vid=001f5559-d656-4f07-a1fc-3c3d02d0465f"},"vehicle_type_id":"4","last_reported":1708635988,"current_range_meters":15200,"station_id":"ce4bgqh2rcd13ifvqc4g","pricing_plan_id":"cebpf4jnsgd1na2vs0mg"},{"bike_id":"cd333de3-a2a0-4460-9fc2-38fe536f47d0","system_id":"levelo_inurba_marseille","lat":43.305989,"lon":5.37225,"is_reserved":false,"is_disabled":false,"rental_uris":{"android":"levelo://app?vid=cd333de3-a2a0-4460-9fc2-38fe536f47d0","ios":"levelo://app?vid=cd333de3-a2a0-4460-9fc2-38fe536f47d0"},"vehicle_type_id":"4","last_reported":1708635988,"current_range_meters":28800,"station_id":"ce4bgqh2rcd13ifvqc4g","pricing_plan_id":"cebpf4jnsgd1na2vs0mg"},{"bike_id":"fd8b71b2-1069-4af1-b394-a11d11bdc971","system_id":"levelo_inurba_marseille","lat":43.305989,"lon":5.37225,"is_reserved":false,"is_disabled":false,"rental_uris":{"android":"levelo://app?vid=fd8b71b2-1069-4af1-b394-a11d11bdc971","ios":"levelo://app?vid=fd8b71b2-1069-4af1-b394-a11d11bdc971"},"vehicle_type_id":"4","last_reported":1708635988,"current_range_meters":27200,"station_id":"ce4bgqh2rcd13ifvqc4g","pricing_plan_id":"cebpf4jnsgd1na2vs0mg"},{"bike_id":"719c53cf-3860-4577-ae63-cfbbaa67f2d5","system_id":"levelo_inurba_marseille","lat":43.311125,"lon":5.377624,"is_reserved":false,"is_disabled":false,"rental_uris":{"android":"levelo://app?vid=719c53cf-3860-4577-ae63-cfbbaa67f2d5","ios":"levelo://app?vid=719c53cf-3860-4577-ae63-cfbbaa67f2d5"},"vehicle_type_id":"4","last_reported":1708635988,"current_range_meters":31200,"station_id":"ce4bgt92rcd13ifvqcg0","pricing_plan_id":"cebpf4jnsgd1na2vs0mg"},{"bike_id":"c7db3d2c-47bd-409f-9ffa-50ae589c31fe","system_id":"levelo_inurba_marseille","lat":43.305989,"lon":5.37225,"is_reserved":false,"is_disabled":false,"rental_uris":{"android":"levelo://app?vid=c7db3d2c-47bd-409f-9ffa-50ae589c31fe","ios":"levelo://app?vid=c7db3d2c-47bd-409f-9ffa-50ae589c31fe"},"vehicle_type_id":"4","last_reported":1708635988,"current_range_meters":27200,"station_id":"ce4bgqh2rcd13ifvqc4g","pricing_plan_id":"cebpf4jnsgd1na2vs0mg"},{"bike_id":"a473ebe9-adbb-4030-a0b7-3563f73e4dfb","system_id":"levelo_inurba_marseille","lat":43.305989,"lon":5.37225,"is_reserved":false,"is_disabled":false,"rental_uris":{"android":"levelo://app?vid=a473ebe9-adbb-4030-a0b7-3563f73e4dfb","ios":"levelo://app?vid=a473ebe9-adbb-4030-a0b7-3563f73e4dfb"},"vehicle_type_id":"4","last_reported":1708635988,"current_range_meters":31200,"station_id":"ce4bgqh2rcd13ifvqc4g","pricing_plan_id":"cebpf4jnsgd1na2vs0mg"},{"bike_id":"8799c8ce-10cf-4112-b2c5-ba1743e65689","system_id":"levelo_inurba_marseille","lat":43.26949,"lon":5.40262,"is_reserved":false,"is_disabled":false,"rental_uris":{"android":"levelo://app?vid=8799c8ce-10cf-4112-b2c5-ba1743e65689","ios":"levelo://app?vid=8799c8ce-10cf-4112-b2c5-ba1743e65689"},"vehicle_type_id":"4","last_reported":1708635988,"current_range_meters":16400,"station_id":"cjm6bp8fraef2m0cb0m0","pricing_plan_id":"cebpf4jnsgd1na2vs0mg"},{"bike_id":"bf7c23ae-260c-4689-8bbb-38fa449588b0","system_id":"levelo_inurba_marseille","lat":43.311131,"lon":5.377651,"is_reserved":false,"is_disabled":false,"rental_uris":{"android":"levelo://app?vid=bf7c23ae-260c-4689-8bbb-38fa449588b0","ios":"levelo://app?vid=bf7c23ae-260c-4689-8bbb-38fa449588b0"},"vehicle_type_id":"4","last_reported":1708635988,"current_range_meters":11200,"station_id":"ce4bgt92rcd13ifvqcg0","pricing_plan_id":"cebpf4jnsgd1na2vs0mg"},{"bike_id":"e3ab630a-d421-452c-a23b-21c3b884ce10","system_id":"levelo_inurba_marseille","lat":43.311131,"lon":5.377651,"is_reserved":false,"is_disabled":false,"rental_uris":{"android":"levelo://app?vid=e3ab630a-d421-452c-a23b-21c3b884ce10","ios":"levelo://app?vid=e3ab630a-d421-452c-a23b-21c3b884ce10"},"vehicle_type_id":"4","last_reported":1708635988,"current_range_meters":5600,"station_id":"ce4bgt92rcd13ifvqcg0","pricing_plan_id":"cebpf4jnsgd1na2vs0mg"},{"bike_id":"55acfb6e-7982-4848-bd21-448b46a8aee9","system_id":"levelo_inurba_marseille","lat":43.311213,"lon":5.377778,"is_reserved":false,"is_disabled":false,"rental_uris":{"android":"levelo://app?vid=55acfb6e-7982-4848-bd21-448b46a8aee9","ios":"levelo://app?vid=55acfb6e-7982-4848-bd21-448b46a8aee9"},"vehicle_type_id":"4","last_reported":1708635988,"current_range_meters":17200,"station_id":"ce4bgt92rcd13ifvqcg0","pricing_plan_id":"cebpf4jnsgd1na2vs0mg"},{"bike_id":"dc22c28f-522a-4fb4-b7ab-c6251b90de82","system_id":"levelo_inurba_marseille","lat":43.31654,"lon":5.37675,"is_reserved":false,"is_disabled":false,"rental_uris":{"android":"levelo://app?vid=dc22c28f-522a-4fb4-b7ab-c6251b90de82","ios":"levelo://app?vid=dc22c28f-522a-4fb4-b7ab-c6251b90de82"},"vehicle_type_id":"4","last_reported":1708635988,"current_range_meters":22400,"station_id":"","pricing_plan_id":"cebpf4jnsgd1na2vs0mg"},{"bike_id":"6356d138-f96c-4ece-b202-d8da273c62ab","system_id":"levelo_inurba_marseille","lat":43.316582,"lon":5.376807,"is_reserved":false,"is_disabled":false,"rental_uris":{"android":"levelo://app?vid=6356d138-f96c-4ece-b202-d8da273c62ab","ios":"levelo://app?vid=6356d138-f96c-4ece-b202-d8da273c62ab"},"vehicle_type_id":"4","last_reported":1708635988,"current_range_meters":7200,"station_id":"","pricing_plan_id":"cebpf4jnsgd1na2vs0mg"},{"bike_id":"1ca9e356-c273-43b8-a353-159ecf3eff31","system_id":"levelo_inurba_marseille","lat":43.307945,"lon":5.376487,"is_reserved":false,"is_disabled":false,"rental_uris":{"android":"levelo://app?vid=1ca9e356-c273-43b8-a353-159ecf3eff31","ios":"levelo://app?vid=1ca9e356-c273-43b8-a353-159ecf3eff31"},"vehicle_type_id":"4","last_reported":1708635988,"current_range_meters":26000,"station_id":"ce4bgv92rcd13ifvqcq0","pricing_plan_id":"cebpf4jnsgd1na2vs0mg"},{"bike_id":"84580660-a058-4292-8790-ba764457059b","system_id":"levelo_inurba_marseille","lat":43.307945,"lon":5.376487,"is_reserved":false,"is_disabled":false,"rental_uris":{"android":"levelo://app?vid=84580660-a058-4292-8790-ba764457059b","ios":"levelo://app?vid=84580660-a058-4292-8790-ba764457059b"},"vehicle_type_id":"4","last_reported":1708635988,"current_range_meters":8000,"station_id":"ce4bgv92rcd13ifvqcq0","pricing_plan_id":"cebpf4jnsgd1na2vs0mg"},{"bike_id":"0fc8b565-a7de-4f84-92d5-8b4c6d3b333a","system_id":"levelo_inurba_marseille","lat":43.307945,"lon":5.376487,"is_reserved":false,"is_disabled":false,"rental_uris":{"android":"levelo://app?vid=0fc8b565-a7de-4f84-92d5-8b4c6d3b333a","ios":"levelo://app?vid=0fc8b565-a7de-4f84-92d5-8b4c6d3b333a"},"vehicle_type_id":"4","last_reported":1708635988,"current_range_meters":20000,"station_id":"ce4bgv92rcd13ifvqcq0","pricing_plan_id":"cebpf4jnsgd1na2vs0mg"},{"bike_id":"d226a3e9-2ea4-458f-85a4-c185a83c3be1","system_id":"levelo_inurba_marseille","lat":43.307945,"lon":5.376487,"is_reserved":false,"is_disabled":false,"rental_uris":{"android":"levelo://app?vid=d226a3e9-2ea4-458f-85a4-c185a83c3be1","ios":"levelo://app?vid=d226a3e9-2ea4-458f-85a4-c185a83c3be1"},"vehicle_type_id":"4","last_reported":1708635988,"current_range_meters":31200,"station_id":"ce4bgv92rcd13ifvqcq0","pricing_plan_id":"cebpf4jnsgd1na2vs0mg"},{"bike_id":"d089134b-b67c-4a76-b1e0-0906a0e38d1e","system_id":"levelo_inurba_marseille","lat":43.307945,"lon":5.376487,"is_reserved":false,"is_disabled":false,"rental_uris":{"android":"levelo://app?vid=d089134b-b67c-4a76-b1e0-0906a0e38d1e","ios":"levelo://app?vid=d089134b-b67c-4a76-b1e0-0906a0e38d1e"},"vehicle_type_id":"4","last_reported":1708635988,"current_range_meters":31600,"station_id":"ce4bgv92rcd13ifvqcq0","pricing_plan_id":"cebpf4jnsgd1na2vs0mg"},{"bike_id":"02c37c30-5e3e-4dfc-912d-a57b6b0b7210","system_id":"levelo_inurba_marseille","lat":43.316977,"lon":5.377357,"is_reserved":false,"is_disabled":false,"rental_uris":{"android":"levelo://app?vid=02c37c30-5e3e-4dfc-912d-a57b6b0b7210","ios":"levelo://app?vid=02c37c30-5e3e-4dfc-912d-a57b6b0b7210"},"vehicle_type_id":"4","last_reported":1708635988,"current_range_meters":0,"station_id":"ce4bgth2rcd13ifvqch0","pricing_plan_id":"cebpf4jnsgd1na2vs0mg"},{"bike_id":"784ba9ef-a94e-4130-9268-63f9d4fb84bd","system_id":"levelo_inurba_marseille","lat":43.317075,"lon":5.377367,"is_reserved":false,"is_disabled":false,"rental_uris":{"android":"levelo://app?vid=784ba9ef-a94e-4130-9268-63f9d4fb84bd","ios":"levelo://app?vid=784ba9ef-a94e-4130-9268-63f9d4fb84bd"},"vehicle_type_id":"4","last_reported":1708635988,"current_range_meters":31200,"station_id":"ce4bgth2rcd13ifvqch0","pricing_plan_id":"cebpf4jnsgd1na2vs0mg"},{"bike_id":"19471511-c2f0-4722-baf8-b99f52ac227f","system_id":"levelo_inurba_marseille","lat":43.31707,"lon":5.37752,"is_reserved":false,"is_disabled":false,"rental_uris":{"android":"levelo://app?vid=19471511-c2f0-4722-baf8-b99f52ac227f","ios":"levelo://app?vid=19471511-c2f0-4722-baf8-b99f52ac227f"},"vehicle_type_id":"4","last_reported":1708635988,"current_range_meters":24400,"station_id":"ce4bgth2rcd13ifvqch0","pricing_plan_id":"cebpf4jnsgd1na2vs0mg"},{"bike_id":"a3d97431-60af-4c37-a8d2-2a48fb22542f","system_id":"levelo_inurba_marseille","lat":43.317075,"lon":5.377367,"is_reserved":false,"is_disabled":false,"rental_uris":{"android":"levelo://app?vid=a3d97431-60af-4c37-a8d2-2a48fb22542f","ios":"levelo://app?vid=a3d97431-60af-4c37-a8d2-2a48fb22542f"},"vehicle_type_id":"4","last_reported":1708635988,"current_range_meters":28000,"station_id":"ce4bgth2rcd13ifvqch0","pricing_plan_id":"cebpf4jnsgd1na2vs0mg"},{"bike_id":"53c3aaab-2a7f-4f2d-92f3-79e85f30157c","system_id":"levelo_inurba_marseille","lat":43.31705,"lon":5.37763,"is_reserved":false,"is_disabled":false,"rental_uris":{"android":"levelo://app?vid=53c3aaab-2a7f-4f2d-92f3-79e85f30157c","ios":"levelo://app?vid=53c3aaab-2a7f-4f2d-92f3-79e85f30157c"},"vehicle_type_id":"4","last_reported":1708635988,"current_range_meters":11200,"station_id":"ce4bgth2rcd13ifvqch0","pricing_plan_id":"cebpf4jnsgd1na2vs0mg"},{"bike_id":"9471953b-bdf2-4116-9dc1-47f2e571a337","system_id":"levelo_inurba_marseille","lat":43.317075,"lon":5.377367,"is_reserved":false,"is_disabled":false,"rental_uris":{"android":"levelo://app?vid=9471953b-bdf2-4116-9dc1-47f2e571a337","ios":"levelo://app?vid=9471953b-bdf2-4116-9dc1-47f2e571a337"},"vehicle_type_id":"4","last_reported":1708635988,"current_range_meters":30400,"station_id":"ce4bgth2rcd13ifvqch0","pricing_plan_id":"cebpf4jnsgd1na2vs0mg"},{"bike_id":"c971bc8d-ec43-43a2-8e77-b324a90dd73c","system_id":"levelo_inurba_marseille","lat":43.315293,"lon":5.380349,"is_reserved":false,"is_disabled":false,"rental_uris":{"android":"levelo://app?vid=c971bc8d-ec43-43a2-8e77-b324a90dd73c","ios":"levelo://app?vid=c971bc8d-ec43-43a2-8e77-b324a90dd73c"},"vehicle_type_id":"4","last_reported":1708635988,"current_range_meters":28000,"station_id":"ce4bhsp2rcd13ifvqi50","pricing_plan_id":"cebpf4jnsgd1na2vs0mg"},{"bike_id":"4736366e-9110-41d5-a463-c243a60ee6f1","system_id":"levelo_inurba_marseille","lat":43.301939,"lon":5.366286,"is_reserved":false,"is_disabled":false,"rental_uris":{"android":"levelo://app?vid=4736366e-9110-41d5-a463-c243a60ee6f1","ios":"levelo://app?vid=4736366e-9110-41d5-a463-c243a60ee6f1"},"vehicle_type_id":"4","last_reported":1708635988,"current_range_meters":25200,"station_id":"ce4bgrh2rcd13ifvqc8g","pricing_plan_id":"cebpf4jnsgd1na2vs0mg"},{"bike_id":"e6fa7e20-0587-4d89-8d32-99273ed1d2db","system_id":"levelo_inurba_marseille","lat":43.308012,"lon":5.381511,"is_reserved":false,"is_disabled":false,"rental_uris":{"android":"levelo://app?vid=e6fa7e20-0587-4d89-8d32-99273ed1d2db","ios":"levelo://app?vid=e6fa7e20-0587-4d89-8d32-99273ed1d2db"},"vehicle_type_id":"4","last_reported":1708635988,"current_range_meters":20400,"station_id":"ce4bgt12rcd13ifvqce0","pricing_plan_id":"cebpf4jnsgd1na2vs0mg"},{"bike_id":"122a5c77-bc6a-49c4-b529-e61ed5ff073d","system_id":"levelo_inurba_marseille","lat":43.30801,"lon":5.38146,"is_reserved":false,"is_disabled":false,"rental_uris":{"android":"levelo://app?vid=122a5c77-bc6a-49c4-b529-e61ed5ff073d","ios":"levelo://app?vid=122a5c77-bc6a-49c4-b529-e61ed5ff073d"},"vehicle_type_id":"4","last_reported":1708635988,"current_range_meters":21600,"station_id":"ce4bgt12rcd13ifvqce0","pricing_plan_id":"cebpf4jnsgd1na2vs0mg"},{"bike_id":"4b7d76f1-c1ee-4bb7-9950-9059c4834c27","system_id":"levelo_inurba_marseille","lat":43.308012,"lon":5.381511,"is_reserved":false,"is_disabled":false,"rental_uris":{"android":"levelo://app?vid=4b7d76f1-c1ee-4bb7-9950-9059c4834c27","ios":"levelo://app?vid=4b7d76f1-c1ee-4bb7-9950-9059c4834c27"},"vehicle_type_id":"4","last_reported":1708635988,"current_range_meters":9600,"station_id":"ce4bgt12rcd13ifvqce0","pricing_plan_id":"cebpf4jnsgd1na2vs0mg"},{"bike_id":"598d9056-adab-4d1e-a0c0-671ee5f2b4b0","system_id":"levelo_inurba_marseille","lat":43.304606,"lon":5.379026,"is_reserved":false,"is_disabled":false,"rental_uris":{"android":"levelo://app?vid=598d9056-adab-4d1e-a0c0-671ee5f2b4b0","ios":"levelo://app?vid=598d9056-adab-4d1e-a0c0-671ee5f2b4b0"},"vehicle_type_id":"4","last_reported":1708635988,"current_range_meters":11200,"station_id":"ce4bgup2rcd13ifvqcn0","pricing_plan_id":"cebpf4jnsgd1na2vs0mg"},{"bike_id":"3dfc36d9-8a4f-4bf4-94f1-32c9f432d83e","system_id":"levelo_inurba_marseille","lat":43.304606,"lon":5.379026,"is_reserved":false,"is_disabled":false,"rental_uris":{"android":"levelo://app?vid=3dfc36d9-8a4f-4bf4-94f1-32c9f432d83e","ios":"levelo://app?vid=3dfc36d9-8a4f-4bf4-94f1-32c9f432d83e"},"vehicle_type_id":"4","last_reported":1708635988,"current_range_meters":22000,"station_id":"ce4bgup2rcd13ifvqcn0","pricing_plan_id":"cebpf4jnsgd1na2vs0mg"},{"bike_id":"f2cff5d1-a87e-43e1-8ace-015f611533e5","system_id":"levelo_inurba_marseille","lat":43.324824,"lon":5.365764,"is_reserved":false,"is_disabled":false,"rental_uris":{"android":"levelo://app?vid=f2cff5d1-a87e-43e1-8ace-015f611533e5","ios":"levelo://app?vid=f2cff5d1-a87e-43e1-8ace-015f611533e5"},"vehicle_type_id":"4","last_reported":1708635988,"current_range_meters":4800,"station_id":"ce4bhs12rcd13ifvqhvg","pricing_plan_id":"cebpf4jnsgd1na2vs0mg"},{"bike_id":"6c581da6-d340-44bb-8dcf-2d6491d8b2b7","system_id":"levelo_inurba_marseille","lat":43.324835,"lon":5.365555,"is_reserved":false,"is_disabled":false,"rental_uris":{"android":"levelo://app?vid=6c581da6-d340-44bb-8dcf-2d6491d8b2b7","ios":"levelo://app?vid=6c581da6-d340-44bb-8dcf-2d6491d8b2b7"},"vehicle_type_id":"4","last_reported":1708635988,"current_range_meters":17600,"station_id":"ce4bhs12rcd13ifvqhvg","pricing_plan_id":"cebpf4jnsgd1na2vs0mg"},{"bike_id":"c4c6bcd0-4b76-4c63-8b4c-c82041e51b34","system_id":"levelo_inurba_marseille","lat":43.308012,"lon":5.381511,"is_reserved":false,"is_disabled":false,"rental_uris":{"android":"levelo://app?vid=c4c6bcd0-4b76-4c63-8b4c-c82041e51b34","ios":"levelo://app?vid=c4c6bcd0-4b76-4c63-8b4c-c82041e51b34"},"vehicle_type_id":"4","last_reported":1708635988,"current_range_meters":28000,"station_id":"ce4bgt12rcd13ifvqce0","pricing_plan_id":"cebpf4jnsgd1na2vs0mg"},{"bike_id":"0d723762-8a1c-4244-994b-0ad0215d9f94","system_id":"levelo_inurba_marseille","lat":43.3107,"lon":5.38353,"is_reserved":false,"is_disabled":false,"rental_uris":{"android":"levelo://app?vid=0d723762-8a1c-4244-994b-0ad0215d9f94","ios":"levelo://app?vid=0d723762-8a1c-4244-994b-0ad0215d9f94"},"vehicle_type_id":"4","last_reported":1708635988,"current_range_meters":5600,"station_id":"ce4bgv92rcd13ifvqcr0","pricing_plan_id":"cebpf4jnsgd1na2vs0mg"},{"bike_id":"fa14e3f8-8b06-4b99-8f40-b750af6ab2ec","system_id":"levelo_inurba_marseille","lat":43.31071,"lon":5.38358,"is_reserved":false,"is_disabled":false,"rental_uris":{"android":"levelo://app?vid=fa14e3f8-8b06-4b99-8f40-b750af6ab2ec","ios":"levelo://app?vid=fa14e3f8-8b06-4b99-8f40-b750af6ab2ec"},"vehicle_type_id":"4","last_reported":1708635988,"current_range_meters":5600,"station_id":"ce4bgv92rcd13ifvqcr0","pricing_plan_id":"cebpf4jnsgd1na2vs0mg"},{"bike_id":"d29d6be7-ef53-41c1-9d3a-d2b5921e273f","system_id":"levelo_inurba_marseille","lat":43.310804,"lon":5.38359,"is_reserved":false,"is_disabled":false,"rental_uris":{"android":"levelo://app?vid=d29d6be7-ef53-41c1-9d3a-d2b5921e273f","ios":"levelo://app?vid=d29d6be7-ef53-41c1-9d3a-d2b5921e273f"},"vehicle_type_id":"4","last_reported":1708635988,"current_range_meters":31200,"station_id":"ce4bgv92rcd13ifvqcr0","pricing_plan_id":"cebpf4jnsgd1na2vs0mg"},{"bike_id":"e95c1efa-a860-4eaa-a813-f3976a58a6ae","system_id":"levelo_inurba_marseille","lat":43.31079,"lon":5.38364,"is_reserved":false,"is_disabled":false,"rental_uris":{"android":"levelo://app?vid=e95c1efa-a860-4eaa-a813-f3976a58a6ae","ios":"levelo://app?vid=e95c1efa-a860-4eaa-a813-f3976a58a6ae"},"vehicle_type_id":"4","last_reported":1708635988,"current_range_meters":21200,"station_id":"","pricing_plan_id":"cebpf4jnsgd1na2vs0mg"},{"bike_id":"27a61dfa-be17-473b-8406-4c195b68294d","system_id":"levelo_inurba_marseille","lat":43.30143,"lon":5.37413,"is_reserved":false,"is_disabled":false,"rental_uris":{"android":"levelo://app?vid=27a61dfa-be17-473b-8406-4c195b68294d","ios":"levelo://app?vid=27a61dfa-be17-473b-8406-4c195b68294d"},"vehicle_type_id":"4","last_reported":1708635988,"current_range_meters":14000,"station_id":"ce4bgs92rcd13ifvqcc0","pricing_plan_id":"cebpf4jnsgd1na2vs0mg"},{"bike_id":"d9184733-ea97-49f0-ad96-5d885ac17605","system_id":"levelo_inurba_marseille","lat":43.302787,"lon":5.377087,"is_reserved":false,"is_disabled":false,"rental_uris":{"android":"levelo://app?vid=d9184733-ea97-49f0-ad96-5d885ac17605","ios":"levelo://app?vid=d9184733-ea97-49f0-ad96-5d885ac17605"},"vehicle_type_id":"4","last_reported":1708635988,"current_range_meters":28400,"station_id":"ce4bguh2rcd13ifvqcj0","pricing_plan_id":"cebpf4jnsgd1na2vs0mg"},{"bike_id":"89dce68d-f425-4703-850b-b7e081ce5860","system_id":"levelo_inurba_marseille","lat":43.30143,"lon":5.37413,"is_reserved":false,"is_disabled":false,"rental_uris":{"android":"levelo://app?vid=89dce68d-f425-4703-850b-b7e081ce5860","ios":"levelo://app?vid=89dce68d-f425-4703-850b-b7e081ce5860"},"vehicle_type_id":"4","last_reported":1708635988,"current_range_meters":6000,"station_id":"ce4bgs92rcd13ifvqcc0","pricing_plan_id":"cebpf4jnsgd1na2vs0mg"},{"bike_id":"0e344cb0-023c-41a2-a8b0-19d4e184e520","system_id":"levelo_inurba_marseille","lat":43.30137,"lon":5.37396,"is_reserved":false,"is_disabled":false,"rental_uris":{"android":"levelo://app?vid=0e344cb0-023c-41a2-a8b0-19d4e184e520","ios":"levelo://app?vid=0e344cb0-023c-41a2-a8b0-19d4e184e520"},"vehicle_type_id":"4","last_reported":1708635988,"current_range_meters":8400,"station_id":"ce4bgs92rcd13ifvqcc0","pricing_plan_id":"cebpf4jnsgd1na2vs0mg"},{"bike_id":"76cb3c24-5e51-42a4-8fa3-c5cd762ab669","system_id":"levelo_inurba_marseille","lat":43.30664,"lon":5.38188,"is_reserved":false,"is_disabled":false,"rental_uris":{"android":"levelo://app?vid=76cb3c24-5e51-42a4-8fa3-c5cd762ab669","ios":"levelo://app?vid=76cb3c24-5e51-42a4-8fa3-c5cd762ab669"},"vehicle_type_id":"4","last_reported":1708635988,"current_range_meters":19200,"station_id":"","pricing_plan_id":"cebpf4jnsgd1na2vs0mg"},{"bike_id":"a613c2fa-2692-4eef-93d8-bb15286b957b","system_id":"levelo_inurba_marseille","lat":43.301429,"lon":5.37413,"is_reserved":false,"is_disabled":false,"rental_uris":{"android":"levelo://app?vid=a613c2fa-2692-4eef-93d8-bb15286b957b","ios":"levelo://app?vid=a613c2fa-2692-4eef-93d8-bb15286b957b"},"vehicle_type_id":"4","last_reported":1708635988,"current_range_meters":8800,"station_id":"ce4bgs92rcd13ifvqcc0","pricing_plan_id":"cebpf4jnsgd1na2vs0mg"},{"bike_id":"c75bb2f9-92f1-4e01-94d7-9cf86be77a62","system_id":"levelo_inurba_marseille","lat":43.30143,"lon":5.37413,"is_reserved":false,"is_disabled":false,"rental_uris":{"android":"levelo://app?vid=c75bb2f9-92f1-4e01-94d7-9cf86be77a62","ios":"levelo://app?vid=c75bb2f9-92f1-4e01-94d7-9cf86be77a62"},"vehicle_type_id":"4","last_reported":1708635988,"current_range_meters":18400,"station_id":"ce4bgs92rcd13ifvqcc0","pricing_plan_id":"cebpf4jnsgd1na2vs0mg"},{"bike_id":"63ffe8b6-3ebc-43a3-8437-530d0d29d818","system_id":"levelo_inurba_marseille","lat":43.311009,"lon":5.383939,"is_reserved":false,"is_disabled":false,"rental_uris":{"android":"levelo://app?vid=63ffe8b6-3ebc-43a3-8437-530d0d29d818","ios":"levelo://app?vid=63ffe8b6-3ebc-43a3-8437-530d0d29d818"},"vehicle_type_id":"4","last_reported":1708635988,"current_range_meters":17200,"station_id":"ce4bgv92rcd13ifvqcr0","pricing_plan_id":"cebpf4jnsgd1na2vs0mg"},{"bike_id":"fc29ef10-9253-4446-ac8b-ed708a59fe2b","system_id":"levelo_inurba_marseille","lat":43.301429,"lon":5.37413,"is_reserved":false,"is_disabled":false,"rental_uris":{"android":"levelo://app?vid=fc29ef10-9253-4446-ac8b-ed708a59fe2b","ios":"levelo://app?vid=fc29ef10-9253-4446-ac8b-ed708a59fe2b"},"vehicle_type_id":"4","last_reported":1708635988,"current_range_meters":4000,"station_id":"ce4bgs92rcd13ifvqcc0","pricing_plan_id":"cebpf4jnsgd1na2vs0mg"},{"bike_id":"7e1fc46e-40b7-4a4b-b5b5-a7a6e0003946","system_id":"levelo_inurba_marseille","lat":43.301429,"lon":5.37413,"is_reserved":false,"is_disabled":false,"rental_uris":{"android":"levelo://app?vid=7e1fc46e-40b7-4a4b-b5b5-a7a6e0003946","ios":"levelo://app?vid=7e1fc46e-40b7-4a4b-b5b5-a7a6e0003946"},"vehicle_type_id":"4","last_reported":1708635988,"current_range_meters":18800,"station_id":"ce4bgs92rcd13ifvqcc0","pricing_plan_id":"cebpf4jnsgd1na2vs0mg"},{"bike_id":"46f549a0-516f-47b2-a61d-660f799aaf80","system_id":"levelo_inurba_marseille","lat":43.301429,"lon":5.37413,"is_reserved":false,"is_disabled":false,"rental_uris":{"android":"levelo://app?vid=46f549a0-516f-47b2-a61d-660f799aaf80","ios":"levelo://app?vid=46f549a0-516f-47b2-a61d-660f799aaf80"},"vehicle_type_id":"4","last_reported":1708635988,"current_range_meters":22000,"station_id":"ce4bgs92rcd13ifvqcc0","pricing_plan_id":"cebpf4jnsgd1na2vs0mg"},{"bike_id":"10492e21-eb4e-414c-88a6-8ea8051d80cc","system_id":"levelo_inurba_marseille","lat":43.301429,"lon":5.37413,"is_reserved":false,"is_disabled":false,"rental_uris":{"android":"levelo://app?vid=10492e21-eb4e-414c-88a6-8ea8051d80cc","ios":"levelo://app?vid=10492e21-eb4e-414c-88a6-8ea8051d80cc"},"vehicle_type_id":"4","last_reported":1708635988,"current_range_meters":6800,"station_id":"ce4bgs92rcd13ifvqcc0","pricing_plan_id":"cebpf4jnsgd1na2vs0mg"},{"bike_id":"c189dd68-f0f7-45f5-99a2-d0665b20dd0e","system_id":"levelo_inurba_marseille","lat":43.30267,"lon":5.37722,"is_reserved":false,"is_disabled":false,"rental_uris":{"android":"levelo://app?vid=c189dd68-f0f7-45f5-99a2-d0665b20dd0e","ios":"levelo://app?vid=c189dd68-f0f7-45f5-99a2-d0665b20dd0e"},"vehicle_type_id":"4","last_reported":1708635988,"current_range_meters":10400,"station_id":"ce4bhs92rcd13ifvqi0g","pricing_plan_id":"cebpf4jnsgd1na2vs0mg"},{"bike_id":"0d9981d3-df87-439b-800d-c2dd8eb275f4","system_id":"levelo_inurba_marseille","lat":43.30271,"lon":5.37741,"is_reserved":false,"is_disabled":false,"rental_uris":{"android":"levelo://app?vid=0d9981d3-df87-439b-800d-c2dd8eb275f4","ios":"levelo://app?vid=0d9981d3-df87-439b-800d-c2dd8eb275f4"},"vehicle_type_id":"4","last_reported":1708635988,"current_range_meters":4000,"station_id":"ce4bhs92rcd13ifvqi0g","pricing_plan_id":"cebpf4jnsgd1na2vs0mg"},{"bike_id":"831dea4f-4164-42df-9eec-d824f361ec4b","system_id":"levelo_inurba_marseille","lat":43.30267,"lon":5.37738,"is_reserved":false,"is_disabled":false,"rental_uris":{"android":"levelo://app?vid=831dea4f-4164-42df-9eec-d824f361ec4b","ios":"levelo://app?vid=831dea4f-4164-42df-9eec-d824f361ec4b"},"vehicle_type_id":"4","last_reported":1708635988,"current_range_meters":1200,"station_id":"ce4bhs92rcd13ifvqi0g","pricing_plan_id":"cebpf4jnsgd1na2vs0mg"},{"bike_id":"628c6b4e-37a3-4c76-904f-64c7d31481f0","system_id":"levelo_inurba_marseille","lat":43.30257,"lon":5.37749,"is_reserved":false,"is_disabled":false,"rental_uris":{"android":"levelo://app?vid=628c6b4e-37a3-4c76-904f-64c7d31481f0","ios":"levelo://app?vid=628c6b4e-37a3-4c76-904f-64c7d31481f0"},"vehicle_type_id":"4","last_reported":1708635988,"current_range_meters":2800,"station_id":"ce4bhs92rcd13ifvqi0g","pricing_plan_id":"cebpf4jnsgd1na2vs0mg"},{"bike_id":"2dfb92cc-ea3b-4091-8c27-ecfa50d3effe","system_id":"levelo_inurba_marseille","lat":43.31998,"lon":5.38151,"is_reserved":false,"is_disabled":false,"rental_uris":{"android":"levelo://app?vid=2dfb92cc-ea3b-4091-8c27-ecfa50d3effe","ios":"levelo://app?vid=2dfb92cc-ea3b-4091-8c27-ecfa50d3effe"},"vehicle_type_id":"4","last_reported":1708635988,"current_range_meters":0,"station_id":"ce4bhr12rcd13ifvqhpg","pricing_plan_id":"cebpf4jnsgd1na2vs0mg"},{"bike_id":"b3a61e87-97bb-40f7-8721-d3e6aeb7357d","system_id":"levelo_inurba_marseille","lat":43.319935,"lon":5.381699,"is_reserved":false,"is_disabled":false,"rental_uris":{"android":"levelo://app?vid=b3a61e87-97bb-40f7-8721-d3e6aeb7357d","ios":"levelo://app?vid=b3a61e87-97bb-40f7-8721-d3e6aeb7357d"},"vehicle_type_id":"4","last_reported":1708635988,"current_range_meters":22800,"station_id":"ce4bhr12rcd13ifvqhpg","pricing_plan_id":"cebpf4jnsgd1na2vs0mg"},{"bike_id":"9836b0ae-f64e-4294-83db-40b9ed355c28","system_id":"levelo_inurba_marseille","lat":43.299222,"lon":5.365554,"is_reserved":false,"is_disabled":false,"rental_uris":{"android":"levelo://app?vid=9836b0ae-f64e-4294-83db-40b9ed355c28","ios":"levelo://app?vid=9836b0ae-f64e-4294-83db-40b9ed355c28"},"vehicle_type_id":"4","last_reported":1708635988,"current_range_meters":9200,"station_id":"ce4bgm92rcd13ifvqbr0","pricing_plan_id":"cebpf4jnsgd1na2vs0mg"},{"bike_id":"3dc058ec-c688-4baf-9d8b-b3ff32477792","system_id":"levelo_inurba_marseille","lat":43.299774,"lon":5.371764,"is_reserved":false,"is_disabled":false,"rental_uris":{"android":"levelo://app?vid=3dc058ec-c688-4baf-9d8b-b3ff32477792","ios":"levelo://app?vid=3dc058ec-c688-4baf-9d8b-b3ff32477792"},"vehicle_type_id":"4","last_reported":1708635988,"current_range_meters":14800,"station_id":"ce4bgr92rcd13ifvqc7g","pricing_plan_id":"cebpf4jnsgd1na2vs0mg"},{"bike_id":"83c336f0-5fd9-403e-aa90-b654fafb0bb5","system_id":"levelo_inurba_marseille","lat":43.299222,"lon":5.365554,"is_reserved":false,"is_disabled":false,"rental_uris":{"android":"levelo://app?vid=83c336f0-5fd9-403e-aa90-b654fafb0bb5","ios":"levelo://app?vid=83c336f0-5fd9-403e-aa90-b654fafb0bb5"},"vehicle_type_id":"4","last_reported":1708635988,"current_range_meters":20000,"station_id":"ce4bgm92rcd13ifvqbr0","pricing_plan_id":"cebpf4jnsgd1na2vs0mg"},{"bike_id":"dd9ed951-7db7-4b68-a5c5-fe37bec46a40","system_id":"levelo_inurba_marseille","lat":43.305364,"lon":5.384119,"is_reserved":false,"is_disabled":false,"rental_uris":{"android":"levelo://app?vid=dd9ed951-7db7-4b68-a5c5-fe37bec46a40","ios":"levelo://app?vid=dd9ed951-7db7-4b68-a5c5-fe37bec46a40"},"vehicle_type_id":"4","last_reported":1708635988,"current_range_meters":20800,"station_id":"ce4bgg92rcd13ifvqb30","pricing_plan_id":"cebpf4jnsgd1na2vs0mg"},{"bike_id":"e0329891-a470-4616-b06e-4f678e775790","system_id":"levelo_inurba_marseille","lat":43.299243,"lon":5.374807,"is_reserved":false,"is_disabled":false,"rental_uris":{"android":"levelo://app?vid=e0329891-a470-4616-b06e-4f678e775790","ios":"levelo://app?vid=e0329891-a470-4616-b06e-4f678e775790"},"vehicle_type_id":"4","last_reported":1708635988,"current_range_meters":19600,"station_id":"ce4bgjh2rcd13ifvqbg0","pricing_plan_id":"cebpf4jnsgd1na2vs0mg"},{"bike_id":"2a7a48bb-3f05-45ad-af9a-786905f55a03","system_id":"levelo_inurba_marseille","lat":43.322872,"lon":5.382756,"is_reserved":false,"is_disabled":false,"rental_uris":{"android":"levelo://app?vid=2a7a48bb-3f05-45ad-af9a-786905f55a03","ios":"levelo://app?vid=2a7a48bb-3f05-45ad-af9a-786905f55a03"},"vehicle_type_id":"4","last_reported":1708635988,"current_range_meters":15600,"station_id":"ce4bhr12rcd13ifvqhqg","pricing_plan_id":"cebpf4jnsgd1na2vs0mg"},{"bike_id":"554310e1-90ee-4a69-a5f7-d3bf4b0fd68e","system_id":"levelo_inurba_marseille","lat":43.322872,"lon":5.382756,"is_reserved":false,"is_disabled":false,"rental_uris":{"android":"levelo://app?vid=554310e1-90ee-4a69-a5f7-d3bf4b0fd68e","ios":"levelo://app?vid=554310e1-90ee-4a69-a5f7-d3bf4b0fd68e"},"vehicle_type_id":"4","last_reported":1708635988,"current_range_meters":800,"station_id":"ce4bhr12rcd13ifvqhqg","pricing_plan_id":"cebpf4jnsgd1na2vs0mg"},{"bike_id":"3d95db81-f962-4730-8437-87466214ec68","system_id":"levelo_inurba_marseille","lat":43.32291,"lon":5.38272,"is_reserved":false,"is_disabled":false,"rental_uris":{"android":"levelo://app?vid=3d95db81-f962-4730-8437-87466214ec68","ios":"levelo://app?vid=3d95db81-f962-4730-8437-87466214ec68"},"vehicle_type_id":"4","last_reported":1708635988,"current_range_meters":12400,"station_id":"ce4bhr12rcd13ifvqhqg","pricing_plan_id":"cebpf4jnsgd1na2vs0mg"},{"bike_id":"0e761fa4-75c7-420d-b6e9-04044ee4977d","system_id":"levelo_inurba_marseille","lat":43.296131,"lon":5.370791,"is_reserved":false,"is_disabled":false,"rental_uris":{"android":"levelo://app?vid=0e761fa4-75c7-420d-b6e9-04044ee4977d","ios":"levelo://app?vid=0e761fa4-75c7-420d-b6e9-04044ee4977d"},"vehicle_type_id":"4","last_reported":1708635988,"current_range_meters":800,"station_id":"ce4bgnh2rcd13ifvqc0g","pricing_plan_id":"cebpf4jnsgd1na2vs0mg"},{"bike_id":"af30441a-d350-42b6-88ed-e8a25041f08f","system_id":"levelo_inurba_marseille","lat":43.296129,"lon":5.370777,"is_reserved":false,"is_disabled":false,"rental_uris":{"android":"levelo://app?vid=af30441a-d350-42b6-88ed-e8a25041f08f","ios":"levelo://app?vid=af30441a-d350-42b6-88ed-e8a25041f08f"},"vehicle_type_id":"4","last_reported":1708635988,"current_range_meters":24000,"station_id":"ce4bgnh2rcd13ifvqc0g","pricing_plan_id":"cebpf4jnsgd1na2vs0mg"},{"bike_id":"4098bd69-72fb-4a82-a319-e076f56319ca","system_id":"levelo_inurba_marseille","lat":43.296131,"lon":5.370773,"is_reserved":false,"is_disabled":false,"rental_uris":{"android":"levelo://app?vid=4098bd69-72fb-4a82-a319-e076f56319ca","ios":"levelo://app?vid=4098bd69-72fb-4a82-a319-e076f56319ca"},"vehicle_type_id":"4","last_reported":1708635988,"current_range_meters":19600,"station_id":"ce4bgnh2rcd13ifvqc0g","pricing_plan_id":"cebpf4jnsgd1na2vs0mg"},{"bike_id":"92b63d8f-1d76-4c30-937c-e1830bd869a2","system_id":"levelo_inurba_marseille","lat":43.29585,"lon":5.36745,"is_reserved":false,"is_disabled":false,"rental_uris":{"android":"levelo://app?vid=92b63d8f-1d76-4c30-937c-e1830bd869a2","ios":"levelo://app?vid=92b63d8f-1d76-4c30-937c-e1830bd869a2"},"vehicle_type_id":"4","last_reported":1708635988,"current_range_meters":7200,"station_id":"ce4bgph2rcd13ifvqc2g","pricing_plan_id":"cebpf4jnsgd1na2vs0mg"},{"bike_id":"6630c603-130e-4450-ba08-493d027ebf21","system_id":"levelo_inurba_marseille","lat":43.29573,"lon":5.367355,"is_reserved":false,"is_disabled":false,"rental_uris":{"android":"levelo://app?vid=6630c603-130e-4450-ba08-493d027ebf21","ios":"levelo://app?vid=6630c603-130e-4450-ba08-493d027ebf21"},"vehicle_type_id":"4","last_reported":1708635988,"current_range_meters":25200,"station_id":"ce4bgph2rcd13ifvqc2g","pricing_plan_id":"cebpf4jnsgd1na2vs0mg"},{"bike_id":"e3b62978-3adc-433d-9ab0-cf6bc3cb1a61","system_id":"levelo_inurba_marseille","lat":43.309589,"lon":5.390258,"is_reserved":false,"is_disabled":false,"rental_uris":{"android":"levelo://app?vid=e3b62978-3adc-433d-9ab0-cf6bc3cb1a61","ios":"levelo://app?vid=e3b62978-3adc-433d-9ab0-cf6bc3cb1a61"},"vehicle_type_id":"4","last_reported":1708635988,"current_range_meters":0,"station_id":"ce4bgup2rcd13ifvqco0","pricing_plan_id":"cebpf4jnsgd1na2vs0mg"},{"bike_id":"291c96e6-46e5-4634-9d77-667a6c9da211","system_id":"levelo_inurba_marseille","lat":43.317478,"lon":5.390152,"is_reserved":false,"is_disabled":false,"rental_uris":{"android":"levelo://app?vid=291c96e6-46e5-4634-9d77-667a6c9da211","ios":"levelo://app?vid=291c96e6-46e5-4634-9d77-667a6c9da211"},"vehicle_type_id":"4","last_reported":1708635988,"current_range_meters":21600,"station_id":"ce4bhqp2rcd13ifvqhng","pricing_plan_id":"cebpf4jnsgd1na2vs0mg"},{"bike_id":"6c225a34-9ef7-4ed5-a408-c62fae431689","system_id":"levelo_inurba_marseille","lat":43.317557,"lon":5.390173,"is_reserved":false,"is_disabled":false,"rental_uris":{"android":"levelo://app?vid=6c225a34-9ef7-4ed5-a408-c62fae431689","ios":"levelo://app?vid=6c225a34-9ef7-4ed5-a408-c62fae431689"},"vehicle_type_id":"4","last_reported":1708635988,"current_range_meters":6800,"station_id":"ce4bhqp2rcd13ifvqhng","pricing_plan_id":"cebpf4jnsgd1na2vs0mg"},{"bike_id":"c7a1b0b6-18ac-4a5f-942b-e4d26edb9652","system_id":"levelo_inurba_marseille","lat":43.317557,"lon":5.390173,"is_reserved":false,"is_disabled":false,"rental_uris":{"android":"levelo://app?vid=c7a1b0b6-18ac-4a5f-942b-e4d26edb9652","ios":"levelo://app?vid=c7a1b0b6-18ac-4a5f-942b-e4d26edb9652"},"vehicle_type_id":"4","last_reported":1708635988,"current_range_meters":15200,"station_id":"ce4bhqp2rcd13ifvqhng","pricing_plan_id":"cebpf4jnsgd1na2vs0mg"},{"bike_id":"e561fa3f-dc67-45f6-b6e7-3ba8d49cd902","system_id":"levelo_inurba_marseille","lat":43.317579,"lon":5.390151,"is_reserved":false,"is_disabled":false,"rental_uris":{"android":"levelo://app?vid=e561fa3f-dc67-45f6-b6e7-3ba8d49cd902","ios":"levelo://app?vid=e561fa3f-dc67-45f6-b6e7-3ba8d49cd902"},"vehicle_type_id":"4","last_reported":1708635988,"current_range_meters":16000,"station_id":"ce4bhqp2rcd13ifvqhng","pricing_plan_id":"cebpf4jnsgd1na2vs0mg"},{"bike_id":"7a226d71-e856-4832-8e70-b6a4167a3589","system_id":"levelo_inurba_marseille","lat":43.317557,"lon":5.390173,"is_reserved":false,"is_disabled":false,"rental_uris":{"android":"levelo://app?vid=7a226d71-e856-4832-8e70-b6a4167a3589","ios":"levelo://app?vid=7a226d71-e856-4832-8e70-b6a4167a3589"},"vehicle_type_id":"4","last_reported":1708635988,"current_range_meters":26800,"station_id":"ce4bhqp2rcd13ifvqhng","pricing_plan_id":"cebpf4jnsgd1na2vs0mg"},{"bike_id":"090afd90-021c-4273-b543-3b6399a05532","system_id":"levelo_inurba_marseille","lat":43.317557,"lon":5.390173,"is_reserved":false,"is_disabled":false,"rental_uris":{"android":"levelo://app?vid=090afd90-021c-4273-b543-3b6399a05532","ios":"levelo://app?vid=090afd90-021c-4273-b543-3b6399a05532"},"vehicle_type_id":"4","last_reported":1708635988,"current_range_meters":21200,"station_id":"ce4bhqp2rcd13ifvqhng","pricing_plan_id":"cebpf4jnsgd1na2vs0mg"},{"bike_id":"561a860d-78f5-4f5b-96cb-ba8a08a08098","system_id":"levelo_inurba_marseille","lat":43.317557,"lon":5.390173,"is_reserved":false,"is_disabled":false,"rental_uris":{"android":"levelo://app?vid=561a860d-78f5-4f5b-96cb-ba8a08a08098","ios":"levelo://app?vid=561a860d-78f5-4f5b-96cb-ba8a08a08098"},"vehicle_type_id":"4","last_reported":1708635988,"current_range_meters":27600,"station_id":"ce4bhqp2rcd13ifvqhng","pricing_plan_id":"cebpf4jnsgd1na2vs0mg"},{"bike_id":"20ea133f-f11e-47a8-b819-7aa34295c972","system_id":"levelo_inurba_marseille","lat":43.317557,"lon":5.390173,"is_reserved":false,"is_disabled":false,"rental_uris":{"android":"levelo://app?vid=20ea133f-f11e-47a8-b819-7aa34295c972","ios":"levelo://app?vid=20ea133f-f11e-47a8-b819-7aa34295c972"},"vehicle_type_id":"4","last_reported":1708635988,"current_range_meters":26400,"station_id":"ce4bhqp2rcd13ifvqhng","pricing_plan_id":"cebpf4jnsgd1na2vs0mg"},{"bike_id":"da2c317e-b1dd-43a9-a8bb-0d1bf46f63ed","system_id":"levelo_inurba_marseille","lat":43.298037,"lon":5.381066,"is_reserved":false,"is_disabled":false,"rental_uris":{"android":"levelo://app?vid=da2c317e-b1dd-43a9-a8bb-0d1bf46f63ed","ios":"levelo://app?vid=da2c317e-b1dd-43a9-a8bb-0d1bf46f63ed"},"vehicle_type_id":"4","last_reported":1708635988,"current_range_meters":11200,"station_id":"ce4bgip2rcd13ifvqbb0","pricing_plan_id":"cebpf4jnsgd1na2vs0mg"},{"bike_id":"6d8d300a-483b-43d5-a570-bde68b5f9d4f","system_id":"levelo_inurba_marseille","lat":43.304274,"lon":5.388873,"is_reserved":false,"is_disabled":false,"rental_uris":{"android":"levelo://app?vid=6d8d300a-483b-43d5-a570-bde68b5f9d4f","ios":"levelo://app?vid=6d8d300a-483b-43d5-a570-bde68b5f9d4f"},"vehicle_type_id":"4","last_reported":1708635988,"current_range_meters":5600,"station_id":"ce4bgk12rcd13ifvqbi0","pricing_plan_id":"cebpf4jnsgd1na2vs0mg"},{"bike_id":"07381ec5-e69b-4702-ac76-81aee58689be","system_id":"levelo_inurba_marseille","lat":43.296263,"lon":5.377094,"is_reserved":false,"is_disabled":false,"rental_uris":{"android":"levelo://app?vid=07381ec5-e69b-4702-ac76-81aee58689be","ios":"levelo://app?vid=07381ec5-e69b-4702-ac76-81aee58689be"},"vehicle_type_id":"4","last_reported":1708635988,"current_range_meters":26400,"station_id":"ce4bgi92rcd13ifvqb90","pricing_plan_id":"cebpf4jnsgd1na2vs0mg"},{"bike_id":"edc3a6dd-1061-4898-81ae-0e2004ace7ab","system_id":"levelo_inurba_marseille","lat":43.296263,"lon":5.377094,"is_reserved":false,"is_disabled":false,"rental_uris":{"android":"levelo://app?vid=edc3a6dd-1061-4898-81ae-0e2004ace7ab","ios":"levelo://app?vid=edc3a6dd-1061-4898-81ae-0e2004ace7ab"},"vehicle_type_id":"4","last_reported":1708635988,"current_range_meters":16000,"station_id":"ce4bgi92rcd13ifvqb90","pricing_plan_id":"cebpf4jnsgd1na2vs0mg"},{"bike_id":"7e49de1b-7677-405a-9e0d-0c5b6cfc8c75","system_id":"levelo_inurba_marseille","lat":43.30432,"lon":5.38902,"is_reserved":false,"is_disabled":false,"rental_uris":{"android":"levelo://app?vid=7e49de1b-7677-405a-9e0d-0c5b6cfc8c75","ios":"levelo://app?vid=7e49de1b-7677-405a-9e0d-0c5b6cfc8c75"},"vehicle_type_id":"4","last_reported":1708635988,"current_range_meters":24800,"station_id":"ce4bgk12rcd13ifvqbi0","pricing_plan_id":"cebpf4jnsgd1na2vs0mg"},{"bike_id":"4d55c9cb-c039-437e-bb23-f65d6b8efead","system_id":"levelo_inurba_marseille","lat":43.304278,"lon":5.388868,"is_reserved":false,"is_disabled":false,"rental_uris":{"android":"levelo://app?vid=4d55c9cb-c039-437e-bb23-f65d6b8efead","ios":"levelo://app?vid=4d55c9cb-c039-437e-bb23-f65d6b8efead"},"vehicle_type_id":"4","last_reported":1708635988,"current_range_meters":24000,"station_id":"ce4bgk12rcd13ifvqbi0","pricing_plan_id":"cebpf4jnsgd1na2vs0mg"},{"bike_id":"90ce87df-4902-4fc0-aca0-1c1d6bcac932","system_id":"levelo_inurba_marseille","lat":43.299718,"lon":5.385214,"is_reserved":false,"is_disabled":false,"rental_uris":{"android":"levelo://app?vid=90ce87df-4902-4fc0-aca0-1c1d6bcac932","ios":"levelo://app?vid=90ce87df-4902-4fc0-aca0-1c1d6bcac932"},"vehicle_type_id":"4","last_reported":1708635988,"current_range_meters":28800,"station_id":"ce4bgj92rcd13ifvqbd0","pricing_plan_id":"cebpf4jnsgd1na2vs0mg"},{"bike_id":"6477a460-c7b0-4c31-aaa5-166acac44504","system_id":"levelo_inurba_marseille","lat":43.32367,"lon":5.388836,"is_reserved":false,"is_disabled":false,"rental_uris":{"android":"levelo://app?vid=6477a460-c7b0-4c31-aaa5-166acac44504","ios":"levelo://app?vid=6477a460-c7b0-4c31-aaa5-166acac44504"},"vehicle_type_id":"4","last_reported":1708635988,"current_range_meters":3600,"station_id":"ce4bhqp2rcd13ifvqhog","pricing_plan_id":"cebpf4jnsgd1na2vs0mg"},{"bike_id":"58e89d45-cdfb-4e4a-90b4-efb6295cd189","system_id":"levelo_inurba_marseille","lat":43.32367,"lon":5.388836,"is_reserved":false,"is_disabled":false,"rental_uris":{"android":"levelo://app?vid=58e89d45-cdfb-4e4a-90b4-efb6295cd189","ios":"levelo://app?vid=58e89d45-cdfb-4e4a-90b4-efb6295cd189"},"vehicle_type_id":"4","last_reported":1708635988,"current_range_meters":22400,"station_id":"ce4bhqp2rcd13ifvqhog","pricing_plan_id":"cebpf4jnsgd1na2vs0mg"},{"bike_id":"df20b5d4-a1f2-481b-a56c-5c0f0b2cae31","system_id":"levelo_inurba_marseille","lat":43.29602,"lon":5.381084,"is_reserved":false,"is_disabled":false,"rental_uris":{"android":"levelo://app?vid=df20b5d4-a1f2-481b-a56c-5c0f0b2cae31","ios":"levelo://app?vid=df20b5d4-a1f2-481b-a56c-5c0f0b2cae31"},"vehicle_type_id":"4","last_reported":1708635988,"current_range_meters":19200,"station_id":"ce4bgl12rcd13ifvqbo0","pricing_plan_id":"cebpf4jnsgd1na2vs0mg"},{"bike_id":"22d31497-e427-424d-a442-062998e6fd5f","system_id":"levelo_inurba_marseille","lat":43.29601,"lon":5.381084,"is_reserved":false,"is_disabled":false,"rental_uris":{"android":"levelo://app?vid=22d31497-e427-424d-a442-062998e6fd5f","ios":"levelo://app?vid=22d31497-e427-424d-a442-062998e6fd5f"},"vehicle_type_id":"4","last_reported":1708635988,"current_range_meters":28400,"station_id":"ce4bgl12rcd13ifvqbo0","pricing_plan_id":"cebpf4jnsgd1na2vs0mg"},{"bike_id":"d137180e-4b4f-4213-aa69-0ecfd68447e1","system_id":"levelo_inurba_marseille","lat":43.29601,"lon":5.381084,"is_reserved":false,"is_disabled":false,"rental_uris":{"android":"levelo://app?vid=d137180e-4b4f-4213-aa69-0ecfd68447e1","ios":"levelo://app?vid=d137180e-4b4f-4213-aa69-0ecfd68447e1"},"vehicle_type_id":"4","last_reported":1708635988,"current_range_meters":28800,"station_id":"ce4bgl12rcd13ifvqbo0","pricing_plan_id":"cebpf4jnsgd1na2vs0mg"},{"bike_id":"226e2dc5-9718-498c-8c71-6b732fc2a1a0","system_id":"levelo_inurba_marseille","lat":43.295844,"lon":5.381646,"is_reserved":false,"is_disabled":false,"rental_uris":{"android":"levelo://app?vid=226e2dc5-9718-498c-8c71-6b732fc2a1a0","ios":"levelo://app?vid=226e2dc5-9718-498c-8c71-6b732fc2a1a0"},"vehicle_type_id":"4","last_reported":1708635988,"current_range_meters":23200,"station_id":"ce4bgl12rcd13ifvqbo0","pricing_plan_id":"cebpf4jnsgd1na2vs0mg"},{"bike_id":"5a0914d8-6cd0-4792-be25-073c93b0d9ca","system_id":"levelo_inurba_marseille","lat":43.293009,"lon":5.374584,"is_reserved":false,"is_disabled":false,"rental_uris":{"android":"levelo://app?vid=5a0914d8-6cd0-4792-be25-073c93b0d9ca","ios":"levelo://app?vid=5a0914d8-6cd0-4792-be25-073c93b0d9ca"},"vehicle_type_id":"4","last_reported":1708635988,"current_range_meters":28400,"station_id":"ce4bgi12rcd13ifvqb70","pricing_plan_id":"cebpf4jnsgd1na2vs0mg"},{"bike_id":"5e506087-888a-4c75-9b59-064191b89f2c","system_id":"levelo_inurba_marseille","lat":43.303002,"lon":5.392142,"is_reserved":false,"is_disabled":false,"rental_uris":{"android":"levelo://app?vid=5e506087-888a-4c75-9b59-064191b89f2c","ios":"levelo://app?vid=5e506087-888a-4c75-9b59-064191b89f2c"},"vehicle_type_id":"4","last_reported":1708635988,"current_range_meters":30800,"station_id":"ce4bgkh2rcd13ifvqbk0","pricing_plan_id":"cebpf4jnsgd1na2vs0mg"},{"bike_id":"bd13b32c-16af-4175-a6e2-5818dc0a06bc","system_id":"levelo_inurba_marseille","lat":43.302992,"lon":5.392136,"is_reserved":false,"is_disabled":false,"rental_uris":{"android":"levelo://app?vid=bd13b32c-16af-4175-a6e2-5818dc0a06bc","ios":"levelo://app?vid=bd13b32c-16af-4175-a6e2-5818dc0a06bc"},"vehicle_type_id":"4","last_reported":1708635988,"current_range_meters":28400,"station_id":"ce4bgkh2rcd13ifvqbk0","pricing_plan_id":"cebpf4jnsgd1na2vs0mg"},{"bike_id":"ac93c67a-b971-4fe3-88d2-fea224a345a3","system_id":"levelo_inurba_marseille","lat":43.302992,"lon":5.392136,"is_reserved":false,"is_disabled":false,"rental_uris":{"android":"levelo://app?vid=ac93c67a-b971-4fe3-88d2-fea224a345a3","ios":"levelo://app?vid=ac93c67a-b971-4fe3-88d2-fea224a345a3"},"vehicle_type_id":"4","last_reported":1708635988,"current_range_meters":18000,"station_id":"ce4bgkh2rcd13ifvqbk0","pricing_plan_id":"cebpf4jnsgd1na2vs0mg"},{"bike_id":"5dd14617-37e3-499d-bb0d-42111ae2e100","system_id":"levelo_inurba_marseille","lat":43.303002,"lon":5.392142,"is_reserved":false,"is_disabled":false,"rental_uris":{"android":"levelo://app?vid=5dd14617-37e3-499d-bb0d-42111ae2e100","ios":"levelo://app?vid=5dd14617-37e3-499d-bb0d-42111ae2e100"},"vehicle_type_id":"4","last_reported":1708635988,"current_range_meters":23200,"station_id":"ce4bgkh2rcd13ifvqbk0","pricing_plan_id":"cebpf4jnsgd1na2vs0mg"},{"bike_id":"0d4fa3d0-b37b-43dd-b2d8-f643e810b2fa","system_id":"levelo_inurba_marseille","lat":43.302992,"lon":5.392136,"is_reserved":false,"is_disabled":false,"rental_uris":{"android":"levelo://app?vid=0d4fa3d0-b37b-43dd-b2d8-f643e810b2fa","ios":"levelo://app?vid=0d4fa3d0-b37b-43dd-b2d8-f643e810b2fa"},"vehicle_type_id":"4","last_reported":1708635988,"current_range_meters":4800,"station_id":"ce4bgkh2rcd13ifvqbk0","pricing_plan_id":"cebpf4jnsgd1na2vs0mg"},{"bike_id":"9ec7b376-0047-4448-a064-e9320e67d3b1","system_id":"levelo_inurba_marseille","lat":43.303346,"lon":5.392445,"is_reserved":false,"is_disabled":false,"rental_uris":{"android":"levelo://app?vid=9ec7b376-0047-4448-a064-e9320e67d3b1","ios":"levelo://app?vid=9ec7b376-0047-4448-a064-e9320e67d3b1"},"vehicle_type_id":"4","last_reported":1708635988,"current_range_meters":8000,"station_id":"","pricing_plan_id":"cebpf4jnsgd1na2vs0mg"},{"bike_id":"4f850092-6a74-49f3-9d6c-f0bd88cd589c","system_id":"levelo_inurba_marseille","lat":43.301002,"lon":5.390705,"is_reserved":false,"is_disabled":false,"rental_uris":{"android":"levelo://app?vid=4f850092-6a74-49f3-9d6c-f0bd88cd589c","ios":"levelo://app?vid=4f850092-6a74-49f3-9d6c-f0bd88cd589c"},"vehicle_type_id":"4","last_reported":1708635988,"current_range_meters":29200,"station_id":"ce4bh192rcd13ifvqdb0","pricing_plan_id":"cebpf4jnsgd1na2vs0mg"},{"bike_id":"596e7ee3-55de-459f-a1b9-854fea39b5b0","system_id":"levelo_inurba_marseille","lat":43.300956,"lon":5.390689,"is_reserved":false,"is_disabled":false,"rental_uris":{"android":"levelo://app?vid=596e7ee3-55de-459f-a1b9-854fea39b5b0","ios":"levelo://app?vid=596e7ee3-55de-459f-a1b9-854fea39b5b0"},"vehicle_type_id":"4","last_reported":1708635988,"current_range_meters":23200,"station_id":"ce4bh192rcd13ifvqdb0","pricing_plan_id":"cebpf4jnsgd1na2vs0mg"},{"bike_id":"21d8f4d4-fc4c-44e8-bed3-05152147ab77","system_id":"levelo_inurba_marseille","lat":43.301084,"lon":5.390831,"is_reserved":false,"is_disabled":false,"rental_uris":{"android":"levelo://app?vid=21d8f4d4-fc4c-44e8-bed3-05152147ab77","ios":"levelo://app?vid=21d8f4d4-fc4c-44e8-bed3-05152147ab77"},"vehicle_type_id":"4","last_reported":1708635988,"current_range_meters":26000,"station_id":"","pricing_plan_id":"cebpf4jnsgd1na2vs0mg"},{"bike_id":"1dbd918f-8704-4824-a547-64964fc0bbb8","system_id":"levelo_inurba_marseille","lat":43.292311,"lon":5.360731,"is_reserved":false,"is_disabled":false,"rental_uris":{"android":"levelo://app?vid=1dbd918f-8704-4824-a547-64964fc0bbb8","ios":"levelo://app?vid=1dbd918f-8704-4824-a547-64964fc0bbb8"},"vehicle_type_id":"4","last_reported":1708635988,"current_range_meters":20400,"station_id":"ce4bhbh2rcd13ifvqeqg","pricing_plan_id":"cebpf4jnsgd1na2vs0mg"},{"bike_id":"bb7bd2dc-5c2b-4b5e-a78b-4170d7d7e4da","system_id":"levelo_inurba_marseille","lat":43.300852,"lon":5.390859,"is_reserved":false,"is_disabled":false,"rental_uris":{"android":"levelo://app?vid=bb7bd2dc-5c2b-4b5e-a78b-4170d7d7e4da","ios":"levelo://app?vid=bb7bd2dc-5c2b-4b5e-a78b-4170d7d7e4da"},"vehicle_type_id":"4","last_reported":1708635988,"current_range_meters":10000,"station_id":"ce4bh192rcd13ifvqdb0","pricing_plan_id":"cebpf4jnsgd1na2vs0mg"},{"bike_id":"2f465565-bdd3-47e9-9ca0-1bd552df0f09","system_id":"levelo_inurba_marseille","lat":43.291675,"lon":5.371583,"is_reserved":false,"is_disabled":false,"rental_uris":{"android":"levelo://app?vid=2f465565-bdd3-47e9-9ca0-1bd552df0f09","ios":"levelo://app?vid=2f465565-bdd3-47e9-9ca0-1bd552df0f09"},"vehicle_type_id":"4","last_reported":1708635988,"current_range_meters":19600,"station_id":"ce4bha92rcd13ifvqeh0","pricing_plan_id":"cebpf4jnsgd1na2vs0mg"},{"bike_id":"ab8133d8-a024-4ce4-8b76-9c8592cbfe2a","system_id":"levelo_inurba_marseille","lat":43.291703,"lon":5.371533,"is_reserved":false,"is_disabled":false,"rental_uris":{"android":"levelo://app?vid=ab8133d8-a024-4ce4-8b76-9c8592cbfe2a","ios":"levelo://app?vid=ab8133d8-a024-4ce4-8b76-9c8592cbfe2a"},"vehicle_type_id":"4","last_reported":1708635988,"current_range_meters":0,"station_id":"ce4bha92rcd13ifvqeh0","pricing_plan_id":"cebpf4jnsgd1na2vs0mg"},{"bike_id":"5fb0172f-11e0-4c41-9d6c-bd1fc946ae36","system_id":"levelo_inurba_marseille","lat":43.298764,"lon":5.388973,"is_reserved":false,"is_disabled":false,"rental_uris":{"android":"levelo://app?vid=5fb0172f-11e0-4c41-9d6c-bd1fc946ae36","ios":"levelo://app?vid=5fb0172f-11e0-4c41-9d6c-bd1fc946ae36"},"vehicle_type_id":"4","last_reported":1708635988,"current_range_meters":10400,"station_id":"ce4bh392rcd13ifvqdl0","pricing_plan_id":"cebpf4jnsgd1na2vs0mg"},{"bike_id":"df5527bb-fafe-465b-a1ca-91b948a5059f","system_id":"levelo_inurba_marseille","lat":43.309038,"lon":5.396546,"is_reserved":false,"is_disabled":false,"rental_uris":{"android":"levelo://app?vid=df5527bb-fafe-465b-a1ca-91b948a5059f","ios":"levelo://app?vid=df5527bb-fafe-465b-a1ca-91b948a5059f"},"vehicle_type_id":"4","last_reported":1708635988,"current_range_meters":15200,"station_id":"ce4bh012rcd13ifvqcv0","pricing_plan_id":"cebpf4jnsgd1na2vs0mg"},{"bike_id":"4a1d49aa-1bc4-484d-ad80-bfd676a2d590","system_id":"levelo_inurba_marseille","lat":43.291994,"lon":5.357886,"is_reserved":false,"is_disabled":false,"rental_uris":{"android":"levelo://app?vid=4a1d49aa-1bc4-484d-ad80-bfd676a2d590","ios":"levelo://app?vid=4a1d49aa-1bc4-484d-ad80-bfd676a2d590"},"vehicle_type_id":"4","last_reported":1708635988,"current_range_meters":8800,"station_id":"ce4bhb12rcd13ifvqel0","pricing_plan_id":"cebpf4jnsgd1na2vs0mg"},{"bike_id":"8592a25d-9f9d-49db-9b82-edcce2253adb","system_id":"levelo_inurba_marseille","lat":43.309038,"lon":5.396546,"is_reserved":false,"is_disabled":false,"rental_uris":{"android":"levelo://app?vid=8592a25d-9f9d-49db-9b82-edcce2253adb","ios":"levelo://app?vid=8592a25d-9f9d-49db-9b82-edcce2253adb"},"vehicle_type_id":"4","last_reported":1708635988,"current_range_meters":6800,"station_id":"ce4bh012rcd13ifvqcv0","pricing_plan_id":"cebpf4jnsgd1na2vs0mg"},{"bike_id":"1dbdcede-df75-41df-ac1a-ed08a3a5849b","system_id":"levelo_inurba_marseille","lat":43.309047,"lon":5.396551,"is_reserved":false,"is_disabled":false,"rental_uris":{"android":"levelo://app?vid=1dbdcede-df75-41df-ac1a-ed08a3a5849b","ios":"levelo://app?vid=1dbdcede-df75-41df-ac1a-ed08a3a5849b"},"vehicle_type_id":"4","last_reported":1708635988,"current_range_meters":3200,"station_id":"ce4bh012rcd13ifvqcv0","pricing_plan_id":"cebpf4jnsgd1na2vs0mg"},{"bike_id":"269fc508-053d-4843-a197-a3f4db9a40e4","system_id":"levelo_inurba_marseille","lat":43.291994,"lon":5.357886,"is_reserved":false,"is_disabled":false,"rental_uris":{"android":"levelo://app?vid=269fc508-053d-4843-a197-a3f4db9a40e4","ios":"levelo://app?vid=269fc508-053d-4843-a197-a3f4db9a40e4"},"vehicle_type_id":"4","last_reported":1708635988,"current_range_meters":15200,"station_id":"ce4bhb12rcd13ifvqel0","pricing_plan_id":"cebpf4jnsgd1na2vs0mg"},{"bike_id":"0fa39ae6-babd-412d-aa6a-faeda575db29","system_id":"levelo_inurba_marseille","lat":43.291994,"lon":5.357886,"is_reserved":false,"is_disabled":false,"rental_uris":{"android":"levelo://app?vid=0fa39ae6-babd-412d-aa6a-faeda575db29","ios":"levelo://app?vid=0fa39ae6-babd-412d-aa6a-faeda575db29"},"vehicle_type_id":"4","last_reported":1708635988,"current_range_meters":5200,"station_id":"ce4bhb12rcd13ifvqel0","pricing_plan_id":"cebpf4jnsgd1na2vs0mg"},{"bike_id":"4049387c-f93d-4e64-aa67-da9f82a8500c","system_id":"levelo_inurba_marseille","lat":43.309038,"lon":5.396546,"is_reserved":false,"is_disabled":false,"rental_uris":{"android":"levelo://app?vid=4049387c-f93d-4e64-aa67-da9f82a8500c","ios":"levelo://app?vid=4049387c-f93d-4e64-aa67-da9f82a8500c"},"vehicle_type_id":"4","last_reported":1708635988,"current_range_meters":0,"station_id":"ce4bh012rcd13ifvqcv0","pricing_plan_id":"cebpf4jnsgd1na2vs0mg"},{"bike_id":"288bae25-e0cd-49e3-aad4-3d44fd199646","system_id":"levelo_inurba_marseille","lat":43.313291,"lon":5.396838,"is_reserved":false,"is_disabled":false,"rental_uris":{"android":"levelo://app?vid=288bae25-e0cd-49e3-aad4-3d44fd199646","ios":"levelo://app?vid=288bae25-e0cd-49e3-aad4-3d44fd199646"},"vehicle_type_id":"4","last_reported":1708635988,"current_range_meters":15200,"station_id":"ce4bgvp2rcd13ifvqcu0","pricing_plan_id":"cebpf4jnsgd1na2vs0mg"},{"bike_id":"fb6b54a7-d10e-471a-ad97-67407c347d12","system_id":"levelo_inurba_marseille","lat":43.309047,"lon":5.396551,"is_reserved":false,"is_disabled":false,"rental_uris":{"android":"levelo://app?vid=fb6b54a7-d10e-471a-ad97-67407c347d12","ios":"levelo://app?vid=fb6b54a7-d10e-471a-ad97-67407c347d12"},"vehicle_type_id":"4","last_reported":1708635988,"current_range_meters":22400,"station_id":"ce4bh012rcd13ifvqcv0","pricing_plan_id":"cebpf4jnsgd1na2vs0mg"},{"bike_id":"7c0a699d-aa3f-440d-bd5d-35e3b141d408","system_id":"levelo_inurba_marseille","lat":43.291994,"lon":5.357886,"is_reserved":false,"is_disabled":false,"rental_uris":{"android":"levelo://app?vid=7c0a699d-aa3f-440d-bd5d-35e3b141d408","ios":"levelo://app?vid=7c0a699d-aa3f-440d-bd5d-35e3b141d408"},"vehicle_type_id":"4","last_reported":1708635988,"current_range_meters":0,"station_id":"ce4bhb12rcd13ifvqel0","pricing_plan_id":"cebpf4jnsgd1na2vs0mg"},{"bike_id":"ffa4f763-58f6-47db-989d-2142d3b423d1","system_id":"levelo_inurba_marseille","lat":43.309038,"lon":5.396546,"is_reserved":false,"is_disabled":false,"rental_uris":{"android":"levelo://app?vid=ffa4f763-58f6-47db-989d-2142d3b423d1","ios":"levelo://app?vid=ffa4f763-58f6-47db-989d-2142d3b423d1"},"vehicle_type_id":"4","last_reported":1708635988,"current_range_meters":9200,"station_id":"ce4bh012rcd13ifvqcv0","pricing_plan_id":"cebpf4jnsgd1na2vs0mg"},{"bike_id":"0f421265-5af7-4e63-a2b6-cdab964cdef1","system_id":"levelo_inurba_marseille","lat":43.291994,"lon":5.357886,"is_reserved":false,"is_disabled":false,"rental_uris":{"android":"levelo://app?vid=0f421265-5af7-4e63-a2b6-cdab964cdef1","ios":"levelo://app?vid=0f421265-5af7-4e63-a2b6-cdab964cdef1"},"vehicle_type_id":"4","last_reported":1708635988,"current_range_meters":21600,"station_id":"ce4bhb12rcd13ifvqel0","pricing_plan_id":"cebpf4jnsgd1na2vs0mg"},{"bike_id":"6ccce398-e0e6-405c-9f44-83a0996b8833","system_id":"levelo_inurba_marseille","lat":43.309038,"lon":5.396546,"is_reserved":false,"is_disabled":false,"rental_uris":{"android":"levelo://app?vid=6ccce398-e0e6-405c-9f44-83a0996b8833","ios":"levelo://app?vid=6ccce398-e0e6-405c-9f44-83a0996b8833"},"vehicle_type_id":"4","last_reported":1708635988,"current_range_meters":14800,"station_id":"ce4bh012rcd13ifvqcv0","pricing_plan_id":"cebpf4jnsgd1na2vs0mg"},{"bike_id":"1eea3274-7691-4357-8c43-48d20811ec5e","system_id":"levelo_inurba_marseille","lat":43.309038,"lon":5.396546,"is_reserved":false,"is_disabled":false,"rental_uris":{"android":"levelo://app?vid=1eea3274-7691-4357-8c43-48d20811ec5e","ios":"levelo://app?vid=1eea3274-7691-4357-8c43-48d20811ec5e"},"vehicle_type_id":"4","last_reported":1708635988,"current_range_meters":22800,"station_id":"ce4bh012rcd13ifvqcv0","pricing_plan_id":"cebpf4jnsgd1na2vs0mg"},{"bike_id":"c9170a32-41eb-4bc7-9e5c-951dc7b43bf7","system_id":"levelo_inurba_marseille","lat":43.309038,"lon":5.396546,"is_reserved":false,"is_disabled":false,"rental_uris":{"android":"levelo://app?vid=c9170a32-41eb-4bc7-9e5c-951dc7b43bf7","ios":"levelo://app?vid=c9170a32-41eb-4bc7-9e5c-951dc7b43bf7"},"vehicle_type_id":"4","last_reported":1708635988,"current_range_meters":14400,"station_id":"ce4bh012rcd13ifvqcv0","pricing_plan_id":"cebpf4jnsgd1na2vs0mg"},{"bike_id":"c62e5081-8237-4c8e-93ef-50b1a9ad3603","system_id":"levelo_inurba_marseille","lat":43.309047,"lon":5.396551,"is_reserved":false,"is_disabled":false,"rental_uris":{"android":"levelo://app?vid=c62e5081-8237-4c8e-93ef-50b1a9ad3603","ios":"levelo://app?vid=c62e5081-8237-4c8e-93ef-50b1a9ad3603"},"vehicle_type_id":"4","last_reported":1708635988,"current_range_meters":0,"station_id":"ce4bh012rcd13ifvqcv0","pricing_plan_id":"cebpf4jnsgd1na2vs0mg"},{"bike_id":"2e961aa4-43c1-4676-8d14-ff47b4e4e35d","system_id":"levelo_inurba_marseille","lat":43.29529,"lon":5.385581,"is_reserved":false,"is_disabled":false,"rental_uris":{"android":"levelo://app?vid=2e961aa4-43c1-4676-8d14-ff47b4e4e35d","ios":"levelo://app?vid=2e961aa4-43c1-4676-8d14-ff47b4e4e35d"},"vehicle_type_id":"4","last_reported":1708635988,"current_range_meters":26800,"station_id":"ce4bgih2rcd13ifvqba0","pricing_plan_id":"cebpf4jnsgd1na2vs0mg"},{"bike_id":"8bd5145c-d777-4bb8-afa9-1a3a5ba1fda9","system_id":"levelo_inurba_marseille","lat":43.29529,"lon":5.385581,"is_reserved":false,"is_disabled":false,"rental_uris":{"android":"levelo://app?vid=8bd5145c-d777-4bb8-afa9-1a3a5ba1fda9","ios":"levelo://app?vid=8bd5145c-d777-4bb8-afa9-1a3a5ba1fda9"},"vehicle_type_id":"4","last_reported":1708635988,"current_range_meters":22000,"station_id":"ce4bgih2rcd13ifvqba0","pricing_plan_id":"cebpf4jnsgd1na2vs0mg"},{"bike_id":"0ce4b1da-1d51-4337-9295-90f10b150734","system_id":"levelo_inurba_marseille","lat":43.29529,"lon":5.385581,"is_reserved":false,"is_disabled":false,"rental_uris":{"android":"levelo://app?vid=0ce4b1da-1d51-4337-9295-90f10b150734","ios":"levelo://app?vid=0ce4b1da-1d51-4337-9295-90f10b150734"},"vehicle_type_id":"4","last_reported":1708635988,"current_range_meters":2800,"station_id":"ce4bgih2rcd13ifvqba0","pricing_plan_id":"cebpf4jnsgd1na2vs0mg"},{"bike_id":"83171cd1-0816-4da2-8910-a7cd65bfab9e","system_id":"levelo_inurba_marseille","lat":43.29529,"lon":5.385581,"is_reserved":false,"is_disabled":false,"rental_uris":{"android":"levelo://app?vid=83171cd1-0816-4da2-8910-a7cd65bfab9e","ios":"levelo://app?vid=83171cd1-0816-4da2-8910-a7cd65bfab9e"},"vehicle_type_id":"4","last_reported":1708635988,"current_range_meters":31600,"station_id":"ce4bgih2rcd13ifvqba0","pricing_plan_id":"cebpf4jnsgd1na2vs0mg"},{"bike_id":"81dac0a8-eb69-4ee6-bc02-4107915dab34","system_id":"levelo_inurba_marseille","lat":43.29529,"lon":5.385581,"is_reserved":false,"is_disabled":false,"rental_uris":{"android":"levelo://app?vid=81dac0a8-eb69-4ee6-bc02-4107915dab34","ios":"levelo://app?vid=81dac0a8-eb69-4ee6-bc02-4107915dab34"},"vehicle_type_id":"4","last_reported":1708635988,"current_range_meters":25600,"station_id":"ce4bgih2rcd13ifvqba0","pricing_plan_id":"cebpf4jnsgd1na2vs0mg"},{"bike_id":"134df727-8636-462a-ae14-c9ea4be074c7","system_id":"levelo_inurba_marseille","lat":43.29529,"lon":5.385581,"is_reserved":false,"is_disabled":false,"rental_uris":{"android":"levelo://app?vid=134df727-8636-462a-ae14-c9ea4be074c7","ios":"levelo://app?vid=134df727-8636-462a-ae14-c9ea4be074c7"},"vehicle_type_id":"4","last_reported":1708635988,"current_range_meters":28800,"station_id":"ce4bgih2rcd13ifvqba0","pricing_plan_id":"cebpf4jnsgd1na2vs0mg"},{"bike_id":"51e37b25-488e-441a-bd83-9ada13fe039e","system_id":"levelo_inurba_marseille","lat":43.29529,"lon":5.385581,"is_reserved":false,"is_disabled":false,"rental_uris":{"android":"levelo://app?vid=51e37b25-488e-441a-bd83-9ada13fe039e","ios":"levelo://app?vid=51e37b25-488e-441a-bd83-9ada13fe039e"},"vehicle_type_id":"4","last_reported":1708635988,"current_range_meters":10400,"station_id":"ce4bgih2rcd13ifvqba0","pricing_plan_id":"cebpf4jnsgd1na2vs0mg"},{"bike_id":"3ef28721-3b1d-45b6-b8c2-ee4eb27fd06c","system_id":"levelo_inurba_marseille","lat":43.29529,"lon":5.385581,"is_reserved":false,"is_disabled":false,"rental_uris":{"android":"levelo://app?vid=3ef28721-3b1d-45b6-b8c2-ee4eb27fd06c","ios":"levelo://app?vid=3ef28721-3b1d-45b6-b8c2-ee4eb27fd06c"},"vehicle_type_id":"4","last_reported":1708635988,"current_range_meters":800,"station_id":"ce4bgih2rcd13ifvqba0","pricing_plan_id":"cebpf4jnsgd1na2vs0mg"},{"bike_id":"6cac9570-1765-4129-a10b-45e2f62d8eb1","system_id":"levelo_inurba_marseille","lat":43.29529,"lon":5.385581,"is_reserved":false,"is_disabled":false,"rental_uris":{"android":"levelo://app?vid=6cac9570-1765-4129-a10b-45e2f62d8eb1","ios":"levelo://app?vid=6cac9570-1765-4129-a10b-45e2f62d8eb1"},"vehicle_type_id":"4","last_reported":1708635988,"current_range_meters":26400,"station_id":"ce4bgih2rcd13ifvqba0","pricing_plan_id":"cebpf4jnsgd1na2vs0mg"},{"bike_id":"6bcf5200-3fff-4b6c-8c9b-fe13c4349cae","system_id":"levelo_inurba_marseille","lat":43.29529,"lon":5.385581,"is_reserved":false,"is_disabled":false,"rental_uris":{"android":"levelo://app?vid=6bcf5200-3fff-4b6c-8c9b-fe13c4349cae","ios":"levelo://app?vid=6bcf5200-3fff-4b6c-8c9b-fe13c4349cae"},"vehicle_type_id":"4","last_reported":1708635988,"current_range_meters":30400,"station_id":"ce4bgih2rcd13ifvqba0","pricing_plan_id":"cebpf4jnsgd1na2vs0mg"},{"bike_id":"289182bc-cff3-489a-bd8f-671825ce2ed1","system_id":"levelo_inurba_marseille","lat":43.29529,"lon":5.385581,"is_reserved":false,"is_disabled":false,"rental_uris":{"android":"levelo://app?vid=289182bc-cff3-489a-bd8f-671825ce2ed1","ios":"levelo://app?vid=289182bc-cff3-489a-bd8f-671825ce2ed1"},"vehicle_type_id":"4","last_reported":1708635988,"current_range_meters":24000,"station_id":"ce4bgih2rcd13ifvqba0","pricing_plan_id":"cebpf4jnsgd1na2vs0mg"},{"bike_id":"e16d7313-79a2-4c1b-8bbd-91d9d53510cf","system_id":"levelo_inurba_marseille","lat":43.29529,"lon":5.385581,"is_reserved":false,"is_disabled":false,"rental_uris":{"android":"levelo://app?vid=e16d7313-79a2-4c1b-8bbd-91d9d53510cf","ios":"levelo://app?vid=e16d7313-79a2-4c1b-8bbd-91d9d53510cf"},"vehicle_type_id":"4","last_reported":1708635988,"current_range_meters":30800,"station_id":"ce4bgih2rcd13ifvqba0","pricing_plan_id":"cebpf4jnsgd1na2vs0mg"},{"bike_id":"694228d0-b08c-4e50-a708-f999c553258f","system_id":"levelo_inurba_marseille","lat":43.29529,"lon":5.385581,"is_reserved":false,"is_disabled":false,"rental_uris":{"android":"levelo://app?vid=694228d0-b08c-4e50-a708-f999c553258f","ios":"levelo://app?vid=694228d0-b08c-4e50-a708-f999c553258f"},"vehicle_type_id":"4","last_reported":1708635988,"current_range_meters":17200,"station_id":"ce4bgih2rcd13ifvqba0","pricing_plan_id":"cebpf4jnsgd1na2vs0mg"},{"bike_id":"2c20fa26-fe0a-4551-bfa9-c749a0e2de07","system_id":"levelo_inurba_marseille","lat":43.29529,"lon":5.385581,"is_reserved":false,"is_disabled":false,"rental_uris":{"android":"levelo://app?vid=2c20fa26-fe0a-4551-bfa9-c749a0e2de07","ios":"levelo://app?vid=2c20fa26-fe0a-4551-bfa9-c749a0e2de07"},"vehicle_type_id":"4","last_reported":1708635988,"current_range_meters":25600,"station_id":"ce4bgih2rcd13ifvqba0","pricing_plan_id":"cebpf4jnsgd1na2vs0mg"},{"bike_id":"e29d5920-fe1b-49cc-968a-56ede16ef13f","system_id":"levelo_inurba_marseille","lat":43.29529,"lon":5.385581,"is_reserved":false,"is_disabled":false,"rental_uris":{"android":"levelo://app?vid=e29d5920-fe1b-49cc-968a-56ede16ef13f","ios":"levelo://app?vid=e29d5920-fe1b-49cc-968a-56ede16ef13f"},"vehicle_type_id":"4","last_reported":1708635988,"current_range_meters":28800,"station_id":"ce4bgih2rcd13ifvqba0","pricing_plan_id":"cebpf4jnsgd1na2vs0mg"},{"bike_id":"7aaded17-b28a-40b0-8fce-5f8c381c2b4f","system_id":"levelo_inurba_marseille","lat":43.302008,"lon":5.394694,"is_reserved":false,"is_disabled":false,"rental_uris":{"android":"levelo://app?vid=7aaded17-b28a-40b0-8fce-5f8c381c2b4f","ios":"levelo://app?vid=7aaded17-b28a-40b0-8fce-5f8c381c2b4f"},"vehicle_type_id":"4","last_reported":1708635988,"current_range_meters":26400,"station_id":"ce4bh0p2rcd13ifvqd70","pricing_plan_id":"cebpf4jnsgd1na2vs0mg"},{"bike_id":"c8324f64-7e03-4fb7-b063-40969907bd4a","system_id":"levelo_inurba_marseille","lat":43.290624,"lon":5.359245,"is_reserved":false,"is_disabled":false,"rental_uris":{"android":"levelo://app?vid=c8324f64-7e03-4fb7-b063-40969907bd4a","ios":"levelo://app?vid=c8324f64-7e03-4fb7-b063-40969907bd4a"},"vehicle_type_id":"4","last_reported":1708635988,"current_range_meters":8800,"station_id":"ce4bha92rcd13ifvqeg0","pricing_plan_id":"cebpf4jnsgd1na2vs0mg"},{"bike_id":"20b6b4d8-5f23-47f7-bddb-f4aacde6e4cf","system_id":"levelo_inurba_marseille","lat":43.290631,"lon":5.359244,"is_reserved":false,"is_disabled":false,"rental_uris":{"android":"levelo://app?vid=20b6b4d8-5f23-47f7-bddb-f4aacde6e4cf","ios":"levelo://app?vid=20b6b4d8-5f23-47f7-bddb-f4aacde6e4cf"},"vehicle_type_id":"4","last_reported":1708635988,"current_range_meters":16000,"station_id":"ce4bha92rcd13ifvqeg0","pricing_plan_id":"cebpf4jnsgd1na2vs0mg"},{"bike_id":"62f7a879-0215-4ae0-8b8c-9d1515814f51","system_id":"levelo_inurba_marseille","lat":43.29426,"lon":5.38621,"is_reserved":false,"is_disabled":false,"rental_uris":{"android":"levelo://app?vid=62f7a879-0215-4ae0-8b8c-9d1515814f51","ios":"levelo://app?vid=62f7a879-0215-4ae0-8b8c-9d1515814f51"},"vehicle_type_id":"4","last_reported":1708635988,"current_range_meters":18000,"station_id":"ce4bh2h2rcd13ifvqdh0","pricing_plan_id":"cebpf4jnsgd1na2vs0mg"},{"bike_id":"1ba3de76-7031-4f54-84d3-3b1562639dd6","system_id":"levelo_inurba_marseille","lat":43.29422,"lon":5.38618,"is_reserved":false,"is_disabled":false,"rental_uris":{"android":"levelo://app?vid=1ba3de76-7031-4f54-84d3-3b1562639dd6","ios":"levelo://app?vid=1ba3de76-7031-4f54-84d3-3b1562639dd6"},"vehicle_type_id":"4","last_reported":1708635988,"current_range_meters":10400,"station_id":"ce4bh2h2rcd13ifvqdh0","pricing_plan_id":"cebpf4jnsgd1na2vs0mg"},{"bike_id":"0e354777-7394-4edb-81f3-705822e8a340","system_id":"levelo_inurba_marseille","lat":43.29421,"lon":5.38619,"is_reserved":false,"is_disabled":false,"rental_uris":{"android":"levelo://app?vid=0e354777-7394-4edb-81f3-705822e8a340","ios":"levelo://app?vid=0e354777-7394-4edb-81f3-705822e8a340"},"vehicle_type_id":"4","last_reported":1708635988,"current_range_meters":0,"station_id":"ce4bh2h2rcd13ifvqdh0","pricing_plan_id":"cebpf4jnsgd1na2vs0mg"},{"bike_id":"bf45a0be-55f7-4075-b36d-12a610be577c","system_id":"levelo_inurba_marseille","lat":43.29421,"lon":5.38621,"is_reserved":false,"is_disabled":false,"rental_uris":{"android":"levelo://app?vid=bf45a0be-55f7-4075-b36d-12a610be577c","ios":"levelo://app?vid=bf45a0be-55f7-4075-b36d-12a610be577c"},"vehicle_type_id":"4","last_reported":1708635988,"current_range_meters":6000,"station_id":"ce4bh2h2rcd13ifvqdh0","pricing_plan_id":"cebpf4jnsgd1na2vs0mg"},{"bike_id":"b9dd3302-1a4d-4c94-9165-2569a39f6ca2","system_id":"levelo_inurba_marseille","lat":43.29421,"lon":5.38621,"is_reserved":false,"is_disabled":false,"rental_uris":{"android":"levelo://app?vid=b9dd3302-1a4d-4c94-9165-2569a39f6ca2","ios":"levelo://app?vid=b9dd3302-1a4d-4c94-9165-2569a39f6ca2"},"vehicle_type_id":"4","last_reported":1708635988,"current_range_meters":14800,"station_id":"ce4bh2h2rcd13ifvqdh0","pricing_plan_id":"cebpf4jnsgd1na2vs0mg"},{"bike_id":"c5bf1255-6129-490d-8034-d267b6f999fa","system_id":"levelo_inurba_marseille","lat":43.294153,"lon":5.386305,"is_reserved":false,"is_disabled":false,"rental_uris":{"android":"levelo://app?vid=c5bf1255-6129-490d-8034-d267b6f999fa","ios":"levelo://app?vid=c5bf1255-6129-490d-8034-d267b6f999fa"},"vehicle_type_id":"4","last_reported":1708635988,"current_range_meters":31200,"station_id":"ce4bh2h2rcd13ifvqdh0","pricing_plan_id":"cebpf4jnsgd1na2vs0mg"},{"bike_id":"78571a84-9867-4739-a3da-99546482b1cf","system_id":"levelo_inurba_marseille","lat":43.29421,"lon":5.38624,"is_reserved":false,"is_disabled":false,"rental_uris":{"android":"levelo://app?vid=78571a84-9867-4739-a3da-99546482b1cf","ios":"levelo://app?vid=78571a84-9867-4739-a3da-99546482b1cf"},"vehicle_type_id":"4","last_reported":1708635988,"current_range_meters":23200,"station_id":"ce4bh2h2rcd13ifvqdh0","pricing_plan_id":"cebpf4jnsgd1na2vs0mg"},{"bike_id":"045341d0-e241-480e-9831-adc569ab1c3a","system_id":"levelo_inurba_marseille","lat":43.29421,"lon":5.38624,"is_reserved":false,"is_disabled":false,"rental_uris":{"android":"levelo://app?vid=045341d0-e241-480e-9831-adc569ab1c3a","ios":"levelo://app?vid=045341d0-e241-480e-9831-adc569ab1c3a"},"vehicle_type_id":"4","last_reported":1708635988,"current_range_meters":13600,"station_id":"ce4bh2h2rcd13ifvqdh0","pricing_plan_id":"cebpf4jnsgd1na2vs0mg"},{"bike_id":"bf17192f-bcdd-4bb9-8876-b89a024dabd0","system_id":"levelo_inurba_marseille","lat":43.29418,"lon":5.38619,"is_reserved":false,"is_disabled":false,"rental_uris":{"android":"levelo://app?vid=bf17192f-bcdd-4bb9-8876-b89a024dabd0","ios":"levelo://app?vid=bf17192f-bcdd-4bb9-8876-b89a024dabd0"},"vehicle_type_id":"4","last_reported":1708635988,"current_range_meters":11600,"station_id":"ce4bh2h2rcd13ifvqdh0","pricing_plan_id":"cebpf4jnsgd1na2vs0mg"},{"bike_id":"63201bb8-b13c-41b6-bcae-b2076c258ba3","system_id":"levelo_inurba_marseille","lat":43.29421,"lon":5.38625,"is_reserved":false,"is_disabled":false,"rental_uris":{"android":"levelo://app?vid=63201bb8-b13c-41b6-bcae-b2076c258ba3","ios":"levelo://app?vid=63201bb8-b13c-41b6-bcae-b2076c258ba3"},"vehicle_type_id":"4","last_reported":1708635988,"current_range_meters":20800,"station_id":"ce4bh2h2rcd13ifvqdh0","pricing_plan_id":"cebpf4jnsgd1na2vs0mg"},{"bike_id":"6464c7aa-92b3-4c94-ac59-1d0956cafdff","system_id":"levelo_inurba_marseille","lat":43.294153,"lon":5.386305,"is_reserved":false,"is_disabled":false,"rental_uris":{"android":"levelo://app?vid=6464c7aa-92b3-4c94-ac59-1d0956cafdff","ios":"levelo://app?vid=6464c7aa-92b3-4c94-ac59-1d0956cafdff"},"vehicle_type_id":"4","last_reported":1708635988,"current_range_meters":27200,"station_id":"ce4bh2h2rcd13ifvqdh0","pricing_plan_id":"cebpf4jnsgd1na2vs0mg"},{"bike_id":"516e838a-410a-4958-ae4a-7f2757a233ba","system_id":"levelo_inurba_marseille","lat":43.2942,"lon":5.38624,"is_reserved":false,"is_disabled":false,"rental_uris":{"android":"levelo://app?vid=516e838a-410a-4958-ae4a-7f2757a233ba","ios":"levelo://app?vid=516e838a-410a-4958-ae4a-7f2757a233ba"},"vehicle_type_id":"4","last_reported":1708635988,"current_range_meters":16000,"station_id":"ce4bh2h2rcd13ifvqdh0","pricing_plan_id":"cebpf4jnsgd1na2vs0mg"},{"bike_id":"2082f8e4-518f-422d-81b8-d44acca9a0b0","system_id":"levelo_inurba_marseille","lat":43.29421,"lon":5.38626,"is_reserved":false,"is_disabled":false,"rental_uris":{"android":"levelo://app?vid=2082f8e4-518f-422d-81b8-d44acca9a0b0","ios":"levelo://app?vid=2082f8e4-518f-422d-81b8-d44acca9a0b0"},"vehicle_type_id":"4","last_reported":1708635988,"current_range_meters":27600,"station_id":"ce4bh2h2rcd13ifvqdh0","pricing_plan_id":"cebpf4jnsgd1na2vs0mg"},{"bike_id":"583f5550-03e2-4d59-a630-ba3659dd8df6","system_id":"levelo_inurba_marseille","lat":43.2942,"lon":5.38625,"is_reserved":false,"is_disabled":false,"rental_uris":{"android":"levelo://app?vid=583f5550-03e2-4d59-a630-ba3659dd8df6","ios":"levelo://app?vid=583f5550-03e2-4d59-a630-ba3659dd8df6"},"vehicle_type_id":"4","last_reported":1708635988,"current_range_meters":9200,"station_id":"ce4bh2h2rcd13ifvqdh0","pricing_plan_id":"cebpf4jnsgd1na2vs0mg"},{"bike_id":"92a27e34-4d9c-482b-89e8-79e8b0f4bcb8","system_id":"levelo_inurba_marseille","lat":43.2942,"lon":5.38625,"is_reserved":false,"is_disabled":false,"rental_uris":{"android":"levelo://app?vid=92a27e34-4d9c-482b-89e8-79e8b0f4bcb8","ios":"levelo://app?vid=92a27e34-4d9c-482b-89e8-79e8b0f4bcb8"},"vehicle_type_id":"4","last_reported":1708635988,"current_range_meters":31200,"station_id":"ce4bh2h2rcd13ifvqdh0","pricing_plan_id":"cebpf4jnsgd1na2vs0mg"},{"bike_id":"4a741e12-3e57-4070-a1f3-f64546cfff53","system_id":"levelo_inurba_marseille","lat":43.2942,"lon":5.38626,"is_reserved":false,"is_disabled":false,"rental_uris":{"android":"levelo://app?vid=4a741e12-3e57-4070-a1f3-f64546cfff53","ios":"levelo://app?vid=4a741e12-3e57-4070-a1f3-f64546cfff53"},"vehicle_type_id":"4","last_reported":1708635988,"current_range_meters":7200,"station_id":"ce4bh2h2rcd13ifvqdh0","pricing_plan_id":"cebpf4jnsgd1na2vs0mg"},{"bike_id":"a8c9d6dc-7a96-4a78-afb8-1cc3b4bd13b6","system_id":"levelo_inurba_marseille","lat":43.29418,"lon":5.38624,"is_reserved":false,"is_disabled":false,"rental_uris":{"android":"levelo://app?vid=a8c9d6dc-7a96-4a78-afb8-1cc3b4bd13b6","ios":"levelo://app?vid=a8c9d6dc-7a96-4a78-afb8-1cc3b4bd13b6"},"vehicle_type_id":"4","last_reported":1708635988,"current_range_meters":18400,"station_id":"ce4bh2h2rcd13ifvqdh0","pricing_plan_id":"cebpf4jnsgd1na2vs0mg"},{"bike_id":"b4ccfe3c-6e22-43b4-a913-41bd23c311a5","system_id":"levelo_inurba_marseille","lat":43.29422,"lon":5.38632,"is_reserved":false,"is_disabled":false,"rental_uris":{"android":"levelo://app?vid=b4ccfe3c-6e22-43b4-a913-41bd23c311a5","ios":"levelo://app?vid=b4ccfe3c-6e22-43b4-a913-41bd23c311a5"},"vehicle_type_id":"4","last_reported":1708635988,"current_range_meters":2000,"station_id":"ce4bh2h2rcd13ifvqdh0","pricing_plan_id":"cebpf4jnsgd1na2vs0mg"},{"bike_id":"15ec3980-284a-4641-a425-d71614675fb6","system_id":"levelo_inurba_marseille","lat":43.29418,"lon":5.38625,"is_reserved":false,"is_disabled":false,"rental_uris":{"android":"levelo://app?vid=15ec3980-284a-4641-a425-d71614675fb6","ios":"levelo://app?vid=15ec3980-284a-4641-a425-d71614675fb6"},"vehicle_type_id":"4","last_reported":1708635988,"current_range_meters":25200,"station_id":"ce4bh2h2rcd13ifvqdh0","pricing_plan_id":"cebpf4jnsgd1na2vs0mg"},{"bike_id":"2e465355-4d45-4a52-a664-b756a5a72e50","system_id":"levelo_inurba_marseille","lat":43.29414,"lon":5.38621,"is_reserved":false,"is_disabled":false,"rental_uris":{"android":"levelo://app?vid=2e465355-4d45-4a52-a664-b756a5a72e50","ios":"levelo://app?vid=2e465355-4d45-4a52-a664-b756a5a72e50"},"vehicle_type_id":"4","last_reported":1708635988,"current_range_meters":12400,"station_id":"ce4bh2h2rcd13ifvqdh0","pricing_plan_id":"cebpf4jnsgd1na2vs0mg"},{"bike_id":"ec1d8182-a3af-44ef-8449-7f66807c0485","system_id":"levelo_inurba_marseille","lat":43.29421,"lon":5.38634,"is_reserved":false,"is_disabled":false,"rental_uris":{"android":"levelo://app?vid=ec1d8182-a3af-44ef-8449-7f66807c0485","ios":"levelo://app?vid=ec1d8182-a3af-44ef-8449-7f66807c0485"},"vehicle_type_id":"4","last_reported":1708635988,"current_range_meters":0,"station_id":"ce4bh2h2rcd13ifvqdh0","pricing_plan_id":"cebpf4jnsgd1na2vs0mg"},{"bike_id":"49761e6a-d8e7-42c1-a00d-a0015e7613ec","system_id":"levelo_inurba_marseille","lat":43.29419,"lon":5.38631,"is_reserved":false,"is_disabled":false,"rental_uris":{"android":"levelo://app?vid=49761e6a-d8e7-42c1-a00d-a0015e7613ec","ios":"levelo://app?vid=49761e6a-d8e7-42c1-a00d-a0015e7613ec"},"vehicle_type_id":"4","last_reported":1708635988,"current_range_meters":18000,"station_id":"ce4bh2h2rcd13ifvqdh0","pricing_plan_id":"cebpf4jnsgd1na2vs0mg"},{"bike_id":"c96022a8-ebe8-49ef-931b-ca28dc8c3532","system_id":"levelo_inurba_marseille","lat":43.294233,"lon":5.386413,"is_reserved":false,"is_disabled":false,"rental_uris":{"android":"levelo://app?vid=c96022a8-ebe8-49ef-931b-ca28dc8c3532","ios":"levelo://app?vid=c96022a8-ebe8-49ef-931b-ca28dc8c3532"},"vehicle_type_id":"4","last_reported":1708635988,"current_range_meters":4000,"station_id":"ce4bh2h2rcd13ifvqdh0","pricing_plan_id":"cebpf4jnsgd1na2vs0mg"},{"bike_id":"69067008-d419-41f8-977b-b6e1b0ba0104","system_id":"levelo_inurba_marseille","lat":43.29418,"lon":5.38632,"is_reserved":false,"is_disabled":false,"rental_uris":{"android":"levelo://app?vid=69067008-d419-41f8-977b-b6e1b0ba0104","ios":"levelo://app?vid=69067008-d419-41f8-977b-b6e1b0ba0104"},"vehicle_type_id":"4","last_reported":1708635988,"current_range_meters":16800,"station_id":"ce4bh2h2rcd13ifvqdh0","pricing_plan_id":"cebpf4jnsgd1na2vs0mg"},{"bike_id":"1001ed5e-a199-4cdc-b077-b533dc0f39c8","system_id":"levelo_inurba_marseille","lat":43.29415,"lon":5.38629,"is_reserved":false,"is_disabled":false,"rental_uris":{"android":"levelo://app?vid=1001ed5e-a199-4cdc-b077-b533dc0f39c8","ios":"levelo://app?vid=1001ed5e-a199-4cdc-b077-b533dc0f39c8"},"vehicle_type_id":"4","last_reported":1708635988,"current_range_meters":10800,"station_id":"ce4bh2h2rcd13ifvqdh0","pricing_plan_id":"cebpf4jnsgd1na2vs0mg"},{"bike_id":"d3d3de03-1146-4da2-a50b-4e102eaa0f28","system_id":"levelo_inurba_marseille","lat":43.29414,"lon":5.38631,"is_reserved":false,"is_disabled":false,"rental_uris":{"android":"levelo://app?vid=d3d3de03-1146-4da2-a50b-4e102eaa0f28","ios":"levelo://app?vid=d3d3de03-1146-4da2-a50b-4e102eaa0f28"},"vehicle_type_id":"4","last_reported":1708635988,"current_range_meters":2000,"station_id":"ce4bh2h2rcd13ifvqdh0","pricing_plan_id":"cebpf4jnsgd1na2vs0mg"},{"bike_id":"d6f9220e-d691-4408-8c4e-b10a9d52c918","system_id":"levelo_inurba_marseille","lat":43.289184,"lon":5.366408,"is_reserved":false,"is_disabled":false,"rental_uris":{"android":"levelo://app?vid=d6f9220e-d691-4408-8c4e-b10a9d52c918","ios":"levelo://app?vid=d6f9220e-d691-4408-8c4e-b10a9d52c918"},"vehicle_type_id":"4","last_reported":1708635988,"current_range_meters":6800,"station_id":"ce4bhap2rcd13ifvqek0","pricing_plan_id":"cebpf4jnsgd1na2vs0mg"},{"bike_id":"4debd259-50af-4844-8eb8-9027bd95e428","system_id":"levelo_inurba_marseille","lat":43.289184,"lon":5.366408,"is_reserved":false,"is_disabled":false,"rental_uris":{"android":"levelo://app?vid=4debd259-50af-4844-8eb8-9027bd95e428","ios":"levelo://app?vid=4debd259-50af-4844-8eb8-9027bd95e428"},"vehicle_type_id":"4","last_reported":1708635988,"current_range_meters":3600,"station_id":"ce4bhap2rcd13ifvqek0","pricing_plan_id":"cebpf4jnsgd1na2vs0mg"},{"bike_id":"18cdb127-5916-4f10-ba56-0f6eb291dd2e","system_id":"levelo_inurba_marseille","lat":43.289468,"lon":5.363719,"is_reserved":false,"is_disabled":false,"rental_uris":{"android":"levelo://app?vid=18cdb127-5916-4f10-ba56-0f6eb291dd2e","ios":"levelo://app?vid=18cdb127-5916-4f10-ba56-0f6eb291dd2e"},"vehicle_type_id":"4","last_reported":1708635988,"current_range_meters":19200,"station_id":"ce4bhc92rcd13ifvqetg","pricing_plan_id":"cebpf4jnsgd1na2vs0mg"},{"bike_id":"79e7f6f0-6a71-4620-9624-e94d5509a1f4","system_id":"levelo_inurba_marseille","lat":43.289184,"lon":5.366408,"is_reserved":false,"is_disabled":false,"rental_uris":{"android":"levelo://app?vid=79e7f6f0-6a71-4620-9624-e94d5509a1f4","ios":"levelo://app?vid=79e7f6f0-6a71-4620-9624-e94d5509a1f4"},"vehicle_type_id":"4","last_reported":1708635988,"current_range_meters":0,"station_id":"ce4bhap2rcd13ifvqek0","pricing_plan_id":"cebpf4jnsgd1na2vs0mg"},{"bike_id":"b02f3df2-18e3-4834-bb36-5f2429c8252e","system_id":"levelo_inurba_marseille","lat":43.292642,"lon":5.384254,"is_reserved":false,"is_disabled":false,"rental_uris":{"android":"levelo://app?vid=b02f3df2-18e3-4834-bb36-5f2429c8252e","ios":"levelo://app?vid=b02f3df2-18e3-4834-bb36-5f2429c8252e"},"vehicle_type_id":"4","last_reported":1708635988,"current_range_meters":28000,"station_id":"ce4bh692rcd13ifvqea0","pricing_plan_id":"cebpf4jnsgd1na2vs0mg"},{"bike_id":"b703b73e-bef6-4303-ad8a-b84585127a93","system_id":"levelo_inurba_marseille","lat":43.292642,"lon":5.384254,"is_reserved":false,"is_disabled":false,"rental_uris":{"android":"levelo://app?vid=b703b73e-bef6-4303-ad8a-b84585127a93","ios":"levelo://app?vid=b703b73e-bef6-4303-ad8a-b84585127a93"},"vehicle_type_id":"4","last_reported":1708635988,"current_range_meters":7200,"station_id":"ce4bh692rcd13ifvqea0","pricing_plan_id":"cebpf4jnsgd1na2vs0mg"},{"bike_id":"0a3c3c28-ae36-4a4a-80d3-4d09ef26edca","system_id":"levelo_inurba_marseille","lat":43.29271,"lon":5.38442,"is_reserved":false,"is_disabled":false,"rental_uris":{"android":"levelo://app?vid=0a3c3c28-ae36-4a4a-80d3-4d09ef26edca","ios":"levelo://app?vid=0a3c3c28-ae36-4a4a-80d3-4d09ef26edca"},"vehicle_type_id":"4","last_reported":1708635988,"current_range_meters":11200,"station_id":"ce4bh692rcd13ifvqea0","pricing_plan_id":"cebpf4jnsgd1na2vs0mg"},{"bike_id":"4e462a36-5096-48f0-b389-be864158d70f","system_id":"levelo_inurba_marseille","lat":43.304296,"lon":5.397513,"is_reserved":false,"is_disabled":false,"rental_uris":{"android":"levelo://app?vid=4e462a36-5096-48f0-b389-be864158d70f","ios":"levelo://app?vid=4e462a36-5096-48f0-b389-be864158d70f"},"vehicle_type_id":"4","last_reported":1708635988,"current_range_meters":14400,"station_id":"ce4bh092rcd13ifvqd20","pricing_plan_id":"cebpf4jnsgd1na2vs0mg"},{"bike_id":"0d564d57-8539-43da-8c75-27a479dc3dbf","system_id":"levelo_inurba_marseille","lat":43.29266,"lon":5.38433,"is_reserved":false,"is_disabled":false,"rental_uris":{"android":"levelo://app?vid=0d564d57-8539-43da-8c75-27a479dc3dbf","ios":"levelo://app?vid=0d564d57-8539-43da-8c75-27a479dc3dbf"},"vehicle_type_id":"4","last_reported":1708635988,"current_range_meters":400,"station_id":"ce4bh692rcd13ifvqea0","pricing_plan_id":"cebpf4jnsgd1na2vs0mg"},{"bike_id":"9da2d190-af28-4e67-b284-7da4f8346cca","system_id":"levelo_inurba_marseille","lat":43.304296,"lon":5.397513,"is_reserved":false,"is_disabled":false,"rental_uris":{"android":"levelo://app?vid=9da2d190-af28-4e67-b284-7da4f8346cca","ios":"levelo://app?vid=9da2d190-af28-4e67-b284-7da4f8346cca"},"vehicle_type_id":"4","last_reported":1708635988,"current_range_meters":13200,"station_id":"ce4bh092rcd13ifvqd20","pricing_plan_id":"cebpf4jnsgd1na2vs0mg"},{"bike_id":"9623bb92-7992-470c-9142-23a33827db6d","system_id":"levelo_inurba_marseille","lat":43.304274,"lon":5.397513,"is_reserved":false,"is_disabled":false,"rental_uris":{"android":"levelo://app?vid=9623bb92-7992-470c-9142-23a33827db6d","ios":"levelo://app?vid=9623bb92-7992-470c-9142-23a33827db6d"},"vehicle_type_id":"4","last_reported":1708635988,"current_range_meters":2000,"station_id":"ce4bh092rcd13ifvqd20","pricing_plan_id":"cebpf4jnsgd1na2vs0mg"},{"bike_id":"ae2e92d2-35e3-4d14-851b-ae189023583d","system_id":"levelo_inurba_marseille","lat":43.29269,"lon":5.38445,"is_reserved":false,"is_disabled":false,"rental_uris":{"android":"levelo://app?vid=ae2e92d2-35e3-4d14-851b-ae189023583d","ios":"levelo://app?vid=ae2e92d2-35e3-4d14-851b-ae189023583d"},"vehicle_type_id":"4","last_reported":1708635988,"current_range_meters":0,"station_id":"ce4bh692rcd13ifvqea0","pricing_plan_id":"cebpf4jnsgd1na2vs0mg"},{"bike_id":"dfd0f931-cbbc-4e99-920d-058de1f516ce","system_id":"levelo_inurba_marseille","lat":43.29267,"lon":5.38441,"is_reserved":false,"is_disabled":false,"rental_uris":{"android":"levelo://app?vid=dfd0f931-cbbc-4e99-920d-058de1f516ce","ios":"levelo://app?vid=dfd0f931-cbbc-4e99-920d-058de1f516ce"},"vehicle_type_id":"4","last_reported":1708635988,"current_range_meters":14000,"station_id":"ce4bh692rcd13ifvqea0","pricing_plan_id":"cebpf4jnsgd1na2vs0mg"},{"bike_id":"c64167d5-45db-4f31-a29d-b0cebf475c29","system_id":"levelo_inurba_marseille","lat":43.292644,"lon":5.384257,"is_reserved":false,"is_disabled":false,"rental_uris":{"android":"levelo://app?vid=c64167d5-45db-4f31-a29d-b0cebf475c29","ios":"levelo://app?vid=c64167d5-45db-4f31-a29d-b0cebf475c29"},"vehicle_type_id":"4","last_reported":1708635988,"current_range_meters":17200,"station_id":"ce4bh692rcd13ifvqea0","pricing_plan_id":"cebpf4jnsgd1na2vs0mg"},{"bike_id":"e42e68c4-b640-4b93-baa1-b24f2d5a20e3","system_id":"levelo_inurba_marseille","lat":43.292644,"lon":5.384257,"is_reserved":false,"is_disabled":false,"rental_uris":{"android":"levelo://app?vid=e42e68c4-b640-4b93-baa1-b24f2d5a20e3","ios":"levelo://app?vid=e42e68c4-b640-4b93-baa1-b24f2d5a20e3"},"vehicle_type_id":"4","last_reported":1708635988,"current_range_meters":16400,"station_id":"ce4bh692rcd13ifvqea0","pricing_plan_id":"cebpf4jnsgd1na2vs0mg"},{"bike_id":"cff20af8-517e-4c15-a2a2-42be51fe65f5","system_id":"levelo_inurba_marseille","lat":43.29265,"lon":5.38443,"is_reserved":false,"is_disabled":false,"rental_uris":{"android":"levelo://app?vid=cff20af8-517e-4c15-a2a2-42be51fe65f5","ios":"levelo://app?vid=cff20af8-517e-4c15-a2a2-42be51fe65f5"},"vehicle_type_id":"4","last_reported":1708635988,"current_range_meters":4000,"station_id":"ce4bh692rcd13ifvqea0","pricing_plan_id":"cebpf4jnsgd1na2vs0mg"},{"bike_id":"61076c38-b1c9-4ad1-9237-d94892b17d9d","system_id":"levelo_inurba_marseille","lat":43.29261,"lon":5.38437,"is_reserved":false,"is_disabled":false,"rental_uris":{"android":"levelo://app?vid=61076c38-b1c9-4ad1-9237-d94892b17d9d","ios":"levelo://app?vid=61076c38-b1c9-4ad1-9237-d94892b17d9d"},"vehicle_type_id":"4","last_reported":1708635988,"current_range_meters":19200,"station_id":"ce4bh692rcd13ifvqea0","pricing_plan_id":"cebpf4jnsgd1na2vs0mg"},{"bike_id":"f2984e6c-6ce2-4949-b10c-c98b60b91e6f","system_id":"levelo_inurba_marseille","lat":43.292644,"lon":5.384257,"is_reserved":false,"is_disabled":false,"rental_uris":{"android":"levelo://app?vid=f2984e6c-6ce2-4949-b10c-c98b60b91e6f","ios":"levelo://app?vid=f2984e6c-6ce2-4949-b10c-c98b60b91e6f"},"vehicle_type_id":"4","last_reported":1708635988,"current_range_meters":15200,"station_id":"ce4bh692rcd13ifvqea0","pricing_plan_id":"cebpf4jnsgd1na2vs0mg"},{"bike_id":"5d69607a-43e5-4ce6-83f0-b2b5291e89f4","system_id":"levelo_inurba_marseille","lat":43.304274,"lon":5.397513,"is_reserved":false,"is_disabled":false,"rental_uris":{"android":"levelo://app?vid=5d69607a-43e5-4ce6-83f0-b2b5291e89f4","ios":"levelo://app?vid=5d69607a-43e5-4ce6-83f0-b2b5291e89f4"},"vehicle_type_id":"4","last_reported":1708635988,"current_range_meters":21600,"station_id":"ce4bh092rcd13ifvqd20","pricing_plan_id":"cebpf4jnsgd1na2vs0mg"},{"bike_id":"029f422c-5aea-42b3-b199-dbeac614e81f","system_id":"levelo_inurba_marseille","lat":43.292642,"lon":5.384254,"is_reserved":false,"is_disabled":false,"rental_uris":{"android":"levelo://app?vid=029f422c-5aea-42b3-b199-dbeac614e81f","ios":"levelo://app?vid=029f422c-5aea-42b3-b199-dbeac614e81f"},"vehicle_type_id":"4","last_reported":1708635988,"current_range_meters":25200,"station_id":"ce4bh692rcd13ifvqea0","pricing_plan_id":"cebpf4jnsgd1na2vs0mg"},{"bike_id":"c5222462-6984-4c98-b4d3-8d89fa1d72a7","system_id":"levelo_inurba_marseille","lat":43.29263,"lon":5.384498,"is_reserved":false,"is_disabled":false,"rental_uris":{"android":"levelo://app?vid=c5222462-6984-4c98-b4d3-8d89fa1d72a7","ios":"levelo://app?vid=c5222462-6984-4c98-b4d3-8d89fa1d72a7"},"vehicle_type_id":"4","last_reported":1708635988,"current_range_meters":2000,"station_id":"ce4bh692rcd13ifvqea0","pricing_plan_id":"cebpf4jnsgd1na2vs0mg"},{"bike_id":"90a528ad-73d8-451f-947f-d8f333f1b02b","system_id":"levelo_inurba_marseille","lat":43.292644,"lon":5.384257,"is_reserved":false,"is_disabled":false,"rental_uris":{"android":"levelo://app?vid=90a528ad-73d8-451f-947f-d8f333f1b02b","ios":"levelo://app?vid=90a528ad-73d8-451f-947f-d8f333f1b02b"},"vehicle_type_id":"4","last_reported":1708635988,"current_range_meters":2800,"station_id":"ce4bh692rcd13ifvqea0","pricing_plan_id":"cebpf4jnsgd1na2vs0mg"},{"bike_id":"17537da2-d5f5-4f8a-844d-f7dbc31116bb","system_id":"levelo_inurba_marseille","lat":43.292644,"lon":5.384257,"is_reserved":false,"is_disabled":false,"rental_uris":{"android":"levelo://app?vid=17537da2-d5f5-4f8a-844d-f7dbc31116bb","ios":"levelo://app?vid=17537da2-d5f5-4f8a-844d-f7dbc31116bb"},"vehicle_type_id":"4","last_reported":1708635988,"current_range_meters":28000,"station_id":"ce4bh692rcd13ifvqea0","pricing_plan_id":"cebpf4jnsgd1na2vs0mg"},{"bike_id":"ffdf6d97-c0d6-4a7c-b10c-5bc6320468e4","system_id":"levelo_inurba_marseille","lat":43.304274,"lon":5.397513,"is_reserved":false,"is_disabled":false,"rental_uris":{"android":"levelo://app?vid=ffdf6d97-c0d6-4a7c-b10c-5bc6320468e4","ios":"levelo://app?vid=ffdf6d97-c0d6-4a7c-b10c-5bc6320468e4"},"vehicle_type_id":"4","last_reported":1708635988,"current_range_meters":28800,"station_id":"ce4bh092rcd13ifvqd20","pricing_plan_id":"cebpf4jnsgd1na2vs0mg"},{"bike_id":"80d097b1-78e9-4645-b4a8-fa0553b84cb3","system_id":"levelo_inurba_marseille","lat":43.292642,"lon":5.384254,"is_reserved":false,"is_disabled":false,"rental_uris":{"android":"levelo://app?vid=80d097b1-78e9-4645-b4a8-fa0553b84cb3","ios":"levelo://app?vid=80d097b1-78e9-4645-b4a8-fa0553b84cb3"},"vehicle_type_id":"4","last_reported":1708635988,"current_range_meters":17200,"station_id":"ce4bh692rcd13ifvqea0","pricing_plan_id":"cebpf4jnsgd1na2vs0mg"},{"bike_id":"64c8a977-e817-4529-bbbf-d54830de4873","system_id":"levelo_inurba_marseille","lat":43.29103,"lon":5.38085,"is_reserved":false,"is_disabled":false,"rental_uris":{"android":"levelo://app?vid=64c8a977-e817-4529-bbbf-d54830de4873","ios":"levelo://app?vid=64c8a977-e817-4529-bbbf-d54830de4873"},"vehicle_type_id":"4","last_reported":1708635988,"current_range_meters":4000,"station_id":"","pricing_plan_id":"cebpf4jnsgd1na2vs0mg"},{"bike_id":"b4e1bb0a-d921-4c5a-8a63-07a4fb4a4652","system_id":"levelo_inurba_marseille","lat":43.290103,"lon":5.356114,"is_reserved":false,"is_disabled":false,"rental_uris":{"android":"levelo://app?vid=b4e1bb0a-d921-4c5a-8a63-07a4fb4a4652","ios":"levelo://app?vid=b4e1bb0a-d921-4c5a-8a63-07a4fb4a4652"},"vehicle_type_id":"4","last_reported":1708635988,"current_range_meters":25200,"station_id":"ce4bhb92rcd13ifvqen0","pricing_plan_id":"cebpf4jnsgd1na2vs0mg"},{"bike_id":"4dafc22f-1bd7-4bf1-b7cf-c4881d719ac4","system_id":"levelo_inurba_marseille","lat":43.290103,"lon":5.356114,"is_reserved":false,"is_disabled":false,"rental_uris":{"android":"levelo://app?vid=4dafc22f-1bd7-4bf1-b7cf-c4881d719ac4","ios":"levelo://app?vid=4dafc22f-1bd7-4bf1-b7cf-c4881d719ac4"},"vehicle_type_id":"4","last_reported":1708635988,"current_range_meters":22000,"station_id":"ce4bhb92rcd13ifvqen0","pricing_plan_id":"cebpf4jnsgd1na2vs0mg"},{"bike_id":"8c782570-f421-40ab-a4ef-0e740ceb405c","system_id":"levelo_inurba_marseille","lat":43.290995,"lon":5.381361,"is_reserved":false,"is_disabled":false,"rental_uris":{"android":"levelo://app?vid=8c782570-f421-40ab-a4ef-0e740ceb405c","ios":"levelo://app?vid=8c782570-f421-40ab-a4ef-0e740ceb405c"},"vehicle_type_id":"4","last_reported":1708635988,"current_range_meters":28000,"station_id":"ce4bh512rcd13ifvqe2g","pricing_plan_id":"cebpf4jnsgd1na2vs0mg"},{"bike_id":"5a74c956-9871-4b63-a195-79b3aeb1a1f9","system_id":"levelo_inurba_marseille","lat":43.290995,"lon":5.381361,"is_reserved":false,"is_disabled":false,"rental_uris":{"android":"levelo://app?vid=5a74c956-9871-4b63-a195-79b3aeb1a1f9","ios":"levelo://app?vid=5a74c956-9871-4b63-a195-79b3aeb1a1f9"},"vehicle_type_id":"4","last_reported":1708635988,"current_range_meters":12000,"station_id":"ce4bh512rcd13ifvqe2g","pricing_plan_id":"cebpf4jnsgd1na2vs0mg"},{"bike_id":"925a2a0c-53ef-4c57-b6bf-f33d3cab3d49","system_id":"levelo_inurba_marseille","lat":43.290995,"lon":5.381361,"is_reserved":false,"is_disabled":false,"rental_uris":{"android":"levelo://app?vid=925a2a0c-53ef-4c57-b6bf-f33d3cab3d49","ios":"levelo://app?vid=925a2a0c-53ef-4c57-b6bf-f33d3cab3d49"},"vehicle_type_id":"4","last_reported":1708635988,"current_range_meters":29200,"station_id":"ce4bh512rcd13ifvqe2g","pricing_plan_id":"cebpf4jnsgd1na2vs0mg"},{"bike_id":"4d3f7bb6-2acf-436c-a3a1-f8bfd7a71eff","system_id":"levelo_inurba_marseille","lat":43.295169,"lon":5.390426,"is_reserved":false,"is_disabled":false,"rental_uris":{"android":"levelo://app?vid=4d3f7bb6-2acf-436c-a3a1-f8bfd7a71eff","ios":"levelo://app?vid=4d3f7bb6-2acf-436c-a3a1-f8bfd7a71eff"},"vehicle_type_id":"4","last_reported":1708635988,"current_range_meters":30000,"station_id":"ce4bh3p2rcd13ifvqdp0","pricing_plan_id":"cebpf4jnsgd1na2vs0mg"},{"bike_id":"7f766847-49a7-496f-b905-34fc6a102a5b","system_id":"levelo_inurba_marseille","lat":43.295169,"lon":5.390426,"is_reserved":false,"is_disabled":false,"rental_uris":{"android":"levelo://app?vid=7f766847-49a7-496f-b905-34fc6a102a5b","ios":"levelo://app?vid=7f766847-49a7-496f-b905-34fc6a102a5b"},"vehicle_type_id":"4","last_reported":1708635988,"current_range_meters":15600,"station_id":"ce4bh3p2rcd13ifvqdp0","pricing_plan_id":"cebpf4jnsgd1na2vs0mg"},{"bike_id":"fbfc10a0-e41e-4b91-b4dd-96c4e132d65c","system_id":"levelo_inurba_marseille","lat":43.330442,"lon":5.389148,"is_reserved":false,"is_disabled":false,"rental_uris":{"android":"levelo://app?vid=fbfc10a0-e41e-4b91-b4dd-96c4e132d65c","ios":"levelo://app?vid=fbfc10a0-e41e-4b91-b4dd-96c4e132d65c"},"vehicle_type_id":"4","last_reported":1708635988,"current_range_meters":30800,"station_id":"ce4bhr92rcd13ifvqhrg","pricing_plan_id":"cebpf4jnsgd1na2vs0mg"},{"bike_id":"306a85d5-c1d1-4c0a-b12a-575f7851eeaa","system_id":"levelo_inurba_marseille","lat":43.330442,"lon":5.389148,"is_reserved":false,"is_disabled":false,"rental_uris":{"android":"levelo://app?vid=306a85d5-c1d1-4c0a-b12a-575f7851eeaa","ios":"levelo://app?vid=306a85d5-c1d1-4c0a-b12a-575f7851eeaa"},"vehicle_type_id":"4","last_reported":1708635988,"current_range_meters":6000,"station_id":"ce4bhr92rcd13ifvqhrg","pricing_plan_id":"cebpf4jnsgd1na2vs0mg"},{"bike_id":"1032d1de-adc4-4ad7-90ee-18a9d70d0011","system_id":"levelo_inurba_marseille","lat":43.2953,"lon":5.39043,"is_reserved":false,"is_disabled":false,"rental_uris":{"android":"levelo://app?vid=1032d1de-adc4-4ad7-90ee-18a9d70d0011","ios":"levelo://app?vid=1032d1de-adc4-4ad7-90ee-18a9d70d0011"},"vehicle_type_id":"4","last_reported":1708635988,"current_range_meters":3200,"station_id":"ce4bh3p2rcd13ifvqdp0","pricing_plan_id":"cebpf4jnsgd1na2vs0mg"},{"bike_id":"f30b26f5-5218-4deb-98de-3c92d86297fe","system_id":"levelo_inurba_marseille","lat":43.29527,"lon":5.3904,"is_reserved":false,"is_disabled":false,"rental_uris":{"android":"levelo://app?vid=f30b26f5-5218-4deb-98de-3c92d86297fe","ios":"levelo://app?vid=f30b26f5-5218-4deb-98de-3c92d86297fe"},"vehicle_type_id":"4","last_reported":1708635988,"current_range_meters":28800,"station_id":"ce4bh3p2rcd13ifvqdp0","pricing_plan_id":"cebpf4jnsgd1na2vs0mg"},{"bike_id":"ca5866e8-47d5-4267-959c-39102a3cc961","system_id":"levelo_inurba_marseille","lat":43.330442,"lon":5.389148,"is_reserved":false,"is_disabled":false,"rental_uris":{"android":"levelo://app?vid=ca5866e8-47d5-4267-959c-39102a3cc961","ios":"levelo://app?vid=ca5866e8-47d5-4267-959c-39102a3cc961"},"vehicle_type_id":"4","last_reported":1708635988,"current_range_meters":0,"station_id":"ce4bhr92rcd13ifvqhrg","pricing_plan_id":"cebpf4jnsgd1na2vs0mg"},{"bike_id":"b9ea7c8f-2db3-4257-95e0-6fcf3570fda9","system_id":"levelo_inurba_marseille","lat":43.330442,"lon":5.389148,"is_reserved":false,"is_disabled":false,"rental_uris":{"android":"levelo://app?vid=b9ea7c8f-2db3-4257-95e0-6fcf3570fda9","ios":"levelo://app?vid=b9ea7c8f-2db3-4257-95e0-6fcf3570fda9"},"vehicle_type_id":"4","last_reported":1708635988,"current_range_meters":31600,"station_id":"ce4bhr92rcd13ifvqhrg","pricing_plan_id":"cebpf4jnsgd1na2vs0mg"},{"bike_id":"5e177c8e-f054-4fbc-8385-0b48c54a04f0","system_id":"levelo_inurba_marseille","lat":43.330442,"lon":5.389148,"is_reserved":false,"is_disabled":false,"rental_uris":{"android":"levelo://app?vid=5e177c8e-f054-4fbc-8385-0b48c54a04f0","ios":"levelo://app?vid=5e177c8e-f054-4fbc-8385-0b48c54a04f0"},"vehicle_type_id":"4","last_reported":1708635988,"current_range_meters":0,"station_id":"ce4bhr92rcd13ifvqhrg","pricing_plan_id":"cebpf4jnsgd1na2vs0mg"},{"bike_id":"e1016f26-7c22-4202-aac9-b6cdfd95ce33","system_id":"levelo_inurba_marseille","lat":43.330442,"lon":5.389148,"is_reserved":false,"is_disabled":false,"rental_uris":{"android":"levelo://app?vid=e1016f26-7c22-4202-aac9-b6cdfd95ce33","ios":"levelo://app?vid=e1016f26-7c22-4202-aac9-b6cdfd95ce33"},"vehicle_type_id":"4","last_reported":1708635988,"current_range_meters":0,"station_id":"ce4bhr92rcd13ifvqhrg","pricing_plan_id":"cebpf4jnsgd1na2vs0mg"},{"bike_id":"cf155bb5-2f70-48cd-8b14-d4c3ba534539","system_id":"levelo_inurba_marseille","lat":43.330442,"lon":5.389148,"is_reserved":false,"is_disabled":false,"rental_uris":{"android":"levelo://app?vid=cf155bb5-2f70-48cd-8b14-d4c3ba534539","ios":"levelo://app?vid=cf155bb5-2f70-48cd-8b14-d4c3ba534539"},"vehicle_type_id":"4","last_reported":1708635988,"current_range_meters":29600,"station_id":"ce4bhr92rcd13ifvqhrg","pricing_plan_id":"cebpf4jnsgd1na2vs0mg"},{"bike_id":"756ace23-ca2a-4cce-b2b2-9b6ac606a40a","system_id":"levelo_inurba_marseille","lat":43.330442,"lon":5.389148,"is_reserved":false,"is_disabled":false,"rental_uris":{"android":"levelo://app?vid=756ace23-ca2a-4cce-b2b2-9b6ac606a40a","ios":"levelo://app?vid=756ace23-ca2a-4cce-b2b2-9b6ac606a40a"},"vehicle_type_id":"4","last_reported":1708635988,"current_range_meters":25200,"station_id":"ce4bhr92rcd13ifvqhrg","pricing_plan_id":"cebpf4jnsgd1na2vs0mg"},{"bike_id":"63087755-dc38-46be-9886-a26185875dea","system_id":"levelo_inurba_marseille","lat":43.33022,"lon":5.39043,"is_reserved":false,"is_disabled":false,"rental_uris":{"android":"levelo://app?vid=63087755-dc38-46be-9886-a26185875dea","ios":"levelo://app?vid=63087755-dc38-46be-9886-a26185875dea"},"vehicle_type_id":"4","last_reported":1708635988,"current_range_meters":800,"station_id":"ce4bhr92rcd13ifvqhrg","pricing_plan_id":"cebpf4jnsgd1na2vs0mg"},{"bike_id":"2b01dac5-9e48-44e7-a319-d8a63694993e","system_id":"levelo_inurba_marseille","lat":43.295169,"lon":5.390426,"is_reserved":false,"is_disabled":false,"rental_uris":{"android":"levelo://app?vid=2b01dac5-9e48-44e7-a319-d8a63694993e","ios":"levelo://app?vid=2b01dac5-9e48-44e7-a319-d8a63694993e"},"vehicle_type_id":"4","last_reported":1708635988,"current_range_meters":18000,"station_id":"ce4bh3p2rcd13ifvqdp0","pricing_plan_id":"cebpf4jnsgd1na2vs0mg"},{"bike_id":"ce43338c-49d0-448c-ba17-93b61b2152bd","system_id":"levelo_inurba_marseille","lat":43.330442,"lon":5.389148,"is_reserved":false,"is_disabled":false,"rental_uris":{"android":"levelo://app?vid=ce43338c-49d0-448c-ba17-93b61b2152bd","ios":"levelo://app?vid=ce43338c-49d0-448c-ba17-93b61b2152bd"},"vehicle_type_id":"4","last_reported":1708635988,"current_range_meters":30400,"station_id":"ce4bhr92rcd13ifvqhrg","pricing_plan_id":"cebpf4jnsgd1na2vs0mg"},