{"last_updated":1693069500,"ttl":30,"version":"2.2","data":{"bikes":[{"bike_id":"f22ca441-4e4e-4660-b824-b2f46943e54d","system_id":"levelo_inurba_marseille","lat":43.31222,"lon":5.36843,"is_reserved":false,"is_disabled":false,"rental_uris":{"android":"levelo://app?vid=f22ca441-4e4e-4660-b824-b2f46943e54d","ios":"levelo://app?vid=f22ca441-4e4e-4660-b824-b2f46943e54d"},"vehicle_type_id":"4","last_reported":1693069501,"current_range_meters":31200,"station_id":"ce4bgl92rcd13ifvqbq0","pricing_plan_id":"free"},{"bike_id":"7415f282-0ab2-4093-96c4-f10564e453e2","system_id":"levelo_inurba_marseille","lat":43.312239,"lon":5.368562,"is_reserved":false,"is_disabled":false,"rental_uris":{"android":"levelo://app?vid=7415f282-0ab2-4093-96c4-f10564e453e2","ios":"levelo://app?vid=7415f282-0ab2-4093-96c4-f10564e453e2"},"vehicle_type_id":"4","last_reported":1693069501,"current_range_meters":1600,"station_id":"ce4bgl92rcd13ifvqbq0","pricing_plan_id":"free"},{"bike_id":"65674239-bfb7-4928-84de-b7277febf7c2","system_id":"levelo_inurba_marseille","lat":43.31218,"lon":5.36852,"is_reserved":false,"is_disabled":false,"rental_uris":{"android":"levelo://app?vid=65674239-bfb7-4928-84de-b7277febf7c2","ios":"levelo://app?vid=65674239-bfb7-4928-84de-b7277febf7c2"},"vehicle_type_id":"4","last_reported":1693069501,"current_range_meters":31200,"station_id":"ce4bgl92rcd13ifvqbq0","pricing_plan_id":"free"},{"bike_id":"e3c4aad0-7b99-4a09-ad94-863437ff0df5","system_id":"levelo_inurba_marseille","lat":43.31402,"lon":5.37255,"is_reserved":false,"is_disabled":false,"rental_uris":{"android":"levelo://app?vid=e3c4aad0-7b99-4a09-ad94-863437ff0df5","ios":"levelo://app?vid=e3c4aad0-7b99-4a09-ad94-863437ff0df5"},"vehicle_type_id":"4","last_reported":1693069501,"current_range_meters":8000,"station_id":"","pricing_plan_id":"free"},{"bike_id":"d2be997d-44d2-40a5-bb20-02aeaaf65fa5","system_id":"levelo_inurba_marseille","lat":43.31484,"lon":5.37292,"is_reserved":false,"is_disabled":false,"rental_uris":{"android":"levelo://app?vid=d2be997d-44d2-40a5-bb20-02aeaaf65fa5","ios":"levelo://app?vid=d2be997d-44d2-40a5-bb20-02aeaaf65fa5"},"vehicle_type_id":"4","last_reported":1693069501,"current_range_meters":31200,"station_id":"ce4bgt12rcd13ifvqcd0","pricing_plan_id":"free"},{"bike_id":"9ada2ba4-1cd0-4895-adf4-69c6d68a35e4","system_id":"levelo_inurba_marseille","lat":43.314811,"lon":5.373103,"is_reserved":false,"is_disabled":false,"rental_uris":{"android":"levelo://app?vid=9ada2ba4-1cd0-4895-adf4-69c6d68a35e4","ios":"levelo://app?vid=9ada2ba4-1cd0-4895-adf4-69c6d68a35e4"},"vehicle_type_id":"4","last_reported":1693069501,"current_range_meters":11200,"station_id":"ce4bgt12rcd13ifvqcd0","pricing_plan_id":"free"},{"bike_id":"e664aa2f-86a0-4037-8e58-78e35f08f46f","system_id":"levelo_inurba_marseille","lat":43.3089,"lon":5.37187,"is_reserved":false,"is_disabled":false,"rental_uris":{"android":"levelo://app?vid=e664aa2f-86a0-4037-8e58-78e35f08f46f","ios":"levelo://app?vid=e664aa2f-86a0-4037-8e58-78e35f08f46f"},"vehicle_type_id":"4","last_reported":1693069501,"current_range_meters":4800,"station_id":"ce4bguh2rcd13ifvqckg","pricing_plan_id":"free"},{"bike_id":"b3ec4467-c525-45b9-b6d2-25ea156a5e5c","system_id":"levelo_inurba_marseille","lat":43.305712,"lon":5.365641,"is_reserved":false,"is_disabled":false,"rental_uris":{"android":"levelo://app?vid=b3ec4467-c525-45b9-b6d2-25ea156a5e5c","ios":"levelo://app?vid=b3ec4467-c525-45b9-b6d2-25ea156a5e5c"},"vehicle_type_id":"4","last_reported":1693069501,"current_range_meters":29600,"station_id":"ce4bgs12rcd13ifvqcag","pricing_plan_id":"free"},{"bike_id":"a49aa17c-ad5a-423f-a2e2-673b6f6c1ebc","system_id":"levelo_inurba_marseille","lat":43.305714,"lon":5.365633,"is_reserved":false,"is_disabled":false,"rental_uris":{"android":"levelo://app?vid=a49aa17c-ad5a-423f-a2e2-673b6f6c1ebc","ios":"levelo://app?vid=a49aa17c-ad5a-423f-a2e2-673b6f6c1ebc"},"vehicle_type_id":"4","last_reported":1693069501,"current_range_meters":28000,"station_id":"ce4bgs12rcd13ifvqcag","pricing_plan_id":"free"},{"bike_id":"ae50a2c3-d25a-46f2-a40e-3d14202f8049","system_id":"levelo_inurba_marseille","lat":43.305989,"lon":5.37225,"is_reserved":false,"is_disabled":false,"rental_uris":{"android":"levelo://app?vid=ae50a2c3-d25a-46f2-a40e-3d14202f8049","ios":"levelo://app?vid=ae50a2c3-d25a-46f2-a40e-3d14202f8049"},"vehicle_type_id":"4","last_reported":1693069501,"current_range_meters":5600,"station_id":"ce4bgqh2rcd13ifvqc4g","pricing_plan_id":"free"},{"bike_id":"acff5013-6581-45fd-99e3-c91b544b0700","system_id":"levelo_inurba_marseille","lat":43.306131,"lon":5.372365,"is_reserved":false,"is_disabled":false,"rental_uris":{"android":"levelo://app?vid=acff5013-6581-45fd-99e3-c91b544b0700","ios":"levelo://app?vid=acff5013-6581-45fd-99e3-c91b544b0700"},"vehicle_type_id":"4","last_reported":1693069501,"current_range_meters":26000,"station_id":"ce4bgqh2rcd13ifvqc4g","pricing_plan_id":"free"},{"bike_id":"7fa65dd8-70cb-46da-89a7-3477f10a823b","system_id":"levelo_inurba_marseille","lat":43.305989,"lon":5.37225,"is_reserved":false,"is_disabled":false,"rental_uris":{"android":"levelo://app?vid=7fa65dd8-70cb-46da-89a7-3477f10a823b","ios":"levelo://app?vid=7fa65dd8-70cb-46da-89a7-3477f10a823b"},"vehicle_type_id":"4","last_reported":1693069501,"current_range_meters":12800,"station_id":"ce4bgqh2rcd13ifvqc4g","pricing_plan_id":"free"},{"bike_id":"c9fde220-826a-4605-ac60-f1f90ee70b13","system_id":"levelo_inurba_marseille","lat":43.305989,"lon":5.37225,"is_reserved":false,"is_disabled":false,"rental_uris":{"android":"levelo://app?vid=c9fde220-826a-4605-ac60-f1f90ee70b13","ios":"levelo://app?vid=c9fde220-826a-4605-ac60-f1f90ee70b13"},"vehicle_type_id":"4","last_reported":1693069501,"current_range_meters":28000,"station_id":"ce4bgqh2rcd13ifvqc4g","pricing_plan_id":"free"},{"bike_id":"b5478040-3f38-482b-8685-3b3b903687cc","system_id":"levelo_inurba_marseille","lat":43.311125,"lon":5.377624,"is_reserved":false,"is_disabled":false,"rental_uris":{"android":"levelo://app?vid=b5478040-3f38-482b-8685-3b3b903687cc","ios":"levelo://app?vid=b5478040-3f38-482b-8685-3b3b903687cc"},"vehicle_type_id":"4","last_reported":1693069501,"current_range_meters":26800,"station_id":"ce4bgt92rcd13ifvqcg0","pricing_plan_id":"free"},{"bike_id":"d5b636a4-882a-4e60-92c5-2c1c88787bd9","system_id":"levelo_inurba_marseille","lat":43.3079,"lon":5.37646,"is_reserved":false,"is_disabled":false,"rental_uris":{"android":"levelo://app?vid=d5b636a4-882a-4e60-92c5-2c1c88787bd9","ios":"levelo://app?vid=d5b636a4-882a-4e60-92c5-2c1c88787bd9"},"vehicle_type_id":"4","last_reported":1693069501,"current_range_meters":9200,"station_id":"ce4bgv92rcd13ifvqcq0","pricing_plan_id":"free"},{"bike_id":"7aed7dd7-64c1-4f32-9021-f1e41eefb4fe","system_id":"levelo_inurba_marseille","lat":43.31073,"lon":5.37873,"is_reserved":false,"is_disabled":false,"rental_uris":{"android":"levelo://app?vid=7aed7dd7-64c1-4f32-9021-f1e41eefb4fe","ios":"levelo://app?vid=7aed7dd7-64c1-4f32-9021-f1e41eefb4fe"},"vehicle_type_id":"4","last_reported":1693069501,"current_range_meters":13600,"station_id":"","pricing_plan_id":"free"},{"bike_id":"d66dc022-a011-42df-aa90-acfbe8f76e6f","system_id":"levelo_inurba_marseille","lat":43.30309,"lon":5.36886,"is_reserved":false,"is_disabled":false,"rental_uris":{"android":"levelo://app?vid=d66dc022-a011-42df-aa90-acfbe8f76e6f","ios":"levelo://app?vid=d66dc022-a011-42df-aa90-acfbe8f76e6f"},"vehicle_type_id":"4","last_reported":1693069501,"current_range_meters":2000,"station_id":"ce4bgqh2rcd13ifvqc5g","pricing_plan_id":"free"},{"bike_id":"64663168-fdae-4143-8313-1123daec3d40","system_id":"levelo_inurba_marseille","lat":43.30192,"lon":5.36613,"is_reserved":false,"is_disabled":false,"rental_uris":{"android":"levelo://app?vid=64663168-fdae-4143-8313-1123daec3d40","ios":"levelo://app?vid=64663168-fdae-4143-8313-1123daec3d40"},"vehicle_type_id":"4","last_reported":1693069501,"current_range_meters":27200,"station_id":"ce4bgrh2rcd13ifvqc8g","pricing_plan_id":"free"},{"bike_id":"07d4fd20-6b48-4e12-b9fd-b3d2fcefc6bc","system_id":"levelo_inurba_marseille","lat":43.32393,"lon":5.37013,"is_reserved":false,"is_disabled":false,"rental_uris":{"android":"levelo://app?vid=07d4fd20-6b48-4e12-b9fd-b3d2fcefc6bc","ios":"levelo://app?vid=07d4fd20-6b48-4e12-b9fd-b3d2fcefc6bc"},"vehicle_type_id":"4","last_reported":1693069501,"current_range_meters":8800,"station_id":"","pricing_plan_id":"free"},{"bike_id":"e14011d4-70c8-482b-a069-d20f8cb9b36a","system_id":"levelo_inurba_marseille","lat":43.32407,"lon":5.36997,"is_reserved":false,"is_disabled":false,"rental_uris":{"android":"levelo://app?vid=e14011d4-70c8-482b-a069-d20f8cb9b36a","ios":"levelo://app?vid=e14011d4-70c8-482b-a069-d20f8cb9b36a"},"vehicle_type_id":"4","last_reported":1693069501,"current_range_meters":8400,"station_id":"","pricing_plan_id":"free"},{"bike_id":"6bbd08c1-2369-41f9-8aa0-da45b8b05274","system_id":"levelo_inurba_marseille","lat":43.308012,"lon":5.381511,"is_reserved":false,"is_disabled":false,"rental_uris":{"android":"levelo://app?vid=6bbd08c1-2369-41f9-8aa0-da45b8b05274","ios":"levelo://app?vid=6bbd08c1-2369-41f9-8aa0-da45b8b05274"},"vehicle_type_id":"4","last_reported":1693069501,"current_range_meters":11600,"station_id":"ce4bgt12rcd13ifvqce0","pricing_plan_id":"free"},{"bike_id":"3f81c7a6-2d47-4af8-86e8-c6771d5f8763","system_id":"levelo_inurba_marseille","lat":43.308012,"lon":5.381511,"is_reserved":false,"is_disabled":false,"rental_uris":{"android":"levelo://app?vid=3f81c7a6-2d47-4af8-86e8-c6771d5f8763","ios":"levelo://app?vid=3f81c7a6-2d47-4af8-86e8-c6771d5f8763"},"vehicle_type_id":"4","last_reported":1693069501,"current_range_meters":18400,"station_id":"ce4bgt12rcd13ifvqce0","pricing_plan_id":"free"},{"bike_id":"5247ba31-1c15-4a04-83f4-a8eedaaf6152","system_id":"levelo_inurba_marseille","lat":43.308012,"lon":5.381511,"is_reserved":false,"is_disabled":false,"rental_uris":{"android":"levelo://app?vid=5247ba31-1c15-4a04-83f4-a8eedaaf6152","ios":"levelo://app?vid=5247ba31-1c15-4a04-83f4-a8eedaaf6152"},"vehicle_type_id":"4","last_reported":1693069501,"current_range_meters":28000,"station_id":"ce4bgt12rcd13ifvqce0","pricing_plan_id":"free"},{"bike_id":"c23821ab-ad41-46b6-8c18-2cf157994e81","system_id":"levelo_inurba_marseille","lat":43.308012,"lon":5.381511,"is_reserved":false,"is_disabled":false,"rental_uris":{"android":"levelo://app?vid=c23821ab-ad41-46b6-8c18-2cf157994e81","ios":"levelo://app?vid=c23821ab-ad41-46b6-8c18-2cf157994e81"},"vehicle_type_id":"4","last_reported":1693069501,"current_range_meters":26000,"station_id":"ce4bgt12rcd13ifvqce0","pricing_plan_id":"free"},{"bike_id":"74541b68-8cfb-455f-a858-305b352dc4a0","system_id":"levelo_inurba_marseille","lat":43.308012,"lon":5.381511,"is_reserved":false,"is_disabled":false,"rental_uris":{"android":"levelo://app?vid=74541b68-8cfb-455f-a858-305b352dc4a0","ios":"levelo://app?vid=74541b68-8cfb-455f-a858-305b352dc4a0"},"vehicle_type_id":"4","last_reported":1693069501,"current_range_meters":28000,"station_id":"ce4bgt12rcd13ifvqce0","pricing_plan_id":"free"},{"bike_id":"1e930087-5767-409c-bc45-79c659e633ed","system_id":"levelo_inurba_marseille","lat":43.308012,"lon":5.381511,"is_reserved":false,"is_disabled":false,"rental_uris":{"android":"levelo://app?vid=1e930087-5767-409c-bc45-79c659e633ed","ios":"levelo://app?vid=1e930087-5767-409c-bc45-79c659e633ed"},"vehicle_type_id":"4","last_reported":1693069501,"current_range_meters":29600,"station_id":"ce4bgt12rcd13ifvqce0","pricing_plan_id":"free"},{"bike_id":"65089d44-0586-403f-b7d2-1ac123c8f54b","system_id":"levelo_inurba_marseille","lat":43.304606,"lon":5.379026,"is_reserved":false,"is_disabled":false,"rental_uris":{"android":"levelo://app?vid=65089d44-0586-403f-b7d2-1ac123c8f54b","ios":"levelo://app?vid=65089d44-0586-403f-b7d2-1ac123c8f54b"},"vehicle_type_id":"4","last_reported":1693069501,"current_range_meters":19200,"station_id":"ce4bgup2rcd13ifvqcn0","pricing_plan_id":"free"},{"bike_id":"c77de69b-855d-4740-9c09-8927d785f9c2","system_id":"levelo_inurba_marseille","lat":43.304606,"lon":5.379026,"is_reserved":false,"is_disabled":false,"rental_uris":{"android":"levelo://app?vid=c77de69b-855d-4740-9c09-8927d785f9c2","ios":"levelo://app?vid=c77de69b-855d-4740-9c09-8927d785f9c2"},"vehicle_type_id":"4","last_reported":1693069501,"current_range_meters":22800,"station_id":"ce4bgup2rcd13ifvqcn0","pricing_plan_id":"free"},{"bike_id":"a707963a-e29d-4d81-8271-bf5a93d0ee07","system_id":"levelo_inurba_marseille","lat":43.302784,"lon":5.377158,"is_reserved":false,"is_disabled":false,"rental_uris":{"android":"levelo://app?vid=a707963a-e29d-4d81-8271-bf5a93d0ee07","ios":"levelo://app?vid=a707963a-e29d-4d81-8271-bf5a93d0ee07"},"vehicle_type_id":"4","last_reported":1693069501,"current_range_meters":22800,"station_id":"ce4bguh2rcd13ifvqcj0","pricing_plan_id":"free"},{"bike_id":"c7a72889-083e-4b93-b5ea-24760adc43c4","system_id":"levelo_inurba_marseille","lat":43.31998,"lon":5.38147,"is_reserved":false,"is_disabled":false,"rental_uris":{"android":"levelo://app?vid=c7a72889-083e-4b93-b5ea-24760adc43c4","ios":"levelo://app?vid=c7a72889-083e-4b93-b5ea-24760adc43c4"},"vehicle_type_id":"4","last_reported":1693069501,"current_range_meters":7600,"station_id":"ce4bhr12rcd13ifvqhpg","pricing_plan_id":"free"},{"bike_id":"d7f586a0-e69a-4f5b-98e6-f1752ef0846e","system_id":"levelo_inurba_marseille","lat":43.31996,"lon":5.3815,"is_reserved":false,"is_disabled":false,"rental_uris":{"android":"levelo://app?vid=d7f586a0-e69a-4f5b-98e6-f1752ef0846e","ios":"levelo://app?vid=d7f586a0-e69a-4f5b-98e6-f1752ef0846e"},"vehicle_type_id":"4","last_reported":1693069501,"current_range_meters":14400,"station_id":"ce4bhr12rcd13ifvqhpg","pricing_plan_id":"free"},{"bike_id":"fb942c8d-a032-4a47-a636-553c9c5263ce","system_id":"levelo_inurba_marseille","lat":43.31994,"lon":5.38159,"is_reserved":false,"is_disabled":false,"rental_uris":{"android":"levelo://app?vid=fb942c8d-a032-4a47-a636-553c9c5263ce","ios":"levelo://app?vid=fb942c8d-a032-4a47-a636-553c9c5263ce"},"vehicle_type_id":"4","last_reported":1693069501,"current_range_meters":22400,"station_id":"ce4bhr12rcd13ifvqhpg","pricing_plan_id":"free"},{"bike_id":"5115edf8-f7de-47e7-b191-f8839d4d91be","system_id":"levelo_inurba_marseille","lat":43.31996,"lon":5.38166,"is_reserved":false,"is_disabled":false,"rental_uris":{"android":"levelo://app?vid=5115edf8-f7de-47e7-b191-f8839d4d91be","ios":"levelo://app?vid=5115edf8-f7de-47e7-b191-f8839d4d91be"},"vehicle_type_id":"4","last_reported":1693069501,"current_range_meters":31200,"station_id":"ce4bhr12rcd13ifvqhpg","pricing_plan_id":"free"},{"bike_id":"e217bc3b-ef0d-49a8-bf15-6224cb81584b","system_id":"levelo_inurba_marseille","lat":43.32002,"lon":5.38165,"is_reserved":false,"is_disabled":false,"rental_uris":{"android":"levelo://app?vid=e217bc3b-ef0d-49a8-bf15-6224cb81584b","ios":"levelo://app?vid=e217bc3b-ef0d-49a8-bf15-6224cb81584b"},"vehicle_type_id":"4","last_reported":1693069501,"current_range_meters":17200,"station_id":"ce4bhr12rcd13ifvqhpg","pricing_plan_id":"free"},{"bike_id":"8b3f047d-d5e9-49c6-836f-33da29f62b33","system_id":"levelo_inurba_marseille","lat":43.32,"lon":5.38167,"is_reserved":false,"is_disabled":false,"rental_uris":{"android":"levelo://app?vid=8b3f047d-d5e9-49c6-836f-33da29f62b33","ios":"levelo://app?vid=8b3f047d-d5e9-49c6-836f-33da29f62b33"},"vehicle_type_id":"4","last_reported":1693069501,"current_range_meters":30400,"station_id":"ce4bhr12rcd13ifvqhpg","pricing_plan_id":"free"},{"bike_id":"9a0185ce-6a15-47b8-88b4-a28d4447033f","system_id":"levelo_inurba_marseille","lat":43.313571,"lon":5.384829,"is_reserved":false,"is_disabled":false,"rental_uris":{"android":"levelo://app?vid=9a0185ce-6a15-47b8-88b4-a28d4447033f","ios":"levelo://app?vid=9a0185ce-6a15-47b8-88b4-a28d4447033f"},"vehicle_type_id":"4","last_reported":1693069501,"current_range_meters":28000,"station_id":"ce4bgt92rcd13ifvqcf0","pricing_plan_id":"free"},{"bike_id":"4b21a5d9-8335-43a4-b1e6-09c64a2b379c","system_id":"levelo_inurba_marseille","lat":43.313571,"lon":5.384829,"is_reserved":false,"is_disabled":false,"rental_uris":{"android":"levelo://app?vid=4b21a5d9-8335-43a4-b1e6-09c64a2b379c","ios":"levelo://app?vid=4b21a5d9-8335-43a4-b1e6-09c64a2b379c"},"vehicle_type_id":"4","last_reported":1693069501,"current_range_meters":30400,"station_id":"ce4bgt92rcd13ifvqcf0","pricing_plan_id":"free"},{"bike_id":"d1f3e524-1f68-4fc6-bd7c-4e014edd3b14","system_id":"levelo_inurba_marseille","lat":43.299411,"lon":5.365614,"is_reserved":false,"is_disabled":false,"rental_uris":{"android":"levelo://app?vid=d1f3e524-1f68-4fc6-bd7c-4e014edd3b14","ios":"levelo://app?vid=d1f3e524-1f68-4fc6-bd7c-4e014edd3b14"},"vehicle_type_id":"4","last_reported":1693069501,"current_range_meters":14800,"station_id":"","pricing_plan_id":"free"},{"bike_id":"cfc86cba-699e-4932-b983-8fccefe59407","system_id":"levelo_inurba_marseille","lat":43.299243,"lon":5.37481,"is_reserved":false,"is_disabled":false,"rental_uris":{"android":"levelo://app?vid=cfc86cba-699e-4932-b983-8fccefe59407","ios":"levelo://app?vid=cfc86cba-699e-4932-b983-8fccefe59407"},"vehicle_type_id":"4","last_reported":1693069501,"current_range_meters":19600,"station_id":"ce4bgjh2rcd13ifvqbg0","pricing_plan_id":"free"},{"bike_id":"35eec3a1-aa54-4990-8eb4-78e6c0dd24d0","system_id":"levelo_inurba_marseille","lat":43.299243,"lon":5.374807,"is_reserved":false,"is_disabled":false,"rental_uris":{"android":"levelo://app?vid=35eec3a1-aa54-4990-8eb4-78e6c0dd24d0","ios":"levelo://app?vid=35eec3a1-aa54-4990-8eb4-78e6c0dd24d0"},"vehicle_type_id":"4","last_reported":1693069501,"current_range_meters":29200,"station_id":"ce4bgjh2rcd13ifvqbg0","pricing_plan_id":"free"},{"bike_id":"ea628102-f413-4421-a451-01c3055a1ca3","system_id":"levelo_inurba_marseille","lat":43.30535,"lon":5.3842,"is_reserved":false,"is_disabled":false,"rental_uris":{"android":"levelo://app?vid=ea628102-f413-4421-a451-01c3055a1ca3","ios":"levelo://app?vid=ea628102-f413-4421-a451-01c3055a1ca3"},"vehicle_type_id":"4","last_reported":1693069501,"current_range_meters":22000,"station_id":"ce4bgg92rcd13ifvqb30","pricing_plan_id":"free"},{"bike_id":"2f9e2def-2173-4eb4-a460-9a385f59debe","system_id":"levelo_inurba_marseille","lat":43.299243,"lon":5.37481,"is_reserved":false,"is_disabled":false,"rental_uris":{"android":"levelo://app?vid=2f9e2def-2173-4eb4-a460-9a385f59debe","ios":"levelo://app?vid=2f9e2def-2173-4eb4-a460-9a385f59debe"},"vehicle_type_id":"4","last_reported":1693069501,"current_range_meters":32000,"station_id":"ce4bgjh2rcd13ifvqbg0","pricing_plan_id":"free"},{"bike_id":"24817e5d-93a8-4691-93d9-20b476f4b989","system_id":"levelo_inurba_marseille","lat":43.305364,"lon":5.384119,"is_reserved":false,"is_disabled":false,"rental_uris":{"android":"levelo://app?vid=24817e5d-93a8-4691-93d9-20b476f4b989","ios":"levelo://app?vid=24817e5d-93a8-4691-93d9-20b476f4b989"},"vehicle_type_id":"4","last_reported":1693069501,"current_range_meters":2000,"station_id":"ce4bgg92rcd13ifvqb30","pricing_plan_id":"free"},{"bike_id":"d33833fc-1832-4a43-8c70-5bbddc275d7d","system_id":"levelo_inurba_marseille","lat":43.299243,"lon":5.37481,"is_reserved":false,"is_disabled":false,"rental_uris":{"android":"levelo://app?vid=d33833fc-1832-4a43-8c70-5bbddc275d7d","ios":"levelo://app?vid=d33833fc-1832-4a43-8c70-5bbddc275d7d"},"vehicle_type_id":"4","last_reported":1693069501,"current_range_meters":31200,"station_id":"ce4bgjh2rcd13ifvqbg0","pricing_plan_id":"free"},{"bike_id":"86f49ec6-3ae9-455f-9770-cd1f54125b6d","system_id":"levelo_inurba_marseille","lat":43.311722,"lon":5.387247,"is_reserved":false,"is_disabled":false,"rental_uris":{"android":"levelo://app?vid=86f49ec6-3ae9-455f-9770-cd1f54125b6d","ios":"levelo://app?vid=86f49ec6-3ae9-455f-9770-cd1f54125b6d"},"vehicle_type_id":"4","last_reported":1693069501,"current_range_meters":14800,"station_id":"ce4bgv12rcd13ifvqcp0","pricing_plan_id":"free"},{"bike_id":"cd18b73c-29b6-4e0f-88c7-2dd35fe34e83","system_id":"levelo_inurba_marseille","lat":43.3117,"lon":5.38724,"is_reserved":false,"is_disabled":false,"rental_uris":{"android":"levelo://app?vid=cd18b73c-29b6-4e0f-88c7-2dd35fe34e83","ios":"levelo://app?vid=cd18b73c-29b6-4e0f-88c7-2dd35fe34e83"},"vehicle_type_id":"4","last_reported":1693069501,"current_range_meters":6800,"station_id":"ce4bgv12rcd13ifvqcp0","pricing_plan_id":"free"},{"bike_id":"8e33c378-176f-4b33-a629-8f04daf39aa3","system_id":"levelo_inurba_marseille","lat":43.311722,"lon":5.387247,"is_reserved":false,"is_disabled":false,"rental_uris":{"android":"levelo://app?vid=8e33c378-176f-4b33-a629-8f04daf39aa3","ios":"levelo://app?vid=8e33c378-176f-4b33-a629-8f04daf39aa3"},"vehicle_type_id":"4","last_reported":1693069501,"current_range_meters":19600,"station_id":"ce4bgv12rcd13ifvqcp0","pricing_plan_id":"free"},{"bike_id":"74bb8e6c-4d66-4dad-992e-bd7bea15b2f1","system_id":"levelo_inurba_marseille","lat":43.311648,"lon":5.387257,"is_reserved":false,"is_disabled":false,"rental_uris":{"android":"levelo://app?vid=74bb8e6c-4d66-4dad-992e-bd7bea15b2f1","ios":"levelo://app?vid=74bb8e6c-4d66-4dad-992e-bd7bea15b2f1"},"vehicle_type_id":"4","last_reported":1693069501,"current_range_meters":0,"station_id":"ce4bgv12rcd13ifvqcp0","pricing_plan_id":"free"},{"bike_id":"07943eb9-9c84-4b10-891a-03dfac786be0","system_id":"levelo_inurba_marseille","lat":43.3117,"lon":5.3873,"is_reserved":false,"is_disabled":false,"rental_uris":{"android":"levelo://app?vid=07943eb9-9c84-4b10-891a-03dfac786be0","ios":"levelo://app?vid=07943eb9-9c84-4b10-891a-03dfac786be0"},"vehicle_type_id":"4","last_reported":1693069501,"current_range_meters":8400,"station_id":"ce4bgv12rcd13ifvqcp0","pricing_plan_id":"free"},{"bike_id":"1d73fb63-c665-4f1c-84c0-277a15a3aa7a","system_id":"levelo_inurba_marseille","lat":43.297794,"lon":5.370888,"is_reserved":false,"is_disabled":false,"rental_uris":{"android":"levelo://app?vid=1d73fb63-c665-4f1c-84c0-277a15a3aa7a","ios":"levelo://app?vid=1d73fb63-c665-4f1c-84c0-277a15a3aa7a"},"vehicle_type_id":"4","last_reported":1693069501,"current_range_meters":27200,"station_id":"ce4bgop2rcd13ifvqc1g","pricing_plan_id":"free"},{"bike_id":"2ddc5d1c-4a62-4d0b-b125-a6c57642f6bb","system_id":"levelo_inurba_marseille","lat":43.32822,"lon":5.36674,"is_reserved":false,"is_disabled":false,"rental_uris":{"android":"levelo://app?vid=2ddc5d1c-4a62-4d0b-b125-a6c57642f6bb","ios":"levelo://app?vid=2ddc5d1c-4a62-4d0b-b125-a6c57642f6bb"},"vehicle_type_id":"4","last_reported":1693069501,"current_range_meters":25600,"station_id":"ce4bhs92rcd13ifvqi0g","pricing_plan_id":"free"},{"bike_id":"7713fce6-61f5-48dd-a139-0a91fcbcc973","system_id":"levelo_inurba_marseille","lat":43.32828,"lon":5.3668,"is_reserved":false,"is_disabled":false,"rental_uris":{"android":"levelo://app?vid=7713fce6-61f5-48dd-a139-0a91fcbcc973","ios":"levelo://app?vid=7713fce6-61f5-48dd-a139-0a91fcbcc973"},"vehicle_type_id":"4","last_reported":1693069501,"current_range_meters":30400,"station_id":"ce4bhs92rcd13ifvqi0g","pricing_plan_id":"free"},{"bike_id":"8057ac88-8d25-428e-84e9-d8292b70b67a","system_id":"levelo_inurba_marseille","lat":43.32828,"lon":5.36674,"is_reserved":false,"is_disabled":false,"rental_uris":{"android":"levelo://app?vid=8057ac88-8d25-428e-84e9-d8292b70b67a","ios":"levelo://app?vid=8057ac88-8d25-428e-84e9-d8292b70b67a"},"vehicle_type_id":"4","last_reported":1693069501,"current_range_meters":31200,"station_id":"ce4bhs92rcd13ifvqi0g","pricing_plan_id":"free"},{"bike_id":"b2a6fc0b-fe04-43b7-8835-223f314ba282","system_id":"levelo_inurba_marseille","lat":43.32829,"lon":5.366933,"is_reserved":false,"is_disabled":false,"rental_uris":{"android":"levelo://app?vid=b2a6fc0b-fe04-43b7-8835-223f314ba282","ios":"levelo://app?vid=b2a6fc0b-fe04-43b7-8835-223f314ba282"},"vehicle_type_id":"4","last_reported":1693069501,"current_range_meters":22800,"station_id":"ce4bhs92rcd13ifvqi0g","pricing_plan_id":"free"},{"bike_id":"704c0286-52b4-4880-abba-175a138f0784","system_id":"levelo_inurba_marseille","lat":43.3283,"lon":5.36687,"is_reserved":false,"is_disabled":false,"rental_uris":{"android":"levelo://app?vid=704c0286-52b4-4880-abba-175a138f0784","ios":"levelo://app?vid=704c0286-52b4-4880-abba-175a138f0784"},"vehicle_type_id":"4","last_reported":1693069501,"current_range_meters":22400,"station_id":"ce4bhs92rcd13ifvqi0g","pricing_plan_id":"free"},{"bike_id":"bd0bd295-6ecc-40c4-a4d0-89f645593756","system_id":"levelo_inurba_marseille","lat":43.297163,"lon":5.365866,"is_reserved":false,"is_disabled":false,"rental_uris":{"android":"levelo://app?vid=bd0bd295-6ecc-40c4-a4d0-89f645593756","ios":"levelo://app?vid=bd0bd295-6ecc-40c4-a4d0-89f645593756"},"vehicle_type_id":"4","last_reported":1693069501,"current_range_meters":22800,"station_id":"ce4bgn12rcd13ifvqbt0","pricing_plan_id":"free"},{"bike_id":"cd446b24-0605-47e8-a42c-868f9f929a8b","system_id":"levelo_inurba_marseille","lat":43.32835,"lon":5.36682,"is_reserved":false,"is_disabled":false,"rental_uris":{"android":"levelo://app?vid=cd446b24-0605-47e8-a42c-868f9f929a8b","ios":"levelo://app?vid=cd446b24-0605-47e8-a42c-868f9f929a8b"},"vehicle_type_id":"4","last_reported":1693069501,"current_range_meters":29600,"station_id":"","pricing_plan_id":"free"},{"bike_id":"dd789220-e7b5-42c1-b9dc-dc4243148021","system_id":"levelo_inurba_marseille","lat":43.297163,"lon":5.365866,"is_reserved":false,"is_disabled":false,"rental_uris":{"android":"levelo://app?vid=dd789220-e7b5-42c1-b9dc-dc4243148021","ios":"levelo://app?vid=dd789220-e7b5-42c1-b9dc-dc4243148021"},"vehicle_type_id":"4","last_reported":1693069501,"current_range_meters":31200,"station_id":"ce4bgn12rcd13ifvqbt0","pricing_plan_id":"free"},{"bike_id":"2a1cb1f9-24d2-4756-a5e9-b321a696459f","system_id":"levelo_inurba_marseille","lat":43.297163,"lon":5.365866,"is_reserved":false,"is_disabled":false,"rental_uris":{"android":"levelo://app?vid=2a1cb1f9-24d2-4756-a5e9-b321a696459f","ios":"levelo://app?vid=2a1cb1f9-24d2-4756-a5e9-b321a696459f"},"vehicle_type_id":"4","last_reported":1693069501,"current_range_meters":30000,"station_id":"ce4bgn12rcd13ifvqbt0","pricing_plan_id":"free"},{"bike_id":"652702f5-299a-457c-923f-a5e791fe0200","system_id":"levelo_inurba_marseille","lat":43.297163,"lon":5.365866,"is_reserved":false,"is_disabled":false,"rental_uris":{"android":"levelo://app?vid=652702f5-299a-457c-923f-a5e791fe0200","ios":"levelo://app?vid=652702f5-299a-457c-923f-a5e791fe0200"},"vehicle_type_id":"4","last_reported":1693069501,"current_range_meters":0,"station_id":"ce4bgn12rcd13ifvqbt0","pricing_plan_id":"free"},{"bike_id":"f46744ac-6bef-4667-beb6-0fbf908d1e26","system_id":"levelo_inurba_marseille","lat":43.297163,"lon":5.365866,"is_reserved":false,"is_disabled":false,"rental_uris":{"android":"levelo://app?vid=f46744ac-6bef-4667-beb6-0fbf908d1e26","ios":"levelo://app?vid=f46744ac-6bef-4667-beb6-0fbf908d1e26"},"vehicle_type_id":"4","last_reported":1693069501,"current_range_meters":16400,"station_id":"ce4bgn12rcd13ifvqbt0","pricing_plan_id":"free"},{"bike_id":"d3139180-8ba9-4c91-b6e4-8baae3c22113","system_id":"levelo_inurba_marseille","lat":43.296131,"lon":5.370791,"is_reserved":false,"is_disabled":false,"rental_uris":{"android":"levelo://app?vid=d3139180-8ba9-4c91-b6e4-8baae3c22113","ios":"levelo://app?vid=d3139180-8ba9-4c91-b6e4-8baae3c22113"},"vehicle_type_id":"4","last_reported":1693069501,"current_range_meters":31200,"station_id":"ce4bgnh2rcd13ifvqc0g","pricing_plan_id":"free"},{"bike_id":"65d934c8-ea94-404c-b991-a012f59c0b64","system_id":"levelo_inurba_marseille","lat":43.296131,"lon":5.370773,"is_reserved":false,"is_disabled":false,"rental_uris":{"android":"levelo://app?vid=65d934c8-ea94-404c-b991-a012f59c0b64","ios":"levelo://app?vid=65d934c8-ea94-404c-b991-a012f59c0b64"},"vehicle_type_id":"4","last_reported":1693069501,"current_range_meters":28000,"station_id":"ce4bgnh2rcd13ifvqc0g","pricing_plan_id":"free"},{"bike_id":"6df9b737-82e6-458b-85ce-bb2c0cdf397c","system_id":"levelo_inurba_marseille","lat":43.296935,"lon":5.376544,"is_reserved":false,"is_disabled":false,"rental_uris":{"android":"levelo://app?vid=6df9b737-82e6-458b-85ce-bb2c0cdf397c","ios":"levelo://app?vid=6df9b737-82e6-458b-85ce-bb2c0cdf397c"},"vehicle_type_id":"4","last_reported":1693069501,"current_range_meters":6800,"station_id":"ce4bgkh2rcd13ifvqbl0","pricing_plan_id":"free"},{"bike_id":"4ed53cd3-db9d-40e2-a976-6c79610b3b1f","system_id":"levelo_inurba_marseille","lat":43.309589,"lon":5.390258,"is_reserved":false,"is_disabled":false,"rental_uris":{"android":"levelo://app?vid=4ed53cd3-db9d-40e2-a976-6c79610b3b1f","ios":"levelo://app?vid=4ed53cd3-db9d-40e2-a976-6c79610b3b1f"},"vehicle_type_id":"4","last_reported":1693069501,"current_range_meters":0,"station_id":"ce4bgup2rcd13ifvqco0","pricing_plan_id":"free"},{"bike_id":"8510b197-e6ff-4bf6-8ab8-fed0aa786bcb","system_id":"levelo_inurba_marseille","lat":43.309589,"lon":5.390258,"is_reserved":false,"is_disabled":false,"rental_uris":{"android":"levelo://app?vid=8510b197-e6ff-4bf6-8ab8-fed0aa786bcb","ios":"levelo://app?vid=8510b197-e6ff-4bf6-8ab8-fed0aa786bcb"},"vehicle_type_id":"4","last_reported":1693069501,"current_range_meters":6800,"station_id":"ce4bgup2rcd13ifvqco0","pricing_plan_id":"free"},{"bike_id":"2c93ce6f-c5e1-4ec9-9941-ebb7469bb8f2","system_id":"levelo_inurba_marseille","lat":43.317557,"lon":5.390173,"is_reserved":false,"is_disabled":false,"rental_uris":{"android":"levelo://app?vid=2c93ce6f-c5e1-4ec9-9941-ebb7469bb8f2","ios":"levelo://app?vid=2c93ce6f-c5e1-4ec9-9941-ebb7469bb8f2"},"vehicle_type_id":"4","last_reported":1693069501,"current_range_meters":31600,"station_id":"ce4bhqp2rcd13ifvqhng","pricing_plan_id":"free"},{"bike_id":"89f7f089-ec62-4cd7-aee5-a20760195e67","system_id":"levelo_inurba_marseille","lat":43.317557,"lon":5.390173,"is_reserved":false,"is_disabled":false,"rental_uris":{"android":"levelo://app?vid=89f7f089-ec62-4cd7-aee5-a20760195e67","ios":"levelo://app?vid=89f7f089-ec62-4cd7-aee5-a20760195e67"},"vehicle_type_id":"4","last_reported":1693069501,"current_range_meters":8800,"station_id":"ce4bhqp2rcd13ifvqhng","pricing_plan_id":"free"},{"bike_id":"d2612f93-4d67-4063-bece-84f523bf8653","system_id":"levelo_inurba_marseille","lat":43.317557,"lon":5.390173,"is_reserved":false,"is_disabled":false,"rental_uris":{"android":"levelo://app?vid=d2612f93-4d67-4063-bece-84f523bf8653","ios":"levelo://app?vid=d2612f93-4d67-4063-bece-84f523bf8653"},"vehicle_type_id":"4","last_reported":1693069501,"current_range_meters":31200,"station_id":"ce4bhqp2rcd13ifvqhng","pricing_plan_id":"free"},{"bike_id":"c9cda5a6-10c5-4b8c-bbc9-e6d2d5325efb","system_id":"levelo_inurba_marseille","lat":43.317557,"lon":5.390173,"is_reserved":false,"is_disabled":false,"rental_uris":{"android":"levelo://app?vid=c9cda5a6-10c5-4b8c-bbc9-e6d2d5325efb","ios":"levelo://app?vid=c9cda5a6-10c5-4b8c-bbc9-e6d2d5325efb"},"vehicle_type_id":"4","last_reported":1693069501,"current_range_meters":21600,"station_id":"ce4bhqp2rcd13ifvqhng","pricing_plan_id":"free"},{"bike_id":"f5e2e49a-ce99-4c54-a648-614acf43f3a7","system_id":"levelo_inurba_marseille","lat":43.317557,"lon":5.390173,"is_reserved":false,"is_disabled":false,"rental_uris":{"android":"levelo://app?vid=f5e2e49a-ce99-4c54-a648-614acf43f3a7","ios":"levelo://app?vid=f5e2e49a-ce99-4c54-a648-614acf43f3a7"},"vehicle_type_id":"4","last_reported":1693069501,"current_range_meters":22000,"station_id":"ce4bhqp2rcd13ifvqhng","pricing_plan_id":"free"},{"bike_id":"64ecbfc8-ff67-4eb0-b8ff-1234008507fa","system_id":"levelo_inurba_marseille","lat":43.317557,"lon":5.390173,"is_reserved":false,"is_disabled":false,"rental_uris":{"android":"levelo://app?vid=64ecbfc8-ff67-4eb0-b8ff-1234008507fa","ios":"levelo://app?vid=64ecbfc8-ff67-4eb0-b8ff-1234008507fa"},"vehicle_type_id":"4","last_reported":1693069501,"current_range_meters":27600,"station_id":"ce4bhqp2rcd13ifvqhng","pricing_plan_id":"free"},{"bike_id":"73570cfb-26e7-4c31-b83b-b24a7c34ffdb","system_id":"levelo_inurba_marseille","lat":43.298037,"lon":5.381066,"is_reserved":false,"is_disabled":false,"rental_uris":{"android":"levelo://app?vid=73570cfb-26e7-4c31-b83b-b24a7c34ffdb","ios":"levelo://app?vid=73570cfb-26e7-4c31-b83b-b24a7c34ffdb"},"vehicle_type_id":"4","last_reported":1693069501,"current_range_meters":23200,"station_id":"ce4bgip2rcd13ifvqbb0","pricing_plan_id":"free"},{"bike_id":"d80dab6b-983e-4113-9d8b-064f51e0c596","system_id":"levelo_inurba_marseille","lat":43.298037,"lon":5.381066,"is_reserved":false,"is_disabled":false,"rental_uris":{"android":"levelo://app?vid=d80dab6b-983e-4113-9d8b-064f51e0c596","ios":"levelo://app?vid=d80dab6b-983e-4113-9d8b-064f51e0c596"},"vehicle_type_id":"4","last_reported":1693069501,"current_range_meters":2400,"station_id":"ce4bgip2rcd13ifvqbb0","pricing_plan_id":"free"},{"bike_id":"e8e3827a-fc6a-4a43-897e-52cea4a4841a","system_id":"levelo_inurba_marseille","lat":43.295748,"lon":5.37522,"is_reserved":false,"is_disabled":false,"rental_uris":{"android":"levelo://app?vid=e8e3827a-fc6a-4a43-897e-52cea4a4841a","ios":"levelo://app?vid=e8e3827a-fc6a-4a43-897e-52cea4a4841a"},"vehicle_type_id":"4","last_reported":1693069501,"current_range_meters":27200,"station_id":"ce4bgh92rcd13ifvqb50","pricing_plan_id":"free"},{"bike_id":"c89636d1-1699-46f2-abf4-0e72606cf367","system_id":"levelo_inurba_marseille","lat":43.295748,"lon":5.37522,"is_reserved":false,"is_disabled":false,"rental_uris":{"android":"levelo://app?vid=c89636d1-1699-46f2-abf4-0e72606cf367","ios":"levelo://app?vid=c89636d1-1699-46f2-abf4-0e72606cf367"},"vehicle_type_id":"4","last_reported":1693069501,"current_range_meters":20000,"station_id":"ce4bgh92rcd13ifvqb50","pricing_plan_id":"free"},{"bike_id":"c7f94bb3-5660-4af0-a970-8eba05cfe8d7","system_id":"levelo_inurba_marseille","lat":43.304274,"lon":5.388873,"is_reserved":false,"is_disabled":false,"rental_uris":{"android":"levelo://app?vid=c7f94bb3-5660-4af0-a970-8eba05cfe8d7","ios":"levelo://app?vid=c7f94bb3-5660-4af0-a970-8eba05cfe8d7"},"vehicle_type_id":"4","last_reported":1693069501,"current_range_meters":5600,"station_id":"ce4bgk12rcd13ifvqbi0","pricing_plan_id":"free"},{"bike_id":"6cda6bf4-0505-4248-a4d3-6bfce4b33e85","system_id":"levelo_inurba_marseille","lat":43.296263,"lon":5.377094,"is_reserved":false,"is_disabled":false,"rental_uris":{"android":"levelo://app?vid=6cda6bf4-0505-4248-a4d3-6bfce4b33e85","ios":"levelo://app?vid=6cda6bf4-0505-4248-a4d3-6bfce4b33e85"},"vehicle_type_id":"4","last_reported":1693069501,"current_range_meters":1200,"station_id":"ce4bgi92rcd13ifvqb90","pricing_plan_id":"free"},{"bike_id":"952a19e7-6602-41c3-942f-79cfb514366f","system_id":"levelo_inurba_marseille","lat":43.2961,"lon":5.3771,"is_reserved":false,"is_disabled":false,"rental_uris":{"android":"levelo://app?vid=952a19e7-6602-41c3-942f-79cfb514366f","ios":"levelo://app?vid=952a19e7-6602-41c3-942f-79cfb514366f"},"vehicle_type_id":"4","last_reported":1693069501,"current_range_meters":30400,"station_id":"ce4bgi92rcd13ifvqb90","pricing_plan_id":"free"},{"bike_id":"50c30328-193c-4e2d-a69b-d326c5235437","system_id":"levelo_inurba_marseille","lat":43.299707,"lon":5.384859,"is_reserved":false,"is_disabled":false,"rental_uris":{"android":"levelo://app?vid=50c30328-193c-4e2d-a69b-d326c5235437","ios":"levelo://app?vid=50c30328-193c-4e2d-a69b-d326c5235437"},"vehicle_type_id":"4","last_reported":1693069501,"current_range_meters":16400,"station_id":"ce4bgj92rcd13ifvqbd0","pricing_plan_id":"free"},{"bike_id":"5248da78-8ff3-4538-8e81-d15ce2a5782a","system_id":"levelo_inurba_marseille","lat":43.299707,"lon":5.384859,"is_reserved":false,"is_disabled":false,"rental_uris":{"android":"levelo://app?vid=5248da78-8ff3-4538-8e81-d15ce2a5782a","ios":"levelo://app?vid=5248da78-8ff3-4538-8e81-d15ce2a5782a"},"vehicle_type_id":"4","last_reported":1693069501,"current_range_meters":12800,"station_id":"ce4bgj92rcd13ifvqbd0","pricing_plan_id":"free"},{"bike_id":"b4782a42-6413-4583-a084-f5ea9ebe0be9","system_id":"levelo_inurba_marseille","lat":43.295279,"lon":5.375048,"is_reserved":false,"is_disabled":false,"rental_uris":{"android":"levelo://app?vid=b4782a42-6413-4583-a084-f5ea9ebe0be9","ios":"levelo://app?vid=b4782a42-6413-4583-a084-f5ea9ebe0be9"},"vehicle_type_id":"4","last_reported":1693069501,"current_range_meters":4800,"station_id":"ce4bgkp2rcd13ifvqbmg","pricing_plan_id":"free"},{"bike_id":"090f7164-be77-45c5-bc4e-775374043290","system_id":"levelo_inurba_marseille","lat":43.295279,"lon":5.375048,"is_reserved":false,"is_disabled":false,"rental_uris":{"android":"levelo://app?vid=090f7164-be77-45c5-bc4e-775374043290","ios":"levelo://app?vid=090f7164-be77-45c5-bc4e-775374043290"},"vehicle_type_id":"4","last_reported":1693069501,"current_range_meters":31200,"station_id":"ce4bgkp2rcd13ifvqbmg","pricing_plan_id":"free"},{"bike_id":"22f9286e-4107-4ca2-8d76-1062c1c92275","system_id":"levelo_inurba_marseille","lat":43.299707,"lon":5.384859,"is_reserved":false,"is_disabled":false,"rental_uris":{"android":"levelo://app?vid=22f9286e-4107-4ca2-8d76-1062c1c92275","ios":"levelo://app?vid=22f9286e-4107-4ca2-8d76-1062c1c92275"},"vehicle_type_id":"4","last_reported":1693069501,"current_range_meters":31200,"station_id":"ce4bgj92rcd13ifvqbd0","pricing_plan_id":"free"},{"bike_id":"7d75b851-6ebe-44de-b354-0264733a9fdc","system_id":"levelo_inurba_marseille","lat":43.29984,"lon":5.38495,"is_reserved":false,"is_disabled":false,"rental_uris":{"android":"levelo://app?vid=7d75b851-6ebe-44de-b354-0264733a9fdc","ios":"levelo://app?vid=7d75b851-6ebe-44de-b354-0264733a9fdc"},"vehicle_type_id":"4","last_reported":1693069501,"current_range_meters":15600,"station_id":"ce4bgj92rcd13ifvqbd0","pricing_plan_id":"free"},{"bike_id":"1128e959-6f0b-4f08-ab79-081143dddd4a","system_id":"levelo_inurba_marseille","lat":43.295279,"lon":5.375048,"is_reserved":false,"is_disabled":false,"rental_uris":{"android":"levelo://app?vid=1128e959-6f0b-4f08-ab79-081143dddd4a","ios":"levelo://app?vid=1128e959-6f0b-4f08-ab79-081143dddd4a"},"vehicle_type_id":"4","last_reported":1693069501,"current_range_meters":30000,"station_id":"ce4bgkp2rcd13ifvqbmg","pricing_plan_id":"free"},{"bike_id":"ff8e1b33-68b8-4603-a1a6-4b680650059e","system_id":"levelo_inurba_marseille","lat":43.29978,"lon":5.38493,"is_reserved":false,"is_disabled":false,"rental_uris":{"android":"levelo://app?vid=ff8e1b33-68b8-4603-a1a6-4b680650059e","ios":"levelo://app?vid=ff8e1b33-68b8-4603-a1a6-4b680650059e"},"vehicle_type_id":"4","last_reported":1693069501,"current_range_meters":18000,"station_id":"ce4bgj92rcd13ifvqbd0","pricing_plan_id":"free"},{"bike_id":"ffa0e0c2-a576-4441-892a-c27ecfe486ab","system_id":"levelo_inurba_marseille","lat":43.29978,"lon":5.38496,"is_reserved":false,"is_disabled":false,"rental_uris":{"android":"levelo://app?vid=ffa0e0c2-a576-4441-892a-c27ecfe486ab","ios":"levelo://app?vid=ffa0e0c2-a576-4441-892a-c27ecfe486ab"},"vehicle_type_id":"4","last_reported":1693069501,"current_range_meters":20800,"station_id":"ce4bgj92rcd13ifvqbd0","pricing_plan_id":"free"},{"bike_id":"81d4e095-46c1-4349-83a5-99f310375080","system_id":"levelo_inurba_marseille","lat":43.29974,"lon":5.38502,"is_reserved":false,"is_disabled":false,"rental_uris":{"android":"levelo://app?vid=81d4e095-46c1-4349-83a5-99f310375080","ios":"levelo://app?vid=81d4e095-46c1-4349-83a5-99f310375080"},"vehicle_type_id":"4","last_reported":1693069501,"current_range_meters":17600,"station_id":"ce4bgj92rcd13ifvqbd0","pricing_plan_id":"free"},{"bike_id":"329b52da-6179-4119-8885-76b50cbdc2a9","system_id":"levelo_inurba_marseille","lat":43.30057,"lon":5.38657,"is_reserved":false,"is_disabled":false,"rental_uris":{"android":"levelo://app?vid=329b52da-6179-4119-8885-76b50cbdc2a9","ios":"levelo://app?vid=329b52da-6179-4119-8885-76b50cbdc2a9"},"vehicle_type_id":"4","last_reported":1693069501,"current_range_meters":22400,"station_id":"","pricing_plan_id":"free"},{"bike_id":"00883cd9-a56a-4720-bb55-237d0136a4a1","system_id":"levelo_inurba_marseille","lat":43.32362,"lon":5.38879,"is_reserved":false,"is_disabled":false,"rental_uris":{"android":"levelo://app?vid=00883cd9-a56a-4720-bb55-237d0136a4a1","ios":"levelo://app?vid=00883cd9-a56a-4720-bb55-237d0136a4a1"},"vehicle_type_id":"4","last_reported":1693069501,"current_range_meters":15600,"station_id":"ce4bhqp2rcd13ifvqhog","pricing_plan_id":"free"},{"bike_id":"ab25e435-1bfc-48be-9e8d-b475a2abf5a1","system_id":"levelo_inurba_marseille","lat":43.32367,"lon":5.388836,"is_reserved":false,"is_disabled":false,"rental_uris":{"android":"levelo://app?vid=ab25e435-1bfc-48be-9e8d-b475a2abf5a1","ios":"levelo://app?vid=ab25e435-1bfc-48be-9e8d-b475a2abf5a1"},"vehicle_type_id":"4","last_reported":1693069501,"current_range_meters":6800,"station_id":"ce4bhqp2rcd13ifvqhog","pricing_plan_id":"free"},{"bike_id":"e1417aa2-95cd-4ec4-b056-78321d8237ce","system_id":"levelo_inurba_marseille","lat":43.32367,"lon":5.388836,"is_reserved":false,"is_disabled":false,"rental_uris":{"android":"levelo://app?vid=e1417aa2-95cd-4ec4-b056-78321d8237ce","ios":"levelo://app?vid=e1417aa2-95cd-4ec4-b056-78321d8237ce"},"vehicle_type_id":"4","last_reported":1693069501,"current_range_meters":24800,"station_id":"ce4bhqp2rcd13ifvqhog","pricing_plan_id":"free"},{"bike_id":"a427fef7-bad6-4b27-a3cc-00419da4bc87","system_id":"levelo_inurba_marseille","lat":43.29602,"lon":5.38098,"is_reserved":false,"is_disabled":false,"rental_uris":{"android":"levelo://app?vid=a427fef7-bad6-4b27-a3cc-00419da4bc87","ios":"levelo://app?vid=a427fef7-bad6-4b27-a3cc-00419da4bc87"},"vehicle_type_id":"4","last_reported":1693069501,"current_range_meters":20800,"station_id":"ce4bgl12rcd13ifvqbo0","pricing_plan_id":"free"},{"bike_id":"f0e82d31-d860-482f-bd5b-419c07c26d2c","system_id":"levelo_inurba_marseille","lat":43.29601,"lon":5.381084,"is_reserved":false,"is_disabled":false,"rental_uris":{"android":"levelo://app?vid=f0e82d31-d860-482f-bd5b-419c07c26d2c","ios":"levelo://app?vid=f0e82d31-d860-482f-bd5b-419c07c26d2c"},"vehicle_type_id":"4","last_reported":1693069501,"current_range_meters":17200,"station_id":"ce4bgl12rcd13ifvqbo0","pricing_plan_id":"free"},{"bike_id":"abec4746-00b9-48b1-9159-9af87441db56","system_id":"levelo_inurba_marseille","lat":43.292749,"lon":5.368398,"is_reserved":false,"is_disabled":false,"rental_uris":{"android":"levelo://app?vid=abec4746-00b9-48b1-9159-9af87441db56","ios":"levelo://app?vid=abec4746-00b9-48b1-9159-9af87441db56"},"vehicle_type_id":"4","last_reported":1693069501,"current_range_meters":30000,"station_id":"ce4bhbp2rcd13ifvqesg","pricing_plan_id":"free"},{"bike_id":"0194824d-3c96-417a-8001-6ea701d0ca74","system_id":"levelo_inurba_marseille","lat":43.292749,"lon":5.368402,"is_reserved":false,"is_disabled":false,"rental_uris":{"android":"levelo://app?vid=0194824d-3c96-417a-8001-6ea701d0ca74","ios":"levelo://app?vid=0194824d-3c96-417a-8001-6ea701d0ca74"},"vehicle_type_id":"4","last_reported":1693069501,"current_range_meters":28800,"station_id":"ce4bhbp2rcd13ifvqesg","pricing_plan_id":"free"},{"bike_id":"8a391ae3-f7dc-41f3-98ac-cf806614aa1b","system_id":"levelo_inurba_marseille","lat":43.293055,"lon":5.371645,"is_reserved":false,"is_disabled":false,"rental_uris":{"android":"levelo://app?vid=8a391ae3-f7dc-41f3-98ac-cf806614aa1b","ios":"levelo://app?vid=8a391ae3-f7dc-41f3-98ac-cf806614aa1b"},"vehicle_type_id":"4","last_reported":1693069501,"current_range_meters":30000,"station_id":"ce4bgh92rcd13ifvqb40","pricing_plan_id":"free"},{"bike_id":"b25b39d8-6b17-47a2-83ed-47783d15ca1c","system_id":"levelo_inurba_marseille","lat":43.29304,"lon":5.37171,"is_reserved":false,"is_disabled":false,"rental_uris":{"android":"levelo://app?vid=b25b39d8-6b17-47a2-83ed-47783d15ca1c","ios":"levelo://app?vid=b25b39d8-6b17-47a2-83ed-47783d15ca1c"},"vehicle_type_id":"4","last_reported":1693069501,"current_range_meters":30800,"station_id":"ce4bgh92rcd13ifvqb40","pricing_plan_id":"free"},{"bike_id":"c848e8ec-7ab4-4f6b-860f-109555b151a4","system_id":"levelo_inurba_marseille","lat":43.29274,"lon":5.36849,"is_reserved":false,"is_disabled":false,"rental_uris":{"android":"levelo://app?vid=c848e8ec-7ab4-4f6b-860f-109555b151a4","ios":"levelo://app?vid=c848e8ec-7ab4-4f6b-860f-109555b151a4"},"vehicle_type_id":"4","last_reported":1693069501,"current_range_meters":21200,"station_id":"ce4bhbp2rcd13ifvqesg","pricing_plan_id":"free"},{"bike_id":"533ae499-0696-4075-bfc5-88200d674823","system_id":"levelo_inurba_marseille","lat":43.293,"lon":5.37169,"is_reserved":false,"is_disabled":false,"rental_uris":{"android":"levelo://app?vid=533ae499-0696-4075-bfc5-88200d674823","ios":"levelo://app?vid=533ae499-0696-4075-bfc5-88200d674823"},"vehicle_type_id":"4","last_reported":1693069501,"current_range_meters":0,"station_id":"ce4bgh92rcd13ifvqb40","pricing_plan_id":"free"},{"bike_id":"6533c646-1091-4458-9ef2-bc9d36dce22d","system_id":"levelo_inurba_marseille","lat":43.29307,"lon":5.37454,"is_reserved":false,"is_disabled":false,"rental_uris":{"android":"levelo://app?vid=6533c646-1091-4458-9ef2-bc9d36dce22d","ios":"levelo://app?vid=6533c646-1091-4458-9ef2-bc9d36dce22d"},"vehicle_type_id":"4","last_reported":1693069501,"current_range_meters":28400,"station_id":"ce4bgi12rcd13ifvqb70","pricing_plan_id":"free"},{"bike_id":"ce79808b-0e6a-4eda-acdb-74d1d8aa6f14","system_id":"levelo_inurba_marseille","lat":43.293009,"lon":5.374584,"is_reserved":false,"is_disabled":false,"rental_uris":{"android":"levelo://app?vid=ce79808b-0e6a-4eda-acdb-74d1d8aa6f14","ios":"levelo://app?vid=ce79808b-0e6a-4eda-acdb-74d1d8aa6f14"},"vehicle_type_id":"4","last_reported":1693069501,"current_range_meters":23200,"station_id":"ce4bgi12rcd13ifvqb70","pricing_plan_id":"free"},{"bike_id":"320e52ae-0d21-4a32-b66d-bce09efead32","system_id":"levelo_inurba_marseille","lat":43.293009,"lon":5.374584,"is_reserved":false,"is_disabled":false,"rental_uris":{"android":"levelo://app?vid=320e52ae-0d21-4a32-b66d-bce09efead32","ios":"levelo://app?vid=320e52ae-0d21-4a32-b66d-bce09efead32"},"vehicle_type_id":"4","last_reported":1693069501,"current_range_meters":400,"station_id":"ce4bgi12rcd13ifvqb70","pricing_plan_id":"free"},{"bike_id":"38fef587-7cc5-4800-b069-87b8f296a10a","system_id":"levelo_inurba_marseille","lat":43.293009,"lon":5.374584,"is_reserved":false,"is_disabled":false,"rental_uris":{"android":"levelo://app?vid=38fef587-7cc5-4800-b069-87b8f296a10a","ios":"levelo://app?vid=38fef587-7cc5-4800-b069-87b8f296a10a"},"vehicle_type_id":"4","last_reported":1693069501,"current_range_meters":31200,"station_id":"ce4bgi12rcd13ifvqb70","pricing_plan_id":"free"},{"bike_id":"6875ac5a-b24b-4300-843e-0eccd281b8e4","system_id":"levelo_inurba_marseille","lat":43.305994,"lon":5.393687,"is_reserved":false,"is_disabled":false,"rental_uris":{"android":"levelo://app?vid=6875ac5a-b24b-4300-843e-0eccd281b8e4","ios":"levelo://app?vid=6875ac5a-b24b-4300-843e-0eccd281b8e4"},"vehicle_type_id":"4","last_reported":1693069501,"current_range_meters":26800,"station_id":"ce4bh0p2rcd13ifvqd80","pricing_plan_id":"free"},{"bike_id":"bcf48eec-ed17-432e-ae35-b724530892cc","system_id":"levelo_inurba_marseille","lat":43.303,"lon":5.39189,"is_reserved":false,"is_disabled":false,"rental_uris":{"android":"levelo://app?vid=bcf48eec-ed17-432e-ae35-b724530892cc","ios":"levelo://app?vid=bcf48eec-ed17-432e-ae35-b724530892cc"},"vehicle_type_id":"4","last_reported":1693069501,"current_range_meters":0,"station_id":"ce4bgkh2rcd13ifvqbk0","pricing_plan_id":"free"},{"bike_id":"5d33a6d9-3c5e-481e-b182-433985274fbe","system_id":"levelo_inurba_marseille","lat":43.30303,"lon":5.39196,"is_reserved":false,"is_disabled":false,"rental_uris":{"android":"levelo://app?vid=5d33a6d9-3c5e-481e-b182-433985274fbe","ios":"levelo://app?vid=5d33a6d9-3c5e-481e-b182-433985274fbe"},"vehicle_type_id":"4","last_reported":1693069501,"current_range_meters":15200,"station_id":"ce4bgkh2rcd13ifvqbk0","pricing_plan_id":"free"},{"bike_id":"688dbc53-2e01-44b0-8171-45c55a4dd4d4","system_id":"levelo_inurba_marseille","lat":43.30305,"lon":5.392,"is_reserved":false,"is_disabled":false,"rental_uris":{"android":"levelo://app?vid=688dbc53-2e01-44b0-8171-45c55a4dd4d4","ios":"levelo://app?vid=688dbc53-2e01-44b0-8171-45c55a4dd4d4"},"vehicle_type_id":"4","last_reported":1693069501,"current_range_meters":0,"station_id":"ce4bgkh2rcd13ifvqbk0","pricing_plan_id":"free"},{"bike_id":"0724f352-a262-45b7-9b71-9a09ff17d945","system_id":"levelo_inurba_marseille","lat":43.30308,"lon":5.3921,"is_reserved":false,"is_disabled":false,"rental_uris":{"android":"levelo://app?vid=0724f352-a262-45b7-9b71-9a09ff17d945","ios":"levelo://app?vid=0724f352-a262-45b7-9b71-9a09ff17d945"},"vehicle_type_id":"4","last_reported":1693069501,"current_range_meters":12000,"station_id":"ce4bgkh2rcd13ifvqbk0","pricing_plan_id":"free"},{"bike_id":"3afcb2f2-571b-4774-8dc2-5157cf465e01","system_id":"levelo_inurba_marseille","lat":43.2936,"lon":5.37835,"is_reserved":false,"is_disabled":false,"rental_uris":{"android":"levelo://app?vid=3afcb2f2-571b-4774-8dc2-5157cf465e01","ios":"levelo://app?vid=3afcb2f2-571b-4774-8dc2-5157cf465e01"},"vehicle_type_id":"4","last_reported":1693069501,"current_range_meters":0,"station_id":"ce4bgjh2rcd13ifvqbf0","pricing_plan_id":"free"},{"bike_id":"3f2c8c1c-e2ce-4301-a57c-758da0db7604","system_id":"levelo_inurba_marseille","lat":43.30297,"lon":5.39209,"is_reserved":false,"is_disabled":false,"rental_uris":{"android":"levelo://app?vid=3f2c8c1c-e2ce-4301-a57c-758da0db7604","ios":"levelo://app?vid=3f2c8c1c-e2ce-4301-a57c-758da0db7604"},"vehicle_type_id":"4","last_reported":1693069501,"current_range_meters":27600,"station_id":"ce4bgkh2rcd13ifvqbk0","pricing_plan_id":"free"},{"bike_id":"56363b7c-0dd4-4ea9-993d-8b17ed5b2a4c","system_id":"levelo_inurba_marseille","lat":43.30298,"lon":5.39215,"is_reserved":false,"is_disabled":false,"rental_uris":{"android":"levelo://app?vid=56363b7c-0dd4-4ea9-993d-8b17ed5b2a4c","ios":"levelo://app?vid=56363b7c-0dd4-4ea9-993d-8b17ed5b2a4c"},"vehicle_type_id":"4","last_reported":1693069501,"current_range_meters":3600,"station_id":"ce4bgkh2rcd13ifvqbk0","pricing_plan_id":"free"},{"bike_id":"59d4a7cc-c4d8-47e1-a63f-2e26b5d209c3","system_id":"levelo_inurba_marseille","lat":43.2936,"lon":5.37835,"is_reserved":false,"is_disabled":false,"rental_uris":{"android":"levelo://app?vid=59d4a7cc-c4d8-47e1-a63f-2e26b5d209c3","ios":"levelo://app?vid=59d4a7cc-c4d8-47e1-a63f-2e26b5d209c3"},"vehicle_type_id":"4","last_reported":1693069501,"current_range_meters":31200,"station_id":"ce4bgjh2rcd13ifvqbf0","pricing_plan_id":"free"},{"bike_id":"e44d20f1-b50d-4ec5-9358-ae98bfda74ec","system_id":"levelo_inurba_marseille","lat":43.29226,"lon":5.36074,"is_reserved":false,"is_disabled":false,"rental_uris":{"android":"levelo://app?vid=e44d20f1-b50d-4ec5-9358-ae98bfda74ec","ios":"levelo://app?vid=e44d20f1-b50d-4ec5-9358-ae98bfda74ec"},"vehicle_type_id":"4","last_reported":1693069501,"current_range_meters":25200,"station_id":"ce4bhbh2rcd13ifvqeqg","pricing_plan_id":"free"},{"bike_id":"047c17db-a72d-4760-aa2e-dae46fd26798","system_id":"levelo_inurba_marseille","lat":43.30085,"lon":5.390856,"is_reserved":false,"is_disabled":false,"rental_uris":{"android":"levelo://app?vid=047c17db-a72d-4760-aa2e-dae46fd26798","ios":"levelo://app?vid=047c17db-a72d-4760-aa2e-dae46fd26798"},"vehicle_type_id":"4","last_reported":1693069501,"current_range_meters":15200,"station_id":"ce4bh192rcd13ifvqdb0","pricing_plan_id":"free"},{"bike_id":"08fe63c9-164a-4a61-bf48-8b8c25f1884b","system_id":"levelo_inurba_marseille","lat":43.29887,"lon":5.38906,"is_reserved":false,"is_disabled":false,"rental_uris":{"android":"levelo://app?vid=08fe63c9-164a-4a61-bf48-8b8c25f1884b","ios":"levelo://app?vid=08fe63c9-164a-4a61-bf48-8b8c25f1884b"},"vehicle_type_id":"4","last_reported":1693069501,"current_range_meters":5600,"station_id":"ce4bh392rcd13ifvqdl0","pricing_plan_id":"free"},{"bike_id":"957189c5-5f5c-4bee-b12c-ed295634b686","system_id":"levelo_inurba_marseille","lat":43.29873,"lon":5.38893,"is_reserved":false,"is_disabled":false,"rental_uris":{"android":"levelo://app?vid=957189c5-5f5c-4bee-b12c-ed295634b686","ios":"levelo://app?vid=957189c5-5f5c-4bee-b12c-ed295634b686"},"vehicle_type_id":"4","last_reported":1693069501,"current_range_meters":9600,"station_id":"ce4bh392rcd13ifvqdl0","pricing_plan_id":"free"},{"bike_id":"be788dab-d0bd-45e2-8aaf-412eb4cc04c1","system_id":"levelo_inurba_marseille","lat":43.293009,"lon":5.374584,"is_reserved":false,"is_disabled":false,"rental_uris":{"android":"levelo://app?vid=be788dab-d0bd-45e2-8aaf-412eb4cc04c1","ios":"levelo://app?vid=be788dab-d0bd-45e2-8aaf-412eb4cc04c1"},"vehicle_type_id":"4","last_reported":1693069501,"current_range_meters":25200,"station_id":"ce4bgi12rcd13ifvqb70","pricing_plan_id":"free"},{"bike_id":"3144a3aa-a47a-471c-b70b-a2b2e2097bfd","system_id":"levelo_inurba_marseille","lat":43.30892,"lon":5.39631,"is_reserved":false,"is_disabled":false,"rental_uris":{"android":"levelo://app?vid=3144a3aa-a47a-471c-b70b-a2b2e2097bfd","ios":"levelo://app?vid=3144a3aa-a47a-471c-b70b-a2b2e2097bfd"},"vehicle_type_id":"4","last_reported":1693069501,"current_range_meters":26400,"station_id":"ce4bh012rcd13ifvqcv0","pricing_plan_id":"free"},{"bike_id":"3f19ff33-c8d8-4257-914f-3cc20db85684","system_id":"levelo_inurba_marseille","lat":43.31331,"lon":5.39688,"is_reserved":false,"is_disabled":false,"rental_uris":{"android":"levelo://app?vid=3f19ff33-c8d8-4257-914f-3cc20db85684","ios":"levelo://app?vid=3f19ff33-c8d8-4257-914f-3cc20db85684"},"vehicle_type_id":"4","last_reported":1693069501,"current_range_meters":7200,"station_id":"ce4bgvp2rcd13ifvqcu0","pricing_plan_id":"free"},{"bike_id":"e7af86d3-2e31-4356-b961-2cf8d1486f8d","system_id":"levelo_inurba_marseille","lat":43.313359,"lon":5.396924,"is_reserved":false,"is_disabled":false,"rental_uris":{"android":"levelo://app?vid=e7af86d3-2e31-4356-b961-2cf8d1486f8d","ios":"levelo://app?vid=e7af86d3-2e31-4356-b961-2cf8d1486f8d"},"vehicle_type_id":"4","last_reported":1693069501,"current_range_meters":22000,"station_id":"ce4bgvp2rcd13ifvqcu0","pricing_plan_id":"free"},{"bike_id":"75139e2c-0091-43cd-bf50-3544f81b5fcc","system_id":"levelo_inurba_marseille","lat":43.31325,"lon":5.39694,"is_reserved":false,"is_disabled":false,"rental_uris":{"android":"levelo://app?vid=75139e2c-0091-43cd-bf50-3544f81b5fcc","ios":"levelo://app?vid=75139e2c-0091-43cd-bf50-3544f81b5fcc"},"vehicle_type_id":"4","last_reported":1693069501,"current_range_meters":2800,"station_id":"ce4bgvp2rcd13ifvqcu0","pricing_plan_id":"free"},{"bike_id":"7a507604-3f70-4cfb-ae37-787d5a1598e4","system_id":"levelo_inurba_marseille","lat":43.309038,"lon":5.396546,"is_reserved":false,"is_disabled":false,"rental_uris":{"android":"levelo://app?vid=7a507604-3f70-4cfb-ae37-787d5a1598e4","ios":"levelo://app?vid=7a507604-3f70-4cfb-ae37-787d5a1598e4"},"vehicle_type_id":"4","last_reported":1693069501,"current_range_meters":28800,"station_id":"ce4bh012rcd13ifvqcv0","pricing_plan_id":"free"},{"bike_id":"716d6b1b-66e7-4fc9-8bb8-61f3875cbd5b","system_id":"levelo_inurba_marseille","lat":43.309038,"lon":5.396546,"is_reserved":false,"is_disabled":false,"rental_uris":{"android":"levelo://app?vid=716d6b1b-66e7-4fc9-8bb8-61f3875cbd5b","ios":"levelo://app?vid=716d6b1b-66e7-4fc9-8bb8-61f3875cbd5b"},"vehicle_type_id":"4","last_reported":1693069501,"current_range_meters":9600,"station_id":"ce4bh012rcd13ifvqcv0","pricing_plan_id":"free"},{"bike_id":"bb257e67-2fd4-4efa-8283-76181484263d","system_id":"levelo_inurba_marseille","lat":43.29529,"lon":5.385581,"is_reserved":false,"is_disabled":false,"rental_uris":{"android":"levelo://app?vid=bb257e67-2fd4-4efa-8283-76181484263d","ios":"levelo://app?vid=bb257e67-2fd4-4efa-8283-76181484263d"},"vehicle_type_id":"4","last_reported":1693069501,"current_range_meters":20000,"station_id":"ce4bgih2rcd13ifvqba0","pricing_plan_id":"free"},{"bike_id":"a84e5bf7-84fc-4cf0-83f2-5bc518b27089","system_id":"levelo_inurba_marseille","lat":43.29527,"lon":5.38534,"is_reserved":false,"is_disabled":false,"rental_uris":{"android":"levelo://app?vid=a84e5bf7-84fc-4cf0-83f2-5bc518b27089","ios":"levelo://app?vid=a84e5bf7-84fc-4cf0-83f2-5bc518b27089"},"vehicle_type_id":"4","last_reported":1693069501,"current_range_meters":18000,"station_id":"","pricing_plan_id":"free"},{"bike_id":"470f9655-44c0-4cec-882c-d3adb7356b91","system_id":"levelo_inurba_marseille","lat":43.290631,"lon":5.359244,"is_reserved":false,"is_disabled":false,"rental_uris":{"android":"levelo://app?vid=470f9655-44c0-4cec-882c-d3adb7356b91","ios":"levelo://app?vid=470f9655-44c0-4cec-882c-d3adb7356b91"},"vehicle_type_id":"4","last_reported":1693069501,"current_range_meters":25200,"station_id":"ce4bha92rcd13ifvqeg0","pricing_plan_id":"free"},{"bike_id":"f8f293ef-5cb1-423e-a4cd-096e8af1c74b","system_id":"levelo_inurba_marseille","lat":43.290631,"lon":5.359244,"is_reserved":false,"is_disabled":false,"rental_uris":{"android":"levelo://app?vid=f8f293ef-5cb1-423e-a4cd-096e8af1c74b","ios":"levelo://app?vid=f8f293ef-5cb1-423e-a4cd-096e8af1c74b"},"vehicle_type_id":"4","last_reported":1693069501,"current_range_meters":29600,"station_id":"ce4bha92rcd13ifvqeg0","pricing_plan_id":"free"},{"bike_id":"a30d7c30-8181-4ce5-a755-f1cf78e1d027","system_id":"levelo_inurba_marseille","lat":43.294153,"lon":5.386305,"is_reserved":false,"is_disabled":false,"rental_uris":{"android":"levelo://app?vid=a30d7c30-8181-4ce5-a755-f1cf78e1d027","ios":"levelo://app?vid=a30d7c30-8181-4ce5-a755-f1cf78e1d027"},"vehicle_type_id":"4","last_reported":1693069501,"current_range_meters":5200,"station_id":"ce4bh2h2rcd13ifvqdh0","pricing_plan_id":"free"},{"bike_id":"84ca0ac4-df3f-4bb7-ad96-eee465a070d2","system_id":"levelo_inurba_marseille","lat":43.294162,"lon":5.386292,"is_reserved":false,"is_disabled":false,"rental_uris":{"android":"levelo://app?vid=84ca0ac4-df3f-4bb7-ad96-eee465a070d2","ios":"levelo://app?vid=84ca0ac4-df3f-4bb7-ad96-eee465a070d2"},"vehicle_type_id":"4","last_reported":1693069501,"current_range_meters":18400,"station_id":"ce4bh2h2rcd13ifvqdh0","pricing_plan_id":"free"},{"bike_id":"79a8e9dd-1ddf-4c5f-879d-ffca6e830eeb","system_id":"levelo_inurba_marseille","lat":43.290327,"lon":5.375711,"is_reserved":false,"is_disabled":false,"rental_uris":{"android":"levelo://app?vid=79a8e9dd-1ddf-4c5f-879d-ffca6e830eeb","ios":"levelo://app?vid=79a8e9dd-1ddf-4c5f-879d-ffca6e830eeb"},"vehicle_type_id":"4","last_reported":1693069501,"current_range_meters":24400,"station_id":"ce4bh692rcd13ifvqe90","pricing_plan_id":"free"},{"bike_id":"2f93318d-a393-4e93-88c9-60d3ec241b0e","system_id":"levelo_inurba_marseille","lat":43.289184,"lon":5.366408,"is_reserved":false,"is_disabled":false,"rental_uris":{"android":"levelo://app?vid=2f93318d-a393-4e93-88c9-60d3ec241b0e","ios":"levelo://app?vid=2f93318d-a393-4e93-88c9-60d3ec241b0e"},"vehicle_type_id":"4","last_reported":1693069501,"current_range_meters":31200,"station_id":"ce4bhap2rcd13ifvqek0","pricing_plan_id":"free"},{"bike_id":"8b2f7954-57c3-460f-89bf-29cdbf22dd4a","system_id":"levelo_inurba_marseille","lat":43.304274,"lon":5.397513,"is_reserved":false,"is_disabled":false,"rental_uris":{"android":"levelo://app?vid=8b2f7954-57c3-460f-89bf-29cdbf22dd4a","ios":"levelo://app?vid=8b2f7954-57c3-460f-89bf-29cdbf22dd4a"},"vehicle_type_id":"4","last_reported":1693069501,"current_range_meters":0,"station_id":"ce4bh092rcd13ifvqd20","pricing_plan_id":"free"},{"bike_id":"a1951cb0-9f32-49a7-8eab-1de85ab77c31","system_id":"levelo_inurba_marseille","lat":43.292644,"lon":5.384257,"is_reserved":false,"is_disabled":false,"rental_uris":{"android":"levelo://app?vid=a1951cb0-9f32-49a7-8eab-1de85ab77c31","ios":"levelo://app?vid=a1951cb0-9f32-49a7-8eab-1de85ab77c31"},"vehicle_type_id":"4","last_reported":1693069501,"current_range_meters":24800,"station_id":"ce4bh692rcd13ifvqea0","pricing_plan_id":"free"},{"bike_id":"89653feb-f2b9-41b4-ae30-5764cc71877f","system_id":"levelo_inurba_marseille","lat":43.292644,"lon":5.384257,"is_reserved":false,"is_disabled":false,"rental_uris":{"android":"levelo://app?vid=89653feb-f2b9-41b4-ae30-5764cc71877f","ios":"levelo://app?vid=89653feb-f2b9-41b4-ae30-5764cc71877f"},"vehicle_type_id":"4","last_reported":1693069501,"current_range_meters":2800,"station_id":"ce4bh692rcd13ifvqea0","pricing_plan_id":"free"},{"bike_id":"735851ed-2cd0-40ff-9535-c9613970f89e","system_id":"levelo_inurba_marseille","lat":43.292644,"lon":5.384257,"is_reserved":false,"is_disabled":false,"rental_uris":{"android":"levelo://app?vid=735851ed-2cd0-40ff-9535-c9613970f89e","ios":"levelo://app?vid=735851ed-2cd0-40ff-9535-c9613970f89e"},"vehicle_type_id":"4","last_reported":1693069501,"current_range_meters":18400,"station_id":"ce4bh692rcd13ifvqea0","pricing_plan_id":"free"},{"bike_id":"1c07e25f-84db-4513-bedb-11b97c6ec9b6","system_id":"levelo_inurba_marseille","lat":43.330442,"lon":5.389148,"is_reserved":false,"is_disabled":false,"rental_uris":{"android":"levelo://app?vid=1c07e25f-84db-4513-bedb-11b97c6ec9b6","ios":"levelo://app?vid=1c07e25f-84db-4513-bedb-11b97c6ec9b6"},"vehicle_type_id":"4","last_reported":1693069501,"current_range_meters":23600,"station_id":"ce4bhr92rcd13ifvqhrg","pricing_plan_id":"free"},{"bike_id":"1895038e-acdb-4d35-aa35-e1291f23a30a","system_id":"levelo_inurba_marseille","lat":43.290104,"lon":5.356111,"is_reserved":false,"is_disabled":false,"rental_uris":{"android":"levelo://app?vid=1895038e-acdb-4d35-aa35-e1291f23a30a","ios":"levelo://app?vid=1895038e-acdb-4d35-aa35-e1291f23a30a"},"vehicle_type_id":"4","last_reported":1693069501,"current_range_meters":31200,"station_id":"ce4bhb92rcd13ifvqen0","pricing_plan_id":"free"},{"bike_id":"a4df99ce-0488-49dd-a888-94686f562e88","system_id":"levelo_inurba_marseille","lat":43.290104,"lon":5.356111,"is_reserved":false,"is_disabled":false,"rental_uris":{"android":"levelo://app?vid=a4df99ce-0488-49dd-a888-94686f562e88","ios":"levelo://app?vid=a4df99ce-0488-49dd-a888-94686f562e88"},"vehicle_type_id":"4","last_reported":1693069501,"current_range_meters":29600,"station_id":"ce4bhb92rcd13ifvqen0","pricing_plan_id":"free"},{"bike_id":"6093d433-f9d6-48fe-897b-a1be7c29ef34","system_id":"levelo_inurba_marseille","lat":43.29004,"lon":5.35605,"is_reserved":false,"is_disabled":false,"rental_uris":{"android":"levelo://app?vid=6093d433-f9d6-48fe-897b-a1be7c29ef34","ios":"levelo://app?vid=6093d433-f9d6-48fe-897b-a1be7c29ef34"},"vehicle_type_id":"4","last_reported":1693069501,"current_range_meters":31600,"station_id":"ce4bhb92rcd13ifvqen0","pricing_plan_id":"free"},{"bike_id":"21b0e3fb-12da-4f1b-9676-3ccdf41e7914","system_id":"levelo_inurba_marseille","lat":43.295169,"lon":5.390426,"is_reserved":false,"is_disabled":false,"rental_uris":{"android":"levelo://app?vid=21b0e3fb-12da-4f1b-9676-3ccdf41e7914","ios":"levelo://app?vid=21b0e3fb-12da-4f1b-9676-3ccdf41e7914"},"vehicle_type_id":"4","last_reported":1693069501,"current_range_meters":12800,"station_id":"ce4bh3p2rcd13ifvqdp0","pricing_plan_id":"free"},{"bike_id":"b2016482-648f-400d-8321-ef0d7a61fa23","system_id":"levelo_inurba_marseille","lat":43.29018,"lon":5.38129,"is_reserved":false,"is_disabled":false,"rental_uris":{"android":"levelo://app?vid=b2016482-648f-400d-8321-ef0d7a61fa23","ios":"levelo://app?vid=b2016482-648f-400d-8321-ef0d7a61fa23"},"vehicle_type_id":"4","last_reported":1693069501,"current_range_meters":0,"station_id":"ce4bh4p2rcd13ifvqe1g","pricing_plan_id":"free"},{"bike_id":"326a75a0-bd1a-4843-b465-85c955b25713","system_id":"levelo_inurba_marseille","lat":43.28847,"lon":5.35821,"is_reserved":false,"is_disabled":false,"rental_uris":{"android":"levelo://app?vid=326a75a0-bd1a-4843-b465-85c955b25713","ios":"levelo://app?vid=326a75a0-bd1a-4843-b465-85c955b25713"},"vehicle_type_id":"4","last_reported":1693069501,"current_range_meters":0,"station_id":"ce4bhb12rcd13ifvqem0","pricing_plan_id":"free"},{"bike_id":"093db93b-5453-41f0-b235-e32d752da502","system_id":"levelo_inurba_marseille","lat":43.30929,"lon":5.40132,"is_reserved":false,"is_disabled":false,"rental_uris":{"android":"levelo://app?vid=093db93b-5453-41f0-b235-e32d752da502","ios":"levelo://app?vid=093db93b-5453-41f0-b235-e32d752da502"},"vehicle_type_id":"4","last_reported":1693069501,"current_range_meters":14400,"station_id":"ce4bgvp2rcd13ifvqct0","pricing_plan_id":"free"},{"bike_id":"f29fc6df-c158-4efc-a0fe-9921e571a45b","system_id":"levelo_inurba_marseille","lat":43.312609,"lon":5.401662,"is_reserved":false,"is_disabled":false,"rental_uris":{"android":"levelo://app?vid=f29fc6df-c158-4efc-a0fe-9921e571a45b","ios":"levelo://app?vid=f29fc6df-c158-4efc-a0fe-9921e571a45b"},"vehicle_type_id":"4","last_reported":1693069501,"current_range_meters":31200,"station_id":"ce4bh092rcd13ifvqd30","pricing_plan_id":"free"},{"bike_id":"4e71c2d6-626d-4822-877d-65498b9fc390","system_id":"levelo_inurba_marseille","lat":43.30642,"lon":5.401031,"is_reserved":false,"is_disabled":false,"rental_uris":{"android":"levelo://app?vid=4e71c2d6-626d-4822-877d-65498b9fc390","ios":"levelo://app?vid=4e71c2d6-626d-4822-877d-65498b9fc390"},"vehicle_type_id":"4","last_reported":1693069501,"current_range_meters":6400,"station_id":"ce4bh112rcd13ifvqda0","pricing_plan_id":"free"},{"bike_id":"0c3fe754-7f33-4abd-bf78-51a9b801cc34","system_id":"levelo_inurba_marseille","lat":43.33781,"lon":5.37436,"is_reserved":false,"is_disabled":false,"rental_uris":{"android":"levelo://app?vid=0c3fe754-7f33-4abd-bf78-51a9b801cc34","ios":"levelo://app?vid=0c3fe754-7f33-4abd-bf78-51a9b801cc34"},"vehicle_type_id":"4","last_reported":1693069501,"current_range_meters":14800,"station_id":"","pricing_plan_id":"free"},{"bike_id":"1c34b521-b225-4343-82b7-e0cae17f452d","system_id":"levelo_inurba_marseille","lat":43.298681,"lon":5.397225,"is_reserved":false,"is_disabled":false,"rental_uris":{"android":"levelo://app?vid=1c34b521-b225-4343-82b7-e0cae17f452d","ios":"levelo://app?vid=1c34b521-b225-4343-82b7-e0cae17f452d"},"vehicle_type_id":"4","last_reported":1693069501,"current_range_meters":10800,"station_id":"ce4bh0h2rcd13ifvqd50","pricing_plan_id":"free"},{"bike_id":"70befd1e-db3e-44b6-a926-9cd51483de17","system_id":"levelo_inurba_marseille","lat":43.286591,"lon":5.363346,"is_reserved":false,"is_disabled":false,"rental_uris":{"android":"levelo://app?vid=70befd1e-db3e-44b6-a926-9cd51483de17","ios":"levelo://app?vid=70befd1e-db3e-44b6-a926-9cd51483de17"},"vehicle_type_id":"4","last_reported":1693069501,"current_range_meters":15600,"station_id":"ce4bhah2rcd13ifvqej0","pricing_plan_id":"free"},{"bike_id":"2365150f-73ab-4507-aea4-76016e6109c8","system_id":"levelo_inurba_marseille","lat":43.286593,"lon":5.363346,"is_reserved":false,"is_disabled":false,"rental_uris":{"android":"levelo://app?vid=2365150f-73ab-4507-aea4-76016e6109c8","ios":"levelo://app?vid=2365150f-73ab-4507-aea4-76016e6109c8"},"vehicle_type_id":"4","last_reported":1693069501,"current_range_meters":31200,"station_id":"ce4bhah2rcd13ifvqej0","pricing_plan_id":"free"},{"bike_id":"939b235e-d06d-4751-8b59-dc278a37dcae","system_id":"levelo_inurba_marseille","lat":43.290336,"lon":5.386425,"is_reserved":false,"is_disabled":false,"rental_uris":{"android":"levelo://app?vid=939b235e-d06d-4751-8b59-dc278a37dcae","ios":"levelo://app?vid=939b235e-d06d-4751-8b59-dc278a37dcae"},"vehicle_type_id":"4","last_reported":1693069501,"current_range_meters":14800,"station_id":"ce4bh4p2rcd13ifvqe0g","pricing_plan_id":"free"},{"bike_id":"75199276-b705-4ad7-b6a9-49aeaa84628a","system_id":"levelo_inurba_marseille","lat":43.286591,"lon":5.363346,"is_reserved":false,"is_disabled":false,"rental_uris":{"android":"levelo://app?vid=75199276-b705-4ad7-b6a9-49aeaa84628a","ios":"levelo://app?vid=75199276-b705-4ad7-b6a9-49aeaa84628a"},"vehicle_type_id":"4","last_reported":1693069501,"current_range_meters":30800,"station_id":"ce4bhah2rcd13ifvqej0","pricing_plan_id":"free"},{"bike_id":"0144dd0a-7c74-41d1-8377-cb0a5523ef88","system_id":"levelo_inurba_marseille","lat":43.295196,"lon":5.39397,"is_reserved":false,"is_disabled":false,"rental_uris":{"android":"levelo://app?vid=0144dd0a-7c74-41d1-8377-cb0a5523ef88","ios":"levelo://app?vid=0144dd0a-7c74-41d1-8377-cb0a5523ef88"},"vehicle_type_id":"4","last_reported":1693069501,"current_range_meters":11200,"station_id":"ce4bh292rcd13ifvqdf0","pricing_plan_id":"free"},{"bike_id":"02195b37-defe-4def-9d4e-7885f6cd815b","system_id":"levelo_inurba_marseille","lat":43.295196,"lon":5.39397,"is_reserved":false,"is_disabled":false,"rental_uris":{"android":"levelo://app?vid=02195b37-defe-4def-9d4e-7885f6cd815b","ios":"levelo://app?vid=02195b37-defe-4def-9d4e-7885f6cd815b"},"vehicle_type_id":"4","last_reported":1693069501,"current_range_meters":31200,"station_id":"ce4bh292rcd13ifvqdf0","pricing_plan_id":"free"},{"bike_id":"d32b50b8-7e30-4b31-8962-1c087fa79798","system_id":"levelo_inurba_marseille","lat":43.295194,"lon":5.39397,"is_reserved":false,"is_disabled":false,"rental_uris":{"android":"levelo://app?vid=d32b50b8-7e30-4b31-8962-1c087fa79798","ios":"levelo://app?vid=d32b50b8-7e30-4b31-8962-1c087fa79798"},"vehicle_type_id":"4","last_reported":1693069501,"current_range_meters":4800,"station_id":"ce4bh292rcd13ifvqdf0","pricing_plan_id":"free"},{"bike_id":"c0e706c6-ae7c-4d21-adef-5ad8fb60e911","system_id":"levelo_inurba_marseille","lat":43.290336,"lon":5.386425,"is_reserved":false,"is_disabled":false,"rental_uris":{"android":"levelo://app?vid=c0e706c6-ae7c-4d21-adef-5ad8fb60e911","ios":"levelo://app?vid=c0e706c6-ae7c-4d21-adef-5ad8fb60e911"},"vehicle_type_id":"4","last_reported":1693069501,"current_range_meters":10000,"station_id":"ce4bh4p2rcd13ifvqe0g","pricing_plan_id":"free"},{"bike_id":"a0f54445-bdc8-4c2d-a7ec-91e3c82425f0","system_id":"levelo_inurba_marseille","lat":43.302759,"lon":5.400793,"is_reserved":false,"is_disabled":false,"rental_uris":{"android":"levelo://app?vid=a0f54445-bdc8-4c2d-a7ec-91e3c82425f0","ios":"levelo://app?vid=a0f54445-bdc8-4c2d-a7ec-91e3c82425f0"},"vehicle_type_id":"4","last_reported":1693069501,"current_range_meters":1600,"station_id":"ce4bgvh2rcd13ifvqcs0","pricing_plan_id":"free"},{"bike_id":"83e5270c-6e46-4da4-bee9-09a873efdb5a","system_id":"levelo_inurba_marseille","lat":43.286039,"lon":5.370679,"is_reserved":false,"is_disabled":false,"rental_uris":{"android":"levelo://app?vid=83e5270c-6e46-4da4-bee9-09a873efdb5a","ios":"levelo://app?vid=83e5270c-6e46-4da4-bee9-09a873efdb5a"},"vehicle_type_id":"4","last_reported":1693069501,"current_range_meters":29200,"station_id":"ce4bht12rcd13ifvqi60","pricing_plan_id":"free"},{"bike_id":"c6383863-2c04-4511-9a4b-a00a12397e80","system_id":"levelo_inurba_marseille","lat":43.286039,"lon":5.370679,"is_reserved":false,"is_disabled":false,"rental_uris":{"android":"levelo://app?vid=c6383863-2c04-4511-9a4b-a00a12397e80","ios":"levelo://app?vid=c6383863-2c04-4511-9a4b-a00a12397e80"},"vehicle_type_id":"4","last_reported":1693069501,"current_range_meters":28800,"station_id":"ce4bht12rcd13ifvqi60","pricing_plan_id":"free"},{"bike_id":"7da9e437-1e79-4b5f-9ab0-65254ac17dd7","system_id":"levelo_inurba_marseille","lat":43.31649,"lon":5.40438,"is_reserved":false,"is_disabled":false,"rental_uris":{"android":"levelo://app?vid=7da9e437-1e79-4b5f-9ab0-65254ac17dd7","ios":"levelo://app?vid=7da9e437-1e79-4b5f-9ab0-65254ac17dd7"},"vehicle_type_id":"4","last_reported":1693069501,"current_range_meters":12400,"station_id":"ce4bh012rcd13ifvqd00","pricing_plan_id":"free"},{"bike_id":"0235ef2f-ae9a-42a2-9ef6-e86880dc599c","system_id":"levelo_inurba_marseille","lat":43.291994,"lon":5.392907,"is_reserved":false,"is_disabled":false,"rental_uris":{"android":"levelo://app?vid=0235ef2f-ae9a-42a2-9ef6-e86880dc599c","ios":"levelo://app?vid=0235ef2f-ae9a-42a2-9ef6-e86880dc599c"},"vehicle_type_id":"4","last_reported":1693069501,"current_range_meters":14800,"station_id":"ce4bh192rcd13ifvqdd0","pricing_plan_id":"free"},{"bike_id":"2363d3b5-6c15-401a-a59c-ee80bd4af927","system_id":"levelo_inurba_marseille","lat":43.28415,"lon":5.37522,"is_reserved":false,"is_disabled":false,"rental_uris":{"android":"levelo://app?vid=2363d3b5-6c15-401a-a59c-ee80bd4af927","ios":"levelo://app?vid=2363d3b5-6c15-401a-a59c-ee80bd4af927"},"vehicle_type_id":"4","last_reported":1693069501,"current_range_meters":0,"station_id":"ce4bh412rcd13ifvqds0","pricing_plan_id":"free"},{"bike_id":"563d14da-5a6e-4f43-abcf-8004958d00f5","system_id":"levelo_inurba_marseille","lat":43.286595,"lon":5.386795,"is_reserved":false,"is_disabled":false,"rental_uris":{"android":"levelo://app?vid=563d14da-5a6e-4f43-abcf-8004958d00f5","ios":"levelo://app?vid=563d14da-5a6e-4f43-abcf-8004958d00f5"},"vehicle_type_id":"4","last_reported":1693069501,"current_range_meters":0,"station_id":"ce4bh492rcd13ifvqdug","pricing_plan_id":"free"},{"bike_id":"67d31a5e-e022-4a43-8753-e0f746914c41","system_id":"levelo_inurba_marseille","lat":43.33723,"lon":5.3918,"is_reserved":false,"is_disabled":false,"rental_uris":{"android":"levelo://app?vid=67d31a5e-e022-4a43-8753-e0f746914c41","ios":"levelo://app?vid=67d31a5e-e022-4a43-8753-e0f746914c41"},"vehicle_type_id":"4","last_reported":1693069501,"current_range_meters":24000,"station_id":"ce4bhr92rcd13ifvqhsg","pricing_plan_id":"free"},{"bike_id":"fbafa583-df2f-4beb-bbab-161640a3afd5","system_id":"levelo_inurba_marseille","lat":43.33723,"lon":5.39184,"is_reserved":false,"is_disabled":false,"rental_uris":{"android":"levelo://app?vid=fbafa583-df2f-4beb-bbab-161640a3afd5","ios":"levelo://app?vid=fbafa583-df2f-4beb-bbab-161640a3afd5"},"vehicle_type_id":"4","last_reported":1693069501,"current_range_meters":14400,"station_id":"ce4bhr92rcd13ifvqhsg","pricing_plan_id":"free"},{"bike_id":"db7ab961-c1f9-47c0-81c9-6839f354a493","system_id":"levelo_inurba_marseille","lat":43.323464,"lon":5.406297,"is_reserved":false,"is_disabled":false,"rental_uris":{"android":"levelo://app?vid=db7ab961-c1f9-47c0-81c9-6839f354a493","ios":"levelo://app?vid=db7ab961-c1f9-47c0-81c9-6839f354a493"},"vehicle_type_id":"4","last_reported":1693069501,"current_range_meters":31200,"station_id":"ce4bhq92rcd13ifvqhjg","pricing_plan_id":"free"},{"bike_id":"cb01a8a3-0d33-478d-bbe8-f8f6720769cc","system_id":"levelo_inurba_marseille","lat":43.33724,"lon":5.39183,"is_reserved":false,"is_disabled":false,"rental_uris":{"android":"levelo://app?vid=cb01a8a3-0d33-478d-bbe8-f8f6720769cc","ios":"levelo://app?vid=cb01a8a3-0d33-478d-bbe8-f8f6720769cc"},"vehicle_type_id":"4","last_reported":1693069501,"current_range_meters":22400,"station_id":"ce4bhr92rcd13ifvqhsg","pricing_plan_id":"free"},{"bike_id":"8320de35-3946-4a47-9f14-9a6122ee86fc","system_id":"levelo_inurba_marseille","lat":43.323464,"lon":5.406297,"is_reserved":false,"is_disabled":false,"rental_uris":{"android":"levelo://app?vid=8320de35-3946-4a47-9f14-9a6122ee86fc","ios":"levelo://app?vid=8320de35-3946-4a47-9f14-9a6122ee86fc"},"vehicle_type_id":"4","last_reported":1693069501,"current_range_meters":31200,"station_id":"ce4bhq92rcd13ifvqhjg","pricing_plan_id":"free"},{"bike_id":"7e4b49c2-f4de-4644-9176-19b326f1db26","system_id":"levelo_inurba_marseille","lat":43.337168,"lon":5.391825,"is_reserved":false,"is_disabled":false,"rental_uris":{"android":"levelo://app?vid=7e4b49c2-f4de-4644-9176-19b326f1db26","ios":"levelo://app?vid=7e4b49c2-f4de-4644-9176-19b326f1db26"},"vehicle_type_id":"4","last_reported":1693069501,"current_range_meters":23600,"station_id":"ce4bhr92rcd13ifvqhsg","pricing_plan_id":"free"},{"bike_id":"261eaadf-6347-42f2-b9c2-72bd0b4a7c63","system_id":"levelo_inurba_marseille","lat":43.33717,"lon":5.391857,"is_reserved":false,"is_disabled":false,"rental_uris":{"android":"levelo://app?vid=261eaadf-6347-42f2-b9c2-72bd0b4a7c63","ios":"levelo://app?vid=261eaadf-6347-42f2-b9c2-72bd0b4a7c63"},"vehicle_type_id":"4","last_reported":1693069501,"current_range_meters":29200,"station_id":"ce4bhr92rcd13ifvqhsg","pricing_plan_id":"free"},{"bike_id":"531d6e23-0278-4a54-a610-21397a86f1a4","system_id":"levelo_inurba_marseille","lat":43.33717,"lon":5.391857,"is_reserved":false,"is_disabled":false,"rental_uris":{"android":"levelo://app?vid=531d6e23-0278-4a54-a610-21397a86f1a4","ios":"levelo://app?vid=531d6e23-0278-4a54-a610-21397a86f1a4"},"vehicle_type_id":"4","last_reported":1693069501,"current_range_meters":24400,"station_id":"ce4bhr92rcd13ifvqhsg","pricing_plan_id":"free"},{"bike_id":"180b8d82-e769-43df-afb4-0eaef17259b0","system_id":"levelo_inurba_marseille","lat":43.33717,"lon":5.391857,"is_reserved":false,"is_disabled":false,"rental_uris":{"android":"levelo://app?vid=180b8d82-e769-43df-afb4-0eaef17259b0","ios":"levelo://app?vid=180b8d82-e769-43df-afb4-0eaef17259b0"},"vehicle_type_id":"4","last_reported":1693069501,"current_range_meters":16400,"station_id":"ce4bhr92rcd13ifvqhsg","pricing_plan_id":"free"},{"bike_id":"1a247adf-867d-4c4f-a3eb-018cc97fc972","system_id":"levelo_inurba_marseille","lat":43.284793,"lon":5.384113,"is_reserved":false,"is_disabled":false,"rental_uris":{"android":"levelo://app?vid=1a247adf-867d-4c4f-a3eb-018cc97fc972","ios":"levelo://app?vid=1a247adf-867d-4c4f-a3eb-018cc97fc972"},"vehicle_type_id":"4","last_reported":1693069501,"current_range_meters":18800,"station_id":"ce4bh512rcd13ifvqe3g","pricing_plan_id":"free"},{"bike_id":"b9178fa1-3d9f-472a-a834-0e7c633bb4af","system_id":"levelo_inurba_marseille","lat":43.33736,"lon":5.39191,"is_reserved":false,"is_disabled":false,"rental_uris":{"android":"levelo://app?vid=b9178fa1-3d9f-472a-a834-0e7c633bb4af","ios":"levelo://app?vid=b9178fa1-3d9f-472a-a834-0e7c633bb4af"},"vehicle_type_id":"4","last_reported":1693069501,"current_range_meters":10000,"station_id":"ce4bhr92rcd13ifvqhsg","pricing_plan_id":"free"},{"bike_id":"414290bd-353b-41b2-bd9a-1d3c2c5739df","system_id":"levelo_inurba_marseille","lat":43.284793,"lon":5.384113,"is_reserved":false,"is_disabled":false,"rental_uris":{"android":"levelo://app?vid=414290bd-353b-41b2-bd9a-1d3c2c5739df","ios":"levelo://app?vid=414290bd-353b-41b2-bd9a-1d3c2c5739df"},"vehicle_type_id":"4","last_reported":1693069501,"current_range_meters":30000,"station_id":"ce4bh512rcd13ifvqe3g","pricing_plan_id":"free"},{"bike_id":"84ae8c7e-7cf5-4f86-aecf-3f838705c8c4","system_id":"levelo_inurba_marseille","lat":43.28473,"lon":5.38412,"is_reserved":false,"is_disabled":false,"rental_uris":{"android":"levelo://app?vid=84ae8c7e-7cf5-4f86-aecf-3f838705c8c4","ios":"levelo://app?vid=84ae8c7e-7cf5-4f86-aecf-3f838705c8c4"},"vehicle_type_id":"4","last_reported":1693069501,"current_range_meters":9600,"station_id":"ce4bh512rcd13ifvqe3g","pricing_plan_id":"free"},{"bike_id":"81207e02-e329-4cea-9b6c-33ba9c0267d2","system_id":"levelo_inurba_marseille","lat":43.284787,"lon":5.384116,"is_reserved":false,"is_disabled":false,"rental_uris":{"android":"levelo://app?vid=81207e02-e329-4cea-9b6c-33ba9c0267d2","ios":"levelo://app?vid=81207e02-e329-4cea-9b6c-33ba9c0267d2"},"vehicle_type_id":"4","last_reported":1693069501,"current_range_meters":31200,"station_id":"ce4bh512rcd13ifvqe3g","pricing_plan_id":"free"},{"bike_id":"36c123c1-957d-4108-876d-af3d1b61d0a4","system_id":"levelo_inurba_marseille","lat":43.288497,"lon":5.393089,"is_reserved":false,"is_disabled":false,"rental_uris":{"android":"levelo://app?vid=36c123c1-957d-4108-876d-af3d1b61d0a4","ios":"levelo://app?vid=36c123c1-957d-4108-876d-af3d1b61d0a4"},"vehicle_type_id":"4","last_reported":1693069501,"current_range_meters":21200,"station_id":"ce4bh2p2rcd13ifvqdi0","pricing_plan_id":"free"},{"bike_id":"8f1bb7ca-fcdd-4904-84f5-ac3f2d2671e6","system_id":"levelo_inurba_marseille","lat":43.32549,"lon":5.40548,"is_reserved":false,"is_disabled":false,"rental_uris":{"android":"levelo://app?vid=8f1bb7ca-fcdd-4904-84f5-ac3f2d2671e6","ios":"levelo://app?vid=8f1bb7ca-fcdd-4904-84f5-ac3f2d2671e6"},"vehicle_type_id":"4","last_reported":1693069501,"current_range_meters":6400,"station_id":"","pricing_plan_id":"free"},{"bike_id":"184fe9e9-3a5a-4067-b85a-60c32f8a178c","system_id":"levelo_inurba_marseille","lat":43.288497,"lon":5.393089,"is_reserved":false,"is_disabled":false,"rental_uris":{"android":"levelo://app?vid=184fe9e9-3a5a-4067-b85a-60c32f8a178c","ios":"levelo://app?vid=184fe9e9-3a5a-4067-b85a-60c32f8a178c"},"vehicle_type_id":"4","last_reported":1693069501,"current_range_meters":800,"station_id":"ce4bh2p2rcd13ifvqdi0","pricing_plan_id":"free"},{"bike_id":"5c5ab82b-f149-4c77-bd2d-9bfa6d6e8316","system_id":"levelo_inurba_marseille","lat":43.288501,"lon":5.393087,"is_reserved":false,"is_disabled":false,"rental_uris":{"android":"levelo://app?vid=5c5ab82b-f149-4c77-bd2d-9bfa6d6e8316","ios":"levelo://app?vid=5c5ab82b-f149-4c77-bd2d-9bfa6d6e8316"},"vehicle_type_id":"4","last_reported":1693069501,"current_range_meters":16400,"station_id":"ce4bh2p2rcd13ifvqdi0","pricing_plan_id":"free"},{"bike_id":"cf3e03a9-5e80-47e9-ac23-a1843e96bdcc","system_id":"levelo_inurba_marseille","lat":43.288497,"lon":5.393089,"is_reserved":false,"is_disabled":false,"rental_uris":{"android":"levelo://app?vid=cf3e03a9-5e80-47e9-ac23-a1843e96bdcc","ios":"levelo://app?vid=cf3e03a9-5e80-47e9-ac23-a1843e96bdcc"},"vehicle_type_id":"4","last_reported":1693069501,"current_range_meters":5200,"station_id":"ce4bh2p2rcd13ifvqdi0","pricing_plan_id":"free"},{"bike_id":"afdbe6a5-1969-4fd1-b04e-8aa0fd4dc3d4","system_id":"levelo_inurba_marseille","lat":43.283494,"lon":5.380945,"is_reserved":false,"is_disabled":false,"rental_uris":{"android":"levelo://app?vid=afdbe6a5-1969-4fd1-b04e-8aa0fd4dc3d4","ios":"levelo://app?vid=afdbe6a5-1969-4fd1-b04e-8aa0fd4dc3d4"},"vehicle_type_id":"4","last_reported":1693069501,"current_range_meters":18000,"station_id":"ce4bh412rcd13ifvqdr0","pricing_plan_id":"free"},{"bike_id":"506b634b-4224-4835-9348-16ab24520e8f","system_id":"levelo_inurba_marseille","lat":43.288501,"lon":5.393087,"is_reserved":false,"is_disabled":false,"rental_uris":{"android":"levelo://app?vid=506b634b-4224-4835-9348-16ab24520e8f","ios":"levelo://app?vid=506b634b-4224-4835-9348-16ab24520e8f"},"vehicle_type_id":"4","last_reported":1693069501,"current_range_meters":2400,"station_id":"ce4bh2p2rcd13ifvqdi0","pricing_plan_id":"free"},{"bike_id":"f50aca5f-cf5b-4020-925f-826a2e34874f","system_id":"levelo_inurba_marseille","lat":43.28939,"lon":5.39624,"is_reserved":false,"is_disabled":false,"rental_uris":{"android":"levelo://app?vid=f50aca5f-cf5b-4020-925f-826a2e34874f","ios":"levelo://app?vid=f50aca5f-cf5b-4020-925f-826a2e34874f"},"vehicle_type_id":"4","last_reported":1693069501,"current_range_meters":31200,"station_id":"ce4bh3h2rcd13ifvqdn0","pricing_plan_id":"free"},{"bike_id":"bc3dcac9-e4a7-4d9a-832b-6f7256a2b33c","system_id":"levelo_inurba_marseille","lat":43.292724,"lon":5.401131,"is_reserved":false,"is_disabled":false,"rental_uris":{"android":"levelo://app?vid=bc3dcac9-e4a7-4d9a-832b-6f7256a2b33c","ios":"levelo://app?vid=bc3dcac9-e4a7-4d9a-832b-6f7256a2b33c"},"vehicle_type_id":"4","last_reported":1693069501,"current_range_meters":2000,"station_id":"ce4bh312rcd13ifvqdk0","pricing_plan_id":"free"},{"bike_id":"ab456442-20fd-4f61-8b7b-5ea52321dbaf","system_id":"levelo_inurba_marseille","lat":43.283502,"lon":5.386471,"is_reserved":false,"is_disabled":false,"rental_uris":{"android":"levelo://app?vid=ab456442-20fd-4f61-8b7b-5ea52321dbaf","ios":"levelo://app?vid=ab456442-20fd-4f61-8b7b-5ea52321dbaf"},"vehicle_type_id":"4","last_reported":1693069501,"current_range_meters":16800,"station_id":"ce4bh492rcd13ifvqdvg","pricing_plan_id":"free"},{"bike_id":"af99224a-ae56-4f9b-8495-b53bcfd99100","system_id":"levelo_inurba_marseille","lat":43.28039,"lon":5.369297,"is_reserved":false,"is_disabled":false,"rental_uris":{"android":"levelo://app?vid=af99224a-ae56-4f9b-8495-b53bcfd99100","ios":"levelo://app?vid=af99224a-ae56-4f9b-8495-b53bcfd99100"},"vehicle_type_id":"4","last_reported":1693069501,"current_range_meters":28800,"station_id":"ce4bha12rcd13ifvqef0","pricing_plan_id":"free"},{"bike_id":"b2e02c9d-b093-4a44-925f-564f67a93ecc","system_id":"levelo_inurba_marseille","lat":43.28038,"lon":5.36941,"is_reserved":false,"is_disabled":false,"rental_uris":{"android":"levelo://app?vid=b2e02c9d-b093-4a44-925f-564f67a93ecc","ios":"levelo://app?vid=b2e02c9d-b093-4a44-925f-564f67a93ecc"},"vehicle_type_id":"4","last_reported":1693069501,"current_range_meters":23200,"station_id":"ce4bha12rcd13ifvqef0","pricing_plan_id":"free"},{"bike_id":"9f46cfde-4f76-4076-bade-5765c2d3d473","system_id":"levelo_inurba_marseille","lat":43.28036,"lon":5.36939,"is_reserved":false,"is_disabled":false,"rental_uris":{"android":"levelo://app?vid=9f46cfde-4f76-4076-bade-5765c2d3d473","ios":"levelo://app?vid=9f46cfde-4f76-4076-bade-5765c2d3d473"},"vehicle_type_id":"4","last_reported":1693069501,"current_range_meters":31200,"station_id":"ce4bha12rcd13ifvqef0","pricing_plan_id":"free"},{"bike_id":"d9e39b25-18f3-4864-91e3-0b9506c666fa","system_id":"levelo_inurba_marseille","lat":43.283502,"lon":5.386471,"is_reserved":false,"is_disabled":false,"rental_uris":{"android":"levelo://app?vid=d9e39b25-18f3-4864-91e3-0b9506c666fa","ios":"levelo://app?vid=d9e39b25-18f3-4864-91e3-0b9506c666fa"},"vehicle_type_id":"4","last_reported":1693069501,"current_range_meters":10400,"station_id":"ce4bh492rcd13ifvqdvg","pricing_plan_id":"free"},{"bike_id":"d055e09f-8a8e-4b99-9921-15fed1c76db0","system_id":"levelo_inurba_marseille","lat":43.283502,"lon":5.386471,"is_reserved":false,"is_disabled":false,"rental_uris":{"android":"levelo://app?vid=d055e09f-8a8e-4b99-9921-15fed1c76db0","ios":"levelo://app?vid=d055e09f-8a8e-4b99-9921-15fed1c76db0"},"vehicle_type_id":"4","last_reported":1693069501,"current_range_meters":24000,"station_id":"ce4bh492rcd13ifvqdvg","pricing_plan_id":"free"},{"bike_id":"6e57ee41-a96c-4e53-bcfe-2a351f169066","system_id":"levelo_inurba_marseille","lat":43.2803,"lon":5.36942,"is_reserved":false,"is_disabled":false,"rental_uris":{"android":"levelo://app?vid=6e57ee41-a96c-4e53-bcfe-2a351f169066","ios":"levelo://app?vid=6e57ee41-a96c-4e53-bcfe-2a351f169066"},"vehicle_type_id":"4","last_reported":1693069501,"current_range_meters":24400,"station_id":"","pricing_plan_id":"free"},{"bike_id":"16ac6369-9c55-4e24-9b69-fc75ec0230fc","system_id":"levelo_inurba_marseille","lat":43.281044,"lon":5.378308,"is_reserved":false,"is_disabled":false,"rental_uris":{"android":"levelo://app?vid=16ac6369-9c55-4e24-9b69-fc75ec0230fc","ios":"levelo://app?vid=16ac6369-9c55-4e24-9b69-fc75ec0230fc"},"vehicle_type_id":"4","last_reported":1693069501,"current_range_meters":22400,"station_id":"ce4bha12rcd13ifvqee0","pricing_plan_id":"free"},{"bike_id":"b3821621-7ef9-4fdd-910c-dc5c2108ff52","system_id":"levelo_inurba_marseille","lat":43.29041,"lon":5.399634,"is_reserved":false,"is_disabled":false,"rental_uris":{"android":"levelo://app?vid=b3821621-7ef9-4fdd-910c-dc5c2108ff52","ios":"levelo://app?vid=b3821621-7ef9-4fdd-910c-dc5c2108ff52"},"vehicle_type_id":"4","last_reported":1693069501,"current_range_meters":0,"station_id":"ce4bh392rcd13ifvqdm0","pricing_plan_id":"free"},{"bike_id":"af507120-027e-484b-bbb4-3bc48d1b5035","system_id":"levelo_inurba_marseille","lat":43.29041,"lon":5.399634,"is_reserved":false,"is_disabled":false,"rental_uris":{"android":"levelo://app?vid=af507120-027e-484b-bbb4-3bc48d1b5035","ios":"levelo://app?vid=af507120-027e-484b-bbb4-3bc48d1b5035"},"vehicle_type_id":"4","last_reported":1693069501,"current_range_meters":9600,"station_id":"ce4bh392rcd13ifvqdm0","pricing_plan_id":"free"},{"bike_id":"dd089b7f-f207-43f3-ba28-07d40e299b6a","system_id":"levelo_inurba_marseille","lat":43.29041,"lon":5.399634,"is_reserved":false,"is_disabled":false,"rental_uris":{"android":"levelo://app?vid=dd089b7f-f207-43f3-ba28-07d40e299b6a","ios":"levelo://app?vid=dd089b7f-f207-43f3-ba28-07d40e299b6a"},"vehicle_type_id":"4","last_reported":1693069501,"current_range_meters":15600,"station_id":"ce4bh392rcd13ifvqdm0","pricing_plan_id":"free"},{"bike_id":"7d2adcfd-4293-45d7-9473-7eb781721aa4","system_id":"levelo_inurba_marseille","lat":43.28106,"lon":5.37827,"is_reserved":false,"is_disabled":false,"rental_uris":{"android":"levelo://app?vid=7d2adcfd-4293-45d7-9473-7eb781721aa4","ios":"levelo://app?vid=7d2adcfd-4293-45d7-9473-7eb781721aa4"},"vehicle_type_id":"4","last_reported":1693069501,"current_range_meters":7200,"station_id":"ce4bha12rcd13ifvqee0","pricing_plan_id":"free"},{"bike_id":"5be56312-3ea6-49c8-98f0-98330bf3c11b","system_id":"levelo_inurba_marseille","lat":43.285742,"lon":5.395004,"is_reserved":false,"is_disabled":false,"rental_uris":{"android":"levelo://app?vid=5be56312-3ea6-49c8-98f0-98330bf3c11b","ios":"levelo://app?vid=5be56312-3ea6-49c8-98f0-98330bf3c11b"},"vehicle_type_id":"4","last_reported":1693069501,"current_range_meters":26400,"station_id":"ce4bh292rcd13ifvqdg0","pricing_plan_id":"free"},{"bike_id":"2dbf7aad-8c79-4af0-b2e0-2fbc5162540f","system_id":"levelo_inurba_marseille","lat":43.32647,"lon":5.40988,"is_reserved":false,"is_disabled":false,"rental_uris":{"android":"levelo://app?vid=2dbf7aad-8c79-4af0-b2e0-2fbc5162540f","ios":"levelo://app?vid=2dbf7aad-8c79-4af0-b2e0-2fbc5162540f"},"vehicle_type_id":"4","last_reported":1693069501,"current_range_meters":20400,"station_id":"ce4bhpp2rcd13ifvqhgg","pricing_plan_id":"free"},{"bike_id":"0a4d8006-8fe7-4afb-9454-1d0fc415ad36","system_id":"levelo_inurba_marseille","lat":43.326605,"lon":5.409903,"is_reserved":false,"is_disabled":false,"rental_uris":{"android":"levelo://app?vid=0a4d8006-8fe7-4afb-9454-1d0fc415ad36","ios":"levelo://app?vid=0a4d8006-8fe7-4afb-9454-1d0fc415ad36"},"vehicle_type_id":"4","last_reported":1693069501,"current_range_meters":30800,"station_id":"ce4bhpp2rcd13ifvqhgg","pricing_plan_id":"free"},{"bike_id":"abce498a-26f9-4137-afc9-13c73fa5e507","system_id":"levelo_inurba_marseille","lat":43.32662,"lon":5.40986,"is_reserved":false,"is_disabled":false,"rental_uris":{"android":"levelo://app?vid=abce498a-26f9-4137-afc9-13c73fa5e507","ios":"levelo://app?vid=abce498a-26f9-4137-afc9-13c73fa5e507"},"vehicle_type_id":"4","last_reported":1693069501,"current_range_meters":0,"station_id":"ce4bhpp2rcd13ifvqhgg","pricing_plan_id":"free"},{"bike_id":"f4230663-5f1d-41b7-8065-de5c85d430bb","system_id":"levelo_inurba_marseille","lat":43.3266,"lon":5.40988,"is_reserved":false,"is_disabled":false,"rental_uris":{"android":"levelo://app?vid=f4230663-5f1d-41b7-8065-de5c85d430bb","ios":"levelo://app?vid=f4230663-5f1d-41b7-8065-de5c85d430bb"},"vehicle_type_id":"4","last_reported":1693069501,"current_range_meters":4800,"station_id":"ce4bhpp2rcd13ifvqhgg","pricing_plan_id":"free"},{"bike_id":"344e649a-445d-4dd0-8309-c9344b22c2b8","system_id":"levelo_inurba_marseille","lat":43.32657,"lon":5.40991,"is_reserved":false,"is_disabled":false,"rental_uris":{"android":"levelo://app?vid=344e649a-445d-4dd0-8309-c9344b22c2b8","ios":"levelo://app?vid=344e649a-445d-4dd0-8309-c9344b22c2b8"},"vehicle_type_id":"4","last_reported":1693069501,"current_range_meters":21200,"station_id":"ce4bhpp2rcd13ifvqhgg","pricing_plan_id":"free"},{"bike_id":"17e4815d-6188-4d0c-94a9-14be3b87a2e6","system_id":"levelo_inurba_marseille","lat":43.32655,"lon":5.40996,"is_reserved":false,"is_disabled":false,"rental_uris":{"android":"levelo://app?vid=17e4815d-6188-4d0c-94a9-14be3b87a2e6","ios":"levelo://app?vid=17e4815d-6188-4d0c-94a9-14be3b87a2e6"},"vehicle_type_id":"4","last_reported":1693069501,"current_range_meters":14400,"station_id":"ce4bhpp2rcd13ifvqhgg","pricing_plan_id":"free"},{"bike_id":"37f77438-4719-4735-a53c-550f0e280269","system_id":"levelo_inurba_marseille","lat":43.30418,"lon":5.41266,"is_reserved":false,"is_disabled":false,"rental_uris":{"android":"levelo://app?vid=37f77438-4719-4735-a53c-550f0e280269","ios":"levelo://app?vid=37f77438-4719-4735-a53c-550f0e280269"},"vehicle_type_id":"4","last_reported":1693069501,"current_range_meters":30400,"station_id":"ce4bhop2rcd13ifvqh8g","pricing_plan_id":"free"},{"bike_id":"7f386664-a3cc-4805-ba94-759d24037a82","system_id":"levelo_inurba_marseille","lat":43.30417,"lon":5.41268,"is_reserved":false,"is_disabled":false,"rental_uris":{"android":"levelo://app?vid=7f386664-a3cc-4805-ba94-759d24037a82","ios":"levelo://app?vid=7f386664-a3cc-4805-ba94-759d24037a82"},"vehicle_type_id":"4","last_reported":1693069501,"current_range_meters":26800,"station_id":"ce4bhop2rcd13ifvqh8g","pricing_plan_id":"free"},{"bike_id":"e1ad826c-d44e-4fc1-983a-242680bf7854","system_id":"levelo_inurba_marseille","lat":43.304188,"lon":5.412904,"is_reserved":false,"is_disabled":false,"rental_uris":{"android":"levelo://app?vid=e1ad826c-d44e-4fc1-983a-242680bf7854","ios":"levelo://app?vid=e1ad826c-d44e-4fc1-983a-242680bf7854"},"vehicle_type_id":"4","last_reported":1693069501,"current_range_meters":22800,"station_id":"ce4bhop2rcd13ifvqh8g","pricing_plan_id":"free"},{"bike_id":"905c7781-4598-4ceb-b7e6-922aab7c9592","system_id":"levelo_inurba_marseille","lat":43.30417,"lon":5.41271,"is_reserved":false,"is_disabled":false,"rental_uris":{"android":"levelo://app?vid=905c7781-4598-4ceb-b7e6-922aab7c9592","ios":"levelo://app?vid=905c7781-4598-4ceb-b7e6-922aab7c9592"},"vehicle_type_id":"4","last_reported":1693069501,"current_range_meters":28400,"station_id":"ce4bhop2rcd13ifvqh8g","pricing_plan_id":"free"},{"bike_id":"9ba8ac73-d2f3-4716-b995-1cf0ea79f3fc","system_id":"levelo_inurba_marseille","lat":43.30416,"lon":5.41275,"is_reserved":false,"is_disabled":false,"rental_uris":{"android":"levelo://app?vid=9ba8ac73-d2f3-4716-b995-1cf0ea79f3fc","ios":"levelo://app?vid=9ba8ac73-d2f3-4716-b995-1cf0ea79f3fc"},"vehicle_type_id":"4","last_reported":1693069501,"current_range_meters":31200,"station_id":"ce4bhop2rcd13ifvqh8g","pricing_plan_id":"free"},{"bike_id":"e20ad91a-08c9-491a-ba38-7e367465e30f","system_id":"levelo_inurba_marseille","lat":43.279087,"lon":5.380114,"is_reserved":false,"is_disabled":false,"rental_uris":{"android":"levelo://app?vid=e20ad91a-08c9-491a-ba38-7e367465e30f","ios":"levelo://app?vid=e20ad91a-08c9-491a-ba38-7e367465e30f"},"vehicle_type_id":"4","last_reported":1693069501,"current_range_meters":19200,"station_id":"ce4bhf92rcd13ifvqf50","pricing_plan_id":"free"},{"bike_id":"8472a371-ba7d-407a-8666-f7d233d84813","system_id":"levelo_inurba_marseille","lat":43.279087,"lon":5.380114,"is_reserved":false,"is_disabled":false,"rental_uris":{"android":"levelo://app?vid=8472a371-ba7d-407a-8666-f7d233d84813","ios":"levelo://app?vid=8472a371-ba7d-407a-8666-f7d233d84813"},"vehicle_type_id":"4","last_reported":1693069501,"current_range_meters":29200,"station_id":"ce4bhf92rcd13ifvqf50","pricing_plan_id":"free"},{"bike_id":"0b0d9055-4c9c-4de2-82d3-315c0a142481","system_id":"levelo_inurba_marseille","lat":43.32048,"lon":5.41522,"is_reserved":false,"is_disabled":false,"rental_uris":{"android":"levelo://app?vid=0b0d9055-4c9c-4de2-82d3-315c0a142481","ios":"levelo://app?vid=0b0d9055-4c9c-4de2-82d3-315c0a142481"},"vehicle_type_id":"4","last_reported":1693069501,"current_range_meters":17600,"station_id":"","pricing_plan_id":"free"},{"bike_id":"073b1f64-c2e4-4a90-81c1-d7516212845a","system_id":"levelo_inurba_marseille","lat":43.320045,"lon":5.415048,"is_reserved":false,"is_disabled":false,"rental_uris":{"android":"levelo://app?vid=073b1f64-c2e4-4a90-81c1-d7516212845a","ios":"levelo://app?vid=073b1f64-c2e4-4a90-81c1-d7516212845a"},"vehicle_type_id":"4","last_reported":1693069501,"current_range_meters":400,"station_id":"ce4bhq92rcd13ifvqhkg","pricing_plan_id":"free"},{"bike_id":"7f99fe73-c5d7-40fa-a6b2-bc7b0566d00e","system_id":"levelo_inurba_marseille","lat":43.32055,"lon":5.41525,"is_reserved":false,"is_disabled":false,"rental_uris":{"android":"levelo://app?vid=7f99fe73-c5d7-40fa-a6b2-bc7b0566d00e","ios":"levelo://app?vid=7f99fe73-c5d7-40fa-a6b2-bc7b0566d00e"},"vehicle_type_id":"4","last_reported":1693069501,"current_range_meters":2800,"station_id":"","pricing_plan_id":"free"},{"bike_id":"9313f3f7-0553-42c9-a9b1-b70f96124687","system_id":"levelo_inurba_marseille","lat":43.29956,"lon":5.41312,"is_reserved":false,"is_disabled":false,"rental_uris":{"android":"levelo://app?vid=9313f3f7-0553-42c9-a9b1-b70f96124687","ios":"levelo://app?vid=9313f3f7-0553-42c9-a9b1-b70f96124687"},"vehicle_type_id":"4","last_reported":1693069501,"current_range_meters":31200,"station_id":"ce4bhp12rcd13ifvqh9g","pricing_plan_id":"free"},{"bike_id":"aefa222d-1382-497e-a3c7-161a0d95bdb4","system_id":"levelo_inurba_marseille","lat":43.29963,"lon":5.41319,"is_reserved":false,"is_disabled":false,"rental_uris":{"android":"levelo://app?vid=aefa222d-1382-497e-a3c7-161a0d95bdb4","ios":"levelo://app?vid=aefa222d-1382-497e-a3c7-161a0d95bdb4"},"vehicle_type_id":"4","last_reported":1693069501,"current_range_meters":31200,"station_id":"ce4bhp12rcd13ifvqh9g","pricing_plan_id":"free"},{"bike_id":"12788446-de45-45d3-b8fe-e7718bd1c32e","system_id":"levelo_inurba_marseille","lat":43.32063,"lon":5.41539,"is_reserved":false,"is_disabled":false,"rental_uris":{"android":"levelo://app?vid=12788446-de45-45d3-b8fe-e7718bd1c32e","ios":"levelo://app?vid=12788446-de45-45d3-b8fe-e7718bd1c32e"},"vehicle_type_id":"4","last_reported":1693069501,"current_range_meters":28400,"station_id":"ce4bhq92rcd13ifvqhkg","pricing_plan_id":"free"},{"bike_id":"c327718a-8fe6-4791-a349-aba0f8f94e82","system_id":"levelo_inurba_marseille","lat":43.279742,"lon":5.38744,"is_reserved":false,"is_disabled":false,"rental_uris":{"android":"levelo://app?vid=c327718a-8fe6-4791-a349-aba0f8f94e82","ios":"levelo://app?vid=c327718a-8fe6-4791-a349-aba0f8f94e82"},"vehicle_type_id":"4","last_reported":1693069501,"current_range_meters":24000,"station_id":"ce4bhg12rcd13ifvqf80","pricing_plan_id":"free"},{"bike_id":"f4219b32-6655-4f16-9089-17ca2946fea9","system_id":"levelo_inurba_marseille","lat":43.32067,"lon":5.41563,"is_reserved":false,"is_disabled":false,"rental_uris":{"android":"levelo://app?vid=f4219b32-6655-4f16-9089-17ca2946fea9","ios":"levelo://app?vid=f4219b32-6655-4f16-9089-17ca2946fea9"},"vehicle_type_id":"4","last_reported":1693069501,"current_range_meters":30800,"station_id":"ce4bhq92rcd13ifvqhkg","pricing_plan_id":"free"},{"bike_id":"ee019f99-9fe6-4f50-9160-e98dcb117ae4","system_id":"levelo_inurba_marseille","lat":43.325233,"lon":5.414318,"is_reserved":false,"is_disabled":false,"rental_uris":{"android":"levelo://app?vid=ee019f99-9fe6-4f50-9160-e98dcb117ae4","ios":"levelo://app?vid=ee019f99-9fe6-4f50-9160-e98dcb117ae4"},"vehicle_type_id":"4","last_reported":1693069501,"current_range_meters":19200,"station_id":"ce4bhq12rcd13ifvqhhg","pricing_plan_id":"free"},{"bike_id":"3563d8b3-8312-4911-80be-32759d84381f","system_id":"levelo_inurba_marseille","lat":43.32524,"lon":5.41439,"is_reserved":false,"is_disabled":false,"rental_uris":{"android":"levelo://app?vid=3563d8b3-8312-4911-80be-32759d84381f","ios":"levelo://app?vid=3563d8b3-8312-4911-80be-32759d84381f"},"vehicle_type_id":"4","last_reported":1693069501,"current_range_meters":24000,"station_id":"ce4bhq12rcd13ifvqhhg","pricing_plan_id":"free"},{"bike_id":"7654555a-cb7f-4c9c-97f9-180c8e8feda9","system_id":"levelo_inurba_marseille","lat":43.303837,"lon":5.418724,"is_reserved":false,"is_disabled":false,"rental_uris":{"android":"levelo://app?vid=7654555a-cb7f-4c9c-97f9-180c8e8feda9","ios":"levelo://app?vid=7654555a-cb7f-4c9c-97f9-180c8e8feda9"},"vehicle_type_id":"4","last_reported":1693069501,"current_range_meters":29200,"station_id":"ce4bhop2rcd13ifvqh7g","pricing_plan_id":"free"},{"bike_id":"5e0bdfc4-268d-46cb-b69e-4199617871b6","system_id":"levelo_inurba_marseille","lat":43.303837,"lon":5.418724,"is_reserved":false,"is_disabled":false,"rental_uris":{"android":"levelo://app?vid=5e0bdfc4-268d-46cb-b69e-4199617871b6","ios":"levelo://app?vid=5e0bdfc4-268d-46cb-b69e-4199617871b6"},"vehicle_type_id":"4","last_reported":1693069501,"current_range_meters":22000,"station_id":"ce4bhop2rcd13ifvqh7g","pricing_plan_id":"free"},{"bike_id":"24869297-9d6e-4f15-9703-b92622d609c7","system_id":"levelo_inurba_marseille","lat":43.278401,"lon":5.392152,"is_reserved":false,"is_disabled":false,"rental_uris":{"android":"levelo://app?vid=24869297-9d6e-4f15-9703-b92622d609c7","ios":"levelo://app?vid=24869297-9d6e-4f15-9703-b92622d609c7"},"vehicle_type_id":"4","last_reported":1693069501,"current_range_meters":7200,"station_id":"ce4bhjp2rcd13ifvqga0","pricing_plan_id":"free"},{"bike_id":"ed22aae5-2f17-44e5-9132-a62ff19a2e0f","system_id":"levelo_inurba_marseille","lat":43.278401,"lon":5.392152,"is_reserved":false,"is_disabled":false,"rental_uris":{"android":"levelo://app?vid=ed22aae5-2f17-44e5-9132-a62ff19a2e0f","ios":"levelo://app?vid=ed22aae5-2f17-44e5-9132-a62ff19a2e0f"},