{"last_updated":1738699759,"ttl":60,"version":"2.2","data":{"bikes":[{"bike_id":"84598151-c453-4c49-a4d4-90560262791b","system_id":"levelo_inurba_marseille","lat":43.25818,"lon":5.39426,"is_reserved":false,"is_disabled":false,"rental_uris":{"android":"levelo://app?vid=84598151-c453-4c49-a4d4-90560262791b","ios":"levelo://app?vid=84598151-c453-4c49-a4d4-90560262791b"},"vehicle_type_id":"4","last_reported":1738699759,"current_range_meters":38800,"station_id":"ce4bhip2rcd13ifvqft0","pricing_plan_id":"cebpf4jnsgd1na2vs0mg"},{"bike_id":"7adabd5b-8dc1-4c7d-ae6d-ae25b7b5824c","system_id":"levelo_inurba_marseille","lat":43.29174,"lon":5.37145,"is_reserved":false,"is_disabled":false,"rental_uris":{"android":"levelo://app?vid=7adabd5b-8dc1-4c7d-ae6d-ae25b7b5824c","ios":"levelo://app?vid=7adabd5b-8dc1-4c7d-ae6d-ae25b7b5824c"},"vehicle_type_id":"4","last_reported":1738699759,"current_range_meters":38800,"station_id":"ce4bha92rcd13ifvqeh0","pricing_plan_id":"cebpf4jnsgd1na2vs0mg"},{"bike_id":"654c2251-a3a8-447b-8883-3ba2b11a4361","system_id":"levelo_inurba_marseille","lat":43.28941,"lon":5.36639,"is_reserved":false,"is_disabled":false,"rental_uris":{"android":"levelo://app?vid=654c2251-a3a8-447b-8883-3ba2b11a4361","ios":"levelo://app?vid=654c2251-a3a8-447b-8883-3ba2b11a4361"},"vehicle_type_id":"4","last_reported":1738699759,"current_range_meters":27200,"station_id":"ce4bhap2rcd13ifvqek0","pricing_plan_id":"cebpf4jnsgd1na2vs0mg"},{"bike_id":"5548050e-6a2e-41b8-a548-5dd1660d2b80","system_id":"levelo_inurba_marseille","lat":43.30889,"lon":5.3965,"is_reserved":false,"is_disabled":false,"rental_uris":{"android":"levelo://app?vid=5548050e-6a2e-41b8-a548-5dd1660d2b80","ios":"levelo://app?vid=5548050e-6a2e-41b8-a548-5dd1660d2b80"},"vehicle_type_id":"4","last_reported":1738699759,"current_range_meters":9600,"station_id":"ce4bh012rcd13ifvqcv0","pricing_plan_id":"cebpf4jnsgd1na2vs0mg"},{"bike_id":"d19f4648-86c9-410d-9b00-3f60e696dea7","system_id":"levelo_inurba_marseille","lat":43.273316,"lon":5.362907,"is_reserved":false,"is_disabled":false,"rental_uris":{"android":"levelo://app?vid=d19f4648-86c9-410d-9b00-3f60e696dea7","ios":"levelo://app?vid=d19f4648-86c9-410d-9b00-3f60e696dea7"},"vehicle_type_id":"4","last_reported":1738699759,"current_range_meters":22400,"station_id":"ce4bhb12rcd13ifvqem0","pricing_plan_id":"cebpf4jnsgd1na2vs0mg"},{"bike_id":"995e4103-7b0d-48dd-ab29-ddec983c4cb1","system_id":"levelo_inurba_marseille","lat":43.25122,"lon":5.40347,"is_reserved":false,"is_disabled":false,"rental_uris":{"android":"levelo://app?vid=995e4103-7b0d-48dd-ab29-ddec983c4cb1","ios":"levelo://app?vid=995e4103-7b0d-48dd-ab29-ddec983c4cb1"},"vehicle_type_id":"4","last_reported":1738699759,"current_range_meters":28000,"station_id":"ce4bhlh2rcd13ifvqgig","pricing_plan_id":"cebpf4jnsgd1na2vs0mg"},{"bike_id":"1834cdfa-55d9-40d2-aec4-1230af582f98","system_id":"levelo_inurba_marseille","lat":43.29183,"lon":5.35796,"is_reserved":false,"is_disabled":false,"rental_uris":{"android":"levelo://app?vid=1834cdfa-55d9-40d2-aec4-1230af582f98","ios":"levelo://app?vid=1834cdfa-55d9-40d2-aec4-1230af582f98"},"vehicle_type_id":"4","last_reported":1738699759,"current_range_meters":38800,"station_id":"ce4bhb12rcd13ifvqel0","pricing_plan_id":"cebpf4jnsgd1na2vs0mg"},{"bike_id":"430c9887-709a-4cb8-aaad-24b0546c919e","system_id":"levelo_inurba_marseille","lat":43.29944,"lon":5.36543,"is_reserved":false,"is_disabled":false,"rental_uris":{"android":"levelo://app?vid=430c9887-709a-4cb8-aaad-24b0546c919e","ios":"levelo://app?vid=430c9887-709a-4cb8-aaad-24b0546c919e"},"vehicle_type_id":"4","last_reported":1738699759,"current_range_meters":9600,"station_id":"ce4bgm92rcd13ifvqbr0","pricing_plan_id":"cebpf4jnsgd1na2vs0mg"},{"bike_id":"caf558c3-a9ad-4fe3-92b6-038f06ef09fe","system_id":"levelo_inurba_marseille","lat":43.23195,"lon":5.35553,"is_reserved":false,"is_disabled":false,"rental_uris":{"android":"levelo://app?vid=caf558c3-a9ad-4fe3-92b6-038f06ef09fe","ios":"levelo://app?vid=caf558c3-a9ad-4fe3-92b6-038f06ef09fe"},"vehicle_type_id":"4","last_reported":1738699759,"current_range_meters":15200,"station_id":"ce4bhu92rcd13ifvqi70","pricing_plan_id":"cebpf4jnsgd1na2vs0mg"},{"bike_id":"3d0f88f8-0edc-4b7a-bea6-e0fa563a7e05","system_id":"levelo_inurba_marseille","lat":43.32114,"lon":5.36772,"is_reserved":false,"is_disabled":false,"rental_uris":{"android":"levelo://app?vid=3d0f88f8-0edc-4b7a-bea6-e0fa563a7e05","ios":"levelo://app?vid=3d0f88f8-0edc-4b7a-bea6-e0fa563a7e05"},"vehicle_type_id":"4","last_reported":1738699759,"current_range_meters":36000,"station_id":"ce4bhrh2rcd13ifvqhug","pricing_plan_id":"cebpf4jnsgd1na2vs0mg"},{"bike_id":"063214a5-99eb-4918-b0fe-a4120e0e58b0","system_id":"levelo_inurba_marseille","lat":43.31325,"lon":5.39684,"is_reserved":false,"is_disabled":false,"rental_uris":{"android":"levelo://app?vid=063214a5-99eb-4918-b0fe-a4120e0e58b0","ios":"levelo://app?vid=063214a5-99eb-4918-b0fe-a4120e0e58b0"},"vehicle_type_id":"4","last_reported":1738699759,"current_range_meters":30400,"station_id":"ce4bgvp2rcd13ifvqcu0","pricing_plan_id":"cebpf4jnsgd1na2vs0mg"},{"bike_id":"470e6dc2-16c4-4ce2-b19a-ce651153716c","system_id":"levelo_inurba_marseille","lat":43.29791,"lon":5.39327,"is_reserved":false,"is_disabled":false,"rental_uris":{"android":"levelo://app?vid=470e6dc2-16c4-4ce2-b19a-ce651153716c","ios":"levelo://app?vid=470e6dc2-16c4-4ce2-b19a-ce651153716c"},"vehicle_type_id":"4","last_reported":1738699759,"current_range_meters":30000,"station_id":"chh1huq6cuj3fo74tm60","pricing_plan_id":"cebpf4jnsgd1na2vs0mg"},{"bike_id":"6458f700-0399-47e6-a76c-4f17f319fa75","system_id":"levelo_inurba_marseille","lat":43.308992,"lon":5.401568,"is_reserved":false,"is_disabled":false,"rental_uris":{"android":"levelo://app?vid=6458f700-0399-47e6-a76c-4f17f319fa75","ios":"levelo://app?vid=6458f700-0399-47e6-a76c-4f17f319fa75"},"vehicle_type_id":"4","last_reported":1738699759,"current_range_meters":35200,"station_id":"ce4bgvp2rcd13ifvqct0","pricing_plan_id":"cebpf4jnsgd1na2vs0mg"},{"bike_id":"9a5d4745-e12e-4143-a68b-1c5139969c08","system_id":"levelo_inurba_marseille","lat":43.265644,"lon":5.390276,"is_reserved":false,"is_disabled":false,"rental_uris":{"android":"levelo://app?vid=9a5d4745-e12e-4143-a68b-1c5139969c08","ios":"levelo://app?vid=9a5d4745-e12e-4143-a68b-1c5139969c08"},"vehicle_type_id":"4","last_reported":1738699759,"current_range_meters":38800,"station_id":"ce4bhe12rcd13ifvqf30","pricing_plan_id":"cebpf4jnsgd1na2vs0mg"},{"bike_id":"70e88729-a396-4dfc-b9ad-3cb0c93f53a5","system_id":"levelo_inurba_marseille","lat":43.29364,"lon":5.37843,"is_reserved":false,"is_disabled":false,"rental_uris":{"android":"levelo://app?vid=70e88729-a396-4dfc-b9ad-3cb0c93f53a5","ios":"levelo://app?vid=70e88729-a396-4dfc-b9ad-3cb0c93f53a5"},"vehicle_type_id":"4","last_reported":1738699759,"current_range_meters":19600,"station_id":"ce4bgjh2rcd13ifvqbf0","pricing_plan_id":"cebpf4jnsgd1na2vs0mg"},{"bike_id":"f56185a9-012f-40f6-b178-338a8bf6ac85","system_id":"levelo_inurba_marseille","lat":43.30938,"lon":5.40136,"is_reserved":false,"is_disabled":false,"rental_uris":{"android":"levelo://app?vid=f56185a9-012f-40f6-b178-338a8bf6ac85","ios":"levelo://app?vid=f56185a9-012f-40f6-b178-338a8bf6ac85"},"vehicle_type_id":"4","last_reported":1738699759,"current_range_meters":36000,"station_id":"ce4bgvp2rcd13ifvqct0","pricing_plan_id":"cebpf4jnsgd1na2vs0mg"},{"bike_id":"384729b5-bc34-4e8c-9b9b-46f1352d69c3","system_id":"levelo_inurba_marseille","lat":43.28933,"lon":5.36631,"is_reserved":false,"is_disabled":false,"rental_uris":{"android":"levelo://app?vid=384729b5-bc34-4e8c-9b9b-46f1352d69c3","ios":"levelo://app?vid=384729b5-bc34-4e8c-9b9b-46f1352d69c3"},"vehicle_type_id":"4","last_reported":1738699759,"current_range_meters":28000,"station_id":"ce4bhap2rcd13ifvqek0","pricing_plan_id":"cebpf4jnsgd1na2vs0mg"},{"bike_id":"733e5fea-25dd-49bf-906f-98327c943ed7","system_id":"levelo_inurba_marseille","lat":43.30328,"lon":5.40442,"is_reserved":false,"is_disabled":false,"rental_uris":{"android":"levelo://app?vid=733e5fea-25dd-49bf-906f-98327c943ed7","ios":"levelo://app?vid=733e5fea-25dd-49bf-906f-98327c943ed7"},"vehicle_type_id":"4","last_reported":1738699759,"current_range_meters":37600,"station_id":"ce4bh012rcd13ifvqd10","pricing_plan_id":"cebpf4jnsgd1na2vs0mg"},{"bike_id":"087f3f1c-e146-4530-a2e8-680367d1eb3c","system_id":"levelo_inurba_marseille","lat":43.31756,"lon":5.39008,"is_reserved":false,"is_disabled":false,"rental_uris":{"android":"levelo://app?vid=087f3f1c-e146-4530-a2e8-680367d1eb3c","ios":"levelo://app?vid=087f3f1c-e146-4530-a2e8-680367d1eb3c"},"vehicle_type_id":"4","last_reported":1738699759,"current_range_meters":24000,"station_id":"ce4bhqp2rcd13ifvqhng","pricing_plan_id":"cebpf4jnsgd1na2vs0mg"},{"bike_id":"f88e9836-7d29-4bff-b116-30872ae8c64b","system_id":"levelo_inurba_marseille","lat":43.27984,"lon":5.41672,"is_reserved":false,"is_disabled":false,"rental_uris":{"android":"levelo://app?vid=f88e9836-7d29-4bff-b116-30872ae8c64b","ios":"levelo://app?vid=f88e9836-7d29-4bff-b116-30872ae8c64b"},"vehicle_type_id":"4","last_reported":1738699759,"current_range_meters":38800,"station_id":"ce4bho12rcd13ifvqh1g","pricing_plan_id":"cebpf4jnsgd1na2vs0mg"},{"bike_id":"585548c3-dfea-4775-b261-9cda396a75ed","system_id":"levelo_inurba_marseille","lat":43.30924,"lon":5.40182,"is_reserved":false,"is_disabled":true,"rental_uris":{"android":"levelo://app?vid=585548c3-dfea-4775-b261-9cda396a75ed","ios":"levelo://app?vid=585548c3-dfea-4775-b261-9cda396a75ed"},"vehicle_type_id":"4","last_reported":1738699759,"current_range_meters":38000,"station_id":"ce4bgvp2rcd13ifvqct0","pricing_plan_id":"cebpf4jnsgd1na2vs0mg"},{"bike_id":"7eaacd34-10f9-4246-8aa1-4a22e07a7c06","system_id":"levelo_inurba_marseille","lat":43.31667,"lon":5.37406,"is_reserved":false,"is_disabled":false,"rental_uris":{"android":"levelo://app?vid=7eaacd34-10f9-4246-8aa1-4a22e07a7c06","ios":"levelo://app?vid=7eaacd34-10f9-4246-8aa1-4a22e07a7c06"},"vehicle_type_id":"4","last_reported":1738699759,"current_range_meters":28800,"station_id":"","pricing_plan_id":"cebpf4jnsgd1na2vs0mg"},{"bike_id":"1572cbca-62ac-4b78-95e4-0e23353e4f06","system_id":"levelo_inurba_marseille","lat":43.29033,"lon":5.35911,"is_reserved":false,"is_disabled":false,"rental_uris":{"android":"levelo://app?vid=1572cbca-62ac-4b78-95e4-0e23353e4f06","ios":"levelo://app?vid=1572cbca-62ac-4b78-95e4-0e23353e4f06"},"vehicle_type_id":"4","last_reported":1738699759,"current_range_meters":14000,"station_id":"ce4bha92rcd13ifvqeg0","pricing_plan_id":"cebpf4jnsgd1na2vs0mg"},{"bike_id":"b5932a01-4ae4-4b78-a190-3754179f8144","system_id":"levelo_inurba_marseille","lat":43.29273,"lon":5.36845,"is_reserved":false,"is_disabled":false,"rental_uris":{"android":"levelo://app?vid=b5932a01-4ae4-4b78-a190-3754179f8144","ios":"levelo://app?vid=b5932a01-4ae4-4b78-a190-3754179f8144"},"vehicle_type_id":"4","last_reported":1738699759,"current_range_meters":20400,"station_id":"ce4bhbp2rcd13ifvqesg","pricing_plan_id":"cebpf4jnsgd1na2vs0mg"},{"bike_id":"81232249-f73a-4ee8-8a83-c51d8a23ad51","system_id":"levelo_inurba_marseille","lat":43.25503,"lon":5.37651,"is_reserved":false,"is_disabled":false,"rental_uris":{"android":"levelo://app?vid=81232249-f73a-4ee8-8a83-c51d8a23ad51","ios":"levelo://app?vid=81232249-f73a-4ee8-8a83-c51d8a23ad51"},"vehicle_type_id":"4","last_reported":1738699759,"current_range_meters":38800,"station_id":"ce4bhh12rcd13ifvqff0","pricing_plan_id":"cebpf4jnsgd1na2vs0mg"},{"bike_id":"1a78f126-15bb-40e4-a379-1a33eae10b94","system_id":"levelo_inurba_marseille","lat":43.32107,"lon":5.36786,"is_reserved":false,"is_disabled":false,"rental_uris":{"android":"levelo://app?vid=1a78f126-15bb-40e4-a379-1a33eae10b94","ios":"levelo://app?vid=1a78f126-15bb-40e4-a379-1a33eae10b94"},"vehicle_type_id":"4","last_reported":1738699759,"current_range_meters":38400,"station_id":"ce4bhrh2rcd13ifvqhug","pricing_plan_id":"cebpf4jnsgd1na2vs0mg"},{"bike_id":"78477500-e300-4b30-9a85-77fb6edd98b5","system_id":"levelo_inurba_marseille","lat":43.2621,"lon":5.3744,"is_reserved":false,"is_disabled":false,"rental_uris":{"android":"levelo://app?vid=78477500-e300-4b30-9a85-77fb6edd98b5","ios":"levelo://app?vid=78477500-e300-4b30-9a85-77fb6edd98b5"},"vehicle_type_id":"4","last_reported":1738699759,"current_range_meters":18800,"station_id":"ce4bhgp2rcd13ifvqfc0","pricing_plan_id":"cebpf4jnsgd1na2vs0mg"},{"bike_id":"a1b82c0a-bb26-4a65-9936-dea7c6beca90","system_id":"levelo_inurba_marseille","lat":43.27916,"lon":5.39581,"is_reserved":false,"is_disabled":false,"rental_uris":{"android":"levelo://app?vid=a1b82c0a-bb26-4a65-9936-dea7c6beca90","ios":"levelo://app?vid=a1b82c0a-bb26-4a65-9936-dea7c6beca90"},"vehicle_type_id":"4","last_reported":1738699759,"current_range_meters":35600,"station_id":"ce4bhf92rcd13ifvqf40","pricing_plan_id":"cebpf4jnsgd1na2vs0mg"},{"bike_id":"c92d27b3-011a-4b9b-85d3-c7a68cdf0054","system_id":"levelo_inurba_marseille","lat":43.324777,"lon":5.365669,"is_reserved":false,"is_disabled":true,"rental_uris":{"android":"levelo://app?vid=c92d27b3-011a-4b9b-85d3-c7a68cdf0054","ios":"levelo://app?vid=c92d27b3-011a-4b9b-85d3-c7a68cdf0054"},"vehicle_type_id":"4","last_reported":1738699759,"current_range_meters":16000,"station_id":"","pricing_plan_id":"cebpf4jnsgd1na2vs0mg"},{"bike_id":"03de7c73-41cf-4dc2-b024-d7d82b997547","system_id":"levelo_inurba_marseille","lat":43.24807,"lon":5.37458,"is_reserved":false,"is_disabled":false,"rental_uris":{"android":"levelo://app?vid=03de7c73-41cf-4dc2-b024-d7d82b997547","ios":"levelo://app?vid=03de7c73-41cf-4dc2-b024-d7d82b997547"},"vehicle_type_id":"4","last_reported":1738699759,"current_range_meters":28800,"station_id":"ce4bhgh2rcd13ifvqfb0","pricing_plan_id":"cebpf4jnsgd1na2vs0mg"},{"bike_id":"a31da492-d404-42a4-a173-3e8c75aeef5d","system_id":"levelo_inurba_marseille","lat":43.24392,"lon":5.37049,"is_reserved":false,"is_disabled":false,"rental_uris":{"android":"levelo://app?vid=a31da492-d404-42a4-a173-3e8c75aeef5d","ios":"levelo://app?vid=a31da492-d404-42a4-a173-3e8c75aeef5d"},"vehicle_type_id":"4","last_reported":1738699759,"current_range_meters":32800,"station_id":"ce4bhhh2rcd13ifvqfk0","pricing_plan_id":"cebpf4jnsgd1na2vs0mg"},{"bike_id":"3cefc9f4-662a-490d-a7a9-f6d840f7ee85","system_id":"levelo_inurba_marseille","lat":43.25581,"lon":5.3823,"is_reserved":false,"is_disabled":false,"rental_uris":{"android":"levelo://app?vid=3cefc9f4-662a-490d-a7a9-f6d840f7ee85","ios":"levelo://app?vid=3cefc9f4-662a-490d-a7a9-f6d840f7ee85"},"vehicle_type_id":"4","last_reported":1738699759,"current_range_meters":20800,"station_id":"ce4bhih2rcd13ifvqfs0","pricing_plan_id":"cebpf4jnsgd1na2vs0mg"},{"bike_id":"a1a7079b-68b5-45ca-9af8-b6bc9f7cd559","system_id":"levelo_inurba_marseille","lat":43.22932,"lon":5.3537,"is_reserved":false,"is_disabled":false,"rental_uris":{"android":"levelo://app?vid=a1a7079b-68b5-45ca-9af8-b6bc9f7cd559","ios":"levelo://app?vid=a1a7079b-68b5-45ca-9af8-b6bc9f7cd559"},"vehicle_type_id":"4","last_reported":1738699759,"current_range_meters":38800,"station_id":"cpo3532slgdg3j2ikp40","pricing_plan_id":"cebpf4jnsgd1na2vs0mg"},{"bike_id":"434b618f-54de-4fea-a4f7-8069e6ab644a","system_id":"levelo_inurba_marseille","lat":43.275615,"lon":5.384223,"is_reserved":false,"is_disabled":false,"rental_uris":{"android":"levelo://app?vid=434b618f-54de-4fea-a4f7-8069e6ab644a","ios":"levelo://app?vid=434b618f-54de-4fea-a4f7-8069e6ab644a"},"vehicle_type_id":"4","last_reported":1738699759,"current_range_meters":31200,"station_id":"ce4bhh92rcd13ifvqfi0","pricing_plan_id":"cebpf4jnsgd1na2vs0mg"},{"bike_id":"b33c305b-93f2-4704-99fc-c1fc7dc94c00","system_id":"levelo_inurba_marseille","lat":43.311929,"lon":5.387043,"is_reserved":false,"is_disabled":false,"rental_uris":{"android":"levelo://app?vid=b33c305b-93f2-4704-99fc-c1fc7dc94c00","ios":"levelo://app?vid=b33c305b-93f2-4704-99fc-c1fc7dc94c00"},"vehicle_type_id":"4","last_reported":1738699759,"current_range_meters":38800,"station_id":"ce4bgv12rcd13ifvqcp0","pricing_plan_id":"cebpf4jnsgd1na2vs0mg"},{"bike_id":"b7406dda-3082-4224-bdff-a31932a4a7c1","system_id":"levelo_inurba_marseille","lat":43.28093,"lon":5.39643,"is_reserved":false,"is_disabled":false,"rental_uris":{"android":"levelo://app?vid=b7406dda-3082-4224-bdff-a31932a4a7c1","ios":"levelo://app?vid=b7406dda-3082-4224-bdff-a31932a4a7c1"},"vehicle_type_id":"4","last_reported":1738699759,"current_range_meters":29600,"station_id":"ce4bho12rcd13ifvqh2g","pricing_plan_id":"cebpf4jnsgd1na2vs0mg"},{"bike_id":"e900f4fe-f287-4f7a-a111-e62d22c31fb5","system_id":"levelo_inurba_marseille","lat":43.25588,"lon":5.38235,"is_reserved":false,"is_disabled":false,"rental_uris":{"android":"levelo://app?vid=e900f4fe-f287-4f7a-a111-e62d22c31fb5","ios":"levelo://app?vid=e900f4fe-f287-4f7a-a111-e62d22c31fb5"},"vehicle_type_id":"4","last_reported":1738699759,"current_range_meters":30800,"station_id":"ce4bhih2rcd13ifvqfs0","pricing_plan_id":"cebpf4jnsgd1na2vs0mg"},{"bike_id":"b4da0a36-b2a2-409b-8b71-70ab4e6718ab","system_id":"levelo_inurba_marseille","lat":43.25577,"lon":5.38231,"is_reserved":false,"is_disabled":false,"rental_uris":{"android":"levelo://app?vid=b4da0a36-b2a2-409b-8b71-70ab4e6718ab","ios":"levelo://app?vid=b4da0a36-b2a2-409b-8b71-70ab4e6718ab"},"vehicle_type_id":"4","last_reported":1738699759,"current_range_meters":19200,"station_id":"ce4bhih2rcd13ifvqfs0","pricing_plan_id":"cebpf4jnsgd1na2vs0mg"},{"bike_id":"3726dff5-00e4-45e5-9db7-c906f7e13ea9","system_id":"levelo_inurba_marseille","lat":43.27164,"lon":5.40987,"is_reserved":false,"is_disabled":false,"rental_uris":{"android":"levelo://app?vid=3726dff5-00e4-45e5-9db7-c906f7e13ea9","ios":"levelo://app?vid=3726dff5-00e4-45e5-9db7-c906f7e13ea9"},"vehicle_type_id":"4","last_reported":1738699759,"current_range_meters":32000,"station_id":"ce4bhl12rcd13ifvqgf0","pricing_plan_id":"cebpf4jnsgd1na2vs0mg"},{"bike_id":"38d9c123-c80e-4d99-abd9-1554da4e609f","system_id":"levelo_inurba_marseille","lat":43.24657,"lon":5.38885,"is_reserved":false,"is_disabled":false,"rental_uris":{"android":"levelo://app?vid=38d9c123-c80e-4d99-abd9-1554da4e609f","ios":"levelo://app?vid=38d9c123-c80e-4d99-abd9-1554da4e609f"},"vehicle_type_id":"4","last_reported":1738699759,"current_range_meters":28800,"station_id":"ce4bhg12rcd13ifvqf60","pricing_plan_id":"cebpf4jnsgd1na2vs0mg"},{"bike_id":"0d30f1f6-cb03-41c8-9ed3-2fe3b5a2ebb5","system_id":"levelo_inurba_marseille","lat":43.29882,"lon":5.38908,"is_reserved":false,"is_disabled":false,"rental_uris":{"android":"levelo://app?vid=0d30f1f6-cb03-41c8-9ed3-2fe3b5a2ebb5","ios":"levelo://app?vid=0d30f1f6-cb03-41c8-9ed3-2fe3b5a2ebb5"},"vehicle_type_id":"4","last_reported":1738699759,"current_range_meters":36800,"station_id":"ce4bh392rcd13ifvqdl0","pricing_plan_id":"cebpf4jnsgd1na2vs0mg"},{"bike_id":"ecfd8047-b75a-4e87-a298-ba28fe0083c2","system_id":"levelo_inurba_marseille","lat":43.29603,"lon":5.3809,"is_reserved":false,"is_disabled":true,"rental_uris":{"android":"levelo://app?vid=ecfd8047-b75a-4e87-a298-ba28fe0083c2","ios":"levelo://app?vid=ecfd8047-b75a-4e87-a298-ba28fe0083c2"},"vehicle_type_id":"4","last_reported":1738699759,"current_range_meters":400,"station_id":"ce4bgl12rcd13ifvqbo0","pricing_plan_id":"cebpf4jnsgd1na2vs0mg"},{"bike_id":"564c1b4c-36d5-4914-adc3-4e98052c8391","system_id":"levelo_inurba_marseille","lat":43.29529,"lon":5.38532,"is_reserved":false,"is_disabled":false,"rental_uris":{"android":"levelo://app?vid=564c1b4c-36d5-4914-adc3-4e98052c8391","ios":"levelo://app?vid=564c1b4c-36d5-4914-adc3-4e98052c8391"},"vehicle_type_id":"4","last_reported":1738699759,"current_range_meters":38400,"station_id":"ce4bgih2rcd13ifvqba0","pricing_plan_id":"cebpf4jnsgd1na2vs0mg"},{"bike_id":"5f9d9d16-cd47-4d54-8a34-1ca6771485e1","system_id":"levelo_inurba_marseille","lat":43.29516,"lon":5.39399,"is_reserved":false,"is_disabled":false,"rental_uris":{"android":"levelo://app?vid=5f9d9d16-cd47-4d54-8a34-1ca6771485e1","ios":"levelo://app?vid=5f9d9d16-cd47-4d54-8a34-1ca6771485e1"},"vehicle_type_id":"4","last_reported":1738699759,"current_range_meters":28400,"station_id":"ce4bh292rcd13ifvqdf0","pricing_plan_id":"cebpf4jnsgd1na2vs0mg"},{"bike_id":"9a3d8afe-6430-4f53-aba8-27d653fab8bf","system_id":"levelo_inurba_marseille","lat":43.2502,"lon":5.3893,"is_reserved":false,"is_disabled":false,"rental_uris":{"android":"levelo://app?vid=9a3d8afe-6430-4f53-aba8-27d653fab8bf","ios":"levelo://app?vid=9a3d8afe-6430-4f53-aba8-27d653fab8bf"},"vehicle_type_id":"4","last_reported":1738699759,"current_range_meters":14800,"station_id":"ce4bhgp2rcd13ifvqfd0","pricing_plan_id":"cebpf4jnsgd1na2vs0mg"},{"bike_id":"272335b6-dc24-496f-b8c5-36817206bf50","system_id":"levelo_inurba_marseille","lat":43.29904,"lon":5.43635,"is_reserved":false,"is_disabled":true,"rental_uris":{"android":"levelo://app?vid=272335b6-dc24-496f-b8c5-36817206bf50","ios":"levelo://app?vid=272335b6-dc24-496f-b8c5-36817206bf50"},"vehicle_type_id":"4","last_reported":1738699759,"current_range_meters":1200,"station_id":"ce4bhpp2rcd13ifvqhfg","pricing_plan_id":"cebpf4jnsgd1na2vs0mg"},{"bike_id":"08a00e1f-fc4b-4902-be96-0faa93870ad4","system_id":"levelo_inurba_marseille","lat":43.28936,"lon":5.36631,"is_reserved":false,"is_disabled":false,"rental_uris":{"android":"levelo://app?vid=08a00e1f-fc4b-4902-be96-0faa93870ad4","ios":"levelo://app?vid=08a00e1f-fc4b-4902-be96-0faa93870ad4"},"vehicle_type_id":"4","last_reported":1738699759,"current_range_meters":37600,"station_id":"ce4bhap2rcd13ifvqek0","pricing_plan_id":"cebpf4jnsgd1na2vs0mg"},{"bike_id":"0671b3d0-0f3f-4187-8881-07e4daff9995","system_id":"levelo_inurba_marseille","lat":43.27318,"lon":5.39052,"is_reserved":false,"is_disabled":false,"rental_uris":{"android":"levelo://app?vid=0671b3d0-0f3f-4187-8881-07e4daff9995","ios":"levelo://app?vid=0671b3d0-0f3f-4187-8881-07e4daff9995"},"vehicle_type_id":"4","last_reported":1738699759,"current_range_meters":25600,"station_id":"ce4bhgp2rcd13ifvqfe0","pricing_plan_id":"cebpf4jnsgd1na2vs0mg"},{"bike_id":"5927832b-15f3-4b66-bba3-2fc3d7e6d40f","system_id":"levelo_inurba_marseille","lat":43.308047,"lon":5.381456,"is_reserved":false,"is_disabled":false,"rental_uris":{"android":"levelo://app?vid=5927832b-15f3-4b66-bba3-2fc3d7e6d40f","ios":"levelo://app?vid=5927832b-15f3-4b66-bba3-2fc3d7e6d40f"},"vehicle_type_id":"4","last_reported":1738699759,"current_range_meters":27600,"station_id":"ce4bgt12rcd13ifvqce0","pricing_plan_id":"cebpf4jnsgd1na2vs0mg"},{"bike_id":"f42c0235-8db0-4927-8b3e-8be3533ade18","system_id":"levelo_inurba_marseille","lat":43.29539,"lon":5.38527,"is_reserved":false,"is_disabled":false,"rental_uris":{"android":"levelo://app?vid=f42c0235-8db0-4927-8b3e-8be3533ade18","ios":"levelo://app?vid=f42c0235-8db0-4927-8b3e-8be3533ade18"},"vehicle_type_id":"4","last_reported":1738699759,"current_range_meters":38400,"station_id":"ce4bgih2rcd13ifvqba0","pricing_plan_id":"cebpf4jnsgd1na2vs0mg"},{"bike_id":"fcec2196-c533-4670-933c-9ee1e51f8179","system_id":"levelo_inurba_marseille","lat":43.25495,"lon":5.37654,"is_reserved":false,"is_disabled":false,"rental_uris":{"android":"levelo://app?vid=fcec2196-c533-4670-933c-9ee1e51f8179","ios":"levelo://app?vid=fcec2196-c533-4670-933c-9ee1e51f8179"},"vehicle_type_id":"4","last_reported":1738699759,"current_range_meters":38000,"station_id":"ce4bhh12rcd13ifvqff0","pricing_plan_id":"cebpf4jnsgd1na2vs0mg"},{"bike_id":"cf0d534e-429a-4742-b2cb-4793faf704ac","system_id":"levelo_inurba_marseille","lat":43.24648,"lon":5.38894,"is_reserved":false,"is_disabled":false,"rental_uris":{"android":"levelo://app?vid=cf0d534e-429a-4742-b2cb-4793faf704ac","ios":"levelo://app?vid=cf0d534e-429a-4742-b2cb-4793faf704ac"},"vehicle_type_id":"4","last_reported":1738699759,"current_range_meters":38000,"station_id":"ce4bhg12rcd13ifvqf60","pricing_plan_id":"cebpf4jnsgd1na2vs0mg"},{"bike_id":"8990bf66-2391-44c0-90e1-98264103ad0b","system_id":"levelo_inurba_marseille","lat":43.3133,"lon":5.39704,"is_reserved":false,"is_disabled":false,"rental_uris":{"android":"levelo://app?vid=8990bf66-2391-44c0-90e1-98264103ad0b","ios":"levelo://app?vid=8990bf66-2391-44c0-90e1-98264103ad0b"},"vehicle_type_id":"4","last_reported":1738699759,"current_range_meters":38800,"station_id":"ce4bgvp2rcd13ifvqcu0","pricing_plan_id":"cebpf4jnsgd1na2vs0mg"},{"bike_id":"161cfab1-3585-4f49-9175-5e4591bd3bd6","system_id":"levelo_inurba_marseille","lat":43.26488,"lon":5.39555,"is_reserved":false,"is_disabled":false,"rental_uris":{"android":"levelo://app?vid=161cfab1-3585-4f49-9175-5e4591bd3bd6","ios":"levelo://app?vid=161cfab1-3585-4f49-9175-5e4591bd3bd6"},"vehicle_type_id":"4","last_reported":1738699759,"current_range_meters":38400,"station_id":"ce4bhi12rcd13ifvqfq0","pricing_plan_id":"cebpf4jnsgd1na2vs0mg"},{"bike_id":"3a5aa9c9-bc8f-448e-aeb5-c9e98d56970c","system_id":"levelo_inurba_marseille","lat":43.33612,"lon":5.41032,"is_reserved":false,"is_disabled":false,"rental_uris":{"android":"levelo://app?vid=3a5aa9c9-bc8f-448e-aeb5-c9e98d56970c","ios":"levelo://app?vid=3a5aa9c9-bc8f-448e-aeb5-c9e98d56970c"},"vehicle_type_id":"4","last_reported":1738699759,"current_range_meters":14400,"station_id":"ce4bhqh2rcd13ifvqhmg","pricing_plan_id":"cebpf4jnsgd1na2vs0mg"},{"bike_id":"305750e2-4642-48b7-a8e5-fe32445e74cf","system_id":"levelo_inurba_marseille","lat":43.313281,"lon":5.385177,"is_reserved":false,"is_disabled":false,"rental_uris":{"android":"levelo://app?vid=305750e2-4642-48b7-a8e5-fe32445e74cf","ios":"levelo://app?vid=305750e2-4642-48b7-a8e5-fe32445e74cf"},"vehicle_type_id":"4","last_reported":1738699759,"current_range_meters":10800,"station_id":"ce4bgt92rcd13ifvqcf0","pricing_plan_id":"cebpf4jnsgd1na2vs0mg"},{"bike_id":"d0f83c8b-7d8b-4405-b29d-b6f7f57a005e","system_id":"levelo_inurba_marseille","lat":43.33037,"lon":5.39052,"is_reserved":false,"is_disabled":false,"rental_uris":{"android":"levelo://app?vid=d0f83c8b-7d8b-4405-b29d-b6f7f57a005e","ios":"levelo://app?vid=d0f83c8b-7d8b-4405-b29d-b6f7f57a005e"},"vehicle_type_id":"4","last_reported":1738699759,"current_range_meters":38800,"station_id":"ce4bhr92rcd13ifvqhrg","pricing_plan_id":"cebpf4jnsgd1na2vs0mg"},{"bike_id":"30d68ac6-7ba6-4749-8154-bf914e372a6a","system_id":"levelo_inurba_marseille","lat":43.323654,"lon":5.388782,"is_reserved":false,"is_disabled":false,"rental_uris":{"android":"levelo://app?vid=30d68ac6-7ba6-4749-8154-bf914e372a6a","ios":"levelo://app?vid=30d68ac6-7ba6-4749-8154-bf914e372a6a"},"vehicle_type_id":"4","last_reported":1738699759,"current_range_meters":36800,"station_id":"ce4bhqp2rcd13ifvqhog","pricing_plan_id":"cebpf4jnsgd1na2vs0mg"},{"bike_id":"c5b056ff-c872-48a0-bb26-d9c2657a26db","system_id":"levelo_inurba_marseille","lat":43.3032,"lon":5.40431,"is_reserved":false,"is_disabled":false,"rental_uris":{"android":"levelo://app?vid=c5b056ff-c872-48a0-bb26-d9c2657a26db","ios":"levelo://app?vid=c5b056ff-c872-48a0-bb26-d9c2657a26db"},"vehicle_type_id":"4","last_reported":1738699759,"current_range_meters":10800,"station_id":"ce4bh012rcd13ifvqd10","pricing_plan_id":"cebpf4jnsgd1na2vs0mg"},{"bike_id":"312e32c3-6324-498b-b53b-8d30f4b3f2b5","system_id":"levelo_inurba_marseille","lat":43.30896,"lon":5.40216,"is_reserved":false,"is_disabled":false,"rental_uris":{"android":"levelo://app?vid=312e32c3-6324-498b-b53b-8d30f4b3f2b5","ios":"levelo://app?vid=312e32c3-6324-498b-b53b-8d30f4b3f2b5"},"vehicle_type_id":"4","last_reported":1738699759,"current_range_meters":38800,"station_id":"","pricing_plan_id":"cebpf4jnsgd1na2vs0mg"},{"bike_id":"dadce840-2b69-4ba3-8248-7839803ca39b","system_id":"levelo_inurba_marseille","lat":43.29517,"lon":5.39033,"is_reserved":false,"is_disabled":false,"rental_uris":{"android":"levelo://app?vid=dadce840-2b69-4ba3-8248-7839803ca39b","ios":"levelo://app?vid=dadce840-2b69-4ba3-8248-7839803ca39b"},"vehicle_type_id":"4","last_reported":1738699759,"current_range_meters":26000,"station_id":"ce4bh3p2rcd13ifvqdp0","pricing_plan_id":"cebpf4jnsgd1na2vs0mg"},{"bike_id":"f680809a-e1e0-46e9-9232-13f32fa7a21b","system_id":"levelo_inurba_marseille","lat":43.285712,"lon":5.399277,"is_reserved":false,"is_disabled":false,"rental_uris":{"android":"levelo://app?vid=f680809a-e1e0-46e9-9232-13f32fa7a21b","ios":"levelo://app?vid=f680809a-e1e0-46e9-9232-13f32fa7a21b"},"vehicle_type_id":"4","last_reported":1738699759,"current_range_meters":26800,"station_id":"","pricing_plan_id":"cebpf4jnsgd1na2vs0mg"},{"bike_id":"5012ce34-cb64-4d41-8f9c-62d48daa0237","system_id":"levelo_inurba_marseille","lat":43.27986,"lon":5.40013,"is_reserved":false,"is_disabled":false,"rental_uris":{"android":"levelo://app?vid=5012ce34-cb64-4d41-8f9c-62d48daa0237","ios":"levelo://app?vid=5012ce34-cb64-4d41-8f9c-62d48daa0237"},"vehicle_type_id":"4","last_reported":1738699759,"current_range_meters":17600,"station_id":"ce4bho92rcd13ifvqh4g","pricing_plan_id":"cebpf4jnsgd1na2vs0mg"},{"bike_id":"c05d5e1e-808b-41a6-b040-802fe3a55ca8","system_id":"levelo_inurba_marseille","lat":43.29025,"lon":5.37562,"is_reserved":false,"is_disabled":false,"rental_uris":{"android":"levelo://app?vid=c05d5e1e-808b-41a6-b040-802fe3a55ca8","ios":"levelo://app?vid=c05d5e1e-808b-41a6-b040-802fe3a55ca8"},"vehicle_type_id":"4","last_reported":1738699759,"current_range_meters":24000,"station_id":"ce4bh692rcd13ifvqe90","pricing_plan_id":"cebpf4jnsgd1na2vs0mg"},{"bike_id":"5617ce1d-fd69-406f-a33e-b9062e80e9d7","system_id":"levelo_inurba_marseille","lat":43.2952,"lon":5.39397,"is_reserved":false,"is_disabled":false,"rental_uris":{"android":"levelo://app?vid=5617ce1d-fd69-406f-a33e-b9062e80e9d7","ios":"levelo://app?vid=5617ce1d-fd69-406f-a33e-b9062e80e9d7"},"vehicle_type_id":"4","last_reported":1738699759,"current_range_meters":5600,"station_id":"ce4bh292rcd13ifvqdf0","pricing_plan_id":"cebpf4jnsgd1na2vs0mg"},{"bike_id":"6712f04b-f35d-4e3a-a70d-c89aec85d9b2","system_id":"levelo_inurba_marseille","lat":43.22933,"lon":5.35383,"is_reserved":false,"is_disabled":false,"rental_uris":{"android":"levelo://app?vid=6712f04b-f35d-4e3a-a70d-c89aec85d9b2","ios":"levelo://app?vid=6712f04b-f35d-4e3a-a70d-c89aec85d9b2"},"vehicle_type_id":"4","last_reported":1738699759,"current_range_meters":39200,"station_id":"cpo3532slgdg3j2ikp40","pricing_plan_id":"cebpf4jnsgd1na2vs0mg"},{"bike_id":"5044aa60-48d5-4442-a7ee-5bef833d2152","system_id":"levelo_inurba_marseille","lat":43.27917,"lon":5.39574,"is_reserved":false,"is_disabled":false,"rental_uris":{"android":"levelo://app?vid=5044aa60-48d5-4442-a7ee-5bef833d2152","ios":"levelo://app?vid=5044aa60-48d5-4442-a7ee-5bef833d2152"},"vehicle_type_id":"4","last_reported":1738699759,"current_range_meters":33200,"station_id":"ce4bhf92rcd13ifvqf40","pricing_plan_id":"cebpf4jnsgd1na2vs0mg"},{"bike_id":"e10e4b70-e0fd-4774-b7ef-432974318600","system_id":"levelo_inurba_marseille","lat":43.301,"lon":5.39073,"is_reserved":false,"is_disabled":false,"rental_uris":{"android":"levelo://app?vid=e10e4b70-e0fd-4774-b7ef-432974318600","ios":"levelo://app?vid=e10e4b70-e0fd-4774-b7ef-432974318600"},"vehicle_type_id":"4","last_reported":1738699759,"current_range_meters":28800,"station_id":"ce4bh192rcd13ifvqdb0","pricing_plan_id":"cebpf4jnsgd1na2vs0mg"},{"bike_id":"8f51f7b4-db37-49a2-ac98-4da47d8beaee","system_id":"levelo_inurba_marseille","lat":43.28026,"lon":5.36942,"is_reserved":false,"is_disabled":false,"rental_uris":{"android":"levelo://app?vid=8f51f7b4-db37-49a2-ac98-4da47d8beaee","ios":"levelo://app?vid=8f51f7b4-db37-49a2-ac98-4da47d8beaee"},"vehicle_type_id":"4","last_reported":1738699759,"current_range_meters":38800,"station_id":"ce4bha12rcd13ifvqef0","pricing_plan_id":"cebpf4jnsgd1na2vs0mg"},{"bike_id":"56898ed7-036c-4242-9030-696f7444355e","system_id":"levelo_inurba_marseille","lat":43.30592,"lon":5.39359,"is_reserved":false,"is_disabled":false,"rental_uris":{"android":"levelo://app?vid=56898ed7-036c-4242-9030-696f7444355e","ios":"levelo://app?vid=56898ed7-036c-4242-9030-696f7444355e"},"vehicle_type_id":"4","last_reported":1738699759,"current_range_meters":9600,"station_id":"ce4bh0p2rcd13ifvqd80","pricing_plan_id":"cebpf4jnsgd1na2vs0mg"},{"bike_id":"827ca05f-17dc-47dd-b033-2d6f43b69e39","system_id":"levelo_inurba_marseille","lat":43.28102,"lon":5.37856,"is_reserved":false,"is_disabled":true,"rental_uris":{"android":"levelo://app?vid=827ca05f-17dc-47dd-b033-2d6f43b69e39","ios":"levelo://app?vid=827ca05f-17dc-47dd-b033-2d6f43b69e39"},"vehicle_type_id":"4","last_reported":1738699759,"current_range_meters":1600,"station_id":"ce4bha12rcd13ifvqee0","pricing_plan_id":"cebpf4jnsgd1na2vs0mg"},{"bike_id":"0888dc6c-9768-41f1-850c-939321da586f","system_id":"levelo_inurba_marseille","lat":43.29046,"lon":5.35897,"is_reserved":false,"is_disabled":false,"rental_uris":{"android":"levelo://app?vid=0888dc6c-9768-41f1-850c-939321da586f","ios":"levelo://app?vid=0888dc6c-9768-41f1-850c-939321da586f"},"vehicle_type_id":"4","last_reported":1738699759,"current_range_meters":38800,"station_id":"ce4bha92rcd13ifvqeg0","pricing_plan_id":"cebpf4jnsgd1na2vs0mg"},{"bike_id":"4b51056f-c9bf-4d1d-a8ae-f2274992a55e","system_id":"levelo_inurba_marseille","lat":43.23193,"lon":5.39988,"is_reserved":false,"is_disabled":false,"rental_uris":{"android":"levelo://app?vid=4b51056f-c9bf-4d1d-a8ae-f2274992a55e","ios":"levelo://app?vid=4b51056f-c9bf-4d1d-a8ae-f2274992a55e"},"vehicle_type_id":"4","last_reported":1738699759,"current_range_meters":16800,"station_id":"ce4bhn12rcd13ifvqgqg","pricing_plan_id":"cebpf4jnsgd1na2vs0mg"},{"bike_id":"4f711729-11db-4481-a558-983b7b381ab1","system_id":"levelo_inurba_marseille","lat":43.336039,"lon":5.410429,"is_reserved":false,"is_disabled":false,"rental_uris":{"android":"levelo://app?vid=4f711729-11db-4481-a558-983b7b381ab1","ios":"levelo://app?vid=4f711729-11db-4481-a558-983b7b381ab1"},"vehicle_type_id":"4","last_reported":1738699759,"current_range_meters":8800,"station_id":"ce4bhqh2rcd13ifvqhmg","pricing_plan_id":"cebpf4jnsgd1na2vs0mg"},{"bike_id":"5f305d12-3f39-4cf5-84fa-57b12173eca2","system_id":"levelo_inurba_marseille","lat":43.28675,"lon":5.38651,"is_reserved":false,"is_disabled":false,"rental_uris":{"android":"levelo://app?vid=5f305d12-3f39-4cf5-84fa-57b12173eca2","ios":"levelo://app?vid=5f305d12-3f39-4cf5-84fa-57b12173eca2"},"vehicle_type_id":"4","last_reported":1738699759,"current_range_meters":19200,"station_id":"ce4bh492rcd13ifvqdug","pricing_plan_id":"cebpf4jnsgd1na2vs0mg"},{"bike_id":"dd357549-7d51-4dd2-b955-bdbb24e3508f","system_id":"levelo_inurba_marseille","lat":43.29629,"lon":5.40599,"is_reserved":false,"is_disabled":false,"rental_uris":{"android":"levelo://app?vid=dd357549-7d51-4dd2-b955-bdbb24e3508f","ios":"levelo://app?vid=dd357549-7d51-4dd2-b955-bdbb24e3508f"},"vehicle_type_id":"4","last_reported":1738699759,"current_range_meters":11200,"station_id":"ce4bh0h2rcd13ifvqd60","pricing_plan_id":"cebpf4jnsgd1na2vs0mg"},{"bike_id":"1a3714ed-2f47-45be-8a12-f8dffc386763","system_id":"levelo_inurba_marseille","lat":43.25573,"lon":5.38212,"is_reserved":false,"is_disabled":false,"rental_uris":{"android":"levelo://app?vid=1a3714ed-2f47-45be-8a12-f8dffc386763","ios":"levelo://app?vid=1a3714ed-2f47-45be-8a12-f8dffc386763"},"vehicle_type_id":"4","last_reported":1738699759,"current_range_meters":28400,"station_id":"ce4bhih2rcd13ifvqfs0","pricing_plan_id":"cebpf4jnsgd1na2vs0mg"},{"bike_id":"1fcd64c5-8176-40ba-bc0f-0c3bba0291e2","system_id":"levelo_inurba_marseille","lat":43.250863,"lon":5.395244,"is_reserved":false,"is_disabled":false,"rental_uris":{"android":"levelo://app?vid=1fcd64c5-8176-40ba-bc0f-0c3bba0291e2","ios":"levelo://app?vid=1fcd64c5-8176-40ba-bc0f-0c3bba0291e2"},"vehicle_type_id":"4","last_reported":1738699759,"current_range_meters":38800,"station_id":"ce4bhm12rcd13ifvqgkg","pricing_plan_id":"cebpf4jnsgd1na2vs0mg"},{"bike_id":"278902b4-7b50-4f46-8ac1-6d0f29cc8638","system_id":"levelo_inurba_marseille","lat":43.24398,"lon":5.37045,"is_reserved":false,"is_disabled":false,"rental_uris":{"android":"levelo://app?vid=278902b4-7b50-4f46-8ac1-6d0f29cc8638","ios":"levelo://app?vid=278902b4-7b50-4f46-8ac1-6d0f29cc8638"},"vehicle_type_id":"4","last_reported":1738699759,"current_range_meters":38400,"station_id":"ce4bhhh2rcd13ifvqfk0","pricing_plan_id":"cebpf4jnsgd1na2vs0mg"},{"bike_id":"d6b0cf54-fa2e-4bc8-963e-74d7f8faf1fe","system_id":"levelo_inurba_marseille","lat":43.24661,"lon":5.38143,"is_reserved":false,"is_disabled":false,"rental_uris":{"android":"levelo://app?vid=d6b0cf54-fa2e-4bc8-963e-74d7f8faf1fe","ios":"levelo://app?vid=d6b0cf54-fa2e-4bc8-963e-74d7f8faf1fe"},"vehicle_type_id":"4","last_reported":1738699759,"current_range_meters":5600,"station_id":"ce4bhih2rcd13ifvqfr0","pricing_plan_id":"cebpf4jnsgd1na2vs0mg"},{"bike_id":"c498ce6e-31b6-4b5a-bf27-88958aca9621","system_id":"levelo_inurba_marseille","lat":43.295323,"lon":5.385471,"is_reserved":false,"is_disabled":false,"rental_uris":{"android":"levelo://app?vid=c498ce6e-31b6-4b5a-bf27-88958aca9621","ios":"levelo://app?vid=c498ce6e-31b6-4b5a-bf27-88958aca9621"},"vehicle_type_id":"4","last_reported":1738699759,"current_range_meters":38400,"station_id":"ce4bgih2rcd13ifvqba0","pricing_plan_id":"cebpf4jnsgd1na2vs0mg"},{"bike_id":"8b3eac35-06cf-4eb0-b96f-ceebf5dc2592","system_id":"levelo_inurba_marseille","lat":43.25498,"lon":5.37658,"is_reserved":false,"is_disabled":false,"rental_uris":{"android":"levelo://app?vid=8b3eac35-06cf-4eb0-b96f-ceebf5dc2592","ios":"levelo://app?vid=8b3eac35-06cf-4eb0-b96f-ceebf5dc2592"},"vehicle_type_id":"4","last_reported":1738699759,"current_range_meters":22800,"station_id":"ce4bhh12rcd13ifvqff0","pricing_plan_id":"cebpf4jnsgd1na2vs0mg"},{"bike_id":"97a08849-0937-4210-b532-5a18ef38860c","system_id":"levelo_inurba_marseille","lat":43.29522,"lon":5.39401,"is_reserved":false,"is_disabled":false,"rental_uris":{"android":"levelo://app?vid=97a08849-0937-4210-b532-5a18ef38860c","ios":"levelo://app?vid=97a08849-0937-4210-b532-5a18ef38860c"},"vehicle_type_id":"4","last_reported":1738699759,"current_range_meters":12000,"station_id":"ce4bh292rcd13ifvqdf0","pricing_plan_id":"cebpf4jnsgd1na2vs0mg"},{"bike_id":"3ab0ceb6-cd89-477f-8038-1be761eb4bda","system_id":"levelo_inurba_marseille","lat":43.29524,"lon":5.37491,"is_reserved":false,"is_disabled":true,"rental_uris":{"android":"levelo://app?vid=3ab0ceb6-cd89-477f-8038-1be761eb4bda","ios":"levelo://app?vid=3ab0ceb6-cd89-477f-8038-1be761eb4bda"},"vehicle_type_id":"4","last_reported":1738699759,"current_range_meters":0,"station_id":"ce4bgkp2rcd13ifvqbmg","pricing_plan_id":"cebpf4jnsgd1na2vs0mg"},{"bike_id":"bd5d01d7-717e-4781-841a-0a3245e3f188","system_id":"levelo_inurba_marseille","lat":43.27681,"lon":5.38933,"is_reserved":false,"is_disabled":false,"rental_uris":{"android":"levelo://app?vid=bd5d01d7-717e-4781-841a-0a3245e3f188","ios":"levelo://app?vid=bd5d01d7-717e-4781-841a-0a3245e3f188"},"vehicle_type_id":"4","last_reported":1738699759,"current_range_meters":38000,"station_id":"ce4bhi12rcd13ifvqfo0","pricing_plan_id":"cebpf4jnsgd1na2vs0mg"},{"bike_id":"b2d6864b-5060-48af-bc3e-cc82b3d1573e","system_id":"levelo_inurba_marseille","lat":43.25727,"lon":5.41105,"is_reserved":false,"is_disabled":false,"rental_uris":{"android":"levelo://app?vid=b2d6864b-5060-48af-bc3e-cc82b3d1573e","ios":"levelo://app?vid=b2d6864b-5060-48af-bc3e-cc82b3d1573e"},"vehicle_type_id":"4","last_reported":1738699759,"current_range_meters":18000,"station_id":"ce4bhkp2rcd13ifvqgd0","pricing_plan_id":"cebpf4jnsgd1na2vs0mg"},{"bike_id":"c85a26e1-f53e-4ec1-b1ea-8b32d23f1f4d","system_id":"levelo_inurba_marseille","lat":43.23068,"lon":5.35493,"is_reserved":false,"is_disabled":false,"rental_uris":{"android":"levelo://app?vid=c85a26e1-f53e-4ec1-b1ea-8b32d23f1f4d","ios":"levelo://app?vid=c85a26e1-f53e-4ec1-b1ea-8b32d23f1f4d"},"vehicle_type_id":"4","last_reported":1738699759,"current_range_meters":24800,"station_id":"cpo3342slgdg3j2ifvpg","pricing_plan_id":"cebpf4jnsgd1na2vs0mg"},{"bike_id":"512a3a23-b079-4568-bc04-d9235c65b5d3","system_id":"levelo_inurba_marseille","lat":43.23963,"lon":5.36636,"is_reserved":false,"is_disabled":false,"rental_uris":{"android":"levelo://app?vid=512a3a23-b079-4568-bc04-d9235c65b5d3","ios":"levelo://app?vid=512a3a23-b079-4568-bc04-d9235c65b5d3"},"vehicle_type_id":"4","last_reported":1738699759,"current_range_meters":16800,"station_id":"ce4bhi12rcd13ifvqfp0","pricing_plan_id":"cebpf4jnsgd1na2vs0mg"},{"bike_id":"96d8c74f-f58c-4053-a830-e19a1d3ea571","system_id":"levelo_inurba_marseille","lat":43.28844,"lon":5.39331,"is_reserved":false,"is_disabled":false,"rental_uris":{"android":"levelo://app?vid=96d8c74f-f58c-4053-a830-e19a1d3ea571","ios":"levelo://app?vid=96d8c74f-f58c-4053-a830-e19a1d3ea571"},"vehicle_type_id":"4","last_reported":1738699759,"current_range_meters":20800,"station_id":"ce4bh2p2rcd13ifvqdi0","pricing_plan_id":"cebpf4jnsgd1na2vs0mg"},{"bike_id":"e3fa5aaf-a54f-49f1-9073-60a9cb58ace8","system_id":"levelo_inurba_marseille","lat":43.2684,"lon":5.40605,"is_reserved":false,"is_disabled":false,"rental_uris":{"android":"levelo://app?vid=e3fa5aaf-a54f-49f1-9073-60a9cb58ace8","ios":"levelo://app?vid=e3fa5aaf-a54f-49f1-9073-60a9cb58ace8"},"vehicle_type_id":"4","last_reported":1738699759,"current_range_meters":18000,"station_id":"","pricing_plan_id":"cebpf4jnsgd1na2vs0mg"},{"bike_id":"93439838-63dc-4875-8321-63b2d932473a","system_id":"levelo_inurba_marseille","lat":43.29787,"lon":5.3934,"is_reserved":false,"is_disabled":false,"rental_uris":{"android":"levelo://app?vid=93439838-63dc-4875-8321-63b2d932473a","ios":"levelo://app?vid=93439838-63dc-4875-8321-63b2d932473a"},"vehicle_type_id":"4","last_reported":1738699759,"current_range_meters":20800,"station_id":"chh1huq6cuj3fo74tm60","pricing_plan_id":"cebpf4jnsgd1na2vs0mg"},{"bike_id":"9b98f877-4d66-423d-be64-4b3ccb02e6b0","system_id":"levelo_inurba_marseille","lat":43.30801,"lon":5.3816,"is_reserved":false,"is_disabled":false,"rental_uris":{"android":"levelo://app?vid=9b98f877-4d66-423d-be64-4b3ccb02e6b0","ios":"levelo://app?vid=9b98f877-4d66-423d-be64-4b3ccb02e6b0"},"vehicle_type_id":"4","last_reported":1738699759,"current_range_meters":38800,"station_id":"ce4bgt12rcd13ifvqce0","pricing_plan_id":"cebpf4jnsgd1na2vs0mg"},{"bike_id":"598ca7eb-8a22-48d0-a5a6-53ea64076def","system_id":"levelo_inurba_marseille","lat":43.27905,"lon":5.38012,"is_reserved":false,"is_disabled":false,"rental_uris":{"android":"levelo://app?vid=598ca7eb-8a22-48d0-a5a6-53ea64076def","ios":"levelo://app?vid=598ca7eb-8a22-48d0-a5a6-53ea64076def"},"vehicle_type_id":"4","last_reported":1738699759,"current_range_meters":38800,"station_id":"ce4bhf92rcd13ifvqf50","pricing_plan_id":"cebpf4jnsgd1na2vs0mg"},{"bike_id":"5aa45ea8-9648-408f-92a7-9049ac000441","system_id":"levelo_inurba_marseille","lat":43.2694,"lon":5.38908,"is_reserved":false,"is_disabled":false,"rental_uris":{"android":"levelo://app?vid=5aa45ea8-9648-408f-92a7-9049ac000441","ios":"levelo://app?vid=5aa45ea8-9648-408f-92a7-9049ac000441"},"vehicle_type_id":"4","last_reported":1738699759,"current_range_meters":38800,"station_id":"ce4bhhh2rcd13ifvqfl0","pricing_plan_id":"cebpf4jnsgd1na2vs0mg"},{"bike_id":"c11b7b30-e92b-44c5-9523-5e4c86fb9eb1","system_id":"levelo_inurba_marseille","lat":43.29515,"lon":5.39381,"is_reserved":false,"is_disabled":false,"rental_uris":{"android":"levelo://app?vid=c11b7b30-e92b-44c5-9523-5e4c86fb9eb1","ios":"levelo://app?vid=c11b7b30-e92b-44c5-9523-5e4c86fb9eb1"},"vehicle_type_id":"4","last_reported":1738699759,"current_range_meters":21600,"station_id":"ce4bh292rcd13ifvqdf0","pricing_plan_id":"cebpf4jnsgd1na2vs0mg"},{"bike_id":"d8eeb025-0449-47cb-b3a2-8ed123939975","system_id":"levelo_inurba_marseille","lat":43.29183,"lon":5.35794,"is_reserved":false,"is_disabled":false,"rental_uris":{"android":"levelo://app?vid=d8eeb025-0449-47cb-b3a2-8ed123939975","ios":"levelo://app?vid=d8eeb025-0449-47cb-b3a2-8ed123939975"},"vehicle_type_id":"4","last_reported":1738699759,"current_range_meters":20800,"station_id":"ce4bhb12rcd13ifvqel0","pricing_plan_id":"cebpf4jnsgd1na2vs0mg"},{"bike_id":"f4ef016c-cbfb-48cf-accb-8018ca60ca37","system_id":"levelo_inurba_marseille","lat":43.29779,"lon":5.37095,"is_reserved":false,"is_disabled":false,"rental_uris":{"android":"levelo://app?vid=f4ef016c-cbfb-48cf-accb-8018ca60ca37","ios":"levelo://app?vid=f4ef016c-cbfb-48cf-accb-8018ca60ca37"},"vehicle_type_id":"4","last_reported":1738699759,"current_range_meters":28400,"station_id":"ce4bgop2rcd13ifvqc1g","pricing_plan_id":"cebpf4jnsgd1na2vs0mg"},{"bike_id":"eafb02c7-cce0-43a3-ad29-c4461944dfdb","system_id":"levelo_inurba_marseille","lat":43.29939,"lon":5.36545,"is_reserved":false,"is_disabled":false,"rental_uris":{"android":"levelo://app?vid=eafb02c7-cce0-43a3-ad29-c4461944dfdb","ios":"levelo://app?vid=eafb02c7-cce0-43a3-ad29-c4461944dfdb"},"vehicle_type_id":"4","last_reported":1738699759,"current_range_meters":10800,"station_id":"ce4bgm92rcd13ifvqbr0","pricing_plan_id":"cebpf4jnsgd1na2vs0mg"},{"bike_id":"18b3fa16-4d1f-4cb9-b6d7-b139c1de27b5","system_id":"levelo_inurba_marseille","lat":43.27491,"lon":5.42446,"is_reserved":false,"is_disabled":false,"rental_uris":{"android":"levelo://app?vid=18b3fa16-4d1f-4cb9-b6d7-b139c1de27b5","ios":"levelo://app?vid=18b3fa16-4d1f-4cb9-b6d7-b139c1de27b5"},"vehicle_type_id":"4","last_reported":1738699759,"current_range_meters":32800,"station_id":"ce4bhn92rcd13ifvqgrg","pricing_plan_id":"cebpf4jnsgd1na2vs0mg"},{"bike_id":"1ef98b06-35f8-42b6-b7b3-42b7ff981866","system_id":"levelo_inurba_marseille","lat":43.33022,"lon":5.39041,"is_reserved":false,"is_disabled":false,"rental_uris":{"android":"levelo://app?vid=1ef98b06-35f8-42b6-b7b3-42b7ff981866","ios":"levelo://app?vid=1ef98b06-35f8-42b6-b7b3-42b7ff981866"},"vehicle_type_id":"4","last_reported":1738699759,"current_range_meters":38800,"station_id":"ce4bhr92rcd13ifvqhrg","pricing_plan_id":"cebpf4jnsgd1na2vs0mg"},{"bike_id":"fd1935d5-14ef-4e5a-92cb-dc05a68a24ed","system_id":"levelo_inurba_marseille","lat":43.27895,"lon":5.38003,"is_reserved":false,"is_disabled":false,"rental_uris":{"android":"levelo://app?vid=fd1935d5-14ef-4e5a-92cb-dc05a68a24ed","ios":"levelo://app?vid=fd1935d5-14ef-4e5a-92cb-dc05a68a24ed"},"vehicle_type_id":"4","last_reported":1738699759,"current_range_meters":14400,"station_id":"ce4bhf92rcd13ifvqf50","pricing_plan_id":"cebpf4jnsgd1na2vs0mg"},{"bike_id":"a6849ea2-4bc2-446c-ae7e-aa28cf9173cf","system_id":"levelo_inurba_marseille","lat":43.31694,"lon":5.40467,"is_reserved":false,"is_disabled":false,"rental_uris":{"android":"levelo://app?vid=a6849ea2-4bc2-446c-ae7e-aa28cf9173cf","ios":"levelo://app?vid=a6849ea2-4bc2-446c-ae7e-aa28cf9173cf"},"vehicle_type_id":"4","last_reported":1738699759,"current_range_meters":38800,"station_id":"ce4bh012rcd13ifvqd00","pricing_plan_id":"cebpf4jnsgd1na2vs0mg"},{"bike_id":"28bb841b-94b3-4842-8d56-4fd8bc4ce1ed","system_id":"levelo_inurba_marseille","lat":43.24558,"lon":5.39519,"is_reserved":false,"is_disabled":false,"rental_uris":{"android":"levelo://app?vid=28bb841b-94b3-4842-8d56-4fd8bc4ce1ed","ios":"levelo://app?vid=28bb841b-94b3-4842-8d56-4fd8bc4ce1ed"},"vehicle_type_id":"4","last_reported":1738699759,"current_range_meters":10000,"station_id":"ce4bhlp2rcd13ifvqgjg","pricing_plan_id":"cebpf4jnsgd1na2vs0mg"},{"bike_id":"95aa3883-dcc3-41b6-a50a-a18203db6de0","system_id":"levelo_inurba_marseille","lat":43.26939,"lon":5.40244,"is_reserved":false,"is_disabled":false,"rental_uris":{"android":"levelo://app?vid=95aa3883-dcc3-41b6-a50a-a18203db6de0","ios":"levelo://app?vid=95aa3883-dcc3-41b6-a50a-a18203db6de0"},"vehicle_type_id":"4","last_reported":1738699759,"current_range_meters":32800,"station_id":"cjm6bp8fraef2m0cb0m0","pricing_plan_id":"cebpf4jnsgd1na2vs0mg"},{"bike_id":"c2bd934f-62f0-44c0-82bd-0dc4de43b191","system_id":"levelo_inurba_marseille","lat":43.29189,"lon":5.35802,"is_reserved":false,"is_disabled":false,"rental_uris":{"android":"levelo://app?vid=c2bd934f-62f0-44c0-82bd-0dc4de43b191","ios":"levelo://app?vid=c2bd934f-62f0-44c0-82bd-0dc4de43b191"},"vehicle_type_id":"4","last_reported":1738699759,"current_range_meters":38800,"station_id":"ce4bhb12rcd13ifvqel0","pricing_plan_id":"cebpf4jnsgd1na2vs0mg"},{"bike_id":"72a589cb-352b-4e5a-bb2d-0ebb767fc9c3","system_id":"levelo_inurba_marseille","lat":43.28666,"lon":5.36349,"is_reserved":false,"is_disabled":false,"rental_uris":{"android":"levelo://app?vid=72a589cb-352b-4e5a-bb2d-0ebb767fc9c3","ios":"levelo://app?vid=72a589cb-352b-4e5a-bb2d-0ebb767fc9c3"},"vehicle_type_id":"4","last_reported":1738699759,"current_range_meters":10000,"station_id":"ce4bhah2rcd13ifvqej0","pricing_plan_id":"cebpf4jnsgd1na2vs0mg"},{"bike_id":"4fc66d99-c9d0-4a35-b987-a30bb0cdc55b","system_id":"levelo_inurba_marseille","lat":43.2408,"lon":5.37755,"is_reserved":false,"is_disabled":false,"rental_uris":{"android":"levelo://app?vid=4fc66d99-c9d0-4a35-b987-a30bb0cdc55b","ios":"levelo://app?vid=4fc66d99-c9d0-4a35-b987-a30bb0cdc55b"},"vehicle_type_id":"4","last_reported":1738699759,"current_range_meters":38800,"station_id":"ce4bhnp2rcd13ifvqgvg","pricing_plan_id":"cebpf4jnsgd1na2vs0mg"},{"bike_id":"6a42d4d9-41b8-4e5f-b92c-a3c7d0915d93","system_id":"levelo_inurba_marseille","lat":43.28354,"lon":5.38102,"is_reserved":false,"is_disabled":false,"rental_uris":{"android":"levelo://app?vid=6a42d4d9-41b8-4e5f-b92c-a3c7d0915d93","ios":"levelo://app?vid=6a42d4d9-41b8-4e5f-b92c-a3c7d0915d93"},"vehicle_type_id":"4","last_reported":1738699759,"current_range_meters":38800,"station_id":"ce4bh412rcd13ifvqdr0","pricing_plan_id":"cebpf4jnsgd1na2vs0mg"},{"bike_id":"92d827f3-8471-4aa2-9f09-488bbb992f3b","system_id":"levelo_inurba_marseille","lat":43.29877,"lon":5.39727,"is_reserved":false,"is_disabled":false,"rental_uris":{"android":"levelo://app?vid=92d827f3-8471-4aa2-9f09-488bbb992f3b","ios":"levelo://app?vid=92d827f3-8471-4aa2-9f09-488bbb992f3b"},"vehicle_type_id":"4","last_reported":1738699759,"current_range_meters":35200,"station_id":"ce4bh0h2rcd13ifvqd50","pricing_plan_id":"cebpf4jnsgd1na2vs0mg"},{"bike_id":"24c81558-a4fc-41f0-ab38-d4fd715f211a","system_id":"levelo_inurba_marseille","lat":43.2782,"lon":5.40711,"is_reserved":false,"is_disabled":true,"rental_uris":{"android":"levelo://app?vid=24c81558-a4fc-41f0-ab38-d4fd715f211a","ios":"levelo://app?vid=24c81558-a4fc-41f0-ab38-d4fd715f211a"},"vehicle_type_id":"4","last_reported":1738699759,"current_range_meters":2000,"station_id":"ce4bhnh2rcd13ifvqgtg","pricing_plan_id":"cebpf4jnsgd1na2vs0mg"},{"bike_id":"3715074c-abae-4cb1-89a2-a358c27d9545","system_id":"levelo_inurba_marseille","lat":43.29593,"lon":5.3673,"is_reserved":false,"is_disabled":false,"rental_uris":{"android":"levelo://app?vid=3715074c-abae-4cb1-89a2-a358c27d9545","ios":"levelo://app?vid=3715074c-abae-4cb1-89a2-a358c27d9545"},"vehicle_type_id":"4","last_reported":1738699759,"current_range_meters":38000,"station_id":"ce4bgph2rcd13ifvqc2g","pricing_plan_id":"cebpf4jnsgd1na2vs0mg"},{"bike_id":"4dd4d20b-ede5-47d0-948d-cc2515eca781","system_id":"levelo_inurba_marseille","lat":43.31763,"lon":5.39006,"is_reserved":false,"is_disabled":true,"rental_uris":{"android":"levelo://app?vid=4dd4d20b-ede5-47d0-948d-cc2515eca781","ios":"levelo://app?vid=4dd4d20b-ede5-47d0-948d-cc2515eca781"},"vehicle_type_id":"4","last_reported":1738699759,"current_range_meters":32000,"station_id":"ce4bhqp2rcd13ifvqhng","pricing_plan_id":"cebpf4jnsgd1na2vs0mg"},{"bike_id":"38d5197c-53e9-4ed5-8c6c-9f20d291f067","system_id":"levelo_inurba_marseille","lat":43.2883,"lon":5.35844,"is_reserved":false,"is_disabled":false,"rental_uris":{"android":"levelo://app?vid=38d5197c-53e9-4ed5-8c6c-9f20d291f067","ios":"levelo://app?vid=38d5197c-53e9-4ed5-8c6c-9f20d291f067"},"vehicle_type_id":"4","last_reported":1738699759,"current_range_meters":38000,"station_id":"ce4bhb12rcd13ifvqem0","pricing_plan_id":"cebpf4jnsgd1na2vs0mg"},{"bike_id":"e99e3457-c4b1-4f04-b415-bf64e17c5b09","system_id":"levelo_inurba_marseille","lat":43.25748,"lon":5.41116,"is_reserved":false,"is_disabled":false,"rental_uris":{"android":"levelo://app?vid=e99e3457-c4b1-4f04-b415-bf64e17c5b09","ios":"levelo://app?vid=e99e3457-c4b1-4f04-b415-bf64e17c5b09"},"vehicle_type_id":"4","last_reported":1738699759,"current_range_meters":38800,"station_id":"ce4bhkp2rcd13ifvqgd0","pricing_plan_id":"cebpf4jnsgd1na2vs0mg"},{"bike_id":"4a5efbac-36ac-4037-8212-35b8608b5ebd","system_id":"levelo_inurba_marseille","lat":43.29258,"lon":5.40911,"is_reserved":false,"is_disabled":false,"rental_uris":{"android":"levelo://app?vid=4a5efbac-36ac-4037-8212-35b8608b5ebd","ios":"levelo://app?vid=4a5efbac-36ac-4037-8212-35b8608b5ebd"},"vehicle_type_id":"4","last_reported":1738699759,"current_range_meters":32400,"station_id":"ce4bh192rcd13ifvqdc0","pricing_plan_id":"cebpf4jnsgd1na2vs0mg"},{"bike_id":"ec5dd5cc-14c8-4b95-86d9-c96d037a3a2f","system_id":"levelo_inurba_marseille","lat":43.288533,"lon":5.358517,"is_reserved":false,"is_disabled":false,"rental_uris":{"android":"levelo://app?vid=ec5dd5cc-14c8-4b95-86d9-c96d037a3a2f","ios":"levelo://app?vid=ec5dd5cc-14c8-4b95-86d9-c96d037a3a2f"},"vehicle_type_id":"4","last_reported":1738699759,"current_range_meters":25200,"station_id":"ce4bhb12rcd13ifvqem0","pricing_plan_id":"cebpf4jnsgd1na2vs0mg"},{"bike_id":"d0c4da18-2769-443b-b9f6-8d6062be8386","system_id":"levelo_inurba_marseille","lat":43.31272,"lon":5.40155,"is_reserved":false,"is_disabled":false,"rental_uris":{"android":"levelo://app?vid=d0c4da18-2769-443b-b9f6-8d6062be8386","ios":"levelo://app?vid=d0c4da18-2769-443b-b9f6-8d6062be8386"},"vehicle_type_id":"4","last_reported":1738699759,"current_range_meters":38000,"station_id":"ce4bh092rcd13ifvqd30","pricing_plan_id":"cebpf4jnsgd1na2vs0mg"},{"bike_id":"b96a991c-d3d3-40ca-a1c5-06fc4d42b0ae","system_id":"levelo_inurba_marseille","lat":43.3087,"lon":5.39638,"is_reserved":false,"is_disabled":false,"rental_uris":{"android":"levelo://app?vid=b96a991c-d3d3-40ca-a1c5-06fc4d42b0ae","ios":"levelo://app?vid=b96a991c-d3d3-40ca-a1c5-06fc4d42b0ae"},"vehicle_type_id":"4","last_reported":1738699759,"current_range_meters":16400,"station_id":"ce4bh012rcd13ifvqcv0","pricing_plan_id":"cebpf4jnsgd1na2vs0mg"},{"bike_id":"88f6ec14-1047-428a-bfc8-ed7564b679d3","system_id":"levelo_inurba_marseille","lat":43.24391,"lon":5.37055,"is_reserved":false,"is_disabled":false,"rental_uris":{"android":"levelo://app?vid=88f6ec14-1047-428a-bfc8-ed7564b679d3","ios":"levelo://app?vid=88f6ec14-1047-428a-bfc8-ed7564b679d3"},"vehicle_type_id":"4","last_reported":1738699759,"current_range_meters":38400,"station_id":"ce4bhhh2rcd13ifvqfk0","pricing_plan_id":"cebpf4jnsgd1na2vs0mg"},{"bike_id":"3317b1e1-4340-47a6-8c76-0466e1be65b6","system_id":"levelo_inurba_marseille","lat":43.29574,"lon":5.37512,"is_reserved":false,"is_disabled":false,"rental_uris":{"android":"levelo://app?vid=3317b1e1-4340-47a6-8c76-0466e1be65b6","ios":"levelo://app?vid=3317b1e1-4340-47a6-8c76-0466e1be65b6"},"vehicle_type_id":"4","last_reported":1738699759,"current_range_meters":38800,"station_id":"ce4bgh92rcd13ifvqb50","pricing_plan_id":"cebpf4jnsgd1na2vs0mg"},{"bike_id":"3eb089a4-83c3-4e94-92de-84f6b7286420","system_id":"levelo_inurba_marseille","lat":43.28168,"lon":5.42642,"is_reserved":false,"is_disabled":false,"rental_uris":{"android":"levelo://app?vid=3eb089a4-83c3-4e94-92de-84f6b7286420","ios":"levelo://app?vid=3eb089a4-83c3-4e94-92de-84f6b7286420"},"vehicle_type_id":"4","last_reported":1738699759,"current_range_meters":13600,"station_id":"ce4bhnh2rcd13ifvqgug","pricing_plan_id":"cebpf4jnsgd1na2vs0mg"},{"bike_id":"0a9c1811-716f-45f6-b3cb-f672354356f7","system_id":"levelo_inurba_marseille","lat":43.30819,"lon":5.38172,"is_reserved":false,"is_disabled":false,"rental_uris":{"android":"levelo://app?vid=0a9c1811-716f-45f6-b3cb-f672354356f7","ios":"levelo://app?vid=0a9c1811-716f-45f6-b3cb-f672354356f7"},"vehicle_type_id":"4","last_reported":1738699759,"current_range_meters":36000,"station_id":"ce4bgt12rcd13ifvqce0","pricing_plan_id":"cebpf4jnsgd1na2vs0mg"},{"bike_id":"c3042c2f-3c6a-4234-8397-5c1813291621","system_id":"levelo_inurba_marseille","lat":43.3007,"lon":5.3883,"is_reserved":false,"is_disabled":true,"rental_uris":{"android":"levelo://app?vid=c3042c2f-3c6a-4234-8397-5c1813291621","ios":"levelo://app?vid=c3042c2f-3c6a-4234-8397-5c1813291621"},"vehicle_type_id":"4","last_reported":1738699759,"current_range_meters":0,"station_id":"","pricing_plan_id":"cebpf4jnsgd1na2vs0mg"},{"bike_id":"d2c4d607-cf3b-4fa3-83d6-3083a287879e","system_id":"levelo_inurba_marseille","lat":43.32065,"lon":5.41522,"is_reserved":false,"is_disabled":false,"rental_uris":{"android":"levelo://app?vid=d2c4d607-cf3b-4fa3-83d6-3083a287879e","ios":"levelo://app?vid=d2c4d607-cf3b-4fa3-83d6-3083a287879e"},"vehicle_type_id":"4","last_reported":1738699759,"current_range_meters":38800,"station_id":"ce4bhq92rcd13ifvqhkg","pricing_plan_id":"cebpf4jnsgd1na2vs0mg"},{"bike_id":"dcdc0f89-424b-480b-860a-becd402a3900","system_id":"levelo_inurba_marseille","lat":43.23961,"lon":5.36627,"is_reserved":false,"is_disabled":false,"rental_uris":{"android":"levelo://app?vid=dcdc0f89-424b-480b-860a-becd402a3900","ios":"levelo://app?vid=dcdc0f89-424b-480b-860a-becd402a3900"},"vehicle_type_id":"4","last_reported":1738699759,"current_range_meters":38400,"station_id":"ce4bhi12rcd13ifvqfp0","pricing_plan_id":"cebpf4jnsgd1na2vs0mg"},{"bike_id":"2e46ee8b-0d00-4804-914c-637fa04c114f","system_id":"levelo_inurba_marseille","lat":43.33025,"lon":5.39031,"is_reserved":false,"is_disabled":false,"rental_uris":{"android":"levelo://app?vid=2e46ee8b-0d00-4804-914c-637fa04c114f","ios":"levelo://app?vid=2e46ee8b-0d00-4804-914c-637fa04c114f"},"vehicle_type_id":"4","last_reported":1738699759,"current_range_meters":26800,"station_id":"ce4bhr92rcd13ifvqhrg","pricing_plan_id":"cebpf4jnsgd1na2vs0mg"},{"bike_id":"3894dca2-273b-40ed-8be2-d6f8dae96388","system_id":"levelo_inurba_marseille","lat":43.28612,"lon":5.35097,"is_reserved":false,"is_disabled":false,"rental_uris":{"android":"levelo://app?vid=3894dca2-273b-40ed-8be2-d6f8dae96388","ios":"levelo://app?vid=3894dca2-273b-40ed-8be2-d6f8dae96388"},"vehicle_type_id":"4","last_reported":1738699759,"current_range_meters":38400,"station_id":"ce4bhch2rcd13ifvqeug","pricing_plan_id":"cebpf4jnsgd1na2vs0mg"},{"bike_id":"03215b30-aa65-4b10-b451-ed50967ec88e","system_id":"levelo_inurba_marseille","lat":43.34444,"lon":5.35949,"is_reserved":false,"is_disabled":true,"rental_uris":{"android":"levelo://app?vid=03215b30-aa65-4b10-b451-ed50967ec88e","ios":"levelo://app?vid=03215b30-aa65-4b10-b451-ed50967ec88e"},"vehicle_type_id":"4","last_reported":1738699759,"current_range_meters":0,"station_id":"","pricing_plan_id":"cebpf4jnsgd1na2vs0mg"},{"bike_id":"92b36b43-547a-429b-8926-e74c330f69ba","system_id":"levelo_inurba_marseille","lat":43.29006,"lon":5.35612,"is_reserved":false,"is_disabled":false,"rental_uris":{"android":"levelo://app?vid=92b36b43-547a-429b-8926-e74c330f69ba","ios":"levelo://app?vid=92b36b43-547a-429b-8926-e74c330f69ba"},"vehicle_type_id":"4","last_reported":1738699759,"current_range_meters":7200,"station_id":"ce4bhb92rcd13ifvqen0","pricing_plan_id":"cebpf4jnsgd1na2vs0mg"},{"bike_id":"931c3b97-cce1-4ebe-a291-6c50a6f2810e","system_id":"levelo_inurba_marseille","lat":43.31798,"lon":5.37432,"is_reserved":false,"is_disabled":false,"rental_uris":{"android":"levelo://app?vid=931c3b97-cce1-4ebe-a291-6c50a6f2810e","ios":"levelo://app?vid=931c3b97-cce1-4ebe-a291-6c50a6f2810e"},"vehicle_type_id":"4","last_reported":1738699759,"current_range_meters":8800,"station_id":"","pricing_plan_id":"cebpf4jnsgd1na2vs0mg"},{"bike_id":"b2a41b6b-5781-4546-9b6c-28f26811de9e","system_id":"levelo_inurba_marseille","lat":43.29322,"lon":5.36867,"is_reserved":false,"is_disabled":false,"rental_uris":{"android":"levelo://app?vid=b2a41b6b-5781-4546-9b6c-28f26811de9e","ios":"levelo://app?vid=b2a41b6b-5781-4546-9b6c-28f26811de9e"},"vehicle_type_id":"4","last_reported":1738699759,"current_range_meters":30400,"station_id":"","pricing_plan_id":"cebpf4jnsgd1na2vs0mg"},{"bike_id":"d1d51ec2-e1ab-4b92-9a4b-f935b04ef436","system_id":"levelo_inurba_marseille","lat":43.25005,"lon":5.38909,"is_reserved":false,"is_disabled":false,"rental_uris":{"android":"levelo://app?vid=d1d51ec2-e1ab-4b92-9a4b-f935b04ef436","ios":"levelo://app?vid=d1d51ec2-e1ab-4b92-9a4b-f935b04ef436"},"vehicle_type_id":"4","last_reported":1738699759,"current_range_meters":23200,"station_id":"ce4bhgp2rcd13ifvqfd0","pricing_plan_id":"cebpf4jnsgd1na2vs0mg"},{"bike_id":"102b9f2d-4c9c-4720-8aef-3f4ab487e1a0","system_id":"levelo_inurba_marseille","lat":43.32356,"lon":5.38871,"is_reserved":false,"is_disabled":false,"rental_uris":{"android":"levelo://app?vid=102b9f2d-4c9c-4720-8aef-3f4ab487e1a0","ios":"levelo://app?vid=102b9f2d-4c9c-4720-8aef-3f4ab487e1a0"},"vehicle_type_id":"4","last_reported":1738699759,"current_range_meters":38800,"station_id":"ce4bhqp2rcd13ifvqhog","pricing_plan_id":"cebpf4jnsgd1na2vs0mg"},{"bike_id":"7a2080c9-d44a-471c-9acd-526428e8e5dc","system_id":"levelo_inurba_marseille","lat":43.22938,"lon":5.35379,"is_reserved":false,"is_disabled":false,"rental_uris":{"android":"levelo://app?vid=7a2080c9-d44a-471c-9acd-526428e8e5dc","ios":"levelo://app?vid=7a2080c9-d44a-471c-9acd-526428e8e5dc"},"vehicle_type_id":"4","last_reported":1738699759,"current_range_meters":38800,"station_id":"cpo3532slgdg3j2ikp40","pricing_plan_id":"cebpf4jnsgd1na2vs0mg"},{"bike_id":"8d32830c-34e5-42b2-8199-bd8081ed2f94","system_id":"levelo_inurba_marseille","lat":43.28846,"lon":5.39315,"is_reserved":false,"is_disabled":false,"rental_uris":{"android":"levelo://app?vid=8d32830c-34e5-42b2-8199-bd8081ed2f94","ios":"levelo://app?vid=8d32830c-34e5-42b2-8199-bd8081ed2f94"},"vehicle_type_id":"4","last_reported":1738699759,"current_range_meters":8400,"station_id":"ce4bh2p2rcd13ifvqdi0","pricing_plan_id":"cebpf4jnsgd1na2vs0mg"},{"bike_id":"3cffe561-5575-4d5f-9a3c-4ee740a5b122","system_id":"levelo_inurba_marseille","lat":43.27959,"lon":5.41031,"is_reserved":false,"is_disabled":false,"rental_uris":{"android":"levelo://app?vid=3cffe561-5575-4d5f-9a3c-4ee740a5b122","ios":"levelo://app?vid=3cffe561-5575-4d5f-9a3c-4ee740a5b122"},"vehicle_type_id":"4","last_reported":1738699759,"current_range_meters":26800,"station_id":"ce4bhnp2rcd13ifvqh0g","pricing_plan_id":"cebpf4jnsgd1na2vs0mg"},{"bike_id":"66a85188-fcbb-4fb9-b08a-664f02d6f332","system_id":"levelo_inurba_marseille","lat":43.32653,"lon":5.40998,"is_reserved":false,"is_disabled":false,"rental_uris":{"android":"levelo://app?vid=66a85188-fcbb-4fb9-b08a-664f02d6f332","ios":"levelo://app?vid=66a85188-fcbb-4fb9-b08a-664f02d6f332"},"vehicle_type_id":"4","last_reported":1738699759,"current_range_meters":38800,"station_id":"ce4bhpp2rcd13ifvqhgg","pricing_plan_id":"cebpf4jnsgd1na2vs0mg"},{"bike_id":"f307dfc9-492f-427c-886b-0aebd0c4a217","system_id":"levelo_inurba_marseille","lat":43.24169,"lon":5.36399,"is_reserved":false,"is_disabled":false,"rental_uris":{"android":"levelo://app?vid=f307dfc9-492f-427c-886b-0aebd0c4a217","ios":"levelo://app?vid=f307dfc9-492f-427c-886b-0aebd0c4a217"},"vehicle_type_id":"4","last_reported":1738699759,"current_range_meters":11600,"station_id":"cpo36qri1sfpv3e86is0","pricing_plan_id":"cebpf4jnsgd1na2vs0mg"},{"bike_id":"f50b9a50-473c-48a2-b6a9-18e10791b426","system_id":"levelo_inurba_marseille","lat":43.30937,"lon":5.40149,"is_reserved":false,"is_disabled":false,"rental_uris":{"android":"levelo://app?vid=f50b9a50-473c-48a2-b6a9-18e10791b426","ios":"levelo://app?vid=f50b9a50-473c-48a2-b6a9-18e10791b426"},"vehicle_type_id":"4","last_reported":1738699759,"current_range_meters":38800,"station_id":"ce4bgvp2rcd13ifvqct0","pricing_plan_id":"cebpf4jnsgd1na2vs0mg"},{"bike_id":"460fae2a-70b6-4a0e-8375-e824dee569df","system_id":"levelo_inurba_marseille","lat":43.2942,"lon":5.38634,"is_reserved":false,"is_disabled":false,"rental_uris":{"android":"levelo://app?vid=460fae2a-70b6-4a0e-8375-e824dee569df","ios":"levelo://app?vid=460fae2a-70b6-4a0e-8375-e824dee569df"},"vehicle_type_id":"4","last_reported":1738699759,"current_range_meters":27200,"station_id":"ce4bh2h2rcd13ifvqdh0","pricing_plan_id":"cebpf4jnsgd1na2vs0mg"},{"bike_id":"bb958d15-8809-4790-be5a-987fb8ffdbdf","system_id":"levelo_inurba_marseille","lat":43.30133,"lon":5.38775,"is_reserved":false,"is_disabled":false,"rental_uris":{"android":"levelo://app?vid=bb958d15-8809-4790-be5a-987fb8ffdbdf","ios":"levelo://app?vid=bb958d15-8809-4790-be5a-987fb8ffdbdf"},"vehicle_type_id":"4","last_reported":1738699759,"current_range_meters":38400,"station_id":"ce4bghh2rcd13ifvqb60","pricing_plan_id":"cebpf4jnsgd1na2vs0mg"},{"bike_id":"21f4376e-937b-4923-a7c4-5a27242f5903","system_id":"levelo_inurba_marseille","lat":43.24067,"lon":5.37743,"is_reserved":false,"is_disabled":false,"rental_uris":{"android":"levelo://app?vid=21f4376e-937b-4923-a7c4-5a27242f5903","ios":"levelo://app?vid=21f4376e-937b-4923-a7c4-5a27242f5903"},"vehicle_type_id":"4","last_reported":1738699759,"current_range_meters":4800,"station_id":"ce4bhnp2rcd13ifvqgvg","pricing_plan_id":"cebpf4jnsgd1na2vs0mg"},{"bike_id":"43784456-3d29-412e-8227-794ace361614","system_id":"levelo_inurba_marseille","lat":43.31173,"lon":5.38727,"is_reserved":false,"is_disabled":false,"rental_uris":{"android":"levelo://app?vid=43784456-3d29-412e-8227-794ace361614","ios":"levelo://app?vid=43784456-3d29-412e-8227-794ace361614"},"vehicle_type_id":"4","last_reported":1738699759,"current_range_meters":20400,"station_id":"ce4bgv12rcd13ifvqcp0","pricing_plan_id":"cebpf4jnsgd1na2vs0mg"},{"bike_id":"6dfe34ee-89dc-4687-a40b-bb003e3c18c6","system_id":"levelo_inurba_marseille","lat":43.28095,"lon":5.37849,"is_reserved":false,"is_disabled":true,"rental_uris":{"android":"levelo://app?vid=6dfe34ee-89dc-4687-a40b-bb003e3c18c6","ios":"levelo://app?vid=6dfe34ee-89dc-4687-a40b-bb003e3c18c6"},"vehicle_type_id":"4","last_reported":1738699759,"current_range_meters":15200,"station_id":"ce4bha12rcd13ifvqee0","pricing_plan_id":"cebpf4jnsgd1na2vs0mg"},{"bike_id":"8e0a0553-d4ce-4a58-bdf9-cddf2b79af95","system_id":"levelo_inurba_marseille","lat":43.27995,"lon":5.39992,"is_reserved":false,"is_disabled":true,"rental_uris":{"android":"levelo://app?vid=8e0a0553-d4ce-4a58-bdf9-cddf2b79af95","ios":"levelo://app?vid=8e0a0553-d4ce-4a58-bdf9-cddf2b79af95"},"vehicle_type_id":"4","last_reported":1738699759,"current_range_meters":2000,"station_id":"ce4bho92rcd13ifvqh4g","pricing_plan_id":"cebpf4jnsgd1na2vs0mg"},{"bike_id":"4b7b6cfe-f9d9-4680-8294-e32eb1a1477e","system_id":"levelo_inurba_marseille","lat":43.29624,"lon":5.40595,"is_reserved":false,"is_disabled":false,"rental_uris":{"android":"levelo://app?vid=4b7b6cfe-f9d9-4680-8294-e32eb1a1477e","ios":"levelo://app?vid=4b7b6cfe-f9d9-4680-8294-e32eb1a1477e"},"vehicle_type_id":"4","last_reported":1738699759,"current_range_meters":33200,"station_id":"ce4bh0h2rcd13ifvqd60","pricing_plan_id":"cebpf4jnsgd1na2vs0mg"},{"bike_id":"4aab5f6d-fa51-4980-b027-491c58f7f391","system_id":"levelo_inurba_marseille","lat":43.28613,"lon":5.35101,"is_reserved":false,"is_disabled":false,"rental_uris":{"android":"levelo://app?vid=4aab5f6d-fa51-4980-b027-491c58f7f391","ios":"levelo://app?vid=4aab5f6d-fa51-4980-b027-491c58f7f391"},"vehicle_type_id":"4","last_reported":1738699759,"current_range_meters":6400,"station_id":"ce4bhch2rcd13ifvqeug","pricing_plan_id":"cebpf4jnsgd1na2vs0mg"},{"bike_id":"6d60913d-cc26-4ecc-b494-5bb2f9b2ea83","system_id":"levelo_inurba_marseille","lat":43.299,"lon":5.43661,"is_reserved":false,"is_disabled":false,"rental_uris":{"android":"levelo://app?vid=6d60913d-cc26-4ecc-b494-5bb2f9b2ea83","ios":"levelo://app?vid=6d60913d-cc26-4ecc-b494-5bb2f9b2ea83"},"vehicle_type_id":"4","last_reported":1738699759,"current_range_meters":38800,"station_id":"ce4bhpp2rcd13ifvqhfg","pricing_plan_id":"cebpf4jnsgd1na2vs0mg"},{"bike_id":"2fed9ba3-3909-423b-8e60-69abd9978d73","system_id":"levelo_inurba_marseille","lat":43.26809,"lon":5.40277,"is_reserved":false,"is_disabled":false,"rental_uris":{"android":"levelo://app?vid=2fed9ba3-3909-423b-8e60-69abd9978d73","ios":"levelo://app?vid=2fed9ba3-3909-423b-8e60-69abd9978d73"},"vehicle_type_id":"4","last_reported":1738699759,"current_range_meters":38800,"station_id":"ce501612rcd8frsf0b60","pricing_plan_id":"cebpf4jnsgd1na2vs0mg"},{"bike_id":"7d5a4724-5684-460d-941f-32e024b5a6bf","system_id":"levelo_inurba_marseille","lat":43.30102,"lon":5.39075,"is_reserved":false,"is_disabled":false,"rental_uris":{"android":"levelo://app?vid=7d5a4724-5684-460d-941f-32e024b5a6bf","ios":"levelo://app?vid=7d5a4724-5684-460d-941f-32e024b5a6bf"},"vehicle_type_id":"4","last_reported":1738699759,"current_range_meters":10000,"station_id":"ce4bh192rcd13ifvqdb0","pricing_plan_id":"cebpf4jnsgd1na2vs0mg"},{"bike_id":"7d94b587-e333-42e2-a4fa-216e5512865a","system_id":"levelo_inurba_marseille","lat":43.28862,"lon":5.3932,"is_reserved":false,"is_disabled":false,"rental_uris":{"android":"levelo://app?vid=7d94b587-e333-42e2-a4fa-216e5512865a","ios":"levelo://app?vid=7d94b587-e333-42e2-a4fa-216e5512865a"},"vehicle_type_id":"4","last_reported":1738699759,"current_range_meters":6400,"station_id":"ce4bh2p2rcd13ifvqdi0","pricing_plan_id":"cebpf4jnsgd1na2vs0mg"},{"bike_id":"fb1830e2-f6fc-4fde-afda-8615e8ed9c4a","system_id":"levelo_inurba_marseille","lat":43.26199,"lon":5.37451,"is_reserved":false,"is_disabled":false,"rental_uris":{"android":"levelo://app?vid=fb1830e2-f6fc-4fde-afda-8615e8ed9c4a","ios":"levelo://app?vid=fb1830e2-f6fc-4fde-afda-8615e8ed9c4a"},"vehicle_type_id":"4","last_reported":1738699759,"current_range_meters":8400,"station_id":"ce4bhgp2rcd13ifvqfc0","pricing_plan_id":"cebpf4jnsgd1na2vs0mg"},{"bike_id":"415af6c8-d0c8-4dbd-b207-82899e48044a","system_id":"levelo_inurba_marseille","lat":43.25108,"lon":5.40318,"is_reserved":false,"is_disabled":false,"rental_uris":{"android":"levelo://app?vid=415af6c8-d0c8-4dbd-b207-82899e48044a","ios":"levelo://app?vid=415af6c8-d0c8-4dbd-b207-82899e48044a"},"vehicle_type_id":"4","last_reported":1738699759,"current_range_meters":38400,"station_id":"ce4bhlh2rcd13ifvqgig","pricing_plan_id":"cebpf4jnsgd1na2vs0mg"},{"bike_id":"3ab1203a-982f-4f13-b6b3-60931ce191ca","system_id":"levelo_inurba_marseille","lat":43.29598,"lon":5.37706,"is_reserved":false,"is_disabled":false,"rental_uris":{"android":"levelo://app?vid=3ab1203a-982f-4f13-b6b3-60931ce191ca","ios":"levelo://app?vid=3ab1203a-982f-4f13-b6b3-60931ce191ca"},"vehicle_type_id":"4","last_reported":1738699759,"current_range_meters":24000,"station_id":"ce4bgi92rcd13ifvqb90","pricing_plan_id":"cebpf4jnsgd1na2vs0mg"},{"bike_id":"6e7c1ac2-e791-43c7-8c36-9db37854d07d","system_id":"levelo_inurba_marseille","lat":43.28627,"lon":5.3509,"is_reserved":false,"is_disabled":true,"rental_uris":{"android":"levelo://app?vid=6e7c1ac2-e791-43c7-8c36-9db37854d07d","ios":"levelo://app?vid=6e7c1ac2-e791-43c7-8c36-9db37854d07d"},"vehicle_type_id":"4","last_reported":1738699759,"current_range_meters":24800,"station_id":"ce4bhch2rcd13ifvqeug","pricing_plan_id":"cebpf4jnsgd1na2vs0mg"},{"bike_id":"2b52254f-933d-4903-ac07-21eb27a1e798","system_id":"levelo_inurba_marseille","lat":43.27194,"lon":5.40994,"is_reserved":false,"is_disabled":false,"rental_uris":{"android":"levelo://app?vid=2b52254f-933d-4903-ac07-21eb27a1e798","ios":"levelo://app?vid=2b52254f-933d-4903-ac07-21eb27a1e798"},"vehicle_type_id":"4","last_reported":1738699759,"current_range_meters":8400,"station_id":"ce4bhl12rcd13ifvqgf0","pricing_plan_id":"cebpf4jnsgd1na2vs0mg"},{"bike_id":"1418b524-1535-4478-a5d6-289886b7efa0","system_id":"levelo_inurba_marseille","lat":43.28151,"lon":5.42637,"is_reserved":false,"is_disabled":false,"rental_uris":{"android":"levelo://app?vid=1418b524-1535-4478-a5d6-289886b7efa0","ios":"levelo://app?vid=1418b524-1535-4478-a5d6-289886b7efa0"},"vehicle_type_id":"4","last_reported":1738699759,"current_range_meters":38800,"station_id":"ce4bhnh2rcd13ifvqgug","pricing_plan_id":"cebpf4jnsgd1na2vs0mg"},{"bike_id":"42b83219-1050-4c91-9690-f23f52370e75","system_id":"levelo_inurba_marseille","lat":43.31535,"lon":5.3803,"is_reserved":false,"is_disabled":false,"rental_uris":{"android":"levelo://app?vid=42b83219-1050-4c91-9690-f23f52370e75","ios":"levelo://app?vid=42b83219-1050-4c91-9690-f23f52370e75"},"vehicle_type_id":"4","last_reported":1738699759,"current_range_meters":11200,"station_id":"ce4bhsp2rcd13ifvqi50","pricing_plan_id":"cebpf4jnsgd1na2vs0mg"},{"bike_id":"9b71e329-f58f-4038-b3a1-ec2921912ecf","system_id":"levelo_inurba_marseille","lat":43.28759,"lon":5.36115,"is_reserved":false,"is_disabled":false,"rental_uris":{"android":"levelo://app?vid=9b71e329-f58f-4038-b3a1-ec2921912ecf","ios":"levelo://app?vid=9b71e329-f58f-4038-b3a1-ec2921912ecf"},"vehicle_type_id":"4","last_reported":1738699759,"current_range_meters":22400,"station_id":"cki0cbj6b192h4jlfktg","pricing_plan_id":"cebpf4jnsgd1na2vs0mg"},{"bike_id":"0b46e426-0611-4237-8378-b472bae6b4b2","system_id":"levelo_inurba_marseille","lat":43.29255,"lon":5.38436,"is_reserved":false,"is_disabled":false,"rental_uris":{"android":"levelo://app?vid=0b46e426-0611-4237-8378-b472bae6b4b2","ios":"levelo://app?vid=0b46e426-0611-4237-8378-b472bae6b4b2"},"vehicle_type_id":"4","last_reported":1738699759,"current_range_meters":38400,"station_id":"ce4bh692rcd13ifvqea0","pricing_plan_id":"cebpf4jnsgd1na2vs0mg"},{"bike_id":"d7e70dc9-0697-4281-99ee-ba5da2e99695","system_id":"levelo_inurba_marseille","lat":43.28947,"lon":5.36393,"is_reserved":false,"is_disabled":false,"rental_uris":{"android":"levelo://app?vid=d7e70dc9-0697-4281-99ee-ba5da2e99695","ios":"levelo://app?vid=d7e70dc9-0697-4281-99ee-ba5da2e99695"},"vehicle_type_id":"4","last_reported":1738699759,"current_range_meters":38800,"station_id":"ce4bhc92rcd13ifvqetg","pricing_plan_id":"cebpf4jnsgd1na2vs0mg"},{"bike_id":"656e48f2-f701-4f18-b1fb-b3bd707e50c7","system_id":"levelo_inurba_marseille","lat":43.28848,"lon":5.39318,"is_reserved":false,"is_disabled":false,"rental_uris":{"android":"levelo://app?vid=656e48f2-f701-4f18-b1fb-b3bd707e50c7","ios":"levelo://app?vid=656e48f2-f701-4f18-b1fb-b3bd707e50c7"},"vehicle_type_id":"4","last_reported":1738699759,"current_range_meters":38800,"station_id":"ce4bh2p2rcd13ifvqdi0","pricing_plan_id":"cebpf4jnsgd1na2vs0mg"},{"bike_id":"b336a88a-95aa-4ced-a894-e93bccfe175a","system_id":"levelo_inurba_marseille","lat":43.29262,"lon":5.38434,"is_reserved":false,"is_disabled":false,"rental_uris":{"android":"levelo://app?vid=b336a88a-95aa-4ced-a894-e93bccfe175a","ios":"levelo://app?vid=b336a88a-95aa-4ced-a894-e93bccfe175a"},"vehicle_type_id":"4","last_reported":1738699759,"current_range_meters":18800,"station_id":"ce4bh692rcd13ifvqea0","pricing_plan_id":"cebpf4jnsgd1na2vs0mg"},{"bike_id":"48bdafae-3aa5-46cb-a5a5-f7bcfa64262b","system_id":"levelo_inurba_marseille","lat":43.25591,"lon":5.38249,"is_reserved":false,"is_disabled":false,"rental_uris":{"android":"levelo://app?vid=48bdafae-3aa5-46cb-a5a5-f7bcfa64262b","ios":"levelo://app?vid=48bdafae-3aa5-46cb-a5a5-f7bcfa64262b"},"vehicle_type_id":"4","last_reported":1738699759,"current_range_meters":4800,"station_id":"ce4bhih2rcd13ifvqfs0","pricing_plan_id":"cebpf4jnsgd1na2vs0mg"},{"bike_id":"4a45878b-7b66-4c07-bb6e-71c8f083ef43","system_id":"levelo_inurba_marseille","lat":43.30787,"lon":5.37635,"is_reserved":false,"is_disabled":false,"rental_uris":{"android":"levelo://app?vid=4a45878b-7b66-4c07-bb6e-71c8f083ef43","ios":"levelo://app?vid=4a45878b-7b66-4c07-bb6e-71c8f083ef43"},"vehicle_type_id":"4","last_reported":1738699759,"current_range_meters":16400,"station_id":"ce4bgv92rcd13ifvqcq0","pricing_plan_id":"cebpf4jnsgd1na2vs0mg"},{"bike_id":"cb423099-cf7b-43bd-b91c-33d292327889","system_id":"levelo_inurba_marseille","lat":43.31275,"lon":5.40155,"is_reserved":false,"is_disabled":false,"rental_uris":{"android":"levelo://app?vid=cb423099-cf7b-43bd-b91c-33d292327889","ios":"levelo://app?vid=cb423099-cf7b-43bd-b91c-33d292327889"},"vehicle_type_id":"4","last_reported":1738699759,"current_range_meters":38800,"station_id":"ce4bh092rcd13ifvqd30","pricing_plan_id":"cebpf4jnsgd1na2vs0mg"},{"bike_id":"26d397a9-61ee-400d-a6b0-dc8b026ea3e4","system_id":"levelo_inurba_marseille","lat":43.29624,"lon":5.37152,"is_reserved":false,"is_disabled":false,"rental_uris":{"android":"levelo://app?vid=26d397a9-61ee-400d-a6b0-dc8b026ea3e4","ios":"levelo://app?vid=26d397a9-61ee-400d-a6b0-dc8b026ea3e4"},"vehicle_type_id":"4","last_reported":1738699759,"current_range_meters":33600,"station_id":"ce4bgnh2rcd13ifvqc0g","pricing_plan_id":"cebpf4jnsgd1na2vs0mg"},{"bike_id":"b8403442-0d67-4e20-befe-06c81ba961f5","system_id":"levelo_inurba_marseille","lat":43.3189,"lon":5.40727,"is_reserved":false,"is_disabled":false,"rental_uris":{"android":"levelo://app?vid=b8403442-0d67-4e20-befe-06c81ba961f5","ios":"levelo://app?vid=b8403442-0d67-4e20-befe-06c81ba961f5"},"vehicle_type_id":"4","last_reported":1738699759,"current_range_meters":37600,"station_id":"ce4bhq12rcd13ifvqhig","pricing_plan_id":"cebpf4jnsgd1na2vs0mg"},{"bike_id":"712d0a14-a917-44ba-b26a-1a57cb2bf711","system_id":"levelo_inurba_marseille","lat":43.27976,"lon":5.38742,"is_reserved":false,"is_disabled":false,"rental_uris":{"android":"levelo://app?vid=712d0a14-a917-44ba-b26a-1a57cb2bf711","ios":"levelo://app?vid=712d0a14-a917-44ba-b26a-1a57cb2bf711"},"vehicle_type_id":"4","last_reported":1738699759,"current_range_meters":12800,"station_id":"ce4bhg12rcd13ifvqf80","pricing_plan_id":"cebpf4jnsgd1na2vs0mg"},{"bike_id":"5fba90fb-e993-4d8f-99e0-53f38203668f","system_id":"levelo_inurba_marseille","lat":43.23179,"lon":5.39976,"is_reserved":false,"is_disabled":false,"rental_uris":{"android":"levelo://app?vid=5fba90fb-e993-4d8f-99e0-53f38203668f","ios":"levelo://app?vid=5fba90fb-e993-4d8f-99e0-53f38203668f"},"vehicle_type_id":"4","last_reported":1738699759,"current_range_meters":25600,"station_id":"ce4bhn12rcd13ifvqgqg","pricing_plan_id":"cebpf4jnsgd1na2vs0mg"},{"bike_id":"018b2f79-867a-4d69-aab0-76d5f9d05f4b","system_id":"levelo_inurba_marseille","lat":43.31111,"lon":5.37765,"is_reserved":false,"is_disabled":false,"rental_uris":{"android":"levelo://app?vid=018b2f79-867a-4d69-aab0-76d5f9d05f4b","ios":"levelo://app?vid=018b2f79-867a-4d69-aab0-76d5f9d05f4b"},"vehicle_type_id":"4","last_reported":1738699759,"current_range_meters":6800,"station_id":"ce4bgt92rcd13ifvqcg0","pricing_plan_id":"cebpf4jnsgd1na2vs0mg"},{"bike_id":"a9ee38d0-21e8-4d99-8e3f-cc643e32473e","system_id":"levelo_inurba_marseille","lat":43.27824,"lon":5.40719,"is_reserved":false,"is_disabled":false,"rental_uris":{"android":"levelo://app?vid=a9ee38d0-21e8-4d99-8e3f-cc643e32473e","ios":"levelo://app?vid=a9ee38d0-21e8-4d99-8e3f-cc643e32473e"},"vehicle_type_id":"4","last_reported":1738699759,"current_range_meters":38800,"station_id":"ce4bhnh2rcd13ifvqgtg","pricing_plan_id":"cebpf4jnsgd1na2vs0mg"},{"bike_id":"9d21aa1b-735b-43dd-8f21-2e0efae80eea","system_id":"levelo_inurba_marseille","lat":43.29295,"lon":5.36847,"is_reserved":false,"is_disabled":false,"rental_uris":{"android":"levelo://app?vid=9d21aa1b-735b-43dd-8f21-2e0efae80eea","ios":"levelo://app?vid=9d21aa1b-735b-43dd-8f21-2e0efae80eea"},"vehicle_type_id":"4","last_reported":1738699759,"current_range_meters":18800,"station_id":"ce4bhbp2rcd13ifvqesg","pricing_plan_id":"cebpf4jnsgd1na2vs0mg"},{"bike_id":"630dd466-e4dd-4ada-8a39-01e92abf0818","system_id":"levelo_inurba_marseille","lat":43.26205,"lon":5.37451,"is_reserved":false,"is_disabled":false,"rental_uris":{"android":"levelo://app?vid=630dd466-e4dd-4ada-8a39-01e92abf0818","ios":"levelo://app?vid=630dd466-e4dd-4ada-8a39-01e92abf0818"},"vehicle_type_id":"4","last_reported":1738699759,"current_range_meters":32400,"station_id":"ce4bhgp2rcd13ifvqfc0","pricing_plan_id":"cebpf4jnsgd1na2vs0mg"},{"bike_id":"f779db68-aedd-4173-aeff-fae293c6e2c1","system_id":"levelo_inurba_marseille","lat":43.29418,"lon":5.38623,"is_reserved":false,"is_disabled":false,"rental_uris":{"android":"levelo://app?vid=f779db68-aedd-4173-aeff-fae293c6e2c1","ios":"levelo://app?vid=f779db68-aedd-4173-aeff-fae293c6e2c1"},"vehicle_type_id":"4","last_reported":1738699759,"current_range_meters":25200,"station_id":"ce4bh2h2rcd13ifvqdh0","pricing_plan_id":"cebpf4jnsgd1na2vs0mg"},{"bike_id":"4ffeb753-2923-4719-bb03-5fab9bc45689","system_id":"levelo_inurba_marseille","lat":43.30309,"lon":5.36891,"is_reserved":false,"is_disabled":false,"rental_uris":{"android":"levelo://app?vid=4ffeb753-2923-4719-bb03-5fab9bc45689","ios":"levelo://app?vid=4ffeb753-2923-4719-bb03-5fab9bc45689"},"vehicle_type_id":"4","last_reported":1738699759,"current_range_meters":36400,"station_id":"ce4bgqh2rcd13ifvqc5g","pricing_plan_id":"cebpf4jnsgd1na2vs0mg"},{"bike_id":"3034d64e-f78e-468c-b4d6-2520a053438f","system_id":"levelo_inurba_marseille","lat":43.23186,"lon":5.4,"is_reserved":false,"is_disabled":false,"rental_uris":{"android":"levelo://app?vid=3034d64e-f78e-468c-b4d6-2520a053438f","ios":"levelo://app?vid=3034d64e-f78e-468c-b4d6-2520a053438f"},"vehicle_type_id":"4","last_reported":1738699759,"current_range_meters":38400,"station_id":"ce4bhn12rcd13ifvqgqg","pricing_plan_id":"cebpf4jnsgd1na2vs0mg"},{"bike_id":"53bba524-cb70-4f62-87ef-1436aebcbbc7","system_id":"levelo_inurba_marseille","lat":43.30187,"lon":5.36622,"is_reserved":false,"is_disabled":false,"rental_uris":{"android":"levelo://app?vid=53bba524-cb70-4f62-87ef-1436aebcbbc7","ios":"levelo://app?vid=53bba524-cb70-4f62-87ef-1436aebcbbc7"},"vehicle_type_id":"4","last_reported":1738699759,"current_range_meters":36800,"station_id":"ce4bgrh2rcd13ifvqc8g","pricing_plan_id":"cebpf4jnsgd1na2vs0mg"},{"bike_id":"0444d04a-5ddc-4adb-90fc-b1be829b71a2","system_id":"levelo_inurba_marseille","lat":43.31274,"lon":5.40168,"is_reserved":false,"is_disabled":false,"rental_uris":{"android":"levelo://app?vid=0444d04a-5ddc-4adb-90fc-b1be829b71a2","ios":"levelo://app?vid=0444d04a-5ddc-4adb-90fc-b1be829b71a2"},"vehicle_type_id":"4","last_reported":1738699759,"current_range_meters":38000,"station_id":"ce4bh092rcd13ifvqd30","pricing_plan_id":"cebpf4jnsgd1na2vs0mg"},{"bike_id":"70eec59f-8e5c-4c4a-8440-79555df8ea8f","system_id":"levelo_inurba_marseille","lat":43.290055,"lon":5.356125,"is_reserved":false,"is_disabled":true,"rental_uris":{"android":"levelo://app?vid=70eec59f-8e5c-4c4a-8440-79555df8ea8f","ios":"levelo://app?vid=70eec59f-8e5c-4c4a-8440-79555df8ea8f"},"vehicle_type_id":"4","last_reported":1738699759,"current_range_meters":14800,"station_id":"ce4bhb92rcd13ifvqen0","pricing_plan_id":"cebpf4jnsgd1na2vs0mg"},{"bike_id":"e1fd63af-2ded-46aa-b95c-acb582af5c06","system_id":"levelo_inurba_marseille","lat":43.28736,"lon":5.39984,"is_reserved":false,"is_disabled":true,"rental_uris":{"android":"levelo://app?vid=e1fd63af-2ded-46aa-b95c-acb582af5c06","ios":"levelo://app?vid=e1fd63af-2ded-46aa-b95c-acb582af5c06"},"vehicle_type_id":"4","last_reported":1738699759,"current_range_meters":0,"station_id":"ce4bho92rcd13ifvqh3g","pricing_plan_id":"cebpf4jnsgd1na2vs0mg"},{"bike_id":"20de9799-2902-417f-84ad-6df719661716","system_id":"levelo_inurba_marseille","lat":43.31117,"lon":5.37774,"is_reserved":false,"is_disabled":false,"rental_uris":{"android":"levelo://app?vid=20de9799-2902-417f-84ad-6df719661716","ios":"levelo://app?vid=20de9799-2902-417f-84ad-6df719661716"},"vehicle_type_id":"4","last_reported":1738699759,"current_range_meters":36800,"station_id":"ce4bgt92rcd13ifvqcg0","pricing_plan_id":"cebpf4jnsgd1na2vs0mg"},{"bike_id":"b09ebd01-c975-4878-ac0b-8fd11b1739f7","system_id":"levelo_inurba_marseille","lat":43.28166,"lon":5.42688,"is_reserved":false,"is_disabled":false,"rental_uris":{"android":"levelo://app?vid=b09ebd01-c975-4878-ac0b-8fd11b1739f7","ios":"levelo://app?vid=b09ebd01-c975-4878-ac0b-8fd11b1739f7"},"vehicle_type_id":"4","last_reported":1738699759,"current_range_meters":14800,"station_id":"ce4bhnh2rcd13ifvqgug","pricing_plan_id":"cebpf4jnsgd1na2vs0mg"},{"bike_id":"8c802598-d30c-4f7f-a5d2-9d43932522c0","system_id":"levelo_inurba_marseille","lat":43.31528,"lon":5.38025,"is_reserved":false,"is_disabled":false,"rental_uris":{"android":"levelo://app?vid=8c802598-d30c-4f7f-a5d2-9d43932522c0","ios":"levelo://app?vid=8c802598-d30c-4f7f-a5d2-9d43932522c0"},"vehicle_type_id":"4","last_reported":1738699759,"current_range_meters":38800,"station_id":"ce4bhsp2rcd13ifvqi50","pricing_plan_id":"cebpf4jnsgd1na2vs0mg"},{"bike_id":"73b584a8-c9f2-41cc-9079-90745f05800b","system_id":"levelo_inurba_marseille","lat":43.301,"lon":5.3907,"is_reserved":false,"is_disabled":false,"rental_uris":{"android":"levelo://app?vid=73b584a8-c9f2-41cc-9079-90745f05800b","ios":"levelo://app?vid=73b584a8-c9f2-41cc-9079-90745f05800b"},"vehicle_type_id":"4","last_reported":1738699759,"current_range_meters":38400,"station_id":"ce4bh192rcd13ifvqdb0","pricing_plan_id":"cebpf4jnsgd1na2vs0mg"},{"bike_id":"a7dc0848-081a-4438-bce6-7e161a91f066","system_id":"levelo_inurba_marseille","lat":43.28154,"lon":5.42641,"is_reserved":false,"is_disabled":false,"rental_uris":{"android":"levelo://app?vid=a7dc0848-081a-4438-bce6-7e161a91f066","ios":"levelo://app?vid=a7dc0848-081a-4438-bce6-7e161a91f066"},"vehicle_type_id":"4","last_reported":1738699759,"current_range_meters":33200,"station_id":"ce4bhnh2rcd13ifvqgug","pricing_plan_id":"cebpf4jnsgd1na2vs0mg"},{"bike_id":"537d148d-4101-4c2e-81be-eedbb9188f59","system_id":"levelo_inurba_marseille","lat":43.26192,"lon":5.37441,"is_reserved":false,"is_disabled":false,"rental_uris":{"android":"levelo://app?vid=537d148d-4101-4c2e-81be-eedbb9188f59","ios":"levelo://app?vid=537d148d-4101-4c2e-81be-eedbb9188f59"},"vehicle_type_id":"4","last_reported":1738699759,"current_range_meters":32000,"station_id":"ce4bhgp2rcd13ifvqfc0","pricing_plan_id":"cebpf4jnsgd1na2vs0mg"},{"bike_id":"f0aed9a0-6bc2-474e-9789-040d214130d6","system_id":"levelo_inurba_marseille","lat":43.28371,"lon":5.38619,"is_reserved":false,"is_disabled":false,"rental_uris":{"android":"levelo://app?vid=f0aed9a0-6bc2-474e-9789-040d214130d6","ios":"levelo://app?vid=f0aed9a0-6bc2-474e-9789-040d214130d6"},"vehicle_type_id":"4","last_reported":1738699759,"current_range_meters":12000,"station_id":"ce4bh492rcd13ifvqdvg","pricing_plan_id":"cebpf4jnsgd1na2vs0mg"},{"bike_id":"9dc60976-d2bc-44c3-87bb-1d52fbe610c3","system_id":"levelo_inurba_marseille","lat":43.283478,"lon":5.381047,"is_reserved":false,"is_disabled":false,"rental_uris":{"android":"levelo://app?vid=9dc60976-d2bc-44c3-87bb-1d52fbe610c3","ios":"levelo://app?vid=9dc60976-d2bc-44c3-87bb-1d52fbe610c3"},"vehicle_type_id":"4","last_reported":1738699759,"current_range_meters":28400,"station_id":"ce4bh412rcd13ifvqdr0","pricing_plan_id":"cebpf4jnsgd1na2vs0mg"},{"bike_id":"2055a81d-8e5e-4bf5-b5e1-2fc40f396b7c","system_id":"levelo_inurba_marseille","lat":43.30536,"lon":5.38421,"is_reserved":false,"is_disabled":true,"rental_uris":{"android":"levelo://app?vid=2055a81d-8e5e-4bf5-b5e1-2fc40f396b7c","ios":"levelo://app?vid=2055a81d-8e5e-4bf5-b5e1-2fc40f396b7c"},"vehicle_type_id":"4","last_reported":1738699759,"current_range_meters":31200,"station_id":"ce4bgg92rcd13ifvqb30","pricing_plan_id":"cebpf4jnsgd1na2vs0mg"},{"bike_id":"60459898-4795-4acb-95dc-4e319e0a4d38","system_id":"levelo_inurba_marseille","lat":43.24653,"lon":5.38888,"is_reserved":false,"is_disabled":false,"rental_uris":{"android":"levelo://app?vid=60459898-4795-4acb-95dc-4e319e0a4d38","ios":"levelo://app?vid=60459898-4795-4acb-95dc-4e319e0a4d38"},"vehicle_type_id":"4","last_reported":1738699759,"current_range_meters":36000,"station_id":"ce4bhg12rcd13ifvqf60","pricing_plan_id":"cebpf4jnsgd1na2vs0mg"},{"bike_id":"84ed939f-9f09-4f60-a7e3-213d6b465b41","system_id":"levelo_inurba_marseille","lat":43.25502,"lon":5.3765,"is_reserved":false,"is_disabled":false,"rental_uris":{"android":"levelo://app?vid=84ed939f-9f09-4f60-a7e3-213d6b465b41","ios":"levelo://app?vid=84ed939f-9f09-4f60-a7e3-213d6b465b41"},"vehicle_type_id":"4","last_reported":1738699759,"current_range_meters":38800,"station_id":"ce4bhh12rcd13ifvqff0","pricing_plan_id":"cebpf4jnsgd1na2vs0mg"},{"bike_id":"879f096d-be3a-4673-9268-dd9793008c00","system_id":"levelo_inurba_marseille","lat":43.30642,"lon":5.40093,"is_reserved":false,"is_disabled":false,"rental_uris":{"android":"levelo://app?vid=879f096d-be3a-4673-9268-dd9793008c00","ios":"levelo://app?vid=879f096d-be3a-4673-9268-dd9793008c00"},"vehicle_type_id":"4","last_reported":1738699759,"current_range_meters":27600,"station_id":"ce4bh112rcd13ifvqda0","pricing_plan_id":"cebpf4jnsgd1na2vs0mg"},{"bike_id":"16112818-6421-41ec-a1db-2c6d44d83c8d","system_id":"levelo_inurba_marseille","lat":43.3107,"lon":5.3835,"is_reserved":false,"is_disabled":false,"rental_uris":{"android":"levelo://app?vid=16112818-6421-41ec-a1db-2c6d44d83c8d","ios":"levelo://app?vid=16112818-6421-41ec-a1db-2c6d44d83c8d"},"vehicle_type_id":"4","last_reported":1738699759,"current_range_meters":38800,"station_id":"ce4bgv92rcd13ifvqcr0","pricing_plan_id":"cebpf4jnsgd1na2vs0mg"},{"bike_id":"bb846df9-2969-480a-aed6-edbcf9c326fb","system_id":"levelo_inurba_marseille","lat":43.24819,"lon":5.37458,"is_reserved":false,"is_disabled":false,"rental_uris":{"android":"levelo://app?vid=bb846df9-2969-480a-aed6-edbcf9c326fb","ios":"levelo://app?vid=bb846df9-2969-480a-aed6-edbcf9c326fb"},"vehicle_type_id":"4","last_reported":1738699759,"current_range_meters":24000,"station_id":"ce4bhgh2rcd13ifvqfb0","pricing_plan_id":"cebpf4jnsgd1na2vs0mg"},{"bike_id":"f7b06ef1-8fe2-49dc-97bf-948e009e701e","system_id":"levelo_inurba_marseille","lat":43.29255,"lon":5.3843,"is_reserved":false,"is_disabled":false,"rental_uris":{"android":"levelo://app?vid=f7b06ef1-8fe2-49dc-97bf-948e009e701e","ios":"levelo://app?vid=f7b06ef1-8fe2-49dc-97bf-948e009e701e"},"vehicle_type_id":"4","last_reported":1738699759,"current_range_meters":38800,"station_id":"ce4bh692rcd13ifvqea0","pricing_plan_id":"cebpf4jnsgd1na2vs0mg"},{"bike_id":"cd07e062-2af1-406e-bcb9-5f1ec4730937","system_id":"levelo_inurba_marseille","lat":43.23065,"lon":5.35498,"is_reserved":false,"is_disabled":false,"rental_uris":{"android":"levelo://app?vid=cd07e062-2af1-406e-bcb9-5f1ec4730937","ios":"levelo://app?vid=cd07e062-2af1-406e-bcb9-5f1ec4730937"},"vehicle_type_id":"4","last_reported":1738699759,"current_range_meters":8000,"station_id":"cpo3342slgdg3j2ifvpg","pricing_plan_id":"cebpf4jnsgd1na2vs0mg"},{"bike_id":"c3644d12-8427-4602-9945-9ef42c46feca","system_id":"levelo_inurba_marseille","lat":43.24166,"lon":5.36405,"is_reserved":false,"is_disabled":false,"rental_uris":{"android":"levelo://app?vid=c3644d12-8427-4602-9945-9ef42c46feca","ios":"levelo://app?vid=c3644d12-8427-4602-9945-9ef42c46feca"},"vehicle_type_id":"4","last_reported":1738699759,"current_range_meters":11600,"station_id":"cpo36qri1sfpv3e86is0","pricing_plan_id":"cebpf4jnsgd1na2vs0mg"},{"bike_id":"c63fc382-f0a8-4f5d-988c-41b6516dbf79","system_id":"levelo_inurba_marseille","lat":43.28617,"lon":5.35091,"is_reserved":false,"is_disabled":false,"rental_uris":{"android":"levelo://app?vid=c63fc382-f0a8-4f5d-988c-41b6516dbf79","ios":"levelo://app?vid=c63fc382-f0a8-4f5d-988c-41b6516dbf79"},"vehicle_type_id":"4","last_reported":1738699759,"current_range_meters":14800,"station_id":"ce4bhch2rcd13ifvqeug","pricing_plan_id":"cebpf4jnsgd1na2vs0mg"},{"bike_id":"344061b7-e2b7-4722-b948-eb8715559211","system_id":"levelo_inurba_marseille","lat":43.31174,"lon":5.38723,"is_reserved":false,"is_disabled":false,"rental_uris":{"android":"levelo://app?vid=344061b7-e2b7-4722-b948-eb8715559211","ios":"levelo://app?vid=344061b7-e2b7-4722-b948-eb8715559211"},"vehicle_type_id":"4","last_reported":1738699759,"current_range_meters":36400,"station_id":"ce4bgv12rcd13ifvqcp0","pricing_plan_id":"cebpf4jnsgd1na2vs0mg"},{"bike_id":"1e7bde43-ab8f-4755-b59a-acd0a53ae759","system_id":"levelo_inurba_marseille","lat":43.31716,"lon":5.42407,"is_reserved":false,"is_disabled":true,"rental_uris":{"android":"levelo://app?vid=1e7bde43-ab8f-4755-b59a-acd0a53ae759","ios":"levelo://app?vid=1e7bde43-ab8f-4755-b59a-acd0a53ae759"},"vehicle_type_id":"4","last_reported":1738699759,"current_range_meters":1200,"station_id":"ce4bhp92rcd13ifvqhbg","pricing_plan_id":"cebpf4jnsgd1na2vs0mg"},{"bike_id":"d1f0876f-7e4f-47df-b3ad-2e75de1292cb","system_id":"levelo_inurba_marseille","lat":43.30635,"lon":5.40092,"is_reserved":false,"is_disabled":false,"rental_uris":{"android":"levelo://app?vid=d1f0876f-7e4f-47df-b3ad-2e75de1292cb","ios":"levelo://app?vid=d1f0876f-7e4f-47df-b3ad-2e75de1292cb"},"vehicle_type_id":"4","last_reported":1738699759,"current_range_meters":2800,"station_id":"ce4bh112rcd13ifvqda0","pricing_plan_id":"cebpf4jnsgd1na2vs0mg"},{"bike_id":"1c857f8d-6d7a-4b41-960d-487c1ca29df8","system_id":"levelo_inurba_marseille","lat":43.29573,"lon":5.3996,"is_reserved":false,"is_disabled":false,"rental_uris":{"android":"levelo://app?vid=1c857f8d-6d7a-4b41-960d-487c1ca29df8","ios":"levelo://app?vid=1c857f8d-6d7a-4b41-960d-487c1ca29df8"},"vehicle_type_id":"4","last_reported":1738699759,"current_range_meters":36800,"station_id":"ce4bh312rcd13ifvqdj0","pricing_plan_id":"cebpf4jnsgd1na2vs0mg"},{"bike_id":"7cc780c4-1ef4-4708-aa2b-f95791a63640","system_id":"levelo_inurba_marseille","lat":43.29788,"lon":5.39336,"is_reserved":false,"is_disabled":false,"rental_uris":{"android":"levelo://app?vid=7cc780c4-1ef4-4708-aa2b-f95791a63640","ios":"levelo://app?vid=7cc780c4-1ef4-4708-aa2b-f95791a63640"},"vehicle_type_id":"4","last_reported":1738699759,"current_range_meters":6000,"station_id":"chh1huq6cuj3fo74tm60","pricing_plan_id":"cebpf4jnsgd1na2vs0mg"},{"bike_id":"1f22608a-d85a-4525-a96e-a5c7f937630c","system_id":"levelo_inurba_marseille","lat":43.28674,"lon":5.36369,"is_reserved":false,"is_disabled":false,"rental_uris":{"android":"levelo://app?vid=1f22608a-d85a-4525-a96e-a5c7f937630c","ios":"levelo://app?vid=1f22608a-d85a-4525-a96e-a5c7f937630c"},"vehicle_type_id":"4","last_reported":1738699759,"current_range_meters":9200,"station_id":"ce4bhah2rcd13ifvqej0","pricing_plan_id":"cebpf4jnsgd1na2vs0mg"},{"bike_id":"62c9314c-3ee8-425f-b4f8-a7468b5688cf","system_id":"levelo_inurba_marseille","lat":43.292,"lon":5.35813,"is_reserved":false,"is_disabled":false,"rental_uris":{"android":"levelo://app?vid=62c9314c-3ee8-425f-b4f8-a7468b5688cf","ios":"levelo://app?vid=62c9314c-3ee8-425f-b4f8-a7468b5688cf"},"vehicle_type_id":"4","last_reported":1738699759,"current_range_meters":35600,"station_id":"ce4bhb12rcd13ifvqel0","pricing_plan_id":"cebpf4jnsgd1na2vs0mg"},{"bike_id":"c36cb84a-24f7-4ef6-b33c-62f50353b0ce","system_id":"levelo_inurba_marseille","lat":43.29274,"lon":5.36843,"is_reserved":false,"is_disabled":false,"rental_uris":{"android":"levelo://app?vid=c36cb84a-24f7-4ef6-b33c-62f50353b0ce","ios":"levelo://app?vid=c36cb84a-24f7-4ef6-b33c-62f50353b0ce"},"vehicle_type_id":"4","last_reported":1738699759,"current_range_meters":17200,"station_id":"ce4bhbp2rcd13ifvqesg","pricing_plan_id":"cebpf4jnsgd1na2vs0mg"},{"bike_id":"45a7daa2-2a2e-4454-90c3-1009aaecc5bd","system_id":"levelo_inurba_marseille","lat":43.23194,"lon":5.35545,"is_reserved":false,"is_disabled":false,"rental_uris":{"android":"levelo://app?vid=45a7daa2-2a2e-4454-90c3-1009aaecc5bd","ios":"levelo://app?vid=45a7daa2-2a2e-4454-90c3-1009aaecc5bd"},"vehicle_type_id":"4","last_reported":1738699759,"current_range_meters":7200,"station_id":"ce4bhu92rcd13ifvqi70","pricing_plan_id":"cebpf4jnsgd1na2vs0mg"},{"bike_id":"e8c5f02b-7c7b-43dc-8269-ed06595ca825","system_id":"levelo_inurba_marseille","lat":43.29525,"lon":5.39395,"is_reserved":false,"is_disabled":true,"rental_uris":{"android":"levelo://app?vid=e8c5f02b-7c7b-43dc-8269-ed06595ca825","ios":"levelo://app?vid=e8c5f02b-7c7b-43dc-8269-ed06595ca825"},"vehicle_type_id":"4","last_reported":1738699759,"current_range_meters":0,"station_id":"ce4bh292rcd13ifvqdf0","pricing_plan_id":"cebpf4jnsgd1na2vs0mg"},{"bike_id":"aece1634-918f-4f68-8bc7-9a7b7abafc1f","system_id":"levelo_inurba_marseille","lat":43.28153,"lon":5.42646,"is_reserved":false,"is_disabled":true,"rental_uris":{"android":"levelo://app?vid=aece1634-918f-4f68-8bc7-9a7b7abafc1f","ios":"levelo://app?vid=aece1634-918f-4f68-8bc7-9a7b7abafc1f"},"vehicle_type_id":"4","last_reported":1738699759,"current_range_meters":33600,"station_id":"ce4bhnh2rcd13ifvqgug","pricing_plan_id":"cebpf4jnsgd1na2vs0mg"},{"bike_id":"b4c4a2b5-8113-41e0-816a-5141dbc28c6d","system_id":"levelo_inurba_marseille","lat":43.28082,"lon":5.39658,"is_reserved":false,"is_disabled":false,"rental_uris":{"android":"levelo://app?vid=b4c4a2b5-8113-41e0-816a-5141dbc28c6d","ios":"levelo://app?vid=b4c4a2b5-8113-41e0-816a-5141dbc28c6d"},"vehicle_type_id":"4","last_reported":1738699759,"current_range_meters":37600,"station_id":"ce4bho12rcd13ifvqh2g","pricing_plan_id":"cebpf4jnsgd1na2vs0mg"},{"bike_id":"66c18020-551d-4cbf-b6c3-769409c58cea","system_id":"levelo_inurba_marseille","lat":43.29166,"lon":5.37168,"is_reserved":false,"is_disabled":false,"rental_uris":{"android":"levelo://app?vid=66c18020-551d-4cbf-b6c3-769409c58cea","ios":"levelo://app?vid=66c18020-551d-4cbf-b6c3-769409c58cea"},"vehicle_type_id":"4","last_reported":1738699759,"current_range_meters":37600,"station_id":"ce4bha92rcd13ifvqeh0","pricing_plan_id":"cebpf4jnsgd1na2vs0mg"},{"bike_id":"3b1d5f28-8e2f-4cd2-84ee-32e60c8bc1d4","system_id":"levelo_inurba_marseille","lat":43.27945,"lon":5.38719,"is_reserved":false,"is_disabled":true,"rental_uris":{"android":"levelo://app?vid=3b1d5f28-8e2f-4cd2-84ee-32e60c8bc1d4","ios":"levelo://app?vid=3b1d5f28-8e2f-4cd2-84ee-32e60c8bc1d4"},"vehicle_type_id":"4","last_reported":1738699759,"current_range_meters":2800,"station_id":"ce4bhg12rcd13ifvqf80","pricing_plan_id":"cebpf4jnsgd1na2vs0mg"},{"bike_id":"a21453e1-7dd1-439a-9411-5be2637f52a4","system_id":"levelo_inurba_marseille","lat":43.29776,"lon":5.3811,"is_reserved":false,"is_disabled":true,"rental_uris":{"android":"levelo://app?vid=a21453e1-7dd1-439a-9411-5be2637f52a4","ios":"levelo://app?vid=a21453e1-7dd1-439a-9411-5be2637f52a4"},"vehicle_type_id":"4","last_reported":1738699759,"current_range_meters":0,"station_id":"ce4bgip2rcd13ifvqbb0","pricing_plan_id":"cebpf4jnsgd1na2vs0mg"},{"bike_id":"35798297-b936-47d1-8a98-bfdb50e14c75","system_id":"levelo_inurba_marseille","lat":43.32062,"lon":5.43247,"is_reserved":false,"is_disabled":true,"rental_uris":{"android":"levelo://app?vid=35798297-b936-47d1-8a98-bfdb50e14c75","ios":"levelo://app?vid=35798297-b936-47d1-8a98-bfdb50e14c75"},"vehicle_type_id":"4","last_reported":1738699759,"current_range_meters":36800,"station_id":"","pricing_plan_id":"cebpf4jnsgd1na2vs0mg"},{"bike_id":"ea5d774f-7eab-4828-a560-1535ca043c02","system_id":"levelo_inurba_marseille","lat":43.2842,"lon":5.34983,"is_reserved":false,"is_disabled":false,"rental_uris":{"android":"levelo://app?vid=ea5d774f-7eab-4828-a560-1535ca043c02","ios":"levelo://app?vid=ea5d774f-7eab-4828-a560-1535ca043c02"},"vehicle_type_id":"4","last_reported":1738699759,"current_range_meters":38400,"station_id":"ce4bhbh2rcd13ifvqepg","pricing_plan_id":"cebpf4jnsgd1na2vs0mg"},{"bike_id":"e6dc612f-7f56-4634-8aac-2cfefb7b3910","system_id":"levelo_inurba_marseille","lat":43.28281,"lon":5.35071,"is_reserved":false,"is_disabled":true,"rental_uris":{"android":"levelo://app?vid=e6dc612f-7f56-4634-8aac-2cfefb7b3910","ios":"levelo://app?vid=e6dc612f-7f56-4634-8aac-2cfefb7b3910"},"vehicle_type_id":"4","last_reported":1738699759,"current_range_meters":30400,"station_id":"ce4bhbp2rcd13ifvqerg","pricing_plan_id":"cebpf4jnsgd1na2vs0mg"},{"bike_id":"4ab5657a-d02d-42a0-9c03-c6d06f0a7e67","system_id":"levelo_inurba_marseille","lat":43.25588,"lon":5.38215,"is_reserved":false,"is_disabled":false,"rental_uris":{"android":"levelo://app?vid=4ab5657a-d02d-42a0-9c03-c6d06f0a7e67","ios":"levelo://app?vid=4ab5657a-d02d-42a0-9c03-c6d06f0a7e67"},"vehicle_type_id":"4","last_reported":1738699759,"current_range_meters":6400,"station_id":"ce4bhih2rcd13ifvqfs0","pricing_plan_id":"cebpf4jnsgd1na2vs0mg"},{"bike_id":"109f8e45-ad54-46d3-81bb-71f0004f0088","system_id":"levelo_inurba_marseille","lat":43.28703,"lon":5.37391,"is_reserved":false,"is_disabled":false,"rental_uris":{"android":"levelo://app?vid=109f8e45-ad54-46d3-81bb-71f0004f0088","ios":"levelo://app?vid=109f8e45-ad54-46d3-81bb-71f0004f0088"},"vehicle_type_id":"4","last_reported":1738699759,"current_range_meters":39200,"station_id":"ce4bh3p2rcd13ifvqdq0","pricing_plan_id":"cebpf4jnsgd1na2vs0mg"},