{"last_updated":1687212423,"ttl":30,"version":"2.2","data":{"bikes":[{"bike_id":"b522dbf0-3d25-4337-8c26-4ca871625a4a","system_id":"levelo_inurba_marseille","lat":43.312239,"lon":5.368562,"is_reserved":false,"is_disabled":false,"rental_uris":{"android":"levelo://app?vid=b522dbf0-3d25-4337-8c26-4ca871625a4a","ios":"levelo://app?vid=b522dbf0-3d25-4337-8c26-4ca871625a4a"},"vehicle_type_id":"4","last_reported":1687212423,"current_range_meters":27600,"station_id":"ce4bgl92rcd13ifvqbq0","pricing_plan_id":"free"},{"bike_id":"832fdd00-0bb2-4cb7-9d70-80e90a724206","system_id":"levelo_inurba_marseille","lat":43.309076,"lon":5.368465,"is_reserved":false,"is_disabled":false,"rental_uris":{"android":"levelo://app?vid=832fdd00-0bb2-4cb7-9d70-80e90a724206","ios":"levelo://app?vid=832fdd00-0bb2-4cb7-9d70-80e90a724206"},"vehicle_type_id":"4","last_reported":1687212423,"current_range_meters":7200,"station_id":"ce4bgn92rcd13ifvqbvg","pricing_plan_id":"free"},{"bike_id":"d4c687df-26ab-442c-ae34-8646b5276451","system_id":"levelo_inurba_marseille","lat":43.309076,"lon":5.368465,"is_reserved":false,"is_disabled":false,"rental_uris":{"android":"levelo://app?vid=d4c687df-26ab-442c-ae34-8646b5276451","ios":"levelo://app?vid=d4c687df-26ab-442c-ae34-8646b5276451"},"vehicle_type_id":"4","last_reported":1687212423,"current_range_meters":6800,"station_id":"ce4bgn92rcd13ifvqbvg","pricing_plan_id":"free"},{"bike_id":"04a5c7a0-7300-4543-933b-6792551a9106","system_id":"levelo_inurba_marseille","lat":43.309076,"lon":5.368465,"is_reserved":false,"is_disabled":false,"rental_uris":{"android":"levelo://app?vid=04a5c7a0-7300-4543-933b-6792551a9106","ios":"levelo://app?vid=04a5c7a0-7300-4543-933b-6792551a9106"},"vehicle_type_id":"4","last_reported":1687212423,"current_range_meters":31200,"station_id":"ce4bgn92rcd13ifvqbvg","pricing_plan_id":"free"},{"bike_id":"3682b644-d119-426b-9c7e-a59a69ebbefa","system_id":"levelo_inurba_marseille","lat":43.3149,"lon":5.37299,"is_reserved":false,"is_disabled":false,"rental_uris":{"android":"levelo://app?vid=3682b644-d119-426b-9c7e-a59a69ebbefa","ios":"levelo://app?vid=3682b644-d119-426b-9c7e-a59a69ebbefa"},"vehicle_type_id":"4","last_reported":1687212423,"current_range_meters":31200,"station_id":"ce4bgt12rcd13ifvqcd0","pricing_plan_id":"free"},{"bike_id":"62418dc9-95df-41d1-a872-a6c3022d4685","system_id":"levelo_inurba_marseille","lat":43.314872,"lon":5.373025,"is_reserved":false,"is_disabled":false,"rental_uris":{"android":"levelo://app?vid=62418dc9-95df-41d1-a872-a6c3022d4685","ios":"levelo://app?vid=62418dc9-95df-41d1-a872-a6c3022d4685"},"vehicle_type_id":"4","last_reported":1687212423,"current_range_meters":0,"station_id":"ce4bgt12rcd13ifvqcd0","pricing_plan_id":"free"},{"bike_id":"05cf473a-4aee-4b36-9fe8-e3e520215a6d","system_id":"levelo_inurba_marseille","lat":43.314811,"lon":5.373103,"is_reserved":false,"is_disabled":false,"rental_uris":{"android":"levelo://app?vid=05cf473a-4aee-4b36-9fe8-e3e520215a6d","ios":"levelo://app?vid=05cf473a-4aee-4b36-9fe8-e3e520215a6d"},"vehicle_type_id":"4","last_reported":1687212423,"current_range_meters":27200,"station_id":"ce4bgt12rcd13ifvqcd0","pricing_plan_id":"free"},{"bike_id":"7e49c570-3e1a-4359-ab52-d325519384db","system_id":"levelo_inurba_marseille","lat":43.31481,"lon":5.37313,"is_reserved":false,"is_disabled":false,"rental_uris":{"android":"levelo://app?vid=7e49c570-3e1a-4359-ab52-d325519384db","ios":"levelo://app?vid=7e49c570-3e1a-4359-ab52-d325519384db"},"vehicle_type_id":"4","last_reported":1687212423,"current_range_meters":2400,"station_id":"ce4bgt12rcd13ifvqcd0","pricing_plan_id":"free"},{"bike_id":"712cfdf5-5e3b-4b85-b5ea-907829a6f637","system_id":"levelo_inurba_marseille","lat":43.314811,"lon":5.373103,"is_reserved":false,"is_disabled":false,"rental_uris":{"android":"levelo://app?vid=712cfdf5-5e3b-4b85-b5ea-907829a6f637","ios":"levelo://app?vid=712cfdf5-5e3b-4b85-b5ea-907829a6f637"},"vehicle_type_id":"4","last_reported":1687212423,"current_range_meters":10400,"station_id":"ce4bgt12rcd13ifvqcd0","pricing_plan_id":"free"},{"bike_id":"a2a94d91-b733-4ae6-9215-ebf4dc3f354e","system_id":"levelo_inurba_marseille","lat":43.31489,"lon":5.37309,"is_reserved":false,"is_disabled":false,"rental_uris":{"android":"levelo://app?vid=a2a94d91-b733-4ae6-9215-ebf4dc3f354e","ios":"levelo://app?vid=a2a94d91-b733-4ae6-9215-ebf4dc3f354e"},"vehicle_type_id":"4","last_reported":1687212423,"current_range_meters":20800,"station_id":"ce4bgt12rcd13ifvqcd0","pricing_plan_id":"free"},{"bike_id":"27938453-f377-4707-a66a-1250b42f9eb2","system_id":"levelo_inurba_marseille","lat":43.314811,"lon":5.373103,"is_reserved":false,"is_disabled":false,"rental_uris":{"android":"levelo://app?vid=27938453-f377-4707-a66a-1250b42f9eb2","ios":"levelo://app?vid=27938453-f377-4707-a66a-1250b42f9eb2"},"vehicle_type_id":"4","last_reported":1687212423,"current_range_meters":22000,"station_id":"ce4bgt12rcd13ifvqcd0","pricing_plan_id":"free"},{"bike_id":"1f7cb87c-1fb0-4458-833b-d7951221c121","system_id":"levelo_inurba_marseille","lat":43.314811,"lon":5.373103,"is_reserved":false,"is_disabled":false,"rental_uris":{"android":"levelo://app?vid=1f7cb87c-1fb0-4458-833b-d7951221c121","ios":"levelo://app?vid=1f7cb87c-1fb0-4458-833b-d7951221c121"},"vehicle_type_id":"4","last_reported":1687212423,"current_range_meters":9600,"station_id":"ce4bgt12rcd13ifvqcd0","pricing_plan_id":"free"},{"bike_id":"da2abab8-70ad-4055-8675-feb3ef50d514","system_id":"levelo_inurba_marseille","lat":43.314811,"lon":5.373104,"is_reserved":false,"is_disabled":false,"rental_uris":{"android":"levelo://app?vid=da2abab8-70ad-4055-8675-feb3ef50d514","ios":"levelo://app?vid=da2abab8-70ad-4055-8675-feb3ef50d514"},"vehicle_type_id":"4","last_reported":1687212423,"current_range_meters":22400,"station_id":"ce4bgt12rcd13ifvqcd0","pricing_plan_id":"free"},{"bike_id":"addb8dd8-a70a-4c19-977f-ec5bdcc74995","system_id":"levelo_inurba_marseille","lat":43.308614,"lon":5.372098,"is_reserved":false,"is_disabled":false,"rental_uris":{"android":"levelo://app?vid=addb8dd8-a70a-4c19-977f-ec5bdcc74995","ios":"levelo://app?vid=addb8dd8-a70a-4c19-977f-ec5bdcc74995"},"vehicle_type_id":"4","last_reported":1687212423,"current_range_meters":6800,"station_id":"ce4bguh2rcd13ifvqckg","pricing_plan_id":"free"},{"bike_id":"2c48d0d3-9303-4ac6-ac6a-3853524cb540","system_id":"levelo_inurba_marseille","lat":43.30548,"lon":5.36521,"is_reserved":false,"is_disabled":false,"rental_uris":{"android":"levelo://app?vid=2c48d0d3-9303-4ac6-ac6a-3853524cb540","ios":"levelo://app?vid=2c48d0d3-9303-4ac6-ac6a-3853524cb540"},"vehicle_type_id":"4","last_reported":1687212423,"current_range_meters":31200,"station_id":"ce4bgs12rcd13ifvqcag","pricing_plan_id":"free"},{"bike_id":"d3845745-5ebb-4fbd-9279-3d929f2609d1","system_id":"levelo_inurba_marseille","lat":43.305989,"lon":5.37225,"is_reserved":false,"is_disabled":false,"rental_uris":{"android":"levelo://app?vid=d3845745-5ebb-4fbd-9279-3d929f2609d1","ios":"levelo://app?vid=d3845745-5ebb-4fbd-9279-3d929f2609d1"},"vehicle_type_id":"4","last_reported":1687212423,"current_range_meters":30400,"station_id":"ce4bgqh2rcd13ifvqc4g","pricing_plan_id":"free"},{"bike_id":"57db6f8d-8e7f-4561-bbfd-1324481fb6fe","system_id":"levelo_inurba_marseille","lat":43.306,"lon":5.37245,"is_reserved":false,"is_disabled":false,"rental_uris":{"android":"levelo://app?vid=57db6f8d-8e7f-4561-bbfd-1324481fb6fe","ios":"levelo://app?vid=57db6f8d-8e7f-4561-bbfd-1324481fb6fe"},"vehicle_type_id":"4","last_reported":1687212423,"current_range_meters":3200,"station_id":"ce4bgqh2rcd13ifvqc4g","pricing_plan_id":"free"},{"bike_id":"e7d8dcdd-da52-4aa1-b7f7-a9e0e13cdabb","system_id":"levelo_inurba_marseille","lat":43.311125,"lon":5.377624,"is_reserved":false,"is_disabled":false,"rental_uris":{"android":"levelo://app?vid=e7d8dcdd-da52-4aa1-b7f7-a9e0e13cdabb","ios":"levelo://app?vid=e7d8dcdd-da52-4aa1-b7f7-a9e0e13cdabb"},"vehicle_type_id":"4","last_reported":1687212423,"current_range_meters":25200,"station_id":"ce4bgt92rcd13ifvqcg0","pricing_plan_id":"free"},{"bike_id":"e394e8a3-8395-4593-825c-5dec0d725b94","system_id":"levelo_inurba_marseille","lat":43.30968,"lon":5.37955,"is_reserved":false,"is_disabled":false,"rental_uris":{"android":"levelo://app?vid=e394e8a3-8395-4593-825c-5dec0d725b94","ios":"levelo://app?vid=e394e8a3-8395-4593-825c-5dec0d725b94"},"vehicle_type_id":"4","last_reported":1687212423,"current_range_meters":17600,"station_id":"","pricing_plan_id":"free"},{"bike_id":"e30593ef-04e1-4f02-a136-505b738937e8","system_id":"levelo_inurba_marseille","lat":43.303046,"lon":5.368981,"is_reserved":false,"is_disabled":false,"rental_uris":{"android":"levelo://app?vid=e30593ef-04e1-4f02-a136-505b738937e8","ios":"levelo://app?vid=e30593ef-04e1-4f02-a136-505b738937e8"},"vehicle_type_id":"4","last_reported":1687212423,"current_range_meters":31200,"station_id":"ce4bgqh2rcd13ifvqc5g","pricing_plan_id":"free"},{"bike_id":"d50e398f-526f-480a-8e93-55c9d1998908","system_id":"levelo_inurba_marseille","lat":43.303046,"lon":5.368981,"is_reserved":false,"is_disabled":false,"rental_uris":{"android":"levelo://app?vid=d50e398f-526f-480a-8e93-55c9d1998908","ios":"levelo://app?vid=d50e398f-526f-480a-8e93-55c9d1998908"},"vehicle_type_id":"4","last_reported":1687212423,"current_range_meters":22400,"station_id":"ce4bgqh2rcd13ifvqc5g","pricing_plan_id":"free"},{"bike_id":"3a3b0222-de45-4a80-be95-f0781b4c3a5d","system_id":"levelo_inurba_marseille","lat":43.315289,"lon":5.380349,"is_reserved":false,"is_disabled":false,"rental_uris":{"android":"levelo://app?vid=3a3b0222-de45-4a80-be95-f0781b4c3a5d","ios":"levelo://app?vid=3a3b0222-de45-4a80-be95-f0781b4c3a5d"},"vehicle_type_id":"4","last_reported":1687212423,"current_range_meters":22000,"station_id":"ce4bhsp2rcd13ifvqi50","pricing_plan_id":"free"},{"bike_id":"42ca8b03-b89a-4548-865c-54181a7d6b09","system_id":"levelo_inurba_marseille","lat":43.315289,"lon":5.380349,"is_reserved":false,"is_disabled":false,"rental_uris":{"android":"levelo://app?vid=42ca8b03-b89a-4548-865c-54181a7d6b09","ios":"levelo://app?vid=42ca8b03-b89a-4548-865c-54181a7d6b09"},"vehicle_type_id":"4","last_reported":1687212423,"current_range_meters":11600,"station_id":"ce4bhsp2rcd13ifvqi50","pricing_plan_id":"free"},{"bike_id":"9ad1cddf-b44e-42a0-9280-d2dc4c422719","system_id":"levelo_inurba_marseille","lat":43.315293,"lon":5.380349,"is_reserved":false,"is_disabled":false,"rental_uris":{"android":"levelo://app?vid=9ad1cddf-b44e-42a0-9280-d2dc4c422719","ios":"levelo://app?vid=9ad1cddf-b44e-42a0-9280-d2dc4c422719"},"vehicle_type_id":"4","last_reported":1687212423,"current_range_meters":6800,"station_id":"ce4bhsp2rcd13ifvqi50","pricing_plan_id":"free"},{"bike_id":"50756628-07ce-426f-906f-7f2385f021fe","system_id":"levelo_inurba_marseille","lat":43.301939,"lon":5.366286,"is_reserved":false,"is_disabled":false,"rental_uris":{"android":"levelo://app?vid=50756628-07ce-426f-906f-7f2385f021fe","ios":"levelo://app?vid=50756628-07ce-426f-906f-7f2385f021fe"},"vehicle_type_id":"4","last_reported":1687212423,"current_range_meters":20400,"station_id":"ce4bgrh2rcd13ifvqc8g","pricing_plan_id":"free"},{"bike_id":"25f1bd99-a72e-48fa-a74b-d0d9d75885f9","system_id":"levelo_inurba_marseille","lat":43.308012,"lon":5.381511,"is_reserved":false,"is_disabled":false,"rental_uris":{"android":"levelo://app?vid=25f1bd99-a72e-48fa-a74b-d0d9d75885f9","ios":"levelo://app?vid=25f1bd99-a72e-48fa-a74b-d0d9d75885f9"},"vehicle_type_id":"4","last_reported":1687212423,"current_range_meters":20400,"station_id":"ce4bgt12rcd13ifvqce0","pricing_plan_id":"free"},{"bike_id":"ae33307b-fcd5-479b-9ae1-9002ed226c6e","system_id":"levelo_inurba_marseille","lat":43.308012,"lon":5.381511,"is_reserved":false,"is_disabled":false,"rental_uris":{"android":"levelo://app?vid=ae33307b-fcd5-479b-9ae1-9002ed226c6e","ios":"levelo://app?vid=ae33307b-fcd5-479b-9ae1-9002ed226c6e"},"vehicle_type_id":"4","last_reported":1687212423,"current_range_meters":23600,"station_id":"ce4bgt12rcd13ifvqce0","pricing_plan_id":"free"},{"bike_id":"43fc693e-f2a9-4aec-8fd9-d094bb02cb70","system_id":"levelo_inurba_marseille","lat":43.304606,"lon":5.379026,"is_reserved":false,"is_disabled":false,"rental_uris":{"android":"levelo://app?vid=43fc693e-f2a9-4aec-8fd9-d094bb02cb70","ios":"levelo://app?vid=43fc693e-f2a9-4aec-8fd9-d094bb02cb70"},"vehicle_type_id":"4","last_reported":1687212423,"current_range_meters":12000,"station_id":"ce4bgup2rcd13ifvqcn0","pricing_plan_id":"free"},{"bike_id":"8846a4b4-eb37-461c-9af6-3503a780d1c9","system_id":"levelo_inurba_marseille","lat":43.30767,"lon":5.38276,"is_reserved":false,"is_disabled":false,"rental_uris":{"android":"levelo://app?vid=8846a4b4-eb37-461c-9af6-3503a780d1c9","ios":"levelo://app?vid=8846a4b4-eb37-461c-9af6-3503a780d1c9"},"vehicle_type_id":"4","last_reported":1687212423,"current_range_meters":15600,"station_id":"","pricing_plan_id":"free"},{"bike_id":"041bc147-ef2f-419b-bb81-deca3bdf89e2","system_id":"levelo_inurba_marseille","lat":43.30143,"lon":5.37413,"is_reserved":false,"is_disabled":false,"rental_uris":{"android":"levelo://app?vid=041bc147-ef2f-419b-bb81-deca3bdf89e2","ios":"levelo://app?vid=041bc147-ef2f-419b-bb81-deca3bdf89e2"},"vehicle_type_id":"4","last_reported":1687212423,"current_range_meters":27600,"station_id":"ce4bgs92rcd13ifvqcc0","pricing_plan_id":"free"},{"bike_id":"f6f06f4d-9e61-429d-8e0c-6d80111fde07","system_id":"levelo_inurba_marseille","lat":43.313571,"lon":5.384829,"is_reserved":false,"is_disabled":false,"rental_uris":{"android":"levelo://app?vid=f6f06f4d-9e61-429d-8e0c-6d80111fde07","ios":"levelo://app?vid=f6f06f4d-9e61-429d-8e0c-6d80111fde07"},"vehicle_type_id":"4","last_reported":1687212423,"current_range_meters":30000,"station_id":"ce4bgt92rcd13ifvqcf0","pricing_plan_id":"free"},{"bike_id":"cbe92599-55de-41bf-887f-2fedafc8ce4e","system_id":"levelo_inurba_marseille","lat":43.313571,"lon":5.384829,"is_reserved":false,"is_disabled":false,"rental_uris":{"android":"levelo://app?vid=cbe92599-55de-41bf-887f-2fedafc8ce4e","ios":"levelo://app?vid=cbe92599-55de-41bf-887f-2fedafc8ce4e"},"vehicle_type_id":"4","last_reported":1687212423,"current_range_meters":24400,"station_id":"ce4bgt92rcd13ifvqcf0","pricing_plan_id":"free"},{"bike_id":"b68c77c6-9c35-445c-89a4-68b99316ff1d","system_id":"levelo_inurba_marseille","lat":43.313571,"lon":5.384829,"is_reserved":false,"is_disabled":false,"rental_uris":{"android":"levelo://app?vid=b68c77c6-9c35-445c-89a4-68b99316ff1d","ios":"levelo://app?vid=b68c77c6-9c35-445c-89a4-68b99316ff1d"},"vehicle_type_id":"4","last_reported":1687212423,"current_range_meters":9600,"station_id":"ce4bgt92rcd13ifvqcf0","pricing_plan_id":"free"},{"bike_id":"adebcff0-799c-416e-8900-cd0809f04ed4","system_id":"levelo_inurba_marseille","lat":43.313571,"lon":5.384829,"is_reserved":false,"is_disabled":false,"rental_uris":{"android":"levelo://app?vid=adebcff0-799c-416e-8900-cd0809f04ed4","ios":"levelo://app?vid=adebcff0-799c-416e-8900-cd0809f04ed4"},"vehicle_type_id":"4","last_reported":1687212423,"current_range_meters":20000,"station_id":"ce4bgt92rcd13ifvqcf0","pricing_plan_id":"free"},{"bike_id":"e77b10d9-a469-454e-81c6-7a0fd2d3bc56","system_id":"levelo_inurba_marseille","lat":43.305364,"lon":5.384119,"is_reserved":false,"is_disabled":false,"rental_uris":{"android":"levelo://app?vid=e77b10d9-a469-454e-81c6-7a0fd2d3bc56","ios":"levelo://app?vid=e77b10d9-a469-454e-81c6-7a0fd2d3bc56"},"vehicle_type_id":"4","last_reported":1687212423,"current_range_meters":13600,"station_id":"ce4bgg92rcd13ifvqb30","pricing_plan_id":"free"},{"bike_id":"83a14dd8-21cc-4454-b8cb-f3fa368a70b2","system_id":"levelo_inurba_marseille","lat":43.305364,"lon":5.384119,"is_reserved":false,"is_disabled":false,"rental_uris":{"android":"levelo://app?vid=83a14dd8-21cc-4454-b8cb-f3fa368a70b2","ios":"levelo://app?vid=83a14dd8-21cc-4454-b8cb-f3fa368a70b2"},"vehicle_type_id":"4","last_reported":1687212423,"current_range_meters":24800,"station_id":"ce4bgg92rcd13ifvqb30","pricing_plan_id":"free"},{"bike_id":"34c6f10a-f56f-494e-acda-2cfe3e1538e4","system_id":"levelo_inurba_marseille","lat":43.298433,"lon":5.362774,"is_reserved":false,"is_disabled":false,"rental_uris":{"android":"levelo://app?vid=34c6f10a-f56f-494e-acda-2cfe3e1538e4","ios":"levelo://app?vid=34c6f10a-f56f-494e-acda-2cfe3e1538e4"},"vehicle_type_id":"4","last_reported":1687212423,"current_range_meters":27600,"station_id":"ce4bgpp2rcd13ifvqc3g","pricing_plan_id":"free"},{"bike_id":"f7f8c328-5cb0-4c65-9dc3-d61cbdff7648","system_id":"levelo_inurba_marseille","lat":43.298433,"lon":5.362774,"is_reserved":false,"is_disabled":false,"rental_uris":{"android":"levelo://app?vid=f7f8c328-5cb0-4c65-9dc3-d61cbdff7648","ios":"levelo://app?vid=f7f8c328-5cb0-4c65-9dc3-d61cbdff7648"},"vehicle_type_id":"4","last_reported":1687212423,"current_range_meters":12800,"station_id":"ce4bgpp2rcd13ifvqc3g","pricing_plan_id":"free"},{"bike_id":"92fe1553-cf04-43c8-8494-62eb954c36df","system_id":"levelo_inurba_marseille","lat":43.298433,"lon":5.362774,"is_reserved":false,"is_disabled":false,"rental_uris":{"android":"levelo://app?vid=92fe1553-cf04-43c8-8494-62eb954c36df","ios":"levelo://app?vid=92fe1553-cf04-43c8-8494-62eb954c36df"},"vehicle_type_id":"4","last_reported":1687212423,"current_range_meters":5200,"station_id":"ce4bgpp2rcd13ifvqc3g","pricing_plan_id":"free"},{"bike_id":"1d5dbef4-a4a9-4763-b725-db3ae4bab209","system_id":"levelo_inurba_marseille","lat":43.311722,"lon":5.387247,"is_reserved":false,"is_disabled":false,"rental_uris":{"android":"levelo://app?vid=1d5dbef4-a4a9-4763-b725-db3ae4bab209","ios":"levelo://app?vid=1d5dbef4-a4a9-4763-b725-db3ae4bab209"},"vehicle_type_id":"4","last_reported":1687212423,"current_range_meters":12000,"station_id":"ce4bgv12rcd13ifvqcp0","pricing_plan_id":"free"},{"bike_id":"ed551a1d-28ad-435c-a319-316c408c0167","system_id":"levelo_inurba_marseille","lat":43.311722,"lon":5.387247,"is_reserved":false,"is_disabled":false,"rental_uris":{"android":"levelo://app?vid=ed551a1d-28ad-435c-a319-316c408c0167","ios":"levelo://app?vid=ed551a1d-28ad-435c-a319-316c408c0167"},"vehicle_type_id":"4","last_reported":1687212423,"current_range_meters":31200,"station_id":"ce4bgv12rcd13ifvqcp0","pricing_plan_id":"free"},{"bike_id":"1d9994fd-02a0-45b7-ba0f-3d7f05be1570","system_id":"levelo_inurba_marseille","lat":43.311722,"lon":5.387247,"is_reserved":false,"is_disabled":false,"rental_uris":{"android":"levelo://app?vid=1d9994fd-02a0-45b7-ba0f-3d7f05be1570","ios":"levelo://app?vid=1d9994fd-02a0-45b7-ba0f-3d7f05be1570"},"vehicle_type_id":"4","last_reported":1687212423,"current_range_meters":24400,"station_id":"ce4bgv12rcd13ifvqcp0","pricing_plan_id":"free"},{"bike_id":"acb547cb-7456-4573-ba83-c9be8a5e6999","system_id":"levelo_inurba_marseille","lat":43.311722,"lon":5.387247,"is_reserved":false,"is_disabled":false,"rental_uris":{"android":"levelo://app?vid=acb547cb-7456-4573-ba83-c9be8a5e6999","ios":"levelo://app?vid=acb547cb-7456-4573-ba83-c9be8a5e6999"},"vehicle_type_id":"4","last_reported":1687212423,"current_range_meters":22000,"station_id":"ce4bgv12rcd13ifvqcp0","pricing_plan_id":"free"},{"bike_id":"87ef0269-d2f6-4b22-bc2e-4e9dda1ca4dd","system_id":"levelo_inurba_marseille","lat":43.299243,"lon":5.374807,"is_reserved":false,"is_disabled":false,"rental_uris":{"android":"levelo://app?vid=87ef0269-d2f6-4b22-bc2e-4e9dda1ca4dd","ios":"levelo://app?vid=87ef0269-d2f6-4b22-bc2e-4e9dda1ca4dd"},"vehicle_type_id":"4","last_reported":1687212423,"current_range_meters":13200,"station_id":"ce4bgjh2rcd13ifvqbg0","pricing_plan_id":"free"},{"bike_id":"fa51ca48-3003-476a-8ce9-a950c8d9efea","system_id":"levelo_inurba_marseille","lat":43.297794,"lon":5.370888,"is_reserved":false,"is_disabled":false,"rental_uris":{"android":"levelo://app?vid=fa51ca48-3003-476a-8ce9-a950c8d9efea","ios":"levelo://app?vid=fa51ca48-3003-476a-8ce9-a950c8d9efea"},"vehicle_type_id":"4","last_reported":1687212423,"current_range_meters":11600,"station_id":"ce4bgop2rcd13ifvqc1g","pricing_plan_id":"free"},{"bike_id":"832e1273-fa14-42aa-b411-4f520f45589b","system_id":"levelo_inurba_marseille","lat":43.32823,"lon":5.36669,"is_reserved":false,"is_disabled":false,"rental_uris":{"android":"levelo://app?vid=832e1273-fa14-42aa-b411-4f520f45589b","ios":"levelo://app?vid=832e1273-fa14-42aa-b411-4f520f45589b"},"vehicle_type_id":"4","last_reported":1687212423,"current_range_meters":10800,"station_id":"ce4bhs92rcd13ifvqi0g","pricing_plan_id":"free"},{"bike_id":"b7074c3e-4ff6-4221-97e7-199682884fdf","system_id":"levelo_inurba_marseille","lat":43.32829,"lon":5.36695,"is_reserved":false,"is_disabled":false,"rental_uris":{"android":"levelo://app?vid=b7074c3e-4ff6-4221-97e7-199682884fdf","ios":"levelo://app?vid=b7074c3e-4ff6-4221-97e7-199682884fdf"},"vehicle_type_id":"4","last_reported":1687212423,"current_range_meters":16800,"station_id":"ce4bhs92rcd13ifvqi0g","pricing_plan_id":"free"},{"bike_id":"176f4894-d7fc-460e-aa5d-7c8c1e206dc3","system_id":"levelo_inurba_marseille","lat":43.2969,"lon":5.36604,"is_reserved":false,"is_disabled":false,"rental_uris":{"android":"levelo://app?vid=176f4894-d7fc-460e-aa5d-7c8c1e206dc3","ios":"levelo://app?vid=176f4894-d7fc-460e-aa5d-7c8c1e206dc3"},"vehicle_type_id":"4","last_reported":1687212423,"current_range_meters":27600,"station_id":"","pricing_plan_id":"free"},{"bike_id":"24f41ca5-b432-4feb-a0c8-a15026b97306","system_id":"levelo_inurba_marseille","lat":43.296131,"lon":5.370773,"is_reserved":false,"is_disabled":false,"rental_uris":{"android":"levelo://app?vid=24f41ca5-b432-4feb-a0c8-a15026b97306","ios":"levelo://app?vid=24f41ca5-b432-4feb-a0c8-a15026b97306"},"vehicle_type_id":"4","last_reported":1687212423,"current_range_meters":6800,"station_id":"ce4bgnh2rcd13ifvqc0g","pricing_plan_id":"free"},{"bike_id":"a1023af9-68ed-4b1b-b997-c03eac62b671","system_id":"levelo_inurba_marseille","lat":43.29703,"lon":5.37695,"is_reserved":false,"is_disabled":false,"rental_uris":{"android":"levelo://app?vid=a1023af9-68ed-4b1b-b997-c03eac62b671","ios":"levelo://app?vid=a1023af9-68ed-4b1b-b997-c03eac62b671"},"vehicle_type_id":"4","last_reported":1687212423,"current_range_meters":18000,"station_id":"","pricing_plan_id":"free"},{"bike_id":"d2e2f8fd-6d2a-46c7-981c-20896cfe7b0e","system_id":"levelo_inurba_marseille","lat":43.296921,"lon":5.376579,"is_reserved":false,"is_disabled":false,"rental_uris":{"android":"levelo://app?vid=d2e2f8fd-6d2a-46c7-981c-20896cfe7b0e","ios":"levelo://app?vid=d2e2f8fd-6d2a-46c7-981c-20896cfe7b0e"},"vehicle_type_id":"4","last_reported":1687212423,"current_range_meters":30400,"station_id":"ce4bgkh2rcd13ifvqbl0","pricing_plan_id":"free"},{"bike_id":"7c5e2e4e-b55d-4a25-81f7-3fee8f440ba9","system_id":"levelo_inurba_marseille","lat":43.309589,"lon":5.390258,"is_reserved":false,"is_disabled":false,"rental_uris":{"android":"levelo://app?vid=7c5e2e4e-b55d-4a25-81f7-3fee8f440ba9","ios":"levelo://app?vid=7c5e2e4e-b55d-4a25-81f7-3fee8f440ba9"},"vehicle_type_id":"4","last_reported":1687212423,"current_range_meters":11200,"station_id":"ce4bgup2rcd13ifvqco0","pricing_plan_id":"free"},{"bike_id":"357152ca-d452-4a19-a891-02f3b84ad248","system_id":"levelo_inurba_marseille","lat":43.309589,"lon":5.390258,"is_reserved":false,"is_disabled":false,"rental_uris":{"android":"levelo://app?vid=357152ca-d452-4a19-a891-02f3b84ad248","ios":"levelo://app?vid=357152ca-d452-4a19-a891-02f3b84ad248"},"vehicle_type_id":"4","last_reported":1687212423,"current_range_meters":16000,"station_id":"ce4bgup2rcd13ifvqco0","pricing_plan_id":"free"},{"bike_id":"ab137c87-7b5d-4a6d-b139-0e4813e4842d","system_id":"levelo_inurba_marseille","lat":43.317557,"lon":5.390173,"is_reserved":false,"is_disabled":false,"rental_uris":{"android":"levelo://app?vid=ab137c87-7b5d-4a6d-b139-0e4813e4842d","ios":"levelo://app?vid=ab137c87-7b5d-4a6d-b139-0e4813e4842d"},"vehicle_type_id":"4","last_reported":1687212423,"current_range_meters":28400,"station_id":"ce4bhqp2rcd13ifvqhng","pricing_plan_id":"free"},{"bike_id":"34e2d3aa-169c-4af3-8480-807be04aae36","system_id":"levelo_inurba_marseille","lat":43.317557,"lon":5.390173,"is_reserved":false,"is_disabled":false,"rental_uris":{"android":"levelo://app?vid=34e2d3aa-169c-4af3-8480-807be04aae36","ios":"levelo://app?vid=34e2d3aa-169c-4af3-8480-807be04aae36"},"vehicle_type_id":"4","last_reported":1687212423,"current_range_meters":28400,"station_id":"ce4bhqp2rcd13ifvqhng","pricing_plan_id":"free"},{"bike_id":"734ce217-e6fb-41df-bb44-4b53bd35a53a","system_id":"levelo_inurba_marseille","lat":43.317557,"lon":5.390173,"is_reserved":false,"is_disabled":false,"rental_uris":{"android":"levelo://app?vid=734ce217-e6fb-41df-bb44-4b53bd35a53a","ios":"levelo://app?vid=734ce217-e6fb-41df-bb44-4b53bd35a53a"},"vehicle_type_id":"4","last_reported":1687212423,"current_range_meters":16800,"station_id":"ce4bhqp2rcd13ifvqhng","pricing_plan_id":"free"},{"bike_id":"cc372352-cc0b-4935-a919-6dd001b39894","system_id":"levelo_inurba_marseille","lat":43.317557,"lon":5.390173,"is_reserved":false,"is_disabled":false,"rental_uris":{"android":"levelo://app?vid=cc372352-cc0b-4935-a919-6dd001b39894","ios":"levelo://app?vid=cc372352-cc0b-4935-a919-6dd001b39894"},"vehicle_type_id":"4","last_reported":1687212423,"current_range_meters":23200,"station_id":"ce4bhqp2rcd13ifvqhng","pricing_plan_id":"free"},{"bike_id":"38ab2178-028d-4b1e-80c9-68a8012b5cec","system_id":"levelo_inurba_marseille","lat":43.309589,"lon":5.390258,"is_reserved":false,"is_disabled":false,"rental_uris":{"android":"levelo://app?vid=38ab2178-028d-4b1e-80c9-68a8012b5cec","ios":"levelo://app?vid=38ab2178-028d-4b1e-80c9-68a8012b5cec"},"vehicle_type_id":"4","last_reported":1687212423,"current_range_meters":8000,"station_id":"ce4bgup2rcd13ifvqco0","pricing_plan_id":"free"},{"bike_id":"6081c3d6-ef7b-4860-ab97-620d85c8f00c","system_id":"levelo_inurba_marseille","lat":43.295761,"lon":5.375029,"is_reserved":false,"is_disabled":false,"rental_uris":{"android":"levelo://app?vid=6081c3d6-ef7b-4860-ab97-620d85c8f00c","ios":"levelo://app?vid=6081c3d6-ef7b-4860-ab97-620d85c8f00c"},"vehicle_type_id":"4","last_reported":1687212423,"current_range_meters":11600,"station_id":"","pricing_plan_id":"free"},{"bike_id":"250c8a96-8498-4211-b8f3-1b00a8d1fbaf","system_id":"levelo_inurba_marseille","lat":43.296477,"lon":5.37768,"is_reserved":false,"is_disabled":false,"rental_uris":{"android":"levelo://app?vid=250c8a96-8498-4211-b8f3-1b00a8d1fbaf","ios":"levelo://app?vid=250c8a96-8498-4211-b8f3-1b00a8d1fbaf"},"vehicle_type_id":"4","last_reported":1687212423,"current_range_meters":7600,"station_id":"","pricing_plan_id":"free"},{"bike_id":"b7b1d109-f109-46f0-bcde-562f2f46f0be","system_id":"levelo_inurba_marseille","lat":43.30441,"lon":5.38893,"is_reserved":false,"is_disabled":false,"rental_uris":{"android":"levelo://app?vid=b7b1d109-f109-46f0-bcde-562f2f46f0be","ios":"levelo://app?vid=b7b1d109-f109-46f0-bcde-562f2f46f0be"},"vehicle_type_id":"4","last_reported":1687212423,"current_range_meters":0,"station_id":"ce4bgk12rcd13ifvqbi0","pricing_plan_id":"free"},{"bike_id":"e6bfbbcf-06d7-48dd-9027-6cf2b2d59171","system_id":"levelo_inurba_marseille","lat":43.304278,"lon":5.388868,"is_reserved":false,"is_disabled":false,"rental_uris":{"android":"levelo://app?vid=e6bfbbcf-06d7-48dd-9027-6cf2b2d59171","ios":"levelo://app?vid=e6bfbbcf-06d7-48dd-9027-6cf2b2d59171"},"vehicle_type_id":"4","last_reported":1687212423,"current_range_meters":15600,"station_id":"ce4bgk12rcd13ifvqbi0","pricing_plan_id":"free"},{"bike_id":"afb61759-8b03-4a6a-a393-439478444541","system_id":"levelo_inurba_marseille","lat":43.304239,"lon":5.388917,"is_reserved":false,"is_disabled":false,"rental_uris":{"android":"levelo://app?vid=afb61759-8b03-4a6a-a393-439478444541","ios":"levelo://app?vid=afb61759-8b03-4a6a-a393-439478444541"},"vehicle_type_id":"4","last_reported":1687212423,"current_range_meters":11600,"station_id":"ce4bh512rcd13ifvqe3g","pricing_plan_id":"free"},{"bike_id":"eb56f040-d7e3-440c-9d05-82afe187dd21","system_id":"levelo_inurba_marseille","lat":43.299724,"lon":5.384848,"is_reserved":false,"is_disabled":false,"rental_uris":{"android":"levelo://app?vid=eb56f040-d7e3-440c-9d05-82afe187dd21","ios":"levelo://app?vid=eb56f040-d7e3-440c-9d05-82afe187dd21"},"vehicle_type_id":"4","last_reported":1687212423,"current_range_meters":30000,"station_id":"ce4bgj92rcd13ifvqbd0","pricing_plan_id":"free"},{"bike_id":"554d461b-faf0-4249-b043-1ce5292e3cda","system_id":"levelo_inurba_marseille","lat":43.32358,"lon":5.38874,"is_reserved":false,"is_disabled":false,"rental_uris":{"android":"levelo://app?vid=554d461b-faf0-4249-b043-1ce5292e3cda","ios":"levelo://app?vid=554d461b-faf0-4249-b043-1ce5292e3cda"},"vehicle_type_id":"4","last_reported":1687212423,"current_range_meters":3200,"station_id":"ce4bhqp2rcd13ifvqhog","pricing_plan_id":"free"},{"bike_id":"b3af4213-6f75-4eeb-a9c5-95698eb70200","system_id":"levelo_inurba_marseille","lat":43.32367,"lon":5.388836,"is_reserved":false,"is_disabled":false,"rental_uris":{"android":"levelo://app?vid=b3af4213-6f75-4eeb-a9c5-95698eb70200","ios":"levelo://app?vid=b3af4213-6f75-4eeb-a9c5-95698eb70200"},"vehicle_type_id":"4","last_reported":1687212423,"current_range_meters":2400,"station_id":"ce4bhqp2rcd13ifvqhog","pricing_plan_id":"free"},{"bike_id":"30a91f8e-3923-4d3c-8115-7a1bd6f6db68","system_id":"levelo_inurba_marseille","lat":43.3236,"lon":5.38884,"is_reserved":false,"is_disabled":false,"rental_uris":{"android":"levelo://app?vid=30a91f8e-3923-4d3c-8115-7a1bd6f6db68","ios":"levelo://app?vid=30a91f8e-3923-4d3c-8115-7a1bd6f6db68"},"vehicle_type_id":"4","last_reported":1687212423,"current_range_meters":12800,"station_id":"ce4bhqp2rcd13ifvqhog","pricing_plan_id":"free"},{"bike_id":"fed0fa05-6563-4a2c-a686-a1bf0f63a977","system_id":"levelo_inurba_marseille","lat":43.32367,"lon":5.388836,"is_reserved":false,"is_disabled":false,"rental_uris":{"android":"levelo://app?vid=fed0fa05-6563-4a2c-a686-a1bf0f63a977","ios":"levelo://app?vid=fed0fa05-6563-4a2c-a686-a1bf0f63a977"},"vehicle_type_id":"4","last_reported":1687212423,"current_range_meters":4000,"station_id":"ce4bhqp2rcd13ifvqhog","pricing_plan_id":"free"},{"bike_id":"924f5e2c-3798-48c5-a26b-4aa840da3bf3","system_id":"levelo_inurba_marseille","lat":43.32367,"lon":5.388836,"is_reserved":false,"is_disabled":false,"rental_uris":{"android":"levelo://app?vid=924f5e2c-3798-48c5-a26b-4aa840da3bf3","ios":"levelo://app?vid=924f5e2c-3798-48c5-a26b-4aa840da3bf3"},"vehicle_type_id":"4","last_reported":1687212423,"current_range_meters":24400,"station_id":"ce4bhqp2rcd13ifvqhog","pricing_plan_id":"free"},{"bike_id":"9e2a4a69-2250-48f4-b292-b48f9378cf2c","system_id":"levelo_inurba_marseille","lat":43.292749,"lon":5.368402,"is_reserved":false,"is_disabled":false,"rental_uris":{"android":"levelo://app?vid=9e2a4a69-2250-48f4-b292-b48f9378cf2c","ios":"levelo://app?vid=9e2a4a69-2250-48f4-b292-b48f9378cf2c"},"vehicle_type_id":"4","last_reported":1687212423,"current_range_meters":25600,"station_id":"ce4bhbp2rcd13ifvqesg","pricing_plan_id":"free"},{"bike_id":"dbc2cadf-155d-41b5-8117-021a4980ad01","system_id":"levelo_inurba_marseille","lat":43.305994,"lon":5.393687,"is_reserved":false,"is_disabled":false,"rental_uris":{"android":"levelo://app?vid=dbc2cadf-155d-41b5-8117-021a4980ad01","ios":"levelo://app?vid=dbc2cadf-155d-41b5-8117-021a4980ad01"},"vehicle_type_id":"4","last_reported":1687212423,"current_range_meters":31200,"station_id":"ce4bh0p2rcd13ifvqd80","pricing_plan_id":"free"},{"bike_id":"f96bc5ef-773a-4c29-b818-b40707fecfaa","system_id":"levelo_inurba_marseille","lat":43.30596,"lon":5.39354,"is_reserved":false,"is_disabled":false,"rental_uris":{"android":"levelo://app?vid=f96bc5ef-773a-4c29-b818-b40707fecfaa","ios":"levelo://app?vid=f96bc5ef-773a-4c29-b818-b40707fecfaa"},"vehicle_type_id":"4","last_reported":1687212423,"current_range_meters":31200,"station_id":"ce4bh0p2rcd13ifvqd80","pricing_plan_id":"free"},{"bike_id":"66b480a6-9947-4496-98e2-93e61a3244b4","system_id":"levelo_inurba_marseille","lat":43.30586,"lon":5.39351,"is_reserved":false,"is_disabled":false,"rental_uris":{"android":"levelo://app?vid=66b480a6-9947-4496-98e2-93e61a3244b4","ios":"levelo://app?vid=66b480a6-9947-4496-98e2-93e61a3244b4"},"vehicle_type_id":"4","last_reported":1687212423,"current_range_meters":29200,"station_id":"ce4bh0p2rcd13ifvqd80","pricing_plan_id":"free"},{"bike_id":"beb1f134-292f-42e3-8904-5df6190a5bb9","system_id":"levelo_inurba_marseille","lat":43.305994,"lon":5.393687,"is_reserved":false,"is_disabled":false,"rental_uris":{"android":"levelo://app?vid=beb1f134-292f-42e3-8904-5df6190a5bb9","ios":"levelo://app?vid=beb1f134-292f-42e3-8904-5df6190a5bb9"},"vehicle_type_id":"4","last_reported":1687212423,"current_range_meters":6800,"station_id":"ce4bh0p2rcd13ifvqd80","pricing_plan_id":"free"},{"bike_id":"1860480f-dfbb-42e5-b4ee-caf7801dee17","system_id":"levelo_inurba_marseille","lat":43.305994,"lon":5.393687,"is_reserved":false,"is_disabled":false,"rental_uris":{"android":"levelo://app?vid=1860480f-dfbb-42e5-b4ee-caf7801dee17","ios":"levelo://app?vid=1860480f-dfbb-42e5-b4ee-caf7801dee17"},"vehicle_type_id":"4","last_reported":1687212423,"current_range_meters":14000,"station_id":"ce4bh0p2rcd13ifvqd80","pricing_plan_id":"free"},{"bike_id":"31e9b52b-637e-4fe6-8843-73d931b1f83c","system_id":"levelo_inurba_marseille","lat":43.305994,"lon":5.393687,"is_reserved":false,"is_disabled":false,"rental_uris":{"android":"levelo://app?vid=31e9b52b-637e-4fe6-8843-73d931b1f83c","ios":"levelo://app?vid=31e9b52b-637e-4fe6-8843-73d931b1f83c"},"vehicle_type_id":"4","last_reported":1687212423,"current_range_meters":11200,"station_id":"ce4bh0p2rcd13ifvqd80","pricing_plan_id":"free"},{"bike_id":"f56dd423-174a-459c-a9b5-a7f304653c65","system_id":"levelo_inurba_marseille","lat":43.305994,"lon":5.393687,"is_reserved":false,"is_disabled":false,"rental_uris":{"android":"levelo://app?vid=f56dd423-174a-459c-a9b5-a7f304653c65","ios":"levelo://app?vid=f56dd423-174a-459c-a9b5-a7f304653c65"},"vehicle_type_id":"4","last_reported":1687212423,"current_range_meters":6000,"station_id":"ce4bh0p2rcd13ifvqd80","pricing_plan_id":"free"},{"bike_id":"8dc289c7-6fcd-4ebb-9acb-a20eb3ac59fa","system_id":"levelo_inurba_marseille","lat":43.293009,"lon":5.374584,"is_reserved":false,"is_disabled":false,"rental_uris":{"android":"levelo://app?vid=8dc289c7-6fcd-4ebb-9acb-a20eb3ac59fa","ios":"levelo://app?vid=8dc289c7-6fcd-4ebb-9acb-a20eb3ac59fa"},"vehicle_type_id":"4","last_reported":1687212423,"current_range_meters":0,"station_id":"ce4bgi12rcd13ifvqb70","pricing_plan_id":"free"},{"bike_id":"5788d68b-0b6d-4477-b87f-d387b356de3a","system_id":"levelo_inurba_marseille","lat":43.302992,"lon":5.392136,"is_reserved":false,"is_disabled":false,"rental_uris":{"android":"levelo://app?vid=5788d68b-0b6d-4477-b87f-d387b356de3a","ios":"levelo://app?vid=5788d68b-0b6d-4477-b87f-d387b356de3a"},"vehicle_type_id":"4","last_reported":1687212423,"current_range_meters":25600,"station_id":"ce4bgkh2rcd13ifvqbk0","pricing_plan_id":"free"},{"bike_id":"659b5d8b-1631-48ee-8cff-de6411143e1c","system_id":"levelo_inurba_marseille","lat":43.302992,"lon":5.392136,"is_reserved":false,"is_disabled":false,"rental_uris":{"android":"levelo://app?vid=659b5d8b-1631-48ee-8cff-de6411143e1c","ios":"levelo://app?vid=659b5d8b-1631-48ee-8cff-de6411143e1c"},"vehicle_type_id":"4","last_reported":1687212423,"current_range_meters":0,"station_id":"ce4bgkh2rcd13ifvqbk0","pricing_plan_id":"free"},{"bike_id":"7ee8e857-e58f-4d0f-9ec8-cf55d6494b29","system_id":"levelo_inurba_marseille","lat":43.29261,"lon":5.35972,"is_reserved":false,"is_disabled":false,"rental_uris":{"android":"levelo://app?vid=7ee8e857-e58f-4d0f-9ec8-cf55d6494b29","ios":"levelo://app?vid=7ee8e857-e58f-4d0f-9ec8-cf55d6494b29"},"vehicle_type_id":"4","last_reported":1687212423,"current_range_meters":5600,"station_id":"","pricing_plan_id":"free"},{"bike_id":"6024aca9-4a62-401f-ad62-0286d576444c","system_id":"levelo_inurba_marseille","lat":43.300852,"lon":5.390859,"is_reserved":false,"is_disabled":false,"rental_uris":{"android":"levelo://app?vid=6024aca9-4a62-401f-ad62-0286d576444c","ios":"levelo://app?vid=6024aca9-4a62-401f-ad62-0286d576444c"},"vehicle_type_id":"4","last_reported":1687212423,"current_range_meters":29600,"station_id":"ce4bh192rcd13ifvqdb0","pricing_plan_id":"free"},{"bike_id":"9b179c0a-cc15-4236-b7b9-41d4bee1763a","system_id":"levelo_inurba_marseille","lat":43.300858,"lon":5.390909,"is_reserved":false,"is_disabled":false,"rental_uris":{"android":"levelo://app?vid=9b179c0a-cc15-4236-b7b9-41d4bee1763a","ios":"levelo://app?vid=9b179c0a-cc15-4236-b7b9-41d4bee1763a"},"vehicle_type_id":"4","last_reported":1687212423,"current_range_meters":20000,"station_id":"","pricing_plan_id":"free"},{"bike_id":"e648c8a9-2c69-4d5a-a28e-8b5d9fc152d3","system_id":"levelo_inurba_marseille","lat":43.3069,"lon":5.39504,"is_reserved":false,"is_disabled":false,"rental_uris":{"android":"levelo://app?vid=e648c8a9-2c69-4d5a-a28e-8b5d9fc152d3","ios":"levelo://app?vid=e648c8a9-2c69-4d5a-a28e-8b5d9fc152d3"},"vehicle_type_id":"4","last_reported":1687212423,"current_range_meters":2800,"station_id":"","pricing_plan_id":"free"},{"bike_id":"cae32191-9101-4151-86a4-961ba4e9ecae","system_id":"levelo_inurba_marseille","lat":43.29882,"lon":5.38906,"is_reserved":false,"is_disabled":false,"rental_uris":{"android":"levelo://app?vid=cae32191-9101-4151-86a4-961ba4e9ecae","ios":"levelo://app?vid=cae32191-9101-4151-86a4-961ba4e9ecae"},"vehicle_type_id":"4","last_reported":1687212423,"current_range_meters":16000,"station_id":"ce4bh392rcd13ifvqdl0","pricing_plan_id":"free"},{"bike_id":"fc170ce6-7099-4dd4-b6d3-37e9a19ddb5d","system_id":"levelo_inurba_marseille","lat":43.29879,"lon":5.38907,"is_reserved":false,"is_disabled":false,"rental_uris":{"android":"levelo://app?vid=fc170ce6-7099-4dd4-b6d3-37e9a19ddb5d","ios":"levelo://app?vid=fc170ce6-7099-4dd4-b6d3-37e9a19ddb5d"},"vehicle_type_id":"4","last_reported":1687212423,"current_range_meters":24400,"station_id":"ce4bh392rcd13ifvqdl0","pricing_plan_id":"free"},{"bike_id":"9448bdb5-8d60-4e5f-9b56-77a9bb0349fe","system_id":"levelo_inurba_marseille","lat":43.29876,"lon":5.38909,"is_reserved":false,"is_disabled":false,"rental_uris":{"android":"levelo://app?vid=9448bdb5-8d60-4e5f-9b56-77a9bb0349fe","ios":"levelo://app?vid=9448bdb5-8d60-4e5f-9b56-77a9bb0349fe"},"vehicle_type_id":"4","last_reported":1687212423,"current_range_meters":4400,"station_id":"ce4bh392rcd13ifvqdl0","pricing_plan_id":"free"},{"bike_id":"016263c4-1d43-4401-bddf-abf8a8e30702","system_id":"levelo_inurba_marseille","lat":43.291675,"lon":5.371583,"is_reserved":false,"is_disabled":false,"rental_uris":{"android":"levelo://app?vid=016263c4-1d43-4401-bddf-abf8a8e30702","ios":"levelo://app?vid=016263c4-1d43-4401-bddf-abf8a8e30702"},"vehicle_type_id":"4","last_reported":1687212423,"current_range_meters":19200,"station_id":"ce4bha92rcd13ifvqeh0","pricing_plan_id":"free"},{"bike_id":"da837983-dad8-4798-a98a-cd4e35a3fd17","system_id":"levelo_inurba_marseille","lat":43.30886,"lon":5.39624,"is_reserved":false,"is_disabled":false,"rental_uris":{"android":"levelo://app?vid=da837983-dad8-4798-a98a-cd4e35a3fd17","ios":"levelo://app?vid=da837983-dad8-4798-a98a-cd4e35a3fd17"},"vehicle_type_id":"4","last_reported":1687212423,"current_range_meters":3600,"station_id":"","pricing_plan_id":"free"},{"bike_id":"9c539148-0342-4ae4-bfcb-fafdbff067e2","system_id":"levelo_inurba_marseille","lat":43.30884,"lon":5.39629,"is_reserved":false,"is_disabled":false,"rental_uris":{"android":"levelo://app?vid=9c539148-0342-4ae4-bfcb-fafdbff067e2","ios":"levelo://app?vid=9c539148-0342-4ae4-bfcb-fafdbff067e2"},"vehicle_type_id":"4","last_reported":1687212423,"current_range_meters":2800,"station_id":"","pricing_plan_id":"free"},{"bike_id":"ca93611f-b3bf-4330-952a-b45aaf9b706a","system_id":"levelo_inurba_marseille","lat":43.30886,"lon":5.39631,"is_reserved":false,"is_disabled":false,"rental_uris":{"android":"levelo://app?vid=ca93611f-b3bf-4330-952a-b45aaf9b706a","ios":"levelo://app?vid=ca93611f-b3bf-4330-952a-b45aaf9b706a"},"vehicle_type_id":"4","last_reported":1687212423,"current_range_meters":10800,"station_id":"ce4bh012rcd13ifvqcv0","pricing_plan_id":"free"},{"bike_id":"46b50c70-7124-4ac8-b85a-076d1d159446","system_id":"levelo_inurba_marseille","lat":43.30885,"lon":5.39631,"is_reserved":false,"is_disabled":false,"rental_uris":{"android":"levelo://app?vid=46b50c70-7124-4ac8-b85a-076d1d159446","ios":"levelo://app?vid=46b50c70-7124-4ac8-b85a-076d1d159446"},"vehicle_type_id":"4","last_reported":1687212423,"current_range_meters":3600,"station_id":"","pricing_plan_id":"free"},{"bike_id":"06529458-7eb9-4188-a41f-b06a114f4aec","system_id":"levelo_inurba_marseille","lat":43.309038,"lon":5.396546,"is_reserved":false,"is_disabled":false,"rental_uris":{"android":"levelo://app?vid=06529458-7eb9-4188-a41f-b06a114f4aec","ios":"levelo://app?vid=06529458-7eb9-4188-a41f-b06a114f4aec"},"vehicle_type_id":"4","last_reported":1687212423,"current_range_meters":4800,"station_id":"ce4bh012rcd13ifvqcv0","pricing_plan_id":"free"},{"bike_id":"bc176c9f-0272-49a5-9cfa-debe67a3910d","system_id":"levelo_inurba_marseille","lat":43.309038,"lon":5.396546,"is_reserved":false,"is_disabled":false,"rental_uris":{"android":"levelo://app?vid=bc176c9f-0272-49a5-9cfa-debe67a3910d","ios":"levelo://app?vid=bc176c9f-0272-49a5-9cfa-debe67a3910d"},"vehicle_type_id":"4","last_reported":1687212423,"current_range_meters":400,"station_id":"ce4bh012rcd13ifvqcv0","pricing_plan_id":"free"},{"bike_id":"16825454-3f9b-4efa-ac4f-134480ead278","system_id":"levelo_inurba_marseille","lat":43.309038,"lon":5.396546,"is_reserved":false,"is_disabled":false,"rental_uris":{"android":"levelo://app?vid=16825454-3f9b-4efa-ac4f-134480ead278","ios":"levelo://app?vid=16825454-3f9b-4efa-ac4f-134480ead278"},"vehicle_type_id":"4","last_reported":1687212423,"current_range_meters":25200,"station_id":"ce4bh012rcd13ifvqcv0","pricing_plan_id":"free"},{"bike_id":"d38c5de4-1b75-44fb-88b5-eb30bcdcd7d0","system_id":"levelo_inurba_marseille","lat":43.31325,"lon":5.396882,"is_reserved":false,"is_disabled":false,"rental_uris":{"android":"levelo://app?vid=d38c5de4-1b75-44fb-88b5-eb30bcdcd7d0","ios":"levelo://app?vid=d38c5de4-1b75-44fb-88b5-eb30bcdcd7d0"},"vehicle_type_id":"4","last_reported":1687212423,"current_range_meters":24800,"station_id":"","pricing_plan_id":"free"},{"bike_id":"3f3cef94-9c2e-4039-825c-5421299dcaf4","system_id":"levelo_inurba_marseille","lat":43.309038,"lon":5.396546,"is_reserved":false,"is_disabled":false,"rental_uris":{"android":"levelo://app?vid=3f3cef94-9c2e-4039-825c-5421299dcaf4","ios":"levelo://app?vid=3f3cef94-9c2e-4039-825c-5421299dcaf4"},"vehicle_type_id":"4","last_reported":1687212423,"current_range_meters":22400,"station_id":"ce4bh012rcd13ifvqcv0","pricing_plan_id":"free"},{"bike_id":"babe4b1a-7a65-429f-b179-1c311b7b4f96","system_id":"levelo_inurba_marseille","lat":43.313291,"lon":5.396838,"is_reserved":false,"is_disabled":false,"rental_uris":{"android":"levelo://app?vid=babe4b1a-7a65-429f-b179-1c311b7b4f96","ios":"levelo://app?vid=babe4b1a-7a65-429f-b179-1c311b7b4f96"},"vehicle_type_id":"4","last_reported":1687212423,"current_range_meters":9200,"station_id":"ce4bgvp2rcd13ifvqcu0","pricing_plan_id":"free"},{"bike_id":"1a904847-fb21-45ea-b553-2d51c23974a2","system_id":"levelo_inurba_marseille","lat":43.29191,"lon":5.35789,"is_reserved":false,"is_disabled":false,"rental_uris":{"android":"levelo://app?vid=1a904847-fb21-45ea-b553-2d51c23974a2","ios":"levelo://app?vid=1a904847-fb21-45ea-b553-2d51c23974a2"},"vehicle_type_id":"4","last_reported":1687212423,"current_range_meters":31200,"station_id":"ce4bhb12rcd13ifvqel0","pricing_plan_id":"free"},{"bike_id":"5b969d43-ba38-40e5-a672-826ce2f64c36","system_id":"levelo_inurba_marseille","lat":43.30886,"lon":5.39653,"is_reserved":false,"is_disabled":false,"rental_uris":{"android":"levelo://app?vid=5b969d43-ba38-40e5-a672-826ce2f64c36","ios":"levelo://app?vid=5b969d43-ba38-40e5-a672-826ce2f64c36"},"vehicle_type_id":"4","last_reported":1687212423,"current_range_meters":10800,"station_id":"","pricing_plan_id":"free"},{"bike_id":"780e8151-2f7a-4307-9e7c-6bfa7ddf6d8e","system_id":"levelo_inurba_marseille","lat":43.309038,"lon":5.396546,"is_reserved":false,"is_disabled":false,"rental_uris":{"android":"levelo://app?vid=780e8151-2f7a-4307-9e7c-6bfa7ddf6d8e","ios":"levelo://app?vid=780e8151-2f7a-4307-9e7c-6bfa7ddf6d8e"},"vehicle_type_id":"4","last_reported":1687212423,"current_range_meters":20000,"station_id":"ce4bh012rcd13ifvqcv0","pricing_plan_id":"free"},{"bike_id":"d7ec17da-c062-436f-a937-7b9ff940324d","system_id":"levelo_inurba_marseille","lat":43.29533,"lon":5.38523,"is_reserved":false,"is_disabled":false,"rental_uris":{"android":"levelo://app?vid=d7ec17da-c062-436f-a937-7b9ff940324d","ios":"levelo://app?vid=d7ec17da-c062-436f-a937-7b9ff940324d"},"vehicle_type_id":"4","last_reported":1687212423,"current_range_meters":22800,"station_id":"","pricing_plan_id":"free"},{"bike_id":"9c044758-9a0f-4c18-a046-77248135096f","system_id":"levelo_inurba_marseille","lat":43.309038,"lon":5.396546,"is_reserved":false,"is_disabled":false,"rental_uris":{"android":"levelo://app?vid=9c044758-9a0f-4c18-a046-77248135096f","ios":"levelo://app?vid=9c044758-9a0f-4c18-a046-77248135096f"},"vehicle_type_id":"4","last_reported":1687212423,"current_range_meters":17600,"station_id":"ce4bh012rcd13ifvqcv0","pricing_plan_id":"free"},{"bike_id":"9252f1f9-2017-4894-a3bb-07e89a912cb5","system_id":"levelo_inurba_marseille","lat":43.29145,"lon":5.37741,"is_reserved":false,"is_disabled":false,"rental_uris":{"android":"levelo://app?vid=9252f1f9-2017-4894-a3bb-07e89a912cb5","ios":"levelo://app?vid=9252f1f9-2017-4894-a3bb-07e89a912cb5"},"vehicle_type_id":"4","last_reported":1687212423,"current_range_meters":8800,"station_id":"","pricing_plan_id":"free"},{"bike_id":"398a5c2c-8388-45c7-881d-7406b498f299","system_id":"levelo_inurba_marseille","lat":43.302008,"lon":5.394694,"is_reserved":false,"is_disabled":false,"rental_uris":{"android":"levelo://app?vid=398a5c2c-8388-45c7-881d-7406b498f299","ios":"levelo://app?vid=398a5c2c-8388-45c7-881d-7406b498f299"},"vehicle_type_id":"4","last_reported":1687212423,"current_range_meters":800,"station_id":"ce4bh0p2rcd13ifvqd70","pricing_plan_id":"free"},{"bike_id":"d14e8d88-e6a4-416f-8670-2fb37f1327ec","system_id":"levelo_inurba_marseille","lat":43.30211,"lon":5.39464,"is_reserved":false,"is_disabled":false,"rental_uris":{"android":"levelo://app?vid=d14e8d88-e6a4-416f-8670-2fb37f1327ec","ios":"levelo://app?vid=d14e8d88-e6a4-416f-8670-2fb37f1327ec"},"vehicle_type_id":"4","last_reported":1687212423,"current_range_meters":8400,"station_id":"ce4bh0p2rcd13ifvqd70","pricing_plan_id":"free"},{"bike_id":"a8cb2e4a-6091-4868-b6bb-3793c29e8df8","system_id":"levelo_inurba_marseille","lat":43.302008,"lon":5.394694,"is_reserved":false,"is_disabled":false,"rental_uris":{"android":"levelo://app?vid=a8cb2e4a-6091-4868-b6bb-3793c29e8df8","ios":"levelo://app?vid=a8cb2e4a-6091-4868-b6bb-3793c29e8df8"},"vehicle_type_id":"4","last_reported":1687212423,"current_range_meters":18400,"station_id":"ce4bh0p2rcd13ifvqd70","pricing_plan_id":"free"},{"bike_id":"9ae8394b-99eb-4f1d-a543-9d488176fe4c","system_id":"levelo_inurba_marseille","lat":43.302008,"lon":5.394694,"is_reserved":false,"is_disabled":false,"rental_uris":{"android":"levelo://app?vid=9ae8394b-99eb-4f1d-a543-9d488176fe4c","ios":"levelo://app?vid=9ae8394b-99eb-4f1d-a543-9d488176fe4c"},"vehicle_type_id":"4","last_reported":1687212423,"current_range_meters":12000,"station_id":"ce4bh0p2rcd13ifvqd70","pricing_plan_id":"free"},{"bike_id":"e0471e69-0945-484d-893c-f71cf48f8b86","system_id":"levelo_inurba_marseille","lat":43.290631,"lon":5.359244,"is_reserved":false,"is_disabled":false,"rental_uris":{"android":"levelo://app?vid=e0471e69-0945-484d-893c-f71cf48f8b86","ios":"levelo://app?vid=e0471e69-0945-484d-893c-f71cf48f8b86"},"vehicle_type_id":"4","last_reported":1687212423,"current_range_meters":31200,"station_id":"ce4bha92rcd13ifvqeg0","pricing_plan_id":"free"},{"bike_id":"dba9044f-700e-4543-a848-3fd0b52b117c","system_id":"levelo_inurba_marseille","lat":43.290624,"lon":5.359245,"is_reserved":false,"is_disabled":false,"rental_uris":{"android":"levelo://app?vid=dba9044f-700e-4543-a848-3fd0b52b117c","ios":"levelo://app?vid=dba9044f-700e-4543-a848-3fd0b52b117c"},"vehicle_type_id":"4","last_reported":1687212423,"current_range_meters":1600,"station_id":"ce4bha92rcd13ifvqeg0","pricing_plan_id":"free"},{"bike_id":"89f933c5-6342-4332-9a87-164d9cadff9e","system_id":"levelo_inurba_marseille","lat":43.290624,"lon":5.359245,"is_reserved":false,"is_disabled":false,"rental_uris":{"android":"levelo://app?vid=89f933c5-6342-4332-9a87-164d9cadff9e","ios":"levelo://app?vid=89f933c5-6342-4332-9a87-164d9cadff9e"},"vehicle_type_id":"4","last_reported":1687212423,"current_range_meters":30800,"station_id":"ce4bha92rcd13ifvqeg0","pricing_plan_id":"free"},{"bike_id":"c68db951-f64e-4409-a262-1fb1c9870265","system_id":"levelo_inurba_marseille","lat":43.29036,"lon":5.35899,"is_reserved":false,"is_disabled":false,"rental_uris":{"android":"levelo://app?vid=c68db951-f64e-4409-a262-1fb1c9870265","ios":"levelo://app?vid=c68db951-f64e-4409-a262-1fb1c9870265"},"vehicle_type_id":"4","last_reported":1687212423,"current_range_meters":31200,"station_id":"","pricing_plan_id":"free"},{"bike_id":"7d21c94c-acb1-486b-9631-e8677c93e759","system_id":"levelo_inurba_marseille","lat":43.29034,"lon":5.37565,"is_reserved":false,"is_disabled":false,"rental_uris":{"android":"levelo://app?vid=7d21c94c-acb1-486b-9631-e8677c93e759","ios":"levelo://app?vid=7d21c94c-acb1-486b-9631-e8677c93e759"},"vehicle_type_id":"4","last_reported":1687212423,"current_range_meters":16400,"station_id":"ce4bh692rcd13ifvqe90","pricing_plan_id":"free"},{"bike_id":"0609f09b-61e5-40d1-a057-3a5b9409ddd1","system_id":"levelo_inurba_marseille","lat":43.29416,"lon":5.38628,"is_reserved":false,"is_disabled":false,"rental_uris":{"android":"levelo://app?vid=0609f09b-61e5-40d1-a057-3a5b9409ddd1","ios":"levelo://app?vid=0609f09b-61e5-40d1-a057-3a5b9409ddd1"},"vehicle_type_id":"4","last_reported":1687212423,"current_range_meters":28000,"station_id":"ce4bh2h2rcd13ifvqdh0","pricing_plan_id":"free"},{"bike_id":"461f49eb-59d2-4539-90ef-ea6cea2cfd30","system_id":"levelo_inurba_marseille","lat":43.289184,"lon":5.366408,"is_reserved":false,"is_disabled":false,"rental_uris":{"android":"levelo://app?vid=461f49eb-59d2-4539-90ef-ea6cea2cfd30","ios":"levelo://app?vid=461f49eb-59d2-4539-90ef-ea6cea2cfd30"},"vehicle_type_id":"4","last_reported":1687212423,"current_range_meters":25600,"station_id":"ce4bhap2rcd13ifvqek0","pricing_plan_id":"free"},{"bike_id":"3a98a594-78a7-4792-86ab-889e66ec5c37","system_id":"levelo_inurba_marseille","lat":43.28938,"lon":5.36628,"is_reserved":false,"is_disabled":false,"rental_uris":{"android":"levelo://app?vid=3a98a594-78a7-4792-86ab-889e66ec5c37","ios":"levelo://app?vid=3a98a594-78a7-4792-86ab-889e66ec5c37"},"vehicle_type_id":"4","last_reported":1687212423,"current_range_meters":0,"station_id":"ce4bhap2rcd13ifvqek0","pricing_plan_id":"free"},{"bike_id":"13996ae2-4dac-4749-b815-c9135c2ef0e4","system_id":"levelo_inurba_marseille","lat":43.28938,"lon":5.36627,"is_reserved":false,"is_disabled":false,"rental_uris":{"android":"levelo://app?vid=13996ae2-4dac-4749-b815-c9135c2ef0e4","ios":"levelo://app?vid=13996ae2-4dac-4749-b815-c9135c2ef0e4"},"vehicle_type_id":"4","last_reported":1687212423,"current_range_meters":31200,"station_id":"ce4bhap2rcd13ifvqek0","pricing_plan_id":"free"},{"bike_id":"6f7daecf-47d9-43ca-b607-ed4c8003beca","system_id":"levelo_inurba_marseille","lat":43.289184,"lon":5.366408,"is_reserved":false,"is_disabled":false,"rental_uris":{"android":"levelo://app?vid=6f7daecf-47d9-43ca-b607-ed4c8003beca","ios":"levelo://app?vid=6f7daecf-47d9-43ca-b607-ed4c8003beca"},"vehicle_type_id":"4","last_reported":1687212423,"current_range_meters":16000,"station_id":"ce4bhap2rcd13ifvqek0","pricing_plan_id":"free"},{"bike_id":"08297025-671f-40f9-90f9-0d6ccbad1dd6","system_id":"levelo_inurba_marseille","lat":43.289184,"lon":5.366408,"is_reserved":false,"is_disabled":false,"rental_uris":{"android":"levelo://app?vid=08297025-671f-40f9-90f9-0d6ccbad1dd6","ios":"levelo://app?vid=08297025-671f-40f9-90f9-0d6ccbad1dd6"},"vehicle_type_id":"4","last_reported":1687212423,"current_range_meters":28000,"station_id":"ce4bhap2rcd13ifvqek0","pricing_plan_id":"free"},{"bike_id":"253795c1-45b2-4c07-89a5-34d2564de43f","system_id":"levelo_inurba_marseille","lat":43.289184,"lon":5.366408,"is_reserved":false,"is_disabled":false,"rental_uris":{"android":"levelo://app?vid=253795c1-45b2-4c07-89a5-34d2564de43f","ios":"levelo://app?vid=253795c1-45b2-4c07-89a5-34d2564de43f"},"vehicle_type_id":"4","last_reported":1687212423,"current_range_meters":31200,"station_id":"ce4bhap2rcd13ifvqek0","pricing_plan_id":"free"},{"bike_id":"86204a71-32f7-48a3-b865-0fd0dea3e79b","system_id":"levelo_inurba_marseille","lat":43.28933,"lon":5.36624,"is_reserved":false,"is_disabled":false,"rental_uris":{"android":"levelo://app?vid=86204a71-32f7-48a3-b865-0fd0dea3e79b","ios":"levelo://app?vid=86204a71-32f7-48a3-b865-0fd0dea3e79b"},"vehicle_type_id":"4","last_reported":1687212423,"current_range_meters":31200,"station_id":"ce4bhap2rcd13ifvqek0","pricing_plan_id":"free"},{"bike_id":"737d5716-ef6d-4bfb-bdc7-d634eb75ef0b","system_id":"levelo_inurba_marseille","lat":43.28931,"lon":5.3663,"is_reserved":false,"is_disabled":false,"rental_uris":{"android":"levelo://app?vid=737d5716-ef6d-4bfb-bdc7-d634eb75ef0b","ios":"levelo://app?vid=737d5716-ef6d-4bfb-bdc7-d634eb75ef0b"},"vehicle_type_id":"4","last_reported":1687212423,"current_range_meters":31200,"station_id":"ce4bhap2rcd13ifvqek0","pricing_plan_id":"free"},{"bike_id":"298e3d0e-d68f-44d6-831f-eac509fff7b1","system_id":"levelo_inurba_marseille","lat":43.289184,"lon":5.366408,"is_reserved":false,"is_disabled":false,"rental_uris":{"android":"levelo://app?vid=298e3d0e-d68f-44d6-831f-eac509fff7b1","ios":"levelo://app?vid=298e3d0e-d68f-44d6-831f-eac509fff7b1"},"vehicle_type_id":"4","last_reported":1687212423,"current_range_meters":31200,"station_id":"ce4bhap2rcd13ifvqek0","pricing_plan_id":"free"},{"bike_id":"bee16c1e-f84c-46d2-b97f-ae246b01b0e5","system_id":"levelo_inurba_marseille","lat":43.289184,"lon":5.366408,"is_reserved":false,"is_disabled":false,"rental_uris":{"android":"levelo://app?vid=bee16c1e-f84c-46d2-b97f-ae246b01b0e5","ios":"levelo://app?vid=bee16c1e-f84c-46d2-b97f-ae246b01b0e5"},"vehicle_type_id":"4","last_reported":1687212423,"current_range_meters":30800,"station_id":"ce4bhap2rcd13ifvqek0","pricing_plan_id":"free"},{"bike_id":"130f1b1d-a7f8-4684-b640-85b60b02f8d7","system_id":"levelo_inurba_marseille","lat":43.289468,"lon":5.363719,"is_reserved":false,"is_disabled":false,"rental_uris":{"android":"levelo://app?vid=130f1b1d-a7f8-4684-b640-85b60b02f8d7","ios":"levelo://app?vid=130f1b1d-a7f8-4684-b640-85b60b02f8d7"},"vehicle_type_id":"4","last_reported":1687212423,"current_range_meters":9200,"station_id":"ce4bhc92rcd13ifvqetg","pricing_plan_id":"free"},{"bike_id":"4a42d68a-5d40-4010-8cfd-fd85e5ffa10d","system_id":"levelo_inurba_marseille","lat":43.292642,"lon":5.384254,"is_reserved":false,"is_disabled":false,"rental_uris":{"android":"levelo://app?vid=4a42d68a-5d40-4010-8cfd-fd85e5ffa10d","ios":"levelo://app?vid=4a42d68a-5d40-4010-8cfd-fd85e5ffa10d"},"vehicle_type_id":"4","last_reported":1687212423,"current_range_meters":30800,"station_id":"ce4bh692rcd13ifvqea0","pricing_plan_id":"free"},{"bike_id":"c8496791-f5d1-4d32-b8ea-c5272d38c999","system_id":"levelo_inurba_marseille","lat":43.304274,"lon":5.397513,"is_reserved":false,"is_disabled":false,"rental_uris":{"android":"levelo://app?vid=c8496791-f5d1-4d32-b8ea-c5272d38c999","ios":"levelo://app?vid=c8496791-f5d1-4d32-b8ea-c5272d38c999"},"vehicle_type_id":"4","last_reported":1687212423,"current_range_meters":10400,"station_id":"ce4bh092rcd13ifvqd20","pricing_plan_id":"free"},{"bike_id":"65883145-ef13-4b07-99f6-9ff118b3b919","system_id":"levelo_inurba_marseille","lat":43.292642,"lon":5.384254,"is_reserved":false,"is_disabled":false,"rental_uris":{"android":"levelo://app?vid=65883145-ef13-4b07-99f6-9ff118b3b919","ios":"levelo://app?vid=65883145-ef13-4b07-99f6-9ff118b3b919"},"vehicle_type_id":"4","last_reported":1687212423,"current_range_meters":6000,"station_id":"ce4bh692rcd13ifvqea0","pricing_plan_id":"free"},{"bike_id":"675c9d76-7e0e-4c87-a28d-f11e6cca3290","system_id":"levelo_inurba_marseille","lat":43.304274,"lon":5.397513,"is_reserved":false,"is_disabled":false,"rental_uris":{"android":"levelo://app?vid=675c9d76-7e0e-4c87-a28d-f11e6cca3290","ios":"levelo://app?vid=675c9d76-7e0e-4c87-a28d-f11e6cca3290"},"vehicle_type_id":"4","last_reported":1687212423,"current_range_meters":28800,"station_id":"ce4bh092rcd13ifvqd20","pricing_plan_id":"free"},{"bike_id":"474c64f1-54c8-47eb-a881-1854d735eee9","system_id":"levelo_inurba_marseille","lat":43.304296,"lon":5.397513,"is_reserved":false,"is_disabled":false,"rental_uris":{"android":"levelo://app?vid=474c64f1-54c8-47eb-a881-1854d735eee9","ios":"levelo://app?vid=474c64f1-54c8-47eb-a881-1854d735eee9"},"vehicle_type_id":"4","last_reported":1687212423,"current_range_meters":17200,"station_id":"ce4bh092rcd13ifvqd20","pricing_plan_id":"free"},{"bike_id":"38eb09af-7166-42b9-865e-84246929498f","system_id":"levelo_inurba_marseille","lat":43.292644,"lon":5.384257,"is_reserved":false,"is_disabled":false,"rental_uris":{"android":"levelo://app?vid=38eb09af-7166-42b9-865e-84246929498f","ios":"levelo://app?vid=38eb09af-7166-42b9-865e-84246929498f"},"vehicle_type_id":"4","last_reported":1687212423,"current_range_meters":31200,"station_id":"ce4bh692rcd13ifvqea0","pricing_plan_id":"free"},{"bike_id":"ec3c8939-a1ee-4f5d-a00c-6fa1b447e878","system_id":"levelo_inurba_marseille","lat":43.33041,"lon":5.38916,"is_reserved":false,"is_disabled":false,"rental_uris":{"android":"levelo://app?vid=ec3c8939-a1ee-4f5d-a00c-6fa1b447e878","ios":"levelo://app?vid=ec3c8939-a1ee-4f5d-a00c-6fa1b447e878"},"vehicle_type_id":"4","last_reported":1687212423,"current_range_meters":14400,"station_id":"ce4bhr92rcd13ifvqhrg","pricing_plan_id":"free"},{"bike_id":"a2910c65-f8d5-465e-b057-01d7ad4c9d21","system_id":"levelo_inurba_marseille","lat":43.33044,"lon":5.38914,"is_reserved":false,"is_disabled":false,"rental_uris":{"android":"levelo://app?vid=a2910c65-f8d5-465e-b057-01d7ad4c9d21","ios":"levelo://app?vid=a2910c65-f8d5-465e-b057-01d7ad4c9d21"},"vehicle_type_id":"4","last_reported":1687212423,"current_range_meters":12400,"station_id":"ce4bhr92rcd13ifvqhrg","pricing_plan_id":"free"},{"bike_id":"ecc4fbfe-54d6-4b1e-b301-e4552d8086e5","system_id":"levelo_inurba_marseille","lat":43.33046,"lon":5.38916,"is_reserved":false,"is_disabled":false,"rental_uris":{"android":"levelo://app?vid=ecc4fbfe-54d6-4b1e-b301-e4552d8086e5","ios":"levelo://app?vid=ecc4fbfe-54d6-4b1e-b301-e4552d8086e5"},"vehicle_type_id":"4","last_reported":1687212423,"current_range_meters":18400,"station_id":"ce4bhr92rcd13ifvqhrg","pricing_plan_id":"free"},{"bike_id":"3ed4fd17-55f4-48e1-9ea7-f26b6aeca97c","system_id":"levelo_inurba_marseille","lat":43.29009,"lon":5.35605,"is_reserved":false,"is_disabled":false,"rental_uris":{"android":"levelo://app?vid=3ed4fd17-55f4-48e1-9ea7-f26b6aeca97c","ios":"levelo://app?vid=3ed4fd17-55f4-48e1-9ea7-f26b6aeca97c"},"vehicle_type_id":"4","last_reported":1687212423,"current_range_meters":30400,"station_id":"ce4bhb92rcd13ifvqen0","pricing_plan_id":"free"},{"bike_id":"b20c189e-273c-47fc-aeca-9cc354825f68","system_id":"levelo_inurba_marseille","lat":43.295169,"lon":5.390426,"is_reserved":false,"is_disabled":false,"rental_uris":{"android":"levelo://app?vid=b20c189e-273c-47fc-aeca-9cc354825f68","ios":"levelo://app?vid=b20c189e-273c-47fc-aeca-9cc354825f68"},"vehicle_type_id":"4","last_reported":1687212423,"current_range_meters":6400,"station_id":"ce4bh3p2rcd13ifvqdp0","pricing_plan_id":"free"},{"bike_id":"aa1817e6-a669-4065-9318-740260c08cc5","system_id":"levelo_inurba_marseille","lat":43.297815,"lon":5.393548,"is_reserved":false,"is_disabled":false,"rental_uris":{"android":"levelo://app?vid=aa1817e6-a669-4065-9318-740260c08cc5","ios":"levelo://app?vid=aa1817e6-a669-4065-9318-740260c08cc5"},"vehicle_type_id":"4","last_reported":1687212423,"current_range_meters":2400,"station_id":"chh1huq6cuj3fo74tm60","pricing_plan_id":"free"},{"bike_id":"33510915-09ce-4b3d-948a-520fc36327fb","system_id":"levelo_inurba_marseille","lat":43.295169,"lon":5.390426,"is_reserved":false,"is_disabled":false,"rental_uris":{"android":"levelo://app?vid=33510915-09ce-4b3d-948a-520fc36327fb","ios":"levelo://app?vid=33510915-09ce-4b3d-948a-520fc36327fb"},"vehicle_type_id":"4","last_reported":1687212423,"current_range_meters":30800,"station_id":"ce4bh3p2rcd13ifvqdp0","pricing_plan_id":"free"},{"bike_id":"f0024a45-4aa0-4dee-88fa-9912da60206c","system_id":"levelo_inurba_marseille","lat":43.295169,"lon":5.390426,"is_reserved":false,"is_disabled":false,"rental_uris":{"android":"levelo://app?vid=f0024a45-4aa0-4dee-88fa-9912da60206c","ios":"levelo://app?vid=f0024a45-4aa0-4dee-88fa-9912da60206c"},"vehicle_type_id":"4","last_reported":1687212423,"current_range_meters":31200,"station_id":"ce4bh3p2rcd13ifvqdp0","pricing_plan_id":"free"},{"bike_id":"c00d9643-542c-4013-a791-68fb9d80eb0c","system_id":"levelo_inurba_marseille","lat":43.28974,"lon":5.3783,"is_reserved":false,"is_disabled":false,"rental_uris":{"android":"levelo://app?vid=c00d9643-542c-4013-a791-68fb9d80eb0c","ios":"levelo://app?vid=c00d9643-542c-4013-a791-68fb9d80eb0c"},"vehicle_type_id":"4","last_reported":1687212423,"current_range_meters":25200,"station_id":"ce4bh9p2rcd13ifvqed0","pricing_plan_id":"free"},{"bike_id":"dbf061f2-72bf-4ade-b69a-4b731333442f","system_id":"levelo_inurba_marseille","lat":43.295169,"lon":5.390426,"is_reserved":false,"is_disabled":false,"rental_uris":{"android":"levelo://app?vid=dbf061f2-72bf-4ade-b69a-4b731333442f","ios":"levelo://app?vid=dbf061f2-72bf-4ade-b69a-4b731333442f"},"vehicle_type_id":"4","last_reported":1687212423,"current_range_meters":31200,"station_id":"ce4bh3p2rcd13ifvqdp0","pricing_plan_id":"free"},{"bike_id":"b9b44b37-7edf-4ab6-8685-17eb58a26dbc","system_id":"levelo_inurba_marseille","lat":43.295169,"lon":5.390426,"is_reserved":false,"is_disabled":false,"rental_uris":{"android":"levelo://app?vid=b9b44b37-7edf-4ab6-8685-17eb58a26dbc","ios":"levelo://app?vid=b9b44b37-7edf-4ab6-8685-17eb58a26dbc"},"vehicle_type_id":"4","last_reported":1687212423,"current_range_meters":31200,"station_id":"ce4bh3p2rcd13ifvqdp0","pricing_plan_id":"free"},{"bike_id":"2b1edd20-0ed8-4a99-b710-908da06354a4","system_id":"levelo_inurba_marseille","lat":43.289723,"lon":5.378348,"is_reserved":false,"is_disabled":false,"rental_uris":{"android":"levelo://app?vid=2b1edd20-0ed8-4a99-b710-908da06354a4","ios":"levelo://app?vid=2b1edd20-0ed8-4a99-b710-908da06354a4"},"vehicle_type_id":"4","last_reported":1687212423,"current_range_meters":30800,"station_id":"ce4bh9p2rcd13ifvqed0","pricing_plan_id":"free"},{"bike_id":"54590e75-dc5a-4a8a-b9c5-a0a5343a8aa3","system_id":"levelo_inurba_marseille","lat":43.289741,"lon":5.378306,"is_reserved":false,"is_disabled":false,"rental_uris":{"android":"levelo://app?vid=54590e75-dc5a-4a8a-b9c5-a0a5343a8aa3","ios":"levelo://app?vid=54590e75-dc5a-4a8a-b9c5-a0a5343a8aa3"},"vehicle_type_id":"4","last_reported":1687212423,"current_range_meters":24400,"station_id":"ce4bh9p2rcd13ifvqed0","pricing_plan_id":"free"},{"bike_id":"9d99f6f6-a1bc-43e0-9146-4c74222c3232","system_id":"levelo_inurba_marseille","lat":43.289741,"lon":5.378306,"is_reserved":false,"is_disabled":false,"rental_uris":{"android":"levelo://app?vid=9d99f6f6-a1bc-43e0-9146-4c74222c3232","ios":"levelo://app?vid=9d99f6f6-a1bc-43e0-9146-4c74222c3232"},"vehicle_type_id":"4","last_reported":1687212423,"current_range_meters":5600,"station_id":"ce4bh9p2rcd13ifvqed0","pricing_plan_id":"free"},{"bike_id":"7a6e6fc4-6488-4261-978f-d61bfcde5dc1","system_id":"levelo_inurba_marseille","lat":43.295169,"lon":5.390426,"is_reserved":false,"is_disabled":false,"rental_uris":{"android":"levelo://app?vid=7a6e6fc4-6488-4261-978f-d61bfcde5dc1","ios":"levelo://app?vid=7a6e6fc4-6488-4261-978f-d61bfcde5dc1"},"vehicle_type_id":"4","last_reported":1687212423,"current_range_meters":31600,"station_id":"ce4bh3p2rcd13ifvqdp0","pricing_plan_id":"free"},{"bike_id":"50acd0f6-e8ab-4440-bf11-e8e1472f5652","system_id":"levelo_inurba_marseille","lat":43.289741,"lon":5.378306,"is_reserved":false,"is_disabled":false,"rental_uris":{"android":"levelo://app?vid=50acd0f6-e8ab-4440-bf11-e8e1472f5652","ios":"levelo://app?vid=50acd0f6-e8ab-4440-bf11-e8e1472f5652"},"vehicle_type_id":"4","last_reported":1687212423,"current_range_meters":18800,"station_id":"ce4bh9p2rcd13ifvqed0","pricing_plan_id":"free"},{"bike_id":"c1b573d5-8ef0-414e-93ef-124839ee6436","system_id":"levelo_inurba_marseille","lat":43.28856,"lon":5.358371,"is_reserved":false,"is_disabled":false,"rental_uris":{"android":"levelo://app?vid=c1b573d5-8ef0-414e-93ef-124839ee6436","ios":"levelo://app?vid=c1b573d5-8ef0-414e-93ef-124839ee6436"},"vehicle_type_id":"4","last_reported":1687212423,"current_range_meters":18800,"station_id":"ce4bhb12rcd13ifvqem0","pricing_plan_id":"free"},{"bike_id":"e154deb4-4fad-4dfd-aa6b-e4940db73572","system_id":"levelo_inurba_marseille","lat":43.28856,"lon":5.358371,"is_reserved":false,"is_disabled":false,"rental_uris":{"android":"levelo://app?vid=e154deb4-4fad-4dfd-aa6b-e4940db73572","ios":"levelo://app?vid=e154deb4-4fad-4dfd-aa6b-e4940db73572"},"vehicle_type_id":"4","last_reported":1687212423,"current_range_meters":14000,"station_id":"ce4bhb12rcd13ifvqem0","pricing_plan_id":"free"},{"bike_id":"393ab6fd-a205-455d-982f-deec35e6a2c6","system_id":"levelo_inurba_marseille","lat":43.28849,"lon":5.3583,"is_reserved":false,"is_disabled":false,"rental_uris":{"android":"levelo://app?vid=393ab6fd-a205-455d-982f-deec35e6a2c6","ios":"levelo://app?vid=393ab6fd-a205-455d-982f-deec35e6a2c6"},"vehicle_type_id":"4","last_reported":1687212423,"current_range_meters":30800,"station_id":"ce4bhb12rcd13ifvqem0","pricing_plan_id":"free"},{"bike_id":"d23da691-1ad9-401f-8ad8-0a9defbe9b1a","system_id":"levelo_inurba_marseille","lat":43.30932,"lon":5.40133,"is_reserved":false,"is_disabled":false,"rental_uris":{"android":"levelo://app?vid=d23da691-1ad9-401f-8ad8-0a9defbe9b1a","ios":"levelo://app?vid=d23da691-1ad9-401f-8ad8-0a9defbe9b1a"},"vehicle_type_id":"4","last_reported":1687212423,"current_range_meters":31200,"station_id":"ce4bgvp2rcd13ifvqct0","pricing_plan_id":"free"},{"bike_id":"e006e3f1-73af-4d4d-8626-313aed5b5829","system_id":"levelo_inurba_marseille","lat":43.30935,"lon":5.40138,"is_reserved":false,"is_disabled":false,"rental_uris":{"android":"levelo://app?vid=e006e3f1-73af-4d4d-8626-313aed5b5829","ios":"levelo://app?vid=e006e3f1-73af-4d4d-8626-313aed5b5829"},"vehicle_type_id":"4","last_reported":1687212423,"current_range_meters":31200,"station_id":"ce4bgvp2rcd13ifvqct0","pricing_plan_id":"free"},{"bike_id":"ee3ec317-941d-4264-bf47-79de737978c9","system_id":"levelo_inurba_marseille","lat":43.309371,"lon":5.401449,"is_reserved":false,"is_disabled":false,"rental_uris":{"android":"levelo://app?vid=ee3ec317-941d-4264-bf47-79de737978c9","ios":"levelo://app?vid=ee3ec317-941d-4264-bf47-79de737978c9"},"vehicle_type_id":"4","last_reported":1687212423,"current_range_meters":24400,"station_id":"ce4bgvp2rcd13ifvqct0","pricing_plan_id":"free"},{"bike_id":"4e42d55c-2cef-4129-88a6-703c7d1391a5","system_id":"levelo_inurba_marseille","lat":43.306412,"lon":5.401035,"is_reserved":false,"is_disabled":false,"rental_uris":{"android":"levelo://app?vid=4e42d55c-2cef-4129-88a6-703c7d1391a5","ios":"levelo://app?vid=4e42d55c-2cef-4129-88a6-703c7d1391a5"},"vehicle_type_id":"4","last_reported":1687212423,"current_range_meters":15200,"station_id":"ce4bh112rcd13ifvqda0","pricing_plan_id":"free"},{"bike_id":"54dd9ff6-8947-40a4-9851-f6ab53f196c7","system_id":"levelo_inurba_marseille","lat":43.309371,"lon":5.401449,"is_reserved":false,"is_disabled":false,"rental_uris":{"android":"levelo://app?vid=54dd9ff6-8947-40a4-9851-f6ab53f196c7","ios":"levelo://app?vid=54dd9ff6-8947-40a4-9851-f6ab53f196c7"},"vehicle_type_id":"4","last_reported":1687212423,"current_range_meters":12000,"station_id":"ce4bgvp2rcd13ifvqct0","pricing_plan_id":"free"},{"bike_id":"5c485a33-2430-456b-afb3-307aac6a8424","system_id":"levelo_inurba_marseille","lat":43.33754,"lon":5.37455,"is_reserved":false,"is_disabled":false,"rental_uris":{"android":"levelo://app?vid=5c485a33-2430-456b-afb3-307aac6a8424","ios":"levelo://app?vid=5c485a33-2430-456b-afb3-307aac6a8424"},"vehicle_type_id":"4","last_reported":1687212423,"current_range_meters":24000,"station_id":"","pricing_plan_id":"free"},{"bike_id":"42a2a75a-9d72-4603-bca9-e6720bab50e0","system_id":"levelo_inurba_marseille","lat":43.306412,"lon":5.401035,"is_reserved":false,"is_disabled":false,"rental_uris":{"android":"levelo://app?vid=42a2a75a-9d72-4603-bca9-e6720bab50e0","ios":"levelo://app?vid=42a2a75a-9d72-4603-bca9-e6720bab50e0"},"vehicle_type_id":"4","last_reported":1687212423,"current_range_meters":22800,"station_id":"ce4bh112rcd13ifvqda0","pricing_plan_id":"free"},{"bike_id":"41a8749b-6d93-4d1b-8e52-c5f60f65ae7c","system_id":"levelo_inurba_marseille","lat":43.33756,"lon":5.3745,"is_reserved":false,"is_disabled":false,"rental_uris":{"android":"levelo://app?vid=41a8749b-6d93-4d1b-8e52-c5f60f65ae7c","ios":"levelo://app?vid=41a8749b-6d93-4d1b-8e52-c5f60f65ae7c"},"vehicle_type_id":"4","last_reported":1687212423,"current_range_meters":30000,"station_id":"","pricing_plan_id":"free"},{"bike_id":"11dbdfab-c63b-4465-a5f0-6be39a3c28ae","system_id":"levelo_inurba_marseille","lat":43.30638,"lon":5.40076,"is_reserved":false,"is_disabled":false,"rental_uris":{"android":"levelo://app?vid=11dbdfab-c63b-4465-a5f0-6be39a3c28ae","ios":"levelo://app?vid=11dbdfab-c63b-4465-a5f0-6be39a3c28ae"},"vehicle_type_id":"4","last_reported":1687212423,"current_range_meters":400,"station_id":"ce4bh112rcd13ifvqda0","pricing_plan_id":"free"},{"bike_id":"597f3c43-c39f-4923-a2b3-d905b18f3e9a","system_id":"levelo_inurba_marseille","lat":43.3065,"lon":5.40089,"is_reserved":false,"is_disabled":false,"rental_uris":{"android":"levelo://app?vid=597f3c43-c39f-4923-a2b3-d905b18f3e9a","ios":"levelo://app?vid=597f3c43-c39f-4923-a2b3-d905b18f3e9a"},"vehicle_type_id":"4","last_reported":1687212423,"current_range_meters":9200,"station_id":"ce4bh112rcd13ifvqda0","pricing_plan_id":"free"},{"bike_id":"d78dc2e2-47c5-4530-bc0e-cef965c9fbc8","system_id":"levelo_inurba_marseille","lat":43.30642,"lon":5.40088,"is_reserved":false,"is_disabled":false,"rental_uris":{"android":"levelo://app?vid=d78dc2e2-47c5-4530-bc0e-cef965c9fbc8","ios":"levelo://app?vid=d78dc2e2-47c5-4530-bc0e-cef965c9fbc8"},"vehicle_type_id":"4","last_reported":1687212423,"current_range_meters":23600,"station_id":"ce4bh112rcd13ifvqda0","pricing_plan_id":"free"},{"bike_id":"2bd08979-1d7f-4e57-929e-22f08880daa5","system_id":"levelo_inurba_marseille","lat":43.30807,"lon":5.4014,"is_reserved":false,"is_disabled":false,"rental_uris":{"android":"levelo://app?vid=2bd08979-1d7f-4e57-929e-22f08880daa5","ios":"levelo://app?vid=2bd08979-1d7f-4e57-929e-22f08880daa5"},"vehicle_type_id":"4","last_reported":1687212423,"current_range_meters":17600,"station_id":"","pricing_plan_id":"free"},{"bike_id":"43742226-fb51-4473-a2db-1e14e05612a6","system_id":"levelo_inurba_marseille","lat":43.3064,"lon":5.40091,"is_reserved":false,"is_disabled":false,"rental_uris":{"android":"levelo://app?vid=43742226-fb51-4473-a2db-1e14e05612a6","ios":"levelo://app?vid=43742226-fb51-4473-a2db-1e14e05612a6"},"vehicle_type_id":"4","last_reported":1687212423,"current_range_meters":20000,"station_id":"ce4bh112rcd13ifvqda0","pricing_plan_id":"free"},{"bike_id":"c00a9517-b434-4929-ae6d-ac0761f89590","system_id":"levelo_inurba_marseille","lat":43.30648,"lon":5.40096,"is_reserved":false,"is_disabled":false,"rental_uris":{"android":"levelo://app?vid=c00a9517-b434-4929-ae6d-ac0761f89590","ios":"levelo://app?vid=c00a9517-b434-4929-ae6d-ac0761f89590"},"vehicle_type_id":"4","last_reported":1687212423,"current_range_meters":8000,"station_id":"ce4bh112rcd13ifvqda0","pricing_plan_id":"free"},{"bike_id":"5526ae06-da9b-4f72-a6a7-ea19e9331d60","system_id":"levelo_inurba_marseille","lat":43.30639,"lon":5.40095,"is_reserved":false,"is_disabled":false,"rental_uris":{"android":"levelo://app?vid=5526ae06-da9b-4f72-a6a7-ea19e9331d60","ios":"levelo://app?vid=5526ae06-da9b-4f72-a6a7-ea19e9331d60"},"vehicle_type_id":"4","last_reported":1687212423,"current_range_meters":22800,"station_id":"ce4bh112rcd13ifvqda0","pricing_plan_id":"free"},{"bike_id":"f2a370ec-6d9e-4a74-a332-c950fa09e1b5","system_id":"levelo_inurba_marseille","lat":43.301117,"lon":5.398795,"is_reserved":false,"is_disabled":false,"rental_uris":{"android":"levelo://app?vid=f2a370ec-6d9e-4a74-a332-c950fa09e1b5","ios":"levelo://app?vid=f2a370ec-6d9e-4a74-a332-c950fa09e1b5"},"vehicle_type_id":"4","last_reported":1687212423,"current_range_meters":16400,"station_id":"ce4bh0h2rcd13ifvqd40","pricing_plan_id":"free"},{"bike_id":"b34b0b72-8cc8-4086-a968-440a07c19996","system_id":"levelo_inurba_marseille","lat":43.30591,"lon":5.40096,"is_reserved":false,"is_disabled":false,"rental_uris":{"android":"levelo://app?vid=b34b0b72-8cc8-4086-a968-440a07c19996","ios":"levelo://app?vid=b34b0b72-8cc8-4086-a968-440a07c19996"},"vehicle_type_id":"4","last_reported":1687212423,"current_range_meters":15200,"station_id":"","pricing_plan_id":"free"},{"bike_id":"53f21114-10d8-4fe5-9569-e3085a0c14e9","system_id":"levelo_inurba_marseille","lat":43.301117,"lon":5.398795,"is_reserved":false,"is_disabled":false,"rental_uris":{"android":"levelo://app?vid=53f21114-10d8-4fe5-9569-e3085a0c14e9","ios":"levelo://app?vid=53f21114-10d8-4fe5-9569-e3085a0c14e9"},"vehicle_type_id":"4","last_reported":1687212423,"current_range_meters":400,"station_id":"ce4bh0h2rcd13ifvqd40","pricing_plan_id":"free"},{"bike_id":"b3693130-0fbb-4a60-acad-7a6735772b64","system_id":"levelo_inurba_marseille","lat":43.301117,"lon":5.398795,"is_reserved":false,"is_disabled":false,"rental_uris":{"android":"levelo://app?vid=b3693130-0fbb-4a60-acad-7a6735772b64","ios":"levelo://app?vid=b3693130-0fbb-4a60-acad-7a6735772b64"},"vehicle_type_id":"4","last_reported":1687212423,"current_range_meters":14800,"station_id":"ce4bh0h2rcd13ifvqd40","pricing_plan_id":"free"},{"bike_id":"c19d18ab-0551-4b60-9271-c56c586526af","system_id":"levelo_inurba_marseille","lat":43.286591,"lon":5.363346,"is_reserved":false,"is_disabled":false,"rental_uris":{"android":"levelo://app?vid=c19d18ab-0551-4b60-9271-c56c586526af","ios":"levelo://app?vid=c19d18ab-0551-4b60-9271-c56c586526af"},"vehicle_type_id":"4","last_reported":1687212423,"current_range_meters":30400,"station_id":"ce4bhah2rcd13ifvqej0","pricing_plan_id":"free"},{"bike_id":"819b5144-aca3-4c99-9e90-5071072414aa","system_id":"levelo_inurba_marseille","lat":43.286591,"lon":5.363346,"is_reserved":false,"is_disabled":false,"rental_uris":{"android":"levelo://app?vid=819b5144-aca3-4c99-9e90-5071072414aa","ios":"levelo://app?vid=819b5144-aca3-4c99-9e90-5071072414aa"},"vehicle_type_id":"4","last_reported":1687212423,"current_range_meters":16400,"station_id":"ce4bhah2rcd13ifvqej0","pricing_plan_id":"free"},{"bike_id":"26f2452e-80d2-47a2-b2eb-062da5d2be94","system_id":"levelo_inurba_marseille","lat":43.286591,"lon":5.363346,"is_reserved":false,"is_disabled":false,"rental_uris":{"android":"levelo://app?vid=26f2452e-80d2-47a2-b2eb-062da5d2be94","ios":"levelo://app?vid=26f2452e-80d2-47a2-b2eb-062da5d2be94"},"vehicle_type_id":"4","last_reported":1687212423,"current_range_meters":28800,"station_id":"ce4bhah2rcd13ifvqej0","pricing_plan_id":"free"},{"bike_id":"74bd893a-d183-4975-a74c-9e7eb43bc9f4","system_id":"levelo_inurba_marseille","lat":43.286591,"lon":5.363346,"is_reserved":false,"is_disabled":false,"rental_uris":{"android":"levelo://app?vid=74bd893a-d183-4975-a74c-9e7eb43bc9f4","ios":"levelo://app?vid=74bd893a-d183-4975-a74c-9e7eb43bc9f4"},"vehicle_type_id":"4","last_reported":1687212423,"current_range_meters":24000,"station_id":"ce4bhah2rcd13ifvqej0","pricing_plan_id":"free"},{"bike_id":"41438965-7576-4ba1-a2b9-bf2152b5fe96","system_id":"levelo_inurba_marseille","lat":43.286593,"lon":5.363346,"is_reserved":false,"is_disabled":false,"rental_uris":{"android":"levelo://app?vid=41438965-7576-4ba1-a2b9-bf2152b5fe96","ios":"levelo://app?vid=41438965-7576-4ba1-a2b9-bf2152b5fe96"},"vehicle_type_id":"4","last_reported":1687212423,"current_range_meters":31200,"station_id":"ce4bhah2rcd13ifvqej0","pricing_plan_id":"free"},{"bike_id":"9c4783ec-70c3-4644-8cc1-31ec8046ceee","system_id":"levelo_inurba_marseille","lat":43.298681,"lon":5.397225,"is_reserved":false,"is_disabled":false,"rental_uris":{"android":"levelo://app?vid=9c4783ec-70c3-4644-8cc1-31ec8046ceee","ios":"levelo://app?vid=9c4783ec-70c3-4644-8cc1-31ec8046ceee"},"vehicle_type_id":"4","last_reported":1687212423,"current_range_meters":18400,"station_id":"ce4bh0h2rcd13ifvqd50","pricing_plan_id":"free"},{"bike_id":"d3cc82bc-6e21-4d51-b2ba-207d7cb74e28","system_id":"levelo_inurba_marseille","lat":43.298681,"lon":5.397225,"is_reserved":false,"is_disabled":false,"rental_uris":{"android":"levelo://app?vid=d3cc82bc-6e21-4d51-b2ba-207d7cb74e28","ios":"levelo://app?vid=d3cc82bc-6e21-4d51-b2ba-207d7cb74e28"},"vehicle_type_id":"4","last_reported":1687212423,"current_range_meters":7600,"station_id":"ce4bh0h2rcd13ifvqd50","pricing_plan_id":"free"},{"bike_id":"59a8dd6e-0c6a-4f29-baa9-849daffd0f17","system_id":"levelo_inurba_marseille","lat":43.286591,"lon":5.363346,"is_reserved":false,"is_disabled":false,"rental_uris":{"android":"levelo://app?vid=59a8dd6e-0c6a-4f29-baa9-849daffd0f17","ios":"levelo://app?vid=59a8dd6e-0c6a-4f29-baa9-849daffd0f17"},"vehicle_type_id":"4","last_reported":1687212423,"current_range_meters":31600,"station_id":"ce4bhah2rcd13ifvqej0","pricing_plan_id":"free"},{"bike_id":"f6a9d880-3c4c-4303-9e41-a38c3d4fb2d9","system_id":"levelo_inurba_marseille","lat":43.286591,"lon":5.363346,"is_reserved":false,"is_disabled":false,"rental_uris":{"android":"levelo://app?vid=f6a9d880-3c4c-4303-9e41-a38c3d4fb2d9","ios":"levelo://app?vid=f6a9d880-3c4c-4303-9e41-a38c3d4fb2d9"},"vehicle_type_id":"4","last_reported":1687212423,"current_range_meters":31200,"station_id":"ce4bhah2rcd13ifvqej0","pricing_plan_id":"free"},{"bike_id":"6508969b-e311-4e99-a7e1-d3604e63463d","system_id":"levelo_inurba_marseille","lat":43.28705,"lon":5.37386,"is_reserved":false,"is_disabled":false,"rental_uris":{"android":"levelo://app?vid=6508969b-e311-4e99-a7e1-d3604e63463d","ios":"levelo://app?vid=6508969b-e311-4e99-a7e1-d3604e63463d"},"vehicle_type_id":"4","last_reported":1687212423,"current_range_meters":31200,"station_id":"ce4bh3p2rcd13ifvqdq0","pricing_plan_id":"free"},{"bike_id":"0896dc81-9870-4d05-9d15-ec1bb925afc2","system_id":"levelo_inurba_marseille","lat":43.286593,"lon":5.363346,"is_reserved":false,"is_disabled":false,"rental_uris":{"android":"levelo://app?vid=0896dc81-9870-4d05-9d15-ec1bb925afc2","ios":"levelo://app?vid=0896dc81-9870-4d05-9d15-ec1bb925afc2"},"vehicle_type_id":"4","last_reported":1687212423,"current_range_meters":14800,"station_id":"ce4bhah2rcd13ifvqej0","pricing_plan_id":"free"},{"bike_id":"eca0acdc-7d10-4eea-aa74-3b0ef91d232d","system_id":"levelo_inurba_marseille","lat":43.286593,"lon":5.363346,"is_reserved":false,"is_disabled":false,"rental_uris":{"android":"levelo://app?vid=eca0acdc-7d10-4eea-aa74-3b0ef91d232d","ios":"levelo://app?vid=eca0acdc-7d10-4eea-aa74-3b0ef91d232d"},"vehicle_type_id":"4","last_reported":1687212423,"current_range_meters":10800,"station_id":"ce4bhah2rcd13ifvqej0","pricing_plan_id":"free"},{"bike_id":"7a6f15a6-ec12-4715-9c04-7103b414ff99","system_id":"levelo_inurba_marseille","lat":43.298681,"lon":5.397225,"is_reserved":false,"is_disabled":false,"rental_uris":{"android":"levelo://app?vid=7a6f15a6-ec12-4715-9c04-7103b414ff99","ios":"levelo://app?vid=7a6f15a6-ec12-4715-9c04-7103b414ff99"},"vehicle_type_id":"4","last_reported":1687212423,"current_range_meters":14000,"station_id":"ce4bh0h2rcd13ifvqd50","pricing_plan_id":"free"},{"bike_id":"73e615cb-766d-4e16-a305-1e8bfaeeaa68","system_id":"levelo_inurba_marseille","lat":43.286591,"lon":5.363346,"is_reserved":false,"is_disabled":false,"rental_uris":{"android":"levelo://app?vid=73e615cb-766d-4e16-a305-1e8bfaeeaa68","ios":"levelo://app?vid=73e615cb-766d-4e16-a305-1e8bfaeeaa68"},"vehicle_type_id":"4","last_reported":1687212423,"current_range_meters":13600,"station_id":"ce4bhah2rcd13ifvqej0","pricing_plan_id":"free"},{"bike_id":"77f87782-71ce-4bfc-b347-ed91a6cb4e6b","system_id":"levelo_inurba_marseille","lat":43.286961,"lon":5.373785,"is_reserved":false,"is_disabled":false,"rental_uris":{"android":"levelo://app?vid=77f87782-71ce-4bfc-b347-ed91a6cb4e6b","ios":"levelo://app?vid=77f87782-71ce-4bfc-b347-ed91a6cb4e6b"},"vehicle_type_id":"4","last_reported":1687212423,"current_range_meters":31200,"station_id":"ce4bh3p2rcd13ifvqdq0","pricing_plan_id":"free"},{"bike_id":"1b42baf5-7194-4b55-a4fc-62cb560a4312","system_id":"levelo_inurba_marseille","lat":43.298681,"lon":5.397225,"is_reserved":false,"is_disabled":false,"rental_uris":{"android":"levelo://app?vid=1b42baf5-7194-4b55-a4fc-62cb560a4312","ios":"levelo://app?vid=1b42baf5-7194-4b55-a4fc-62cb560a4312"},"vehicle_type_id":"4","last_reported":1687212423,"current_range_meters":6800,"station_id":"ce4bh0h2rcd13ifvqd50","pricing_plan_id":"free"},{"bike_id":"697d0064-8226-4301-9c1d-cbecbbcf4f30","system_id":"levelo_inurba_marseille","lat":43.298681,"lon":5.397225,"is_reserved":false,"is_disabled":false,"rental_uris":{"android":"levelo://app?vid=697d0064-8226-4301-9c1d-cbecbbcf4f30","ios":"levelo://app?vid=697d0064-8226-4301-9c1d-cbecbbcf4f30"},"vehicle_type_id":"4","last_reported":1687212423,"current_range_meters":11600,"station_id":"ce4bh0h2rcd13ifvqd50","pricing_plan_id":"free"},{"bike_id":"42ff071e-316a-4b7a-9675-009743f02561","system_id":"levelo_inurba_marseille","lat":43.287,"lon":5.37395,"is_reserved":false,"is_disabled":false,"rental_uris":{"android":"levelo://app?vid=42ff071e-316a-4b7a-9675-009743f02561","ios":"levelo://app?vid=42ff071e-316a-4b7a-9675-009743f02561"},"vehicle_type_id":"4","last_reported":1687212423,"current_range_meters":31200,"station_id":"ce4bh3p2rcd13ifvqdq0","pricing_plan_id":"free"},{"bike_id":"7d9876a4-6d60-4a00-913f-f07acb5c951d","system_id":"levelo_inurba_marseille","lat":43.28698,"lon":5.37385,"is_reserved":false,"is_disabled":false,"rental_uris":{"android":"levelo://app?vid=7d9876a4-6d60-4a00-913f-f07acb5c951d","ios":"levelo://app?vid=7d9876a4-6d60-4a00-913f-f07acb5c951d"},"vehicle_type_id":"4","last_reported":1687212423,"current_range_meters":31200,"station_id":"ce4bh3p2rcd13ifvqdq0","pricing_plan_id":"free"},{"bike_id":"a859e5bc-6ff4-4b17-a34d-b8d8f44c2788","system_id":"levelo_inurba_marseille","lat":43.28698,"lon":5.37388,"is_reserved":false,"is_disabled":false,"rental_uris":{"android":"levelo://app?vid=a859e5bc-6ff4-4b17-a34d-b8d8f44c2788","ios":"levelo://app?vid=a859e5bc-6ff4-4b17-a34d-b8d8f44c2788"},"vehicle_type_id":"4","last_reported":1687212423,"current_range_meters":31200,"station_id":"ce4bh3p2rcd13ifvqdq0","pricing_plan_id":"free"},{"bike_id":"d58e2862-e122-4c0d-85cc-e1677792f8a8","system_id":"levelo_inurba_marseille","lat":43.28696,"lon":5.3739,"is_reserved":false,"is_disabled":false,"rental_uris":{"android":"levelo://app?vid=d58e2862-e122-4c0d-85cc-e1677792f8a8","ios":"levelo://app?vid=d58e2862-e122-4c0d-85cc-e1677792f8a8"},"vehicle_type_id":"4","last_reported":1687212423,"current_range_meters":27200,"station_id":"ce4bh3p2rcd13ifvqdq0","pricing_plan_id":"free"},{"bike_id":"96586823-7d53-4466-afbe-cfa1bce60de9","system_id":"levelo_inurba_marseille","lat":43.295196,"lon":5.39397,"is_reserved":false,"is_disabled":false,"rental_uris":{"android":"levelo://app?vid=96586823-7d53-4466-afbe-cfa1bce60de9","ios":"levelo://app?vid=96586823-7d53-4466-afbe-cfa1bce60de9"},"vehicle_type_id":"4","last_reported":1687212423,"current_range_meters":30000,"station_id":"ce4bh292rcd13ifvqdf0","pricing_plan_id":"free"},{"bike_id":"6de98da6-6b85-4650-826c-cee1e1701899","system_id":"levelo_inurba_marseille","lat":43.286945,"lon":5.374001,"is_reserved":false,"is_disabled":false,"rental_uris":{"android":"levelo://app?vid=6de98da6-6b85-4650-826c-cee1e1701899","ios":"levelo://app?vid=6de98da6-6b85-4650-826c-cee1e1701899"},"vehicle_type_id":"4","last_reported":1687212423,"current_range_meters":20000,"station_id":"ce4bh3p2rcd13ifvqdq0","pricing_plan_id":"free"},{"bike_id":"016e198a-c7ea-45de-91b8-2ce78f9cc09d","system_id":"levelo_inurba_marseille","lat":43.295196,"lon":5.39397,"is_reserved":false,"is_disabled":false,"rental_uris":{"android":"levelo://app?vid=016e198a-c7ea-45de-91b8-2ce78f9cc09d","ios":"levelo://app?vid=016e198a-c7ea-45de-91b8-2ce78f9cc09d"},"vehicle_type_id":"4","last_reported":1687212423,"current_range_meters":4000,"station_id":"ce4bh292rcd13ifvqdf0","pricing_plan_id":"free"},{"bike_id":"5bd24d25-dbfc-4194-9a30-1f85667f506b","system_id":"levelo_inurba_marseille","lat":43.286933,"lon":5.373999,"is_reserved":false,"is_disabled":false,"rental_uris":{"android":"levelo://app?vid=5bd24d25-dbfc-4194-9a30-1f85667f506b","ios":"levelo://app?vid=5bd24d25-dbfc-4194-9a30-1f85667f506b"},"vehicle_type_id":"4","last_reported":1687212423,"current_range_meters":0,"station_id":"ce4bh3p2rcd13ifvqdq0","pricing_plan_id":"free"},{"bike_id":"c476a54f-8d83-4e77-a2f2-049d903ad886","system_id":"levelo_inurba_marseille","lat":43.28691,"lon":5.37387,"is_reserved":false,"is_disabled":false,"rental_uris":{"android":"levelo://app?vid=c476a54f-8d83-4e77-a2f2-049d903ad886","ios":"levelo://app?vid=c476a54f-8d83-4e77-a2f2-049d903ad886"},"vehicle_type_id":"4","last_reported":1687212423,"current_range_meters":24400,"station_id":"ce4bh3p2rcd13ifvqdq0","pricing_plan_id":"free"},{"bike_id":"15e54547-2747-4c81-8aff-87efed5bf7c4","system_id":"levelo_inurba_marseille","lat":43.295196,"lon":5.39397,"is_reserved":false,"is_disabled":false,"rental_uris":{"android":"levelo://app?vid=15e54547-2747-4c81-8aff-87efed5bf7c4","ios":"levelo://app?vid=15e54547-2747-4c81-8aff-87efed5bf7c4"},"vehicle_type_id":"4","last_reported":1687212423,"current_range_meters":26400,"station_id":"ce4bh292rcd13ifvqdf0","pricing_plan_id":"free"},{"bike_id":"a2865e0e-452c-4079-a4ed-2ac71eb00636","system_id":"levelo_inurba_marseille","lat":43.29519,"lon":5.39398,"is_reserved":false,"is_disabled":false,"rental_uris":{"android":"levelo://app?vid=a2865e0e-452c-4079-a4ed-2ac71eb00636","ios":"levelo://app?vid=a2865e0e-452c-4079-a4ed-2ac71eb00636"},"vehicle_type_id":"4","last_reported":1687212423,"current_range_meters":0,"station_id":"ce4bh292rcd13ifvqdf0","pricing_plan_id":"free"},{"bike_id":"5284f260-dd31-4cd9-8ac9-e0974e8922dc","system_id":"levelo_inurba_marseille","lat":43.295194,"lon":5.39397,"is_reserved":false,"is_disabled":false,"rental_uris":{"android":"levelo://app?vid=5284f260-dd31-4cd9-8ac9-e0974e8922dc","ios":"levelo://app?vid=5284f260-dd31-4cd9-8ac9-e0974e8922dc"},"vehicle_type_id":"4","last_reported":1687212423,"current_range_meters":13200,"station_id":"ce4bh292rcd13ifvqdf0","pricing_plan_id":"free"},{"bike_id":"2c337063-752e-44c9-b51d-dca6a057f6e5","system_id":"levelo_inurba_marseille","lat":43.290345,"lon":5.38646,"is_reserved":false,"is_disabled":false,"rental_uris":{"android":"levelo://app?vid=2c337063-752e-44c9-b51d-dca6a057f6e5","ios":"levelo://app?vid=2c337063-752e-44c9-b51d-dca6a057f6e5"},"vehicle_type_id":"4","last_reported":1687212423,"current_range_meters":25200,"station_id":"ce4bh4p2rcd13ifvqe0g","pricing_plan_id":"free"},{"bike_id":"6953ae92-455b-42c3-a8db-11d27dbb7510","system_id":"levelo_inurba_marseille","lat":43.30259,"lon":5.40062,"is_reserved":false,"is_disabled":false,"rental_uris":{"android":"levelo://app?vid=6953ae92-455b-42c3-a8db-11d27dbb7510","ios":"levelo://app?vid=6953ae92-455b-42c3-a8db-11d27dbb7510"},"vehicle_type_id":"4","last_reported":1687212423,"current_range_meters":6400,"station_id":"","pricing_plan_id":"free"},{"bike_id":"2de8d707-cc57-45c8-ba3f-4062aebc3f41","system_id":"levelo_inurba_marseille","lat":43.290345,"lon":5.38646,"is_reserved":false,"is_disabled":false,"rental_uris":{"android":"levelo://app?vid=2de8d707-cc57-45c8-ba3f-4062aebc3f41","ios":"levelo://app?vid=2de8d707-cc57-45c8-ba3f-4062aebc3f41"},"vehicle_type_id":"4","last_reported":1687212423,"current_range_meters":20400,"station_id":"ce4bh4p2rcd13ifvqe0g","pricing_plan_id":"free"},{"bike_id":"1cc12df8-b7d0-4001-87ed-20e90874bcd5","system_id":"levelo_inurba_marseille","lat":43.292724,"lon":5.401131,"is_reserved":false,"is_disabled":false,"rental_uris":{"android":"levelo://app?vid=1cc12df8-b7d0-4001-87ed-20e90874bcd5","ios":"levelo://app?vid=1cc12df8-b7d0-4001-87ed-20e90874bcd5"},"vehicle_type_id":"4","last_reported":1687212423,"current_range_meters":12000,"station_id":"ce4bh312rcd13ifvqdk0","pricing_plan_id":"free"},{"bike_id":"d048b0e3-e725-4084-9bad-c3b64fddba66","system_id":"levelo_inurba_marseille","lat":43.302759,"lon":5.400793,"is_reserved":false,"is_disabled":false,"rental_uris":{"android":"levelo://app?vid=d048b0e3-e725-4084-9bad-c3b64fddba66","ios":"levelo://app?vid=d048b0e3-e725-4084-9bad-c3b64fddba66"},"vehicle_type_id":"4","last_reported":1687212423,"current_range_meters":18400,"station_id":"ce4bgvh2rcd13ifvqcs0","pricing_plan_id":"free"},{"bike_id":"e9e062ee-d8ff-40e7-b30b-1b471686cefa","system_id":"levelo_inurba_marseille","lat":43.302759,"lon":5.400793,"is_reserved":false,"is_disabled":false,"rental_uris":{"android":"levelo://app?vid=e9e062ee-d8ff-40e7-b30b-1b471686cefa","ios":"levelo://app?vid=e9e062ee-d8ff-40e7-b30b-1b471686cefa"},"vehicle_type_id":"4","last_reported":1687212423,"current_range_meters":16800,"station_id":"ce4bgvh2rcd13ifvqcs0","pricing_plan_id":"free"},{"bike_id":"107519b0-e5a9-4245-b904-c0094e0ec1d8","system_id":"levelo_inurba_marseille","lat":43.302759,"lon":5.400793,"is_reserved":false,"is_disabled":false,"rental_uris":{"android":"levelo://app?vid=107519b0-e5a9-4245-b904-c0094e0ec1d8","ios":"levelo://app?vid=107519b0-e5a9-4245-b904-c0094e0ec1d8"},"vehicle_type_id":"4","last_reported":1687212423,"current_range_meters":25600,"station_id":"ce4bgvh2rcd13ifvqcs0","pricing_plan_id":"free"},{"bike_id":"1a6f3edb-24a9-4be8-a378-4454ee8afd9b","system_id":"levelo_inurba_marseille","lat":43.302759,"lon":5.400793,"is_reserved":false,"is_disabled":false,"rental_uris":{"android":"levelo://app?vid=1a6f3edb-24a9-4be8-a378-4454ee8afd9b","ios":"levelo://app?vid=1a6f3edb-24a9-4be8-a378-4454ee8afd9b"},"vehicle_type_id":"4","last_reported":1687212423,"current_range_meters":7200,"station_id":"ce4bgvh2rcd13ifvqcs0","pricing_plan_id":"free"},{"bike_id":"1f2ec5cd-5c1c-4444-9819-edc38a9e1c88","system_id":"levelo_inurba_marseille","lat":43.28803,"lon":5.38097,"is_reserved":false,"is_disabled":false,"rental_uris":{"android":"levelo://app?vid=1f2ec5cd-5c1c-4444-9819-edc38a9e1c88","ios":"levelo://app?vid=1f2ec5cd-5c1c-4444-9819-edc38a9e1c88"},"vehicle_type_id":"4","last_reported":1687212423,"current_range_meters":5200,"station_id":"","pricing_plan_id":"free"},{"bike_id":"bf6e9223-46ea-4a16-ba86-4c3973864a8a","system_id":"levelo_inurba_marseille","lat":43.286039,"lon":5.370679,"is_reserved":false,"is_disabled":false,"rental_uris":{"android":"levelo://app?vid=bf6e9223-46ea-4a16-ba86-4c3973864a8a","ios":"levelo://app?vid=bf6e9223-46ea-4a16-ba86-4c3973864a8a"},"vehicle_type_id":"4","last_reported":1687212423,"current_range_meters":4800,"station_id":"ce4bht12rcd13ifvqi60","pricing_plan_id":"free"},{"bike_id":"be821724-5bb3-499c-a063-37a60b49f0a9","system_id":"levelo_inurba_marseille","lat":43.286039,"lon":5.370679,"is_reserved":false,"is_disabled":false,"rental_uris":{"android":"levelo://app?vid=be821724-5bb3-499c-a063-37a60b49f0a9","ios":"levelo://app?vid=be821724-5bb3-499c-a063-37a60b49f0a9"},"vehicle_type_id":"4","last_reported":1687212423,"current_range_meters":31600,"station_id":"ce4bht12rcd13ifvqi60","pricing_plan_id":"free"},{"bike_id":"7d8eba4a-6ee6-4fed-8a7b-2957cd4725c7","system_id":"levelo_inurba_marseille","lat":43.286039,"lon":5.370679,"is_reserved":false,"is_disabled":false,"rental_uris":{"android":"levelo://app?vid=7d8eba4a-6ee6-4fed-8a7b-2957cd4725c7","ios":"levelo://app?vid=7d8eba4a-6ee6-4fed-8a7b-2957cd4725c7"},"vehicle_type_id":"4","last_reported":1687212423,"current_range_meters":2400,"station_id":"ce4bht12rcd13ifvqi60","pricing_plan_id":"free"},{"bike_id":"fa8ea5f8-793b-432d-85f3-feb7caffc709","system_id":"levelo_inurba_marseille","lat":43.28609,"lon":5.37069,"is_reserved":false,"is_disabled":false,"rental_uris":{"android":"levelo://app?vid=fa8ea5f8-793b-432d-85f3-feb7caffc709","ios":"levelo://app?vid=fa8ea5f8-793b-432d-85f3-feb7caffc709"},"vehicle_type_id":"4","last_reported":1687212423,"current_range_meters":1200,"station_id":"ce4bht12rcd13ifvqi60","pricing_plan_id":"free"},{"bike_id":"b7c13324-20fb-45f6-9a3d-e74cc87e6067","system_id":"levelo_inurba_marseille","lat":43.28608,"lon":5.37063,"is_reserved":false,"is_disabled":false,"rental_uris":{"android":"levelo://app?vid=b7c13324-20fb-45f6-9a3d-e74cc87e6067","ios":"levelo://app?vid=b7c13324-20fb-45f6-9a3d-e74cc87e6067"},"vehicle_type_id":"4","last_reported":1687212423,"current_range_meters":12400,"station_id":"ce4bht12rcd13ifvqi60","pricing_plan_id":"free"},{"bike_id":"57f35582-29e0-478e-b3fb-9407442d987f","system_id":"levelo_inurba_marseille","lat":43.287184,"lon":5.37937,"is_reserved":false,"is_disabled":false,"rental_uris":{"android":"levelo://app?vid=57f35582-29e0-478e-b3fb-9407442d987f","ios":"levelo://app?vid=57f35582-29e0-478e-b3fb-9407442d987f"},"vehicle_type_id":"4","last_reported":1687212423,"current_range_meters":18000,"station_id":"ce4bh9p2rcd13ifvqec0","pricing_plan_id":"free"},{"bike_id":"de83bb71-937a-4065-a21c-9cfdb19e2dcc","system_id":"levelo_inurba_marseille","lat":43.287184,"lon":5.37937,"is_reserved":false,"is_disabled":false,"rental_uris":{"android":"levelo://app?vid=de83bb71-937a-4065-a21c-9cfdb19e2dcc","ios":"levelo://app?vid=de83bb71-937a-4065-a21c-9cfdb19e2dcc"},"vehicle_type_id":"4","last_reported":1687212423,"current_range_meters":27600,"station_id":"ce4bh9p2rcd13ifvqec0","pricing_plan_id":"free"},{"bike_id":"1e6d4ec8-2e60-4eb7-838f-a3e93a044046","system_id":"levelo_inurba_marseille","lat":43.287185,"lon":5.379373,"is_reserved":false,"is_disabled":false,"rental_uris":{"android":"levelo://app?vid=1e6d4ec8-2e60-4eb7-838f-a3e93a044046","ios":"levelo://app?vid=1e6d4ec8-2e60-4eb7-838f-a3e93a044046"},"vehicle_type_id":"4","last_reported":1687212423,"current_range_meters":25200,"station_id":"ce4bh9p2rcd13ifvqec0","pricing_plan_id":"free"},{"bike_id":"865cdc11-bc1e-4638-b64b-0cf61b6c655b","system_id":"levelo_inurba_marseille","lat":43.287184,"lon":5.37937,"is_reserved":false,"is_disabled":false,"rental_uris":{"android":"levelo://app?vid=865cdc11-bc1e-4638-b64b-0cf61b6c655b","ios":"levelo://app?vid=865cdc11-bc1e-4638-b64b-0cf61b6c655b"},"vehicle_type_id":"4","last_reported":1687212423,"current_range_meters":21600,"station_id":"ce4bh9p2rcd13ifvqec0","pricing_plan_id":"free"},{"bike_id":"71aee3cb-3140-4e4b-8698-71748bb2f9c3","system_id":"levelo_inurba_marseille","lat":43.287184,"lon":5.37937,"is_reserved":false,"is_disabled":false,"rental_uris":{"android":"levelo://app?vid=71aee3cb-3140-4e4b-8698-71748bb2f9c3","ios":"levelo://app?vid=71aee3cb-3140-4e4b-8698-71748bb2f9c3"},"vehicle_type_id":"4","last_reported":1687212423,"current_range_meters":11600,"station_id":"ce4bh9p2rcd13ifvqec0","pricing_plan_id":"free"},{"bike_id":"e5dead37-d3c0-45f1-8dcb-fee4e09bf286","system_id":"levelo_inurba_marseille","lat":43.287185,"lon":5.379373,"is_reserved":false,"is_disabled":false,"rental_uris":{"android":"levelo://app?vid=e5dead37-d3c0-45f1-8dcb-fee4e09bf286","ios":"levelo://app?vid=e5dead37-d3c0-45f1-8dcb-fee4e09bf286"},"vehicle_type_id":"4","last_reported":1687212423,"current_range_meters":23600,"station_id":"ce4bh9p2rcd13ifvqec0","pricing_plan_id":"free"},{"bike_id":"15d03ea5-b788-48e2-bcd5-2e2e358c6605","system_id":"levelo_inurba_marseille","lat":43.287184,"lon":5.37937,"is_reserved":false,"is_disabled":false,"rental_uris":{"android":"levelo://app?vid=15d03ea5-b788-48e2-bcd5-2e2e358c6605","ios":"levelo://app?vid=15d03ea5-b788-48e2-bcd5-2e2e358c6605"},"vehicle_type_id":"4","last_reported":1687212423,"current_range_meters":11600,"station_id":"ce4bh9p2rcd13ifvqec0","pricing_plan_id":"free"},{"bike_id":"ed8625b8-1c80-43d2-bae0-a2faa626b8c6","system_id":"levelo_inurba_marseille","lat":43.287185,"lon":5.379373,"is_reserved":false,"is_disabled":false,"rental_uris":{"android":"levelo://app?vid=ed8625b8-1c80-43d2-bae0-a2faa626b8c6","ios":"levelo://app?vid=ed8625b8-1c80-43d2-bae0-a2faa626b8c6"},"vehicle_type_id":"4","last_reported":1687212423,"current_range_meters":30400,"station_id":"ce4bh9p2rcd13ifvqec0","pricing_plan_id":"free"},{"bike_id":"ccd77a1a-e681-4565-9604-8a74145dc4fb","system_id":"levelo_inurba_marseille","lat":43.287185,"lon":5.379373,"is_reserved":false,"is_disabled":false,"rental_uris":{"android":"levelo://app?vid=ccd77a1a-e681-4565-9604-8a74145dc4fb","ios":"levelo://app?vid=ccd77a1a-e681-4565-9604-8a74145dc4fb"},"vehicle_type_id":"4","last_reported":1687212423,"current_range_meters":16400,"station_id":"ce4bh9p2rcd13ifvqec0","pricing_plan_id":"free"},{"bike_id":"588cb08b-7841-4614-93d1-566388f1e3a3","system_id":"levelo_inurba_marseille","lat":43.31646,"lon":5.40432,"is_reserved":false,"is_disabled":false,"rental_uris":{"android":"levelo://app?vid=588cb08b-7841-4614-93d1-566388f1e3a3","ios":"levelo://app?vid=588cb08b-7841-4614-93d1-566388f1e3a3"},"vehicle_type_id":"4","last_reported":1687212423,"current_range_meters":15200,"station_id":"ce4bh012rcd13ifvqd00","pricing_plan_id":"free"},{"bike_id":"e743b776-5274-4a07-ba11-c52e0b687bcf","system_id":"levelo_inurba_marseille","lat":43.31644,"lon":5.40433,"is_reserved":false,"is_disabled":false,"rental_uris":{"android":"levelo://app?vid=e743b776-5274-4a07-ba11-c52e0b687bcf","ios":"levelo://app?vid=e743b776-5274-4a07-ba11-c52e0b687bcf"},"vehicle_type_id":"4","last_reported":1687212423,"current_range_meters":9600,"station_id":"ce4bh012rcd13ifvqd00","pricing_plan_id":"free"},{"bike_id":"fb6d7503-112a-4e9d-9853-7b957cff013f","system_id":"levelo_inurba_marseille","lat":43.3165,"lon":5.40436,"is_reserved":false,"is_disabled":false,"rental_uris":{"android":"levelo://app?vid=fb6d7503-112a-4e9d-9853-7b957cff013f","ios":"levelo://app?vid=fb6d7503-112a-4e9d-9853-7b957cff013f"},"vehicle_type_id":"4","last_reported":1687212423,"current_range_meters":10000,"station_id":"ce4bh012rcd13ifvqd00","pricing_plan_id":"free"},{"bike_id":"a2a24072-9b96-4bb1-bb22-f956efbb6f38","system_id":"levelo_inurba_marseille","lat":43.3034,"lon":5.40294,"is_reserved":false,"is_disabled":false,"rental_uris":{"android":"levelo://app?vid=a2a24072-9b96-4bb1-bb22-f956efbb6f38","ios":"levelo://app?vid=a2a24072-9b96-4bb1-bb22-f956efbb6f38"},"vehicle_type_id":"4","last_reported":1687212423,"current_range_meters":12400,"station_id":"","pricing_plan_id":"free"},{"bike_id":"449af95a-7b68-48f9-9b49-5f77796e17f4","system_id":"levelo_inurba_marseille","lat":43.291994,"lon":5.392907,"is_reserved":false,"is_disabled":false,"rental_uris":{"android":"levelo://app?vid=449af95a-7b68-48f9-9b49-5f77796e17f4","ios":"levelo://app?vid=449af95a-7b68-48f9-9b49-5f77796e17f4"},"vehicle_type_id":"4","last_reported":1687212423,"current_range_meters":14000,"station_id":"ce4bh192rcd13ifvqdd0","pricing_plan_id":"free"},{"bike_id":"3b2f76b7-c379-4bd1-8bfe-2ae46fb3669d","system_id":"levelo_inurba_marseille","lat":43.291994,"lon":5.392907,"is_reserved":false,"is_disabled":false,"rental_uris":{"android":"levelo://app?vid=3b2f76b7-c379-4bd1-8bfe-2ae46fb3669d","ios":"levelo://app?vid=3b2f76b7-c379-4bd1-8bfe-2ae46fb3669d"},"vehicle_type_id":"4","last_reported":1687212423,"current_range_meters":24000,"station_id":"ce4bh192rcd13ifvqdd0","pricing_plan_id":"free"},