{"last_updated":1706537193,"ttl":30,"version":"2.2","data":{"bikes":[{"bike_id":"254acb8d-5cd3-434a-9856-2ac9088a5d8a","system_id":"levelo_inurba_marseille","lat":43.31345,"lon":5.36716,"is_reserved":false,"is_disabled":false,"rental_uris":{"android":"levelo://app?vid=254acb8d-5cd3-434a-9856-2ac9088a5d8a","ios":"levelo://app?vid=254acb8d-5cd3-434a-9856-2ac9088a5d8a"},"vehicle_type_id":"4","last_reported":1706537193,"current_range_meters":25200,"station_id":"ce4bgr92rcd13ifvqc6g","pricing_plan_id":"free"},{"bike_id":"dd5503ec-9714-429e-9cb7-46672eff0891","system_id":"levelo_inurba_marseille","lat":43.313391,"lon":5.36706,"is_reserved":false,"is_disabled":false,"rental_uris":{"android":"levelo://app?vid=dd5503ec-9714-429e-9cb7-46672eff0891","ios":"levelo://app?vid=dd5503ec-9714-429e-9cb7-46672eff0891"},"vehicle_type_id":"4","last_reported":1706537193,"current_range_meters":3200,"station_id":"ce4bgr92rcd13ifvqc6g","pricing_plan_id":"free"},{"bike_id":"931c7040-277f-4891-9f12-82ddc566ca5c","system_id":"levelo_inurba_marseille","lat":43.31348,"lon":5.3672,"is_reserved":false,"is_disabled":false,"rental_uris":{"android":"levelo://app?vid=931c7040-277f-4891-9f12-82ddc566ca5c","ios":"levelo://app?vid=931c7040-277f-4891-9f12-82ddc566ca5c"},"vehicle_type_id":"4","last_reported":1706537193,"current_range_meters":11200,"station_id":"ce4bgr92rcd13ifvqc6g","pricing_plan_id":"free"},{"bike_id":"28b0f803-72de-4fed-9d82-69a887a06bec","system_id":"levelo_inurba_marseille","lat":43.313391,"lon":5.36706,"is_reserved":false,"is_disabled":false,"rental_uris":{"android":"levelo://app?vid=28b0f803-72de-4fed-9d82-69a887a06bec","ios":"levelo://app?vid=28b0f803-72de-4fed-9d82-69a887a06bec"},"vehicle_type_id":"4","last_reported":1706537193,"current_range_meters":31600,"station_id":"ce4bgr92rcd13ifvqc6g","pricing_plan_id":"free"},{"bike_id":"dc70a1f4-3d17-4f34-a985-9190b5ad8599","system_id":"levelo_inurba_marseille","lat":43.31341,"lon":5.367098,"is_reserved":false,"is_disabled":false,"rental_uris":{"android":"levelo://app?vid=dc70a1f4-3d17-4f34-a985-9190b5ad8599","ios":"levelo://app?vid=dc70a1f4-3d17-4f34-a985-9190b5ad8599"},"vehicle_type_id":"4","last_reported":1706537193,"current_range_meters":25200,"station_id":"ce4bgr92rcd13ifvqc6g","pricing_plan_id":"free"},{"bike_id":"ad2c0d38-afd5-4d32-b4f5-f856e76155c6","system_id":"levelo_inurba_marseille","lat":43.313391,"lon":5.36706,"is_reserved":false,"is_disabled":false,"rental_uris":{"android":"levelo://app?vid=ad2c0d38-afd5-4d32-b4f5-f856e76155c6","ios":"levelo://app?vid=ad2c0d38-afd5-4d32-b4f5-f856e76155c6"},"vehicle_type_id":"4","last_reported":1706537193,"current_range_meters":13600,"station_id":"ce4bgr92rcd13ifvqc6g","pricing_plan_id":"free"},{"bike_id":"80d058eb-b86a-4a6a-a474-48651b783c3e","system_id":"levelo_inurba_marseille","lat":43.313391,"lon":5.36706,"is_reserved":false,"is_disabled":false,"rental_uris":{"android":"levelo://app?vid=80d058eb-b86a-4a6a-a474-48651b783c3e","ios":"levelo://app?vid=80d058eb-b86a-4a6a-a474-48651b783c3e"},"vehicle_type_id":"4","last_reported":1706537193,"current_range_meters":28400,"station_id":"ce4bgr92rcd13ifvqc6g","pricing_plan_id":"free"},{"bike_id":"96a5caaa-3ac7-4a75-a115-d541957e01d4","system_id":"levelo_inurba_marseille","lat":43.31358,"lon":5.36708,"is_reserved":false,"is_disabled":false,"rental_uris":{"android":"levelo://app?vid=96a5caaa-3ac7-4a75-a115-d541957e01d4","ios":"levelo://app?vid=96a5caaa-3ac7-4a75-a115-d541957e01d4"},"vehicle_type_id":"4","last_reported":1706537193,"current_range_meters":27600,"station_id":"ce4bgr92rcd13ifvqc6g","pricing_plan_id":"free"},{"bike_id":"c4578474-c53a-4c2d-bbc4-dd4032521ae5","system_id":"levelo_inurba_marseille","lat":43.313391,"lon":5.36706,"is_reserved":false,"is_disabled":false,"rental_uris":{"android":"levelo://app?vid=c4578474-c53a-4c2d-bbc4-dd4032521ae5","ios":"levelo://app?vid=c4578474-c53a-4c2d-bbc4-dd4032521ae5"},"vehicle_type_id":"4","last_reported":1706537193,"current_range_meters":13600,"station_id":"ce4bgr92rcd13ifvqc6g","pricing_plan_id":"free"},{"bike_id":"6e362c20-484b-4279-a675-793264616754","system_id":"levelo_inurba_marseille","lat":43.313391,"lon":5.36706,"is_reserved":false,"is_disabled":false,"rental_uris":{"android":"levelo://app?vid=6e362c20-484b-4279-a675-793264616754","ios":"levelo://app?vid=6e362c20-484b-4279-a675-793264616754"},"vehicle_type_id":"4","last_reported":1706537193,"current_range_meters":22800,"station_id":"ce4bgr92rcd13ifvqc6g","pricing_plan_id":"free"},{"bike_id":"04843903-5845-43dd-b958-42304e0fa498","system_id":"levelo_inurba_marseille","lat":43.31376,"lon":5.36702,"is_reserved":false,"is_disabled":false,"rental_uris":{"android":"levelo://app?vid=04843903-5845-43dd-b958-42304e0fa498","ios":"levelo://app?vid=04843903-5845-43dd-b958-42304e0fa498"},"vehicle_type_id":"4","last_reported":1706537193,"current_range_meters":20800,"station_id":"ce4bgr92rcd13ifvqc6g","pricing_plan_id":"free"},{"bike_id":"f4cbe335-ec37-4b23-8c27-51a208444da4","system_id":"levelo_inurba_marseille","lat":43.312239,"lon":5.368562,"is_reserved":false,"is_disabled":false,"rental_uris":{"android":"levelo://app?vid=f4cbe335-ec37-4b23-8c27-51a208444da4","ios":"levelo://app?vid=f4cbe335-ec37-4b23-8c27-51a208444da4"},"vehicle_type_id":"4","last_reported":1706537193,"current_range_meters":29600,"station_id":"ce4bgl92rcd13ifvqbq0","pricing_plan_id":"free"},{"bike_id":"36ff4e52-e124-412f-a31b-ee226d5eb3d2","system_id":"levelo_inurba_marseille","lat":43.312239,"lon":5.368562,"is_reserved":false,"is_disabled":false,"rental_uris":{"android":"levelo://app?vid=36ff4e52-e124-412f-a31b-ee226d5eb3d2","ios":"levelo://app?vid=36ff4e52-e124-412f-a31b-ee226d5eb3d2"},"vehicle_type_id":"4","last_reported":1706537193,"current_range_meters":12400,"station_id":"ce4bgl92rcd13ifvqbq0","pricing_plan_id":"free"},{"bike_id":"6a841c15-3b37-4099-b431-4740e3616aa2","system_id":"levelo_inurba_marseille","lat":43.312239,"lon":5.368562,"is_reserved":false,"is_disabled":false,"rental_uris":{"android":"levelo://app?vid=6a841c15-3b37-4099-b431-4740e3616aa2","ios":"levelo://app?vid=6a841c15-3b37-4099-b431-4740e3616aa2"},"vehicle_type_id":"4","last_reported":1706537193,"current_range_meters":27200,"station_id":"ce4bgl92rcd13ifvqbq0","pricing_plan_id":"free"},{"bike_id":"b3e7081a-f1db-478d-b829-ed779efbeb9f","system_id":"levelo_inurba_marseille","lat":43.312239,"lon":5.368562,"is_reserved":false,"is_disabled":false,"rental_uris":{"android":"levelo://app?vid=b3e7081a-f1db-478d-b829-ed779efbeb9f","ios":"levelo://app?vid=b3e7081a-f1db-478d-b829-ed779efbeb9f"},"vehicle_type_id":"4","last_reported":1706537193,"current_range_meters":7600,"station_id":"ce4bgl92rcd13ifvqbq0","pricing_plan_id":"free"},{"bike_id":"a5f03284-5c7c-4b1a-92d5-c46aaea7e354","system_id":"levelo_inurba_marseille","lat":43.312239,"lon":5.368562,"is_reserved":false,"is_disabled":false,"rental_uris":{"android":"levelo://app?vid=a5f03284-5c7c-4b1a-92d5-c46aaea7e354","ios":"levelo://app?vid=a5f03284-5c7c-4b1a-92d5-c46aaea7e354"},"vehicle_type_id":"4","last_reported":1706537193,"current_range_meters":13200,"station_id":"ce4bgl92rcd13ifvqbq0","pricing_plan_id":"free"},{"bike_id":"e8226c5c-4bcf-4818-9b82-b40a591d48f0","system_id":"levelo_inurba_marseille","lat":43.312239,"lon":5.368562,"is_reserved":false,"is_disabled":false,"rental_uris":{"android":"levelo://app?vid=e8226c5c-4bcf-4818-9b82-b40a591d48f0","ios":"levelo://app?vid=e8226c5c-4bcf-4818-9b82-b40a591d48f0"},"vehicle_type_id":"4","last_reported":1706537193,"current_range_meters":6800,"station_id":"ce4bgl92rcd13ifvqbq0","pricing_plan_id":"free"},{"bike_id":"f7c2ad28-4eb0-4abb-89f9-36d11bd8d0f0","system_id":"levelo_inurba_marseille","lat":43.312239,"lon":5.368562,"is_reserved":false,"is_disabled":false,"rental_uris":{"android":"levelo://app?vid=f7c2ad28-4eb0-4abb-89f9-36d11bd8d0f0","ios":"levelo://app?vid=f7c2ad28-4eb0-4abb-89f9-36d11bd8d0f0"},"vehicle_type_id":"4","last_reported":1706537193,"current_range_meters":17600,"station_id":"ce4bgl92rcd13ifvqbq0","pricing_plan_id":"free"},{"bike_id":"ec72c98c-1991-447c-bf92-a8a15881d3fc","system_id":"levelo_inurba_marseille","lat":43.312239,"lon":5.368562,"is_reserved":false,"is_disabled":false,"rental_uris":{"android":"levelo://app?vid=ec72c98c-1991-447c-bf92-a8a15881d3fc","ios":"levelo://app?vid=ec72c98c-1991-447c-bf92-a8a15881d3fc"},"vehicle_type_id":"4","last_reported":1706537193,"current_range_meters":2800,"station_id":"ce4bgl92rcd13ifvqbq0","pricing_plan_id":"free"},{"bike_id":"546a901e-e632-485e-ad73-2c308ae901d2","system_id":"levelo_inurba_marseille","lat":43.312239,"lon":5.368562,"is_reserved":false,"is_disabled":false,"rental_uris":{"android":"levelo://app?vid=546a901e-e632-485e-ad73-2c308ae901d2","ios":"levelo://app?vid=546a901e-e632-485e-ad73-2c308ae901d2"},"vehicle_type_id":"4","last_reported":1706537193,"current_range_meters":15200,"station_id":"ce4bgl92rcd13ifvqbq0","pricing_plan_id":"free"},{"bike_id":"a8333139-ec8a-4990-9d36-5163435f7868","system_id":"levelo_inurba_marseille","lat":43.309076,"lon":5.368465,"is_reserved":false,"is_disabled":false,"rental_uris":{"android":"levelo://app?vid=a8333139-ec8a-4990-9d36-5163435f7868","ios":"levelo://app?vid=a8333139-ec8a-4990-9d36-5163435f7868"},"vehicle_type_id":"4","last_reported":1706537193,"current_range_meters":27200,"station_id":"ce4bgn92rcd13ifvqbvg","pricing_plan_id":"free"},{"bike_id":"bc858ee9-b1f9-43ab-b6e9-452eab3012ae","system_id":"levelo_inurba_marseille","lat":43.309076,"lon":5.368465,"is_reserved":false,"is_disabled":false,"rental_uris":{"android":"levelo://app?vid=bc858ee9-b1f9-43ab-b6e9-452eab3012ae","ios":"levelo://app?vid=bc858ee9-b1f9-43ab-b6e9-452eab3012ae"},"vehicle_type_id":"4","last_reported":1706537193,"current_range_meters":31200,"station_id":"ce4bgn92rcd13ifvqbvg","pricing_plan_id":"free"},{"bike_id":"3551ae5f-ada1-458c-8c38-ee12d6eb9651","system_id":"levelo_inurba_marseille","lat":43.309076,"lon":5.368465,"is_reserved":false,"is_disabled":false,"rental_uris":{"android":"levelo://app?vid=3551ae5f-ada1-458c-8c38-ee12d6eb9651","ios":"levelo://app?vid=3551ae5f-ada1-458c-8c38-ee12d6eb9651"},"vehicle_type_id":"4","last_reported":1706537193,"current_range_meters":0,"station_id":"ce4bgn92rcd13ifvqbvg","pricing_plan_id":"free"},{"bike_id":"4d2bb92c-b10e-4b50-b138-ada15ee80e08","system_id":"levelo_inurba_marseille","lat":43.314811,"lon":5.373103,"is_reserved":false,"is_disabled":false,"rental_uris":{"android":"levelo://app?vid=4d2bb92c-b10e-4b50-b138-ada15ee80e08","ios":"levelo://app?vid=4d2bb92c-b10e-4b50-b138-ada15ee80e08"},"vehicle_type_id":"4","last_reported":1706537193,"current_range_meters":8800,"station_id":"ce4bgt12rcd13ifvqcd0","pricing_plan_id":"free"},{"bike_id":"e3d2cb2d-4d49-4aa5-8bfe-6d5e5043977f","system_id":"levelo_inurba_marseille","lat":43.314811,"lon":5.373103,"is_reserved":false,"is_disabled":false,"rental_uris":{"android":"levelo://app?vid=e3d2cb2d-4d49-4aa5-8bfe-6d5e5043977f","ios":"levelo://app?vid=e3d2cb2d-4d49-4aa5-8bfe-6d5e5043977f"},"vehicle_type_id":"4","last_reported":1706537193,"current_range_meters":28000,"station_id":"ce4bgt12rcd13ifvqcd0","pricing_plan_id":"free"},{"bike_id":"d774124a-3838-49db-9c37-ae409dda68e3","system_id":"levelo_inurba_marseille","lat":43.314811,"lon":5.373103,"is_reserved":false,"is_disabled":false,"rental_uris":{"android":"levelo://app?vid=d774124a-3838-49db-9c37-ae409dda68e3","ios":"levelo://app?vid=d774124a-3838-49db-9c37-ae409dda68e3"},"vehicle_type_id":"4","last_reported":1706537193,"current_range_meters":9200,"station_id":"ce4bgt12rcd13ifvqcd0","pricing_plan_id":"free"},{"bike_id":"648845a9-df6f-4e05-8841-0f92dac36dbf","system_id":"levelo_inurba_marseille","lat":43.308012,"lon":5.381511,"is_reserved":false,"is_disabled":false,"rental_uris":{"android":"levelo://app?vid=648845a9-df6f-4e05-8841-0f92dac36dbf","ios":"levelo://app?vid=648845a9-df6f-4e05-8841-0f92dac36dbf"},"vehicle_type_id":"4","last_reported":1706537193,"current_range_meters":7200,"station_id":"ce4bgt12rcd13ifvqce0","pricing_plan_id":"free"},{"bike_id":"de5a65f3-32ef-4357-84ac-a7b355bce129","system_id":"levelo_inurba_marseille","lat":43.309039,"lon":5.371797,"is_reserved":false,"is_disabled":false,"rental_uris":{"android":"levelo://app?vid=de5a65f3-32ef-4357-84ac-a7b355bce129","ios":"levelo://app?vid=de5a65f3-32ef-4357-84ac-a7b355bce129"},"vehicle_type_id":"4","last_reported":1706537193,"current_range_meters":17200,"station_id":"ce4bguh2rcd13ifvqckg","pricing_plan_id":"free"},{"bike_id":"0d02a90b-f3c8-4b48-af37-a783534ddd7a","system_id":"levelo_inurba_marseille","lat":43.309039,"lon":5.371797,"is_reserved":false,"is_disabled":false,"rental_uris":{"android":"levelo://app?vid=0d02a90b-f3c8-4b48-af37-a783534ddd7a","ios":"levelo://app?vid=0d02a90b-f3c8-4b48-af37-a783534ddd7a"},"vehicle_type_id":"4","last_reported":1706537193,"current_range_meters":20000,"station_id":"ce4bguh2rcd13ifvqckg","pricing_plan_id":"free"},{"bike_id":"cbd70952-1313-4d03-8026-5b654aad9f8a","system_id":"levelo_inurba_marseille","lat":43.309039,"lon":5.371797,"is_reserved":false,"is_disabled":false,"rental_uris":{"android":"levelo://app?vid=cbd70952-1313-4d03-8026-5b654aad9f8a","ios":"levelo://app?vid=cbd70952-1313-4d03-8026-5b654aad9f8a"},"vehicle_type_id":"4","last_reported":1706537193,"current_range_meters":18000,"station_id":"ce4bguh2rcd13ifvqckg","pricing_plan_id":"free"},{"bike_id":"ebd337be-e9c5-49bf-9e16-6197149eac21","system_id":"levelo_inurba_marseille","lat":43.30546,"lon":5.36712,"is_reserved":false,"is_disabled":false,"rental_uris":{"android":"levelo://app?vid=ebd337be-e9c5-49bf-9e16-6197149eac21","ios":"levelo://app?vid=ebd337be-e9c5-49bf-9e16-6197149eac21"},"vehicle_type_id":"4","last_reported":1706537193,"current_range_meters":18800,"station_id":"ce4bgrp2rcd13ifvqc9g","pricing_plan_id":"free"},{"bike_id":"d8d24df9-c3b0-4138-b355-fd54bcc4332d","system_id":"levelo_inurba_marseille","lat":43.3055,"lon":5.36548,"is_reserved":false,"is_disabled":false,"rental_uris":{"android":"levelo://app?vid=d8d24df9-c3b0-4138-b355-fd54bcc4332d","ios":"levelo://app?vid=d8d24df9-c3b0-4138-b355-fd54bcc4332d"},"vehicle_type_id":"4","last_reported":1706537193,"current_range_meters":8800,"station_id":"ce4bgs12rcd13ifvqcag","pricing_plan_id":"free"},{"bike_id":"25a2af08-8479-4c1f-9adc-77cbd156ed01","system_id":"levelo_inurba_marseille","lat":43.305368,"lon":5.367343,"is_reserved":false,"is_disabled":false,"rental_uris":{"android":"levelo://app?vid=25a2af08-8479-4c1f-9adc-77cbd156ed01","ios":"levelo://app?vid=25a2af08-8479-4c1f-9adc-77cbd156ed01"},"vehicle_type_id":"4","last_reported":1706537193,"current_range_meters":10400,"station_id":"ce4bgrp2rcd13ifvqc9g","pricing_plan_id":"free"},{"bike_id":"c2b0ad9e-b796-4c7a-9c1f-420f3cf0949b","system_id":"levelo_inurba_marseille","lat":43.305368,"lon":5.367343,"is_reserved":false,"is_disabled":false,"rental_uris":{"android":"levelo://app?vid=c2b0ad9e-b796-4c7a-9c1f-420f3cf0949b","ios":"levelo://app?vid=c2b0ad9e-b796-4c7a-9c1f-420f3cf0949b"},"vehicle_type_id":"4","last_reported":1706537193,"current_range_meters":26400,"station_id":"ce4bgrp2rcd13ifvqc9g","pricing_plan_id":"free"},{"bike_id":"8d126c11-4a0b-4d2c-945e-843bf1dba8cf","system_id":"levelo_inurba_marseille","lat":43.305712,"lon":5.365641,"is_reserved":false,"is_disabled":false,"rental_uris":{"android":"levelo://app?vid=8d126c11-4a0b-4d2c-945e-843bf1dba8cf","ios":"levelo://app?vid=8d126c11-4a0b-4d2c-945e-843bf1dba8cf"},"vehicle_type_id":"4","last_reported":1706537193,"current_range_meters":7200,"station_id":"ce4bgs12rcd13ifvqcag","pricing_plan_id":"free"},{"bike_id":"236d9248-8648-46d0-b786-1d5c59e58aaf","system_id":"levelo_inurba_marseille","lat":43.305368,"lon":5.367343,"is_reserved":false,"is_disabled":false,"rental_uris":{"android":"levelo://app?vid=236d9248-8648-46d0-b786-1d5c59e58aaf","ios":"levelo://app?vid=236d9248-8648-46d0-b786-1d5c59e58aaf"},"vehicle_type_id":"4","last_reported":1706537193,"current_range_meters":11200,"station_id":"ce4bgrp2rcd13ifvqc9g","pricing_plan_id":"free"},{"bike_id":"1b5d9aa6-7020-4b4b-8dbe-0acbcdab0491","system_id":"levelo_inurba_marseille","lat":43.305368,"lon":5.367343,"is_reserved":false,"is_disabled":false,"rental_uris":{"android":"levelo://app?vid=1b5d9aa6-7020-4b4b-8dbe-0acbcdab0491","ios":"levelo://app?vid=1b5d9aa6-7020-4b4b-8dbe-0acbcdab0491"},"vehicle_type_id":"4","last_reported":1706537193,"current_range_meters":9200,"station_id":"ce4bgrp2rcd13ifvqc9g","pricing_plan_id":"free"},{"bike_id":"0c892e9e-bd09-4e5c-b3b8-25ece5e1615a","system_id":"levelo_inurba_marseille","lat":43.305706,"lon":5.365654,"is_reserved":false,"is_disabled":false,"rental_uris":{"android":"levelo://app?vid=0c892e9e-bd09-4e5c-b3b8-25ece5e1615a","ios":"levelo://app?vid=0c892e9e-bd09-4e5c-b3b8-25ece5e1615a"},"vehicle_type_id":"4","last_reported":1706537193,"current_range_meters":16400,"station_id":"ce4bgs12rcd13ifvqcag","pricing_plan_id":"free"},{"bike_id":"5028d21e-449f-4c49-b48a-8872c90d6302","system_id":"levelo_inurba_marseille","lat":43.305368,"lon":5.367343,"is_reserved":false,"is_disabled":false,"rental_uris":{"android":"levelo://app?vid=5028d21e-449f-4c49-b48a-8872c90d6302","ios":"levelo://app?vid=5028d21e-449f-4c49-b48a-8872c90d6302"},"vehicle_type_id":"4","last_reported":1706537193,"current_range_meters":18400,"station_id":"ce4bgrp2rcd13ifvqc9g","pricing_plan_id":"free"},{"bike_id":"d051a83d-3581-4a35-84e3-201590f02dc1","system_id":"levelo_inurba_marseille","lat":43.305368,"lon":5.367343,"is_reserved":false,"is_disabled":false,"rental_uris":{"android":"levelo://app?vid=d051a83d-3581-4a35-84e3-201590f02dc1","ios":"levelo://app?vid=d051a83d-3581-4a35-84e3-201590f02dc1"},"vehicle_type_id":"4","last_reported":1706537193,"current_range_meters":14800,"station_id":"ce4bgrp2rcd13ifvqc9g","pricing_plan_id":"free"},{"bike_id":"a78fd19c-5e48-4e47-8f3c-5c938336fe13","system_id":"levelo_inurba_marseille","lat":43.30537,"lon":5.36543,"is_reserved":false,"is_disabled":false,"rental_uris":{"android":"levelo://app?vid=a78fd19c-5e48-4e47-8f3c-5c938336fe13","ios":"levelo://app?vid=a78fd19c-5e48-4e47-8f3c-5c938336fe13"},"vehicle_type_id":"4","last_reported":1706537193,"current_range_meters":9200,"station_id":"ce4bgs12rcd13ifvqcag","pricing_plan_id":"free"},{"bike_id":"e4c48887-3198-46f1-80f5-d0d7398c8e6b","system_id":"levelo_inurba_marseille","lat":43.305368,"lon":5.367343,"is_reserved":false,"is_disabled":false,"rental_uris":{"android":"levelo://app?vid=e4c48887-3198-46f1-80f5-d0d7398c8e6b","ios":"levelo://app?vid=e4c48887-3198-46f1-80f5-d0d7398c8e6b"},"vehicle_type_id":"4","last_reported":1706537193,"current_range_meters":800,"station_id":"ce4bgrp2rcd13ifvqc9g","pricing_plan_id":"free"},{"bike_id":"dee15123-9ba9-45bb-aafb-b763bdd23221","system_id":"levelo_inurba_marseille","lat":43.305368,"lon":5.367343,"is_reserved":false,"is_disabled":false,"rental_uris":{"android":"levelo://app?vid=dee15123-9ba9-45bb-aafb-b763bdd23221","ios":"levelo://app?vid=dee15123-9ba9-45bb-aafb-b763bdd23221"},"vehicle_type_id":"4","last_reported":1706537193,"current_range_meters":24800,"station_id":"ce4bgrp2rcd13ifvqc9g","pricing_plan_id":"free"},{"bike_id":"ef85baf8-caaf-45e0-91cc-7674437edb76","system_id":"levelo_inurba_marseille","lat":43.30534,"lon":5.36541,"is_reserved":false,"is_disabled":false,"rental_uris":{"android":"levelo://app?vid=ef85baf8-caaf-45e0-91cc-7674437edb76","ios":"levelo://app?vid=ef85baf8-caaf-45e0-91cc-7674437edb76"},"vehicle_type_id":"4","last_reported":1706537193,"current_range_meters":0,"station_id":"ce4bgs12rcd13ifvqcag","pricing_plan_id":"free"},{"bike_id":"90b3e999-e076-49e8-ab88-8d43bdb30f54","system_id":"levelo_inurba_marseille","lat":43.305706,"lon":5.365654,"is_reserved":false,"is_disabled":false,"rental_uris":{"android":"levelo://app?vid=90b3e999-e076-49e8-ab88-8d43bdb30f54","ios":"levelo://app?vid=90b3e999-e076-49e8-ab88-8d43bdb30f54"},"vehicle_type_id":"4","last_reported":1706537193,"current_range_meters":31600,"station_id":"ce4bgs12rcd13ifvqcag","pricing_plan_id":"free"},{"bike_id":"c29d456e-239f-44b1-b404-35fe9982dc1f","system_id":"levelo_inurba_marseille","lat":43.305989,"lon":5.37225,"is_reserved":false,"is_disabled":false,"rental_uris":{"android":"levelo://app?vid=c29d456e-239f-44b1-b404-35fe9982dc1f","ios":"levelo://app?vid=c29d456e-239f-44b1-b404-35fe9982dc1f"},"vehicle_type_id":"4","last_reported":1706537193,"current_range_meters":26400,"station_id":"ce4bgqh2rcd13ifvqc4g","pricing_plan_id":"free"},{"bike_id":"9c2396cb-b008-464e-aeca-849be6f47a1a","system_id":"levelo_inurba_marseille","lat":43.311131,"lon":5.377651,"is_reserved":false,"is_disabled":false,"rental_uris":{"android":"levelo://app?vid=9c2396cb-b008-464e-aeca-849be6f47a1a","ios":"levelo://app?vid=9c2396cb-b008-464e-aeca-849be6f47a1a"},"vehicle_type_id":"4","last_reported":1706537193,"current_range_meters":22400,"station_id":"ce4bgt92rcd13ifvqcg0","pricing_plan_id":"free"},{"bike_id":"0757514e-af3c-498e-bf76-aa2c184fb533","system_id":"levelo_inurba_marseille","lat":43.311131,"lon":5.377651,"is_reserved":false,"is_disabled":false,"rental_uris":{"android":"levelo://app?vid=0757514e-af3c-498e-bf76-aa2c184fb533","ios":"levelo://app?vid=0757514e-af3c-498e-bf76-aa2c184fb533"},"vehicle_type_id":"4","last_reported":1706537193,"current_range_meters":800,"station_id":"ce4bgt92rcd13ifvqcg0","pricing_plan_id":"free"},{"bike_id":"96dc455e-e304-4283-b2f6-2df07c622ac8","system_id":"levelo_inurba_marseille","lat":43.311131,"lon":5.377651,"is_reserved":false,"is_disabled":false,"rental_uris":{"android":"levelo://app?vid=96dc455e-e304-4283-b2f6-2df07c622ac8","ios":"levelo://app?vid=96dc455e-e304-4283-b2f6-2df07c622ac8"},"vehicle_type_id":"4","last_reported":1706537193,"current_range_meters":28800,"station_id":"ce4bgt92rcd13ifvqcg0","pricing_plan_id":"free"},{"bike_id":"6d69c1bd-7aa5-45ff-b4d3-0ecec51b855e","system_id":"levelo_inurba_marseille","lat":43.30304,"lon":5.368987,"is_reserved":false,"is_disabled":false,"rental_uris":{"android":"levelo://app?vid=6d69c1bd-7aa5-45ff-b4d3-0ecec51b855e","ios":"levelo://app?vid=6d69c1bd-7aa5-45ff-b4d3-0ecec51b855e"},"vehicle_type_id":"4","last_reported":1706537193,"current_range_meters":17200,"station_id":"ce4bgqh2rcd13ifvqc5g","pricing_plan_id":"free"},{"bike_id":"b83daeb9-a39c-4884-86e2-16a37c651f7f","system_id":"levelo_inurba_marseille","lat":43.32,"lon":5.37628,"is_reserved":false,"is_disabled":false,"rental_uris":{"android":"levelo://app?vid=b83daeb9-a39c-4884-86e2-16a37c651f7f","ios":"levelo://app?vid=b83daeb9-a39c-4884-86e2-16a37c651f7f"},"vehicle_type_id":"4","last_reported":1706537193,"current_range_meters":1200,"station_id":"","pricing_plan_id":"free"},{"bike_id":"11648132-8502-4260-9688-c430cfad4c86","system_id":"levelo_inurba_marseille","lat":43.301939,"lon":5.366286,"is_reserved":false,"is_disabled":false,"rental_uris":{"android":"levelo://app?vid=11648132-8502-4260-9688-c430cfad4c86","ios":"levelo://app?vid=11648132-8502-4260-9688-c430cfad4c86"},"vehicle_type_id":"4","last_reported":1706537193,"current_range_meters":26000,"station_id":"ce4bgrh2rcd13ifvqc8g","pricing_plan_id":"free"},{"bike_id":"ab643865-9697-40ce-ba43-dd24448c090a","system_id":"levelo_inurba_marseille","lat":43.301939,"lon":5.366286,"is_reserved":false,"is_disabled":false,"rental_uris":{"android":"levelo://app?vid=ab643865-9697-40ce-ba43-dd24448c090a","ios":"levelo://app?vid=ab643865-9697-40ce-ba43-dd24448c090a"},"vehicle_type_id":"4","last_reported":1706537193,"current_range_meters":12400,"station_id":"ce4bgrh2rcd13ifvqc8g","pricing_plan_id":"free"},{"bike_id":"e16d28c6-33b3-4365-8a5f-f5a557e3b171","system_id":"levelo_inurba_marseille","lat":43.301939,"lon":5.366286,"is_reserved":false,"is_disabled":false,"rental_uris":{"android":"levelo://app?vid=e16d28c6-33b3-4365-8a5f-f5a557e3b171","ios":"levelo://app?vid=e16d28c6-33b3-4365-8a5f-f5a557e3b171"},"vehicle_type_id":"4","last_reported":1706537193,"current_range_meters":18400,"station_id":"ce4bgrh2rcd13ifvqc8g","pricing_plan_id":"free"},{"bike_id":"e753785f-3b91-4f88-a6a9-65badd4d6415","system_id":"levelo_inurba_marseille","lat":43.301939,"lon":5.366286,"is_reserved":false,"is_disabled":false,"rental_uris":{"android":"levelo://app?vid=e753785f-3b91-4f88-a6a9-65badd4d6415","ios":"levelo://app?vid=e753785f-3b91-4f88-a6a9-65badd4d6415"},"vehicle_type_id":"4","last_reported":1706537193,"current_range_meters":26800,"station_id":"ce4bgrh2rcd13ifvqc8g","pricing_plan_id":"free"},{"bike_id":"57aff7b5-3a5f-4bc9-9079-4d3ac0452f7d","system_id":"levelo_inurba_marseille","lat":43.308012,"lon":5.381511,"is_reserved":false,"is_disabled":false,"rental_uris":{"android":"levelo://app?vid=57aff7b5-3a5f-4bc9-9079-4d3ac0452f7d","ios":"levelo://app?vid=57aff7b5-3a5f-4bc9-9079-4d3ac0452f7d"},"vehicle_type_id":"4","last_reported":1706537193,"current_range_meters":21600,"station_id":"ce4bgt12rcd13ifvqce0","pricing_plan_id":"free"},{"bike_id":"c0db85bc-0f8f-4047-bff2-2e1fbc1ee5e3","system_id":"levelo_inurba_marseille","lat":43.308012,"lon":5.381511,"is_reserved":false,"is_disabled":false,"rental_uris":{"android":"levelo://app?vid=c0db85bc-0f8f-4047-bff2-2e1fbc1ee5e3","ios":"levelo://app?vid=c0db85bc-0f8f-4047-bff2-2e1fbc1ee5e3"},"vehicle_type_id":"4","last_reported":1706537193,"current_range_meters":19600,"station_id":"ce4bgt12rcd13ifvqce0","pricing_plan_id":"free"},{"bike_id":"1fa57e7e-e6ff-4ea0-a0a5-16e71e63e3e0","system_id":"levelo_inurba_marseille","lat":43.304606,"lon":5.379026,"is_reserved":false,"is_disabled":false,"rental_uris":{"android":"levelo://app?vid=1fa57e7e-e6ff-4ea0-a0a5-16e71e63e3e0","ios":"levelo://app?vid=1fa57e7e-e6ff-4ea0-a0a5-16e71e63e3e0"},"vehicle_type_id":"4","last_reported":1706537193,"current_range_meters":12000,"station_id":"ce4bgup2rcd13ifvqcn0","pricing_plan_id":"free"},{"bike_id":"7056f9c2-4497-4458-8e9f-a80c0e36ce8e","system_id":"levelo_inurba_marseille","lat":43.304606,"lon":5.379026,"is_reserved":false,"is_disabled":false,"rental_uris":{"android":"levelo://app?vid=7056f9c2-4497-4458-8e9f-a80c0e36ce8e","ios":"levelo://app?vid=7056f9c2-4497-4458-8e9f-a80c0e36ce8e"},"vehicle_type_id":"4","last_reported":1706537193,"current_range_meters":12800,"station_id":"ce4bgup2rcd13ifvqcn0","pricing_plan_id":"free"},{"bike_id":"6c4b1fc2-37f1-4e1c-bfcd-4716b7da97b2","system_id":"levelo_inurba_marseille","lat":43.304606,"lon":5.379026,"is_reserved":false,"is_disabled":false,"rental_uris":{"android":"levelo://app?vid=6c4b1fc2-37f1-4e1c-bfcd-4716b7da97b2","ios":"levelo://app?vid=6c4b1fc2-37f1-4e1c-bfcd-4716b7da97b2"},"vehicle_type_id":"4","last_reported":1706537193,"current_range_meters":11600,"station_id":"ce4bgup2rcd13ifvqcn0","pricing_plan_id":"free"},{"bike_id":"61a33da2-d0fc-4ec2-972b-79a8c05c8e2d","system_id":"levelo_inurba_marseille","lat":43.304606,"lon":5.379026,"is_reserved":false,"is_disabled":false,"rental_uris":{"android":"levelo://app?vid=61a33da2-d0fc-4ec2-972b-79a8c05c8e2d","ios":"levelo://app?vid=61a33da2-d0fc-4ec2-972b-79a8c05c8e2d"},"vehicle_type_id":"4","last_reported":1706537193,"current_range_meters":0,"station_id":"ce4bgup2rcd13ifvqcn0","pricing_plan_id":"free"},{"bike_id":"dc00bdf8-dc57-4b02-8d44-8ea4906debe3","system_id":"levelo_inurba_marseille","lat":43.324771,"lon":5.36557,"is_reserved":false,"is_disabled":false,"rental_uris":{"android":"levelo://app?vid=dc00bdf8-dc57-4b02-8d44-8ea4906debe3","ios":"levelo://app?vid=dc00bdf8-dc57-4b02-8d44-8ea4906debe3"},"vehicle_type_id":"4","last_reported":1706537193,"current_range_meters":13600,"station_id":"ce4bhs12rcd13ifvqhvg","pricing_plan_id":"free"},{"bike_id":"4c1d912b-8425-4b28-bcd4-0691a1724560","system_id":"levelo_inurba_marseille","lat":43.324782,"lon":5.365703,"is_reserved":false,"is_disabled":false,"rental_uris":{"android":"levelo://app?vid=4c1d912b-8425-4b28-bcd4-0691a1724560","ios":"levelo://app?vid=4c1d912b-8425-4b28-bcd4-0691a1724560"},"vehicle_type_id":"4","last_reported":1706537193,"current_range_meters":28800,"station_id":"ce4bhs12rcd13ifvqhvg","pricing_plan_id":"free"},{"bike_id":"45e6df12-f433-40c3-a25b-a524aabc3a3b","system_id":"levelo_inurba_marseille","lat":43.304606,"lon":5.379026,"is_reserved":false,"is_disabled":false,"rental_uris":{"android":"levelo://app?vid=45e6df12-f433-40c3-a25b-a524aabc3a3b","ios":"levelo://app?vid=45e6df12-f433-40c3-a25b-a524aabc3a3b"},"vehicle_type_id":"4","last_reported":1706537193,"current_range_meters":16400,"station_id":"ce4bgup2rcd13ifvqcn0","pricing_plan_id":"free"},{"bike_id":"13bd44b9-8ecb-46da-981f-fe222ffce708","system_id":"levelo_inurba_marseille","lat":43.324771,"lon":5.36557,"is_reserved":false,"is_disabled":false,"rental_uris":{"android":"levelo://app?vid=13bd44b9-8ecb-46da-981f-fe222ffce708","ios":"levelo://app?vid=13bd44b9-8ecb-46da-981f-fe222ffce708"},"vehicle_type_id":"4","last_reported":1706537193,"current_range_meters":13600,"station_id":"ce4bhs12rcd13ifvqhvg","pricing_plan_id":"free"},{"bike_id":"a308576f-5aa2-45ff-a65e-5bfb114ca5bd","system_id":"levelo_inurba_marseille","lat":43.302784,"lon":5.377158,"is_reserved":false,"is_disabled":false,"rental_uris":{"android":"levelo://app?vid=a308576f-5aa2-45ff-a65e-5bfb114ca5bd","ios":"levelo://app?vid=a308576f-5aa2-45ff-a65e-5bfb114ca5bd"},"vehicle_type_id":"4","last_reported":1706537193,"current_range_meters":13600,"station_id":"ce4bguh2rcd13ifvqcj0","pricing_plan_id":"free"},{"bike_id":"bd1100ff-daf6-4b30-b59b-f57c1367d06a","system_id":"levelo_inurba_marseille","lat":43.302784,"lon":5.377158,"is_reserved":false,"is_disabled":false,"rental_uris":{"android":"levelo://app?vid=bd1100ff-daf6-4b30-b59b-f57c1367d06a","ios":"levelo://app?vid=bd1100ff-daf6-4b30-b59b-f57c1367d06a"},"vehicle_type_id":"4","last_reported":1706537193,"current_range_meters":11600,"station_id":"ce4bguh2rcd13ifvqcj0","pricing_plan_id":"free"},{"bike_id":"5ed2df3d-5f5c-4bf3-9add-a195549f07a7","system_id":"levelo_inurba_marseille","lat":43.302784,"lon":5.377158,"is_reserved":false,"is_disabled":false,"rental_uris":{"android":"levelo://app?vid=5ed2df3d-5f5c-4bf3-9add-a195549f07a7","ios":"levelo://app?vid=5ed2df3d-5f5c-4bf3-9add-a195549f07a7"},"vehicle_type_id":"4","last_reported":1706537193,"current_range_meters":1600,"station_id":"ce4bguh2rcd13ifvqcj0","pricing_plan_id":"free"},{"bike_id":"73a4dd7e-3535-4a58-88e5-7190a34a9585","system_id":"levelo_inurba_marseille","lat":43.302784,"lon":5.377158,"is_reserved":false,"is_disabled":false,"rental_uris":{"android":"levelo://app?vid=73a4dd7e-3535-4a58-88e5-7190a34a9585","ios":"levelo://app?vid=73a4dd7e-3535-4a58-88e5-7190a34a9585"},"vehicle_type_id":"4","last_reported":1706537193,"current_range_meters":11200,"station_id":"ce4bguh2rcd13ifvqcj0","pricing_plan_id":"free"},{"bike_id":"c7f63c78-a347-4046-974c-657254f0cbda","system_id":"levelo_inurba_marseille","lat":43.302752,"lon":5.377078,"is_reserved":false,"is_disabled":false,"rental_uris":{"android":"levelo://app?vid=c7f63c78-a347-4046-974c-657254f0cbda","ios":"levelo://app?vid=c7f63c78-a347-4046-974c-657254f0cbda"},"vehicle_type_id":"4","last_reported":1706537193,"current_range_meters":10800,"station_id":"ce4bguh2rcd13ifvqcj0","pricing_plan_id":"free"},{"bike_id":"db818fa2-996d-42a6-aa82-3e9b373c34cd","system_id":"levelo_inurba_marseille","lat":43.301429,"lon":5.37413,"is_reserved":false,"is_disabled":false,"rental_uris":{"android":"levelo://app?vid=db818fa2-996d-42a6-aa82-3e9b373c34cd","ios":"levelo://app?vid=db818fa2-996d-42a6-aa82-3e9b373c34cd"},"vehicle_type_id":"4","last_reported":1706537193,"current_range_meters":23200,"station_id":"ce4bgs92rcd13ifvqcc0","pricing_plan_id":"free"},{"bike_id":"66795cb5-984e-4bc5-b7a7-6f6e2d99ddbb","system_id":"levelo_inurba_marseille","lat":43.301429,"lon":5.37413,"is_reserved":false,"is_disabled":false,"rental_uris":{"android":"levelo://app?vid=66795cb5-984e-4bc5-b7a7-6f6e2d99ddbb","ios":"levelo://app?vid=66795cb5-984e-4bc5-b7a7-6f6e2d99ddbb"},"vehicle_type_id":"4","last_reported":1706537193,"current_range_meters":27600,"station_id":"ce4bgs92rcd13ifvqcc0","pricing_plan_id":"free"},{"bike_id":"9c8a1095-d68a-4069-b8d4-6818b8b1b8e0","system_id":"levelo_inurba_marseille","lat":43.30139,"lon":5.37411,"is_reserved":false,"is_disabled":false,"rental_uris":{"android":"levelo://app?vid=9c8a1095-d68a-4069-b8d4-6818b8b1b8e0","ios":"levelo://app?vid=9c8a1095-d68a-4069-b8d4-6818b8b1b8e0"},"vehicle_type_id":"4","last_reported":1706537193,"current_range_meters":22400,"station_id":"ce4bgs92rcd13ifvqcc0","pricing_plan_id":"free"},{"bike_id":"2096020a-8700-4ab5-a374-f58ed428b86d","system_id":"levelo_inurba_marseille","lat":43.301429,"lon":5.37413,"is_reserved":false,"is_disabled":false,"rental_uris":{"android":"levelo://app?vid=2096020a-8700-4ab5-a374-f58ed428b86d","ios":"levelo://app?vid=2096020a-8700-4ab5-a374-f58ed428b86d"},"vehicle_type_id":"4","last_reported":1706537193,"current_range_meters":6400,"station_id":"ce4bgs92rcd13ifvqcc0","pricing_plan_id":"free"},{"bike_id":"c50d714d-726c-4bf3-b9e7-5e6a0b38545c","system_id":"levelo_inurba_marseille","lat":43.30143,"lon":5.37413,"is_reserved":false,"is_disabled":false,"rental_uris":{"android":"levelo://app?vid=c50d714d-726c-4bf3-b9e7-5e6a0b38545c","ios":"levelo://app?vid=c50d714d-726c-4bf3-b9e7-5e6a0b38545c"},"vehicle_type_id":"4","last_reported":1706537193,"current_range_meters":24400,"station_id":"ce4bgs92rcd13ifvqcc0","pricing_plan_id":"free"},{"bike_id":"dcf226df-1dda-426f-9662-a8e86353727b","system_id":"levelo_inurba_marseille","lat":43.30135,"lon":5.3742,"is_reserved":false,"is_disabled":false,"rental_uris":{"android":"levelo://app?vid=dcf226df-1dda-426f-9662-a8e86353727b","ios":"levelo://app?vid=dcf226df-1dda-426f-9662-a8e86353727b"},"vehicle_type_id":"4","last_reported":1706537193,"current_range_meters":28400,"station_id":"ce4bgs92rcd13ifvqcc0","pricing_plan_id":"free"},{"bike_id":"be9993da-f20b-49af-b5f2-12157905e747","system_id":"levelo_inurba_marseille","lat":43.319973,"lon":5.38142,"is_reserved":false,"is_disabled":false,"rental_uris":{"android":"levelo://app?vid=be9993da-f20b-49af-b5f2-12157905e747","ios":"levelo://app?vid=be9993da-f20b-49af-b5f2-12157905e747"},"vehicle_type_id":"4","last_reported":1706537193,"current_range_meters":6800,"station_id":"ce4bhr12rcd13ifvqhpg","pricing_plan_id":"free"},{"bike_id":"0ca84510-6630-47d1-867a-145dbc99d2a1","system_id":"levelo_inurba_marseille","lat":43.319935,"lon":5.381699,"is_reserved":false,"is_disabled":false,"rental_uris":{"android":"levelo://app?vid=0ca84510-6630-47d1-867a-145dbc99d2a1","ios":"levelo://app?vid=0ca84510-6630-47d1-867a-145dbc99d2a1"},"vehicle_type_id":"4","last_reported":1706537193,"current_range_meters":22000,"station_id":"ce4bhr12rcd13ifvqhpg","pricing_plan_id":"free"},{"bike_id":"dd6b7008-c30f-4316-8921-b5028f9d3f38","system_id":"levelo_inurba_marseille","lat":43.319935,"lon":5.381699,"is_reserved":false,"is_disabled":false,"rental_uris":{"android":"levelo://app?vid=dd6b7008-c30f-4316-8921-b5028f9d3f38","ios":"levelo://app?vid=dd6b7008-c30f-4316-8921-b5028f9d3f38"},"vehicle_type_id":"4","last_reported":1706537193,"current_range_meters":22000,"station_id":"ce4bhr12rcd13ifvqhpg","pricing_plan_id":"free"},{"bike_id":"fd42435b-8027-4d6f-ae7a-ff6c9529abcc","system_id":"levelo_inurba_marseille","lat":43.299724,"lon":5.371829,"is_reserved":false,"is_disabled":false,"rental_uris":{"android":"levelo://app?vid=fd42435b-8027-4d6f-ae7a-ff6c9529abcc","ios":"levelo://app?vid=fd42435b-8027-4d6f-ae7a-ff6c9529abcc"},"vehicle_type_id":"4","last_reported":1706537193,"current_range_meters":12800,"station_id":"ce4bgr92rcd13ifvqc7g","pricing_plan_id":"free"},{"bike_id":"20b75214-eb09-4885-9aea-35360cce0192","system_id":"levelo_inurba_marseille","lat":43.299724,"lon":5.371829,"is_reserved":false,"is_disabled":false,"rental_uris":{"android":"levelo://app?vid=20b75214-eb09-4885-9aea-35360cce0192","ios":"levelo://app?vid=20b75214-eb09-4885-9aea-35360cce0192"},"vehicle_type_id":"4","last_reported":1706537193,"current_range_meters":15200,"station_id":"ce4bgr92rcd13ifvqc7g","pricing_plan_id":"free"},{"bike_id":"3ba251a1-17ab-4d7e-b864-bddca51cd10c","system_id":"levelo_inurba_marseille","lat":43.299724,"lon":5.371829,"is_reserved":false,"is_disabled":false,"rental_uris":{"android":"levelo://app?vid=3ba251a1-17ab-4d7e-b864-bddca51cd10c","ios":"levelo://app?vid=3ba251a1-17ab-4d7e-b864-bddca51cd10c"},"vehicle_type_id":"4","last_reported":1706537193,"current_range_meters":27600,"station_id":"ce4bgr92rcd13ifvqc7g","pricing_plan_id":"free"},{"bike_id":"826a4421-158a-4aac-b813-6aa832f15c28","system_id":"levelo_inurba_marseille","lat":43.298433,"lon":5.362774,"is_reserved":false,"is_disabled":false,"rental_uris":{"android":"levelo://app?vid=826a4421-158a-4aac-b813-6aa832f15c28","ios":"levelo://app?vid=826a4421-158a-4aac-b813-6aa832f15c28"},"vehicle_type_id":"4","last_reported":1706537193,"current_range_meters":14800,"station_id":"ce4bgpp2rcd13ifvqc3g","pricing_plan_id":"free"},{"bike_id":"698c17cc-79b7-4bfe-8d47-d1367cd234c7","system_id":"levelo_inurba_marseille","lat":43.298433,"lon":5.362774,"is_reserved":false,"is_disabled":false,"rental_uris":{"android":"levelo://app?vid=698c17cc-79b7-4bfe-8d47-d1367cd234c7","ios":"levelo://app?vid=698c17cc-79b7-4bfe-8d47-d1367cd234c7"},"vehicle_type_id":"4","last_reported":1706537193,"current_range_meters":22400,"station_id":"ce4bgpp2rcd13ifvqc3g","pricing_plan_id":"free"},{"bike_id":"0259dced-62f5-476e-aee1-f6531bc7aba2","system_id":"levelo_inurba_marseille","lat":43.29856,"lon":5.36287,"is_reserved":false,"is_disabled":false,"rental_uris":{"android":"levelo://app?vid=0259dced-62f5-476e-aee1-f6531bc7aba2","ios":"levelo://app?vid=0259dced-62f5-476e-aee1-f6531bc7aba2"},"vehicle_type_id":"4","last_reported":1706537193,"current_range_meters":20400,"station_id":"ce4bgpp2rcd13ifvqc3g","pricing_plan_id":"free"},{"bike_id":"a1047f51-f2a1-4fe7-86bc-7f19677a3d42","system_id":"levelo_inurba_marseille","lat":43.298433,"lon":5.362774,"is_reserved":false,"is_disabled":false,"rental_uris":{"android":"levelo://app?vid=a1047f51-f2a1-4fe7-86bc-7f19677a3d42","ios":"levelo://app?vid=a1047f51-f2a1-4fe7-86bc-7f19677a3d42"},"vehicle_type_id":"4","last_reported":1706537193,"current_range_meters":24000,"station_id":"ce4bgpp2rcd13ifvqc3g","pricing_plan_id":"free"},{"bike_id":"c7ff2e02-cc60-4987-b730-f9bc7c06b925","system_id":"levelo_inurba_marseille","lat":43.298433,"lon":5.362774,"is_reserved":false,"is_disabled":false,"rental_uris":{"android":"levelo://app?vid=c7ff2e02-cc60-4987-b730-f9bc7c06b925","ios":"levelo://app?vid=c7ff2e02-cc60-4987-b730-f9bc7c06b925"},"vehicle_type_id":"4","last_reported":1706537193,"current_range_meters":26400,"station_id":"ce4bgpp2rcd13ifvqc3g","pricing_plan_id":"free"},{"bike_id":"2f305be6-ff61-40e9-878b-bf496737b528","system_id":"levelo_inurba_marseille","lat":43.298433,"lon":5.362774,"is_reserved":false,"is_disabled":false,"rental_uris":{"android":"levelo://app?vid=2f305be6-ff61-40e9-878b-bf496737b528","ios":"levelo://app?vid=2f305be6-ff61-40e9-878b-bf496737b528"},"vehicle_type_id":"4","last_reported":1706537193,"current_range_meters":31200,"station_id":"ce4bgpp2rcd13ifvqc3g","pricing_plan_id":"free"},{"bike_id":"1b94e742-89f7-46c8-a333-2acf211f0b63","system_id":"levelo_inurba_marseille","lat":43.298433,"lon":5.362774,"is_reserved":false,"is_disabled":false,"rental_uris":{"android":"levelo://app?vid=1b94e742-89f7-46c8-a333-2acf211f0b63","ios":"levelo://app?vid=1b94e742-89f7-46c8-a333-2acf211f0b63"},"vehicle_type_id":"4","last_reported":1706537193,"current_range_meters":24400,"station_id":"ce4bgpp2rcd13ifvqc3g","pricing_plan_id":"free"},{"bike_id":"1c1e7cf5-0ac8-46ce-bd69-b53f9eb82d07","system_id":"levelo_inurba_marseille","lat":43.305364,"lon":5.384119,"is_reserved":false,"is_disabled":false,"rental_uris":{"android":"levelo://app?vid=1c1e7cf5-0ac8-46ce-bd69-b53f9eb82d07","ios":"levelo://app?vid=1c1e7cf5-0ac8-46ce-bd69-b53f9eb82d07"},"vehicle_type_id":"4","last_reported":1706537193,"current_range_meters":0,"station_id":"ce4bgg92rcd13ifvqb30","pricing_plan_id":"free"},{"bike_id":"2df20907-9cf7-4d1b-b266-cbbe30bff012","system_id":"levelo_inurba_marseille","lat":43.298462,"lon":5.362803,"is_reserved":false,"is_disabled":false,"rental_uris":{"android":"levelo://app?vid=2df20907-9cf7-4d1b-b266-cbbe30bff012","ios":"levelo://app?vid=2df20907-9cf7-4d1b-b266-cbbe30bff012"},"vehicle_type_id":"4","last_reported":1706537193,"current_range_meters":10000,"station_id":"","pricing_plan_id":"free"},{"bike_id":"6ec94acd-8e42-467d-b63a-a54102d67760","system_id":"levelo_inurba_marseille","lat":43.298433,"lon":5.362774,"is_reserved":false,"is_disabled":false,"rental_uris":{"android":"levelo://app?vid=6ec94acd-8e42-467d-b63a-a54102d67760","ios":"levelo://app?vid=6ec94acd-8e42-467d-b63a-a54102d67760"},"vehicle_type_id":"4","last_reported":1706537193,"current_range_meters":29600,"station_id":"ce4bgpp2rcd13ifvqc3g","pricing_plan_id":"free"},{"bike_id":"6fba19b3-644d-4409-b0d0-485499170717","system_id":"levelo_inurba_marseille","lat":43.298433,"lon":5.362774,"is_reserved":false,"is_disabled":false,"rental_uris":{"android":"levelo://app?vid=6fba19b3-644d-4409-b0d0-485499170717","ios":"levelo://app?vid=6fba19b3-644d-4409-b0d0-485499170717"},"vehicle_type_id":"4","last_reported":1706537193,"current_range_meters":21600,"station_id":"ce4bgpp2rcd13ifvqc3g","pricing_plan_id":"free"},{"bike_id":"03b6970c-ad65-42e3-b0c5-51ef55dad6fb","system_id":"levelo_inurba_marseille","lat":43.298433,"lon":5.362774,"is_reserved":false,"is_disabled":false,"rental_uris":{"android":"levelo://app?vid=03b6970c-ad65-42e3-b0c5-51ef55dad6fb","ios":"levelo://app?vid=03b6970c-ad65-42e3-b0c5-51ef55dad6fb"},"vehicle_type_id":"4","last_reported":1706537193,"current_range_meters":28000,"station_id":"ce4bgpp2rcd13ifvqc3g","pricing_plan_id":"free"},{"bike_id":"bda5d657-b7cb-40b2-bbdc-0dedd4cc3f68","system_id":"levelo_inurba_marseille","lat":43.298433,"lon":5.362774,"is_reserved":false,"is_disabled":false,"rental_uris":{"android":"levelo://app?vid=bda5d657-b7cb-40b2-bbdc-0dedd4cc3f68","ios":"levelo://app?vid=bda5d657-b7cb-40b2-bbdc-0dedd4cc3f68"},"vehicle_type_id":"4","last_reported":1706537193,"current_range_meters":31600,"station_id":"ce4bgpp2rcd13ifvqc3g","pricing_plan_id":"free"},{"bike_id":"c48cfe9c-3789-4d9d-a0c6-153e45a0f361","system_id":"levelo_inurba_marseille","lat":43.299243,"lon":5.37481,"is_reserved":false,"is_disabled":false,"rental_uris":{"android":"levelo://app?vid=c48cfe9c-3789-4d9d-a0c6-153e45a0f361","ios":"levelo://app?vid=c48cfe9c-3789-4d9d-a0c6-153e45a0f361"},"vehicle_type_id":"4","last_reported":1706537193,"current_range_meters":0,"station_id":"ce4bgjh2rcd13ifvqbg0","pricing_plan_id":"free"},{"bike_id":"147055ec-27ec-4729-b84a-8dc096bfcd1b","system_id":"levelo_inurba_marseille","lat":43.311722,"lon":5.387247,"is_reserved":false,"is_disabled":false,"rental_uris":{"android":"levelo://app?vid=147055ec-27ec-4729-b84a-8dc096bfcd1b","ios":"levelo://app?vid=147055ec-27ec-4729-b84a-8dc096bfcd1b"},"vehicle_type_id":"4","last_reported":1706537193,"current_range_meters":26800,"station_id":"ce4bgv12rcd13ifvqcp0","pricing_plan_id":"free"},{"bike_id":"f30c8b93-9af8-472c-857f-24748b5a31ad","system_id":"levelo_inurba_marseille","lat":43.311722,"lon":5.387247,"is_reserved":false,"is_disabled":false,"rental_uris":{"android":"levelo://app?vid=f30c8b93-9af8-472c-857f-24748b5a31ad","ios":"levelo://app?vid=f30c8b93-9af8-472c-857f-24748b5a31ad"},"vehicle_type_id":"4","last_reported":1706537193,"current_range_meters":7200,"station_id":"ce4bgv12rcd13ifvqcp0","pricing_plan_id":"free"},{"bike_id":"875fc8aa-8d30-47c5-86e8-822b4a292fd8","system_id":"levelo_inurba_marseille","lat":43.311722,"lon":5.387247,"is_reserved":false,"is_disabled":false,"rental_uris":{"android":"levelo://app?vid=875fc8aa-8d30-47c5-86e8-822b4a292fd8","ios":"levelo://app?vid=875fc8aa-8d30-47c5-86e8-822b4a292fd8"},"vehicle_type_id":"4","last_reported":1706537193,"current_range_meters":17600,"station_id":"ce4bgv12rcd13ifvqcp0","pricing_plan_id":"free"},{"bike_id":"0c5f3176-72ec-47b0-af92-24ac906eb193","system_id":"levelo_inurba_marseille","lat":43.297794,"lon":5.370888,"is_reserved":false,"is_disabled":false,"rental_uris":{"android":"levelo://app?vid=0c5f3176-72ec-47b0-af92-24ac906eb193","ios":"levelo://app?vid=0c5f3176-72ec-47b0-af92-24ac906eb193"},"vehicle_type_id":"4","last_reported":1706537193,"current_range_meters":24000,"station_id":"ce4bgop2rcd13ifvqc1g","pricing_plan_id":"free"},{"bike_id":"f219cbcb-8702-4a28-baf4-99495d68514f","system_id":"levelo_inurba_marseille","lat":43.297794,"lon":5.370888,"is_reserved":false,"is_disabled":false,"rental_uris":{"android":"levelo://app?vid=f219cbcb-8702-4a28-baf4-99495d68514f","ios":"levelo://app?vid=f219cbcb-8702-4a28-baf4-99495d68514f"},"vehicle_type_id":"4","last_reported":1706537193,"current_range_meters":0,"station_id":"ce4bgop2rcd13ifvqc1g","pricing_plan_id":"free"},{"bike_id":"369fab7d-3aef-489c-a0f6-c627dacda0a8","system_id":"levelo_inurba_marseille","lat":43.29781,"lon":5.37104,"is_reserved":false,"is_disabled":false,"rental_uris":{"android":"levelo://app?vid=369fab7d-3aef-489c-a0f6-c627dacda0a8","ios":"levelo://app?vid=369fab7d-3aef-489c-a0f6-c627dacda0a8"},"vehicle_type_id":"4","last_reported":1706537193,"current_range_meters":24000,"station_id":"ce4bgop2rcd13ifvqc1g","pricing_plan_id":"free"},{"bike_id":"0714b9f3-d536-44e1-ba94-a97a1acbfba4","system_id":"levelo_inurba_marseille","lat":43.297794,"lon":5.370888,"is_reserved":false,"is_disabled":false,"rental_uris":{"android":"levelo://app?vid=0714b9f3-d536-44e1-ba94-a97a1acbfba4","ios":"levelo://app?vid=0714b9f3-d536-44e1-ba94-a97a1acbfba4"},"vehicle_type_id":"4","last_reported":1706537193,"current_range_meters":16000,"station_id":"ce4bgop2rcd13ifvqc1g","pricing_plan_id":"free"},{"bike_id":"e1539f0d-02e3-46ca-8fd2-b115fd55a782","system_id":"levelo_inurba_marseille","lat":43.322872,"lon":5.382756,"is_reserved":false,"is_disabled":false,"rental_uris":{"android":"levelo://app?vid=e1539f0d-02e3-46ca-8fd2-b115fd55a782","ios":"levelo://app?vid=e1539f0d-02e3-46ca-8fd2-b115fd55a782"},"vehicle_type_id":"4","last_reported":1706537193,"current_range_meters":20400,"station_id":"ce4bhr12rcd13ifvqhqg","pricing_plan_id":"free"},{"bike_id":"4ab3b389-cccd-4d6e-b23f-c630239afa1a","system_id":"levelo_inurba_marseille","lat":43.297774,"lon":5.370875,"is_reserved":false,"is_disabled":false,"rental_uris":{"android":"levelo://app?vid=4ab3b389-cccd-4d6e-b23f-c630239afa1a","ios":"levelo://app?vid=4ab3b389-cccd-4d6e-b23f-c630239afa1a"},"vehicle_type_id":"4","last_reported":1706537193,"current_range_meters":8800,"station_id":"ce4bgop2rcd13ifvqc1g","pricing_plan_id":"free"},{"bike_id":"12d7300c-7281-4d65-b928-1f4a31310a0c","system_id":"levelo_inurba_marseille","lat":43.328371,"lon":5.366909,"is_reserved":false,"is_disabled":false,"rental_uris":{"android":"levelo://app?vid=12d7300c-7281-4d65-b928-1f4a31310a0c","ios":"levelo://app?vid=12d7300c-7281-4d65-b928-1f4a31310a0c"},"vehicle_type_id":"4","last_reported":1706537193,"current_range_meters":20800,"station_id":"ce4bhs92rcd13ifvqi0g","pricing_plan_id":"free"},{"bike_id":"cb79e3ef-946f-4592-b416-b80effca0f4a","system_id":"levelo_inurba_marseille","lat":43.328371,"lon":5.366909,"is_reserved":false,"is_disabled":false,"rental_uris":{"android":"levelo://app?vid=cb79e3ef-946f-4592-b416-b80effca0f4a","ios":"levelo://app?vid=cb79e3ef-946f-4592-b416-b80effca0f4a"},"vehicle_type_id":"4","last_reported":1706537193,"current_range_meters":22400,"station_id":"ce4bhs92rcd13ifvqi0g","pricing_plan_id":"free"},{"bike_id":"da669c02-ed5d-4764-a763-a0425441c3dd","system_id":"levelo_inurba_marseille","lat":43.328371,"lon":5.366909,"is_reserved":false,"is_disabled":false,"rental_uris":{"android":"levelo://app?vid=da669c02-ed5d-4764-a763-a0425441c3dd","ios":"levelo://app?vid=da669c02-ed5d-4764-a763-a0425441c3dd"},"vehicle_type_id":"4","last_reported":1706537193,"current_range_meters":22800,"station_id":"ce4bhs92rcd13ifvqi0g","pricing_plan_id":"free"},{"bike_id":"01cd516a-a9ca-47d4-8a25-b0025d63cab9","system_id":"levelo_inurba_marseille","lat":43.32831,"lon":5.36676,"is_reserved":false,"is_disabled":false,"rental_uris":{"android":"levelo://app?vid=01cd516a-a9ca-47d4-8a25-b0025d63cab9","ios":"levelo://app?vid=01cd516a-a9ca-47d4-8a25-b0025d63cab9"},"vehicle_type_id":"4","last_reported":1706537193,"current_range_meters":27600,"station_id":"ce4bhs92rcd13ifvqi0g","pricing_plan_id":"free"},{"bike_id":"0362255c-3293-431b-82e9-0c6242ed98b2","system_id":"levelo_inurba_marseille","lat":43.328371,"lon":5.366909,"is_reserved":false,"is_disabled":false,"rental_uris":{"android":"levelo://app?vid=0362255c-3293-431b-82e9-0c6242ed98b2","ios":"levelo://app?vid=0362255c-3293-431b-82e9-0c6242ed98b2"},"vehicle_type_id":"4","last_reported":1706537193,"current_range_meters":10800,"station_id":"ce4bhs92rcd13ifvqi0g","pricing_plan_id":"free"},{"bike_id":"1639daa0-8639-4319-828c-ca822c4b6696","system_id":"levelo_inurba_marseille","lat":43.328371,"lon":5.366909,"is_reserved":false,"is_disabled":false,"rental_uris":{"android":"levelo://app?vid=1639daa0-8639-4319-828c-ca822c4b6696","ios":"levelo://app?vid=1639daa0-8639-4319-828c-ca822c4b6696"},"vehicle_type_id":"4","last_reported":1706537193,"current_range_meters":24000,"station_id":"ce4bhs92rcd13ifvqi0g","pricing_plan_id":"free"},{"bike_id":"a8d62df6-65a4-4532-b58b-49d74ec7b1f4","system_id":"levelo_inurba_marseille","lat":43.328371,"lon":5.366912,"is_reserved":false,"is_disabled":false,"rental_uris":{"android":"levelo://app?vid=a8d62df6-65a4-4532-b58b-49d74ec7b1f4","ios":"levelo://app?vid=a8d62df6-65a4-4532-b58b-49d74ec7b1f4"},"vehicle_type_id":"4","last_reported":1706537193,"current_range_meters":18000,"station_id":"ce4bhs92rcd13ifvqi0g","pricing_plan_id":"free"},{"bike_id":"1c9d37d0-9c22-419e-afa7-1697cb75aab3","system_id":"levelo_inurba_marseille","lat":43.328371,"lon":5.366909,"is_reserved":false,"is_disabled":false,"rental_uris":{"android":"levelo://app?vid=1c9d37d0-9c22-419e-afa7-1697cb75aab3","ios":"levelo://app?vid=1c9d37d0-9c22-419e-afa7-1697cb75aab3"},"vehicle_type_id":"4","last_reported":1706537193,"current_range_meters":18800,"station_id":"ce4bhs92rcd13ifvqi0g","pricing_plan_id":"free"},{"bike_id":"9cc30769-75e2-40a7-b116-b561ec6b360f","system_id":"levelo_inurba_marseille","lat":43.32834,"lon":5.36674,"is_reserved":false,"is_disabled":false,"rental_uris":{"android":"levelo://app?vid=9cc30769-75e2-40a7-b116-b561ec6b360f","ios":"levelo://app?vid=9cc30769-75e2-40a7-b116-b561ec6b360f"},"vehicle_type_id":"4","last_reported":1706537193,"current_range_meters":3600,"station_id":"ce4bhs92rcd13ifvqi0g","pricing_plan_id":"free"},{"bike_id":"1163ffb9-481d-49cc-af00-8fb7156dbdbf","system_id":"levelo_inurba_marseille","lat":43.328371,"lon":5.366909,"is_reserved":false,"is_disabled":false,"rental_uris":{"android":"levelo://app?vid=1163ffb9-481d-49cc-af00-8fb7156dbdbf","ios":"levelo://app?vid=1163ffb9-481d-49cc-af00-8fb7156dbdbf"},"vehicle_type_id":"4","last_reported":1706537193,"current_range_meters":14800,"station_id":"ce4bhs92rcd13ifvqi0g","pricing_plan_id":"free"},{"bike_id":"62a39899-82cd-4c3b-b049-30fd1b5fe314","system_id":"levelo_inurba_marseille","lat":43.297163,"lon":5.365866,"is_reserved":false,"is_disabled":false,"rental_uris":{"android":"levelo://app?vid=62a39899-82cd-4c3b-b049-30fd1b5fe314","ios":"levelo://app?vid=62a39899-82cd-4c3b-b049-30fd1b5fe314"},"vehicle_type_id":"4","last_reported":1706537193,"current_range_meters":23200,"station_id":"ce4bgn12rcd13ifvqbt0","pricing_plan_id":"free"},{"bike_id":"49f1bc3c-f922-4dd2-88e1-a6eab2e6cf0d","system_id":"levelo_inurba_marseille","lat":43.2968,"lon":5.37291,"is_reserved":false,"is_disabled":false,"rental_uris":{"android":"levelo://app?vid=49f1bc3c-f922-4dd2-88e1-a6eab2e6cf0d","ios":"levelo://app?vid=49f1bc3c-f922-4dd2-88e1-a6eab2e6cf0d"},"vehicle_type_id":"4","last_reported":1706537193,"current_range_meters":9200,"station_id":"ce4bgk12rcd13ifvqbj0","pricing_plan_id":"free"},{"bike_id":"273a9002-fe20-4470-98a4-86580f87bb3b","system_id":"levelo_inurba_marseille","lat":43.2968,"lon":5.37291,"is_reserved":false,"is_disabled":false,"rental_uris":{"android":"levelo://app?vid=273a9002-fe20-4470-98a4-86580f87bb3b","ios":"levelo://app?vid=273a9002-fe20-4470-98a4-86580f87bb3b"},"vehicle_type_id":"4","last_reported":1706537193,"current_range_meters":30000,"station_id":"ce4bgk12rcd13ifvqbj0","pricing_plan_id":"free"},{"bike_id":"2a2035c5-241c-496b-9819-45664eeab48b","system_id":"levelo_inurba_marseille","lat":43.2968,"lon":5.37291,"is_reserved":false,"is_disabled":false,"rental_uris":{"android":"levelo://app?vid=2a2035c5-241c-496b-9819-45664eeab48b","ios":"levelo://app?vid=2a2035c5-241c-496b-9819-45664eeab48b"},"vehicle_type_id":"4","last_reported":1706537193,"current_range_meters":23200,"station_id":"ce4bgk12rcd13ifvqbj0","pricing_plan_id":"free"},{"bike_id":"e5d484d0-c537-4757-af19-becdfac0e8ed","system_id":"levelo_inurba_marseille","lat":43.29573,"lon":5.367355,"is_reserved":false,"is_disabled":false,"rental_uris":{"android":"levelo://app?vid=e5d484d0-c537-4757-af19-becdfac0e8ed","ios":"levelo://app?vid=e5d484d0-c537-4757-af19-becdfac0e8ed"},"vehicle_type_id":"4","last_reported":1706537193,"current_range_meters":15200,"station_id":"ce4bgph2rcd13ifvqc2g","pricing_plan_id":"free"},{"bike_id":"0193743f-b6c4-4792-8fc5-b2dedbc4a3a1","system_id":"levelo_inurba_marseille","lat":43.296129,"lon":5.370777,"is_reserved":false,"is_disabled":false,"rental_uris":{"android":"levelo://app?vid=0193743f-b6c4-4792-8fc5-b2dedbc4a3a1","ios":"levelo://app?vid=0193743f-b6c4-4792-8fc5-b2dedbc4a3a1"},"vehicle_type_id":"4","last_reported":1706537193,"current_range_meters":27600,"station_id":"ce4bgnh2rcd13ifvqc0g","pricing_plan_id":"free"},{"bike_id":"775fc0d5-12fb-4023-9ddd-8390a1633328","system_id":"levelo_inurba_marseille","lat":43.29573,"lon":5.367355,"is_reserved":false,"is_disabled":false,"rental_uris":{"android":"levelo://app?vid=775fc0d5-12fb-4023-9ddd-8390a1633328","ios":"levelo://app?vid=775fc0d5-12fb-4023-9ddd-8390a1633328"},"vehicle_type_id":"4","last_reported":1706537193,"current_range_meters":28800,"station_id":"ce4bgph2rcd13ifvqc2g","pricing_plan_id":"free"},{"bike_id":"e8668e4a-26ce-42c6-9c47-4fab589c56ea","system_id":"levelo_inurba_marseille","lat":43.29625,"lon":5.37159,"is_reserved":false,"is_disabled":false,"rental_uris":{"android":"levelo://app?vid=e8668e4a-26ce-42c6-9c47-4fab589c56ea","ios":"levelo://app?vid=e8668e4a-26ce-42c6-9c47-4fab589c56ea"},"vehicle_type_id":"4","last_reported":1706537193,"current_range_meters":30400,"station_id":"ce4bgnh2rcd13ifvqc0g","pricing_plan_id":"free"},{"bike_id":"2dd2630a-2085-4719-9b9c-47435feb54ec","system_id":"levelo_inurba_marseille","lat":43.296131,"lon":5.370773,"is_reserved":false,"is_disabled":false,"rental_uris":{"android":"levelo://app?vid=2dd2630a-2085-4719-9b9c-47435feb54ec","ios":"levelo://app?vid=2dd2630a-2085-4719-9b9c-47435feb54ec"},"vehicle_type_id":"4","last_reported":1706537193,"current_range_meters":26400,"station_id":"ce4bgnh2rcd13ifvqc0g","pricing_plan_id":"free"},{"bike_id":"4fda736f-ae02-4bb7-83e2-a3f5ee910892","system_id":"levelo_inurba_marseille","lat":43.296239,"lon":5.371548,"is_reserved":false,"is_disabled":false,"rental_uris":{"android":"levelo://app?vid=4fda736f-ae02-4bb7-83e2-a3f5ee910892","ios":"levelo://app?vid=4fda736f-ae02-4bb7-83e2-a3f5ee910892"},"vehicle_type_id":"4","last_reported":1706537193,"current_range_meters":28400,"station_id":"ce4bgnh2rcd13ifvqc0g","pricing_plan_id":"free"},{"bike_id":"386be2ba-166b-4096-8063-eb0f92893be2","system_id":"levelo_inurba_marseille","lat":43.296129,"lon":5.370777,"is_reserved":false,"is_disabled":false,"rental_uris":{"android":"levelo://app?vid=386be2ba-166b-4096-8063-eb0f92893be2","ios":"levelo://app?vid=386be2ba-166b-4096-8063-eb0f92893be2"},"vehicle_type_id":"4","last_reported":1706537193,"current_range_meters":31200,"station_id":"ce4bgnh2rcd13ifvqc0g","pricing_plan_id":"free"},{"bike_id":"22bee53f-c449-4500-a54b-8d52731e58f0","system_id":"levelo_inurba_marseille","lat":43.296131,"lon":5.370773,"is_reserved":false,"is_disabled":false,"rental_uris":{"android":"levelo://app?vid=22bee53f-c449-4500-a54b-8d52731e58f0","ios":"levelo://app?vid=22bee53f-c449-4500-a54b-8d52731e58f0"},"vehicle_type_id":"4","last_reported":1706537193,"current_range_meters":26000,"station_id":"ce4bgnh2rcd13ifvqc0g","pricing_plan_id":"free"},{"bike_id":"9442df1f-4630-483d-b0d8-80a18eb24f4c","system_id":"levelo_inurba_marseille","lat":43.29573,"lon":5.367355,"is_reserved":false,"is_disabled":false,"rental_uris":{"android":"levelo://app?vid=9442df1f-4630-483d-b0d8-80a18eb24f4c","ios":"levelo://app?vid=9442df1f-4630-483d-b0d8-80a18eb24f4c"},"vehicle_type_id":"4","last_reported":1706537193,"current_range_meters":28000,"station_id":"ce4bgph2rcd13ifvqc2g","pricing_plan_id":"free"},{"bike_id":"2f191c7d-a802-4c32-abff-142d83eac756","system_id":"levelo_inurba_marseille","lat":43.296129,"lon":5.370777,"is_reserved":false,"is_disabled":false,"rental_uris":{"android":"levelo://app?vid=2f191c7d-a802-4c32-abff-142d83eac756","ios":"levelo://app?vid=2f191c7d-a802-4c32-abff-142d83eac756"},"vehicle_type_id":"4","last_reported":1706537193,"current_range_meters":14800,"station_id":"ce4bgnh2rcd13ifvqc0g","pricing_plan_id":"free"},{"bike_id":"84d01159-abd2-45f9-8530-eaf782c2be97","system_id":"levelo_inurba_marseille","lat":43.296129,"lon":5.370777,"is_reserved":false,"is_disabled":false,"rental_uris":{"android":"levelo://app?vid=84d01159-abd2-45f9-8530-eaf782c2be97","ios":"levelo://app?vid=84d01159-abd2-45f9-8530-eaf782c2be97"},"vehicle_type_id":"4","last_reported":1706537193,"current_range_meters":26400,"station_id":"ce4bgnh2rcd13ifvqc0g","pricing_plan_id":"free"},{"bike_id":"01a1ec86-e6c7-4ab6-9409-0f975eb34436","system_id":"levelo_inurba_marseille","lat":43.29573,"lon":5.367355,"is_reserved":false,"is_disabled":false,"rental_uris":{"android":"levelo://app?vid=01a1ec86-e6c7-4ab6-9409-0f975eb34436","ios":"levelo://app?vid=01a1ec86-e6c7-4ab6-9409-0f975eb34436"},"vehicle_type_id":"4","last_reported":1706537193,"current_range_meters":27200,"station_id":"ce4bgph2rcd13ifvqc2g","pricing_plan_id":"free"},{"bike_id":"c1e58680-3e03-4205-8cf8-fad372c05854","system_id":"levelo_inurba_marseille","lat":43.29573,"lon":5.367355,"is_reserved":false,"is_disabled":false,"rental_uris":{"android":"levelo://app?vid=c1e58680-3e03-4205-8cf8-fad372c05854","ios":"levelo://app?vid=c1e58680-3e03-4205-8cf8-fad372c05854"},"vehicle_type_id":"4","last_reported":1706537193,"current_range_meters":14400,"station_id":"ce4bgph2rcd13ifvqc2g","pricing_plan_id":"free"},{"bike_id":"0431c3a9-faeb-4045-a131-28562207ab6f","system_id":"levelo_inurba_marseille","lat":43.296129,"lon":5.370777,"is_reserved":false,"is_disabled":false,"rental_uris":{"android":"levelo://app?vid=0431c3a9-faeb-4045-a131-28562207ab6f","ios":"levelo://app?vid=0431c3a9-faeb-4045-a131-28562207ab6f"},"vehicle_type_id":"4","last_reported":1706537193,"current_range_meters":7200,"station_id":"ce4bgnh2rcd13ifvqc0g","pricing_plan_id":"free"},{"bike_id":"6b8f6c3f-a104-4720-a29c-87bc7f926a8b","system_id":"levelo_inurba_marseille","lat":43.296208,"lon":5.371613,"is_reserved":false,"is_disabled":false,"rental_uris":{"android":"levelo://app?vid=6b8f6c3f-a104-4720-a29c-87bc7f926a8b","ios":"levelo://app?vid=6b8f6c3f-a104-4720-a29c-87bc7f926a8b"},"vehicle_type_id":"4","last_reported":1706537193,"current_range_meters":22800,"station_id":"ce4bgnh2rcd13ifvqc0g","pricing_plan_id":"free"},{"bike_id":"8040ee00-2c42-4b9b-83dd-766aa8f16fdb","system_id":"levelo_inurba_marseille","lat":43.29573,"lon":5.367355,"is_reserved":false,"is_disabled":false,"rental_uris":{"android":"levelo://app?vid=8040ee00-2c42-4b9b-83dd-766aa8f16fdb","ios":"levelo://app?vid=8040ee00-2c42-4b9b-83dd-766aa8f16fdb"},"vehicle_type_id":"4","last_reported":1706537193,"current_range_meters":28800,"station_id":"ce4bgph2rcd13ifvqc2g","pricing_plan_id":"free"},{"bike_id":"9c44b451-dd49-4a52-b9e9-b2edc6aed31b","system_id":"levelo_inurba_marseille","lat":43.29582,"lon":5.36738,"is_reserved":false,"is_disabled":false,"rental_uris":{"android":"levelo://app?vid=9c44b451-dd49-4a52-b9e9-b2edc6aed31b","ios":"levelo://app?vid=9c44b451-dd49-4a52-b9e9-b2edc6aed31b"},"vehicle_type_id":"4","last_reported":1706537193,"current_range_meters":25600,"station_id":"ce4bgph2rcd13ifvqc2g","pricing_plan_id":"free"},{"bike_id":"8fcae272-4c23-4b86-8895-37f3debf2faa","system_id":"levelo_inurba_marseille","lat":43.29573,"lon":5.367355,"is_reserved":false,"is_disabled":false,"rental_uris":{"android":"levelo://app?vid=8fcae272-4c23-4b86-8895-37f3debf2faa","ios":"levelo://app?vid=8fcae272-4c23-4b86-8895-37f3debf2faa"},"vehicle_type_id":"4","last_reported":1706537193,"current_range_meters":15600,"station_id":"ce4bgph2rcd13ifvqc2g","pricing_plan_id":"free"},{"bike_id":"f15a8f47-da16-48ca-ab92-c72f69fe6f90","system_id":"levelo_inurba_marseille","lat":43.296921,"lon":5.376579,"is_reserved":false,"is_disabled":false,"rental_uris":{"android":"levelo://app?vid=f15a8f47-da16-48ca-ab92-c72f69fe6f90","ios":"levelo://app?vid=f15a8f47-da16-48ca-ab92-c72f69fe6f90"},"vehicle_type_id":"4","last_reported":1706537193,"current_range_meters":6000,"station_id":"ce4bgkh2rcd13ifvqbl0","pricing_plan_id":"free"},{"bike_id":"7885367d-5676-45eb-8340-d6eb4559aa02","system_id":"levelo_inurba_marseille","lat":43.296921,"lon":5.376579,"is_reserved":false,"is_disabled":false,"rental_uris":{"android":"levelo://app?vid=7885367d-5676-45eb-8340-d6eb4559aa02","ios":"levelo://app?vid=7885367d-5676-45eb-8340-d6eb4559aa02"},"vehicle_type_id":"4","last_reported":1706537193,"current_range_meters":7200,"station_id":"ce4bgkh2rcd13ifvqbl0","pricing_plan_id":"free"},{"bike_id":"fdeb667f-765d-4ccd-a6f4-883dc92ce971","system_id":"levelo_inurba_marseille","lat":43.296921,"lon":5.376579,"is_reserved":false,"is_disabled":false,"rental_uris":{"android":"levelo://app?vid=fdeb667f-765d-4ccd-a6f4-883dc92ce971","ios":"levelo://app?vid=fdeb667f-765d-4ccd-a6f4-883dc92ce971"},"vehicle_type_id":"4","last_reported":1706537193,"current_range_meters":10000,"station_id":"ce4bgkh2rcd13ifvqbl0","pricing_plan_id":"free"},{"bike_id":"0cb6197a-1a94-4335-80f6-d73333f368d2","system_id":"levelo_inurba_marseille","lat":43.317557,"lon":5.390173,"is_reserved":false,"is_disabled":false,"rental_uris":{"android":"levelo://app?vid=0cb6197a-1a94-4335-80f6-d73333f368d2","ios":"levelo://app?vid=0cb6197a-1a94-4335-80f6-d73333f368d2"},"vehicle_type_id":"4","last_reported":1706537193,"current_range_meters":12800,"station_id":"ce4bhqp2rcd13ifvqhng","pricing_plan_id":"free"},{"bike_id":"fc2e0aef-d892-4f57-8aa7-aa8f2f418b03","system_id":"levelo_inurba_marseille","lat":43.317557,"lon":5.390173,"is_reserved":false,"is_disabled":false,"rental_uris":{"android":"levelo://app?vid=fc2e0aef-d892-4f57-8aa7-aa8f2f418b03","ios":"levelo://app?vid=fc2e0aef-d892-4f57-8aa7-aa8f2f418b03"},"vehicle_type_id":"4","last_reported":1706537193,"current_range_meters":28800,"station_id":"ce4bhqp2rcd13ifvqhng","pricing_plan_id":"free"},{"bike_id":"967bb5df-d3c0-404c-9005-c5d9aa8d91c0","system_id":"levelo_inurba_marseille","lat":43.317557,"lon":5.390173,"is_reserved":false,"is_disabled":false,"rental_uris":{"android":"levelo://app?vid=967bb5df-d3c0-404c-9005-c5d9aa8d91c0","ios":"levelo://app?vid=967bb5df-d3c0-404c-9005-c5d9aa8d91c0"},"vehicle_type_id":"4","last_reported":1706537193,"current_range_meters":10000,"station_id":"ce4bhqp2rcd13ifvqhng","pricing_plan_id":"free"},{"bike_id":"694455e6-a759-4cc0-9f86-57ca29ff3825","system_id":"levelo_inurba_marseille","lat":43.317557,"lon":5.390173,"is_reserved":false,"is_disabled":false,"rental_uris":{"android":"levelo://app?vid=694455e6-a759-4cc0-9f86-57ca29ff3825","ios":"levelo://app?vid=694455e6-a759-4cc0-9f86-57ca29ff3825"},"vehicle_type_id":"4","last_reported":1706537193,"current_range_meters":14000,"station_id":"ce4bhqp2rcd13ifvqhng","pricing_plan_id":"free"},{"bike_id":"be8cd161-f140-4876-9c2e-b58ae0ecfd22","system_id":"levelo_inurba_marseille","lat":43.317557,"lon":5.390173,"is_reserved":false,"is_disabled":false,"rental_uris":{"android":"levelo://app?vid=be8cd161-f140-4876-9c2e-b58ae0ecfd22","ios":"levelo://app?vid=be8cd161-f140-4876-9c2e-b58ae0ecfd22"},"vehicle_type_id":"4","last_reported":1706537193,"current_range_meters":25600,"station_id":"ce4bhqp2rcd13ifvqhng","pricing_plan_id":"free"},{"bike_id":"b3e39fc4-850a-437b-84a3-7186897fbf90","system_id":"levelo_inurba_marseille","lat":43.298037,"lon":5.381066,"is_reserved":false,"is_disabled":false,"rental_uris":{"android":"levelo://app?vid=b3e39fc4-850a-437b-84a3-7186897fbf90","ios":"levelo://app?vid=b3e39fc4-850a-437b-84a3-7186897fbf90"},"vehicle_type_id":"4","last_reported":1706537193,"current_range_meters":25600,"station_id":"ce4bgip2rcd13ifvqbb0","pricing_plan_id":"free"},{"bike_id":"39b4ede1-9cb3-4c82-9c61-f53f523d5500","system_id":"levelo_inurba_marseille","lat":43.297972,"lon":5.380882,"is_reserved":false,"is_disabled":false,"rental_uris":{"android":"levelo://app?vid=39b4ede1-9cb3-4c82-9c61-f53f523d5500","ios":"levelo://app?vid=39b4ede1-9cb3-4c82-9c61-f53f523d5500"},"vehicle_type_id":"4","last_reported":1706537193,"current_range_meters":0,"station_id":"ce4bgip2rcd13ifvqbb0","pricing_plan_id":"free"},{"bike_id":"bdadcde7-34d4-4ed1-ba93-14bba4210abb","system_id":"levelo_inurba_marseille","lat":43.298037,"lon":5.381066,"is_reserved":false,"is_disabled":false,"rental_uris":{"android":"levelo://app?vid=bdadcde7-34d4-4ed1-ba93-14bba4210abb","ios":"levelo://app?vid=bdadcde7-34d4-4ed1-ba93-14bba4210abb"},"vehicle_type_id":"4","last_reported":1706537193,"current_range_meters":20800,"station_id":"ce4bgip2rcd13ifvqbb0","pricing_plan_id":"free"},{"bike_id":"fb62a134-3901-44aa-b0b0-7603818d35a4","system_id":"levelo_inurba_marseille","lat":43.298037,"lon":5.381066,"is_reserved":false,"is_disabled":false,"rental_uris":{"android":"levelo://app?vid=fb62a134-3901-44aa-b0b0-7603818d35a4","ios":"levelo://app?vid=fb62a134-3901-44aa-b0b0-7603818d35a4"},"vehicle_type_id":"4","last_reported":1706537193,"current_range_meters":17200,"station_id":"ce4bgip2rcd13ifvqbb0","pricing_plan_id":"free"},{"bike_id":"5b54f378-0728-4cdc-8bef-e8c752b86815","system_id":"levelo_inurba_marseille","lat":43.295748,"lon":5.37522,"is_reserved":false,"is_disabled":false,"rental_uris":{"android":"levelo://app?vid=5b54f378-0728-4cdc-8bef-e8c752b86815","ios":"levelo://app?vid=5b54f378-0728-4cdc-8bef-e8c752b86815"},"vehicle_type_id":"4","last_reported":1706537193,"current_range_meters":14400,"station_id":"ce4bgh92rcd13ifvqb50","pricing_plan_id":"free"},{"bike_id":"2562e7c5-6c13-4cdb-9271-354b48041a47","system_id":"levelo_inurba_marseille","lat":43.30427,"lon":5.3888,"is_reserved":false,"is_disabled":false,"rental_uris":{"android":"levelo://app?vid=2562e7c5-6c13-4cdb-9271-354b48041a47","ios":"levelo://app?vid=2562e7c5-6c13-4cdb-9271-354b48041a47"},"vehicle_type_id":"4","last_reported":1706537193,"current_range_meters":27200,"station_id":"ce4bgk12rcd13ifvqbi0","pricing_plan_id":"free"},{"bike_id":"cce718dd-4b25-4e5f-972b-ac1ccb08661a","system_id":"levelo_inurba_marseille","lat":43.298037,"lon":5.381066,"is_reserved":false,"is_disabled":false,"rental_uris":{"android":"levelo://app?vid=cce718dd-4b25-4e5f-972b-ac1ccb08661a","ios":"levelo://app?vid=cce718dd-4b25-4e5f-972b-ac1ccb08661a"},"vehicle_type_id":"4","last_reported":1706537193,"current_range_meters":9200,"station_id":"ce4bgip2rcd13ifvqbb0","pricing_plan_id":"free"},{"bike_id":"86058199-1952-4f5b-aa60-291e2f416c6c","system_id":"levelo_inurba_marseille","lat":43.295748,"lon":5.37522,"is_reserved":false,"is_disabled":false,"rental_uris":{"android":"levelo://app?vid=86058199-1952-4f5b-aa60-291e2f416c6c","ios":"levelo://app?vid=86058199-1952-4f5b-aa60-291e2f416c6c"},"vehicle_type_id":"4","last_reported":1706537193,"current_range_meters":0,"station_id":"ce4bgh92rcd13ifvqb50","pricing_plan_id":"free"},{"bike_id":"eb5c3567-b790-4e71-8443-447eb7f7ea00","system_id":"levelo_inurba_marseille","lat":43.30425,"lon":5.38886,"is_reserved":false,"is_disabled":false,"rental_uris":{"android":"levelo://app?vid=eb5c3567-b790-4e71-8443-447eb7f7ea00","ios":"levelo://app?vid=eb5c3567-b790-4e71-8443-447eb7f7ea00"},"vehicle_type_id":"4","last_reported":1706537193,"current_range_meters":29600,"station_id":"ce4bgk12rcd13ifvqbi0","pricing_plan_id":"free"},{"bike_id":"511b95d0-43b5-45ef-bc4b-886e6e6241f9","system_id":"levelo_inurba_marseille","lat":43.298037,"lon":5.381066,"is_reserved":false,"is_disabled":false,"rental_uris":{"android":"levelo://app?vid=511b95d0-43b5-45ef-bc4b-886e6e6241f9","ios":"levelo://app?vid=511b95d0-43b5-45ef-bc4b-886e6e6241f9"},"vehicle_type_id":"4","last_reported":1706537193,"current_range_meters":31200,"station_id":"ce4bgip2rcd13ifvqbb0","pricing_plan_id":"free"},{"bike_id":"7e27553c-87d5-420f-9824-769179cd9f8b","system_id":"levelo_inurba_marseille","lat":43.304313,"lon":5.388917,"is_reserved":false,"is_disabled":false,"rental_uris":{"android":"levelo://app?vid=7e27553c-87d5-420f-9824-769179cd9f8b","ios":"levelo://app?vid=7e27553c-87d5-420f-9824-769179cd9f8b"},"vehicle_type_id":"4","last_reported":1706537193,"current_range_meters":24400,"station_id":"ce4bgk12rcd13ifvqbi0","pricing_plan_id":"free"},{"bike_id":"76a5d9bd-0064-465c-b376-50052c5ab113","system_id":"levelo_inurba_marseille","lat":43.30432,"lon":5.388923,"is_reserved":false,"is_disabled":false,"rental_uris":{"android":"levelo://app?vid=76a5d9bd-0064-465c-b376-50052c5ab113","ios":"levelo://app?vid=76a5d9bd-0064-465c-b376-50052c5ab113"},"vehicle_type_id":"4","last_reported":1706537193,"current_range_meters":25600,"station_id":"ce4bgk12rcd13ifvqbi0","pricing_plan_id":"free"},{"bike_id":"564c6456-d3e4-493e-9d8c-8cdc7f7ace51","system_id":"levelo_inurba_marseille","lat":43.304274,"lon":5.388873,"is_reserved":false,"is_disabled":false,"rental_uris":{"android":"levelo://app?vid=564c6456-d3e4-493e-9d8c-8cdc7f7ace51","ios":"levelo://app?vid=564c6456-d3e4-493e-9d8c-8cdc7f7ace51"},"vehicle_type_id":"4","last_reported":1706537193,"current_range_meters":0,"station_id":"ce4bgk12rcd13ifvqbi0","pricing_plan_id":"free"},{"bike_id":"9a5114bb-0dcb-45ad-aa20-1dc5b3b9d20a","system_id":"levelo_inurba_marseille","lat":43.304323,"lon":5.388965,"is_reserved":false,"is_disabled":false,"rental_uris":{"android":"levelo://app?vid=9a5114bb-0dcb-45ad-aa20-1dc5b3b9d20a","ios":"levelo://app?vid=9a5114bb-0dcb-45ad-aa20-1dc5b3b9d20a"},"vehicle_type_id":"4","last_reported":1706537193,"current_range_meters":22000,"station_id":"ce4bgk12rcd13ifvqbi0","pricing_plan_id":"free"},{"bike_id":"26449efe-5f99-427e-9d56-62c5c5830825","system_id":"levelo_inurba_marseille","lat":43.304318,"lon":5.388965,"is_reserved":false,"is_disabled":false,"rental_uris":{"android":"levelo://app?vid=26449efe-5f99-427e-9d56-62c5c5830825","ios":"levelo://app?vid=26449efe-5f99-427e-9d56-62c5c5830825"},"vehicle_type_id":"4","last_reported":1706537193,"current_range_meters":23200,"station_id":"ce4bgk12rcd13ifvqbi0","pricing_plan_id":"free"},{"bike_id":"0f9ec4a7-7637-4800-8c0d-0115b9ac8dd4","system_id":"levelo_inurba_marseille","lat":43.29783,"lon":5.381066,"is_reserved":false,"is_disabled":false,"rental_uris":{"android":"levelo://app?vid=0f9ec4a7-7637-4800-8c0d-0115b9ac8dd4","ios":"levelo://app?vid=0f9ec4a7-7637-4800-8c0d-0115b9ac8dd4"},"vehicle_type_id":"4","last_reported":1706537193,"current_range_meters":8800,"station_id":"ce4bgip2rcd13ifvqbb0","pricing_plan_id":"free"},{"bike_id":"22487507-9164-4b18-a6d2-20136f5712c3","system_id":"levelo_inurba_marseille","lat":43.304274,"lon":5.388873,"is_reserved":false,"is_disabled":false,"rental_uris":{"android":"levelo://app?vid=22487507-9164-4b18-a6d2-20136f5712c3","ios":"levelo://app?vid=22487507-9164-4b18-a6d2-20136f5712c3"},"vehicle_type_id":"4","last_reported":1706537193,"current_range_meters":28800,"station_id":"ce4bgk12rcd13ifvqbi0","pricing_plan_id":"free"},{"bike_id":"4830f46a-db61-4b67-b61a-f495425fe28d","system_id":"levelo_inurba_marseille","lat":43.296263,"lon":5.377094,"is_reserved":false,"is_disabled":false,"rental_uris":{"android":"levelo://app?vid=4830f46a-db61-4b67-b61a-f495425fe28d","ios":"levelo://app?vid=4830f46a-db61-4b67-b61a-f495425fe28d"},"vehicle_type_id":"4","last_reported":1706537193,"current_range_meters":15600,"station_id":"ce4bgi92rcd13ifvqb90","pricing_plan_id":"free"},{"bike_id":"445f2466-f866-401b-a546-2bb4f0f67e78","system_id":"levelo_inurba_marseille","lat":43.296263,"lon":5.377094,"is_reserved":false,"is_disabled":false,"rental_uris":{"android":"levelo://app?vid=445f2466-f866-401b-a546-2bb4f0f67e78","ios":"levelo://app?vid=445f2466-f866-401b-a546-2bb4f0f67e78"},"vehicle_type_id":"4","last_reported":1706537193,"current_range_meters":23200,"station_id":"ce4bgi92rcd13ifvqb90","pricing_plan_id":"free"},{"bike_id":"de25d637-84ec-4203-b892-3e1c2d7c4ddb","system_id":"levelo_inurba_marseille","lat":43.33166,"lon":5.36439,"is_reserved":false,"is_disabled":false,"rental_uris":{"android":"levelo://app?vid=de25d637-84ec-4203-b892-3e1c2d7c4ddb","ios":"levelo://app?vid=de25d637-84ec-4203-b892-3e1c2d7c4ddb"},"vehicle_type_id":"4","last_reported":1706537193,"current_range_meters":16800,"station_id":"","pricing_plan_id":"free"},{"bike_id":"d68e21e0-f101-4fe4-adad-3edc99116a12","system_id":"levelo_inurba_marseille","lat":43.32367,"lon":5.388836,"is_reserved":false,"is_disabled":false,"rental_uris":{"android":"levelo://app?vid=d68e21e0-f101-4fe4-adad-3edc99116a12","ios":"levelo://app?vid=d68e21e0-f101-4fe4-adad-3edc99116a12"},"vehicle_type_id":"4","last_reported":1706537193,"current_range_meters":14800,"station_id":"ce4bhqp2rcd13ifvqhog","pricing_plan_id":"free"},{"bike_id":"14a09974-0d9f-4f52-ac7f-c3914cf28ab8","system_id":"levelo_inurba_marseille","lat":43.293249,"lon":5.371578,"is_reserved":false,"is_disabled":false,"rental_uris":{"android":"levelo://app?vid=14a09974-0d9f-4f52-ac7f-c3914cf28ab8","ios":"levelo://app?vid=14a09974-0d9f-4f52-ac7f-c3914cf28ab8"},"vehicle_type_id":"4","last_reported":1706537193,"current_range_meters":8800,"station_id":"ce4bgh92rcd13ifvqb40","pricing_plan_id":"free"},{"bike_id":"2bb7836c-a567-4706-836c-89f1fe6621d1","system_id":"levelo_inurba_marseille","lat":43.293259,"lon":5.371586,"is_reserved":false,"is_disabled":false,"rental_uris":{"android":"levelo://app?vid=2bb7836c-a567-4706-836c-89f1fe6621d1","ios":"levelo://app?vid=2bb7836c-a567-4706-836c-89f1fe6621d1"},"vehicle_type_id":"4","last_reported":1706537193,"current_range_meters":5200,"station_id":"ce4bgh92rcd13ifvqb40","pricing_plan_id":"free"},{"bike_id":"11c0d4b5-64f7-4e5c-b533-1ea87b5b1e7d","system_id":"levelo_inurba_marseille","lat":43.293009,"lon":5.374584,"is_reserved":false,"is_disabled":false,"rental_uris":{"android":"levelo://app?vid=11c0d4b5-64f7-4e5c-b533-1ea87b5b1e7d","ios":"levelo://app?vid=11c0d4b5-64f7-4e5c-b533-1ea87b5b1e7d"},"vehicle_type_id":"4","last_reported":1706537193,"current_range_meters":1200,"station_id":"ce4bgi12rcd13ifvqb70","pricing_plan_id":"free"},{"bike_id":"02c21f0b-518c-48ce-a500-bac6f9dda32d","system_id":"levelo_inurba_marseille","lat":43.30591,"lon":5.39353,"is_reserved":false,"is_disabled":false,"rental_uris":{"android":"levelo://app?vid=02c21f0b-518c-48ce-a500-bac6f9dda32d","ios":"levelo://app?vid=02c21f0b-518c-48ce-a500-bac6f9dda32d"},"vehicle_type_id":"4","last_reported":1706537193,"current_range_meters":28400,"station_id":"ce4bh0p2rcd13ifvqd80","pricing_plan_id":"free"},{"bike_id":"3a32be4f-9dde-4aa2-96e9-c084307a93cc","system_id":"levelo_inurba_marseille","lat":43.303002,"lon":5.392142,"is_reserved":false,"is_disabled":false,"rental_uris":{"android":"levelo://app?vid=3a32be4f-9dde-4aa2-96e9-c084307a93cc","ios":"levelo://app?vid=3a32be4f-9dde-4aa2-96e9-c084307a93cc"},"vehicle_type_id":"4","last_reported":1706537193,"current_range_meters":31600,"station_id":"ce4bgkh2rcd13ifvqbk0","pricing_plan_id":"free"},{"bike_id":"6e6db11d-f257-43a2-b81b-7a6985847393","system_id":"levelo_inurba_marseille","lat":43.303002,"lon":5.392142,"is_reserved":false,"is_disabled":false,"rental_uris":{"android":"levelo://app?vid=6e6db11d-f257-43a2-b81b-7a6985847393","ios":"levelo://app?vid=6e6db11d-f257-43a2-b81b-7a6985847393"},"vehicle_type_id":"4","last_reported":1706537193,"current_range_meters":23200,"station_id":"ce4bgkh2rcd13ifvqbk0","pricing_plan_id":"free"},{"bike_id":"9230cf63-e7dc-42d7-a4d5-1673c8aae4ba","system_id":"levelo_inurba_marseille","lat":43.302992,"lon":5.392136,"is_reserved":false,"is_disabled":false,"rental_uris":{"android":"levelo://app?vid=9230cf63-e7dc-42d7-a4d5-1673c8aae4ba","ios":"levelo://app?vid=9230cf63-e7dc-42d7-a4d5-1673c8aae4ba"},"vehicle_type_id":"4","last_reported":1706537193,"current_range_meters":28400,"station_id":"ce4bgkh2rcd13ifvqbk0","pricing_plan_id":"free"},{"bike_id":"feabd9fc-4c55-429c-bd93-c364e5bc207e","system_id":"levelo_inurba_marseille","lat":43.2936,"lon":5.37835,"is_reserved":false,"is_disabled":false,"rental_uris":{"android":"levelo://app?vid=feabd9fc-4c55-429c-bd93-c364e5bc207e","ios":"levelo://app?vid=feabd9fc-4c55-429c-bd93-c364e5bc207e"},"vehicle_type_id":"4","last_reported":1706537193,"current_range_meters":26400,"station_id":"ce4bgjh2rcd13ifvqbf0","pricing_plan_id":"free"},{"bike_id":"82d9e2c5-3b5d-40e4-9bb8-6ae6347a5694","system_id":"levelo_inurba_marseille","lat":43.292311,"lon":5.360731,"is_reserved":false,"is_disabled":false,"rental_uris":{"android":"levelo://app?vid=82d9e2c5-3b5d-40e4-9bb8-6ae6347a5694","ios":"levelo://app?vid=82d9e2c5-3b5d-40e4-9bb8-6ae6347a5694"},"vehicle_type_id":"4","last_reported":1706537193,"current_range_meters":12800,"station_id":"ce4bhbh2rcd13ifvqeqg","pricing_plan_id":"free"},{"bike_id":"cef7746a-a172-4a3c-826a-a901a4e32047","system_id":"levelo_inurba_marseille","lat":43.300852,"lon":5.390859,"is_reserved":false,"is_disabled":false,"rental_uris":{"android":"levelo://app?vid=cef7746a-a172-4a3c-826a-a901a4e32047","ios":"levelo://app?vid=cef7746a-a172-4a3c-826a-a901a4e32047"},"vehicle_type_id":"4","last_reported":1706537193,"current_range_meters":22800,"station_id":"ce4bh192rcd13ifvqdb0","pricing_plan_id":"free"},{"bike_id":"32f9c2f0-8ec9-465d-a013-594a38e68029","system_id":"levelo_inurba_marseille","lat":43.300852,"lon":5.390859,"is_reserved":false,"is_disabled":false,"rental_uris":{"android":"levelo://app?vid=32f9c2f0-8ec9-465d-a013-594a38e68029","ios":"levelo://app?vid=32f9c2f0-8ec9-465d-a013-594a38e68029"},"vehicle_type_id":"4","last_reported":1706537193,"current_range_meters":27600,"station_id":"ce4bh192rcd13ifvqdb0","pricing_plan_id":"free"},{"bike_id":"c5fdd00e-0097-49a2-8064-ff0bd57944d6","system_id":"levelo_inurba_marseille","lat":43.298764,"lon":5.388973,"is_reserved":false,"is_disabled":false,"rental_uris":{"android":"levelo://app?vid=c5fdd00e-0097-49a2-8064-ff0bd57944d6","ios":"levelo://app?vid=c5fdd00e-0097-49a2-8064-ff0bd57944d6"},"vehicle_type_id":"4","last_reported":1706537193,"current_range_meters":16400,"station_id":"ce4bh392rcd13ifvqdl0","pricing_plan_id":"free"},{"bike_id":"48f10fc3-3f52-4675-860c-e54de7b286a0","system_id":"levelo_inurba_marseille","lat":43.291675,"lon":5.371583,"is_reserved":false,"is_disabled":false,"rental_uris":{"android":"levelo://app?vid=48f10fc3-3f52-4675-860c-e54de7b286a0","ios":"levelo://app?vid=48f10fc3-3f52-4675-860c-e54de7b286a0"},"vehicle_type_id":"4","last_reported":1706537193,"current_range_meters":24400,"station_id":"ce4bha92rcd13ifvqeh0","pricing_plan_id":"free"},{"bike_id":"3ddaf36f-3a57-4ac5-94de-790a805cbba8","system_id":"levelo_inurba_marseille","lat":43.291675,"lon":5.371583,"is_reserved":false,"is_disabled":false,"rental_uris":{"android":"levelo://app?vid=3ddaf36f-3a57-4ac5-94de-790a805cbba8","ios":"levelo://app?vid=3ddaf36f-3a57-4ac5-94de-790a805cbba8"},"vehicle_type_id":"4","last_reported":1706537193,"current_range_meters":20800,"station_id":"ce4bha92rcd13ifvqeh0","pricing_plan_id":"free"},{"bike_id":"af404723-01c2-42e4-8574-732496b9fa98","system_id":"levelo_inurba_marseille","lat":43.291675,"lon":5.371583,"is_reserved":false,"is_disabled":false,"rental_uris":{"android":"levelo://app?vid=af404723-01c2-42e4-8574-732496b9fa98","ios":"levelo://app?vid=af404723-01c2-42e4-8574-732496b9fa98"},"vehicle_type_id":"4","last_reported":1706537193,"current_range_meters":13600,"station_id":"ce4bha92rcd13ifvqeh0","pricing_plan_id":"free"},{"bike_id":"8bd50e9a-a2e5-4908-96d1-7749c1372792","system_id":"levelo_inurba_marseille","lat":43.309047,"lon":5.396551,"is_reserved":false,"is_disabled":false,"rental_uris":{"android":"levelo://app?vid=8bd50e9a-a2e5-4908-96d1-7749c1372792","ios":"levelo://app?vid=8bd50e9a-a2e5-4908-96d1-7749c1372792"},"vehicle_type_id":"4","last_reported":1706537193,"current_range_meters":28000,"station_id":"ce4bh012rcd13ifvqcv0","pricing_plan_id":"free"},{"bike_id":"f3a01e4c-1943-47ce-9cf6-390519327942","system_id":"levelo_inurba_marseille","lat":43.291994,"lon":5.357886,"is_reserved":false,"is_disabled":false,"rental_uris":{"android":"levelo://app?vid=f3a01e4c-1943-47ce-9cf6-390519327942","ios":"levelo://app?vid=f3a01e4c-1943-47ce-9cf6-390519327942"},"vehicle_type_id":"4","last_reported":1706537193,"current_range_meters":0,"station_id":"ce4bhb12rcd13ifvqel0","pricing_plan_id":"free"},{"bike_id":"c07daf04-e21b-4f24-a83e-49b9ec655b9c","system_id":"levelo_inurba_marseille","lat":43.309038,"lon":5.396546,"is_reserved":false,"is_disabled":false,"rental_uris":{"android":"levelo://app?vid=c07daf04-e21b-4f24-a83e-49b9ec655b9c","ios":"levelo://app?vid=c07daf04-e21b-4f24-a83e-49b9ec655b9c"},"vehicle_type_id":"4","last_reported":1706537193,"current_range_meters":31200,"station_id":"ce4bh012rcd13ifvqcv0","pricing_plan_id":"free"},{"bike_id":"82f2c399-a208-45bc-b375-a702cb5ba329","system_id":"levelo_inurba_marseille","lat":43.309047,"lon":5.396551,"is_reserved":false,"is_disabled":false,"rental_uris":{"android":"levelo://app?vid=82f2c399-a208-45bc-b375-a702cb5ba329","ios":"levelo://app?vid=82f2c399-a208-45bc-b375-a702cb5ba329"},"vehicle_type_id":"4","last_reported":1706537193,"current_range_meters":28000,"station_id":"ce4bh012rcd13ifvqcv0","pricing_plan_id":"free"},{"bike_id":"05342dcd-fa39-4a3d-8efe-7144b2b91637","system_id":"levelo_inurba_marseille","lat":43.313291,"lon":5.396838,"is_reserved":false,"is_disabled":false,"rental_uris":{"android":"levelo://app?vid=05342dcd-fa39-4a3d-8efe-7144b2b91637","ios":"levelo://app?vid=05342dcd-fa39-4a3d-8efe-7144b2b91637"},"vehicle_type_id":"4","last_reported":1706537193,"current_range_meters":31200,"station_id":"ce4bgvp2rcd13ifvqcu0","pricing_plan_id":"free"},{"bike_id":"53235cc5-b983-4a33-a317-4c87e8e25491","system_id":"levelo_inurba_marseille","lat":43.309047,"lon":5.396551,"is_reserved":false,"is_disabled":false,"rental_uris":{"android":"levelo://app?vid=53235cc5-b983-4a33-a317-4c87e8e25491","ios":"levelo://app?vid=53235cc5-b983-4a33-a317-4c87e8e25491"},"vehicle_type_id":"4","last_reported":1706537193,"current_range_meters":22000,"station_id":"ce4bh012rcd13ifvqcv0","pricing_plan_id":"free"},{"bike_id":"647514ef-9abc-409f-8fcc-dfa55b475f06","system_id":"levelo_inurba_marseille","lat":43.309047,"lon":5.396551,"is_reserved":false,"is_disabled":false,"rental_uris":{"android":"levelo://app?vid=647514ef-9abc-409f-8fcc-dfa55b475f06","ios":"levelo://app?vid=647514ef-9abc-409f-8fcc-dfa55b475f06"},"vehicle_type_id":"4","last_reported":1706537193,"current_range_meters":6800,"station_id":"ce4bh012rcd13ifvqcv0","pricing_plan_id":"free"},{"bike_id":"0d84f7c4-1055-4d26-8786-f7a052460aed","system_id":"levelo_inurba_marseille","lat":43.309047,"lon":5.396551,"is_reserved":false,"is_disabled":false,"rental_uris":{"android":"levelo://app?vid=0d84f7c4-1055-4d26-8786-f7a052460aed","ios":"levelo://app?vid=0d84f7c4-1055-4d26-8786-f7a052460aed"},"vehicle_type_id":"4","last_reported":1706537193,"current_range_meters":9200,"station_id":"ce4bh012rcd13ifvqcv0","pricing_plan_id":"free"},{"bike_id":"5de8852f-60f2-4832-9cba-df4d91c0dbaf","system_id":"levelo_inurba_marseille","lat":43.295351,"lon":5.385404,"is_reserved":false,"is_disabled":false,"rental_uris":{"android":"levelo://app?vid=5de8852f-60f2-4832-9cba-df4d91c0dbaf","ios":"levelo://app?vid=5de8852f-60f2-4832-9cba-df4d91c0dbaf"},"vehicle_type_id":"4","last_reported":1706537193,"current_range_meters":7600,"station_id":"ce4bgih2rcd13ifvqba0","pricing_plan_id":"free"},{"bike_id":"7c16c4b0-be76-4bb6-8cd0-8ba689b1f7bd","system_id":"levelo_inurba_marseille","lat":43.29529,"lon":5.385581,"is_reserved":false,"is_disabled":false,"rental_uris":{"android":"levelo://app?vid=7c16c4b0-be76-4bb6-8cd0-8ba689b1f7bd","ios":"levelo://app?vid=7c16c4b0-be76-4bb6-8cd0-8ba689b1f7bd"},"vehicle_type_id":"4","last_reported":1706537193,"current_range_meters":24400,"station_id":"ce4bgih2rcd13ifvqba0","pricing_plan_id":"free"},{"bike_id":"36cb9239-0023-4059-a8c3-ef4eb0e7a315","system_id":"levelo_inurba_marseille","lat":43.29535,"lon":5.3855,"is_reserved":false,"is_disabled":false,"rental_uris":{"android":"levelo://app?vid=36cb9239-0023-4059-a8c3-ef4eb0e7a315","ios":"levelo://app?vid=36cb9239-0023-4059-a8c3-ef4eb0e7a315"},"vehicle_type_id":"4","last_reported":1706537193,"current_range_meters":16000,"station_id":"ce4bgih2rcd13ifvqba0","pricing_plan_id":"free"},{"bike_id":"15fc651f-4fc3-4724-a7fc-a848bed26a0e","system_id":"levelo_inurba_marseille","lat":43.29531,"lon":5.38548,"is_reserved":false,"is_disabled":false,"rental_uris":{"android":"levelo://app?vid=15fc651f-4fc3-4724-a7fc-a848bed26a0e","ios":"levelo://app?vid=15fc651f-4fc3-4724-a7fc-a848bed26a0e"},"vehicle_type_id":"4","last_reported":1706537193,"current_range_meters":6400,"station_id":"ce4bgih2rcd13ifvqba0","pricing_plan_id":"free"},{"bike_id":"56ef890d-cfcd-42eb-9989-47f9dfcacdcb","system_id":"levelo_inurba_marseille","lat":43.30208,"lon":5.39456,"is_reserved":false,"is_disabled":false,"rental_uris":{"android":"levelo://app?vid=56ef890d-cfcd-42eb-9989-47f9dfcacdcb","ios":"levelo://app?vid=56ef890d-cfcd-42eb-9989-47f9dfcacdcb"},"vehicle_type_id":"4","last_reported":1706537193,"current_range_meters":22800,"station_id":"ce4bh0p2rcd13ifvqd70","pricing_plan_id":"free"},{"bike_id":"21384b45-5340-45ff-a8fd-f08a52081110","system_id":"levelo_inurba_marseille","lat":43.302008,"lon":5.394694,"is_reserved":false,"is_disabled":false,"rental_uris":{"android":"levelo://app?vid=21384b45-5340-45ff-a8fd-f08a52081110","ios":"levelo://app?vid=21384b45-5340-45ff-a8fd-f08a52081110"},"vehicle_type_id":"4","last_reported":1706537193,"current_range_meters":22400,"station_id":"ce4bh0p2rcd13ifvqd70","pricing_plan_id":"free"},{"bike_id":"c90a35c3-ea1f-45d9-b753-63f47bfbc30f","system_id":"levelo_inurba_marseille","lat":43.302008,"lon":5.394694,"is_reserved":false,"is_disabled":false,"rental_uris":{"android":"levelo://app?vid=c90a35c3-ea1f-45d9-b753-63f47bfbc30f","ios":"levelo://app?vid=c90a35c3-ea1f-45d9-b753-63f47bfbc30f"},"vehicle_type_id":"4","last_reported":1706537193,"current_range_meters":22000,"station_id":"ce4bh0p2rcd13ifvqd70","pricing_plan_id":"free"},{"bike_id":"d5bfa97d-3cbf-4389-a5b2-3d7d881e52e2","system_id":"levelo_inurba_marseille","lat":43.302008,"lon":5.394694,"is_reserved":false,"is_disabled":false,"rental_uris":{"android":"levelo://app?vid=d5bfa97d-3cbf-4389-a5b2-3d7d881e52e2","ios":"levelo://app?vid=d5bfa97d-3cbf-4389-a5b2-3d7d881e52e2"},"vehicle_type_id":"4","last_reported":1706537193,"current_range_meters":1200,"station_id":"ce4bh0p2rcd13ifvqd70","pricing_plan_id":"free"},{"bike_id":"30a94e7d-8699-4420-a6f3-25751a3be473","system_id":"levelo_inurba_marseille","lat":43.289184,"lon":5.366408,"is_reserved":false,"is_disabled":false,"rental_uris":{"android":"levelo://app?vid=30a94e7d-8699-4420-a6f3-25751a3be473","ios":"levelo://app?vid=30a94e7d-8699-4420-a6f3-25751a3be473"},"vehicle_type_id":"4","last_reported":1706537193,"current_range_meters":11600,"station_id":"ce4bhap2rcd13ifvqek0","pricing_plan_id":"free"},{"bike_id":"1dfef741-9d98-4cc1-8d37-7203c0863827","system_id":"levelo_inurba_marseille","lat":43.290631,"lon":5.359244,"is_reserved":false,"is_disabled":false,"rental_uris":{"android":"levelo://app?vid=1dfef741-9d98-4cc1-8d37-7203c0863827","ios":"levelo://app?vid=1dfef741-9d98-4cc1-8d37-7203c0863827"},"vehicle_type_id":"4","last_reported":1706537193,"current_range_meters":3600,"station_id":"ce4bha92rcd13ifvqeg0","pricing_plan_id":"free"},{"bike_id":"e1318da1-73c7-4edc-866f-19a6b1d063e3","system_id":"levelo_inurba_marseille","lat":43.294162,"lon":5.386292,"is_reserved":false,"is_disabled":false,"rental_uris":{"android":"levelo://app?vid=e1318da1-73c7-4edc-866f-19a6b1d063e3","ios":"levelo://app?vid=e1318da1-73c7-4edc-866f-19a6b1d063e3"},"vehicle_type_id":"4","last_reported":1706537193,"current_range_meters":5200,"station_id":"ce4bh2h2rcd13ifvqdh0","pricing_plan_id":"free"},{"bike_id":"618a68b5-4740-4f03-9e48-f4accb46ddff","system_id":"levelo_inurba_marseille","lat":43.294153,"lon":5.386305,"is_reserved":false,"is_disabled":false,"rental_uris":{"android":"levelo://app?vid=618a68b5-4740-4f03-9e48-f4accb46ddff","ios":"levelo://app?vid=618a68b5-4740-4f03-9e48-f4accb46ddff"},"vehicle_type_id":"4","last_reported":1706537193,"current_range_meters":24000,"station_id":"ce4bh2h2rcd13ifvqdh0","pricing_plan_id":"free"},{"bike_id":"c671ef56-01e6-49a7-870d-691823ee5afc","system_id":"levelo_inurba_marseille","lat":43.289184,"lon":5.366408,"is_reserved":false,"is_disabled":false,"rental_uris":{"android":"levelo://app?vid=c671ef56-01e6-49a7-870d-691823ee5afc","ios":"levelo://app?vid=c671ef56-01e6-49a7-870d-691823ee5afc"},"vehicle_type_id":"4","last_reported":1706537193,"current_range_meters":20000,"station_id":"ce4bhap2rcd13ifvqek0","pricing_plan_id":"free"},{"bike_id":"c13c1db7-286d-4c60-9c95-540b05705340","system_id":"levelo_inurba_marseille","lat":43.289184,"lon":5.366408,"is_reserved":false,"is_disabled":false,"rental_uris":{"android":"levelo://app?vid=c13c1db7-286d-4c60-9c95-540b05705340","ios":"levelo://app?vid=c13c1db7-286d-4c60-9c95-540b05705340"},"vehicle_type_id":"4","last_reported":1706537193,"current_range_meters":4000,"station_id":"ce4bhap2rcd13ifvqek0","pricing_plan_id":"free"},{"bike_id":"08ff622e-72ae-444d-b04c-863e1791830b","system_id":"levelo_inurba_marseille","lat":43.289184,"lon":5.366408,"is_reserved":false,"is_disabled":false,"rental_uris":{"android":"levelo://app?vid=08ff622e-72ae-444d-b04c-863e1791830b","ios":"levelo://app?vid=08ff622e-72ae-444d-b04c-863e1791830b"},"vehicle_type_id":"4","last_reported":1706537193,"current_range_meters":14000,"station_id":"ce4bhap2rcd13ifvqek0","pricing_plan_id":"free"},{"bike_id":"2a78d349-b178-4c6f-bec5-23943b57b746","system_id":"levelo_inurba_marseille","lat":43.289184,"lon":5.366408,"is_reserved":false,"is_disabled":false,"rental_uris":{"android":"levelo://app?vid=2a78d349-b178-4c6f-bec5-23943b57b746","ios":"levelo://app?vid=2a78d349-b178-4c6f-bec5-23943b57b746"},"vehicle_type_id":"4","last_reported":1706537193,"current_range_meters":17600,"station_id":"ce4bhap2rcd13ifvqek0","pricing_plan_id":"free"},{"bike_id":"270fc694-56c3-4cf6-af05-b1f18b8396bb","system_id":"levelo_inurba_marseille","lat":43.289184,"lon":5.366408,"is_reserved":false,"is_disabled":false,"rental_uris":{"android":"levelo://app?vid=270fc694-56c3-4cf6-af05-b1f18b8396bb","ios":"levelo://app?vid=270fc694-56c3-4cf6-af05-b1f18b8396bb"},"vehicle_type_id":"4","last_reported":1706537193,"current_range_meters":14400,"station_id":"ce4bhap2rcd13ifvqek0","pricing_plan_id":"free"},{"bike_id":"a561f0ae-dd8b-4828-9e9c-d336ba384d42","system_id":"levelo_inurba_marseille","lat":43.28937,"lon":5.36402,"is_reserved":false,"is_disabled":false,"rental_uris":{"android":"levelo://app?vid=a561f0ae-dd8b-4828-9e9c-d336ba384d42","ios":"levelo://app?vid=a561f0ae-dd8b-4828-9e9c-d336ba384d42"},"vehicle_type_id":"4","last_reported":1706537193,"current_range_meters":24000,"station_id":"ce4bhc92rcd13ifvqetg","pricing_plan_id":"free"},{"bike_id":"5ef69468-cedc-4e40-a010-6c5a48001237","system_id":"levelo_inurba_marseille","lat":43.289353,"lon":5.36403,"is_reserved":false,"is_disabled":false,"rental_uris":{"android":"levelo://app?vid=5ef69468-cedc-4e40-a010-6c5a48001237","ios":"levelo://app?vid=5ef69468-cedc-4e40-a010-6c5a48001237"},"vehicle_type_id":"4","last_reported":1706537193,"current_range_meters":6000,"station_id":"ce4bhc92rcd13ifvqetg","pricing_plan_id":"free"},{"bike_id":"e700257f-0b5c-43c8-ad5e-232f4ab24ac6","system_id":"levelo_inurba_marseille","lat":43.292644,"lon":5.384257,"is_reserved":false,"is_disabled":false,"rental_uris":{"android":"levelo://app?vid=e700257f-0b5c-43c8-ad5e-232f4ab24ac6","ios":"levelo://app?vid=e700257f-0b5c-43c8-ad5e-232f4ab24ac6"},"vehicle_type_id":"4","last_reported":1706537193,"current_range_meters":2000,"station_id":"ce4bh692rcd13ifvqea0","pricing_plan_id":"free"},{"bike_id":"b5422ccf-75df-4678-84f6-4082a8faade3","system_id":"levelo_inurba_marseille","lat":43.292644,"lon":5.384257,"is_reserved":false,"is_disabled":false,"rental_uris":{"android":"levelo://app?vid=b5422ccf-75df-4678-84f6-4082a8faade3","ios":"levelo://app?vid=b5422ccf-75df-4678-84f6-4082a8faade3"},"vehicle_type_id":"4","last_reported":1706537193,"current_range_meters":2800,"station_id":"ce4bh692rcd13ifvqea0","pricing_plan_id":"free"},{"bike_id":"3b840072-27c7-4616-9628-75c4916991d7","system_id":"levelo_inurba_marseille","lat":43.292644,"lon":5.384257,"is_reserved":false,"is_disabled":false,"rental_uris":{"android":"levelo://app?vid=3b840072-27c7-4616-9628-75c4916991d7","ios":"levelo://app?vid=3b840072-27c7-4616-9628-75c4916991d7"},"vehicle_type_id":"4","last_reported":1706537193,"current_range_meters":0,"station_id":"ce4bh692rcd13ifvqea0","pricing_plan_id":"free"},{"bike_id":"7388f7bf-b85d-4b83-8be3-5a81144d4714","system_id":"levelo_inurba_marseille","lat":43.292642,"lon":5.384254,"is_reserved":false,"is_disabled":false,"rental_uris":{"android":"levelo://app?vid=7388f7bf-b85d-4b83-8be3-5a81144d4714","ios":"levelo://app?vid=7388f7bf-b85d-4b83-8be3-5a81144d4714"},"vehicle_type_id":"4","last_reported":1706537193,"current_range_meters":20800,"station_id":"ce4bh692rcd13ifvqea0","pricing_plan_id":"free"},{"bike_id":"3e0bf173-d1a1-4551-aeb5-48f0f5bd9f6b","system_id":"levelo_inurba_marseille","lat":43.292642,"lon":5.384254,"is_reserved":false,"is_disabled":false,"rental_uris":{"android":"levelo://app?vid=3e0bf173-d1a1-4551-aeb5-48f0f5bd9f6b","ios":"levelo://app?vid=3e0bf173-d1a1-4551-aeb5-48f0f5bd9f6b"},"vehicle_type_id":"4","last_reported":1706537193,"current_range_meters":1200,"station_id":"ce4bh692rcd13ifvqea0","pricing_plan_id":"free"},{"bike_id":"670bccda-a220-4c9b-bfde-df8f3b5388ad","system_id":"levelo_inurba_marseille","lat":43.292644,"lon":5.384257,"is_reserved":false,"is_disabled":false,"rental_uris":{"android":"levelo://app?vid=670bccda-a220-4c9b-bfde-df8f3b5388ad","ios":"levelo://app?vid=670bccda-a220-4c9b-bfde-df8f3b5388ad"},"vehicle_type_id":"4","last_reported":1706537193,"current_range_meters":12000,"station_id":"ce4bh692rcd13ifvqea0","pricing_plan_id":"free"},{"bike_id":"072975b6-6e28-4094-82bb-53b749386426","system_id":"levelo_inurba_marseille","lat":43.292644,"lon":5.384257,"is_reserved":false,"is_disabled":false,"rental_uris":{"android":"levelo://app?vid=072975b6-6e28-4094-82bb-53b749386426","ios":"levelo://app?vid=072975b6-6e28-4094-82bb-53b749386426"},"vehicle_type_id":"4","last_reported":1706537193,"current_range_meters":6000,"station_id":"ce4bh692rcd13ifvqea0","pricing_plan_id":"free"},{"bike_id":"7ba0bdcc-c7d0-413a-925e-bf784d614360","system_id":"levelo_inurba_marseille","lat":43.29006,"lon":5.35612,"is_reserved":false,"is_disabled":false,"rental_uris":{"android":"levelo://app?vid=7ba0bdcc-c7d0-413a-925e-bf784d614360","ios":"levelo://app?vid=7ba0bdcc-c7d0-413a-925e-bf784d614360"},"vehicle_type_id":"4","last_reported":1706537193,"current_range_meters":0,"station_id":"ce4bhb92rcd13ifvqen0","pricing_plan_id":"free"},{"bike_id":"c5f2231b-fa4c-439f-ae5d-5a320e0b5d05","system_id":"levelo_inurba_marseille","lat":43.29005,"lon":5.35611,"is_reserved":false,"is_disabled":false,"rental_uris":{"android":"levelo://app?vid=c5f2231b-fa4c-439f-ae5d-5a320e0b5d05","ios":"levelo://app?vid=c5f2231b-fa4c-439f-ae5d-5a320e0b5d05"},"vehicle_type_id":"4","last_reported":1706537193,"current_range_meters":0,"station_id":"ce4bhb92rcd13ifvqen0","pricing_plan_id":"free"},{"bike_id":"90054b9d-7d8c-4abd-9853-bb52ebeafea0","system_id":"levelo_inurba_marseille","lat":43.289741,"lon":5.378306,"is_reserved":false,"is_disabled":false,"rental_uris":{"android":"levelo://app?vid=90054b9d-7d8c-4abd-9853-bb52ebeafea0","ios":"levelo://app?vid=90054b9d-7d8c-4abd-9853-bb52ebeafea0"},"vehicle_type_id":"4","last_reported":1706537193,"current_range_meters":23600,"station_id":"ce4bh9p2rcd13ifvqed0","pricing_plan_id":"free"},{"bike_id":"7b0e17b0-30d5-431d-beae-f4b3bba230b5","system_id":"levelo_inurba_marseille","lat":43.29768,"lon":5.39383,"is_reserved":false,"is_disabled":false,"rental_uris":{"android":"levelo://app?vid=7b0e17b0-30d5-431d-beae-f4b3bba230b5","ios":"levelo://app?vid=7b0e17b0-30d5-431d-beae-f4b3bba230b5"},"vehicle_type_id":"4","last_reported":1706537193,"current_range_meters":0,"station_id":"chh1huq6cuj3fo74tm60","pricing_plan_id":"free"},{"bike_id":"d7af2f27-e908-4c83-9501-6bbd18c66907","system_id":"levelo_inurba_marseille","lat":43.2901,"lon":5.381269,"is_reserved":false,"is_disabled":false,"rental_uris":{"android":"levelo://app?vid=d7af2f27-e908-4c83-9501-6bbd18c66907","ios":"levelo://app?vid=d7af2f27-e908-4c83-9501-6bbd18c66907"},"vehicle_type_id":"4","last_reported":1706537193,"current_range_meters":11600,"station_id":"ce4bh4p2rcd13ifvqe1g","pricing_plan_id":"free"},{"bike_id":"13c757b5-043a-4637-9d9e-177d746b1a1f","system_id":"levelo_inurba_marseille","lat":43.28856,"lon":5.358371,"is_reserved":false,"is_disabled":false,"rental_uris":{"android":"levelo://app?vid=13c757b5-043a-4637-9d9e-177d746b1a1f","ios":"levelo://app?vid=13c757b5-043a-4637-9d9e-177d746b1a1f"},"vehicle_type_id":"4","last_reported":1706537193,"current_range_meters":1200,"station_id":"ce4bhb12rcd13ifvqem0","pricing_plan_id":"free"},{"bike_id":"7ebb25d2-ce5f-4e08-99aa-e181dcfa568d","system_id":"levelo_inurba_marseille","lat":43.312715,"lon":5.401705,"is_reserved":false,"is_disabled":false,"rental_uris":{"android":"levelo://app?vid=7ebb25d2-ce5f-4e08-99aa-e181dcfa568d","ios":"levelo://app?vid=7ebb25d2-ce5f-4e08-99aa-e181dcfa568d"},"vehicle_type_id":"4","last_reported":1706537193,"current_range_meters":16800,"station_id":"ce4bh092rcd13ifvqd30","pricing_plan_id":"free"},{"bike_id":"16c6bdc1-2326-47ea-97c8-514d1a99819b","system_id":"levelo_inurba_marseille","lat":43.30929,"lon":5.4014,"is_reserved":false,"is_disabled":false,"rental_uris":{"android":"levelo://app?vid=16c6bdc1-2326-47ea-97c8-514d1a99819b","ios":"levelo://app?vid=16c6bdc1-2326-47ea-97c8-514d1a99819b"},"vehicle_type_id":"4","last_reported":1706537193,"current_range_meters":11200,"station_id":"ce4bgvp2rcd13ifvqct0","pricing_plan_id":"free"},{"bike_id":"a563cdbf-78b8-441c-8dce-8da1c3325b92","system_id":"levelo_inurba_marseille","lat":43.337502,"lon":5.374518,"is_reserved":false,"is_disabled":false,"rental_uris":{"android":"levelo://app?vid=a563cdbf-78b8-441c-8dce-8da1c3325b92","ios":"levelo://app?vid=a563cdbf-78b8-441c-8dce-8da1c3325b92"},"vehicle_type_id":"4","last_reported":1706537193,"current_range_meters":20800,"station_id":"","pricing_plan_id":"free"},{"bike_id":"1aa74fdb-af90-4c17-8798-068ff6f496b5","system_id":"levelo_inurba_marseille","lat":43.30936,"lon":5.40152,"is_reserved":false,"is_disabled":false,"rental_uris":{"android":"levelo://app?vid=1aa74fdb-af90-4c17-8798-068ff6f496b5","ios":"levelo://app?vid=1aa74fdb-af90-4c17-8798-068ff6f496b5"},"vehicle_type_id":"4","last_reported":1706537193,"current_range_meters":0,"station_id":"ce4bgvp2rcd13ifvqct0","pricing_plan_id":"free"},{"bike_id":"b7f12eab-e0a6-499e-87ec-2b4381c4602a","system_id":"levelo_inurba_marseille","lat":43.337544,"lon":5.374554,"is_reserved":false,"is_disabled":false,"rental_uris":{"android":"levelo://app?vid=b7f12eab-e0a6-499e-87ec-2b4381c4602a","ios":"levelo://app?vid=b7f12eab-e0a6-499e-87ec-2b4381c4602a"},"vehicle_type_id":"4","last_reported":1706537193,"current_range_meters":22000,"station_id":"","pricing_plan_id":"free"},