{"last_updated":1744304981,"ttl":60,"version":"2.2","data":{"bikes":[{"bike_id":"0ccbc6eb-5d96-4995-adf3-fb6e57a250e6","system_id":"levelo_inurba_marseille","lat":43.250919,"lon":5.395327,"is_reserved":false,"is_disabled":false,"rental_uris":{"android":"levelo://app?vid=0ccbc6eb-5d96-4995-adf3-fb6e57a250e6","ios":"levelo://app?vid=0ccbc6eb-5d96-4995-adf3-fb6e57a250e6"},"vehicle_type_id":"4","last_reported":1744304981,"current_range_meters":2800,"station_id":"ce4bhm12rcd13ifvqgkg","pricing_plan_id":"cebpf4jnsgd1na2vs0mg"},{"bike_id":"000ed962-1bf6-4231-a5a5-8027322609bc","system_id":"levelo_inurba_marseille","lat":43.29596,"lon":5.39941,"is_reserved":false,"is_disabled":false,"rental_uris":{"android":"levelo://app?vid=000ed962-1bf6-4231-a5a5-8027322609bc","ios":"levelo://app?vid=000ed962-1bf6-4231-a5a5-8027322609bc"},"vehicle_type_id":"4","last_reported":1744304981,"current_range_meters":2800,"station_id":"ce4bh312rcd13ifvqdj0","pricing_plan_id":"cebpf4jnsgd1na2vs0mg"},{"bike_id":"e8a55d08-1b4b-4275-bcba-cfab3a304ca0","system_id":"levelo_inurba_marseille","lat":43.29872,"lon":5.39737,"is_reserved":false,"is_disabled":false,"rental_uris":{"android":"levelo://app?vid=e8a55d08-1b4b-4275-bcba-cfab3a304ca0","ios":"levelo://app?vid=e8a55d08-1b4b-4275-bcba-cfab3a304ca0"},"vehicle_type_id":"4","last_reported":1744304981,"current_range_meters":2800,"station_id":"ce4bh0h2rcd13ifvqd50","pricing_plan_id":"cebpf4jnsgd1na2vs0mg"},{"bike_id":"97d9f5c7-5601-4024-8218-e080850705e4","system_id":"levelo_inurba_marseille","lat":43.28429,"lon":5.34988,"is_reserved":false,"is_disabled":true,"rental_uris":{"android":"levelo://app?vid=97d9f5c7-5601-4024-8218-e080850705e4","ios":"levelo://app?vid=97d9f5c7-5601-4024-8218-e080850705e4"},"vehicle_type_id":"4","last_reported":1744304981,"current_range_meters":2800,"station_id":"ce4bhbh2rcd13ifvqepg","pricing_plan_id":"cebpf4jnsgd1na2vs0mg"},{"bike_id":"0fea3acc-83a3-42bc-b6cd-f97b7cbd6378","system_id":"levelo_inurba_marseille","lat":43.28084,"lon":5.39656,"is_reserved":false,"is_disabled":false,"rental_uris":{"android":"levelo://app?vid=0fea3acc-83a3-42bc-b6cd-f97b7cbd6378","ios":"levelo://app?vid=0fea3acc-83a3-42bc-b6cd-f97b7cbd6378"},"vehicle_type_id":"4","last_reported":1744304981,"current_range_meters":2800,"station_id":"ce4bho12rcd13ifvqh2g","pricing_plan_id":"cebpf4jnsgd1na2vs0mg"},{"bike_id":"18ad7e4b-e51e-4f1b-b447-cad2f89ae269","system_id":"levelo_inurba_marseille","lat":43.25495,"lon":5.37653,"is_reserved":false,"is_disabled":false,"rental_uris":{"android":"levelo://app?vid=18ad7e4b-e51e-4f1b-b447-cad2f89ae269","ios":"levelo://app?vid=18ad7e4b-e51e-4f1b-b447-cad2f89ae269"},"vehicle_type_id":"4","last_reported":1744304981,"current_range_meters":3200,"station_id":"ce4bhh12rcd13ifvqff0","pricing_plan_id":"cebpf4jnsgd1na2vs0mg"},{"bike_id":"80663e12-6b64-446d-88c9-20255bde1a8a","system_id":"levelo_inurba_marseille","lat":43.30886,"lon":5.39645,"is_reserved":false,"is_disabled":true,"rental_uris":{"android":"levelo://app?vid=80663e12-6b64-446d-88c9-20255bde1a8a","ios":"levelo://app?vid=80663e12-6b64-446d-88c9-20255bde1a8a"},"vehicle_type_id":"4","last_reported":1744304981,"current_range_meters":3200,"station_id":"ce4bh012rcd13ifvqcv0","pricing_plan_id":"cebpf4jnsgd1na2vs0mg"},{"bike_id":"27fcf6a5-53d6-43e2-b652-8ff21d168515","system_id":"levelo_inurba_marseille","lat":43.2931,"lon":5.3719,"is_reserved":false,"is_disabled":false,"rental_uris":{"android":"levelo://app?vid=27fcf6a5-53d6-43e2-b652-8ff21d168515","ios":"levelo://app?vid=27fcf6a5-53d6-43e2-b652-8ff21d168515"},"vehicle_type_id":"4","last_reported":1744304981,"current_range_meters":2800,"station_id":"ce4bgh92rcd13ifvqb40","pricing_plan_id":"cebpf4jnsgd1na2vs0mg"},{"bike_id":"9916dae2-553d-4f74-9459-14909a8edde2","system_id":"levelo_inurba_marseille","lat":43.273773,"lon":5.362577,"is_reserved":false,"is_disabled":false,"rental_uris":{"android":"levelo://app?vid=9916dae2-553d-4f74-9459-14909a8edde2","ios":"levelo://app?vid=9916dae2-553d-4f74-9459-14909a8edde2"},"vehicle_type_id":"4","last_reported":1744304981,"current_range_meters":3200,"station_id":"ce4bhbh2rcd13ifvqeo0","pricing_plan_id":"cebpf4jnsgd1na2vs0mg"},{"bike_id":"caf2e612-0d07-4975-a511-be1f176bfca5","system_id":"levelo_inurba_marseille","lat":43.247685,"lon":5.4005,"is_reserved":false,"is_disabled":true,"rental_uris":{"android":"levelo://app?vid=caf2e612-0d07-4975-a511-be1f176bfca5","ios":"levelo://app?vid=caf2e612-0d07-4975-a511-be1f176bfca5"},"vehicle_type_id":"4","last_reported":1744304981,"current_range_meters":3200,"station_id":"","pricing_plan_id":"cebpf4jnsgd1na2vs0mg"},{"bike_id":"bbd14db6-a6f2-4d74-9453-8f7fd74e5bc7","system_id":"levelo_inurba_marseille","lat":43.29416,"lon":5.38627,"is_reserved":false,"is_disabled":false,"rental_uris":{"android":"levelo://app?vid=bbd14db6-a6f2-4d74-9453-8f7fd74e5bc7","ios":"levelo://app?vid=bbd14db6-a6f2-4d74-9453-8f7fd74e5bc7"},"vehicle_type_id":"4","last_reported":1744304981,"current_range_meters":3600,"station_id":"ce4bh2h2rcd13ifvqdh0","pricing_plan_id":"cebpf4jnsgd1na2vs0mg"},{"bike_id":"5a055fb0-3ead-4ce3-bae1-df76b1891801","system_id":"levelo_inurba_marseille","lat":43.30644,"lon":5.40102,"is_reserved":false,"is_disabled":false,"rental_uris":{"android":"levelo://app?vid=5a055fb0-3ead-4ce3-bae1-df76b1891801","ios":"levelo://app?vid=5a055fb0-3ead-4ce3-bae1-df76b1891801"},"vehicle_type_id":"4","last_reported":1744304981,"current_range_meters":3600,"station_id":"ce4bh112rcd13ifvqda0","pricing_plan_id":"cebpf4jnsgd1na2vs0mg"},{"bike_id":"07fca2a0-d255-4df6-ad2b-ca59debd6b87","system_id":"levelo_inurba_marseille","lat":43.31753,"lon":5.3902,"is_reserved":false,"is_disabled":false,"rental_uris":{"android":"levelo://app?vid=07fca2a0-d255-4df6-ad2b-ca59debd6b87","ios":"levelo://app?vid=07fca2a0-d255-4df6-ad2b-ca59debd6b87"},"vehicle_type_id":"4","last_reported":1744304981,"current_range_meters":3600,"station_id":"ce4bhqp2rcd13ifvqhng","pricing_plan_id":"cebpf4jnsgd1na2vs0mg"},{"bike_id":"c5430962-d372-4bf6-bfef-817ca125a042","system_id":"levelo_inurba_marseille","lat":43.25582,"lon":5.38221,"is_reserved":false,"is_disabled":false,"rental_uris":{"android":"levelo://app?vid=c5430962-d372-4bf6-bfef-817ca125a042","ios":"levelo://app?vid=c5430962-d372-4bf6-bfef-817ca125a042"},"vehicle_type_id":"4","last_reported":1744304981,"current_range_meters":3600,"station_id":"ce4bhih2rcd13ifvqfs0","pricing_plan_id":"cebpf4jnsgd1na2vs0mg"},{"bike_id":"9d5b10ba-9d3e-4f73-9f4f-1b40e0c3d9b6","system_id":"levelo_inurba_marseille","lat":43.30906,"lon":5.36852,"is_reserved":false,"is_disabled":false,"rental_uris":{"android":"levelo://app?vid=9d5b10ba-9d3e-4f73-9f4f-1b40e0c3d9b6","ios":"levelo://app?vid=9d5b10ba-9d3e-4f73-9f4f-1b40e0c3d9b6"},"vehicle_type_id":"4","last_reported":1744304981,"current_range_meters":4000,"station_id":"ce4bgn92rcd13ifvqbvg","pricing_plan_id":"cebpf4jnsgd1na2vs0mg"},{"bike_id":"1676cc2a-5cb3-4dd4-bb61-ebe963ffcc60","system_id":"levelo_inurba_marseille","lat":43.28285,"lon":5.35088,"is_reserved":false,"is_disabled":false,"rental_uris":{"android":"levelo://app?vid=1676cc2a-5cb3-4dd4-bb61-ebe963ffcc60","ios":"levelo://app?vid=1676cc2a-5cb3-4dd4-bb61-ebe963ffcc60"},"vehicle_type_id":"4","last_reported":1744304981,"current_range_meters":3600,"station_id":"ce4bhbp2rcd13ifvqerg","pricing_plan_id":"cebpf4jnsgd1na2vs0mg"},{"bike_id":"dcdf5388-9f06-4d2c-84d4-8a5c0ff3517e","system_id":"levelo_inurba_marseille","lat":43.26679,"lon":5.38273,"is_reserved":false,"is_disabled":false,"rental_uris":{"android":"levelo://app?vid=dcdf5388-9f06-4d2c-84d4-8a5c0ff3517e","ios":"levelo://app?vid=dcdf5388-9f06-4d2c-84d4-8a5c0ff3517e"},"vehicle_type_id":"4","last_reported":1744304981,"current_range_meters":3600,"station_id":"ce4bhg92rcd13ifvqf90","pricing_plan_id":"cebpf4jnsgd1na2vs0mg"},{"bike_id":"7f843995-e8c7-4a46-bcd4-2fc7a575b6e3","system_id":"levelo_inurba_marseille","lat":43.29622,"lon":5.40629,"is_reserved":false,"is_disabled":false,"rental_uris":{"android":"levelo://app?vid=7f843995-e8c7-4a46-bcd4-2fc7a575b6e3","ios":"levelo://app?vid=7f843995-e8c7-4a46-bcd4-2fc7a575b6e3"},"vehicle_type_id":"4","last_reported":1744304981,"current_range_meters":4000,"station_id":"ce4bh0h2rcd13ifvqd60","pricing_plan_id":"cebpf4jnsgd1na2vs0mg"},{"bike_id":"08338b49-1178-4908-9ecc-892a2cd60515","system_id":"levelo_inurba_marseille","lat":43.29007,"lon":5.35612,"is_reserved":false,"is_disabled":false,"rental_uris":{"android":"levelo://app?vid=08338b49-1178-4908-9ecc-892a2cd60515","ios":"levelo://app?vid=08338b49-1178-4908-9ecc-892a2cd60515"},"vehicle_type_id":"4","last_reported":1744304981,"current_range_meters":3600,"station_id":"ce4bhb92rcd13ifvqen0","pricing_plan_id":"cebpf4jnsgd1na2vs0mg"},{"bike_id":"f21cc5a1-a2d1-4f9d-b7a9-0015eb343ed5","system_id":"levelo_inurba_marseille","lat":43.28618,"lon":5.35117,"is_reserved":false,"is_disabled":false,"rental_uris":{"android":"levelo://app?vid=f21cc5a1-a2d1-4f9d-b7a9-0015eb343ed5","ios":"levelo://app?vid=f21cc5a1-a2d1-4f9d-b7a9-0015eb343ed5"},"vehicle_type_id":"4","last_reported":1744304981,"current_range_meters":4000,"station_id":"ce4bhch2rcd13ifvqeug","pricing_plan_id":"cebpf4jnsgd1na2vs0mg"},{"bike_id":"d38f6f41-00aa-4f56-9e9e-b4009083be43","system_id":"levelo_inurba_marseille","lat":43.29039,"lon":5.40009,"is_reserved":false,"is_disabled":false,"rental_uris":{"android":"levelo://app?vid=d38f6f41-00aa-4f56-9e9e-b4009083be43","ios":"levelo://app?vid=d38f6f41-00aa-4f56-9e9e-b4009083be43"},"vehicle_type_id":"4","last_reported":1744304981,"current_range_meters":4400,"station_id":"ce4bh392rcd13ifvqdm0","pricing_plan_id":"cebpf4jnsgd1na2vs0mg"},{"bike_id":"08f9c0c8-8b33-4578-8a03-20f44d582241","system_id":"levelo_inurba_marseille","lat":43.30518,"lon":5.36976,"is_reserved":false,"is_disabled":false,"rental_uris":{"android":"levelo://app?vid=08f9c0c8-8b33-4578-8a03-20f44d582241","ios":"levelo://app?vid=08f9c0c8-8b33-4578-8a03-20f44d582241"},"vehicle_type_id":"4","last_reported":1744304981,"current_range_meters":4400,"station_id":"","pricing_plan_id":"cebpf4jnsgd1na2vs0mg"},{"bike_id":"0ab3cd4e-1ee2-42b1-a578-7168b184c242","system_id":"levelo_inurba_marseille","lat":43.28305,"lon":5.35068,"is_reserved":false,"is_disabled":false,"rental_uris":{"android":"levelo://app?vid=0ab3cd4e-1ee2-42b1-a578-7168b184c242","ios":"levelo://app?vid=0ab3cd4e-1ee2-42b1-a578-7168b184c242"},"vehicle_type_id":"4","last_reported":1744304981,"current_range_meters":4400,"station_id":"ce4bhbp2rcd13ifvqerg","pricing_plan_id":"cebpf4jnsgd1na2vs0mg"},{"bike_id":"2dfb5768-ef2c-418c-b467-9c092b17ddd7","system_id":"levelo_inurba_marseille","lat":43.30179,"lon":5.36626,"is_reserved":false,"is_disabled":false,"rental_uris":{"android":"levelo://app?vid=2dfb5768-ef2c-418c-b467-9c092b17ddd7","ios":"levelo://app?vid=2dfb5768-ef2c-418c-b467-9c092b17ddd7"},"vehicle_type_id":"4","last_reported":1744304981,"current_range_meters":4000,"station_id":"ce4bgrh2rcd13ifvqc8g","pricing_plan_id":"cebpf4jnsgd1na2vs0mg"},{"bike_id":"d20a3427-133e-4248-b5b7-96b4719e3159","system_id":"levelo_inurba_marseille","lat":43.25499,"lon":5.37645,"is_reserved":false,"is_disabled":false,"rental_uris":{"android":"levelo://app?vid=d20a3427-133e-4248-b5b7-96b4719e3159","ios":"levelo://app?vid=d20a3427-133e-4248-b5b7-96b4719e3159"},"vehicle_type_id":"4","last_reported":1744304981,"current_range_meters":4400,"station_id":"ce4bhh12rcd13ifvqff0","pricing_plan_id":"cebpf4jnsgd1na2vs0mg"},{"bike_id":"404fa36d-fd46-465f-bced-31fc49577bef","system_id":"levelo_inurba_marseille","lat":43.29903,"lon":5.37472,"is_reserved":false,"is_disabled":false,"rental_uris":{"android":"levelo://app?vid=404fa36d-fd46-465f-bced-31fc49577bef","ios":"levelo://app?vid=404fa36d-fd46-465f-bced-31fc49577bef"},"vehicle_type_id":"4","last_reported":1744304981,"current_range_meters":4400,"station_id":"ce4bgjh2rcd13ifvqbg0","pricing_plan_id":"cebpf4jnsgd1na2vs0mg"},{"bike_id":"b2e4fcb4-941c-4144-8476-64bb448fcca0","system_id":"levelo_inurba_marseille","lat":43.29198,"lon":5.35818,"is_reserved":false,"is_disabled":false,"rental_uris":{"android":"levelo://app?vid=b2e4fcb4-941c-4144-8476-64bb448fcca0","ios":"levelo://app?vid=b2e4fcb4-941c-4144-8476-64bb448fcca0"},"vehicle_type_id":"4","last_reported":1744304981,"current_range_meters":4400,"station_id":"ce4bhb12rcd13ifvqel0","pricing_plan_id":"cebpf4jnsgd1na2vs0mg"},{"bike_id":"1d51e0f7-178c-4ae3-88a2-488d4f01b826","system_id":"levelo_inurba_marseille","lat":43.2817,"lon":5.4231,"is_reserved":false,"is_disabled":false,"rental_uris":{"android":"levelo://app?vid=1d51e0f7-178c-4ae3-88a2-488d4f01b826","ios":"levelo://app?vid=1d51e0f7-178c-4ae3-88a2-488d4f01b826"},"vehicle_type_id":"4","last_reported":1744304981,"current_range_meters":5600,"station_id":"","pricing_plan_id":"cebpf4jnsgd1na2vs0mg"},{"bike_id":"60098edf-bc7e-410d-b0bc-d672e86f1956","system_id":"levelo_inurba_marseille","lat":43.29006,"lon":5.35608,"is_reserved":false,"is_disabled":false,"rental_uris":{"android":"levelo://app?vid=60098edf-bc7e-410d-b0bc-d672e86f1956","ios":"levelo://app?vid=60098edf-bc7e-410d-b0bc-d672e86f1956"},"vehicle_type_id":"4","last_reported":1744304981,"current_range_meters":5600,"station_id":"ce4bhb92rcd13ifvqen0","pricing_plan_id":"cebpf4jnsgd1na2vs0mg"},{"bike_id":"87af19e9-ce54-462a-846c-f70fa2963b16","system_id":"levelo_inurba_marseille","lat":43.29224,"lon":5.36082,"is_reserved":false,"is_disabled":false,"rental_uris":{"android":"levelo://app?vid=87af19e9-ce54-462a-846c-f70fa2963b16","ios":"levelo://app?vid=87af19e9-ce54-462a-846c-f70fa2963b16"},"vehicle_type_id":"4","last_reported":1744304981,"current_range_meters":5600,"station_id":"ce4bhbh2rcd13ifvqeqg","pricing_plan_id":"cebpf4jnsgd1na2vs0mg"},{"bike_id":"f7a6e2fa-bdd1-4556-a43b-189e13467129","system_id":"levelo_inurba_marseille","lat":43.21192,"lon":5.35075,"is_reserved":false,"is_disabled":false,"rental_uris":{"android":"levelo://app?vid=f7a6e2fa-bdd1-4556-a43b-189e13467129","ios":"levelo://app?vid=f7a6e2fa-bdd1-4556-a43b-189e13467129"},"vehicle_type_id":"4","last_reported":1744304981,"current_range_meters":5600,"station_id":"","pricing_plan_id":"cebpf4jnsgd1na2vs0mg"},{"bike_id":"57427fab-8d84-4216-9135-84a393551d34","system_id":"levelo_inurba_marseille","lat":43.301758,"lon":5.364415,"is_reserved":false,"is_disabled":false,"rental_uris":{"android":"levelo://app?vid=57427fab-8d84-4216-9135-84a393551d34","ios":"levelo://app?vid=57427fab-8d84-4216-9135-84a393551d34"},"vehicle_type_id":"4","last_reported":1744304981,"current_range_meters":6400,"station_id":"ce4bgrh2rcd13ifvqc8g","pricing_plan_id":"cebpf4jnsgd1na2vs0mg"},{"bike_id":"1bbd8a0b-c320-4e23-a12d-04bd948e7c76","system_id":"levelo_inurba_marseille","lat":43.30543,"lon":5.36553,"is_reserved":false,"is_disabled":false,"rental_uris":{"android":"levelo://app?vid=1bbd8a0b-c320-4e23-a12d-04bd948e7c76","ios":"levelo://app?vid=1bbd8a0b-c320-4e23-a12d-04bd948e7c76"},"vehicle_type_id":"4","last_reported":1744304981,"current_range_meters":6000,"station_id":"ce4bgs12rcd13ifvqcag","pricing_plan_id":"cebpf4jnsgd1na2vs0mg"},{"bike_id":"16b96693-40f5-4f20-bd56-87ed05fa2783","system_id":"levelo_inurba_marseille","lat":43.3049,"lon":5.37904,"is_reserved":false,"is_disabled":false,"rental_uris":{"android":"levelo://app?vid=16b96693-40f5-4f20-bd56-87ed05fa2783","ios":"levelo://app?vid=16b96693-40f5-4f20-bd56-87ed05fa2783"},"vehicle_type_id":"4","last_reported":1744304981,"current_range_meters":6800,"station_id":"ce4bgup2rcd13ifvqcn0","pricing_plan_id":"cebpf4jnsgd1na2vs0mg"},{"bike_id":"19e4103b-ff27-4c98-88a6-e69981a13361","system_id":"levelo_inurba_marseille","lat":43.31921,"lon":5.37961,"is_reserved":false,"is_disabled":false,"rental_uris":{"android":"levelo://app?vid=19e4103b-ff27-4c98-88a6-e69981a13361","ios":"levelo://app?vid=19e4103b-ff27-4c98-88a6-e69981a13361"},"vehicle_type_id":"4","last_reported":1744304981,"current_range_meters":6800,"station_id":"","pricing_plan_id":"cebpf4jnsgd1na2vs0mg"},{"bike_id":"e4811dbe-c6c4-46fb-a65d-c740f7848fdd","system_id":"levelo_inurba_marseille","lat":43.28462,"lon":5.35891,"is_reserved":false,"is_disabled":false,"rental_uris":{"android":"levelo://app?vid=e4811dbe-c6c4-46fb-a65d-c740f7848fdd","ios":"levelo://app?vid=e4811dbe-c6c4-46fb-a65d-c740f7848fdd"},"vehicle_type_id":"4","last_reported":1744304981,"current_range_meters":6800,"station_id":"ce4bhah2rcd13ifvqei0","pricing_plan_id":"cebpf4jnsgd1na2vs0mg"},{"bike_id":"cbe08da7-1b73-4f07-b9e7-3d7b0c99f445","system_id":"levelo_inurba_marseille","lat":43.27673,"lon":5.38899,"is_reserved":false,"is_disabled":false,"rental_uris":{"android":"levelo://app?vid=cbe08da7-1b73-4f07-b9e7-3d7b0c99f445","ios":"levelo://app?vid=cbe08da7-1b73-4f07-b9e7-3d7b0c99f445"},"vehicle_type_id":"4","last_reported":1744304981,"current_range_meters":2000,"station_id":"ce4bhi12rcd13ifvqfo0","pricing_plan_id":"cebpf4jnsgd1na2vs0mg"},{"bike_id":"58b5ec2e-eafe-48c4-b23f-cae6b7bff419","system_id":"levelo_inurba_marseille","lat":43.290479,"lon":5.359208,"is_reserved":false,"is_disabled":false,"rental_uris":{"android":"levelo://app?vid=58b5ec2e-eafe-48c4-b23f-cae6b7bff419","ios":"levelo://app?vid=58b5ec2e-eafe-48c4-b23f-cae6b7bff419"},"vehicle_type_id":"4","last_reported":1744304981,"current_range_meters":7200,"station_id":"ce4bha92rcd13ifvqeg0","pricing_plan_id":"cebpf4jnsgd1na2vs0mg"},{"bike_id":"96a84787-166f-4b7e-842f-ba00cf9803be","system_id":"levelo_inurba_marseille","lat":43.29531,"lon":5.38551,"is_reserved":false,"is_disabled":false,"rental_uris":{"android":"levelo://app?vid=96a84787-166f-4b7e-842f-ba00cf9803be","ios":"levelo://app?vid=96a84787-166f-4b7e-842f-ba00cf9803be"},"vehicle_type_id":"4","last_reported":1744304981,"current_range_meters":7200,"station_id":"ce4bgih2rcd13ifvqba0","pricing_plan_id":"cebpf4jnsgd1na2vs0mg"},{"bike_id":"295f13d1-3bd7-4526-a32d-8b462cfe2c27","system_id":"levelo_inurba_marseille","lat":43.28414,"lon":5.34988,"is_reserved":false,"is_disabled":false,"rental_uris":{"android":"levelo://app?vid=295f13d1-3bd7-4526-a32d-8b462cfe2c27","ios":"levelo://app?vid=295f13d1-3bd7-4526-a32d-8b462cfe2c27"},"vehicle_type_id":"4","last_reported":1744304981,"current_range_meters":7200,"station_id":"ce4bhbh2rcd13ifvqepg","pricing_plan_id":"cebpf4jnsgd1na2vs0mg"},{"bike_id":"0034db4b-efd6-4119-a358-80e858a45e83","system_id":"levelo_inurba_marseille","lat":43.31804,"lon":5.38884,"is_reserved":false,"is_disabled":false,"rental_uris":{"android":"levelo://app?vid=0034db4b-efd6-4119-a358-80e858a45e83","ios":"levelo://app?vid=0034db4b-efd6-4119-a358-80e858a45e83"},"vehicle_type_id":"4","last_reported":1744304981,"current_range_meters":7200,"station_id":"","pricing_plan_id":"cebpf4jnsgd1na2vs0mg"},{"bike_id":"96e6e83a-5293-443b-b18f-8c5bb487062d","system_id":"levelo_inurba_marseille","lat":43.28462,"lon":5.35891,"is_reserved":false,"is_disabled":false,"rental_uris":{"android":"levelo://app?vid=96e6e83a-5293-443b-b18f-8c5bb487062d","ios":"levelo://app?vid=96e6e83a-5293-443b-b18f-8c5bb487062d"},"vehicle_type_id":"4","last_reported":1744304981,"current_range_meters":7200,"station_id":"ce4bhah2rcd13ifvqei0","pricing_plan_id":"cebpf4jnsgd1na2vs0mg"},{"bike_id":"2c2cc1c1-d8a8-4ad3-b736-1a6eefa465ca","system_id":"levelo_inurba_marseille","lat":43.28041,"lon":5.36944,"is_reserved":false,"is_disabled":false,"rental_uris":{"android":"levelo://app?vid=2c2cc1c1-d8a8-4ad3-b736-1a6eefa465ca","ios":"levelo://app?vid=2c2cc1c1-d8a8-4ad3-b736-1a6eefa465ca"},"vehicle_type_id":"4","last_reported":1744304981,"current_range_meters":7200,"station_id":"ce4bha12rcd13ifvqef0","pricing_plan_id":"cebpf4jnsgd1na2vs0mg"},{"bike_id":"6fd72c2f-8912-433a-bd24-02bcfb4c0435","system_id":"levelo_inurba_marseille","lat":43.25504,"lon":5.3765,"is_reserved":false,"is_disabled":false,"rental_uris":{"android":"levelo://app?vid=6fd72c2f-8912-433a-bd24-02bcfb4c0435","ios":"levelo://app?vid=6fd72c2f-8912-433a-bd24-02bcfb4c0435"},"vehicle_type_id":"4","last_reported":1744304981,"current_range_meters":7200,"station_id":"ce4bhh12rcd13ifvqff0","pricing_plan_id":"cebpf4jnsgd1na2vs0mg"},{"bike_id":"3498f7cf-ddd5-477e-8ac5-aeff5ce782e9","system_id":"levelo_inurba_marseille","lat":43.28419,"lon":5.34975,"is_reserved":false,"is_disabled":false,"rental_uris":{"android":"levelo://app?vid=3498f7cf-ddd5-477e-8ac5-aeff5ce782e9","ios":"levelo://app?vid=3498f7cf-ddd5-477e-8ac5-aeff5ce782e9"},"vehicle_type_id":"4","last_reported":1744304981,"current_range_meters":7200,"station_id":"ce4bhbh2rcd13ifvqepg","pricing_plan_id":"cebpf4jnsgd1na2vs0mg"},{"bike_id":"67d1fa5d-ef9f-4e21-93b8-15cec767d137","system_id":"levelo_inurba_marseille","lat":43.29937,"lon":5.36536,"is_reserved":false,"is_disabled":false,"rental_uris":{"android":"levelo://app?vid=67d1fa5d-ef9f-4e21-93b8-15cec767d137","ios":"levelo://app?vid=67d1fa5d-ef9f-4e21-93b8-15cec767d137"},"vehicle_type_id":"4","last_reported":1744304981,"current_range_meters":7200,"station_id":"ce4bgm92rcd13ifvqbr0","pricing_plan_id":"cebpf4jnsgd1na2vs0mg"},{"bike_id":"19df80ff-ae84-499e-bd96-74cdff906692","system_id":"levelo_inurba_marseille","lat":43.27976,"lon":5.3875,"is_reserved":false,"is_disabled":false,"rental_uris":{"android":"levelo://app?vid=19df80ff-ae84-499e-bd96-74cdff906692","ios":"levelo://app?vid=19df80ff-ae84-499e-bd96-74cdff906692"},"vehicle_type_id":"4","last_reported":1744304981,"current_range_meters":6800,"station_id":"ce4bhg12rcd13ifvqf80","pricing_plan_id":"cebpf4jnsgd1na2vs0mg"},{"bike_id":"f4430d00-783e-4ca7-924e-4c25c1f1b3d8","system_id":"levelo_inurba_marseille","lat":43.29939,"lon":5.36546,"is_reserved":false,"is_disabled":false,"rental_uris":{"android":"levelo://app?vid=f4430d00-783e-4ca7-924e-4c25c1f1b3d8","ios":"levelo://app?vid=f4430d00-783e-4ca7-924e-4c25c1f1b3d8"},"vehicle_type_id":"4","last_reported":1744304981,"current_range_meters":7200,"station_id":"ce4bgm92rcd13ifvqbr0","pricing_plan_id":"cebpf4jnsgd1na2vs0mg"},{"bike_id":"b6ad0187-bc79-452d-b536-46c7fd74b6fb","system_id":"levelo_inurba_marseille","lat":43.28615,"lon":5.35102,"is_reserved":false,"is_disabled":false,"rental_uris":{"android":"levelo://app?vid=b6ad0187-bc79-452d-b536-46c7fd74b6fb","ios":"levelo://app?vid=b6ad0187-bc79-452d-b536-46c7fd74b6fb"},"vehicle_type_id":"4","last_reported":1744304981,"current_range_meters":8000,"station_id":"ce4bhch2rcd13ifvqeug","pricing_plan_id":"cebpf4jnsgd1na2vs0mg"},{"bike_id":"c5bb5804-59e3-4696-aa0a-c5a0c6a8fc05","system_id":"levelo_inurba_marseille","lat":43.29716,"lon":5.3658,"is_reserved":false,"is_disabled":false,"rental_uris":{"android":"levelo://app?vid=c5bb5804-59e3-4696-aa0a-c5a0c6a8fc05","ios":"levelo://app?vid=c5bb5804-59e3-4696-aa0a-c5a0c6a8fc05"},"vehicle_type_id":"4","last_reported":1744304981,"current_range_meters":8000,"station_id":"ce4bgn12rcd13ifvqbt0","pricing_plan_id":"cebpf4jnsgd1na2vs0mg"},{"bike_id":"1b11813b-9837-43ea-b9b2-9e23979a6afa","system_id":"levelo_inurba_marseille","lat":43.29933,"lon":5.36556,"is_reserved":false,"is_disabled":false,"rental_uris":{"android":"levelo://app?vid=1b11813b-9837-43ea-b9b2-9e23979a6afa","ios":"levelo://app?vid=1b11813b-9837-43ea-b9b2-9e23979a6afa"},"vehicle_type_id":"4","last_reported":1744304981,"current_range_meters":8000,"station_id":"ce4bgm92rcd13ifvqbr0","pricing_plan_id":"cebpf4jnsgd1na2vs0mg"},{"bike_id":"b7dcf25f-735f-4684-89ce-67892b37a2b5","system_id":"levelo_inurba_marseille","lat":43.27367,"lon":5.36252,"is_reserved":false,"is_disabled":false,"rental_uris":{"android":"levelo://app?vid=b7dcf25f-735f-4684-89ce-67892b37a2b5","ios":"levelo://app?vid=b7dcf25f-735f-4684-89ce-67892b37a2b5"},"vehicle_type_id":"4","last_reported":1744304981,"current_range_meters":8000,"station_id":"ce4bhbh2rcd13ifvqeo0","pricing_plan_id":"cebpf4jnsgd1na2vs0mg"},{"bike_id":"77681eb7-0ca7-4181-8f4d-dc0d81e04ff3","system_id":"levelo_inurba_marseille","lat":43.2417,"lon":5.36398,"is_reserved":false,"is_disabled":false,"rental_uris":{"android":"levelo://app?vid=77681eb7-0ca7-4181-8f4d-dc0d81e04ff3","ios":"levelo://app?vid=77681eb7-0ca7-4181-8f4d-dc0d81e04ff3"},"vehicle_type_id":"4","last_reported":1744304981,"current_range_meters":8000,"station_id":"cpo36qri1sfpv3e86is0","pricing_plan_id":"cebpf4jnsgd1na2vs0mg"},{"bike_id":"f6c2234e-d2cc-4a17-bdab-cffd0f9c2dd0","system_id":"levelo_inurba_marseille","lat":43.2894,"lon":5.36644,"is_reserved":false,"is_disabled":false,"rental_uris":{"android":"levelo://app?vid=f6c2234e-d2cc-4a17-bdab-cffd0f9c2dd0","ios":"levelo://app?vid=f6c2234e-d2cc-4a17-bdab-cffd0f9c2dd0"},"vehicle_type_id":"4","last_reported":1744304981,"current_range_meters":8000,"station_id":"ce4bhap2rcd13ifvqek0","pricing_plan_id":"cebpf4jnsgd1na2vs0mg"},{"bike_id":"f0b084e4-b3dc-4a55-a8fc-21da10f382fd","system_id":"levelo_inurba_marseille","lat":43.27617,"lon":5.36115,"is_reserved":false,"is_disabled":false,"rental_uris":{"android":"levelo://app?vid=f0b084e4-b3dc-4a55-a8fc-21da10f382fd","ios":"levelo://app?vid=f0b084e4-b3dc-4a55-a8fc-21da10f382fd"},"vehicle_type_id":"4","last_reported":1744304981,"current_range_meters":8400,"station_id":"","pricing_plan_id":"cebpf4jnsgd1na2vs0mg"},{"bike_id":"0a1d062a-2e3f-4834-98d5-715db3421eb5","system_id":"levelo_inurba_marseille","lat":43.28038,"lon":5.3695,"is_reserved":false,"is_disabled":false,"rental_uris":{"android":"levelo://app?vid=0a1d062a-2e3f-4834-98d5-715db3421eb5","ios":"levelo://app?vid=0a1d062a-2e3f-4834-98d5-715db3421eb5"},"vehicle_type_id":"4","last_reported":1744304981,"current_range_meters":8400,"station_id":"ce4bha12rcd13ifvqef0","pricing_plan_id":"cebpf4jnsgd1na2vs0mg"},{"bike_id":"01e31f15-bc9b-4d18-bebd-edf19bcedef2","system_id":"levelo_inurba_marseille","lat":43.28705,"lon":5.37948,"is_reserved":false,"is_disabled":true,"rental_uris":{"android":"levelo://app?vid=01e31f15-bc9b-4d18-bebd-edf19bcedef2","ios":"levelo://app?vid=01e31f15-bc9b-4d18-bebd-edf19bcedef2"},"vehicle_type_id":"4","last_reported":1744304981,"current_range_meters":8400,"station_id":"ce4bh9p2rcd13ifvqec0","pricing_plan_id":"cebpf4jnsgd1na2vs0mg"},{"bike_id":"5f30a5a4-de9f-499e-b151-b811ebb3b43a","system_id":"levelo_inurba_marseille","lat":43.3107,"lon":5.38353,"is_reserved":false,"is_disabled":true,"rental_uris":{"android":"levelo://app?vid=5f30a5a4-de9f-499e-b151-b811ebb3b43a","ios":"levelo://app?vid=5f30a5a4-de9f-499e-b151-b811ebb3b43a"},"vehicle_type_id":"4","last_reported":1744304981,"current_range_meters":8400,"station_id":"ce4bgv92rcd13ifvqcr0","pricing_plan_id":"cebpf4jnsgd1na2vs0mg"},{"bike_id":"c243072f-6bd2-4d94-ba83-04162cf2a05c","system_id":"levelo_inurba_marseille","lat":43.27196,"lon":5.40241,"is_reserved":false,"is_disabled":false,"rental_uris":{"android":"levelo://app?vid=c243072f-6bd2-4d94-ba83-04162cf2a05c","ios":"levelo://app?vid=c243072f-6bd2-4d94-ba83-04162cf2a05c"},"vehicle_type_id":"4","last_reported":1744304981,"current_range_meters":8400,"station_id":"","pricing_plan_id":"cebpf4jnsgd1na2vs0mg"},{"bike_id":"412263d8-22d6-422c-b1cd-d27790927a24","system_id":"levelo_inurba_marseille","lat":43.28609,"lon":5.37077,"is_reserved":false,"is_disabled":false,"rental_uris":{"android":"levelo://app?vid=412263d8-22d6-422c-b1cd-d27790927a24","ios":"levelo://app?vid=412263d8-22d6-422c-b1cd-d27790927a24"},"vehicle_type_id":"4","last_reported":1744304981,"current_range_meters":8400,"station_id":"ce4bht12rcd13ifvqi60","pricing_plan_id":"cebpf4jnsgd1na2vs0mg"},{"bike_id":"4f65e552-85f7-40c9-b6cc-992a8a668403","system_id":"levelo_inurba_marseille","lat":43.29796,"lon":5.40399,"is_reserved":false,"is_disabled":false,"rental_uris":{"android":"levelo://app?vid=4f65e552-85f7-40c9-b6cc-992a8a668403","ios":"levelo://app?vid=4f65e552-85f7-40c9-b6cc-992a8a668403"},"vehicle_type_id":"4","last_reported":1744304981,"current_range_meters":8800,"station_id":"ce4bh112rcd13ifvqd90","pricing_plan_id":"cebpf4jnsgd1na2vs0mg"},{"bike_id":"6d57bfd4-d2ae-44d2-a638-261d83782862","system_id":"levelo_inurba_marseille","lat":43.28927,"lon":5.384,"is_reserved":false,"is_disabled":false,"rental_uris":{"android":"levelo://app?vid=6d57bfd4-d2ae-44d2-a638-261d83782862","ios":"levelo://app?vid=6d57bfd4-d2ae-44d2-a638-261d83782862"},"vehicle_type_id":"4","last_reported":1744304981,"current_range_meters":8400,"station_id":"ce4bh612rcd13ifvqe6g","pricing_plan_id":"cebpf4jnsgd1na2vs0mg"},{"bike_id":"b5b22a63-aafa-4d16-a0d1-1974e0a914f8","system_id":"levelo_inurba_marseille","lat":43.28979,"lon":5.37823,"is_reserved":false,"is_disabled":false,"rental_uris":{"android":"levelo://app?vid=b5b22a63-aafa-4d16-a0d1-1974e0a914f8","ios":"levelo://app?vid=b5b22a63-aafa-4d16-a0d1-1974e0a914f8"},"vehicle_type_id":"4","last_reported":1744304981,"current_range_meters":8800,"station_id":"ce4bh9p2rcd13ifvqed0","pricing_plan_id":"cebpf4jnsgd1na2vs0mg"},{"bike_id":"b0e05a0c-c693-4989-8a43-4906761b1454","system_id":"levelo_inurba_marseille","lat":43.27171,"lon":5.40991,"is_reserved":false,"is_disabled":false,"rental_uris":{"android":"levelo://app?vid=b0e05a0c-c693-4989-8a43-4906761b1454","ios":"levelo://app?vid=b0e05a0c-c693-4989-8a43-4906761b1454"},"vehicle_type_id":"4","last_reported":1744304981,"current_range_meters":8800,"station_id":"ce4bhl12rcd13ifvqgf0","pricing_plan_id":"cebpf4jnsgd1na2vs0mg"},{"bike_id":"899033b4-daf4-40a4-a4e0-81d337d2bd52","system_id":"levelo_inurba_marseille","lat":43.29178,"lon":5.35803,"is_reserved":false,"is_disabled":false,"rental_uris":{"android":"levelo://app?vid=899033b4-daf4-40a4-a4e0-81d337d2bd52","ios":"levelo://app?vid=899033b4-daf4-40a4-a4e0-81d337d2bd52"},"vehicle_type_id":"4","last_reported":1744304981,"current_range_meters":8800,"station_id":"ce4bhb12rcd13ifvqel0","pricing_plan_id":"cebpf4jnsgd1na2vs0mg"},{"bike_id":"8c0eb012-a181-485f-9d2f-13ec7fc58e90","system_id":"levelo_inurba_marseille","lat":43.27379,"lon":5.3627,"is_reserved":false,"is_disabled":false,"rental_uris":{"android":"levelo://app?vid=8c0eb012-a181-485f-9d2f-13ec7fc58e90","ios":"levelo://app?vid=8c0eb012-a181-485f-9d2f-13ec7fc58e90"},"vehicle_type_id":"4","last_reported":1744304981,"current_range_meters":8800,"station_id":"ce4bhbh2rcd13ifvqeo0","pricing_plan_id":"cebpf4jnsgd1na2vs0mg"},{"bike_id":"eb030b7f-c0ee-45a2-aebc-cf35c2af023e","system_id":"levelo_inurba_marseille","lat":43.27923,"lon":5.39574,"is_reserved":false,"is_disabled":false,"rental_uris":{"android":"levelo://app?vid=eb030b7f-c0ee-45a2-aebc-cf35c2af023e","ios":"levelo://app?vid=eb030b7f-c0ee-45a2-aebc-cf35c2af023e"},"vehicle_type_id":"4","last_reported":1744304981,"current_range_meters":8800,"station_id":"ce4bhf92rcd13ifvqf40","pricing_plan_id":"cebpf4jnsgd1na2vs0mg"},{"bike_id":"9bc69185-9c12-4a71-ba70-c8f19a83d470","system_id":"levelo_inurba_marseille","lat":43.29171,"lon":5.37159,"is_reserved":false,"is_disabled":false,"rental_uris":{"android":"levelo://app?vid=9bc69185-9c12-4a71-ba70-c8f19a83d470","ios":"levelo://app?vid=9bc69185-9c12-4a71-ba70-c8f19a83d470"},"vehicle_type_id":"4","last_reported":1744304981,"current_range_meters":9200,"station_id":"ce4bha92rcd13ifvqeh0","pricing_plan_id":"cebpf4jnsgd1na2vs0mg"},{"bike_id":"4577e45b-3145-4795-a336-6d53c6233948","system_id":"levelo_inurba_marseille","lat":43.25088,"lon":5.39523,"is_reserved":false,"is_disabled":false,"rental_uris":{"android":"levelo://app?vid=4577e45b-3145-4795-a336-6d53c6233948","ios":"levelo://app?vid=4577e45b-3145-4795-a336-6d53c6233948"},"vehicle_type_id":"4","last_reported":1744304981,"current_range_meters":9200,"station_id":"ce4bhm12rcd13ifvqgkg","pricing_plan_id":"cebpf4jnsgd1na2vs0mg"},{"bike_id":"d8b72099-6f77-4855-ab52-14d20ba3241b","system_id":"levelo_inurba_marseille","lat":43.2862,"lon":5.35122,"is_reserved":false,"is_disabled":false,"rental_uris":{"android":"levelo://app?vid=d8b72099-6f77-4855-ab52-14d20ba3241b","ios":"levelo://app?vid=d8b72099-6f77-4855-ab52-14d20ba3241b"},"vehicle_type_id":"4","last_reported":1744304981,"current_range_meters":9200,"station_id":"ce4bhch2rcd13ifvqeug","pricing_plan_id":"cebpf4jnsgd1na2vs0mg"},{"bike_id":"9ce80678-2ca4-4baa-a7d2-19d4fc944020","system_id":"levelo_inurba_marseille","lat":43.24165,"lon":5.36394,"is_reserved":false,"is_disabled":false,"rental_uris":{"android":"levelo://app?vid=9ce80678-2ca4-4baa-a7d2-19d4fc944020","ios":"levelo://app?vid=9ce80678-2ca4-4baa-a7d2-19d4fc944020"},"vehicle_type_id":"4","last_reported":1744304981,"current_range_meters":9200,"station_id":"cpo36qri1sfpv3e86is0","pricing_plan_id":"cebpf4jnsgd1na2vs0mg"},{"bike_id":"c66e0227-8dab-43f7-959d-ad39878fa71f","system_id":"levelo_inurba_marseille","lat":43.23093,"lon":5.35495,"is_reserved":false,"is_disabled":false,"rental_uris":{"android":"levelo://app?vid=c66e0227-8dab-43f7-959d-ad39878fa71f","ios":"levelo://app?vid=c66e0227-8dab-43f7-959d-ad39878fa71f"},"vehicle_type_id":"4","last_reported":1744304981,"current_range_meters":9600,"station_id":"cpo3342slgdg3j2ifvpg","pricing_plan_id":"cebpf4jnsgd1na2vs0mg"},{"bike_id":"d573d29a-171c-497e-8072-2fee1891bf22","system_id":"levelo_inurba_marseille","lat":43.2907,"lon":5.37153,"is_reserved":false,"is_disabled":false,"rental_uris":{"android":"levelo://app?vid=d573d29a-171c-497e-8072-2fee1891bf22","ios":"levelo://app?vid=d573d29a-171c-497e-8072-2fee1891bf22"},"vehicle_type_id":"4","last_reported":1744304981,"current_range_meters":9200,"station_id":"ce4bh5p2rcd13ifvqe4g","pricing_plan_id":"cebpf4jnsgd1na2vs0mg"},{"bike_id":"a08fdf65-f7c3-4eb9-83c1-6d1abed3497e","system_id":"levelo_inurba_marseille","lat":43.286966,"lon":5.39983,"is_reserved":false,"is_disabled":true,"rental_uris":{"android":"levelo://app?vid=a08fdf65-f7c3-4eb9-83c1-6d1abed3497e","ios":"levelo://app?vid=a08fdf65-f7c3-4eb9-83c1-6d1abed3497e"},"vehicle_type_id":"4","last_reported":1744304981,"current_range_meters":9600,"station_id":"ce4bho92rcd13ifvqh3g","pricing_plan_id":"cebpf4jnsgd1na2vs0mg"},{"bike_id":"9e7e214e-3c88-4239-87a1-eaf8d774686c","system_id":"levelo_inurba_marseille","lat":43.30796,"lon":5.43526,"is_reserved":false,"is_disabled":false,"rental_uris":{"android":"levelo://app?vid=9e7e214e-3c88-4239-87a1-eaf8d774686c","ios":"levelo://app?vid=9e7e214e-3c88-4239-87a1-eaf8d774686c"},"vehicle_type_id":"4","last_reported":1744304981,"current_range_meters":9600,"station_id":"ce4bhph2rcd13ifvqheg","pricing_plan_id":"cebpf4jnsgd1na2vs0mg"},{"bike_id":"e6b27e51-7a6f-4c87-9cdb-e0dbaf392783","system_id":"levelo_inurba_marseille","lat":43.30978,"lon":5.39659,"is_reserved":false,"is_disabled":false,"rental_uris":{"android":"levelo://app?vid=e6b27e51-7a6f-4c87-9cdb-e0dbaf392783","ios":"levelo://app?vid=e6b27e51-7a6f-4c87-9cdb-e0dbaf392783"},"vehicle_type_id":"4","last_reported":1744304981,"current_range_meters":9600,"station_id":"","pricing_plan_id":"cebpf4jnsgd1na2vs0mg"},{"bike_id":"19925b0c-bf13-433b-a8af-947f6f1941e5","system_id":"levelo_inurba_marseille","lat":43.29423,"lon":5.38613,"is_reserved":false,"is_disabled":false,"rental_uris":{"android":"levelo://app?vid=19925b0c-bf13-433b-a8af-947f6f1941e5","ios":"levelo://app?vid=19925b0c-bf13-433b-a8af-947f6f1941e5"},"vehicle_type_id":"4","last_reported":1744304981,"current_range_meters":9600,"station_id":"ce4bh2h2rcd13ifvqdh0","pricing_plan_id":"cebpf4jnsgd1na2vs0mg"},{"bike_id":"f81a5627-7ebc-4795-bba2-c88da9676837","system_id":"levelo_inurba_marseille","lat":43.29315,"lon":5.37175,"is_reserved":false,"is_disabled":false,"rental_uris":{"android":"levelo://app?vid=f81a5627-7ebc-4795-bba2-c88da9676837","ios":"levelo://app?vid=f81a5627-7ebc-4795-bba2-c88da9676837"},"vehicle_type_id":"4","last_reported":1744304981,"current_range_meters":9600,"station_id":"ce4bgh92rcd13ifvqb40","pricing_plan_id":"cebpf4jnsgd1na2vs0mg"},{"bike_id":"dc71c31d-274a-4d6c-9eba-afdd37c9709a","system_id":"levelo_inurba_marseille","lat":43.24073,"lon":5.37753,"is_reserved":false,"is_disabled":false,"rental_uris":{"android":"levelo://app?vid=dc71c31d-274a-4d6c-9eba-afdd37c9709a","ios":"levelo://app?vid=dc71c31d-274a-4d6c-9eba-afdd37c9709a"},"vehicle_type_id":"4","last_reported":1744304981,"current_range_meters":9600,"station_id":"ce4bhnp2rcd13ifvqgvg","pricing_plan_id":"cebpf4jnsgd1na2vs0mg"},{"bike_id":"159caf0f-7def-4fe2-b59d-92eda57895d1","system_id":"levelo_inurba_marseille","lat":43.28937,"lon":5.36389,"is_reserved":false,"is_disabled":false,"rental_uris":{"android":"levelo://app?vid=159caf0f-7def-4fe2-b59d-92eda57895d1","ios":"levelo://app?vid=159caf0f-7def-4fe2-b59d-92eda57895d1"},"vehicle_type_id":"4","last_reported":1744304981,"current_range_meters":9600,"station_id":"ce4bhc92rcd13ifvqetg","pricing_plan_id":"cebpf4jnsgd1na2vs0mg"},{"bike_id":"2e5784e1-33e2-4236-acef-5d482d4bf9ef","system_id":"levelo_inurba_marseille","lat":43.28853,"lon":5.35844,"is_reserved":false,"is_disabled":false,"rental_uris":{"android":"levelo://app?vid=2e5784e1-33e2-4236-acef-5d482d4bf9ef","ios":"levelo://app?vid=2e5784e1-33e2-4236-acef-5d482d4bf9ef"},"vehicle_type_id":"4","last_reported":1744304981,"current_range_meters":9600,"station_id":"ce4bhb12rcd13ifvqem0","pricing_plan_id":"cebpf4jnsgd1na2vs0mg"},{"bike_id":"c7922c9e-df40-4d6f-92a1-640cc6bd2ff7","system_id":"levelo_inurba_marseille","lat":43.24168,"lon":5.3641,"is_reserved":false,"is_disabled":false,"rental_uris":{"android":"levelo://app?vid=c7922c9e-df40-4d6f-92a1-640cc6bd2ff7","ios":"levelo://app?vid=c7922c9e-df40-4d6f-92a1-640cc6bd2ff7"},"vehicle_type_id":"4","last_reported":1744304981,"current_range_meters":10000,"station_id":"cpo36qri1sfpv3e86is0","pricing_plan_id":"cebpf4jnsgd1na2vs0mg"},{"bike_id":"ad8fa914-7d11-4fe8-8f55-664447c7d180","system_id":"levelo_inurba_marseille","lat":43.289333,"lon":5.38401,"is_reserved":false,"is_disabled":false,"rental_uris":{"android":"levelo://app?vid=ad8fa914-7d11-4fe8-8f55-664447c7d180","ios":"levelo://app?vid=ad8fa914-7d11-4fe8-8f55-664447c7d180"},"vehicle_type_id":"4","last_reported":1744304981,"current_range_meters":10000,"station_id":"ce4bh612rcd13ifvqe6g","pricing_plan_id":"cebpf4jnsgd1na2vs0mg"},{"bike_id":"bff67837-c676-4b88-9fdc-8db7fe587121","system_id":"levelo_inurba_marseille","lat":43.30236,"lon":5.40023,"is_reserved":false,"is_disabled":true,"rental_uris":{"android":"levelo://app?vid=bff67837-c676-4b88-9fdc-8db7fe587121","ios":"levelo://app?vid=bff67837-c676-4b88-9fdc-8db7fe587121"},"vehicle_type_id":"4","last_reported":1744304981,"current_range_meters":10000,"station_id":"ce4bgvh2rcd13ifvqcs0","pricing_plan_id":"cebpf4jnsgd1na2vs0mg"},{"bike_id":"ba4c7cdd-5ef3-4e5b-b638-3c3cf7c4ea5a","system_id":"levelo_inurba_marseille","lat":43.3229,"lon":5.38276,"is_reserved":false,"is_disabled":false,"rental_uris":{"android":"levelo://app?vid=ba4c7cdd-5ef3-4e5b-b638-3c3cf7c4ea5a","ios":"levelo://app?vid=ba4c7cdd-5ef3-4e5b-b638-3c3cf7c4ea5a"},"vehicle_type_id":"4","last_reported":1744304981,"current_range_meters":10000,"station_id":"ce4bhr12rcd13ifvqhqg","pricing_plan_id":"cebpf4jnsgd1na2vs0mg"},{"bike_id":"dd13b160-d20e-4a29-9af3-720a1520a2f8","system_id":"levelo_inurba_marseille","lat":43.23177,"lon":5.39989,"is_reserved":false,"is_disabled":false,"rental_uris":{"android":"levelo://app?vid=dd13b160-d20e-4a29-9af3-720a1520a2f8","ios":"levelo://app?vid=dd13b160-d20e-4a29-9af3-720a1520a2f8"},"vehicle_type_id":"4","last_reported":1744304981,"current_range_meters":10000,"station_id":"ce4bhn12rcd13ifvqgqg","pricing_plan_id":"cebpf4jnsgd1na2vs0mg"},{"bike_id":"33443bd1-63f0-4476-823e-4549241d83bd","system_id":"levelo_inurba_marseille","lat":43.22933,"lon":5.35381,"is_reserved":false,"is_disabled":false,"rental_uris":{"android":"levelo://app?vid=33443bd1-63f0-4476-823e-4549241d83bd","ios":"levelo://app?vid=33443bd1-63f0-4476-823e-4549241d83bd"},"vehicle_type_id":"4","last_reported":1744304981,"current_range_meters":10800,"station_id":"cpo3532slgdg3j2ikp40","pricing_plan_id":"cebpf4jnsgd1na2vs0mg"},{"bike_id":"d4d8a6f2-cf9a-4aea-b009-56396750a645","system_id":"levelo_inurba_marseille","lat":43.289235,"lon":5.387537,"is_reserved":false,"is_disabled":false,"rental_uris":{"android":"levelo://app?vid=d4d8a6f2-cf9a-4aea-b009-56396750a645","ios":"levelo://app?vid=d4d8a6f2-cf9a-4aea-b009-56396750a645"},"vehicle_type_id":"4","last_reported":1744304981,"current_range_meters":10800,"station_id":"ce4bh4p2rcd13ifvqe0g","pricing_plan_id":"cebpf4jnsgd1na2vs0mg"},{"bike_id":"fab67251-e52e-449c-8727-c29155faddab","system_id":"levelo_inurba_marseille","lat":43.23183,"lon":5.39987,"is_reserved":false,"is_disabled":false,"rental_uris":{"android":"levelo://app?vid=fab67251-e52e-449c-8727-c29155faddab","ios":"levelo://app?vid=fab67251-e52e-449c-8727-c29155faddab"},"vehicle_type_id":"4","last_reported":1744304981,"current_range_meters":10800,"station_id":"ce4bhn12rcd13ifvqgqg","pricing_plan_id":"cebpf4jnsgd1na2vs0mg"},{"bike_id":"34a2f5d8-ec72-44cb-adc7-644db274612f","system_id":"levelo_inurba_marseille","lat":43.27374,"lon":5.362,"is_reserved":false,"is_disabled":false,"rental_uris":{"android":"levelo://app?vid=34a2f5d8-ec72-44cb-adc7-644db274612f","ios":"levelo://app?vid=34a2f5d8-ec72-44cb-adc7-644db274612f"},"vehicle_type_id":"4","last_reported":1744304981,"current_range_meters":10800,"station_id":"","pricing_plan_id":"cebpf4jnsgd1na2vs0mg"},{"bike_id":"fe298a28-b49c-41cd-8085-e07a178c1093","system_id":"levelo_inurba_marseille","lat":43.28395,"lon":5.37474,"is_reserved":false,"is_disabled":false,"rental_uris":{"android":"levelo://app?vid=fe298a28-b49c-41cd-8085-e07a178c1093","ios":"levelo://app?vid=fe298a28-b49c-41cd-8085-e07a178c1093"},"vehicle_type_id":"4","last_reported":1744304981,"current_range_meters":10800,"station_id":"ce4bh412rcd13ifvqds0","pricing_plan_id":"cebpf4jnsgd1na2vs0mg"},{"bike_id":"2a1075d8-15f6-4d74-840a-3a33d9ca3ae0","system_id":"levelo_inurba_marseille","lat":43.2846,"lon":5.35885,"is_reserved":false,"is_disabled":false,"rental_uris":{"android":"levelo://app?vid=2a1075d8-15f6-4d74-840a-3a33d9ca3ae0","ios":"levelo://app?vid=2a1075d8-15f6-4d74-840a-3a33d9ca3ae0"},"vehicle_type_id":"4","last_reported":1744304981,"current_range_meters":10800,"station_id":"ce4bhah2rcd13ifvqei0","pricing_plan_id":"cebpf4jnsgd1na2vs0mg"},{"bike_id":"164080af-48a0-4b25-878c-a9b93ea0b49c","system_id":"levelo_inurba_marseille","lat":43.29527,"lon":5.39413,"is_reserved":false,"is_disabled":false,"rental_uris":{"android":"levelo://app?vid=164080af-48a0-4b25-878c-a9b93ea0b49c","ios":"levelo://app?vid=164080af-48a0-4b25-878c-a9b93ea0b49c"},"vehicle_type_id":"4","last_reported":1744304981,"current_range_meters":10800,"station_id":"ce4bh292rcd13ifvqdf0","pricing_plan_id":"cebpf4jnsgd1na2vs0mg"},{"bike_id":"20c7cb91-216a-4d28-b113-8f9aff7d4a94","system_id":"levelo_inurba_marseille","lat":43.26035,"lon":5.37542,"is_reserved":false,"is_disabled":false,"rental_uris":{"android":"levelo://app?vid=20c7cb91-216a-4d28-b113-8f9aff7d4a94","ios":"levelo://app?vid=20c7cb91-216a-4d28-b113-8f9aff7d4a94"},"vehicle_type_id":"4","last_reported":1744304981,"current_range_meters":10800,"station_id":"ce4bhgh2rcd13ifvqfa0","pricing_plan_id":"cebpf4jnsgd1na2vs0mg"},{"bike_id":"a1fdd794-2cd0-4fb6-96b3-8dafaa593e65","system_id":"levelo_inurba_marseille","lat":43.30162,"lon":5.37506,"is_reserved":false,"is_disabled":true,"rental_uris":{"android":"levelo://app?vid=a1fdd794-2cd0-4fb6-96b3-8dafaa593e65","ios":"levelo://app?vid=a1fdd794-2cd0-4fb6-96b3-8dafaa593e65"},"vehicle_type_id":"4","last_reported":1744304981,"current_range_meters":11200,"station_id":"","pricing_plan_id":"cebpf4jnsgd1na2vs0mg"},{"bike_id":"46dd34d9-3e5b-4b5e-8ccb-9bed3bd8db93","system_id":"levelo_inurba_marseille","lat":43.2993,"lon":5.36557,"is_reserved":false,"is_disabled":false,"rental_uris":{"android":"levelo://app?vid=46dd34d9-3e5b-4b5e-8ccb-9bed3bd8db93","ios":"levelo://app?vid=46dd34d9-3e5b-4b5e-8ccb-9bed3bd8db93"},"vehicle_type_id":"4","last_reported":1744304981,"current_range_meters":11200,"station_id":"ce4bgm92rcd13ifvqbr0","pricing_plan_id":"cebpf4jnsgd1na2vs0mg"},{"bike_id":"4d4bf622-3ed0-4754-98b8-846d64e096c8","system_id":"levelo_inurba_marseille","lat":43.28663,"lon":5.36349,"is_reserved":false,"is_disabled":false,"rental_uris":{"android":"levelo://app?vid=4d4bf622-3ed0-4754-98b8-846d64e096c8","ios":"levelo://app?vid=4d4bf622-3ed0-4754-98b8-846d64e096c8"},"vehicle_type_id":"4","last_reported":1744304981,"current_range_meters":10800,"station_id":"ce4bhah2rcd13ifvqej0","pricing_plan_id":"cebpf4jnsgd1na2vs0mg"},{"bike_id":"f377321c-ff08-4cff-be53-989728b9a72d","system_id":"levelo_inurba_marseille","lat":43.28852,"lon":5.35851,"is_reserved":false,"is_disabled":false,"rental_uris":{"android":"levelo://app?vid=f377321c-ff08-4cff-be53-989728b9a72d","ios":"levelo://app?vid=f377321c-ff08-4cff-be53-989728b9a72d"},"vehicle_type_id":"4","last_reported":1744304981,"current_range_meters":11200,"station_id":"ce4bhb12rcd13ifvqem0","pricing_plan_id":"cebpf4jnsgd1na2vs0mg"},{"bike_id":"6e38b321-a309-4117-a206-04568d8162f3","system_id":"levelo_inurba_marseille","lat":43.2901,"lon":5.35609,"is_reserved":false,"is_disabled":false,"rental_uris":{"android":"levelo://app?vid=6e38b321-a309-4117-a206-04568d8162f3","ios":"levelo://app?vid=6e38b321-a309-4117-a206-04568d8162f3"},"vehicle_type_id":"4","last_reported":1744304981,"current_range_meters":11200,"station_id":"ce4bhb92rcd13ifvqen0","pricing_plan_id":"cebpf4jnsgd1na2vs0mg"},{"bike_id":"144d3482-1469-4514-b5dc-3d6d6564c646","system_id":"levelo_inurba_marseille","lat":43.28414,"lon":5.37512,"is_reserved":false,"is_disabled":false,"rental_uris":{"android":"levelo://app?vid=144d3482-1469-4514-b5dc-3d6d6564c646","ios":"levelo://app?vid=144d3482-1469-4514-b5dc-3d6d6564c646"},"vehicle_type_id":"4","last_reported":1744304981,"current_range_meters":11200,"station_id":"ce4bh412rcd13ifvqds0","pricing_plan_id":"cebpf4jnsgd1na2vs0mg"},{"bike_id":"f960d469-0f52-47fe-98b6-2932dc7fd916","system_id":"levelo_inurba_marseille","lat":43.3031,"lon":5.36898,"is_reserved":false,"is_disabled":false,"rental_uris":{"android":"levelo://app?vid=f960d469-0f52-47fe-98b6-2932dc7fd916","ios":"levelo://app?vid=f960d469-0f52-47fe-98b6-2932dc7fd916"},"vehicle_type_id":"4","last_reported":1744304981,"current_range_meters":11600,"station_id":"ce4bgqh2rcd13ifvqc5g","pricing_plan_id":"cebpf4jnsgd1na2vs0mg"},{"bike_id":"613c5799-8e45-44bf-bf08-f32634e3f2a3","system_id":"levelo_inurba_marseille","lat":43.29004,"lon":5.35606,"is_reserved":false,"is_disabled":false,"rental_uris":{"android":"levelo://app?vid=613c5799-8e45-44bf-bf08-f32634e3f2a3","ios":"levelo://app?vid=613c5799-8e45-44bf-bf08-f32634e3f2a3"},"vehicle_type_id":"4","last_reported":1744304981,"current_range_meters":11600,"station_id":"ce4bhb92rcd13ifvqen0","pricing_plan_id":"cebpf4jnsgd1na2vs0mg"},{"bike_id":"5525bb4e-788f-4fcd-97c8-5763f48a06af","system_id":"levelo_inurba_marseille","lat":43.30248,"lon":5.40055,"is_reserved":false,"is_disabled":false,"rental_uris":{"android":"levelo://app?vid=5525bb4e-788f-4fcd-97c8-5763f48a06af","ios":"levelo://app?vid=5525bb4e-788f-4fcd-97c8-5763f48a06af"},"vehicle_type_id":"4","last_reported":1744304981,"current_range_meters":11600,"station_id":"ce4bgvh2rcd13ifvqcs0","pricing_plan_id":"cebpf4jnsgd1na2vs0mg"},{"bike_id":"ddc0d0f8-e0f6-412f-8ae0-5f381fd80822","system_id":"levelo_inurba_marseille","lat":43.27549,"lon":5.38449,"is_reserved":false,"is_disabled":false,"rental_uris":{"android":"levelo://app?vid=ddc0d0f8-e0f6-412f-8ae0-5f381fd80822","ios":"levelo://app?vid=ddc0d0f8-e0f6-412f-8ae0-5f381fd80822"},"vehicle_type_id":"4","last_reported":1744304981,"current_range_meters":11600,"station_id":"ce4bhh92rcd13ifvqfi0","pricing_plan_id":"cebpf4jnsgd1na2vs0mg"},{"bike_id":"242f8d28-f822-412a-a220-22ba3cd27f24","system_id":"levelo_inurba_marseille","lat":43.27375,"lon":5.36252,"is_reserved":false,"is_disabled":false,"rental_uris":{"android":"levelo://app?vid=242f8d28-f822-412a-a220-22ba3cd27f24","ios":"levelo://app?vid=242f8d28-f822-412a-a220-22ba3cd27f24"},"vehicle_type_id":"4","last_reported":1744304981,"current_range_meters":11600,"station_id":"ce4bhbh2rcd13ifvqeo0","pricing_plan_id":"cebpf4jnsgd1na2vs0mg"},{"bike_id":"65f52e07-c7c1-4b0b-a98a-2cb0cb6e9ef2","system_id":"levelo_inurba_marseille","lat":43.24079,"lon":5.37743,"is_reserved":false,"is_disabled":false,"rental_uris":{"android":"levelo://app?vid=65f52e07-c7c1-4b0b-a98a-2cb0cb6e9ef2","ios":"levelo://app?vid=65f52e07-c7c1-4b0b-a98a-2cb0cb6e9ef2"},"vehicle_type_id":"4","last_reported":1744304981,"current_range_meters":11600,"station_id":"ce4bhnp2rcd13ifvqgvg","pricing_plan_id":"cebpf4jnsgd1na2vs0mg"},{"bike_id":"17263dba-3a35-4838-983f-3d8d965c6bab","system_id":"levelo_inurba_marseille","lat":43.290072,"lon":5.356078,"is_reserved":false,"is_disabled":false,"rental_uris":{"android":"levelo://app?vid=17263dba-3a35-4838-983f-3d8d965c6bab","ios":"levelo://app?vid=17263dba-3a35-4838-983f-3d8d965c6bab"},"vehicle_type_id":"4","last_reported":1744304981,"current_range_meters":12000,"station_id":"ce4bhb92rcd13ifvqen0","pricing_plan_id":"cebpf4jnsgd1na2vs0mg"},{"bike_id":"974a87f1-0eb9-4faa-96d3-e4a02c558794","system_id":"levelo_inurba_marseille","lat":43.29231,"lon":5.36064,"is_reserved":false,"is_disabled":false,"rental_uris":{"android":"levelo://app?vid=974a87f1-0eb9-4faa-96d3-e4a02c558794","ios":"levelo://app?vid=974a87f1-0eb9-4faa-96d3-e4a02c558794"},"vehicle_type_id":"4","last_reported":1744304981,"current_range_meters":12000,"station_id":"ce4bhbh2rcd13ifvqeqg","pricing_plan_id":"cebpf4jnsgd1na2vs0mg"},{"bike_id":"f8be9081-c514-460d-9be3-4d086fbd951f","system_id":"levelo_inurba_marseille","lat":43.2863,"lon":5.35119,"is_reserved":false,"is_disabled":false,"rental_uris":{"android":"levelo://app?vid=f8be9081-c514-460d-9be3-4d086fbd951f","ios":"levelo://app?vid=f8be9081-c514-460d-9be3-4d086fbd951f"},"vehicle_type_id":"4","last_reported":1744304981,"current_range_meters":12000,"station_id":"ce4bhch2rcd13ifvqeug","pricing_plan_id":"cebpf4jnsgd1na2vs0mg"},{"bike_id":"3db6e04c-0018-4d35-b411-d64ea40a565b","system_id":"levelo_inurba_marseille","lat":43.28666,"lon":5.36347,"is_reserved":false,"is_disabled":false,"rental_uris":{"android":"levelo://app?vid=3db6e04c-0018-4d35-b411-d64ea40a565b","ios":"levelo://app?vid=3db6e04c-0018-4d35-b411-d64ea40a565b"},"vehicle_type_id":"4","last_reported":1744304981,"current_range_meters":11600,"station_id":"ce4bhah2rcd13ifvqej0","pricing_plan_id":"cebpf4jnsgd1na2vs0mg"},{"bike_id":"422c0315-5002-4fc1-9bde-5f6acb11bc81","system_id":"levelo_inurba_marseille","lat":43.28852,"lon":5.35842,"is_reserved":false,"is_disabled":false,"rental_uris":{"android":"levelo://app?vid=422c0315-5002-4fc1-9bde-5f6acb11bc81","ios":"levelo://app?vid=422c0315-5002-4fc1-9bde-5f6acb11bc81"},"vehicle_type_id":"4","last_reported":1744304981,"current_range_meters":12000,"station_id":"ce4bhb12rcd13ifvqem0","pricing_plan_id":"cebpf4jnsgd1na2vs0mg"},{"bike_id":"445581f1-2457-42dc-a94c-3ad30557c664","system_id":"levelo_inurba_marseille","lat":43.29229,"lon":5.36064,"is_reserved":false,"is_disabled":false,"rental_uris":{"android":"levelo://app?vid=445581f1-2457-42dc-a94c-3ad30557c664","ios":"levelo://app?vid=445581f1-2457-42dc-a94c-3ad30557c664"},"vehicle_type_id":"4","last_reported":1744304981,"current_range_meters":12000,"station_id":"ce4bhbh2rcd13ifvqeqg","pricing_plan_id":"cebpf4jnsgd1na2vs0mg"},{"bike_id":"ea3ba1f0-7bb1-487f-a05f-83bfd884e8b3","system_id":"levelo_inurba_marseille","lat":43.29007,"lon":5.35605,"is_reserved":false,"is_disabled":false,"rental_uris":{"android":"levelo://app?vid=ea3ba1f0-7bb1-487f-a05f-83bfd884e8b3","ios":"levelo://app?vid=ea3ba1f0-7bb1-487f-a05f-83bfd884e8b3"},"vehicle_type_id":"4","last_reported":1744304981,"current_range_meters":12400,"station_id":"ce4bhb92rcd13ifvqen0","pricing_plan_id":"cebpf4jnsgd1na2vs0mg"},{"bike_id":"ca452937-450e-4db3-bbf8-256c25d3e881","system_id":"levelo_inurba_marseille","lat":43.23967,"lon":5.36632,"is_reserved":false,"is_disabled":false,"rental_uris":{"android":"levelo://app?vid=ca452937-450e-4db3-bbf8-256c25d3e881","ios":"levelo://app?vid=ca452937-450e-4db3-bbf8-256c25d3e881"},"vehicle_type_id":"4","last_reported":1744304981,"current_range_meters":12400,"station_id":"ce4bhi12rcd13ifvqfp0","pricing_plan_id":"cebpf4jnsgd1na2vs0mg"},{"bike_id":"67cc8d09-e280-4605-91aa-d8d90ce731bc","system_id":"levelo_inurba_marseille","lat":43.287,"lon":5.37406,"is_reserved":false,"is_disabled":false,"rental_uris":{"android":"levelo://app?vid=67cc8d09-e280-4605-91aa-d8d90ce731bc","ios":"levelo://app?vid=67cc8d09-e280-4605-91aa-d8d90ce731bc"},"vehicle_type_id":"4","last_reported":1744304981,"current_range_meters":12400,"station_id":"ce4bh3p2rcd13ifvqdq0","pricing_plan_id":"cebpf4jnsgd1na2vs0mg"},{"bike_id":"f43f02fc-73bc-4c91-9fea-f796de6eb2b9","system_id":"levelo_inurba_marseille","lat":43.29685,"lon":5.37293,"is_reserved":false,"is_disabled":false,"rental_uris":{"android":"levelo://app?vid=f43f02fc-73bc-4c91-9fea-f796de6eb2b9","ios":"levelo://app?vid=f43f02fc-73bc-4c91-9fea-f796de6eb2b9"},"vehicle_type_id":"4","last_reported":1744304981,"current_range_meters":12400,"station_id":"ce4bgk12rcd13ifvqbj0","pricing_plan_id":"cebpf4jnsgd1na2vs0mg"},{"bike_id":"bf14f3a1-7451-4264-a476-3f8279db2de6","system_id":"levelo_inurba_marseille","lat":43.29886,"lon":5.43666,"is_reserved":false,"is_disabled":false,"rental_uris":{"android":"levelo://app?vid=bf14f3a1-7451-4264-a476-3f8279db2de6","ios":"levelo://app?vid=bf14f3a1-7451-4264-a476-3f8279db2de6"},"vehicle_type_id":"4","last_reported":1744304981,"current_range_meters":12400,"station_id":"ce4bhpp2rcd13ifvqhfg","pricing_plan_id":"cebpf4jnsgd1na2vs0mg"},{"bike_id":"3779a771-6cc0-4428-a4f8-4102b2dea3c4","system_id":"levelo_inurba_marseille","lat":43.26202,"lon":5.37928,"is_reserved":false,"is_disabled":false,"rental_uris":{"android":"levelo://app?vid=3779a771-6cc0-4428-a4f8-4102b2dea3c4","ios":"levelo://app?vid=3779a771-6cc0-4428-a4f8-4102b2dea3c4"},"vehicle_type_id":"4","last_reported":1744304981,"current_range_meters":12400,"station_id":"ce4bhjp2rcd13ifvqg90","pricing_plan_id":"cebpf4jnsgd1na2vs0mg"},{"bike_id":"90fc2ee7-cf83-49b4-bc41-13c247c31254","system_id":"levelo_inurba_marseille","lat":43.23193,"lon":5.35556,"is_reserved":false,"is_disabled":false,"rental_uris":{"android":"levelo://app?vid=90fc2ee7-cf83-49b4-bc41-13c247c31254","ios":"levelo://app?vid=90fc2ee7-cf83-49b4-bc41-13c247c31254"},"vehicle_type_id":"4","last_reported":1744304981,"current_range_meters":12400,"station_id":"ce4bhu92rcd13ifvqi70","pricing_plan_id":"cebpf4jnsgd1na2vs0mg"},{"bike_id":"9baf0db5-73da-4f2d-8093-a61b44ac0c0a","system_id":"levelo_inurba_marseille","lat":43.27375,"lon":5.36255,"is_reserved":false,"is_disabled":false,"rental_uris":{"android":"levelo://app?vid=9baf0db5-73da-4f2d-8093-a61b44ac0c0a","ios":"levelo://app?vid=9baf0db5-73da-4f2d-8093-a61b44ac0c0a"},"vehicle_type_id":"4","last_reported":1744304981,"current_range_meters":12800,"station_id":"ce4bhbh2rcd13ifvqeo0","pricing_plan_id":"cebpf4jnsgd1na2vs0mg"},{"bike_id":"8502a1a3-72dd-42eb-89f0-3f2a68e9a4a6","system_id":"levelo_inurba_marseille","lat":43.28726,"lon":5.36092,"is_reserved":false,"is_disabled":false,"rental_uris":{"android":"levelo://app?vid=8502a1a3-72dd-42eb-89f0-3f2a68e9a4a6","ios":"levelo://app?vid=8502a1a3-72dd-42eb-89f0-3f2a68e9a4a6"},"vehicle_type_id":"4","last_reported":1744304981,"current_range_meters":12800,"station_id":"cki0cbj6b192h4jlfktg","pricing_plan_id":"cebpf4jnsgd1na2vs0mg"},{"bike_id":"1741b489-a8ea-4c41-9d0d-75107d63165f","system_id":"levelo_inurba_marseille","lat":43.29425,"lon":5.38608,"is_reserved":false,"is_disabled":false,"rental_uris":{"android":"levelo://app?vid=1741b489-a8ea-4c41-9d0d-75107d63165f","ios":"levelo://app?vid=1741b489-a8ea-4c41-9d0d-75107d63165f"},"vehicle_type_id":"4","last_reported":1744304981,"current_range_meters":12800,"station_id":"ce4bh2h2rcd13ifvqdh0","pricing_plan_id":"cebpf4jnsgd1na2vs0mg"},{"bike_id":"11aa4cc6-b86e-40b7-8e0d-e3bfc9d467ef","system_id":"levelo_inurba_marseille","lat":43.29711,"lon":5.36606,"is_reserved":false,"is_disabled":false,"rental_uris":{"android":"levelo://app?vid=11aa4cc6-b86e-40b7-8e0d-e3bfc9d467ef","ios":"levelo://app?vid=11aa4cc6-b86e-40b7-8e0d-e3bfc9d467ef"},"vehicle_type_id":"4","last_reported":1744304981,"current_range_meters":12800,"station_id":"ce4bgn12rcd13ifvqbt0","pricing_plan_id":"cebpf4jnsgd1na2vs0mg"},{"bike_id":"7c86ebaf-c9fe-4bc4-bc7c-bb16ccfd1fa7","system_id":"levelo_inurba_marseille","lat":43.27385,"lon":5.36233,"is_reserved":false,"is_disabled":false,"rental_uris":{"android":"levelo://app?vid=7c86ebaf-c9fe-4bc4-bc7c-bb16ccfd1fa7","ios":"levelo://app?vid=7c86ebaf-c9fe-4bc4-bc7c-bb16ccfd1fa7"},"vehicle_type_id":"4","last_reported":1744304981,"current_range_meters":12800,"station_id":"ce4bhbh2rcd13ifvqeo0","pricing_plan_id":"cebpf4jnsgd1na2vs0mg"},{"bike_id":"dcf95968-3e8b-4583-b786-0d6dc9a95325","system_id":"levelo_inurba_marseille","lat":43.27495,"lon":5.42449,"is_reserved":false,"is_disabled":false,"rental_uris":{"android":"levelo://app?vid=dcf95968-3e8b-4583-b786-0d6dc9a95325","ios":"levelo://app?vid=dcf95968-3e8b-4583-b786-0d6dc9a95325"},"vehicle_type_id":"4","last_reported":1744304981,"current_range_meters":12800,"station_id":"ce4bhn92rcd13ifvqgrg","pricing_plan_id":"cebpf4jnsgd1na2vs0mg"},{"bike_id":"ffde10da-f268-40a3-9049-4d71adab06e0","system_id":"levelo_inurba_marseille","lat":43.28271,"lon":5.35076,"is_reserved":false,"is_disabled":false,"rental_uris":{"android":"levelo://app?vid=ffde10da-f268-40a3-9049-4d71adab06e0","ios":"levelo://app?vid=ffde10da-f268-40a3-9049-4d71adab06e0"},"vehicle_type_id":"4","last_reported":1744304981,"current_range_meters":12800,"station_id":"ce4bhbp2rcd13ifvqerg","pricing_plan_id":"cebpf4jnsgd1na2vs0mg"},{"bike_id":"7cc9ba28-b17b-4764-972f-908f30e26c9f","system_id":"levelo_inurba_marseille","lat":43.28839,"lon":5.35857,"is_reserved":false,"is_disabled":false,"rental_uris":{"android":"levelo://app?vid=7cc9ba28-b17b-4764-972f-908f30e26c9f","ios":"levelo://app?vid=7cc9ba28-b17b-4764-972f-908f30e26c9f"},"vehicle_type_id":"4","last_reported":1744304981,"current_range_meters":13600,"station_id":"ce4bhb12rcd13ifvqem0","pricing_plan_id":"cebpf4jnsgd1na2vs0mg"},{"bike_id":"de07953f-a368-43dd-aba2-34a7197efe50","system_id":"levelo_inurba_marseille","lat":43.256115,"lon":5.405147,"is_reserved":false,"is_disabled":false,"rental_uris":{"android":"levelo://app?vid=de07953f-a368-43dd-aba2-34a7197efe50","ios":"levelo://app?vid=de07953f-a368-43dd-aba2-34a7197efe50"},"vehicle_type_id":"4","last_reported":1744304981,"current_range_meters":13600,"station_id":"","pricing_plan_id":"cebpf4jnsgd1na2vs0mg"},{"bike_id":"cbc3d407-2be0-4eab-8c9a-c05377796fce","system_id":"levelo_inurba_marseille","lat":43.28617,"lon":5.37055,"is_reserved":false,"is_disabled":false,"rental_uris":{"android":"levelo://app?vid=cbc3d407-2be0-4eab-8c9a-c05377796fce","ios":"levelo://app?vid=cbc3d407-2be0-4eab-8c9a-c05377796fce"},"vehicle_type_id":"4","last_reported":1744304981,"current_range_meters":12800,"station_id":"ce4bht12rcd13ifvqi60","pricing_plan_id":"cebpf4jnsgd1na2vs0mg"},{"bike_id":"d35e45c1-f848-4254-a3e4-531709350aa5","system_id":"levelo_inurba_marseille","lat":43.27385,"lon":5.36263,"is_reserved":false,"is_disabled":false,"rental_uris":{"android":"levelo://app?vid=d35e45c1-f848-4254-a3e4-531709350aa5","ios":"levelo://app?vid=d35e45c1-f848-4254-a3e4-531709350aa5"},"vehicle_type_id":"4","last_reported":1744304981,"current_range_meters":13600,"station_id":"ce4bhbh2rcd13ifvqeo0","pricing_plan_id":"cebpf4jnsgd1na2vs0mg"},{"bike_id":"a2635bdb-b0e8-4370-a72c-2f307dc0af84","system_id":"levelo_inurba_marseille","lat":43.26215,"lon":5.37438,"is_reserved":false,"is_disabled":false,"rental_uris":{"android":"levelo://app?vid=a2635bdb-b0e8-4370-a72c-2f307dc0af84","ios":"levelo://app?vid=a2635bdb-b0e8-4370-a72c-2f307dc0af84"},"vehicle_type_id":"4","last_reported":1744304981,"current_range_meters":13600,"station_id":"ce4bhgp2rcd13ifvqfc0","pricing_plan_id":"cebpf4jnsgd1na2vs0mg"},{"bike_id":"5ecc0588-2f4e-49c8-a805-1104841caebe","system_id":"levelo_inurba_marseille","lat":43.24394,"lon":5.37061,"is_reserved":false,"is_disabled":false,"rental_uris":{"android":"levelo://app?vid=5ecc0588-2f4e-49c8-a805-1104841caebe","ios":"levelo://app?vid=5ecc0588-2f4e-49c8-a805-1104841caebe"},"vehicle_type_id":"4","last_reported":1744304981,"current_range_meters":13600,"station_id":"ce4bhhh2rcd13ifvqfk0","pricing_plan_id":"cebpf4jnsgd1na2vs0mg"},{"bike_id":"0f2490cc-38a4-45e5-b34e-06883ac81fd5","system_id":"levelo_inurba_marseille","lat":43.29414,"lon":5.38634,"is_reserved":false,"is_disabled":false,"rental_uris":{"android":"levelo://app?vid=0f2490cc-38a4-45e5-b34e-06883ac81fd5","ios":"levelo://app?vid=0f2490cc-38a4-45e5-b34e-06883ac81fd5"},"vehicle_type_id":"4","last_reported":1744304981,"current_range_meters":13600,"station_id":"ce4bh2h2rcd13ifvqdh0","pricing_plan_id":"cebpf4jnsgd1na2vs0mg"},{"bike_id":"36dd2f5e-4014-41b9-8f6e-aa54636e0b8b","system_id":"levelo_inurba_marseille","lat":43.24163,"lon":5.36406,"is_reserved":false,"is_disabled":false,"rental_uris":{"android":"levelo://app?vid=36dd2f5e-4014-41b9-8f6e-aa54636e0b8b","ios":"levelo://app?vid=36dd2f5e-4014-41b9-8f6e-aa54636e0b8b"},"vehicle_type_id":"4","last_reported":1744304981,"current_range_meters":13600,"station_id":"cpo36qri1sfpv3e86is0","pricing_plan_id":"cebpf4jnsgd1na2vs0mg"},{"bike_id":"9e12e809-0998-4498-84be-580981f53f72","system_id":"levelo_inurba_marseille","lat":43.28869,"lon":5.35862,"is_reserved":false,"is_disabled":false,"rental_uris":{"android":"levelo://app?vid=9e12e809-0998-4498-84be-580981f53f72","ios":"levelo://app?vid=9e12e809-0998-4498-84be-580981f53f72"},"vehicle_type_id":"4","last_reported":1744304981,"current_range_meters":13600,"station_id":"ce4bhb12rcd13ifvqem0","pricing_plan_id":"cebpf4jnsgd1na2vs0mg"},{"bike_id":"f78bf8a8-b506-43e9-9fc4-9ec4cb688e82","system_id":"levelo_inurba_marseille","lat":43.32085,"lon":5.36808,"is_reserved":false,"is_disabled":false,"rental_uris":{"android":"levelo://app?vid=f78bf8a8-b506-43e9-9fc4-9ec4cb688e82","ios":"levelo://app?vid=f78bf8a8-b506-43e9-9fc4-9ec4cb688e82"},"vehicle_type_id":"4","last_reported":1744304981,"current_range_meters":14000,"station_id":"ce4bhrh2rcd13ifvqhug","pricing_plan_id":"cebpf4jnsgd1na2vs0mg"},{"bike_id":"dbed5158-18de-4e5b-8769-192429d9a469","system_id":"levelo_inurba_marseille","lat":43.27382,"lon":5.3624,"is_reserved":false,"is_disabled":false,"rental_uris":{"android":"levelo://app?vid=dbed5158-18de-4e5b-8769-192429d9a469","ios":"levelo://app?vid=dbed5158-18de-4e5b-8769-192429d9a469"},"vehicle_type_id":"4","last_reported":1744304981,"current_range_meters":14000,"station_id":"ce4bhbh2rcd13ifvqeo0","pricing_plan_id":"cebpf4jnsgd1na2vs0mg"},{"bike_id":"edfe1042-c136-4d55-9992-1a3f5f1602d1","system_id":"levelo_inurba_marseille","lat":43.299658,"lon":5.384797,"is_reserved":false,"is_disabled":false,"rental_uris":{"android":"levelo://app?vid=edfe1042-c136-4d55-9992-1a3f5f1602d1","ios":"levelo://app?vid=edfe1042-c136-4d55-9992-1a3f5f1602d1"},"vehicle_type_id":"4","last_reported":1744304981,"current_range_meters":14000,"station_id":"ce4bgj92rcd13ifvqbd0","pricing_plan_id":"cebpf4jnsgd1na2vs0mg"},{"bike_id":"1ba6451c-cbe4-4b09-920c-dc83229b4496","system_id":"levelo_inurba_marseille","lat":43.28037,"lon":5.36951,"is_reserved":false,"is_disabled":false,"rental_uris":{"android":"levelo://app?vid=1ba6451c-cbe4-4b09-920c-dc83229b4496","ios":"levelo://app?vid=1ba6451c-cbe4-4b09-920c-dc83229b4496"},"vehicle_type_id":"4","last_reported":1744304981,"current_range_meters":14000,"station_id":"ce4bha12rcd13ifvqef0","pricing_plan_id":"cebpf4jnsgd1na2vs0mg"},{"bike_id":"9d1c16a5-03ea-42c2-a818-5cf40c05614b","system_id":"levelo_inurba_marseille","lat":43.24077,"lon":5.37749,"is_reserved":false,"is_disabled":false,"rental_uris":{"android":"levelo://app?vid=9d1c16a5-03ea-42c2-a818-5cf40c05614b","ios":"levelo://app?vid=9d1c16a5-03ea-42c2-a818-5cf40c05614b"},"vehicle_type_id":"4","last_reported":1744304981,"current_range_meters":13600,"station_id":"ce4bhnp2rcd13ifvqgvg","pricing_plan_id":"cebpf4jnsgd1na2vs0mg"},{"bike_id":"43886042-9a43-4f05-b19c-38ee686d0113","system_id":"levelo_inurba_marseille","lat":43.30324,"lon":5.40432,"is_reserved":false,"is_disabled":false,"rental_uris":{"android":"levelo://app?vid=43886042-9a43-4f05-b19c-38ee686d0113","ios":"levelo://app?vid=43886042-9a43-4f05-b19c-38ee686d0113"},"vehicle_type_id":"4","last_reported":1744304981,"current_range_meters":14000,"station_id":"ce4bh012rcd13ifvqd10","pricing_plan_id":"cebpf4jnsgd1na2vs0mg"},{"bike_id":"672b38c1-4e65-4548-a82b-44c266e21db1","system_id":"levelo_inurba_marseille","lat":43.2927,"lon":5.40898,"is_reserved":false,"is_disabled":false,"rental_uris":{"android":"levelo://app?vid=672b38c1-4e65-4548-a82b-44c266e21db1","ios":"levelo://app?vid=672b38c1-4e65-4548-a82b-44c266e21db1"},"vehicle_type_id":"4","last_reported":1744304981,"current_range_meters":14000,"station_id":"ce4bh192rcd13ifvqdc0","pricing_plan_id":"cebpf4jnsgd1na2vs0mg"},{"bike_id":"5375461f-1423-4bc9-9731-9d0c14129f58","system_id":"levelo_inurba_marseille","lat":43.30182,"lon":5.36626,"is_reserved":false,"is_disabled":false,"rental_uris":{"android":"levelo://app?vid=5375461f-1423-4bc9-9731-9d0c14129f58","ios":"levelo://app?vid=5375461f-1423-4bc9-9731-9d0c14129f58"},"vehicle_type_id":"4","last_reported":1744304981,"current_range_meters":14400,"station_id":"ce4bgrh2rcd13ifvqc8g","pricing_plan_id":"cebpf4jnsgd1na2vs0mg"},{"bike_id":"784f6f6f-9f28-47b2-878e-a7ec8d21c437","system_id":"levelo_inurba_marseille","lat":43.338,"lon":5.37418,"is_reserved":false,"is_disabled":false,"rental_uris":{"android":"levelo://app?vid=784f6f6f-9f28-47b2-878e-a7ec8d21c437","ios":"levelo://app?vid=784f6f6f-9f28-47b2-878e-a7ec8d21c437"},"vehicle_type_id":"4","last_reported":1744304981,"current_range_meters":14400,"station_id":"","pricing_plan_id":"cebpf4jnsgd1na2vs0mg"},{"bike_id":"eab6cbfa-cb8e-47d7-b0d6-226ab7facec7","system_id":"levelo_inurba_marseille","lat":43.31716,"lon":5.42405,"is_reserved":false,"is_disabled":true,"rental_uris":{"android":"levelo://app?vid=eab6cbfa-cb8e-47d7-b0d6-226ab7facec7","ios":"levelo://app?vid=eab6cbfa-cb8e-47d7-b0d6-226ab7facec7"},"vehicle_type_id":"4","last_reported":1744304981,"current_range_meters":14400,"station_id":"ce4bhp92rcd13ifvqhbg","pricing_plan_id":"cebpf4jnsgd1na2vs0mg"},{"bike_id":"6db24551-0630-44c7-918f-428a46518bf6","system_id":"levelo_inurba_marseille","lat":43.28876,"lon":5.35846,"is_reserved":false,"is_disabled":false,"rental_uris":{"android":"levelo://app?vid=6db24551-0630-44c7-918f-428a46518bf6","ios":"levelo://app?vid=6db24551-0630-44c7-918f-428a46518bf6"},"vehicle_type_id":"4","last_reported":1744304981,"current_range_meters":14000,"station_id":"ce4bhb12rcd13ifvqem0","pricing_plan_id":"cebpf4jnsgd1na2vs0mg"},{"bike_id":"6c52984d-0a39-4100-b527-1478b93dff6b","system_id":"levelo_inurba_marseille","lat":43.29271,"lon":5.38438,"is_reserved":false,"is_disabled":false,"rental_uris":{"android":"levelo://app?vid=6c52984d-0a39-4100-b527-1478b93dff6b","ios":"levelo://app?vid=6c52984d-0a39-4100-b527-1478b93dff6b"},"vehicle_type_id":"4","last_reported":1744304981,"current_range_meters":14400,"station_id":"ce4bh692rcd13ifvqea0","pricing_plan_id":"cebpf4jnsgd1na2vs0mg"},{"bike_id":"7db37ec0-365b-4e28-a9a4-dbb16ad8e4a2","system_id":"levelo_inurba_marseille","lat":43.28272,"lon":5.35057,"is_reserved":false,"is_disabled":false,"rental_uris":{"android":"levelo://app?vid=7db37ec0-365b-4e28-a9a4-dbb16ad8e4a2","ios":"levelo://app?vid=7db37ec0-365b-4e28-a9a4-dbb16ad8e4a2"},"vehicle_type_id":"4","last_reported":1744304981,"current_range_meters":14800,"station_id":"ce4bhbp2rcd13ifvqerg","pricing_plan_id":"cebpf4jnsgd1na2vs0mg"},{"bike_id":"2fbeb662-d92a-4f32-9def-f60ca04ff579","system_id":"levelo_inurba_marseille","lat":43.2994,"lon":5.36549,"is_reserved":false,"is_disabled":false,"rental_uris":{"android":"levelo://app?vid=2fbeb662-d92a-4f32-9def-f60ca04ff579","ios":"levelo://app?vid=2fbeb662-d92a-4f32-9def-f60ca04ff579"},"vehicle_type_id":"4","last_reported":1744304981,"current_range_meters":14800,"station_id":"ce4bgm92rcd13ifvqbr0","pricing_plan_id":"cebpf4jnsgd1na2vs0mg"},{"bike_id":"44068ccd-801c-428e-99b2-dc19f47f7419","system_id":"levelo_inurba_marseille","lat":43.29783,"lon":5.39348,"is_reserved":false,"is_disabled":false,"rental_uris":{"android":"levelo://app?vid=44068ccd-801c-428e-99b2-dc19f47f7419","ios":"levelo://app?vid=44068ccd-801c-428e-99b2-dc19f47f7419"},"vehicle_type_id":"4","last_reported":1744304981,"current_range_meters":14800,"station_id":"chh1huq6cuj3fo74tm60","pricing_plan_id":"cebpf4jnsgd1na2vs0mg"},{"bike_id":"d78c8bc2-042c-47c4-9ca8-e5e01db6a1ee","system_id":"levelo_inurba_marseille","lat":43.29247,"lon":5.38439,"is_reserved":false,"is_disabled":false,"rental_uris":{"android":"levelo://app?vid=d78c8bc2-042c-47c4-9ca8-e5e01db6a1ee","ios":"levelo://app?vid=d78c8bc2-042c-47c4-9ca8-e5e01db6a1ee"},"vehicle_type_id":"4","last_reported":1744304981,"current_range_meters":14400,"station_id":"ce4bh692rcd13ifvqea0","pricing_plan_id":"cebpf4jnsgd1na2vs0mg"},{"bike_id":"9c07b687-0cca-4a28-82f6-66c50d295640","system_id":"levelo_inurba_marseille","lat":43.32288,"lon":5.38295,"is_reserved":false,"is_disabled":false,"rental_uris":{"android":"levelo://app?vid=9c07b687-0cca-4a28-82f6-66c50d295640","ios":"levelo://app?vid=9c07b687-0cca-4a28-82f6-66c50d295640"},"vehicle_type_id":"4","last_reported":1744304981,"current_range_meters":14800,"station_id":"","pricing_plan_id":"cebpf4jnsgd1na2vs0mg"},{"bike_id":"960ef24a-09cb-4e28-bb50-d441d1eef36e","system_id":"levelo_inurba_marseille","lat":43.2942,"lon":5.38623,"is_reserved":false,"is_disabled":false,"rental_uris":{"android":"levelo://app?vid=960ef24a-09cb-4e28-bb50-d441d1eef36e","ios":"levelo://app?vid=960ef24a-09cb-4e28-bb50-d441d1eef36e"},"vehicle_type_id":"4","last_reported":1744304981,"current_range_meters":14800,"station_id":"ce4bh2h2rcd13ifvqdh0","pricing_plan_id":"cebpf4jnsgd1na2vs0mg"},{"bike_id":"7d0e50b3-b7c9-4183-82d3-92c0a048a72b","system_id":"levelo_inurba_marseille","lat":43.30538,"lon":5.36952,"is_reserved":false,"is_disabled":false,"rental_uris":{"android":"levelo://app?vid=7d0e50b3-b7c9-4183-82d3-92c0a048a72b","ios":"levelo://app?vid=7d0e50b3-b7c9-4183-82d3-92c0a048a72b"},"vehicle_type_id":"4","last_reported":1744304981,"current_range_meters":15200,"station_id":"","pricing_plan_id":"cebpf4jnsgd1na2vs0mg"},{"bike_id":"76c40392-9eb2-47c4-a019-9089b3da5207","system_id":"levelo_inurba_marseille","lat":43.27363,"lon":5.36235,"is_reserved":false,"is_disabled":false,"rental_uris":{"android":"levelo://app?vid=76c40392-9eb2-47c4-a019-9089b3da5207","ios":"levelo://app?vid=76c40392-9eb2-47c4-a019-9089b3da5207"},"vehicle_type_id":"4","last_reported":1744304981,"current_range_meters":15200,"station_id":"ce4bhbh2rcd13ifvqeo0","pricing_plan_id":"cebpf4jnsgd1na2vs0mg"},{"bike_id":"8c01c616-33d3-4f21-a94b-3bf76ab48ae7","system_id":"levelo_inurba_marseille","lat":43.28939,"lon":5.36642,"is_reserved":false,"is_disabled":true,"rental_uris":{"android":"levelo://app?vid=8c01c616-33d3-4f21-a94b-3bf76ab48ae7","ios":"levelo://app?vid=8c01c616-33d3-4f21-a94b-3bf76ab48ae7"},"vehicle_type_id":"4","last_reported":1744304981,"current_range_meters":15200,"station_id":"ce4bhap2rcd13ifvqek0","pricing_plan_id":"cebpf4jnsgd1na2vs0mg"},{"bike_id":"127f34b2-3d2d-41a9-9b73-fda60e69fa1c","system_id":"levelo_inurba_marseille","lat":43.292725,"lon":5.384403,"is_reserved":false,"is_disabled":false,"rental_uris":{"android":"levelo://app?vid=127f34b2-3d2d-41a9-9b73-fda60e69fa1c","ios":"levelo://app?vid=127f34b2-3d2d-41a9-9b73-fda60e69fa1c"},"vehicle_type_id":"4","last_reported":1744304981,"current_range_meters":15200,"station_id":"ce4bho12rcd13ifvqh1g","pricing_plan_id":"cebpf4jnsgd1na2vs0mg"},{"bike_id":"f65dbe6f-a8a0-4aa1-87a6-a3a7af51000d","system_id":"levelo_inurba_marseille","lat":43.28616,"lon":5.35096,"is_reserved":false,"is_disabled":false,"rental_uris":{"android":"levelo://app?vid=f65dbe6f-a8a0-4aa1-87a6-a3a7af51000d","ios":"levelo://app?vid=f65dbe6f-a8a0-4aa1-87a6-a3a7af51000d"},"vehicle_type_id":"4","last_reported":1744304981,"current_range_meters":15200,"station_id":"ce4bhch2rcd13ifvqeug","pricing_plan_id":"cebpf4jnsgd1na2vs0mg"},{"bike_id":"7f99c7a8-06fe-428b-a6d3-66a651e7ccdd","system_id":"levelo_inurba_marseille","lat":43.21681,"lon":5.34635,"is_reserved":false,"is_disabled":false,"rental_uris":{"android":"levelo://app?vid=7f99c7a8-06fe-428b-a6d3-66a651e7ccdd","ios":"levelo://app?vid=7f99c7a8-06fe-428b-a6d3-66a651e7ccdd"},"vehicle_type_id":"4","last_reported":1744304981,"current_range_meters":16000,"station_id":"","pricing_plan_id":"cebpf4jnsgd1na2vs0mg"},{"bike_id":"ea8f9db4-170c-4210-9c8b-163a56406ceb","system_id":"levelo_inurba_marseille","lat":43.28942,"lon":5.36638,"is_reserved":false,"is_disabled":false,"rental_uris":{"android":"levelo://app?vid=ea8f9db4-170c-4210-9c8b-163a56406ceb","ios":"levelo://app?vid=ea8f9db4-170c-4210-9c8b-163a56406ceb"},"vehicle_type_id":"4","last_reported":1744304981,"current_range_meters":16000,"station_id":"ce4bhap2rcd13ifvqek0","pricing_plan_id":"cebpf4jnsgd1na2vs0mg"},{"bike_id":"cd64ec6e-7d1e-44ac-ae9b-8d1ddddf1aba","system_id":"levelo_inurba_marseille","lat":43.27377,"lon":5.36264,"is_reserved":false,"is_disabled":false,"rental_uris":{"android":"levelo://app?vid=cd64ec6e-7d1e-44ac-ae9b-8d1ddddf1aba","ios":"levelo://app?vid=cd64ec6e-7d1e-44ac-ae9b-8d1ddddf1aba"},"vehicle_type_id":"4","last_reported":1744304981,"current_range_meters":16000,"station_id":"ce4bhbh2rcd13ifvqeo0","pricing_plan_id":"cebpf4jnsgd1na2vs0mg"},{"bike_id":"a193a82b-e1af-4e11-bc93-9aa9d789a0f4","system_id":"levelo_inurba_marseille","lat":43.28701,"lon":5.37386,"is_reserved":false,"is_disabled":false,"rental_uris":{"android":"levelo://app?vid=a193a82b-e1af-4e11-bc93-9aa9d789a0f4","ios":"levelo://app?vid=a193a82b-e1af-4e11-bc93-9aa9d789a0f4"},"vehicle_type_id":"4","last_reported":1744304981,"current_range_meters":16000,"station_id":"ce4bh3p2rcd13ifvqdq0","pricing_plan_id":"cebpf4jnsgd1na2vs0mg"},{"bike_id":"8d928683-fd19-4e85-a705-949f44a3bf51","system_id":"levelo_inurba_marseille","lat":43.27621,"lon":5.36108,"is_reserved":false,"is_disabled":false,"rental_uris":{"android":"levelo://app?vid=8d928683-fd19-4e85-a705-949f44a3bf51","ios":"levelo://app?vid=8d928683-fd19-4e85-a705-949f44a3bf51"},"vehicle_type_id":"4","last_reported":1744304981,"current_range_meters":16000,"station_id":"ce4bgj92rcd13ifvqbe0","pricing_plan_id":"cebpf4jnsgd1na2vs0mg"},{"bike_id":"7928f85f-6603-4b62-a9f0-1785aa6fb49a","system_id":"levelo_inurba_marseille","lat":43.30806,"lon":5.374,"is_reserved":false,"is_disabled":false,"rental_uris":{"android":"levelo://app?vid=7928f85f-6603-4b62-a9f0-1785aa6fb49a","ios":"levelo://app?vid=7928f85f-6603-4b62-a9f0-1785aa6fb49a"},"vehicle_type_id":"4","last_reported":1744304981,"current_range_meters":16000,"station_id":"","pricing_plan_id":"cebpf4jnsgd1na2vs0mg"},{"bike_id":"52dc2361-453c-4817-a706-b017252ee48d","system_id":"levelo_inurba_marseille","lat":43.32104,"lon":5.36802,"is_reserved":false,"is_disabled":false,"rental_uris":{"android":"levelo://app?vid=52dc2361-453c-4817-a706-b017252ee48d","ios":"levelo://app?vid=52dc2361-453c-4817-a706-b017252ee48d"},"vehicle_type_id":"4","last_reported":1744304981,"current_range_meters":16000,"station_id":"ce4bhrh2rcd13ifvqhug","pricing_plan_id":"cebpf4jnsgd1na2vs0mg"},{"bike_id":"cfd4f674-263a-4ee7-b60c-8a65858cfa59","system_id":"levelo_inurba_marseille","lat":43.25514,"lon":5.37637,"is_reserved":false,"is_disabled":false,"rental_uris":{"android":"levelo://app?vid=cfd4f674-263a-4ee7-b60c-8a65858cfa59","ios":"levelo://app?vid=cfd4f674-263a-4ee7-b60c-8a65858cfa59"},"vehicle_type_id":"4","last_reported":1744304981,"current_range_meters":16000,"station_id":"ce4bhh12rcd13ifvqff0","pricing_plan_id":"cebpf4jnsgd1na2vs0mg"},{"bike_id":"0922821c-4e1d-4817-9469-860e55f8f0d1","system_id":"levelo_inurba_marseille","lat":43.337444,"lon":5.374475,"is_reserved":false,"is_disabled":false,"rental_uris":{"android":"levelo://app?vid=0922821c-4e1d-4817-9469-860e55f8f0d1","ios":"levelo://app?vid=0922821c-4e1d-4817-9469-860e55f8f0d1"},"vehicle_type_id":"4","last_reported":1744304981,"current_range_meters":16000,"station_id":"","pricing_plan_id":"cebpf4jnsgd1na2vs0mg"},{"bike_id":"23718e9a-5ce7-4d28-99a5-8f754f56e13c","system_id":"levelo_inurba_marseille","lat":43.22517,"lon":5.34783,"is_reserved":false,"is_disabled":false,"rental_uris":{"android":"levelo://app?vid=23718e9a-5ce7-4d28-99a5-8f754f56e13c","ios":"levelo://app?vid=23718e9a-5ce7-4d28-99a5-8f754f56e13c"},"vehicle_type_id":"4","last_reported":1744304981,"current_range_meters":16400,"station_id":"","pricing_plan_id":"cebpf4jnsgd1na2vs0mg"},{"bike_id":"a034f737-c7d2-4943-9d22-7ee87c8de504","system_id":"levelo_inurba_marseille","lat":43.28416,"lon":5.34983,"is_reserved":false,"is_disabled":false,"rental_uris":{"android":"levelo://app?vid=a034f737-c7d2-4943-9d22-7ee87c8de504","ios":"levelo://app?vid=a034f737-c7d2-4943-9d22-7ee87c8de504"},"vehicle_type_id":"4","last_reported":1744304981,"current_range_meters":16400,"station_id":"ce4bhbh2rcd13ifvqepg","pricing_plan_id":"cebpf4jnsgd1na2vs0mg"},{"bike_id":"992d1ab1-2ef4-454c-a3db-15c7eedd594f","system_id":"levelo_inurba_marseille","lat":43.28877,"lon":5.3586,"is_reserved":false,"is_disabled":false,"rental_uris":{"android":"levelo://app?vid=992d1ab1-2ef4-454c-a3db-15c7eedd594f","ios":"levelo://app?vid=992d1ab1-2ef4-454c-a3db-15c7eedd594f"},"vehicle_type_id":"4","last_reported":1744304981,"current_range_meters":16400,"station_id":"ce4bhb12rcd13ifvqem0","pricing_plan_id":"cebpf4jnsgd1na2vs0mg"},{"bike_id":"cb7c1180-3dd2-4117-b2f8-6af14e765160","system_id":"levelo_inurba_marseille","lat":43.27377,"lon":5.36245,"is_reserved":false,"is_disabled":false,"rental_uris":{"android":"levelo://app?vid=cb7c1180-3dd2-4117-b2f8-6af14e765160","ios":"levelo://app?vid=cb7c1180-3dd2-4117-b2f8-6af14e765160"},"vehicle_type_id":"4","last_reported":1744304981,"current_range_meters":16400,"station_id":"ce4bhbh2rcd13ifvqeo0","pricing_plan_id":"cebpf4jnsgd1na2vs0mg"},{"bike_id":"1a8675f7-96a5-4fc2-8fd4-53f39f26b59b","system_id":"levelo_inurba_marseille","lat":43.32397,"lon":5.38997,"is_reserved":false,"is_disabled":false,"rental_uris":{"android":"levelo://app?vid=1a8675f7-96a5-4fc2-8fd4-53f39f26b59b","ios":"levelo://app?vid=1a8675f7-96a5-4fc2-8fd4-53f39f26b59b"},"vehicle_type_id":"4","last_reported":1744304981,"current_range_meters":16400,"station_id":"ce4bhr12rcd13ifvqhqg","pricing_plan_id":"cebpf4jnsgd1na2vs0mg"},{"bike_id":"843139d3-e652-4e07-ba45-6659b20e31e2","system_id":"levelo_inurba_marseille","lat":43.29707,"lon":5.36616,"is_reserved":false,"is_disabled":false,"rental_uris":{"android":"levelo://app?vid=843139d3-e652-4e07-ba45-6659b20e31e2","ios":"levelo://app?vid=843139d3-e652-4e07-ba45-6659b20e31e2"},"vehicle_type_id":"4","last_reported":1744304981,"current_range_meters":16800,"station_id":"ce4bgn12rcd13ifvqbt0","pricing_plan_id":"cebpf4jnsgd1na2vs0mg"},{"bike_id":"a737f5db-dfb3-4dd8-aeff-67617975e190","system_id":"levelo_inurba_marseille","lat":43.29597,"lon":5.37725,"is_reserved":false,"is_disabled":true,"rental_uris":{"android":"levelo://app?vid=a737f5db-dfb3-4dd8-aeff-67617975e190","ios":"levelo://app?vid=a737f5db-dfb3-4dd8-aeff-67617975e190"},"vehicle_type_id":"4","last_reported":1744304981,"current_range_meters":16800,"station_id":"ce4bgi92rcd13ifvqb90","pricing_plan_id":"cebpf4jnsgd1na2vs0mg"},{"bike_id":"4dab948e-7be1-4a14-9dd5-c804865c1f74","system_id":"levelo_inurba_marseille","lat":43.30179,"lon":5.36597,"is_reserved":false,"is_disabled":false,"rental_uris":{"android":"levelo://app?vid=4dab948e-7be1-4a14-9dd5-c804865c1f74","ios":"levelo://app?vid=4dab948e-7be1-4a14-9dd5-c804865c1f74"},"vehicle_type_id":"4","last_reported":1744304981,"current_range_meters":12800,"station_id":"ce4bgrh2rcd13ifvqc8g","pricing_plan_id":"cebpf4jnsgd1na2vs0mg"},{"bike_id":"467924d9-889a-4591-a26d-c954ba0abb33","system_id":"levelo_inurba_marseille","lat":43.32381,"lon":5.38992,"is_reserved":false,"is_disabled":false,"rental_uris":{"android":"levelo://app?vid=467924d9-889a-4591-a26d-c954ba0abb33","ios":"levelo://app?vid=467924d9-889a-4591-a26d-c954ba0abb33"},"vehicle_type_id":"4","last_reported":1744304981,"current_range_meters":16800,"station_id":"","pricing_plan_id":"cebpf4jnsgd1na2vs0mg"},{"bike_id":"52c3b748-b29e-4ce9-aba4-2948b8a19d23","system_id":"levelo_inurba_marseille","lat":43.28415,"lon":5.34988,"is_reserved":false,"is_disabled":false,"rental_uris":{"android":"levelo://app?vid=52c3b748-b29e-4ce9-aba4-2948b8a19d23","ios":"levelo://app?vid=52c3b748-b29e-4ce9-aba4-2948b8a19d23"},"vehicle_type_id":"4","last_reported":1744304981,"current_range_meters":16800,"station_id":"ce4bhbh2rcd13ifvqepg","pricing_plan_id":"cebpf4jnsgd1na2vs0mg"},{"bike_id":"f4e35819-fecd-4706-887f-d63580c43838","system_id":"levelo_inurba_marseille","lat":43.25,"lon":5.38923,"is_reserved":false,"is_disabled":false,"rental_uris":{"android":"levelo://app?vid=f4e35819-fecd-4706-887f-d63580c43838","ios":"levelo://app?vid=f4e35819-fecd-4706-887f-d63580c43838"},"vehicle_type_id":"4","last_reported":1744304981,"current_range_meters":16800,"station_id":"ce4bhgp2rcd13ifvqfd0","pricing_plan_id":"cebpf4jnsgd1na2vs0mg"},{"bike_id":"e9665636-992b-49ad-9399-40ac856e89d7","system_id":"levelo_inurba_marseille","lat":43.29525,"lon":5.39402,"is_reserved":false,"is_disabled":false,"rental_uris":{"android":"levelo://app?vid=e9665636-992b-49ad-9399-40ac856e89d7","ios":"levelo://app?vid=e9665636-992b-49ad-9399-40ac856e89d7"},"vehicle_type_id":"4","last_reported":1744304981,"current_range_meters":16800,"station_id":"ce4bh292rcd13ifvqdf0","pricing_plan_id":"cebpf4jnsgd1na2vs0mg"},{"bike_id":"6ac5d696-ae20-4df9-9bda-5b301a11a568","system_id":"levelo_inurba_marseille","lat":43.301518,"lon":5.380783,"is_reserved":false,"is_disabled":false,"rental_uris":{"android":"levelo://app?vid=6ac5d696-ae20-4df9-9bda-5b301a11a568","ios":"levelo://app?vid=6ac5d696-ae20-4df9-9bda-5b301a11a568"},"vehicle_type_id":"4","last_reported":1744304981,"current_range_meters":16800,"station_id":"ce4bgjp2rcd13ifvqbh0","pricing_plan_id":"cebpf4jnsgd1na2vs0mg"},{"bike_id":"94455896-0f19-4fae-bd72-9879f01fcd6e","system_id":"levelo_inurba_marseille","lat":43.29569,"lon":5.42278,"is_reserved":false,"is_disabled":true,"rental_uris":{"android":"levelo://app?vid=94455896-0f19-4fae-bd72-9879f01fcd6e","ios":"levelo://app?vid=94455896-0f19-4fae-bd72-9879f01fcd6e"},"vehicle_type_id":"4","last_reported":1744304981,"current_range_meters":16800,"station_id":"ce4bhph2rcd13ifvqhdg","pricing_plan_id":"cebpf4jnsgd1na2vs0mg"},{"bike_id":"182650a6-9433-4951-80ba-44b6e3878dab","system_id":"levelo_inurba_marseille","lat":43.3055,"lon":5.38426,"is_reserved":false,"is_disabled":true,"rental_uris":{"android":"levelo://app?vid=182650a6-9433-4951-80ba-44b6e3878dab","ios":"levelo://app?vid=182650a6-9433-4951-80ba-44b6e3878dab"},"vehicle_type_id":"4","last_reported":1744304981,"current_range_meters":16800,"station_id":"ce4bgg92rcd13ifvqb30","pricing_plan_id":"cebpf4jnsgd1na2vs0mg"},{"bike_id":"59af0944-86d6-45fe-b437-a024b34a447e","system_id":"levelo_inurba_marseille","lat":43.2738,"lon":5.36258,"is_reserved":false,"is_disabled":false,"rental_uris":{"android":"levelo://app?vid=59af0944-86d6-45fe-b437-a024b34a447e","ios":"levelo://app?vid=59af0944-86d6-45fe-b437-a024b34a447e"},"vehicle_type_id":"4","last_reported":1744304981,"current_range_meters":16800,"station_id":"ce4bhbh2rcd13ifvqeo0","pricing_plan_id":"cebpf4jnsgd1na2vs0mg"},{"bike_id":"283a4619-e99c-4331-bef2-69647975e256","system_id":"levelo_inurba_marseille","lat":43.23195,"lon":5.39987,"is_reserved":false,"is_disabled":false,"rental_uris":{"android":"levelo://app?vid=283a4619-e99c-4331-bef2-69647975e256","ios":"levelo://app?vid=283a4619-e99c-4331-bef2-69647975e256"},"vehicle_type_id":"4","last_reported":1744304981,"current_range_meters":16400,"station_id":"ce4bhn12rcd13ifvqgqg","pricing_plan_id":"cebpf4jnsgd1na2vs0mg"},{"bike_id":"ea04f89f-6f9f-40ed-828e-f9de4fbd91bf","system_id":"levelo_inurba_marseille","lat":43.31332,"lon":5.39691,"is_reserved":false,"is_disabled":false,"rental_uris":{"android":"levelo://app?vid=ea04f89f-6f9f-40ed-828e-f9de4fbd91bf","ios":"levelo://app?vid=ea04f89f-6f9f-40ed-828e-f9de4fbd91bf"},"vehicle_type_id":"4","last_reported":1744304981,"current_range_meters":17200,"station_id":"ce4bgvp2rcd13ifvqcu0","pricing_plan_id":"cebpf4jnsgd1na2vs0mg"},{"bike_id":"463b41fd-37bb-48c0-a6e4-12f737a3d7cf","system_id":"levelo_inurba_marseille","lat":43.26993,"lon":5.40283,"is_reserved":false,"is_disabled":true,"rental_uris":{"android":"levelo://app?vid=463b41fd-37bb-48c0-a6e4-12f737a3d7cf","ios":"levelo://app?vid=463b41fd-37bb-48c0-a6e4-12f737a3d7cf"},"vehicle_type_id":"4","last_reported":1744304981,"current_range_meters":17200,"station_id":"cjm6bp8fraef2m0cb0m0","pricing_plan_id":"cebpf4jnsgd1na2vs0mg"},{"bike_id":"b19e5786-8da6-4fa6-89f5-e943e8791bb3","system_id":"levelo_inurba_marseille","lat":43.27371,"lon":5.36252,"is_reserved":false,"is_disabled":false,"rental_uris":{"android":"levelo://app?vid=b19e5786-8da6-4fa6-89f5-e943e8791bb3","ios":"levelo://app?vid=b19e5786-8da6-4fa6-89f5-e943e8791bb3"},"vehicle_type_id":"4","last_reported":1744304981,"current_range_meters":17200,"station_id":"ce4bhbh2rcd13ifvqeo0","pricing_plan_id":"cebpf4jnsgd1na2vs0mg"},{"bike_id":"48a93371-7aa5-4980-8c67-2e87d41efa4e","system_id":"levelo_inurba_marseille","lat":43.30146,"lon":5.39864,"is_reserved":false,"is_disabled":false,"rental_uris":{"android":"levelo://app?vid=48a93371-7aa5-4980-8c67-2e87d41efa4e","ios":"levelo://app?vid=48a93371-7aa5-4980-8c67-2e87d41efa4e"},"vehicle_type_id":"4","last_reported":1744304981,"current_range_meters":17600,"station_id":"ce4bh0h2rcd13ifvqd40","pricing_plan_id":"cebpf4jnsgd1na2vs0mg"},{"bike_id":"0a3c3a55-ecdb-402d-a766-4ff85ba0fc32","system_id":"levelo_inurba_marseille","lat":43.30263,"lon":5.40077,"is_reserved":false,"is_disabled":false,"rental_uris":{"android":"levelo://app?vid=0a3c3a55-ecdb-402d-a766-4ff85ba0fc32","ios":"levelo://app?vid=0a3c3a55-ecdb-402d-a766-4ff85ba0fc32"},"vehicle_type_id":"4","last_reported":1744304981,"current_range_meters":17600,"station_id":"ce4bgvh2rcd13ifvqcs0","pricing_plan_id":"cebpf4jnsgd1na2vs0mg"},{"bike_id":"161fa7e8-485b-4867-9e17-71aac5044ec5","system_id":"levelo_inurba_marseille","lat":43.28417,"lon":5.35007,"is_reserved":false,"is_disabled":false,"rental_uris":{"android":"levelo://app?vid=161fa7e8-485b-4867-9e17-71aac5044ec5","ios":"levelo://app?vid=161fa7e8-485b-4867-9e17-71aac5044ec5"},"vehicle_type_id":"4","last_reported":1744304981,"current_range_meters":17600,"station_id":"ce4bhbh2rcd13ifvqepg","pricing_plan_id":"cebpf4jnsgd1na2vs0mg"},{"bike_id":"a48753c7-6071-4b42-98a3-18291ad945d8","system_id":"levelo_inurba_marseille","lat":43.28614,"lon":5.37054,"is_reserved":false,"is_disabled":false,"rental_uris":{"android":"levelo://app?vid=a48753c7-6071-4b42-98a3-18291ad945d8","ios":"levelo://app?vid=a48753c7-6071-4b42-98a3-18291ad945d8"},"vehicle_type_id":"4","last_reported":1744304981,"current_range_meters":17600,"station_id":"ce4bht12rcd13ifvqi60","pricing_plan_id":"cebpf4jnsgd1na2vs0mg"},{"bike_id":"4a0ec849-0feb-470a-a33a-966d82d7c4ff","system_id":"levelo_inurba_marseille","lat":43.29549,"lon":5.423,"is_reserved":false,"is_disabled":false,"rental_uris":{"android":"levelo://app?vid=4a0ec849-0feb-470a-a33a-966d82d7c4ff","ios":"levelo://app?vid=4a0ec849-0feb-470a-a33a-966d82d7c4ff"},"vehicle_type_id":"4","last_reported":1744304981,"current_range_meters":17600,"station_id":"ce4bhph2rcd13ifvqhdg","pricing_plan_id":"cebpf4jnsgd1na2vs0mg"},{"bike_id":"6d1f80b1-80e0-4012-99d1-3f8172cadb63","system_id":"levelo_inurba_marseille","lat":43.24155,"lon":5.3642,"is_reserved":false,"is_disabled":false,"rental_uris":{"android":"levelo://app?vid=6d1f80b1-80e0-4012-99d1-3f8172cadb63","ios":"levelo://app?vid=6d1f80b1-80e0-4012-99d1-3f8172cadb63"},"vehicle_type_id":"4","last_reported":1744304981,"current_range_meters":17600,"station_id":"cpo36qri1sfpv3e86is0","pricing_plan_id":"cebpf4jnsgd1na2vs0mg"},{"bike_id":"515c7b4c-bcbd-42d0-8318-6837ca42a60e","system_id":"levelo_inurba_marseille","lat":43.29706,"lon":5.36592,"is_reserved":false,"is_disabled":false,"rental_uris":{"android":"levelo://app?vid=515c7b4c-bcbd-42d0-8318-6837ca42a60e","ios":"levelo://app?vid=515c7b4c-bcbd-42d0-8318-6837ca42a60e"},"vehicle_type_id":"4","last_reported":1744304981,"current_range_meters":17600,"station_id":"ce4bgn12rcd13ifvqbt0","pricing_plan_id":"cebpf4jnsgd1na2vs0mg"},{"bike_id":"795e9d9a-399f-447b-8e08-cb6f9f54cc2d","system_id":"levelo_inurba_marseille","lat":43.24066,"lon":5.37764,"is_reserved":false,"is_disabled":false,"rental_uris":{"android":"levelo://app?vid=795e9d9a-399f-447b-8e08-cb6f9f54cc2d","ios":"levelo://app?vid=795e9d9a-399f-447b-8e08-cb6f9f54cc2d"},"vehicle_type_id":"4","last_reported":1744304981,"current_range_meters":17600,"station_id":"ce4bhnp2rcd13ifvqgvg","pricing_plan_id":"cebpf4jnsgd1na2vs0mg"},{"bike_id":"fd750a98-50b8-4407-add6-bf9d280d2fb3","system_id":"levelo_inurba_marseille","lat":43.29523,"lon":5.39411,"is_reserved":false,"is_disabled":false,"rental_uris":{"android":"levelo://app?vid=fd750a98-50b8-4407-add6-bf9d280d2fb3","ios":"levelo://app?vid=fd750a98-50b8-4407-add6-bf9d280d2fb3"},"vehicle_type_id":"4","last_reported":1744304981,"current_range_meters":17200,"station_id":"ce4bh292rcd13ifvqdf0","pricing_plan_id":"cebpf4jnsgd1na2vs0mg"},{"bike_id":"f6ba1a84-8810-4551-b2b4-d8cda9c6b406","system_id":"levelo_inurba_marseille","lat":43.24167,"lon":5.36394,"is_reserved":false,"is_disabled":false,"rental_uris":{"android":"levelo://app?vid=f6ba1a84-8810-4551-b2b4-d8cda9c6b406","ios":"levelo://app?vid=f6ba1a84-8810-4551-b2b4-d8cda9c6b406"},"vehicle_type_id":"4","last_reported":1744304981,"current_range_meters":17600,"station_id":"cpo36qri1sfpv3e86is0","pricing_plan_id":"cebpf4jnsgd1na2vs0mg"},{"bike_id":"68f7adb9-7134-4cbd-9956-194e1fbfaa40","system_id":"levelo_inurba_marseille","lat":43.29272,"lon":5.37641,"is_reserved":false,"is_disabled":false,"rental_uris":{"android":"levelo://app?vid=68f7adb9-7134-4cbd-9956-194e1fbfaa40","ios":"levelo://app?vid=68f7adb9-7134-4cbd-9956-194e1fbfaa40"},"vehicle_type_id":"4","last_reported":1744304981,"current_range_meters":17600,"station_id":"ce4bgi12rcd13ifvqb80","pricing_plan_id":"cebpf4jnsgd1na2vs0mg"},{"bike_id":"5e8898ff-11ab-4c13-ab28-09e25bd9ed33","system_id":"levelo_inurba_marseille","lat":43.22931,"lon":5.35373,"is_reserved":false,"is_disabled":false,"rental_uris":{"android":"levelo://app?vid=5e8898ff-11ab-4c13-ab28-09e25bd9ed33","ios":"levelo://app?vid=5e8898ff-11ab-4c13-ab28-09e25bd9ed33"},"vehicle_type_id":"4","last_reported":1744304981,"current_range_meters":18000,"station_id":"cpo3532slgdg3j2ikp40","pricing_plan_id":"cebpf4jnsgd1na2vs0mg"},{"bike_id":"2ca819a1-2d9a-44f2-9b3b-c2d6750e6af0","system_id":"levelo_inurba_marseille","lat":43.273837,"lon":5.362637,"is_reserved":false,"is_disabled":false,"rental_uris":{"android":"levelo://app?vid=2ca819a1-2d9a-44f2-9b3b-c2d6750e6af0","ios":"levelo://app?vid=2ca819a1-2d9a-44f2-9b3b-c2d6750e6af0"},"vehicle_type_id":"4","last_reported":1744304981,"current_range_meters":18000,"station_id":"ce4bhbh2rcd13ifvqeo0","pricing_plan_id":"cebpf4jnsgd1na2vs0mg"},{"bike_id":"ce1c82e4-2ab0-456b-9391-c9519ed40ac3","system_id":"levelo_inurba_marseille","lat":43.27374,"lon":5.3625,"is_reserved":false,"is_disabled":false,"rental_uris":{"android":"levelo://app?vid=ce1c82e4-2ab0-456b-9391-c9519ed40ac3","ios":"levelo://app?vid=ce1c82e4-2ab0-456b-9391-c9519ed40ac3"},"vehicle_type_id":"4","last_reported":1744304981,"current_range_meters":18000,"station_id":"ce4bhbh2rcd13ifvqeo0","pricing_plan_id":"cebpf4jnsgd1na2vs0mg"},{"bike_id":"06989349-5be2-4574-af1a-8d26634e6f70","system_id":"levelo_inurba_marseille","lat":43.29936,"lon":5.36564,"is_reserved":false,"is_disabled":false,"rental_uris":{"android":"levelo://app?vid=06989349-5be2-4574-af1a-8d26634e6f70","ios":"levelo://app?vid=06989349-5be2-4574-af1a-8d26634e6f70"},"vehicle_type_id":"4","last_reported":1744304981,"current_range_meters":18000,"station_id":"ce4bgm92rcd13ifvqbr0","pricing_plan_id":"cebpf4jnsgd1na2vs0mg"},{"bike_id":"4efa2410-a2bf-4a8e-9e3a-c62fdb5e816b","system_id":"levelo_inurba_marseille","lat":43.290161,"lon":5.378203,"is_reserved":false,"is_disabled":false,"rental_uris":{"android":"levelo://app?vid=4efa2410-a2bf-4a8e-9e3a-c62fdb5e816b","ios":"levelo://app?vid=4efa2410-a2bf-4a8e-9e3a-c62fdb5e816b"},"vehicle_type_id":"4","last_reported":1744304981,"current_range_meters":18000,"station_id":"ce4bh9p2rcd13ifvqec0","pricing_plan_id":"cebpf4jnsgd1na2vs0mg"},{"bike_id":"6850bdc8-c131-4c80-860c-034f72fcc225","system_id":"levelo_inurba_marseille","lat":43.27381,"lon":5.36236,"is_reserved":false,"is_disabled":false,"rental_uris":{"android":"levelo://app?vid=6850bdc8-c131-4c80-860c-034f72fcc225","ios":"levelo://app?vid=6850bdc8-c131-4c80-860c-034f72fcc225"},"vehicle_type_id":"4","last_reported":1744304981,"current_range_meters":18000,"station_id":"ce4bhbh2rcd13ifvqeo0","pricing_plan_id":"cebpf4jnsgd1na2vs0mg"},{"bike_id":"549918be-d79a-4899-a870-6473907900ee","system_id":"levelo_inurba_marseille","lat":43.29876,"lon":5.36274,"is_reserved":false,"is_disabled":true,"rental_uris":{"android":"levelo://app?vid=549918be-d79a-4899-a870-6473907900ee","ios":"levelo://app?vid=549918be-d79a-4899-a870-6473907900ee"},"vehicle_type_id":"4","last_reported":1744304981,"current_range_meters":18000,"station_id":"ce4bgpp2rcd13ifvqc3g","pricing_plan_id":"cebpf4jnsgd1na2vs0mg"},{"bike_id":"41296d85-37fc-42bb-838c-0d3e19348df6","system_id":"levelo_inurba_marseille","lat":43.22514,"lon":5.34765,"is_reserved":false,"is_disabled":false,"rental_uris":{"android":"levelo://app?vid=41296d85-37fc-42bb-838c-0d3e19348df6","ios":"levelo://app?vid=41296d85-37fc-42bb-838c-0d3e19348df6"},"vehicle_type_id":"4","last_reported":1744304981,"current_range_meters":18000,"station_id":"st_cvj5dfep6f1abm77gieg","pricing_plan_id":"cebpf4jnsgd1na2vs0mg"},{"bike_id":"1b28a96e-ff57-4bf5-85d0-8da089b3d3cd","system_id":"levelo_inurba_marseille","lat":43.26697,"lon":5.38276,"is_reserved":false,"is_disabled":true,"rental_uris":{"android":"levelo://app?vid=1b28a96e-ff57-4bf5-85d0-8da089b3d3cd","ios":"levelo://app?vid=1b28a96e-ff57-4bf5-85d0-8da089b3d3cd"},"vehicle_type_id":"4","last_reported":1744304981,"current_range_meters":18000,"station_id":"ce4bhg92rcd13ifvqf90","pricing_plan_id":"cebpf4jnsgd1na2vs0mg"},{"bike_id":"0a12228f-61f9-48c1-9f2f-bd8159dce7a6","system_id":"levelo_inurba_marseille","lat":43.26193,"lon":5.37446,"is_reserved":false,"is_disabled":true,"rental_uris":{"android":"levelo://app?vid=0a12228f-61f9-48c1-9f2f-bd8159dce7a6","ios":"levelo://app?vid=0a12228f-61f9-48c1-9f2f-bd8159dce7a6"},"vehicle_type_id":"4","last_reported":1744304981,"current_range_meters":18000,"station_id":"ce4bhgp2rcd13ifvqfc0","pricing_plan_id":"cebpf4jnsgd1na2vs0mg"},{"bike_id":"ee8e886d-f9ba-4065-a48e-b86022609d03","system_id":"levelo_inurba_marseille","lat":43.24804,"lon":5.37472,"is_reserved":false,"is_disabled":false,"rental_uris":{"android":"levelo://app?vid=ee8e886d-f9ba-4065-a48e-b86022609d03","ios":"levelo://app?vid=ee8e886d-f9ba-4065-a48e-b86022609d03"},"vehicle_type_id":"4","last_reported":1744304981,"current_range_meters":18000,"station_id":"ce4bhgh2rcd13ifvqfb0","pricing_plan_id":"cebpf4jnsgd1na2vs0mg"},{"bike_id":"0801f89b-1ed0-4d57-a40e-9f6b2d4f412a","system_id":"levelo_inurba_marseille","lat":43.29609,"lon":5.38102,"is_reserved":false,"is_disabled":false,"rental_uris":{"android":"levelo://app?vid=0801f89b-1ed0-4d57-a40e-9f6b2d4f412a","ios":"levelo://app?vid=0801f89b-1ed0-4d57-a40e-9f6b2d4f412a"},"vehicle_type_id":"4","last_reported":1744304981,"current_range_meters":18000,"station_id":"","pricing_plan_id":"cebpf4jnsgd1na2vs0mg"},{"bike_id":"6b4b4558-7b4d-4641-949d-c1b9bf4fa9f9","system_id":"levelo_inurba_marseille","lat":43.2866,"lon":5.36344,"is_reserved":false,"is_disabled":false,"rental_uris":{"android":"levelo://app?vid=6b4b4558-7b4d-4641-949d-c1b9bf4fa9f9","ios":"levelo://app?vid=6b4b4558-7b4d-4641-949d-c1b9bf4fa9f9"},"vehicle_type_id":"4","last_reported":1744304981,"current_range_meters":18000,"station_id":"ce4bhah2rcd13ifvqej0","pricing_plan_id":"cebpf4jnsgd1na2vs0mg"},{"bike_id":"a3c80e16-2eed-44e2-94ad-734a521b506f","system_id":"levelo_inurba_marseille","lat":43.29532,"lon":5.3855,"is_reserved":false,"is_disabled":false,"rental_uris":{"android":"levelo://app?vid=a3c80e16-2eed-44e2-94ad-734a521b506f","ios":"levelo://app?vid=a3c80e16-2eed-44e2-94ad-734a521b506f"},"vehicle_type_id":"4","last_reported":1744304981,"current_range_meters":18000,"station_id":"ce4bgih2rcd13ifvqba0","pricing_plan_id":"cebpf4jnsgd1na2vs0mg"},{"bike_id":"9efcc5c3-7dc8-4b92-95d0-78dadc07a6b3","system_id":"levelo_inurba_marseille","lat":43.28446,"lon":5.39204,"is_reserved":false,"is_disabled":false,"rental_uris":{"android":"levelo://app?vid=9efcc5c3-7dc8-4b92-95d0-78dadc07a6b3","ios":"levelo://app?vid=9efcc5c3-7dc8-4b92-95d0-78dadc07a6b3"},"vehicle_type_id":"4","last_reported":1744304981,"current_range_meters":17600,"station_id":"ce4bhoh2rcd13ifvqh5g","pricing_plan_id":"cebpf4jnsgd1na2vs0mg"},{"bike_id":"b9974f2b-97e2-4fd9-9ffb-c19605b46450","system_id":"levelo_inurba_marseille","lat":43.29186,"lon":5.35802,"is_reserved":false,"is_disabled":false,"rental_uris":{"android":"levelo://app?vid=b9974f2b-97e2-4fd9-9ffb-c19605b46450","ios":"levelo://app?vid=b9974f2b-97e2-4fd9-9ffb-c19605b46450"},"vehicle_type_id":"4","last_reported":1744304981,"current_range_meters":18800,"station_id":"ce4bhb12rcd13ifvqel0","pricing_plan_id":"cebpf4jnsgd1na2vs0mg"},{"bike_id":"d37408de-b5d7-4466-8973-ab7c2a7000bc","system_id":"levelo_inurba_marseille","lat":43.29275,"lon":5.36865,"is_reserved":false,"is_disabled":true,"rental_uris":{"android":"levelo://app?vid=d37408de-b5d7-4466-8973-ab7c2a7000bc","ios":"levelo://app?vid=d37408de-b5d7-4466-8973-ab7c2a7000bc"},"vehicle_type_id":"4","last_reported":1744304981,"current_range_meters":18800,"station_id":"ce4bhbp2rcd13ifvqesg","pricing_plan_id":"cebpf4jnsgd1na2vs0mg"},{"bike_id":"430c7a17-f4ba-4123-bda7-cc0a01c30950","system_id":"levelo_inurba_marseille","lat":43.27381,"lon":5.3625,"is_reserved":false,"is_disabled":false,"rental_uris":{"android":"levelo://app?vid=430c7a17-f4ba-4123-bda7-cc0a01c30950","ios":"levelo://app?vid=430c7a17-f4ba-4123-bda7-cc0a01c30950"},"vehicle_type_id":"4","last_reported":1744304981,"current_range_meters":18800,"station_id":"ce4bhbh2rcd13ifvqeo0","pricing_plan_id":"cebpf4jnsgd1na2vs0mg"},{"bike_id":"90248019-1973-4cc7-bba8-4c21b7cb3805","system_id":"levelo_inurba_marseille","lat":43.24808,"lon":5.37456,"is_reserved":false,"is_disabled":false,"rental_uris":{"android":"levelo://app?vid=90248019-1973-4cc7-bba8-4c21b7cb3805","ios":"levelo://app?vid=90248019-1973-4cc7-bba8-4c21b7cb3805"},"vehicle_type_id":"4","last_reported":1744304981,"current_range_meters":18800,"station_id":"ce4bhgh2rcd13ifvqfb0","pricing_plan_id":"cebpf4jnsgd1na2vs0mg"},{"bike_id":"fb324bf1-9050-44f9-aff2-337f1e49f996","system_id":"levelo_inurba_marseille","lat":43.30426,"lon":5.39754,"is_reserved":false,"is_disabled":false,"rental_uris":{"android":"levelo://app?vid=fb324bf1-9050-44f9-aff2-337f1e49f996","ios":"levelo://app?vid=fb324bf1-9050-44f9-aff2-337f1e49f996"},"vehicle_type_id":"4","last_reported":1744304981,"current_range_meters":18800,"station_id":"ce4bh092rcd13ifvqd20","pricing_plan_id":"cebpf4jnsgd1na2vs0mg"},{"bike_id":"70ae57be-a6bd-4473-bbc8-648c4b2d602f","system_id":"levelo_inurba_marseille","lat":43.282702,"lon":5.350564,"is_reserved":false,"is_disabled":false,"rental_uris":{"android":"levelo://app?vid=70ae57be-a6bd-4473-bbc8-648c4b2d602f","ios":"levelo://app?vid=70ae57be-a6bd-4473-bbc8-648c4b2d602f"},"vehicle_type_id":"4","last_reported":1744304981,"current_range_meters":18800,"station_id":"ce4bhbp2rcd13ifvqerg","pricing_plan_id":"cebpf4jnsgd1na2vs0mg"},{"bike_id":"6fb010ff-2577-4050-a3e5-2516080bddb0","system_id":"levelo_inurba_marseille","lat":43.28701,"lon":5.37391,"is_reserved":false,"is_disabled":false,"rental_uris":{"android":"levelo://app?vid=6fb010ff-2577-4050-a3e5-2516080bddb0","ios":"levelo://app?vid=6fb010ff-2577-4050-a3e5-2516080bddb0"},