{"last_updated":1701554758,"ttl":30,"version":"2.2","data":{"bikes":[{"bike_id":"19337c19-12ca-4f3b-a568-40a561779510","system_id":"levelo_inurba_marseille","lat":43.30895,"lon":5.36814,"is_reserved":false,"is_disabled":false,"rental_uris":{"android":"levelo://app?vid=19337c19-12ca-4f3b-a568-40a561779510","ios":"levelo://app?vid=19337c19-12ca-4f3b-a568-40a561779510"},"vehicle_type_id":"4","last_reported":1701554758,"current_range_meters":26000,"station_id":"ce4bgn92rcd13ifvqbvg","pricing_plan_id":"free"},{"bike_id":"ab1a45bc-5c86-4dc9-86c5-b3cdd9eb5b1a","system_id":"levelo_inurba_marseille","lat":43.31747,"lon":5.36879,"is_reserved":false,"is_disabled":false,"rental_uris":{"android":"levelo://app?vid=ab1a45bc-5c86-4dc9-86c5-b3cdd9eb5b1a","ios":"levelo://app?vid=ab1a45bc-5c86-4dc9-86c5-b3cdd9eb5b1a"},"vehicle_type_id":"4","last_reported":1701554758,"current_range_meters":0,"station_id":"","pricing_plan_id":"free"},{"bike_id":"7492917d-d562-4e41-8f11-0e0d4b85c338","system_id":"levelo_inurba_marseille","lat":43.31486,"lon":5.37311,"is_reserved":false,"is_disabled":false,"rental_uris":{"android":"levelo://app?vid=7492917d-d562-4e41-8f11-0e0d4b85c338","ios":"levelo://app?vid=7492917d-d562-4e41-8f11-0e0d4b85c338"},"vehicle_type_id":"4","last_reported":1701554758,"current_range_meters":29200,"station_id":"ce4bgt12rcd13ifvqcd0","pricing_plan_id":"free"},{"bike_id":"840ac727-7468-4092-9c4a-412935c775aa","system_id":"levelo_inurba_marseille","lat":43.30546,"lon":5.3655,"is_reserved":false,"is_disabled":false,"rental_uris":{"android":"levelo://app?vid=840ac727-7468-4092-9c4a-412935c775aa","ios":"levelo://app?vid=840ac727-7468-4092-9c4a-412935c775aa"},"vehicle_type_id":"4","last_reported":1701554758,"current_range_meters":0,"station_id":"ce4bgs12rcd13ifvqcag","pricing_plan_id":"free"},{"bike_id":"71a6d65d-ef3b-4519-9bf9-d5840e35ff81","system_id":"levelo_inurba_marseille","lat":43.305989,"lon":5.37225,"is_reserved":false,"is_disabled":false,"rental_uris":{"android":"levelo://app?vid=71a6d65d-ef3b-4519-9bf9-d5840e35ff81","ios":"levelo://app?vid=71a6d65d-ef3b-4519-9bf9-d5840e35ff81"},"vehicle_type_id":"4","last_reported":1701554758,"current_range_meters":9600,"station_id":"ce4bgqh2rcd13ifvqc4g","pricing_plan_id":"free"},{"bike_id":"74d59bbe-ef22-4737-afa5-fdb067823716","system_id":"levelo_inurba_marseille","lat":43.311131,"lon":5.377651,"is_reserved":false,"is_disabled":false,"rental_uris":{"android":"levelo://app?vid=74d59bbe-ef22-4737-afa5-fdb067823716","ios":"levelo://app?vid=74d59bbe-ef22-4737-afa5-fdb067823716"},"vehicle_type_id":"4","last_reported":1701554758,"current_range_meters":0,"station_id":"ce4bgt92rcd13ifvqcg0","pricing_plan_id":"free"},{"bike_id":"cfd3bb51-5657-4943-be4a-4ca2f802bb01","system_id":"levelo_inurba_marseille","lat":43.308143,"lon":5.376682,"is_reserved":false,"is_disabled":false,"rental_uris":{"android":"levelo://app?vid=cfd3bb51-5657-4943-be4a-4ca2f802bb01","ios":"levelo://app?vid=cfd3bb51-5657-4943-be4a-4ca2f802bb01"},"vehicle_type_id":"4","last_reported":1701554758,"current_range_meters":9200,"station_id":"ce4bgv92rcd13ifvqcq0","pricing_plan_id":"free"},{"bike_id":"f427a2c3-6e4a-446b-ae2f-9be8aa7f4122","system_id":"levelo_inurba_marseille","lat":43.31719,"lon":5.376813,"is_reserved":false,"is_disabled":false,"rental_uris":{"android":"levelo://app?vid=f427a2c3-6e4a-446b-ae2f-9be8aa7f4122","ios":"levelo://app?vid=f427a2c3-6e4a-446b-ae2f-9be8aa7f4122"},"vehicle_type_id":"4","last_reported":1701554758,"current_range_meters":0,"station_id":"","pricing_plan_id":"free"},{"bike_id":"67ec306b-668d-4d2b-9f27-184610e004bf","system_id":"levelo_inurba_marseille","lat":43.307945,"lon":5.376487,"is_reserved":false,"is_disabled":false,"rental_uris":{"android":"levelo://app?vid=67ec306b-668d-4d2b-9f27-184610e004bf","ios":"levelo://app?vid=67ec306b-668d-4d2b-9f27-184610e004bf"},"vehicle_type_id":"4","last_reported":1701554758,"current_range_meters":22400,"station_id":"ce4bgv92rcd13ifvqcq0","pricing_plan_id":"free"},{"bike_id":"e913f328-1e31-4c22-bd87-f809ea246de4","system_id":"levelo_inurba_marseille","lat":43.317168,"lon":5.376883,"is_reserved":false,"is_disabled":false,"rental_uris":{"android":"levelo://app?vid=e913f328-1e31-4c22-bd87-f809ea246de4","ios":"levelo://app?vid=e913f328-1e31-4c22-bd87-f809ea246de4"},"vehicle_type_id":"4","last_reported":1701554758,"current_range_meters":0,"station_id":"","pricing_plan_id":"free"},{"bike_id":"8017f0ef-7643-4ce5-ba58-0c7a57cd99e9","system_id":"levelo_inurba_marseille","lat":43.317075,"lon":5.377367,"is_reserved":false,"is_disabled":false,"rental_uris":{"android":"levelo://app?vid=8017f0ef-7643-4ce5-ba58-0c7a57cd99e9","ios":"levelo://app?vid=8017f0ef-7643-4ce5-ba58-0c7a57cd99e9"},"vehicle_type_id":"4","last_reported":1701554758,"current_range_meters":8400,"station_id":"ce4bgth2rcd13ifvqch0","pricing_plan_id":"free"},{"bike_id":"701c35b1-4405-416d-a0cc-db89f5f2f6bc","system_id":"levelo_inurba_marseille","lat":43.317075,"lon":5.377367,"is_reserved":false,"is_disabled":false,"rental_uris":{"android":"levelo://app?vid=701c35b1-4405-416d-a0cc-db89f5f2f6bc","ios":"levelo://app?vid=701c35b1-4405-416d-a0cc-db89f5f2f6bc"},"vehicle_type_id":"4","last_reported":1701554758,"current_range_meters":19200,"station_id":"ce4bgth2rcd13ifvqch0","pricing_plan_id":"free"},{"bike_id":"fb6fd937-527b-4585-9058-0dfdc6436ac8","system_id":"levelo_inurba_marseille","lat":43.31351,"lon":5.37909,"is_reserved":false,"is_disabled":false,"rental_uris":{"android":"levelo://app?vid=fb6fd937-527b-4585-9058-0dfdc6436ac8","ios":"levelo://app?vid=fb6fd937-527b-4585-9058-0dfdc6436ac8"},"vehicle_type_id":"4","last_reported":1701554758,"current_range_meters":20400,"station_id":"","pricing_plan_id":"free"},{"bike_id":"44596d41-73dd-4e50-af66-9064f6eb453b","system_id":"levelo_inurba_marseille","lat":43.303046,"lon":5.368981,"is_reserved":false,"is_disabled":false,"rental_uris":{"android":"levelo://app?vid=44596d41-73dd-4e50-af66-9064f6eb453b","ios":"levelo://app?vid=44596d41-73dd-4e50-af66-9064f6eb453b"},"vehicle_type_id":"4","last_reported":1701554758,"current_range_meters":0,"station_id":"ce4bgqh2rcd13ifvqc5g","pricing_plan_id":"free"},{"bike_id":"97433323-d3a0-4c1a-b93c-72bf8e9f3f98","system_id":"levelo_inurba_marseille","lat":43.31522,"lon":5.38044,"is_reserved":false,"is_disabled":false,"rental_uris":{"android":"levelo://app?vid=97433323-d3a0-4c1a-b93c-72bf8e9f3f98","ios":"levelo://app?vid=97433323-d3a0-4c1a-b93c-72bf8e9f3f98"},"vehicle_type_id":"4","last_reported":1701554758,"current_range_meters":3600,"station_id":"ce4bhsp2rcd13ifvqi50","pricing_plan_id":"free"},{"bike_id":"f87689ed-9efd-4164-9e8b-af725d4f1e64","system_id":"levelo_inurba_marseille","lat":43.301939,"lon":5.366286,"is_reserved":false,"is_disabled":false,"rental_uris":{"android":"levelo://app?vid=f87689ed-9efd-4164-9e8b-af725d4f1e64","ios":"levelo://app?vid=f87689ed-9efd-4164-9e8b-af725d4f1e64"},"vehicle_type_id":"4","last_reported":1701554758,"current_range_meters":25200,"station_id":"ce4bgrh2rcd13ifvqc8g","pricing_plan_id":"free"},{"bike_id":"e8a42a71-415e-4209-9be3-ef54fe62ca79","system_id":"levelo_inurba_marseille","lat":43.301939,"lon":5.366286,"is_reserved":false,"is_disabled":false,"rental_uris":{"android":"levelo://app?vid=e8a42a71-415e-4209-9be3-ef54fe62ca79","ios":"levelo://app?vid=e8a42a71-415e-4209-9be3-ef54fe62ca79"},"vehicle_type_id":"4","last_reported":1701554758,"current_range_meters":22400,"station_id":"ce4bgrh2rcd13ifvqc8g","pricing_plan_id":"free"},{"bike_id":"612ea996-d385-4abb-97c2-13dfc8b42369","system_id":"levelo_inurba_marseille","lat":43.308012,"lon":5.381511,"is_reserved":false,"is_disabled":false,"rental_uris":{"android":"levelo://app?vid=612ea996-d385-4abb-97c2-13dfc8b42369","ios":"levelo://app?vid=612ea996-d385-4abb-97c2-13dfc8b42369"},"vehicle_type_id":"4","last_reported":1701554758,"current_range_meters":27200,"station_id":"ce4bgt12rcd13ifvqce0","pricing_plan_id":"free"},{"bike_id":"47ae7bca-fbfc-4d47-bdbf-9467b3978b38","system_id":"levelo_inurba_marseille","lat":43.307988,"lon":5.381718,"is_reserved":false,"is_disabled":false,"rental_uris":{"android":"levelo://app?vid=47ae7bca-fbfc-4d47-bdbf-9467b3978b38","ios":"levelo://app?vid=47ae7bca-fbfc-4d47-bdbf-9467b3978b38"},"vehicle_type_id":"4","last_reported":1701554758,"current_range_meters":24000,"station_id":"ce4bgt12rcd13ifvqce0","pricing_plan_id":"free"},{"bike_id":"bc8eac31-4b5b-48b3-aa99-5c3fdd18d82e","system_id":"levelo_inurba_marseille","lat":43.32483,"lon":5.36565,"is_reserved":false,"is_disabled":false,"rental_uris":{"android":"levelo://app?vid=bc8eac31-4b5b-48b3-aa99-5c3fdd18d82e","ios":"levelo://app?vid=bc8eac31-4b5b-48b3-aa99-5c3fdd18d82e"},"vehicle_type_id":"4","last_reported":1701554758,"current_range_meters":16800,"station_id":"ce4bhs12rcd13ifvqhvg","pricing_plan_id":"free"},{"bike_id":"8c6725c5-5ff6-4a6a-9768-66e32939cf43","system_id":"levelo_inurba_marseille","lat":43.324859,"lon":5.365669,"is_reserved":false,"is_disabled":false,"rental_uris":{"android":"levelo://app?vid=8c6725c5-5ff6-4a6a-9768-66e32939cf43","ios":"levelo://app?vid=8c6725c5-5ff6-4a6a-9768-66e32939cf43"},"vehicle_type_id":"4","last_reported":1701554758,"current_range_meters":24800,"station_id":"ce4bhs12rcd13ifvqhvg","pricing_plan_id":"free"},{"bike_id":"15e79264-8713-4f41-ba33-86735f90dd66","system_id":"levelo_inurba_marseille","lat":43.31992,"lon":5.38149,"is_reserved":false,"is_disabled":false,"rental_uris":{"android":"levelo://app?vid=15e79264-8713-4f41-ba33-86735f90dd66","ios":"levelo://app?vid=15e79264-8713-4f41-ba33-86735f90dd66"},"vehicle_type_id":"4","last_reported":1701554758,"current_range_meters":24400,"station_id":"ce4bhr12rcd13ifvqhpg","pricing_plan_id":"free"},{"bike_id":"2275aca5-3158-4c2c-8022-ca5d2714bc86","system_id":"levelo_inurba_marseille","lat":43.319997,"lon":5.381594,"is_reserved":false,"is_disabled":false,"rental_uris":{"android":"levelo://app?vid=2275aca5-3158-4c2c-8022-ca5d2714bc86","ios":"levelo://app?vid=2275aca5-3158-4c2c-8022-ca5d2714bc86"},"vehicle_type_id":"4","last_reported":1701554758,"current_range_meters":14000,"station_id":"ce4bhr12rcd13ifvqhpg","pricing_plan_id":"free"},{"bike_id":"f07e6a73-3f91-43d8-8a1b-445d3f2d00ec","system_id":"levelo_inurba_marseille","lat":43.313571,"lon":5.384829,"is_reserved":false,"is_disabled":false,"rental_uris":{"android":"levelo://app?vid=f07e6a73-3f91-43d8-8a1b-445d3f2d00ec","ios":"levelo://app?vid=f07e6a73-3f91-43d8-8a1b-445d3f2d00ec"},"vehicle_type_id":"4","last_reported":1701554758,"current_range_meters":12800,"station_id":"ce4bgt92rcd13ifvqcf0","pricing_plan_id":"free"},{"bike_id":"6f116acd-3cd4-4a52-99b5-b4c9a90584d3","system_id":"levelo_inurba_marseille","lat":43.313571,"lon":5.384829,"is_reserved":false,"is_disabled":false,"rental_uris":{"android":"levelo://app?vid=6f116acd-3cd4-4a52-99b5-b4c9a90584d3","ios":"levelo://app?vid=6f116acd-3cd4-4a52-99b5-b4c9a90584d3"},"vehicle_type_id":"4","last_reported":1701554758,"current_range_meters":15600,"station_id":"ce4bgt92rcd13ifvqcf0","pricing_plan_id":"free"},{"bike_id":"be7e509e-1eef-47e6-905f-f998f8ebc1c5","system_id":"levelo_inurba_marseille","lat":43.313571,"lon":5.384829,"is_reserved":false,"is_disabled":false,"rental_uris":{"android":"levelo://app?vid=be7e509e-1eef-47e6-905f-f998f8ebc1c5","ios":"levelo://app?vid=be7e509e-1eef-47e6-905f-f998f8ebc1c5"},"vehicle_type_id":"4","last_reported":1701554758,"current_range_meters":22800,"station_id":"ce4bgt92rcd13ifvqcf0","pricing_plan_id":"free"},{"bike_id":"27221c28-d81b-4816-b00d-c30b9d0582e8","system_id":"levelo_inurba_marseille","lat":43.313571,"lon":5.384829,"is_reserved":false,"is_disabled":false,"rental_uris":{"android":"levelo://app?vid=27221c28-d81b-4816-b00d-c30b9d0582e8","ios":"levelo://app?vid=27221c28-d81b-4816-b00d-c30b9d0582e8"},"vehicle_type_id":"4","last_reported":1701554758,"current_range_meters":21200,"station_id":"ce4bgt92rcd13ifvqcf0","pricing_plan_id":"free"},{"bike_id":"9fdb7f97-586d-42d2-befd-15216ba2e422","system_id":"levelo_inurba_marseille","lat":43.31183,"lon":5.38523,"is_reserved":false,"is_disabled":false,"rental_uris":{"android":"levelo://app?vid=9fdb7f97-586d-42d2-befd-15216ba2e422","ios":"levelo://app?vid=9fdb7f97-586d-42d2-befd-15216ba2e422"},"vehicle_type_id":"4","last_reported":1701554758,"current_range_meters":0,"station_id":"","pricing_plan_id":"free"},{"bike_id":"1bc53a9c-ffc9-4026-afd9-9a971feec816","system_id":"levelo_inurba_marseille","lat":43.299222,"lon":5.365554,"is_reserved":false,"is_disabled":false,"rental_uris":{"android":"levelo://app?vid=1bc53a9c-ffc9-4026-afd9-9a971feec816","ios":"levelo://app?vid=1bc53a9c-ffc9-4026-afd9-9a971feec816"},"vehicle_type_id":"4","last_reported":1701554758,"current_range_meters":14800,"station_id":"ce4bgm92rcd13ifvqbr0","pricing_plan_id":"free"},{"bike_id":"748d12ab-8e09-4ecd-b2d2-cbe0ea9624f6","system_id":"levelo_inurba_marseille","lat":43.298908,"lon":5.367366,"is_reserved":false,"is_disabled":false,"rental_uris":{"android":"levelo://app?vid=748d12ab-8e09-4ecd-b2d2-cbe0ea9624f6","ios":"levelo://app?vid=748d12ab-8e09-4ecd-b2d2-cbe0ea9624f6"},"vehicle_type_id":"4","last_reported":1701554758,"current_range_meters":4800,"station_id":"","pricing_plan_id":"free"},{"bike_id":"337e2112-33b9-44b4-97c8-3a0fb6191627","system_id":"levelo_inurba_marseille","lat":43.311722,"lon":5.387247,"is_reserved":false,"is_disabled":false,"rental_uris":{"android":"levelo://app?vid=337e2112-33b9-44b4-97c8-3a0fb6191627","ios":"levelo://app?vid=337e2112-33b9-44b4-97c8-3a0fb6191627"},"vehicle_type_id":"4","last_reported":1701554758,"current_range_meters":4800,"station_id":"ce4bgv12rcd13ifvqcp0","pricing_plan_id":"free"},{"bike_id":"207e205d-7aef-4a40-b33a-eadcbf0225af","system_id":"levelo_inurba_marseille","lat":43.311722,"lon":5.387247,"is_reserved":false,"is_disabled":false,"rental_uris":{"android":"levelo://app?vid=207e205d-7aef-4a40-b33a-eadcbf0225af","ios":"levelo://app?vid=207e205d-7aef-4a40-b33a-eadcbf0225af"},"vehicle_type_id":"4","last_reported":1701554758,"current_range_meters":18400,"station_id":"ce4bgv12rcd13ifvqcp0","pricing_plan_id":"free"},{"bike_id":"5c26bdfb-7b7c-43fb-8a01-250128a1a6f8","system_id":"levelo_inurba_marseille","lat":43.32834,"lon":5.366828,"is_reserved":false,"is_disabled":false,"rental_uris":{"android":"levelo://app?vid=5c26bdfb-7b7c-43fb-8a01-250128a1a6f8","ios":"levelo://app?vid=5c26bdfb-7b7c-43fb-8a01-250128a1a6f8"},"vehicle_type_id":"4","last_reported":1701554758,"current_range_meters":20000,"station_id":"ce4bhs92rcd13ifvqi0g","pricing_plan_id":"free"},{"bike_id":"863e68e6-f678-4404-9035-1f0c001016cb","system_id":"levelo_inurba_marseille","lat":43.32834,"lon":5.366765,"is_reserved":false,"is_disabled":false,"rental_uris":{"android":"levelo://app?vid=863e68e6-f678-4404-9035-1f0c001016cb","ios":"levelo://app?vid=863e68e6-f678-4404-9035-1f0c001016cb"},"vehicle_type_id":"4","last_reported":1701554758,"current_range_meters":18000,"station_id":"ce4bhs92rcd13ifvqi0g","pricing_plan_id":"free"},{"bike_id":"c0284961-478e-4ccd-b43e-321d6e4c5580","system_id":"levelo_inurba_marseille","lat":43.328344,"lon":5.366796,"is_reserved":false,"is_disabled":false,"rental_uris":{"android":"levelo://app?vid=c0284961-478e-4ccd-b43e-321d6e4c5580","ios":"levelo://app?vid=c0284961-478e-4ccd-b43e-321d6e4c5580"},"vehicle_type_id":"4","last_reported":1701554758,"current_range_meters":800,"station_id":"ce4bhs92rcd13ifvqi0g","pricing_plan_id":"free"},{"bike_id":"56c27ac6-d3be-4b1b-a869-2d0f1759ad4a","system_id":"levelo_inurba_marseille","lat":43.29815,"lon":5.37652,"is_reserved":false,"is_disabled":false,"rental_uris":{"android":"levelo://app?vid=56c27ac6-d3be-4b1b-a869-2d0f1759ad4a","ios":"levelo://app?vid=56c27ac6-d3be-4b1b-a869-2d0f1759ad4a"},"vehicle_type_id":"4","last_reported":1701554758,"current_range_meters":3600,"station_id":"","pricing_plan_id":"free"},{"bike_id":"eaa0e7e7-2390-47fa-909b-7b240952cbef","system_id":"levelo_inurba_marseille","lat":43.316507,"lon":5.389613,"is_reserved":false,"is_disabled":false,"rental_uris":{"android":"levelo://app?vid=eaa0e7e7-2390-47fa-909b-7b240952cbef","ios":"levelo://app?vid=eaa0e7e7-2390-47fa-909b-7b240952cbef"},"vehicle_type_id":"4","last_reported":1701554758,"current_range_meters":18800,"station_id":"","pricing_plan_id":"free"},{"bike_id":"461bec54-43cc-4775-81e2-05ad64300f95","system_id":"levelo_inurba_marseille","lat":43.299028,"lon":5.381509,"is_reserved":false,"is_disabled":false,"rental_uris":{"android":"levelo://app?vid=461bec54-43cc-4775-81e2-05ad64300f95","ios":"levelo://app?vid=461bec54-43cc-4775-81e2-05ad64300f95"},"vehicle_type_id":"4","last_reported":1701554758,"current_range_meters":11200,"station_id":"ce4bgj12rcd13ifvqbc0","pricing_plan_id":"free"},{"bike_id":"5383a253-0753-4e24-b015-d8e20225b857","system_id":"levelo_inurba_marseille","lat":43.298037,"lon":5.381066,"is_reserved":false,"is_disabled":false,"rental_uris":{"android":"levelo://app?vid=5383a253-0753-4e24-b015-d8e20225b857","ios":"levelo://app?vid=5383a253-0753-4e24-b015-d8e20225b857"},"vehicle_type_id":"4","last_reported":1701554758,"current_range_meters":19600,"station_id":"ce4bgip2rcd13ifvqbb0","pricing_plan_id":"free"},{"bike_id":"d343201b-8a32-416a-af84-6d7adf1ad0c6","system_id":"levelo_inurba_marseille","lat":43.304274,"lon":5.388873,"is_reserved":false,"is_disabled":false,"rental_uris":{"android":"levelo://app?vid=d343201b-8a32-416a-af84-6d7adf1ad0c6","ios":"levelo://app?vid=d343201b-8a32-416a-af84-6d7adf1ad0c6"},"vehicle_type_id":"4","last_reported":1701554758,"current_range_meters":22800,"station_id":"ce4bgk12rcd13ifvqbi0","pricing_plan_id":"free"},{"bike_id":"7d2af24f-8d44-4200-b4b2-cbb6bbf4e41e","system_id":"levelo_inurba_marseille","lat":43.304274,"lon":5.388873,"is_reserved":false,"is_disabled":false,"rental_uris":{"android":"levelo://app?vid=7d2af24f-8d44-4200-b4b2-cbb6bbf4e41e","ios":"levelo://app?vid=7d2af24f-8d44-4200-b4b2-cbb6bbf4e41e"},"vehicle_type_id":"4","last_reported":1701554758,"current_range_meters":6400,"station_id":"ce4bgk12rcd13ifvqbi0","pricing_plan_id":"free"},{"bike_id":"139fd963-46e0-4e60-85cd-cb732c96df90","system_id":"levelo_inurba_marseille","lat":43.304278,"lon":5.388868,"is_reserved":false,"is_disabled":false,"rental_uris":{"android":"levelo://app?vid=139fd963-46e0-4e60-85cd-cb732c96df90","ios":"levelo://app?vid=139fd963-46e0-4e60-85cd-cb732c96df90"},"vehicle_type_id":"4","last_reported":1701554758,"current_range_meters":8400,"station_id":"ce4bgk12rcd13ifvqbi0","pricing_plan_id":"free"},{"bike_id":"3ad31ad4-ecc7-455c-802a-cd73b4c0b5f0","system_id":"levelo_inurba_marseille","lat":43.295748,"lon":5.37522,"is_reserved":false,"is_disabled":false,"rental_uris":{"android":"levelo://app?vid=3ad31ad4-ecc7-455c-802a-cd73b4c0b5f0","ios":"levelo://app?vid=3ad31ad4-ecc7-455c-802a-cd73b4c0b5f0"},"vehicle_type_id":"4","last_reported":1701554758,"current_range_meters":20800,"station_id":"ce4bgh92rcd13ifvqb50","pricing_plan_id":"free"},{"bike_id":"f9770f64-eec5-4037-ab4e-90dc2cb1eac7","system_id":"levelo_inurba_marseille","lat":43.295279,"lon":5.375048,"is_reserved":false,"is_disabled":false,"rental_uris":{"android":"levelo://app?vid=f9770f64-eec5-4037-ab4e-90dc2cb1eac7","ios":"levelo://app?vid=f9770f64-eec5-4037-ab4e-90dc2cb1eac7"},"vehicle_type_id":"4","last_reported":1701554758,"current_range_meters":8000,"station_id":"ce4bgkp2rcd13ifvqbmg","pricing_plan_id":"free"},{"bike_id":"4438d364-d54e-4f01-acf3-14b731fb0a5c","system_id":"levelo_inurba_marseille","lat":43.29602,"lon":5.381084,"is_reserved":false,"is_disabled":false,"rental_uris":{"android":"levelo://app?vid=4438d364-d54e-4f01-acf3-14b731fb0a5c","ios":"levelo://app?vid=4438d364-d54e-4f01-acf3-14b731fb0a5c"},"vehicle_type_id":"4","last_reported":1701554758,"current_range_meters":5200,"station_id":"ce4bgl12rcd13ifvqbo0","pricing_plan_id":"free"},{"bike_id":"4f84ba2f-fe82-427d-a480-6a2276beeb2b","system_id":"levelo_inurba_marseille","lat":43.292663,"lon":5.376389,"is_reserved":false,"is_disabled":false,"rental_uris":{"android":"levelo://app?vid=4f84ba2f-fe82-427d-a480-6a2276beeb2b","ios":"levelo://app?vid=4f84ba2f-fe82-427d-a480-6a2276beeb2b"},"vehicle_type_id":"4","last_reported":1701554758,"current_range_meters":30000,"station_id":"ce4bgi12rcd13ifvqb80","pricing_plan_id":"free"},{"bike_id":"866fc01f-2a58-4928-8ebb-90fa8e6ccd25","system_id":"levelo_inurba_marseille","lat":43.309038,"lon":5.396546,"is_reserved":false,"is_disabled":false,"rental_uris":{"android":"levelo://app?vid=866fc01f-2a58-4928-8ebb-90fa8e6ccd25","ios":"levelo://app?vid=866fc01f-2a58-4928-8ebb-90fa8e6ccd25"},"vehicle_type_id":"4","last_reported":1701554758,"current_range_meters":0,"station_id":"ce4bh012rcd13ifvqcv0","pricing_plan_id":"free"},{"bike_id":"ba440e75-7dff-487b-86e0-37bc8b6559ae","system_id":"levelo_inurba_marseille","lat":43.31325,"lon":5.39693,"is_reserved":false,"is_disabled":false,"rental_uris":{"android":"levelo://app?vid=ba440e75-7dff-487b-86e0-37bc8b6559ae","ios":"levelo://app?vid=ba440e75-7dff-487b-86e0-37bc8b6559ae"},"vehicle_type_id":"4","last_reported":1701554758,"current_range_meters":6000,"station_id":"ce4bgvp2rcd13ifvqcu0","pricing_plan_id":"free"},{"bike_id":"ddc0a37a-a13a-4eed-9fd8-72432a47a4c7","system_id":"levelo_inurba_marseille","lat":43.31322,"lon":5.39696,"is_reserved":false,"is_disabled":false,"rental_uris":{"android":"levelo://app?vid=ddc0a37a-a13a-4eed-9fd8-72432a47a4c7","ios":"levelo://app?vid=ddc0a37a-a13a-4eed-9fd8-72432a47a4c7"},"vehicle_type_id":"4","last_reported":1701554758,"current_range_meters":26400,"station_id":"ce4bgvp2rcd13ifvqcu0","pricing_plan_id":"free"},{"bike_id":"01d23048-c628-4d4a-af7b-e609ec0939ff","system_id":"levelo_inurba_marseille","lat":43.313249,"lon":5.396987,"is_reserved":false,"is_disabled":false,"rental_uris":{"android":"levelo://app?vid=01d23048-c628-4d4a-af7b-e609ec0939ff","ios":"levelo://app?vid=01d23048-c628-4d4a-af7b-e609ec0939ff"},"vehicle_type_id":"4","last_reported":1701554758,"current_range_meters":9600,"station_id":"ce4bgvp2rcd13ifvqcu0","pricing_plan_id":"free"},{"bike_id":"98b9988c-c852-4ef1-a689-5e72946d5811","system_id":"levelo_inurba_marseille","lat":43.29529,"lon":5.385581,"is_reserved":false,"is_disabled":false,"rental_uris":{"android":"levelo://app?vid=98b9988c-c852-4ef1-a689-5e72946d5811","ios":"levelo://app?vid=98b9988c-c852-4ef1-a689-5e72946d5811"},"vehicle_type_id":"4","last_reported":1701554758,"current_range_meters":31200,"station_id":"ce4bgih2rcd13ifvqba0","pricing_plan_id":"free"},{"bike_id":"1110c6f3-318d-4060-8a9d-ce7932039d80","system_id":"levelo_inurba_marseille","lat":43.29529,"lon":5.385581,"is_reserved":false,"is_disabled":false,"rental_uris":{"android":"levelo://app?vid=1110c6f3-318d-4060-8a9d-ce7932039d80","ios":"levelo://app?vid=1110c6f3-318d-4060-8a9d-ce7932039d80"},"vehicle_type_id":"4","last_reported":1701554758,"current_range_meters":19200,"station_id":"ce4bgih2rcd13ifvqba0","pricing_plan_id":"free"},{"bike_id":"bdbfa43c-d0f0-4cad-9eb3-59e010e1b6b8","system_id":"levelo_inurba_marseille","lat":43.290014,"lon":5.36762,"is_reserved":false,"is_disabled":false,"rental_uris":{"android":"levelo://app?vid=bdbfa43c-d0f0-4cad-9eb3-59e010e1b6b8","ios":"levelo://app?vid=bdbfa43c-d0f0-4cad-9eb3-59e010e1b6b8"},"vehicle_type_id":"4","last_reported":1701554758,"current_range_meters":6800,"station_id":"","pricing_plan_id":"free"},{"bike_id":"6ca1944d-ff94-49ef-a94f-388c19816f79","system_id":"levelo_inurba_marseille","lat":43.290624,"lon":5.359245,"is_reserved":false,"is_disabled":false,"rental_uris":{"android":"levelo://app?vid=6ca1944d-ff94-49ef-a94f-388c19816f79","ios":"levelo://app?vid=6ca1944d-ff94-49ef-a94f-388c19816f79"},"vehicle_type_id":"4","last_reported":1701554758,"current_range_meters":29600,"station_id":"ce4bha92rcd13ifvqeg0","pricing_plan_id":"free"},{"bike_id":"de6695cf-fa65-49b0-a8cf-285c49a88b10","system_id":"levelo_inurba_marseille","lat":43.294153,"lon":5.386305,"is_reserved":false,"is_disabled":false,"rental_uris":{"android":"levelo://app?vid=de6695cf-fa65-49b0-a8cf-285c49a88b10","ios":"levelo://app?vid=de6695cf-fa65-49b0-a8cf-285c49a88b10"},"vehicle_type_id":"4","last_reported":1701554758,"current_range_meters":11600,"station_id":"ce4bh2h2rcd13ifvqdh0","pricing_plan_id":"free"},{"bike_id":"ff512b64-b64f-47ac-9bc7-c97f0b78b7fa","system_id":"levelo_inurba_marseille","lat":43.289415,"lon":5.366328,"is_reserved":false,"is_disabled":false,"rental_uris":{"android":"levelo://app?vid=ff512b64-b64f-47ac-9bc7-c97f0b78b7fa","ios":"levelo://app?vid=ff512b64-b64f-47ac-9bc7-c97f0b78b7fa"},"vehicle_type_id":"4","last_reported":1701554758,"current_range_meters":0,"station_id":"ce4bhap2rcd13ifvqek0","pricing_plan_id":"free"},{"bike_id":"287adbb5-4e9d-4e04-bb69-fb422ef90c66","system_id":"levelo_inurba_marseille","lat":43.330442,"lon":5.389148,"is_reserved":false,"is_disabled":false,"rental_uris":{"android":"levelo://app?vid=287adbb5-4e9d-4e04-bb69-fb422ef90c66","ios":"levelo://app?vid=287adbb5-4e9d-4e04-bb69-fb422ef90c66"},"vehicle_type_id":"4","last_reported":1701554758,"current_range_meters":22800,"station_id":"ce4bhr92rcd13ifvqhrg","pricing_plan_id":"free"},{"bike_id":"80f15921-9d11-40c5-80f6-47a0d3ed9900","system_id":"levelo_inurba_marseille","lat":43.330442,"lon":5.389148,"is_reserved":false,"is_disabled":false,"rental_uris":{"android":"levelo://app?vid=80f15921-9d11-40c5-80f6-47a0d3ed9900","ios":"levelo://app?vid=80f15921-9d11-40c5-80f6-47a0d3ed9900"},"vehicle_type_id":"4","last_reported":1701554758,"current_range_meters":30400,"station_id":"ce4bhr92rcd13ifvqhrg","pricing_plan_id":"free"},{"bike_id":"e5fafee7-d4e0-407f-b187-b9daf8076eef","system_id":"levelo_inurba_marseille","lat":43.290104,"lon":5.356111,"is_reserved":false,"is_disabled":false,"rental_uris":{"android":"levelo://app?vid=e5fafee7-d4e0-407f-b187-b9daf8076eef","ios":"levelo://app?vid=e5fafee7-d4e0-407f-b187-b9daf8076eef"},"vehicle_type_id":"4","last_reported":1701554758,"current_range_meters":25600,"station_id":"ce4bhb92rcd13ifvqen0","pricing_plan_id":"free"},{"bike_id":"8e447e7d-5239-4d27-9e40-eee6f5870676","system_id":"levelo_inurba_marseille","lat":43.3305,"lon":5.3892,"is_reserved":false,"is_disabled":false,"rental_uris":{"android":"levelo://app?vid=8e447e7d-5239-4d27-9e40-eee6f5870676","ios":"levelo://app?vid=8e447e7d-5239-4d27-9e40-eee6f5870676"},"vehicle_type_id":"4","last_reported":1701554758,"current_range_meters":3200,"station_id":"ce4bhr92rcd13ifvqhrg","pricing_plan_id":"free"},{"bike_id":"1c638a22-0304-42d6-8d3c-fc1da9eb16ba","system_id":"levelo_inurba_marseille","lat":43.29786,"lon":5.39346,"is_reserved":false,"is_disabled":false,"rental_uris":{"android":"levelo://app?vid=1c638a22-0304-42d6-8d3c-fc1da9eb16ba","ios":"levelo://app?vid=1c638a22-0304-42d6-8d3c-fc1da9eb16ba"},"vehicle_type_id":"4","last_reported":1701554758,"current_range_meters":3200,"station_id":"chh1huq6cuj3fo74tm60","pricing_plan_id":"free"},{"bike_id":"b38135b0-bb14-4c25-bf29-b49d406cc922","system_id":"levelo_inurba_marseille","lat":43.33056,"lon":5.39058,"is_reserved":false,"is_disabled":false,"rental_uris":{"android":"levelo://app?vid=b38135b0-bb14-4c25-bf29-b49d406cc922","ios":"levelo://app?vid=b38135b0-bb14-4c25-bf29-b49d406cc922"},"vehicle_type_id":"4","last_reported":1701554758,"current_range_meters":0,"station_id":"","pricing_plan_id":"free"},{"bike_id":"656f2829-1a72-459e-a2e9-0ca05c26b73d","system_id":"levelo_inurba_marseille","lat":43.28859,"lon":5.35882,"is_reserved":false,"is_disabled":false,"rental_uris":{"android":"levelo://app?vid=656f2829-1a72-459e-a2e9-0ca05c26b73d","ios":"levelo://app?vid=656f2829-1a72-459e-a2e9-0ca05c26b73d"},"vehicle_type_id":"4","last_reported":1701554758,"current_range_meters":22800,"station_id":"ce4bhb12rcd13ifvqem0","pricing_plan_id":"free"},{"bike_id":"2050c0f1-c130-410d-9df0-dbe6918b850a","system_id":"levelo_inurba_marseille","lat":43.2886,"lon":5.35871,"is_reserved":false,"is_disabled":false,"rental_uris":{"android":"levelo://app?vid=2050c0f1-c130-410d-9df0-dbe6918b850a","ios":"levelo://app?vid=2050c0f1-c130-410d-9df0-dbe6918b850a"},"vehicle_type_id":"4","last_reported":1701554758,"current_range_meters":17600,"station_id":"ce4bhb12rcd13ifvqem0","pricing_plan_id":"free"},{"bike_id":"83c126f5-4b10-44b5-b014-4f8112d82352","system_id":"levelo_inurba_marseille","lat":43.28856,"lon":5.358371,"is_reserved":false,"is_disabled":false,"rental_uris":{"android":"levelo://app?vid=83c126f5-4b10-44b5-b014-4f8112d82352","ios":"levelo://app?vid=83c126f5-4b10-44b5-b014-4f8112d82352"},"vehicle_type_id":"4","last_reported":1701554758,"current_range_meters":16800,"station_id":"ce4bhb12rcd13ifvqem0","pricing_plan_id":"free"},{"bike_id":"0175dbce-0d09-4f51-bddd-3cf82c8d27d3","system_id":"levelo_inurba_marseille","lat":43.306357,"lon":5.400791,"is_reserved":false,"is_disabled":false,"rental_uris":{"android":"levelo://app?vid=0175dbce-0d09-4f51-bddd-3cf82c8d27d3","ios":"levelo://app?vid=0175dbce-0d09-4f51-bddd-3cf82c8d27d3"},"vehicle_type_id":"4","last_reported":1701554758,"current_range_meters":27200,"station_id":"ce4bh112rcd13ifvqda0","pricing_plan_id":"free"},{"bike_id":"1b3e84c4-5a7d-4cd9-9bdf-f2d4e9cf77db","system_id":"levelo_inurba_marseille","lat":43.30638,"lon":5.40088,"is_reserved":false,"is_disabled":false,"rental_uris":{"android":"levelo://app?vid=1b3e84c4-5a7d-4cd9-9bdf-f2d4e9cf77db","ios":"levelo://app?vid=1b3e84c4-5a7d-4cd9-9bdf-f2d4e9cf77db"},"vehicle_type_id":"4","last_reported":1701554758,"current_range_meters":0,"station_id":"ce4bh112rcd13ifvqda0","pricing_plan_id":"free"},{"bike_id":"393e217c-0ec9-45d5-b72b-b4ccd58e0415","system_id":"levelo_inurba_marseille","lat":43.30645,"lon":5.40099,"is_reserved":false,"is_disabled":false,"rental_uris":{"android":"levelo://app?vid=393e217c-0ec9-45d5-b72b-b4ccd58e0415","ios":"levelo://app?vid=393e217c-0ec9-45d5-b72b-b4ccd58e0415"},"vehicle_type_id":"4","last_reported":1701554758,"current_range_meters":25200,"station_id":"ce4bh112rcd13ifvqda0","pricing_plan_id":"free"},{"bike_id":"1a454986-f72d-4342-883c-82f5a13f9a4f","system_id":"levelo_inurba_marseille","lat":43.30633,"lon":5.40097,"is_reserved":false,"is_disabled":false,"rental_uris":{"android":"levelo://app?vid=1a454986-f72d-4342-883c-82f5a13f9a4f","ios":"levelo://app?vid=1a454986-f72d-4342-883c-82f5a13f9a4f"},"vehicle_type_id":"4","last_reported":1701554758,"current_range_meters":14400,"station_id":"ce4bh112rcd13ifvqda0","pricing_plan_id":"free"},{"bike_id":"516b580b-3d56-47cc-8236-f7389e9d6471","system_id":"levelo_inurba_marseille","lat":43.30641,"lon":5.40102,"is_reserved":false,"is_disabled":false,"rental_uris":{"android":"levelo://app?vid=516b580b-3d56-47cc-8236-f7389e9d6471","ios":"levelo://app?vid=516b580b-3d56-47cc-8236-f7389e9d6471"},"vehicle_type_id":"4","last_reported":1701554758,"current_range_meters":7200,"station_id":"ce4bh112rcd13ifvqda0","pricing_plan_id":"free"},{"bike_id":"f89cd354-0730-455b-a9fa-53fa626c0048","system_id":"levelo_inurba_marseille","lat":43.28727,"lon":5.36078,"is_reserved":false,"is_disabled":false,"rental_uris":{"android":"levelo://app?vid=f89cd354-0730-455b-a9fa-53fa626c0048","ios":"levelo://app?vid=f89cd354-0730-455b-a9fa-53fa626c0048"},"vehicle_type_id":"4","last_reported":1701554758,"current_range_meters":25600,"station_id":"cki0cbj6b192h4jlfktg","pricing_plan_id":"free"},{"bike_id":"baca1d6a-2d0f-4261-bacf-df054abc690f","system_id":"levelo_inurba_marseille","lat":43.286961,"lon":5.373785,"is_reserved":false,"is_disabled":false,"rental_uris":{"android":"levelo://app?vid=baca1d6a-2d0f-4261-bacf-df054abc690f","ios":"levelo://app?vid=baca1d6a-2d0f-4261-bacf-df054abc690f"},"vehicle_type_id":"4","last_reported":1701554758,"current_range_meters":31600,"station_id":"ce4bh3p2rcd13ifvqdq0","pricing_plan_id":"free"},{"bike_id":"64e1a8e4-566c-4fc2-b354-e2be5ed8fc25","system_id":"levelo_inurba_marseille","lat":43.286961,"lon":5.373785,"is_reserved":false,"is_disabled":false,"rental_uris":{"android":"levelo://app?vid=64e1a8e4-566c-4fc2-b354-e2be5ed8fc25","ios":"levelo://app?vid=64e1a8e4-566c-4fc2-b354-e2be5ed8fc25"},"vehicle_type_id":"4","last_reported":1701554758,"current_range_meters":23600,"station_id":"ce4bh3p2rcd13ifvqdq0","pricing_plan_id":"free"},{"bike_id":"323a08da-db0a-4d2d-bd50-af8803939fa5","system_id":"levelo_inurba_marseille","lat":43.286961,"lon":5.373785,"is_reserved":false,"is_disabled":false,"rental_uris":{"android":"levelo://app?vid=323a08da-db0a-4d2d-bd50-af8803939fa5","ios":"levelo://app?vid=323a08da-db0a-4d2d-bd50-af8803939fa5"},"vehicle_type_id":"4","last_reported":1701554758,"current_range_meters":12800,"station_id":"ce4bh3p2rcd13ifvqdq0","pricing_plan_id":"free"},{"bike_id":"746ff07e-8eb7-4bba-95aa-695e421ec945","system_id":"levelo_inurba_marseille","lat":43.302759,"lon":5.400793,"is_reserved":false,"is_disabled":false,"rental_uris":{"android":"levelo://app?vid=746ff07e-8eb7-4bba-95aa-695e421ec945","ios":"levelo://app?vid=746ff07e-8eb7-4bba-95aa-695e421ec945"},"vehicle_type_id":"4","last_reported":1701554758,"current_range_meters":22800,"station_id":"ce4bgvh2rcd13ifvqcs0","pricing_plan_id":"free"},{"bike_id":"96f542f9-27bd-4207-b4b2-d5913df7e0fc","system_id":"levelo_inurba_marseille","lat":43.316517,"lon":5.404375,"is_reserved":false,"is_disabled":false,"rental_uris":{"android":"levelo://app?vid=96f542f9-27bd-4207-b4b2-d5913df7e0fc","ios":"levelo://app?vid=96f542f9-27bd-4207-b4b2-d5913df7e0fc"},"vehicle_type_id":"4","last_reported":1701554758,"current_range_meters":24000,"station_id":"ce4bh012rcd13ifvqd00","pricing_plan_id":"free"},{"bike_id":"64f718e9-b87a-4574-91ed-03a3fa9dd2ad","system_id":"levelo_inurba_marseille","lat":43.316392,"lon":5.404558,"is_reserved":false,"is_disabled":false,"rental_uris":{"android":"levelo://app?vid=64f718e9-b87a-4574-91ed-03a3fa9dd2ad","ios":"levelo://app?vid=64f718e9-b87a-4574-91ed-03a3fa9dd2ad"},"vehicle_type_id":"4","last_reported":1701554758,"current_range_meters":9600,"station_id":"ce4bh012rcd13ifvqd00","pricing_plan_id":"free"},{"bike_id":"6a16440e-51cf-4c9a-a604-b91ae3f544f0","system_id":"levelo_inurba_marseille","lat":43.284538,"lon":5.358657,"is_reserved":false,"is_disabled":false,"rental_uris":{"android":"levelo://app?vid=6a16440e-51cf-4c9a-a604-b91ae3f544f0","ios":"levelo://app?vid=6a16440e-51cf-4c9a-a604-b91ae3f544f0"},"vehicle_type_id":"4","last_reported":1701554758,"current_range_meters":27600,"station_id":"ce4bhah2rcd13ifvqei0","pricing_plan_id":"free"},{"bike_id":"02c493f2-0b40-4c27-8d18-8e0d2df36c79","system_id":"levelo_inurba_marseille","lat":43.294314,"lon":5.397498,"is_reserved":false,"is_disabled":false,"rental_uris":{"android":"levelo://app?vid=02c493f2-0b40-4c27-8d18-8e0d2df36c79","ios":"levelo://app?vid=02c493f2-0b40-4c27-8d18-8e0d2df36c79"},"vehicle_type_id":"4","last_reported":1701554758,"current_range_meters":28400,"station_id":"ce4bh3h2rcd13ifvqdo0","pricing_plan_id":"free"},{"bike_id":"fa9588ba-3ce6-4195-a292-fe7d837b9fa4","system_id":"levelo_inurba_marseille","lat":43.286155,"lon":5.351077,"is_reserved":false,"is_disabled":false,"rental_uris":{"android":"levelo://app?vid=fa9588ba-3ce6-4195-a292-fe7d837b9fa4","ios":"levelo://app?vid=fa9588ba-3ce6-4195-a292-fe7d837b9fa4"},"vehicle_type_id":"4","last_reported":1701554758,"current_range_meters":31200,"station_id":"ce4bhch2rcd13ifvqeug","pricing_plan_id":"free"},{"bike_id":"3b7ba15b-8c65-4fcd-826d-b82c270ff007","system_id":"levelo_inurba_marseille","lat":43.283998,"lon":5.375062,"is_reserved":false,"is_disabled":false,"rental_uris":{"android":"levelo://app?vid=3b7ba15b-8c65-4fcd-826d-b82c270ff007","ios":"levelo://app?vid=3b7ba15b-8c65-4fcd-826d-b82c270ff007"},"vehicle_type_id":"4","last_reported":1701554758,"current_range_meters":0,"station_id":"ce4bh412rcd13ifvqds0","pricing_plan_id":"free"},{"bike_id":"fddd13a8-000f-4e79-9744-3a756e4cdfa8","system_id":"levelo_inurba_marseille","lat":43.283998,"lon":5.375062,"is_reserved":false,"is_disabled":false,"rental_uris":{"android":"levelo://app?vid=fddd13a8-000f-4e79-9744-3a756e4cdfa8","ios":"levelo://app?vid=fddd13a8-000f-4e79-9744-3a756e4cdfa8"},"vehicle_type_id":"4","last_reported":1701554758,"current_range_meters":26000,"station_id":"ce4bh412rcd13ifvqds0","pricing_plan_id":"free"},{"bike_id":"79384b09-7c9d-4853-bf49-eadf2c0caf82","system_id":"levelo_inurba_marseille","lat":43.284035,"lon":5.37524,"is_reserved":false,"is_disabled":false,"rental_uris":{"android":"levelo://app?vid=79384b09-7c9d-4853-bf49-eadf2c0caf82","ios":"levelo://app?vid=79384b09-7c9d-4853-bf49-eadf2c0caf82"},"vehicle_type_id":"4","last_reported":1701554758,"current_range_meters":16400,"station_id":"ce4bh412rcd13ifvqds0","pricing_plan_id":"free"},{"bike_id":"e39c28ad-a7e8-4a9f-8796-02d1ea4fe5b8","system_id":"levelo_inurba_marseille","lat":43.28403,"lon":5.37524,"is_reserved":false,"is_disabled":false,"rental_uris":{"android":"levelo://app?vid=e39c28ad-a7e8-4a9f-8796-02d1ea4fe5b8","ios":"levelo://app?vid=e39c28ad-a7e8-4a9f-8796-02d1ea4fe5b8"},"vehicle_type_id":"4","last_reported":1701554758,"current_range_meters":6000,"station_id":"ce4bh412rcd13ifvqds0","pricing_plan_id":"free"},{"bike_id":"53a6903b-d93f-48a7-b48d-8b3b72400fa4","system_id":"levelo_inurba_marseille","lat":43.28401,"lon":5.37521,"is_reserved":false,"is_disabled":false,"rental_uris":{"android":"levelo://app?vid=53a6903b-d93f-48a7-b48d-8b3b72400fa4","ios":"levelo://app?vid=53a6903b-d93f-48a7-b48d-8b3b72400fa4"},"vehicle_type_id":"4","last_reported":1701554758,"current_range_meters":17600,"station_id":"ce4bh412rcd13ifvqds0","pricing_plan_id":"free"},{"bike_id":"75ee5a35-25e5-4210-a426-2d92cbb1b782","system_id":"levelo_inurba_marseille","lat":43.33315,"lon":5.39612,"is_reserved":false,"is_disabled":false,"rental_uris":{"android":"levelo://app?vid=75ee5a35-25e5-4210-a426-2d92cbb1b782","ios":"levelo://app?vid=75ee5a35-25e5-4210-a426-2d92cbb1b782"},"vehicle_type_id":"4","last_reported":1701554758,"current_range_meters":0,"station_id":"","pricing_plan_id":"free"},{"bike_id":"f99fc4d8-709b-4cee-a32c-2cdd6f1e8b1e","system_id":"levelo_inurba_marseille","lat":43.33744,"lon":5.391035,"is_reserved":false,"is_disabled":false,"rental_uris":{"android":"levelo://app?vid=f99fc4d8-709b-4cee-a32c-2cdd6f1e8b1e","ios":"levelo://app?vid=f99fc4d8-709b-4cee-a32c-2cdd6f1e8b1e"},"vehicle_type_id":"4","last_reported":1701554758,"current_range_meters":24400,"station_id":"","pricing_plan_id":"free"},{"bike_id":"23a6e18e-5ad6-40cf-b6fb-7a4b1a6034c9","system_id":"levelo_inurba_marseille","lat":43.33717,"lon":5.391857,"is_reserved":false,"is_disabled":false,"rental_uris":{"android":"levelo://app?vid=23a6e18e-5ad6-40cf-b6fb-7a4b1a6034c9","ios":"levelo://app?vid=23a6e18e-5ad6-40cf-b6fb-7a4b1a6034c9"},"vehicle_type_id":"4","last_reported":1701554758,"current_range_meters":28800,"station_id":"ce4bhr92rcd13ifvqhsg","pricing_plan_id":"free"},{"bike_id":"9564dda2-65dc-4fbe-819e-2797621314c4","system_id":"levelo_inurba_marseille","lat":43.288463,"lon":5.393337,"is_reserved":false,"is_disabled":false,"rental_uris":{"android":"levelo://app?vid=9564dda2-65dc-4fbe-819e-2797621314c4","ios":"levelo://app?vid=9564dda2-65dc-4fbe-819e-2797621314c4"},"vehicle_type_id":"4","last_reported":1701554758,"current_range_meters":1200,"station_id":"ce4bh2p2rcd13ifvqdi0","pricing_plan_id":"free"},{"bike_id":"bcb46a23-c043-4fb2-999c-90b6d9ad7c1a","system_id":"levelo_inurba_marseille","lat":43.284219,"lon":5.3497,"is_reserved":false,"is_disabled":false,"rental_uris":{"android":"levelo://app?vid=bcb46a23-c043-4fb2-999c-90b6d9ad7c1a","ios":"levelo://app?vid=bcb46a23-c043-4fb2-999c-90b6d9ad7c1a"},"vehicle_type_id":"4","last_reported":1701554758,"current_range_meters":7600,"station_id":"ce4bhbh2rcd13ifvqepg","pricing_plan_id":"free"},{"bike_id":"6ef6cf90-6b89-4e44-bb8f-f8d07ef54dd8","system_id":"levelo_inurba_marseille","lat":43.292724,"lon":5.401131,"is_reserved":false,"is_disabled":false,"rental_uris":{"android":"levelo://app?vid=6ef6cf90-6b89-4e44-bb8f-f8d07ef54dd8","ios":"levelo://app?vid=6ef6cf90-6b89-4e44-bb8f-f8d07ef54dd8"},"vehicle_type_id":"4","last_reported":1701554758,"current_range_meters":5600,"station_id":"ce4bh312rcd13ifvqdk0","pricing_plan_id":"free"},{"bike_id":"babf90c1-ad56-488f-968b-c3a103efffe4","system_id":"levelo_inurba_marseille","lat":43.292724,"lon":5.401131,"is_reserved":false,"is_disabled":false,"rental_uris":{"android":"levelo://app?vid=babf90c1-ad56-488f-968b-c3a103efffe4","ios":"levelo://app?vid=babf90c1-ad56-488f-968b-c3a103efffe4"},"vehicle_type_id":"4","last_reported":1701554758,"current_range_meters":25200,"station_id":"ce4bh312rcd13ifvqdk0","pricing_plan_id":"free"},{"bike_id":"ce3bc8fc-3b32-4482-80f4-b10ce60c0ddc","system_id":"levelo_inurba_marseille","lat":43.292724,"lon":5.401131,"is_reserved":false,"is_disabled":false,"rental_uris":{"android":"levelo://app?vid=ce3bc8fc-3b32-4482-80f4-b10ce60c0ddc","ios":"levelo://app?vid=ce3bc8fc-3b32-4482-80f4-b10ce60c0ddc"},"vehicle_type_id":"4","last_reported":1701554758,"current_range_meters":28000,"station_id":"ce4bh312rcd13ifvqdk0","pricing_plan_id":"free"},{"bike_id":"9a8fd00e-f38b-4963-b15e-53e9d113cc86","system_id":"levelo_inurba_marseille","lat":43.283502,"lon":5.386471,"is_reserved":false,"is_disabled":false,"rental_uris":{"android":"levelo://app?vid=9a8fd00e-f38b-4963-b15e-53e9d113cc86","ios":"levelo://app?vid=9a8fd00e-f38b-4963-b15e-53e9d113cc86"},"vehicle_type_id":"4","last_reported":1701554758,"current_range_meters":16000,"station_id":"ce4bh492rcd13ifvqdvg","pricing_plan_id":"free"},{"bike_id":"cc0c4f81-0b0b-4820-8160-c52da425079c","system_id":"levelo_inurba_marseille","lat":43.282744,"lon":5.350533,"is_reserved":false,"is_disabled":false,"rental_uris":{"android":"levelo://app?vid=cc0c4f81-0b0b-4820-8160-c52da425079c","ios":"levelo://app?vid=cc0c4f81-0b0b-4820-8160-c52da425079c"},"vehicle_type_id":"4","last_reported":1701554758,"current_range_meters":26800,"station_id":"ce4bhbp2rcd13ifvqerg","pricing_plan_id":"free"},{"bike_id":"e3254949-fbff-4b65-b756-aa958968c414","system_id":"levelo_inurba_marseille","lat":43.280382,"lon":5.369291,"is_reserved":false,"is_disabled":false,"rental_uris":{"android":"levelo://app?vid=e3254949-fbff-4b65-b756-aa958968c414","ios":"levelo://app?vid=e3254949-fbff-4b65-b756-aa958968c414"},"vehicle_type_id":"4","last_reported":1701554758,"current_range_meters":27600,"station_id":"ce4bha12rcd13ifvqef0","pricing_plan_id":"free"},{"bike_id":"3ffe2381-791e-4dfc-ab55-b1a1afebe7c4","system_id":"levelo_inurba_marseille","lat":43.28039,"lon":5.369297,"is_reserved":false,"is_disabled":false,"rental_uris":{"android":"levelo://app?vid=3ffe2381-791e-4dfc-ab55-b1a1afebe7c4","ios":"levelo://app?vid=3ffe2381-791e-4dfc-ab55-b1a1afebe7c4"},"vehicle_type_id":"4","last_reported":1701554758,"current_range_meters":23600,"station_id":"ce4bha12rcd13ifvqef0","pricing_plan_id":"free"},{"bike_id":"f0baea06-ff67-4b21-a3ce-ce6d1cfe1a54","system_id":"levelo_inurba_marseille","lat":43.29041,"lon":5.399634,"is_reserved":false,"is_disabled":false,"rental_uris":{"android":"levelo://app?vid=f0baea06-ff67-4b21-a3ce-ce6d1cfe1a54","ios":"levelo://app?vid=f0baea06-ff67-4b21-a3ce-ce6d1cfe1a54"},"vehicle_type_id":"4","last_reported":1701554758,"current_range_meters":18400,"station_id":"ce4bh392rcd13ifvqdm0","pricing_plan_id":"free"},{"bike_id":"19432015-2a0c-4cfc-b57e-a3bd3a6a0881","system_id":"levelo_inurba_marseille","lat":43.284462,"lon":5.392121,"is_reserved":false,"is_disabled":false,"rental_uris":{"android":"levelo://app?vid=19432015-2a0c-4cfc-b57e-a3bd3a6a0881","ios":"levelo://app?vid=19432015-2a0c-4cfc-b57e-a3bd3a6a0881"},"vehicle_type_id":"4","last_reported":1701554758,"current_range_meters":3600,"station_id":"ce4bhoh2rcd13ifvqh5g","pricing_plan_id":"free"},{"bike_id":"dad077a7-32a5-488a-8447-ea48f1e06597","system_id":"levelo_inurba_marseille","lat":43.284462,"lon":5.392121,"is_reserved":false,"is_disabled":false,"rental_uris":{"android":"levelo://app?vid=dad077a7-32a5-488a-8447-ea48f1e06597","ios":"levelo://app?vid=dad077a7-32a5-488a-8447-ea48f1e06597"},"vehicle_type_id":"4","last_reported":1701554758,"current_range_meters":20800,"station_id":"ce4bhoh2rcd13ifvqh5g","pricing_plan_id":"free"},{"bike_id":"c15bf2de-dcde-4436-858f-c72df04f2aaf","system_id":"levelo_inurba_marseille","lat":43.304188,"lon":5.412904,"is_reserved":false,"is_disabled":false,"rental_uris":{"android":"levelo://app?vid=c15bf2de-dcde-4436-858f-c72df04f2aaf","ios":"levelo://app?vid=c15bf2de-dcde-4436-858f-c72df04f2aaf"},"vehicle_type_id":"4","last_reported":1701554758,"current_range_meters":0,"station_id":"ce4bhop2rcd13ifvqh8g","pricing_plan_id":"free"},{"bike_id":"98e914f0-bd14-4855-aa99-7f70a3bd1864","system_id":"levelo_inurba_marseille","lat":43.304188,"lon":5.412904,"is_reserved":false,"is_disabled":false,"rental_uris":{"android":"levelo://app?vid=98e914f0-bd14-4855-aa99-7f70a3bd1864","ios":"levelo://app?vid=98e914f0-bd14-4855-aa99-7f70a3bd1864"},"vehicle_type_id":"4","last_reported":1701554758,"current_range_meters":21600,"station_id":"ce4bhop2rcd13ifvqh8g","pricing_plan_id":"free"},{"bike_id":"76e058c7-cc83-4ce3-a318-675801377ba0","system_id":"levelo_inurba_marseille","lat":43.304188,"lon":5.412904,"is_reserved":false,"is_disabled":false,"rental_uris":{"android":"levelo://app?vid=76e058c7-cc83-4ce3-a318-675801377ba0","ios":"levelo://app?vid=76e058c7-cc83-4ce3-a318-675801377ba0"},"vehicle_type_id":"4","last_reported":1701554758,"current_range_meters":30800,"station_id":"ce4bhop2rcd13ifvqh8g","pricing_plan_id":"free"},{"bike_id":"71a02c85-c219-4535-9c48-f8f398135475","system_id":"levelo_inurba_marseille","lat":43.28698,"lon":5.3998,"is_reserved":false,"is_disabled":false,"rental_uris":{"android":"levelo://app?vid=71a02c85-c219-4535-9c48-f8f398135475","ios":"levelo://app?vid=71a02c85-c219-4535-9c48-f8f398135475"},"vehicle_type_id":"4","last_reported":1701554758,"current_range_meters":0,"station_id":"","pricing_plan_id":"free"},{"bike_id":"a86b05ec-d6e9-4108-9eb9-985025562aa2","system_id":"levelo_inurba_marseille","lat":43.299579,"lon":5.413255,"is_reserved":false,"is_disabled":false,"rental_uris":{"android":"levelo://app?vid=a86b05ec-d6e9-4108-9eb9-985025562aa2","ios":"levelo://app?vid=a86b05ec-d6e9-4108-9eb9-985025562aa2"},"vehicle_type_id":"4","last_reported":1701554758,"current_range_meters":26800,"station_id":"ce4bhp12rcd13ifvqh9g","pricing_plan_id":"free"},{"bike_id":"6aaa2522-e530-4653-8eab-366100faff78","system_id":"levelo_inurba_marseille","lat":43.292569,"lon":5.409107,"is_reserved":false,"is_disabled":false,"rental_uris":{"android":"levelo://app?vid=6aaa2522-e530-4653-8eab-366100faff78","ios":"levelo://app?vid=6aaa2522-e530-4653-8eab-366100faff78"},"vehicle_type_id":"4","last_reported":1701554758,"current_range_meters":5600,"station_id":"ce4bh192rcd13ifvqdc0","pricing_plan_id":"free"},{"bike_id":"b5a9f572-dbe5-4cf7-a43c-ef843736426d","system_id":"levelo_inurba_marseille","lat":43.292569,"lon":5.409107,"is_reserved":false,"is_disabled":false,"rental_uris":{"android":"levelo://app?vid=b5a9f572-dbe5-4cf7-a43c-ef843736426d","ios":"levelo://app?vid=b5a9f572-dbe5-4cf7-a43c-ef843736426d"},"vehicle_type_id":"4","last_reported":1701554758,"current_range_meters":14800,"station_id":"ce4bh192rcd13ifvqdc0","pricing_plan_id":"free"},{"bike_id":"e5cfeb43-44c4-48ef-a2cc-43adc794b053","system_id":"levelo_inurba_marseille","lat":43.276188,"lon":5.36105,"is_reserved":false,"is_disabled":false,"rental_uris":{"android":"levelo://app?vid=e5cfeb43-44c4-48ef-a2cc-43adc794b053","ios":"levelo://app?vid=e5cfeb43-44c4-48ef-a2cc-43adc794b053"},"vehicle_type_id":"4","last_reported":1701554758,"current_range_meters":19600,"station_id":"ce4bgj92rcd13ifvqbe0","pricing_plan_id":"free"},{"bike_id":"1e6c48f0-3fb9-4d72-8f3e-ffd81e386925","system_id":"levelo_inurba_marseille","lat":43.27611,"lon":5.36108,"is_reserved":false,"is_disabled":false,"rental_uris":{"android":"levelo://app?vid=1e6c48f0-3fb9-4d72-8f3e-ffd81e386925","ios":"levelo://app?vid=1e6c48f0-3fb9-4d72-8f3e-ffd81e386925"},"vehicle_type_id":"4","last_reported":1701554758,"current_range_meters":800,"station_id":"ce4bgj92rcd13ifvqbe0","pricing_plan_id":"free"},{"bike_id":"451e5711-912b-4e6f-ba92-14f20d0093e3","system_id":"levelo_inurba_marseille","lat":43.336908,"lon":5.406518,"is_reserved":false,"is_disabled":false,"rental_uris":{"android":"levelo://app?vid=451e5711-912b-4e6f-ba92-14f20d0093e3","ios":"levelo://app?vid=451e5711-912b-4e6f-ba92-14f20d0093e3"},"vehicle_type_id":"4","last_reported":1701554758,"current_range_meters":18400,"station_id":"","pricing_plan_id":"free"},{"bike_id":"3d935caa-7c73-43ea-a19b-00d46e9abe77","system_id":"levelo_inurba_marseille","lat":43.280784,"lon":5.396622,"is_reserved":false,"is_disabled":false,"rental_uris":{"android":"levelo://app?vid=3d935caa-7c73-43ea-a19b-00d46e9abe77","ios":"levelo://app?vid=3d935caa-7c73-43ea-a19b-00d46e9abe77"},"vehicle_type_id":"4","last_reported":1701554758,"current_range_meters":27200,"station_id":"ce4bho12rcd13ifvqh2g","pricing_plan_id":"free"},{"bike_id":"892e8a87-e08a-41a6-afe1-363e7f590cfa","system_id":"levelo_inurba_marseille","lat":43.275625,"lon":5.384392,"is_reserved":false,"is_disabled":false,"rental_uris":{"android":"levelo://app?vid=892e8a87-e08a-41a6-afe1-363e7f590cfa","ios":"levelo://app?vid=892e8a87-e08a-41a6-afe1-363e7f590cfa"},"vehicle_type_id":"4","last_reported":1701554758,"current_range_meters":30000,"station_id":"ce4bhh92rcd13ifvqfi0","pricing_plan_id":"free"},{"bike_id":"6c6dfa43-2cc5-48c4-9b7a-5ea1c94db2ec","system_id":"levelo_inurba_marseille","lat":43.273609,"lon":5.362708,"is_reserved":false,"is_disabled":false,"rental_uris":{"android":"levelo://app?vid=6c6dfa43-2cc5-48c4-9b7a-5ea1c94db2ec","ios":"levelo://app?vid=6c6dfa43-2cc5-48c4-9b7a-5ea1c94db2ec"},"vehicle_type_id":"4","last_reported":1701554758,"current_range_meters":29600,"station_id":"ce4bhbh2rcd13ifvqeo0","pricing_plan_id":"free"},{"bike_id":"dd1614ba-585e-450a-834b-1c03d5d026e1","system_id":"levelo_inurba_marseille","lat":43.273613,"lon":5.362705,"is_reserved":false,"is_disabled":false,"rental_uris":{"android":"levelo://app?vid=dd1614ba-585e-450a-834b-1c03d5d026e1","ios":"levelo://app?vid=dd1614ba-585e-450a-834b-1c03d5d026e1"},"vehicle_type_id":"4","last_reported":1701554758,"current_range_meters":30800,"station_id":"ce4bhbh2rcd13ifvqeo0","pricing_plan_id":"free"},{"bike_id":"5d6816a6-2580-4828-b6d6-2c41202b9639","system_id":"levelo_inurba_marseille","lat":43.33612,"lon":5.410321,"is_reserved":false,"is_disabled":false,"rental_uris":{"android":"levelo://app?vid=5d6816a6-2580-4828-b6d6-2c41202b9639","ios":"levelo://app?vid=5d6816a6-2580-4828-b6d6-2c41202b9639"},"vehicle_type_id":"4","last_reported":1701554758,"current_range_meters":29200,"station_id":"ce4bhqh2rcd13ifvqhmg","pricing_plan_id":"free"},{"bike_id":"b3745f5a-eaaf-4899-bb14-f25d104c791b","system_id":"levelo_inurba_marseille","lat":43.33612,"lon":5.410321,"is_reserved":false,"is_disabled":false,"rental_uris":{"android":"levelo://app?vid=b3745f5a-eaaf-4899-bb14-f25d104c791b","ios":"levelo://app?vid=b3745f5a-eaaf-4899-bb14-f25d104c791b"},"vehicle_type_id":"4","last_reported":1701554758,"current_range_meters":2400,"station_id":"ce4bhqh2rcd13ifvqhmg","pricing_plan_id":"free"},{"bike_id":"7a497553-d9f0-4bef-bb1d-4bc900d88ef4","system_id":"levelo_inurba_marseille","lat":43.336123,"lon":5.410216,"is_reserved":false,"is_disabled":false,"rental_uris":{"android":"levelo://app?vid=7a497553-d9f0-4bef-bb1d-4bc900d88ef4","ios":"levelo://app?vid=7a497553-d9f0-4bef-bb1d-4bc900d88ef4"},"vehicle_type_id":"4","last_reported":1701554758,"current_range_meters":2400,"station_id":"ce4bhqh2rcd13ifvqhmg","pricing_plan_id":"free"},{"bike_id":"200dab20-ab0f-4834-b707-703b5726f1f1","system_id":"levelo_inurba_marseille","lat":43.336148,"lon":5.410349,"is_reserved":false,"is_disabled":false,"rental_uris":{"android":"levelo://app?vid=200dab20-ab0f-4834-b707-703b5726f1f1","ios":"levelo://app?vid=200dab20-ab0f-4834-b707-703b5726f1f1"},"vehicle_type_id":"4","last_reported":1701554758,"current_range_meters":17200,"station_id":"ce4bhqh2rcd13ifvqhmg","pricing_plan_id":"free"},{"bike_id":"4ebcf387-e1dc-4444-9c5a-977b711fe719","system_id":"levelo_inurba_marseille","lat":43.276771,"lon":5.388799,"is_reserved":false,"is_disabled":false,"rental_uris":{"android":"levelo://app?vid=4ebcf387-e1dc-4444-9c5a-977b711fe719","ios":"levelo://app?vid=4ebcf387-e1dc-4444-9c5a-977b711fe719"},"vehicle_type_id":"4","last_reported":1701554758,"current_range_meters":21200,"station_id":"ce4bhi12rcd13ifvqfo0","pricing_plan_id":"free"},{"bike_id":"75269014-fd84-4a1f-9fa5-95a0080041c8","system_id":"levelo_inurba_marseille","lat":43.310785,"lon":5.424305,"is_reserved":false,"is_disabled":false,"rental_uris":{"android":"levelo://app?vid=75269014-fd84-4a1f-9fa5-95a0080041c8","ios":"levelo://app?vid=75269014-fd84-4a1f-9fa5-95a0080041c8"},"vehicle_type_id":"4","last_reported":1701554758,"current_range_meters":29200,"station_id":"ce4bhp92rcd13ifvqhag","pricing_plan_id":"free"},{"bike_id":"910fd3aa-d2e0-4553-894a-6161d41c7fcd","system_id":"levelo_inurba_marseille","lat":43.27609,"lon":5.39475,"is_reserved":false,"is_disabled":false,"rental_uris":{"android":"levelo://app?vid=910fd3aa-d2e0-4553-894a-6161d41c7fcd","ios":"levelo://app?vid=910fd3aa-d2e0-4553-894a-6161d41c7fcd"},"vehicle_type_id":"4","last_reported":1701554758,"current_range_meters":18800,"station_id":"","pricing_plan_id":"free"},{"bike_id":"da7f7625-db63-42fe-a02c-753cd5ff3678","system_id":"levelo_inurba_marseille","lat":43.340804,"lon":5.410219,"is_reserved":false,"is_disabled":false,"rental_uris":{"android":"levelo://app?vid=da7f7625-db63-42fe-a02c-753cd5ff3678","ios":"levelo://app?vid=da7f7625-db63-42fe-a02c-753cd5ff3678"},"vehicle_type_id":"4","last_reported":1701554758,"current_range_meters":26800,"station_id":"ce4bhqh2rcd13ifvqhlg","pricing_plan_id":"free"},{"bike_id":"92d10c8c-f1bd-4ba3-9ea5-98741bec97e5","system_id":"levelo_inurba_marseille","lat":43.274606,"lon":5.394626,"is_reserved":false,"is_disabled":false,"rental_uris":{"android":"levelo://app?vid=92d10c8c-f1bd-4ba3-9ea5-98741bec97e5","ios":"levelo://app?vid=92d10c8c-f1bd-4ba3-9ea5-98741bec97e5"},"vehicle_type_id":"4","last_reported":1701554758,"current_range_meters":0,"station_id":"","pricing_plan_id":"free"},{"bike_id":"ac66a036-a10d-4f8c-83e4-715d71e292f8","system_id":"levelo_inurba_marseille","lat":43.295523,"lon":5.422926,"is_reserved":false,"is_disabled":false,"rental_uris":{"android":"levelo://app?vid=ac66a036-a10d-4f8c-83e4-715d71e292f8","ios":"levelo://app?vid=ac66a036-a10d-4f8c-83e4-715d71e292f8"},"vehicle_type_id":"4","last_reported":1701554758,"current_range_meters":30000,"station_id":"ce4bhph2rcd13ifvqhdg","pricing_plan_id":"free"},{"bike_id":"689548cb-1532-4459-af24-ecb3a78e3715","system_id":"levelo_inurba_marseille","lat":43.295511,"lon":5.422926,"is_reserved":false,"is_disabled":false,"rental_uris":{"android":"levelo://app?vid=689548cb-1532-4459-af24-ecb3a78e3715","ios":"levelo://app?vid=689548cb-1532-4459-af24-ecb3a78e3715"},"vehicle_type_id":"4","last_reported":1701554758,"current_range_meters":25200,"station_id":"ce4bhph2rcd13ifvqhdg","pricing_plan_id":"free"},{"bike_id":"91922c7f-1d64-4a99-aea2-0fb906b24e6b","system_id":"levelo_inurba_marseille","lat":43.269467,"lon":5.386439,"is_reserved":false,"is_disabled":false,"rental_uris":{"android":"levelo://app?vid=91922c7f-1d64-4a99-aea2-0fb906b24e6b","ios":"levelo://app?vid=91922c7f-1d64-4a99-aea2-0fb906b24e6b"},"vehicle_type_id":"4","last_reported":1701554758,"current_range_meters":26000,"station_id":"ce4bhh92rcd13ifvqfh0","pricing_plan_id":"free"},{"bike_id":"95685763-623c-4a3e-8903-f00a16384f53","system_id":"levelo_inurba_marseille","lat":43.269467,"lon":5.386439,"is_reserved":false,"is_disabled":false,"rental_uris":{"android":"levelo://app?vid=95685763-623c-4a3e-8903-f00a16384f53","ios":"levelo://app?vid=95685763-623c-4a3e-8903-f00a16384f53"},"vehicle_type_id":"4","last_reported":1701554758,"current_range_meters":31200,"station_id":"ce4bhh92rcd13ifvqfh0","pricing_plan_id":"free"},{"bike_id":"fed911af-a46f-45f7-ad61-6e747a39eef0","system_id":"levelo_inurba_marseille","lat":43.269467,"lon":5.386439,"is_reserved":false,"is_disabled":false,"rental_uris":{"android":"levelo://app?vid=fed911af-a46f-45f7-ad61-6e747a39eef0","ios":"levelo://app?vid=fed911af-a46f-45f7-ad61-6e747a39eef0"},"vehicle_type_id":"4","last_reported":1701554758,"current_range_meters":22000,"station_id":"ce4bhh92rcd13ifvqfh0","pricing_plan_id":"free"},{"bike_id":"0c118ff4-2a38-4233-b9c3-18777831970a","system_id":"levelo_inurba_marseille","lat":43.269467,"lon":5.386439,"is_reserved":false,"is_disabled":false,"rental_uris":{"android":"levelo://app?vid=0c118ff4-2a38-4233-b9c3-18777831970a","ios":"levelo://app?vid=0c118ff4-2a38-4233-b9c3-18777831970a"},"vehicle_type_id":"4","last_reported":1701554758,"current_range_meters":30400,"station_id":"ce4bhh92rcd13ifvqfh0","pricing_plan_id":"free"},{"bike_id":"b91442ce-f0be-4f2d-86c0-62b21f9262a9","system_id":"levelo_inurba_marseille","lat":43.279465,"lon":5.410561,"is_reserved":false,"is_disabled":false,"rental_uris":{"android":"levelo://app?vid=b91442ce-f0be-4f2d-86c0-62b21f9262a9","ios":"levelo://app?vid=b91442ce-f0be-4f2d-86c0-62b21f9262a9"},"vehicle_type_id":"4","last_reported":1701554758,"current_range_meters":1200,"station_id":"ce4bhnp2rcd13ifvqh0g","pricing_plan_id":"free"},{"bike_id":"0d153516-293d-4659-b199-d6abfe9637b3","system_id":"levelo_inurba_marseille","lat":43.26681,"lon":5.382694,"is_reserved":false,"is_disabled":false,"rental_uris":{"android":"levelo://app?vid=0d153516-293d-4659-b199-d6abfe9637b3","ios":"levelo://app?vid=0d153516-293d-4659-b199-d6abfe9637b3"},"vehicle_type_id":"4","last_reported":1701554758,"current_range_meters":27200,"station_id":"ce4bhg92rcd13ifvqf90","pricing_plan_id":"free"},{"bike_id":"ddf2d724-f4a7-4ed4-be4b-49fc6457a32f","system_id":"levelo_inurba_marseille","lat":43.265569,"lon":5.390047,"is_reserved":false,"is_disabled":false,"rental_uris":{"android":"levelo://app?vid=ddf2d724-f4a7-4ed4-be4b-49fc6457a32f","ios":"levelo://app?vid=ddf2d724-f4a7-4ed4-be4b-49fc6457a32f"},"vehicle_type_id":"4","last_reported":1701554758,"current_range_meters":23600,"station_id":"ce4bhe12rcd13ifvqf30","pricing_plan_id":"free"},{"bike_id":"71126cf7-7a57-427b-adf8-621f529e3221","system_id":"levelo_inurba_marseille","lat":43.308051,"lon":5.43527,"is_reserved":false,"is_disabled":false,"rental_uris":{"android":"levelo://app?vid=71126cf7-7a57-427b-adf8-621f529e3221","ios":"levelo://app?vid=71126cf7-7a57-427b-adf8-621f529e3221"},"vehicle_type_id":"4","last_reported":1701554758,"current_range_meters":28800,"station_id":"ce4bhph2rcd13ifvqheg","pricing_plan_id":"free"},{"bike_id":"ceb0df1a-9002-4f9c-9927-257beca15367","system_id":"levelo_inurba_marseille","lat":43.317104,"lon":5.436818,"is_reserved":false,"is_disabled":false,"rental_uris":{"android":"levelo://app?vid=ceb0df1a-9002-4f9c-9927-257beca15367","ios":"levelo://app?vid=ceb0df1a-9002-4f9c-9927-257beca15367"},"vehicle_type_id":"4","last_reported":1701554758,"current_range_meters":23600,"station_id":"ce4bhp92rcd13ifvqhcg","pricing_plan_id":"free"},{"bike_id":"ce0426c5-bd60-4adb-b5c2-c0cd86de6500","system_id":"levelo_inurba_marseille","lat":43.26202,"lon":5.379299,"is_reserved":false,"is_disabled":false,"rental_uris":{"android":"levelo://app?vid=ce0426c5-bd60-4adb-b5c2-c0cd86de6500","ios":"levelo://app?vid=ce0426c5-bd60-4adb-b5c2-c0cd86de6500"},"vehicle_type_id":"4","last_reported":1701554758,"current_range_meters":24000,"station_id":"ce4bhjp2rcd13ifvqg90","pricing_plan_id":"free"},{"bike_id":"780cda09-306e-4eef-89f0-55539feeef74","system_id":"levelo_inurba_marseille","lat":43.267959,"lon":5.402687,"is_reserved":false,"is_disabled":false,"rental_uris":{"android":"levelo://app?vid=780cda09-306e-4eef-89f0-55539feeef74","ios":"levelo://app?vid=780cda09-306e-4eef-89f0-55539feeef74"},"vehicle_type_id":"4","last_reported":1701554758,"current_range_meters":28400,"station_id":"ce501612rcd8frsf0b60","pricing_plan_id":"free"},{"bike_id":"17af9e80-8bc8-42cb-91c0-1cc66c74fe88","system_id":"levelo_inurba_marseille","lat":43.2607,"lon":5.393983,"is_reserved":false,"is_disabled":false,"rental_uris":{"android":"levelo://app?vid=17af9e80-8bc8-42cb-91c0-1cc66c74fe88","ios":"levelo://app?vid=17af9e80-8bc8-42cb-91c0-1cc66c74fe88"},"vehicle_type_id":"4","last_reported":1701554758,"current_range_meters":25600,"station_id":"ce4bhh92rcd13ifvqfj0","pricing_plan_id":"free"},{"bike_id":"5dab4bcb-5d0f-40be-b34d-5cf261fa2623","system_id":"levelo_inurba_marseille","lat":43.258224,"lon":5.394369,"is_reserved":false,"is_disabled":false,"rental_uris":{"android":"levelo://app?vid=5dab4bcb-5d0f-40be-b34d-5cf261fa2623","ios":"levelo://app?vid=5dab4bcb-5d0f-40be-b34d-5cf261fa2623"},"vehicle_type_id":"4","last_reported":1701554758,"current_range_meters":16800,"station_id":"ce4bhip2rcd13ifvqft0","pricing_plan_id":"free"},{"bike_id":"36e6f17f-c3db-48f7-86dc-f3b3f3ec3e2f","system_id":"levelo_inurba_marseille","lat":43.258224,"lon":5.394369,"is_reserved":false,"is_disabled":false,"rental_uris":{"android":"levelo://app?vid=36e6f17f-c3db-48f7-86dc-f3b3f3ec3e2f","ios":"levelo://app?vid=36e6f17f-c3db-48f7-86dc-f3b3f3ec3e2f"},"vehicle_type_id":"4","last_reported":1701554758,"current_range_meters":12800,"station_id":"ce4bhip2rcd13ifvqft0","pricing_plan_id":"free"},{"bike_id":"01c556bf-bdc3-4a3f-8fc8-cb4143ee7f9b","system_id":"levelo_inurba_marseille","lat":43.258246,"lon":5.394426,"is_reserved":false,"is_disabled":false,"rental_uris":{"android":"levelo://app?vid=01c556bf-bdc3-4a3f-8fc8-cb4143ee7f9b","ios":"levelo://app?vid=01c556bf-bdc3-4a3f-8fc8-cb4143ee7f9b"},"vehicle_type_id":"4","last_reported":1701554758,"current_range_meters":24400,"station_id":"ce4bhip2rcd13ifvqft0","pricing_plan_id":"free"},{"bike_id":"a7985db2-2f83-4e8d-b031-613d05e1098f","system_id":"levelo_inurba_marseille","lat":43.258224,"lon":5.394369,"is_reserved":false,"is_disabled":false,"rental_uris":{"android":"levelo://app?vid=a7985db2-2f83-4e8d-b031-613d05e1098f","ios":"levelo://app?vid=a7985db2-2f83-4e8d-b031-613d05e1098f"},"vehicle_type_id":"4","last_reported":1701554758,"current_range_meters":12800,"station_id":"ce4bhip2rcd13ifvqft0","pricing_plan_id":"free"},{"bike_id":"d047aa74-57d4-43eb-a591-67c855503a80","system_id":"levelo_inurba_marseille","lat":43.25572,"lon":5.38232,"is_reserved":false,"is_disabled":false,"rental_uris":{"android":"levelo://app?vid=d047aa74-57d4-43eb-a591-67c855503a80","ios":"levelo://app?vid=d047aa74-57d4-43eb-a591-67c855503a80"},"vehicle_type_id":"4","last_reported":1701554758,"current_range_meters":8400,"station_id":"ce4bhih2rcd13ifvqfs0","pricing_plan_id":"free"},{"bike_id":"d83e48ac-2a86-45c4-af3a-74f38c183d44","system_id":"levelo_inurba_marseille","lat":43.258224,"lon":5.394369,"is_reserved":false,"is_disabled":false,"rental_uris":{"android":"levelo://app?vid=d83e48ac-2a86-45c4-af3a-74f38c183d44","ios":"levelo://app?vid=d83e48ac-2a86-45c4-af3a-74f38c183d44"},"vehicle_type_id":"4","last_reported":1701554758,"current_range_meters":29600,"station_id":"ce4bhip2rcd13ifvqft0","pricing_plan_id":"free"},{"bike_id":"32d69f46-cd0c-40db-8591-6e25d6e62845","system_id":"levelo_inurba_marseille","lat":43.245581,"lon":5.395069,"is_reserved":false,"is_disabled":false,"rental_uris":{"android":"levelo://app?vid=32d69f46-cd0c-40db-8591-6e25d6e62845","ios":"levelo://app?vid=32d69f46-cd0c-40db-8591-6e25d6e62845"},"vehicle_type_id":"4","last_reported":1701554758,"current_range_meters":9200,"station_id":"ce4bhlp2rcd13ifvqgjg","pricing_plan_id":"free"},{"bike_id":"bdc72d7c-9d46-4016-8a92-851cd50823f9","system_id":"levelo_inurba_marseille","lat":43.259009,"lon":5.40929,"is_reserved":false,"is_disabled":false,"rental_uris":{"android":"levelo://app?vid=bdc72d7c-9d46-4016-8a92-851cd50823f9","ios":"levelo://app?vid=bdc72d7c-9d46-4016-8a92-851cd50823f9"},"vehicle_type_id":"4","last_reported":1701554758,"current_range_meters":26800,"station_id":"ce4bhm92rcd13ifvqglg","pricing_plan_id":"free"},{"bike_id":"7c9fc43f-cc2e-4461-b2f1-2e0e52f835a8","system_id":"levelo_inurba_marseille","lat":43.2479,"lon":5.374457,"is_reserved":false,"is_disabled":false,"rental_uris":{"android":"levelo://app?vid=7c9fc43f-cc2e-4461-b2f1-2e0e52f835a8","ios":"levelo://app?vid=7c9fc43f-cc2e-4461-b2f1-2e0e52f835a8"},"vehicle_type_id":"4","last_reported":1701554758,"current_range_meters":20000,"station_id":"ce4bhgh2rcd13ifvqfb0","pricing_plan_id":"free"},{"bike_id":"47fe5043-ab51-4fa6-8cb4-f219e62fede6","system_id":"levelo_inurba_marseille","lat":43.2479,"lon":5.374457,"is_reserved":false,"is_disabled":false,"rental_uris":{"android":"levelo://app?vid=47fe5043-ab51-4fa6-8cb4-f219e62fede6","ios":"levelo://app?vid=47fe5043-ab51-4fa6-8cb4-f219e62fede6"},"vehicle_type_id":"4","last_reported":1701554758,"current_range_meters":16800,"station_id":"ce4bhgh2rcd13ifvqfb0","pricing_plan_id":"free"},{"bike_id":"8d7a849d-d75b-49e8-8a06-ba3e35d09f67","system_id":"levelo_inurba_marseille","lat":43.2479,"lon":5.374457,"is_reserved":false,"is_disabled":false,"rental_uris":{"android":"levelo://app?vid=8d7a849d-d75b-49e8-8a06-ba3e35d09f67","ios":"levelo://app?vid=8d7a849d-d75b-49e8-8a06-ba3e35d09f67"},"vehicle_type_id":"4","last_reported":1701554758,"current_range_meters":31200,"station_id":"ce4bhgh2rcd13ifvqfb0","pricing_plan_id":"free"},{"bike_id":"1fe9f4ed-4401-4dfb-a0b7-fa6c7584af6a","system_id":"levelo_inurba_marseille","lat":43.2479,"lon":5.374457,"is_reserved":false,"is_disabled":false,"rental_uris":{"android":"levelo://app?vid=1fe9f4ed-4401-4dfb-a0b7-fa6c7584af6a","ios":"levelo://app?vid=1fe9f4ed-4401-4dfb-a0b7-fa6c7584af6a"},"vehicle_type_id":"4","last_reported":1701554758,"current_range_meters":23600,"station_id":"ce4bhgh2rcd13ifvqfb0","pricing_plan_id":"free"},{"bike_id":"d93d8fe3-dded-4b43-ad44-b17a7bd4f009","system_id":"levelo_inurba_marseille","lat":43.250966,"lon":5.395186,"is_reserved":false,"is_disabled":false,"rental_uris":{"android":"levelo://app?vid=d93d8fe3-dded-4b43-ad44-b17a7bd4f009","ios":"levelo://app?vid=d93d8fe3-dded-4b43-ad44-b17a7bd4f009"},"vehicle_type_id":"4","last_reported":1701554758,"current_range_meters":28400,"station_id":"ce4bhm12rcd13ifvqgkg","pricing_plan_id":"free"},{"bike_id":"95654d96-f5a8-4bc4-8912-51a33939e6bd","system_id":"levelo_inurba_marseille","lat":43.246709,"lon":5.381667,"is_reserved":false,"is_disabled":false,"rental_uris":{"android":"levelo://app?vid=95654d96-f5a8-4bc4-8912-51a33939e6bd","ios":"levelo://app?vid=95654d96-f5a8-4bc4-8912-51a33939e6bd"},"vehicle_type_id":"4","last_reported":1701554758,"current_range_meters":0,"station_id":"ce4bhih2rcd13ifvqfr0","pricing_plan_id":"free"},{"bike_id":"1db4b048-a96f-48ec-932f-c0420cc0ac9d","system_id":"levelo_inurba_marseille","lat":43.24693,"lon":5.382096,"is_reserved":false,"is_disabled":false,"rental_uris":{"android":"levelo://app?vid=1db4b048-a96f-48ec-932f-c0420cc0ac9d","ios":"levelo://app?vid=1db4b048-a96f-48ec-932f-c0420cc0ac9d"},"vehicle_type_id":"4","last_reported":1701554758,"current_range_meters":25200,"station_id":"ce4bhih2rcd13ifvqfr0","pricing_plan_id":"free"},{"bike_id":"8c1e3f91-0625-4f6f-ad01-1f5fb2757871","system_id":"levelo_inurba_marseille","lat":43.25102,"lon":5.403214,"is_reserved":false,"is_disabled":false,"rental_uris":{"android":"levelo://app?vid=8c1e3f91-0625-4f6f-ad01-1f5fb2757871","ios":"levelo://app?vid=8c1e3f91-0625-4f6f-ad01-1f5fb2757871"},"vehicle_type_id":"4","last_reported":1701554758,"current_range_meters":31600,"station_id":"ce4bhlh2rcd13ifvqgig","pricing_plan_id":"free"},{"bike_id":"c484c5f8-5e91-4f32-bf0b-d6e76a40fbb6","system_id":"levelo_inurba_marseille","lat":43.25102,"lon":5.403214,"is_reserved":false,"is_disabled":false,"rental_uris":{"android":"levelo://app?vid=c484c5f8-5e91-4f32-bf0b-d6e76a40fbb6","ios":"levelo://app?vid=c484c5f8-5e91-4f32-bf0b-d6e76a40fbb6"},"vehicle_type_id":"4","last_reported":1701554758,"current_range_meters":10400,"station_id":"ce4bhlh2rcd13ifvqgig","pricing_plan_id":"free"},{"bike_id":"742b5615-2fb1-41c8-839a-fa618f1ca547","system_id":"levelo_inurba_marseille","lat":43.25102,"lon":5.403214,"is_reserved":false,"is_disabled":false,"rental_uris":{"android":"levelo://app?vid=742b5615-2fb1-41c8-839a-fa618f1ca547","ios":"levelo://app?vid=742b5615-2fb1-41c8-839a-fa618f1ca547"},"vehicle_type_id":"4","last_reported":1701554758,"current_range_meters":24400,"station_id":"ce4bhlh2rcd13ifvqgig","pricing_plan_id":"free"},{"bike_id":"8276e25f-a6c0-45fb-89d1-35701f2a138a","system_id":"levelo_inurba_marseille","lat":43.2511,"lon":5.4033,"is_reserved":false,"is_disabled":false,"rental_uris":{"android":"levelo://app?vid=8276e25f-a6c0-45fb-89d1-35701f2a138a","ios":"levelo://app?vid=8276e25f-a6c0-45fb-89d1-35701f2a138a"},"vehicle_type_id":"4","last_reported":1701554758,"current_range_meters":2000,"station_id":"ce4bhlh2rcd13ifvqgig","pricing_plan_id":"free"},{"bike_id":"79d1a94e-d862-4da3-9e80-e5b5f22f7cf8","system_id":"levelo_inurba_marseille","lat":43.25102,"lon":5.403214,"is_reserved":false,"is_disabled":false,"rental_uris":{"android":"levelo://app?vid=79d1a94e-d862-4da3-9e80-e5b5f22f7cf8","ios":"levelo://app?vid=79d1a94e-d862-4da3-9e80-e5b5f22f7cf8"},"vehicle_type_id":"4","last_reported":1701554758,"current_range_meters":28400,"station_id":"ce4bhlh2rcd13ifvqgig","pricing_plan_id":"free"},{"bike_id":"6a6ba7c4-bed2-4d44-8057-629bfe240ab1","system_id":"levelo_inurba_marseille","lat":43.25101,"lon":5.40332,"is_reserved":false,"is_disabled":false,"rental_uris":{"android":"levelo://app?vid=6a6ba7c4-bed2-4d44-8057-629bfe240ab1","ios":"levelo://app?vid=6a6ba7c4-bed2-4d44-8057-629bfe240ab1"},"vehicle_type_id":"4","last_reported":1701554758,"current_range_meters":1600,"station_id":"ce4bhlh2rcd13ifvqgig","pricing_plan_id":"free"},{"bike_id":"61a9e6b0-f435-4470-83bd-a67a85c1a979","system_id":"levelo_inurba_marseille","lat":43.243884,"lon":5.370736,"is_reserved":false,"is_disabled":false,"rental_uris":{"android":"levelo://app?vid=61a9e6b0-f435-4470-83bd-a67a85c1a979","ios":"levelo://app?vid=61a9e6b0-f435-4470-83bd-a67a85c1a979"},"vehicle_type_id":"4","last_reported":1701554758,"current_range_meters":30400,"station_id":"ce4bhhh2rcd13ifvqfk0","pricing_plan_id":"free"},{"bike_id":"71299d16-81ab-49ca-856a-a6e10d7b4431","system_id":"levelo_inurba_marseille","lat":43.243884,"lon":5.370737,"is_reserved":false,"is_disabled":false,"rental_uris":{"android":"levelo://app?vid=71299d16-81ab-49ca-856a-a6e10d7b4431","ios":"levelo://app?vid=71299d16-81ab-49ca-856a-a6e10d7b4431"},"vehicle_type_id":"4","last_reported":1701554758,"current_range_meters":4000,"station_id":"ce4bhhh2rcd13ifvqfk0","pricing_plan_id":"free"},{"bike_id":"c29c45d8-3131-422e-ad7a-ae98bfb7040a","system_id":"levelo_inurba_marseille","lat":43.243884,"lon":5.370736,"is_reserved":false,"is_disabled":false,"rental_uris":{"android":"levelo://app?vid=c29c45d8-3131-422e-ad7a-ae98bfb7040a","ios":"levelo://app?vid=c29c45d8-3131-422e-ad7a-ae98bfb7040a"},"vehicle_type_id":"4","last_reported":1701554758,"current_range_meters":28800,"station_id":"ce4bhhh2rcd13ifvqfk0","pricing_plan_id":"free"},{"bike_id":"906eb523-6642-4f1f-bea7-1d9c586e77f4","system_id":"levelo_inurba_marseille","lat":43.243884,"lon":5.370737,"is_reserved":false,"is_disabled":false,"rental_uris":{"android":"levelo://app?vid=906eb523-6642-4f1f-bea7-1d9c586e77f4","ios":"levelo://app?vid=906eb523-6642-4f1f-bea7-1d9c586e77f4"},"vehicle_type_id":"4","last_reported":1701554758,"current_range_meters":11600,"station_id":"ce4bhhh2rcd13ifvqfk0","pricing_plan_id":"free"},{"bike_id":"d01d6e75-71cc-424f-abc9-83946ce074e9","system_id":"levelo_inurba_marseille","lat":43.245581,"lon":5.395069,"is_reserved":false,"is_disabled":false,"rental_uris":{"android":"levelo://app?vid=d01d6e75-71cc-424f-abc9-83946ce074e9","ios":"levelo://app?vid=d01d6e75-71cc-424f-abc9-83946ce074e9"},"vehicle_type_id":"4","last_reported":1701554758,"current_range_meters":30800,"station_id":"ce4bhlp2rcd13ifvqgjg","pricing_plan_id":"free"},{"bike_id":"f65969f9-9d83-4f41-8c87-43edf296578f","system_id":"levelo_inurba_marseille","lat":43.245581,"lon":5.395069,"is_reserved":false,"is_disabled":false,"rental_uris":{"android":"levelo://app?vid=f65969f9-9d83-4f41-8c87-43edf296578f","ios":"levelo://app?vid=f65969f9-9d83-4f41-8c87-43edf296578f"},"vehicle_type_id":"4","last_reported":1701554758,"current_range_meters":26000,"station_id":"ce4bhlp2rcd13ifvqgjg","pricing_plan_id":"free"},{"bike_id":"00a1dec1-70c9-4d75-874e-755df7c08474","system_id":"levelo_inurba_marseille","lat":43.24073,"lon":5.37759,"is_reserved":false,"is_disabled":false,"rental_uris":{"android":"levelo://app?vid=00a1dec1-70c9-4d75-874e-755df7c08474","ios":"levelo://app?vid=00a1dec1-70c9-4d75-874e-755df7c08474"},"vehicle_type_id":"4","last_reported":1701554758,"current_range_meters":21600,"station_id":"ce4bhnp2rcd13ifvqgvg","pricing_plan_id":"free"},{"bike_id":"cce30bc0-7fa8-4744-9bb8-09df70b6b355","system_id":"levelo_inurba_marseille","lat":43.240623,"lon":5.377642,"is_reserved":false,"is_disabled":false,"rental_uris":{"android":"levelo://app?vid=cce30bc0-7fa8-4744-9bb8-09df70b6b355","ios":"levelo://app?vid=cce30bc0-7fa8-4744-9bb8-09df70b6b355"},"vehicle_type_id":"4","last_reported":1701554758,"current_range_meters":14800,"station_id":"ce4bhnp2rcd13ifvqgvg","pricing_plan_id":"free"},{"bike_id":"ab87b4a6-1e27-4855-87f3-d3b9bed60c12","system_id":"levelo_inurba_marseille","lat":43.240623,"lon":5.377642,"is_reserved":false,"is_disabled":false,"rental_uris":{"android":"levelo://app?vid=ab87b4a6-1e27-4855-87f3-d3b9bed60c12","ios":"levelo://app?vid=ab87b4a6-1e27-4855-87f3-d3b9bed60c12"},"vehicle_type_id":"4","last_reported":1701554758,"current_range_meters":12800,"station_id":"ce4bhnp2rcd13ifvqgvg","pricing_plan_id":"free"},{"bike_id":"43e8baa3-fb38-442e-a4b7-873c182979e8","system_id":"levelo_inurba_marseille","lat":43.240623,"lon":5.377642,"is_reserved":false,"is_disabled":false,"rental_uris":{"android":"levelo://app?vid=43e8baa3-fb38-442e-a4b7-873c182979e8","ios":"levelo://app?vid=43e8baa3-fb38-442e-a4b7-873c182979e8"},"vehicle_type_id":"4","last_reported":1701554758,"current_range_meters":18000,"station_id":"ce4bhnp2rcd13ifvqgvg","pricing_plan_id":"free"},{"bike_id":"6fe4e7e3-a04b-4a0e-b30e-50edec3f23b9","system_id":"levelo_inurba_marseille","lat":43.239588,"lon":5.366238,"is_reserved":false,"is_disabled":false,"rental_uris":{"android":"levelo://app?vid=6fe4e7e3-a04b-4a0e-b30e-50edec3f23b9","ios":"levelo://app?vid=6fe4e7e3-a04b-4a0e-b30e-50edec3f23b9"},"vehicle_type_id":"4","last_reported":1701554758,"current_range_meters":1600,"station_id":"ce4bhi12rcd13ifvqfp0","pricing_plan_id":"free"},{"bike_id":"b101f295-ac85-402a-8afe-c635c176f114","system_id":"levelo_inurba_marseille","lat":43.285296,"lon":5.46053,"is_reserved":false,"is_disabled":false,"rental_uris":{"android":"levelo://app?vid=b101f295-ac85-402a-8afe-c635c176f114","ios":"levelo://app?vid=b101f295-ac85-402a-8afe-c635c176f114"},"vehicle_type_id":"4","last_reported":1701554758,"current_range_meters":22000,"station_id":"","pricing_plan_id":"free"},{"bike_id":"384a17af-27e8-4164-b8c0-d8b51c5b0eac","system_id":"levelo_inurba_marseille","lat":43.231923,"lon":5.355545,"is_reserved":false,"is_disabled":false,"rental_uris":{"android":"levelo://app?vid=384a17af-27e8-4164-b8c0-d8b51c5b0eac","ios":"levelo://app?vid=384a17af-27e8-4164-b8c0-d8b51c5b0eac"},"vehicle_type_id":"4","last_reported":1701554758,"current_range_meters":10400,"station_id":"ce4bhu92rcd13ifvqi70","pricing_plan_id":"free"},{"bike_id":"2be3c405-8f91-4ed6-a9c6-0bdfea6feb80","system_id":"levelo_inurba_marseille","lat":43.23201,"lon":5.35552,"is_reserved":false,"is_disabled":false,"rental_uris":{"android":"levelo://app?vid=2be3c405-8f91-4ed6-a9c6-0bdfea6feb80","ios":"levelo://app?vid=2be3c405-8f91-4ed6-a9c6-0bdfea6feb80"},"vehicle_type_id":"4","last_reported":1701554758,"current_range_meters":8000,"station_id":"ce4bhu92rcd13ifvqi70","pricing_plan_id":"free"},{"bike_id":"df76bb33-a4ef-4a36-a72d-84c57504fc7a","system_id":"levelo_inurba_marseille","lat":43.23201,"lon":5.35549,"is_reserved":false,"is_disabled":false,"rental_uris":{"android":"levelo://app?vid=df76bb33-a4ef-4a36-a72d-84c57504fc7a","ios":"levelo://app?vid=df76bb33-a4ef-4a36-a72d-84c57504fc7a"},"vehicle_type_id":"4","last_reported":1701554758,"current_range_meters":31200,"station_id":"ce4bhu92rcd13ifvqi70","pricing_plan_id":"free"},{"bike_id":"6573cb36-3c40-4042-8b0f-1356381ee019","system_id":"levelo_inurba_marseille","lat":43.231923,"lon":5.355545,"is_reserved":false,"is_disabled":false,"rental_uris":{"android":"levelo://app?vid=6573cb36-3c40-4042-8b0f-1356381ee019","ios":"levelo://app?vid=6573cb36-3c40-4042-8b0f-1356381ee019"},"vehicle_type_id":"4","last_reported":1701554758,"current_range_meters":31200,"station_id":"ce4bhu92rcd13ifvqi70","pricing_plan_id":"free"},{"bike_id":"4506c45e-2d09-462d-97b5-d051c36d1044","system_id":"levelo_inurba_marseille","lat":43.231919,"lon":5.355532,"is_reserved":false,"is_disabled":false,"rental_uris":{"android":"levelo://app?vid=4506c45e-2d09-462d-97b5-d051c36d1044","ios":"levelo://app?vid=4506c45e-2d09-462d-97b5-d051c36d1044"},"vehicle_type_id":"4","last_reported":1701554758,"current_range_meters":30400,"station_id":"ce4bhu92rcd13ifvqi70","pricing_plan_id":"free"},{"bike_id":"90a66033-92d6-4ce5-9800-5d20674c66dd","system_id":"levelo_inurba_marseille","lat":43.231952,"lon":5.355438,"is_reserved":false,"is_disabled":false,"rental_uris":{"android":"levelo://app?vid=90a66033-92d6-4ce5-9800-5d20674c66dd","ios":"levelo://app?vid=90a66033-92d6-4ce5-9800-5d20674c66dd"},"vehicle_type_id":"4","last_reported":1701554758,"current_range_meters":31200,"station_id":"ce4bhu92rcd13ifvqi70","pricing_plan_id":"free"},{"bike_id":"4dae0f2e-3beb-46e8-877b-0143e05c3e8e","system_id":"levelo_inurba_marseille","lat":43.231919,"lon":5.355532,"is_reserved":false,"is_disabled":false,"rental_uris":{"android":"levelo://app?vid=4dae0f2e-3beb-46e8-877b-0143e05c3e8e","ios":"levelo://app?vid=4dae0f2e-3beb-46e8-877b-0143e05c3e8e"},"vehicle_type_id":"4","last_reported":1701554758,"current_range_meters":30800,"station_id":"ce4bhu92rcd13ifvqi70","pricing_plan_id":"free"},{"bike_id":"b8f295a9-10f8-4746-b4a0-4491480d1fc4","system_id":"levelo_inurba_marseille","lat":43.231919,"lon":5.355532,"is_reserved":false,"is_disabled":false,"rental_uris":{"android":"levelo://app?vid=b8f295a9-10f8-4746-b4a0-4491480d1fc4","ios":"levelo://app?vid=b8f295a9-10f8-4746-b4a0-4491480d1fc4"},"vehicle_type_id":"4","last_reported":1701554758,"current_range_meters":23200,"station_id":"ce4bhu92rcd13ifvqi70","pricing_plan_id":"free"},{"bike_id":"6382809b-45d0-4ad2-8be7-697249f82077","system_id":"levelo_inurba_marseille","lat":43.231919,"lon":5.355532,"is_reserved":false,"is_disabled":false,"rental_uris":{"android":"levelo://app?vid=6382809b-45d0-4ad2-8be7-697249f82077","ios":"levelo://app?vid=6382809b-45d0-4ad2-8be7-697249f82077"},"vehicle_type_id":"4","last_reported":1701554758,"current_range_meters":31200,"station_id":"ce4bhu92rcd13ifvqi70","pricing_plan_id":"free"},{"bike_id":"cf3102c4-88e0-4a41-86b7-69a76932d3e6","system_id":"levelo_inurba_marseille","lat":43.231923,"lon":5.355545,"is_reserved":false,"is_disabled":false,"rental_uris":{"android":"levelo://app?vid=cf3102c4-88e0-4a41-86b7-69a76932d3e6","ios":"levelo://app?vid=cf3102c4-88e0-4a41-86b7-69a76932d3e6"},"vehicle_type_id":"4","last_reported":1701554758,"current_range_meters":31600,"station_id":"ce4bhu92rcd13ifvqi70","pricing_plan_id":"free"},{"bike_id":"4e176977-ccb9-4a01-b3da-279fd61eadf6","system_id":"levelo_inurba_marseille","lat":43.231919,"lon":5.355532,"is_reserved":false,"is_disabled":false,"rental_uris":{"android":"levelo://app?vid=4e176977-ccb9-4a01-b3da-279fd61eadf6","ios":"levelo://app?vid=4e176977-ccb9-4a01-b3da-279fd61eadf6"},"vehicle_type_id":"4","last_reported":1701554758,"current_range_meters":21200,"station_id":"ce4bhu92rcd13ifvqi70","pricing_plan_id":"free"},{"bike_id":"6041d620-664b-4836-b597-a0e62593a032","system_id":"levelo_inurba_marseille","lat":43.231923,"lon":5.355545,"is_reserved":false,"is_disabled":false,"rental_uris":{"android":"levelo://app?vid=6041d620-664b-4836-b597-a0e62593a032","ios":"levelo://app?vid=6041d620-664b-4836-b597-a0e62593a032"},"vehicle_type_id":"4","last_reported":1701554758,"current_range_meters":31200,"station_id":"ce4bhu92rcd13ifvqi70","pricing_plan_id":"free"},{"bike_id":"9e01ee59-41e6-425c-ae1f-3e33312fefcd","system_id":"levelo_inurba_marseille","lat":43.231923,"lon":5.355545,"is_reserved":false,"is_disabled":false,"rental_uris":{"android":"levelo://app?vid=9e01ee59-41e6-425c-ae1f-3e33312fefcd","ios":"levelo://app?vid=9e01ee59-41e6-425c-ae1f-3e33312fefcd"},"vehicle_type_id":"4","last_reported":1701554758,"current_range_meters":19200,"station_id":"ce4bhu92rcd13ifvqi70","pricing_plan_id":"free"},{"bike_id":"6462fbc5-ceb8-47e3-b56d-fc1e69bef19f","system_id":"levelo_inurba_marseille","lat":43.231919,"lon":5.355532,"is_reserved":false,"is_disabled":false,"rental_uris":{"android":"levelo://app?vid=6462fbc5-ceb8-47e3-b56d-fc1e69bef19f","ios":"levelo://app?vid=6462fbc5-ceb8-47e3-b56d-fc1e69bef19f"},"vehicle_type_id":"4","last_reported":1701554758,"current_range_meters":28400,"station_id":"ce4bhu92rcd13ifvqi70","pricing_plan_id":"free"},{"bike_id":"2b04708e-eed8-4471-916a-9fdeea01eec7","system_id":"levelo_inurba_marseille","lat":43.231923,"lon":5.355545,"is_reserved":false,"is_disabled":false,"rental_uris":{"android":"levelo://app?vid=2b04708e-eed8-4471-916a-9fdeea01eec7","ios":"levelo://app?vid=2b04708e-eed8-4471-916a-9fdeea01eec7"},"vehicle_type_id":"4","last_reported":1701554758,"current_range_meters":15200,"station_id":"ce4bhu92rcd13ifvqi70","pricing_plan_id":"free"},{"bike_id":"cb3c5614-5a37-4ab8-a51e-8b81ebb4f897","system_id":"levelo_inurba_marseille","lat":43.231919,"lon":5.355532,"is_reserved":false,"is_disabled":false,"rental_uris":{"android":"levelo://app?vid=cb3c5614-5a37-4ab8-a51e-8b81ebb4f897","ios":"levelo://app?vid=cb3c5614-5a37-4ab8-a51e-8b81ebb4f897"},"vehicle_type_id":"4","last_reported":1701554758,"current_range_meters":15200,"station_id":"ce4bhu92rcd13ifvqi70","pricing_plan_id":"free"},{"bike_id":"177a82e2-68da-4975-a68b-b32649f3d1f2","system_id":"levelo_inurba_marseille","lat":43.231923,"lon":5.355545,"is_reserved":false,"is_disabled":false,"rental_uris":{"android":"levelo://app?vid=177a82e2-68da-4975-a68b-b32649f3d1f2","ios":"levelo://app?vid=177a82e2-68da-4975-a68b-b32649f3d1f2"},"vehicle_type_id":"4","last_reported":1701554758,"current_range_meters":12400,"station_id":"ce4bhu92rcd13ifvqi70","pricing_plan_id":"free"},{"bike_id":"e1e0ee00-25b6-4b3e-9528-4dc4d90295d8","system_id":"levelo_inurba_marseille","lat":43.231923,"lon":5.355545,"is_reserved":false,"is_disabled":false,"rental_uris":{"android":"levelo://app?vid=e1e0ee00-25b6-4b3e-9528-4dc4d90295d8","ios":"levelo://app?vid=e1e0ee00-25b6-4b3e-9528-4dc4d90295d8"},"vehicle_type_id":"4","last_reported":1701554758,"current_range_meters":8400,"station_id":"ce4bhu92rcd13ifvqi70","pricing_plan_id":"free"},{"bike_id":"6bd9f065-50d9-4657-9ca0-a006f413d305","system_id":"levelo_inurba_marseille","lat":43.231794,"lon":5.400052,"is_reserved":false,"is_disabled":false,"rental_uris":{"android":"levelo://app?vid=6bd9f065-50d9-4657-9ca0-a006f413d305","ios":"levelo://app?vid=6bd9f065-50d9-4657-9ca0-a006f413d305"},"vehicle_type_id":"4","last_reported":1701554758,"current_range_meters":31600,"station_id":"ce4bhn12rcd13ifvqgqg","pricing_plan_id":"free"},{"bike_id":"a926f4bb-1e59-4822-80ea-1d5ff6f2a5c5","system_id":"levelo_inurba_marseille","lat":43.23188,"lon":5.399828,"is_reserved":false,"is_disabled":false,"rental_uris":{"android":"levelo://app?vid=a926f4bb-1e59-4822-80ea-1d5ff6f2a5c5","ios":"levelo://app?vid=a926f4bb-1e59-4822-80ea-1d5ff6f2a5c5"},"vehicle_type_id":"4","last_reported":1701554758,"current_range_meters":17600,"station_id":"ce4bhn12rcd13ifvqgqg","pricing_plan_id":"free"},{"bike_id":"b2dc27fe-d3dd-4dd0-b015-108c88d15d4b","system_id":"levelo_inurba_marseille","lat":43.2319,"lon":5.399937,"is_reserved":false,"is_disabled":false,"rental_uris":{"android":"levelo://app?vid=b2dc27fe-d3dd-4dd0-b015-108c88d15d4b","ios":"levelo://app?vid=b2dc27fe-d3dd-4dd0-b015-108c88d15d4b"},"vehicle_type_id":"4","last_reported":1701554758,"current_range_meters":14000,"station_id":"ce4bhn12rcd13ifvqgqg","pricing_plan_id":"free"},{"bike_id":"d0b35396-6769-42d4-8160-8b44cb829902","system_id":"levelo_inurba_marseille","lat":43.231877,"lon":5.399865,"is_reserved":false,"is_disabled":false,"rental_uris":{"android":"levelo://app?vid=d0b35396-6769-42d4-8160-8b44cb829902","ios":"levelo://app?vid=d0b35396-6769-42d4-8160-8b44cb829902"},"vehicle_type_id":"4","last_reported":1701554758,"current_range_meters":30400,"station_id":"ce4bhn12rcd13ifvqgqg","pricing_plan_id":"free"},{"bike_id":"6c2dc1c9-372c-445d-814a-4d69ce499bdb","system_id":"levelo_inurba_marseille","lat":43.23187,"lon":5.39988,"is_reserved":false,"is_disabled":false,"rental_uris":{"android":"levelo://app?vid=6c2dc1c9-372c-445d-814a-4d69ce499bdb","ios":"levelo://app?vid=6c2dc1c9-372c-445d-814a-4d69ce499bdb"},"vehicle_type_id":"4","last_reported":1701554758,"current_range_meters":0,"station_id":"ce4bhn12rcd13ifvqgqg","pricing_plan_id":"free"},{"bike_id":"22bd98e3-c33f-4c44-ae2b-f96729d36f4f","system_id":"levelo_inurba_marseille","lat":43.231793,"lon":5.400044,"is_reserved":false,"is_disabled":false,"rental_uris":{"android":"levelo://app?vid=22bd98e3-c33f-4c44-ae2b-f96729d36f4f","ios":"levelo://app?vid=22bd98e3-c33f-4c44-ae2b-f96729d36f4f"},"vehicle_type_id":"4","last_reported":1701554758,"current_range_meters":30400,"station_id":"ce4bhn12rcd13ifvqgqg","pricing_plan_id":"free"},{"bike_id":"83862a0a-d647-45eb-9884-693fce6366ab","system_id":"levelo_inurba_marseille","lat":43.23186,"lon":5.399862,"is_reserved":false,"is_disabled":false,"rental_uris":{"android":"levelo://app?vid=83862a0a-d647-45eb-9884-693fce6366ab","ios":"levelo://app?vid=83862a0a-d647-45eb-9884-693fce6366ab"},"vehicle_type_id":"4","last_reported":1701554758,"current_range_meters":17200,"station_id":"ce4bhn12rcd13ifvqgqg","pricing_plan_id":"free"},{"bike_id":"3ca2546c-f9ed-464d-b941-53a82f5e8048","system_id":"levelo_inurba_marseille","lat":43.231794,"lon":5.400052,"is_reserved":false,"is_disabled":false,"rental_uris":{"android":"levelo://app?vid=3ca2546c-f9ed-464d-b941-53a82f5e8048","ios":"levelo://app?vid=3ca2546c-f9ed-464d-b941-53a82f5e8048"},"vehicle_type_id":"4","last_reported":1701554758,"current_range_meters":12400,"station_id":"ce4bhn12rcd13ifvqgqg","pricing_plan_id":"free"},{"bike_id":"77b1a551-da7f-429a-980e-bfc6767a5958","system_id":"levelo_inurba_marseille","lat":43.231794,"lon":5.400052,"is_reserved":false,"is_disabled":false,"rental_uris":{"android":"levelo://app?vid=77b1a551-da7f-429a-980e-bfc6767a5958","ios":"levelo://app?vid=77b1a551-da7f-429a-980e-bfc6767a5958"},"vehicle_type_id":"4","last_reported":1701554758,"current_range_meters":31600,"station_id":"ce4bhn12rcd13ifvqgqg","pricing_plan_id":"free"},{"bike_id":"27852c29-47dc-4826-817e-c88bd3a0386e","system_id":"levelo_inurba_marseille","lat":43.23184,"lon":5.39993,"is_reserved":false,"is_disabled":false,"rental_uris":{"android":"levelo://app?vid=27852c29-47dc-4826-817e-c88bd3a0386e","ios":"levelo://app?vid=27852c29-47dc-4826-817e-c88bd3a0386e"},"vehicle_type_id":"4","last_reported":1701554758,"current_range_meters":21200,"station_id":"ce4bhn12rcd13ifvqgqg","pricing_plan_id":"free"},{"bike_id":"88cf855f-bb31-40e0-8afc-686df3c193ab","system_id":"levelo_inurba_marseille","lat":43.231794,"lon":5.400052,"is_reserved":false,"is_disabled":false,"rental_uris":{"android":"levelo://app?vid=88cf855f-bb31-40e0-8afc-686df3c193ab","ios":"levelo://app?vid=88cf855f-bb31-40e0-8afc-686df3c193ab"},"vehicle_type_id":"4","last_reported":1701554758,"current_range_meters":28800,"station_id":"ce4bhn12rcd13ifvqgqg","pricing_plan_id":"free"},{"bike_id":"e47e98e0-4256-4c41-ae86-e531a41b9213","system_id":"levelo_inurba_marseille","lat":43.231794,"lon":5.400052,"is_reserved":false,"is_disabled":false,"rental_uris":{"android":"levelo://app?vid=e47e98e0-4256-4c41-ae86-e531a41b9213","ios":"levelo://app?vid=e47e98e0-4256-4c41-ae86-e531a41b9213"},"vehicle_type_id":"4","last_reported":1701554758,"current_range_meters":31600,"station_id":"ce4bhn12rcd13ifvqgqg","pricing_plan_id":"free"},{"bike_id":"4ee99995-f63f-4ddb-ac4b-88a5ee23324c","system_id":"levelo_inurba_marseille","lat":43.231794,"lon":5.400052,"is_reserved":false,"is_disabled":false,"rental_uris":{"android":"levelo://app?vid=4ee99995-f63f-4ddb-ac4b-88a5ee23324c","ios":"levelo://app?vid=4ee99995-f63f-4ddb-ac4b-88a5ee23324c"},"vehicle_type_id":"4","last_reported":1701554758,"current_range_meters":16400,"station_id":"ce4bhn12rcd13ifvqgqg","pricing_plan_id":"free"},{"bike_id":"ddecb7a7-8295-4a56-96b7-ae63ab6d05c4","system_id":"levelo_inurba_marseille","lat":43.231794,"lon":5.400052,"is_reserved":false,"is_disabled":false,"rental_uris":{"android":"levelo://app?vid=ddecb7a7-8295-4a56-96b7-ae63ab6d05c4","ios":"levelo://app?vid=ddecb7a7-8295-4a56-96b7-ae63ab6d05c4"},"vehicle_type_id":"4","last_reported":1701554758,"current_range_meters":22400,"station_id":"ce4bhn12rcd13ifvqgqg","pricing_plan_id":"free"},{"bike_id":"457c552c-8af5-4b7b-9f6b-8c901265a623","system_id":"levelo_inurba_marseille","lat":43.231799,"lon":5.399929,"is_reserved":false,"is_disabled":false,"rental_uris":{"android":"levelo://app?vid=457c552c-8af5-4b7b-9f6b-8c901265a623","ios":"levelo://app?vid=457c552c-8af5-4b7b-9f6b-8c901265a623"},"vehicle_type_id":"4","last_reported":1701554758,"current_range_meters":30400,"station_id":"ce4bhn12rcd13ifvqgqg","pricing_plan_id":"free"},{"bike_id":"cbdd057e-fe24-488c-9d67-9b0a90dfa6d5","system_id":"levelo_inurba_marseille","lat":43.23152,"lon":5.43717,"is_reserved":false,"is_disabled":false,"rental_uris":{"android":"levelo://app?vid=cbdd057e-fe24-488c-9d67-9b0a90dfa6d5","ios":"levelo://app?vid=cbdd057e-fe24-488c-9d67-9b0a90dfa6d5"},"vehicle_type_id":"4","last_reported":1701554758,"current_range_meters":17600,"station_id":"ce4bhmp2rcd13ifvqgog","pricing_plan_id":"free"}]}}