{"last_updated":1776894072,"ttl":60,"version":"2.2","data":{"bikes":[{"bike_id":"f8e1cd02-da4d-4a7f-bcfb-b42894678e64","system_id":"levelo_inurba_marseille","lat":43.25072,"lon":5.39556,"is_reserved":false,"is_disabled":false,"rental_uris":{"android":"levelo://app?vid=f8e1cd02-da4d-4a7f-bcfb-b42894678e64","ios":"levelo://app?vid=f8e1cd02-da4d-4a7f-bcfb-b42894678e64"},"vehicle_type_id":"4","last_reported":1776894073,"current_range_meters":1600,"station_id":"ce4bhm12rcd13ifvqgkg","pricing_plan_id":"cebpf4jnsgd1na2vs0mg"},{"bike_id":"dbed19dc-71b0-45e3-9a51-0f4e1f79402f","system_id":"levelo_inurba_marseille","lat":43.37273,"lon":5.35592,"is_reserved":false,"is_disabled":false,"rental_uris":{"android":"levelo://app?vid=dbed19dc-71b0-45e3-9a51-0f4e1f79402f","ios":"levelo://app?vid=dbed19dc-71b0-45e3-9a51-0f4e1f79402f"},"vehicle_type_id":"4","last_reported":1776894073,"current_range_meters":2800,"station_id":"","pricing_plan_id":"cebpf4jnsgd1na2vs0mg"},{"bike_id":"53398df8-835b-4ed2-bf08-039bd71fda25","system_id":"levelo_inurba_marseille","lat":43.25928,"lon":5.38592,"is_reserved":false,"is_disabled":false,"rental_uris":{"android":"levelo://app?vid=53398df8-835b-4ed2-bf08-039bd71fda25","ios":"levelo://app?vid=53398df8-835b-4ed2-bf08-039bd71fda25"},"vehicle_type_id":"4","last_reported":1776894073,"current_range_meters":3200,"station_id":"","pricing_plan_id":"cebpf4jnsgd1na2vs0mg"},{"bike_id":"9080fb2b-98cd-4e10-893b-0fc25eafaa82","system_id":"levelo_inurba_marseille","lat":43.30261,"lon":5.40075,"is_reserved":false,"is_disabled":false,"rental_uris":{"android":"levelo://app?vid=9080fb2b-98cd-4e10-893b-0fc25eafaa82","ios":"levelo://app?vid=9080fb2b-98cd-4e10-893b-0fc25eafaa82"},"vehicle_type_id":"4","last_reported":1776894073,"current_range_meters":3200,"station_id":"ce4bgvh2rcd13ifvqcs0","pricing_plan_id":"cebpf4jnsgd1na2vs0mg"},{"bike_id":"a0594a16-affc-43a9-82be-ab451c5e0cb1","system_id":"levelo_inurba_marseille","lat":43.307902,"lon":5.381719,"is_reserved":false,"is_disabled":false,"rental_uris":{"android":"levelo://app?vid=a0594a16-affc-43a9-82be-ab451c5e0cb1","ios":"levelo://app?vid=a0594a16-affc-43a9-82be-ab451c5e0cb1"},"vehicle_type_id":"4","last_reported":1776894073,"current_range_meters":3200,"station_id":"ce4bgt12rcd13ifvqce0","pricing_plan_id":"cebpf4jnsgd1na2vs0mg"},{"bike_id":"1327f68a-39d3-4c4a-a6ac-9fb12ab8c19a","system_id":"levelo_inurba_marseille","lat":43.31729,"lon":5.39042,"is_reserved":false,"is_disabled":false,"rental_uris":{"android":"levelo://app?vid=1327f68a-39d3-4c4a-a6ac-9fb12ab8c19a","ios":"levelo://app?vid=1327f68a-39d3-4c4a-a6ac-9fb12ab8c19a"},"vehicle_type_id":"4","last_reported":1776894073,"current_range_meters":3200,"station_id":"ce4bhqp2rcd13ifvqhng","pricing_plan_id":"cebpf4jnsgd1na2vs0mg"},{"bike_id":"b8ecd6af-cc0a-4926-b9cc-37652d45b66d","system_id":"levelo_inurba_marseille","lat":43.26351,"lon":5.41056,"is_reserved":false,"is_disabled":false,"rental_uris":{"android":"levelo://app?vid=b8ecd6af-cc0a-4926-b9cc-37652d45b66d","ios":"levelo://app?vid=b8ecd6af-cc0a-4926-b9cc-37652d45b66d"},"vehicle_type_id":"4","last_reported":1776894073,"current_range_meters":3200,"station_id":"st_d4e5ca6na9uc73bfl5fg","pricing_plan_id":"cebpf4jnsgd1na2vs0mg"},{"bike_id":"2b73fbdf-7127-4242-a167-3b8dbfe26e87","system_id":"levelo_inurba_marseille","lat":43.29308,"lon":5.37196,"is_reserved":false,"is_disabled":true,"rental_uris":{"android":"levelo://app?vid=2b73fbdf-7127-4242-a167-3b8dbfe26e87","ios":"levelo://app?vid=2b73fbdf-7127-4242-a167-3b8dbfe26e87"},"vehicle_type_id":"4","last_reported":1776894073,"current_range_meters":3600,"station_id":"ce4bgh92rcd13ifvqb40","pricing_plan_id":"cebpf4jnsgd1na2vs0mg"},{"bike_id":"f6009fb3-303c-4a18-9cd2-028c9b1f3d4d","system_id":"levelo_inurba_marseille","lat":43.28154,"lon":5.42645,"is_reserved":false,"is_disabled":false,"rental_uris":{"android":"levelo://app?vid=f6009fb3-303c-4a18-9cd2-028c9b1f3d4d","ios":"levelo://app?vid=f6009fb3-303c-4a18-9cd2-028c9b1f3d4d"},"vehicle_type_id":"4","last_reported":1776894073,"current_range_meters":3600,"station_id":"ce4bhnh2rcd13ifvqgug","pricing_plan_id":"cebpf4jnsgd1na2vs0mg"},{"bike_id":"5c6ed8ab-106b-4aa8-a0c8-3d24c1ac51ec","system_id":"levelo_inurba_marseille","lat":43.28726,"lon":5.36086,"is_reserved":false,"is_disabled":false,"rental_uris":{"android":"levelo://app?vid=5c6ed8ab-106b-4aa8-a0c8-3d24c1ac51ec","ios":"levelo://app?vid=5c6ed8ab-106b-4aa8-a0c8-3d24c1ac51ec"},"vehicle_type_id":"4","last_reported":1776894073,"current_range_meters":3600,"station_id":"cki0cbj6b192h4jlfktg","pricing_plan_id":"cebpf4jnsgd1na2vs0mg"},{"bike_id":"0364bba6-ae2f-4903-afe5-44eb14521b92","system_id":"levelo_inurba_marseille","lat":43.2757,"lon":5.38426,"is_reserved":false,"is_disabled":false,"rental_uris":{"android":"levelo://app?vid=0364bba6-ae2f-4903-afe5-44eb14521b92","ios":"levelo://app?vid=0364bba6-ae2f-4903-afe5-44eb14521b92"},"vehicle_type_id":"4","last_reported":1776894073,"current_range_meters":3600,"station_id":"ce4bhh92rcd13ifvqfi0","pricing_plan_id":"cebpf4jnsgd1na2vs0mg"},{"bike_id":"038cd84f-6500-47d3-9545-cc6150fa888a","system_id":"levelo_inurba_marseille","lat":43.274242,"lon":5.39416,"is_reserved":false,"is_disabled":false,"rental_uris":{"android":"levelo://app?vid=038cd84f-6500-47d3-9545-cc6150fa888a","ios":"levelo://app?vid=038cd84f-6500-47d3-9545-cc6150fa888a"},"vehicle_type_id":"4","last_reported":1776894073,"current_range_meters":4000,"station_id":"ce4bhdp2rcd13ifvqf20","pricing_plan_id":"cebpf4jnsgd1na2vs0mg"},{"bike_id":"d9be86bb-6c4e-4c05-bc60-e02431cbb916","system_id":"levelo_inurba_marseille","lat":43.31888,"lon":5.36793,"is_reserved":false,"is_disabled":false,"rental_uris":{"android":"levelo://app?vid=d9be86bb-6c4e-4c05-bc60-e02431cbb916","ios":"levelo://app?vid=d9be86bb-6c4e-4c05-bc60-e02431cbb916"},"vehicle_type_id":"4","last_reported":1776894073,"current_range_meters":4000,"station_id":"st_d6o2h0d0559c73evc1b0","pricing_plan_id":"cebpf4jnsgd1na2vs0mg"},{"bike_id":"0d34b79f-d605-474d-a322-9d1f39ac6576","system_id":"levelo_inurba_marseille","lat":43.309272,"lon":5.401344,"is_reserved":false,"is_disabled":false,"rental_uris":{"android":"levelo://app?vid=0d34b79f-d605-474d-a322-9d1f39ac6576","ios":"levelo://app?vid=0d34b79f-d605-474d-a322-9d1f39ac6576"},"vehicle_type_id":"4","last_reported":1776894073,"current_range_meters":4000,"station_id":"ce4bgvp2rcd13ifvqct0","pricing_plan_id":"cebpf4jnsgd1na2vs0mg"},{"bike_id":"d204400f-8745-41a5-b8f3-30b0d4c8bfb2","system_id":"levelo_inurba_marseille","lat":43.31888,"lon":5.36819,"is_reserved":false,"is_disabled":false,"rental_uris":{"android":"levelo://app?vid=d204400f-8745-41a5-b8f3-30b0d4c8bfb2","ios":"levelo://app?vid=d204400f-8745-41a5-b8f3-30b0d4c8bfb2"},"vehicle_type_id":"4","last_reported":1776894073,"current_range_meters":4000,"station_id":"st_d6o2h0d0559c73evc1b0","pricing_plan_id":"cebpf4jnsgd1na2vs0mg"},{"bike_id":"069f4a65-639b-4661-8c59-423fd490779a","system_id":"levelo_inurba_marseille","lat":43.3118,"lon":5.38721,"is_reserved":false,"is_disabled":false,"rental_uris":{"android":"levelo://app?vid=069f4a65-639b-4661-8c59-423fd490779a","ios":"levelo://app?vid=069f4a65-639b-4661-8c59-423fd490779a"},"vehicle_type_id":"4","last_reported":1776894073,"current_range_meters":4000,"station_id":"ce4bgv12rcd13ifvqcp0","pricing_plan_id":"cebpf4jnsgd1na2vs0mg"},{"bike_id":"2f688e4e-6e35-47e8-a9e9-52061c4c2044","system_id":"levelo_inurba_marseille","lat":43.24708,"lon":5.38198,"is_reserved":false,"is_disabled":false,"rental_uris":{"android":"levelo://app?vid=2f688e4e-6e35-47e8-a9e9-52061c4c2044","ios":"levelo://app?vid=2f688e4e-6e35-47e8-a9e9-52061c4c2044"},"vehicle_type_id":"4","last_reported":1776894073,"current_range_meters":4000,"station_id":"","pricing_plan_id":"cebpf4jnsgd1na2vs0mg"},{"bike_id":"7aea2240-32f9-4c2f-acec-273ffe099474","system_id":"levelo_inurba_marseille","lat":43.24682,"lon":5.38141,"is_reserved":false,"is_disabled":false,"rental_uris":{"android":"levelo://app?vid=7aea2240-32f9-4c2f-acec-273ffe099474","ios":"levelo://app?vid=7aea2240-32f9-4c2f-acec-273ffe099474"},"vehicle_type_id":"4","last_reported":1776894073,"current_range_meters":4400,"station_id":"ce4bhih2rcd13ifvqfr0","pricing_plan_id":"cebpf4jnsgd1na2vs0mg"},{"bike_id":"7109d692-775c-445c-ba92-fa20dcb48f6e","system_id":"levelo_inurba_marseille","lat":43.29992,"lon":5.37469,"is_reserved":false,"is_disabled":false,"rental_uris":{"android":"levelo://app?vid=7109d692-775c-445c-ba92-fa20dcb48f6e","ios":"levelo://app?vid=7109d692-775c-445c-ba92-fa20dcb48f6e"},"vehicle_type_id":"4","last_reported":1776894073,"current_range_meters":4400,"station_id":"","pricing_plan_id":"cebpf4jnsgd1na2vs0mg"},{"bike_id":"b913c996-50b1-4ff5-9c12-2c611f1d92ea","system_id":"levelo_inurba_marseille","lat":43.30427,"lon":5.39754,"is_reserved":false,"is_disabled":false,"rental_uris":{"android":"levelo://app?vid=b913c996-50b1-4ff5-9c12-2c611f1d92ea","ios":"levelo://app?vid=b913c996-50b1-4ff5-9c12-2c611f1d92ea"},"vehicle_type_id":"4","last_reported":1776894073,"current_range_meters":4400,"station_id":"ce4bh092rcd13ifvqd20","pricing_plan_id":"cebpf4jnsgd1na2vs0mg"},{"bike_id":"63dc8bdc-9afb-4d89-8dbc-6eca23d62090","system_id":"levelo_inurba_marseille","lat":43.30268,"lon":5.40095,"is_reserved":false,"is_disabled":false,"rental_uris":{"android":"levelo://app?vid=63dc8bdc-9afb-4d89-8dbc-6eca23d62090","ios":"levelo://app?vid=63dc8bdc-9afb-4d89-8dbc-6eca23d62090"},"vehicle_type_id":"4","last_reported":1776894073,"current_range_meters":4400,"station_id":"ce4bgvh2rcd13ifvqcs0","pricing_plan_id":"cebpf4jnsgd1na2vs0mg"},{"bike_id":"8b33769a-8f9d-454a-a53c-c15dc67953d8","system_id":"levelo_inurba_marseille","lat":43.291996,"lon":5.393272,"is_reserved":false,"is_disabled":false,"rental_uris":{"android":"levelo://app?vid=8b33769a-8f9d-454a-a53c-c15dc67953d8","ios":"levelo://app?vid=8b33769a-8f9d-454a-a53c-c15dc67953d8"},"vehicle_type_id":"4","last_reported":1776894073,"current_range_meters":4400,"station_id":"ce4bh192rcd13ifvqdd0","pricing_plan_id":"cebpf4jnsgd1na2vs0mg"},{"bike_id":"ecad6050-1832-4468-8d69-7ed56849f7b0","system_id":"levelo_inurba_marseille","lat":43.31532,"lon":5.38022,"is_reserved":false,"is_disabled":false,"rental_uris":{"android":"levelo://app?vid=ecad6050-1832-4468-8d69-7ed56849f7b0","ios":"levelo://app?vid=ecad6050-1832-4468-8d69-7ed56849f7b0"},"vehicle_type_id":"4","last_reported":1776894073,"current_range_meters":4400,"station_id":"ce4bhsp2rcd13ifvqi50","pricing_plan_id":"cebpf4jnsgd1na2vs0mg"},{"bike_id":"46fcd30c-c87b-4d27-8e72-a965b5215561","system_id":"levelo_inurba_marseille","lat":43.30417,"lon":5.42467,"is_reserved":false,"is_disabled":false,"rental_uris":{"android":"levelo://app?vid=46fcd30c-c87b-4d27-8e72-a965b5215561","ios":"levelo://app?vid=46fcd30c-c87b-4d27-8e72-a965b5215561"},"vehicle_type_id":"4","last_reported":1776894073,"current_range_meters":4800,"station_id":"ce4bghh2rcd13ifvqb60","pricing_plan_id":"cebpf4jnsgd1na2vs0mg"},{"bike_id":"ab441cdc-9cd1-4c8e-b69e-34bb46fece34","system_id":"levelo_inurba_marseille","lat":43.29391,"lon":5.363,"is_reserved":false,"is_disabled":false,"rental_uris":{"android":"levelo://app?vid=ab441cdc-9cd1-4c8e-b69e-34bb46fece34","ios":"levelo://app?vid=ab441cdc-9cd1-4c8e-b69e-34bb46fece34"},"vehicle_type_id":"4","last_reported":1776894073,"current_range_meters":4800,"station_id":"","pricing_plan_id":"cebpf4jnsgd1na2vs0mg"},{"bike_id":"3ddb5174-c50c-4964-ba54-898026491bc0","system_id":"levelo_inurba_marseille","lat":43.29898,"lon":5.38913,"is_reserved":false,"is_disabled":false,"rental_uris":{"android":"levelo://app?vid=3ddb5174-c50c-4964-ba54-898026491bc0","ios":"levelo://app?vid=3ddb5174-c50c-4964-ba54-898026491bc0"},"vehicle_type_id":"4","last_reported":1776894073,"current_range_meters":4800,"station_id":"ce4bh392rcd13ifvqdl0","pricing_plan_id":"cebpf4jnsgd1na2vs0mg"},{"bike_id":"7185d8ec-9dc6-41c8-947f-9d3b0aaeb86b","system_id":"levelo_inurba_marseille","lat":43.23886,"lon":5.37483,"is_reserved":false,"is_disabled":true,"rental_uris":{"android":"levelo://app?vid=7185d8ec-9dc6-41c8-947f-9d3b0aaeb86b","ios":"levelo://app?vid=7185d8ec-9dc6-41c8-947f-9d3b0aaeb86b"},"vehicle_type_id":"4","last_reported":1776894073,"current_range_meters":4800,"station_id":"st_d6sm7csbq4hs73f8fpjg","pricing_plan_id":"cebpf4jnsgd1na2vs0mg"},{"bike_id":"f6c21f72-aefa-4006-9c21-83aaacd84dc9","system_id":"levelo_inurba_marseille","lat":43.23191,"lon":5.43737,"is_reserved":false,"is_disabled":false,"rental_uris":{"android":"levelo://app?vid=f6c21f72-aefa-4006-9c21-83aaacd84dc9","ios":"levelo://app?vid=f6c21f72-aefa-4006-9c21-83aaacd84dc9"},"vehicle_type_id":"4","last_reported":1776894073,"current_range_meters":4800,"station_id":"ce4bhmp2rcd13ifvqgog","pricing_plan_id":"cebpf4jnsgd1na2vs0mg"},{"bike_id":"94dd750c-b803-4852-8849-ece161b19e86","system_id":"levelo_inurba_marseille","lat":43.28486,"lon":5.48374,"is_reserved":false,"is_disabled":false,"rental_uris":{"android":"levelo://app?vid=94dd750c-b803-4852-8849-ece161b19e86","ios":"levelo://app?vid=94dd750c-b803-4852-8849-ece161b19e86"},"vehicle_type_id":"4","last_reported":1776894073,"current_range_meters":4800,"station_id":"st_d3svhcjqgbts73a3dn0g","pricing_plan_id":"cebpf4jnsgd1na2vs0mg"},{"bike_id":"a5932d33-7fe4-4ab5-ab73-558a4a420627","system_id":"levelo_inurba_marseille","lat":43.2445,"lon":5.40055,"is_reserved":false,"is_disabled":false,"rental_uris":{"android":"levelo://app?vid=a5932d33-7fe4-4ab5-ab73-558a4a420627","ios":"levelo://app?vid=a5932d33-7fe4-4ab5-ab73-558a4a420627"},"vehicle_type_id":"4","last_reported":1776894073,"current_range_meters":4800,"station_id":"","pricing_plan_id":"cebpf4jnsgd1na2vs0mg"},{"bike_id":"536fa38a-c1bc-4652-b1fd-ef3ff74def6b","system_id":"levelo_inurba_marseille","lat":43.28878,"lon":5.42549,"is_reserved":false,"is_disabled":false,"rental_uris":{"android":"levelo://app?vid=536fa38a-c1bc-4652-b1fd-ef3ff74def6b","ios":"levelo://app?vid=536fa38a-c1bc-4652-b1fd-ef3ff74def6b"},"vehicle_type_id":"4","last_reported":1776894073,"current_range_meters":4800,"station_id":"st_d3b462108ojc7389ooeg","pricing_plan_id":"cebpf4jnsgd1na2vs0mg"},{"bike_id":"5c4b69a3-9b3e-4c45-9257-b2493f6ffadd","system_id":"levelo_inurba_marseille","lat":43.290329,"lon":5.386397,"is_reserved":false,"is_disabled":false,"rental_uris":{"android":"levelo://app?vid=5c4b69a3-9b3e-4c45-9257-b2493f6ffadd","ios":"levelo://app?vid=5c4b69a3-9b3e-4c45-9257-b2493f6ffadd"},"vehicle_type_id":"4","last_reported":1776894073,"current_range_meters":4800,"station_id":"ce4bh4p2rcd13ifvqe0g","pricing_plan_id":"cebpf4jnsgd1na2vs0mg"},{"bike_id":"dc20e67e-8c62-4552-b780-4bccdec92628","system_id":"levelo_inurba_marseille","lat":43.29525,"lon":5.38549,"is_reserved":false,"is_disabled":false,"rental_uris":{"android":"levelo://app?vid=dc20e67e-8c62-4552-b780-4bccdec92628","ios":"levelo://app?vid=dc20e67e-8c62-4552-b780-4bccdec92628"},"vehicle_type_id":"4","last_reported":1776894073,"current_range_meters":4800,"station_id":"ce4bgih2rcd13ifvqba0","pricing_plan_id":"cebpf4jnsgd1na2vs0mg"},{"bike_id":"73d436be-8bb5-400c-b5b8-edfd7e8d5913","system_id":"levelo_inurba_marseille","lat":43.337444,"lon":5.374475,"is_reserved":false,"is_disabled":false,"rental_uris":{"android":"levelo://app?vid=73d436be-8bb5-400c-b5b8-edfd7e8d5913","ios":"levelo://app?vid=73d436be-8bb5-400c-b5b8-edfd7e8d5913"},"vehicle_type_id":"4","last_reported":1776894073,"current_range_meters":5600,"station_id":"ce4bhgp2rcd13ifvqfc0","pricing_plan_id":"cebpf4jnsgd1na2vs0mg"},{"bike_id":"0618c7b6-2150-45b5-9647-727f3eefe639","system_id":"levelo_inurba_marseille","lat":43.29034,"lon":5.38654,"is_reserved":false,"is_disabled":false,"rental_uris":{"android":"levelo://app?vid=0618c7b6-2150-45b5-9647-727f3eefe639","ios":"levelo://app?vid=0618c7b6-2150-45b5-9647-727f3eefe639"},"vehicle_type_id":"4","last_reported":1776894073,"current_range_meters":5600,"station_id":"ce4bh4p2rcd13ifvqe0g","pricing_plan_id":"cebpf4jnsgd1na2vs0mg"},{"bike_id":"b6958d12-23c3-4d0c-9873-d937cd2dc935","system_id":"levelo_inurba_marseille","lat":43.3013,"lon":5.39879,"is_reserved":false,"is_disabled":false,"rental_uris":{"android":"levelo://app?vid=b6958d12-23c3-4d0c-9873-d937cd2dc935","ios":"levelo://app?vid=b6958d12-23c3-4d0c-9873-d937cd2dc935"},"vehicle_type_id":"4","last_reported":1776894073,"current_range_meters":5600,"station_id":"ce4bh0h2rcd13ifvqd40","pricing_plan_id":"cebpf4jnsgd1na2vs0mg"},{"bike_id":"2bed140b-f694-48cd-b5b5-1b0a1281b91c","system_id":"levelo_inurba_marseille","lat":43.31271,"lon":5.40163,"is_reserved":false,"is_disabled":false,"rental_uris":{"android":"levelo://app?vid=2bed140b-f694-48cd-b5b5-1b0a1281b91c","ios":"levelo://app?vid=2bed140b-f694-48cd-b5b5-1b0a1281b91c"},"vehicle_type_id":"4","last_reported":1776894073,"current_range_meters":5600,"station_id":"ce4bh092rcd13ifvqd30","pricing_plan_id":"cebpf4jnsgd1na2vs0mg"},{"bike_id":"f3a0e42d-d6f1-4b31-afb5-c4667c8f968c","system_id":"levelo_inurba_marseille","lat":43.29527,"lon":5.3905,"is_reserved":false,"is_disabled":false,"rental_uris":{"android":"levelo://app?vid=f3a0e42d-d6f1-4b31-afb5-c4667c8f968c","ios":"levelo://app?vid=f3a0e42d-d6f1-4b31-afb5-c4667c8f968c"},"vehicle_type_id":"4","last_reported":1776894073,"current_range_meters":5600,"station_id":"ce4bh3p2rcd13ifvqdp0","pricing_plan_id":"cebpf4jnsgd1na2vs0mg"},{"bike_id":"21880da7-0211-4f59-ad3c-2038f9e18f83","system_id":"levelo_inurba_marseille","lat":43.28407,"lon":5.37498,"is_reserved":false,"is_disabled":false,"rental_uris":{"android":"levelo://app?vid=21880da7-0211-4f59-ad3c-2038f9e18f83","ios":"levelo://app?vid=21880da7-0211-4f59-ad3c-2038f9e18f83"},"vehicle_type_id":"4","last_reported":1776894073,"current_range_meters":5600,"station_id":"ce4bh412rcd13ifvqds0","pricing_plan_id":"cebpf4jnsgd1na2vs0mg"},{"bike_id":"882e84be-aff7-44fe-8e03-e10b9edfe543","system_id":"levelo_inurba_marseille","lat":43.29549,"lon":5.37556,"is_reserved":false,"is_disabled":true,"rental_uris":{"android":"levelo://app?vid=882e84be-aff7-44fe-8e03-e10b9edfe543","ios":"levelo://app?vid=882e84be-aff7-44fe-8e03-e10b9edfe543"},"vehicle_type_id":"4","last_reported":1776894073,"current_range_meters":5600,"station_id":"","pricing_plan_id":"cebpf4jnsgd1na2vs0mg"},{"bike_id":"fc63b1fa-8f2f-4e7d-937d-0a01f2225ceb","system_id":"levelo_inurba_marseille","lat":43.28437,"lon":5.37505,"is_reserved":false,"is_disabled":false,"rental_uris":{"android":"levelo://app?vid=fc63b1fa-8f2f-4e7d-937d-0a01f2225ceb","ios":"levelo://app?vid=fc63b1fa-8f2f-4e7d-937d-0a01f2225ceb"},"vehicle_type_id":"4","last_reported":1776894073,"current_range_meters":5600,"station_id":"ce4bh412rcd13ifvqds0","pricing_plan_id":"cebpf4jnsgd1na2vs0mg"},{"bike_id":"1b9f3033-b460-4e1f-a438-9ab71168e18f","system_id":"levelo_inurba_marseille","lat":43.28917,"lon":5.36587,"is_reserved":false,"is_disabled":false,"rental_uris":{"android":"levelo://app?vid=1b9f3033-b460-4e1f-a438-9ab71168e18f","ios":"levelo://app?vid=1b9f3033-b460-4e1f-a438-9ab71168e18f"},"vehicle_type_id":"4","last_reported":1776894073,"current_range_meters":6000,"station_id":"ce4bhap2rcd13ifvqek0","pricing_plan_id":"cebpf4jnsgd1na2vs0mg"},{"bike_id":"04257b95-4499-46e1-a4e3-88ab526291ba","system_id":"levelo_inurba_marseille","lat":43.28477,"lon":5.48396,"is_reserved":false,"is_disabled":false,"rental_uris":{"android":"levelo://app?vid=04257b95-4499-46e1-a4e3-88ab526291ba","ios":"levelo://app?vid=04257b95-4499-46e1-a4e3-88ab526291ba"},"vehicle_type_id":"4","last_reported":1776894073,"current_range_meters":6000,"station_id":"","pricing_plan_id":"cebpf4jnsgd1na2vs0mg"},{"bike_id":"741ec748-06b3-454b-8687-4601dbe79e98","system_id":"levelo_inurba_marseille","lat":43.29208,"lon":5.36005,"is_reserved":false,"is_disabled":false,"rental_uris":{"android":"levelo://app?vid=741ec748-06b3-454b-8687-4601dbe79e98","ios":"levelo://app?vid=741ec748-06b3-454b-8687-4601dbe79e98"},"vehicle_type_id":"4","last_reported":1776894073,"current_range_meters":6000,"station_id":"","pricing_plan_id":"cebpf4jnsgd1na2vs0mg"},{"bike_id":"ff422c07-4472-471c-ab0d-dcb023acae97","system_id":"levelo_inurba_marseille","lat":43.30631,"lon":5.37162,"is_reserved":false,"is_disabled":false,"rental_uris":{"android":"levelo://app?vid=ff422c07-4472-471c-ab0d-dcb023acae97","ios":"levelo://app?vid=ff422c07-4472-471c-ab0d-dcb023acae97"},"vehicle_type_id":"4","last_reported":1776894073,"current_range_meters":6000,"station_id":"","pricing_plan_id":"cebpf4jnsgd1na2vs0mg"},{"bike_id":"2d55dcb6-939b-4f02-b41f-c34266fa9e7a","system_id":"levelo_inurba_marseille","lat":43.29172,"lon":5.39324,"is_reserved":false,"is_disabled":true,"rental_uris":{"android":"levelo://app?vid=2d55dcb6-939b-4f02-b41f-c34266fa9e7a","ios":"levelo://app?vid=2d55dcb6-939b-4f02-b41f-c34266fa9e7a"},"vehicle_type_id":"4","last_reported":1776894073,"current_range_meters":6000,"station_id":"ce4bh192rcd13ifvqdd0","pricing_plan_id":"cebpf4jnsgd1na2vs0mg"},{"bike_id":"0a1fb446-fc2a-4121-a3b8-4a6ede97b797","system_id":"levelo_inurba_marseille","lat":43.30546,"lon":5.38432,"is_reserved":false,"is_disabled":false,"rental_uris":{"android":"levelo://app?vid=0a1fb446-fc2a-4121-a3b8-4a6ede97b797","ios":"levelo://app?vid=0a1fb446-fc2a-4121-a3b8-4a6ede97b797"},"vehicle_type_id":"4","last_reported":1776894073,"current_range_meters":6000,"station_id":"ce4bgg92rcd13ifvqb30","pricing_plan_id":"cebpf4jnsgd1na2vs0mg"},{"bike_id":"53ac9b94-d2b8-401a-8133-9009372f217e","system_id":"levelo_inurba_marseille","lat":43.28465,"lon":5.48398,"is_reserved":false,"is_disabled":false,"rental_uris":{"android":"levelo://app?vid=53ac9b94-d2b8-401a-8133-9009372f217e","ios":"levelo://app?vid=53ac9b94-d2b8-401a-8133-9009372f217e"},"vehicle_type_id":"4","last_reported":1776894073,"current_range_meters":6000,"station_id":"","pricing_plan_id":"cebpf4jnsgd1na2vs0mg"},{"bike_id":"5b333185-778b-45e4-874d-0e2e87eb3471","system_id":"levelo_inurba_marseille","lat":43.30936,"lon":5.40163,"is_reserved":false,"is_disabled":false,"rental_uris":{"android":"levelo://app?vid=5b333185-778b-45e4-874d-0e2e87eb3471","ios":"levelo://app?vid=5b333185-778b-45e4-874d-0e2e87eb3471"},"vehicle_type_id":"4","last_reported":1776894073,"current_range_meters":6000,"station_id":"ce4bgvp2rcd13ifvqct0","pricing_plan_id":"cebpf4jnsgd1na2vs0mg"},{"bike_id":"1c4db81e-e54e-450a-b910-a202dc639503","system_id":"levelo_inurba_marseille","lat":43.28465,"lon":5.48419,"is_reserved":false,"is_disabled":false,"rental_uris":{"android":"levelo://app?vid=1c4db81e-e54e-450a-b910-a202dc639503","ios":"levelo://app?vid=1c4db81e-e54e-450a-b910-a202dc639503"},"vehicle_type_id":"4","last_reported":1776894073,"current_range_meters":6400,"station_id":"","pricing_plan_id":"cebpf4jnsgd1na2vs0mg"},{"bike_id":"8c33dcad-8792-4b7f-9ebc-77429e11d6b0","system_id":"levelo_inurba_marseille","lat":43.3248,"lon":5.3657,"is_reserved":false,"is_disabled":false,"rental_uris":{"android":"levelo://app?vid=8c33dcad-8792-4b7f-9ebc-77429e11d6b0","ios":"levelo://app?vid=8c33dcad-8792-4b7f-9ebc-77429e11d6b0"},"vehicle_type_id":"4","last_reported":1776894073,"current_range_meters":6400,"station_id":"ce4bhs12rcd13ifvqhvg","pricing_plan_id":"cebpf4jnsgd1na2vs0mg"},{"bike_id":"fc83597b-c92a-4d6b-9ec3-85cccb5b70a7","system_id":"levelo_inurba_marseille","lat":43.31975,"lon":5.368,"is_reserved":false,"is_disabled":false,"rental_uris":{"android":"levelo://app?vid=fc83597b-c92a-4d6b-9ec3-85cccb5b70a7","ios":"levelo://app?vid=fc83597b-c92a-4d6b-9ec3-85cccb5b70a7"},"vehicle_type_id":"4","last_reported":1776894073,"current_range_meters":6400,"station_id":"","pricing_plan_id":"cebpf4jnsgd1na2vs0mg"},{"bike_id":"bd3c6b3e-d299-464a-9a96-a94e112dc80d","system_id":"levelo_inurba_marseille","lat":43.29874,"lon":5.36244,"is_reserved":false,"is_disabled":false,"rental_uris":{"android":"levelo://app?vid=bd3c6b3e-d299-464a-9a96-a94e112dc80d","ios":"levelo://app?vid=bd3c6b3e-d299-464a-9a96-a94e112dc80d"},"vehicle_type_id":"4","last_reported":1776894073,"current_range_meters":6400,"station_id":"ce4bgpp2rcd13ifvqc3g","pricing_plan_id":"cebpf4jnsgd1na2vs0mg"},{"bike_id":"a94d236d-eba8-4733-81ef-6d7a05120d94","system_id":"levelo_inurba_marseille","lat":43.24866,"lon":5.39401,"is_reserved":false,"is_disabled":false,"rental_uris":{"android":"levelo://app?vid=a94d236d-eba8-4733-81ef-6d7a05120d94","ios":"levelo://app?vid=a94d236d-eba8-4733-81ef-6d7a05120d94"},"vehicle_type_id":"4","last_reported":1776894073,"current_range_meters":6400,"station_id":"","pricing_plan_id":"cebpf4jnsgd1na2vs0mg"},{"bike_id":"97640678-22eb-456e-8a6b-8940edbd10ca","system_id":"levelo_inurba_marseille","lat":43.23932,"lon":5.41541,"is_reserved":false,"is_disabled":false,"rental_uris":{"android":"levelo://app?vid=97640678-22eb-456e-8a6b-8940edbd10ca","ios":"levelo://app?vid=97640678-22eb-456e-8a6b-8940edbd10ca"},"vehicle_type_id":"4","last_reported":1776894073,"current_range_meters":6400,"station_id":"","pricing_plan_id":"cebpf4jnsgd1na2vs0mg"},{"bike_id":"9c7ce8e4-2302-49a0-b99a-ec840cd3f516","system_id":"levelo_inurba_marseille","lat":43.27078,"lon":5.42255,"is_reserved":false,"is_disabled":false,"rental_uris":{"android":"levelo://app?vid=9c7ce8e4-2302-49a0-b99a-ec840cd3f516","ios":"levelo://app?vid=9c7ce8e4-2302-49a0-b99a-ec840cd3f516"},"vehicle_type_id":"4","last_reported":1776894073,"current_range_meters":6400,"station_id":"ce4bhk92rcd13ifvqgb0","pricing_plan_id":"cebpf4jnsgd1na2vs0mg"},{"bike_id":"031edc34-ec0c-42fe-997e-5e9b2ec2a0bc","system_id":"levelo_inurba_marseille","lat":43.29801,"lon":5.37102,"is_reserved":false,"is_disabled":false,"rental_uris":{"android":"levelo://app?vid=031edc34-ec0c-42fe-997e-5e9b2ec2a0bc","ios":"levelo://app?vid=031edc34-ec0c-42fe-997e-5e9b2ec2a0bc"},"vehicle_type_id":"4","last_reported":1776894073,"current_range_meters":6400,"station_id":"ce4bgop2rcd13ifvqc1g","pricing_plan_id":"cebpf4jnsgd1na2vs0mg"},{"bike_id":"e894a4f9-57b8-404c-a053-fa8ff9222667","system_id":"levelo_inurba_marseille","lat":43.28606,"lon":5.39933,"is_reserved":false,"is_disabled":true,"rental_uris":{"android":"levelo://app?vid=e894a4f9-57b8-404c-a053-fa8ff9222667","ios":"levelo://app?vid=e894a4f9-57b8-404c-a053-fa8ff9222667"},"vehicle_type_id":"4","last_reported":1776894073,"current_range_meters":6400,"station_id":"st_d4a7ka997mjs738ck50g","pricing_plan_id":"cebpf4jnsgd1na2vs0mg"},{"bike_id":"6b23908a-27fc-400a-b1b6-9daa8d6ab014","system_id":"levelo_inurba_marseille","lat":43.33707,"lon":5.39819,"is_reserved":false,"is_disabled":false,"rental_uris":{"android":"levelo://app?vid=6b23908a-27fc-400a-b1b6-9daa8d6ab014","ios":"levelo://app?vid=6b23908a-27fc-400a-b1b6-9daa8d6ab014"},"vehicle_type_id":"4","last_reported":1776894073,"current_range_meters":6400,"station_id":"","pricing_plan_id":"cebpf4jnsgd1na2vs0mg"},{"bike_id":"6ee75b1e-3389-452c-805f-052a7231f6b2","system_id":"levelo_inurba_marseille","lat":43.28881,"lon":5.42514,"is_reserved":false,"is_disabled":false,"rental_uris":{"android":"levelo://app?vid=6ee75b1e-3389-452c-805f-052a7231f6b2","ios":"levelo://app?vid=6ee75b1e-3389-452c-805f-052a7231f6b2"},"vehicle_type_id":"4","last_reported":1776894073,"current_range_meters":6800,"station_id":"st_d3b462108ojc7389ooeg","pricing_plan_id":"cebpf4jnsgd1na2vs0mg"},{"bike_id":"faf9535a-bce1-4796-967b-116ea7429902","system_id":"levelo_inurba_marseille","lat":43.29797,"lon":5.39349,"is_reserved":false,"is_disabled":false,"rental_uris":{"android":"levelo://app?vid=faf9535a-bce1-4796-967b-116ea7429902","ios":"levelo://app?vid=faf9535a-bce1-4796-967b-116ea7429902"},"vehicle_type_id":"4","last_reported":1776894073,"current_range_meters":6800,"station_id":"chh1huq6cuj3fo74tm60","pricing_plan_id":"cebpf4jnsgd1na2vs0mg"},{"bike_id":"7b477510-f637-48a3-8d07-151b6fdaa492","system_id":"levelo_inurba_marseille","lat":43.30138,"lon":5.39884,"is_reserved":false,"is_disabled":false,"rental_uris":{"android":"levelo://app?vid=7b477510-f637-48a3-8d07-151b6fdaa492","ios":"levelo://app?vid=7b477510-f637-48a3-8d07-151b6fdaa492"},"vehicle_type_id":"4","last_reported":1776894073,"current_range_meters":6800,"station_id":"ce4bh0h2rcd13ifvqd40","pricing_plan_id":"cebpf4jnsgd1na2vs0mg"},{"bike_id":"e07ad077-8f60-4f8b-a35d-a0d5627a7e51","system_id":"levelo_inurba_marseille","lat":43.28613,"lon":5.35105,"is_reserved":false,"is_disabled":false,"rental_uris":{"android":"levelo://app?vid=e07ad077-8f60-4f8b-a35d-a0d5627a7e51","ios":"levelo://app?vid=e07ad077-8f60-4f8b-a35d-a0d5627a7e51"},"vehicle_type_id":"4","last_reported":1776894073,"current_range_meters":6800,"station_id":"ce4bhch2rcd13ifvqeug","pricing_plan_id":"cebpf4jnsgd1na2vs0mg"},{"bike_id":"1ac32573-35ca-4b15-a3f0-b178fc7d1a24","system_id":"levelo_inurba_marseille","lat":43.23393,"lon":5.41255,"is_reserved":false,"is_disabled":false,"rental_uris":{"android":"levelo://app?vid=1ac32573-35ca-4b15-a3f0-b178fc7d1a24","ios":"levelo://app?vid=1ac32573-35ca-4b15-a3f0-b178fc7d1a24"},"vehicle_type_id":"4","last_reported":1776894073,"current_range_meters":6800,"station_id":"st_d75pvndhf9lc73cqq3eg","pricing_plan_id":"cebpf4jnsgd1na2vs0mg"},{"bike_id":"5c47d5b4-05d2-4ac8-8349-3679806a805a","system_id":"levelo_inurba_marseille","lat":43.27185,"lon":5.40986,"is_reserved":false,"is_disabled":false,"rental_uris":{"android":"levelo://app?vid=5c47d5b4-05d2-4ac8-8349-3679806a805a","ios":"levelo://app?vid=5c47d5b4-05d2-4ac8-8349-3679806a805a"},"vehicle_type_id":"4","last_reported":1776894073,"current_range_meters":6800,"station_id":"ce4bhl12rcd13ifvqgf0","pricing_plan_id":"cebpf4jnsgd1na2vs0mg"},{"bike_id":"b0292b57-bc6e-4d3d-855f-2c85d8c85123","system_id":"levelo_inurba_marseille","lat":43.29321,"lon":5.36256,"is_reserved":false,"is_disabled":false,"rental_uris":{"android":"levelo://app?vid=b0292b57-bc6e-4d3d-855f-2c85d8c85123","ios":"levelo://app?vid=b0292b57-bc6e-4d3d-855f-2c85d8c85123"},"vehicle_type_id":"4","last_reported":1776894073,"current_range_meters":6800,"station_id":"","pricing_plan_id":"cebpf4jnsgd1na2vs0mg"},{"bike_id":"50918bbe-8b4a-4832-b89d-ffef40c798ba","system_id":"levelo_inurba_marseille","lat":43.32354,"lon":5.36746,"is_reserved":false,"is_disabled":false,"rental_uris":{"android":"levelo://app?vid=50918bbe-8b4a-4832-b89d-ffef40c798ba","ios":"levelo://app?vid=50918bbe-8b4a-4832-b89d-ffef40c798ba"},"vehicle_type_id":"4","last_reported":1776894073,"current_range_meters":6800,"station_id":"ce4bhsh2rcd13ifvqi2g","pricing_plan_id":"cebpf4jnsgd1na2vs0mg"},{"bike_id":"2bc3d0de-abb2-40ef-8301-4cbf0412cf55","system_id":"levelo_inurba_marseille","lat":43.26237,"lon":5.40444,"is_reserved":false,"is_disabled":false,"rental_uris":{"android":"levelo://app?vid=2bc3d0de-abb2-40ef-8301-4cbf0412cf55","ios":"levelo://app?vid=2bc3d0de-abb2-40ef-8301-4cbf0412cf55"},"vehicle_type_id":"4","last_reported":1776894073,"current_range_meters":6800,"station_id":"ce4bhmh2rcd13ifvqgmg","pricing_plan_id":"cebpf4jnsgd1na2vs0mg"},{"bike_id":"6a5bbe70-48a0-4392-9136-9a0675f9bf10","system_id":"levelo_inurba_marseille","lat":43.26574,"lon":5.40307,"is_reserved":false,"is_disabled":true,"rental_uris":{"android":"levelo://app?vid=6a5bbe70-48a0-4392-9136-9a0675f9bf10","ios":"levelo://app?vid=6a5bbe70-48a0-4392-9136-9a0675f9bf10"},"vehicle_type_id":"4","last_reported":1776894073,"current_range_meters":6800,"station_id":"ce4bhmp2rcd13ifvqgng","pricing_plan_id":"cebpf4jnsgd1na2vs0mg"},{"bike_id":"44265ec6-78a7-44ea-89be-666f82f76022","system_id":"levelo_inurba_marseille","lat":43.24684,"lon":5.38146,"is_reserved":false,"is_disabled":false,"rental_uris":{"android":"levelo://app?vid=44265ec6-78a7-44ea-89be-666f82f76022","ios":"levelo://app?vid=44265ec6-78a7-44ea-89be-666f82f76022"},"vehicle_type_id":"4","last_reported":1776894073,"current_range_meters":6800,"station_id":"ce4bhih2rcd13ifvqfr0","pricing_plan_id":"cebpf4jnsgd1na2vs0mg"},{"bike_id":"ce2ca8dc-1450-460c-a671-43388b052d50","system_id":"levelo_inurba_marseille","lat":43.27078,"lon":5.38319,"is_reserved":false,"is_disabled":false,"rental_uris":{"android":"levelo://app?vid=ce2ca8dc-1450-460c-a671-43388b052d50","ios":"levelo://app?vid=ce2ca8dc-1450-460c-a671-43388b052d50"},"vehicle_type_id":"4","last_reported":1776894073,"current_range_meters":6800,"station_id":"st_d3n2fo6cfp8s73cte1j0","pricing_plan_id":"cebpf4jnsgd1na2vs0mg"},{"bike_id":"ebe8fc63-77d4-441d-a4b7-deb98f3c3130","system_id":"levelo_inurba_marseille","lat":43.30797,"lon":5.38175,"is_reserved":false,"is_disabled":false,"rental_uris":{"android":"levelo://app?vid=ebe8fc63-77d4-441d-a4b7-deb98f3c3130","ios":"levelo://app?vid=ebe8fc63-77d4-441d-a4b7-deb98f3c3130"},"vehicle_type_id":"4","last_reported":1776894073,"current_range_meters":6800,"station_id":"ce4bgt12rcd13ifvqce0","pricing_plan_id":"cebpf4jnsgd1na2vs0mg"},{"bike_id":"059b4ad8-665d-46df-9a3f-e9b9a20a1c99","system_id":"levelo_inurba_marseille","lat":43.33571,"lon":5.37459,"is_reserved":false,"is_disabled":false,"rental_uris":{"android":"levelo://app?vid=059b4ad8-665d-46df-9a3f-e9b9a20a1c99","ios":"levelo://app?vid=059b4ad8-665d-46df-9a3f-e9b9a20a1c99"},"vehicle_type_id":"4","last_reported":1776894073,"current_range_meters":6800,"station_id":"st_d46tts09ee8s73dlu43g","pricing_plan_id":"cebpf4jnsgd1na2vs0mg"},{"bike_id":"8d3a7d3b-847a-4650-84c7-ff823a611654","system_id":"levelo_inurba_marseille","lat":43.28923,"lon":5.38404,"is_reserved":false,"is_disabled":false,"rental_uris":{"android":"levelo://app?vid=8d3a7d3b-847a-4650-84c7-ff823a611654","ios":"levelo://app?vid=8d3a7d3b-847a-4650-84c7-ff823a611654"},"vehicle_type_id":"4","last_reported":1776894073,"current_range_meters":7200,"station_id":"ce4bh612rcd13ifvqe6g","pricing_plan_id":"cebpf4jnsgd1na2vs0mg"},{"bike_id":"3975f7ad-77e0-46a9-aeda-f957df137c03","system_id":"levelo_inurba_marseille","lat":43.29518,"lon":5.39388,"is_reserved":false,"is_disabled":false,"rental_uris":{"android":"levelo://app?vid=3975f7ad-77e0-46a9-aeda-f957df137c03","ios":"levelo://app?vid=3975f7ad-77e0-46a9-aeda-f957df137c03"},"vehicle_type_id":"4","last_reported":1776894073,"current_range_meters":7200,"station_id":"ce4bh292rcd13ifvqdf0","pricing_plan_id":"cebpf4jnsgd1na2vs0mg"},{"bike_id":"cddb6398-c026-463f-8c96-a9a09b82e6bb","system_id":"levelo_inurba_marseille","lat":43.28944,"lon":5.36631,"is_reserved":false,"is_disabled":false,"rental_uris":{"android":"levelo://app?vid=cddb6398-c026-463f-8c96-a9a09b82e6bb","ios":"levelo://app?vid=cddb6398-c026-463f-8c96-a9a09b82e6bb"},"vehicle_type_id":"4","last_reported":1776894073,"current_range_meters":7200,"station_id":"ce4bhap2rcd13ifvqek0","pricing_plan_id":"cebpf4jnsgd1na2vs0mg"},{"bike_id":"c9ffcf5b-0fcf-4553-a8cd-7281b0960203","system_id":"levelo_inurba_marseille","lat":43.29869,"lon":5.39734,"is_reserved":false,"is_disabled":false,"rental_uris":{"android":"levelo://app?vid=c9ffcf5b-0fcf-4553-a8cd-7281b0960203","ios":"levelo://app?vid=c9ffcf5b-0fcf-4553-a8cd-7281b0960203"},"vehicle_type_id":"4","last_reported":1776894073,"current_range_meters":7200,"station_id":"ce4bh0h2rcd13ifvqd50","pricing_plan_id":"cebpf4jnsgd1na2vs0mg"},{"bike_id":"d029b96e-b789-40db-b6cf-9ba9a983048f","system_id":"levelo_inurba_marseille","lat":43.30149,"lon":5.38781,"is_reserved":false,"is_disabled":false,"rental_uris":{"android":"levelo://app?vid=d029b96e-b789-40db-b6cf-9ba9a983048f","ios":"levelo://app?vid=d029b96e-b789-40db-b6cf-9ba9a983048f"},"vehicle_type_id":"4","last_reported":1776894073,"current_range_meters":7200,"station_id":"ce4bghh2rcd13ifvqb60","pricing_plan_id":"cebpf4jnsgd1na2vs0mg"},{"bike_id":"55ebcfc4-5339-4580-9dfa-1378f687dd33","system_id":"levelo_inurba_marseille","lat":43.2898,"lon":5.3783,"is_reserved":false,"is_disabled":false,"rental_uris":{"android":"levelo://app?vid=55ebcfc4-5339-4580-9dfa-1378f687dd33","ios":"levelo://app?vid=55ebcfc4-5339-4580-9dfa-1378f687dd33"},"vehicle_type_id":"4","last_reported":1776894073,"current_range_meters":7200,"station_id":"ce4bh9p2rcd13ifvqed0","pricing_plan_id":"cebpf4jnsgd1na2vs0mg"},{"bike_id":"f8d46f57-68ae-42a5-9479-ae67d8834276","system_id":"levelo_inurba_marseille","lat":43.30016,"lon":5.37069,"is_reserved":false,"is_disabled":false,"rental_uris":{"android":"levelo://app?vid=f8d46f57-68ae-42a5-9479-ae67d8834276","ios":"levelo://app?vid=f8d46f57-68ae-42a5-9479-ae67d8834276"},"vehicle_type_id":"4","last_reported":1776894073,"current_range_meters":7200,"station_id":"","pricing_plan_id":"cebpf4jnsgd1na2vs0mg"},{"bike_id":"2c92216d-2408-4bfb-ae0d-f50258b0f1da","system_id":"levelo_inurba_marseille","lat":43.29281,"lon":5.37633,"is_reserved":false,"is_disabled":false,"rental_uris":{"android":"levelo://app?vid=2c92216d-2408-4bfb-ae0d-f50258b0f1da","ios":"levelo://app?vid=2c92216d-2408-4bfb-ae0d-f50258b0f1da"},"vehicle_type_id":"4","last_reported":1776894073,"current_range_meters":7200,"station_id":"ce4bgi12rcd13ifvqb80","pricing_plan_id":"cebpf4jnsgd1na2vs0mg"},{"bike_id":"2ac15ea7-1904-4a69-9f5e-f4cb7754354f","system_id":"levelo_inurba_marseille","lat":43.24074,"lon":5.37751,"is_reserved":false,"is_disabled":false,"rental_uris":{"android":"levelo://app?vid=2ac15ea7-1904-4a69-9f5e-f4cb7754354f","ios":"levelo://app?vid=2ac15ea7-1904-4a69-9f5e-f4cb7754354f"},"vehicle_type_id":"4","last_reported":1776894073,"current_range_meters":7200,"station_id":"ce4bhnp2rcd13ifvqgvg","pricing_plan_id":"cebpf4jnsgd1na2vs0mg"},{"bike_id":"8cf4aaef-20b2-4c4b-8fd6-8496f3f6c9d2","system_id":"levelo_inurba_marseille","lat":43.23982,"lon":5.36609,"is_reserved":false,"is_disabled":false,"rental_uris":{"android":"levelo://app?vid=8cf4aaef-20b2-4c4b-8fd6-8496f3f6c9d2","ios":"levelo://app?vid=8cf4aaef-20b2-4c4b-8fd6-8496f3f6c9d2"},"vehicle_type_id":"4","last_reported":1776894073,"current_range_meters":7200,"station_id":"ce4bhi12rcd13ifvqfp0","pricing_plan_id":"cebpf4jnsgd1na2vs0mg"},{"bike_id":"a15cdab9-680f-4286-8f38-4a3449c3e787","system_id":"levelo_inurba_marseille","lat":43.28154,"lon":5.4264,"is_reserved":false,"is_disabled":false,"rental_uris":{"android":"levelo://app?vid=a15cdab9-680f-4286-8f38-4a3449c3e787","ios":"levelo://app?vid=a15cdab9-680f-4286-8f38-4a3449c3e787"},"vehicle_type_id":"4","last_reported":1776894073,"current_range_meters":7200,"station_id":"ce4bhnh2rcd13ifvqgug","pricing_plan_id":"cebpf4jnsgd1na2vs0mg"},{"bike_id":"e7ed48ed-8edd-41fc-8a36-5a949e564b42","system_id":"levelo_inurba_marseille","lat":43.2827,"lon":5.35063,"is_reserved":false,"is_disabled":false,"rental_uris":{"android":"levelo://app?vid=e7ed48ed-8edd-41fc-8a36-5a949e564b42","ios":"levelo://app?vid=e7ed48ed-8edd-41fc-8a36-5a949e564b42"},"vehicle_type_id":"4","last_reported":1776894073,"current_range_meters":7200,"station_id":"ce4bhbp2rcd13ifvqerg","pricing_plan_id":"cebpf4jnsgd1na2vs0mg"},{"bike_id":"cfcc8dcf-6816-46a1-945d-fdf5ccf50752","system_id":"levelo_inurba_marseille","lat":43.30925,"lon":5.41173,"is_reserved":false,"is_disabled":false,"rental_uris":{"android":"levelo://app?vid=cfcc8dcf-6816-46a1-945d-fdf5ccf50752","ios":"levelo://app?vid=cfcc8dcf-6816-46a1-945d-fdf5ccf50752"},"vehicle_type_id":"4","last_reported":1776894073,"current_range_meters":7200,"station_id":"","pricing_plan_id":"cebpf4jnsgd1na2vs0mg"},{"bike_id":"bba4c96f-b983-48cb-95fc-2eea4c8d3345","system_id":"levelo_inurba_marseille","lat":43.29893,"lon":5.39746,"is_reserved":false,"is_disabled":false,"rental_uris":{"android":"levelo://app?vid=bba4c96f-b983-48cb-95fc-2eea4c8d3345","ios":"levelo://app?vid=bba4c96f-b983-48cb-95fc-2eea4c8d3345"},"vehicle_type_id":"4","last_reported":1776894073,"current_range_meters":7200,"station_id":"ce4bh0h2rcd13ifvqd50","pricing_plan_id":"cebpf4jnsgd1na2vs0mg"},{"bike_id":"706684ba-8b68-4a9d-afc2-2624b92f67e1","system_id":"levelo_inurba_marseille","lat":43.29022,"lon":5.3861,"is_reserved":false,"is_disabled":false,"rental_uris":{"android":"levelo://app?vid=706684ba-8b68-4a9d-afc2-2624b92f67e1","ios":"levelo://app?vid=706684ba-8b68-4a9d-afc2-2624b92f67e1"},"vehicle_type_id":"4","last_reported":1776894073,"current_range_meters":7200,"station_id":"ce4bh4p2rcd13ifvqe0g","pricing_plan_id":"cebpf4jnsgd1na2vs0mg"},{"bike_id":"0d8738c8-efd5-4f83-bedf-81eb9a1d6096","system_id":"levelo_inurba_marseille","lat":43.33166,"lon":5.36172,"is_reserved":false,"is_disabled":false,"rental_uris":{"android":"levelo://app?vid=0d8738c8-efd5-4f83-bedf-81eb9a1d6096","ios":"levelo://app?vid=0d8738c8-efd5-4f83-bedf-81eb9a1d6096"},"vehicle_type_id":"4","last_reported":1776894073,"current_range_meters":7200,"station_id":"","pricing_plan_id":"cebpf4jnsgd1na2vs0mg"},{"bike_id":"99da05bd-8b20-4e64-a473-8d7a50d0fa93","system_id":"levelo_inurba_marseille","lat":43.279981,"lon":5.400169,"is_reserved":false,"is_disabled":false,"rental_uris":{"android":"levelo://app?vid=99da05bd-8b20-4e64-a473-8d7a50d0fa93","ios":"levelo://app?vid=99da05bd-8b20-4e64-a473-8d7a50d0fa93"},"vehicle_type_id":"4","last_reported":1776894073,"current_range_meters":7200,"station_id":"ce4bho92rcd13ifvqh4g","pricing_plan_id":"cebpf4jnsgd1na2vs0mg"},{"bike_id":"aa3d5a99-64bb-4996-8662-bfd3c15dc0fe","system_id":"levelo_inurba_marseille","lat":43.30136,"lon":5.39862,"is_reserved":false,"is_disabled":false,"rental_uris":{"android":"levelo://app?vid=aa3d5a99-64bb-4996-8662-bfd3c15dc0fe","ios":"levelo://app?vid=aa3d5a99-64bb-4996-8662-bfd3c15dc0fe"},"vehicle_type_id":"4","last_reported":1776894073,"current_range_meters":7200,"station_id":"ce4bh0h2rcd13ifvqd40","pricing_plan_id":"cebpf4jnsgd1na2vs0mg"},{"bike_id":"f2683b18-499c-410e-91df-cc2f40278bc0","system_id":"levelo_inurba_marseille","lat":43.30281,"lon":5.37713,"is_reserved":false,"is_disabled":false,"rental_uris":{"android":"levelo://app?vid=f2683b18-499c-410e-91df-cc2f40278bc0","ios":"levelo://app?vid=f2683b18-499c-410e-91df-cc2f40278bc0"},"vehicle_type_id":"4","last_reported":1776894073,"current_range_meters":7200,"station_id":"ce4bguh2rcd13ifvqcj0","pricing_plan_id":"cebpf4jnsgd1na2vs0mg"},{"bike_id":"09012acd-7e2a-4e46-b00e-3df38d87fafc","system_id":"levelo_inurba_marseille","lat":43.24875,"lon":5.40618,"is_reserved":false,"is_disabled":false,"rental_uris":{"android":"levelo://app?vid=09012acd-7e2a-4e46-b00e-3df38d87fafc","ios":"levelo://app?vid=09012acd-7e2a-4e46-b00e-3df38d87fafc"},"vehicle_type_id":"4","last_reported":1776894073,"current_range_meters":8000,"station_id":"","pricing_plan_id":"cebpf4jnsgd1na2vs0mg"},{"bike_id":"f2ff52a7-1503-4a80-9a0e-a217d36469bb","system_id":"levelo_inurba_marseille","lat":43.31046,"lon":5.37181,"is_reserved":false,"is_disabled":false,"rental_uris":{"android":"levelo://app?vid=f2ff52a7-1503-4a80-9a0e-a217d36469bb","ios":"levelo://app?vid=f2ff52a7-1503-4a80-9a0e-a217d36469bb"},"vehicle_type_id":"4","last_reported":1776894073,"current_range_meters":8000,"station_id":"st_d4kl2rp97mjs73e7tdfg","pricing_plan_id":"cebpf4jnsgd1na2vs0mg"},{"bike_id":"897ccc75-3e6d-4af3-94b6-7b8960c9a5e7","system_id":"levelo_inurba_marseille","lat":43.30638,"lon":5.40051,"is_reserved":false,"is_disabled":false,"rental_uris":{"android":"levelo://app?vid=897ccc75-3e6d-4af3-94b6-7b8960c9a5e7","ios":"levelo://app?vid=897ccc75-3e6d-4af3-94b6-7b8960c9a5e7"},"vehicle_type_id":"4","last_reported":1776894073,"current_range_meters":8000,"station_id":"ce4bh112rcd13ifvqda0","pricing_plan_id":"cebpf4jnsgd1na2vs0mg"},{"bike_id":"0d2f09d5-5f95-4116-9229-21a1e260758a","system_id":"levelo_inurba_marseille","lat":43.2926,"lon":5.38427,"is_reserved":false,"is_disabled":false,"rental_uris":{"android":"levelo://app?vid=0d2f09d5-5f95-4116-9229-21a1e260758a","ios":"levelo://app?vid=0d2f09d5-5f95-4116-9229-21a1e260758a"},"vehicle_type_id":"4","last_reported":1776894073,"current_range_meters":8000,"station_id":"ce4bh692rcd13ifvqea0","pricing_plan_id":"cebpf4jnsgd1na2vs0mg"},{"bike_id":"16f7fe35-694a-4eb9-9cc6-4679694d07e2","system_id":"levelo_inurba_marseille","lat":43.31245,"lon":5.3792,"is_reserved":false,"is_disabled":false,"rental_uris":{"android":"levelo://app?vid=16f7fe35-694a-4eb9-9cc6-4679694d07e2","ios":"levelo://app?vid=16f7fe35-694a-4eb9-9cc6-4679694d07e2"},"vehicle_type_id":"4","last_reported":1776894073,"current_range_meters":8000,"station_id":"","pricing_plan_id":"cebpf4jnsgd1na2vs0mg"},{"bike_id":"83d41184-6e32-4757-ba78-3d82c4d47ec4","system_id":"levelo_inurba_marseille","lat":43.299333,"lon":5.365639,"is_reserved":false,"is_disabled":false,"rental_uris":{"android":"levelo://app?vid=83d41184-6e32-4757-ba78-3d82c4d47ec4","ios":"levelo://app?vid=83d41184-6e32-4757-ba78-3d82c4d47ec4"},"vehicle_type_id":"4","last_reported":1776894073,"current_range_meters":8000,"station_id":"ce4bgm92rcd13ifvqbr0","pricing_plan_id":"cebpf4jnsgd1na2vs0mg"},{"bike_id":"226ece2b-87fc-494b-b9b1-29d4f3a23456","system_id":"levelo_inurba_marseille","lat":43.28366,"lon":5.42613,"is_reserved":false,"is_disabled":false,"rental_uris":{"android":"levelo://app?vid=226ece2b-87fc-494b-b9b1-29d4f3a23456","ios":"levelo://app?vid=226ece2b-87fc-494b-b9b1-29d4f3a23456"},"vehicle_type_id":"4","last_reported":1776894073,"current_range_meters":8000,"station_id":"","pricing_plan_id":"cebpf4jnsgd1na2vs0mg"},{"bike_id":"a44d3d9d-7634-408e-a3b5-97b0ee8428f5","system_id":"levelo_inurba_marseille","lat":43.26618,"lon":5.38994,"is_reserved":false,"is_disabled":false,"rental_uris":{"android":"levelo://app?vid=a44d3d9d-7634-408e-a3b5-97b0ee8428f5","ios":"levelo://app?vid=a44d3d9d-7634-408e-a3b5-97b0ee8428f5"},"vehicle_type_id":"4","last_reported":1776894073,"current_range_meters":8000,"station_id":"ce4bhe12rcd13ifvqf30","pricing_plan_id":"cebpf4jnsgd1na2vs0mg"},{"bike_id":"e61bc510-c262-4934-8f35-de99fc50a31e","system_id":"levelo_inurba_marseille","lat":43.30118,"lon":5.39885,"is_reserved":false,"is_disabled":false,"rental_uris":{"android":"levelo://app?vid=e61bc510-c262-4934-8f35-de99fc50a31e","ios":"levelo://app?vid=e61bc510-c262-4934-8f35-de99fc50a31e"},"vehicle_type_id":"4","last_reported":1776894073,"current_range_meters":8000,"station_id":"ce4bh0h2rcd13ifvqd40","pricing_plan_id":"cebpf4jnsgd1na2vs0mg"},{"bike_id":"679b07cb-ad86-4695-93f8-e7a36ab51714","system_id":"levelo_inurba_marseille","lat":43.30096,"lon":5.39069,"is_reserved":false,"is_disabled":false,"rental_uris":{"android":"levelo://app?vid=679b07cb-ad86-4695-93f8-e7a36ab51714","ios":"levelo://app?vid=679b07cb-ad86-4695-93f8-e7a36ab51714"},"vehicle_type_id":"4","last_reported":1776894073,"current_range_meters":8000,"station_id":"ce4bh192rcd13ifvqdb0","pricing_plan_id":"cebpf4jnsgd1na2vs0mg"},{"bike_id":"7bcf589d-1485-482c-947e-3b81d1633d3f","system_id":"levelo_inurba_marseille","lat":43.26387,"lon":5.41042,"is_reserved":false,"is_disabled":false,"rental_uris":{"android":"levelo://app?vid=7bcf589d-1485-482c-947e-3b81d1633d3f","ios":"levelo://app?vid=7bcf589d-1485-482c-947e-3b81d1633d3f"},"vehicle_type_id":"4","last_reported":1776894073,"current_range_meters":8000,"station_id":"st_d4e5ca6na9uc73bfl5fg","pricing_plan_id":"cebpf4jnsgd1na2vs0mg"},{"bike_id":"6f061c2d-e294-44c5-a556-1fdc3d57ab50","system_id":"levelo_inurba_marseille","lat":43.3173,"lon":5.40426,"is_reserved":false,"is_disabled":false,"rental_uris":{"android":"levelo://app?vid=6f061c2d-e294-44c5-a556-1fdc3d57ab50","ios":"levelo://app?vid=6f061c2d-e294-44c5-a556-1fdc3d57ab50"},"vehicle_type_id":"4","last_reported":1776894073,"current_range_meters":8400,"station_id":"","pricing_plan_id":"cebpf4jnsgd1na2vs0mg"},{"bike_id":"11950379-0406-4543-8366-59097d9cc211","system_id":"levelo_inurba_marseille","lat":43.29522,"lon":5.38545,"is_reserved":false,"is_disabled":false,"rental_uris":{"android":"levelo://app?vid=11950379-0406-4543-8366-59097d9cc211","ios":"levelo://app?vid=11950379-0406-4543-8366-59097d9cc211"},"vehicle_type_id":"4","last_reported":1776894073,"current_range_meters":8400,"station_id":"ce4bgih2rcd13ifvqba0","pricing_plan_id":"cebpf4jnsgd1na2vs0mg"},{"bike_id":"b8f8d66f-2503-4e07-a7c5-6e97f6bb6d81","system_id":"levelo_inurba_marseille","lat":43.28145,"lon":5.42636,"is_reserved":false,"is_disabled":false,"rental_uris":{"android":"levelo://app?vid=b8f8d66f-2503-4e07-a7c5-6e97f6bb6d81","ios":"levelo://app?vid=b8f8d66f-2503-4e07-a7c5-6e97f6bb6d81"},"vehicle_type_id":"4","last_reported":1776894073,"current_range_meters":8400,"station_id":"ce4bhnh2rcd13ifvqgug","pricing_plan_id":"cebpf4jnsgd1na2vs0mg"},{"bike_id":"46a8898e-e5cc-4df4-ac09-f68a4ebd52a8","system_id":"levelo_inurba_marseille","lat":43.30068,"lon":5.38674,"is_reserved":false,"is_disabled":false,"rental_uris":{"android":"levelo://app?vid=46a8898e-e5cc-4df4-ac09-f68a4ebd52a8","ios":"levelo://app?vid=46a8898e-e5cc-4df4-ac09-f68a4ebd52a8"},"vehicle_type_id":"4","last_reported":1776894073,"current_range_meters":8400,"station_id":"","pricing_plan_id":"cebpf4jnsgd1na2vs0mg"},{"bike_id":"fd090187-b3cd-49e0-82c6-b3817cf3be1b","system_id":"levelo_inurba_marseille","lat":43.29876,"lon":5.3858,"is_reserved":false,"is_disabled":false,"rental_uris":{"android":"levelo://app?vid=fd090187-b3cd-49e0-82c6-b3817cf3be1b","ios":"levelo://app?vid=fd090187-b3cd-49e0-82c6-b3817cf3be1b"},"vehicle_type_id":"4","last_reported":1776894073,"current_range_meters":8400,"station_id":"","pricing_plan_id":"cebpf4jnsgd1na2vs0mg"},{"bike_id":"852660e0-1e7a-4f6f-9df8-aa0dbe3c1c2f","system_id":"levelo_inurba_marseille","lat":43.28113,"lon":5.37837,"is_reserved":false,"is_disabled":false,"rental_uris":{"android":"levelo://app?vid=852660e0-1e7a-4f6f-9df8-aa0dbe3c1c2f","ios":"levelo://app?vid=852660e0-1e7a-4f6f-9df8-aa0dbe3c1c2f"},"vehicle_type_id":"4","last_reported":1776894073,"current_range_meters":8400,"station_id":"ce4bha12rcd13ifvqee0","pricing_plan_id":"cebpf4jnsgd1na2vs0mg"},{"bike_id":"1c21b5e4-18ba-4d77-b990-0019b8294ddb","system_id":"levelo_inurba_marseille","lat":43.26561,"lon":5.3964,"is_reserved":false,"is_disabled":false,"rental_uris":{"android":"levelo://app?vid=1c21b5e4-18ba-4d77-b990-0019b8294ddb","ios":"levelo://app?vid=1c21b5e4-18ba-4d77-b990-0019b8294ddb"},"vehicle_type_id":"4","last_reported":1776894073,"current_range_meters":8400,"station_id":"","pricing_plan_id":"cebpf4jnsgd1na2vs0mg"},{"bike_id":"633f0f51-cd95-411c-a280-0b97188c6e3f","system_id":"levelo_inurba_marseille","lat":43.23978,"lon":5.36587,"is_reserved":false,"is_disabled":false,"rental_uris":{"android":"levelo://app?vid=633f0f51-cd95-411c-a280-0b97188c6e3f","ios":"levelo://app?vid=633f0f51-cd95-411c-a280-0b97188c6e3f"},"vehicle_type_id":"4","last_reported":1776894073,"current_range_meters":8400,"station_id":"ce4bhi12rcd13ifvqfp0","pricing_plan_id":"cebpf4jnsgd1na2vs0mg"},{"bike_id":"430109c1-63b9-4def-bcd8-94c740fa7480","system_id":"levelo_inurba_marseille","lat":43.28407,"lon":5.37521,"is_reserved":false,"is_disabled":false,"rental_uris":{"android":"levelo://app?vid=430109c1-63b9-4def-bcd8-94c740fa7480","ios":"levelo://app?vid=430109c1-63b9-4def-bcd8-94c740fa7480"},"vehicle_type_id":"4","last_reported":1776894073,"current_range_meters":8400,"station_id":"ce4bh412rcd13ifvqds0","pricing_plan_id":"cebpf4jnsgd1na2vs0mg"},{"bike_id":"b6d0ba7f-995a-4330-bda6-34dd7197caa9","system_id":"levelo_inurba_marseille","lat":43.29014,"lon":5.38633,"is_reserved":false,"is_disabled":false,"rental_uris":{"android":"levelo://app?vid=b6d0ba7f-995a-4330-bda6-34dd7197caa9","ios":"levelo://app?vid=b6d0ba7f-995a-4330-bda6-34dd7197caa9"},"vehicle_type_id":"4","last_reported":1776894073,"current_range_meters":8400,"station_id":"ce4bh4p2rcd13ifvqe0g","pricing_plan_id":"cebpf4jnsgd1na2vs0mg"},{"bike_id":"bd72b1e4-f25f-4a1b-9ff3-ec6aef1a98e0","system_id":"levelo_inurba_marseille","lat":43.28687,"lon":5.38659,"is_reserved":false,"is_disabled":false,"rental_uris":{"android":"levelo://app?vid=bd72b1e4-f25f-4a1b-9ff3-ec6aef1a98e0","ios":"levelo://app?vid=bd72b1e4-f25f-4a1b-9ff3-ec6aef1a98e0"},"vehicle_type_id":"4","last_reported":1776894073,"current_range_meters":8400,"station_id":"ce4bh492rcd13ifvqdug","pricing_plan_id":"cebpf4jnsgd1na2vs0mg"},{"bike_id":"27333076-abb5-4a9b-ac59-89b1742839cf","system_id":"levelo_inurba_marseille","lat":43.28719,"lon":5.3793,"is_reserved":false,"is_disabled":true,"rental_uris":{"android":"levelo://app?vid=27333076-abb5-4a9b-ac59-89b1742839cf","ios":"levelo://app?vid=27333076-abb5-4a9b-ac59-89b1742839cf"},"vehicle_type_id":"4","last_reported":1776894073,"current_range_meters":8400,"station_id":"ce4bh9p2rcd13ifvqec0","pricing_plan_id":"cebpf4jnsgd1na2vs0mg"},{"bike_id":"772652df-39a3-4a7d-ab76-86683fdc6511","system_id":"levelo_inurba_marseille","lat":43.28903,"lon":5.36875,"is_reserved":false,"is_disabled":false,"rental_uris":{"android":"levelo://app?vid=772652df-39a3-4a7d-ab76-86683fdc6511","ios":"levelo://app?vid=772652df-39a3-4a7d-ab76-86683fdc6511"},"vehicle_type_id":"4","last_reported":1776894073,"current_range_meters":8400,"station_id":"","pricing_plan_id":"cebpf4jnsgd1na2vs0mg"},{"bike_id":"f12e7adc-c081-4652-9247-8637f1a7e34a","system_id":"levelo_inurba_marseille","lat":43.2656,"lon":5.39029,"is_reserved":false,"is_disabled":false,"rental_uris":{"android":"levelo://app?vid=f12e7adc-c081-4652-9247-8637f1a7e34a","ios":"levelo://app?vid=f12e7adc-c081-4652-9247-8637f1a7e34a"},"vehicle_type_id":"4","last_reported":1776894073,"current_range_meters":8800,"station_id":"ce4bhe12rcd13ifvqf30","pricing_plan_id":"cebpf4jnsgd1na2vs0mg"},{"bike_id":"736e479d-3971-4e55-8f1a-91d301591267","system_id":"levelo_inurba_marseille","lat":43.2867,"lon":5.38673,"is_reserved":false,"is_disabled":true,"rental_uris":{"android":"levelo://app?vid=736e479d-3971-4e55-8f1a-91d301591267","ios":"levelo://app?vid=736e479d-3971-4e55-8f1a-91d301591267"},"vehicle_type_id":"4","last_reported":1776894073,"current_range_meters":8800,"station_id":"ce4bh492rcd13ifvqdug","pricing_plan_id":"cebpf4jnsgd1na2vs0mg"},{"bike_id":"7815ddfa-84fd-4ae5-b67a-cd6d6508af90","system_id":"levelo_inurba_marseille","lat":43.28095,"lon":5.36966,"is_reserved":false,"is_disabled":false,"rental_uris":{"android":"levelo://app?vid=7815ddfa-84fd-4ae5-b67a-cd6d6508af90","ios":"levelo://app?vid=7815ddfa-84fd-4ae5-b67a-cd6d6508af90"},"vehicle_type_id":"4","last_reported":1776894073,"current_range_meters":8800,"station_id":"","pricing_plan_id":"cebpf4jnsgd1na2vs0mg"},{"bike_id":"46be8457-d960-48a6-ad5b-f789ef8076c1","system_id":"levelo_inurba_marseille","lat":43.29677,"lon":5.3787,"is_reserved":false,"is_disabled":false,"rental_uris":{"android":"levelo://app?vid=46be8457-d960-48a6-ad5b-f789ef8076c1","ios":"levelo://app?vid=46be8457-d960-48a6-ad5b-f789ef8076c1"},"vehicle_type_id":"4","last_reported":1776894073,"current_range_meters":8800,"station_id":"","pricing_plan_id":"cebpf4jnsgd1na2vs0mg"},{"bike_id":"d55b7166-12de-4bdf-8b05-1755f1067768","system_id":"levelo_inurba_marseille","lat":43.30233,"lon":5.39829,"is_reserved":false,"is_disabled":false,"rental_uris":{"android":"levelo://app?vid=d55b7166-12de-4bdf-8b05-1755f1067768","ios":"levelo://app?vid=d55b7166-12de-4bdf-8b05-1755f1067768"},"vehicle_type_id":"4","last_reported":1776894073,"current_range_meters":8800,"station_id":"","pricing_plan_id":"cebpf4jnsgd1na2vs0mg"},{"bike_id":"c441ac0f-0681-4a6a-9621-66deda0d7cb8","system_id":"levelo_inurba_marseille","lat":43.31162,"lon":5.38685,"is_reserved":false,"is_disabled":false,"rental_uris":{"android":"levelo://app?vid=c441ac0f-0681-4a6a-9621-66deda0d7cb8","ios":"levelo://app?vid=c441ac0f-0681-4a6a-9621-66deda0d7cb8"},"vehicle_type_id":"4","last_reported":1776894073,"current_range_meters":8800,"station_id":"ce4bgv12rcd13ifvqcp0","pricing_plan_id":"cebpf4jnsgd1na2vs0mg"},{"bike_id":"ed34d941-cc3a-4749-ac6a-5df2e0b4ce8e","system_id":"levelo_inurba_marseille","lat":43.29638,"lon":5.40589,"is_reserved":false,"is_disabled":false,"rental_uris":{"android":"levelo://app?vid=ed34d941-cc3a-4749-ac6a-5df2e0b4ce8e","ios":"levelo://app?vid=ed34d941-cc3a-4749-ac6a-5df2e0b4ce8e"},"vehicle_type_id":"4","last_reported":1776894073,"current_range_meters":8800,"station_id":"ce4bh0h2rcd13ifvqd60","pricing_plan_id":"cebpf4jnsgd1na2vs0mg"},{"bike_id":"0923929c-d272-4fa1-a3d9-8f4c7a6f830d","system_id":"levelo_inurba_marseille","lat":43.30821,"lon":5.38184,"is_reserved":false,"is_disabled":false,"rental_uris":{"android":"levelo://app?vid=0923929c-d272-4fa1-a3d9-8f4c7a6f830d","ios":"levelo://app?vid=0923929c-d272-4fa1-a3d9-8f4c7a6f830d"},"vehicle_type_id":"4","last_reported":1776894073,"current_range_meters":8800,"station_id":"ce4bgt12rcd13ifvqce0","pricing_plan_id":"cebpf4jnsgd1na2vs0mg"},{"bike_id":"205eefac-f379-49f9-b02e-ad048a493b05","system_id":"levelo_inurba_marseille","lat":43.2713,"lon":5.42574,"is_reserved":false,"is_disabled":false,"rental_uris":{"android":"levelo://app?vid=205eefac-f379-49f9-b02e-ad048a493b05","ios":"levelo://app?vid=205eefac-f379-49f9-b02e-ad048a493b05"},"vehicle_type_id":"4","last_reported":1776894073,"current_range_meters":8800,"station_id":"","pricing_plan_id":"cebpf4jnsgd1na2vs0mg"},{"bike_id":"558a1627-65e5-4026-8f8d-893330618dd4","system_id":"levelo_inurba_marseille","lat":43.29909,"lon":5.38142,"is_reserved":false,"is_disabled":false,"rental_uris":{"android":"levelo://app?vid=558a1627-65e5-4026-8f8d-893330618dd4","ios":"levelo://app?vid=558a1627-65e5-4026-8f8d-893330618dd4"},"vehicle_type_id":"4","last_reported":1776894073,"current_range_meters":8800,"station_id":"ce4bgj12rcd13ifvqbc0","pricing_plan_id":"cebpf4jnsgd1na2vs0mg"},{"bike_id":"500638d0-cf5c-4061-b413-99b5dc6f2377","system_id":"levelo_inurba_marseille","lat":43.27475,"lon":5.42476,"is_reserved":false,"is_disabled":false,"rental_uris":{"android":"levelo://app?vid=500638d0-cf5c-4061-b413-99b5dc6f2377","ios":"levelo://app?vid=500638d0-cf5c-4061-b413-99b5dc6f2377"},"vehicle_type_id":"4","last_reported":1776894073,"current_range_meters":8800,"station_id":"ce4bhn92rcd13ifvqgrg","pricing_plan_id":"cebpf4jnsgd1na2vs0mg"},{"bike_id":"4cd4bc1d-308f-4a56-ac8e-bdea4ad9bef4","system_id":"levelo_inurba_marseille","lat":43.29865,"lon":5.39769,"is_reserved":false,"is_disabled":true,"rental_uris":{"android":"levelo://app?vid=4cd4bc1d-308f-4a56-ac8e-bdea4ad9bef4","ios":"levelo://app?vid=4cd4bc1d-308f-4a56-ac8e-bdea4ad9bef4"},"vehicle_type_id":"4","last_reported":1776894073,"current_range_meters":8800,"station_id":"ce4bh0h2rcd13ifvqd50","pricing_plan_id":"cebpf4jnsgd1na2vs0mg"},{"bike_id":"466b9cd9-0deb-4b9b-b01a-72f0529a774e","system_id":"levelo_inurba_marseille","lat":43.28403,"lon":5.37509,"is_reserved":false,"is_disabled":true,"rental_uris":{"android":"levelo://app?vid=466b9cd9-0deb-4b9b-b01a-72f0529a774e","ios":"levelo://app?vid=466b9cd9-0deb-4b9b-b01a-72f0529a774e"},"vehicle_type_id":"4","last_reported":1776894073,"current_range_meters":8800,"station_id":"ce4bh412rcd13ifvqds0","pricing_plan_id":"cebpf4jnsgd1na2vs0mg"},{"bike_id":"e8ab685b-58d8-4b45-a5df-fbdf0a6124a1","system_id":"levelo_inurba_marseille","lat":43.337444,"lon":5.374475,"is_reserved":false,"is_disabled":false,"rental_uris":{"android":"levelo://app?vid=e8ab685b-58d8-4b45-a5df-fbdf0a6124a1","ios":"levelo://app?vid=e8ab685b-58d8-4b45-a5df-fbdf0a6124a1"},"vehicle_type_id":"4","last_reported":1776894073,"current_range_meters":8800,"station_id":"ce4bhdp2rcd13ifvqf20","pricing_plan_id":"cebpf4jnsgd1na2vs0mg"},{"bike_id":"8331af0f-100e-470f-9e36-7657fa113fe2","system_id":"levelo_inurba_marseille","lat":43.31255,"lon":5.36874,"is_reserved":false,"is_disabled":false,"rental_uris":{"android":"levelo://app?vid=8331af0f-100e-470f-9e36-7657fa113fe2","ios":"levelo://app?vid=8331af0f-100e-470f-9e36-7657fa113fe2"},"vehicle_type_id":"4","last_reported":1776894073,"current_range_meters":8800,"station_id":"ce4bgl92rcd13ifvqbq0","pricing_plan_id":"cebpf4jnsgd1na2vs0mg"},{"bike_id":"fcc42d01-1493-4675-a533-2be77dfe199a","system_id":"levelo_inurba_marseille","lat":43.31189,"lon":5.38711,"is_reserved":false,"is_disabled":false,"rental_uris":{"android":"levelo://app?vid=fcc42d01-1493-4675-a533-2be77dfe199a","ios":"levelo://app?vid=fcc42d01-1493-4675-a533-2be77dfe199a"},"vehicle_type_id":"4","last_reported":1776894073,"current_range_meters":8800,"station_id":"ce4bgv12rcd13ifvqcp0","pricing_plan_id":"cebpf4jnsgd1na2vs0mg"},{"bike_id":"f22fab7c-d9ef-452e-9e0a-f53fca1bb2ad","system_id":"levelo_inurba_marseille","lat":43.29523,"lon":5.39039,"is_reserved":false,"is_disabled":false,"rental_uris":{"android":"levelo://app?vid=f22fab7c-d9ef-452e-9e0a-f53fca1bb2ad","ios":"levelo://app?vid=f22fab7c-d9ef-452e-9e0a-f53fca1bb2ad"},"vehicle_type_id":"4","last_reported":1776894073,"current_range_meters":8800,"station_id":"ce4bh3p2rcd13ifvqdp0","pricing_plan_id":"cebpf4jnsgd1na2vs0mg"},{"bike_id":"02b211dc-46f2-41f4-b989-6c48ba89b3d9","system_id":"levelo_inurba_marseille","lat":43.298662,"lon":5.389143,"is_reserved":false,"is_disabled":false,"rental_uris":{"android":"levelo://app?vid=02b211dc-46f2-41f4-b989-6c48ba89b3d9","ios":"levelo://app?vid=02b211dc-46f2-41f4-b989-6c48ba89b3d9"},"vehicle_type_id":"4","last_reported":1776894073,"current_range_meters":8800,"station_id":"ce4bh392rcd13ifvqdl0","pricing_plan_id":"cebpf4jnsgd1na2vs0mg"},{"bike_id":"94d46c2a-2d34-4afb-8a47-8e959c0cbdf0","system_id":"levelo_inurba_marseille","lat":43.28351,"lon":5.38082,"is_reserved":false,"is_disabled":false,"rental_uris":{"android":"levelo://app?vid=94d46c2a-2d34-4afb-8a47-8e959c0cbdf0","ios":"levelo://app?vid=94d46c2a-2d34-4afb-8a47-8e959c0cbdf0"},"vehicle_type_id":"4","last_reported":1776894073,"current_range_meters":8800,"station_id":"ce4bh412rcd13ifvqdr0","pricing_plan_id":"cebpf4jnsgd1na2vs0mg"},{"bike_id":"a56889e7-37d7-487e-a661-9c8461fe50da","system_id":"levelo_inurba_marseille","lat":43.30872,"lon":5.36647,"is_reserved":false,"is_disabled":false,"rental_uris":{"android":"levelo://app?vid=a56889e7-37d7-487e-a661-9c8461fe50da","ios":"levelo://app?vid=a56889e7-37d7-487e-a661-9c8461fe50da"},"vehicle_type_id":"4","last_reported":1776894073,"current_range_meters":8800,"station_id":"","pricing_plan_id":"cebpf4jnsgd1na2vs0mg"},{"bike_id":"25931435-472d-4946-9b9a-fc67e50f018d","system_id":"levelo_inurba_marseille","lat":43.23022,"lon":5.44477,"is_reserved":false,"is_disabled":false,"rental_uris":{"android":"levelo://app?vid=25931435-472d-4946-9b9a-fc67e50f018d","ios":"levelo://app?vid=25931435-472d-4946-9b9a-fc67e50f018d"},"vehicle_type_id":"4","last_reported":1776894073,"current_range_meters":8800,"station_id":"","pricing_plan_id":"cebpf4jnsgd1na2vs0mg"},{"bike_id":"43551c7e-2e91-49bb-b9fd-9391ff299d13","system_id":"levelo_inurba_marseille","lat":43.23965,"lon":5.36638,"is_reserved":false,"is_disabled":false,"rental_uris":{"android":"levelo://app?vid=43551c7e-2e91-49bb-b9fd-9391ff299d13","ios":"levelo://app?vid=43551c7e-2e91-49bb-b9fd-9391ff299d13"},"vehicle_type_id":"4","last_reported":1776894073,"current_range_meters":8800,"station_id":"ce4bhi12rcd13ifvqfp0","pricing_plan_id":"cebpf4jnsgd1na2vs0mg"},{"bike_id":"f3f2b1b8-361c-439d-af6c-144b8f2b403b","system_id":"levelo_inurba_marseille","lat":43.30888,"lon":5.39644,"is_reserved":false,"is_disabled":false,"rental_uris":{"android":"levelo://app?vid=f3f2b1b8-361c-439d-af6c-144b8f2b403b","ios":"levelo://app?vid=f3f2b1b8-361c-439d-af6c-144b8f2b403b"},"vehicle_type_id":"4","last_reported":1776894073,"current_range_meters":8800,"station_id":"ce4bh012rcd13ifvqcv0","pricing_plan_id":"cebpf4jnsgd1na2vs0mg"},{"bike_id":"5445eff1-5ba4-4f9f-bb7b-d9f4eedf2088","system_id":"levelo_inurba_marseille","lat":43.304023,"lon":5.416835,"is_reserved":false,"is_disabled":false,"rental_uris":{"android":"levelo://app?vid=5445eff1-5ba4-4f9f-bb7b-d9f4eedf2088","ios":"levelo://app?vid=5445eff1-5ba4-4f9f-bb7b-d9f4eedf2088"},"vehicle_type_id":"4","last_reported":1776894073,"current_range_meters":9200,"station_id":"ce4bhop2rcd13ifvqh7g","pricing_plan_id":"cebpf4jnsgd1na2vs0mg"},{"bike_id":"d3dc02e0-8ede-4c6d-90d1-aca77e4c5e9f","system_id":"levelo_inurba_marseille","lat":43.2531,"lon":5.42149,"is_reserved":false,"is_disabled":false,"rental_uris":{"android":"levelo://app?vid=d3dc02e0-8ede-4c6d-90d1-aca77e4c5e9f","ios":"levelo://app?vid=d3dc02e0-8ede-4c6d-90d1-aca77e4c5e9f"},"vehicle_type_id":"4","last_reported":1776894073,"current_range_meters":9200,"station_id":"st_d2m65c5bi1j21697t3ng","pricing_plan_id":"cebpf4jnsgd1na2vs0mg"},{"bike_id":"97563811-de7e-4fb9-bbc8-59c1cb66a0eb","system_id":"levelo_inurba_marseille","lat":43.243839,"lon":5.370514,"is_reserved":false,"is_disabled":false,"rental_uris":{"android":"levelo://app?vid=97563811-de7e-4fb9-bbc8-59c1cb66a0eb","ios":"levelo://app?vid=97563811-de7e-4fb9-bbc8-59c1cb66a0eb"},"vehicle_type_id":"4","last_reported":1776894073,"current_range_meters":9200,"station_id":"ce4bhhh2rcd13ifvqfk0","pricing_plan_id":"cebpf4jnsgd1na2vs0mg"},{"bike_id":"745efcb8-73c4-4b8c-9732-ada2e0fa7c05","system_id":"levelo_inurba_marseille","lat":43.24663,"lon":5.38169,"is_reserved":false,"is_disabled":false,"rental_uris":{"android":"levelo://app?vid=745efcb8-73c4-4b8c-9732-ada2e0fa7c05","ios":"levelo://app?vid=745efcb8-73c4-4b8c-9732-ada2e0fa7c05"},"vehicle_type_id":"4","last_reported":1776894073,"current_range_meters":9200,"station_id":"ce4bhih2rcd13ifvqfr0","pricing_plan_id":"cebpf4jnsgd1na2vs0mg"},{"bike_id":"06b76105-edad-4ca1-a1f6-786246c958bf","system_id":"levelo_inurba_marseille","lat":43.29172,"lon":5.39323,"is_reserved":false,"is_disabled":false,"rental_uris":{"android":"levelo://app?vid=06b76105-edad-4ca1-a1f6-786246c958bf","ios":"levelo://app?vid=06b76105-edad-4ca1-a1f6-786246c958bf"},"vehicle_type_id":"4","last_reported":1776894073,"current_range_meters":9200,"station_id":"ce4bh192rcd13ifvqdd0","pricing_plan_id":"cebpf4jnsgd1na2vs0mg"},{"bike_id":"61601d71-74e0-4e23-aaad-9705fd412fc8","system_id":"levelo_inurba_marseille","lat":43.29708,"lon":5.36972,"is_reserved":false,"is_disabled":false,"rental_uris":{"android":"levelo://app?vid=61601d71-74e0-4e23-aaad-9705fd412fc8","ios":"levelo://app?vid=61601d71-74e0-4e23-aaad-9705fd412fc8"},"vehicle_type_id":"4","last_reported":1776894073,"current_range_meters":9200,"station_id":"","pricing_plan_id":"cebpf4jnsgd1na2vs0mg"},{"bike_id":"52d848d3-e124-40a2-855d-fb7f07415aa4","system_id":"levelo_inurba_marseille","lat":43.28409,"lon":5.37512,"is_reserved":false,"is_disabled":true,"rental_uris":{"android":"levelo://app?vid=52d848d3-e124-40a2-855d-fb7f07415aa4","ios":"levelo://app?vid=52d848d3-e124-40a2-855d-fb7f07415aa4"},"vehicle_type_id":"4","last_reported":1776894073,"current_range_meters":9200,"station_id":"ce4bh412rcd13ifvqds0","pricing_plan_id":"cebpf4jnsgd1na2vs0mg"},{"bike_id":"b92cba9a-3479-474b-ba87-3be7471293b6","system_id":"levelo_inurba_marseille","lat":43.2619,"lon":5.37443,"is_reserved":false,"is_disabled":false,"rental_uris":{"android":"levelo://app?vid=b92cba9a-3479-474b-ba87-3be7471293b6","ios":"levelo://app?vid=b92cba9a-3479-474b-ba87-3be7471293b6"},"vehicle_type_id":"4","last_reported":1776894073,"current_range_meters":9200,"station_id":"ce4bhgp2rcd13ifvqfc0","pricing_plan_id":"cebpf4jnsgd1na2vs0mg"},{"bike_id":"f0cf54c0-7cc8-416a-ae7a-aefa106e8047","system_id":"levelo_inurba_marseille","lat":43.28445,"lon":5.35881,"is_reserved":false,"is_disabled":false,"rental_uris":{"android":"levelo://app?vid=f0cf54c0-7cc8-416a-ae7a-aefa106e8047","ios":"levelo://app?vid=f0cf54c0-7cc8-416a-ae7a-aefa106e8047"},"vehicle_type_id":"4","last_reported":1776894073,"current_range_meters":9200,"station_id":"ce4bhah2rcd13ifvqei0","pricing_plan_id":"cebpf4jnsgd1na2vs0mg"},{"bike_id":"9c3677d0-627f-49f8-bd9c-64ba96ef4fce","system_id":"levelo_inurba_marseille","lat":43.28457,"lon":5.48377,"is_reserved":false,"is_disabled":false,"rental_uris":{"android":"levelo://app?vid=9c3677d0-627f-49f8-bd9c-64ba96ef4fce","ios":"levelo://app?vid=9c3677d0-627f-49f8-bd9c-64ba96ef4fce"},"vehicle_type_id":"4","last_reported":1776894073,"current_range_meters":9200,"station_id":"","pricing_plan_id":"cebpf4jnsgd1na2vs0mg"},{"bike_id":"4e7142d4-2920-4782-80ed-82a196c13f23","system_id":"levelo_inurba_marseille","lat":43.29072,"lon":5.37155,"is_reserved":false,"is_disabled":false,"rental_uris":{"android":"levelo://app?vid=4e7142d4-2920-4782-80ed-82a196c13f23","ios":"levelo://app?vid=4e7142d4-2920-4782-80ed-82a196c13f23"},"vehicle_type_id":"4","last_reported":1776894073,"current_range_meters":9200,"station_id":"ce4bh5p2rcd13ifvqe4g","pricing_plan_id":"cebpf4jnsgd1na2vs0mg"},{"bike_id":"acb21e01-eb23-4757-a0b0-d28719e33c48","system_id":"levelo_inurba_marseille","lat":43.29051,"lon":5.39831,"is_reserved":false,"is_disabled":false,"rental_uris":{"android":"levelo://app?vid=acb21e01-eb23-4757-a0b0-d28719e33c48","ios":"levelo://app?vid=acb21e01-eb23-4757-a0b0-d28719e33c48"},"vehicle_type_id":"4","last_reported":1776894073,"current_range_meters":9200,"station_id":"","pricing_plan_id":"cebpf4jnsgd1na2vs0mg"},{"bike_id":"1f812c79-a1cc-4770-94e4-c447fae650ce","system_id":"levelo_inurba_marseille","lat":43.28614,"lon":5.38973,"is_reserved":false,"is_disabled":false,"rental_uris":{"android":"levelo://app?vid=1f812c79-a1cc-4770-94e4-c447fae650ce","ios":"levelo://app?vid=1f812c79-a1cc-4770-94e4-c447fae650ce"},"vehicle_type_id":"4","last_reported":1776894073,"current_range_meters":9600,"station_id":"","pricing_plan_id":"cebpf4jnsgd1na2vs0mg"},{"bike_id":"1b96147a-0a00-444b-a6da-e7e56ca38fd6","system_id":"levelo_inurba_marseille","lat":43.29869,"lon":5.3974,"is_reserved":false,"is_disabled":false,"rental_uris":{"android":"levelo://app?vid=1b96147a-0a00-444b-a6da-e7e56ca38fd6","ios":"levelo://app?vid=1b96147a-0a00-444b-a6da-e7e56ca38fd6"},"vehicle_type_id":"4","last_reported":1776894073,"current_range_meters":9600,"station_id":"ce4bh0h2rcd13ifvqd50","pricing_plan_id":"cebpf4jnsgd1na2vs0mg"},{"bike_id":"177c7f75-5bd2-499a-848b-65369fd0a5bb","system_id":"levelo_inurba_marseille","lat":43.29959,"lon":5.38498,"is_reserved":false,"is_disabled":false,"rental_uris":{"android":"levelo://app?vid=177c7f75-5bd2-499a-848b-65369fd0a5bb","ios":"levelo://app?vid=177c7f75-5bd2-499a-848b-65369fd0a5bb"},"vehicle_type_id":"4","last_reported":1776894073,"current_range_meters":9600,"station_id":"ce4bgj92rcd13ifvqbd0","pricing_plan_id":"cebpf4jnsgd1na2vs0mg"},{"bike_id":"aac8d525-8c84-436f-a81d-44f9bdecbbfc","system_id":"levelo_inurba_marseille","lat":43.25098,"lon":5.39568,"is_reserved":false,"is_disabled":false,"rental_uris":{"android":"levelo://app?vid=aac8d525-8c84-436f-a81d-44f9bdecbbfc","ios":"levelo://app?vid=aac8d525-8c84-436f-a81d-44f9bdecbbfc"},"vehicle_type_id":"4","last_reported":1776894073,"current_range_meters":9600,"station_id":"ce4bhm12rcd13ifvqgkg","pricing_plan_id":"cebpf4jnsgd1na2vs0mg"},{"bike_id":"03b714fc-d600-4ef7-a461-b7b6354d1f22","system_id":"levelo_inurba_marseille","lat":43.29532,"lon":5.39039,"is_reserved":false,"is_disabled":false,"rental_uris":{"android":"levelo://app?vid=03b714fc-d600-4ef7-a461-b7b6354d1f22","ios":"levelo://app?vid=03b714fc-d600-4ef7-a461-b7b6354d1f22"},"vehicle_type_id":"4","last_reported":1776894073,"current_range_meters":9600,"station_id":"ce4bh3p2rcd13ifvqdp0","pricing_plan_id":"cebpf4jnsgd1na2vs0mg"},{"bike_id":"621c554c-50ab-4447-bacf-7045ff487d4a","system_id":"levelo_inurba_marseille","lat":43.29453,"lon":5.39464,"is_reserved":false,"is_disabled":false,"rental_uris":{"android":"levelo://app?vid=621c554c-50ab-4447-bacf-7045ff487d4a","ios":"levelo://app?vid=621c554c-50ab-4447-bacf-7045ff487d4a"},"vehicle_type_id":"4","last_reported":1776894073,"current_range_meters":9600,"station_id":"","pricing_plan_id":"cebpf4jnsgd1na2vs0mg"},{"bike_id":"2762151c-37b3-45f3-b7d7-d3dc9aa45e78","system_id":"levelo_inurba_marseille","lat":43.30199,"lon":5.36641,"is_reserved":false,"is_disabled":false,"rental_uris":{"android":"levelo://app?vid=2762151c-37b3-45f3-b7d7-d3dc9aa45e78","ios":"levelo://app?vid=2762151c-37b3-45f3-b7d7-d3dc9aa45e78"},"vehicle_type_id":"4","last_reported":1776894073,"current_range_meters":9600,"station_id":"ce4bgrh2rcd13ifvqc8g","pricing_plan_id":"cebpf4jnsgd1na2vs0mg"},{"bike_id":"fcf51bf8-7bd0-4289-aaac-a9a01c559fe1","system_id":"levelo_inurba_marseille","lat":43.29042,"lon":5.37098,"is_reserved":false,"is_disabled":false,"rental_uris":{"android":"levelo://app?vid=fcf51bf8-7bd0-4289-aaac-a9a01c559fe1","ios":"levelo://app?vid=fcf51bf8-7bd0-4289-aaac-a9a01c559fe1"},"vehicle_type_id":"4","last_reported":1776894073,"current_range_meters":9600,"station_id":"","pricing_plan_id":"cebpf4jnsgd1na2vs0mg"},{"bike_id":"9e49397d-b15f-42ca-b438-81f289c696f0","system_id":"levelo_inurba_marseille","lat":43.23136,"lon":5.43741,"is_reserved":false,"is_disabled":true,"rental_uris":{"android":"levelo://app?vid=9e49397d-b15f-42ca-b438-81f289c696f0","ios":"levelo://app?vid=9e49397d-b15f-42ca-b438-81f289c696f0"},"vehicle_type_id":"4","last_reported":1776894073,"current_range_meters":9600,"station_id":"ce4bhmp2rcd13ifvqgog","pricing_plan_id":"cebpf4jnsgd1na2vs0mg"},{"bike_id":"c7041db6-efe9-470b-b3aa-61638cf7bac3","system_id":"levelo_inurba_marseille","lat":43.33601,"lon":5.37442,"is_reserved":false,"is_disabled":false,"rental_uris":{"android":"levelo://app?vid=c7041db6-efe9-470b-b3aa-61638cf7bac3","ios":"levelo://app?vid=c7041db6-efe9-470b-b3aa-61638cf7bac3"},"vehicle_type_id":"4","last_reported":1776894073,"current_range_meters":9600,"station_id":"st_d46tts09ee8s73dlu43g","pricing_plan_id":"cebpf4jnsgd1na2vs0mg"},{"bike_id":"68e86292-e11d-49d5-888c-58848729cc3c","system_id":"levelo_inurba_marseille","lat":43.28381,"lon":5.38695,"is_reserved":false,"is_disabled":false,"rental_uris":{"android":"levelo://app?vid=68e86292-e11d-49d5-888c-58848729cc3c","ios":"levelo://app?vid=68e86292-e11d-49d5-888c-58848729cc3c"},"vehicle_type_id":"4","last_reported":1776894073,"current_range_meters":9600,"station_id":"","pricing_plan_id":"cebpf4jnsgd1na2vs0mg"},{"bike_id":"f5c3a6a6-3609-40ad-9c49-87232dad5958","system_id":"levelo_inurba_marseille","lat":43.30598,"lon":5.39357,"is_reserved":false,"is_disabled":true,"rental_uris":{"android":"levelo://app?vid=f5c3a6a6-3609-40ad-9c49-87232dad5958","ios":"levelo://app?vid=f5c3a6a6-3609-40ad-9c49-87232dad5958"},"vehicle_type_id":"4","last_reported":1776894073,"current_range_meters":9600,"station_id":"ce4bh0p2rcd13ifvqd80","pricing_plan_id":"cebpf4jnsgd1na2vs0mg"},{"bike_id":"d89648f4-34dd-4af2-a497-da5a222f69e0","system_id":"levelo_inurba_marseille","lat":43.29211,"lon":5.3578,"is_reserved":false,"is_disabled":false,"rental_uris":{"android":"levelo://app?vid=d89648f4-34dd-4af2-a497-da5a222f69e0","ios":"levelo://app?vid=d89648f4-34dd-4af2-a497-da5a222f69e0"},"vehicle_type_id":"4","last_reported":1776894073,"current_range_meters":9600,"station_id":"ce4bhb12rcd13ifvqel0","pricing_plan_id":"cebpf4jnsgd1na2vs0mg"},{"bike_id":"de907253-0474-465c-b317-e26adc645bf3","system_id":"levelo_inurba_marseille","lat":43.29875,"lon":5.39764,"is_reserved":false,"is_disabled":false,"rental_uris":{"android":"levelo://app?vid=de907253-0474-465c-b317-e26adc645bf3","ios":"levelo://app?vid=de907253-0474-465c-b317-e26adc645bf3"},"vehicle_type_id":"4","last_reported":1776894073,"current_range_meters":9600,"station_id":"ce4bh0h2rcd13ifvqd50","pricing_plan_id":"cebpf4jnsgd1na2vs0mg"},{"bike_id":"0622853a-0fd2-40ef-9dad-3c7665ca1f4e","system_id":"levelo_inurba_marseille","lat":43.31382,"lon":5.41487,"is_reserved":false,"is_disabled":false,"rental_uris":{"android":"levelo://app?vid=0622853a-0fd2-40ef-9dad-3c7665ca1f4e","ios":"levelo://app?vid=0622853a-0fd2-40ef-9dad-3c7665ca1f4e"},"vehicle_type_id":"4","last_reported":1776894073,"current_range_meters":9600,"station_id":"","pricing_plan_id":"cebpf4jnsgd1na2vs0mg"},{"bike_id":"68e56175-b857-46c2-b84f-8591cfaf3283","system_id":"levelo_inurba_marseille","lat":43.23966,"lon":5.36632,"is_reserved":false,"is_disabled":false,"rental_uris":{"android":"levelo://app?vid=68e56175-b857-46c2-b84f-8591cfaf3283","ios":"levelo://app?vid=68e56175-b857-46c2-b84f-8591cfaf3283"},"vehicle_type_id":"4","last_reported":1776894073,"current_range_meters":9600,"station_id":"ce4bhi12rcd13ifvqfp0","pricing_plan_id":"cebpf4jnsgd1na2vs0mg"},{"bike_id":"b7c8d7b8-94e1-4c81-9cd9-6870c5f4b76e","system_id":"levelo_inurba_marseille","lat":43.2972,"lon":5.37674,"is_reserved":false,"is_disabled":false,"rental_uris":{"android":"levelo://app?vid=b7c8d7b8-94e1-4c81-9cd9-6870c5f4b76e","ios":"levelo://app?vid=b7c8d7b8-94e1-4c81-9cd9-6870c5f4b76e"},"vehicle_type_id":"4","last_reported":1776894073,"current_range_meters":9600,"station_id":"ce4bgkh2rcd13ifvqbl0","pricing_plan_id":"cebpf4jnsgd1na2vs0mg"},{"bike_id":"9a774c9e-7853-4d61-909f-f1ba2d4a1c7b","system_id":"levelo_inurba_marseille","lat":43.26503,"lon":5.39533,"is_reserved":false,"is_disabled":false,"rental_uris":{"android":"levelo://app?vid=9a774c9e-7853-4d61-909f-f1ba2d4a1c7b","ios":"levelo://app?vid=9a774c9e-7853-4d61-909f-f1ba2d4a1c7b"},"vehicle_type_id":"4","last_reported":1776894073,"current_range_meters":9600,"station_id":"ce4bhi12rcd13ifvqfq0","pricing_plan_id":"cebpf4jnsgd1na2vs0mg"},{"bike_id":"b4108458-c341-4617-989e-4a0be97d88f3","system_id":"levelo_inurba_marseille","lat":43.30325,"lon":5.40443,"is_reserved":false,"is_disabled":false,"rental_uris":{"android":"levelo://app?vid=b4108458-c341-4617-989e-4a0be97d88f3","ios":"levelo://app?vid=b4108458-c341-4617-989e-4a0be97d88f3"},"vehicle_type_id":"4","last_reported":1776894073,"current_range_meters":9600,"station_id":"ce4bh012rcd13ifvqd10","pricing_plan_id":"cebpf4jnsgd1na2vs0mg"},{"bike_id":"9a870c6c-4a55-4c99-9c5c-707ae6a188b7","system_id":"levelo_inurba_marseille","lat":43.30935,"lon":5.40146,"is_reserved":false,"is_disabled":false,"rental_uris":{"android":"levelo://app?vid=9a870c6c-4a55-4c99-9c5c-707ae6a188b7","ios":"levelo://app?vid=9a870c6c-4a55-4c99-9c5c-707ae6a188b7"},"vehicle_type_id":"4","last_reported":1776894073,"current_range_meters":9600,"station_id":"ce4bgvp2rcd13ifvqct0","pricing_plan_id":"cebpf4jnsgd1na2vs0mg"},{"bike_id":"ee892214-1b64-4c0b-825a-e2c528ef2745","system_id":"levelo_inurba_marseille","lat":43.31534,"lon":5.38029,"is_reserved":false,"is_disabled":false,"rental_uris":{"android":"levelo://app?vid=ee892214-1b64-4c0b-825a-e2c528ef2745","ios":"levelo://app?vid=ee892214-1b64-4c0b-825a-e2c528ef2745"},"vehicle_type_id":"4","last_reported":1776894073,"current_range_meters":9600,"station_id":"ce4bhsp2rcd13ifvqi50","pricing_plan_id":"cebpf4jnsgd1na2vs0mg"},{"bike_id":"706869c6-be65-49b4-a496-7f18e8729124","system_id":"levelo_inurba_marseille","lat":43.29535,"lon":5.38549,"is_reserved":false,"is_disabled":false,"rental_uris":{"android":"levelo://app?vid=706869c6-be65-49b4-a496-7f18e8729124","ios":"levelo://app?vid=706869c6-be65-49b4-a496-7f18e8729124"},"vehicle_type_id":"4","last_reported":1776894073,"current_range_meters":9600,"station_id":"ce4bgih2rcd13ifvqba0","pricing_plan_id":"cebpf4jnsgd1na2vs0mg"},{"bike_id":"cce9e933-3790-4ced-9eef-b5ac537ec700","system_id":"levelo_inurba_marseille","lat":43.28613,"lon":5.38334,"is_reserved":false,"is_disabled":false,"rental_uris":{"android":"levelo://app?vid=cce9e933-3790-4ced-9eef-b5ac537ec700","ios":"levelo://app?vid=cce9e933-3790-4ced-9eef-b5ac537ec700"},"vehicle_type_id":"4","last_reported":1776894073,"current_range_meters":9600,"station_id":"","pricing_plan_id":"cebpf4jnsgd1na2vs0mg"},{"bike_id":"c3e0702e-4cd9-4eab-9e41-0d17750466d8","system_id":"levelo_inurba_marseille","lat":43.29319,"lon":5.37293,"is_reserved":false,"is_disabled":false,"rental_uris":{"android":"levelo://app?vid=c3e0702e-4cd9-4eab-9e41-0d17750466d8","ios":"levelo://app?vid=c3e0702e-4cd9-4eab-9e41-0d17750466d8"},"vehicle_type_id":"4","last_reported":1776894073,"current_range_meters":9600,"station_id":"","pricing_plan_id":"cebpf4jnsgd1na2vs0mg"},{"bike_id":"da4bafca-4414-47c6-bd6a-a0c4cd3c0f61","system_id":"levelo_inurba_marseille","lat":43.29959,"lon":5.4132,"is_reserved":false,"is_disabled":false,"rental_uris":{"android":"levelo://app?vid=da4bafca-4414-47c6-bd6a-a0c4cd3c0f61","ios":"levelo://app?vid=da4bafca-4414-47c6-bd6a-a0c4cd3c0f61"},"vehicle_type_id":"4","last_reported":1776894073,"current_range_meters":9600,"station_id":"ce4bhp12rcd13ifvqh9g","pricing_plan_id":"cebpf4jnsgd1na2vs0mg"},{"bike_id":"0503e3ce-22a2-4b85-9440-1fd31bf7fc51","system_id":"levelo_inurba_marseille","lat":43.26217,"lon":5.41404,"is_reserved":false,"is_disabled":false,"rental_uris":{"android":"levelo://app?vid=0503e3ce-22a2-4b85-9440-1fd31bf7fc51","ios":"levelo://app?vid=0503e3ce-22a2-4b85-9440-1fd31bf7fc51"},"vehicle_type_id":"4","last_reported":1776894073,"current_range_meters":9600,"station_id":"","pricing_plan_id":"cebpf4jnsgd1na2vs0mg"},{"bike_id":"eaa56526-29a5-4cc4-abc0-c621dd30f9a4","system_id":"levelo_inurba_marseille","lat":43.29262,"lon":5.4268,"is_reserved":false,"is_disabled":false,"rental_uris":{"android":"levelo://app?vid=eaa56526-29a5-4cc4-abc0-c621dd30f9a4","ios":"levelo://app?vid=eaa56526-29a5-4cc4-abc0-c621dd30f9a4"},"vehicle_type_id":"4","last_reported":1776894073,"current_range_meters":10000,"station_id":"","pricing_plan_id":"cebpf4jnsgd1na2vs0mg"},{"bike_id":"150500be-d943-43ad-81eb-48f6433e564c","system_id":"levelo_inurba_marseille","lat":43.29515,"lon":5.38594,"is_reserved":false,"is_disabled":false,"rental_uris":{"android":"levelo://app?vid=150500be-d943-43ad-81eb-48f6433e564c","ios":"levelo://app?vid=150500be-d943-43ad-81eb-48f6433e564c"},"vehicle_type_id":"4","last_reported":1776894073,"current_range_meters":10000,"station_id":"ce4bgih2rcd13ifvqba0","pricing_plan_id":"cebpf4jnsgd1na2vs0mg"},{"bike_id":"ef787324-7ade-4e52-9917-25126243c670","system_id":"levelo_inurba_marseille","lat":43.29535,"lon":5.38538,"is_reserved":false,"is_disabled":false,"rental_uris":{"android":"levelo://app?vid=ef787324-7ade-4e52-9917-25126243c670","ios":"levelo://app?vid=ef787324-7ade-4e52-9917-25126243c670"},"vehicle_type_id":"4","last_reported":1776894073,"current_range_meters":10000,"station_id":"ce4bgih2rcd13ifvqba0","pricing_plan_id":"cebpf4jnsgd1na2vs0mg"},{"bike_id":"fc7363fe-b04d-489a-9727-90ca30e7bca6","system_id":"levelo_inurba_marseille","lat":43.32093,"lon":5.36741,"is_reserved":false,"is_disabled":false,"rental_uris":{"android":"levelo://app?vid=fc7363fe-b04d-489a-9727-90ca30e7bca6","ios":"levelo://app?vid=fc7363fe-b04d-489a-9727-90ca30e7bca6"},"vehicle_type_id":"4","last_reported":1776894073,"current_range_meters":10000,"station_id":"ce4bhrh2rcd13ifvqhug","pricing_plan_id":"cebpf4jnsgd1na2vs0mg"},{"bike_id":"89cb976b-df3a-46fc-a9ef-0025de561630","system_id":"levelo_inurba_marseille","lat":43.2944,"lon":5.43406,"is_reserved":false,"is_disabled":false,"rental_uris":{"android":"levelo://app?vid=89cb976b-df3a-46fc-a9ef-0025de561630","ios":"levelo://app?vid=89cb976b-df3a-46fc-a9ef-0025de561630"},"vehicle_type_id":"4","last_reported":1776894073,"current_range_meters":10000,"station_id":"","pricing_plan_id":"cebpf4jnsgd1na2vs0mg"},{"bike_id":"4c59e750-bd32-470f-aabb-d5afbed24b9c","system_id":"levelo_inurba_marseille","lat":43.24816,"lon":5.37458,"is_reserved":false,"is_disabled":false,"rental_uris":{"android":"levelo://app?vid=4c59e750-bd32-470f-aabb-d5afbed24b9c","ios":"levelo://app?vid=4c59e750-bd32-470f-aabb-d5afbed24b9c"},"vehicle_type_id":"4","last_reported":1776894073,"current_range_meters":10000,"station_id":"ce4bhgh2rcd13ifvqfb0","pricing_plan_id":"cebpf4jnsgd1na2vs0mg"},{"bike_id":"3ab04e0a-3ab2-4266-b34a-546ec1625124","system_id":"levelo_inurba_marseille","lat":43.29883,"lon":5.36268,"is_reserved":false,"is_disabled":false,"rental_uris":{"android":"levelo://app?vid=3ab04e0a-3ab2-4266-b34a-546ec1625124","ios":"levelo://app?vid=3ab04e0a-3ab2-4266-b34a-546ec1625124"},"vehicle_type_id":"4","last_reported":1776894073,"current_range_meters":10000,"station_id":"ce4bgpp2rcd13ifvqc3g","pricing_plan_id":"cebpf4jnsgd1na2vs0mg"},{"bike_id":"3861474c-5c79-40a8-a73c-d543fa3a8ccd","system_id":"levelo_inurba_marseille","lat":43.24811,"lon":5.37462,"is_reserved":false,"is_disabled":false,"rental_uris":{"android":"levelo://app?vid=3861474c-5c79-40a8-a73c-d543fa3a8ccd","ios":"levelo://app?vid=3861474c-5c79-40a8-a73c-d543fa3a8ccd"},"vehicle_type_id":"4","last_reported":1776894073,"current_range_meters":10000,"station_id":"ce4bhgh2rcd13ifvqfb0","pricing_plan_id":"cebpf4jnsgd1na2vs0mg"},{"bike_id":"7c785f2f-fe9b-43b3-a93c-b64a4c8daf77","system_id":"levelo_inurba_marseille","lat":43.29768,"lon":5.42758,"is_reserved":false,"is_disabled":false,"rental_uris":{"android":"levelo://app?vid=7c785f2f-fe9b-43b3-a93c-b64a4c8daf77","ios":"levelo://app?vid=7c785f2f-fe9b-43b3-a93c-b64a4c8daf77"},"vehicle_type_id":"4","last_reported":1776894073,"current_range_meters":10000,"station_id":"st_d3md5207bmas73dh9klg","pricing_plan_id":"cebpf4jnsgd1na2vs0mg"},{"bike_id":"c366be47-591a-4881-84b3-6ecaca0c6af3","system_id":"levelo_inurba_marseille","lat":43.330238,"lon":5.390502,"is_reserved":false,"is_disabled":false,"rental_uris":{"android":"levelo://app?vid=c366be47-591a-4881-84b3-6ecaca0c6af3","ios":"levelo://app?vid=c366be47-591a-4881-84b3-6ecaca0c6af3"},"vehicle_type_id":"4","last_reported":1776894073,"current_range_meters":10000,"station_id":"","pricing_plan_id":"cebpf4jnsgd1na2vs0mg"},{"bike_id":"a44684de-5b58-4e58-8e3d-63bf5aaee796","system_id":"levelo_inurba_marseille","lat":43.27985,"lon":5.38744,"is_reserved":false,"is_disabled":false,"rental_uris":{"android":"levelo://app?vid=a44684de-5b58-4e58-8e3d-63bf5aaee796","ios":"levelo://app?vid=a44684de-5b58-4e58-8e3d-63bf5aaee796"},"vehicle_type_id":"4","last_reported":1776894073,"current_range_meters":10000,"station_id":"ce4bhg12rcd13ifvqf80","pricing_plan_id":"cebpf4jnsgd1na2vs0mg"},{"bike_id":"7db8e5f3-3982-4808-8fb4-746a2f23f4b1","system_id":"levelo_inurba_marseille","lat":43.29342,"lon":5.4389,"is_reserved":false,"is_disabled":false,"rental_uris":{"android":"levelo://app?vid=7db8e5f3-3982-4808-8fb4-746a2f23f4b1","ios":"levelo://app?vid=7db8e5f3-3982-4808-8fb4-746a2f23f4b1"},"vehicle_type_id":"4","last_reported":1776894073,"current_range_meters":10800,"station_id":"","pricing_plan_id":"cebpf4jnsgd1na2vs0mg"},{"bike_id":"b7278edd-6d78-43d9-8515-5073ac6e8a1f","system_id":"levelo_inurba_marseille","lat":43.30806,"lon":5.38148,"is_reserved":false,"is_disabled":false,"rental_uris":{"android":"levelo://app?vid=b7278edd-6d78-43d9-8515-5073ac6e8a1f","ios":"levelo://app?vid=b7278edd-6d78-43d9-8515-5073ac6e8a1f"},"vehicle_type_id":"4","last_reported":1776894073,"current_range_meters":10800,"station_id":"ce4bgt12rcd13ifvqce0","pricing_plan_id":"cebpf4jnsgd1na2vs0mg"},{"bike_id":"1dfb8304-4a5b-4c32-b67a-ccf966ce412e","system_id":"levelo_inurba_marseille","lat":43.30311,"lon":5.36887,"is_reserved":false,"is_disabled":true,"rental_uris":{"android":"levelo://app?vid=1dfb8304-4a5b-4c32-b67a-ccf966ce412e","ios":"levelo://app?vid=1dfb8304-4a5b-4c32-b67a-ccf966ce412e"},"vehicle_type_id":"4","last_reported":1776894073,"current_range_meters":10800,"station_id":"ce4bgqh2rcd13ifvqc5g","pricing_plan_id":"cebpf4jnsgd1na2vs0mg"},{"bike_id":"ae1a0ce0-3e2e-4cf2-b858-405a12aeabc1","system_id":"levelo_inurba_marseille","lat":43.27083,"lon":5.42292,"is_reserved":false,"is_disabled":false,"rental_uris":{"android":"levelo://app?vid=ae1a0ce0-3e2e-4cf2-b858-405a12aeabc1","ios":"levelo://app?vid=ae1a0ce0-3e2e-4cf2-b858-405a12aeabc1"},"vehicle_type_id":"4","last_reported":1776894073,"current_range_meters":10800,"station_id":"ce4bhk92rcd13ifvqgb0","pricing_plan_id":"cebpf4jnsgd1na2vs0mg"},{"bike_id":"1f218a43-cd16-4bde-8ac9-44ec5949fe85","system_id":"levelo_inurba_marseille","lat":43.29528,"lon":5.38519,"is_reserved":false,"is_disabled":false,"rental_uris":{"android":"levelo://app?vid=1f218a43-cd16-4bde-8ac9-44ec5949fe85","ios":"levelo://app?vid=1f218a43-cd16-4bde-8ac9-44ec5949fe85"},"vehicle_type_id":"4","last_reported":1776894073,"current_range_meters":10800,"station_id":"ce4bgih2rcd13ifvqba0","pricing_plan_id":"cebpf4jnsgd1na2vs0mg"},{"bike_id":"75f433ca-3df0-4831-9633-bf7b5e16ebc1","system_id":"levelo_inurba_marseille","lat":43.30935,"lon":5.40149,"is_reserved":false,"is_disabled":false,"rental_uris":{"android":"levelo://app?vid=75f433ca-3df0-4831-9633-bf7b5e16ebc1","ios":"levelo://app?vid=75f433ca-3df0-4831-9633-bf7b5e16ebc1"},"vehicle_type_id":"4","last_reported":1776894073,"current_range_meters":10800,"station_id":"ce4bgvp2rcd13ifvqct0","pricing_plan_id":"cebpf4jnsgd1na2vs0mg"},{"bike_id":"8e6d6570-4031-4e82-ada2-11b0cc6a4d61","system_id":"levelo_inurba_marseille","lat":43.29933,"lon":5.36546,"is_reserved":false,"is_disabled":false,"rental_uris":{"android":"levelo://app?vid=8e6d6570-4031-4e82-ada2-11b0cc6a4d61","ios":"levelo://app?vid=8e6d6570-4031-4e82-ada2-11b0cc6a4d61"},"vehicle_type_id":"4","last_reported":1776894073,"current_range_meters":10800,"station_id":"ce4bgm92rcd13ifvqbr0","pricing_plan_id":"cebpf4jnsgd1na2vs0mg"},{"bike_id":"2250a80a-b728-44ae-a103-20defd92544b","system_id":"levelo_inurba_marseille","lat":43.29192,"lon":5.39346,"is_reserved":false,"is_disabled":false,"rental_uris":{"android":"levelo://app?vid=2250a80a-b728-44ae-a103-20defd92544b","ios":"levelo://app?vid=2250a80a-b728-44ae-a103-20defd92544b"},"vehicle_type_id":"4","last_reported":1776894073,"current_range_meters":10800,"station_id":"ce4bh192rcd13ifvqdd0","pricing_plan_id":"cebpf4jnsgd1na2vs0mg"},{"bike_id":"1f68b41e-59e6-45c1-8843-64a039c566ec","system_id":"levelo_inurba_marseille","lat":43.27164,"lon":5.40984,"is_reserved":false,"is_disabled":false,"rental_uris":{"android":"levelo://app?vid=1f68b41e-59e6-45c1-8843-64a039c566ec","ios":"levelo://app?vid=1f68b41e-59e6-45c1-8843-64a039c566ec"},"vehicle_type_id":"4","last_reported":1776894073,"current_range_meters":10800,"station_id":"ce4bhl12rcd13ifvqgf0","pricing_plan_id":"cebpf4jnsgd1na2vs0mg"},{"bike_id":"86e6f66f-0be2-4e11-acd6-c412cf39b976","system_id":"levelo_inurba_marseille","lat":43.29027,"lon":5.3865,"is_reserved":false,"is_disabled":false,"rental_uris":{"android":"levelo://app?vid=86e6f66f-0be2-4e11-acd6-c412cf39b976","ios":"levelo://app?vid=86e6f66f-0be2-4e11-acd6-c412cf39b976"},"vehicle_type_id":"4","last_reported":1776894073,"current_range_meters":10800,"station_id":"ce4bh4p2rcd13ifvqe0g","pricing_plan_id":"cebpf4jnsgd1na2vs0mg"},{"bike_id":"6efae23b-4853-4978-a046-e2118aa389db","system_id":"levelo_inurba_marseille","lat":43.29456,"lon":5.38197,"is_reserved":false,"is_disabled":false,"rental_uris":{"android":"levelo://app?vid=6efae23b-4853-4978-a046-e2118aa389db","ios":"levelo://app?vid=6efae23b-4853-4978-a046-e2118aa389db"},"vehicle_type_id":"4","last_reported":1776894073,"current_range_meters":10800,"station_id":"","pricing_plan_id":"cebpf4jnsgd1na2vs0mg"},{"bike_id":"a8aa9b10-b201-4335-86a5-69aaa3d0be38","system_id":"levelo_inurba_marseille","lat":43.28419,"lon":5.37519,"is_reserved":false,"is_disabled":false,"rental_uris":{"android":"levelo://app?vid=a8aa9b10-b201-4335-86a5-69aaa3d0be38","ios":"levelo://app?vid=a8aa9b10-b201-4335-86a5-69aaa3d0be38"},"vehicle_type_id":"4","last_reported":1776894073,"current_range_meters":10800,"station_id":"ce4bh412rcd13ifvqds0","pricing_plan_id":"cebpf4jnsgd1na2vs0mg"},{"bike_id":"e4a4c047-d140-43bf-b145-688cae32d5ca","system_id":"levelo_inurba_marseille","lat":43.30446,"lon":5.38896,"is_reserved":false,"is_disabled":false,"rental_uris":{"android":"levelo://app?vid=e4a4c047-d140-43bf-b145-688cae32d5ca","ios":"levelo://app?vid=e4a4c047-d140-43bf-b145-688cae32d5ca"},"vehicle_type_id":"4","last_reported":1776894073,"current_range_meters":10800,"station_id":"ce4bgk12rcd13ifvqbi0","pricing_plan_id":"cebpf4jnsgd1na2vs0mg"},{"bike_id":"3f693977-87ee-4bbd-b110-46e181cbb497","system_id":"levelo_inurba_marseille","lat":43.24635,"lon":5.4315,"is_reserved":false,"is_disabled":false,"rental_uris":{"android":"levelo://app?vid=3f693977-87ee-4bbd-b110-46e181cbb497","ios":"levelo://app?vid=3f693977-87ee-4bbd-b110-46e181cbb497"},"vehicle_type_id":"4","last_reported":1776894073,"current_range_meters":10800,"station_id":"st_d2m6c4gdas8pm72e190g","pricing_plan_id":"cebpf4jnsgd1na2vs0mg"},{"bike_id":"4751b1fb-03ae-479c-aec9-9a725be1e749","system_id":"levelo_inurba_marseille","lat":43.3065,"lon":5.40081,"is_reserved":false,"is_disabled":false,"rental_uris":{"android":"levelo://app?vid=4751b1fb-03ae-479c-aec9-9a725be1e749","ios":"levelo://app?vid=4751b1fb-03ae-479c-aec9-9a725be1e749"},"vehicle_type_id":"4","last_reported":1776894073,"current_range_meters":10800,"station_id":"ce4bh112rcd13ifvqda0","pricing_plan_id":"cebpf4jnsgd1na2vs0mg"},{"bike_id":"0d92b367-f5b2-46f2-a799-2ed212a6ebea","system_id":"levelo_inurba_marseille","lat":43.24639,"lon":5.43144,"is_reserved":false,"is_disabled":false,"rental_uris":{"android":"levelo://app?vid=0d92b367-f5b2-46f2-a799-2ed212a6ebea","ios":"levelo://app?vid=0d92b367-f5b2-46f2-a799-2ed212a6ebea"},"vehicle_type_id":"4","last_reported":1776894073,"current_range_meters":10800,"station_id":"st_d2m6c4gdas8pm72e190g","pricing_plan_id":"cebpf4jnsgd1na2vs0mg"},{"bike_id":"6843e882-7c36-4091-90e8-5bc86219a69e","system_id":"levelo_inurba_marseille","lat":43.30634,"lon":5.37225,"is_reserved":false,"is_disabled":false,"rental_uris":{"android":"levelo://app?vid=6843e882-7c36-4091-90e8-5bc86219a69e","ios":"levelo://app?vid=6843e882-7c36-4091-90e8-5bc86219a69e"},"vehicle_type_id":"4","last_reported":1776894073,"current_range_meters":10800,"station_id":"ce4bgqh2rcd13ifvqc4g","pricing_plan_id":"cebpf4jnsgd1na2vs0mg"},{"bike_id":"5ef16f64-4b3f-4d76-9893-44a121593e32","system_id":"levelo_inurba_marseille","lat":43.28835,"lon":5.35851,"is_reserved":false,"is_disabled":false,"rental_uris":{"android":"levelo://app?vid=5ef16f64-4b3f-4d76-9893-44a121593e32","ios":"levelo://app?vid=5ef16f64-4b3f-4d76-9893-44a121593e32"},"vehicle_type_id":"4","last_reported":1776894073,"current_range_meters":10800,"station_id":"ce4bhb12rcd13ifvqem0","pricing_plan_id":"cebpf4jnsgd1na2vs0mg"},{"bike_id":"8db75b79-5718-462d-b907-a22490118526","system_id":"levelo_inurba_marseille","lat":43.27814,"lon":5.40703,"is_reserved":false,"is_disabled":false,"rental_uris":{"android":"levelo://app?vid=8db75b79-5718-462d-b907-a22490118526","ios":"levelo://app?vid=8db75b79-5718-462d-b907-a22490118526"},"vehicle_type_id":"4","last_reported":1776894073,"current_range_meters":11200,"station_id":"ce4bhnh2rcd13ifvqgtg","pricing_plan_id":"cebpf4jnsgd1na2vs0mg"},{"bike_id":"336b8e8d-2508-4ea0-b9f1-eaef5d4c41e6","system_id":"levelo_inurba_marseille","lat":43.29715,"lon":5.37278,"is_reserved":false,"is_disabled":false,"rental_uris":{"android":"levelo://app?vid=336b8e8d-2508-4ea0-b9f1-eaef5d4c41e6","ios":"levelo://app?vid=336b8e8d-2508-4ea0-b9f1-eaef5d4c41e6"},"vehicle_type_id":"4","last_reported":1776894073,"current_range_meters":11200,"station_id":"ce4bgk12rcd13ifvqbj0","pricing_plan_id":"cebpf4jnsgd1na2vs0mg"},{"bike_id":"ff77fc16-ce0a-4785-b37b-45f7b4b1b0d5","system_id":"levelo_inurba_marseille","lat":43.29191,"lon":5.44271,"is_reserved":false,"is_disabled":false,"rental_uris":{"android":"levelo://app?vid=ff77fc16-ce0a-4785-b37b-45f7b4b1b0d5","ios":"levelo://app?vid=ff77fc16-ce0a-4785-b37b-45f7b4b1b0d5"},"vehicle_type_id":"4","last_reported":1776894073,"current_range_meters":11200,"station_id":"","pricing_plan_id":"cebpf4jnsgd1na2vs0mg"},{"bike_id":"d088911f-aeb5-4003-a7ea-8a92c9b216cf","system_id":"levelo_inurba_marseille","lat":43.29537,"lon":5.39037,"is_reserved":false,"is_disabled":true,"rental_uris":{"android":"levelo://app?vid=d088911f-aeb5-4003-a7ea-8a92c9b216cf","ios":"levelo://app?vid=d088911f-aeb5-4003-a7ea-8a92c9b216cf"},"vehicle_type_id":"4","last_reported":1776894073,"current_range_meters":11200,"station_id":"ce4bh3p2rcd13ifvqdp0","pricing_plan_id":"cebpf4jnsgd1na2vs0mg"},{"bike_id":"6d869d0a-46a6-4440-8021-8366dd3469f6","system_id":"levelo_inurba_marseille","lat":43.31105,"lon":5.38583,"is_reserved":false,"is_disabled":false,"rental_uris":{"android":"levelo://app?vid=6d869d0a-46a6-4440-8021-8366dd3469f6","ios":"levelo://app?vid=6d869d0a-46a6-4440-8021-8366dd3469f6"},"vehicle_type_id":"4","last_reported":1776894073,"current_range_meters":11200,"station_id":"","pricing_plan_id":"cebpf4jnsgd1na2vs0mg"},{"bike_id":"15688465-d860-4d65-bf3c-3475217a2e1c","system_id":"levelo_inurba_marseille","lat":43.28102,"lon":5.37852,"is_reserved":false,"is_disabled":false,"rental_uris":{"android":"levelo://app?vid=15688465-d860-4d65-bf3c-3475217a2e1c","ios":"levelo://app?vid=15688465-d860-4d65-bf3c-3475217a2e1c"},"vehicle_type_id":"4","last_reported":1776894073,"current_range_meters":11200,"station_id":"ce4bha12rcd13ifvqee0","pricing_plan_id":"cebpf4jnsgd1na2vs0mg"},{"bike_id":"98f62dc9-0b50-4f3b-93e9-85e5ac18f5cc","system_id":"levelo_inurba_marseille","lat":43.29038,"lon":5.37561,"is_reserved":false,"is_disabled":false,"rental_uris":{"android":"levelo://app?vid=98f62dc9-0b50-4f3b-93e9-85e5ac18f5cc","ios":"levelo://app?vid=98f62dc9-0b50-4f3b-93e9-85e5ac18f5cc"},"vehicle_type_id":"4","last_reported":1776894073,"current_range_meters":11200,"station_id":"ce4bh692rcd13ifvqe90","pricing_plan_id":"cebpf4jnsgd1na2vs0mg"},{"bike_id":"93fc42ee-962d-4d8c-b1d4-775dba322fd9","system_id":"levelo_inurba_marseille","lat":43.301,"lon":5.39072,"is_reserved":false,"is_disabled":false,"rental_uris":{"android":"levelo://app?vid=93fc42ee-962d-4d8c-b1d4-775dba322fd9","ios":"levelo://app?vid=93fc42ee-962d-4d8c-b1d4-775dba322fd9"},"vehicle_type_id":"4","last_reported":1776894073,"current_range_meters":11200,"station_id":"ce4bh192rcd13ifvqdb0","pricing_plan_id":"cebpf4jnsgd1na2vs0mg"},{"bike_id":"6efe3edf-5587-4f1f-bc5a-b23d6f180abd","system_id":"levelo_inurba_marseille","lat":43.31269,"lon":5.40124,"is_reserved":false,"is_disabled":false,"rental_uris":{"android":"levelo://app?vid=6efe3edf-5587-4f1f-bc5a-b23d6f180abd","ios":"levelo://app?vid=6efe3edf-5587-4f1f-bc5a-b23d6f180abd"},"vehicle_type_id":"4","last_reported":1776894073,"current_range_meters":11200,"station_id":"ce4bh092rcd13ifvqd30","pricing_plan_id":"cebpf4jnsgd1na2vs0mg"},{"bike_id":"b10e388b-a119-4b7b-87b2-c9ca007b4026","system_id":"levelo_inurba_marseille","lat":43.3262,"lon":5.35886,"is_reserved":false,"is_disabled":false,"rental_uris":{"android":"levelo://app?vid=b10e388b-a119-4b7b-87b2-c9ca007b4026","ios":"levelo://app?vid=b10e388b-a119-4b7b-87b2-c9ca007b4026"},"vehicle_type_id":"4","last_reported":1776894073,"current_range_meters":11200,"station_id":"","pricing_plan_id":"cebpf4jnsgd1na2vs0mg"},{"bike_id":"ed6c751d-11aa-4980-9be5-d32dd24768fe","system_id":"levelo_inurba_marseille","lat":43.33184,"lon":5.37784,"is_reserved":false,"is_disabled":false,"rental_uris":{"android":"levelo://app?vid=ed6c751d-11aa-4980-9be5-d32dd24768fe","ios":"levelo://app?vid=ed6c751d-11aa-4980-9be5-d32dd24768fe"},"vehicle_type_id":"4","last_reported":1776894073,"current_range_meters":11200,"station_id":"","pricing_plan_id":"cebpf4jnsgd1na2vs0mg"},{"bike_id":"35a6dbb5-1f6c-499d-b0dc-f3a5b44380bf","system_id":"levelo_inurba_marseille","lat":43.32506,"lon":5.38308,"is_reserved":false,"is_disabled":false,"rental_uris":{"android":"levelo://app?vid=35a6dbb5-1f6c-499d-b0dc-f3a5b44380bf","ios":"levelo://app?vid=35a6dbb5-1f6c-499d-b0dc-f3a5b44380bf"},"vehicle_type_id":"4","last_reported":1776894073,"current_range_meters":11200,"station_id":"st_d4asgbiv49dc73anf9m0","pricing_plan_id":"cebpf4jnsgd1na2vs0mg"},{"bike_id":"09b36bd3-92a1-4671-9999-73b023a7ea25","system_id":"levelo_inurba_marseille","lat":43.28859,"lon":5.42523,"is_reserved":false,"is_disabled":false,"rental_uris":{"android":"levelo://app?vid=09b36bd3-92a1-4671-9999-73b023a7ea25","ios":"levelo://app?vid=09b36bd3-92a1-4671-9999-73b023a7ea25"},"vehicle_type_id":"4","last_reported":1776894073,"current_range_meters":11200,"station_id":"st_d3b462108ojc7389ooeg","pricing_plan_id":"cebpf4jnsgd1na2vs0mg"},{"bike_id":"35a9c97c-b85e-449d-99bb-1116c761abbd","system_id":"levelo_inurba_marseille","lat":43.32344,"lon":5.36735,"is_reserved":false,"is_disabled":false,"rental_uris":{"android":"levelo://app?vid=35a9c97c-b85e-449d-99bb-1116c761abbd","ios":"levelo://app?vid=35a9c97c-b85e-449d-99bb-1116c761abbd"},"vehicle_type_id":"4","last_reported":1776894073,"current_range_meters":11200,"station_id":"ce4bhsh2rcd13ifvqi2g","pricing_plan_id":"cebpf4jnsgd1na2vs0mg"},{"bike_id":"0f8495bd-680c-438e-baa1-5ef6af45ed33","system_id":"levelo_inurba_marseille","lat":43.2957,"lon":5.39964,"is_reserved":false,"is_disabled":false,"rental_uris":{"android":"levelo://app?vid=0f8495bd-680c-438e-baa1-5ef6af45ed33","ios":"levelo://app?vid=0f8495bd-680c-438e-baa1-5ef6af45ed33"},"vehicle_type_id":"4","last_reported":1776894073,"current_range_meters":11200,"station_id":"ce4bh312rcd13ifvqdj0","pricing_plan_id":"cebpf4jnsgd1na2vs0mg"},