{"last_updated":1758684251,"ttl":60,"version":"2.2","data":{"bikes":[{"bike_id":"c7ccd701-fd90-4c1f-8f6f-b6983b7c39ba","system_id":"levelo_inurba_marseille","lat":43.29752,"lon":5.37913,"is_reserved":false,"is_disabled":false,"rental_uris":{"android":"levelo://app?vid=c7ccd701-fd90-4c1f-8f6f-b6983b7c39ba","ios":"levelo://app?vid=c7ccd701-fd90-4c1f-8f6f-b6983b7c39ba"},"vehicle_type_id":"4","last_reported":1758684251,"current_range_meters":2800,"station_id":"","pricing_plan_id":"cebpf4jnsgd1na2vs0mg"},{"bike_id":"9176512c-2cc1-4df2-a8e0-6be514fbcdbf","system_id":"levelo_inurba_marseille","lat":43.33748,"lon":5.37465,"is_reserved":false,"is_disabled":false,"rental_uris":{"android":"levelo://app?vid=9176512c-2cc1-4df2-a8e0-6be514fbcdbf","ios":"levelo://app?vid=9176512c-2cc1-4df2-a8e0-6be514fbcdbf"},"vehicle_type_id":"4","last_reported":1758684251,"current_range_meters":2800,"station_id":"","pricing_plan_id":"cebpf4jnsgd1na2vs0mg"},{"bike_id":"9cf0c208-415c-4cab-82e8-8280bb6b34ff","system_id":"levelo_inurba_marseille","lat":43.308838,"lon":5.396418,"is_reserved":false,"is_disabled":false,"rental_uris":{"android":"levelo://app?vid=9cf0c208-415c-4cab-82e8-8280bb6b34ff","ios":"levelo://app?vid=9cf0c208-415c-4cab-82e8-8280bb6b34ff"},"vehicle_type_id":"4","last_reported":1758684251,"current_range_meters":3200,"station_id":"ce4bh012rcd13ifvqcv0","pricing_plan_id":"cebpf4jnsgd1na2vs0mg"},{"bike_id":"e631c140-47b3-481f-ac38-a5c66ec4c45b","system_id":"levelo_inurba_marseille","lat":43.286169,"lon":5.351046,"is_reserved":false,"is_disabled":false,"rental_uris":{"android":"levelo://app?vid=e631c140-47b3-481f-ac38-a5c66ec4c45b","ios":"levelo://app?vid=e631c140-47b3-481f-ac38-a5c66ec4c45b"},"vehicle_type_id":"4","last_reported":1758684251,"current_range_meters":3600,"station_id":"ce4bhch2rcd13ifvqeug","pricing_plan_id":"cebpf4jnsgd1na2vs0mg"},{"bike_id":"aaa7bcce-7163-49e2-bda6-458d1cebb6c2","system_id":"levelo_inurba_marseille","lat":43.23155,"lon":5.43731,"is_reserved":false,"is_disabled":false,"rental_uris":{"android":"levelo://app?vid=aaa7bcce-7163-49e2-bda6-458d1cebb6c2","ios":"levelo://app?vid=aaa7bcce-7163-49e2-bda6-458d1cebb6c2"},"vehicle_type_id":"4","last_reported":1758684251,"current_range_meters":4400,"station_id":"ce4bhmp2rcd13ifvqgog","pricing_plan_id":"cebpf4jnsgd1na2vs0mg"},{"bike_id":"886f4530-4d44-4b26-bac7-485c876b7d5d","system_id":"levelo_inurba_marseille","lat":43.29966,"lon":5.384852,"is_reserved":false,"is_disabled":false,"rental_uris":{"android":"levelo://app?vid=886f4530-4d44-4b26-bac7-485c876b7d5d","ios":"levelo://app?vid=886f4530-4d44-4b26-bac7-485c876b7d5d"},"vehicle_type_id":"4","last_reported":1758684251,"current_range_meters":4400,"station_id":"","pricing_plan_id":"cebpf4jnsgd1na2vs0mg"},{"bike_id":"1efddf8d-578f-4e4c-8c3f-e3a8bd592ba4","system_id":"levelo_inurba_marseille","lat":43.29981,"lon":5.37429,"is_reserved":false,"is_disabled":false,"rental_uris":{"android":"levelo://app?vid=1efddf8d-578f-4e4c-8c3f-e3a8bd592ba4","ios":"levelo://app?vid=1efddf8d-578f-4e4c-8c3f-e3a8bd592ba4"},"vehicle_type_id":"4","last_reported":1758684251,"current_range_meters":4800,"station_id":"","pricing_plan_id":"cebpf4jnsgd1na2vs0mg"},{"bike_id":"3d3616ae-55ab-4319-9346-2104e95c171f","system_id":"levelo_inurba_marseille","lat":43.30978,"lon":5.37958,"is_reserved":false,"is_disabled":false,"rental_uris":{"android":"levelo://app?vid=3d3616ae-55ab-4319-9346-2104e95c171f","ios":"levelo://app?vid=3d3616ae-55ab-4319-9346-2104e95c171f"},"vehicle_type_id":"4","last_reported":1758684251,"current_range_meters":4800,"station_id":"","pricing_plan_id":"cebpf4jnsgd1na2vs0mg"},{"bike_id":"213937f4-0cd9-48b8-9d64-0b73c37bc721","system_id":"levelo_inurba_marseille","lat":43.29558,"lon":5.38174,"is_reserved":false,"is_disabled":false,"rental_uris":{"android":"levelo://app?vid=213937f4-0cd9-48b8-9d64-0b73c37bc721","ios":"levelo://app?vid=213937f4-0cd9-48b8-9d64-0b73c37bc721"},"vehicle_type_id":"4","last_reported":1758684251,"current_range_meters":4800,"station_id":"","pricing_plan_id":"cebpf4jnsgd1na2vs0mg"},{"bike_id":"982caa97-30dd-43bd-9b8d-7a64eb50ad63","system_id":"levelo_inurba_marseille","lat":43.28192,"lon":5.39026,"is_reserved":false,"is_disabled":false,"rental_uris":{"android":"levelo://app?vid=982caa97-30dd-43bd-9b8d-7a64eb50ad63","ios":"levelo://app?vid=982caa97-30dd-43bd-9b8d-7a64eb50ad63"},"vehicle_type_id":"4","last_reported":1758684251,"current_range_meters":4800,"station_id":"ce4bhn92rcd13ifvqgsg","pricing_plan_id":"cebpf4jnsgd1na2vs0mg"},{"bike_id":"7fd14ad2-a454-423d-bbfa-04d2678cc6ac","system_id":"levelo_inurba_marseille","lat":43.29761,"lon":5.38137,"is_reserved":false,"is_disabled":false,"rental_uris":{"android":"levelo://app?vid=7fd14ad2-a454-423d-bbfa-04d2678cc6ac","ios":"levelo://app?vid=7fd14ad2-a454-423d-bbfa-04d2678cc6ac"},"vehicle_type_id":"4","last_reported":1758684251,"current_range_meters":5600,"station_id":"","pricing_plan_id":"cebpf4jnsgd1na2vs0mg"},{"bike_id":"0a1ab1a5-b85e-4ac3-936e-fe171b7ebe82","system_id":"levelo_inurba_marseille","lat":43.296295,"lon":5.381289,"is_reserved":false,"is_disabled":false,"rental_uris":{"android":"levelo://app?vid=0a1ab1a5-b85e-4ac3-936e-fe171b7ebe82","ios":"levelo://app?vid=0a1ab1a5-b85e-4ac3-936e-fe171b7ebe82"},"vehicle_type_id":"4","last_reported":1758684251,"current_range_meters":5600,"station_id":"","pricing_plan_id":"cebpf4jnsgd1na2vs0mg"},{"bike_id":"698a1659-1be4-4464-8e40-0054e6845364","system_id":"levelo_inurba_marseille","lat":43.294181,"lon":5.403931,"is_reserved":false,"is_disabled":false,"rental_uris":{"android":"levelo://app?vid=698a1659-1be4-4464-8e40-0054e6845364","ios":"levelo://app?vid=698a1659-1be4-4464-8e40-0054e6845364"},"vehicle_type_id":"4","last_reported":1758684251,"current_range_meters":6400,"station_id":"","pricing_plan_id":"cebpf4jnsgd1na2vs0mg"},{"bike_id":"437ac4f5-290d-416a-a98a-4488c6ff3899","system_id":"levelo_inurba_marseille","lat":43.319031,"lon":5.407347,"is_reserved":false,"is_disabled":true,"rental_uris":{"android":"levelo://app?vid=437ac4f5-290d-416a-a98a-4488c6ff3899","ios":"levelo://app?vid=437ac4f5-290d-416a-a98a-4488c6ff3899"},"vehicle_type_id":"4","last_reported":1758684251,"current_range_meters":6400,"station_id":"ce4bhq12rcd13ifvqhig","pricing_plan_id":"cebpf4jnsgd1na2vs0mg"},{"bike_id":"82304ba4-71d4-444b-a52b-5e234edb762c","system_id":"levelo_inurba_marseille","lat":43.22945,"lon":5.35374,"is_reserved":false,"is_disabled":false,"rental_uris":{"android":"levelo://app?vid=82304ba4-71d4-444b-a52b-5e234edb762c","ios":"levelo://app?vid=82304ba4-71d4-444b-a52b-5e234edb762c"},"vehicle_type_id":"4","last_reported":1758684251,"current_range_meters":6400,"station_id":"","pricing_plan_id":"cebpf4jnsgd1na2vs0mg"},{"bike_id":"7d7a0abe-83b8-4067-92d1-8adad0b45209","system_id":"levelo_inurba_marseille","lat":43.27073,"lon":5.42271,"is_reserved":false,"is_disabled":true,"rental_uris":{"android":"levelo://app?vid=7d7a0abe-83b8-4067-92d1-8adad0b45209","ios":"levelo://app?vid=7d7a0abe-83b8-4067-92d1-8adad0b45209"},"vehicle_type_id":"4","last_reported":1758684251,"current_range_meters":6800,"station_id":"ce4bhk92rcd13ifvqgb0","pricing_plan_id":"cebpf4jnsgd1na2vs0mg"},{"bike_id":"962b15bf-a341-4469-9450-c0428eb337e2","system_id":"levelo_inurba_marseille","lat":43.23153,"lon":5.43704,"is_reserved":false,"is_disabled":false,"rental_uris":{"android":"levelo://app?vid=962b15bf-a341-4469-9450-c0428eb337e2","ios":"levelo://app?vid=962b15bf-a341-4469-9450-c0428eb337e2"},"vehicle_type_id":"4","last_reported":1758684251,"current_range_meters":6800,"station_id":"ce4bhmp2rcd13ifvqgog","pricing_plan_id":"cebpf4jnsgd1na2vs0mg"},{"bike_id":"eed2cf9a-36d5-4639-8402-2398b6fbd4cf","system_id":"levelo_inurba_marseille","lat":43.21756,"lon":5.34609,"is_reserved":false,"is_disabled":false,"rental_uris":{"android":"levelo://app?vid=eed2cf9a-36d5-4639-8402-2398b6fbd4cf","ios":"levelo://app?vid=eed2cf9a-36d5-4639-8402-2398b6fbd4cf"},"vehicle_type_id":"4","last_reported":1758684251,"current_range_meters":6800,"station_id":"st_cvj6r9ubvosntc0bgbag","pricing_plan_id":"cebpf4jnsgd1na2vs0mg"},{"bike_id":"d6a62b3c-f468-4e3c-993f-9f5010808096","system_id":"levelo_inurba_marseille","lat":43.28465,"lon":5.35895,"is_reserved":false,"is_disabled":false,"rental_uris":{"android":"levelo://app?vid=d6a62b3c-f468-4e3c-993f-9f5010808096","ios":"levelo://app?vid=d6a62b3c-f468-4e3c-993f-9f5010808096"},"vehicle_type_id":"4","last_reported":1758684251,"current_range_meters":6800,"station_id":"ce4bhah2rcd13ifvqei0","pricing_plan_id":"cebpf4jnsgd1na2vs0mg"},{"bike_id":"5096dd44-bb08-49f1-8f58-9d9dfb1faf50","system_id":"levelo_inurba_marseille","lat":43.33412,"lon":5.40065,"is_reserved":false,"is_disabled":false,"rental_uris":{"android":"levelo://app?vid=5096dd44-bb08-49f1-8f58-9d9dfb1faf50","ios":"levelo://app?vid=5096dd44-bb08-49f1-8f58-9d9dfb1faf50"},"vehicle_type_id":"4","last_reported":1758684251,"current_range_meters":6800,"station_id":"","pricing_plan_id":"cebpf4jnsgd1na2vs0mg"},{"bike_id":"cb6bf7d2-2ed1-47c4-b0a7-9c935f0ebf1a","system_id":"levelo_inurba_marseille","lat":43.26849,"lon":5.40675,"is_reserved":false,"is_disabled":false,"rental_uris":{"android":"levelo://app?vid=cb6bf7d2-2ed1-47c4-b0a7-9c935f0ebf1a","ios":"levelo://app?vid=cb6bf7d2-2ed1-47c4-b0a7-9c935f0ebf1a"},"vehicle_type_id":"4","last_reported":1758684251,"current_range_meters":7200,"station_id":"","pricing_plan_id":"cebpf4jnsgd1na2vs0mg"},{"bike_id":"515a383b-17c7-4ad6-88cc-1a1c622b739d","system_id":"levelo_inurba_marseille","lat":43.26231,"lon":5.40449,"is_reserved":false,"is_disabled":false,"rental_uris":{"android":"levelo://app?vid=515a383b-17c7-4ad6-88cc-1a1c622b739d","ios":"levelo://app?vid=515a383b-17c7-4ad6-88cc-1a1c622b739d"},"vehicle_type_id":"4","last_reported":1758684251,"current_range_meters":7200,"station_id":"ce4bhmh2rcd13ifvqgmg","pricing_plan_id":"cebpf4jnsgd1na2vs0mg"},{"bike_id":"57557469-09c9-4a5d-a1a9-8de5f5bc5bb9","system_id":"levelo_inurba_marseille","lat":43.29562,"lon":5.39018,"is_reserved":false,"is_disabled":true,"rental_uris":{"android":"levelo://app?vid=57557469-09c9-4a5d-a1a9-8de5f5bc5bb9","ios":"levelo://app?vid=57557469-09c9-4a5d-a1a9-8de5f5bc5bb9"},"vehicle_type_id":"4","last_reported":1758684251,"current_range_meters":8000,"station_id":"","pricing_plan_id":"cebpf4jnsgd1na2vs0mg"},{"bike_id":"513eadeb-6d5b-40e2-a199-9086420fc966","system_id":"levelo_inurba_marseille","lat":43.29257,"lon":5.40904,"is_reserved":false,"is_disabled":false,"rental_uris":{"android":"levelo://app?vid=513eadeb-6d5b-40e2-a199-9086420fc966","ios":"levelo://app?vid=513eadeb-6d5b-40e2-a199-9086420fc966"},"vehicle_type_id":"4","last_reported":1758684251,"current_range_meters":8000,"station_id":"ce4bh192rcd13ifvqdc0","pricing_plan_id":"cebpf4jnsgd1na2vs0mg"},{"bike_id":"1a4eddc5-89c8-469b-854a-d4f06e8a341e","system_id":"levelo_inurba_marseille","lat":43.330246,"lon":5.390328,"is_reserved":false,"is_disabled":false,"rental_uris":{"android":"levelo://app?vid=1a4eddc5-89c8-469b-854a-d4f06e8a341e","ios":"levelo://app?vid=1a4eddc5-89c8-469b-854a-d4f06e8a341e"},"vehicle_type_id":"4","last_reported":1758684251,"current_range_meters":8000,"station_id":"ce4bhr92rcd13ifvqhrg","pricing_plan_id":"cebpf4jnsgd1na2vs0mg"},{"bike_id":"08316f86-b235-4d9d-a46a-7489caed8af1","system_id":"levelo_inurba_marseille","lat":43.28003,"lon":5.41629,"is_reserved":false,"is_disabled":false,"rental_uris":{"android":"levelo://app?vid=08316f86-b235-4d9d-a46a-7489caed8af1","ios":"levelo://app?vid=08316f86-b235-4d9d-a46a-7489caed8af1"},"vehicle_type_id":"4","last_reported":1758684251,"current_range_meters":8000,"station_id":"ce4bho12rcd13ifvqh1g","pricing_plan_id":"cebpf4jnsgd1na2vs0mg"},{"bike_id":"8d9c3207-cca6-4c37-9d55-6976307b3c86","system_id":"levelo_inurba_marseille","lat":43.28392,"lon":5.37505,"is_reserved":false,"is_disabled":false,"rental_uris":{"android":"levelo://app?vid=8d9c3207-cca6-4c37-9d55-6976307b3c86","ios":"levelo://app?vid=8d9c3207-cca6-4c37-9d55-6976307b3c86"},"vehicle_type_id":"4","last_reported":1758684251,"current_range_meters":8400,"station_id":"ce4bh412rcd13ifvqds0","pricing_plan_id":"cebpf4jnsgd1na2vs0mg"},{"bike_id":"e9456486-5574-4a4a-884c-fca33466f1f7","system_id":"levelo_inurba_marseille","lat":43.24547,"lon":5.39527,"is_reserved":false,"is_disabled":false,"rental_uris":{"android":"levelo://app?vid=e9456486-5574-4a4a-884c-fca33466f1f7","ios":"levelo://app?vid=e9456486-5574-4a4a-884c-fca33466f1f7"},"vehicle_type_id":"4","last_reported":1758684251,"current_range_meters":8400,"station_id":"ce4bhlp2rcd13ifvqgjg","pricing_plan_id":"cebpf4jnsgd1na2vs0mg"},{"bike_id":"c95e0c05-dd94-491f-8092-9c7978400114","system_id":"levelo_inurba_marseille","lat":43.33494,"lon":5.36235,"is_reserved":false,"is_disabled":false,"rental_uris":{"android":"levelo://app?vid=c95e0c05-dd94-491f-8092-9c7978400114","ios":"levelo://app?vid=c95e0c05-dd94-491f-8092-9c7978400114"},"vehicle_type_id":"4","last_reported":1758684251,"current_range_meters":8400,"station_id":"ce4bhs12rcd13ifvqhvg","pricing_plan_id":"cebpf4jnsgd1na2vs0mg"},{"bike_id":"df9ecab4-6056-44cc-a720-250479e09d7c","system_id":"levelo_inurba_marseille","lat":43.29263,"lon":5.409,"is_reserved":false,"is_disabled":false,"rental_uris":{"android":"levelo://app?vid=df9ecab4-6056-44cc-a720-250479e09d7c","ios":"levelo://app?vid=df9ecab4-6056-44cc-a720-250479e09d7c"},"vehicle_type_id":"4","last_reported":1758684251,"current_range_meters":8400,"station_id":"ce4bh192rcd13ifvqdc0","pricing_plan_id":"cebpf4jnsgd1na2vs0mg"},{"bike_id":"74cb8ebd-7dd1-48c9-bc78-524c26a950b4","system_id":"levelo_inurba_marseille","lat":43.31686,"lon":5.43679,"is_reserved":false,"is_disabled":true,"rental_uris":{"android":"levelo://app?vid=74cb8ebd-7dd1-48c9-bc78-524c26a950b4","ios":"levelo://app?vid=74cb8ebd-7dd1-48c9-bc78-524c26a950b4"},"vehicle_type_id":"4","last_reported":1758684251,"current_range_meters":8400,"station_id":"ce4bhp92rcd13ifvqhcg","pricing_plan_id":"cebpf4jnsgd1na2vs0mg"},{"bike_id":"a1a89975-d4b2-44b6-96f1-1a4c6551ed22","system_id":"levelo_inurba_marseille","lat":43.30309,"lon":5.36884,"is_reserved":false,"is_disabled":false,"rental_uris":{"android":"levelo://app?vid=a1a89975-d4b2-44b6-96f1-1a4c6551ed22","ios":"levelo://app?vid=a1a89975-d4b2-44b6-96f1-1a4c6551ed22"},"vehicle_type_id":"4","last_reported":1758684251,"current_range_meters":8800,"station_id":"ce4bgqh2rcd13ifvqc5g","pricing_plan_id":"cebpf4jnsgd1na2vs0mg"},{"bike_id":"8d243e83-cc74-44d3-bf18-f20421549672","system_id":"levelo_inurba_marseille","lat":43.28957,"lon":5.35937,"is_reserved":false,"is_disabled":false,"rental_uris":{"android":"levelo://app?vid=8d243e83-cc74-44d3-bf18-f20421549672","ios":"levelo://app?vid=8d243e83-cc74-44d3-bf18-f20421549672"},"vehicle_type_id":"4","last_reported":1758684251,"current_range_meters":8800,"station_id":"","pricing_plan_id":"cebpf4jnsgd1na2vs0mg"},{"bike_id":"bd9cfac1-ec33-4904-a50f-e82ac6094530","system_id":"levelo_inurba_marseille","lat":43.28996,"lon":5.3712,"is_reserved":false,"is_disabled":false,"rental_uris":{"android":"levelo://app?vid=bd9cfac1-ec33-4904-a50f-e82ac6094530","ios":"levelo://app?vid=bd9cfac1-ec33-4904-a50f-e82ac6094530"},"vehicle_type_id":"4","last_reported":1758684251,"current_range_meters":9200,"station_id":"","pricing_plan_id":"cebpf4jnsgd1na2vs0mg"},{"bike_id":"ccf0e740-485c-4768-83c7-fd281508e509","system_id":"levelo_inurba_marseille","lat":43.249483,"lon":5.404983,"is_reserved":false,"is_disabled":false,"rental_uris":{"android":"levelo://app?vid=ccf0e740-485c-4768-83c7-fd281508e509","ios":"levelo://app?vid=ccf0e740-485c-4768-83c7-fd281508e509"},"vehicle_type_id":"4","last_reported":1758684251,"current_range_meters":9600,"station_id":"st_d2ngiaodas8pm72gd1h0","pricing_plan_id":"cebpf4jnsgd1na2vs0mg"},{"bike_id":"724fabed-b39a-4276-b357-7a6ec49b4462","system_id":"levelo_inurba_marseille","lat":43.290206,"lon":5.381312,"is_reserved":false,"is_disabled":false,"rental_uris":{"android":"levelo://app?vid=724fabed-b39a-4276-b357-7a6ec49b4462","ios":"levelo://app?vid=724fabed-b39a-4276-b357-7a6ec49b4462"},"vehicle_type_id":"4","last_reported":1758684251,"current_range_meters":10000,"station_id":"ce4bh4p2rcd13ifvqe1g","pricing_plan_id":"cebpf4jnsgd1na2vs0mg"},{"bike_id":"ca4e0812-3d12-4a82-bc13-bf97739a4e53","system_id":"levelo_inurba_marseille","lat":43.30427,"lon":5.41286,"is_reserved":false,"is_disabled":true,"rental_uris":{"android":"levelo://app?vid=ca4e0812-3d12-4a82-bc13-bf97739a4e53","ios":"levelo://app?vid=ca4e0812-3d12-4a82-bc13-bf97739a4e53"},"vehicle_type_id":"4","last_reported":1758684251,"current_range_meters":10000,"station_id":"ce4bhop2rcd13ifvqh8g","pricing_plan_id":"cebpf4jnsgd1na2vs0mg"},{"bike_id":"8190065d-15e8-406e-a402-257fe6740eef","system_id":"levelo_inurba_marseille","lat":43.28349,"lon":5.381025,"is_reserved":false,"is_disabled":false,"rental_uris":{"android":"levelo://app?vid=8190065d-15e8-406e-a402-257fe6740eef","ios":"levelo://app?vid=8190065d-15e8-406e-a402-257fe6740eef"},"vehicle_type_id":"4","last_reported":1758684251,"current_range_meters":10000,"station_id":"ce4bh412rcd13ifvqdr0","pricing_plan_id":"cebpf4jnsgd1na2vs0mg"},{"bike_id":"08ffd931-e17f-4442-9575-cf4dfdcd5276","system_id":"levelo_inurba_marseille","lat":43.28297,"lon":5.35066,"is_reserved":false,"is_disabled":false,"rental_uris":{"android":"levelo://app?vid=08ffd931-e17f-4442-9575-cf4dfdcd5276","ios":"levelo://app?vid=08ffd931-e17f-4442-9575-cf4dfdcd5276"},"vehicle_type_id":"4","last_reported":1758684251,"current_range_meters":10800,"station_id":"ce4bhbp2rcd13ifvqerg","pricing_plan_id":"cebpf4jnsgd1na2vs0mg"},{"bike_id":"ca688ef3-c508-442e-ae4b-73b5e900f151","system_id":"levelo_inurba_marseille","lat":43.25828,"lon":5.39424,"is_reserved":false,"is_disabled":false,"rental_uris":{"android":"levelo://app?vid=ca688ef3-c508-442e-ae4b-73b5e900f151","ios":"levelo://app?vid=ca688ef3-c508-442e-ae4b-73b5e900f151"},"vehicle_type_id":"4","last_reported":1758684251,"current_range_meters":10800,"station_id":"ce4bhip2rcd13ifvqft0","pricing_plan_id":"cebpf4jnsgd1na2vs0mg"},{"bike_id":"7645fca4-f741-4eef-b1fe-a688078e1d09","system_id":"levelo_inurba_marseille","lat":43.246339,"lon":5.431344,"is_reserved":false,"is_disabled":false,"rental_uris":{"android":"levelo://app?vid=7645fca4-f741-4eef-b1fe-a688078e1d09","ios":"levelo://app?vid=7645fca4-f741-4eef-b1fe-a688078e1d09"},"vehicle_type_id":"4","last_reported":1758684251,"current_range_meters":10800,"station_id":"st_d2m6c4gdas8pm72e190g","pricing_plan_id":"cebpf4jnsgd1na2vs0mg"},{"bike_id":"ee324131-7f1e-4c44-8cd4-8facf81a76e2","system_id":"levelo_inurba_marseille","lat":43.27976,"lon":5.40021,"is_reserved":false,"is_disabled":true,"rental_uris":{"android":"levelo://app?vid=ee324131-7f1e-4c44-8cd4-8facf81a76e2","ios":"levelo://app?vid=ee324131-7f1e-4c44-8cd4-8facf81a76e2"},"vehicle_type_id":"4","last_reported":1758684251,"current_range_meters":10800,"station_id":"ce4bho92rcd13ifvqh4g","pricing_plan_id":"cebpf4jnsgd1na2vs0mg"},{"bike_id":"8a36147f-971f-4bf9-a3b3-6c83949ca6a6","system_id":"levelo_inurba_marseille","lat":43.32097,"lon":5.36775,"is_reserved":false,"is_disabled":false,"rental_uris":{"android":"levelo://app?vid=8a36147f-971f-4bf9-a3b3-6c83949ca6a6","ios":"levelo://app?vid=8a36147f-971f-4bf9-a3b3-6c83949ca6a6"},"vehicle_type_id":"4","last_reported":1758684251,"current_range_meters":10800,"station_id":"ce4bhrh2rcd13ifvqhug","pricing_plan_id":"cebpf4jnsgd1na2vs0mg"},{"bike_id":"109b1194-fc7c-4db6-b2eb-6c93d4cd22fc","system_id":"levelo_inurba_marseille","lat":43.25343,"lon":5.42153,"is_reserved":false,"is_disabled":false,"rental_uris":{"android":"levelo://app?vid=109b1194-fc7c-4db6-b2eb-6c93d4cd22fc","ios":"levelo://app?vid=109b1194-fc7c-4db6-b2eb-6c93d4cd22fc"},"vehicle_type_id":"4","last_reported":1758684251,"current_range_meters":10800,"station_id":"st_d2m65c5bi1j21697t3ng","pricing_plan_id":"cebpf4jnsgd1na2vs0mg"},{"bike_id":"062882c0-6810-4134-94b1-d58221c157d0","system_id":"levelo_inurba_marseille","lat":43.25339,"lon":5.42167,"is_reserved":false,"is_disabled":false,"rental_uris":{"android":"levelo://app?vid=062882c0-6810-4134-94b1-d58221c157d0","ios":"levelo://app?vid=062882c0-6810-4134-94b1-d58221c157d0"},"vehicle_type_id":"4","last_reported":1758684251,"current_range_meters":10800,"station_id":"st_d2m65c5bi1j21697t3ng","pricing_plan_id":"cebpf4jnsgd1na2vs0mg"},{"bike_id":"67b97e29-7ecb-4018-a464-041bbd85ed0b","system_id":"levelo_inurba_marseille","lat":43.28427,"lon":5.34981,"is_reserved":false,"is_disabled":false,"rental_uris":{"android":"levelo://app?vid=67b97e29-7ecb-4018-a464-041bbd85ed0b","ios":"levelo://app?vid=67b97e29-7ecb-4018-a464-041bbd85ed0b"},"vehicle_type_id":"4","last_reported":1758684251,"current_range_meters":10800,"station_id":"ce4bhbh2rcd13ifvqepg","pricing_plan_id":"cebpf4jnsgd1na2vs0mg"},{"bike_id":"8a929650-31c9-47d5-a8c3-44575c7f975b","system_id":"levelo_inurba_marseille","lat":43.31985,"lon":5.38136,"is_reserved":false,"is_disabled":false,"rental_uris":{"android":"levelo://app?vid=8a929650-31c9-47d5-a8c3-44575c7f975b","ios":"levelo://app?vid=8a929650-31c9-47d5-a8c3-44575c7f975b"},"vehicle_type_id":"4","last_reported":1758684251,"current_range_meters":10800,"station_id":"ce4bhr12rcd13ifvqhpg","pricing_plan_id":"cebpf4jnsgd1na2vs0mg"},{"bike_id":"9c7a180f-bee6-48c2-9ad2-181dea55ce36","system_id":"levelo_inurba_marseille","lat":43.31715,"lon":5.43698,"is_reserved":false,"is_disabled":false,"rental_uris":{"android":"levelo://app?vid=9c7a180f-bee6-48c2-9ad2-181dea55ce36","ios":"levelo://app?vid=9c7a180f-bee6-48c2-9ad2-181dea55ce36"},"vehicle_type_id":"4","last_reported":1758684251,"current_range_meters":11200,"station_id":"ce4bhp92rcd13ifvqhcg","pricing_plan_id":"cebpf4jnsgd1na2vs0mg"},{"bike_id":"0275e00f-ba43-4a3f-8cc2-0beb1f3aea8c","system_id":"levelo_inurba_marseille","lat":43.31322,"lon":5.39697,"is_reserved":false,"is_disabled":false,"rental_uris":{"android":"levelo://app?vid=0275e00f-ba43-4a3f-8cc2-0beb1f3aea8c","ios":"levelo://app?vid=0275e00f-ba43-4a3f-8cc2-0beb1f3aea8c"},"vehicle_type_id":"4","last_reported":1758684251,"current_range_meters":11200,"station_id":"ce4bgvp2rcd13ifvqcu0","pricing_plan_id":"cebpf4jnsgd1na2vs0mg"},{"bike_id":"5b396e16-77d2-4d91-9726-e9579982442a","system_id":"levelo_inurba_marseille","lat":43.29918,"lon":5.39745,"is_reserved":false,"is_disabled":false,"rental_uris":{"android":"levelo://app?vid=5b396e16-77d2-4d91-9726-e9579982442a","ios":"levelo://app?vid=5b396e16-77d2-4d91-9726-e9579982442a"},"vehicle_type_id":"4","last_reported":1758684251,"current_range_meters":11200,"station_id":"","pricing_plan_id":"cebpf4jnsgd1na2vs0mg"},{"bike_id":"0a93b7fa-898f-46ce-bd76-143a1182be97","system_id":"levelo_inurba_marseille","lat":43.27449,"lon":5.39384,"is_reserved":false,"is_disabled":true,"rental_uris":{"android":"levelo://app?vid=0a93b7fa-898f-46ce-bd76-143a1182be97","ios":"levelo://app?vid=0a93b7fa-898f-46ce-bd76-143a1182be97"},"vehicle_type_id":"4","last_reported":1758684251,"current_range_meters":11600,"station_id":"ce4bhdp2rcd13ifvqf20","pricing_plan_id":"cebpf4jnsgd1na2vs0mg"},{"bike_id":"fa7758f3-da7a-4534-90e5-f7cfea9a3167","system_id":"levelo_inurba_marseille","lat":43.31064,"lon":5.38342,"is_reserved":false,"is_disabled":false,"rental_uris":{"android":"levelo://app?vid=fa7758f3-da7a-4534-90e5-f7cfea9a3167","ios":"levelo://app?vid=fa7758f3-da7a-4534-90e5-f7cfea9a3167"},"vehicle_type_id":"4","last_reported":1758684251,"current_range_meters":11600,"station_id":"ce4bgv92rcd13ifvqcr0","pricing_plan_id":"cebpf4jnsgd1na2vs0mg"},{"bike_id":"43d57fd4-047e-4ac8-97e5-ec9b96239472","system_id":"levelo_inurba_marseille","lat":43.33231,"lon":5.39821,"is_reserved":false,"is_disabled":false,"rental_uris":{"android":"levelo://app?vid=43d57fd4-047e-4ac8-97e5-ec9b96239472","ios":"levelo://app?vid=43d57fd4-047e-4ac8-97e5-ec9b96239472"},"vehicle_type_id":"4","last_reported":1758684251,"current_range_meters":11600,"station_id":"","pricing_plan_id":"cebpf4jnsgd1na2vs0mg"},{"bike_id":"2e586592-f08d-43dc-b657-a1ca511d1d1a","system_id":"levelo_inurba_marseille","lat":43.27942,"lon":5.41042,"is_reserved":false,"is_disabled":false,"rental_uris":{"android":"levelo://app?vid=2e586592-f08d-43dc-b657-a1ca511d1d1a","ios":"levelo://app?vid=2e586592-f08d-43dc-b657-a1ca511d1d1a"},"vehicle_type_id":"4","last_reported":1758684251,"current_range_meters":12000,"station_id":"ce4bhnp2rcd13ifvqh0g","pricing_plan_id":"cebpf4jnsgd1na2vs0mg"},{"bike_id":"7c0482c3-9253-4d1b-b4f3-be55cdb7721d","system_id":"levelo_inurba_marseille","lat":43.33757,"lon":5.37466,"is_reserved":false,"is_disabled":false,"rental_uris":{"android":"levelo://app?vid=7c0482c3-9253-4d1b-b4f3-be55cdb7721d","ios":"levelo://app?vid=7c0482c3-9253-4d1b-b4f3-be55cdb7721d"},"vehicle_type_id":"4","last_reported":1758684251,"current_range_meters":12000,"station_id":"","pricing_plan_id":"cebpf4jnsgd1na2vs0mg"},{"bike_id":"d1d823d0-f26c-4640-98b9-8e5eba62ca5c","system_id":"levelo_inurba_marseille","lat":43.30314,"lon":5.39219,"is_reserved":false,"is_disabled":false,"rental_uris":{"android":"levelo://app?vid=d1d823d0-f26c-4640-98b9-8e5eba62ca5c","ios":"levelo://app?vid=d1d823d0-f26c-4640-98b9-8e5eba62ca5c"},"vehicle_type_id":"4","last_reported":1758684251,"current_range_meters":12000,"station_id":"ce4bgkh2rcd13ifvqbk0","pricing_plan_id":"cebpf4jnsgd1na2vs0mg"},{"bike_id":"34938a84-8c69-427d-ac76-3d11532bf34a","system_id":"levelo_inurba_marseille","lat":43.2918,"lon":5.35802,"is_reserved":false,"is_disabled":false,"rental_uris":{"android":"levelo://app?vid=34938a84-8c69-427d-ac76-3d11532bf34a","ios":"levelo://app?vid=34938a84-8c69-427d-ac76-3d11532bf34a"},"vehicle_type_id":"4","last_reported":1758684251,"current_range_meters":12000,"station_id":"ce4bhb12rcd13ifvqel0","pricing_plan_id":"cebpf4jnsgd1na2vs0mg"},{"bike_id":"e35dc3d8-0dfe-4bd4-87f7-5d3ca8bee4e5","system_id":"levelo_inurba_marseille","lat":43.25088,"lon":5.42595,"is_reserved":false,"is_disabled":false,"rental_uris":{"android":"levelo://app?vid=e35dc3d8-0dfe-4bd4-87f7-5d3ca8bee4e5","ios":"levelo://app?vid=e35dc3d8-0dfe-4bd4-87f7-5d3ca8bee4e5"},"vehicle_type_id":"4","last_reported":1758684251,"current_range_meters":12000,"station_id":"","pricing_plan_id":"cebpf4jnsgd1na2vs0mg"},{"bike_id":"06a24bce-028d-4b4a-b4a3-d45296145db5","system_id":"levelo_inurba_marseille","lat":43.28425,"lon":5.34991,"is_reserved":false,"is_disabled":true,"rental_uris":{"android":"levelo://app?vid=06a24bce-028d-4b4a-b4a3-d45296145db5","ios":"levelo://app?vid=06a24bce-028d-4b4a-b4a3-d45296145db5"},"vehicle_type_id":"4","last_reported":1758684251,"current_range_meters":12400,"station_id":"ce4bhch2rcd13ifvqeug","pricing_plan_id":"cebpf4jnsgd1na2vs0mg"},{"bike_id":"4c0b651b-953c-4759-a0f7-0074f59a45eb","system_id":"levelo_inurba_marseille","lat":43.2579,"lon":5.392872,"is_reserved":false,"is_disabled":false,"rental_uris":{"android":"levelo://app?vid=4c0b651b-953c-4759-a0f7-0074f59a45eb","ios":"levelo://app?vid=4c0b651b-953c-4759-a0f7-0074f59a45eb"},"vehicle_type_id":"4","last_reported":1758684251,"current_range_meters":12400,"station_id":"","pricing_plan_id":"cebpf4jnsgd1na2vs0mg"},{"bike_id":"2884e01e-e8e5-4f64-839a-a54c238e1ae3","system_id":"levelo_inurba_marseille","lat":43.22512,"lon":5.34826,"is_reserved":false,"is_disabled":false,"rental_uris":{"android":"levelo://app?vid=2884e01e-e8e5-4f64-839a-a54c238e1ae3","ios":"levelo://app?vid=2884e01e-e8e5-4f64-839a-a54c238e1ae3"},"vehicle_type_id":"4","last_reported":1758684251,"current_range_meters":12800,"station_id":"","pricing_plan_id":"cebpf4jnsgd1na2vs0mg"},{"bike_id":"b1ce93cc-c50a-4c33-91d4-e327b44da2b1","system_id":"levelo_inurba_marseille","lat":43.29859,"lon":5.38892,"is_reserved":false,"is_disabled":true,"rental_uris":{"android":"levelo://app?vid=b1ce93cc-c50a-4c33-91d4-e327b44da2b1","ios":"levelo://app?vid=b1ce93cc-c50a-4c33-91d4-e327b44da2b1"},"vehicle_type_id":"4","last_reported":1758684251,"current_range_meters":12800,"station_id":"ce4bh392rcd13ifvqdl0","pricing_plan_id":"cebpf4jnsgd1na2vs0mg"},{"bike_id":"dddca5ef-4a33-499b-936a-6d8e6136a417","system_id":"levelo_inurba_marseille","lat":43.22938,"lon":5.353738,"is_reserved":false,"is_disabled":false,"rental_uris":{"android":"levelo://app?vid=dddca5ef-4a33-499b-936a-6d8e6136a417","ios":"levelo://app?vid=dddca5ef-4a33-499b-936a-6d8e6136a417"},"vehicle_type_id":"4","last_reported":1758684251,"current_range_meters":12800,"station_id":"cpo3532slgdg3j2ikp40","pricing_plan_id":"cebpf4jnsgd1na2vs0mg"},{"bike_id":"0ede7616-1d90-43d4-a37a-60c9664e7016","system_id":"levelo_inurba_marseille","lat":43.23218,"lon":5.39952,"is_reserved":false,"is_disabled":false,"rental_uris":{"android":"levelo://app?vid=0ede7616-1d90-43d4-a37a-60c9664e7016","ios":"levelo://app?vid=0ede7616-1d90-43d4-a37a-60c9664e7016"},"vehicle_type_id":"4","last_reported":1758684251,"current_range_meters":13600,"station_id":"","pricing_plan_id":"cebpf4jnsgd1na2vs0mg"},{"bike_id":"bcb71d7d-9f90-4495-a001-e0f5211c472c","system_id":"levelo_inurba_marseille","lat":43.29761,"lon":5.37664,"is_reserved":false,"is_disabled":false,"rental_uris":{"android":"levelo://app?vid=bcb71d7d-9f90-4495-a001-e0f5211c472c","ios":"levelo://app?vid=bcb71d7d-9f90-4495-a001-e0f5211c472c"},"vehicle_type_id":"4","last_reported":1758684251,"current_range_meters":13600,"station_id":"","pricing_plan_id":"cebpf4jnsgd1na2vs0mg"},{"bike_id":"cc990b26-00fa-4318-a17c-e25aac1c23b5","system_id":"levelo_inurba_marseille","lat":43.33027,"lon":5.39038,"is_reserved":false,"is_disabled":false,"rental_uris":{"android":"levelo://app?vid=cc990b26-00fa-4318-a17c-e25aac1c23b5","ios":"levelo://app?vid=cc990b26-00fa-4318-a17c-e25aac1c23b5"},"vehicle_type_id":"4","last_reported":1758684251,"current_range_meters":13600,"station_id":"ce4bhr92rcd13ifvqhrg","pricing_plan_id":"cebpf4jnsgd1na2vs0mg"},{"bike_id":"a60abba9-f9b8-477b-8786-175fc2b6218b","system_id":"levelo_inurba_marseille","lat":43.30817,"lon":5.3707,"is_reserved":false,"is_disabled":false,"rental_uris":{"android":"levelo://app?vid=a60abba9-f9b8-477b-8786-175fc2b6218b","ios":"levelo://app?vid=a60abba9-f9b8-477b-8786-175fc2b6218b"},"vehicle_type_id":"4","last_reported":1758684251,"current_range_meters":14000,"station_id":"","pricing_plan_id":"cebpf4jnsgd1na2vs0mg"},{"bike_id":"bc5e5951-8efa-474d-bb4f-c79e92883e92","system_id":"levelo_inurba_marseille","lat":43.28154,"lon":5.42641,"is_reserved":false,"is_disabled":false,"rental_uris":{"android":"levelo://app?vid=bc5e5951-8efa-474d-bb4f-c79e92883e92","ios":"levelo://app?vid=bc5e5951-8efa-474d-bb4f-c79e92883e92"},"vehicle_type_id":"4","last_reported":1758684251,"current_range_meters":14000,"station_id":"ce4bhnh2rcd13ifvqgug","pricing_plan_id":"cebpf4jnsgd1na2vs0mg"},{"bike_id":"503e9fe5-3f4f-4661-a209-e71c434a7680","system_id":"levelo_inurba_marseille","lat":43.27976,"lon":5.38742,"is_reserved":false,"is_disabled":true,"rental_uris":{"android":"levelo://app?vid=503e9fe5-3f4f-4661-a209-e71c434a7680","ios":"levelo://app?vid=503e9fe5-3f4f-4661-a209-e71c434a7680"},"vehicle_type_id":"4","last_reported":1758684251,"current_range_meters":14000,"station_id":"ce4bhg12rcd13ifvqf80","pricing_plan_id":"cebpf4jnsgd1na2vs0mg"},{"bike_id":"7ee54a5a-c571-463d-baff-80a1a8ed87ce","system_id":"levelo_inurba_marseille","lat":43.25342,"lon":5.42169,"is_reserved":false,"is_disabled":false,"rental_uris":{"android":"levelo://app?vid=7ee54a5a-c571-463d-baff-80a1a8ed87ce","ios":"levelo://app?vid=7ee54a5a-c571-463d-baff-80a1a8ed87ce"},"vehicle_type_id":"4","last_reported":1758684251,"current_range_meters":14000,"station_id":"st_d2m65c5bi1j21697t3ng","pricing_plan_id":"cebpf4jnsgd1na2vs0mg"},{"bike_id":"9feb0e0f-24fa-4463-b0f3-30472830c043","system_id":"levelo_inurba_marseille","lat":43.31757,"lon":5.39002,"is_reserved":false,"is_disabled":false,"rental_uris":{"android":"levelo://app?vid=9feb0e0f-24fa-4463-b0f3-30472830c043","ios":"levelo://app?vid=9feb0e0f-24fa-4463-b0f3-30472830c043"},"vehicle_type_id":"4","last_reported":1758684251,"current_range_meters":14400,"station_id":"ce4bhqp2rcd13ifvqhng","pricing_plan_id":"cebpf4jnsgd1na2vs0mg"},{"bike_id":"fc0d55ff-169b-4f4b-b3ba-2214804abd56","system_id":"levelo_inurba_marseille","lat":43.29247,"lon":5.40906,"is_reserved":false,"is_disabled":false,"rental_uris":{"android":"levelo://app?vid=fc0d55ff-169b-4f4b-b3ba-2214804abd56","ios":"levelo://app?vid=fc0d55ff-169b-4f4b-b3ba-2214804abd56"},"vehicle_type_id":"4","last_reported":1758684251,"current_range_meters":14400,"station_id":"ce4bh192rcd13ifvqdc0","pricing_plan_id":"cebpf4jnsgd1na2vs0mg"},{"bike_id":"9e28a774-d336-4995-921f-c826bee8dc91","system_id":"levelo_inurba_marseille","lat":43.30124,"lon":5.38783,"is_reserved":false,"is_disabled":true,"rental_uris":{"android":"levelo://app?vid=9e28a774-d336-4995-921f-c826bee8dc91","ios":"levelo://app?vid=9e28a774-d336-4995-921f-c826bee8dc91"},"vehicle_type_id":"4","last_reported":1758684251,"current_range_meters":14400,"station_id":"ce4bghh2rcd13ifvqb60","pricing_plan_id":"cebpf4jnsgd1na2vs0mg"},{"bike_id":"fb0bbbf8-0573-45b8-b460-0e4bda2157d0","system_id":"levelo_inurba_marseille","lat":43.291988,"lon":5.393192,"is_reserved":false,"is_disabled":false,"rental_uris":{"android":"levelo://app?vid=fb0bbbf8-0573-45b8-b460-0e4bda2157d0","ios":"levelo://app?vid=fb0bbbf8-0573-45b8-b460-0e4bda2157d0"},"vehicle_type_id":"4","last_reported":1758684251,"current_range_meters":14400,"station_id":"ce4bh192rcd13ifvqdd0","pricing_plan_id":"cebpf4jnsgd1na2vs0mg"},{"bike_id":"ae140a32-5f79-427f-90a7-d410e17b7823","system_id":"levelo_inurba_marseille","lat":43.26693,"lon":5.38258,"is_reserved":false,"is_disabled":true,"rental_uris":{"android":"levelo://app?vid=ae140a32-5f79-427f-90a7-d410e17b7823","ios":"levelo://app?vid=ae140a32-5f79-427f-90a7-d410e17b7823"},"vehicle_type_id":"4","last_reported":1758684251,"current_range_meters":14400,"station_id":"ce4bhg92rcd13ifvqf90","pricing_plan_id":"cebpf4jnsgd1na2vs0mg"},{"bike_id":"878212e1-9f3a-4147-b86c-65eaf928a45d","system_id":"levelo_inurba_marseille","lat":43.21766,"lon":5.3459,"is_reserved":false,"is_disabled":false,"rental_uris":{"android":"levelo://app?vid=878212e1-9f3a-4147-b86c-65eaf928a45d","ios":"levelo://app?vid=878212e1-9f3a-4147-b86c-65eaf928a45d"},"vehicle_type_id":"4","last_reported":1758684251,"current_range_meters":14400,"station_id":"","pricing_plan_id":"cebpf4jnsgd1na2vs0mg"},{"bike_id":"7778dc69-44e8-4176-906c-572acbfe5776","system_id":"levelo_inurba_marseille","lat":43.249592,"lon":5.404904,"is_reserved":false,"is_disabled":false,"rental_uris":{"android":"levelo://app?vid=7778dc69-44e8-4176-906c-572acbfe5776","ios":"levelo://app?vid=7778dc69-44e8-4176-906c-572acbfe5776"},"vehicle_type_id":"4","last_reported":1758684251,"current_range_meters":14400,"station_id":"st_d2ngiaodas8pm72gd1h0","pricing_plan_id":"cebpf4jnsgd1na2vs0mg"},{"bike_id":"438ead59-de14-4fa0-a61d-03a70a4122ae","system_id":"levelo_inurba_marseille","lat":43.97269,"lon":4.89111,"is_reserved":false,"is_disabled":true,"rental_uris":{"android":"levelo://app?vid=438ead59-de14-4fa0-a61d-03a70a4122ae","ios":"levelo://app?vid=438ead59-de14-4fa0-a61d-03a70a4122ae"},"vehicle_type_id":"4","last_reported":1758684251,"current_range_meters":14400,"station_id":"","pricing_plan_id":"cebpf4jnsgd1na2vs0mg"},{"bike_id":"50cb7c51-f0a5-4ad1-b1ce-86c92e25aae6","system_id":"levelo_inurba_marseille","lat":43.26919,"lon":5.4024,"is_reserved":false,"is_disabled":false,"rental_uris":{"android":"levelo://app?vid=50cb7c51-f0a5-4ad1-b1ce-86c92e25aae6","ios":"levelo://app?vid=50cb7c51-f0a5-4ad1-b1ce-86c92e25aae6"},"vehicle_type_id":"4","last_reported":1758684251,"current_range_meters":14800,"station_id":"cjm6bp8fraef2m0cb0m0","pricing_plan_id":"cebpf4jnsgd1na2vs0mg"},{"bike_id":"986b9cd9-8427-481d-80a2-063b18f9f5cc","system_id":"levelo_inurba_marseille","lat":43.2809,"lon":5.39672,"is_reserved":false,"is_disabled":false,"rental_uris":{"android":"levelo://app?vid=986b9cd9-8427-481d-80a2-063b18f9f5cc","ios":"levelo://app?vid=986b9cd9-8427-481d-80a2-063b18f9f5cc"},"vehicle_type_id":"4","last_reported":1758684251,"current_range_meters":14800,"station_id":"ce4bho12rcd13ifvqh2g","pricing_plan_id":"cebpf4jnsgd1na2vs0mg"},{"bike_id":"e36b8523-28d4-4650-bb1a-56482550ea8b","system_id":"levelo_inurba_marseille","lat":43.29785,"lon":5.38122,"is_reserved":false,"is_disabled":true,"rental_uris":{"android":"levelo://app?vid=e36b8523-28d4-4650-bb1a-56482550ea8b","ios":"levelo://app?vid=e36b8523-28d4-4650-bb1a-56482550ea8b"},"vehicle_type_id":"4","last_reported":1758684251,"current_range_meters":14800,"station_id":"ce4bgip2rcd13ifvqbb0","pricing_plan_id":"cebpf4jnsgd1na2vs0mg"},{"bike_id":"8353488b-27d1-4657-88aa-31403d6b0301","system_id":"levelo_inurba_marseille","lat":43.30628,"lon":5.37212,"is_reserved":false,"is_disabled":false,"rental_uris":{"android":"levelo://app?vid=8353488b-27d1-4657-88aa-31403d6b0301","ios":"levelo://app?vid=8353488b-27d1-4657-88aa-31403d6b0301"},"vehicle_type_id":"4","last_reported":1758684251,"current_range_meters":14800,"station_id":"ce4bgqh2rcd13ifvqc4g","pricing_plan_id":"cebpf4jnsgd1na2vs0mg"},{"bike_id":"4127ed02-7dfe-4a2d-9eb8-9f17e22eaf5b","system_id":"levelo_inurba_marseille","lat":43.31091,"lon":5.37772,"is_reserved":false,"is_disabled":false,"rental_uris":{"android":"levelo://app?vid=4127ed02-7dfe-4a2d-9eb8-9f17e22eaf5b","ios":"levelo://app?vid=4127ed02-7dfe-4a2d-9eb8-9f17e22eaf5b"},"vehicle_type_id":"4","last_reported":1758684251,"current_range_meters":14800,"station_id":"ce4bgt92rcd13ifvqcg0","pricing_plan_id":"cebpf4jnsgd1na2vs0mg"},{"bike_id":"b5097eea-9912-4be2-9cf9-14c224c5fab6","system_id":"levelo_inurba_marseille","lat":43.231994,"lon":5.355406,"is_reserved":false,"is_disabled":false,"rental_uris":{"android":"levelo://app?vid=b5097eea-9912-4be2-9cf9-14c224c5fab6","ios":"levelo://app?vid=b5097eea-9912-4be2-9cf9-14c224c5fab6"},"vehicle_type_id":"4","last_reported":1758684251,"current_range_meters":15200,"station_id":"ce4bhu92rcd13ifvqi70","pricing_plan_id":"cebpf4jnsgd1na2vs0mg"},{"bike_id":"24f1c4f0-9fd4-4fe7-808c-93dd959e3a6e","system_id":"levelo_inurba_marseille","lat":43.33019,"lon":5.39034,"is_reserved":false,"is_disabled":false,"rental_uris":{"android":"levelo://app?vid=24f1c4f0-9fd4-4fe7-808c-93dd959e3a6e","ios":"levelo://app?vid=24f1c4f0-9fd4-4fe7-808c-93dd959e3a6e"},"vehicle_type_id":"4","last_reported":1758684251,"current_range_meters":15200,"station_id":"ce4bhr92rcd13ifvqhrg","pricing_plan_id":"cebpf4jnsgd1na2vs0mg"},{"bike_id":"06c10839-75c7-457b-804b-f341157fb4f3","system_id":"levelo_inurba_marseille","lat":43.25075,"lon":5.40438,"is_reserved":false,"is_disabled":false,"rental_uris":{"android":"levelo://app?vid=06c10839-75c7-457b-804b-f341157fb4f3","ios":"levelo://app?vid=06c10839-75c7-457b-804b-f341157fb4f3"},"vehicle_type_id":"4","last_reported":1758684251,"current_range_meters":15200,"station_id":"","pricing_plan_id":"cebpf4jnsgd1na2vs0mg"},{"bike_id":"d5e7f1db-a250-433c-8992-01d3a8d6d17c","system_id":"levelo_inurba_marseille","lat":43.318205,"lon":5.42275,"is_reserved":false,"is_disabled":false,"rental_uris":{"android":"levelo://app?vid=d5e7f1db-a250-433c-8992-01d3a8d6d17c","ios":"levelo://app?vid=d5e7f1db-a250-433c-8992-01d3a8d6d17c"},"vehicle_type_id":"4","last_reported":1758684251,"current_range_meters":15200,"station_id":"ce4bhp92rcd13ifvqhbg","pricing_plan_id":"cebpf4jnsgd1na2vs0mg"},{"bike_id":"0ced9aee-b428-4276-96a5-abfd890f0338","system_id":"levelo_inurba_marseille","lat":43.30937,"lon":5.40134,"is_reserved":false,"is_disabled":false,"rental_uris":{"android":"levelo://app?vid=0ced9aee-b428-4276-96a5-abfd890f0338","ios":"levelo://app?vid=0ced9aee-b428-4276-96a5-abfd890f0338"},"vehicle_type_id":"4","last_reported":1758684251,"current_range_meters":15200,"station_id":"ce4bgvp2rcd13ifvqct0","pricing_plan_id":"cebpf4jnsgd1na2vs0mg"},{"bike_id":"f8c06f7d-03bd-4462-954a-b00f606bc63d","system_id":"levelo_inurba_marseille","lat":43.25341,"lon":5.42179,"is_reserved":false,"is_disabled":false,"rental_uris":{"android":"levelo://app?vid=f8c06f7d-03bd-4462-954a-b00f606bc63d","ios":"levelo://app?vid=f8c06f7d-03bd-4462-954a-b00f606bc63d"},"vehicle_type_id":"4","last_reported":1758684251,"current_range_meters":16000,"station_id":"st_d2m65c5bi1j21697t3ng","pricing_plan_id":"cebpf4jnsgd1na2vs0mg"},{"bike_id":"f1109d1c-3dfd-4013-af5e-deeaec240c17","system_id":"levelo_inurba_marseille","lat":43.321141,"lon":5.367743,"is_reserved":false,"is_disabled":false,"rental_uris":{"android":"levelo://app?vid=f1109d1c-3dfd-4013-af5e-deeaec240c17","ios":"levelo://app?vid=f1109d1c-3dfd-4013-af5e-deeaec240c17"},"vehicle_type_id":"4","last_reported":1758684251,"current_range_meters":16000,"station_id":"ce4bhrh2rcd13ifvqhug","pricing_plan_id":"cebpf4jnsgd1na2vs0mg"},{"bike_id":"73191c81-1d43-414e-9511-6c6ae5e9c556","system_id":"levelo_inurba_marseille","lat":43.291904,"lon":5.358103,"is_reserved":false,"is_disabled":false,"rental_uris":{"android":"levelo://app?vid=73191c81-1d43-414e-9511-6c6ae5e9c556","ios":"levelo://app?vid=73191c81-1d43-414e-9511-6c6ae5e9c556"},"vehicle_type_id":"4","last_reported":1758684251,"current_range_meters":16000,"station_id":"ce4bhb12rcd13ifvqel0","pricing_plan_id":"cebpf4jnsgd1na2vs0mg"},{"bike_id":"787fb8c7-9cda-4d69-b8c5-42fcd262adf0","system_id":"levelo_inurba_marseille","lat":43.28363,"lon":5.3863,"is_reserved":false,"is_disabled":true,"rental_uris":{"android":"levelo://app?vid=787fb8c7-9cda-4d69-b8c5-42fcd262adf0","ios":"levelo://app?vid=787fb8c7-9cda-4d69-b8c5-42fcd262adf0"},"vehicle_type_id":"4","last_reported":1758684251,"current_range_meters":16000,"station_id":"ce4bh492rcd13ifvqdvg","pricing_plan_id":"cebpf4jnsgd1na2vs0mg"},{"bike_id":"d68b9cdd-055c-48e6-b5c7-c6c683b923e5","system_id":"levelo_inurba_marseille","lat":43.28636,"lon":5.35141,"is_reserved":false,"is_disabled":true,"rental_uris":{"android":"levelo://app?vid=d68b9cdd-055c-48e6-b5c7-c6c683b923e5","ios":"levelo://app?vid=d68b9cdd-055c-48e6-b5c7-c6c683b923e5"},"vehicle_type_id":"4","last_reported":1758684251,"current_range_meters":16000,"station_id":"ce4bhch2rcd13ifvqeug","pricing_plan_id":"cebpf4jnsgd1na2vs0mg"},{"bike_id":"b48e70b2-53f1-4641-819c-a53cac59b8ed","system_id":"levelo_inurba_marseille","lat":43.258241,"lon":5.39439,"is_reserved":false,"is_disabled":false,"rental_uris":{"android":"levelo://app?vid=b48e70b2-53f1-4641-819c-a53cac59b8ed","ios":"levelo://app?vid=b48e70b2-53f1-4641-819c-a53cac59b8ed"},"vehicle_type_id":"4","last_reported":1758684251,"current_range_meters":16000,"station_id":"ce4bhip2rcd13ifvqft0","pricing_plan_id":"cebpf4jnsgd1na2vs0mg"},{"bike_id":"36b070bb-df09-4433-b99c-aab79ada22d5","system_id":"levelo_inurba_marseille","lat":43.29287,"lon":5.3744,"is_reserved":false,"is_disabled":false,"rental_uris":{"android":"levelo://app?vid=36b070bb-df09-4433-b99c-aab79ada22d5","ios":"levelo://app?vid=36b070bb-df09-4433-b99c-aab79ada22d5"},"vehicle_type_id":"4","last_reported":1758684251,"current_range_meters":16000,"station_id":"","pricing_plan_id":"cebpf4jnsgd1na2vs0mg"},{"bike_id":"0412dbb0-08ae-49a0-afef-1ad2c96f78ef","system_id":"levelo_inurba_marseille","lat":43.265732,"lon":5.403162,"is_reserved":false,"is_disabled":false,"rental_uris":{"android":"levelo://app?vid=0412dbb0-08ae-49a0-afef-1ad2c96f78ef","ios":"levelo://app?vid=0412dbb0-08ae-49a0-afef-1ad2c96f78ef"},"vehicle_type_id":"4","last_reported":1758684251,"current_range_meters":16000,"station_id":"ce4bhmp2rcd13ifvqgng","pricing_plan_id":"cebpf4jnsgd1na2vs0mg"},{"bike_id":"8c0227e3-55e8-4994-aa0c-9b6ee99b7e26","system_id":"levelo_inurba_marseille","lat":43.2305,"lon":5.35503,"is_reserved":false,"is_disabled":false,"rental_uris":{"android":"levelo://app?vid=8c0227e3-55e8-4994-aa0c-9b6ee99b7e26","ios":"levelo://app?vid=8c0227e3-55e8-4994-aa0c-9b6ee99b7e26"},"vehicle_type_id":"4","last_reported":1758684251,"current_range_meters":16400,"station_id":"cpo3342slgdg3j2ifvpg","pricing_plan_id":"cebpf4jnsgd1na2vs0mg"},{"bike_id":"e7a19603-697e-4f34-bf6e-d21cb8ee387e","system_id":"levelo_inurba_marseille","lat":43.26068,"lon":5.39372,"is_reserved":false,"is_disabled":true,"rental_uris":{"android":"levelo://app?vid=e7a19603-697e-4f34-bf6e-d21cb8ee387e","ios":"levelo://app?vid=e7a19603-697e-4f34-bf6e-d21cb8ee387e"},"vehicle_type_id":"4","last_reported":1758684251,"current_range_meters":16400,"station_id":"ce4bhh92rcd13ifvqfj0","pricing_plan_id":"cebpf4jnsgd1na2vs0mg"},{"bike_id":"ef00c611-56e3-4d87-83a8-6fad9627913a","system_id":"levelo_inurba_marseille","lat":43.308894,"lon":5.371943,"is_reserved":false,"is_disabled":false,"rental_uris":{"android":"levelo://app?vid=ef00c611-56e3-4d87-83a8-6fad9627913a","ios":"levelo://app?vid=ef00c611-56e3-4d87-83a8-6fad9627913a"},"vehicle_type_id":"4","last_reported":1758684251,"current_range_meters":16400,"station_id":"ce4bguh2rcd13ifvqckg","pricing_plan_id":"cebpf4jnsgd1na2vs0mg"},{"bike_id":"23992864-f302-4317-be32-ce66b8190c01","system_id":"levelo_inurba_marseille","lat":43.29991,"lon":5.40109,"is_reserved":false,"is_disabled":false,"rental_uris":{"android":"levelo://app?vid=23992864-f302-4317-be32-ce66b8190c01","ios":"levelo://app?vid=23992864-f302-4317-be32-ce66b8190c01"},"vehicle_type_id":"4","last_reported":1758684251,"current_range_meters":16400,"station_id":"","pricing_plan_id":"cebpf4jnsgd1na2vs0mg"},{"bike_id":"817a7689-6721-44f0-8d80-02a933ee2211","system_id":"levelo_inurba_marseille","lat":43.32496,"lon":5.41498,"is_reserved":false,"is_disabled":false,"rental_uris":{"android":"levelo://app?vid=817a7689-6721-44f0-8d80-02a933ee2211","ios":"levelo://app?vid=817a7689-6721-44f0-8d80-02a933ee2211"},"vehicle_type_id":"4","last_reported":1758684251,"current_range_meters":16400,"station_id":"","pricing_plan_id":"cebpf4jnsgd1na2vs0mg"},{"bike_id":"a851cae0-b395-441e-9dd1-21300baf3396","system_id":"levelo_inurba_marseille","lat":43.31512,"lon":5.3871,"is_reserved":false,"is_disabled":false,"rental_uris":{"android":"levelo://app?vid=a851cae0-b395-441e-9dd1-21300baf3396","ios":"levelo://app?vid=a851cae0-b395-441e-9dd1-21300baf3396"},"vehicle_type_id":"4","last_reported":1758684251,"current_range_meters":16400,"station_id":"","pricing_plan_id":"cebpf4jnsgd1na2vs0mg"},{"bike_id":"36dcdecf-882a-4614-8011-250ef8957d92","system_id":"levelo_inurba_marseille","lat":43.21754,"lon":5.34601,"is_reserved":false,"is_disabled":false,"rental_uris":{"android":"levelo://app?vid=36dcdecf-882a-4614-8011-250ef8957d92","ios":"levelo://app?vid=36dcdecf-882a-4614-8011-250ef8957d92"},"vehicle_type_id":"4","last_reported":1758684251,"current_range_meters":16400,"station_id":"st_cvj6r9ubvosntc0bgbag","pricing_plan_id":"cebpf4jnsgd1na2vs0mg"},{"bike_id":"bcb0345d-b69c-4093-a73a-ca87e4c5143d","system_id":"levelo_inurba_marseille","lat":43.27929,"lon":5.39578,"is_reserved":false,"is_disabled":false,"rental_uris":{"android":"levelo://app?vid=bcb0345d-b69c-4093-a73a-ca87e4c5143d","ios":"levelo://app?vid=bcb0345d-b69c-4093-a73a-ca87e4c5143d"},"vehicle_type_id":"4","last_reported":1758684251,"current_range_meters":16400,"station_id":"ce4bhf92rcd13ifvqf40","pricing_plan_id":"cebpf4jnsgd1na2vs0mg"},{"bike_id":"bf7922d8-f04c-44a6-912b-505ec561dd82","system_id":"levelo_inurba_marseille","lat":43.281529,"lon":5.426365,"is_reserved":false,"is_disabled":false,"rental_uris":{"android":"levelo://app?vid=bf7922d8-f04c-44a6-912b-505ec561dd82","ios":"levelo://app?vid=bf7922d8-f04c-44a6-912b-505ec561dd82"},"vehicle_type_id":"4","last_reported":1758684251,"current_range_meters":16400,"station_id":"ce4bhnh2rcd13ifvqgug","pricing_plan_id":"cebpf4jnsgd1na2vs0mg"},{"bike_id":"a924c89f-9c2a-457c-8314-a2cb9a16e887","system_id":"levelo_inurba_marseille","lat":43.28464,"lon":5.35872,"is_reserved":false,"is_disabled":false,"rental_uris":{"android":"levelo://app?vid=a924c89f-9c2a-457c-8314-a2cb9a16e887","ios":"levelo://app?vid=a924c89f-9c2a-457c-8314-a2cb9a16e887"},"vehicle_type_id":"4","last_reported":1758684251,"current_range_meters":16800,"station_id":"ce4bhah2rcd13ifvqei0","pricing_plan_id":"cebpf4jnsgd1na2vs0mg"},{"bike_id":"a656ae10-953e-42ad-80e7-e7b66db2f942","system_id":"levelo_inurba_marseille","lat":43.30949,"lon":5.3904,"is_reserved":false,"is_disabled":false,"rental_uris":{"android":"levelo://app?vid=a656ae10-953e-42ad-80e7-e7b66db2f942","ios":"levelo://app?vid=a656ae10-953e-42ad-80e7-e7b66db2f942"},"vehicle_type_id":"4","last_reported":1758684251,"current_range_meters":16800,"station_id":"ce4bgup2rcd13ifvqco0","pricing_plan_id":"cebpf4jnsgd1na2vs0mg"},{"bike_id":"93f8abc5-7bf2-42ae-a85e-b4a1a5de88d5","system_id":"levelo_inurba_marseille","lat":43.28403,"lon":5.37527,"is_reserved":false,"is_disabled":false,"rental_uris":{"android":"levelo://app?vid=93f8abc5-7bf2-42ae-a85e-b4a1a5de88d5","ios":"levelo://app?vid=93f8abc5-7bf2-42ae-a85e-b4a1a5de88d5"},"vehicle_type_id":"4","last_reported":1758684251,"current_range_meters":16800,"station_id":"ce4bh412rcd13ifvqds0","pricing_plan_id":"cebpf4jnsgd1na2vs0mg"},{"bike_id":"e2017298-7010-4fcc-9644-9ccfb0f46125","system_id":"levelo_inurba_marseille","lat":43.301,"lon":5.41526,"is_reserved":false,"is_disabled":false,"rental_uris":{"android":"levelo://app?vid=e2017298-7010-4fcc-9644-9ccfb0f46125","ios":"levelo://app?vid=e2017298-7010-4fcc-9644-9ccfb0f46125"},"vehicle_type_id":"4","last_reported":1758684251,"current_range_meters":16800,"station_id":"","pricing_plan_id":"cebpf4jnsgd1na2vs0mg"},{"bike_id":"3cb1dae7-6bcd-41e5-b1b7-c1d25c751a99","system_id":"levelo_inurba_marseille","lat":43.337594,"lon":5.374419,"is_reserved":false,"is_disabled":false,"rental_uris":{"android":"levelo://app?vid=3cb1dae7-6bcd-41e5-b1b7-c1d25c751a99","ios":"levelo://app?vid=3cb1dae7-6bcd-41e5-b1b7-c1d25c751a99"},"vehicle_type_id":"4","last_reported":1758684251,"current_range_meters":17200,"station_id":"","pricing_plan_id":"cebpf4jnsgd1na2vs0mg"},{"bike_id":"57b14c92-2a17-45b3-beb1-cbb460ef441b","system_id":"levelo_inurba_marseille","lat":43.23208,"lon":5.3997,"is_reserved":false,"is_disabled":false,"rental_uris":{"android":"levelo://app?vid=57b14c92-2a17-45b3-beb1-cbb460ef441b","ios":"levelo://app?vid=57b14c92-2a17-45b3-beb1-cbb460ef441b"},"vehicle_type_id":"4","last_reported":1758684251,"current_range_meters":17200,"station_id":"ce4bhn12rcd13ifvqgqg","pricing_plan_id":"cebpf4jnsgd1na2vs0mg"},{"bike_id":"e9b89614-379d-417a-8ad3-50092d4df2ac","system_id":"levelo_inurba_marseille","lat":43.2952,"lon":5.39066,"is_reserved":false,"is_disabled":false,"rental_uris":{"android":"levelo://app?vid=e9b89614-379d-417a-8ad3-50092d4df2ac","ios":"levelo://app?vid=e9b89614-379d-417a-8ad3-50092d4df2ac"},"vehicle_type_id":"4","last_reported":1758684251,"current_range_meters":17200,"station_id":"ce4bh3p2rcd13ifvqdp0","pricing_plan_id":"cebpf4jnsgd1na2vs0mg"},{"bike_id":"d3599974-e621-4ce2-8c9b-8d38c86f7517","system_id":"levelo_inurba_marseille","lat":43.30683,"lon":5.40058,"is_reserved":false,"is_disabled":false,"rental_uris":{"android":"levelo://app?vid=d3599974-e621-4ce2-8c9b-8d38c86f7517","ios":"levelo://app?vid=d3599974-e621-4ce2-8c9b-8d38c86f7517"},"vehicle_type_id":"4","last_reported":1758684251,"current_range_meters":17200,"station_id":"","pricing_plan_id":"cebpf4jnsgd1na2vs0mg"},{"bike_id":"c7f6a08b-c655-4213-b2ba-7d02e7f382fe","system_id":"levelo_inurba_marseille","lat":43.28008,"lon":5.39468,"is_reserved":false,"is_disabled":false,"rental_uris":{"android":"levelo://app?vid=c7f6a08b-c655-4213-b2ba-7d02e7f382fe","ios":"levelo://app?vid=c7f6a08b-c655-4213-b2ba-7d02e7f382fe"},"vehicle_type_id":"4","last_reported":1758684251,"current_range_meters":17200,"station_id":"","pricing_plan_id":"cebpf4jnsgd1na2vs0mg"},{"bike_id":"e19472f1-87e0-4943-97f3-e785d2a10054","system_id":"levelo_inurba_marseille","lat":43.288895,"lon":5.425187,"is_reserved":false,"is_disabled":false,"rental_uris":{"android":"levelo://app?vid=e19472f1-87e0-4943-97f3-e785d2a10054","ios":"levelo://app?vid=e19472f1-87e0-4943-97f3-e785d2a10054"},"vehicle_type_id":"4","last_reported":1758684251,"current_range_meters":17200,"station_id":"","pricing_plan_id":"cebpf4jnsgd1na2vs0mg"},{"bike_id":"5fb726be-412e-4b65-b587-9d991ba40c42","system_id":"levelo_inurba_marseille","lat":43.21192,"lon":5.35078,"is_reserved":false,"is_disabled":false,"rental_uris":{"android":"levelo://app?vid=5fb726be-412e-4b65-b587-9d991ba40c42","ios":"levelo://app?vid=5fb726be-412e-4b65-b587-9d991ba40c42"},"vehicle_type_id":"4","last_reported":1758684251,"current_range_meters":17200,"station_id":"ce4bhi12rcd13ifvqfp0","pricing_plan_id":"cebpf4jnsgd1na2vs0mg"},{"bike_id":"6c358240-9d0d-401e-beef-eb8202ca93b0","system_id":"levelo_inurba_marseille","lat":43.257238,"lon":5.411158,"is_reserved":false,"is_disabled":false,"rental_uris":{"android":"levelo://app?vid=6c358240-9d0d-401e-beef-eb8202ca93b0","ios":"levelo://app?vid=6c358240-9d0d-401e-beef-eb8202ca93b0"},"vehicle_type_id":"4","last_reported":1758684251,"current_range_meters":17600,"station_id":"ce4bhkp2rcd13ifvqgd0","pricing_plan_id":"cebpf4jnsgd1na2vs0mg"},{"bike_id":"189e953a-f0f5-4c03-b7b5-2321dcc67751","system_id":"levelo_inurba_marseille","lat":43.2953,"lon":5.39016,"is_reserved":false,"is_disabled":true,"rental_uris":{"android":"levelo://app?vid=189e953a-f0f5-4c03-b7b5-2321dcc67751","ios":"levelo://app?vid=189e953a-f0f5-4c03-b7b5-2321dcc67751"},"vehicle_type_id":"4","last_reported":1758684251,"current_range_meters":17600,"station_id":"ce4bh3p2rcd13ifvqdp0","pricing_plan_id":"cebpf4jnsgd1na2vs0mg"},{"bike_id":"178af37d-dd54-4cf7-b80a-b996e0f2a163","system_id":"levelo_inurba_marseille","lat":43.21202,"lon":5.35067,"is_reserved":false,"is_disabled":false,"rental_uris":{"android":"levelo://app?vid=178af37d-dd54-4cf7-b80a-b996e0f2a163","ios":"levelo://app?vid=178af37d-dd54-4cf7-b80a-b996e0f2a163"},"vehicle_type_id":"4","last_reported":1758684251,"current_range_meters":17600,"station_id":"st_cvj6sg6p6f1abm77japg","pricing_plan_id":"cebpf4jnsgd1na2vs0mg"},{"bike_id":"02f8f0dd-f6c9-4a1f-8bdf-33a56a1c0100","system_id":"levelo_inurba_marseille","lat":43.290877,"lon":5.379761,"is_reserved":false,"is_disabled":false,"rental_uris":{"android":"levelo://app?vid=02f8f0dd-f6c9-4a1f-8bdf-33a56a1c0100","ios":"levelo://app?vid=02f8f0dd-f6c9-4a1f-8bdf-33a56a1c0100"},"vehicle_type_id":"4","last_reported":1758684251,"current_range_meters":17600,"station_id":"","pricing_plan_id":"cebpf4jnsgd1na2vs0mg"},{"bike_id":"da8e8708-8b5d-4bf2-be68-b94960adb568","system_id":"levelo_inurba_marseille","lat":43.29274,"lon":5.38418,"is_reserved":false,"is_disabled":true,"rental_uris":{"android":"levelo://app?vid=da8e8708-8b5d-4bf2-be68-b94960adb568","ios":"levelo://app?vid=da8e8708-8b5d-4bf2-be68-b94960adb568"},"vehicle_type_id":"4","last_reported":1758684251,"current_range_meters":17600,"station_id":"ce4bh692rcd13ifvqea0","pricing_plan_id":"cebpf4jnsgd1na2vs0mg"},{"bike_id":"bf08355d-d0ed-49d0-b790-a31c0476ed93","system_id":"levelo_inurba_marseille","lat":43.25119,"lon":5.40304,"is_reserved":false,"is_disabled":false,"rental_uris":{"android":"levelo://app?vid=bf08355d-d0ed-49d0-b790-a31c0476ed93","ios":"levelo://app?vid=bf08355d-d0ed-49d0-b790-a31c0476ed93"},"vehicle_type_id":"4","last_reported":1758684251,"current_range_meters":17600,"station_id":"ce4bhlh2rcd13ifvqgig","pricing_plan_id":"cebpf4jnsgd1na2vs0mg"},{"bike_id":"8eae954c-dab6-4303-94f5-569e1c483f62","system_id":"levelo_inurba_marseille","lat":43.294363,"lon":5.407475,"is_reserved":false,"is_disabled":false,"rental_uris":{"android":"levelo://app?vid=8eae954c-dab6-4303-94f5-569e1c483f62","ios":"levelo://app?vid=8eae954c-dab6-4303-94f5-569e1c483f62"},"vehicle_type_id":"4","last_reported":1758684251,"current_range_meters":18000,"station_id":"","pricing_plan_id":"cebpf4jnsgd1na2vs0mg"},{"bike_id":"32b6bcee-b0bf-4974-9edd-ae20895fd4c0","system_id":"levelo_inurba_marseille","lat":43.30682,"lon":5.40028,"is_reserved":false,"is_disabled":false,"rental_uris":{"android":"levelo://app?vid=32b6bcee-b0bf-4974-9edd-ae20895fd4c0","ios":"levelo://app?vid=32b6bcee-b0bf-4974-9edd-ae20895fd4c0"},"vehicle_type_id":"4","last_reported":1758684251,"current_range_meters":18000,"station_id":"","pricing_plan_id":"cebpf4jnsgd1na2vs0mg"},{"bike_id":"dc9354e7-403d-4884-95bf-6d7a164c6248","system_id":"levelo_inurba_marseille","lat":43.28345,"lon":5.38633,"is_reserved":false,"is_disabled":false,"rental_uris":{"android":"levelo://app?vid=dc9354e7-403d-4884-95bf-6d7a164c6248","ios":"levelo://app?vid=dc9354e7-403d-4884-95bf-6d7a164c6248"},"vehicle_type_id":"4","last_reported":1758684251,"current_range_meters":18000,"station_id":"ce4bh492rcd13ifvqdvg","pricing_plan_id":"cebpf4jnsgd1na2vs0mg"},{"bike_id":"452b9061-67e3-47b2-8dd9-90082f869ec5","system_id":"levelo_inurba_marseille","lat":43.21192,"lon":5.35074,"is_reserved":false,"is_disabled":true,"rental_uris":{"android":"levelo://app?vid=452b9061-67e3-47b2-8dd9-90082f869ec5","ios":"levelo://app?vid=452b9061-67e3-47b2-8dd9-90082f869ec5"},"vehicle_type_id":"4","last_reported":1758684251,"current_range_meters":18000,"station_id":"","pricing_plan_id":"cebpf4jnsgd1na2vs0mg"},{"bike_id":"0f9539df-509f-487e-82d0-16c840f4e781","system_id":"levelo_inurba_marseille","lat":43.313665,"lon":5.384969,"is_reserved":false,"is_disabled":false,"rental_uris":{"android":"levelo://app?vid=0f9539df-509f-487e-82d0-16c840f4e781","ios":"levelo://app?vid=0f9539df-509f-487e-82d0-16c840f4e781"},"vehicle_type_id":"4","last_reported":1758684251,"current_range_meters":18000,"station_id":"ce4bgt92rcd13ifvqcf0","pricing_plan_id":"cebpf4jnsgd1na2vs0mg"},{"bike_id":"0e9ca394-4351-4bf8-a641-f4e5215baf20","system_id":"levelo_inurba_marseille","lat":43.282752,"lon":5.350658,"is_reserved":false,"is_disabled":true,"rental_uris":{"android":"levelo://app?vid=0e9ca394-4351-4bf8-a641-f4e5215baf20","ios":"levelo://app?vid=0e9ca394-4351-4bf8-a641-f4e5215baf20"},"vehicle_type_id":"4","last_reported":1758684251,"current_range_meters":18000,"station_id":"ce4bhbp2rcd13ifvqerg","pricing_plan_id":"cebpf4jnsgd1na2vs0mg"},{"bike_id":"129c8450-4cca-4e9f-b9f6-538b0080ad49","system_id":"levelo_inurba_marseille","lat":43.325503,"lon":5.389215,"is_reserved":false,"is_disabled":false,"rental_uris":{"android":"levelo://app?vid=129c8450-4cca-4e9f-b9f6-538b0080ad49","ios":"levelo://app?vid=129c8450-4cca-4e9f-b9f6-538b0080ad49"},"vehicle_type_id":"4","last_reported":1758684251,"current_range_meters":18000,"station_id":"","pricing_plan_id":"cebpf4jnsgd1na2vs0mg"},{"bike_id":"55043fb7-0957-4299-af2e-bd2e83515f00","system_id":"levelo_inurba_marseille","lat":43.29787,"lon":5.38082,"is_reserved":false,"is_disabled":true,"rental_uris":{"android":"levelo://app?vid=55043fb7-0957-4299-af2e-bd2e83515f00","ios":"levelo://app?vid=55043fb7-0957-4299-af2e-bd2e83515f00"},"vehicle_type_id":"4","last_reported":1758684251,"current_range_meters":18000,"station_id":"ce4bgip2rcd13ifvqbb0","pricing_plan_id":"cebpf4jnsgd1na2vs0mg"},{"bike_id":"9daac5d3-61aa-4838-867b-05177cf139a4","system_id":"levelo_inurba_marseille","lat":43.22571,"lon":5.41607,"is_reserved":false,"is_disabled":false,"rental_uris":{"android":"levelo://app?vid=9daac5d3-61aa-4838-867b-05177cf139a4","ios":"levelo://app?vid=9daac5d3-61aa-4838-867b-05177cf139a4"},"vehicle_type_id":"4","last_reported":1758684251,"current_range_meters":18000,"station_id":"st_d2o4gvlbi1j2169b742g","pricing_plan_id":"cebpf4jnsgd1na2vs0mg"},{"bike_id":"5db97d1f-13d3-4441-b000-cf6b1353d7d1","system_id":"levelo_inurba_marseille","lat":43.32355,"lon":5.38903,"is_reserved":false,"is_disabled":false,"rental_uris":{"android":"levelo://app?vid=5db97d1f-13d3-4441-b000-cf6b1353d7d1","ios":"levelo://app?vid=5db97d1f-13d3-4441-b000-cf6b1353d7d1"},"vehicle_type_id":"4","last_reported":1758684251,"current_range_meters":18000,"station_id":"ce4bhqp2rcd13ifvqhog","pricing_plan_id":"cebpf4jnsgd1na2vs0mg"},{"bike_id":"79627af3-5e4c-4c79-9ce8-bb6cb8053117","system_id":"levelo_inurba_marseille","lat":43.23191,"lon":5.39978,"is_reserved":false,"is_disabled":false,"rental_uris":{"android":"levelo://app?vid=79627af3-5e4c-4c79-9ce8-bb6cb8053117","ios":"levelo://app?vid=79627af3-5e4c-4c79-9ce8-bb6cb8053117"},"vehicle_type_id":"4","last_reported":1758684251,"current_range_meters":18800,"station_id":"ce4bhn12rcd13ifvqgqg","pricing_plan_id":"cebpf4jnsgd1na2vs0mg"},{"bike_id":"8a828295-28e2-4f47-bc01-1374c80f32a1","system_id":"levelo_inurba_marseille","lat":43.23951,"lon":5.36614,"is_reserved":false,"is_disabled":true,"rental_uris":{"android":"levelo://app?vid=8a828295-28e2-4f47-bc01-1374c80f32a1","ios":"levelo://app?vid=8a828295-28e2-4f47-bc01-1374c80f32a1"},"vehicle_type_id":"4","last_reported":1758684251,"current_range_meters":18800,"station_id":"ce4bhi12rcd13ifvqfp0","pricing_plan_id":"cebpf4jnsgd1na2vs0mg"},{"bike_id":"e8627790-8a87-4571-bcb3-dab4fd186c29","system_id":"levelo_inurba_marseille","lat":43.28206,"lon":5.3906,"is_reserved":false,"is_disabled":false,"rental_uris":{"android":"levelo://app?vid=e8627790-8a87-4571-bcb3-dab4fd186c29","ios":"levelo://app?vid=e8627790-8a87-4571-bcb3-dab4fd186c29"},"vehicle_type_id":"4","last_reported":1758684251,"current_range_meters":18800,"station_id":"ce4bhn92rcd13ifvqgsg","pricing_plan_id":"cebpf4jnsgd1na2vs0mg"},{"bike_id":"85b0eed8-abef-41c4-a4c6-3e7cee231275","system_id":"levelo_inurba_marseille","lat":43.292638,"lon":5.408944,"is_reserved":false,"is_disabled":false,"rental_uris":{"android":"levelo://app?vid=85b0eed8-abef-41c4-a4c6-3e7cee231275","ios":"levelo://app?vid=85b0eed8-abef-41c4-a4c6-3e7cee231275"},"vehicle_type_id":"4","last_reported":1758684251,"current_range_meters":18800,"station_id":"ce4bh192rcd13ifvqdc0","pricing_plan_id":"cebpf4jnsgd1na2vs0mg"},{"bike_id":"3fb8cb45-c5d5-4d91-b2d4-ba893c0e4b17","system_id":"levelo_inurba_marseille","lat":43.28657,"lon":5.38667,"is_reserved":false,"is_disabled":false,"rental_uris":{"android":"levelo://app?vid=3fb8cb45-c5d5-4d91-b2d4-ba893c0e4b17","ios":"levelo://app?vid=3fb8cb45-c5d5-4d91-b2d4-ba893c0e4b17"},"vehicle_type_id":"4","last_reported":1758684251,"current_range_meters":18800,"station_id":"ce4bh492rcd13ifvqdug","pricing_plan_id":"cebpf4jnsgd1na2vs0mg"},{"bike_id":"5f0c51d4-3806-4fda-8794-43cbebec9e30","system_id":"levelo_inurba_marseille","lat":43.2909,"lon":5.3814,"is_reserved":false,"is_disabled":false,"rental_uris":{"android":"levelo://app?vid=5f0c51d4-3806-4fda-8794-43cbebec9e30","ios":"levelo://app?vid=5f0c51d4-3806-4fda-8794-43cbebec9e30"},"vehicle_type_id":"4","last_reported":1758684251,"current_range_meters":18800,"station_id":"ce4bh512rcd13ifvqe2g","pricing_plan_id":"cebpf4jnsgd1na2vs0mg"},{"bike_id":"1a859677-18b8-45a0-b887-542ec22c33cb","system_id":"levelo_inurba_marseille","lat":43.31992,"lon":5.38149,"is_reserved":false,"is_disabled":false,"rental_uris":{"android":"levelo://app?vid=1a859677-18b8-45a0-b887-542ec22c33cb","ios":"levelo://app?vid=1a859677-18b8-45a0-b887-542ec22c33cb"},"vehicle_type_id":"4","last_reported":1758684251,"current_range_meters":18800,"station_id":"ce4bhr12rcd13ifvqhpg","pricing_plan_id":"cebpf4jnsgd1na2vs0mg"},{"bike_id":"4342a142-70b9-4566-a52e-9ccaf81ccd90","system_id":"levelo_inurba_marseille","lat":43.25339,"lon":5.42151,"is_reserved":false,"is_disabled":false,"rental_uris":{"android":"levelo://app?vid=4342a142-70b9-4566-a52e-9ccaf81ccd90","ios":"levelo://app?vid=4342a142-70b9-4566-a52e-9ccaf81ccd90"},"vehicle_type_id":"4","last_reported":1758684251,"current_range_meters":19200,"station_id":"st_d2m65c5bi1j21697t3ng","pricing_plan_id":"cebpf4jnsgd1na2vs0mg"},{"bike_id":"2bd2a176-8590-4e06-8b8c-a96b49b7b36a","system_id":"levelo_inurba_marseille","lat":43.262237,"lon":5.404538,"is_reserved":false,"is_disabled":false,"rental_uris":{"android":"levelo://app?vid=2bd2a176-8590-4e06-8b8c-a96b49b7b36a","ios":"levelo://app?vid=2bd2a176-8590-4e06-8b8c-a96b49b7b36a"},"vehicle_type_id":"4","last_reported":1758684251,"current_range_meters":19200,"station_id":"","pricing_plan_id":"cebpf4jnsgd1na2vs0mg"},{"bike_id":"6ce97256-6e29-4ee4-b817-ac92bdd5aea1","system_id":"levelo_inurba_marseille","lat":43.22534,"lon":5.34835,"is_reserved":false,"is_disabled":false,"rental_uris":{"android":"levelo://app?vid=6ce97256-6e29-4ee4-b817-ac92bdd5aea1","ios":"levelo://app?vid=6ce97256-6e29-4ee4-b817-ac92bdd5aea1"},"vehicle_type_id":"4","last_reported":1758684251,"current_range_meters":19200,"station_id":"","pricing_plan_id":"cebpf4jnsgd1na2vs0mg"},{"bike_id":"c9183adb-cc92-4c53-b9e5-811f4ffd474b","system_id":"levelo_inurba_marseille","lat":43.28485,"lon":5.384405,"is_reserved":false,"is_disabled":true,"rental_uris":{"android":"levelo://app?vid=c9183adb-cc92-4c53-b9e5-811f4ffd474b","ios":"levelo://app?vid=c9183adb-cc92-4c53-b9e5-811f4ffd474b"},"vehicle_type_id":"4","last_reported":1758684251,"current_range_meters":19200,"station_id":"ce4bh512rcd13ifvqe3g","pricing_plan_id":"cebpf4jnsgd1na2vs0mg"},{"bike_id":"1755623a-c330-4b9a-acee-3c8817d901c0","system_id":"levelo_inurba_marseille","lat":43.30883,"lon":5.39644,"is_reserved":false,"is_disabled":false,"rental_uris":{"android":"levelo://app?vid=1755623a-c330-4b9a-acee-3c8817d901c0","ios":"levelo://app?vid=1755623a-c330-4b9a-acee-3c8817d901c0"},"vehicle_type_id":"4","last_reported":1758684251,"current_range_meters":19200,"station_id":"ce4bh012rcd13ifvqcv0","pricing_plan_id":"cebpf4jnsgd1na2vs0mg"},{"bike_id":"a6ad0c6c-868d-42f3-ba54-573e1a175a36","system_id":"levelo_inurba_marseille","lat":43.26248,"lon":5.41296,"is_reserved":false,"is_disabled":false,"rental_uris":{"android":"levelo://app?vid=a6ad0c6c-868d-42f3-ba54-573e1a175a36","ios":"levelo://app?vid=a6ad0c6c-868d-42f3-ba54-573e1a175a36"},"vehicle_type_id":"4","last_reported":1758684251,"current_range_meters":19200,"station_id":"","pricing_plan_id":"cebpf4jnsgd1na2vs0mg"},{"bike_id":"44f1eaf0-9e53-46af-85bb-81d3e73f8a96","system_id":"levelo_inurba_marseille","lat":43.2885,"lon":5.39328,"is_reserved":false,"is_disabled":true,"rental_uris":{"android":"levelo://app?vid=44f1eaf0-9e53-46af-85bb-81d3e73f8a96","ios":"levelo://app?vid=44f1eaf0-9e53-46af-85bb-81d3e73f8a96"},"vehicle_type_id":"4","last_reported":1758684251,"current_range_meters":19200,"station_id":"ce4bh2p2rcd13ifvqdi0","pricing_plan_id":"cebpf4jnsgd1na2vs0mg"},{"bike_id":"003515e8-8117-44bb-979d-5f47e8d50fda","system_id":"levelo_inurba_marseille","lat":43.30627,"lon":5.37566,"is_reserved":false,"is_disabled":false,"rental_uris":{"android":"levelo://app?vid=003515e8-8117-44bb-979d-5f47e8d50fda","ios":"levelo://app?vid=003515e8-8117-44bb-979d-5f47e8d50fda"},"vehicle_type_id":"4","last_reported":1758684251,"current_range_meters":19600,"station_id":"","pricing_plan_id":"cebpf4jnsgd1na2vs0mg"},{"bike_id":"fd5a7e9e-31ca-4b58-b917-33dc0467a692","system_id":"levelo_inurba_marseille","lat":43.30801,"lon":5.38174,"is_reserved":false,"is_disabled":false,"rental_uris":{"android":"levelo://app?vid=fd5a7e9e-31ca-4b58-b917-33dc0467a692","ios":"levelo://app?vid=fd5a7e9e-31ca-4b58-b917-33dc0467a692"},"vehicle_type_id":"4","last_reported":1758684251,"current_range_meters":19600,"station_id":"ce4bgt12rcd13ifvqce0","pricing_plan_id":"cebpf4jnsgd1na2vs0mg"},{"bike_id":"8f63bca3-a6a1-4d7f-82c2-228d3b43ecf4","system_id":"levelo_inurba_marseille","lat":43.26566,"lon":5.40303,"is_reserved":false,"is_disabled":false,"rental_uris":{"android":"levelo://app?vid=8f63bca3-a6a1-4d7f-82c2-228d3b43ecf4","ios":"levelo://app?vid=8f63bca3-a6a1-4d7f-82c2-228d3b43ecf4"},"vehicle_type_id":"4","last_reported":1758684251,"current_range_meters":19600,"station_id":"ce4bhmp2rcd13ifvqgng","pricing_plan_id":"cebpf4jnsgd1na2vs0mg"},{"bike_id":"16d9a464-95f6-4241-939a-8d28eb548d4d","system_id":"levelo_inurba_marseille","lat":43.28608,"lon":5.35097,"is_reserved":false,"is_disabled":true,"rental_uris":{"android":"levelo://app?vid=16d9a464-95f6-4241-939a-8d28eb548d4d","ios":"levelo://app?vid=16d9a464-95f6-4241-939a-8d28eb548d4d"},"vehicle_type_id":"4","last_reported":1758684251,"current_range_meters":19600,"station_id":"ce4bhch2rcd13ifvqeug","pricing_plan_id":"cebpf4jnsgd1na2vs0mg"},{"bike_id":"ff898cc4-e357-4e75-a6cb-dc3f7c91f054","system_id":"levelo_inurba_marseille","lat":43.21753,"lon":5.34599,"is_reserved":false,"is_disabled":true,"rental_uris":{"android":"levelo://app?vid=ff898cc4-e357-4e75-a6cb-dc3f7c91f054","ios":"levelo://app?vid=ff898cc4-e357-4e75-a6cb-dc3f7c91f054"},"vehicle_type_id":"4","last_reported":1758684251,"current_range_meters":19600,"station_id":"st_cvj6r9ubvosntc0bgbag","pricing_plan_id":"cebpf4jnsgd1na2vs0mg"},{"bike_id":"327c041e-5c9e-4b0d-a97c-a2dbaab036ae","system_id":"levelo_inurba_marseille","lat":43.32576,"lon":5.40447,"is_reserved":false,"is_disabled":false,"rental_uris":{"android":"levelo://app?vid=327c041e-5c9e-4b0d-a97c-a2dbaab036ae","ios":"levelo://app?vid=327c041e-5c9e-4b0d-a97c-a2dbaab036ae"},"vehicle_type_id":"4","last_reported":1758684251,"current_range_meters":20000,"station_id":"","pricing_plan_id":"cebpf4jnsgd1na2vs0mg"},{"bike_id":"573525ee-0a6a-4169-8294-7a89fdbf9d63","system_id":"levelo_inurba_marseille","lat":43.305308,"lon":5.368208,"is_reserved":false,"is_disabled":false,"rental_uris":{"android":"levelo://app?vid=573525ee-0a6a-4169-8294-7a89fdbf9d63","ios":"levelo://app?vid=573525ee-0a6a-4169-8294-7a89fdbf9d63"},"vehicle_type_id":"4","last_reported":1758684251,"current_range_meters":20000,"station_id":"","pricing_plan_id":"cebpf4jnsgd1na2vs0mg"},{"bike_id":"0f5baa11-037f-49ea-9c46-bb79ebed4ebf","system_id":"levelo_inurba_marseille","lat":43.32066,"lon":5.41529,"is_reserved":false,"is_disabled":false,"rental_uris":{"android":"levelo://app?vid=0f5baa11-037f-49ea-9c46-bb79ebed4ebf","ios":"levelo://app?vid=0f5baa11-037f-49ea-9c46-bb79ebed4ebf"},"vehicle_type_id":"4","last_reported":1758684251,"current_range_meters":20000,"station_id":"ce4bhq92rcd13ifvqhkg","pricing_plan_id":"cebpf4jnsgd1na2vs0mg"},{"bike_id":"f8146c64-00fd-4c0c-85ef-0b834c0b62ad","system_id":"levelo_inurba_marseille","lat":43.28936,"lon":5.3663,"is_reserved":false,"is_disabled":true,"rental_uris":{"android":"levelo://app?vid=f8146c64-00fd-4c0c-85ef-0b834c0b62ad","ios":"levelo://app?vid=f8146c64-00fd-4c0c-85ef-0b834c0b62ad"},"vehicle_type_id":"4","last_reported":1758684251,"current_range_meters":20000,"station_id":"ce4bhap2rcd13ifvqek0","pricing_plan_id":"cebpf4jnsgd1na2vs0mg"},{"bike_id":"4b7580a2-2e98-4ffe-8874-9e420d2498f5","system_id":"levelo_inurba_marseille","lat":43.25332,"lon":5.42156,"is_reserved":false,"is_disabled":false,"rental_uris":{"android":"levelo://app?vid=4b7580a2-2e98-4ffe-8874-9e420d2498f5","ios":"levelo://app?vid=4b7580a2-2e98-4ffe-8874-9e420d2498f5"},"vehicle_type_id":"4","last_reported":1758684251,"current_range_meters":20000,"station_id":"st_d2m65c5bi1j21697t3ng","pricing_plan_id":"cebpf4jnsgd1na2vs0mg"},{"bike_id":"bb933b68-c692-46c3-a6fe-78c1e6e9fe0f","system_id":"levelo_inurba_marseille","lat":43.27379,"lon":5.362523,"is_reserved":false,"is_disabled":false,"rental_uris":{"android":"levelo://app?vid=bb933b68-c692-46c3-a6fe-78c1e6e9fe0f","ios":"levelo://app?vid=bb933b68-c692-46c3-a6fe-78c1e6e9fe0f"},"vehicle_type_id":"4","last_reported":1758684251,"current_range_meters":20000,"station_id":"ce4bhbh2rcd13ifvqeo0","pricing_plan_id":"cebpf4jnsgd1na2vs0mg"},{"bike_id":"822e4d00-1937-47f6-91e3-69ab57cde6b1","system_id":"levelo_inurba_marseille","lat":43.29252,"lon":5.40897,"is_reserved":false,"is_disabled":false,"rental_uris":{"android":"levelo://app?vid=822e4d00-1937-47f6-91e3-69ab57cde6b1","ios":"levelo://app?vid=822e4d00-1937-47f6-91e3-69ab57cde6b1"},"vehicle_type_id":"4","last_reported":1758684251,"current_range_meters":20000,"station_id":"ce4bh192rcd13ifvqdc0","pricing_plan_id":"cebpf4jnsgd1na2vs0mg"},{"bike_id":"cf5266e5-e23e-467f-9e5c-40945fff41b9","system_id":"levelo_inurba_marseille","lat":43.31072,"lon":5.3834,"is_reserved":false,"is_disabled":true,"rental_uris":{"android":"levelo://app?vid=cf5266e5-e23e-467f-9e5c-40945fff41b9","ios":"levelo://app?vid=cf5266e5-e23e-467f-9e5c-40945fff41b9"},"vehicle_type_id":"4","last_reported":1758684251,"current_range_meters":20000,"station_id":"ce4bgv92rcd13ifvqcr0","pricing_plan_id":"cebpf4jnsgd1na2vs0mg"},{"bike_id":"d2be082e-bd73-4203-addb-18871b3a9587","system_id":"levelo_inurba_marseille","lat":43.29427,"lon":5.3746,"is_reserved":false,"is_disabled":false,"rental_uris":{"android":"levelo://app?vid=d2be082e-bd73-4203-addb-18871b3a9587","ios":"levelo://app?vid=d2be082e-bd73-4203-addb-18871b3a9587"},"vehicle_type_id":"4","last_reported":1758684251,"current_range_meters":20000,"station_id":"","pricing_plan_id":"cebpf4jnsgd1na2vs0mg"},{"bike_id":"7b03e8ff-b1e1-42c1-8b76-e176119689c1","system_id":"levelo_inurba_marseille","lat":43.31129,"lon":5.37787,"is_reserved":false,"is_disabled":false,"rental_uris":{"android":"levelo://app?vid=7b03e8ff-b1e1-42c1-8b76-e176119689c1","ios":"levelo://app?vid=7b03e8ff-b1e1-42c1-8b76-e176119689c1"},"vehicle_type_id":"4","last_reported":1758684251,"current_range_meters":20400,"station_id":"ce4bgt92rcd13ifvqcg0","pricing_plan_id":"cebpf4jnsgd1na2vs0mg"},{"bike_id":"d087f77a-406c-4d5a-be43-4950dac65ee4","system_id":"levelo_inurba_marseille","lat":43.24396,"lon":5.37057,"is_reserved":false,"is_disabled":true,"rental_uris":{"android":"levelo://app?vid=d087f77a-406c-4d5a-be43-4950dac65ee4","ios":"levelo://app?vid=d087f77a-406c-4d5a-be43-4950dac65ee4"},"vehicle_type_id":"4","last_reported":1758684251,"current_range_meters":20400,"station_id":"ce4bhhh2rcd13ifvqfk0","pricing_plan_id":"cebpf4jnsgd1na2vs0mg"},{"bike_id":"e758b01b-ca98-467a-bdcc-b51ccfc96ed6","system_id":"levelo_inurba_marseille","lat":43.3377,"lon":5.37422,"is_reserved":false,"is_disabled":false,"rental_uris":{"android":"levelo://app?vid=e758b01b-ca98-467a-bdcc-b51ccfc96ed6","ios":"levelo://app?vid=e758b01b-ca98-467a-bdcc-b51ccfc96ed6"},"vehicle_type_id":"4","last_reported":1758684251,"current_range_meters":20400,"station_id":"","pricing_plan_id":"cebpf4jnsgd1na2vs0mg"},{"bike_id":"9e24200f-b18c-4290-9b53-1a40e571b077","system_id":"levelo_inurba_marseille","lat":43.28454,"lon":5.38391,"is_reserved":false,"is_disabled":false,"rental_uris":{"android":"levelo://app?vid=9e24200f-b18c-4290-9b53-1a40e571b077","ios":"levelo://app?vid=9e24200f-b18c-4290-9b53-1a40e571b077"},"vehicle_type_id":"4","last_reported":1758684251,"current_range_meters":20400,"station_id":"ce4bh512rcd13ifvqe3g","pricing_plan_id":"cebpf4jnsgd1na2vs0mg"},{"bike_id":"63c0f3bd-091c-4f99-89b2-0df8737e25fb","system_id":"levelo_inurba_marseille","lat":43.27923,"lon":5.38271,"is_reserved":false,"is_disabled":false,"rental_uris":{"android":"levelo://app?vid=63c0f3bd-091c-4f99-89b2-0df8737e25fb","ios":"levelo://app?vid=63c0f3bd-091c-4f99-89b2-0df8737e25fb"},"vehicle_type_id":"4","last_reported":1758684251,"current_range_meters":20400,"station_id":"","pricing_plan_id":"cebpf4jnsgd1na2vs0mg"},{"bike_id":"d061c2e5-a78e-4e43-88e2-c7d3b9c348e7","system_id":"levelo_inurba_marseille","lat":43.22944,"lon":5.35382,"is_reserved":false,"is_disabled":false,"rental_uris":{"android":"levelo://app?vid=d061c2e5-a78e-4e43-88e2-c7d3b9c348e7","ios":"levelo://app?vid=d061c2e5-a78e-4e43-88e2-c7d3b9c348e7"},"vehicle_type_id":"4","last_reported":1758684251,"current_range_meters":20800,"station_id":"cpo3532slgdg3j2ikp40","pricing_plan_id":"cebpf4jnsgd1na2vs0mg"},{"bike_id":"f08ee65f-e8d7-4a1c-8661-24ce8d516707","system_id":"levelo_inurba_marseille","lat":43.241802,"lon":5.397315,"is_reserved":false,"is_disabled":false,"rental_uris":{"android":"levelo://app?vid=f08ee65f-e8d7-4a1c-8661-24ce8d516707","ios":"levelo://app?vid=f08ee65f-e8d7-4a1c-8661-24ce8d516707"},"vehicle_type_id":"4","last_reported":1758684251,"current_range_meters":20800,"station_id":"ce4bhn12rcd13ifvqgpg","pricing_plan_id":"cebpf4jnsgd1na2vs0mg"},{"bike_id":"97039272-1606-4f77-a0db-979de455505a","system_id":"levelo_inurba_marseille","lat":43.32403,"lon":5.39321,"is_reserved":false,"is_disabled":false,"rental_uris":{"android":"levelo://app?vid=97039272-1606-4f77-a0db-979de455505a","ios":"levelo://app?vid=97039272-1606-4f77-a0db-979de455505a"},"vehicle_type_id":"4","last_reported":1758684251,"current_range_meters":20800,"station_id":"","pricing_plan_id":"cebpf4jnsgd1na2vs0mg"},{"bike_id":"6e28c473-43c7-4359-9768-11e494b67b04","system_id":"levelo_inurba_marseille","lat":43.270756,"lon":5.422809,"is_reserved":false,"is_disabled":false,"rental_uris":{"android":"levelo://app?vid=6e28c473-43c7-4359-9768-11e494b67b04","ios":"levelo://app?vid=6e28c473-43c7-4359-9768-11e494b67b04"},"vehicle_type_id":"4","last_reported":1758684251,"current_range_meters":20800,"station_id":"ce4bhk92rcd13ifvqgb0","pricing_plan_id":"cebpf4jnsgd1na2vs0mg"},{"bike_id":"175760d5-253d-4692-91bd-1ac0c3f225e0","system_id":"levelo_inurba_marseille","lat":43.30888,"lon":5.39638,"is_reserved":false,"is_disabled":false,"rental_uris":{"android":"levelo://app?vid=175760d5-253d-4692-91bd-1ac0c3f225e0","ios":"levelo://app?vid=175760d5-253d-4692-91bd-1ac0c3f225e0"},"vehicle_type_id":"4","last_reported":1758684251,"current_range_meters":20800,"station_id":"ce4bh012rcd13ifvqcv0","pricing_plan_id":"cebpf4jnsgd1na2vs0mg"},{"bike_id":"13db69a3-98a8-4ab1-b5ca-f0d997c16aec","system_id":"levelo_inurba_marseille","lat":43.319893,"lon":5.381511,"is_reserved":false,"is_disabled":false,"rental_uris":{"android":"levelo://app?vid=13db69a3-98a8-4ab1-b5ca-f0d997c16aec","ios":"levelo://app?vid=13db69a3-98a8-4ab1-b5ca-f0d997c16aec"},"vehicle_type_id":"4","last_reported":1758684251,"current_range_meters":20800,"station_id":"ce4bhr12rcd13ifvqhpg","pricing_plan_id":"cebpf4jnsgd1na2vs0mg"},{"bike_id":"26645e03-c8d5-4f86-9627-b4c52f808188","system_id":"levelo_inurba_marseille","lat":43.30885,"lon":5.39632,"is_reserved":false,"is_disabled":false,"rental_uris":{"android":"levelo://app?vid=26645e03-c8d5-4f86-9627-b4c52f808188","ios":"levelo://app?vid=26645e03-c8d5-4f86-9627-b4c52f808188"},"vehicle_type_id":"4","last_reported":1758684251,"current_range_meters":20800,"station_id":"ce4bh012rcd13ifvqcv0","pricing_plan_id":"cebpf4jnsgd1na2vs0mg"},{"bike_id":"9cc84bbf-7a33-4bed-bc2c-60f6e4465882","system_id":"levelo_inurba_marseille","lat":43.30881,"lon":5.39636,"is_reserved":false,"is_disabled":false,"rental_uris":{"android":"levelo://app?vid=9cc84bbf-7a33-4bed-bc2c-60f6e4465882","ios":"levelo://app?vid=9cc84bbf-7a33-4bed-bc2c-60f6e4465882"},"vehicle_type_id":"4","last_reported":1758684251,"current_range_meters":20800,"station_id":"ce4bh012rcd13ifvqcv0","pricing_plan_id":"cebpf4jnsgd1na2vs0mg"},{"bike_id":"78602023-ff6b-4713-97af-85493d85ff79","system_id":"levelo_inurba_marseille","lat":43.23192,"lon":5.39984,"is_reserved":false,"is_disabled":false,"rental_uris":{"android":"levelo://app?vid=78602023-ff6b-4713-97af-85493d85ff79","ios":"levelo://app?vid=78602023-ff6b-4713-97af-85493d85ff79"},"vehicle_type_id":"4","last_reported":1758684251,"current_range_meters":20800,"station_id":"ce4bhn12rcd13ifvqgqg","pricing_plan_id":"cebpf4jnsgd1na2vs0mg"},{"bike_id":"410b94e1-10e4-447f-aa6f-0228a3444595","system_id":"levelo_inurba_marseille","lat":43.27818,"lon":5.39201,"is_reserved":false,"is_disabled":false,"rental_uris":{"android":"levelo://app?vid=410b94e1-10e4-447f-aa6f-0228a3444595","ios":"levelo://app?vid=410b94e1-10e4-447f-aa6f-0228a3444595"},"vehicle_type_id":"4","last_reported":1758684251,"current_range_meters":20800,"station_id":"ce4bhjp2rcd13ifvqga0","pricing_plan_id":"cebpf4jnsgd1na2vs0mg"},{"bike_id":"467b4306-5fd8-484e-9a4b-cf8eb50151ba","system_id":"levelo_inurba_marseille","lat":43.3227,"lon":5.3832,"is_reserved":false,"is_disabled":false,"rental_uris":{"android":"levelo://app?vid=467b4306-5fd8-484e-9a4b-cf8eb50151ba","ios":"levelo://app?vid=467b4306-5fd8-484e-9a4b-cf8eb50151ba"},"vehicle_type_id":"4","last_reported":1758684251,"current_range_meters":21600,"station_id":"ce4bhr12rcd13ifvqhqg","pricing_plan_id":"cebpf4jnsgd1na2vs0mg"},{"bike_id":"a8106c10-9347-4448-a569-fcfcc5d97838","system_id":"levelo_inurba_marseille","lat":43.337277,"lon":5.374672,"is_reserved":false,"is_disabled":false,"rental_uris":{"android":"levelo://app?vid=a8106c10-9347-4448-a569-fcfcc5d97838","ios":"levelo://app?vid=a8106c10-9347-4448-a569-fcfcc5d97838"},"vehicle_type_id":"4","last_reported":1758684251,"current_range_meters":21600,"station_id":"","pricing_plan_id":"cebpf4jnsgd1na2vs0mg"},{"bike_id":"d31d856a-933d-49cf-948f-ce03657dfc74","system_id":"levelo_inurba_marseille","lat":43.28433,"lon":5.34987,"is_reserved":false,"is_disabled":true,"rental_uris":{"android":"levelo://app?vid=d31d856a-933d-49cf-948f-ce03657dfc74","ios":"levelo://app?vid=d31d856a-933d-49cf-948f-ce03657dfc74"},"vehicle_type_id":"4","last_reported":1758684251,"current_range_meters":21600,"station_id":"ce4bhbh2rcd13ifvqepg","pricing_plan_id":"cebpf4jnsgd1na2vs0mg"},{"bike_id":"9308ddc3-7af2-4d8e-8133-9c52439b57a4","system_id":"levelo_inurba_marseille","lat":43.30165,"lon":5.38098,"is_reserved":false,"is_disabled":false,"rental_uris":{"android":"levelo://app?vid=9308ddc3-7af2-4d8e-8133-9c52439b57a4","ios":"levelo://app?vid=9308ddc3-7af2-4d8e-8133-9c52439b57a4"},"vehicle_type_id":"4","last_reported":1758684251,"current_range_meters":21600,"station_id":"ce4bgjp2rcd13ifvqbh0","pricing_plan_id":"cebpf4jnsgd1na2vs0mg"},{"bike_id":"041cd397-24ab-4e04-af23-07b961e161f4","system_id":"levelo_inurba_marseille","lat":43.337444,"lon":5.374475,"is_reserved":false,"is_disabled":false,"rental_uris":{"android":"levelo://app?vid=041cd397-24ab-4e04-af23-07b961e161f4","ios":"levelo://app?vid=041cd397-24ab-4e04-af23-07b961e161f4"},"vehicle_type_id":"4","last_reported":1758684251,"current_range_meters":21600,"station_id":"","pricing_plan_id":"cebpf4jnsgd1na2vs0mg"},{"bike_id":"800dcf07-411e-4ce8-80c7-a9d2e32638e2","system_id":"levelo_inurba_marseille","lat":43.32336,"lon":5.40612,"is_reserved":false,"is_disabled":false,"rental_uris":{"android":"levelo://app?vid=800dcf07-411e-4ce8-80c7-a9d2e32638e2","ios":"levelo://app?vid=800dcf07-411e-4ce8-80c7-a9d2e32638e2"},"vehicle_type_id":"4","last_reported":1758684251,"current_range_meters":21600,"station_id":"ce4bhq92rcd13ifvqhjg","pricing_plan_id":"cebpf4jnsgd1na2vs0mg"},{"bike_id":"5089fd74-409d-4838-af86-ce86d55a695b","system_id":"levelo_inurba_marseille","lat":43.326611,"lon":5.409906,"is_reserved":false,"is_disabled":false,"rental_uris":{"android":"levelo://app?vid=5089fd74-409d-4838-af86-ce86d55a695b","ios":"levelo://app?vid=5089fd74-409d-4838-af86-ce86d55a695b"},"vehicle_type_id":"4","last_reported":1758684251,"current_range_meters":22000,"station_id":"","pricing_plan_id":"cebpf4jnsgd1na2vs0mg"},{"bike_id":"77da97cd-5bd9-40ef-a1da-77a80367715c","system_id":"levelo_inurba_marseille","lat":43.30639,"lon":5.400671,"is_reserved":false,"is_disabled":false,"rental_uris":{"android":"levelo://app?vid=77da97cd-5bd9-40ef-a1da-77a80367715c","ios":"levelo://app?vid=77da97cd-5bd9-40ef-a1da-77a80367715c"},"vehicle_type_id":"4","last_reported":1758684251,"current_range_meters":22000,"station_id":"ce4bh112rcd13ifvqda0","pricing_plan_id":"cebpf4jnsgd1na2vs0mg"},{"bike_id":"d55f7cff-ce18-4107-992e-8cb8fb12b05f","system_id":"levelo_inurba_marseille","lat":43.231978,"lon":5.355523,"is_reserved":false,"is_disabled":false,"rental_uris":{"android":"levelo://app?vid=d55f7cff-ce18-4107-992e-8cb8fb12b05f","ios":"levelo://app?vid=d55f7cff-ce18-4107-992e-8cb8fb12b05f"},"vehicle_type_id":"4","last_reported":1758684251,"current_range_meters":22000,"station_id":"ce4bhu92rcd13ifvqi70","pricing_plan_id":"cebpf4jnsgd1na2vs0mg"},{"bike_id":"d7291183-dc83-473b-8c7c-d50495d20db0","system_id":"levelo_inurba_marseille","lat":43.29784,"lon":5.38115,"is_reserved":false,"is_disabled":true,"rental_uris":{"android":"levelo://app?vid=d7291183-dc83-473b-8c7c-d50495d20db0","ios":"levelo://app?vid=d7291183-dc83-473b-8c7c-d50495d20db0"},"vehicle_type_id":"4","last_reported":1758684251,"current_range_meters":22000,"station_id":"ce4bgip2rcd13ifvqbb0","pricing_plan_id":"cebpf4jnsgd1na2vs0mg"},{"bike_id":"781dda28-e4f8-44d0-a1d1-e8d22969812e","system_id":"levelo_inurba_marseille","lat":43.26738,"lon":5.38214,"is_reserved":false,"is_disabled":false,"rental_uris":{"android":"levelo://app?vid=781dda28-e4f8-44d0-a1d1-e8d22969812e","ios":"levelo://app?vid=781dda28-e4f8-44d0-a1d1-e8d22969812e"},"vehicle_type_id":"4","last_reported":1758684251,"current_range_meters":22000,"station_id":"","pricing_plan_id":"cebpf4jnsgd1na2vs0mg"},{"bike_id":"2e5779ed-911b-4b8e-97f7-6ca29f40ba49","system_id":"levelo_inurba_marseille","lat":43.29815,"lon":5.3881,"is_reserved":false,"is_disabled":false,"rental_uris":{"android":"levelo://app?vid=2e5779ed-911b-4b8e-97f7-6ca29f40ba49","ios":"levelo://app?vid=2e5779ed-911b-4b8e-97f7-6ca29f40ba49"},"vehicle_type_id":"4","last_reported":1758684251,"current_range_meters":22400,"station_id":"","pricing_plan_id":"cebpf4jnsgd1na2vs0mg"},{"bike_id":"fefec762-b4ef-40a4-b58c-50e6f92c6f16","system_id":"levelo_inurba_marseille","lat":43.28206,"lon":5.39046,"is_reserved":false,"is_disabled":false,"rental_uris":{"android":"levelo://app?vid=fefec762-b4ef-40a4-b58c-50e6f92c6f16","ios":"levelo://app?vid=fefec762-b4ef-40a4-b58c-50e6f92c6f16"},"vehicle_type_id":"4","last_reported":1758684251,"current_range_meters":22400,"station_id":"ce4bhn92rcd13ifvqgsg","pricing_plan_id":"cebpf4jnsgd1na2vs0mg"},{"bike_id":"849556b3-b64c-49ba-ad97-16b932b91051","system_id":"levelo_inurba_marseille","lat":43.23155,"lon":5.43702,"is_reserved":false,"is_disabled":false,"rental_uris":{"android":"levelo://app?vid=849556b3-b64c-49ba-ad97-16b932b91051","ios":"levelo://app?vid=849556b3-b64c-49ba-ad97-16b932b91051"},"vehicle_type_id":"4","last_reported":1758684251,"current_range_meters":22400,"station_id":"ce4bhmp2rcd13ifvqgog","pricing_plan_id":"cebpf4jnsgd1na2vs0mg"},{"bike_id":"3a5ab464-6124-4a59-884a-16a2783503cf","system_id":"levelo_inurba_marseille","lat":43.29989,"lon":5.38081,"is_reserved":false,"is_disabled":false,"rental_uris":{"android":"levelo://app?vid=3a5ab464-6124-4a59-884a-16a2783503cf","ios":"levelo://app?vid=3a5ab464-6124-4a59-884a-16a2783503cf"},"vehicle_type_id":"4","last_reported":1758684251,"current_range_meters":22800,"station_id":"","pricing_plan_id":"cebpf4jnsgd1na2vs0mg"},{"bike_id":"946cf8b8-cf9a-4dcd-9e0f-9f7df30570d3","system_id":"levelo_inurba_marseille","lat":43.225615,"lon":5.41628,"is_reserved":false,"is_disabled":false,"rental_uris":{"android":"levelo://app?vid=946cf8b8-cf9a-4dcd-9e0f-9f7df30570d3","ios":"levelo://app?vid=946cf8b8-cf9a-4dcd-9e0f-9f7df30570d3"},"vehicle_type_id":"4","last_reported":1758684251,"current_range_meters":22800,"station_id":"st_d2o4gvlbi1j2169b742g","pricing_plan_id":"cebpf4jnsgd1na2vs0mg"},{"bike_id":"81743f7d-fe43-4f48-a794-bc68fd31728c","system_id":"levelo_inurba_marseille","lat":43.34149,"lon":5.40906,"is_reserved":false,"is_disabled":false,"rental_uris":{"android":"levelo://app?vid=81743f7d-fe43-4f48-a794-bc68fd31728c","ios":"levelo://app?vid=81743f7d-fe43-4f48-a794-bc68fd31728c"},"vehicle_type_id":"4","last_reported":1758684251,"current_range_meters":22800,"station_id":"ce4bhqh2rcd13ifvqhlg","pricing_plan_id":"cebpf4jnsgd1na2vs0mg"},{"bike_id":"37039d9c-4484-49e6-b052-9edb44b8bedb","system_id":"levelo_inurba_marseille","lat":43.323628,"lon":5.367481,"is_reserved":false,"is_disabled":false,"rental_uris":{"android":"levelo://app?vid=37039d9c-4484-49e6-b052-9edb44b8bedb","ios":"levelo://app?vid=37039d9c-4484-49e6-b052-9edb44b8bedb"},"vehicle_type_id":"4","last_reported":1758684251,"current_range_meters":22800,"station_id":"ce4bhsh2rcd13ifvqi2g","pricing_plan_id":"cebpf4jnsgd1na2vs0mg"},{"bike_id":"bb6ad9da-d20d-4282-bb27-384387f90b4f","system_id":"levelo_inurba_marseille","lat":43.2469,"lon":5.38143,"is_reserved":false,"is_disabled":false,"rental_uris":{"android":"levelo://app?vid=bb6ad9da-d20d-4282-bb27-384387f90b4f","ios":"levelo://app?vid=bb6ad9da-d20d-4282-bb27-384387f90b4f"},"vehicle_type_id":"4","last_reported":1758684251,"current_range_meters":22800,"station_id":"ce4bhih2rcd13ifvqfr0","pricing_plan_id":"cebpf4jnsgd1na2vs0mg"},{"bike_id":"31461412-f7f9-43a0-b7c8-9d7590a79fb3","system_id":"levelo_inurba_marseille","lat":43.3133,"lon":5.39698,"is_reserved":false,"is_disabled":false,"rental_uris":{"android":"levelo://app?vid=31461412-f7f9-43a0-b7c8-9d7590a79fb3","ios":"levelo://app?vid=31461412-f7f9-43a0-b7c8-9d7590a79fb3"},"vehicle_type_id":"4","last_reported":1758684251,"current_range_meters":23200,"station_id":"ce4bgvp2rcd13ifvqcu0","pricing_plan_id":"cebpf4jnsgd1na2vs0mg"},{"bike_id":"006678ed-6111-4215-aae4-b9b607ca32a9","system_id":"levelo_inurba_marseille","lat":43.25946,"lon":5.41384,"is_reserved":false,"is_disabled":false,"rental_uris":{"android":"levelo://app?vid=006678ed-6111-4215-aae4-b9b607ca32a9","ios":"levelo://app?vid=006678ed-6111-4215-aae4-b9b607ca32a9"},"vehicle_type_id":"4","last_reported":1758684251,"current_range_meters":23200,"station_id":"","pricing_plan_id":"cebpf4jnsgd1na2vs0mg"},{"bike_id":"74a57569-5a28-483c-9fc2-5dd45c7f80ac","system_id":"levelo_inurba_marseille","lat":43.322863,"lon":5.382652,"is_reserved":false,"is_disabled":false,"rental_uris":{"android":"levelo://app?vid=74a57569-5a28-483c-9fc2-5dd45c7f80ac","ios":"levelo://app?vid=74a57569-5a28-483c-9fc2-5dd45c7f80ac"},"vehicle_type_id":"4","last_reported":1758684251,"current_range_meters":23200,"station_id":"ce4bhr12rcd13ifvqhqg","pricing_plan_id":"cebpf4jnsgd1na2vs0mg"},{"bike_id":"9643301f-f03b-428d-88d5-c42ce82c5f78","system_id":"levelo_inurba_marseille","lat":43.23166,"lon":5.43673,"is_reserved":false,"is_disabled":false,"rental_uris":{"android":"levelo://app?vid=9643301f-f03b-428d-88d5-c42ce82c5f78","ios":"levelo://app?vid=9643301f-f03b-428d-88d5-c42ce82c5f78"},"vehicle_type_id":"4","last_reported":1758684251,"current_range_meters":23200,"station_id":"ce4bhmp2rcd13ifvqgog","pricing_plan_id":"cebpf4jnsgd1na2vs0mg"},{"bike_id":"1b5618e0-787a-44fa-9ca3-33f36e5cfed1","system_id":"levelo_inurba_marseille","lat":43.301824,"lon":5.380897,"is_reserved":false,"is_disabled":true,"rental_uris":{"android":"levelo://app?vid=1b5618e0-787a-44fa-9ca3-33f36e5cfed1","ios":"levelo://app?vid=1b5618e0-787a-44fa-9ca3-33f36e5cfed1"},"vehicle_type_id":"4","last_reported":1758684251,"current_range_meters":23200,"station_id":"ce4bgjp2rcd13ifvqbh0","pricing_plan_id":"cebpf4jnsgd1na2vs0mg"},{"bike_id":"d8be419b-73b0-40f4-ab1e-545bdc9f8012","system_id":"levelo_inurba_marseille","lat":43.29038,"lon":5.37948,"is_reserved":false,"is_disabled":false,"rental_uris":{"android":"levelo://app?vid=d8be419b-73b0-40f4-ab1e-545bdc9f8012","ios":"levelo://app?vid=d8be419b-73b0-40f4-ab1e-545bdc9f8012"},"vehicle_type_id":"4","last_reported":1758684251,"current_range_meters":23200,"station_id":"","pricing_plan_id":"cebpf4jnsgd1na2vs0mg"},{"bike_id":"d842bcb9-5d02-4dcb-bd38-dc54444e4d8a","system_id":"levelo_inurba_marseille","lat":43.23704,"lon":5.40196,"is_reserved":false,"is_disabled":false,"rental_uris":{"android":"levelo://app?vid=d842bcb9-5d02-4dcb-bd38-dc54444e4d8a","ios":"levelo://app?vid=d842bcb9-5d02-4dcb-bd38-dc54444e4d8a"},"vehicle_type_id":"4","last_reported":1758684251,"current_range_meters":23200,"station_id":"","pricing_plan_id":"cebpf4jnsgd1na2vs0mg"},{"bike_id":"ef99f425-b8b3-4d9a-98e8-cf1686560b64","system_id":"levelo_inurba_marseille","lat":43.30757,"lon":5.4243,"is_reserved":false,"is_disabled":false,"rental_uris":{"android":"levelo://app?vid=ef99f425-b8b3-4d9a-98e8-cf1686560b64","ios":"levelo://app?vid=ef99f425-b8b3-4d9a-98e8-cf1686560b64"},"vehicle_type_id":"4","last_reported":1758684251,"current_range_meters":23200,"station_id":"st_cvj6ca6bvosntc0bfgr0","pricing_plan_id":"cebpf4jnsgd1na2vs0mg"},{"bike_id":"f64afc2f-a842-41b7-a81f-2472bbfa6f36","system_id":"levelo_inurba_marseille","lat":43.29264,"lon":5.40896,"is_reserved":false,"is_disabled":false,"rental_uris":{"android":"levelo://app?vid=f64afc2f-a842-41b7-a81f-2472bbfa6f36","ios":"levelo://app?vid=f64afc2f-a842-41b7-a81f-2472bbfa6f36"},"vehicle_type_id":"4","last_reported":1758684251,"current_range_meters":23200,"station_id":"ce4bh192rcd13ifvqdc0","pricing_plan_id":"cebpf4jnsgd1na2vs0mg"},{"bike_id":"f70b9a08-17b3-489a-87a5-7e7fe06627ac","system_id":"levelo_inurba_marseille","lat":43.230624,"lon":5.355011,"is_reserved":false,"is_disabled":false,"rental_uris":{"android":"levelo://app?vid=f70b9a08-17b3-489a-87a5-7e7fe06627ac","ios":"levelo://app?vid=f70b9a08-17b3-489a-87a5-7e7fe06627ac"},"vehicle_type_id":"4","last_reported":1758684251,"current_range_meters":23200,"station_id":"cpo3342slgdg3j2ifvpg","pricing_plan_id":"cebpf4jnsgd1na2vs0mg"},{"bike_id":"c60a3301-aade-4117-9628-8a7234bcf597","system_id":"levelo_inurba_marseille","lat":43.27945,"lon":5.41044,"is_reserved":false,"is_disabled":false,"rental_uris":{"android":"levelo://app?vid=c60a3301-aade-4117-9628-8a7234bcf597","ios":"levelo://app?vid=c60a3301-aade-4117-9628-8a7234bcf597"},"vehicle_type_id":"4","last_reported":1758684251,"current_range_meters":23200,"station_id":"ce4bhnp2rcd13ifvqh0g","pricing_plan_id":"cebpf4jnsgd1na2vs0mg"},{"bike_id":"b2f52079-81cd-4abf-9d83-b4eb3dab133c","system_id":"levelo_inurba_marseille","lat":43.311237,"lon":5.377678,"is_reserved":false,"is_disabled":false,"rental_uris":{"android":"levelo://app?vid=b2f52079-81cd-4abf-9d83-b4eb3dab133c","ios":"levelo://app?vid=b2f52079-81cd-4abf-9d83-b4eb3dab133c"},"vehicle_type_id":"4","last_reported":1758684251,"current_range_meters":24000,"station_id":"ce4bgt92rcd13ifvqcg0","pricing_plan_id":"cebpf4jnsgd1na2vs0mg"},{"bike_id":"e1ac361d-7919-4728-9b15-6b8ef74174ba","system_id":"levelo_inurba_marseille","lat":43.27913,"lon":5.39574,"is_reserved":false,"is_disabled":false,"rental_uris":{"android":"levelo://app?vid=e1ac361d-7919-4728-9b15-6b8ef74174ba","ios":"levelo://app?vid=e1ac361d-7919-4728-9b15-6b8ef74174ba"},"vehicle_type_id":"4","last_reported":1758684251,"current_range_meters":24000,"station_id":"ce4bhf92rcd13ifvqf40","pricing_plan_id":"cebpf4jnsgd1na2vs0mg"},{"bike_id":"c9cd5ae2-2414-4bf4-97c3-c1a3ac0fdbe6","system_id":"levelo_inurba_marseille","lat":43.30601,"lon":5.39355,"is_reserved":false,"is_disabled":false,"rental_uris":{"android":"levelo://app?vid=c9cd5ae2-2414-4bf4-97c3-c1a3ac0fdbe6","ios":"levelo://app?vid=c9cd5ae2-2414-4bf4-97c3-c1a3ac0fdbe6"},"vehicle_type_id":"4","last_reported":1758684251,"current_range_meters":24000,"station_id":"ce4bh0p2rcd13ifvqd80","pricing_plan_id":"cebpf4jnsgd1na2vs0mg"},{"bike_id":"1af68165-30b8-4498-862e-e4d792ce6b69","system_id":"levelo_inurba_marseille","lat":43.29653,"lon":5.37709,"is_reserved":false,"is_disabled":true,"rental_uris":{"android":"levelo://app?vid=1af68165-30b8-4498-862e-e4d792ce6b69","ios":"levelo://app?vid=1af68165-30b8-4498-862e-e4d792ce6b69"},"vehicle_type_id":"4","last_reported":1758684251,"current_range_meters":24000,"station_id":"ce4bgi92rcd13ifvqb90","pricing_plan_id":"cebpf4jnsgd1na2vs0mg"},{"bike_id":"1501e929-7b66-432a-90ab-86ad2cbe7acf","system_id":"levelo_inurba_marseille","lat":43.30244,"lon":5.40084,"is_reserved":false,"is_disabled":false,"rental_uris":{"android":"levelo://app?vid=1501e929-7b66-432a-90ab-86ad2cbe7acf","ios":"levelo://app?vid=1501e929-7b66-432a-90ab-86ad2cbe7acf"},"vehicle_type_id":"4","last_reported":1758684251,"current_range_meters":24000,"station_id":"ce4bgvh2rcd13ifvqcs0","pricing_plan_id":"cebpf4jnsgd1na2vs0mg"},{"bike_id":"f1c2be5c-dd9d-428c-ad85-330267dac9b6","system_id":"levelo_inurba_marseille","lat":43.24554,"lon":5.39519,"is_reserved":false,"is_disabled":false,"rental_uris":{"android":"levelo://app?vid=f1c2be5c-dd9d-428c-ad85-330267dac9b6","ios":"levelo://app?vid=f1c2be5c-dd9d-428c-ad85-330267dac9b6"},"vehicle_type_id":"4","last_reported":1758684251,"current_range_meters":24400,"station_id":"ce4bhlp2rcd13ifvqgjg","pricing_plan_id":"cebpf4jnsgd1na2vs0mg"},{"bike_id":"25e03722-a0b2-4148-899a-f9939a9e352e","system_id":"levelo_inurba_marseille","lat":43.30541,"lon":5.38428,"is_reserved":false,"is_disabled":true,"rental_uris":{"android":"levelo://app?vid=25e03722-a0b2-4148-899a-f9939a9e352e","ios":"levelo://app?vid=25e03722-a0b2-4148-899a-f9939a9e352e"},"vehicle_type_id":"4","last_reported":1758684251,"current_range_meters":24400,"station_id":"ce4bgg92rcd13ifvqb30","pricing_plan_id":"cebpf4jnsgd1na2vs0mg"},{"bike_id":"0ce78fc0-16a1-479e-85f6-eab917493072","system_id":"levelo_inurba_marseille","lat":43.30796,"lon":5.38156,"is_reserved":false,"is_disabled":false,"rental_uris":{"android":"levelo://app?vid=0ce78fc0-16a1-479e-85f6-eab917493072","ios":"levelo://app?vid=0ce78fc0-16a1-479e-85f6-eab917493072"},"vehicle_type_id":"4","last_reported":1758684251,"current_range_meters":24400,"station_id":"ce4bgt12rcd13ifvqce0","pricing_plan_id":"cebpf4jnsgd1na2vs0mg"},{"bike_id":"b3b6a0f9-3dd5-4cbb-9b9e-930df27b2284","system_id":"levelo_inurba_marseille","lat":43.31346,"lon":5.39705,"is_reserved":false,"is_disabled":false,"rental_uris":{"android":"levelo://app?vid=b3b6a0f9-3dd5-4cbb-9b9e-930df27b2284","ios":"levelo://app?vid=b3b6a0f9-3dd5-4cbb-9b9e-930df27b2284"},"vehicle_type_id":"4","last_reported":1758684251,"current_range_meters":24400,"station_id":"ce4bgvp2rcd13ifvqcu0","pricing_plan_id":"cebpf4jnsgd1na2vs0mg"},{"bike_id":"a4affb83-8c3c-4e08-871b-696ada05888e","system_id":"levelo_inurba_marseille","lat":43.29617,"lon":5.38095,"is_reserved":false,"is_disabled":false,"rental_uris":{"android":"levelo://app?vid=a4affb83-8c3c-4e08-871b-696ada05888e","ios":"levelo://app?vid=a4affb83-8c3c-4e08-871b-696ada05888e"},"vehicle_type_id":"4","last_reported":1758684251,"current_range_meters":24400,"station_id":"ce4bgl12rcd13ifvqbo0","pricing_plan_id":"cebpf4jnsgd1na2vs0mg"},{"bike_id":"4666c184-a033-4b19-a358-5110159dc106","system_id":"levelo_inurba_marseille","lat":43.29785,"lon":5.38113,"is_reserved":false,"is_disabled":false,"rental_uris":{"android":"levelo://app?vid=4666c184-a033-4b19-a358-5110159dc106","ios":"levelo://app?vid=4666c184-a033-4b19-a358-5110159dc106"},"vehicle_type_id":"4","last_reported":1758684251,"current_range_meters":24400,"station_id":"ce4bgip2rcd13ifvqbb0","pricing_plan_id":"cebpf4jnsgd1na2vs0mg"},{"bike_id":"c34b100e-6ba1-4ecb-840e-b48e868001ee","system_id":"levelo_inurba_marseille","lat":43.28279,"lon":5.35073,"is_reserved":false,"is_disabled":true,"rental_uris":{"android":"levelo://app?vid=c34b100e-6ba1-4ecb-840e-b48e868001ee","ios":"levelo://app?vid=c34b100e-6ba1-4ecb-840e-b48e868001ee"},"vehicle_type_id":"4","last_reported":1758684251,"current_range_meters":24400,"station_id":"ce4bhbp2rcd13ifvqerg","pricing_plan_id":"cebpf4jnsgd1na2vs0mg"},{"bike_id":"da0cc0be-bd24-49d4-ad29-ebdaa0056b3e","system_id":"levelo_inurba_marseille","lat":43.321097,"lon":5.387038,"is_reserved":false,"is_disabled":false,"rental_uris":{"android":"levelo://app?vid=da0cc0be-bd24-49d4-ad29-ebdaa0056b3e","ios":"levelo://app?vid=da0cc0be-bd24-49d4-ad29-ebdaa0056b3e"},"vehicle_type_id":"4","last_reported":1758684251,"current_range_meters":24400,"station_id":"","pricing_plan_id":"cebpf4jnsgd1na2vs0mg"},{"bike_id":"8cf842e4-76c1-4a82-ad31-66529da65dba","system_id":"levelo_inurba_marseille","lat":43.26697,"lon":5.40241,"is_reserved":false,"is_disabled":false,"rental_uris":{"android":"levelo://app?vid=8cf842e4-76c1-4a82-ad31-66529da65dba","ios":"levelo://app?vid=8cf842e4-76c1-4a82-ad31-66529da65dba"},"vehicle_type_id":"4","last_reported":1758684251,"current_range_meters":24800,"station_id":"","pricing_plan_id":"cebpf4jnsgd1na2vs0mg"},{"bike_id":"161c33ce-90e4-4723-ba6a-445c167280cc","system_id":"levelo_inurba_marseille","lat":43.29036,"lon":5.35903,"is_reserved":false,"is_disabled":false,"rental_uris":{"android":"levelo://app?vid=161c33ce-90e4-4723-ba6a-445c167280cc","ios":"levelo://app?vid=161c33ce-90e4-4723-ba6a-445c167280cc"},"vehicle_type_id":"4","last_reported":1758684251,"current_range_meters":24800,"station_id":"ce4bha92rcd13ifvqeg0","pricing_plan_id":"cebpf4jnsgd1na2vs0mg"},{"bike_id":"b567dfa6-db04-4eb0-a3dc-2ac34452da5d","system_id":"levelo_inurba_marseille","lat":43.23151,"lon":5.43689,"is_reserved":false,"is_disabled":true,"rental_uris":{"android":"levelo://app?vid=b567dfa6-db04-4eb0-a3dc-2ac34452da5d","ios":"levelo://app?vid=b567dfa6-db04-4eb0-a3dc-2ac34452da5d"},"vehicle_type_id":"4","last_reported":1758684251,"current_range_meters":24800,"station_id":"ce4bhmp2rcd13ifvqgog","pricing_plan_id":"cebpf4jnsgd1na2vs0mg"},