{"last_updated":1760195304,"ttl":60,"version":"2.2","data":{"bikes":[{"bike_id":"5516e87b-8441-4871-bd1c-dcd0126e113d","system_id":"levelo_inurba_marseille","lat":43.337444,"lon":5.374475,"is_reserved":false,"is_disabled":true,"rental_uris":{"android":"levelo://app?vid=5516e87b-8441-4871-bd1c-dcd0126e113d","ios":"levelo://app?vid=5516e87b-8441-4871-bd1c-dcd0126e113d"},"vehicle_type_id":"4","last_reported":1760195304,"current_range_meters":0,"station_id":"","pricing_plan_id":"cebpf4jnsgd1na2vs0mg"},{"bike_id":"f9ef6a8c-cc82-49e4-96c2-f46e0950a0fc","system_id":"levelo_inurba_marseille","lat":43.33771,"lon":5.37424,"is_reserved":false,"is_disabled":true,"rental_uris":{"android":"levelo://app?vid=f9ef6a8c-cc82-49e4-96c2-f46e0950a0fc","ios":"levelo://app?vid=f9ef6a8c-cc82-49e4-96c2-f46e0950a0fc"},"vehicle_type_id":"4","last_reported":1760195304,"current_range_meters":0,"station_id":"","pricing_plan_id":"cebpf4jnsgd1na2vs0mg"},{"bike_id":"f92995dc-d2e7-4f2e-bcaf-27995c98a1de","system_id":"levelo_inurba_marseille","lat":43.33751,"lon":5.37456,"is_reserved":false,"is_disabled":true,"rental_uris":{"android":"levelo://app?vid=f92995dc-d2e7-4f2e-bcaf-27995c98a1de","ios":"levelo://app?vid=f92995dc-d2e7-4f2e-bcaf-27995c98a1de"},"vehicle_type_id":"4","last_reported":1760195304,"current_range_meters":0,"station_id":"","pricing_plan_id":"cebpf4jnsgd1na2vs0mg"},{"bike_id":"092183e8-1e36-4ece-a29a-68743a5820f6","system_id":"levelo_inurba_marseille","lat":43.33747,"lon":5.37463,"is_reserved":false,"is_disabled":true,"rental_uris":{"android":"levelo://app?vid=092183e8-1e36-4ece-a29a-68743a5820f6","ios":"levelo://app?vid=092183e8-1e36-4ece-a29a-68743a5820f6"},"vehicle_type_id":"1","last_reported":1760195304,"current_range_meters":0,"station_id":"","pricing_plan_id":"cebpf4jnsgd1na2vs0mg"},{"bike_id":"268f0f13-c790-4518-9f6a-1fe45b445342","system_id":"levelo_inurba_marseille","lat":43.33737,"lon":5.37465,"is_reserved":false,"is_disabled":true,"rental_uris":{"android":"levelo://app?vid=268f0f13-c790-4518-9f6a-1fe45b445342","ios":"levelo://app?vid=268f0f13-c790-4518-9f6a-1fe45b445342"},"vehicle_type_id":"4","last_reported":1760195304,"current_range_meters":0,"station_id":"","pricing_plan_id":"cebpf4jnsgd1na2vs0mg"},{"bike_id":"844de8fa-b1ed-4b48-bbb0-8ea30f04e6fa","system_id":"levelo_inurba_marseille","lat":43.33755,"lon":5.37468,"is_reserved":false,"is_disabled":false,"rental_uris":{"android":"levelo://app?vid=844de8fa-b1ed-4b48-bbb0-8ea30f04e6fa","ios":"levelo://app?vid=844de8fa-b1ed-4b48-bbb0-8ea30f04e6fa"},"vehicle_type_id":"4","last_reported":1760195304,"current_range_meters":4800,"station_id":"","pricing_plan_id":"cebpf4jnsgd1na2vs0mg"},{"bike_id":"affea08d-2e61-49ad-9018-2db734fe38fb","system_id":"levelo_inurba_marseille","lat":43.337444,"lon":5.374475,"is_reserved":false,"is_disabled":true,"rental_uris":{"android":"levelo://app?vid=affea08d-2e61-49ad-9018-2db734fe38fb","ios":"levelo://app?vid=affea08d-2e61-49ad-9018-2db734fe38fb"},"vehicle_type_id":"4","last_reported":1760195304,"current_range_meters":0,"station_id":"","pricing_plan_id":"cebpf4jnsgd1na2vs0mg"},{"bike_id":"c80be3e3-26c1-4fd2-ab94-730bb8638bdc","system_id":"levelo_inurba_marseille","lat":43.337444,"lon":5.374475,"is_reserved":false,"is_disabled":true,"rental_uris":{"android":"levelo://app?vid=c80be3e3-26c1-4fd2-ab94-730bb8638bdc","ios":"levelo://app?vid=c80be3e3-26c1-4fd2-ab94-730bb8638bdc"},"vehicle_type_id":"4","last_reported":1760195304,"current_range_meters":0,"station_id":"","pricing_plan_id":"cebpf4jnsgd1na2vs0mg"},{"bike_id":"f8726700-64d6-4ff8-acc0-9adfce94dbe9","system_id":"levelo_inurba_marseille","lat":43.27848,"lon":5.38298,"is_reserved":false,"is_disabled":true,"rental_uris":{"android":"levelo://app?vid=f8726700-64d6-4ff8-acc0-9adfce94dbe9","ios":"levelo://app?vid=f8726700-64d6-4ff8-acc0-9adfce94dbe9"},"vehicle_type_id":"4","last_reported":1760195304,"current_range_meters":0,"station_id":"","pricing_plan_id":"cebpf4jnsgd1na2vs0mg"},{"bike_id":"b4e7ef10-af79-4cf8-a207-60ed0a922607","system_id":"levelo_inurba_marseille","lat":43.337444,"lon":5.374475,"is_reserved":false,"is_disabled":true,"rental_uris":{"android":"levelo://app?vid=b4e7ef10-af79-4cf8-a207-60ed0a922607","ios":"levelo://app?vid=b4e7ef10-af79-4cf8-a207-60ed0a922607"},"vehicle_type_id":"4","last_reported":1760195304,"current_range_meters":0,"station_id":"","pricing_plan_id":"cebpf4jnsgd1na2vs0mg"},{"bike_id":"4ccf7a59-029f-457f-b839-dc6f11286326","system_id":"levelo_inurba_marseille","lat":43.317665,"lon":5.422106,"is_reserved":false,"is_disabled":true,"rental_uris":{"android":"levelo://app?vid=4ccf7a59-029f-457f-b839-dc6f11286326","ios":"levelo://app?vid=4ccf7a59-029f-457f-b839-dc6f11286326"},"vehicle_type_id":"4","last_reported":1760195304,"current_range_meters":0,"station_id":"","pricing_plan_id":"cebpf4jnsgd1na2vs0mg"},{"bike_id":"bf0cd1f5-4a2b-4aae-9f11-cde060414574","system_id":"levelo_inurba_marseille","lat":43.2254,"lon":5.34825,"is_reserved":false,"is_disabled":true,"rental_uris":{"android":"levelo://app?vid=bf0cd1f5-4a2b-4aae-9f11-cde060414574","ios":"levelo://app?vid=bf0cd1f5-4a2b-4aae-9f11-cde060414574"},"vehicle_type_id":"4","last_reported":1760195304,"current_range_meters":0,"station_id":"","pricing_plan_id":"cebpf4jnsgd1na2vs0mg"},{"bike_id":"faf21e59-73fe-43ba-965b-23c7230d33c8","system_id":"levelo_inurba_marseille","lat":43.270557,"lon":5.392632,"is_reserved":false,"is_disabled":true,"rental_uris":{"android":"levelo://app?vid=faf21e59-73fe-43ba-965b-23c7230d33c8","ios":"levelo://app?vid=faf21e59-73fe-43ba-965b-23c7230d33c8"},"vehicle_type_id":"4","last_reported":1760195304,"current_range_meters":0,"station_id":"","pricing_plan_id":"cebpf4jnsgd1na2vs0mg"},{"bike_id":"ec39affe-5e48-4259-a225-7a0d248d923e","system_id":"levelo_inurba_marseille","lat":43.29666,"lon":5.38049,"is_reserved":false,"is_disabled":true,"rental_uris":{"android":"levelo://app?vid=ec39affe-5e48-4259-a225-7a0d248d923e","ios":"levelo://app?vid=ec39affe-5e48-4259-a225-7a0d248d923e"},"vehicle_type_id":"4","last_reported":1760195304,"current_range_meters":0,"station_id":"","pricing_plan_id":"cebpf4jnsgd1na2vs0mg"},{"bike_id":"cc7119a1-7926-4d48-bb5f-08c2efaeb2d8","system_id":"levelo_inurba_marseille","lat":43.299601,"lon":5.384904,"is_reserved":false,"is_disabled":true,"rental_uris":{"android":"levelo://app?vid=cc7119a1-7926-4d48-bb5f-08c2efaeb2d8","ios":"levelo://app?vid=cc7119a1-7926-4d48-bb5f-08c2efaeb2d8"},"vehicle_type_id":"4","last_reported":1760195304,"current_range_meters":0,"station_id":"ce4bgj92rcd13ifvqbd0","pricing_plan_id":"cebpf4jnsgd1na2vs0mg"},{"bike_id":"cccf236a-9273-4051-a573-8761e556ca18","system_id":"levelo_inurba_marseille","lat":43.30932,"lon":5.40156,"is_reserved":false,"is_disabled":true,"rental_uris":{"android":"levelo://app?vid=cccf236a-9273-4051-a573-8761e556ca18","ios":"levelo://app?vid=cccf236a-9273-4051-a573-8761e556ca18"},"vehicle_type_id":"4","last_reported":1760195304,"current_range_meters":0,"station_id":"ce4bgvp2rcd13ifvqct0","pricing_plan_id":"cebpf4jnsgd1na2vs0mg"},{"bike_id":"90bee144-32cd-4cdf-922d-2257ff3b894f","system_id":"levelo_inurba_marseille","lat":43.31329,"lon":5.39699,"is_reserved":false,"is_disabled":true,"rental_uris":{"android":"levelo://app?vid=90bee144-32cd-4cdf-922d-2257ff3b894f","ios":"levelo://app?vid=90bee144-32cd-4cdf-922d-2257ff3b894f"},"vehicle_type_id":"4","last_reported":1760195304,"current_range_meters":0,"station_id":"ce4bgvp2rcd13ifvqcu0","pricing_plan_id":"cebpf4jnsgd1na2vs0mg"},{"bike_id":"c899cea1-1887-4962-a32a-d9f481b940cb","system_id":"levelo_inurba_marseille","lat":43.292124,"lon":5.393171,"is_reserved":false,"is_disabled":true,"rental_uris":{"android":"levelo://app?vid=c899cea1-1887-4962-a32a-d9f481b940cb","ios":"levelo://app?vid=c899cea1-1887-4962-a32a-d9f481b940cb"},"vehicle_type_id":"4","last_reported":1760195304,"current_range_meters":0,"station_id":"ce4bh192rcd13ifvqdd0","pricing_plan_id":"cebpf4jnsgd1na2vs0mg"},{"bike_id":"f2806613-161e-47bf-a1cd-d150de40ff43","system_id":"levelo_inurba_marseille","lat":43.28857,"lon":5.39334,"is_reserved":false,"is_disabled":true,"rental_uris":{"android":"levelo://app?vid=f2806613-161e-47bf-a1cd-d150de40ff43","ios":"levelo://app?vid=f2806613-161e-47bf-a1cd-d150de40ff43"},"vehicle_type_id":"4","last_reported":1760195304,"current_range_meters":0,"station_id":"ce4bh2p2rcd13ifvqdi0","pricing_plan_id":"cebpf4jnsgd1na2vs0mg"},{"bike_id":"b7dedadd-0ecb-4bdc-8de0-8a262b05c7ef","system_id":"levelo_inurba_marseille","lat":43.284821,"lon":5.384077,"is_reserved":false,"is_disabled":true,"rental_uris":{"android":"levelo://app?vid=b7dedadd-0ecb-4bdc-8de0-8a262b05c7ef","ios":"levelo://app?vid=b7dedadd-0ecb-4bdc-8de0-8a262b05c7ef"},"vehicle_type_id":"4","last_reported":1760195304,"current_range_meters":0,"station_id":"ce4bh512rcd13ifvqe3g","pricing_plan_id":"cebpf4jnsgd1na2vs0mg"},{"bike_id":"7c0d3c7d-c590-4995-b607-8d7cf02180c5","system_id":"levelo_inurba_marseille","lat":43.29268,"lon":5.38448,"is_reserved":false,"is_disabled":true,"rental_uris":{"android":"levelo://app?vid=7c0d3c7d-c590-4995-b607-8d7cf02180c5","ios":"levelo://app?vid=7c0d3c7d-c590-4995-b607-8d7cf02180c5"},"vehicle_type_id":"4","last_reported":1760195304,"current_range_meters":0,"station_id":"ce4bh692rcd13ifvqea0","pricing_plan_id":"cebpf4jnsgd1na2vs0mg"},{"bike_id":"33f47225-167c-4a2d-ab47-56c230e0cbd6","system_id":"levelo_inurba_marseille","lat":43.29274,"lon":5.38464,"is_reserved":false,"is_disabled":true,"rental_uris":{"android":"levelo://app?vid=33f47225-167c-4a2d-ab47-56c230e0cbd6","ios":"levelo://app?vid=33f47225-167c-4a2d-ab47-56c230e0cbd6"},"vehicle_type_id":"4","last_reported":1760195304,"current_range_meters":0,"station_id":"ce4bh692rcd13ifvqea0","pricing_plan_id":"cebpf4jnsgd1na2vs0mg"},{"bike_id":"1e217379-81fc-498c-ab5f-050b06faee8c","system_id":"levelo_inurba_marseille","lat":43.280349,"lon":5.369522,"is_reserved":false,"is_disabled":true,"rental_uris":{"android":"levelo://app?vid=1e217379-81fc-498c-ab5f-050b06faee8c","ios":"levelo://app?vid=1e217379-81fc-498c-ab5f-050b06faee8c"},"vehicle_type_id":"4","last_reported":1760195304,"current_range_meters":0,"station_id":"ce4bha12rcd13ifvqef0","pricing_plan_id":"cebpf4jnsgd1na2vs0mg"},{"bike_id":"a3018616-73b9-49e1-8f49-3aa104d5b417","system_id":"levelo_inurba_marseille","lat":43.29003,"lon":5.35612,"is_reserved":false,"is_disabled":true,"rental_uris":{"android":"levelo://app?vid=a3018616-73b9-49e1-8f49-3aa104d5b417","ios":"levelo://app?vid=a3018616-73b9-49e1-8f49-3aa104d5b417"},"vehicle_type_id":"4","last_reported":1760195304,"current_range_meters":0,"station_id":"ce4bhb92rcd13ifvqen0","pricing_plan_id":"cebpf4jnsgd1na2vs0mg"},{"bike_id":"994dbf3d-cdbb-4459-bae8-fbce612795d1","system_id":"levelo_inurba_marseille","lat":43.26596,"lon":5.39074,"is_reserved":false,"is_disabled":true,"rental_uris":{"android":"levelo://app?vid=994dbf3d-cdbb-4459-bae8-fbce612795d1","ios":"levelo://app?vid=994dbf3d-cdbb-4459-bae8-fbce612795d1"},"vehicle_type_id":"4","last_reported":1760195304,"current_range_meters":0,"station_id":"ce4bhe12rcd13ifvqf30","pricing_plan_id":"cebpf4jnsgd1na2vs0mg"},{"bike_id":"c182d814-f3fc-4293-8897-b1f868f6e2fa","system_id":"levelo_inurba_marseille","lat":43.27981,"lon":5.38749,"is_reserved":false,"is_disabled":true,"rental_uris":{"android":"levelo://app?vid=c182d814-f3fc-4293-8897-b1f868f6e2fa","ios":"levelo://app?vid=c182d814-f3fc-4293-8897-b1f868f6e2fa"},"vehicle_type_id":"4","last_reported":1760195304,"current_range_meters":0,"station_id":"ce4bhg12rcd13ifvqf80","pricing_plan_id":"cebpf4jnsgd1na2vs0mg"},{"bike_id":"e4414fc7-3b44-422e-8c01-1bc24dc76554","system_id":"levelo_inurba_marseille","lat":43.26216,"lon":5.37449,"is_reserved":false,"is_disabled":true,"rental_uris":{"android":"levelo://app?vid=e4414fc7-3b44-422e-8c01-1bc24dc76554","ios":"levelo://app?vid=e4414fc7-3b44-422e-8c01-1bc24dc76554"},"vehicle_type_id":"4","last_reported":1760195304,"current_range_meters":0,"station_id":"ce4bhgp2rcd13ifvqfc0","pricing_plan_id":"cebpf4jnsgd1na2vs0mg"},{"bike_id":"f510aa3d-6220-4664-aa34-b9b20e2e5958","system_id":"levelo_inurba_marseille","lat":43.272067,"lon":5.392017,"is_reserved":false,"is_disabled":true,"rental_uris":{"android":"levelo://app?vid=f510aa3d-6220-4664-aa34-b9b20e2e5958","ios":"levelo://app?vid=f510aa3d-6220-4664-aa34-b9b20e2e5958"},"vehicle_type_id":"4","last_reported":1760195304,"current_range_meters":0,"station_id":"ce4bhhp2rcd13ifvqfm0","pricing_plan_id":"cebpf4jnsgd1na2vs0mg"},{"bike_id":"be1dc908-ff1a-4889-aeca-73a20f6a9624","system_id":"levelo_inurba_marseille","lat":43.23965,"lon":5.36634,"is_reserved":false,"is_disabled":true,"rental_uris":{"android":"levelo://app?vid=be1dc908-ff1a-4889-aeca-73a20f6a9624","ios":"levelo://app?vid=be1dc908-ff1a-4889-aeca-73a20f6a9624"},"vehicle_type_id":"4","last_reported":1760195304,"current_range_meters":0,"station_id":"ce4bhi12rcd13ifvqfp0","pricing_plan_id":"cebpf4jnsgd1na2vs0mg"},{"bike_id":"9a4429d1-232c-4519-8ed9-312533b588c9","system_id":"levelo_inurba_marseille","lat":43.26212,"lon":5.40467,"is_reserved":false,"is_disabled":true,"rental_uris":{"android":"levelo://app?vid=9a4429d1-232c-4519-8ed9-312533b588c9","ios":"levelo://app?vid=9a4429d1-232c-4519-8ed9-312533b588c9"},"vehicle_type_id":"4","last_reported":1760195304,"current_range_meters":0,"station_id":"ce4bhmh2rcd13ifvqgmg","pricing_plan_id":"cebpf4jnsgd1na2vs0mg"},{"bike_id":"959f8c30-42b8-4a13-afe4-86bce418d037","system_id":"levelo_inurba_marseille","lat":43.27813,"lon":5.40726,"is_reserved":false,"is_disabled":true,"rental_uris":{"android":"levelo://app?vid=959f8c30-42b8-4a13-afe4-86bce418d037","ios":"levelo://app?vid=959f8c30-42b8-4a13-afe4-86bce418d037"},"vehicle_type_id":"4","last_reported":1760195304,"current_range_meters":0,"station_id":"ce4bhnh2rcd13ifvqgtg","pricing_plan_id":"cebpf4jnsgd1na2vs0mg"},{"bike_id":"f9c19ee0-e263-4899-8e1d-67ae5a7da266","system_id":"levelo_inurba_marseille","lat":43.310835,"lon":5.424292,"is_reserved":false,"is_disabled":true,"rental_uris":{"android":"levelo://app?vid=f9c19ee0-e263-4899-8e1d-67ae5a7da266","ios":"levelo://app?vid=f9c19ee0-e263-4899-8e1d-67ae5a7da266"},"vehicle_type_id":"4","last_reported":1760195304,"current_range_meters":0,"station_id":"ce4bhp92rcd13ifvqhag","pricing_plan_id":"cebpf4jnsgd1na2vs0mg"},{"bike_id":"0ff28379-d69e-46fd-a711-ef84b1b06a74","system_id":"levelo_inurba_marseille","lat":43.21749,"lon":5.34605,"is_reserved":false,"is_disabled":true,"rental_uris":{"android":"levelo://app?vid=0ff28379-d69e-46fd-a711-ef84b1b06a74","ios":"levelo://app?vid=0ff28379-d69e-46fd-a711-ef84b1b06a74"},"vehicle_type_id":"4","last_reported":1760195304,"current_range_meters":0,"station_id":"st_cvj6r9ubvosntc0bgbag","pricing_plan_id":"cebpf4jnsgd1na2vs0mg"},{"bike_id":"bc508d92-e055-4123-8e72-1c0771f1f4a0","system_id":"levelo_inurba_marseille","lat":43.21743,"lon":5.34612,"is_reserved":false,"is_disabled":true,"rental_uris":{"android":"levelo://app?vid=bc508d92-e055-4123-8e72-1c0771f1f4a0","ios":"levelo://app?vid=bc508d92-e055-4123-8e72-1c0771f1f4a0"},"vehicle_type_id":"4","last_reported":1760195304,"current_range_meters":0,"station_id":"st_cvj6r9ubvosntc0bgbag","pricing_plan_id":"cebpf4jnsgd1na2vs0mg"},{"bike_id":"86eca012-edfb-4c20-9aef-d37ce3cadbda","system_id":"levelo_inurba_marseille","lat":43.21188,"lon":5.35079,"is_reserved":false,"is_disabled":true,"rental_uris":{"android":"levelo://app?vid=86eca012-edfb-4c20-9aef-d37ce3cadbda","ios":"levelo://app?vid=86eca012-edfb-4c20-9aef-d37ce3cadbda"},"vehicle_type_id":"4","last_reported":1760195304,"current_range_meters":0,"station_id":"st_cvj6sg6p6f1abm77japg","pricing_plan_id":"cebpf4jnsgd1na2vs0mg"},{"bike_id":"5206f34d-5c08-42bd-b24d-21b13734d2e6","system_id":"levelo_inurba_marseille","lat":43.212,"lon":5.35086,"is_reserved":false,"is_disabled":true,"rental_uris":{"android":"levelo://app?vid=5206f34d-5c08-42bd-b24d-21b13734d2e6","ios":"levelo://app?vid=5206f34d-5c08-42bd-b24d-21b13734d2e6"},"vehicle_type_id":"4","last_reported":1760195304,"current_range_meters":0,"station_id":"st_cvj6sg6p6f1abm77japg","pricing_plan_id":"cebpf4jnsgd1na2vs0mg"},{"bike_id":"5a1f50b1-f1f9-4f02-a3c5-363250f2c45b","system_id":"levelo_inurba_marseille","lat":43.21191,"lon":5.35078,"is_reserved":false,"is_disabled":true,"rental_uris":{"android":"levelo://app?vid=5a1f50b1-f1f9-4f02-a3c5-363250f2c45b","ios":"levelo://app?vid=5a1f50b1-f1f9-4f02-a3c5-363250f2c45b"},"vehicle_type_id":"4","last_reported":1760195304,"current_range_meters":0,"station_id":"st_cvj6sg6p6f1abm77japg","pricing_plan_id":"cebpf4jnsgd1na2vs0mg"},{"bike_id":"c31f5b0e-d798-4f12-be52-283c24a28126","system_id":"levelo_inurba_marseille","lat":43.21194,"lon":5.35079,"is_reserved":false,"is_disabled":true,"rental_uris":{"android":"levelo://app?vid=c31f5b0e-d798-4f12-be52-283c24a28126","ios":"levelo://app?vid=c31f5b0e-d798-4f12-be52-283c24a28126"},"vehicle_type_id":"4","last_reported":1760195304,"current_range_meters":0,"station_id":"st_cvj6sg6p6f1abm77japg","pricing_plan_id":"cebpf4jnsgd1na2vs0mg"},{"bike_id":"6789b0b1-4cdb-4364-8db0-2230f3507239","system_id":"levelo_inurba_marseille","lat":43.29472,"lon":5.43318,"is_reserved":false,"is_disabled":true,"rental_uris":{"android":"levelo://app?vid=6789b0b1-4cdb-4364-8db0-2230f3507239","ios":"levelo://app?vid=6789b0b1-4cdb-4364-8db0-2230f3507239"},"vehicle_type_id":"4","last_reported":1760195304,"current_range_meters":0,"station_id":"st_d3j5ugp08ojc73fj9d10","pricing_plan_id":"cebpf4jnsgd1na2vs0mg"},{"bike_id":"1d6245e4-562b-49a1-9e17-90a195bca958","system_id":"levelo_inurba_marseille","lat":43.22531,"lon":5.3484,"is_reserved":false,"is_disabled":true,"rental_uris":{"android":"levelo://app?vid=1d6245e4-562b-49a1-9e17-90a195bca958","ios":"levelo://app?vid=1d6245e4-562b-49a1-9e17-90a195bca958"},"vehicle_type_id":"4","last_reported":1760195304,"current_range_meters":400,"station_id":"","pricing_plan_id":"cebpf4jnsgd1na2vs0mg"},{"bike_id":"08dc4a41-6931-4794-b66f-3bdfc97c12c5","system_id":"levelo_inurba_marseille","lat":43.28677,"lon":5.351722,"is_reserved":false,"is_disabled":true,"rental_uris":{"android":"levelo://app?vid=08dc4a41-6931-4794-b66f-3bdfc97c12c5","ios":"levelo://app?vid=08dc4a41-6931-4794-b66f-3bdfc97c12c5"},"vehicle_type_id":"4","last_reported":1760195304,"current_range_meters":400,"station_id":"","pricing_plan_id":"cebpf4jnsgd1na2vs0mg"},{"bike_id":"4fa2e4f5-97b5-45b1-b203-93168b32327a","system_id":"levelo_inurba_marseille","lat":43.301283,"lon":5.387787,"is_reserved":false,"is_disabled":true,"rental_uris":{"android":"levelo://app?vid=4fa2e4f5-97b5-45b1-b203-93168b32327a","ios":"levelo://app?vid=4fa2e4f5-97b5-45b1-b203-93168b32327a"},"vehicle_type_id":"4","last_reported":1760195304,"current_range_meters":400,"station_id":"ce4bghh2rcd13ifvqb60","pricing_plan_id":"cebpf4jnsgd1na2vs0mg"},{"bike_id":"c85628bb-898c-4dfb-9315-8d57746cbac2","system_id":"levelo_inurba_marseille","lat":43.30291,"lon":5.400674,"is_reserved":false,"is_disabled":true,"rental_uris":{"android":"levelo://app?vid=c85628bb-898c-4dfb-9315-8d57746cbac2","ios":"levelo://app?vid=c85628bb-898c-4dfb-9315-8d57746cbac2"},"vehicle_type_id":"4","last_reported":1760195304,"current_range_meters":400,"station_id":"ce4bgvh2rcd13ifvqcs0","pricing_plan_id":"cebpf4jnsgd1na2vs0mg"},{"bike_id":"f9a23fe4-55b6-45e4-a551-978222013469","system_id":"levelo_inurba_marseille","lat":43.28717,"lon":5.37941,"is_reserved":false,"is_disabled":true,"rental_uris":{"android":"levelo://app?vid=f9a23fe4-55b6-45e4-a551-978222013469","ios":"levelo://app?vid=f9a23fe4-55b6-45e4-a551-978222013469"},"vehicle_type_id":"4","last_reported":1760195304,"current_range_meters":400,"station_id":"ce4bh9p2rcd13ifvqec0","pricing_plan_id":"cebpf4jnsgd1na2vs0mg"},{"bike_id":"0a138a69-804e-4a3a-ae0d-3fe3da1fb32d","system_id":"levelo_inurba_marseille","lat":43.23156,"lon":5.43704,"is_reserved":false,"is_disabled":true,"rental_uris":{"android":"levelo://app?vid=0a138a69-804e-4a3a-ae0d-3fe3da1fb32d","ios":"levelo://app?vid=0a138a69-804e-4a3a-ae0d-3fe3da1fb32d"},"vehicle_type_id":"4","last_reported":1760195304,"current_range_meters":400,"station_id":"ce4bhmp2rcd13ifvqgog","pricing_plan_id":"cebpf4jnsgd1na2vs0mg"},{"bike_id":"b2e2b38d-36f4-4e15-986e-723132819a60","system_id":"levelo_inurba_marseille","lat":43.308,"lon":5.43547,"is_reserved":false,"is_disabled":true,"rental_uris":{"android":"levelo://app?vid=b2e2b38d-36f4-4e15-986e-723132819a60","ios":"levelo://app?vid=b2e2b38d-36f4-4e15-986e-723132819a60"},"vehicle_type_id":"4","last_reported":1760195304,"current_range_meters":400,"station_id":"ce4bhph2rcd13ifvqheg","pricing_plan_id":"cebpf4jnsgd1na2vs0mg"},{"bike_id":"42d2a5e7-b5ff-453e-8a38-f0282a01ae83","system_id":"levelo_inurba_marseille","lat":43.29984,"lon":5.38485,"is_reserved":false,"is_disabled":true,"rental_uris":{"android":"levelo://app?vid=42d2a5e7-b5ff-453e-8a38-f0282a01ae83","ios":"levelo://app?vid=42d2a5e7-b5ff-453e-8a38-f0282a01ae83"},"vehicle_type_id":"4","last_reported":1760195304,"current_range_meters":800,"station_id":"ce4bgj92rcd13ifvqbd0","pricing_plan_id":"cebpf4jnsgd1na2vs0mg"},{"bike_id":"21f01213-6ecd-4d6c-8e52-eaf0d9711e7c","system_id":"levelo_inurba_marseille","lat":43.297849,"lon":5.370985,"is_reserved":false,"is_disabled":true,"rental_uris":{"android":"levelo://app?vid=21f01213-6ecd-4d6c-8e52-eaf0d9711e7c","ios":"levelo://app?vid=21f01213-6ecd-4d6c-8e52-eaf0d9711e7c"},"vehicle_type_id":"4","last_reported":1760195304,"current_range_meters":800,"station_id":"ce4bgop2rcd13ifvqc1g","pricing_plan_id":"cebpf4jnsgd1na2vs0mg"},{"bike_id":"55235efc-de11-4634-baae-47940b7b4136","system_id":"levelo_inurba_marseille","lat":43.29186,"lon":5.35803,"is_reserved":false,"is_disabled":true,"rental_uris":{"android":"levelo://app?vid=55235efc-de11-4634-baae-47940b7b4136","ios":"levelo://app?vid=55235efc-de11-4634-baae-47940b7b4136"},"vehicle_type_id":"4","last_reported":1760195304,"current_range_meters":800,"station_id":"ce4bhb12rcd13ifvqel0","pricing_plan_id":"cebpf4jnsgd1na2vs0mg"},{"bike_id":"92000d44-524e-499d-b2f2-9180086115d4","system_id":"levelo_inurba_marseille","lat":43.30951,"lon":5.39035,"is_reserved":false,"is_disabled":true,"rental_uris":{"android":"levelo://app?vid=92000d44-524e-499d-b2f2-9180086115d4","ios":"levelo://app?vid=92000d44-524e-499d-b2f2-9180086115d4"},"vehicle_type_id":"4","last_reported":1760195304,"current_range_meters":1200,"station_id":"ce4bgup2rcd13ifvqco0","pricing_plan_id":"cebpf4jnsgd1na2vs0mg"},{"bike_id":"1fdae43f-41ba-4516-96f2-e5b9b0f4171a","system_id":"levelo_inurba_marseille","lat":43.292778,"lon":5.368467,"is_reserved":false,"is_disabled":true,"rental_uris":{"android":"levelo://app?vid=1fdae43f-41ba-4516-96f2-e5b9b0f4171a","ios":"levelo://app?vid=1fdae43f-41ba-4516-96f2-e5b9b0f4171a"},"vehicle_type_id":"4","last_reported":1760195304,"current_range_meters":1200,"station_id":"ce4bhbp2rcd13ifvqesg","pricing_plan_id":"cebpf4jnsgd1na2vs0mg"},{"bike_id":"f9393001-3c65-48bd-ae4e-67982ba4ca22","system_id":"levelo_inurba_marseille","lat":43.21757,"lon":5.34596,"is_reserved":false,"is_disabled":true,"rental_uris":{"android":"levelo://app?vid=f9393001-3c65-48bd-ae4e-67982ba4ca22","ios":"levelo://app?vid=f9393001-3c65-48bd-ae4e-67982ba4ca22"},"vehicle_type_id":"4","last_reported":1760195304,"current_range_meters":1200,"station_id":"st_cvj6r9ubvosntc0bgbag","pricing_plan_id":"cebpf4jnsgd1na2vs0mg"},{"bike_id":"cf1f5b36-e546-40a1-9eae-40b1d47bbe02","system_id":"levelo_inurba_marseille","lat":43.217511,"lon":5.346067,"is_reserved":false,"is_disabled":true,"rental_uris":{"android":"levelo://app?vid=cf1f5b36-e546-40a1-9eae-40b1d47bbe02","ios":"levelo://app?vid=cf1f5b36-e546-40a1-9eae-40b1d47bbe02"},"vehicle_type_id":"4","last_reported":1760195304,"current_range_meters":1200,"station_id":"st_cvj6r9ubvosntc0bgbag","pricing_plan_id":"cebpf4jnsgd1na2vs0mg"},{"bike_id":"cea86c27-65ef-440c-9a24-11ebce41366d","system_id":"levelo_inurba_marseille","lat":43.29569,"lon":5.37518,"is_reserved":false,"is_disabled":true,"rental_uris":{"android":"levelo://app?vid=cea86c27-65ef-440c-9a24-11ebce41366d","ios":"levelo://app?vid=cea86c27-65ef-440c-9a24-11ebce41366d"},"vehicle_type_id":"4","last_reported":1760195304,"current_range_meters":1600,"station_id":"ce4bgh92rcd13ifvqb50","pricing_plan_id":"cebpf4jnsgd1na2vs0mg"},{"bike_id":"24ea591a-28b7-4503-8e35-5bcb2bde16e7","system_id":"levelo_inurba_marseille","lat":43.29803,"lon":5.38099,"is_reserved":false,"is_disabled":true,"rental_uris":{"android":"levelo://app?vid=24ea591a-28b7-4503-8e35-5bcb2bde16e7","ios":"levelo://app?vid=24ea591a-28b7-4503-8e35-5bcb2bde16e7"},"vehicle_type_id":"4","last_reported":1760195304,"current_range_meters":1600,"station_id":"ce4bgip2rcd13ifvqbb0","pricing_plan_id":"cebpf4jnsgd1na2vs0mg"},{"bike_id":"e139fc7d-43b8-4d24-b264-3f16a28b65ed","system_id":"levelo_inurba_marseille","lat":43.29788,"lon":5.37115,"is_reserved":false,"is_disabled":true,"rental_uris":{"android":"levelo://app?vid=e139fc7d-43b8-4d24-b264-3f16a28b65ed","ios":"levelo://app?vid=e139fc7d-43b8-4d24-b264-3f16a28b65ed"},"vehicle_type_id":"4","last_reported":1760195304,"current_range_meters":1600,"station_id":"ce4bgop2rcd13ifvqc1g","pricing_plan_id":"cebpf4jnsgd1na2vs0mg"},{"bike_id":"4de9bb2c-153d-477b-bb89-ff8edd4891d6","system_id":"levelo_inurba_marseille","lat":43.3137,"lon":5.38492,"is_reserved":false,"is_disabled":true,"rental_uris":{"android":"levelo://app?vid=4de9bb2c-153d-477b-bb89-ff8edd4891d6","ios":"levelo://app?vid=4de9bb2c-153d-477b-bb89-ff8edd4891d6"},"vehicle_type_id":"4","last_reported":1760195304,"current_range_meters":1600,"station_id":"ce4bgt92rcd13ifvqcf0","pricing_plan_id":"cebpf4jnsgd1na2vs0mg"},{"bike_id":"07f0252c-eee9-4f4f-a803-1de12836cbd0","system_id":"levelo_inurba_marseille","lat":43.26192,"lon":5.37458,"is_reserved":false,"is_disabled":true,"rental_uris":{"android":"levelo://app?vid=07f0252c-eee9-4f4f-a803-1de12836cbd0","ios":"levelo://app?vid=07f0252c-eee9-4f4f-a803-1de12836cbd0"},"vehicle_type_id":"4","last_reported":1760195304,"current_range_meters":1600,"station_id":"ce4bhgp2rcd13ifvqfc0","pricing_plan_id":"cebpf4jnsgd1na2vs0mg"},{"bike_id":"48a0041b-83a8-40b4-8366-8550bbaec9ea","system_id":"levelo_inurba_marseille","lat":43.211899,"lon":5.350787,"is_reserved":false,"is_disabled":true,"rental_uris":{"android":"levelo://app?vid=48a0041b-83a8-40b4-8366-8550bbaec9ea","ios":"levelo://app?vid=48a0041b-83a8-40b4-8366-8550bbaec9ea"},"vehicle_type_id":"4","last_reported":1760195304,"current_range_meters":1600,"station_id":"st_cvj6sg6p6f1abm77japg","pricing_plan_id":"cebpf4jnsgd1na2vs0mg"},{"bike_id":"4145483a-160e-4c4e-afe7-7a3c64fe7073","system_id":"levelo_inurba_marseille","lat":43.2991,"lon":5.3814,"is_reserved":false,"is_disabled":false,"rental_uris":{"android":"levelo://app?vid=4145483a-160e-4c4e-afe7-7a3c64fe7073","ios":"levelo://app?vid=4145483a-160e-4c4e-afe7-7a3c64fe7073"},"vehicle_type_id":"4","last_reported":1760195304,"current_range_meters":2000,"station_id":"ce4bgj12rcd13ifvqbc0","pricing_plan_id":"cebpf4jnsgd1na2vs0mg"},{"bike_id":"d041812c-2d38-4842-a8de-d189b65515fd","system_id":"levelo_inurba_marseille","lat":43.286163,"lon":5.351089,"is_reserved":false,"is_disabled":false,"rental_uris":{"android":"levelo://app?vid=d041812c-2d38-4842-a8de-d189b65515fd","ios":"levelo://app?vid=d041812c-2d38-4842-a8de-d189b65515fd"},"vehicle_type_id":"4","last_reported":1760195304,"current_range_meters":2000,"station_id":"ce4bhch2rcd13ifvqeug","pricing_plan_id":"cebpf4jnsgd1na2vs0mg"},{"bike_id":"040d0bdc-f00a-40f5-8462-9d7fff112d0c","system_id":"levelo_inurba_marseille","lat":43.29804,"lon":5.38101,"is_reserved":false,"is_disabled":false,"rental_uris":{"android":"levelo://app?vid=040d0bdc-f00a-40f5-8462-9d7fff112d0c","ios":"levelo://app?vid=040d0bdc-f00a-40f5-8462-9d7fff112d0c"},"vehicle_type_id":"4","last_reported":1760195304,"current_range_meters":2800,"station_id":"ce4bgip2rcd13ifvqbb0","pricing_plan_id":"cebpf4jnsgd1na2vs0mg"},{"bike_id":"7cc73868-b612-4065-9aa9-366c69c73bb9","system_id":"levelo_inurba_marseille","lat":43.28851,"lon":5.39312,"is_reserved":false,"is_disabled":false,"rental_uris":{"android":"levelo://app?vid=7cc73868-b612-4065-9aa9-366c69c73bb9","ios":"levelo://app?vid=7cc73868-b612-4065-9aa9-366c69c73bb9"},"vehicle_type_id":"4","last_reported":1760195304,"current_range_meters":2800,"station_id":"ce4bh2p2rcd13ifvqdi0","pricing_plan_id":"cebpf4jnsgd1na2vs0mg"},{"bike_id":"e81a1a7e-9167-4db4-a233-fbfd89523b63","system_id":"levelo_inurba_marseille","lat":43.2926,"lon":5.38447,"is_reserved":false,"is_disabled":true,"rental_uris":{"android":"levelo://app?vid=e81a1a7e-9167-4db4-a233-fbfd89523b63","ios":"levelo://app?vid=e81a1a7e-9167-4db4-a233-fbfd89523b63"},"vehicle_type_id":"4","last_reported":1760195304,"current_range_meters":2800,"station_id":"ce4bh692rcd13ifvqea0","pricing_plan_id":"cebpf4jnsgd1na2vs0mg"},{"bike_id":"c98c2672-1a8d-4af6-bfc1-d51e2319ad2a","system_id":"levelo_inurba_marseille","lat":43.29011,"lon":5.35617,"is_reserved":false,"is_disabled":false,"rental_uris":{"android":"levelo://app?vid=c98c2672-1a8d-4af6-bfc1-d51e2319ad2a","ios":"levelo://app?vid=c98c2672-1a8d-4af6-bfc1-d51e2319ad2a"},"vehicle_type_id":"4","last_reported":1760195304,"current_range_meters":2800,"station_id":"ce4bhb92rcd13ifvqen0","pricing_plan_id":"cebpf4jnsgd1na2vs0mg"},{"bike_id":"125f34af-c5a7-40d9-8006-727e94cf79fa","system_id":"levelo_inurba_marseille","lat":43.2797,"lon":5.38741,"is_reserved":false,"is_disabled":false,"rental_uris":{"android":"levelo://app?vid=125f34af-c5a7-40d9-8006-727e94cf79fa","ios":"levelo://app?vid=125f34af-c5a7-40d9-8006-727e94cf79fa"},"vehicle_type_id":"4","last_reported":1760195304,"current_range_meters":2800,"station_id":"ce4bhg12rcd13ifvqf80","pricing_plan_id":"cebpf4jnsgd1na2vs0mg"},{"bike_id":"010da691-080c-4931-884e-6b2644b3c21c","system_id":"levelo_inurba_marseille","lat":43.293106,"lon":5.371658,"is_reserved":false,"is_disabled":false,"rental_uris":{"android":"levelo://app?vid=010da691-080c-4931-884e-6b2644b3c21c","ios":"levelo://app?vid=010da691-080c-4931-884e-6b2644b3c21c"},"vehicle_type_id":"4","last_reported":1760195304,"current_range_meters":3200,"station_id":"ce4bgj92rcd13ifvqbd0","pricing_plan_id":"cebpf4jnsgd1na2vs0mg"},{"bike_id":"06971e3a-7890-4751-9d89-fa524456daf7","system_id":"levelo_inurba_marseille","lat":43.28673,"lon":5.36362,"is_reserved":false,"is_disabled":false,"rental_uris":{"android":"levelo://app?vid=06971e3a-7890-4751-9d89-fa524456daf7","ios":"levelo://app?vid=06971e3a-7890-4751-9d89-fa524456daf7"},"vehicle_type_id":"4","last_reported":1760195304,"current_range_meters":3200,"station_id":"ce4bhah2rcd13ifvqej0","pricing_plan_id":"cebpf4jnsgd1na2vs0mg"},{"bike_id":"aaedb8ee-8709-4852-9b77-657de6404844","system_id":"levelo_inurba_marseille","lat":43.292269,"lon":5.360595,"is_reserved":false,"is_disabled":false,"rental_uris":{"android":"levelo://app?vid=aaedb8ee-8709-4852-9b77-657de6404844","ios":"levelo://app?vid=aaedb8ee-8709-4852-9b77-657de6404844"},"vehicle_type_id":"4","last_reported":1760195304,"current_range_meters":3200,"station_id":"ce4bhbh2rcd13ifvqeqg","pricing_plan_id":"cebpf4jnsgd1na2vs0mg"},{"bike_id":"bd84c189-150d-4268-9092-ae3d74acc80e","system_id":"levelo_inurba_marseille","lat":43.25118,"lon":5.40319,"is_reserved":false,"is_disabled":false,"rental_uris":{"android":"levelo://app?vid=bd84c189-150d-4268-9092-ae3d74acc80e","ios":"levelo://app?vid=bd84c189-150d-4268-9092-ae3d74acc80e"},"vehicle_type_id":"4","last_reported":1760195304,"current_range_meters":3200,"station_id":"ce4bhlh2rcd13ifvqgig","pricing_plan_id":"cebpf4jnsgd1na2vs0mg"},{"bike_id":"31cba278-d871-4092-b44e-e9129906bd61","system_id":"levelo_inurba_marseille","lat":43.282174,"lon":5.390595,"is_reserved":false,"is_disabled":false,"rental_uris":{"android":"levelo://app?vid=31cba278-d871-4092-b44e-e9129906bd61","ios":"levelo://app?vid=31cba278-d871-4092-b44e-e9129906bd61"},"vehicle_type_id":"4","last_reported":1760195304,"current_range_meters":3200,"station_id":"ce4bhn92rcd13ifvqgsg","pricing_plan_id":"cebpf4jnsgd1na2vs0mg"},{"bike_id":"9784b591-0d34-48c6-acb3-039f892d0a3d","system_id":"levelo_inurba_marseille","lat":43.211934,"lon":5.350798,"is_reserved":false,"is_disabled":false,"rental_uris":{"android":"levelo://app?vid=9784b591-0d34-48c6-acb3-039f892d0a3d","ios":"levelo://app?vid=9784b591-0d34-48c6-acb3-039f892d0a3d"},"vehicle_type_id":"4","last_reported":1760195304,"current_range_meters":3200,"station_id":"st_cvj6sg6p6f1abm77japg","pricing_plan_id":"cebpf4jnsgd1na2vs0mg"},{"bike_id":"7711489a-d0e1-4be4-b948-6b2f8e9214af","system_id":"levelo_inurba_marseille","lat":43.29845,"lon":5.36283,"is_reserved":false,"is_disabled":false,"rental_uris":{"android":"levelo://app?vid=7711489a-d0e1-4be4-b948-6b2f8e9214af","ios":"levelo://app?vid=7711489a-d0e1-4be4-b948-6b2f8e9214af"},"vehicle_type_id":"4","last_reported":1760195304,"current_range_meters":3600,"station_id":"ce4bgpp2rcd13ifvqc3g","pricing_plan_id":"cebpf4jnsgd1na2vs0mg"},{"bike_id":"63bba823-bc8a-4e00-8499-1ee9eb9d742f","system_id":"levelo_inurba_marseille","lat":43.292635,"lon":5.384488,"is_reserved":false,"is_disabled":false,"rental_uris":{"android":"levelo://app?vid=63bba823-bc8a-4e00-8499-1ee9eb9d742f","ios":"levelo://app?vid=63bba823-bc8a-4e00-8499-1ee9eb9d742f"},"vehicle_type_id":"4","last_reported":1760195304,"current_range_meters":3600,"station_id":"ce4bh692rcd13ifvqea0","pricing_plan_id":"cebpf4jnsgd1na2vs0mg"},{"bike_id":"9ad2dcbf-3b11-4464-96e0-a51f5f0d5705","system_id":"levelo_inurba_marseille","lat":43.29,"lon":5.35627,"is_reserved":false,"is_disabled":false,"rental_uris":{"android":"levelo://app?vid=9ad2dcbf-3b11-4464-96e0-a51f5f0d5705","ios":"levelo://app?vid=9ad2dcbf-3b11-4464-96e0-a51f5f0d5705"},"vehicle_type_id":"4","last_reported":1760195304,"current_range_meters":3600,"station_id":"ce4bhb92rcd13ifvqen0","pricing_plan_id":"cebpf4jnsgd1na2vs0mg"},{"bike_id":"38266ca9-5483-4cb3-a7ae-053b4f318c7f","system_id":"levelo_inurba_marseille","lat":43.26208,"lon":5.37445,"is_reserved":false,"is_disabled":false,"rental_uris":{"android":"levelo://app?vid=38266ca9-5483-4cb3-a7ae-053b4f318c7f","ios":"levelo://app?vid=38266ca9-5483-4cb3-a7ae-053b4f318c7f"},"vehicle_type_id":"4","last_reported":1760195304,"current_range_meters":3600,"station_id":"ce4bhgp2rcd13ifvqfc0","pricing_plan_id":"cebpf4jnsgd1na2vs0mg"},{"bike_id":"0101f3c8-6371-4da7-94d9-7357628de5c2","system_id":"levelo_inurba_marseille","lat":43.26802,"lon":5.40271,"is_reserved":false,"is_disabled":false,"rental_uris":{"android":"levelo://app?vid=0101f3c8-6371-4da7-94d9-7357628de5c2","ios":"levelo://app?vid=0101f3c8-6371-4da7-94d9-7357628de5c2"},"vehicle_type_id":"4","last_reported":1760195304,"current_range_meters":3600,"station_id":"ce501612rcd8frsf0b60","pricing_plan_id":"cebpf4jnsgd1na2vs0mg"},{"bike_id":"b4c4fda1-fb43-4b7f-a7a8-fed7f85312d3","system_id":"levelo_inurba_marseille","lat":43.249793,"lon":5.404776,"is_reserved":false,"is_disabled":false,"rental_uris":{"android":"levelo://app?vid=b4c4fda1-fb43-4b7f-a7a8-fed7f85312d3","ios":"levelo://app?vid=b4c4fda1-fb43-4b7f-a7a8-fed7f85312d3"},"vehicle_type_id":"4","last_reported":1760195304,"current_range_meters":3600,"station_id":"st_d2ngiaodas8pm72gd1h0","pricing_plan_id":"cebpf4jnsgd1na2vs0mg"},{"bike_id":"1508e37c-ddee-4fca-a836-8777a02263a4","system_id":"levelo_inurba_marseille","lat":43.297229,"lon":5.380115,"is_reserved":false,"is_disabled":false,"rental_uris":{"android":"levelo://app?vid=1508e37c-ddee-4fca-a836-8777a02263a4","ios":"levelo://app?vid=1508e37c-ddee-4fca-a836-8777a02263a4"},"vehicle_type_id":"4","last_reported":1760195304,"current_range_meters":4000,"station_id":"","pricing_plan_id":"cebpf4jnsgd1na2vs0mg"},{"bike_id":"8df01c40-6fec-48bd-b05c-6901354cbdf9","system_id":"levelo_inurba_marseille","lat":43.29591,"lon":5.37709,"is_reserved":false,"is_disabled":false,"rental_uris":{"android":"levelo://app?vid=8df01c40-6fec-48bd-b05c-6901354cbdf9","ios":"levelo://app?vid=8df01c40-6fec-48bd-b05c-6901354cbdf9"},"vehicle_type_id":"4","last_reported":1760195304,"current_range_meters":4000,"station_id":"ce4bgi92rcd13ifvqb90","pricing_plan_id":"cebpf4jnsgd1na2vs0mg"},{"bike_id":"218e3d6e-fee9-426b-9b39-54523ed55d53","system_id":"levelo_inurba_marseille","lat":43.3013,"lon":5.398599,"is_reserved":false,"is_disabled":false,"rental_uris":{"android":"levelo://app?vid=218e3d6e-fee9-426b-9b39-54523ed55d53","ios":"levelo://app?vid=218e3d6e-fee9-426b-9b39-54523ed55d53"},"vehicle_type_id":"4","last_reported":1760195304,"current_range_meters":4400,"station_id":"ce4bh0h2rcd13ifvqd40","pricing_plan_id":"cebpf4jnsgd1na2vs0mg"},{"bike_id":"d4cb48c9-ba37-44be-9bac-a0f456db096c","system_id":"levelo_inurba_marseille","lat":43.27427,"lon":5.39424,"is_reserved":false,"is_disabled":false,"rental_uris":{"android":"levelo://app?vid=d4cb48c9-ba37-44be-9bac-a0f456db096c","ios":"levelo://app?vid=d4cb48c9-ba37-44be-9bac-a0f456db096c"},"vehicle_type_id":"4","last_reported":1760195304,"current_range_meters":4400,"station_id":"ce4bhdp2rcd13ifvqf20","pricing_plan_id":"cebpf4jnsgd1na2vs0mg"},{"bike_id":"fe5989d7-1613-4059-8665-33a03b342cf3","system_id":"levelo_inurba_marseille","lat":43.23961,"lon":5.36634,"is_reserved":false,"is_disabled":false,"rental_uris":{"android":"levelo://app?vid=fe5989d7-1613-4059-8665-33a03b342cf3","ios":"levelo://app?vid=fe5989d7-1613-4059-8665-33a03b342cf3"},"vehicle_type_id":"4","last_reported":1760195304,"current_range_meters":4400,"station_id":"ce4bhi12rcd13ifvqfp0","pricing_plan_id":"cebpf4jnsgd1na2vs0mg"},{"bike_id":"f837f1d3-2641-403e-bf90-2324e47a7390","system_id":"levelo_inurba_marseille","lat":43.29762,"lon":5.42785,"is_reserved":false,"is_disabled":false,"rental_uris":{"android":"levelo://app?vid=f837f1d3-2641-403e-bf90-2324e47a7390","ios":"levelo://app?vid=f837f1d3-2641-403e-bf90-2324e47a7390"},"vehicle_type_id":"4","last_reported":1760195304,"current_range_meters":4800,"station_id":"","pricing_plan_id":"cebpf4jnsgd1na2vs0mg"},{"bike_id":"592ff116-1c39-4712-8a02-62c1a90ce181","system_id":"levelo_inurba_marseille","lat":43.322909,"lon":5.38268,"is_reserved":false,"is_disabled":false,"rental_uris":{"android":"levelo://app?vid=592ff116-1c39-4712-8a02-62c1a90ce181","ios":"levelo://app?vid=592ff116-1c39-4712-8a02-62c1a90ce181"},"vehicle_type_id":"4","last_reported":1760195304,"current_range_meters":4800,"station_id":"ce4bhr12rcd13ifvqhqg","pricing_plan_id":"cebpf4jnsgd1na2vs0mg"},{"bike_id":"c248e8fe-baaa-4f12-923e-02c09c046a9b","system_id":"levelo_inurba_marseille","lat":43.25341,"lon":5.42168,"is_reserved":false,"is_disabled":false,"rental_uris":{"android":"levelo://app?vid=c248e8fe-baaa-4f12-923e-02c09c046a9b","ios":"levelo://app?vid=c248e8fe-baaa-4f12-923e-02c09c046a9b"},"vehicle_type_id":"4","last_reported":1760195304,"current_range_meters":4800,"station_id":"st_d2m65c5bi1j21697t3ng","pricing_plan_id":"cebpf4jnsgd1na2vs0mg"},{"bike_id":"4e272a65-2c55-4c5b-adba-368adfd89363","system_id":"levelo_inurba_marseille","lat":43.308008,"lon":5.381506,"is_reserved":false,"is_disabled":false,"rental_uris":{"android":"levelo://app?vid=4e272a65-2c55-4c5b-adba-368adfd89363","ios":"levelo://app?vid=4e272a65-2c55-4c5b-adba-368adfd89363"},"vehicle_type_id":"4","last_reported":1760195304,"current_range_meters":5600,"station_id":"ce4bgt12rcd13ifvqce0","pricing_plan_id":"cebpf4jnsgd1na2vs0mg"},{"bike_id":"c301db11-6ef0-4e9e-8c8d-62c63cd4dd34","system_id":"levelo_inurba_marseille","lat":43.28412,"lon":5.34995,"is_reserved":false,"is_disabled":false,"rental_uris":{"android":"levelo://app?vid=c301db11-6ef0-4e9e-8c8d-62c63cd4dd34","ios":"levelo://app?vid=c301db11-6ef0-4e9e-8c8d-62c63cd4dd34"},"vehicle_type_id":"4","last_reported":1760195304,"current_range_meters":5600,"station_id":"ce4bhbh2rcd13ifvqepg","pricing_plan_id":"cebpf4jnsgd1na2vs0mg"},{"bike_id":"079f7e82-784a-4633-b7f2-c7dbd5ba1d62","system_id":"levelo_inurba_marseille","lat":43.281761,"lon":5.426226,"is_reserved":false,"is_disabled":false,"rental_uris":{"android":"levelo://app?vid=079f7e82-784a-4633-b7f2-c7dbd5ba1d62","ios":"levelo://app?vid=079f7e82-784a-4633-b7f2-c7dbd5ba1d62"},"vehicle_type_id":"4","last_reported":1760195304,"current_range_meters":5600,"station_id":"ce4bhnh2rcd13ifvqgug","pricing_plan_id":"cebpf4jnsgd1na2vs0mg"},{"bike_id":"f63678ec-f285-4c30-9452-84be71327f26","system_id":"levelo_inurba_marseille","lat":43.301458,"lon":5.38084,"is_reserved":false,"is_disabled":false,"rental_uris":{"android":"levelo://app?vid=f63678ec-f285-4c30-9452-84be71327f26","ios":"levelo://app?vid=f63678ec-f285-4c30-9452-84be71327f26"},"vehicle_type_id":"4","last_reported":1760195304,"current_range_meters":6000,"station_id":"ce4bgjp2rcd13ifvqbh0","pricing_plan_id":"cebpf4jnsgd1na2vs0mg"},{"bike_id":"2aa97fa4-034d-4071-9cbf-f5a58edbba38","system_id":"levelo_inurba_marseille","lat":43.26206,"lon":5.3795,"is_reserved":false,"is_disabled":false,"rental_uris":{"android":"levelo://app?vid=2aa97fa4-034d-4071-9cbf-f5a58edbba38","ios":"levelo://app?vid=2aa97fa4-034d-4071-9cbf-f5a58edbba38"},"vehicle_type_id":"4","last_reported":1760195304,"current_range_meters":6000,"station_id":"ce4bhjp2rcd13ifvqg90","pricing_plan_id":"cebpf4jnsgd1na2vs0mg"},{"bike_id":"994a33a7-2943-4903-ba33-8f0d3daafc22","system_id":"levelo_inurba_marseille","lat":43.217462,"lon":5.346028,"is_reserved":false,"is_disabled":false,"rental_uris":{"android":"levelo://app?vid=994a33a7-2943-4903-ba33-8f0d3daafc22","ios":"levelo://app?vid=994a33a7-2943-4903-ba33-8f0d3daafc22"},"vehicle_type_id":"4","last_reported":1760195304,"current_range_meters":6400,"station_id":"","pricing_plan_id":"cebpf4jnsgd1na2vs0mg"},{"bike_id":"837d5740-de91-4e5c-9692-9f5df9b0b896","system_id":"levelo_inurba_marseille","lat":43.29616,"lon":5.37727,"is_reserved":false,"is_disabled":false,"rental_uris":{"android":"levelo://app?vid=837d5740-de91-4e5c-9692-9f5df9b0b896","ios":"levelo://app?vid=837d5740-de91-4e5c-9692-9f5df9b0b896"},"vehicle_type_id":"4","last_reported":1760195304,"current_range_meters":6400,"station_id":"ce4bgi92rcd13ifvqb90","pricing_plan_id":"cebpf4jnsgd1na2vs0mg"},{"bike_id":"d35dbf5c-d37c-41ca-9c90-fdb61c226d44","system_id":"levelo_inurba_marseille","lat":43.3095,"lon":5.39033,"is_reserved":false,"is_disabled":false,"rental_uris":{"android":"levelo://app?vid=d35dbf5c-d37c-41ca-9c90-fdb61c226d44","ios":"levelo://app?vid=d35dbf5c-d37c-41ca-9c90-fdb61c226d44"},"vehicle_type_id":"4","last_reported":1760195304,"current_range_meters":6400,"station_id":"ce4bgup2rcd13ifvqco0","pricing_plan_id":"cebpf4jnsgd1na2vs0mg"},{"bike_id":"33feb583-7f5b-428e-adfa-653046b46781","system_id":"levelo_inurba_marseille","lat":43.2862,"lon":5.35099,"is_reserved":false,"is_disabled":false,"rental_uris":{"android":"levelo://app?vid=33feb583-7f5b-428e-adfa-653046b46781","ios":"levelo://app?vid=33feb583-7f5b-428e-adfa-653046b46781"},"vehicle_type_id":"4","last_reported":1760195304,"current_range_meters":6400,"station_id":"ce4bhch2rcd13ifvqeug","pricing_plan_id":"cebpf4jnsgd1na2vs0mg"},{"bike_id":"92df305c-ffa2-450e-ba8b-cd5c97314125","system_id":"levelo_inurba_marseille","lat":43.3189,"lon":5.40744,"is_reserved":false,"is_disabled":false,"rental_uris":{"android":"levelo://app?vid=92df305c-ffa2-450e-ba8b-cd5c97314125","ios":"levelo://app?vid=92df305c-ffa2-450e-ba8b-cd5c97314125"},"vehicle_type_id":"4","last_reported":1760195304,"current_range_meters":6400,"station_id":"ce4bhq12rcd13ifvqhig","pricing_plan_id":"cebpf4jnsgd1na2vs0mg"},{"bike_id":"2bc038b1-519b-42b1-9bd4-7d2b97044996","system_id":"levelo_inurba_marseille","lat":43.29294,"lon":5.41063,"is_reserved":false,"is_disabled":false,"rental_uris":{"android":"levelo://app?vid=2bc038b1-519b-42b1-9bd4-7d2b97044996","ios":"levelo://app?vid=2bc038b1-519b-42b1-9bd4-7d2b97044996"},"vehicle_type_id":"4","last_reported":1760195304,"current_range_meters":6800,"station_id":"","pricing_plan_id":"cebpf4jnsgd1na2vs0mg"},{"bike_id":"40d70a86-fa16-4f1d-84ae-a1a2c7856a2a","system_id":"levelo_inurba_marseille","lat":43.284652,"lon":5.358914,"is_reserved":false,"is_disabled":false,"rental_uris":{"android":"levelo://app?vid=40d70a86-fa16-4f1d-84ae-a1a2c7856a2a","ios":"levelo://app?vid=40d70a86-fa16-4f1d-84ae-a1a2c7856a2a"},"vehicle_type_id":"4","last_reported":1760195304,"current_range_meters":6800,"station_id":"ce4bhah2rcd13ifvqei0","pricing_plan_id":"cebpf4jnsgd1na2vs0mg"},{"bike_id":"19110ecc-8fea-4451-8c6c-6ce8406488a5","system_id":"levelo_inurba_marseille","lat":43.28075,"lon":5.39653,"is_reserved":false,"is_disabled":false,"rental_uris":{"android":"levelo://app?vid=19110ecc-8fea-4451-8c6c-6ce8406488a5","ios":"levelo://app?vid=19110ecc-8fea-4451-8c6c-6ce8406488a5"},"vehicle_type_id":"4","last_reported":1760195304,"current_range_meters":6800,"station_id":"ce4bho12rcd13ifvqh2g","pricing_plan_id":"cebpf4jnsgd1na2vs0mg"},{"bike_id":"0a8dd9e1-3548-443b-b11a-d2414f9b848d","system_id":"levelo_inurba_marseille","lat":43.21194,"lon":5.35075,"is_reserved":false,"is_disabled":false,"rental_uris":{"android":"levelo://app?vid=0a8dd9e1-3548-443b-b11a-d2414f9b848d","ios":"levelo://app?vid=0a8dd9e1-3548-443b-b11a-d2414f9b848d"},"vehicle_type_id":"4","last_reported":1760195304,"current_range_meters":6800,"station_id":"st_cvj6sg6p6f1abm77japg","pricing_plan_id":"cebpf4jnsgd1na2vs0mg"},{"bike_id":"e9e42d2d-7e53-4efc-b575-031b106766c7","system_id":"levelo_inurba_marseille","lat":43.297386,"lon":5.36875,"is_reserved":false,"is_disabled":false,"rental_uris":{"android":"levelo://app?vid=e9e42d2d-7e53-4efc-b575-031b106766c7","ios":"levelo://app?vid=e9e42d2d-7e53-4efc-b575-031b106766c7"},"vehicle_type_id":"4","last_reported":1760195304,"current_range_meters":7200,"station_id":"","pricing_plan_id":"cebpf4jnsgd1na2vs0mg"},{"bike_id":"76789409-f6e2-4e12-9217-f70a36fb068c","system_id":"levelo_inurba_marseille","lat":43.26584,"lon":5.39043,"is_reserved":false,"is_disabled":false,"rental_uris":{"android":"levelo://app?vid=76789409-f6e2-4e12-9217-f70a36fb068c","ios":"levelo://app?vid=76789409-f6e2-4e12-9217-f70a36fb068c"},"vehicle_type_id":"4","last_reported":1760195304,"current_range_meters":7200,"station_id":"ce4bhe12rcd13ifvqf30","pricing_plan_id":"cebpf4jnsgd1na2vs0mg"},{"bike_id":"876f9ce8-1981-468a-8e8b-ae83f3fd4fde","system_id":"levelo_inurba_marseille","lat":43.26054,"lon":5.39393,"is_reserved":false,"is_disabled":false,"rental_uris":{"android":"levelo://app?vid=876f9ce8-1981-468a-8e8b-ae83f3fd4fde","ios":"levelo://app?vid=876f9ce8-1981-468a-8e8b-ae83f3fd4fde"},"vehicle_type_id":"4","last_reported":1760195304,"current_range_meters":7200,"station_id":"ce4bhh92rcd13ifvqfj0","pricing_plan_id":"cebpf4jnsgd1na2vs0mg"},{"bike_id":"2c16514a-1925-4784-9fb8-87491e365bb2","system_id":"levelo_inurba_marseille","lat":43.2118,"lon":5.35083,"is_reserved":false,"is_disabled":false,"rental_uris":{"android":"levelo://app?vid=2c16514a-1925-4784-9fb8-87491e365bb2","ios":"levelo://app?vid=2c16514a-1925-4784-9fb8-87491e365bb2"},"vehicle_type_id":"4","last_reported":1760195304,"current_range_meters":7200,"station_id":"st_cvj6sg6p6f1abm77japg","pricing_plan_id":"cebpf4jnsgd1na2vs0mg"},{"bike_id":"b7844ae4-20d5-4d81-8f4d-cd146b6f58ee","system_id":"levelo_inurba_marseille","lat":43.31793,"lon":5.37673,"is_reserved":false,"is_disabled":false,"rental_uris":{"android":"levelo://app?vid=b7844ae4-20d5-4d81-8f4d-cd146b6f58ee","ios":"levelo://app?vid=b7844ae4-20d5-4d81-8f4d-cd146b6f58ee"},"vehicle_type_id":"4","last_reported":1760195304,"current_range_meters":8000,"station_id":"","pricing_plan_id":"cebpf4jnsgd1na2vs0mg"},{"bike_id":"fccc5c02-9c32-4584-9c15-f2a1f7790641","system_id":"levelo_inurba_marseille","lat":43.291697,"lon":5.371574,"is_reserved":false,"is_disabled":false,"rental_uris":{"android":"levelo://app?vid=fccc5c02-9c32-4584-9c15-f2a1f7790641","ios":"levelo://app?vid=fccc5c02-9c32-4584-9c15-f2a1f7790641"},"vehicle_type_id":"4","last_reported":1760195304,"current_range_meters":8000,"station_id":"ce4bha92rcd13ifvqeh0","pricing_plan_id":"cebpf4jnsgd1na2vs0mg"},{"bike_id":"68712bd8-87c4-490e-939e-c163fe45722f","system_id":"levelo_inurba_marseille","lat":43.28621,"lon":5.3511,"is_reserved":false,"is_disabled":false,"rental_uris":{"android":"levelo://app?vid=68712bd8-87c4-490e-939e-c163fe45722f","ios":"levelo://app?vid=68712bd8-87c4-490e-939e-c163fe45722f"},"vehicle_type_id":"4","last_reported":1760195304,"current_range_meters":8000,"station_id":"ce4bhch2rcd13ifvqeug","pricing_plan_id":"cebpf4jnsgd1na2vs0mg"},{"bike_id":"63ecdc77-d78b-4318-a835-c1c7466d47a0","system_id":"levelo_inurba_marseille","lat":43.28439,"lon":5.3921,"is_reserved":false,"is_disabled":false,"rental_uris":{"android":"levelo://app?vid=63ecdc77-d78b-4318-a835-c1c7466d47a0","ios":"levelo://app?vid=63ecdc77-d78b-4318-a835-c1c7466d47a0"},"vehicle_type_id":"4","last_reported":1760195304,"current_range_meters":8000,"station_id":"ce4bhoh2rcd13ifvqh5g","pricing_plan_id":"cebpf4jnsgd1na2vs0mg"},{"bike_id":"8ed6566a-bcc6-4096-9c83-c9aa8818fc6b","system_id":"levelo_inurba_marseille","lat":43.24946,"lon":5.40504,"is_reserved":false,"is_disabled":false,"rental_uris":{"android":"levelo://app?vid=8ed6566a-bcc6-4096-9c83-c9aa8818fc6b","ios":"levelo://app?vid=8ed6566a-bcc6-4096-9c83-c9aa8818fc6b"},"vehicle_type_id":"4","last_reported":1760195304,"current_range_meters":8000,"station_id":"st_d2ngiaodas8pm72gd1h0","pricing_plan_id":"cebpf4jnsgd1na2vs0mg"},{"bike_id":"7c1a4890-b9ac-4fe5-a571-cd86038dad29","system_id":"levelo_inurba_marseille","lat":43.26729,"lon":5.40149,"is_reserved":false,"is_disabled":false,"rental_uris":{"android":"levelo://app?vid=7c1a4890-b9ac-4fe5-a571-cd86038dad29","ios":"levelo://app?vid=7c1a4890-b9ac-4fe5-a571-cd86038dad29"},"vehicle_type_id":"4","last_reported":1760195304,"current_range_meters":8400,"station_id":"","pricing_plan_id":"cebpf4jnsgd1na2vs0mg"},{"bike_id":"7ecce9b3-6d8a-4b46-9e3e-06d9c28c905f","system_id":"levelo_inurba_marseille","lat":43.28919,"lon":5.39099,"is_reserved":false,"is_disabled":false,"rental_uris":{"android":"levelo://app?vid=7ecce9b3-6d8a-4b46-9e3e-06d9c28c905f","ios":"levelo://app?vid=7ecce9b3-6d8a-4b46-9e3e-06d9c28c905f"},"vehicle_type_id":"4","last_reported":1760195304,"current_range_meters":8400,"station_id":"","pricing_plan_id":"cebpf4jnsgd1na2vs0mg"},{"bike_id":"fd8c829c-c9d2-4b25-8e51-ab2c167c1d99","system_id":"levelo_inurba_marseille","lat":43.286133,"lon":5.351114,"is_reserved":false,"is_disabled":false,"rental_uris":{"android":"levelo://app?vid=fd8c829c-c9d2-4b25-8e51-ab2c167c1d99","ios":"levelo://app?vid=fd8c829c-c9d2-4b25-8e51-ab2c167c1d99"},"vehicle_type_id":"4","last_reported":1760195304,"current_range_meters":8400,"station_id":"ce4bhch2rcd13ifvqeug","pricing_plan_id":"cebpf4jnsgd1na2vs0mg"},{"bike_id":"f0f7eb1a-5d1d-4fcc-b459-f1368afdb4cc","system_id":"levelo_inurba_marseille","lat":43.27972,"lon":5.38738,"is_reserved":false,"is_disabled":false,"rental_uris":{"android":"levelo://app?vid=f0f7eb1a-5d1d-4fcc-b459-f1368afdb4cc","ios":"levelo://app?vid=f0f7eb1a-5d1d-4fcc-b459-f1368afdb4cc"},"vehicle_type_id":"4","last_reported":1760195304,"current_range_meters":8400,"station_id":"ce4bhg12rcd13ifvqf80","pricing_plan_id":"cebpf4jnsgd1na2vs0mg"},{"bike_id":"dbd9c613-4c7e-4a25-8006-d0111b69678a","system_id":"levelo_inurba_marseille","lat":43.24807,"lon":5.37459,"is_reserved":false,"is_disabled":false,"rental_uris":{"android":"levelo://app?vid=dbd9c613-4c7e-4a25-8006-d0111b69678a","ios":"levelo://app?vid=dbd9c613-4c7e-4a25-8006-d0111b69678a"},"vehicle_type_id":"4","last_reported":1760195304,"current_range_meters":8400,"station_id":"ce4bhgh2rcd13ifvqfb0","pricing_plan_id":"cebpf4jnsgd1na2vs0mg"},{"bike_id":"92a30c30-f0b8-473f-9db4-cad408eac6b7","system_id":"levelo_inurba_marseille","lat":43.21741,"lon":5.34605,"is_reserved":false,"is_disabled":false,"rental_uris":{"android":"levelo://app?vid=92a30c30-f0b8-473f-9db4-cad408eac6b7","ios":"levelo://app?vid=92a30c30-f0b8-473f-9db4-cad408eac6b7"},"vehicle_type_id":"4","last_reported":1760195304,"current_range_meters":8400,"station_id":"st_cvj6r9ubvosntc0bgbag","pricing_plan_id":"cebpf4jnsgd1na2vs0mg"},{"bike_id":"0458f03b-1910-440f-9167-c00670fba699","system_id":"levelo_inurba_marseille","lat":43.337444,"lon":5.374475,"is_reserved":false,"is_disabled":false,"rental_uris":{"android":"levelo://app?vid=0458f03b-1910-440f-9167-c00670fba699","ios":"levelo://app?vid=0458f03b-1910-440f-9167-c00670fba699"},"vehicle_type_id":"4","last_reported":1760195304,"current_range_meters":8800,"station_id":"","pricing_plan_id":"cebpf4jnsgd1na2vs0mg"},{"bike_id":"840f5367-4a8b-4bf8-aed3-ddf295d75be0","system_id":"levelo_inurba_marseille","lat":43.30428,"lon":5.371896,"is_reserved":false,"is_disabled":false,"rental_uris":{"android":"levelo://app?vid=840f5367-4a8b-4bf8-aed3-ddf295d75be0","ios":"levelo://app?vid=840f5367-4a8b-4bf8-aed3-ddf295d75be0"},"vehicle_type_id":"4","last_reported":1760195304,"current_range_meters":8800,"station_id":"","pricing_plan_id":"cebpf4jnsgd1na2vs0mg"},{"bike_id":"ef877401-ffd5-4083-aca8-87336bb34d83","system_id":"levelo_inurba_marseille","lat":43.24072,"lon":5.37772,"is_reserved":false,"is_disabled":false,"rental_uris":{"android":"levelo://app?vid=ef877401-ffd5-4083-aca8-87336bb34d83","ios":"levelo://app?vid=ef877401-ffd5-4083-aca8-87336bb34d83"},"vehicle_type_id":"4","last_reported":1760195304,"current_range_meters":8800,"station_id":"ce4bhnp2rcd13ifvqgvg","pricing_plan_id":"cebpf4jnsgd1na2vs0mg"},{"bike_id":"4a66ab73-019c-48c9-93dc-44f36e950063","system_id":"levelo_inurba_marseille","lat":43.286,"lon":5.37069,"is_reserved":false,"is_disabled":false,"rental_uris":{"android":"levelo://app?vid=4a66ab73-019c-48c9-93dc-44f36e950063","ios":"levelo://app?vid=4a66ab73-019c-48c9-93dc-44f36e950063"},"vehicle_type_id":"4","last_reported":1760195304,"current_range_meters":8800,"station_id":"ce4bht12rcd13ifvqi60","pricing_plan_id":"cebpf4jnsgd1na2vs0mg"},{"bike_id":"51bac8c7-c4f6-402f-97fb-eef6063c329e","system_id":"levelo_inurba_marseille","lat":43.295417,"lon":5.374652,"is_reserved":false,"is_disabled":false,"rental_uris":{"android":"levelo://app?vid=51bac8c7-c4f6-402f-97fb-eef6063c329e","ios":"levelo://app?vid=51bac8c7-c4f6-402f-97fb-eef6063c329e"},"vehicle_type_id":"4","last_reported":1760195304,"current_range_meters":9200,"station_id":"","pricing_plan_id":"cebpf4jnsgd1na2vs0mg"},{"bike_id":"01358a59-5079-423b-9114-407c09bc4a6b","system_id":"levelo_inurba_marseille","lat":43.314929,"lon":5.373126,"is_reserved":false,"is_disabled":false,"rental_uris":{"android":"levelo://app?vid=01358a59-5079-423b-9114-407c09bc4a6b","ios":"levelo://app?vid=01358a59-5079-423b-9114-407c09bc4a6b"},"vehicle_type_id":"4","last_reported":1760195304,"current_range_meters":9200,"station_id":"ce4bgt12rcd13ifvqcd0","pricing_plan_id":"cebpf4jnsgd1na2vs0mg"},{"bike_id":"65fa24b3-a3d3-4d7d-ac1c-9732d9b384b3","system_id":"levelo_inurba_marseille","lat":43.31487,"lon":5.37313,"is_reserved":false,"is_disabled":false,"rental_uris":{"android":"levelo://app?vid=65fa24b3-a3d3-4d7d-ac1c-9732d9b384b3","ios":"levelo://app?vid=65fa24b3-a3d3-4d7d-ac1c-9732d9b384b3"},"vehicle_type_id":"4","last_reported":1760195304,"current_range_meters":9200,"station_id":"ce4bgt12rcd13ifvqcd0","pricing_plan_id":"cebpf4jnsgd1na2vs0mg"},{"bike_id":"6fd6dea3-d148-4db8-86ca-bc606e7fc665","system_id":"levelo_inurba_marseille","lat":43.2829,"lon":5.35093,"is_reserved":false,"is_disabled":false,"rental_uris":{"android":"levelo://app?vid=6fd6dea3-d148-4db8-86ca-bc606e7fc665","ios":"levelo://app?vid=6fd6dea3-d148-4db8-86ca-bc606e7fc665"},"vehicle_type_id":"4","last_reported":1760195304,"current_range_meters":9200,"station_id":"ce4bhbp2rcd13ifvqerg","pricing_plan_id":"cebpf4jnsgd1na2vs0mg"},{"bike_id":"f84db39b-1588-467c-a7d6-3417c55d68b1","system_id":"levelo_inurba_marseille","lat":43.29367,"lon":5.37539,"is_reserved":false,"is_disabled":false,"rental_uris":{"android":"levelo://app?vid=f84db39b-1588-467c-a7d6-3417c55d68b1","ios":"levelo://app?vid=f84db39b-1588-467c-a7d6-3417c55d68b1"},"vehicle_type_id":"4","last_reported":1760195304,"current_range_meters":9600,"station_id":"","pricing_plan_id":"cebpf4jnsgd1na2vs0mg"},{"bike_id":"431c2e70-433d-4af0-acf4-957ec8670f40","system_id":"levelo_inurba_marseille","lat":43.2954,"lon":5.383068,"is_reserved":false,"is_disabled":false,"rental_uris":{"android":"levelo://app?vid=431c2e70-433d-4af0-acf4-957ec8670f40","ios":"levelo://app?vid=431c2e70-433d-4af0-acf4-957ec8670f40"},"vehicle_type_id":"4","last_reported":1760195304,"current_range_meters":9600,"station_id":"","pricing_plan_id":"cebpf4jnsgd1na2vs0mg"},{"bike_id":"e31197d2-16c3-47c1-9732-adca341dab17","system_id":"levelo_inurba_marseille","lat":43.28153,"lon":5.42652,"is_reserved":false,"is_disabled":false,"rental_uris":{"android":"levelo://app?vid=e31197d2-16c3-47c1-9732-adca341dab17","ios":"levelo://app?vid=e31197d2-16c3-47c1-9732-adca341dab17"},"vehicle_type_id":"4","last_reported":1760195304,"current_range_meters":9600,"station_id":"ce4bhnh2rcd13ifvqgug","pricing_plan_id":"cebpf4jnsgd1na2vs0mg"},{"bike_id":"9f9edaa2-34b7-4837-8925-898705819e49","system_id":"levelo_inurba_marseille","lat":43.323604,"lon":5.367607,"is_reserved":false,"is_disabled":false,"rental_uris":{"android":"levelo://app?vid=9f9edaa2-34b7-4837-8925-898705819e49","ios":"levelo://app?vid=9f9edaa2-34b7-4837-8925-898705819e49"},"vehicle_type_id":"4","last_reported":1760195304,"current_range_meters":9600,"station_id":"ce4bhsh2rcd13ifvqi2g","pricing_plan_id":"cebpf4jnsgd1na2vs0mg"},{"bike_id":"a091fa2a-de07-4635-870e-3375376348fb","system_id":"levelo_inurba_marseille","lat":43.30076,"lon":5.38642,"is_reserved":false,"is_disabled":false,"rental_uris":{"android":"levelo://app?vid=a091fa2a-de07-4635-870e-3375376348fb","ios":"levelo://app?vid=a091fa2a-de07-4635-870e-3375376348fb"},"vehicle_type_id":"4","last_reported":1760195304,"current_range_meters":10000,"station_id":"","pricing_plan_id":"cebpf4jnsgd1na2vs0mg"},{"bike_id":"7384215a-faba-4e5c-8ffb-41bc9a29201d","system_id":"levelo_inurba_marseille","lat":43.31362,"lon":5.38497,"is_reserved":false,"is_disabled":false,"rental_uris":{"android":"levelo://app?vid=7384215a-faba-4e5c-8ffb-41bc9a29201d","ios":"levelo://app?vid=7384215a-faba-4e5c-8ffb-41bc9a29201d"},"vehicle_type_id":"4","last_reported":1760195304,"current_range_meters":10000,"station_id":"ce4bgt92rcd13ifvqcf0","pricing_plan_id":"cebpf4jnsgd1na2vs0mg"},{"bike_id":"cc0d6f60-d32c-423e-9619-456e861cc1a1","system_id":"levelo_inurba_marseille","lat":43.28374,"lon":5.3864,"is_reserved":false,"is_disabled":false,"rental_uris":{"android":"levelo://app?vid=cc0d6f60-d32c-423e-9619-456e861cc1a1","ios":"levelo://app?vid=cc0d6f60-d32c-423e-9619-456e861cc1a1"},"vehicle_type_id":"4","last_reported":1760195304,"current_range_meters":10000,"station_id":"ce4bh492rcd13ifvqdvg","pricing_plan_id":"cebpf4jnsgd1na2vs0mg"},{"bike_id":"30acf71f-a928-4fd4-a5ec-cb82db0999ad","system_id":"levelo_inurba_marseille","lat":43.23964,"lon":5.36633,"is_reserved":false,"is_disabled":false,"rental_uris":{"android":"levelo://app?vid=30acf71f-a928-4fd4-a5ec-cb82db0999ad","ios":"levelo://app?vid=30acf71f-a928-4fd4-a5ec-cb82db0999ad"},"vehicle_type_id":"4","last_reported":1760195304,"current_range_meters":10000,"station_id":"ce4bhi12rcd13ifvqfp0","pricing_plan_id":"cebpf4jnsgd1na2vs0mg"},{"bike_id":"d0541185-1ae0-4b7a-85f0-f156ffc178f8","system_id":"levelo_inurba_marseille","lat":43.3201,"lon":5.41567,"is_reserved":false,"is_disabled":false,"rental_uris":{"android":"levelo://app?vid=d0541185-1ae0-4b7a-85f0-f156ffc178f8","ios":"levelo://app?vid=d0541185-1ae0-4b7a-85f0-f156ffc178f8"},"vehicle_type_id":"4","last_reported":1760195304,"current_range_meters":10000,"station_id":"ce4bhq92rcd13ifvqhkg","pricing_plan_id":"cebpf4jnsgd1na2vs0mg"},{"bike_id":"dfc9e92a-ceb3-4d95-aec4-74986e4d8600","system_id":"levelo_inurba_marseille","lat":43.24935,"lon":5.40485,"is_reserved":false,"is_disabled":false,"rental_uris":{"android":"levelo://app?vid=dfc9e92a-ceb3-4d95-aec4-74986e4d8600","ios":"levelo://app?vid=dfc9e92a-ceb3-4d95-aec4-74986e4d8600"},"vehicle_type_id":"4","last_reported":1760195304,"current_range_meters":10000,"station_id":"st_d2ngiaodas8pm72gd1h0","pricing_plan_id":"cebpf4jnsgd1na2vs0mg"},{"bike_id":"61fed68e-1a42-4b25-9f0c-ba4d50384443","system_id":"levelo_inurba_marseille","lat":43.2867,"lon":5.36124,"is_reserved":false,"is_disabled":false,"rental_uris":{"android":"levelo://app?vid=61fed68e-1a42-4b25-9f0c-ba4d50384443","ios":"levelo://app?vid=61fed68e-1a42-4b25-9f0c-ba4d50384443"},"vehicle_type_id":"4","last_reported":1760195304,"current_range_meters":10800,"station_id":"","pricing_plan_id":"cebpf4jnsgd1na2vs0mg"},{"bike_id":"73cf7b84-f049-4761-a951-e397dbc2db14","system_id":"levelo_inurba_marseille","lat":43.2826,"lon":5.3507,"is_reserved":false,"is_disabled":false,"rental_uris":{"android":"levelo://app?vid=73cf7b84-f049-4761-a951-e397dbc2db14","ios":"levelo://app?vid=73cf7b84-f049-4761-a951-e397dbc2db14"},"vehicle_type_id":"4","last_reported":1760195304,"current_range_meters":10800,"station_id":"ce4bhbp2rcd13ifvqerg","pricing_plan_id":"cebpf4jnsgd1na2vs0mg"},{"bike_id":"d1a53b99-9cad-4077-aa82-001270b2cebe","system_id":"levelo_inurba_marseille","lat":43.32368,"lon":5.38892,"is_reserved":false,"is_disabled":false,"rental_uris":{"android":"levelo://app?vid=d1a53b99-9cad-4077-aa82-001270b2cebe","ios":"levelo://app?vid=d1a53b99-9cad-4077-aa82-001270b2cebe"},"vehicle_type_id":"4","last_reported":1760195304,"current_range_meters":10800,"station_id":"ce4bhqp2rcd13ifvqhog","pricing_plan_id":"cebpf4jnsgd1na2vs0mg"},{"bike_id":"cb7a87e1-161d-40c0-b72d-0992f07c0c46","system_id":"levelo_inurba_marseille","lat":43.211916,"lon":5.350756,"is_reserved":false,"is_disabled":false,"rental_uris":{"android":"levelo://app?vid=cb7a87e1-161d-40c0-b72d-0992f07c0c46","ios":"levelo://app?vid=cb7a87e1-161d-40c0-b72d-0992f07c0c46"},"vehicle_type_id":"4","last_reported":1760195304,"current_range_meters":11200,"station_id":"","pricing_plan_id":"cebpf4jnsgd1na2vs0mg"},{"bike_id":"06c99b8c-c675-4e23-8dc2-36813bc4f0d9","system_id":"levelo_inurba_marseille","lat":43.287143,"lon":5.37938,"is_reserved":false,"is_disabled":false,"rental_uris":{"android":"levelo://app?vid=06c99b8c-c675-4e23-8dc2-36813bc4f0d9","ios":"levelo://app?vid=06c99b8c-c675-4e23-8dc2-36813bc4f0d9"},"vehicle_type_id":"4","last_reported":1760195304,"current_range_meters":11200,"station_id":"ce4bh9p2rcd13ifvqec0","pricing_plan_id":"cebpf4jnsgd1na2vs0mg"},{"bike_id":"d33ce838-27e5-47ca-b7cf-a73e3ce1e6a1","system_id":"levelo_inurba_marseille","lat":43.289322,"lon":5.366418,"is_reserved":false,"is_disabled":false,"rental_uris":{"android":"levelo://app?vid=d33ce838-27e5-47ca-b7cf-a73e3ce1e6a1","ios":"levelo://app?vid=d33ce838-27e5-47ca-b7cf-a73e3ce1e6a1"},"vehicle_type_id":"4","last_reported":1760195304,"current_range_meters":11200,"station_id":"ce4bhap2rcd13ifvqek0","pricing_plan_id":"cebpf4jnsgd1na2vs0mg"},{"bike_id":"30f01f9f-c15a-45a0-99b4-450066c4e3e3","system_id":"levelo_inurba_marseille","lat":43.24406,"lon":5.37027,"is_reserved":false,"is_disabled":false,"rental_uris":{"android":"levelo://app?vid=30f01f9f-c15a-45a0-99b4-450066c4e3e3","ios":"levelo://app?vid=30f01f9f-c15a-45a0-99b4-450066c4e3e3"},"vehicle_type_id":"4","last_reported":1760195304,"current_range_meters":11200,"station_id":"ce4bhhh2rcd13ifvqfk0","pricing_plan_id":"cebpf4jnsgd1na2vs0mg"},{"bike_id":"a301e0f2-321c-40e4-bce9-2fca52035756","system_id":"levelo_inurba_marseille","lat":43.21757,"lon":5.34606,"is_reserved":false,"is_disabled":false,"rental_uris":{"android":"levelo://app?vid=a301e0f2-321c-40e4-bce9-2fca52035756","ios":"levelo://app?vid=a301e0f2-321c-40e4-bce9-2fca52035756"},"vehicle_type_id":"4","last_reported":1760195304,"current_range_meters":11200,"station_id":"ce4bhnp2rcd13ifvqgvg","pricing_plan_id":"cebpf4jnsgd1na2vs0mg"},{"bike_id":"80b5fdd6-8044-4280-9733-7a4992e6b8f6","system_id":"levelo_inurba_marseille","lat":43.292676,"lon":5.376168,"is_reserved":false,"is_disabled":false,"rental_uris":{"android":"levelo://app?vid=80b5fdd6-8044-4280-9733-7a4992e6b8f6","ios":"levelo://app?vid=80b5fdd6-8044-4280-9733-7a4992e6b8f6"},"vehicle_type_id":"4","last_reported":1760195304,"current_range_meters":11600,"station_id":"","pricing_plan_id":"cebpf4jnsgd1na2vs0mg"},{"bike_id":"d519b1e7-2ae5-4535-8398-497b75f6e197","system_id":"levelo_inurba_marseille","lat":43.29961,"lon":5.385,"is_reserved":false,"is_disabled":false,"rental_uris":{"android":"levelo://app?vid=d519b1e7-2ae5-4535-8398-497b75f6e197","ios":"levelo://app?vid=d519b1e7-2ae5-4535-8398-497b75f6e197"},"vehicle_type_id":"4","last_reported":1760195304,"current_range_meters":11600,"station_id":"ce4bgj92rcd13ifvqbd0","pricing_plan_id":"cebpf4jnsgd1na2vs0mg"},{"bike_id":"b94209b1-e421-40e8-9cb4-962181fc4122","system_id":"levelo_inurba_marseille","lat":43.28421,"lon":5.35012,"is_reserved":false,"is_disabled":false,"rental_uris":{"android":"levelo://app?vid=b94209b1-e421-40e8-9cb4-962181fc4122","ios":"levelo://app?vid=b94209b1-e421-40e8-9cb4-962181fc4122"},"vehicle_type_id":"4","last_reported":1760195304,"current_range_meters":11600,"station_id":"ce4bhbh2rcd13ifvqepg","pricing_plan_id":"cebpf4jnsgd1na2vs0mg"},{"bike_id":"a8715d82-586f-4fe6-ab53-6a0998314ac1","system_id":"levelo_inurba_marseille","lat":43.24385,"lon":5.37058,"is_reserved":false,"is_disabled":false,"rental_uris":{"android":"levelo://app?vid=a8715d82-586f-4fe6-ab53-6a0998314ac1","ios":"levelo://app?vid=a8715d82-586f-4fe6-ab53-6a0998314ac1"},"vehicle_type_id":"4","last_reported":1760195304,"current_range_meters":11600,"station_id":"ce4bhhh2rcd13ifvqfk0","pricing_plan_id":"cebpf4jnsgd1na2vs0mg"},{"bike_id":"c39df3bb-01b0-4775-a701-339d4b4fe32d","system_id":"levelo_inurba_marseille","lat":43.2319,"lon":5.35575,"is_reserved":false,"is_disabled":false,"rental_uris":{"android":"levelo://app?vid=c39df3bb-01b0-4775-a701-339d4b4fe32d","ios":"levelo://app?vid=c39df3bb-01b0-4775-a701-339d4b4fe32d"},"vehicle_type_id":"4","last_reported":1760195304,"current_range_meters":11600,"station_id":"ce4bhu92rcd13ifvqi70","pricing_plan_id":"cebpf4jnsgd1na2vs0mg"},{"bike_id":"6ddde598-1b8e-40d5-ad75-a50c1055bd81","system_id":"levelo_inurba_marseille","lat":43.24948,"lon":5.4049,"is_reserved":false,"is_disabled":false,"rental_uris":{"android":"levelo://app?vid=6ddde598-1b8e-40d5-ad75-a50c1055bd81","ios":"levelo://app?vid=6ddde598-1b8e-40d5-ad75-a50c1055bd81"},"vehicle_type_id":"4","last_reported":1760195304,"current_range_meters":11600,"station_id":"st_d2ngiaodas8pm72gd1h0","pricing_plan_id":"cebpf4jnsgd1na2vs0mg"},{"bike_id":"5087fdb2-d9b5-477e-9cea-f3651e813980","system_id":"levelo_inurba_marseille","lat":43.29594,"lon":5.38108,"is_reserved":false,"is_disabled":false,"rental_uris":{"android":"levelo://app?vid=5087fdb2-d9b5-477e-9cea-f3651e813980","ios":"levelo://app?vid=5087fdb2-d9b5-477e-9cea-f3651e813980"},"vehicle_type_id":"4","last_reported":1760195304,"current_range_meters":12000,"station_id":"ce4bgl12rcd13ifvqbo0","pricing_plan_id":"cebpf4jnsgd1na2vs0mg"},{"bike_id":"209d2379-0cdc-4460-9bcd-0687a2027750","system_id":"levelo_inurba_marseille","lat":43.2481,"lon":5.37461,"is_reserved":false,"is_disabled":false,"rental_uris":{"android":"levelo://app?vid=209d2379-0cdc-4460-9bcd-0687a2027750","ios":"levelo://app?vid=209d2379-0cdc-4460-9bcd-0687a2027750"},"vehicle_type_id":"4","last_reported":1760195304,"current_range_meters":12000,"station_id":"ce4bhgh2rcd13ifvqfb0","pricing_plan_id":"cebpf4jnsgd1na2vs0mg"},{"bike_id":"d70464e3-00a5-4968-a2aa-26b6f205c123","system_id":"levelo_inurba_marseille","lat":43.28864,"lon":5.35846,"is_reserved":false,"is_disabled":false,"rental_uris":{"android":"levelo://app?vid=d70464e3-00a5-4968-a2aa-26b6f205c123","ios":"levelo://app?vid=d70464e3-00a5-4968-a2aa-26b6f205c123"},"vehicle_type_id":"4","last_reported":1760195304,"current_range_meters":12400,"station_id":"ce4bhb12rcd13ifvqem0","pricing_plan_id":"cebpf4jnsgd1na2vs0mg"},{"bike_id":"65753ed8-f662-43a9-aaa5-1c59e444667f","system_id":"levelo_inurba_marseille","lat":43.28402,"lon":5.34995,"is_reserved":false,"is_disabled":false,"rental_uris":{"android":"levelo://app?vid=65753ed8-f662-43a9-aaa5-1c59e444667f","ios":"levelo://app?vid=65753ed8-f662-43a9-aaa5-1c59e444667f"},"vehicle_type_id":"4","last_reported":1760195304,"current_range_meters":12400,"station_id":"ce4bhbh2rcd13ifvqepg","pricing_plan_id":"cebpf4jnsgd1na2vs0mg"},{"bike_id":"251e31c7-2c54-4299-a214-7916644a4801","system_id":"levelo_inurba_marseille","lat":43.271606,"lon":5.385937,"is_reserved":false,"is_disabled":false,"rental_uris":{"android":"levelo://app?vid=251e31c7-2c54-4299-a214-7916644a4801","ios":"levelo://app?vid=251e31c7-2c54-4299-a214-7916644a4801"},"vehicle_type_id":"4","last_reported":1760195304,"current_range_meters":12400,"station_id":"ce4bhh92rcd13ifvqfh0","pricing_plan_id":"cebpf4jnsgd1na2vs0mg"},{"bike_id":"96189567-9f56-4467-99e1-85c33efa20b5","system_id":"levelo_inurba_marseille","lat":43.22563,"lon":5.41624,"is_reserved":false,"is_disabled":false,"rental_uris":{"android":"levelo://app?vid=96189567-9f56-4467-99e1-85c33efa20b5","ios":"levelo://app?vid=96189567-9f56-4467-99e1-85c33efa20b5"},"vehicle_type_id":"4","last_reported":1760195304,"current_range_meters":12400,"station_id":"st_d2o4gvlbi1j2169b742g","pricing_plan_id":"cebpf4jnsgd1na2vs0mg"},{"bike_id":"2a15eb35-8184-4bb4-ba0e-e89cec9819be","system_id":"levelo_inurba_marseille","lat":43.29928,"lon":5.36552,"is_reserved":false,"is_disabled":false,"rental_uris":{"android":"levelo://app?vid=2a15eb35-8184-4bb4-ba0e-e89cec9819be","ios":"levelo://app?vid=2a15eb35-8184-4bb4-ba0e-e89cec9819be"},"vehicle_type_id":"4","last_reported":1760195304,"current_range_meters":12800,"station_id":"ce4bgm92rcd13ifvqbr0","pricing_plan_id":"cebpf4jnsgd1na2vs0mg"},{"bike_id":"eaaa890c-d69d-4e73-9a75-39b22c504928","system_id":"levelo_inurba_marseille","lat":43.27368,"lon":5.36287,"is_reserved":false,"is_disabled":false,"rental_uris":{"android":"levelo://app?vid=eaaa890c-d69d-4e73-9a75-39b22c504928","ios":"levelo://app?vid=eaaa890c-d69d-4e73-9a75-39b22c504928"},"vehicle_type_id":"4","last_reported":1760195304,"current_range_meters":12800,"station_id":"ce4bhbh2rcd13ifvqeo0","pricing_plan_id":"cebpf4jnsgd1na2vs0mg"},{"bike_id":"4c2ea989-f363-4d09-a5d9-340a713e1403","system_id":"levelo_inurba_marseille","lat":43.28414,"lon":5.35,"is_reserved":false,"is_disabled":false,"rental_uris":{"android":"levelo://app?vid=4c2ea989-f363-4d09-a5d9-340a713e1403","ios":"levelo://app?vid=4c2ea989-f363-4d09-a5d9-340a713e1403"},"vehicle_type_id":"4","last_reported":1760195304,"current_range_meters":12800,"station_id":"ce4bhbh2rcd13ifvqepg","pricing_plan_id":"cebpf4jnsgd1na2vs0mg"},{"bike_id":"fed46ba2-4de1-4635-ab3f-c10b806859a5","system_id":"levelo_inurba_marseille","lat":43.28412,"lon":5.35042,"is_reserved":false,"is_disabled":false,"rental_uris":{"android":"levelo://app?vid=fed46ba2-4de1-4635-ab3f-c10b806859a5","ios":"levelo://app?vid=fed46ba2-4de1-4635-ab3f-c10b806859a5"},"vehicle_type_id":"4","last_reported":1760195304,"current_range_meters":13600,"station_id":"","pricing_plan_id":"cebpf4jnsgd1na2vs0mg"},{"bike_id":"08fcdb32-2bb9-48aa-82a9-a8f703dd0269","system_id":"levelo_inurba_marseille","lat":43.25391,"lon":5.41889,"is_reserved":false,"is_disabled":false,"rental_uris":{"android":"levelo://app?vid=08fcdb32-2bb9-48aa-82a9-a8f703dd0269","ios":"levelo://app?vid=08fcdb32-2bb9-48aa-82a9-a8f703dd0269"},"vehicle_type_id":"4","last_reported":1760195304,"current_range_meters":13600,"station_id":"","pricing_plan_id":"cebpf4jnsgd1na2vs0mg"},{"bike_id":"96f3146c-fc69-496f-af19-be69d1cc994b","system_id":"levelo_inurba_marseille","lat":43.31166,"lon":5.38725,"is_reserved":false,"is_disabled":false,"rental_uris":{"android":"levelo://app?vid=96f3146c-fc69-496f-af19-be69d1cc994b","ios":"levelo://app?vid=96f3146c-fc69-496f-af19-be69d1cc994b"},"vehicle_type_id":"4","last_reported":1760195304,"current_range_meters":13600,"station_id":"ce4bgv12rcd13ifvqcp0","pricing_plan_id":"cebpf4jnsgd1na2vs0mg"},{"bike_id":"875fa1cd-754f-4125-8a01-4a7f397f253a","system_id":"levelo_inurba_marseille","lat":43.28261,"lon":5.35075,"is_reserved":false,"is_disabled":false,"rental_uris":{"android":"levelo://app?vid=875fa1cd-754f-4125-8a01-4a7f397f253a","ios":"levelo://app?vid=875fa1cd-754f-4125-8a01-4a7f397f253a"},"vehicle_type_id":"4","last_reported":1760195304,"current_range_meters":13600,"station_id":"ce4bhbp2rcd13ifvqerg","pricing_plan_id":"cebpf4jnsgd1na2vs0mg"},{"bike_id":"1336d294-64dd-4939-ab4a-58c1161bfc6c","system_id":"levelo_inurba_marseille","lat":43.271997,"lon":5.39171,"is_reserved":false,"is_disabled":false,"rental_uris":{"android":"levelo://app?vid=1336d294-64dd-4939-ab4a-58c1161bfc6c","ios":"levelo://app?vid=1336d294-64dd-4939-ab4a-58c1161bfc6c"},"vehicle_type_id":"4","last_reported":1760195304,"current_range_meters":13600,"station_id":"ce4bhhp2rcd13ifvqfm0","pricing_plan_id":"cebpf4jnsgd1na2vs0mg"},{"bike_id":"85a1ee1d-dda2-4de7-81f8-a5546f79bc76","system_id":"levelo_inurba_marseille","lat":43.23971,"lon":5.36629,"is_reserved":false,"is_disabled":false,"rental_uris":{"android":"levelo://app?vid=85a1ee1d-dda2-4de7-81f8-a5546f79bc76","ios":"levelo://app?vid=85a1ee1d-dda2-4de7-81f8-a5546f79bc76"},"vehicle_type_id":"4","last_reported":1760195304,"current_range_meters":13600,"station_id":"ce4bhi12rcd13ifvqfp0","pricing_plan_id":"cebpf4jnsgd1na2vs0mg"},{"bike_id":"2c4b2638-6ca0-492d-ba12-8da2147de5c2","system_id":"levelo_inurba_marseille","lat":43.24077,"lon":5.37739,"is_reserved":false,"is_disabled":false,"rental_uris":{"android":"levelo://app?vid=2c4b2638-6ca0-492d-ba12-8da2147de5c2","ios":"levelo://app?vid=2c4b2638-6ca0-492d-ba12-8da2147de5c2"},"vehicle_type_id":"4","last_reported":1760195304,"current_range_meters":13600,"station_id":"ce4bhnp2rcd13ifvqgvg","pricing_plan_id":"cebpf4jnsgd1na2vs0mg"},{"bike_id":"eda34618-cd1a-4a60-97ea-71c81b52a75e","system_id":"levelo_inurba_marseille","lat":43.29004,"lon":5.35612,"is_reserved":false,"is_disabled":false,"rental_uris":{"android":"levelo://app?vid=eda34618-cd1a-4a60-97ea-71c81b52a75e","ios":"levelo://app?vid=eda34618-cd1a-4a60-97ea-71c81b52a75e"},"vehicle_type_id":"4","last_reported":1760195304,"current_range_meters":14000,"station_id":"","pricing_plan_id":"cebpf4jnsgd1na2vs0mg"},{"bike_id":"61405aa8-b554-40c3-9fb9-4e162b8a5c53","system_id":"levelo_inurba_marseille","lat":43.2558,"lon":5.38231,"is_reserved":false,"is_disabled":false,"rental_uris":{"android":"levelo://app?vid=61405aa8-b554-40c3-9fb9-4e162b8a5c53","ios":"levelo://app?vid=61405aa8-b554-40c3-9fb9-4e162b8a5c53"},"vehicle_type_id":"4","last_reported":1760195304,"current_range_meters":14000,"station_id":"ce4bhih2rcd13ifvqfs0","pricing_plan_id":"cebpf4jnsgd1na2vs0mg"},{"bike_id":"9a3f78ca-b0c6-4f72-8a79-592b18fbedf7","system_id":"levelo_inurba_marseille","lat":43.24048,"lon":5.37755,"is_reserved":false,"is_disabled":false,"rental_uris":{"android":"levelo://app?vid=9a3f78ca-b0c6-4f72-8a79-592b18fbedf7","ios":"levelo://app?vid=9a3f78ca-b0c6-4f72-8a79-592b18fbedf7"},"vehicle_type_id":"4","last_reported":1760195304,"current_range_meters":14000,"station_id":"ce4bhnp2rcd13ifvqgvg","pricing_plan_id":"cebpf4jnsgd1na2vs0mg"},{"bike_id":"17923319-eb42-4b1c-a08d-8aa988626c7f","system_id":"levelo_inurba_marseille","lat":43.21194,"lon":5.35075,"is_reserved":false,"is_disabled":false,"rental_uris":{"android":"levelo://app?vid=17923319-eb42-4b1c-a08d-8aa988626c7f","ios":"levelo://app?vid=17923319-eb42-4b1c-a08d-8aa988626c7f"},"vehicle_type_id":"4","last_reported":1760195304,"current_range_meters":14000,"station_id":"st_cvj6sg6p6f1abm77japg","pricing_plan_id":"cebpf4jnsgd1na2vs0mg"},{"bike_id":"daca0046-00af-4c3d-97a3-9a04d8ad7588","system_id":"levelo_inurba_marseille","lat":43.22558,"lon":5.41643,"is_reserved":false,"is_disabled":false,"rental_uris":{"android":"levelo://app?vid=daca0046-00af-4c3d-97a3-9a04d8ad7588","ios":"levelo://app?vid=daca0046-00af-4c3d-97a3-9a04d8ad7588"},"vehicle_type_id":"4","last_reported":1760195304,"current_range_meters":14000,"station_id":"st_d2o4gvlbi1j2169b742g","pricing_plan_id":"cebpf4jnsgd1na2vs0mg"},{"bike_id":"36852a13-f383-442f-9a01-f153febeeef2","system_id":"levelo_inurba_marseille","lat":43.30219,"lon":5.36893,"is_reserved":false,"is_disabled":false,"rental_uris":{"android":"levelo://app?vid=36852a13-f383-442f-9a01-f153febeeef2","ios":"levelo://app?vid=36852a13-f383-442f-9a01-f153febeeef2"},"vehicle_type_id":"4","last_reported":1760195304,"current_range_meters":14400,"station_id":"","pricing_plan_id":"cebpf4jnsgd1na2vs0mg"},{"bike_id":"8ad00ccc-7fb9-435a-9c53-c67d82cf56cf","system_id":"levelo_inurba_marseille","lat":43.308899,"lon":5.371954,"is_reserved":false,"is_disabled":false,"rental_uris":{"android":"levelo://app?vid=8ad00ccc-7fb9-435a-9c53-c67d82cf56cf","ios":"levelo://app?vid=8ad00ccc-7fb9-435a-9c53-c67d82cf56cf"},"vehicle_type_id":"4","last_reported":1760195304,"current_range_meters":14400,"station_id":"ce4bguh2rcd13ifvqckg","pricing_plan_id":"cebpf4jnsgd1na2vs0mg"},{"bike_id":"aea5043f-491d-43b4-8188-2ac9ed7c562a","system_id":"levelo_inurba_marseille","lat":43.258266,"lon":5.394252,"is_reserved":false,"is_disabled":false,"rental_uris":{"android":"levelo://app?vid=aea5043f-491d-43b4-8188-2ac9ed7c562a","ios":"levelo://app?vid=aea5043f-491d-43b4-8188-2ac9ed7c562a"},"vehicle_type_id":"4","last_reported":1760195304,"current_range_meters":14400,"station_id":"ce4bhip2rcd13ifvqft0","pricing_plan_id":"cebpf4jnsgd1na2vs0mg"},{"bike_id":"9eec1a65-67bd-488e-bfd6-3773aa5c5cc6","system_id":"levelo_inurba_marseille","lat":43.24075,"lon":5.37762,"is_reserved":false,"is_disabled":false,"rental_uris":{"android":"levelo://app?vid=9eec1a65-67bd-488e-bfd6-3773aa5c5cc6","ios":"levelo://app?vid=9eec1a65-67bd-488e-bfd6-3773aa5c5cc6"},"vehicle_type_id":"4","last_reported":1760195304,"current_range_meters":14400,"station_id":"ce4bhnp2rcd13ifvqgvg","pricing_plan_id":"cebpf4jnsgd1na2vs0mg"},{"bike_id":"996f9f46-e0ea-4e4d-bf22-c899d0b79667","system_id":"levelo_inurba_marseille","lat":43.22931,"lon":5.35395,"is_reserved":false,"is_disabled":false,"rental_uris":{"android":"levelo://app?vid=996f9f46-e0ea-4e4d-bf22-c899d0b79667","ios":"levelo://app?vid=996f9f46-e0ea-4e4d-bf22-c899d0b79667"},"vehicle_type_id":"4","last_reported":1760195304,"current_range_meters":14400,"station_id":"cpo3532slgdg3j2ikp40","pricing_plan_id":"cebpf4jnsgd1na2vs0mg"},{"bike_id":"187cf0d8-0607-43fc-8eaa-6af12fda0dee","system_id":"levelo_inurba_marseille","lat":43.22428,"lon":5.34657,"is_reserved":false,"is_disabled":false,"rental_uris":{"android":"levelo://app?vid=187cf0d8-0607-43fc-8eaa-6af12fda0dee","ios":"levelo://app?vid=187cf0d8-0607-43fc-8eaa-6af12fda0dee"},"vehicle_type_id":"4","last_reported":1760195304,"current_range_meters":14800,"station_id":"","pricing_plan_id":"cebpf4jnsgd1na2vs0mg"},{"bike_id":"54d30ddc-2bef-4a3d-a284-d5eb603b92f3","system_id":"levelo_inurba_marseille","lat":43.30587,"lon":5.39352,"is_reserved":false,"is_disabled":false,"rental_uris":{"android":"levelo://app?vid=54d30ddc-2bef-4a3d-a284-d5eb603b92f3","ios":"levelo://app?vid=54d30ddc-2bef-4a3d-a284-d5eb603b92f3"},"vehicle_type_id":"4","last_reported":1760195304,"current_range_meters":14800,"station_id":"ce4bh0p2rcd13ifvqd80","pricing_plan_id":"cebpf4jnsgd1na2vs0mg"},{"bike_id":"f643732a-737c-4023-9ce1-91073dd626a3","system_id":"levelo_inurba_marseille","lat":43.31598,"lon":5.38135,"is_reserved":false,"is_disabled":false,"rental_uris":{"android":"levelo://app?vid=f643732a-737c-4023-9ce1-91073dd626a3","ios":"levelo://app?vid=f643732a-737c-4023-9ce1-91073dd626a3"},"vehicle_type_id":"4","last_reported":1760195304,"current_range_meters":15200,"station_id":"","pricing_plan_id":"cebpf4jnsgd1na2vs0mg"},{"bike_id":"b97ae111-34c5-40a3-bc58-02103404c0ba","system_id":"levelo_inurba_marseille","lat":43.305516,"lon":5.367039,"is_reserved":false,"is_disabled":false,"rental_uris":{"android":"levelo://app?vid=b97ae111-34c5-40a3-bc58-02103404c0ba","ios":"levelo://app?vid=b97ae111-34c5-40a3-bc58-02103404c0ba"},"vehicle_type_id":"4","last_reported":1760195304,"current_range_meters":15200,"station_id":"ce4bgrp2rcd13ifvqc9g","pricing_plan_id":"cebpf4jnsgd1na2vs0mg"},{"bike_id":"e4aff388-65b7-4701-ae5e-5da540cb3077","system_id":"levelo_inurba_marseille","lat":43.2919,"lon":5.39323,"is_reserved":false,"is_disabled":false,"rental_uris":{"android":"levelo://app?vid=e4aff388-65b7-4701-ae5e-5da540cb3077","ios":"levelo://app?vid=e4aff388-65b7-4701-ae5e-5da540cb3077"},"vehicle_type_id":"4","last_reported":1760195304,"current_range_meters":15200,"station_id":"ce4bh192rcd13ifvqdd0","pricing_plan_id":"cebpf4jnsgd1na2vs0mg"},{"bike_id":"15451fa0-fcd8-4d45-8db6-456dca15837d","system_id":"levelo_inurba_marseille","lat":43.284,"lon":5.34986,"is_reserved":false,"is_disabled":false,"rental_uris":{"android":"levelo://app?vid=15451fa0-fcd8-4d45-8db6-456dca15837d","ios":"levelo://app?vid=15451fa0-fcd8-4d45-8db6-456dca15837d"},"vehicle_type_id":"4","last_reported":1760195304,"current_range_meters":15200,"station_id":"ce4bhbh2rcd13ifvqepg","pricing_plan_id":"cebpf4jnsgd1na2vs0mg"},{"bike_id":"d450faec-bf95-41b5-bd5a-258b856397d3","system_id":"levelo_inurba_marseille","lat":43.337444,"lon":5.374475,"is_reserved":false,"is_disabled":false,"rental_uris":{"android":"levelo://app?vid=d450faec-bf95-41b5-bd5a-258b856397d3","ios":"levelo://app?vid=d450faec-bf95-41b5-bd5a-258b856397d3"},"vehicle_type_id":"4","last_reported":1760195304,"current_range_meters":15200,"station_id":"ce4bhpp2rcd13ifvqhgg","pricing_plan_id":"cebpf4jnsgd1na2vs0mg"},{"bike_id":"7be0f6bf-6c6b-4bc2-8340-976d6be916ea","system_id":"levelo_inurba_marseille","lat":43.22911,"lon":5.35389,"is_reserved":false,"is_disabled":false,"rental_uris":{"android":"levelo://app?vid=7be0f6bf-6c6b-4bc2-8340-976d6be916ea","ios":"levelo://app?vid=7be0f6bf-6c6b-4bc2-8340-976d6be916ea"},"vehicle_type_id":"4","last_reported":1760195304,"current_range_meters":15200,"station_id":"cpo3532slgdg3j2ikp40","pricing_plan_id":"cebpf4jnsgd1na2vs0mg"},{"bike_id":"bf3e6031-a4b5-4d11-9089-ea468e967475","system_id":"levelo_inurba_marseille","lat":43.24173,"lon":5.36408,"is_reserved":false,"is_disabled":false,"rental_uris":{"android":"levelo://app?vid=bf3e6031-a4b5-4d11-9089-ea468e967475","ios":"levelo://app?vid=bf3e6031-a4b5-4d11-9089-ea468e967475"},"vehicle_type_id":"4","last_reported":1760195304,"current_range_meters":15200,"station_id":"cpo36qri1sfpv3e86is0","pricing_plan_id":"cebpf4jnsgd1na2vs0mg"},{"bike_id":"d128d22b-11fa-4f20-9cb1-76a3547d97c6","system_id":"levelo_inurba_marseille","lat":43.27369,"lon":5.36274,"is_reserved":false,"is_disabled":false,"rental_uris":{"android":"levelo://app?vid=d128d22b-11fa-4f20-9cb1-76a3547d97c6","ios":"levelo://app?vid=d128d22b-11fa-4f20-9cb1-76a3547d97c6"},"vehicle_type_id":"4","last_reported":1760195304,"current_range_meters":16000,"station_id":"","pricing_plan_id":"cebpf4jnsgd1na2vs0mg"},{"bike_id":"b78fc6de-8c66-40b1-bc7e-1794eacc6804","system_id":"levelo_inurba_marseille","lat":43.28174,"lon":5.34992,"is_reserved":false,"is_disabled":false,"rental_uris":{"android":"levelo://app?vid=b78fc6de-8c66-40b1-bc7e-1794eacc6804","ios":"levelo://app?vid=b78fc6de-8c66-40b1-bc7e-1794eacc6804"},"vehicle_type_id":"4","last_reported":1760195304,"current_range_meters":16000,"station_id":"","pricing_plan_id":"cebpf4jnsgd1na2vs0mg"},{"bike_id":"e2b7637f-e97c-472e-a8e9-6c4626da48ab","system_id":"levelo_inurba_marseille","lat":43.28415,"lon":5.34992,"is_reserved":false,"is_disabled":false,"rental_uris":{"android":"levelo://app?vid=e2b7637f-e97c-472e-a8e9-6c4626da48ab","ios":"levelo://app?vid=e2b7637f-e97c-472e-a8e9-6c4626da48ab"},"vehicle_type_id":"4","last_reported":1760195304,"current_range_meters":16000,"station_id":"ce4bhbh2rcd13ifvqepg","pricing_plan_id":"cebpf4jnsgd1na2vs0mg"},{"bike_id":"b7beb4e8-058e-45b5-ba9a-d411cd9da5a0","system_id":"levelo_inurba_marseille","lat":43.239639,"lon":5.366295,"is_reserved":false,"is_disabled":false,"rental_uris":{"android":"levelo://app?vid=b7beb4e8-058e-45b5-ba9a-d411cd9da5a0","ios":"levelo://app?vid=b7beb4e8-058e-45b5-ba9a-d411cd9da5a0"},"vehicle_type_id":"4","last_reported":1760195304,"current_range_meters":16000,"station_id":"ce4bhi12rcd13ifvqfp0","pricing_plan_id":"cebpf4jnsgd1na2vs0mg"},{"bike_id":"41dc739f-58f4-4dc7-b927-aee021260951","system_id":"levelo_inurba_marseille","lat":43.25089,"lon":5.39528,"is_reserved":false,"is_disabled":false,"rental_uris":{"android":"levelo://app?vid=41dc739f-58f4-4dc7-b927-aee021260951","ios":"levelo://app?vid=41dc739f-58f4-4dc7-b927-aee021260951"},"vehicle_type_id":"4","last_reported":1760195304,"current_range_meters":16000,"station_id":"ce4bhm12rcd13ifvqgkg","pricing_plan_id":"cebpf4jnsgd1na2vs0mg"},{"bike_id":"694547b5-a972-4858-8070-97658603f337","system_id":"levelo_inurba_marseille","lat":43.23197,"lon":5.35537,"is_reserved":false,"is_disabled":false,"rental_uris":{"android":"levelo://app?vid=694547b5-a972-4858-8070-97658603f337","ios":"levelo://app?vid=694547b5-a972-4858-8070-97658603f337"},"vehicle_type_id":"4","last_reported":1760195304,"current_range_meters":16000,"station_id":"ce4bhu92rcd13ifvqi70","pricing_plan_id":"cebpf4jnsgd1na2vs0mg"},{"bike_id":"0d125caf-5238-4006-bbc8-77c21e114e38","system_id":"levelo_inurba_marseille","lat":43.241649,"lon":5.363952,"is_reserved":false,"is_disabled":false,"rental_uris":{"android":"levelo://app?vid=0d125caf-5238-4006-bbc8-77c21e114e38","ios":"levelo://app?vid=0d125caf-5238-4006-bbc8-77c21e114e38"},"vehicle_type_id":"4","last_reported":1760195304,"current_range_meters":16000,"station_id":"cpo36qri1sfpv3e86is0","pricing_plan_id":"cebpf4jnsgd1na2vs0mg"},{"bike_id":"83e214c2-0ada-4351-8a27-d8d9e569d46f","system_id":"levelo_inurba_marseille","lat":43.24148,"lon":5.36421,"is_reserved":false,"is_disabled":false,"rental_uris":{"android":"levelo://app?vid=83e214c2-0ada-4351-8a27-d8d9e569d46f","ios":"levelo://app?vid=83e214c2-0ada-4351-8a27-d8d9e569d46f"},"vehicle_type_id":"4","last_reported":1760195304,"current_range_meters":16000,"station_id":"cpo36qri1sfpv3e86is0","pricing_plan_id":"cebpf4jnsgd1na2vs0mg"},{"bike_id":"4834a710-f242-4b0f-9ef7-9d6d9f7a4b7b","system_id":"levelo_inurba_marseille","lat":43.2255,"lon":5.41627,"is_reserved":false,"is_disabled":false,"rental_uris":{"android":"levelo://app?vid=4834a710-f242-4b0f-9ef7-9d6d9f7a4b7b","ios":"levelo://app?vid=4834a710-f242-4b0f-9ef7-9d6d9f7a4b7b"},"vehicle_type_id":"4","last_reported":1760195304,"current_range_meters":16000,"station_id":"st_d2o4gvlbi1j2169b742g","pricing_plan_id":"cebpf4jnsgd1na2vs0mg"},{"bike_id":"18400b73-f74d-4eb0-8e5e-25a94385df5a","system_id":"levelo_inurba_marseille","lat":43.27976,"lon":5.38741,"is_reserved":false,"is_disabled":false,"rental_uris":{"android":"levelo://app?vid=18400b73-f74d-4eb0-8e5e-25a94385df5a","ios":"levelo://app?vid=18400b73-f74d-4eb0-8e5e-25a94385df5a"},"vehicle_type_id":"4","last_reported":1760195304,"current_range_meters":16400,"station_id":"ce4bhg12rcd13ifvqf80","pricing_plan_id":"cebpf4jnsgd1na2vs0mg"},{"bike_id":"e8cdde8d-40c1-4818-9f10-c7008972e049","system_id":"levelo_inurba_marseille","lat":43.26807,"lon":5.40274,"is_reserved":false,"is_disabled":false,"rental_uris":{"android":"levelo://app?vid=e8cdde8d-40c1-4818-9f10-c7008972e049","ios":"levelo://app?vid=e8cdde8d-40c1-4818-9f10-c7008972e049"},"vehicle_type_id":"4","last_reported":1760195304,"current_range_meters":16400,"station_id":"ce501612rcd8frsf0b60","pricing_plan_id":"cebpf4jnsgd1na2vs0mg"},{"bike_id":"90a7399f-67eb-4ed6-8265-2126a88abadc","system_id":"levelo_inurba_marseille","lat":43.22578,"lon":5.41656,"is_reserved":false,"is_disabled":false,"rental_uris":{"android":"levelo://app?vid=90a7399f-67eb-4ed6-8265-2126a88abadc","ios":"levelo://app?vid=90a7399f-67eb-4ed6-8265-2126a88abadc"},"vehicle_type_id":"4","last_reported":1760195304,"current_range_meters":16400,"station_id":"st_d2o4gvlbi1j2169b742g","pricing_plan_id":"cebpf4jnsgd1na2vs0mg"},{"bike_id":"a10dabe4-e9de-4ff3-9dc9-8a21e2d7ddb0","system_id":"levelo_inurba_marseille","lat":43.21192,"lon":5.350707,"is_reserved":false,"is_disabled":false,"rental_uris":{"android":"levelo://app?vid=a10dabe4-e9de-4ff3-9dc9-8a21e2d7ddb0","ios":"levelo://app?vid=a10dabe4-e9de-4ff3-9dc9-8a21e2d7ddb0"},"vehicle_type_id":"4","last_reported":1760195304,"current_range_meters":16800,"station_id":"","pricing_plan_id":"cebpf4jnsgd1na2vs0mg"},{"bike_id":"41b109d0-e95f-43a9-ad57-c9dee214e1f3","system_id":"levelo_inurba_marseille","lat":43.31682,"lon":5.40459,"is_reserved":false,"is_disabled":false,"rental_uris":{"android":"levelo://app?vid=41b109d0-e95f-43a9-ad57-c9dee214e1f3","ios":"levelo://app?vid=41b109d0-e95f-43a9-ad57-c9dee214e1f3"},"vehicle_type_id":"4","last_reported":1760195304,"current_range_meters":16800,"station_id":"ce4bh012rcd13ifvqd00","pricing_plan_id":"cebpf4jnsgd1na2vs0mg"},{"bike_id":"7591e1b9-39da-4bb9-bfef-91d026a9b9cc","system_id":"levelo_inurba_marseille","lat":43.29056,"lon":5.35925,"is_reserved":false,"is_disabled":false,"rental_uris":{"android":"levelo://app?vid=7591e1b9-39da-4bb9-bfef-91d026a9b9cc","ios":"levelo://app?vid=7591e1b9-39da-4bb9-bfef-91d026a9b9cc"},"vehicle_type_id":"4","last_reported":1760195304,"current_range_meters":16800,"station_id":"ce4bha92rcd13ifvqeg0","pricing_plan_id":"cebpf4jnsgd1na2vs0mg"},{"bike_id":"7dc0129f-eea1-40ed-a142-9b446d52bf9c","system_id":"levelo_inurba_marseille","lat":43.248083,"lon":5.374576,"is_reserved":false,"is_disabled":false,"rental_uris":{"android":"levelo://app?vid=7dc0129f-eea1-40ed-a142-9b446d52bf9c","ios":"levelo://app?vid=7dc0129f-eea1-40ed-a142-9b446d52bf9c"},"vehicle_type_id":"4","last_reported":1760195304,"current_range_meters":16800,"station_id":"ce4bhgh2rcd13ifvqfb0","pricing_plan_id":"cebpf4jnsgd1na2vs0mg"},{"bike_id":"46da147d-d766-48c4-ad9b-c9de71aee82f","system_id":"levelo_inurba_marseille","lat":43.25579,"lon":5.38254,"is_reserved":false,"is_disabled":false,"rental_uris":{"android":"levelo://app?vid=46da147d-d766-48c4-ad9b-c9de71aee82f","ios":"levelo://app?vid=46da147d-d766-48c4-ad9b-c9de71aee82f"},"vehicle_type_id":"4","last_reported":1760195304,"current_range_meters":16800,"station_id":"ce4bhih2rcd13ifvqfs0","pricing_plan_id":"cebpf4jnsgd1na2vs0mg"},{"bike_id":"d3fee595-9b5c-4d0a-86f2-175eb2e56345","system_id":"levelo_inurba_marseille","lat":43.24157,"lon":5.36419,"is_reserved":false,"is_disabled":false,"rental_uris":{"android":"levelo://app?vid=d3fee595-9b5c-4d0a-86f2-175eb2e56345","ios":"levelo://app?vid=d3fee595-9b5c-4d0a-86f2-175eb2e56345"},"vehicle_type_id":"4","last_reported":1760195304,"current_range_meters":16800,"station_id":"cpo36qri1sfpv3e86is0","pricing_plan_id":"cebpf4jnsgd1na2vs0mg"},{"bike_id":"3272e5cb-e544-4bac-866a-624239b9225a","system_id":"levelo_inurba_marseille","lat":43.217492,"lon":5.346061,"is_reserved":false,"is_disabled":false,"rental_uris":{"android":"levelo://app?vid=3272e5cb-e544-4bac-866a-624239b9225a","ios":"levelo://app?vid=3272e5cb-e544-4bac-866a-624239b9225a"},"vehicle_type_id":"4","last_reported":1760195304,"current_range_meters":17200,"station_id":"","pricing_plan_id":"cebpf4jnsgd1na2vs0mg"},{"bike_id":"4900b136-f533-4a20-89d1-4861c556f230","system_id":"levelo_inurba_marseille","lat":43.279818,"lon":5.387504,"is_reserved":false,"is_disabled":false,"rental_uris":{"android":"levelo://app?vid=4900b136-f533-4a20-89d1-4861c556f230","ios":"levelo://app?vid=4900b136-f533-4a20-89d1-4861c556f230"},"vehicle_type_id":"4","last_reported":1760195304,"current_range_meters":17200,"station_id":"ce4bhg12rcd13ifvqf80","pricing_plan_id":"cebpf4jnsgd1na2vs0mg"},{"bike_id":"569b0767-5594-4cd5-9819-4e09c06e16b2","system_id":"levelo_inurba_marseille","lat":43.24808,"lon":5.37465,"is_reserved":false,"is_disabled":false,"rental_uris":{"android":"levelo://app?vid=569b0767-5594-4cd5-9819-4e09c06e16b2","ios":"levelo://app?vid=569b0767-5594-4cd5-9819-4e09c06e16b2"},"vehicle_type_id":"4","last_reported":1760195304,"current_range_meters":17200,"station_id":"ce4bhgh2rcd13ifvqfb0","pricing_plan_id":"cebpf4jnsgd1na2vs0mg"},{"bike_id":"647995e9-73a3-46c6-8142-707e67fdca12","system_id":"levelo_inurba_marseille","lat":43.24796,"lon":5.37487,"is_reserved":false,"is_disabled":false,"rental_uris":{"android":"levelo://app?vid=647995e9-73a3-46c6-8142-707e67fdca12","ios":"levelo://app?vid=647995e9-73a3-46c6-8142-707e67fdca12"},"vehicle_type_id":"4","last_reported":1760195304,"current_range_meters":17200,"station_id":"ce4bhgh2rcd13ifvqfb0","pricing_plan_id":"cebpf4jnsgd1na2vs0mg"},{"bike_id":"77c290c3-83a2-4f94-b3be-704d42cbad7a","system_id":"levelo_inurba_marseille","lat":43.323652,"lon":5.389556,"is_reserved":false,"is_disabled":false,"rental_uris":{"android":"levelo://app?vid=77c290c3-83a2-4f94-b3be-704d42cbad7a","ios":"levelo://app?vid=77c290c3-83a2-4f94-b3be-704d42cbad7a"},"vehicle_type_id":"4","last_reported":1760195304,"current_range_meters":17200,"station_id":"ce4bhqp2rcd13ifvqhog","pricing_plan_id":"cebpf4jnsgd1na2vs0mg"},{"bike_id":"db3185ee-7676-4a75-a3ad-fa94ee02a092","system_id":"levelo_inurba_marseille","lat":43.211902,"lon":5.350663,"is_reserved":false,"is_disabled":false,"rental_uris":{"android":"levelo://app?vid=db3185ee-7676-4a75-a3ad-fa94ee02a092","ios":"levelo://app?vid=db3185ee-7676-4a75-a3ad-fa94ee02a092"},"vehicle_type_id":"4","last_reported":1760195304,"current_range_meters":17200,"station_id":"st_cvj6sg6p6f1abm77japg","pricing_plan_id":"cebpf4jnsgd1na2vs0mg"},{"bike_id":"6889b371-ad91-4576-83d4-fd80b17aa00c","system_id":"levelo_inurba_marseille","lat":43.29848,"lon":5.36285,"is_reserved":false,"is_disabled":false,"rental_uris":{"android":"levelo://app?vid=6889b371-ad91-4576-83d4-fd80b17aa00c","ios":"levelo://app?vid=6889b371-ad91-4576-83d4-fd80b17aa00c"},"vehicle_type_id":"4","last_reported":1760195304,"current_range_meters":17600,"station_id":"ce4bgpp2rcd13ifvqc3g","pricing_plan_id":"cebpf4jnsgd1na2vs0mg"},{"bike_id":"1091f2ef-bb5c-4cba-b5d5-efc419a479f8","system_id":"levelo_inurba_marseille","lat":43.31338,"lon":5.3673,"is_reserved":false,"is_disabled":false,"rental_uris":{"android":"levelo://app?vid=1091f2ef-bb5c-4cba-b5d5-efc419a479f8","ios":"levelo://app?vid=1091f2ef-bb5c-4cba-b5d5-efc419a479f8"},"vehicle_type_id":"4","last_reported":1760195304,"current_range_meters":17600,"station_id":"ce4bgr92rcd13ifvqc6g","pricing_plan_id":"cebpf4jnsgd1na2vs0mg"},{"bike_id":"4573501b-5f59-49b0-b225-aec4f8fa9361","system_id":"levelo_inurba_marseille","lat":43.28672,"lon":5.38684,"is_reserved":false,"is_disabled":false,"rental_uris":{"android":"levelo://app?vid=4573501b-5f59-49b0-b225-aec4f8fa9361","ios":"levelo://app?vid=4573501b-5f59-49b0-b225-aec4f8fa9361"},"vehicle_type_id":"4","last_reported":1760195304,"current_range_meters":17600,"station_id":"ce4bh492rcd13ifvqdug","pricing_plan_id":"cebpf4jnsgd1na2vs0mg"},{"bike_id":"502aa0d6-40e9-4d07-9fc1-9b85ae0f20d4","system_id":"levelo_inurba_marseille","lat":43.27376,"lon":5.36248,"is_reserved":false,"is_disabled":false,"rental_uris":{"android":"levelo://app?vid=502aa0d6-40e9-4d07-9fc1-9b85ae0f20d4","ios":"levelo://app?vid=502aa0d6-40e9-4d07-9fc1-9b85ae0f20d4"},"vehicle_type_id":"4","last_reported":1760195304,"current_range_meters":17600,"station_id":"ce4bhbh2rcd13ifvqeo0","pricing_plan_id":"cebpf4jnsgd1na2vs0mg"},{"bike_id":"86bd1f3c-5e6e-41b7-921a-6444bb79813b","system_id":"levelo_inurba_marseille","lat":43.28624,"lon":5.35091,"is_reserved":false,"is_disabled":false,"rental_uris":{"android":"levelo://app?vid=86bd1f3c-5e6e-41b7-921a-6444bb79813b","ios":"levelo://app?vid=86bd1f3c-5e6e-41b7-921a-6444bb79813b"},"vehicle_type_id":"4","last_reported":1760195304,"current_range_meters":17600,"station_id":"ce4bhch2rcd13ifvqeug","pricing_plan_id":"cebpf4jnsgd1na2vs0mg"},{"bike_id":"601d3663-8eb1-4573-a879-b7802e1d9ba2","system_id":"levelo_inurba_marseille","lat":43.24069,"lon":5.37761,"is_reserved":false,"is_disabled":false,"rental_uris":{"android":"levelo://app?vid=601d3663-8eb1-4573-a879-b7802e1d9ba2","ios":"levelo://app?vid=601d3663-8eb1-4573-a879-b7802e1d9ba2"},"vehicle_type_id":"4","last_reported":1760195304,"current_range_meters":17600,"station_id":"ce4bhnp2rcd13ifvqgvg","pricing_plan_id":"cebpf4jnsgd1na2vs0mg"},{"bike_id":"7fe79bea-5e42-4119-bb05-688b3bf3270d","system_id":"levelo_inurba_marseille","lat":43.22569,"lon":5.4163,"is_reserved":false,"is_disabled":false,"rental_uris":{"android":"levelo://app?vid=7fe79bea-5e42-4119-bb05-688b3bf3270d","ios":"levelo://app?vid=7fe79bea-5e42-4119-bb05-688b3bf3270d"},"vehicle_type_id":"4","last_reported":1760195304,"current_range_meters":17600,"station_id":"st_d2o4gvlbi1j2169b742g","pricing_plan_id":"cebpf4jnsgd1na2vs0mg"},{"bike_id":"8a53deea-7239-4c3a-a094-c20c17f59f77","system_id":"levelo_inurba_marseille","lat":43.27202,"lon":5.39199,"is_reserved":false,"is_disabled":false,"rental_uris":{"android":"levelo://app?vid=8a53deea-7239-4c3a-a094-c20c17f59f77","ios":"levelo://app?vid=8a53deea-7239-4c3a-a094-c20c17f59f77"},"vehicle_type_id":"4","last_reported":1760195304,"current_range_meters":18000,"station_id":"","pricing_plan_id":"cebpf4jnsgd1na2vs0mg"},{"bike_id":"b10d96bd-cfc0-4f48-ab6e-c4c72ef0cbc3","system_id":"levelo_inurba_marseille","lat":43.29725,"lon":5.37089,"is_reserved":false,"is_disabled":false,"rental_uris":{"android":"levelo://app?vid=b10d96bd-cfc0-4f48-ab6e-c4c72ef0cbc3","ios":"levelo://app?vid=b10d96bd-cfc0-4f48-ab6e-c4c72ef0cbc3"},"vehicle_type_id":"4","last_reported":1760195304,"current_range_meters":18000,"station_id":"","pricing_plan_id":"cebpf4jnsgd1na2vs0mg"},{"bike_id":"fdfd3e92-648a-4e18-90a3-57873823c41b","system_id":"levelo_inurba_marseille","lat":43.337444,"lon":5.374475,"is_reserved":false,"is_disabled":false,"rental_uris":{"android":"levelo://app?vid=fdfd3e92-648a-4e18-90a3-57873823c41b","ios":"levelo://app?vid=fdfd3e92-648a-4e18-90a3-57873823c41b"},"vehicle_type_id":"4","last_reported":1760195304,"current_range_meters":18000,"station_id":"","pricing_plan_id":"cebpf4jnsgd1na2vs0mg"},{"bike_id":"d32ab91b-b738-449c-8428-505d7cc0111c","system_id":"levelo_inurba_marseille","lat":43.284068,"lon":5.349815,"is_reserved":false,"is_disabled":false,"rental_uris":{"android":"levelo://app?vid=d32ab91b-b738-449c-8428-505d7cc0111c","ios":"levelo://app?vid=d32ab91b-b738-449c-8428-505d7cc0111c"},"vehicle_type_id":"4","last_reported":1760195304,"current_range_meters":18000,"station_id":"","pricing_plan_id":"cebpf4jnsgd1na2vs0mg"},{"bike_id":"33d27c89-6622-498a-98ff-df021b50ace1","system_id":"levelo_inurba_marseille","lat":43.29975,"lon":5.37182,"is_reserved":false,"is_disabled":false,"rental_uris":{"android":"levelo://app?vid=33d27c89-6622-498a-98ff-df021b50ace1","ios":"levelo://app?vid=33d27c89-6622-498a-98ff-df021b50ace1"},"vehicle_type_id":"4","last_reported":1760195304,"current_range_meters":18000,"station_id":"ce4bgr92rcd13ifvqc7g","pricing_plan_id":"cebpf4jnsgd1na2vs0mg"},{"bike_id":"45c7e8c5-3bab-4668-9d29-fa925faf5ef7","system_id":"levelo_inurba_marseille","lat":43.3095,"lon":5.39044,"is_reserved":false,"is_disabled":false,"rental_uris":{"android":"levelo://app?vid=45c7e8c5-3bab-4668-9d29-fa925faf5ef7","ios":"levelo://app?vid=45c7e8c5-3bab-4668-9d29-fa925faf5ef7"},"vehicle_type_id":"4","last_reported":1760195304,"current_range_meters":18000,"station_id":"ce4bgup2rcd13ifvqco0","pricing_plan_id":"cebpf4jnsgd1na2vs0mg"},{"bike_id":"ea07d068-834c-43cf-82a7-9bcc5743518a","system_id":"levelo_inurba_marseille","lat":43.28351,"lon":5.38109,"is_reserved":false,"is_disabled":false,"rental_uris":{"android":"levelo://app?vid=ea07d068-834c-43cf-82a7-9bcc5743518a","ios":"levelo://app?vid=ea07d068-834c-43cf-82a7-9bcc5743518a"},"vehicle_type_id":"4","last_reported":1760195304,"current_range_meters":18000,"station_id":"ce4bh412rcd13ifvqdr0","pricing_plan_id":"cebpf4jnsgd1na2vs0mg"},{"bike_id":"b2d6733a-d512-4448-a347-80ed5aba95a8","system_id":"levelo_inurba_marseille","lat":43.2737,"lon":5.36256,"is_reserved":false,"is_disabled":false,"rental_uris":{"android":"levelo://app?vid=b2d6733a-d512-4448-a347-80ed5aba95a8","ios":"levelo://app?vid=b2d6733a-d512-4448-a347-80ed5aba95a8"},"vehicle_type_id":"4","last_reported":1760195304,"current_range_meters":18000,"station_id":"ce4bhbh2rcd13ifvqeo0","pricing_plan_id":"cebpf4jnsgd1na2vs0mg"},