{"last_updated":1757858847,"ttl":60,"version":"2.2","data":{"bikes":[{"bike_id":"ea6dbac5-099f-4465-bf4c-a2e3ae16d628","system_id":"levelo_inurba_marseille","lat":43.21193,"lon":5.35077,"is_reserved":false,"is_disabled":false,"rental_uris":{"android":"levelo://app?vid=ea6dbac5-099f-4465-bf4c-a2e3ae16d628","ios":"levelo://app?vid=ea6dbac5-099f-4465-bf4c-a2e3ae16d628"},"vehicle_type_id":"4","last_reported":1757858847,"current_range_meters":2800,"station_id":"st_cvj6sg6p6f1abm77japg","pricing_plan_id":"cebpf4jnsgd1na2vs0mg"},{"bike_id":"0ad4fc46-3007-462f-afbd-76b2605ba1c4","system_id":"levelo_inurba_marseille","lat":43.29005,"lon":5.35612,"is_reserved":false,"is_disabled":false,"rental_uris":{"android":"levelo://app?vid=0ad4fc46-3007-462f-afbd-76b2605ba1c4","ios":"levelo://app?vid=0ad4fc46-3007-462f-afbd-76b2605ba1c4"},"vehicle_type_id":"4","last_reported":1757858847,"current_range_meters":2000,"station_id":"ce4bhb92rcd13ifvqen0","pricing_plan_id":"cebpf4jnsgd1na2vs0mg"},{"bike_id":"768aa2e6-c4b7-48bd-b1b1-6fecdf28b0dc","system_id":"levelo_inurba_marseille","lat":43.29195,"lon":5.35803,"is_reserved":false,"is_disabled":false,"rental_uris":{"android":"levelo://app?vid=768aa2e6-c4b7-48bd-b1b1-6fecdf28b0dc","ios":"levelo://app?vid=768aa2e6-c4b7-48bd-b1b1-6fecdf28b0dc"},"vehicle_type_id":"4","last_reported":1757858847,"current_range_meters":2800,"station_id":"ce4bhb12rcd13ifvqel0","pricing_plan_id":"cebpf4jnsgd1na2vs0mg"},{"bike_id":"5cb2804a-eac6-48e5-83a4-26437e3ea9e9","system_id":"levelo_inurba_marseille","lat":43.211865,"lon":5.350693,"is_reserved":false,"is_disabled":false,"rental_uris":{"android":"levelo://app?vid=5cb2804a-eac6-48e5-83a4-26437e3ea9e9","ios":"levelo://app?vid=5cb2804a-eac6-48e5-83a4-26437e3ea9e9"},"vehicle_type_id":"4","last_reported":1757858847,"current_range_meters":2800,"station_id":"st_cvj6sg6p6f1abm77japg","pricing_plan_id":"cebpf4jnsgd1na2vs0mg"},{"bike_id":"75dcf8e5-c823-4c10-91a8-c14c090510f6","system_id":"levelo_inurba_marseille","lat":43.30546,"lon":5.36564,"is_reserved":false,"is_disabled":false,"rental_uris":{"android":"levelo://app?vid=75dcf8e5-c823-4c10-91a8-c14c090510f6","ios":"levelo://app?vid=75dcf8e5-c823-4c10-91a8-c14c090510f6"},"vehicle_type_id":"4","last_reported":1757858847,"current_range_meters":2800,"station_id":"ce4bgs12rcd13ifvqcag","pricing_plan_id":"cebpf4jnsgd1na2vs0mg"},{"bike_id":"d2e4e46a-7428-40ac-8ab9-df359f805640","system_id":"levelo_inurba_marseille","lat":43.25005,"lon":5.38955,"is_reserved":false,"is_disabled":false,"rental_uris":{"android":"levelo://app?vid=d2e4e46a-7428-40ac-8ab9-df359f805640","ios":"levelo://app?vid=d2e4e46a-7428-40ac-8ab9-df359f805640"},"vehicle_type_id":"4","last_reported":1757858847,"current_range_meters":2800,"station_id":"ce4bhgp2rcd13ifvqfd0","pricing_plan_id":"cebpf4jnsgd1na2vs0mg"},{"bike_id":"66292ffd-0605-4c29-9ba4-c2fa7c6a01b4","system_id":"levelo_inurba_marseille","lat":43.27377,"lon":5.36256,"is_reserved":false,"is_disabled":false,"rental_uris":{"android":"levelo://app?vid=66292ffd-0605-4c29-9ba4-c2fa7c6a01b4","ios":"levelo://app?vid=66292ffd-0605-4c29-9ba4-c2fa7c6a01b4"},"vehicle_type_id":"4","last_reported":1757858847,"current_range_meters":3200,"station_id":"ce4bhbh2rcd13ifvqeo0","pricing_plan_id":"cebpf4jnsgd1na2vs0mg"},{"bike_id":"29a607fa-d686-4019-91b2-a35407ec75fc","system_id":"levelo_inurba_marseille","lat":43.26204,"lon":5.37443,"is_reserved":false,"is_disabled":false,"rental_uris":{"android":"levelo://app?vid=29a607fa-d686-4019-91b2-a35407ec75fc","ios":"levelo://app?vid=29a607fa-d686-4019-91b2-a35407ec75fc"},"vehicle_type_id":"4","last_reported":1757858847,"current_range_meters":3200,"station_id":"ce4bhgp2rcd13ifvqfc0","pricing_plan_id":"cebpf4jnsgd1na2vs0mg"},{"bike_id":"78e834d7-f6db-4901-9ed0-d74f0a9bec87","system_id":"levelo_inurba_marseille","lat":43.282722,"lon":5.35058,"is_reserved":false,"is_disabled":false,"rental_uris":{"android":"levelo://app?vid=78e834d7-f6db-4901-9ed0-d74f0a9bec87","ios":"levelo://app?vid=78e834d7-f6db-4901-9ed0-d74f0a9bec87"},"vehicle_type_id":"4","last_reported":1757858847,"current_range_meters":3200,"station_id":"ce4bhbp2rcd13ifvqerg","pricing_plan_id":"cebpf4jnsgd1na2vs0mg"},{"bike_id":"504d8c5a-e024-4887-b46c-5b6553d4901f","system_id":"levelo_inurba_marseille","lat":43.265557,"lon":5.372811,"is_reserved":false,"is_disabled":false,"rental_uris":{"android":"levelo://app?vid=504d8c5a-e024-4887-b46c-5b6553d4901f","ios":"levelo://app?vid=504d8c5a-e024-4887-b46c-5b6553d4901f"},"vehicle_type_id":"4","last_reported":1757858847,"current_range_meters":3600,"station_id":"ce4bhg12rcd13ifvqf70","pricing_plan_id":"cebpf4jnsgd1na2vs0mg"},{"bike_id":"3d78301d-e0c4-459b-9999-bb19bd2df99c","system_id":"levelo_inurba_marseille","lat":43.23965,"lon":5.36637,"is_reserved":false,"is_disabled":true,"rental_uris":{"android":"levelo://app?vid=3d78301d-e0c4-459b-9999-bb19bd2df99c","ios":"levelo://app?vid=3d78301d-e0c4-459b-9999-bb19bd2df99c"},"vehicle_type_id":"4","last_reported":1757858847,"current_range_meters":3600,"station_id":"ce4bhi12rcd13ifvqfp0","pricing_plan_id":"cebpf4jnsgd1na2vs0mg"},{"bike_id":"52ad22b3-5e05-4db5-a141-f9dc7ee2d49d","system_id":"levelo_inurba_marseille","lat":43.28401,"lon":5.37506,"is_reserved":false,"is_disabled":true,"rental_uris":{"android":"levelo://app?vid=52ad22b3-5e05-4db5-a141-f9dc7ee2d49d","ios":"levelo://app?vid=52ad22b3-5e05-4db5-a141-f9dc7ee2d49d"},"vehicle_type_id":"4","last_reported":1757858847,"current_range_meters":3600,"station_id":"ce4bh412rcd13ifvqds0","pricing_plan_id":"cebpf4jnsgd1na2vs0mg"},{"bike_id":"ab5c1607-e11f-47c2-bef0-897755b8189f","system_id":"levelo_inurba_marseille","lat":43.2175,"lon":5.3461,"is_reserved":false,"is_disabled":false,"rental_uris":{"android":"levelo://app?vid=ab5c1607-e11f-47c2-bef0-897755b8189f","ios":"levelo://app?vid=ab5c1607-e11f-47c2-bef0-897755b8189f"},"vehicle_type_id":"4","last_reported":1757858847,"current_range_meters":3600,"station_id":"st_cvj6r9ubvosntc0bgbag","pricing_plan_id":"cebpf4jnsgd1na2vs0mg"},{"bike_id":"9afcdde2-96c7-414c-91b8-ba69d906ffdf","system_id":"levelo_inurba_marseille","lat":43.260399,"lon":5.394333,"is_reserved":false,"is_disabled":false,"rental_uris":{"android":"levelo://app?vid=9afcdde2-96c7-414c-91b8-ba69d906ffdf","ios":"levelo://app?vid=9afcdde2-96c7-414c-91b8-ba69d906ffdf"},"vehicle_type_id":"4","last_reported":1757858847,"current_range_meters":3200,"station_id":"ce4bhh92rcd13ifvqfj0","pricing_plan_id":"cebpf4jnsgd1na2vs0mg"},{"bike_id":"e11a3072-5f98-42fb-97c1-e4e9a0da2038","system_id":"levelo_inurba_marseille","lat":43.2919,"lon":5.39315,"is_reserved":false,"is_disabled":false,"rental_uris":{"android":"levelo://app?vid=e11a3072-5f98-42fb-97c1-e4e9a0da2038","ios":"levelo://app?vid=e11a3072-5f98-42fb-97c1-e4e9a0da2038"},"vehicle_type_id":"4","last_reported":1757858847,"current_range_meters":3200,"station_id":"ce4bh192rcd13ifvqdd0","pricing_plan_id":"cebpf4jnsgd1na2vs0mg"},{"bike_id":"2d831865-337c-4ca3-8e7a-638eed477d68","system_id":"levelo_inurba_marseille","lat":43.26194,"lon":5.37448,"is_reserved":false,"is_disabled":false,"rental_uris":{"android":"levelo://app?vid=2d831865-337c-4ca3-8e7a-638eed477d68","ios":"levelo://app?vid=2d831865-337c-4ca3-8e7a-638eed477d68"},"vehicle_type_id":"4","last_reported":1757858847,"current_range_meters":3600,"station_id":"ce4bhgp2rcd13ifvqfc0","pricing_plan_id":"cebpf4jnsgd1na2vs0mg"},{"bike_id":"078f3fd8-aa96-4c85-b65a-e513f59a44f2","system_id":"levelo_inurba_marseille","lat":43.29576,"lon":5.37525,"is_reserved":false,"is_disabled":false,"rental_uris":{"android":"levelo://app?vid=078f3fd8-aa96-4c85-b65a-e513f59a44f2","ios":"levelo://app?vid=078f3fd8-aa96-4c85-b65a-e513f59a44f2"},"vehicle_type_id":"4","last_reported":1757858847,"current_range_meters":4000,"station_id":"ce4bgh92rcd13ifvqb50","pricing_plan_id":"cebpf4jnsgd1na2vs0mg"},{"bike_id":"69b17ba1-06ab-425a-8ee2-56abbe13fb30","system_id":"levelo_inurba_marseille","lat":43.301454,"lon":5.380792,"is_reserved":false,"is_disabled":false,"rental_uris":{"android":"levelo://app?vid=69b17ba1-06ab-425a-8ee2-56abbe13fb30","ios":"levelo://app?vid=69b17ba1-06ab-425a-8ee2-56abbe13fb30"},"vehicle_type_id":"4","last_reported":1757858847,"current_range_meters":800,"station_id":"ce4bgjp2rcd13ifvqbh0","pricing_plan_id":"cebpf4jnsgd1na2vs0mg"},{"bike_id":"86301d1f-2cab-48fd-8ef9-10d7b458d10b","system_id":"levelo_inurba_marseille","lat":43.31692,"lon":5.40474,"is_reserved":false,"is_disabled":false,"rental_uris":{"android":"levelo://app?vid=86301d1f-2cab-48fd-8ef9-10d7b458d10b","ios":"levelo://app?vid=86301d1f-2cab-48fd-8ef9-10d7b458d10b"},"vehicle_type_id":"4","last_reported":1757858847,"current_range_meters":3600,"station_id":"ce4bh012rcd13ifvqd00","pricing_plan_id":"cebpf4jnsgd1na2vs0mg"},{"bike_id":"a3977072-5f91-4a68-b0d6-dc3cb909a337","system_id":"levelo_inurba_marseille","lat":43.33769,"lon":5.37468,"is_reserved":false,"is_disabled":false,"rental_uris":{"android":"levelo://app?vid=a3977072-5f91-4a68-b0d6-dc3cb909a337","ios":"levelo://app?vid=a3977072-5f91-4a68-b0d6-dc3cb909a337"},"vehicle_type_id":"4","last_reported":1757858847,"current_range_meters":4400,"station_id":"","pricing_plan_id":"cebpf4jnsgd1na2vs0mg"},{"bike_id":"e99a44a9-cb2f-4b4a-a7eb-145dd21f36f5","system_id":"levelo_inurba_marseille","lat":43.29671,"lon":5.36859,"is_reserved":false,"is_disabled":false,"rental_uris":{"android":"levelo://app?vid=e99a44a9-cb2f-4b4a-a7eb-145dd21f36f5","ios":"levelo://app?vid=e99a44a9-cb2f-4b4a-a7eb-145dd21f36f5"},"vehicle_type_id":"4","last_reported":1757858847,"current_range_meters":4400,"station_id":"","pricing_plan_id":"cebpf4jnsgd1na2vs0mg"},{"bike_id":"3801b6be-4dc0-4de3-ae0c-9ba73cf04c75","system_id":"levelo_inurba_marseille","lat":43.30949,"lon":5.39035,"is_reserved":false,"is_disabled":false,"rental_uris":{"android":"levelo://app?vid=3801b6be-4dc0-4de3-ae0c-9ba73cf04c75","ios":"levelo://app?vid=3801b6be-4dc0-4de3-ae0c-9ba73cf04c75"},"vehicle_type_id":"4","last_reported":1757858847,"current_range_meters":4400,"station_id":"ce4bgup2rcd13ifvqco0","pricing_plan_id":"cebpf4jnsgd1na2vs0mg"},{"bike_id":"a0a499a1-40d9-4765-bfe4-d2dc90ec93df","system_id":"levelo_inurba_marseille","lat":43.2175,"lon":5.34603,"is_reserved":false,"is_disabled":false,"rental_uris":{"android":"levelo://app?vid=a0a499a1-40d9-4765-bfe4-d2dc90ec93df","ios":"levelo://app?vid=a0a499a1-40d9-4765-bfe4-d2dc90ec93df"},"vehicle_type_id":"4","last_reported":1757858847,"current_range_meters":4400,"station_id":"st_cvj6r9ubvosntc0bgbag","pricing_plan_id":"cebpf4jnsgd1na2vs0mg"},{"bike_id":"972b4c5f-3a00-4bb2-9116-b81f2cecc9f2","system_id":"levelo_inurba_marseille","lat":43.33764,"lon":5.37483,"is_reserved":false,"is_disabled":false,"rental_uris":{"android":"levelo://app?vid=972b4c5f-3a00-4bb2-9116-b81f2cecc9f2","ios":"levelo://app?vid=972b4c5f-3a00-4bb2-9116-b81f2cecc9f2"},"vehicle_type_id":"4","last_reported":1757858847,"current_range_meters":4400,"station_id":"","pricing_plan_id":"cebpf4jnsgd1na2vs0mg"},{"bike_id":"6a6ce6c3-f27e-4cdd-9e59-f0d7eb405ebc","system_id":"levelo_inurba_marseille","lat":43.29038,"lon":5.39978,"is_reserved":false,"is_disabled":false,"rental_uris":{"android":"levelo://app?vid=6a6ce6c3-f27e-4cdd-9e59-f0d7eb405ebc","ios":"levelo://app?vid=6a6ce6c3-f27e-4cdd-9e59-f0d7eb405ebc"},"vehicle_type_id":"4","last_reported":1757858847,"current_range_meters":4800,"station_id":"ce4bh392rcd13ifvqdm0","pricing_plan_id":"cebpf4jnsgd1na2vs0mg"},{"bike_id":"ce69135a-8ecb-4e0d-9a7d-0aac8bb4af3d","system_id":"levelo_inurba_marseille","lat":43.27612,"lon":5.36115,"is_reserved":false,"is_disabled":false,"rental_uris":{"android":"levelo://app?vid=ce69135a-8ecb-4e0d-9a7d-0aac8bb4af3d","ios":"levelo://app?vid=ce69135a-8ecb-4e0d-9a7d-0aac8bb4af3d"},"vehicle_type_id":"4","last_reported":1757858847,"current_range_meters":4800,"station_id":"ce4bgj92rcd13ifvqbe0","pricing_plan_id":"cebpf4jnsgd1na2vs0mg"},{"bike_id":"3bd595b7-af3b-43b1-8697-1bcb2a61af6f","system_id":"levelo_inurba_marseille","lat":43.27998,"lon":5.40005,"is_reserved":false,"is_disabled":true,"rental_uris":{"android":"levelo://app?vid=3bd595b7-af3b-43b1-8697-1bcb2a61af6f","ios":"levelo://app?vid=3bd595b7-af3b-43b1-8697-1bcb2a61af6f"},"vehicle_type_id":"4","last_reported":1757858847,"current_range_meters":4800,"station_id":"ce4bho92rcd13ifvqh4g","pricing_plan_id":"cebpf4jnsgd1na2vs0mg"},{"bike_id":"fea34a61-fd46-4366-b10a-9ec2212f7d5b","system_id":"levelo_inurba_marseille","lat":43.27962,"lon":5.38741,"is_reserved":false,"is_disabled":false,"rental_uris":{"android":"levelo://app?vid=fea34a61-fd46-4366-b10a-9ec2212f7d5b","ios":"levelo://app?vid=fea34a61-fd46-4366-b10a-9ec2212f7d5b"},"vehicle_type_id":"4","last_reported":1757858847,"current_range_meters":4800,"station_id":"ce4bhg12rcd13ifvqf80","pricing_plan_id":"cebpf4jnsgd1na2vs0mg"},{"bike_id":"dacecff3-2af2-4fdf-8d9b-8a86e902b6e0","system_id":"levelo_inurba_marseille","lat":43.28477,"lon":5.38415,"is_reserved":false,"is_disabled":false,"rental_uris":{"android":"levelo://app?vid=dacecff3-2af2-4fdf-8d9b-8a86e902b6e0","ios":"levelo://app?vid=dacecff3-2af2-4fdf-8d9b-8a86e902b6e0"},"vehicle_type_id":"4","last_reported":1757858847,"current_range_meters":5600,"station_id":"ce4bh512rcd13ifvqe3g","pricing_plan_id":"cebpf4jnsgd1na2vs0mg"},{"bike_id":"aa9fccfe-0f59-49bb-b887-0c3fa2c11da0","system_id":"levelo_inurba_marseille","lat":43.30527,"lon":5.38419,"is_reserved":false,"is_disabled":false,"rental_uris":{"android":"levelo://app?vid=aa9fccfe-0f59-49bb-b887-0c3fa2c11da0","ios":"levelo://app?vid=aa9fccfe-0f59-49bb-b887-0c3fa2c11da0"},"vehicle_type_id":"4","last_reported":1757858847,"current_range_meters":4800,"station_id":"ce4bgg92rcd13ifvqb30","pricing_plan_id":"cebpf4jnsgd1na2vs0mg"},{"bike_id":"c07d18d9-1b00-4fc8-ad62-14546d6f629c","system_id":"levelo_inurba_marseille","lat":43.28669,"lon":5.3635,"is_reserved":false,"is_disabled":false,"rental_uris":{"android":"levelo://app?vid=c07d18d9-1b00-4fc8-ad62-14546d6f629c","ios":"levelo://app?vid=c07d18d9-1b00-4fc8-ad62-14546d6f629c"},"vehicle_type_id":"4","last_reported":1757858847,"current_range_meters":5600,"station_id":"ce4bhah2rcd13ifvqej0","pricing_plan_id":"cebpf4jnsgd1na2vs0mg"},{"bike_id":"f00a186b-a00e-42a9-ace5-2151e4ff00e2","system_id":"levelo_inurba_marseille","lat":43.26207,"lon":5.37444,"is_reserved":false,"is_disabled":false,"rental_uris":{"android":"levelo://app?vid=f00a186b-a00e-42a9-ace5-2151e4ff00e2","ios":"levelo://app?vid=f00a186b-a00e-42a9-ace5-2151e4ff00e2"},"vehicle_type_id":"4","last_reported":1757858847,"current_range_meters":5600,"station_id":"ce4bhgp2rcd13ifvqfc0","pricing_plan_id":"cebpf4jnsgd1na2vs0mg"},{"bike_id":"e03bd15c-c472-4f08-bc2f-c1b8a57b70fb","system_id":"levelo_inurba_marseille","lat":43.33022,"lon":5.39043,"is_reserved":false,"is_disabled":false,"rental_uris":{"android":"levelo://app?vid=e03bd15c-c472-4f08-bc2f-c1b8a57b70fb","ios":"levelo://app?vid=e03bd15c-c472-4f08-bc2f-c1b8a57b70fb"},"vehicle_type_id":"4","last_reported":1757858847,"current_range_meters":5600,"station_id":"ce4bhr92rcd13ifvqhrg","pricing_plan_id":"cebpf4jnsgd1na2vs0mg"},{"bike_id":"1318e3a2-058f-4e6d-ba17-3f7d2baa3fee","system_id":"levelo_inurba_marseille","lat":43.27377,"lon":5.36253,"is_reserved":false,"is_disabled":false,"rental_uris":{"android":"levelo://app?vid=1318e3a2-058f-4e6d-ba17-3f7d2baa3fee","ios":"levelo://app?vid=1318e3a2-058f-4e6d-ba17-3f7d2baa3fee"},"vehicle_type_id":"4","last_reported":1757858847,"current_range_meters":5600,"station_id":"ce4bhbh2rcd13ifvqeo0","pricing_plan_id":"cebpf4jnsgd1na2vs0mg"},{"bike_id":"1187a813-b035-48d1-b29e-9d71fb0d41e3","system_id":"levelo_inurba_marseille","lat":43.28261,"lon":5.35067,"is_reserved":false,"is_disabled":false,"rental_uris":{"android":"levelo://app?vid=1187a813-b035-48d1-b29e-9d71fb0d41e3","ios":"levelo://app?vid=1187a813-b035-48d1-b29e-9d71fb0d41e3"},"vehicle_type_id":"4","last_reported":1757858847,"current_range_meters":5600,"station_id":"ce4bhbp2rcd13ifvqerg","pricing_plan_id":"cebpf4jnsgd1na2vs0mg"},{"bike_id":"02b6bfcf-8240-41de-8a75-4686cbf02fae","system_id":"levelo_inurba_marseille","lat":43.26199,"lon":5.37931,"is_reserved":false,"is_disabled":false,"rental_uris":{"android":"levelo://app?vid=02b6bfcf-8240-41de-8a75-4686cbf02fae","ios":"levelo://app?vid=02b6bfcf-8240-41de-8a75-4686cbf02fae"},"vehicle_type_id":"4","last_reported":1757858847,"current_range_meters":5600,"station_id":"ce4bhjp2rcd13ifvqg90","pricing_plan_id":"cebpf4jnsgd1na2vs0mg"},{"bike_id":"e16d9f4b-76b3-42e8-8f97-2b013296f322","system_id":"levelo_inurba_marseille","lat":43.26548,"lon":5.37285,"is_reserved":false,"is_disabled":true,"rental_uris":{"android":"levelo://app?vid=e16d9f4b-76b3-42e8-8f97-2b013296f322","ios":"levelo://app?vid=e16d9f4b-76b3-42e8-8f97-2b013296f322"},"vehicle_type_id":"4","last_reported":1757858847,"current_range_meters":6000,"station_id":"ce4bhg12rcd13ifvqf70","pricing_plan_id":"cebpf4jnsgd1na2vs0mg"},{"bike_id":"775af279-8ac9-4585-9121-809be9b13265","system_id":"levelo_inurba_marseille","lat":43.337775,"lon":5.374412,"is_reserved":false,"is_disabled":false,"rental_uris":{"android":"levelo://app?vid=775af279-8ac9-4585-9121-809be9b13265","ios":"levelo://app?vid=775af279-8ac9-4585-9121-809be9b13265"},"vehicle_type_id":"4","last_reported":1757858847,"current_range_meters":6000,"station_id":"","pricing_plan_id":"cebpf4jnsgd1na2vs0mg"},{"bike_id":"fcf36431-c9ef-4031-93fc-678d5aeccb8d","system_id":"levelo_inurba_marseille","lat":43.21744,"lon":5.346,"is_reserved":false,"is_disabled":false,"rental_uris":{"android":"levelo://app?vid=fcf36431-c9ef-4031-93fc-678d5aeccb8d","ios":"levelo://app?vid=fcf36431-c9ef-4031-93fc-678d5aeccb8d"},"vehicle_type_id":"4","last_reported":1757858847,"current_range_meters":6000,"station_id":"st_cvj6r9ubvosntc0bgbag","pricing_plan_id":"cebpf4jnsgd1na2vs0mg"},{"bike_id":"78f84639-56f9-4c15-8768-49ed5cee722d","system_id":"levelo_inurba_marseille","lat":43.26024,"lon":5.37552,"is_reserved":false,"is_disabled":true,"rental_uris":{"android":"levelo://app?vid=78f84639-56f9-4c15-8768-49ed5cee722d","ios":"levelo://app?vid=78f84639-56f9-4c15-8768-49ed5cee722d"},"vehicle_type_id":"4","last_reported":1757858847,"current_range_meters":6000,"station_id":"ce4bhgh2rcd13ifvqfa0","pricing_plan_id":"cebpf4jnsgd1na2vs0mg"},{"bike_id":"2aee842a-161e-4d4f-97f1-9eabadeafdb5","system_id":"levelo_inurba_marseille","lat":43.27624,"lon":5.36115,"is_reserved":false,"is_disabled":false,"rental_uris":{"android":"levelo://app?vid=2aee842a-161e-4d4f-97f1-9eabadeafdb5","ios":"levelo://app?vid=2aee842a-161e-4d4f-97f1-9eabadeafdb5"},"vehicle_type_id":"4","last_reported":1757858847,"current_range_meters":6400,"station_id":"ce4bgj92rcd13ifvqbe0","pricing_plan_id":"cebpf4jnsgd1na2vs0mg"},{"bike_id":"cd0aaa30-3ae7-4484-80c5-cb065b0b8ec3","system_id":"levelo_inurba_marseille","lat":43.26191,"lon":5.37448,"is_reserved":false,"is_disabled":false,"rental_uris":{"android":"levelo://app?vid=cd0aaa30-3ae7-4484-80c5-cb065b0b8ec3","ios":"levelo://app?vid=cd0aaa30-3ae7-4484-80c5-cb065b0b8ec3"},"vehicle_type_id":"4","last_reported":1757858847,"current_range_meters":6400,"station_id":"ce4bhgp2rcd13ifvqfc0","pricing_plan_id":"cebpf4jnsgd1na2vs0mg"},{"bike_id":"ae2200e0-55fa-4d16-87bf-72ca65d67371","system_id":"levelo_inurba_marseille","lat":43.28364,"lon":5.38455,"is_reserved":false,"is_disabled":true,"rental_uris":{"android":"levelo://app?vid=ae2200e0-55fa-4d16-87bf-72ca65d67371","ios":"levelo://app?vid=ae2200e0-55fa-4d16-87bf-72ca65d67371"},"vehicle_type_id":"4","last_reported":1757858847,"current_range_meters":6400,"station_id":"","pricing_plan_id":"cebpf4jnsgd1na2vs0mg"},{"bike_id":"f72a825d-d40a-4181-bfc3-9391a6984a48","system_id":"levelo_inurba_marseille","lat":43.26553,"lon":5.37266,"is_reserved":false,"is_disabled":false,"rental_uris":{"android":"levelo://app?vid=f72a825d-d40a-4181-bfc3-9391a6984a48","ios":"levelo://app?vid=f72a825d-d40a-4181-bfc3-9391a6984a48"},"vehicle_type_id":"4","last_reported":1757858847,"current_range_meters":6400,"station_id":"ce4bhg12rcd13ifvqf70","pricing_plan_id":"cebpf4jnsgd1na2vs0mg"},{"bike_id":"b623358e-b94e-4049-b006-2d503767bbc7","system_id":"levelo_inurba_marseille","lat":43.28427,"lon":5.3918,"is_reserved":false,"is_disabled":false,"rental_uris":{"android":"levelo://app?vid=b623358e-b94e-4049-b006-2d503767bbc7","ios":"levelo://app?vid=b623358e-b94e-4049-b006-2d503767bbc7"},"vehicle_type_id":"4","last_reported":1757858847,"current_range_meters":6000,"station_id":"ce4bhoh2rcd13ifvqh5g","pricing_plan_id":"cebpf4jnsgd1na2vs0mg"},{"bike_id":"25a2d09f-3d30-4813-89d2-8a9afcc403b9","system_id":"levelo_inurba_marseille","lat":43.30327,"lon":5.40432,"is_reserved":false,"is_disabled":false,"rental_uris":{"android":"levelo://app?vid=25a2d09f-3d30-4813-89d2-8a9afcc403b9","ios":"levelo://app?vid=25a2d09f-3d30-4813-89d2-8a9afcc403b9"},"vehicle_type_id":"4","last_reported":1757858847,"current_range_meters":6400,"station_id":"ce4bh012rcd13ifvqd10","pricing_plan_id":"cebpf4jnsgd1na2vs0mg"},{"bike_id":"c3fc3079-854c-4ad3-8103-ebbade3d2ee4","system_id":"levelo_inurba_marseille","lat":43.28666,"lon":5.3636,"is_reserved":false,"is_disabled":false,"rental_uris":{"android":"levelo://app?vid=c3fc3079-854c-4ad3-8103-ebbade3d2ee4","ios":"levelo://app?vid=c3fc3079-854c-4ad3-8103-ebbade3d2ee4"},"vehicle_type_id":"4","last_reported":1757858847,"current_range_meters":6800,"station_id":"ce4bhah2rcd13ifvqej0","pricing_plan_id":"cebpf4jnsgd1na2vs0mg"},{"bike_id":"4cb5f2a0-80dd-45b1-ab8d-1c90daf16e7a","system_id":"levelo_inurba_marseille","lat":43.21745,"lon":5.34598,"is_reserved":false,"is_disabled":false,"rental_uris":{"android":"levelo://app?vid=4cb5f2a0-80dd-45b1-ab8d-1c90daf16e7a","ios":"levelo://app?vid=4cb5f2a0-80dd-45b1-ab8d-1c90daf16e7a"},"vehicle_type_id":"4","last_reported":1757858847,"current_range_meters":6800,"station_id":"st_cvj6r9ubvosntc0bgbag","pricing_plan_id":"cebpf4jnsgd1na2vs0mg"},{"bike_id":"e1d2e4b0-dcc3-4ec6-8f60-71a0707cd0fe","system_id":"levelo_inurba_marseille","lat":43.21745,"lon":5.34603,"is_reserved":false,"is_disabled":true,"rental_uris":{"android":"levelo://app?vid=e1d2e4b0-dcc3-4ec6-8f60-71a0707cd0fe","ios":"levelo://app?vid=e1d2e4b0-dcc3-4ec6-8f60-71a0707cd0fe"},"vehicle_type_id":"4","last_reported":1757858847,"current_range_meters":6800,"station_id":"st_cvj6r9ubvosntc0bgbag","pricing_plan_id":"cebpf4jnsgd1na2vs0mg"},{"bike_id":"a24c4696-920b-4645-847f-87e0b46915a6","system_id":"levelo_inurba_marseille","lat":43.3248,"lon":5.42485,"is_reserved":false,"is_disabled":false,"rental_uris":{"android":"levelo://app?vid=a24c4696-920b-4645-847f-87e0b46915a6","ios":"levelo://app?vid=a24c4696-920b-4645-847f-87e0b46915a6"},"vehicle_type_id":"4","last_reported":1757858847,"current_range_meters":7200,"station_id":"","pricing_plan_id":"cebpf4jnsgd1na2vs0mg"},{"bike_id":"0eac0c05-dbf1-4c0b-af6d-53c5df91e290","system_id":"levelo_inurba_marseille","lat":43.29693,"lon":5.37144,"is_reserved":false,"is_disabled":false,"rental_uris":{"android":"levelo://app?vid=0eac0c05-dbf1-4c0b-af6d-53c5df91e290","ios":"levelo://app?vid=0eac0c05-dbf1-4c0b-af6d-53c5df91e290"},"vehicle_type_id":"4","last_reported":1757858847,"current_range_meters":7200,"station_id":"","pricing_plan_id":"cebpf4jnsgd1na2vs0mg"},{"bike_id":"94f81f39-3c51-4c7c-9f88-5224c18d3bd6","system_id":"levelo_inurba_marseille","lat":43.318968,"lon":5.407191,"is_reserved":false,"is_disabled":false,"rental_uris":{"android":"levelo://app?vid=94f81f39-3c51-4c7c-9f88-5224c18d3bd6","ios":"levelo://app?vid=94f81f39-3c51-4c7c-9f88-5224c18d3bd6"},"vehicle_type_id":"4","last_reported":1757858847,"current_range_meters":7200,"station_id":"ce4bhq12rcd13ifvqhig","pricing_plan_id":"cebpf4jnsgd1na2vs0mg"},{"bike_id":"eaa220fb-5349-44c0-849a-e1e199bab0e0","system_id":"levelo_inurba_marseille","lat":43.304613,"lon":5.367109,"is_reserved":false,"is_disabled":true,"rental_uris":{"android":"levelo://app?vid=eaa220fb-5349-44c0-849a-e1e199bab0e0","ios":"levelo://app?vid=eaa220fb-5349-44c0-849a-e1e199bab0e0"},"vehicle_type_id":"4","last_reported":1757858847,"current_range_meters":8000,"station_id":"","pricing_plan_id":"cebpf4jnsgd1na2vs0mg"},{"bike_id":"fbcaa5be-76d1-41b1-8be1-f8ff6820e3ae","system_id":"levelo_inurba_marseille","lat":43.32347,"lon":5.40619,"is_reserved":false,"is_disabled":false,"rental_uris":{"android":"levelo://app?vid=fbcaa5be-76d1-41b1-8be1-f8ff6820e3ae","ios":"levelo://app?vid=fbcaa5be-76d1-41b1-8be1-f8ff6820e3ae"},"vehicle_type_id":"4","last_reported":1757858847,"current_range_meters":8000,"station_id":"ce4bhq92rcd13ifvqhjg","pricing_plan_id":"cebpf4jnsgd1na2vs0mg"},{"bike_id":"d7c2a94b-7264-42d3-a6c8-933410926114","system_id":"levelo_inurba_marseille","lat":43.25488,"lon":5.3764,"is_reserved":false,"is_disabled":false,"rental_uris":{"android":"levelo://app?vid=d7c2a94b-7264-42d3-a6c8-933410926114","ios":"levelo://app?vid=d7c2a94b-7264-42d3-a6c8-933410926114"},"vehicle_type_id":"4","last_reported":1757858847,"current_range_meters":8000,"station_id":"ce4bhh12rcd13ifvqff0","pricing_plan_id":"cebpf4jnsgd1na2vs0mg"},{"bike_id":"8c2c4ca1-e2d8-4cf6-94d6-963467695610","system_id":"levelo_inurba_marseille","lat":43.31114,"lon":5.38575,"is_reserved":false,"is_disabled":false,"rental_uris":{"android":"levelo://app?vid=8c2c4ca1-e2d8-4cf6-94d6-963467695610","ios":"levelo://app?vid=8c2c4ca1-e2d8-4cf6-94d6-963467695610"},"vehicle_type_id":"4","last_reported":1757858847,"current_range_meters":8000,"station_id":"","pricing_plan_id":"cebpf4jnsgd1na2vs0mg"},{"bike_id":"9c4dcf27-5c3f-4ea1-8ec0-ac067723ea8f","system_id":"levelo_inurba_marseille","lat":43.27069,"lon":5.42279,"is_reserved":false,"is_disabled":false,"rental_uris":{"android":"levelo://app?vid=9c4dcf27-5c3f-4ea1-8ec0-ac067723ea8f","ios":"levelo://app?vid=9c4dcf27-5c3f-4ea1-8ec0-ac067723ea8f"},"vehicle_type_id":"4","last_reported":1757858847,"current_range_meters":8000,"station_id":"ce4bhk92rcd13ifvqgb0","pricing_plan_id":"cebpf4jnsgd1na2vs0mg"},{"bike_id":"68b1e002-cec1-4c67-81bd-a1b0e7ba897f","system_id":"levelo_inurba_marseille","lat":43.29219,"lon":5.36068,"is_reserved":false,"is_disabled":false,"rental_uris":{"android":"levelo://app?vid=68b1e002-cec1-4c67-81bd-a1b0e7ba897f","ios":"levelo://app?vid=68b1e002-cec1-4c67-81bd-a1b0e7ba897f"},"vehicle_type_id":"4","last_reported":1757858847,"current_range_meters":8000,"station_id":"ce4bhbh2rcd13ifvqeqg","pricing_plan_id":"cebpf4jnsgd1na2vs0mg"},{"bike_id":"67b072ce-7fb6-4cc4-8520-93e4686a4d4e","system_id":"levelo_inurba_marseille","lat":43.29182,"lon":5.35824,"is_reserved":false,"is_disabled":false,"rental_uris":{"android":"levelo://app?vid=67b072ce-7fb6-4cc4-8520-93e4686a4d4e","ios":"levelo://app?vid=67b072ce-7fb6-4cc4-8520-93e4686a4d4e"},"vehicle_type_id":"4","last_reported":1757858847,"current_range_meters":8000,"station_id":"ce4bhb12rcd13ifvqel0","pricing_plan_id":"cebpf4jnsgd1na2vs0mg"},{"bike_id":"903962d2-bb9b-4f09-b2d8-92f0ec03f97c","system_id":"levelo_inurba_marseille","lat":43.21746,"lon":5.34604,"is_reserved":false,"is_disabled":false,"rental_uris":{"android":"levelo://app?vid=903962d2-bb9b-4f09-b2d8-92f0ec03f97c","ios":"levelo://app?vid=903962d2-bb9b-4f09-b2d8-92f0ec03f97c"},"vehicle_type_id":"4","last_reported":1757858847,"current_range_meters":8400,"station_id":"st_cvj6r9ubvosntc0bgbag","pricing_plan_id":"cebpf4jnsgd1na2vs0mg"},{"bike_id":"4891d751-b66c-4a3d-89d5-78926b795844","system_id":"levelo_inurba_marseille","lat":43.30238,"lon":5.4483,"is_reserved":false,"is_disabled":false,"rental_uris":{"android":"levelo://app?vid=4891d751-b66c-4a3d-89d5-78926b795844","ios":"levelo://app?vid=4891d751-b66c-4a3d-89d5-78926b795844"},"vehicle_type_id":"4","last_reported":1757858847,"current_range_meters":8400,"station_id":"","pricing_plan_id":"cebpf4jnsgd1na2vs0mg"},{"bike_id":"b7814695-0292-429c-8ba6-3485f206578a","system_id":"levelo_inurba_marseille","lat":43.27377,"lon":5.36254,"is_reserved":false,"is_disabled":false,"rental_uris":{"android":"levelo://app?vid=b7814695-0292-429c-8ba6-3485f206578a","ios":"levelo://app?vid=b7814695-0292-429c-8ba6-3485f206578a"},"vehicle_type_id":"4","last_reported":1757858847,"current_range_meters":8400,"station_id":"ce4bhbh2rcd13ifvqeo0","pricing_plan_id":"cebpf4jnsgd1na2vs0mg"},{"bike_id":"ad0a454c-d037-48b9-ada0-855da951a271","system_id":"levelo_inurba_marseille","lat":43.25867,"lon":5.39891,"is_reserved":false,"is_disabled":false,"rental_uris":{"android":"levelo://app?vid=ad0a454c-d037-48b9-ada0-855da951a271","ios":"levelo://app?vid=ad0a454c-d037-48b9-ada0-855da951a271"},"vehicle_type_id":"4","last_reported":1757858847,"current_range_meters":8400,"station_id":"ce4bhl92rcd13ifvqghg","pricing_plan_id":"cebpf4jnsgd1na2vs0mg"},{"bike_id":"463345a6-2d4f-4448-8488-9cab1efda713","system_id":"levelo_inurba_marseille","lat":43.25459,"lon":5.40127,"is_reserved":false,"is_disabled":false,"rental_uris":{"android":"levelo://app?vid=463345a6-2d4f-4448-8488-9cab1efda713","ios":"levelo://app?vid=463345a6-2d4f-4448-8488-9cab1efda713"},"vehicle_type_id":"4","last_reported":1757858847,"current_range_meters":8400,"station_id":"","pricing_plan_id":"cebpf4jnsgd1na2vs0mg"},{"bike_id":"cf703c23-532d-49f4-9080-b1aecbd8241c","system_id":"levelo_inurba_marseille","lat":43.29219,"lon":5.3606,"is_reserved":false,"is_disabled":false,"rental_uris":{"android":"levelo://app?vid=cf703c23-532d-49f4-9080-b1aecbd8241c","ios":"levelo://app?vid=cf703c23-532d-49f4-9080-b1aecbd8241c"},"vehicle_type_id":"4","last_reported":1757858847,"current_range_meters":8400,"station_id":"ce4bhbh2rcd13ifvqeqg","pricing_plan_id":"cebpf4jnsgd1na2vs0mg"},{"bike_id":"1f14061f-67c0-4d89-88bc-aefec6788f9a","system_id":"levelo_inurba_marseille","lat":43.24163,"lon":5.36399,"is_reserved":false,"is_disabled":false,"rental_uris":{"android":"levelo://app?vid=1f14061f-67c0-4d89-88bc-aefec6788f9a","ios":"levelo://app?vid=1f14061f-67c0-4d89-88bc-aefec6788f9a"},"vehicle_type_id":"4","last_reported":1757858847,"current_range_meters":8400,"station_id":"cpo36qri1sfpv3e86is0","pricing_plan_id":"cebpf4jnsgd1na2vs0mg"},{"bike_id":"a1bcdbdb-d4d4-4df3-a93c-5f4c7b4e51bf","system_id":"levelo_inurba_marseille","lat":43.30624,"lon":5.36572,"is_reserved":false,"is_disabled":false,"rental_uris":{"android":"levelo://app?vid=a1bcdbdb-d4d4-4df3-a93c-5f4c7b4e51bf","ios":"levelo://app?vid=a1bcdbdb-d4d4-4df3-a93c-5f4c7b4e51bf"},"vehicle_type_id":"4","last_reported":1757858847,"current_range_meters":8800,"station_id":"","pricing_plan_id":"cebpf4jnsgd1na2vs0mg"},{"bike_id":"ceaaf56f-4cdc-466f-8abb-9e680a625c7b","system_id":"levelo_inurba_marseille","lat":43.21753,"lon":5.34587,"is_reserved":false,"is_disabled":false,"rental_uris":{"android":"levelo://app?vid=ceaaf56f-4cdc-466f-8abb-9e680a625c7b","ios":"levelo://app?vid=ceaaf56f-4cdc-466f-8abb-9e680a625c7b"},"vehicle_type_id":"4","last_reported":1757858847,"current_range_meters":8800,"station_id":"st_cvj6r9ubvosntc0bgbag","pricing_plan_id":"cebpf4jnsgd1na2vs0mg"},{"bike_id":"84be000e-b186-4e60-8aaa-b7a0f42a7175","system_id":"levelo_inurba_marseille","lat":43.337616,"lon":5.374353,"is_reserved":false,"is_disabled":false,"rental_uris":{"android":"levelo://app?vid=84be000e-b186-4e60-8aaa-b7a0f42a7175","ios":"levelo://app?vid=84be000e-b186-4e60-8aaa-b7a0f42a7175"},"vehicle_type_id":"4","last_reported":1757858847,"current_range_meters":8800,"station_id":"","pricing_plan_id":"cebpf4jnsgd1na2vs0mg"},{"bike_id":"2ef872a3-9f4b-470b-a9dc-65831f6db599","system_id":"levelo_inurba_marseille","lat":43.25501,"lon":5.37651,"is_reserved":false,"is_disabled":false,"rental_uris":{"android":"levelo://app?vid=2ef872a3-9f4b-470b-a9dc-65831f6db599","ios":"levelo://app?vid=2ef872a3-9f4b-470b-a9dc-65831f6db599"},"vehicle_type_id":"4","last_reported":1757858847,"current_range_meters":8000,"station_id":"ce4bhh12rcd13ifvqff0","pricing_plan_id":"cebpf4jnsgd1na2vs0mg"},{"bike_id":"6518bb05-deb9-4d85-a1df-e99a14087a44","system_id":"levelo_inurba_marseille","lat":43.28402,"lon":5.34968,"is_reserved":false,"is_disabled":false,"rental_uris":{"android":"levelo://app?vid=6518bb05-deb9-4d85-a1df-e99a14087a44","ios":"levelo://app?vid=6518bb05-deb9-4d85-a1df-e99a14087a44"},"vehicle_type_id":"4","last_reported":1757858847,"current_range_meters":8800,"station_id":"ce4bhbh2rcd13ifvqepg","pricing_plan_id":"cebpf4jnsgd1na2vs0mg"},{"bike_id":"d5c98035-fc72-4062-a3ec-13203f68e8ed","system_id":"levelo_inurba_marseille","lat":43.288639,"lon":5.425119,"is_reserved":false,"is_disabled":false,"rental_uris":{"android":"levelo://app?vid=d5c98035-fc72-4062-a3ec-13203f68e8ed","ios":"levelo://app?vid=d5c98035-fc72-4062-a3ec-13203f68e8ed"},"vehicle_type_id":"4","last_reported":1757858847,"current_range_meters":8800,"station_id":"","pricing_plan_id":"cebpf4jnsgd1na2vs0mg"},{"bike_id":"a321fb20-b536-402d-8d94-4d34645b8c7c","system_id":"levelo_inurba_marseille","lat":43.32367,"lon":5.38888,"is_reserved":false,"is_disabled":false,"rental_uris":{"android":"levelo://app?vid=a321fb20-b536-402d-8d94-4d34645b8c7c","ios":"levelo://app?vid=a321fb20-b536-402d-8d94-4d34645b8c7c"},"vehicle_type_id":"4","last_reported":1757858847,"current_range_meters":8800,"station_id":"ce4bhqp2rcd13ifvqhog","pricing_plan_id":"cebpf4jnsgd1na2vs0mg"},{"bike_id":"37219c3c-2547-4af1-9041-8de4091ccb79","system_id":"levelo_inurba_marseille","lat":43.29256,"lon":5.409,"is_reserved":false,"is_disabled":false,"rental_uris":{"android":"levelo://app?vid=37219c3c-2547-4af1-9041-8de4091ccb79","ios":"levelo://app?vid=37219c3c-2547-4af1-9041-8de4091ccb79"},"vehicle_type_id":"4","last_reported":1757858847,"current_range_meters":9200,"station_id":"ce4bh192rcd13ifvqdc0","pricing_plan_id":"cebpf4jnsgd1na2vs0mg"},{"bike_id":"b9d99261-2bc4-4dcc-ba2c-c8f146b3c228","system_id":"levelo_inurba_marseille","lat":43.25495,"lon":5.37656,"is_reserved":false,"is_disabled":false,"rental_uris":{"android":"levelo://app?vid=b9d99261-2bc4-4dcc-ba2c-c8f146b3c228","ios":"levelo://app?vid=b9d99261-2bc4-4dcc-ba2c-c8f146b3c228"},"vehicle_type_id":"4","last_reported":1757858847,"current_range_meters":9200,"station_id":"ce4bhh12rcd13ifvqff0","pricing_plan_id":"cebpf4jnsgd1na2vs0mg"},{"bike_id":"49e09061-fa7e-430c-b2a4-fcc34d072b44","system_id":"levelo_inurba_marseille","lat":43.26142,"lon":5.37515,"is_reserved":false,"is_disabled":false,"rental_uris":{"android":"levelo://app?vid=49e09061-fa7e-430c-b2a4-fcc34d072b44","ios":"levelo://app?vid=49e09061-fa7e-430c-b2a4-fcc34d072b44"},"vehicle_type_id":"4","last_reported":1757858847,"current_range_meters":9200,"station_id":"","pricing_plan_id":"cebpf4jnsgd1na2vs0mg"},{"bike_id":"38193a70-2ce0-4df3-8e83-dbda80bb6624","system_id":"levelo_inurba_marseille","lat":43.30133,"lon":5.39867,"is_reserved":false,"is_disabled":false,"rental_uris":{"android":"levelo://app?vid=38193a70-2ce0-4df3-8e83-dbda80bb6624","ios":"levelo://app?vid=38193a70-2ce0-4df3-8e83-dbda80bb6624"},"vehicle_type_id":"4","last_reported":1757858847,"current_range_meters":9200,"station_id":"","pricing_plan_id":"cebpf4jnsgd1na2vs0mg"},{"bike_id":"02dbb44c-70e3-4a7a-b86e-6159cc35ba47","system_id":"levelo_inurba_marseille","lat":43.29587,"lon":5.38689,"is_reserved":false,"is_disabled":false,"rental_uris":{"android":"levelo://app?vid=02dbb44c-70e3-4a7a-b86e-6159cc35ba47","ios":"levelo://app?vid=02dbb44c-70e3-4a7a-b86e-6159cc35ba47"},"vehicle_type_id":"4","last_reported":1757858847,"current_range_meters":9200,"station_id":"ce4bgih2rcd13ifvqba0","pricing_plan_id":"cebpf4jnsgd1na2vs0mg"},{"bike_id":"2e186315-7493-45b7-97f5-60e1e5d4d88a","system_id":"levelo_inurba_marseille","lat":43.21209,"lon":5.35069,"is_reserved":false,"is_disabled":false,"rental_uris":{"android":"levelo://app?vid=2e186315-7493-45b7-97f5-60e1e5d4d88a","ios":"levelo://app?vid=2e186315-7493-45b7-97f5-60e1e5d4d88a"},"vehicle_type_id":"4","last_reported":1757858847,"current_range_meters":9600,"station_id":"st_cvj6sg6p6f1abm77japg","pricing_plan_id":"cebpf4jnsgd1na2vs0mg"},{"bike_id":"6515536f-56de-4109-b7a1-24c742aed225","system_id":"levelo_inurba_marseille","lat":43.31997,"lon":5.37234,"is_reserved":false,"is_disabled":false,"rental_uris":{"android":"levelo://app?vid=6515536f-56de-4109-b7a1-24c742aed225","ios":"levelo://app?vid=6515536f-56de-4109-b7a1-24c742aed225"},"vehicle_type_id":"4","last_reported":1757858847,"current_range_meters":9600,"station_id":"","pricing_plan_id":"cebpf4jnsgd1na2vs0mg"},{"bike_id":"55d59e02-f5a5-4e1a-9360-556e842fa2a4","system_id":"levelo_inurba_marseille","lat":43.33764,"lon":5.37496,"is_reserved":false,"is_disabled":false,"rental_uris":{"android":"levelo://app?vid=55d59e02-f5a5-4e1a-9360-556e842fa2a4","ios":"levelo://app?vid=55d59e02-f5a5-4e1a-9360-556e842fa2a4"},"vehicle_type_id":"4","last_reported":1757858847,"current_range_meters":9600,"station_id":"","pricing_plan_id":"cebpf4jnsgd1na2vs0mg"},{"bike_id":"d9e77371-1756-48bf-a549-242561f796bd","system_id":"levelo_inurba_marseille","lat":43.32385,"lon":5.38937,"is_reserved":false,"is_disabled":false,"rental_uris":{"android":"levelo://app?vid=d9e77371-1756-48bf-a549-242561f796bd","ios":"levelo://app?vid=d9e77371-1756-48bf-a549-242561f796bd"},"vehicle_type_id":"4","last_reported":1757858847,"current_range_meters":9600,"station_id":"ce4bhqp2rcd13ifvqhog","pricing_plan_id":"cebpf4jnsgd1na2vs0mg"},{"bike_id":"d5fe8587-d577-4927-9f03-bf5f1fa338f3","system_id":"levelo_inurba_marseille","lat":43.32576,"lon":5.37574,"is_reserved":false,"is_disabled":false,"rental_uris":{"android":"levelo://app?vid=d5fe8587-d577-4927-9f03-bf5f1fa338f3","ios":"levelo://app?vid=d5fe8587-d577-4927-9f03-bf5f1fa338f3"},"vehicle_type_id":"4","last_reported":1757858847,"current_range_meters":9600,"station_id":"","pricing_plan_id":"cebpf4jnsgd1na2vs0mg"},{"bike_id":"20fee8fc-fb92-4c0f-9535-a2749893db72","system_id":"levelo_inurba_marseille","lat":43.212,"lon":5.3506,"is_reserved":false,"is_disabled":false,"rental_uris":{"android":"levelo://app?vid=20fee8fc-fb92-4c0f-9535-a2749893db72","ios":"levelo://app?vid=20fee8fc-fb92-4c0f-9535-a2749893db72"},"vehicle_type_id":"4","last_reported":1757858847,"current_range_meters":9600,"station_id":"st_cvj6sg6p6f1abm77japg","pricing_plan_id":"cebpf4jnsgd1na2vs0mg"},{"bike_id":"d9c11a94-d122-4240-b95b-24fdee8810ac","system_id":"levelo_inurba_marseille","lat":43.28276,"lon":5.39888,"is_reserved":false,"is_disabled":false,"rental_uris":{"android":"levelo://app?vid=d9c11a94-d122-4240-b95b-24fdee8810ac","ios":"levelo://app?vid=d9c11a94-d122-4240-b95b-24fdee8810ac"},"vehicle_type_id":"4","last_reported":1757858847,"current_range_meters":9600,"station_id":"","pricing_plan_id":"cebpf4jnsgd1na2vs0mg"},{"bike_id":"406f6607-363d-4cf0-95ae-26829ed0307c","system_id":"levelo_inurba_marseille","lat":43.262307,"lon":5.404411,"is_reserved":false,"is_disabled":true,"rental_uris":{"android":"levelo://app?vid=406f6607-363d-4cf0-95ae-26829ed0307c","ios":"levelo://app?vid=406f6607-363d-4cf0-95ae-26829ed0307c"},"vehicle_type_id":"4","last_reported":1757858847,"current_range_meters":9600,"station_id":"ce4bhmh2rcd13ifvqgmg","pricing_plan_id":"cebpf4jnsgd1na2vs0mg"},{"bike_id":"97c3614d-eda9-485b-96ae-6b23e44091b8","system_id":"levelo_inurba_marseille","lat":43.30353,"lon":5.41874,"is_reserved":false,"is_disabled":false,"rental_uris":{"android":"levelo://app?vid=97c3614d-eda9-485b-96ae-6b23e44091b8","ios":"levelo://app?vid=97c3614d-eda9-485b-96ae-6b23e44091b8"},"vehicle_type_id":"4","last_reported":1757858847,"current_range_meters":9200,"station_id":"ce4bhop2rcd13ifvqh7g","pricing_plan_id":"cebpf4jnsgd1na2vs0mg"},{"bike_id":"974e0192-4f9e-4803-b6bc-e5f6e12940e1","system_id":"levelo_inurba_marseille","lat":43.31761,"lon":5.37591,"is_reserved":false,"is_disabled":false,"rental_uris":{"android":"levelo://app?vid=974e0192-4f9e-4803-b6bc-e5f6e12940e1","ios":"levelo://app?vid=974e0192-4f9e-4803-b6bc-e5f6e12940e1"},"vehicle_type_id":"4","last_reported":1757858847,"current_range_meters":10000,"station_id":"","pricing_plan_id":"cebpf4jnsgd1na2vs0mg"},{"bike_id":"a6bb5433-9262-4693-ac9f-ce47017b4d18","system_id":"levelo_inurba_marseille","lat":43.2119,"lon":5.35064,"is_reserved":false,"is_disabled":false,"rental_uris":{"android":"levelo://app?vid=a6bb5433-9262-4693-ac9f-ce47017b4d18","ios":"levelo://app?vid=a6bb5433-9262-4693-ac9f-ce47017b4d18"},"vehicle_type_id":"4","last_reported":1757858847,"current_range_meters":10000,"station_id":"st_cvj6sg6p6f1abm77japg","pricing_plan_id":"cebpf4jnsgd1na2vs0mg"},{"bike_id":"7e6f8834-af2a-4c33-8175-0cff373c8e02","system_id":"levelo_inurba_marseille","lat":43.283614,"lon":5.38633,"is_reserved":false,"is_disabled":true,"rental_uris":{"android":"levelo://app?vid=7e6f8834-af2a-4c33-8175-0cff373c8e02","ios":"levelo://app?vid=7e6f8834-af2a-4c33-8175-0cff373c8e02"},"vehicle_type_id":"4","last_reported":1757858847,"current_range_meters":10000,"station_id":"ce4bh492rcd13ifvqdvg","pricing_plan_id":"cebpf4jnsgd1na2vs0mg"},{"bike_id":"ee42c31a-b74b-4b2d-917a-cd50dc10c6ce","system_id":"levelo_inurba_marseille","lat":43.32977,"lon":5.39046,"is_reserved":false,"is_disabled":false,"rental_uris":{"android":"levelo://app?vid=ee42c31a-b74b-4b2d-917a-cd50dc10c6ce","ios":"levelo://app?vid=ee42c31a-b74b-4b2d-917a-cd50dc10c6ce"},"vehicle_type_id":"4","last_reported":1757858847,"current_range_meters":10000,"station_id":"ce4bhr92rcd13ifvqhrg","pricing_plan_id":"cebpf4jnsgd1na2vs0mg"},{"bike_id":"5b008e65-6d85-4a24-b923-a4454bd3f4ac","system_id":"levelo_inurba_marseille","lat":43.21196,"lon":5.35071,"is_reserved":false,"is_disabled":false,"rental_uris":{"android":"levelo://app?vid=5b008e65-6d85-4a24-b923-a4454bd3f4ac","ios":"levelo://app?vid=5b008e65-6d85-4a24-b923-a4454bd3f4ac"},"vehicle_type_id":"4","last_reported":1757858847,"current_range_meters":10000,"station_id":"st_cvj6sg6p6f1abm77japg","pricing_plan_id":"cebpf4jnsgd1na2vs0mg"},{"bike_id":"f07d1a34-6972-4c1d-8ed8-100dd0fc1e78","system_id":"levelo_inurba_marseille","lat":43.32985,"lon":5.39052,"is_reserved":false,"is_disabled":false,"rental_uris":{"android":"levelo://app?vid=f07d1a34-6972-4c1d-8ed8-100dd0fc1e78","ios":"levelo://app?vid=f07d1a34-6972-4c1d-8ed8-100dd0fc1e78"},"vehicle_type_id":"4","last_reported":1757858847,"current_range_meters":10000,"station_id":"ce4bhr92rcd13ifvqhrg","pricing_plan_id":"cebpf4jnsgd1na2vs0mg"},{"bike_id":"fc424055-0b86-477f-9a71-5134ad1f84db","system_id":"levelo_inurba_marseille","lat":43.21182,"lon":5.35051,"is_reserved":false,"is_disabled":false,"rental_uris":{"android":"levelo://app?vid=fc424055-0b86-477f-9a71-5134ad1f84db","ios":"levelo://app?vid=fc424055-0b86-477f-9a71-5134ad1f84db"},"vehicle_type_id":"4","last_reported":1757858847,"current_range_meters":10000,"station_id":"st_cvj6sg6p6f1abm77japg","pricing_plan_id":"cebpf4jnsgd1na2vs0mg"},{"bike_id":"da339fb0-b69b-4d3f-a510-101c283938f3","system_id":"levelo_inurba_marseille","lat":43.29953,"lon":5.41308,"is_reserved":false,"is_disabled":false,"rental_uris":{"android":"levelo://app?vid=da339fb0-b69b-4d3f-a510-101c283938f3","ios":"levelo://app?vid=da339fb0-b69b-4d3f-a510-101c283938f3"},"vehicle_type_id":"4","last_reported":1757858847,"current_range_meters":10000,"station_id":"ce4bhp12rcd13ifvqh9g","pricing_plan_id":"cebpf4jnsgd1na2vs0mg"},{"bike_id":"31f4578e-18c6-48fb-9fec-123fce0578f9","system_id":"levelo_inurba_marseille","lat":43.33797,"lon":5.37427,"is_reserved":false,"is_disabled":false,"rental_uris":{"android":"levelo://app?vid=31f4578e-18c6-48fb-9fec-123fce0578f9","ios":"levelo://app?vid=31f4578e-18c6-48fb-9fec-123fce0578f9"},"vehicle_type_id":"4","last_reported":1757858847,"current_range_meters":10000,"station_id":"","pricing_plan_id":"cebpf4jnsgd1na2vs0mg"},{"bike_id":"54756892-40fc-40da-862a-36f475f86070","system_id":"levelo_inurba_marseille","lat":43.29687,"lon":5.37134,"is_reserved":false,"is_disabled":false,"rental_uris":{"android":"levelo://app?vid=54756892-40fc-40da-862a-36f475f86070","ios":"levelo://app?vid=54756892-40fc-40da-862a-36f475f86070"},"vehicle_type_id":"4","last_reported":1757858847,"current_range_meters":10000,"station_id":"","pricing_plan_id":"cebpf4jnsgd1na2vs0mg"},{"bike_id":"ecbfa6a5-59d9-424d-819c-6ad97fe10aaa","system_id":"levelo_inurba_marseille","lat":43.30944,"lon":5.39032,"is_reserved":false,"is_disabled":false,"rental_uris":{"android":"levelo://app?vid=ecbfa6a5-59d9-424d-819c-6ad97fe10aaa","ios":"levelo://app?vid=ecbfa6a5-59d9-424d-819c-6ad97fe10aaa"},"vehicle_type_id":"4","last_reported":1757858847,"current_range_meters":10000,"station_id":"ce4bgup2rcd13ifvqco0","pricing_plan_id":"cebpf4jnsgd1na2vs0mg"},{"bike_id":"2a081559-d45b-4944-91e1-cf13ad53d2f0","system_id":"levelo_inurba_marseille","lat":43.24999,"lon":5.38919,"is_reserved":false,"is_disabled":false,"rental_uris":{"android":"levelo://app?vid=2a081559-d45b-4944-91e1-cf13ad53d2f0","ios":"levelo://app?vid=2a081559-d45b-4944-91e1-cf13ad53d2f0"},"vehicle_type_id":"4","last_reported":1757858847,"current_range_meters":10800,"station_id":"ce4bhgp2rcd13ifvqfd0","pricing_plan_id":"cebpf4jnsgd1na2vs0mg"},{"bike_id":"df41bfb5-751e-4d4d-9862-e3f77512c772","system_id":"levelo_inurba_marseille","lat":43.29559,"lon":5.42306,"is_reserved":false,"is_disabled":false,"rental_uris":{"android":"levelo://app?vid=df41bfb5-751e-4d4d-9862-e3f77512c772","ios":"levelo://app?vid=df41bfb5-751e-4d4d-9862-e3f77512c772"},"vehicle_type_id":"4","last_reported":1757858847,"current_range_meters":10800,"station_id":"ce4bhph2rcd13ifvqhdg","pricing_plan_id":"cebpf4jnsgd1na2vs0mg"},{"bike_id":"81178cdb-131f-42bb-a25b-f1ff353f6fb2","system_id":"levelo_inurba_marseille","lat":43.28405,"lon":5.3499,"is_reserved":false,"is_disabled":false,"rental_uris":{"android":"levelo://app?vid=81178cdb-131f-42bb-a25b-f1ff353f6fb2","ios":"levelo://app?vid=81178cdb-131f-42bb-a25b-f1ff353f6fb2"},"vehicle_type_id":"4","last_reported":1757858847,"current_range_meters":10800,"station_id":"ce4bhbh2rcd13ifvqepg","pricing_plan_id":"cebpf4jnsgd1na2vs0mg"},{"bike_id":"2a2497be-b987-492b-a17c-d497933a8aed","system_id":"levelo_inurba_marseille","lat":43.32364,"lon":5.36749,"is_reserved":false,"is_disabled":false,"rental_uris":{"android":"levelo://app?vid=2a2497be-b987-492b-a17c-d497933a8aed","ios":"levelo://app?vid=2a2497be-b987-492b-a17c-d497933a8aed"},"vehicle_type_id":"4","last_reported":1757858847,"current_range_meters":10800,"station_id":"ce4bhsh2rcd13ifvqi2g","pricing_plan_id":"cebpf4jnsgd1na2vs0mg"},{"bike_id":"cd104b68-7370-4e88-ba9c-1edeee0f6c77","system_id":"levelo_inurba_marseille","lat":43.2522,"lon":5.42474,"is_reserved":false,"is_disabled":true,"rental_uris":{"android":"levelo://app?vid=cd104b68-7370-4e88-ba9c-1edeee0f6c77","ios":"levelo://app?vid=cd104b68-7370-4e88-ba9c-1edeee0f6c77"},"vehicle_type_id":"4","last_reported":1757858847,"current_range_meters":10800,"station_id":"","pricing_plan_id":"cebpf4jnsgd1na2vs0mg"},{"bike_id":"1c3c9ec8-ab6b-498f-a32d-4ab338ab6cb2","system_id":"levelo_inurba_marseille","lat":43.28267,"lon":5.35055,"is_reserved":false,"is_disabled":false,"rental_uris":{"android":"levelo://app?vid=1c3c9ec8-ab6b-498f-a32d-4ab338ab6cb2","ios":"levelo://app?vid=1c3c9ec8-ab6b-498f-a32d-4ab338ab6cb2"},"vehicle_type_id":"4","last_reported":1757858847,"current_range_meters":10800,"station_id":"ce4bhbp2rcd13ifvqerg","pricing_plan_id":"cebpf4jnsgd1na2vs0mg"},{"bike_id":"7a0e7261-7cca-41e8-b7a1-7250ee851a0f","system_id":"levelo_inurba_marseille","lat":43.21754,"lon":5.34623,"is_reserved":false,"is_disabled":false,"rental_uris":{"android":"levelo://app?vid=7a0e7261-7cca-41e8-b7a1-7250ee851a0f","ios":"levelo://app?vid=7a0e7261-7cca-41e8-b7a1-7250ee851a0f"},"vehicle_type_id":"4","last_reported":1757858847,"current_range_meters":10800,"station_id":"st_cvj6r9ubvosntc0bgbag","pricing_plan_id":"cebpf4jnsgd1na2vs0mg"},{"bike_id":"fa8cd43a-a367-48d9-8772-0b95fdb8a61c","system_id":"levelo_inurba_marseille","lat":43.22933,"lon":5.35375,"is_reserved":false,"is_disabled":false,"rental_uris":{"android":"levelo://app?vid=fa8cd43a-a367-48d9-8772-0b95fdb8a61c","ios":"levelo://app?vid=fa8cd43a-a367-48d9-8772-0b95fdb8a61c"},"vehicle_type_id":"4","last_reported":1757858847,"current_range_meters":10800,"station_id":"cpo3532slgdg3j2ikp40","pricing_plan_id":"cebpf4jnsgd1na2vs0mg"},{"bike_id":"c5cba6d7-e282-4417-a818-5fc0802dcb08","system_id":"levelo_inurba_marseille","lat":43.33761,"lon":5.3745,"is_reserved":false,"is_disabled":false,"rental_uris":{"android":"levelo://app?vid=c5cba6d7-e282-4417-a818-5fc0802dcb08","ios":"levelo://app?vid=c5cba6d7-e282-4417-a818-5fc0802dcb08"},"vehicle_type_id":"4","last_reported":1757858847,"current_range_meters":10800,"station_id":"","pricing_plan_id":"cebpf4jnsgd1na2vs0mg"},{"bike_id":"f054a220-2a11-4bfe-9898-2b390f50b412","system_id":"levelo_inurba_marseille","lat":43.28479,"lon":5.38418,"is_reserved":false,"is_disabled":true,"rental_uris":{"android":"levelo://app?vid=f054a220-2a11-4bfe-9898-2b390f50b412","ios":"levelo://app?vid=f054a220-2a11-4bfe-9898-2b390f50b412"},"vehicle_type_id":"4","last_reported":1757858847,"current_range_meters":10800,"station_id":"ce4bh512rcd13ifvqe3g","pricing_plan_id":"cebpf4jnsgd1na2vs0mg"},{"bike_id":"47101b3b-5627-4981-822c-fdd65831dbd2","system_id":"levelo_inurba_marseille","lat":43.281547,"lon":5.426485,"is_reserved":false,"is_disabled":false,"rental_uris":{"android":"levelo://app?vid=47101b3b-5627-4981-822c-fdd65831dbd2","ios":"levelo://app?vid=47101b3b-5627-4981-822c-fdd65831dbd2"},"vehicle_type_id":"4","last_reported":1757858847,"current_range_meters":10800,"station_id":"ce4bhnh2rcd13ifvqgug","pricing_plan_id":"cebpf4jnsgd1na2vs0mg"},{"bike_id":"45480957-5f04-404f-b35a-f0e9222bc459","system_id":"levelo_inurba_marseille","lat":43.21196,"lon":5.35068,"is_reserved":false,"is_disabled":false,"rental_uris":{"android":"levelo://app?vid=45480957-5f04-404f-b35a-f0e9222bc459","ios":"levelo://app?vid=45480957-5f04-404f-b35a-f0e9222bc459"},"vehicle_type_id":"4","last_reported":1757858847,"current_range_meters":11200,"station_id":"st_cvj6sg6p6f1abm77japg","pricing_plan_id":"cebpf4jnsgd1na2vs0mg"},{"bike_id":"24486260-c949-4fa0-999a-d6c3ecab05ec","system_id":"levelo_inurba_marseille","lat":43.32353,"lon":5.36722,"is_reserved":false,"is_disabled":false,"rental_uris":{"android":"levelo://app?vid=24486260-c949-4fa0-999a-d6c3ecab05ec","ios":"levelo://app?vid=24486260-c949-4fa0-999a-d6c3ecab05ec"},"vehicle_type_id":"4","last_reported":1757858847,"current_range_meters":11200,"station_id":"ce4bhsh2rcd13ifvqi2g","pricing_plan_id":"cebpf4jnsgd1na2vs0mg"},{"bike_id":"16572620-16f0-40a6-8afc-79d0b1846f64","system_id":"levelo_inurba_marseille","lat":43.2816,"lon":5.42623,"is_reserved":false,"is_disabled":false,"rental_uris":{"android":"levelo://app?vid=16572620-16f0-40a6-8afc-79d0b1846f64","ios":"levelo://app?vid=16572620-16f0-40a6-8afc-79d0b1846f64"},"vehicle_type_id":"4","last_reported":1757858847,"current_range_meters":11200,"station_id":"ce4bhnh2rcd13ifvqgug","pricing_plan_id":"cebpf4jnsgd1na2vs0mg"},{"bike_id":"d16230ff-2955-426b-a6aa-84f8e2e13648","system_id":"levelo_inurba_marseille","lat":43.2886,"lon":5.42521,"is_reserved":false,"is_disabled":false,"rental_uris":{"android":"levelo://app?vid=d16230ff-2955-426b-a6aa-84f8e2e13648","ios":"levelo://app?vid=d16230ff-2955-426b-a6aa-84f8e2e13648"},"vehicle_type_id":"4","last_reported":1757858847,"current_range_meters":11200,"station_id":"","pricing_plan_id":"cebpf4jnsgd1na2vs0mg"},{"bike_id":"1fa9cf8a-cbc2-4f66-a5af-49139eedcffa","system_id":"levelo_inurba_marseille","lat":43.31703,"lon":5.40468,"is_reserved":false,"is_disabled":false,"rental_uris":{"android":"levelo://app?vid=1fa9cf8a-cbc2-4f66-a5af-49139eedcffa","ios":"levelo://app?vid=1fa9cf8a-cbc2-4f66-a5af-49139eedcffa"},"vehicle_type_id":"4","last_reported":1757858847,"current_range_meters":11600,"station_id":"ce4bh012rcd13ifvqd00","pricing_plan_id":"cebpf4jnsgd1na2vs0mg"},{"bike_id":"5c1e55d9-decd-426f-89d8-b98a558f3809","system_id":"levelo_inurba_marseille","lat":43.31718,"lon":5.40465,"is_reserved":false,"is_disabled":true,"rental_uris":{"android":"levelo://app?vid=5c1e55d9-decd-426f-89d8-b98a558f3809","ios":"levelo://app?vid=5c1e55d9-decd-426f-89d8-b98a558f3809"},"vehicle_type_id":"4","last_reported":1757858847,"current_range_meters":11600,"station_id":"ce4bh012rcd13ifvqd00","pricing_plan_id":"cebpf4jnsgd1na2vs0mg"},{"bike_id":"e7a329bd-ed66-4ac7-aaba-63f2810ddd86","system_id":"levelo_inurba_marseille","lat":43.31917,"lon":5.37203,"is_reserved":false,"is_disabled":false,"rental_uris":{"android":"levelo://app?vid=e7a329bd-ed66-4ac7-aaba-63f2810ddd86","ios":"levelo://app?vid=e7a329bd-ed66-4ac7-aaba-63f2810ddd86"},"vehicle_type_id":"4","last_reported":1757858847,"current_range_meters":11600,"station_id":"","pricing_plan_id":"cebpf4jnsgd1na2vs0mg"},{"bike_id":"2f10d643-d5be-40f3-be65-91b231ef05ac","system_id":"levelo_inurba_marseille","lat":43.286926,"lon":5.373902,"is_reserved":false,"is_disabled":false,"rental_uris":{"android":"levelo://app?vid=2f10d643-d5be-40f3-be65-91b231ef05ac","ios":"levelo://app?vid=2f10d643-d5be-40f3-be65-91b231ef05ac"},"vehicle_type_id":"4","last_reported":1757858847,"current_range_meters":11600,"station_id":"ce4bh3p2rcd13ifvqdq0","pricing_plan_id":"cebpf4jnsgd1na2vs0mg"},{"bike_id":"3bc338fd-b3c5-4caa-b6e6-3c70a52689ba","system_id":"levelo_inurba_marseille","lat":43.31607,"lon":5.38915,"is_reserved":false,"is_disabled":false,"rental_uris":{"android":"levelo://app?vid=3bc338fd-b3c5-4caa-b6e6-3c70a52689ba","ios":"levelo://app?vid=3bc338fd-b3c5-4caa-b6e6-3c70a52689ba"},"vehicle_type_id":"4","last_reported":1757858847,"current_range_meters":11600,"station_id":"","pricing_plan_id":"cebpf4jnsgd1na2vs0mg"},{"bike_id":"c682ef70-00bc-4415-9b10-9a35bd5ddcc1","system_id":"levelo_inurba_marseille","lat":43.274954,"lon":5.424454,"is_reserved":false,"is_disabled":false,"rental_uris":{"android":"levelo://app?vid=c682ef70-00bc-4415-9b10-9a35bd5ddcc1","ios":"levelo://app?vid=c682ef70-00bc-4415-9b10-9a35bd5ddcc1"},"vehicle_type_id":"4","last_reported":1757858847,"current_range_meters":12000,"station_id":"ce4bhn92rcd13ifvqgrg","pricing_plan_id":"cebpf4jnsgd1na2vs0mg"},{"bike_id":"b86dc104-c99c-4937-965f-74e315474804","system_id":"levelo_inurba_marseille","lat":43.24162,"lon":5.36386,"is_reserved":false,"is_disabled":false,"rental_uris":{"android":"levelo://app?vid=b86dc104-c99c-4937-965f-74e315474804","ios":"levelo://app?vid=b86dc104-c99c-4937-965f-74e315474804"},"vehicle_type_id":"4","last_reported":1757858847,"current_range_meters":12000,"station_id":"cpo36qri1sfpv3e86is0","pricing_plan_id":"cebpf4jnsgd1na2vs0mg"},{"bike_id":"d42ff918-1d40-4b7c-9420-a2966c509fd2","system_id":"levelo_inurba_marseille","lat":43.21753,"lon":5.34615,"is_reserved":false,"is_disabled":false,"rental_uris":{"android":"levelo://app?vid=d42ff918-1d40-4b7c-9420-a2966c509fd2","ios":"levelo://app?vid=d42ff918-1d40-4b7c-9420-a2966c509fd2"},"vehicle_type_id":"4","last_reported":1757858847,"current_range_meters":12000,"station_id":"st_cvj6r9ubvosntc0bgbag","pricing_plan_id":"cebpf4jnsgd1na2vs0mg"},{"bike_id":"4ae32802-5b2d-46de-b3f3-6bcce1729cb5","system_id":"levelo_inurba_marseille","lat":43.2997,"lon":5.38494,"is_reserved":false,"is_disabled":false,"rental_uris":{"android":"levelo://app?vid=4ae32802-5b2d-46de-b3f3-6bcce1729cb5","ios":"levelo://app?vid=4ae32802-5b2d-46de-b3f3-6bcce1729cb5"},"vehicle_type_id":"4","last_reported":1757858847,"current_range_meters":12000,"station_id":"ce4bgj92rcd13ifvqbd0","pricing_plan_id":"cebpf4jnsgd1na2vs0mg"},{"bike_id":"90b99ccf-2b3c-4d75-9e45-7dd3a550aac1","system_id":"levelo_inurba_marseille","lat":43.23569,"lon":5.39891,"is_reserved":false,"is_disabled":false,"rental_uris":{"android":"levelo://app?vid=90b99ccf-2b3c-4d75-9e45-7dd3a550aac1","ios":"levelo://app?vid=90b99ccf-2b3c-4d75-9e45-7dd3a550aac1"},"vehicle_type_id":"4","last_reported":1757858847,"current_range_meters":12000,"station_id":"","pricing_plan_id":"cebpf4jnsgd1na2vs0mg"},{"bike_id":"26aba960-67e8-412c-99a9-fd8c1950d116","system_id":"levelo_inurba_marseille","lat":43.28407,"lon":5.34977,"is_reserved":false,"is_disabled":false,"rental_uris":{"android":"levelo://app?vid=26aba960-67e8-412c-99a9-fd8c1950d116","ios":"levelo://app?vid=26aba960-67e8-412c-99a9-fd8c1950d116"},"vehicle_type_id":"4","last_reported":1757858847,"current_range_meters":12000,"station_id":"ce4bhbh2rcd13ifvqepg","pricing_plan_id":"cebpf4jnsgd1na2vs0mg"},{"bike_id":"381f4b77-fb57-4771-ac0c-81bffec029e8","system_id":"levelo_inurba_marseille","lat":43.26049,"lon":5.37528,"is_reserved":false,"is_disabled":false,"rental_uris":{"android":"levelo://app?vid=381f4b77-fb57-4771-ac0c-81bffec029e8","ios":"levelo://app?vid=381f4b77-fb57-4771-ac0c-81bffec029e8"},"vehicle_type_id":"4","last_reported":1757858847,"current_range_meters":12000,"station_id":"ce4bhgh2rcd13ifvqfa0","pricing_plan_id":"cebpf4jnsgd1na2vs0mg"},{"bike_id":"9d64b5f8-42a9-4b44-a76b-1732da5588f2","system_id":"levelo_inurba_marseille","lat":43.23957,"lon":5.3663,"is_reserved":false,"is_disabled":false,"rental_uris":{"android":"levelo://app?vid=9d64b5f8-42a9-4b44-a76b-1732da5588f2","ios":"levelo://app?vid=9d64b5f8-42a9-4b44-a76b-1732da5588f2"},"vehicle_type_id":"4","last_reported":1757858847,"current_range_meters":12000,"station_id":"ce4bhi12rcd13ifvqfp0","pricing_plan_id":"cebpf4jnsgd1na2vs0mg"},{"bike_id":"5b08033c-e596-407a-ada4-49eb3a516099","system_id":"levelo_inurba_marseille","lat":43.25825,"lon":5.3943,"is_reserved":false,"is_disabled":false,"rental_uris":{"android":"levelo://app?vid=5b08033c-e596-407a-ada4-49eb3a516099","ios":"levelo://app?vid=5b08033c-e596-407a-ada4-49eb3a516099"},"vehicle_type_id":"4","last_reported":1757858847,"current_range_meters":12400,"station_id":"ce4bhip2rcd13ifvqft0","pricing_plan_id":"cebpf4jnsgd1na2vs0mg"},{"bike_id":"dde4ea32-87c6-4a50-876c-edd73ae13809","system_id":"levelo_inurba_marseille","lat":43.21748,"lon":5.34594,"is_reserved":false,"is_disabled":false,"rental_uris":{"android":"levelo://app?vid=dde4ea32-87c6-4a50-876c-edd73ae13809","ios":"levelo://app?vid=dde4ea32-87c6-4a50-876c-edd73ae13809"},"vehicle_type_id":"4","last_reported":1757858847,"current_range_meters":12400,"station_id":"st_cvj6r9ubvosntc0bgbag","pricing_plan_id":"cebpf4jnsgd1na2vs0mg"},{"bike_id":"17c7a29c-304c-4684-8b2c-8f7f68b03f4d","system_id":"levelo_inurba_marseille","lat":43.21746,"lon":5.34609,"is_reserved":false,"is_disabled":false,"rental_uris":{"android":"levelo://app?vid=17c7a29c-304c-4684-8b2c-8f7f68b03f4d","ios":"levelo://app?vid=17c7a29c-304c-4684-8b2c-8f7f68b03f4d"},"vehicle_type_id":"4","last_reported":1757858847,"current_range_meters":12400,"station_id":"st_cvj6r9ubvosntc0bgbag","pricing_plan_id":"cebpf4jnsgd1na2vs0mg"},{"bike_id":"f119dfcb-4ff8-4e34-ab34-7c89c0e00d49","system_id":"levelo_inurba_marseille","lat":43.306,"lon":5.37217,"is_reserved":false,"is_disabled":false,"rental_uris":{"android":"levelo://app?vid=f119dfcb-4ff8-4e34-ab34-7c89c0e00d49","ios":"levelo://app?vid=f119dfcb-4ff8-4e34-ab34-7c89c0e00d49"},"vehicle_type_id":"4","last_reported":1757858847,"current_range_meters":12000,"station_id":"ce4bgqh2rcd13ifvqc4g","pricing_plan_id":"cebpf4jnsgd1na2vs0mg"},{"bike_id":"531710ea-735d-4bd3-b30d-adba75edcc49","system_id":"levelo_inurba_marseille","lat":43.25486,"lon":5.37648,"is_reserved":false,"is_disabled":false,"rental_uris":{"android":"levelo://app?vid=531710ea-735d-4bd3-b30d-adba75edcc49","ios":"levelo://app?vid=531710ea-735d-4bd3-b30d-adba75edcc49"},"vehicle_type_id":"4","last_reported":1757858847,"current_range_meters":12400,"station_id":"ce4bhh12rcd13ifvqff0","pricing_plan_id":"cebpf4jnsgd1na2vs0mg"},{"bike_id":"79d8f533-b5eb-45ef-a6ec-dfd443ea0dbe","system_id":"levelo_inurba_marseille","lat":43.21762,"lon":5.34595,"is_reserved":false,"is_disabled":false,"rental_uris":{"android":"levelo://app?vid=79d8f533-b5eb-45ef-a6ec-dfd443ea0dbe","ios":"levelo://app?vid=79d8f533-b5eb-45ef-a6ec-dfd443ea0dbe"},"vehicle_type_id":"4","last_reported":1757858847,"current_range_meters":12400,"station_id":"st_cvj6r9ubvosntc0bgbag","pricing_plan_id":"cebpf4jnsgd1na2vs0mg"},{"bike_id":"c75bfa20-483b-42f7-8a25-5f10e08a57b0","system_id":"levelo_inurba_marseille","lat":43.32107,"lon":5.36773,"is_reserved":false,"is_disabled":false,"rental_uris":{"android":"levelo://app?vid=c75bfa20-483b-42f7-8a25-5f10e08a57b0","ios":"levelo://app?vid=c75bfa20-483b-42f7-8a25-5f10e08a57b0"},"vehicle_type_id":"4","last_reported":1757858847,"current_range_meters":12400,"station_id":"ce4bhrh2rcd13ifvqhug","pricing_plan_id":"cebpf4jnsgd1na2vs0mg"},{"bike_id":"e2a53a0f-2e2e-4985-9ad9-6caeaffd8dfc","system_id":"levelo_inurba_marseille","lat":43.28272,"lon":5.35055,"is_reserved":false,"is_disabled":false,"rental_uris":{"android":"levelo://app?vid=e2a53a0f-2e2e-4985-9ad9-6caeaffd8dfc","ios":"levelo://app?vid=e2a53a0f-2e2e-4985-9ad9-6caeaffd8dfc"},"vehicle_type_id":"4","last_reported":1757858847,"current_range_meters":12400,"station_id":"ce4bhbp2rcd13ifvqerg","pricing_plan_id":"cebpf4jnsgd1na2vs0mg"},{"bike_id":"2cee0d07-3754-45da-8f8a-2cff8247489d","system_id":"levelo_inurba_marseille","lat":43.23193,"lon":5.35566,"is_reserved":false,"is_disabled":false,"rental_uris":{"android":"levelo://app?vid=2cee0d07-3754-45da-8f8a-2cff8247489d","ios":"levelo://app?vid=2cee0d07-3754-45da-8f8a-2cff8247489d"},"vehicle_type_id":"4","last_reported":1757858847,"current_range_meters":11600,"station_id":"ce4bhu92rcd13ifvqi70","pricing_plan_id":"cebpf4jnsgd1na2vs0mg"},{"bike_id":"d0a1739a-c22f-4203-9f71-a089f4b367e4","system_id":"levelo_inurba_marseille","lat":43.3199,"lon":5.38147,"is_reserved":false,"is_disabled":true,"rental_uris":{"android":"levelo://app?vid=d0a1739a-c22f-4203-9f71-a089f4b367e4","ios":"levelo://app?vid=d0a1739a-c22f-4203-9f71-a089f4b367e4"},"vehicle_type_id":"4","last_reported":1757858847,"current_range_meters":12800,"station_id":"ce4bhr12rcd13ifvqhpg","pricing_plan_id":"cebpf4jnsgd1na2vs0mg"},{"bike_id":"3dba6561-e9a2-4a63-a000-f26b75fa95c7","system_id":"levelo_inurba_marseille","lat":43.31233,"lon":5.3684,"is_reserved":false,"is_disabled":false,"rental_uris":{"android":"levelo://app?vid=3dba6561-e9a2-4a63-a000-f26b75fa95c7","ios":"levelo://app?vid=3dba6561-e9a2-4a63-a000-f26b75fa95c7"},"vehicle_type_id":"4","last_reported":1757858847,"current_range_meters":12400,"station_id":"ce4bgl92rcd13ifvqbq0","pricing_plan_id":"cebpf4jnsgd1na2vs0mg"},{"bike_id":"6e52390d-f1c0-4ae3-b357-1a9aef58db4e","system_id":"levelo_inurba_marseille","lat":43.24952,"lon":5.40466,"is_reserved":false,"is_disabled":false,"rental_uris":{"android":"levelo://app?vid=6e52390d-f1c0-4ae3-b357-1a9aef58db4e","ios":"levelo://app?vid=6e52390d-f1c0-4ae3-b357-1a9aef58db4e"},"vehicle_type_id":"4","last_reported":1757858847,"current_range_meters":12800,"station_id":"st_d2ngiaodas8pm72gd1h0","pricing_plan_id":"cebpf4jnsgd1na2vs0mg"},{"bike_id":"bc978a3c-25e6-4432-8f1d-844735460374","system_id":"levelo_inurba_marseille","lat":43.30198,"lon":5.36625,"is_reserved":false,"is_disabled":false,"rental_uris":{"android":"levelo://app?vid=bc978a3c-25e6-4432-8f1d-844735460374","ios":"levelo://app?vid=bc978a3c-25e6-4432-8f1d-844735460374"},"vehicle_type_id":"4","last_reported":1757858847,"current_range_meters":12400,"station_id":"ce4bgrh2rcd13ifvqc8g","pricing_plan_id":"cebpf4jnsgd1na2vs0mg"},{"bike_id":"abc76103-6e5f-4add-8600-c05f2b8576e7","system_id":"levelo_inurba_marseille","lat":43.239596,"lon":5.366383,"is_reserved":false,"is_disabled":false,"rental_uris":{"android":"levelo://app?vid=abc76103-6e5f-4add-8600-c05f2b8576e7","ios":"levelo://app?vid=abc76103-6e5f-4add-8600-c05f2b8576e7"},"vehicle_type_id":"4","last_reported":1757858847,"current_range_meters":12800,"station_id":"ce4bhi12rcd13ifvqfp0","pricing_plan_id":"cebpf4jnsgd1na2vs0mg"},{"bike_id":"f618c0f6-3fd7-4374-88fc-9aa024d23574","system_id":"levelo_inurba_marseille","lat":43.28728,"lon":5.36087,"is_reserved":false,"is_disabled":false,"rental_uris":{"android":"levelo://app?vid=f618c0f6-3fd7-4374-88fc-9aa024d23574","ios":"levelo://app?vid=f618c0f6-3fd7-4374-88fc-9aa024d23574"},"vehicle_type_id":"4","last_reported":1757858847,"current_range_meters":13600,"station_id":"cki0cbj6b192h4jlfktg","pricing_plan_id":"cebpf4jnsgd1na2vs0mg"},{"bike_id":"8e3a9e83-812e-4b5d-8c7b-5119699e81be","system_id":"levelo_inurba_marseille","lat":43.31587,"lon":5.40589,"is_reserved":false,"is_disabled":false,"rental_uris":{"android":"levelo://app?vid=8e3a9e83-812e-4b5d-8c7b-5119699e81be","ios":"levelo://app?vid=8e3a9e83-812e-4b5d-8c7b-5119699e81be"},"vehicle_type_id":"4","last_reported":1757858847,"current_range_meters":13600,"station_id":"","pricing_plan_id":"cebpf4jnsgd1na2vs0mg"},{"bike_id":"9c341390-bfd6-4e87-9935-649468d66f92","system_id":"levelo_inurba_marseille","lat":43.290273,"lon":5.386523,"is_reserved":false,"is_disabled":false,"rental_uris":{"android":"levelo://app?vid=9c341390-bfd6-4e87-9935-649468d66f92","ios":"levelo://app?vid=9c341390-bfd6-4e87-9935-649468d66f92"},"vehicle_type_id":"4","last_reported":1757858847,"current_range_meters":13600,"station_id":"","pricing_plan_id":"cebpf4jnsgd1na2vs0mg"},{"bike_id":"8ab60a89-bd14-40d7-b359-020ea126cfef","system_id":"levelo_inurba_marseille","lat":43.32368,"lon":5.36754,"is_reserved":false,"is_disabled":false,"rental_uris":{"android":"levelo://app?vid=8ab60a89-bd14-40d7-b359-020ea126cfef","ios":"levelo://app?vid=8ab60a89-bd14-40d7-b359-020ea126cfef"},"vehicle_type_id":"4","last_reported":1757858847,"current_range_meters":13600,"station_id":"ce4bhsh2rcd13ifvqi2g","pricing_plan_id":"cebpf4jnsgd1na2vs0mg"},{"bike_id":"2238dd80-da25-4394-9e7e-e6d9c6e345eb","system_id":"levelo_inurba_marseille","lat":43.23196,"lon":5.35548,"is_reserved":false,"is_disabled":false,"rental_uris":{"android":"levelo://app?vid=2238dd80-da25-4394-9e7e-e6d9c6e345eb","ios":"levelo://app?vid=2238dd80-da25-4394-9e7e-e6d9c6e345eb"},"vehicle_type_id":"4","last_reported":1757858847,"current_range_meters":13600,"station_id":"ce4bhu92rcd13ifvqi70","pricing_plan_id":"cebpf4jnsgd1na2vs0mg"},{"bike_id":"fe49a84b-33db-4642-84c5-b0ed9226347e","system_id":"levelo_inurba_marseille","lat":43.23961,"lon":5.36633,"is_reserved":false,"is_disabled":false,"rental_uris":{"android":"levelo://app?vid=fe49a84b-33db-4642-84c5-b0ed9226347e","ios":"levelo://app?vid=fe49a84b-33db-4642-84c5-b0ed9226347e"},"vehicle_type_id":"4","last_reported":1757858847,"current_range_meters":14000,"station_id":"ce4bhi12rcd13ifvqfp0","pricing_plan_id":"cebpf4jnsgd1na2vs0mg"},{"bike_id":"89eb7474-ea4c-4e8d-a789-3e51b413d1b0","system_id":"levelo_inurba_marseille","lat":43.27384,"lon":5.36253,"is_reserved":false,"is_disabled":false,"rental_uris":{"android":"levelo://app?vid=89eb7474-ea4c-4e8d-a789-3e51b413d1b0","ios":"levelo://app?vid=89eb7474-ea4c-4e8d-a789-3e51b413d1b0"},"vehicle_type_id":"4","last_reported":1757858847,"current_range_meters":14000,"station_id":"ce4bhbh2rcd13ifvqeo0","pricing_plan_id":"cebpf4jnsgd1na2vs0mg"},{"bike_id":"85db8ab9-6b24-4c23-8762-109e948df9cd","system_id":"levelo_inurba_marseille","lat":43.254822,"lon":5.409171,"is_reserved":false,"is_disabled":false,"rental_uris":{"android":"levelo://app?vid=85db8ab9-6b24-4c23-8762-109e948df9cd","ios":"levelo://app?vid=85db8ab9-6b24-4c23-8762-109e948df9cd"},"vehicle_type_id":"4","last_reported":1757858847,"current_range_meters":14000,"station_id":"","pricing_plan_id":"cebpf4jnsgd1na2vs0mg"},{"bike_id":"e9a7dafd-c190-431e-9c1e-0212f92128f0","system_id":"levelo_inurba_marseille","lat":43.21756,"lon":5.34598,"is_reserved":false,"is_disabled":false,"rental_uris":{"android":"levelo://app?vid=e9a7dafd-c190-431e-9c1e-0212f92128f0","ios":"levelo://app?vid=e9a7dafd-c190-431e-9c1e-0212f92128f0"},"vehicle_type_id":"4","last_reported":1757858847,"current_range_meters":14000,"station_id":"st_cvj6r9ubvosntc0bgbag","pricing_plan_id":"cebpf4jnsgd1na2vs0mg"},{"bike_id":"2d4f8702-f871-4299-b471-061f32bc7f69","system_id":"levelo_inurba_marseille","lat":43.22567,"lon":5.41607,"is_reserved":false,"is_disabled":false,"rental_uris":{"android":"levelo://app?vid=2d4f8702-f871-4299-b471-061f32bc7f69","ios":"levelo://app?vid=2d4f8702-f871-4299-b471-061f32bc7f69"},"vehicle_type_id":"4","last_reported":1757858847,"current_range_meters":14000,"station_id":"st_d2o4gvlbi1j2169b742g","pricing_plan_id":"cebpf4jnsgd1na2vs0mg"},{"bike_id":"0b7f07d2-514c-4e26-b65a-e50fec266a4f","system_id":"levelo_inurba_marseille","lat":43.2857,"lon":5.39489,"is_reserved":false,"is_disabled":false,"rental_uris":{"android":"levelo://app?vid=0b7f07d2-514c-4e26-b65a-e50fec266a4f","ios":"levelo://app?vid=0b7f07d2-514c-4e26-b65a-e50fec266a4f"},"vehicle_type_id":"4","last_reported":1757858847,"current_range_meters":14000,"station_id":"ce4bh292rcd13ifvqdg0","pricing_plan_id":"cebpf4jnsgd1na2vs0mg"},{"bike_id":"c30870e0-d3bd-40d8-badc-430ffa6730e4","system_id":"levelo_inurba_marseille","lat":43.26213,"lon":5.37444,"is_reserved":false,"is_disabled":false,"rental_uris":{"android":"levelo://app?vid=c30870e0-d3bd-40d8-badc-430ffa6730e4","ios":"levelo://app?vid=c30870e0-d3bd-40d8-badc-430ffa6730e4"},"vehicle_type_id":"4","last_reported":1757858847,"current_range_meters":14400,"station_id":"ce4bhgp2rcd13ifvqfc0","pricing_plan_id":"cebpf4jnsgd1na2vs0mg"},{"bike_id":"d9c4202c-de13-4428-8c40-40d90faf1618","system_id":"levelo_inurba_marseille","lat":43.31356,"lon":5.3707,"is_reserved":false,"is_disabled":false,"rental_uris":{"android":"levelo://app?vid=d9c4202c-de13-4428-8c40-40d90faf1618","ios":"levelo://app?vid=d9c4202c-de13-4428-8c40-40d90faf1618"},"vehicle_type_id":"4","last_reported":1757858847,"current_range_meters":14400,"station_id":"","pricing_plan_id":"cebpf4jnsgd1na2vs0mg"},{"bike_id":"c06e4cc4-5fb0-4492-9bd1-a14b45237016","system_id":"levelo_inurba_marseille","lat":43.282512,"lon":5.350711,"is_reserved":false,"is_disabled":false,"rental_uris":{"android":"levelo://app?vid=c06e4cc4-5fb0-4492-9bd1-a14b45237016","ios":"levelo://app?vid=c06e4cc4-5fb0-4492-9bd1-a14b45237016"},"vehicle_type_id":"4","last_reported":1757858847,"current_range_meters":14400,"station_id":"ce4bhbp2rcd13ifvqerg","pricing_plan_id":"cebpf4jnsgd1na2vs0mg"},{"bike_id":"4d6e6605-7f16-44fa-a19a-c138ee7cb360","system_id":"levelo_inurba_marseille","lat":43.33799,"lon":5.37446,"is_reserved":false,"is_disabled":false,"rental_uris":{"android":"levelo://app?vid=4d6e6605-7f16-44fa-a19a-c138ee7cb360","ios":"levelo://app?vid=4d6e6605-7f16-44fa-a19a-c138ee7cb360"},"vehicle_type_id":"4","last_reported":1757858847,"current_range_meters":14400,"station_id":"","pricing_plan_id":"cebpf4jnsgd1na2vs0mg"},{"bike_id":"78237f29-9b6f-412b-af75-ed66a41f0ebd","system_id":"levelo_inurba_marseille","lat":43.21761,"lon":5.34577,"is_reserved":false,"is_disabled":false,"rental_uris":{"android":"levelo://app?vid=78237f29-9b6f-412b-af75-ed66a41f0ebd","ios":"levelo://app?vid=78237f29-9b6f-412b-af75-ed66a41f0ebd"},"vehicle_type_id":"4","last_reported":1757858847,"current_range_meters":14400,"station_id":"st_cvj6r9ubvosntc0bgbag","pricing_plan_id":"cebpf4jnsgd1na2vs0mg"},{"bike_id":"bf7fa1df-50d1-4332-8015-9b461c829930","system_id":"levelo_inurba_marseille","lat":43.26552,"lon":5.37309,"is_reserved":false,"is_disabled":false,"rental_uris":{"android":"levelo://app?vid=bf7fa1df-50d1-4332-8015-9b461c829930","ios":"levelo://app?vid=bf7fa1df-50d1-4332-8015-9b461c829930"},"vehicle_type_id":"4","last_reported":1757858847,"current_range_meters":14400,"station_id":"ce4bhg12rcd13ifvqf70","pricing_plan_id":"cebpf4jnsgd1na2vs0mg"},{"bike_id":"c11d7448-afa7-44b8-acea-a15a225574ef","system_id":"levelo_inurba_marseille","lat":43.28409,"lon":5.34984,"is_reserved":false,"is_disabled":false,"rental_uris":{"android":"levelo://app?vid=c11d7448-afa7-44b8-acea-a15a225574ef","ios":"levelo://app?vid=c11d7448-afa7-44b8-acea-a15a225574ef"},"vehicle_type_id":"4","last_reported":1757858847,"current_range_meters":14400,"station_id":"ce4bhbh2rcd13ifvqepg","pricing_plan_id":"cebpf4jnsgd1na2vs0mg"},{"bike_id":"11b25d83-2ecd-45b2-96d7-5e58127b8063","system_id":"levelo_inurba_marseille","lat":43.24805,"lon":5.37456,"is_reserved":false,"is_disabled":false,"rental_uris":{"android":"levelo://app?vid=11b25d83-2ecd-45b2-96d7-5e58127b8063","ios":"levelo://app?vid=11b25d83-2ecd-45b2-96d7-5e58127b8063"},"vehicle_type_id":"4","last_reported":1757858847,"current_range_meters":14800,"station_id":"ce4bhgh2rcd13ifvqfb0","pricing_plan_id":"cebpf4jnsgd1na2vs0mg"},{"bike_id":"e8930cfa-2c36-4dbf-ab3e-6afdedf38824","system_id":"levelo_inurba_marseille","lat":43.22566,"lon":5.41617,"is_reserved":false,"is_disabled":false,"rental_uris":{"android":"levelo://app?vid=e8930cfa-2c36-4dbf-ab3e-6afdedf38824","ios":"levelo://app?vid=e8930cfa-2c36-4dbf-ab3e-6afdedf38824"},"vehicle_type_id":"4","last_reported":1757858847,"current_range_meters":14800,"station_id":"st_d2o4gvlbi1j2169b742g","pricing_plan_id":"cebpf4jnsgd1na2vs0mg"},{"bike_id":"1a163e9d-a32f-43d1-865c-528535139d85","system_id":"levelo_inurba_marseille","lat":43.23958,"lon":5.36634,"is_reserved":false,"is_disabled":false,"rental_uris":{"android":"levelo://app?vid=1a163e9d-a32f-43d1-865c-528535139d85","ios":"levelo://app?vid=1a163e9d-a32f-43d1-865c-528535139d85"},"vehicle_type_id":"4","last_reported":1757858847,"current_range_meters":14800,"station_id":"ce4bhi12rcd13ifvqfp0","pricing_plan_id":"cebpf4jnsgd1na2vs0mg"},{"bike_id":"0a3dd152-47b7-4ac1-bc19-f14a28939368","system_id":"levelo_inurba_marseille","lat":43.2828,"lon":5.35129,"is_reserved":false,"is_disabled":false,"rental_uris":{"android":"levelo://app?vid=0a3dd152-47b7-4ac1-bc19-f14a28939368","ios":"levelo://app?vid=0a3dd152-47b7-4ac1-bc19-f14a28939368"},"vehicle_type_id":"4","last_reported":1757858847,"current_range_meters":14800,"station_id":"","pricing_plan_id":"cebpf4jnsgd1na2vs0mg"},{"bike_id":"afb9a5ff-60a7-4cd3-8986-595160b86226","system_id":"levelo_inurba_marseille","lat":43.28409,"lon":5.34975,"is_reserved":false,"is_disabled":false,"rental_uris":{"android":"levelo://app?vid=afb9a5ff-60a7-4cd3-8986-595160b86226","ios":"levelo://app?vid=afb9a5ff-60a7-4cd3-8986-595160b86226"},"vehicle_type_id":"4","last_reported":1757858847,"current_range_meters":14800,"station_id":"ce4bhbh2rcd13ifvqepg","pricing_plan_id":"cebpf4jnsgd1na2vs0mg"},{"bike_id":"0f0b6127-ca83-4ed7-9a08-6d137df9931e","system_id":"levelo_inurba_marseille","lat":43.28829,"lon":5.35898,"is_reserved":false,"is_disabled":false,"rental_uris":{"android":"levelo://app?vid=0f0b6127-ca83-4ed7-9a08-6d137df9931e","ios":"levelo://app?vid=0f0b6127-ca83-4ed7-9a08-6d137df9931e"},"vehicle_type_id":"4","last_reported":1757858847,"current_range_meters":14800,"station_id":"ce4bhb12rcd13ifvqem0","pricing_plan_id":"cebpf4jnsgd1na2vs0mg"},{"bike_id":"a26421e4-307f-4ce8-baa5-60f9681e67fa","system_id":"levelo_inurba_marseille","lat":43.28261,"lon":5.35063,"is_reserved":false,"is_disabled":false,"rental_uris":{"android":"levelo://app?vid=a26421e4-307f-4ce8-baa5-60f9681e67fa","ios":"levelo://app?vid=a26421e4-307f-4ce8-baa5-60f9681e67fa"},"vehicle_type_id":"4","last_reported":1757858847,"current_range_meters":15200,"station_id":"ce4bhbp2rcd13ifvqerg","pricing_plan_id":"cebpf4jnsgd1na2vs0mg"},{"bike_id":"4955a604-af0c-4acb-b892-574c39c673c0","system_id":"levelo_inurba_marseille","lat":43.28415,"lon":5.34974,"is_reserved":false,"is_disabled":false,"rental_uris":{"android":"levelo://app?vid=4955a604-af0c-4acb-b892-574c39c673c0","ios":"levelo://app?vid=4955a604-af0c-4acb-b892-574c39c673c0"},"vehicle_type_id":"4","last_reported":1757858847,"current_range_meters":15200,"station_id":"ce4bhbh2rcd13ifvqepg","pricing_plan_id":"cebpf4jnsgd1na2vs0mg"},{"bike_id":"e06d2e94-3ae2-4b4b-9d7e-05d3f806365a","system_id":"levelo_inurba_marseille","lat":43.25842,"lon":5.39416,"is_reserved":false,"is_disabled":false,"rental_uris":{"android":"levelo://app?vid=e06d2e94-3ae2-4b4b-9d7e-05d3f806365a","ios":"levelo://app?vid=e06d2e94-3ae2-4b4b-9d7e-05d3f806365a"},"vehicle_type_id":"4","last_reported":1757858847,"current_range_meters":15200,"station_id":"ce4bhip2rcd13ifvqft0","pricing_plan_id":"cebpf4jnsgd1na2vs0mg"},{"bike_id":"48d78278-5d78-458d-b60e-3a04d388a817","system_id":"levelo_inurba_marseille","lat":43.21742,"lon":5.34599,"is_reserved":false,"is_disabled":false,"rental_uris":{"android":"levelo://app?vid=48d78278-5d78-458d-b60e-3a04d388a817","ios":"levelo://app?vid=48d78278-5d78-458d-b60e-3a04d388a817"},"vehicle_type_id":"4","last_reported":1757858847,"current_range_meters":16000,"station_id":"st_cvj6r9ubvosntc0bgbag","pricing_plan_id":"cebpf4jnsgd1na2vs0mg"},{"bike_id":"f28d4169-eadb-49df-b448-01bd73b2162d","system_id":"levelo_inurba_marseille","lat":43.28107,"lon":5.39662,"is_reserved":false,"is_disabled":true,"rental_uris":{"android":"levelo://app?vid=f28d4169-eadb-49df-b448-01bd73b2162d","ios":"levelo://app?vid=f28d4169-eadb-49df-b448-01bd73b2162d"},"vehicle_type_id":"4","last_reported":1757858847,"current_range_meters":16000,"station_id":"ce4bho12rcd13ifvqh2g","pricing_plan_id":"cebpf4jnsgd1na2vs0mg"},{"bike_id":"86ca2f3b-fba4-4d36-8e9f-802af69e95bf","system_id":"levelo_inurba_marseille","lat":43.257205,"lon":5.411136,"is_reserved":false,"is_disabled":false,"rental_uris":{"android":"levelo://app?vid=86ca2f3b-fba4-4d36-8e9f-802af69e95bf","ios":"levelo://app?vid=86ca2f3b-fba4-4d36-8e9f-802af69e95bf"},"vehicle_type_id":"4","last_reported":1757858847,"current_range_meters":16000,"station_id":"ce4bhkp2rcd13ifvqgd0","pricing_plan_id":"cebpf4jnsgd1na2vs0mg"},{"bike_id":"d9a7c4bd-53f2-4cde-a7f4-552208dff846","system_id":"levelo_inurba_marseille","lat":43.25085,"lon":5.39496,"is_reserved":false,"is_disabled":false,"rental_uris":{"android":"levelo://app?vid=d9a7c4bd-53f2-4cde-a7f4-552208dff846","ios":"levelo://app?vid=d9a7c4bd-53f2-4cde-a7f4-552208dff846"},"vehicle_type_id":"4","last_reported":1757858847,"current_range_meters":16000,"station_id":"ce4bhm12rcd13ifvqgkg","pricing_plan_id":"cebpf4jnsgd1na2vs0mg"},{"bike_id":"7d7b03c9-f46f-4377-b089-b2019aae399f","system_id":"levelo_inurba_marseille","lat":43.23193,"lon":5.40011,"is_reserved":false,"is_disabled":true,"rental_uris":{"android":"levelo://app?vid=7d7b03c9-f46f-4377-b089-b2019aae399f","ios":"levelo://app?vid=7d7b03c9-f46f-4377-b089-b2019aae399f"},"vehicle_type_id":"4","last_reported":1757858847,"current_range_meters":16000,"station_id":"ce4bhn12rcd13ifvqgqg","pricing_plan_id":"cebpf4jnsgd1na2vs0mg"},{"bike_id":"6c896aa6-2e1b-4812-9f23-02a7871394a1","system_id":"levelo_inurba_marseille","lat":43.29777,"lon":5.39344,"is_reserved":false,"is_disabled":false,"rental_uris":{"android":"levelo://app?vid=6c896aa6-2e1b-4812-9f23-02a7871394a1","ios":"levelo://app?vid=6c896aa6-2e1b-4812-9f23-02a7871394a1"},"vehicle_type_id":"4","last_reported":1757858847,"current_range_meters":16000,"station_id":"chh1huq6cuj3fo74tm60","pricing_plan_id":"cebpf4jnsgd1na2vs0mg"},{"bike_id":"fa44514b-d1ea-4eaf-bcc6-73b2f20885b1","system_id":"levelo_inurba_marseille","lat":43.23192,"lon":5.35555,"is_reserved":false,"is_disabled":false,"rental_uris":{"android":"levelo://app?vid=fa44514b-d1ea-4eaf-bcc6-73b2f20885b1","ios":"levelo://app?vid=fa44514b-d1ea-4eaf-bcc6-73b2f20885b1"},"vehicle_type_id":"4","last_reported":1757858847,"current_range_meters":16000,"station_id":"ce4bhu92rcd13ifvqi70","pricing_plan_id":"cebpf4jnsgd1na2vs0mg"},{"bike_id":"54538dc2-1c0c-40c7-9218-46a59d1a4c15","system_id":"levelo_inurba_marseille","lat":43.24162,"lon":5.39717,"is_reserved":false,"is_disabled":false,"rental_uris":{"android":"levelo://app?vid=54538dc2-1c0c-40c7-9218-46a59d1a4c15","ios":"levelo://app?vid=54538dc2-1c0c-40c7-9218-46a59d1a4c15"},"vehicle_type_id":"4","last_reported":1757858847,"current_range_meters":16000,"station_id":"ce4bhn12rcd13ifvqgpg","pricing_plan_id":"cebpf4jnsgd1na2vs0mg"},{"bike_id":"a0906b9c-8a55-4215-b8cf-76fe401a9ae9","system_id":"levelo_inurba_marseille","lat":43.24167,"lon":5.36402,"is_reserved":false,"is_disabled":false,"rental_uris":{"android":"levelo://app?vid=a0906b9c-8a55-4215-b8cf-76fe401a9ae9","ios":"levelo://app?vid=a0906b9c-8a55-4215-b8cf-76fe401a9ae9"},"vehicle_type_id":"4","last_reported":1757858847,"current_range_meters":16000,"station_id":"cpo36qri1sfpv3e86is0","pricing_plan_id":"cebpf4jnsgd1na2vs0mg"},{"bike_id":"f3565978-76fc-4b91-9f0a-557596582985","system_id":"levelo_inurba_marseille","lat":43.21738,"lon":5.34562,"is_reserved":false,"is_disabled":false,"rental_uris":{"android":"levelo://app?vid=f3565978-76fc-4b91-9f0a-557596582985","ios":"levelo://app?vid=f3565978-76fc-4b91-9f0a-557596582985"},"vehicle_type_id":"4","last_reported":1757858847,"current_range_meters":16000,"station_id":"st_cvj6r9ubvosntc0bgbag","pricing_plan_id":"cebpf4jnsgd1na2vs0mg"},{"bike_id":"746f8f66-7f46-4e2a-8f64-942936320bf9","system_id":"levelo_inurba_marseille","lat":43.23969,"lon":5.36617,"is_reserved":false,"is_disabled":true,"rental_uris":{"android":"levelo://app?vid=746f8f66-7f46-4e2a-8f64-942936320bf9","ios":"levelo://app?vid=746f8f66-7f46-4e2a-8f64-942936320bf9"},"vehicle_type_id":"4","last_reported":1757858847,"current_range_meters":16000,"station_id":"ce4bhi12rcd13ifvqfp0","pricing_plan_id":"cebpf4jnsgd1na2vs0mg"},{"bike_id":"e05eea5e-3ede-4b75-8a49-e9854c3d159d","system_id":"levelo_inurba_marseille","lat":43.28619,"lon":5.35103,"is_reserved":false,"is_disabled":true,"rental_uris":{"android":"levelo://app?vid=e05eea5e-3ede-4b75-8a49-e9854c3d159d","ios":"levelo://app?vid=e05eea5e-3ede-4b75-8a49-e9854c3d159d"},"vehicle_type_id":"4","last_reported":1757858847,"current_range_meters":16400,"station_id":"ce4bhch2rcd13ifvqeug","pricing_plan_id":"cebpf4jnsgd1na2vs0mg"},{"bike_id":"d27a5be8-d7fd-4827-a8b4-c4cbf1e10c7d","system_id":"levelo_inurba_marseille","lat":43.27379,"lon":5.36244,"is_reserved":false,"is_disabled":false,"rental_uris":{"android":"levelo://app?vid=d27a5be8-d7fd-4827-a8b4-c4cbf1e10c7d","ios":"levelo://app?vid=d27a5be8-d7fd-4827-a8b4-c4cbf1e10c7d"},"vehicle_type_id":"4","last_reported":1757858847,"current_range_meters":16400,"station_id":"ce4bhbh2rcd13ifvqeo0","pricing_plan_id":"cebpf4jnsgd1na2vs0mg"},{"bike_id":"f75319f4-d3a6-440f-9c89-5af7f4acd041","system_id":"levelo_inurba_marseille","lat":43.22561,"lon":5.41617,"is_reserved":false,"is_disabled":false,"rental_uris":{"android":"levelo://app?vid=f75319f4-d3a6-440f-9c89-5af7f4acd041","ios":"levelo://app?vid=f75319f4-d3a6-440f-9c89-5af7f4acd041"},"vehicle_type_id":"4","last_reported":1757858847,"current_range_meters":16400,"station_id":"st_d2o4gvlbi1j2169b742g","pricing_plan_id":"cebpf4jnsgd1na2vs0mg"},{"bike_id":"b002a392-08fa-4b2e-b212-3e002cd96c5d","system_id":"levelo_inurba_marseille","lat":43.23961,"lon":5.36635,"is_reserved":false,"is_disabled":false,"rental_uris":{"android":"levelo://app?vid=b002a392-08fa-4b2e-b212-3e002cd96c5d","ios":"levelo://app?vid=b002a392-08fa-4b2e-b212-3e002cd96c5d"},"vehicle_type_id":"4","last_reported":1757858847,"current_range_meters":16400,"station_id":"ce4bhi12rcd13ifvqfp0","pricing_plan_id":"cebpf4jnsgd1na2vs0mg"},{"bike_id":"642b1f81-ffb0-4d91-b5d6-8a03b4edc393","system_id":"levelo_inurba_marseille","lat":43.2175,"lon":5.34607,"is_reserved":false,"is_disabled":false,"rental_uris":{"android":"levelo://app?vid=642b1f81-ffb0-4d91-b5d6-8a03b4edc393","ios":"levelo://app?vid=642b1f81-ffb0-4d91-b5d6-8a03b4edc393"},"vehicle_type_id":"4","last_reported":1757858847,"current_range_meters":16400,"station_id":"st_cvj6r9ubvosntc0bgbag","pricing_plan_id":"cebpf4jnsgd1na2vs0mg"},{"bike_id":"b6e71227-cf24-477c-a6b4-dcaf891c7903","system_id":"levelo_inurba_marseille","lat":43.25583,"lon":5.38227,"is_reserved":false,"is_disabled":false,"rental_uris":{"android":"levelo://app?vid=b6e71227-cf24-477c-a6b4-dcaf891c7903","ios":"levelo://app?vid=b6e71227-cf24-477c-a6b4-dcaf891c7903"},"vehicle_type_id":"4","last_reported":1757858847,"current_range_meters":16400,"station_id":"ce4bhih2rcd13ifvqfs0","pricing_plan_id":"cebpf4jnsgd1na2vs0mg"},{"bike_id":"12f1394b-bb48-4fbe-ac41-fe01aa9a3d00","system_id":"levelo_inurba_marseille","lat":43.23967,"lon":5.36646,"is_reserved":false,"is_disabled":false,"rental_uris":{"android":"levelo://app?vid=12f1394b-bb48-4fbe-ac41-fe01aa9a3d00","ios":"levelo://app?vid=12f1394b-bb48-4fbe-ac41-fe01aa9a3d00"},"vehicle_type_id":"4","last_reported":1757858847,"current_range_meters":16400,"station_id":"ce4bhi12rcd13ifvqfp0","pricing_plan_id":"cebpf4jnsgd1na2vs0mg"},{"bike_id":"cf66a869-3e1a-4e03-ab83-74d7d635d0b8","system_id":"levelo_inurba_marseille","lat":43.2925,"lon":5.40915,"is_reserved":false,"is_disabled":true,"rental_uris":{"android":"levelo://app?vid=cf66a869-3e1a-4e03-ab83-74d7d635d0b8","ios":"levelo://app?vid=cf66a869-3e1a-4e03-ab83-74d7d635d0b8"},"vehicle_type_id":"4","last_reported":1757858847,"current_range_meters":16800,"station_id":"ce4bh192rcd13ifvqdc0","pricing_plan_id":"cebpf4jnsgd1na2vs0mg"},{"bike_id":"950a5f0c-6122-4d8d-a42b-4763023d14f2","system_id":"levelo_inurba_marseille","lat":43.25505,"lon":5.37645,"is_reserved":false,"is_disabled":true,"rental_uris":{"android":"levelo://app?vid=950a5f0c-6122-4d8d-a42b-4763023d14f2","ios":"levelo://app?vid=950a5f0c-6122-4d8d-a42b-4763023d14f2"},"vehicle_type_id":"4","last_reported":1757858847,"current_range_meters":16800,"station_id":"ce4bhh12rcd13ifvqff0","pricing_plan_id":"cebpf4jnsgd1na2vs0mg"},{"bike_id":"15c12f1b-150c-43be-9134-ac05fb9a1bef","system_id":"levelo_inurba_marseille","lat":43.290632,"lon":5.37153,"is_reserved":false,"is_disabled":true,"rental_uris":{"android":"levelo://app?vid=15c12f1b-150c-43be-9134-ac05fb9a1bef","ios":"levelo://app?vid=15c12f1b-150c-43be-9134-ac05fb9a1bef"},"vehicle_type_id":"4","last_reported":1757858847,"current_range_meters":16800,"station_id":"ce4bh5p2rcd13ifvqe4g","pricing_plan_id":"cebpf4jnsgd1na2vs0mg"},{"bike_id":"ce2894bd-79c1-40ae-85e2-650fecc9b7e6","system_id":"levelo_inurba_marseille","lat":43.27377,"lon":5.36253,"is_reserved":false,"is_disabled":false,"rental_uris":{"android":"levelo://app?vid=ce2894bd-79c1-40ae-85e2-650fecc9b7e6","ios":"levelo://app?vid=ce2894bd-79c1-40ae-85e2-650fecc9b7e6"},"vehicle_type_id":"4","last_reported":1757858847,"current_range_meters":16800,"station_id":"ce4bhbh2rcd13ifvqeo0","pricing_plan_id":"cebpf4jnsgd1na2vs0mg"},{"bike_id":"52df5ee4-a4e8-44a6-b6b5-b849378d1ce3","system_id":"levelo_inurba_marseille","lat":43.32333,"lon":5.40611,"is_reserved":false,"is_disabled":false,"rental_uris":{"android":"levelo://app?vid=52df5ee4-a4e8-44a6-b6b5-b849378d1ce3","ios":"levelo://app?vid=52df5ee4-a4e8-44a6-b6b5-b849378d1ce3"},"vehicle_type_id":"4","last_reported":1757858847,"current_range_meters":16800,"station_id":"ce4bhq92rcd13ifvqhjg","pricing_plan_id":"cebpf4jnsgd1na2vs0mg"},{"bike_id":"d7888f4f-3e0e-42ad-8e1f-74344957c259","system_id":"levelo_inurba_marseille","lat":43.28278,"lon":5.35081,"is_reserved":false,"is_disabled":false,"rental_uris":{"android":"levelo://app?vid=d7888f4f-3e0e-42ad-8e1f-74344957c259","ios":"levelo://app?vid=d7888f4f-3e0e-42ad-8e1f-74344957c259"},"vehicle_type_id":"4","last_reported":1757858847,"current_range_meters":16800,"station_id":"ce4bhbp2rcd13ifvqerg","pricing_plan_id":"cebpf4jnsgd1na2vs0mg"},{"bike_id":"b17eb1d8-1776-4b6d-a013-b2ffd518d301","system_id":"levelo_inurba_marseille","lat":43.24386,"lon":5.37057,"is_reserved":false,"is_disabled":false,"rental_uris":{"android":"levelo://app?vid=b17eb1d8-1776-4b6d-a013-b2ffd518d301","ios":"levelo://app?vid=b17eb1d8-1776-4b6d-a013-b2ffd518d301"},"vehicle_type_id":"4","last_reported":1757858847,"current_range_meters":16800,"station_id":"ce4bhhh2rcd13ifvqfk0","pricing_plan_id":"cebpf4jnsgd1na2vs0mg"},{"bike_id":"853a4893-339d-477d-bd8c-74a3256e3b0a","system_id":"levelo_inurba_marseille","lat":43.28417,"lon":5.34986,"is_reserved":false,"is_disabled":false,"rental_uris":{"android":"levelo://app?vid=853a4893-339d-477d-bd8c-74a3256e3b0a","ios":"levelo://app?vid=853a4893-339d-477d-bd8c-74a3256e3b0a"},"vehicle_type_id":"4","last_reported":1757858847,"current_range_meters":16800,"station_id":"ce4bhbh2rcd13ifvqepg","pricing_plan_id":"cebpf4jnsgd1na2vs0mg"},{"bike_id":"c7ced916-b324-4504-848d-61d9c7b74f58","system_id":"levelo_inurba_marseille","lat":43.26208,"lon":5.37444,"is_reserved":false,"is_disabled":false,"rental_uris":{"android":"levelo://app?vid=c7ced916-b324-4504-848d-61d9c7b74f58","ios":"levelo://app?vid=c7ced916-b324-4504-848d-61d9c7b74f58"},"vehicle_type_id":"4","last_reported":1757858847,"current_range_meters":17200,"station_id":"ce4bhgp2rcd13ifvqfc0","pricing_plan_id":"cebpf4jnsgd1na2vs0mg"},{"bike_id":"322c1f5a-85db-4ef6-bcd4-1b5c417c8ee0","system_id":"levelo_inurba_marseille","lat":43.3377,"lon":5.37488,"is_reserved":false,"is_disabled":false,"rental_uris":{"android":"levelo://app?vid=322c1f5a-85db-4ef6-bcd4-1b5c417c8ee0","ios":"levelo://app?vid=322c1f5a-85db-4ef6-bcd4-1b5c417c8ee0"},"vehicle_type_id":"4","last_reported":1757858847,"current_range_meters":17200,"station_id":"","pricing_plan_id":"cebpf4jnsgd1na2vs0mg"},{"bike_id":"95251c11-6699-4aa0-8909-a444151e2dc9","system_id":"levelo_inurba_marseille","lat":43.240826,"lon":5.377537,"is_reserved":false,"is_disabled":false,"rental_uris":{"android":"levelo://app?vid=95251c11-6699-4aa0-8909-a444151e2dc9","ios":"levelo://app?vid=95251c11-6699-4aa0-8909-a444151e2dc9"},"vehicle_type_id":"4","last_reported":1757858847,"current_range_meters":17200,"station_id":"ce4bhnp2rcd13ifvqgvg","pricing_plan_id":"cebpf4jnsgd1na2vs0mg"},{"bike_id":"c9f82b86-7ced-43c5-8bc4-fa83f1b9c33c","system_id":"levelo_inurba_marseille","lat":43.24678,"lon":5.38148,"is_reserved":false,"is_disabled":false,"rental_uris":{"android":"levelo://app?vid=c9f82b86-7ced-43c5-8bc4-fa83f1b9c33c","ios":"levelo://app?vid=c9f82b86-7ced-43c5-8bc4-fa83f1b9c33c"},"vehicle_type_id":"4","last_reported":1757858847,"current_range_meters":17200,"station_id":"ce4bhih2rcd13ifvqfr0","pricing_plan_id":"cebpf4jnsgd1na2vs0mg"},{"bike_id":"777ff417-3a86-45a9-9277-be4920b499e5","system_id":"levelo_inurba_marseille","lat":43.2481,"lon":5.374524,"is_reserved":false,"is_disabled":false,"rental_uris":{"android":"levelo://app?vid=777ff417-3a86-45a9-9277-be4920b499e5","ios":"levelo://app?vid=777ff417-3a86-45a9-9277-be4920b499e5"},"vehicle_type_id":"4","last_reported":1757858847,"current_range_meters":17200,"station_id":"ce4bhgh2rcd13ifvqfb0","pricing_plan_id":"cebpf4jnsgd1na2vs0mg"},{"bike_id":"aad1d370-78d5-4e35-a04f-e74148325d68","system_id":"levelo_inurba_marseille","lat":43.29039,"lon":5.39946,"is_reserved":false,"is_disabled":true,"rental_uris":{"android":"levelo://app?vid=aad1d370-78d5-4e35-a04f-e74148325d68","ios":"levelo://app?vid=aad1d370-78d5-4e35-a04f-e74148325d68"},"vehicle_type_id":"4","last_reported":1757858847,"current_range_meters":17200,"station_id":"ce4bh392rcd13ifvqdm0","pricing_plan_id":"cebpf4jnsgd1na2vs0mg"},{"bike_id":"459cc5d9-67e8-41e3-911e-3cac6f24ea41","system_id":"levelo_inurba_marseille","lat":43.27182,"lon":5.40991,"is_reserved":false,"is_disabled":false,"rental_uris":{"android":"levelo://app?vid=459cc5d9-67e8-41e3-911e-3cac6f24ea41","ios":"levelo://app?vid=459cc5d9-67e8-41e3-911e-3cac6f24ea41"},"vehicle_type_id":"4","last_reported":1757858847,"current_range_meters":16800,"station_id":"ce4bhl12rcd13ifvqgf0","pricing_plan_id":"cebpf4jnsgd1na2vs0mg"},{"bike_id":"a2a9e70a-c4ff-4147-80bb-641e2d519899","system_id":"levelo_inurba_marseille","lat":43.24166,"lon":5.36397,"is_reserved":false,"is_disabled":false,"rental_uris":{"android":"levelo://app?vid=a2a9e70a-c4ff-4147-80bb-641e2d519899","ios":"levelo://app?vid=a2a9e70a-c4ff-4147-80bb-641e2d519899"},"vehicle_type_id":"4","last_reported":1757858847,"current_range_meters":17200,"station_id":"cpo36qri1sfpv3e86is0","pricing_plan_id":"cebpf4jnsgd1na2vs0mg"},{"bike_id":"d73f7fb3-c8ea-453d-bf17-b6619453a1de","system_id":"levelo_inurba_marseille","lat":43.2119,"lon":5.35073,"is_reserved":false,"is_disabled":false,"rental_uris":{"android":"levelo://app?vid=d73f7fb3-c8ea-453d-bf17-b6619453a1de","ios":"levelo://app?vid=d73f7fb3-c8ea-453d-bf17-b6619453a1de"},"vehicle_type_id":"4","last_reported":1757858847,"current_range_meters":17200,"station_id":"st_cvj6sg6p6f1abm77japg","pricing_plan_id":"cebpf4jnsgd1na2vs0mg"},{"bike_id":"1eb344f5-af4d-4e6d-8120-eb5551bdbe00","system_id":"levelo_inurba_marseille","lat":43.29521,"lon":5.37472,"is_reserved":false,"is_disabled":true,"rental_uris":{"android":"levelo://app?vid=1eb344f5-af4d-4e6d-8120-eb5551bdbe00","ios":"levelo://app?vid=1eb344f5-af4d-4e6d-8120-eb5551bdbe00"},"vehicle_type_id":"4","last_reported":1757858847,"current_range_meters":17600,"station_id":"ce4bgkp2rcd13ifvqbmg","pricing_plan_id":"cebpf4jnsgd1na2vs0mg"},{"bike_id":"0c6fe877-1024-4901-84e8-0fbaefe45584","system_id":"levelo_inurba_marseille","lat":43.334352,"lon":5.400671,"is_reserved":false,"is_disabled":false,"rental_uris":{"android":"levelo://app?vid=0c6fe877-1024-4901-84e8-0fbaefe45584","ios":"levelo://app?vid=0c6fe877-1024-4901-84e8-0fbaefe45584"},"vehicle_type_id":"4","last_reported":1757858847,"current_range_meters":17600,"station_id":"","pricing_plan_id":"cebpf4jnsgd1na2vs0mg"},{"bike_id":"ebc28d3f-48e0-4c19-84dd-0c3a04a1ca62","system_id":"levelo_inurba_marseille","lat":43.25876,"lon":5.39925,"is_reserved":false,"is_disabled":true,"rental_uris":{"android":"levelo://app?vid=ebc28d3f-48e0-4c19-84dd-0c3a04a1ca62","ios":"levelo://app?vid=ebc28d3f-48e0-4c19-84dd-0c3a04a1ca62"},"vehicle_type_id":"4","last_reported":1757858847,"current_range_meters":17600,"station_id":"ce4bhl92rcd13ifvqghg","pricing_plan_id":"cebpf4jnsgd1na2vs0mg"},{"bike_id":"06f912a1-be18-4e24-bcf6-61e6cd52dde6","system_id":"levelo_inurba_marseille","lat":43.27621,"lon":5.36107,"is_reserved":false,"is_disabled":false,"rental_uris":{"android":"levelo://app?vid=06f912a1-be18-4e24-bcf6-61e6cd52dde6","ios":"levelo://app?vid=06f912a1-be18-4e24-bcf6-61e6cd52dde6"},"vehicle_type_id":"4","last_reported":1757858847,"current_range_meters":17600,"station_id":"ce4bgj92rcd13ifvqbe0","pricing_plan_id":"cebpf4jnsgd1na2vs0mg"},{"bike_id":"1037cabf-295d-4dcd-ab55-8aec73ed9b12","system_id":"levelo_inurba_marseille","lat":43.28413,"lon":5.34977,"is_reserved":false,"is_disabled":false,"rental_uris":{"android":"levelo://app?vid=1037cabf-295d-4dcd-ab55-8aec73ed9b12","ios":"levelo://app?vid=1037cabf-295d-4dcd-ab55-8aec73ed9b12"},"vehicle_type_id":"4","last_reported":1757858847,"current_range_meters":18000,"station_id":"ce4bhbh2rcd13ifvqepg","pricing_plan_id":"cebpf4jnsgd1na2vs0mg"},{"bike_id":"18bd701a-3668-4c24-9e99-24145dd8b809","system_id":"levelo_inurba_marseille","lat":43.21746,"lon":5.34598,"is_reserved":false,"is_disabled":false,"rental_uris":{"android":"levelo://app?vid=18bd701a-3668-4c24-9e99-24145dd8b809","ios":"levelo://app?vid=18bd701a-3668-4c24-9e99-24145dd8b809"},"vehicle_type_id":"4","last_reported":1757858847,"current_range_meters":18000,"station_id":"st_cvj6r9ubvosntc0bgbag","pricing_plan_id":"cebpf4jnsgd1na2vs0mg"},{"bike_id":"c3687da1-615a-4bc8-91c6-30861975bfcf","system_id":"levelo_inurba_marseille","lat":43.29226,"lon":5.36071,"is_reserved":false,"is_disabled":false,"rental_uris":{"android":"levelo://app?vid=c3687da1-615a-4bc8-91c6-30861975bfcf","ios":"levelo://app?vid=c3687da1-615a-4bc8-91c6-30861975bfcf"},"vehicle_type_id":"4","last_reported":1757858847,"current_range_meters":18000,"station_id":"ce4bhbh2rcd13ifvqeqg","pricing_plan_id":"cebpf4jnsgd1na2vs0mg"},{"bike_id":"046ba709-b940-4fa3-9690-1d81db536e4b","system_id":"levelo_inurba_marseille","lat":43.22559,"lon":5.41625,"is_reserved":false,"is_disabled":false,"rental_uris":{"android":"levelo://app?vid=046ba709-b940-4fa3-9690-1d81db536e4b","ios":"levelo://app?vid=046ba709-b940-4fa3-9690-1d81db536e4b"},"vehicle_type_id":"4","last_reported":1757858847,"current_range_meters":18000,"station_id":"st_d2o4gvlbi1j2169b742g","pricing_plan_id":"cebpf4jnsgd1na2vs0mg"},{"bike_id":"9802e874-1b06-4a36-b8c9-95cd84ef8bf3","system_id":"levelo_inurba_marseille","lat":43.29568,"lon":5.37512,"is_reserved":false,"is_disabled":false,"rental_uris":{"android":"levelo://app?vid=9802e874-1b06-4a36-b8c9-95cd84ef8bf3","ios":"levelo://app?vid=9802e874-1b06-4a36-b8c9-95cd84ef8bf3"},"vehicle_type_id":"4","last_reported":1757858847,"current_range_meters":18000,"station_id":"ce4bgh92rcd13ifvqb50","pricing_plan_id":"cebpf4jnsgd1na2vs0mg"},{"bike_id":"1f21dc2e-bcb1-4be9-9de8-d7deb121d9c0","system_id":"levelo_inurba_marseille","lat":43.23183,"lon":5.3997,"is_reserved":false,"is_disabled":false,"rental_uris":{"android":"levelo://app?vid=1f21dc2e-bcb1-4be9-9de8-d7deb121d9c0","ios":"levelo://app?vid=1f21dc2e-bcb1-4be9-9de8-d7deb121d9c0"},"vehicle_type_id":"4","last_reported":1757858847,"current_range_meters":18000,"station_id":"ce4bhn12rcd13ifvqgqg","pricing_plan_id":"cebpf4jnsgd1na2vs0mg"},{"bike_id":"fa802e3a-a488-4531-8768-2f2d21e7fa00","system_id":"levelo_inurba_marseille","lat":43.28272,"lon":5.35096,"is_reserved":false,"is_disabled":false,"rental_uris":{"android":"levelo://app?vid=fa802e3a-a488-4531-8768-2f2d21e7fa00","ios":"levelo://app?vid=fa802e3a-a488-4531-8768-2f2d21e7fa00"},"vehicle_type_id":"4","last_reported":1757858847,"current_range_meters":18000,"station_id":"ce4bhbp2rcd13ifvqerg","pricing_plan_id":"cebpf4jnsgd1na2vs0mg"},{"bike_id":"2652b4d2-6350-43ce-a637-b16535b8137a","system_id":"levelo_inurba_marseille","lat":43.29028,"lon":5.38646,"is_reserved":false,"is_disabled":true,"rental_uris":{"android":"levelo://app?vid=2652b4d2-6350-43ce-a637-b16535b8137a","ios":"levelo://app?vid=2652b4d2-6350-43ce-a637-b16535b8137a"},"vehicle_type_id":"4","last_reported":1757858847,"current_range_meters":18000,"station_id":"ce4bh4p2rcd13ifvqe0g","pricing_plan_id":"cebpf4jnsgd1na2vs0mg"},{"bike_id":"018e02d9-b75a-4c0f-abd1-48052982c30d","system_id":"levelo_inurba_marseille","lat":43.281538,"lon":5.426311,"is_reserved":false,"is_disabled":false,"rental_uris":{"android":"levelo://app?vid=018e02d9-b75a-4c0f-abd1-48052982c30d","ios":"levelo://app?vid=018e02d9-b75a-4c0f-abd1-48052982c30d"},"vehicle_type_id":"4","last_reported":1757858847,"current_range_meters":18000,"station_id":"ce4bhnh2rcd13ifvqgug","pricing_plan_id":"cebpf4jnsgd1na2vs0mg"},{"bike_id":"e03fc582-12cb-4f22-b433-ed51dd62ca6d","system_id":"levelo_inurba_marseille","lat":43.265532,"lon":5.372854,"is_reserved":false,"is_disabled":false,"rental_uris":{"android":"levelo://app?vid=e03fc582-12cb-4f22-b433-ed51dd62ca6d","ios":"levelo://app?vid=e03fc582-12cb-4f22-b433-ed51dd62ca6d"},"vehicle_type_id":"4","last_reported":1757858847,"current_range_meters":18000,"station_id":"ce4bhg12rcd13ifvqf70","pricing_plan_id":"cebpf4jnsgd1na2vs0mg"},{"bike_id":"c6c42304-01c9-46a6-9809-d89971ac4bd3","system_id":"levelo_inurba_marseille","lat":43.25315,"lon":5.42138,"is_reserved":false,"is_disabled":false,"rental_uris":{"android":"levelo://app?vid=c6c42304-01c9-46a6-9809-d89971ac4bd3","ios":"levelo://app?vid=c6c42304-01c9-46a6-9809-d89971ac4bd3"},"vehicle_type_id":"4","last_reported":1757858847,"current_range_meters":18000,"station_id":"st_d2m65c5bi1j21697t3ng","pricing_plan_id":"cebpf4jnsgd1na2vs0mg"},{"bike_id":"ac782c06-ccd8-48cd-a244-826788d1f2c0","system_id":"levelo_inurba_marseille","lat":43.29674,"lon":5.36864,"is_reserved":false,"is_disabled":false,"rental_uris":{"android":"levelo://app?vid=ac782c06-ccd8-48cd-a244-826788d1f2c0","ios":"levelo://app?vid=ac782c06-ccd8-48cd-a244-826788d1f2c0"},"vehicle_type_id":"4","last_reported":1757858847,"current_range_meters":18000,"station_id":"","pricing_plan_id":"cebpf4jnsgd1na2vs0mg"},{"bike_id":"60df5be0-868d-496d-a7cc-2e097de1a47a","system_id":"levelo_inurba_marseille","lat":43.22565,"lon":5.41628,"is_reserved":false,"is_disabled":false,"rental_uris":{"android":"levelo://app?vid=60df5be0-868d-496d-a7cc-2e097de1a47a","ios":"levelo://app?vid=60df5be0-868d-496d-a7cc-2e097de1a47a"},"vehicle_type_id":"4","last_reported":1757858847,"current_range_meters":18000,"station_id":"st_d2o4gvlbi1j2169b742g","pricing_plan_id":"cebpf4jnsgd1na2vs0mg"},{"bike_id":"e73470b2-f46f-4f87-989f-53f8372e4317","system_id":"levelo_inurba_marseille","lat":43.33369,"lon":5.3978,"is_reserved":false,"is_disabled":false,"rental_uris":{"android":"levelo://app?vid=e73470b2-f46f-4f87-989f-53f8372e4317","ios":"levelo://app?vid=e73470b2-f46f-4f87-989f-53f8372e4317"},"vehicle_type_id":"4","last_reported":1757858847,"current_range_meters":18000,"station_id":"","pricing_plan_id":"cebpf4jnsgd1na2vs0mg"},