{"last_updated":1715011807,"ttl":30,"version":"2.2","data":{"bikes":[{"bike_id":"5c964cae-9f79-49da-ba31-a936536b0ff5","system_id":"levelo_inurba_marseille","lat":43.312239,"lon":5.368562,"is_reserved":false,"is_disabled":false,"rental_uris":{"android":"levelo://app?vid=5c964cae-9f79-49da-ba31-a936536b0ff5","ios":"levelo://app?vid=5c964cae-9f79-49da-ba31-a936536b0ff5"},"vehicle_type_id":"4","last_reported":1715011807,"current_range_meters":400,"station_id":"ce4bgl92rcd13ifvqbq0","pricing_plan_id":"cebpf4jnsgd1na2vs0mg"},{"bike_id":"427cf5ea-2992-41db-996f-53f9a7260a0d","system_id":"levelo_inurba_marseille","lat":43.312239,"lon":5.368562,"is_reserved":false,"is_disabled":false,"rental_uris":{"android":"levelo://app?vid=427cf5ea-2992-41db-996f-53f9a7260a0d","ios":"levelo://app?vid=427cf5ea-2992-41db-996f-53f9a7260a0d"},"vehicle_type_id":"4","last_reported":1715011807,"current_range_meters":0,"station_id":"ce4bgl92rcd13ifvqbq0","pricing_plan_id":"cebpf4jnsgd1na2vs0mg"},{"bike_id":"fdf3027f-60b5-46c0-b5c2-a5b8697e30f4","system_id":"levelo_inurba_marseille","lat":43.31235,"lon":5.36857,"is_reserved":false,"is_disabled":false,"rental_uris":{"android":"levelo://app?vid=fdf3027f-60b5-46c0-b5c2-a5b8697e30f4","ios":"levelo://app?vid=fdf3027f-60b5-46c0-b5c2-a5b8697e30f4"},"vehicle_type_id":"4","last_reported":1715011807,"current_range_meters":0,"station_id":"ce4bgl92rcd13ifvqbq0","pricing_plan_id":"cebpf4jnsgd1na2vs0mg"},{"bike_id":"795d06bc-8cde-4c35-b472-68ce3b295c97","system_id":"levelo_inurba_marseille","lat":43.309076,"lon":5.368465,"is_reserved":false,"is_disabled":false,"rental_uris":{"android":"levelo://app?vid=795d06bc-8cde-4c35-b472-68ce3b295c97","ios":"levelo://app?vid=795d06bc-8cde-4c35-b472-68ce3b295c97"},"vehicle_type_id":"4","last_reported":1715011807,"current_range_meters":20000,"station_id":"ce4bgn92rcd13ifvqbvg","pricing_plan_id":"cebpf4jnsgd1na2vs0mg"},{"bike_id":"7bb5341d-8682-447c-baa1-7045531c6089","system_id":"levelo_inurba_marseille","lat":43.314811,"lon":5.373104,"is_reserved":false,"is_disabled":false,"rental_uris":{"android":"levelo://app?vid=7bb5341d-8682-447c-baa1-7045531c6089","ios":"levelo://app?vid=7bb5341d-8682-447c-baa1-7045531c6089"},"vehicle_type_id":"4","last_reported":1715011807,"current_range_meters":0,"station_id":"ce4bgt12rcd13ifvqcd0","pricing_plan_id":"cebpf4jnsgd1na2vs0mg"},{"bike_id":"05ac8ec7-13d6-483a-897f-2f9afe987baf","system_id":"levelo_inurba_marseille","lat":43.30537,"lon":5.367345,"is_reserved":false,"is_disabled":false,"rental_uris":{"android":"levelo://app?vid=05ac8ec7-13d6-483a-897f-2f9afe987baf","ios":"levelo://app?vid=05ac8ec7-13d6-483a-897f-2f9afe987baf"},"vehicle_type_id":"4","last_reported":1715011807,"current_range_meters":2000,"station_id":"ce4bgrp2rcd13ifvqc9g","pricing_plan_id":"cebpf4jnsgd1na2vs0mg"},{"bike_id":"4e261155-da4e-406f-bb5e-afc16703784a","system_id":"levelo_inurba_marseille","lat":43.305395,"lon":5.366996,"is_reserved":false,"is_disabled":false,"rental_uris":{"android":"levelo://app?vid=4e261155-da4e-406f-bb5e-afc16703784a","ios":"levelo://app?vid=4e261155-da4e-406f-bb5e-afc16703784a"},"vehicle_type_id":"4","last_reported":1715011807,"current_range_meters":30400,"station_id":"ce4bgrp2rcd13ifvqc9g","pricing_plan_id":"cebpf4jnsgd1na2vs0mg"},{"bike_id":"65eb6e92-6e9a-4396-b31d-54d0eeb51b11","system_id":"levelo_inurba_marseille","lat":43.305714,"lon":5.365633,"is_reserved":false,"is_disabled":false,"rental_uris":{"android":"levelo://app?vid=65eb6e92-6e9a-4396-b31d-54d0eeb51b11","ios":"levelo://app?vid=65eb6e92-6e9a-4396-b31d-54d0eeb51b11"},"vehicle_type_id":"4","last_reported":1715011807,"current_range_meters":9200,"station_id":"ce4bgs12rcd13ifvqcag","pricing_plan_id":"cebpf4jnsgd1na2vs0mg"},{"bike_id":"d4175afb-2bfb-4201-81c1-c3b4997624d9","system_id":"levelo_inurba_marseille","lat":43.305706,"lon":5.365654,"is_reserved":false,"is_disabled":false,"rental_uris":{"android":"levelo://app?vid=d4175afb-2bfb-4201-81c1-c3b4997624d9","ios":"levelo://app?vid=d4175afb-2bfb-4201-81c1-c3b4997624d9"},"vehicle_type_id":"4","last_reported":1715011807,"current_range_meters":20000,"station_id":"ce4bgs12rcd13ifvqcag","pricing_plan_id":"cebpf4jnsgd1na2vs0mg"},{"bike_id":"5b1986a7-fa6f-4e93-a798-c34ecbed4a5a","system_id":"levelo_inurba_marseille","lat":43.305368,"lon":5.367343,"is_reserved":false,"is_disabled":false,"rental_uris":{"android":"levelo://app?vid=5b1986a7-fa6f-4e93-a798-c34ecbed4a5a","ios":"levelo://app?vid=5b1986a7-fa6f-4e93-a798-c34ecbed4a5a"},"vehicle_type_id":"4","last_reported":1715011807,"current_range_meters":18400,"station_id":"ce4bgrp2rcd13ifvqc9g","pricing_plan_id":"cebpf4jnsgd1na2vs0mg"},{"bike_id":"57b1c9d3-eb52-4893-a616-45e2964165b1","system_id":"levelo_inurba_marseille","lat":43.305989,"lon":5.37225,"is_reserved":false,"is_disabled":false,"rental_uris":{"android":"levelo://app?vid=57b1c9d3-eb52-4893-a616-45e2964165b1","ios":"levelo://app?vid=57b1c9d3-eb52-4893-a616-45e2964165b1"},"vehicle_type_id":"4","last_reported":1715011807,"current_range_meters":26000,"station_id":"ce4bgqh2rcd13ifvqc4g","pricing_plan_id":"cebpf4jnsgd1na2vs0mg"},{"bike_id":"22afd819-7997-4cf1-a61f-8a39b89ac4ca","system_id":"levelo_inurba_marseille","lat":43.305989,"lon":5.37225,"is_reserved":false,"is_disabled":false,"rental_uris":{"android":"levelo://app?vid=22afd819-7997-4cf1-a61f-8a39b89ac4ca","ios":"levelo://app?vid=22afd819-7997-4cf1-a61f-8a39b89ac4ca"},"vehicle_type_id":"4","last_reported":1715011807,"current_range_meters":10400,"station_id":"ce4bgqh2rcd13ifvqc4g","pricing_plan_id":"cebpf4jnsgd1na2vs0mg"},{"bike_id":"75fb1d6b-8710-44e4-99f4-0fb993b2bb7f","system_id":"levelo_inurba_marseille","lat":43.311131,"lon":5.377651,"is_reserved":false,"is_disabled":false,"rental_uris":{"android":"levelo://app?vid=75fb1d6b-8710-44e4-99f4-0fb993b2bb7f","ios":"levelo://app?vid=75fb1d6b-8710-44e4-99f4-0fb993b2bb7f"},"vehicle_type_id":"4","last_reported":1715011807,"current_range_meters":22400,"station_id":"ce4bgt92rcd13ifvqcg0","pricing_plan_id":"cebpf4jnsgd1na2vs0mg"},{"bike_id":"fd56e752-59c2-4fb6-be10-b80302c48cbc","system_id":"levelo_inurba_marseille","lat":43.305989,"lon":5.37225,"is_reserved":false,"is_disabled":false,"rental_uris":{"android":"levelo://app?vid=fd56e752-59c2-4fb6-be10-b80302c48cbc","ios":"levelo://app?vid=fd56e752-59c2-4fb6-be10-b80302c48cbc"},"vehicle_type_id":"4","last_reported":1715011807,"current_range_meters":30000,"station_id":"ce4bgqh2rcd13ifvqc4g","pricing_plan_id":"cebpf4jnsgd1na2vs0mg"},{"bike_id":"bb393109-bdd0-4a79-97eb-58fb6b4c3373","system_id":"levelo_inurba_marseille","lat":43.311125,"lon":5.377624,"is_reserved":false,"is_disabled":false,"rental_uris":{"android":"levelo://app?vid=bb393109-bdd0-4a79-97eb-58fb6b4c3373","ios":"levelo://app?vid=bb393109-bdd0-4a79-97eb-58fb6b4c3373"},"vehicle_type_id":"4","last_reported":1715011807,"current_range_meters":4800,"station_id":"ce4bgt92rcd13ifvqcg0","pricing_plan_id":"cebpf4jnsgd1na2vs0mg"},{"bike_id":"dbf1d20b-7fd3-40da-9dcc-bbe08c9b00af","system_id":"levelo_inurba_marseille","lat":43.311131,"lon":5.377651,"is_reserved":false,"is_disabled":false,"rental_uris":{"android":"levelo://app?vid=dbf1d20b-7fd3-40da-9dcc-bbe08c9b00af","ios":"levelo://app?vid=dbf1d20b-7fd3-40da-9dcc-bbe08c9b00af"},"vehicle_type_id":"4","last_reported":1715011807,"current_range_meters":3200,"station_id":"ce4bgt92rcd13ifvqcg0","pricing_plan_id":"cebpf4jnsgd1na2vs0mg"},{"bike_id":"b16571e0-cba7-485a-930b-911536f5a85a","system_id":"levelo_inurba_marseille","lat":43.31116,"lon":5.3777,"is_reserved":false,"is_disabled":false,"rental_uris":{"android":"levelo://app?vid=b16571e0-cba7-485a-930b-911536f5a85a","ios":"levelo://app?vid=b16571e0-cba7-485a-930b-911536f5a85a"},"vehicle_type_id":"4","last_reported":1715011807,"current_range_meters":26400,"station_id":"ce4bgt92rcd13ifvqcg0","pricing_plan_id":"cebpf4jnsgd1na2vs0mg"},{"bike_id":"96e8b7a9-ab2e-49a6-bc04-432d4cb8de03","system_id":"levelo_inurba_marseille","lat":43.311205,"lon":5.377718,"is_reserved":false,"is_disabled":false,"rental_uris":{"android":"levelo://app?vid=96e8b7a9-ab2e-49a6-bc04-432d4cb8de03","ios":"levelo://app?vid=96e8b7a9-ab2e-49a6-bc04-432d4cb8de03"},"vehicle_type_id":"4","last_reported":1715011807,"current_range_meters":3200,"station_id":"ce4bgt92rcd13ifvqcg0","pricing_plan_id":"cebpf4jnsgd1na2vs0mg"},{"bike_id":"a24efae5-514c-4ab2-95c2-cbd1829411f6","system_id":"levelo_inurba_marseille","lat":43.31121,"lon":5.37773,"is_reserved":false,"is_disabled":false,"rental_uris":{"android":"levelo://app?vid=a24efae5-514c-4ab2-95c2-cbd1829411f6","ios":"levelo://app?vid=a24efae5-514c-4ab2-95c2-cbd1829411f6"},"vehicle_type_id":"4","last_reported":1715011807,"current_range_meters":5600,"station_id":"ce4bgt92rcd13ifvqcg0","pricing_plan_id":"cebpf4jnsgd1na2vs0mg"},{"bike_id":"7e8df780-b7cd-43a3-975a-fbefa9a0f279","system_id":"levelo_inurba_marseille","lat":43.305989,"lon":5.37225,"is_reserved":false,"is_disabled":false,"rental_uris":{"android":"levelo://app?vid=7e8df780-b7cd-43a3-975a-fbefa9a0f279","ios":"levelo://app?vid=7e8df780-b7cd-43a3-975a-fbefa9a0f279"},"vehicle_type_id":"4","last_reported":1715011807,"current_range_meters":30400,"station_id":"ce4bgqh2rcd13ifvqc4g","pricing_plan_id":"cebpf4jnsgd1na2vs0mg"},{"bike_id":"33f5f3fa-9032-4b21-a687-6c1e4beb3fd3","system_id":"levelo_inurba_marseille","lat":43.31107,"lon":5.37778,"is_reserved":false,"is_disabled":false,"rental_uris":{"android":"levelo://app?vid=33f5f3fa-9032-4b21-a687-6c1e4beb3fd3","ios":"levelo://app?vid=33f5f3fa-9032-4b21-a687-6c1e4beb3fd3"},"vehicle_type_id":"4","last_reported":1715011807,"current_range_meters":20800,"station_id":"ce4bgt92rcd13ifvqcg0","pricing_plan_id":"cebpf4jnsgd1na2vs0mg"},{"bike_id":"f579f071-3cd5-4428-9f75-536746a2b3bd","system_id":"levelo_inurba_marseille","lat":43.307945,"lon":5.376487,"is_reserved":false,"is_disabled":false,"rental_uris":{"android":"levelo://app?vid=f579f071-3cd5-4428-9f75-536746a2b3bd","ios":"levelo://app?vid=f579f071-3cd5-4428-9f75-536746a2b3bd"},"vehicle_type_id":"4","last_reported":1715011807,"current_range_meters":0,"station_id":"ce4bgv92rcd13ifvqcq0","pricing_plan_id":"cebpf4jnsgd1na2vs0mg"},{"bike_id":"d9ae3f2d-e03f-4391-8aeb-9dc89cecf3f1","system_id":"levelo_inurba_marseille","lat":43.307945,"lon":5.376487,"is_reserved":false,"is_disabled":false,"rental_uris":{"android":"levelo://app?vid=d9ae3f2d-e03f-4391-8aeb-9dc89cecf3f1","ios":"levelo://app?vid=d9ae3f2d-e03f-4391-8aeb-9dc89cecf3f1"},"vehicle_type_id":"4","last_reported":1715011807,"current_range_meters":15200,"station_id":"ce4bgv92rcd13ifvqcq0","pricing_plan_id":"cebpf4jnsgd1na2vs0mg"},{"bike_id":"7609e9da-94f0-45b9-8bc4-6a3a574beb2d","system_id":"levelo_inurba_marseille","lat":43.307945,"lon":5.376487,"is_reserved":false,"is_disabled":false,"rental_uris":{"android":"levelo://app?vid=7609e9da-94f0-45b9-8bc4-6a3a574beb2d","ios":"levelo://app?vid=7609e9da-94f0-45b9-8bc4-6a3a574beb2d"},"vehicle_type_id":"4","last_reported":1715011807,"current_range_meters":8000,"station_id":"ce4bgv92rcd13ifvqcq0","pricing_plan_id":"cebpf4jnsgd1na2vs0mg"},{"bike_id":"23fd2d11-4387-485d-83ec-33615390db0a","system_id":"levelo_inurba_marseille","lat":43.307945,"lon":5.376487,"is_reserved":false,"is_disabled":false,"rental_uris":{"android":"levelo://app?vid=23fd2d11-4387-485d-83ec-33615390db0a","ios":"levelo://app?vid=23fd2d11-4387-485d-83ec-33615390db0a"},"vehicle_type_id":"4","last_reported":1715011807,"current_range_meters":400,"station_id":"ce4bgv92rcd13ifvqcq0","pricing_plan_id":"cebpf4jnsgd1na2vs0mg"},{"bike_id":"04c3f86c-7a0f-406b-b9b5-76240f3fa083","system_id":"levelo_inurba_marseille","lat":43.30792,"lon":5.37648,"is_reserved":false,"is_disabled":false,"rental_uris":{"android":"levelo://app?vid=04c3f86c-7a0f-406b-b9b5-76240f3fa083","ios":"levelo://app?vid=04c3f86c-7a0f-406b-b9b5-76240f3fa083"},"vehicle_type_id":"4","last_reported":1715011807,"current_range_meters":5200,"station_id":"ce4bgv92rcd13ifvqcq0","pricing_plan_id":"cebpf4jnsgd1na2vs0mg"},{"bike_id":"279c1f82-b298-4121-a7fa-86d27bdeb7ea","system_id":"levelo_inurba_marseille","lat":43.307945,"lon":5.376487,"is_reserved":false,"is_disabled":false,"rental_uris":{"android":"levelo://app?vid=279c1f82-b298-4121-a7fa-86d27bdeb7ea","ios":"levelo://app?vid=279c1f82-b298-4121-a7fa-86d27bdeb7ea"},"vehicle_type_id":"4","last_reported":1715011807,"current_range_meters":30800,"station_id":"ce4bgv92rcd13ifvqcq0","pricing_plan_id":"cebpf4jnsgd1na2vs0mg"},{"bike_id":"9d5ff544-eb3d-4c7c-8968-58e539b7f3a3","system_id":"levelo_inurba_marseille","lat":43.307945,"lon":5.376487,"is_reserved":false,"is_disabled":false,"rental_uris":{"android":"levelo://app?vid=9d5ff544-eb3d-4c7c-8968-58e539b7f3a3","ios":"levelo://app?vid=9d5ff544-eb3d-4c7c-8968-58e539b7f3a3"},"vehicle_type_id":"4","last_reported":1715011807,"current_range_meters":17200,"station_id":"ce4bgv92rcd13ifvqcq0","pricing_plan_id":"cebpf4jnsgd1na2vs0mg"},{"bike_id":"12018788-f94a-4a21-8c8b-84f74fcf78fc","system_id":"levelo_inurba_marseille","lat":43.307945,"lon":5.376487,"is_reserved":false,"is_disabled":false,"rental_uris":{"android":"levelo://app?vid=12018788-f94a-4a21-8c8b-84f74fcf78fc","ios":"levelo://app?vid=12018788-f94a-4a21-8c8b-84f74fcf78fc"},"vehicle_type_id":"4","last_reported":1715011807,"current_range_meters":0,"station_id":"ce4bgv92rcd13ifvqcq0","pricing_plan_id":"cebpf4jnsgd1na2vs0mg"},{"bike_id":"3463b7ee-70d4-401a-8901-173b6179fa34","system_id":"levelo_inurba_marseille","lat":43.3079,"lon":5.37655,"is_reserved":false,"is_disabled":false,"rental_uris":{"android":"levelo://app?vid=3463b7ee-70d4-401a-8901-173b6179fa34","ios":"levelo://app?vid=3463b7ee-70d4-401a-8901-173b6179fa34"},"vehicle_type_id":"4","last_reported":1715011807,"current_range_meters":0,"station_id":"ce4bgv92rcd13ifvqcq0","pricing_plan_id":"cebpf4jnsgd1na2vs0mg"},{"bike_id":"75dc0ee7-c225-4e36-9456-13ea07a18106","system_id":"levelo_inurba_marseille","lat":43.307945,"lon":5.376487,"is_reserved":false,"is_disabled":false,"rental_uris":{"android":"levelo://app?vid=75dc0ee7-c225-4e36-9456-13ea07a18106","ios":"levelo://app?vid=75dc0ee7-c225-4e36-9456-13ea07a18106"},"vehicle_type_id":"4","last_reported":1715011807,"current_range_meters":4800,"station_id":"ce4bgv92rcd13ifvqcq0","pricing_plan_id":"cebpf4jnsgd1na2vs0mg"},{"bike_id":"dcbf4278-6c22-4b42-98a7-84eca441f84e","system_id":"levelo_inurba_marseille","lat":43.31689,"lon":5.37736,"is_reserved":false,"is_disabled":false,"rental_uris":{"android":"levelo://app?vid=dcbf4278-6c22-4b42-98a7-84eca441f84e","ios":"levelo://app?vid=dcbf4278-6c22-4b42-98a7-84eca441f84e"},"vehicle_type_id":"4","last_reported":1715011807,"current_range_meters":11600,"station_id":"ce4bgth2rcd13ifvqch0","pricing_plan_id":"cebpf4jnsgd1na2vs0mg"},{"bike_id":"3c388a9f-d368-40ef-80b9-cea5541b2307","system_id":"levelo_inurba_marseille","lat":43.31707,"lon":5.37735,"is_reserved":false,"is_disabled":false,"rental_uris":{"android":"levelo://app?vid=3c388a9f-d368-40ef-80b9-cea5541b2307","ios":"levelo://app?vid=3c388a9f-d368-40ef-80b9-cea5541b2307"},"vehicle_type_id":"4","last_reported":1715011807,"current_range_meters":0,"station_id":"ce4bgth2rcd13ifvqch0","pricing_plan_id":"cebpf4jnsgd1na2vs0mg"},{"bike_id":"ac592d3c-3a12-4f86-8faa-7087b7b8e1f3","system_id":"levelo_inurba_marseille","lat":43.317075,"lon":5.377367,"is_reserved":false,"is_disabled":false,"rental_uris":{"android":"levelo://app?vid=ac592d3c-3a12-4f86-8faa-7087b7b8e1f3","ios":"levelo://app?vid=ac592d3c-3a12-4f86-8faa-7087b7b8e1f3"},"vehicle_type_id":"4","last_reported":1715011807,"current_range_meters":10400,"station_id":"ce4bgth2rcd13ifvqch0","pricing_plan_id":"cebpf4jnsgd1na2vs0mg"},{"bike_id":"46a69c92-cc5a-4511-b932-0a262f1782cc","system_id":"levelo_inurba_marseille","lat":43.317075,"lon":5.377367,"is_reserved":false,"is_disabled":false,"rental_uris":{"android":"levelo://app?vid=46a69c92-cc5a-4511-b932-0a262f1782cc","ios":"levelo://app?vid=46a69c92-cc5a-4511-b932-0a262f1782cc"},"vehicle_type_id":"4","last_reported":1715011807,"current_range_meters":14000,"station_id":"ce4bgth2rcd13ifvqch0","pricing_plan_id":"cebpf4jnsgd1na2vs0mg"},{"bike_id":"3628f2d2-8cc1-4dc5-a46a-41ea0f24ced2","system_id":"levelo_inurba_marseille","lat":43.317075,"lon":5.377367,"is_reserved":false,"is_disabled":false,"rental_uris":{"android":"levelo://app?vid=3628f2d2-8cc1-4dc5-a46a-41ea0f24ced2","ios":"levelo://app?vid=3628f2d2-8cc1-4dc5-a46a-41ea0f24ced2"},"vehicle_type_id":"4","last_reported":1715011807,"current_range_meters":30400,"station_id":"ce4bgth2rcd13ifvqch0","pricing_plan_id":"cebpf4jnsgd1na2vs0mg"},{"bike_id":"3823d73e-5443-48f5-ba00-e5fab3f6ebb9","system_id":"levelo_inurba_marseille","lat":43.317075,"lon":5.377367,"is_reserved":false,"is_disabled":false,"rental_uris":{"android":"levelo://app?vid=3823d73e-5443-48f5-ba00-e5fab3f6ebb9","ios":"levelo://app?vid=3823d73e-5443-48f5-ba00-e5fab3f6ebb9"},"vehicle_type_id":"4","last_reported":1715011807,"current_range_meters":24800,"station_id":"ce4bgth2rcd13ifvqch0","pricing_plan_id":"cebpf4jnsgd1na2vs0mg"},{"bike_id":"d260a8ef-1f5d-44b6-85c3-0c16ce7cc80c","system_id":"levelo_inurba_marseille","lat":43.317075,"lon":5.377367,"is_reserved":false,"is_disabled":false,"rental_uris":{"android":"levelo://app?vid=d260a8ef-1f5d-44b6-85c3-0c16ce7cc80c","ios":"levelo://app?vid=d260a8ef-1f5d-44b6-85c3-0c16ce7cc80c"},"vehicle_type_id":"4","last_reported":1715011807,"current_range_meters":14000,"station_id":"ce4bgth2rcd13ifvqch0","pricing_plan_id":"cebpf4jnsgd1na2vs0mg"},{"bike_id":"a12dbaae-cce8-4ab2-ac2e-ae62ea1481a4","system_id":"levelo_inurba_marseille","lat":43.303046,"lon":5.368981,"is_reserved":false,"is_disabled":false,"rental_uris":{"android":"levelo://app?vid=a12dbaae-cce8-4ab2-ac2e-ae62ea1481a4","ios":"levelo://app?vid=a12dbaae-cce8-4ab2-ac2e-ae62ea1481a4"},"vehicle_type_id":"4","last_reported":1715011807,"current_range_meters":800,"station_id":"ce4bgqh2rcd13ifvqc5g","pricing_plan_id":"cebpf4jnsgd1na2vs0mg"},{"bike_id":"6129c1fd-e819-497d-aa15-e20c8e349eb6","system_id":"levelo_inurba_marseille","lat":43.299222,"lon":5.365554,"is_reserved":false,"is_disabled":false,"rental_uris":{"android":"levelo://app?vid=6129c1fd-e819-497d-aa15-e20c8e349eb6","ios":"levelo://app?vid=6129c1fd-e819-497d-aa15-e20c8e349eb6"},"vehicle_type_id":"4","last_reported":1715011807,"current_range_meters":12800,"station_id":"ce4bgm92rcd13ifvqbr0","pricing_plan_id":"cebpf4jnsgd1na2vs0mg"},{"bike_id":"425da6a0-4bdf-498e-a1d9-b0b46bcb8c1e","system_id":"levelo_inurba_marseille","lat":43.303046,"lon":5.368981,"is_reserved":false,"is_disabled":false,"rental_uris":{"android":"levelo://app?vid=425da6a0-4bdf-498e-a1d9-b0b46bcb8c1e","ios":"levelo://app?vid=425da6a0-4bdf-498e-a1d9-b0b46bcb8c1e"},"vehicle_type_id":"4","last_reported":1715011807,"current_range_meters":28400,"station_id":"ce4bgqh2rcd13ifvqc5g","pricing_plan_id":"cebpf4jnsgd1na2vs0mg"},{"bike_id":"d5b0ef46-a796-430d-bdba-ecb8ca571668","system_id":"levelo_inurba_marseille","lat":43.315289,"lon":5.380349,"is_reserved":false,"is_disabled":false,"rental_uris":{"android":"levelo://app?vid=d5b0ef46-a796-430d-bdba-ecb8ca571668","ios":"levelo://app?vid=d5b0ef46-a796-430d-bdba-ecb8ca571668"},"vehicle_type_id":"4","last_reported":1715011807,"current_range_meters":12800,"station_id":"ce4bhsp2rcd13ifvqi50","pricing_plan_id":"cebpf4jnsgd1na2vs0mg"},{"bike_id":"d2a322a5-8d9f-47ae-a9fe-5b7a04a8f3b3","system_id":"levelo_inurba_marseille","lat":43.302784,"lon":5.377158,"is_reserved":false,"is_disabled":false,"rental_uris":{"android":"levelo://app?vid=d2a322a5-8d9f-47ae-a9fe-5b7a04a8f3b3","ios":"levelo://app?vid=d2a322a5-8d9f-47ae-a9fe-5b7a04a8f3b3"},"vehicle_type_id":"4","last_reported":1715011807,"current_range_meters":20400,"station_id":"ce4bguh2rcd13ifvqcj0","pricing_plan_id":"cebpf4jnsgd1na2vs0mg"},{"bike_id":"45ac4a56-29f9-422f-8169-ba4041051dd9","system_id":"levelo_inurba_marseille","lat":43.31049,"lon":5.38081,"is_reserved":false,"is_disabled":false,"rental_uris":{"android":"levelo://app?vid=45ac4a56-29f9-422f-8169-ba4041051dd9","ios":"levelo://app?vid=45ac4a56-29f9-422f-8169-ba4041051dd9"},"vehicle_type_id":"4","last_reported":1715011807,"current_range_meters":2800,"station_id":"","pricing_plan_id":"cebpf4jnsgd1na2vs0mg"},{"bike_id":"301cdcdf-415b-48a1-bcf9-182601f04972","system_id":"levelo_inurba_marseille","lat":43.301939,"lon":5.366286,"is_reserved":false,"is_disabled":false,"rental_uris":{"android":"levelo://app?vid=301cdcdf-415b-48a1-bcf9-182601f04972","ios":"levelo://app?vid=301cdcdf-415b-48a1-bcf9-182601f04972"},"vehicle_type_id":"4","last_reported":1715011807,"current_range_meters":22800,"station_id":"ce4bgrh2rcd13ifvqc8g","pricing_plan_id":"cebpf4jnsgd1na2vs0mg"},{"bike_id":"70cac0c0-5223-4ed3-8974-978babe1045b","system_id":"levelo_inurba_marseille","lat":43.301939,"lon":5.366286,"is_reserved":false,"is_disabled":false,"rental_uris":{"android":"levelo://app?vid=70cac0c0-5223-4ed3-8974-978babe1045b","ios":"levelo://app?vid=70cac0c0-5223-4ed3-8974-978babe1045b"},"vehicle_type_id":"4","last_reported":1715011807,"current_range_meters":29200,"station_id":"ce4bgrh2rcd13ifvqc8g","pricing_plan_id":"cebpf4jnsgd1na2vs0mg"},{"bike_id":"60a495ef-8fd6-407c-91d4-48b3c8dd1f72","system_id":"levelo_inurba_marseille","lat":43.301939,"lon":5.366286,"is_reserved":false,"is_disabled":false,"rental_uris":{"android":"levelo://app?vid=60a495ef-8fd6-407c-91d4-48b3c8dd1f72","ios":"levelo://app?vid=60a495ef-8fd6-407c-91d4-48b3c8dd1f72"},"vehicle_type_id":"4","last_reported":1715011807,"current_range_meters":28400,"station_id":"ce4bgrh2rcd13ifvqc8g","pricing_plan_id":"cebpf4jnsgd1na2vs0mg"},{"bike_id":"8f46f966-271b-4c48-abaf-1dbd495f1bd6","system_id":"levelo_inurba_marseille","lat":43.301939,"lon":5.366286,"is_reserved":false,"is_disabled":false,"rental_uris":{"android":"levelo://app?vid=8f46f966-271b-4c48-abaf-1dbd495f1bd6","ios":"levelo://app?vid=8f46f966-271b-4c48-abaf-1dbd495f1bd6"},"vehicle_type_id":"4","last_reported":1715011807,"current_range_meters":29200,"station_id":"ce4bgrh2rcd13ifvqc8g","pricing_plan_id":"cebpf4jnsgd1na2vs0mg"},{"bike_id":"4d7f5561-f8d0-4321-b592-947cd1d459d7","system_id":"levelo_inurba_marseille","lat":43.301939,"lon":5.366286,"is_reserved":false,"is_disabled":false,"rental_uris":{"android":"levelo://app?vid=4d7f5561-f8d0-4321-b592-947cd1d459d7","ios":"levelo://app?vid=4d7f5561-f8d0-4321-b592-947cd1d459d7"},"vehicle_type_id":"4","last_reported":1715011807,"current_range_meters":30000,"station_id":"ce4bgrh2rcd13ifvqc8g","pricing_plan_id":"cebpf4jnsgd1na2vs0mg"},{"bike_id":"f29a321e-4173-44e5-8afc-e8940eeef20f","system_id":"levelo_inurba_marseille","lat":43.301939,"lon":5.366286,"is_reserved":false,"is_disabled":false,"rental_uris":{"android":"levelo://app?vid=f29a321e-4173-44e5-8afc-e8940eeef20f","ios":"levelo://app?vid=f29a321e-4173-44e5-8afc-e8940eeef20f"},"vehicle_type_id":"4","last_reported":1715011807,"current_range_meters":31200,"station_id":"ce4bgrh2rcd13ifvqc8g","pricing_plan_id":"cebpf4jnsgd1na2vs0mg"},{"bike_id":"d44408ff-6b05-41e2-b4a5-ce98f77ee153","system_id":"levelo_inurba_marseille","lat":43.301939,"lon":5.366286,"is_reserved":false,"is_disabled":false,"rental_uris":{"android":"levelo://app?vid=d44408ff-6b05-41e2-b4a5-ce98f77ee153","ios":"levelo://app?vid=d44408ff-6b05-41e2-b4a5-ce98f77ee153"},"vehicle_type_id":"4","last_reported":1715011807,"current_range_meters":26400,"station_id":"ce4bgrh2rcd13ifvqc8g","pricing_plan_id":"cebpf4jnsgd1na2vs0mg"},{"bike_id":"7c9e5f25-8505-4490-8248-9dfd714d19d0","system_id":"levelo_inurba_marseille","lat":43.301939,"lon":5.366286,"is_reserved":false,"is_disabled":false,"rental_uris":{"android":"levelo://app?vid=7c9e5f25-8505-4490-8248-9dfd714d19d0","ios":"levelo://app?vid=7c9e5f25-8505-4490-8248-9dfd714d19d0"},"vehicle_type_id":"4","last_reported":1715011807,"current_range_meters":30800,"station_id":"ce4bgrh2rcd13ifvqc8g","pricing_plan_id":"cebpf4jnsgd1na2vs0mg"},{"bike_id":"a0c4ac66-3891-4e56-92c9-053cb5ab67cb","system_id":"levelo_inurba_marseille","lat":43.301939,"lon":5.366286,"is_reserved":false,"is_disabled":false,"rental_uris":{"android":"levelo://app?vid=a0c4ac66-3891-4e56-92c9-053cb5ab67cb","ios":"levelo://app?vid=a0c4ac66-3891-4e56-92c9-053cb5ab67cb"},"vehicle_type_id":"4","last_reported":1715011807,"current_range_meters":29200,"station_id":"ce4bgrh2rcd13ifvqc8g","pricing_plan_id":"cebpf4jnsgd1na2vs0mg"},{"bike_id":"e4f3c943-8728-4781-b97b-73dac30be4d4","system_id":"levelo_inurba_marseille","lat":43.301939,"lon":5.366286,"is_reserved":false,"is_disabled":false,"rental_uris":{"android":"levelo://app?vid=e4f3c943-8728-4781-b97b-73dac30be4d4","ios":"levelo://app?vid=e4f3c943-8728-4781-b97b-73dac30be4d4"},"vehicle_type_id":"4","last_reported":1715011807,"current_range_meters":30800,"station_id":"ce4bgrh2rcd13ifvqc8g","pricing_plan_id":"cebpf4jnsgd1na2vs0mg"},{"bike_id":"9f9c2d8f-ca2c-48c6-be6e-d5b907512547","system_id":"levelo_inurba_marseille","lat":43.301939,"lon":5.366286,"is_reserved":false,"is_disabled":false,"rental_uris":{"android":"levelo://app?vid=9f9c2d8f-ca2c-48c6-be6e-d5b907512547","ios":"levelo://app?vid=9f9c2d8f-ca2c-48c6-be6e-d5b907512547"},"vehicle_type_id":"4","last_reported":1715011807,"current_range_meters":24400,"station_id":"ce4bgrh2rcd13ifvqc8g","pricing_plan_id":"cebpf4jnsgd1na2vs0mg"},{"bike_id":"2d7edde6-2807-43a4-ba04-7bebb604ebc5","system_id":"levelo_inurba_marseille","lat":43.301939,"lon":5.366286,"is_reserved":false,"is_disabled":false,"rental_uris":{"android":"levelo://app?vid=2d7edde6-2807-43a4-ba04-7bebb604ebc5","ios":"levelo://app?vid=2d7edde6-2807-43a4-ba04-7bebb604ebc5"},"vehicle_type_id":"4","last_reported":1715011807,"current_range_meters":29600,"station_id":"ce4bgrh2rcd13ifvqc8g","pricing_plan_id":"cebpf4jnsgd1na2vs0mg"},{"bike_id":"07cda487-96b6-413d-9e77-7a9cb5433db0","system_id":"levelo_inurba_marseille","lat":43.30803,"lon":5.38152,"is_reserved":false,"is_disabled":false,"rental_uris":{"android":"levelo://app?vid=07cda487-96b6-413d-9e77-7a9cb5433db0","ios":"levelo://app?vid=07cda487-96b6-413d-9e77-7a9cb5433db0"},"vehicle_type_id":"4","last_reported":1715011807,"current_range_meters":0,"station_id":"ce4bgt12rcd13ifvqce0","pricing_plan_id":"cebpf4jnsgd1na2vs0mg"},{"bike_id":"36bbed1d-24e9-4a99-aed8-bfda7be9e922","system_id":"levelo_inurba_marseille","lat":43.304606,"lon":5.379026,"is_reserved":false,"is_disabled":false,"rental_uris":{"android":"levelo://app?vid=36bbed1d-24e9-4a99-aed8-bfda7be9e922","ios":"levelo://app?vid=36bbed1d-24e9-4a99-aed8-bfda7be9e922"},"vehicle_type_id":"4","last_reported":1715011807,"current_range_meters":25600,"station_id":"ce4bgup2rcd13ifvqcn0","pricing_plan_id":"cebpf4jnsgd1na2vs0mg"},{"bike_id":"2358fd37-e8b7-43e5-926b-8b10fce38750","system_id":"levelo_inurba_marseille","lat":43.304606,"lon":5.379026,"is_reserved":false,"is_disabled":false,"rental_uris":{"android":"levelo://app?vid=2358fd37-e8b7-43e5-926b-8b10fce38750","ios":"levelo://app?vid=2358fd37-e8b7-43e5-926b-8b10fce38750"},"vehicle_type_id":"4","last_reported":1715011807,"current_range_meters":16000,"station_id":"ce4bgup2rcd13ifvqcn0","pricing_plan_id":"cebpf4jnsgd1na2vs0mg"},{"bike_id":"a58e3377-ecb0-4370-a9a3-d45415780ef4","system_id":"levelo_inurba_marseille","lat":43.304606,"lon":5.379026,"is_reserved":false,"is_disabled":false,"rental_uris":{"android":"levelo://app?vid=a58e3377-ecb0-4370-a9a3-d45415780ef4","ios":"levelo://app?vid=a58e3377-ecb0-4370-a9a3-d45415780ef4"},"vehicle_type_id":"4","last_reported":1715011807,"current_range_meters":14400,"station_id":"ce4bgup2rcd13ifvqcn0","pricing_plan_id":"cebpf4jnsgd1na2vs0mg"},{"bike_id":"547c72f4-a7a8-426d-93ed-46aeaa19525f","system_id":"levelo_inurba_marseille","lat":43.324771,"lon":5.36557,"is_reserved":false,"is_disabled":false,"rental_uris":{"android":"levelo://app?vid=547c72f4-a7a8-426d-93ed-46aeaa19525f","ios":"levelo://app?vid=547c72f4-a7a8-426d-93ed-46aeaa19525f"},"vehicle_type_id":"4","last_reported":1715011807,"current_range_meters":25200,"station_id":"ce4bhs12rcd13ifvqhvg","pricing_plan_id":"cebpf4jnsgd1na2vs0mg"},{"bike_id":"715eccd2-5cf5-41ab-922e-b62ded0d8fd3","system_id":"levelo_inurba_marseille","lat":43.324771,"lon":5.36557,"is_reserved":false,"is_disabled":false,"rental_uris":{"android":"levelo://app?vid=715eccd2-5cf5-41ab-922e-b62ded0d8fd3","ios":"levelo://app?vid=715eccd2-5cf5-41ab-922e-b62ded0d8fd3"},"vehicle_type_id":"4","last_reported":1715011807,"current_range_meters":0,"station_id":"ce4bhs12rcd13ifvqhvg","pricing_plan_id":"cebpf4jnsgd1na2vs0mg"},{"bike_id":"efc537cf-dc79-4716-b512-821a45abcf86","system_id":"levelo_inurba_marseille","lat":43.324771,"lon":5.36557,"is_reserved":false,"is_disabled":false,"rental_uris":{"android":"levelo://app?vid=efc537cf-dc79-4716-b512-821a45abcf86","ios":"levelo://app?vid=efc537cf-dc79-4716-b512-821a45abcf86"},"vehicle_type_id":"4","last_reported":1715011807,"current_range_meters":25600,"station_id":"ce4bhs12rcd13ifvqhvg","pricing_plan_id":"cebpf4jnsgd1na2vs0mg"},{"bike_id":"b56f17b3-65b4-44f7-a1ea-b59390ec5e0e","system_id":"levelo_inurba_marseille","lat":43.324771,"lon":5.36557,"is_reserved":false,"is_disabled":false,"rental_uris":{"android":"levelo://app?vid=b56f17b3-65b4-44f7-a1ea-b59390ec5e0e","ios":"levelo://app?vid=b56f17b3-65b4-44f7-a1ea-b59390ec5e0e"},"vehicle_type_id":"4","last_reported":1715011807,"current_range_meters":22000,"station_id":"ce4bhs12rcd13ifvqhvg","pricing_plan_id":"cebpf4jnsgd1na2vs0mg"},{"bike_id":"413ba6e1-f407-4b1b-b615-7dc63f58cdcb","system_id":"levelo_inurba_marseille","lat":43.32485,"lon":5.36562,"is_reserved":false,"is_disabled":false,"rental_uris":{"android":"levelo://app?vid=413ba6e1-f407-4b1b-b615-7dc63f58cdcb","ios":"levelo://app?vid=413ba6e1-f407-4b1b-b615-7dc63f58cdcb"},"vehicle_type_id":"4","last_reported":1715011807,"current_range_meters":0,"station_id":"ce4bhs12rcd13ifvqhvg","pricing_plan_id":"cebpf4jnsgd1na2vs0mg"},{"bike_id":"28c23b4a-287e-4e24-9fbc-1f676497477d","system_id":"levelo_inurba_marseille","lat":43.324771,"lon":5.36557,"is_reserved":false,"is_disabled":false,"rental_uris":{"android":"levelo://app?vid=28c23b4a-287e-4e24-9fbc-1f676497477d","ios":"levelo://app?vid=28c23b4a-287e-4e24-9fbc-1f676497477d"},"vehicle_type_id":"4","last_reported":1715011807,"current_range_meters":12400,"station_id":"ce4bhs12rcd13ifvqhvg","pricing_plan_id":"cebpf4jnsgd1na2vs0mg"},{"bike_id":"09212946-2313-4ca4-8041-0688065c54af","system_id":"levelo_inurba_marseille","lat":43.324771,"lon":5.36557,"is_reserved":false,"is_disabled":false,"rental_uris":{"android":"levelo://app?vid=09212946-2313-4ca4-8041-0688065c54af","ios":"levelo://app?vid=09212946-2313-4ca4-8041-0688065c54af"},"vehicle_type_id":"4","last_reported":1715011807,"current_range_meters":24400,"station_id":"ce4bhs12rcd13ifvqhvg","pricing_plan_id":"cebpf4jnsgd1na2vs0mg"},{"bike_id":"946c79c8-0e29-4a5e-a2cd-a05b17018de1","system_id":"levelo_inurba_marseille","lat":43.32487,"lon":5.36561,"is_reserved":false,"is_disabled":false,"rental_uris":{"android":"levelo://app?vid=946c79c8-0e29-4a5e-a2cd-a05b17018de1","ios":"levelo://app?vid=946c79c8-0e29-4a5e-a2cd-a05b17018de1"},"vehicle_type_id":"4","last_reported":1715011807,"current_range_meters":0,"station_id":"","pricing_plan_id":"cebpf4jnsgd1na2vs0mg"},{"bike_id":"b39fbef9-e0af-4490-bcb7-605bdbaa1f55","system_id":"levelo_inurba_marseille","lat":43.324771,"lon":5.36557,"is_reserved":false,"is_disabled":false,"rental_uris":{"android":"levelo://app?vid=b39fbef9-e0af-4490-bcb7-605bdbaa1f55","ios":"levelo://app?vid=b39fbef9-e0af-4490-bcb7-605bdbaa1f55"},"vehicle_type_id":"4","last_reported":1715011807,"current_range_meters":6400,"station_id":"ce4bhs12rcd13ifvqhvg","pricing_plan_id":"cebpf4jnsgd1na2vs0mg"},{"bike_id":"436e2210-8fbf-46bf-926c-5e83d99647e9","system_id":"levelo_inurba_marseille","lat":43.310804,"lon":5.38359,"is_reserved":false,"is_disabled":false,"rental_uris":{"android":"levelo://app?vid=436e2210-8fbf-46bf-926c-5e83d99647e9","ios":"levelo://app?vid=436e2210-8fbf-46bf-926c-5e83d99647e9"},"vehicle_type_id":"4","last_reported":1715011807,"current_range_meters":800,"station_id":"ce4bgv92rcd13ifvqcr0","pricing_plan_id":"cebpf4jnsgd1na2vs0mg"},{"bike_id":"b073eb83-cd06-49b1-bba2-261c9ea8288e","system_id":"levelo_inurba_marseille","lat":43.31078,"lon":5.38356,"is_reserved":false,"is_disabled":false,"rental_uris":{"android":"levelo://app?vid=b073eb83-cd06-49b1-bba2-261c9ea8288e","ios":"levelo://app?vid=b073eb83-cd06-49b1-bba2-261c9ea8288e"},"vehicle_type_id":"4","last_reported":1715011807,"current_range_meters":5200,"station_id":"ce4bgv92rcd13ifvqcr0","pricing_plan_id":"cebpf4jnsgd1na2vs0mg"},{"bike_id":"03db58a0-6578-4905-9f96-69697c813f6a","system_id":"levelo_inurba_marseille","lat":43.31079,"lon":5.3836,"is_reserved":false,"is_disabled":false,"rental_uris":{"android":"levelo://app?vid=03db58a0-6578-4905-9f96-69697c813f6a","ios":"levelo://app?vid=03db58a0-6578-4905-9f96-69697c813f6a"},"vehicle_type_id":"4","last_reported":1715011807,"current_range_meters":27200,"station_id":"ce4bgv92rcd13ifvqcr0","pricing_plan_id":"cebpf4jnsgd1na2vs0mg"},{"bike_id":"683b08da-8edd-4334-a650-08c7a1512838","system_id":"levelo_inurba_marseille","lat":43.302784,"lon":5.377158,"is_reserved":false,"is_disabled":false,"rental_uris":{"android":"levelo://app?vid=683b08da-8edd-4334-a650-08c7a1512838","ios":"levelo://app?vid=683b08da-8edd-4334-a650-08c7a1512838"},"vehicle_type_id":"4","last_reported":1715011807,"current_range_meters":26800,"station_id":"ce4bguh2rcd13ifvqcj0","pricing_plan_id":"cebpf4jnsgd1na2vs0mg"},{"bike_id":"5d189252-e527-42ac-bc61-2071ad300a82","system_id":"levelo_inurba_marseille","lat":43.30143,"lon":5.37413,"is_reserved":false,"is_disabled":false,"rental_uris":{"android":"levelo://app?vid=5d189252-e527-42ac-bc61-2071ad300a82","ios":"levelo://app?vid=5d189252-e527-42ac-bc61-2071ad300a82"},"vehicle_type_id":"4","last_reported":1715011807,"current_range_meters":400,"station_id":"ce4bgs92rcd13ifvqcc0","pricing_plan_id":"cebpf4jnsgd1na2vs0mg"},{"bike_id":"7bce4f2a-b291-4765-9ed8-72d6d7e3348e","system_id":"levelo_inurba_marseille","lat":43.302784,"lon":5.377158,"is_reserved":false,"is_disabled":false,"rental_uris":{"android":"levelo://app?vid=7bce4f2a-b291-4765-9ed8-72d6d7e3348e","ios":"levelo://app?vid=7bce4f2a-b291-4765-9ed8-72d6d7e3348e"},"vehicle_type_id":"4","last_reported":1715011807,"current_range_meters":4800,"station_id":"ce4bguh2rcd13ifvqcj0","pricing_plan_id":"cebpf4jnsgd1na2vs0mg"},{"bike_id":"1c22918f-c2d5-449c-b5c1-ba124974661f","system_id":"levelo_inurba_marseille","lat":43.302784,"lon":5.377158,"is_reserved":false,"is_disabled":false,"rental_uris":{"android":"levelo://app?vid=1c22918f-c2d5-449c-b5c1-ba124974661f","ios":"levelo://app?vid=1c22918f-c2d5-449c-b5c1-ba124974661f"},"vehicle_type_id":"4","last_reported":1715011807,"current_range_meters":16400,"station_id":"ce4bguh2rcd13ifvqcj0","pricing_plan_id":"cebpf4jnsgd1na2vs0mg"},{"bike_id":"b28c12d0-a08e-4ff5-832a-d2911ed9ea33","system_id":"levelo_inurba_marseille","lat":43.319935,"lon":5.381699,"is_reserved":false,"is_disabled":false,"rental_uris":{"android":"levelo://app?vid=b28c12d0-a08e-4ff5-832a-d2911ed9ea33","ios":"levelo://app?vid=b28c12d0-a08e-4ff5-832a-d2911ed9ea33"},"vehicle_type_id":"4","last_reported":1715011807,"current_range_meters":11200,"station_id":"ce4bhr12rcd13ifvqhpg","pricing_plan_id":"cebpf4jnsgd1na2vs0mg"},{"bike_id":"9b9cd8c3-8844-4d65-952e-2b912a29fc79","system_id":"levelo_inurba_marseille","lat":43.319935,"lon":5.381699,"is_reserved":false,"is_disabled":false,"rental_uris":{"android":"levelo://app?vid=9b9cd8c3-8844-4d65-952e-2b912a29fc79","ios":"levelo://app?vid=9b9cd8c3-8844-4d65-952e-2b912a29fc79"},"vehicle_type_id":"4","last_reported":1715011807,"current_range_meters":1600,"station_id":"ce4bhr12rcd13ifvqhpg","pricing_plan_id":"cebpf4jnsgd1na2vs0mg"},{"bike_id":"b74f0d03-d732-4d29-95b2-fe886a734036","system_id":"levelo_inurba_marseille","lat":43.319935,"lon":5.381699,"is_reserved":false,"is_disabled":false,"rental_uris":{"android":"levelo://app?vid=b74f0d03-d732-4d29-95b2-fe886a734036","ios":"levelo://app?vid=b74f0d03-d732-4d29-95b2-fe886a734036"},"vehicle_type_id":"4","last_reported":1715011807,"current_range_meters":17600,"station_id":"ce4bhr12rcd13ifvqhpg","pricing_plan_id":"cebpf4jnsgd1na2vs0mg"},{"bike_id":"e1f25604-737b-4f78-9152-fc58abcc4eb6","system_id":"levelo_inurba_marseille","lat":43.319935,"lon":5.381699,"is_reserved":false,"is_disabled":false,"rental_uris":{"android":"levelo://app?vid=e1f25604-737b-4f78-9152-fc58abcc4eb6","ios":"levelo://app?vid=e1f25604-737b-4f78-9152-fc58abcc4eb6"},"vehicle_type_id":"4","last_reported":1715011807,"current_range_meters":22400,"station_id":"ce4bhr12rcd13ifvqhpg","pricing_plan_id":"cebpf4jnsgd1na2vs0mg"},{"bike_id":"10f0b656-af5f-46d4-a67b-0b91ffdb91c8","system_id":"levelo_inurba_marseille","lat":43.300196,"lon":5.372152,"is_reserved":false,"is_disabled":false,"rental_uris":{"android":"levelo://app?vid=10f0b656-af5f-46d4-a67b-0b91ffdb91c8","ios":"levelo://app?vid=10f0b656-af5f-46d4-a67b-0b91ffdb91c8"},"vehicle_type_id":"4","last_reported":1715011807,"current_range_meters":22800,"station_id":"","pricing_plan_id":"cebpf4jnsgd1na2vs0mg"},{"bike_id":"e5773529-23e1-40a6-aba0-917d28487e54","system_id":"levelo_inurba_marseille","lat":43.299222,"lon":5.365554,"is_reserved":false,"is_disabled":false,"rental_uris":{"android":"levelo://app?vid=e5773529-23e1-40a6-aba0-917d28487e54","ios":"levelo://app?vid=e5773529-23e1-40a6-aba0-917d28487e54"},"vehicle_type_id":"4","last_reported":1715011807,"current_range_meters":24400,"station_id":"ce4bgm92rcd13ifvqbr0","pricing_plan_id":"cebpf4jnsgd1na2vs0mg"},{"bike_id":"3c2cabd7-b60e-41b5-ba2c-6c00d2f3925d","system_id":"levelo_inurba_marseille","lat":43.299222,"lon":5.365554,"is_reserved":false,"is_disabled":false,"rental_uris":{"android":"levelo://app?vid=3c2cabd7-b60e-41b5-ba2c-6c00d2f3925d","ios":"levelo://app?vid=3c2cabd7-b60e-41b5-ba2c-6c00d2f3925d"},"vehicle_type_id":"4","last_reported":1715011807,"current_range_meters":2400,"station_id":"ce4bgm92rcd13ifvqbr0","pricing_plan_id":"cebpf4jnsgd1na2vs0mg"},{"bike_id":"afffbad0-cf39-45d5-8398-abce241098fd","system_id":"levelo_inurba_marseille","lat":43.299222,"lon":5.365554,"is_reserved":false,"is_disabled":false,"rental_uris":{"android":"levelo://app?vid=afffbad0-cf39-45d5-8398-abce241098fd","ios":"levelo://app?vid=afffbad0-cf39-45d5-8398-abce241098fd"},"vehicle_type_id":"4","last_reported":1715011807,"current_range_meters":8400,"station_id":"ce4bgm92rcd13ifvqbr0","pricing_plan_id":"cebpf4jnsgd1na2vs0mg"},{"bike_id":"87af6630-c512-480c-99bc-2d19d5e045de","system_id":"levelo_inurba_marseille","lat":43.299222,"lon":5.365554,"is_reserved":false,"is_disabled":false,"rental_uris":{"android":"levelo://app?vid=87af6630-c512-480c-99bc-2d19d5e045de","ios":"levelo://app?vid=87af6630-c512-480c-99bc-2d19d5e045de"},"vehicle_type_id":"4","last_reported":1715011807,"current_range_meters":27600,"station_id":"ce4bgm92rcd13ifvqbr0","pricing_plan_id":"cebpf4jnsgd1na2vs0mg"},{"bike_id":"56fc3f42-0b85-4e97-a4da-26690b812fee","system_id":"levelo_inurba_marseille","lat":43.29853,"lon":5.36286,"is_reserved":false,"is_disabled":false,"rental_uris":{"android":"levelo://app?vid=56fc3f42-0b85-4e97-a4da-26690b812fee","ios":"levelo://app?vid=56fc3f42-0b85-4e97-a4da-26690b812fee"},"vehicle_type_id":"4","last_reported":1715011807,"current_range_meters":17600,"station_id":"ce4bgpp2rcd13ifvqc3g","pricing_plan_id":"cebpf4jnsgd1na2vs0mg"},{"bike_id":"afc46467-0369-47be-85ab-11e220c50078","system_id":"levelo_inurba_marseille","lat":43.29854,"lon":5.36278,"is_reserved":false,"is_disabled":false,"rental_uris":{"android":"levelo://app?vid=afc46467-0369-47be-85ab-11e220c50078","ios":"levelo://app?vid=afc46467-0369-47be-85ab-11e220c50078"},"vehicle_type_id":"4","last_reported":1715011807,"current_range_meters":26800,"station_id":"ce4bgpp2rcd13ifvqc3g","pricing_plan_id":"cebpf4jnsgd1na2vs0mg"},{"bike_id":"415a1cdc-cecd-4b52-9d44-2eebf9201cd1","system_id":"levelo_inurba_marseille","lat":43.29853,"lon":5.36282,"is_reserved":false,"is_disabled":false,"rental_uris":{"android":"levelo://app?vid=415a1cdc-cecd-4b52-9d44-2eebf9201cd1","ios":"levelo://app?vid=415a1cdc-cecd-4b52-9d44-2eebf9201cd1"},"vehicle_type_id":"4","last_reported":1715011807,"current_range_meters":10800,"station_id":"ce4bgpp2rcd13ifvqc3g","pricing_plan_id":"cebpf4jnsgd1na2vs0mg"},{"bike_id":"b281455e-ecc5-47fe-8d8b-11398633f42e","system_id":"levelo_inurba_marseille","lat":43.29851,"lon":5.36288,"is_reserved":false,"is_disabled":false,"rental_uris":{"android":"levelo://app?vid=b281455e-ecc5-47fe-8d8b-11398633f42e","ios":"levelo://app?vid=b281455e-ecc5-47fe-8d8b-11398633f42e"},"vehicle_type_id":"4","last_reported":1715011807,"current_range_meters":2000,"station_id":"ce4bgpp2rcd13ifvqc3g","pricing_plan_id":"cebpf4jnsgd1na2vs0mg"},{"bike_id":"6bdbbc81-5d8a-41b5-8884-59f4f57b6464","system_id":"levelo_inurba_marseille","lat":43.298504,"lon":5.362824,"is_reserved":false,"is_disabled":false,"rental_uris":{"android":"levelo://app?vid=6bdbbc81-5d8a-41b5-8884-59f4f57b6464","ios":"levelo://app?vid=6bdbbc81-5d8a-41b5-8884-59f4f57b6464"},"vehicle_type_id":"4","last_reported":1715011807,"current_range_meters":9600,"station_id":"ce4bgpp2rcd13ifvqc3g","pricing_plan_id":"cebpf4jnsgd1na2vs0mg"},{"bike_id":"916df462-8eb6-436a-9964-af061eb813ec","system_id":"levelo_inurba_marseille","lat":43.298433,"lon":5.362774,"is_reserved":false,"is_disabled":false,"rental_uris":{"android":"levelo://app?vid=916df462-8eb6-436a-9964-af061eb813ec","ios":"levelo://app?vid=916df462-8eb6-436a-9964-af061eb813ec"},"vehicle_type_id":"4","last_reported":1715011807,"current_range_meters":4800,"station_id":"ce4bgpp2rcd13ifvqc3g","pricing_plan_id":"cebpf4jnsgd1na2vs0mg"},{"bike_id":"18ad9215-7390-450a-a9b5-638037d9132b","system_id":"levelo_inurba_marseille","lat":43.298433,"lon":5.362774,"is_reserved":false,"is_disabled":false,"rental_uris":{"android":"levelo://app?vid=18ad9215-7390-450a-a9b5-638037d9132b","ios":"levelo://app?vid=18ad9215-7390-450a-a9b5-638037d9132b"},"vehicle_type_id":"4","last_reported":1715011807,"current_range_meters":2400,"station_id":"ce4bgpp2rcd13ifvqc3g","pricing_plan_id":"cebpf4jnsgd1na2vs0mg"},{"bike_id":"d883eac4-e3c6-4e31-a5e3-bed0d5a9256d","system_id":"levelo_inurba_marseille","lat":43.29849,"lon":5.36283,"is_reserved":false,"is_disabled":false,"rental_uris":{"android":"levelo://app?vid=d883eac4-e3c6-4e31-a5e3-bed0d5a9256d","ios":"levelo://app?vid=d883eac4-e3c6-4e31-a5e3-bed0d5a9256d"},"vehicle_type_id":"4","last_reported":1715011807,"current_range_meters":24400,"station_id":"ce4bgpp2rcd13ifvqc3g","pricing_plan_id":"cebpf4jnsgd1na2vs0mg"},{"bike_id":"9607e678-48bb-42ba-ad17-55490b0e3e6a","system_id":"levelo_inurba_marseille","lat":43.298433,"lon":5.362774,"is_reserved":false,"is_disabled":false,"rental_uris":{"android":"levelo://app?vid=9607e678-48bb-42ba-ad17-55490b0e3e6a","ios":"levelo://app?vid=9607e678-48bb-42ba-ad17-55490b0e3e6a"},"vehicle_type_id":"4","last_reported":1715011807,"current_range_meters":31600,"station_id":"ce4bgpp2rcd13ifvqc3g","pricing_plan_id":"cebpf4jnsgd1na2vs0mg"},{"bike_id":"c442ada2-f4f6-4c02-884c-c33561337ed5","system_id":"levelo_inurba_marseille","lat":43.298433,"lon":5.362774,"is_reserved":false,"is_disabled":false,"rental_uris":{"android":"levelo://app?vid=c442ada2-f4f6-4c02-884c-c33561337ed5","ios":"levelo://app?vid=c442ada2-f4f6-4c02-884c-c33561337ed5"},"vehicle_type_id":"4","last_reported":1715011807,"current_range_meters":31600,"station_id":"ce4bgpp2rcd13ifvqc3g","pricing_plan_id":"cebpf4jnsgd1na2vs0mg"},{"bike_id":"832bdf1f-72ab-48bc-be7b-b137fd7533cb","system_id":"levelo_inurba_marseille","lat":43.298433,"lon":5.362774,"is_reserved":false,"is_disabled":false,"rental_uris":{"android":"levelo://app?vid=832bdf1f-72ab-48bc-be7b-b137fd7533cb","ios":"levelo://app?vid=832bdf1f-72ab-48bc-be7b-b137fd7533cb"},"vehicle_type_id":"4","last_reported":1715011807,"current_range_meters":31200,"station_id":"ce4bgpp2rcd13ifvqc3g","pricing_plan_id":"cebpf4jnsgd1na2vs0mg"},{"bike_id":"3a01da0d-549f-4e46-a95b-64d26a1b0d56","system_id":"levelo_inurba_marseille","lat":43.298433,"lon":5.362774,"is_reserved":false,"is_disabled":false,"rental_uris":{"android":"levelo://app?vid=3a01da0d-549f-4e46-a95b-64d26a1b0d56","ios":"levelo://app?vid=3a01da0d-549f-4e46-a95b-64d26a1b0d56"},"vehicle_type_id":"4","last_reported":1715011807,"current_range_meters":31600,"station_id":"ce4bgpp2rcd13ifvqc3g","pricing_plan_id":"cebpf4jnsgd1na2vs0mg"},{"bike_id":"0a45780e-6181-444c-86c0-d6676f2707f6","system_id":"levelo_inurba_marseille","lat":43.298433,"lon":5.362774,"is_reserved":false,"is_disabled":false,"rental_uris":{"android":"levelo://app?vid=0a45780e-6181-444c-86c0-d6676f2707f6","ios":"levelo://app?vid=0a45780e-6181-444c-86c0-d6676f2707f6"},"vehicle_type_id":"4","last_reported":1715011807,"current_range_meters":0,"station_id":"ce4bgpp2rcd13ifvqc3g","pricing_plan_id":"cebpf4jnsgd1na2vs0mg"},{"bike_id":"b5f0adeb-89fb-4905-bc97-1543428e7316","system_id":"levelo_inurba_marseille","lat":43.298433,"lon":5.362774,"is_reserved":false,"is_disabled":false,"rental_uris":{"android":"levelo://app?vid=b5f0adeb-89fb-4905-bc97-1543428e7316","ios":"levelo://app?vid=b5f0adeb-89fb-4905-bc97-1543428e7316"},"vehicle_type_id":"4","last_reported":1715011807,"current_range_meters":31600,"station_id":"ce4bgpp2rcd13ifvqc3g","pricing_plan_id":"cebpf4jnsgd1na2vs0mg"},{"bike_id":"e3e7d252-9b7f-491c-a14f-376998fefb17","system_id":"levelo_inurba_marseille","lat":43.298433,"lon":5.362774,"is_reserved":false,"is_disabled":false,"rental_uris":{"android":"levelo://app?vid=e3e7d252-9b7f-491c-a14f-376998fefb17","ios":"levelo://app?vid=e3e7d252-9b7f-491c-a14f-376998fefb17"},"vehicle_type_id":"4","last_reported":1715011807,"current_range_meters":20000,"station_id":"ce4bgpp2rcd13ifvqc3g","pricing_plan_id":"cebpf4jnsgd1na2vs0mg"},{"bike_id":"49bbcd14-c72d-4d5e-874c-c77efe35e220","system_id":"levelo_inurba_marseille","lat":43.298433,"lon":5.362774,"is_reserved":false,"is_disabled":false,"rental_uris":{"android":"levelo://app?vid=49bbcd14-c72d-4d5e-874c-c77efe35e220","ios":"levelo://app?vid=49bbcd14-c72d-4d5e-874c-c77efe35e220"},"vehicle_type_id":"4","last_reported":1715011807,"current_range_meters":16000,"station_id":"ce4bgpp2rcd13ifvqc3g","pricing_plan_id":"cebpf4jnsgd1na2vs0mg"},{"bike_id":"e45bf24d-5383-4be6-8918-cbbd8dc96dc7","system_id":"levelo_inurba_marseille","lat":43.311722,"lon":5.387247,"is_reserved":false,"is_disabled":false,"rental_uris":{"android":"levelo://app?vid=e45bf24d-5383-4be6-8918-cbbd8dc96dc7","ios":"levelo://app?vid=e45bf24d-5383-4be6-8918-cbbd8dc96dc7"},"vehicle_type_id":"4","last_reported":1715011807,"current_range_meters":2400,"station_id":"ce4bgv12rcd13ifvqcp0","pricing_plan_id":"cebpf4jnsgd1na2vs0mg"},{"bike_id":"c4737821-56da-4b0a-913b-5ff683786bf8","system_id":"levelo_inurba_marseille","lat":43.311722,"lon":5.387247,"is_reserved":false,"is_disabled":false,"rental_uris":{"android":"levelo://app?vid=c4737821-56da-4b0a-913b-5ff683786bf8","ios":"levelo://app?vid=c4737821-56da-4b0a-913b-5ff683786bf8"},"vehicle_type_id":"4","last_reported":1715011807,"current_range_meters":23600,"station_id":"ce4bgv12rcd13ifvqcp0","pricing_plan_id":"cebpf4jnsgd1na2vs0mg"},{"bike_id":"3957cb53-8c7d-4b56-9e71-5d61a44e6f90","system_id":"levelo_inurba_marseille","lat":43.311722,"lon":5.387247,"is_reserved":false,"is_disabled":false,"rental_uris":{"android":"levelo://app?vid=3957cb53-8c7d-4b56-9e71-5d61a44e6f90","ios":"levelo://app?vid=3957cb53-8c7d-4b56-9e71-5d61a44e6f90"},"vehicle_type_id":"4","last_reported":1715011807,"current_range_meters":4800,"station_id":"ce4bgv12rcd13ifvqcp0","pricing_plan_id":"cebpf4jnsgd1na2vs0mg"},{"bike_id":"84e350a2-2a57-45bd-843b-9bc195dd6c93","system_id":"levelo_inurba_marseille","lat":43.311722,"lon":5.387247,"is_reserved":false,"is_disabled":false,"rental_uris":{"android":"levelo://app?vid=84e350a2-2a57-45bd-843b-9bc195dd6c93","ios":"levelo://app?vid=84e350a2-2a57-45bd-843b-9bc195dd6c93"},"vehicle_type_id":"4","last_reported":1715011807,"current_range_meters":13200,"station_id":"ce4bgv12rcd13ifvqcp0","pricing_plan_id":"cebpf4jnsgd1na2vs0mg"},{"bike_id":"1cdf7ed1-14b3-42fe-976d-64282f7ce8ca","system_id":"levelo_inurba_marseille","lat":43.297774,"lon":5.370875,"is_reserved":false,"is_disabled":false,"rental_uris":{"android":"levelo://app?vid=1cdf7ed1-14b3-42fe-976d-64282f7ce8ca","ios":"levelo://app?vid=1cdf7ed1-14b3-42fe-976d-64282f7ce8ca"},"vehicle_type_id":"4","last_reported":1715011807,"current_range_meters":19600,"station_id":"ce4bgop2rcd13ifvqc1g","pricing_plan_id":"cebpf4jnsgd1na2vs0mg"},{"bike_id":"6a74fb62-872d-4252-b0ee-05ac9deebb9c","system_id":"levelo_inurba_marseille","lat":43.297794,"lon":5.370888,"is_reserved":false,"is_disabled":false,"rental_uris":{"android":"levelo://app?vid=6a74fb62-872d-4252-b0ee-05ac9deebb9c","ios":"levelo://app?vid=6a74fb62-872d-4252-b0ee-05ac9deebb9c"},"vehicle_type_id":"4","last_reported":1715011807,"current_range_meters":13600,"station_id":"ce4bgop2rcd13ifvqc1g","pricing_plan_id":"cebpf4jnsgd1na2vs0mg"},{"bike_id":"1f061bd2-3e01-498a-9e2d-ce19e642bc0d","system_id":"levelo_inurba_marseille","lat":43.297794,"lon":5.370888,"is_reserved":false,"is_disabled":false,"rental_uris":{"android":"levelo://app?vid=1f061bd2-3e01-498a-9e2d-ce19e642bc0d","ios":"levelo://app?vid=1f061bd2-3e01-498a-9e2d-ce19e642bc0d"},"vehicle_type_id":"4","last_reported":1715011807,"current_range_meters":8800,"station_id":"ce4bgop2rcd13ifvqc1g","pricing_plan_id":"cebpf4jnsgd1na2vs0mg"},{"bike_id":"b524a673-9500-4344-b545-91460e65f015","system_id":"levelo_inurba_marseille","lat":43.322872,"lon":5.382756,"is_reserved":false,"is_disabled":false,"rental_uris":{"android":"levelo://app?vid=b524a673-9500-4344-b545-91460e65f015","ios":"levelo://app?vid=b524a673-9500-4344-b545-91460e65f015"},"vehicle_type_id":"4","last_reported":1715011807,"current_range_meters":15200,"station_id":"ce4bhr12rcd13ifvqhqg","pricing_plan_id":"cebpf4jnsgd1na2vs0mg"},{"bike_id":"deba244e-70b9-4ab2-94cd-773fa38d166b","system_id":"levelo_inurba_marseille","lat":43.322872,"lon":5.382756,"is_reserved":false,"is_disabled":false,"rental_uris":{"android":"levelo://app?vid=deba244e-70b9-4ab2-94cd-773fa38d166b","ios":"levelo://app?vid=deba244e-70b9-4ab2-94cd-773fa38d166b"},"vehicle_type_id":"4","last_reported":1715011807,"current_range_meters":14000,"station_id":"ce4bhr12rcd13ifvqhqg","pricing_plan_id":"cebpf4jnsgd1na2vs0mg"},{"bike_id":"1b0b4783-b5c3-4291-bbcc-ba388e2a8fb6","system_id":"levelo_inurba_marseille","lat":43.2968,"lon":5.37291,"is_reserved":false,"is_disabled":false,"rental_uris":{"android":"levelo://app?vid=1b0b4783-b5c3-4291-bbcc-ba388e2a8fb6","ios":"levelo://app?vid=1b0b4783-b5c3-4291-bbcc-ba388e2a8fb6"},"vehicle_type_id":"4","last_reported":1715011807,"current_range_meters":26800,"station_id":"ce4bgk12rcd13ifvqbj0","pricing_plan_id":"cebpf4jnsgd1na2vs0mg"},{"bike_id":"a280a140-f99e-4dd6-b1ba-264e83a2027e","system_id":"levelo_inurba_marseille","lat":43.29709,"lon":5.35963,"is_reserved":false,"is_disabled":false,"rental_uris":{"android":"levelo://app?vid=a280a140-f99e-4dd6-b1ba-264e83a2027e","ios":"levelo://app?vid=a280a140-f99e-4dd6-b1ba-264e83a2027e"},"vehicle_type_id":"4","last_reported":1715011807,"current_range_meters":30800,"station_id":"","pricing_plan_id":"cebpf4jnsgd1na2vs0mg"},{"bike_id":"1925976a-8c29-49ae-b2ac-963c83ce4a62","system_id":"levelo_inurba_marseille","lat":43.29573,"lon":5.367355,"is_reserved":false,"is_disabled":false,"rental_uris":{"android":"levelo://app?vid=1925976a-8c29-49ae-b2ac-963c83ce4a62","ios":"levelo://app?vid=1925976a-8c29-49ae-b2ac-963c83ce4a62"},"vehicle_type_id":"4","last_reported":1715011807,"current_range_meters":6800,"station_id":"ce4bgph2rcd13ifvqc2g","pricing_plan_id":"cebpf4jnsgd1na2vs0mg"},{"bike_id":"6f207388-4a97-46f7-987b-893ed93c5a10","system_id":"levelo_inurba_marseille","lat":43.309589,"lon":5.390258,"is_reserved":false,"is_disabled":false,"rental_uris":{"android":"levelo://app?vid=6f207388-4a97-46f7-987b-893ed93c5a10","ios":"levelo://app?vid=6f207388-4a97-46f7-987b-893ed93c5a10"},"vehicle_type_id":"4","last_reported":1715011807,"current_range_meters":18400,"station_id":"ce4bgup2rcd13ifvqco0","pricing_plan_id":"cebpf4jnsgd1na2vs0mg"},{"bike_id":"c4c2accb-2a92-4a09-92e1-4822c2aa173a","system_id":"levelo_inurba_marseille","lat":43.299028,"lon":5.381509,"is_reserved":false,"is_disabled":false,"rental_uris":{"android":"levelo://app?vid=c4c2accb-2a92-4a09-92e1-4822c2aa173a","ios":"levelo://app?vid=c4c2accb-2a92-4a09-92e1-4822c2aa173a"},"vehicle_type_id":"4","last_reported":1715011807,"current_range_meters":14800,"station_id":"ce4bgj12rcd13ifvqbc0","pricing_plan_id":"cebpf4jnsgd1na2vs0mg"},{"bike_id":"c0fb6b7e-722e-4f09-85a3-c4797feaa818","system_id":"levelo_inurba_marseille","lat":43.31756,"lon":5.39012,"is_reserved":false,"is_disabled":false,"rental_uris":{"android":"levelo://app?vid=c0fb6b7e-722e-4f09-85a3-c4797feaa818","ios":"levelo://app?vid=c0fb6b7e-722e-4f09-85a3-c4797feaa818"},"vehicle_type_id":"4","last_reported":1715011807,"current_range_meters":400,"station_id":"ce4bhqp2rcd13ifvqhng","pricing_plan_id":"cebpf4jnsgd1na2vs0mg"},{"bike_id":"534ab1a9-b587-4967-abc9-bd960b8c41b7","system_id":"levelo_inurba_marseille","lat":43.3176,"lon":5.39012,"is_reserved":false,"is_disabled":false,"rental_uris":{"android":"levelo://app?vid=534ab1a9-b587-4967-abc9-bd960b8c41b7","ios":"levelo://app?vid=534ab1a9-b587-4967-abc9-bd960b8c41b7"},"vehicle_type_id":"4","last_reported":1715011807,"current_range_meters":0,"station_id":"ce4bhqp2rcd13ifvqhng","pricing_plan_id":"cebpf4jnsgd1na2vs0mg"},{"bike_id":"dbca5c74-0619-4027-8dc2-343b69399531","system_id":"levelo_inurba_marseille","lat":43.31756,"lon":5.390137,"is_reserved":false,"is_disabled":false,"rental_uris":{"android":"levelo://app?vid=dbca5c74-0619-4027-8dc2-343b69399531","ios":"levelo://app?vid=dbca5c74-0619-4027-8dc2-343b69399531"},"vehicle_type_id":"4","last_reported":1715011807,"current_range_meters":6400,"station_id":"ce4bhqp2rcd13ifvqhng","pricing_plan_id":"cebpf4jnsgd1na2vs0mg"},{"bike_id":"1c592efb-f718-4f94-a5e1-59fe42a83c98","system_id":"levelo_inurba_marseille","lat":43.317557,"lon":5.390173,"is_reserved":false,"is_disabled":false,"rental_uris":{"android":"levelo://app?vid=1c592efb-f718-4f94-a5e1-59fe42a83c98","ios":"levelo://app?vid=1c592efb-f718-4f94-a5e1-59fe42a83c98"},"vehicle_type_id":"4","last_reported":1715011807,"current_range_meters":0,"station_id":"ce4bhqp2rcd13ifvqhng","pricing_plan_id":"cebpf4jnsgd1na2vs0mg"},{"bike_id":"3aa7eeef-9dab-4c66-afd3-f4a5d3aafc6a","system_id":"levelo_inurba_marseille","lat":43.317557,"lon":5.390173,"is_reserved":false,"is_disabled":false,"rental_uris":{"android":"levelo://app?vid=3aa7eeef-9dab-4c66-afd3-f4a5d3aafc6a","ios":"levelo://app?vid=3aa7eeef-9dab-4c66-afd3-f4a5d3aafc6a"},"vehicle_type_id":"4","last_reported":1715011807,"current_range_meters":2800,"station_id":"ce4bhqp2rcd13ifvqhng","pricing_plan_id":"cebpf4jnsgd1na2vs0mg"},{"bike_id":"6bd2a54b-5632-4b4f-a2ce-51fa77aeec8e","system_id":"levelo_inurba_marseille","lat":43.304274,"lon":5.388873,"is_reserved":false,"is_disabled":false,"rental_uris":{"android":"levelo://app?vid=6bd2a54b-5632-4b4f-a2ce-51fa77aeec8e","ios":"levelo://app?vid=6bd2a54b-5632-4b4f-a2ce-51fa77aeec8e"},"vehicle_type_id":"4","last_reported":1715011807,"current_range_meters":0,"station_id":"ce4bgk12rcd13ifvqbi0","pricing_plan_id":"cebpf4jnsgd1na2vs0mg"},{"bike_id":"9bdc8366-e132-4a9b-90eb-fc6c03892077","system_id":"levelo_inurba_marseille","lat":43.298037,"lon":5.381066,"is_reserved":false,"is_disabled":false,"rental_uris":{"android":"levelo://app?vid=9bdc8366-e132-4a9b-90eb-fc6c03892077","ios":"levelo://app?vid=9bdc8366-e132-4a9b-90eb-fc6c03892077"},"vehicle_type_id":"4","last_reported":1715011807,"current_range_meters":9200,"station_id":"ce4bgip2rcd13ifvqbb0","pricing_plan_id":"cebpf4jnsgd1na2vs0mg"},{"bike_id":"c96bfcd9-d4ab-4ee0-a3a3-bff046bcde3d","system_id":"levelo_inurba_marseille","lat":43.29579,"lon":5.37499,"is_reserved":false,"is_disabled":false,"rental_uris":{"android":"levelo://app?vid=c96bfcd9-d4ab-4ee0-a3a3-bff046bcde3d","ios":"levelo://app?vid=c96bfcd9-d4ab-4ee0-a3a3-bff046bcde3d"},"vehicle_type_id":"4","last_reported":1715011807,"current_range_meters":0,"station_id":"ce4bgh92rcd13ifvqb50","pricing_plan_id":"cebpf4jnsgd1na2vs0mg"},{"bike_id":"577c3bdc-2b8f-40bf-b29d-6a7cc25a18b6","system_id":"levelo_inurba_marseille","lat":43.29578,"lon":5.37504,"is_reserved":false,"is_disabled":false,"rental_uris":{"android":"levelo://app?vid=577c3bdc-2b8f-40bf-b29d-6a7cc25a18b6","ios":"levelo://app?vid=577c3bdc-2b8f-40bf-b29d-6a7cc25a18b6"},"vehicle_type_id":"4","last_reported":1715011807,"current_range_meters":0,"station_id":"ce4bgh92rcd13ifvqb50","pricing_plan_id":"cebpf4jnsgd1na2vs0mg"},{"bike_id":"715669e3-0631-4355-9a6f-16ee25eae9ef","system_id":"levelo_inurba_marseille","lat":43.304278,"lon":5.388868,"is_reserved":false,"is_disabled":false,"rental_uris":{"android":"levelo://app?vid=715669e3-0631-4355-9a6f-16ee25eae9ef","ios":"levelo://app?vid=715669e3-0631-4355-9a6f-16ee25eae9ef"},"vehicle_type_id":"4","last_reported":1715011807,"current_range_meters":11600,"station_id":"ce4bgk12rcd13ifvqbi0","pricing_plan_id":"cebpf4jnsgd1na2vs0mg"},{"bike_id":"d7be13bc-5a6a-47e4-bd48-e91729a28ec9","system_id":"levelo_inurba_marseille","lat":43.298037,"lon":5.381066,"is_reserved":false,"is_disabled":false,"rental_uris":{"android":"levelo://app?vid=d7be13bc-5a6a-47e4-bd48-e91729a28ec9","ios":"levelo://app?vid=d7be13bc-5a6a-47e4-bd48-e91729a28ec9"},"vehicle_type_id":"4","last_reported":1715011807,"current_range_meters":0,"station_id":"ce4bgip2rcd13ifvqbb0","pricing_plan_id":"cebpf4jnsgd1na2vs0mg"},{"bike_id":"986bc9f1-de5c-45cb-a0fb-a7fe58074ae0","system_id":"levelo_inurba_marseille","lat":43.296969,"lon":5.37878,"is_reserved":false,"is_disabled":false,"rental_uris":{"android":"levelo://app?vid=986bc9f1-de5c-45cb-a0fb-a7fe58074ae0","ios":"levelo://app?vid=986bc9f1-de5c-45cb-a0fb-a7fe58074ae0"},"vehicle_type_id":"4","last_reported":1715011807,"current_range_meters":9600,"station_id":"","pricing_plan_id":"cebpf4jnsgd1na2vs0mg"},{"bike_id":"e664c983-30e6-435d-9179-241cce3d2256","system_id":"levelo_inurba_marseille","lat":43.30433,"lon":5.38877,"is_reserved":false,"is_disabled":false,"rental_uris":{"android":"levelo://app?vid=e664c983-30e6-435d-9179-241cce3d2256","ios":"levelo://app?vid=e664c983-30e6-435d-9179-241cce3d2256"},"vehicle_type_id":"4","last_reported":1715011807,"current_range_meters":11600,"station_id":"ce4bgk12rcd13ifvqbi0","pricing_plan_id":"cebpf4jnsgd1na2vs0mg"},{"bike_id":"bf978110-9834-4caa-9a84-85a9bb137e84","system_id":"levelo_inurba_marseille","lat":43.30429,"lon":5.38875,"is_reserved":false,"is_disabled":false,"rental_uris":{"android":"levelo://app?vid=bf978110-9834-4caa-9a84-85a9bb137e84","ios":"levelo://app?vid=bf978110-9834-4caa-9a84-85a9bb137e84"},"vehicle_type_id":"4","last_reported":1715011807,"current_range_meters":800,"station_id":"ce4bgk12rcd13ifvqbi0","pricing_plan_id":"cebpf4jnsgd1na2vs0mg"},{"bike_id":"c9f38689-3f69-48fa-82e0-0b521dfcbc02","system_id":"levelo_inurba_marseille","lat":43.30435,"lon":5.38881,"is_reserved":false,"is_disabled":false,"rental_uris":{"android":"levelo://app?vid=c9f38689-3f69-48fa-82e0-0b521dfcbc02","ios":"levelo://app?vid=c9f38689-3f69-48fa-82e0-0b521dfcbc02"},"vehicle_type_id":"4","last_reported":1715011807,"current_range_meters":2400,"station_id":"ce4bgk12rcd13ifvqbi0","pricing_plan_id":"cebpf4jnsgd1na2vs0mg"},{"bike_id":"3e3e2717-e081-4dbb-9f08-99fc2d7698d7","system_id":"levelo_inurba_marseille","lat":43.304278,"lon":5.388868,"is_reserved":false,"is_disabled":false,"rental_uris":{"android":"levelo://app?vid=3e3e2717-e081-4dbb-9f08-99fc2d7698d7","ios":"levelo://app?vid=3e3e2717-e081-4dbb-9f08-99fc2d7698d7"},"vehicle_type_id":"4","last_reported":1715011807,"current_range_meters":17600,"station_id":"ce4bgk12rcd13ifvqbi0","pricing_plan_id":"cebpf4jnsgd1na2vs0mg"},{"bike_id":"8a9ecfd8-e64d-4134-84a5-caa3c1092a86","system_id":"levelo_inurba_marseille","lat":43.29628,"lon":5.37707,"is_reserved":false,"is_disabled":false,"rental_uris":{"android":"levelo://app?vid=8a9ecfd8-e64d-4134-84a5-caa3c1092a86","ios":"levelo://app?vid=8a9ecfd8-e64d-4134-84a5-caa3c1092a86"},"vehicle_type_id":"4","last_reported":1715011807,"current_range_meters":0,"station_id":"ce4bgj92rcd13ifvqbd0","pricing_plan_id":"cebpf4jnsgd1na2vs0mg"},{"bike_id":"deaa7fb9-b289-4538-85a8-beba6bab49e5","system_id":"levelo_inurba_marseille","lat":43.298037,"lon":5.381066,"is_reserved":false,"is_disabled":false,"rental_uris":{"android":"levelo://app?vid=deaa7fb9-b289-4538-85a8-beba6bab49e5","ios":"levelo://app?vid=deaa7fb9-b289-4538-85a8-beba6bab49e5"},"vehicle_type_id":"4","last_reported":1715011807,"current_range_meters":26800,"station_id":"ce4bgip2rcd13ifvqbb0","pricing_plan_id":"cebpf4jnsgd1na2vs0mg"},{"bike_id":"a712eae4-7398-4456-b19c-4c7af616c8dc","system_id":"levelo_inurba_marseille","lat":43.30423,"lon":5.38885,"is_reserved":false,"is_disabled":false,"rental_uris":{"android":"levelo://app?vid=a712eae4-7398-4456-b19c-4c7af616c8dc","ios":"levelo://app?vid=a712eae4-7398-4456-b19c-4c7af616c8dc"},"vehicle_type_id":"4","last_reported":1715011807,"current_range_meters":15200,"station_id":"","pricing_plan_id":"cebpf4jnsgd1na2vs0mg"},{"bike_id":"68d942a6-dcac-47d2-8271-6b7eca60388d","system_id":"levelo_inurba_marseille","lat":43.304278,"lon":5.388868,"is_reserved":false,"is_disabled":false,"rental_uris":{"android":"levelo://app?vid=68d942a6-dcac-47d2-8271-6b7eca60388d","ios":"levelo://app?vid=68d942a6-dcac-47d2-8271-6b7eca60388d"},"vehicle_type_id":"4","last_reported":1715011807,"current_range_meters":2000,"station_id":"ce4bgk12rcd13ifvqbi0","pricing_plan_id":"cebpf4jnsgd1na2vs0mg"},{"bike_id":"dffdb95a-c276-4e4e-8dc3-05351e8e2f69","system_id":"levelo_inurba_marseille","lat":43.30418,"lon":5.38885,"is_reserved":false,"is_disabled":false,"rental_uris":{"android":"levelo://app?vid=dffdb95a-c276-4e4e-8dc3-05351e8e2f69","ios":"levelo://app?vid=dffdb95a-c276-4e4e-8dc3-05351e8e2f69"},"vehicle_type_id":"4","last_reported":1715011807,"current_range_meters":0,"station_id":"ce4bgk12rcd13ifvqbi0","pricing_plan_id":"cebpf4jnsgd1na2vs0mg"},{"bike_id":"7937a020-5708-4e69-b382-d67f50afb4c9","system_id":"levelo_inurba_marseille","lat":43.304278,"lon":5.388868,"is_reserved":false,"is_disabled":false,"rental_uris":{"android":"levelo://app?vid=7937a020-5708-4e69-b382-d67f50afb4c9","ios":"levelo://app?vid=7937a020-5708-4e69-b382-d67f50afb4c9"},"vehicle_type_id":"4","last_reported":1715011807,"current_range_meters":5600,"station_id":"ce4bgk12rcd13ifvqbi0","pricing_plan_id":"cebpf4jnsgd1na2vs0mg"},{"bike_id":"30b228be-cc8f-46e8-93a4-95dfa5ad0040","system_id":"levelo_inurba_marseille","lat":43.296263,"lon":5.377094,"is_reserved":false,"is_disabled":false,"rental_uris":{"android":"levelo://app?vid=30b228be-cc8f-46e8-93a4-95dfa5ad0040","ios":"levelo://app?vid=30b228be-cc8f-46e8-93a4-95dfa5ad0040"},"vehicle_type_id":"4","last_reported":1715011807,"current_range_meters":0,"station_id":"ce4bgi92rcd13ifvqb90","pricing_plan_id":"cebpf4jnsgd1na2vs0mg"},{"bike_id":"fd2a0af6-113a-404e-90dc-5d772bbe27e8","system_id":"levelo_inurba_marseille","lat":43.296263,"lon":5.377094,"is_reserved":false,"is_disabled":false,"rental_uris":{"android":"levelo://app?vid=fd2a0af6-113a-404e-90dc-5d772bbe27e8","ios":"levelo://app?vid=fd2a0af6-113a-404e-90dc-5d772bbe27e8"},"vehicle_type_id":"4","last_reported":1715011807,"current_range_meters":0,"station_id":"ce4bgi92rcd13ifvqb90","pricing_plan_id":"cebpf4jnsgd1na2vs0mg"},{"bike_id":"cefa62a0-d003-4cae-99f6-196ebdd008af","system_id":"levelo_inurba_marseille","lat":43.296277,"lon":5.377108,"is_reserved":false,"is_disabled":false,"rental_uris":{"android":"levelo://app?vid=cefa62a0-d003-4cae-99f6-196ebdd008af","ios":"levelo://app?vid=cefa62a0-d003-4cae-99f6-196ebdd008af"},"vehicle_type_id":"4","last_reported":1715011807,"current_range_meters":0,"station_id":"ce4bgi92rcd13ifvqb90","pricing_plan_id":"cebpf4jnsgd1na2vs0mg"},{"bike_id":"e81c55b0-b5e7-4014-99f5-312bc35798ab","system_id":"levelo_inurba_marseille","lat":43.304383,"lon":5.389139,"is_reserved":false,"is_disabled":false,"rental_uris":{"android":"levelo://app?vid=e81c55b0-b5e7-4014-99f5-312bc35798ab","ios":"levelo://app?vid=e81c55b0-b5e7-4014-99f5-312bc35798ab"},"vehicle_type_id":"4","last_reported":1715011807,"current_range_meters":3200,"station_id":"ce4bgk12rcd13ifvqbi0","pricing_plan_id":"cebpf4jnsgd1na2vs0mg"},{"bike_id":"03bda29d-a3fd-4bee-95ae-c18df65ddde1","system_id":"levelo_inurba_marseille","lat":43.299707,"lon":5.384859,"is_reserved":false,"is_disabled":false,"rental_uris":{"android":"levelo://app?vid=03bda29d-a3fd-4bee-95ae-c18df65ddde1","ios":"levelo://app?vid=03bda29d-a3fd-4bee-95ae-c18df65ddde1"},"vehicle_type_id":"4","last_reported":1715011807,"current_range_meters":22800,"station_id":"ce4bgj92rcd13ifvqbd0","pricing_plan_id":"cebpf4jnsgd1na2vs0mg"},{"bike_id":"b1d58893-0376-4ada-8840-90a2e578b17c","system_id":"levelo_inurba_marseille","lat":43.29975,"lon":5.38487,"is_reserved":false,"is_disabled":false,"rental_uris":{"android":"levelo://app?vid=b1d58893-0376-4ada-8840-90a2e578b17c","ios":"levelo://app?vid=b1d58893-0376-4ada-8840-90a2e578b17c"},"vehicle_type_id":"4","last_reported":1715011807,"current_range_meters":16800,"station_id":"ce4bgj92rcd13ifvqbd0","pricing_plan_id":"cebpf4jnsgd1na2vs0mg"},{"bike_id":"cb62f92c-09d6-4d70-9eb1-821558038343","system_id":"levelo_inurba_marseille","lat":43.29971,"lon":5.384877,"is_reserved":false,"is_disabled":false,"rental_uris":{"android":"levelo://app?vid=cb62f92c-09d6-4d70-9eb1-821558038343","ios":"levelo://app?vid=cb62f92c-09d6-4d70-9eb1-821558038343"},"vehicle_type_id":"4","last_reported":1715011807,"current_range_meters":0,"station_id":"ce4bgj92rcd13ifvqbd0","pricing_plan_id":"cebpf4jnsgd1na2vs0mg"},{"bike_id":"cadb7313-0666-47ad-95f9-a9b65492d156","system_id":"levelo_inurba_marseille","lat":43.295279,"lon":5.375048,"is_reserved":false,"is_disabled":false,"rental_uris":{"android":"levelo://app?vid=cadb7313-0666-47ad-95f9-a9b65492d156","ios":"levelo://app?vid=cadb7313-0666-47ad-95f9-a9b65492d156"},"vehicle_type_id":"4","last_reported":1715011807,"current_range_meters":0,"station_id":"ce4bgkp2rcd13ifvqbmg","pricing_plan_id":"cebpf4jnsgd1na2vs0mg"},{"bike_id":"b2568d67-c059-43df-b3c2-5e0a6e773542","system_id":"levelo_inurba_marseille","lat":43.299717,"lon":5.384845,"is_reserved":false,"is_disabled":false,"rental_uris":{"android":"levelo://app?vid=b2568d67-c059-43df-b3c2-5e0a6e773542","ios":"levelo://app?vid=b2568d67-c059-43df-b3c2-5e0a6e773542"},"vehicle_type_id":"4","last_reported":1715011807,"current_range_meters":0,"station_id":"ce4bgj92rcd13ifvqbd0","pricing_plan_id":"cebpf4jnsgd1na2vs0mg"},{"bike_id":"bd73823c-9a0c-40b5-92a5-943ea2059141","system_id":"levelo_inurba_marseille","lat":43.295279,"lon":5.375048,"is_reserved":false,"is_disabled":false,"rental_uris":{"android":"levelo://app?vid=bd73823c-9a0c-40b5-92a5-943ea2059141","ios":"levelo://app?vid=bd73823c-9a0c-40b5-92a5-943ea2059141"},"vehicle_type_id":"4","last_reported":1715011807,"current_range_meters":0,"station_id":"ce4bgkp2rcd13ifvqbmg","pricing_plan_id":"cebpf4jnsgd1na2vs0mg"},{"bike_id":"2db63c92-3ab6-47d3-b037-5214b165db0a","system_id":"levelo_inurba_marseille","lat":43.299518,"lon":5.385117,"is_reserved":false,"is_disabled":false,"rental_uris":{"android":"levelo://app?vid=2db63c92-3ab6-47d3-b037-5214b165db0a","ios":"levelo://app?vid=2db63c92-3ab6-47d3-b037-5214b165db0a"},"vehicle_type_id":"4","last_reported":1715011807,"current_range_meters":0,"station_id":"ce4bgj92rcd13ifvqbd0","pricing_plan_id":"cebpf4jnsgd1na2vs0mg"},{"bike_id":"2cb971b6-f150-4103-a148-2c5a7030c5af","system_id":"levelo_inurba_marseille","lat":43.296759,"lon":5.380372,"is_reserved":false,"is_disabled":false,"rental_uris":{"android":"levelo://app?vid=2cb971b6-f150-4103-a148-2c5a7030c5af","ios":"levelo://app?vid=2cb971b6-f150-4103-a148-2c5a7030c5af"},"vehicle_type_id":"4","last_reported":1715011807,"current_range_meters":0,"station_id":"","pricing_plan_id":"cebpf4jnsgd1na2vs0mg"},{"bike_id":"84f1526b-9051-4216-a03a-1c7a5eaad455","system_id":"levelo_inurba_marseille","lat":43.3237,"lon":5.38882,"is_reserved":false,"is_disabled":false,"rental_uris":{"android":"levelo://app?vid=84f1526b-9051-4216-a03a-1c7a5eaad455","ios":"levelo://app?vid=84f1526b-9051-4216-a03a-1c7a5eaad455"},"vehicle_type_id":"4","last_reported":1715011807,"current_range_meters":0,"station_id":"ce4bhqp2rcd13ifvqhog","pricing_plan_id":"cebpf4jnsgd1na2vs0mg"},{"bike_id":"49176c1e-48a2-48ca-9117-11c3a53cfd16","system_id":"levelo_inurba_marseille","lat":43.32368,"lon":5.38886,"is_reserved":false,"is_disabled":false,"rental_uris":{"android":"levelo://app?vid=49176c1e-48a2-48ca-9117-11c3a53cfd16","ios":"levelo://app?vid=49176c1e-48a2-48ca-9117-11c3a53cfd16"},"vehicle_type_id":"4","last_reported":1715011807,"current_range_meters":0,"station_id":"ce4bhqp2rcd13ifvqhog","pricing_plan_id":"cebpf4jnsgd1na2vs0mg"},{"bike_id":"ffe00568-590d-46aa-a7cd-abf44492c6c8","system_id":"levelo_inurba_marseille","lat":43.258224,"lon":5.394369,"is_reserved":false,"is_disabled":false,"rental_uris":{"android":"levelo://app?vid=ffe00568-590d-46aa-a7cd-abf44492c6c8","ios":"levelo://app?vid=ffe00568-590d-46aa-a7cd-abf44492c6c8"},"vehicle_type_id":"4","last_reported":1715011807,"current_range_meters":2400,"station_id":"ce4bhip2rcd13ifvqft0","pricing_plan_id":"cebpf4jnsgd1na2vs0mg"},{"bike_id":"f49f1bc9-5df6-4979-a62b-e1afc593bf05","system_id":"levelo_inurba_marseille","lat":43.293259,"lon":5.371586,"is_reserved":false,"is_disabled":false,"rental_uris":{"android":"levelo://app?vid=f49f1bc9-5df6-4979-a62b-e1afc593bf05","ios":"levelo://app?vid=f49f1bc9-5df6-4979-a62b-e1afc593bf05"},"vehicle_type_id":"4","last_reported":1715011807,"current_range_meters":12400,"station_id":"ce4bgh92rcd13ifvqb40","pricing_plan_id":"cebpf4jnsgd1na2vs0mg"},{"bike_id":"d2d45c27-ebd7-4e5c-94ba-387550a6da57","system_id":"levelo_inurba_marseille","lat":43.29306,"lon":5.3718,"is_reserved":false,"is_disabled":false,"rental_uris":{"android":"levelo://app?vid=d2d45c27-ebd7-4e5c-94ba-387550a6da57","ios":"levelo://app?vid=d2d45c27-ebd7-4e5c-94ba-387550a6da57"},"vehicle_type_id":"4","last_reported":1715011807,"current_range_meters":0,"station_id":"ce4bgh92rcd13ifvqb40","pricing_plan_id":"cebpf4jnsgd1na2vs0mg"},{"bike_id":"536e219d-d1c7-485e-b123-a586653dc33e","system_id":"levelo_inurba_marseille","lat":43.292749,"lon":5.368402,"is_reserved":false,"is_disabled":false,"rental_uris":{"android":"levelo://app?vid=536e219d-d1c7-485e-b123-a586653dc33e","ios":"levelo://app?vid=536e219d-d1c7-485e-b123-a586653dc33e"},"vehicle_type_id":"4","last_reported":1715011807,"current_range_meters":15600,"station_id":"ce4bhbp2rcd13ifvqesg","pricing_plan_id":"cebpf4jnsgd1na2vs0mg"},{"bike_id":"17756d66-ae27-449f-a091-18642dab2062","system_id":"levelo_inurba_marseille","lat":43.292749,"lon":5.368398,"is_reserved":false,"is_disabled":false,"rental_uris":{"android":"levelo://app?vid=17756d66-ae27-449f-a091-18642dab2062","ios":"levelo://app?vid=17756d66-ae27-449f-a091-18642dab2062"},"vehicle_type_id":"4","last_reported":1715011807,"current_range_meters":0,"station_id":"ce4bhbp2rcd13ifvqesg","pricing_plan_id":"cebpf4jnsgd1na2vs0mg"},{"bike_id":"67468731-f0e5-4529-aaa7-5f3963b3a4e1","system_id":"levelo_inurba_marseille","lat":43.302992,"lon":5.392136,"is_reserved":false,"is_disabled":false,"rental_uris":{"android":"levelo://app?vid=67468731-f0e5-4529-aaa7-5f3963b3a4e1","ios":"levelo://app?vid=67468731-f0e5-4529-aaa7-5f3963b3a4e1"},"vehicle_type_id":"4","last_reported":1715011807,"current_range_meters":26800,"station_id":"ce4bgkh2rcd13ifvqbk0","pricing_plan_id":"cebpf4jnsgd1na2vs0mg"},{"bike_id":"3fdeeddb-ed38-4884-b54d-df103286ffad","system_id":"levelo_inurba_marseille","lat":43.293009,"lon":5.374584,"is_reserved":false,"is_disabled":false,"rental_uris":{"android":"levelo://app?vid=3fdeeddb-ed38-4884-b54d-df103286ffad","ios":"levelo://app?vid=3fdeeddb-ed38-4884-b54d-df103286ffad"},"vehicle_type_id":"4","last_reported":1715011807,"current_range_meters":0,"station_id":"ce4bgi12rcd13ifvqb70","pricing_plan_id":"cebpf4jnsgd1na2vs0mg"},{"bike_id":"b54a5bb8-f0ce-413e-99ba-e8b306fdec73","system_id":"levelo_inurba_marseille","lat":43.293009,"lon":5.374584,"is_reserved":false,"is_disabled":false,"rental_uris":{"android":"levelo://app?vid=b54a5bb8-f0ce-413e-99ba-e8b306fdec73","ios":"levelo://app?vid=b54a5bb8-f0ce-413e-99ba-e8b306fdec73"},"vehicle_type_id":"4","last_reported":1715011807,"current_range_meters":0,"station_id":"ce4bgi12rcd13ifvqb70","pricing_plan_id":"cebpf4jnsgd1na2vs0mg"},{"bike_id":"2dec1cc3-9c4a-4d92-b727-56a73679ba6c","system_id":"levelo_inurba_marseille","lat":43.31553,"lon":5.39481,"is_reserved":false,"is_disabled":false,"rental_uris":{"android":"levelo://app?vid=2dec1cc3-9c4a-4d92-b727-56a73679ba6c","ios":"levelo://app?vid=2dec1cc3-9c4a-4d92-b727-56a73679ba6c"},"vehicle_type_id":"4","last_reported":1715011807,"current_range_meters":27200,"station_id":"","pricing_plan_id":"cebpf4jnsgd1na2vs0mg"},{"bike_id":"ec29ea05-e7ef-477e-8763-264b62b57121","system_id":"levelo_inurba_marseille","lat":43.305994,"lon":5.393687,"is_reserved":false,"is_disabled":false,"rental_uris":{"android":"levelo://app?vid=ec29ea05-e7ef-477e-8763-264b62b57121","ios":"levelo://app?vid=ec29ea05-e7ef-477e-8763-264b62b57121"},"vehicle_type_id":"4","last_reported":1715011807,"current_range_meters":20000,"station_id":"ce4bh0p2rcd13ifvqd80","pricing_plan_id":"cebpf4jnsgd1na2vs0mg"},{"bike_id":"b8966b34-88ba-4ba4-b0ef-5d95e34ab643","system_id":"levelo_inurba_marseille","lat":43.305776,"lon":5.393535,"is_reserved":false,"is_disabled":false,"rental_uris":{"android":"levelo://app?vid=b8966b34-88ba-4ba4-b0ef-5d95e34ab643","ios":"levelo://app?vid=b8966b34-88ba-4ba4-b0ef-5d95e34ab643"},"vehicle_type_id":"4","last_reported":1715011807,"current_range_meters":4400,"station_id":"ce4bh0p2rcd13ifvqd80","pricing_plan_id":"cebpf4jnsgd1na2vs0mg"},{"bike_id":"26df57fc-eae7-43f1-9843-ad85f178dae7","system_id":"levelo_inurba_marseille","lat":43.293009,"lon":5.374584,"is_reserved":false,"is_disabled":false,"rental_uris":{"android":"levelo://app?vid=26df57fc-eae7-43f1-9843-ad85f178dae7","ios":"levelo://app?vid=26df57fc-eae7-43f1-9843-ad85f178dae7"},"vehicle_type_id":"4","last_reported":1715011807,"current_range_meters":0,"station_id":"ce4bgi12rcd13ifvqb70","pricing_plan_id":"cebpf4jnsgd1na2vs0mg"},{"bike_id":"99628da5-44e2-4478-b87d-d6c711b93986","system_id":"levelo_inurba_marseille","lat":43.303002,"lon":5.392142,"is_reserved":false,"is_disabled":false,"rental_uris":{"android":"levelo://app?vid=99628da5-44e2-4478-b87d-d6c711b93986","ios":"levelo://app?vid=99628da5-44e2-4478-b87d-d6c711b93986"},"vehicle_type_id":"4","last_reported":1715011807,"current_range_meters":27200,"station_id":"ce4bgkh2rcd13ifvqbk0","pricing_plan_id":"cebpf4jnsgd1na2vs0mg"},{"bike_id":"987627a8-501a-4082-9758-ecfe4b46f675","system_id":"levelo_inurba_marseille","lat":43.303002,"lon":5.392142,"is_reserved":false,"is_disabled":false,"rental_uris":{"android":"levelo://app?vid=987627a8-501a-4082-9758-ecfe4b46f675","ios":"levelo://app?vid=987627a8-501a-4082-9758-ecfe4b46f675"},"vehicle_type_id":"4","last_reported":1715011807,"current_range_meters":7600,"station_id":"ce4bgkh2rcd13ifvqbk0","pricing_plan_id":"cebpf4jnsgd1na2vs0mg"},{"bike_id":"f052a386-11d0-412f-98e4-4c0e96b37e06","system_id":"levelo_inurba_marseille","lat":43.305994,"lon":5.393687,"is_reserved":false,"is_disabled":false,"rental_uris":{"android":"levelo://app?vid=f052a386-11d0-412f-98e4-4c0e96b37e06","ios":"levelo://app?vid=f052a386-11d0-412f-98e4-4c0e96b37e06"},"vehicle_type_id":"4","last_reported":1715011807,"current_range_meters":18000,"station_id":"ce4bh0p2rcd13ifvqd80","pricing_plan_id":"cebpf4jnsgd1na2vs0mg"},{"bike_id":"162a45f6-8207-460c-bd5d-0fc80aced712","system_id":"levelo_inurba_marseille","lat":43.302992,"lon":5.392136,"is_reserved":false,"is_disabled":false,"rental_uris":{"android":"levelo://app?vid=162a45f6-8207-460c-bd5d-0fc80aced712","ios":"levelo://app?vid=162a45f6-8207-460c-bd5d-0fc80aced712"},"vehicle_type_id":"4","last_reported":1715011807,"current_range_meters":12800,"station_id":"ce4bgkh2rcd13ifvqbk0","pricing_plan_id":"cebpf4jnsgd1na2vs0mg"},{"bike_id":"c652c86c-2be9-4205-ba9c-b0e4b086ddcf","system_id":"levelo_inurba_marseille","lat":43.2936,"lon":5.37835,"is_reserved":false,"is_disabled":false,"rental_uris":{"android":"levelo://app?vid=c652c86c-2be9-4205-ba9c-b0e4b086ddcf","ios":"levelo://app?vid=c652c86c-2be9-4205-ba9c-b0e4b086ddcf"},"vehicle_type_id":"4","last_reported":1715011807,"current_range_meters":23200,"station_id":"ce4bgjh2rcd13ifvqbf0","pricing_plan_id":"cebpf4jnsgd1na2vs0mg"},{"bike_id":"0c9e1585-2623-46f1-9fc8-07f7085df6ce","system_id":"levelo_inurba_marseille","lat":43.302992,"lon":5.392136,"is_reserved":false,"is_disabled":false,"rental_uris":{"android":"levelo://app?vid=0c9e1585-2623-46f1-9fc8-07f7085df6ce","ios":"levelo://app?vid=0c9e1585-2623-46f1-9fc8-07f7085df6ce"},"vehicle_type_id":"4","last_reported":1715011807,"current_range_meters":10800,"station_id":"ce4bgkh2rcd13ifvqbk0","pricing_plan_id":"cebpf4jnsgd1na2vs0mg"},{"bike_id":"6ecfc2ce-617e-4a49-8589-195991ce7a11","system_id":"levelo_inurba_marseille","lat":43.302992,"lon":5.392136,"is_reserved":false,"is_disabled":false,"rental_uris":{"android":"levelo://app?vid=6ecfc2ce-617e-4a49-8589-195991ce7a11","ios":"levelo://app?vid=6ecfc2ce-617e-4a49-8589-195991ce7a11"},"vehicle_type_id":"4","last_reported":1715011807,"current_range_meters":6800,"station_id":"ce4bgkh2rcd13ifvqbk0","pricing_plan_id":"cebpf4jnsgd1na2vs0mg"},{"bike_id":"13004ce4-f03b-4b8e-8b92-25bca973de99","system_id":"levelo_inurba_marseille","lat":43.303002,"lon":5.392142,"is_reserved":false,"is_disabled":false,"rental_uris":{"android":"levelo://app?vid=13004ce4-f03b-4b8e-8b92-25bca973de99","ios":"levelo://app?vid=13004ce4-f03b-4b8e-8b92-25bca973de99"},"vehicle_type_id":"4","last_reported":1715011807,"current_range_meters":26800,"station_id":"ce4bgkh2rcd13ifvqbk0","pricing_plan_id":"cebpf4jnsgd1na2vs0mg"},{"bike_id":"bd3ff5c3-4795-4abc-b60f-16b122fd2521","system_id":"levelo_inurba_marseille","lat":43.302992,"lon":5.392136,"is_reserved":false,"is_disabled":false,"rental_uris":{"android":"levelo://app?vid=bd3ff5c3-4795-4abc-b60f-16b122fd2521","ios":"levelo://app?vid=bd3ff5c3-4795-4abc-b60f-16b122fd2521"},"vehicle_type_id":"4","last_reported":1715011807,"current_range_meters":22000,"station_id":"ce4bgkh2rcd13ifvqbk0","pricing_plan_id":"cebpf4jnsgd1na2vs0mg"},{"bike_id":"ba7baff3-8368-45a8-98ae-20fcd87d3111","system_id":"levelo_inurba_marseille","lat":43.302992,"lon":5.392136,"is_reserved":false,"is_disabled":false,"rental_uris":{"android":"levelo://app?vid=ba7baff3-8368-45a8-98ae-20fcd87d3111","ios":"levelo://app?vid=ba7baff3-8368-45a8-98ae-20fcd87d3111"},"vehicle_type_id":"4","last_reported":1715011807,"current_range_meters":2400,"station_id":"ce4bgkh2rcd13ifvqbk0","pricing_plan_id":"cebpf4jnsgd1na2vs0mg"},{"bike_id":"94229b44-6cd8-486d-910b-fcf67bbea1a6","system_id":"levelo_inurba_marseille","lat":43.2936,"lon":5.37835,"is_reserved":false,"is_disabled":false,"rental_uris":{"android":"levelo://app?vid=94229b44-6cd8-486d-910b-fcf67bbea1a6","ios":"levelo://app?vid=94229b44-6cd8-486d-910b-fcf67bbea1a6"},"vehicle_type_id":"4","last_reported":1715011807,"current_range_meters":23200,"station_id":"ce4bgjh2rcd13ifvqbf0","pricing_plan_id":"cebpf4jnsgd1na2vs0mg"},{"bike_id":"1f53a676-031c-467c-a3e1-efbe83a8c236","system_id":"levelo_inurba_marseille","lat":43.302992,"lon":5.392136,"is_reserved":false,"is_disabled":false,"rental_uris":{"android":"levelo://app?vid=1f53a676-031c-467c-a3e1-efbe83a8c236","ios":"levelo://app?vid=1f53a676-031c-467c-a3e1-efbe83a8c236"},"vehicle_type_id":"4","last_reported":1715011807,"current_range_meters":27200,"station_id":"ce4bgkh2rcd13ifvqbk0","pricing_plan_id":"cebpf4jnsgd1na2vs0mg"},{"bike_id":"1484e33e-a4c9-4607-ac71-76d02db0a2d3","system_id":"levelo_inurba_marseille","lat":43.293697,"lon":5.378659,"is_reserved":false,"is_disabled":false,"rental_uris":{"android":"levelo://app?vid=1484e33e-a4c9-4607-ac71-76d02db0a2d3","ios":"levelo://app?vid=1484e33e-a4c9-4607-ac71-76d02db0a2d3"},"vehicle_type_id":"4","last_reported":1715011807,"current_range_meters":0,"station_id":"ce4bgjh2rcd13ifvqbf0","pricing_plan_id":"cebpf4jnsgd1na2vs0mg"},{"bike_id":"c87ded80-117c-47c0-a6fc-43f9098cd547","system_id":"levelo_inurba_marseille","lat":43.3031,"lon":5.39242,"is_reserved":false,"is_disabled":false,"rental_uris":{"android":"levelo://app?vid=c87ded80-117c-47c0-a6fc-43f9098cd547","ios":"levelo://app?vid=c87ded80-117c-47c0-a6fc-43f9098cd547"},"vehicle_type_id":"4","last_reported":1715011807,"current_range_meters":24400,"station_id":"","pricing_plan_id":"cebpf4jnsgd1na2vs0mg"},{"bike_id":"42884579-f8d5-4fcd-9dad-4508f67c5a64","system_id":"levelo_inurba_marseille","lat":43.292311,"lon":5.360731,"is_reserved":false,"is_disabled":false,"rental_uris":{"android":"levelo://app?vid=42884579-f8d5-4fcd-9dad-4508f67c5a64","ios":"levelo://app?vid=42884579-f8d5-4fcd-9dad-4508f67c5a64"},"vehicle_type_id":"4","last_reported":1715011807,"current_range_meters":0,"station_id":"ce4bhbh2rcd13ifvqeqg","pricing_plan_id":"cebpf4jnsgd1na2vs0mg"},{"bike_id":"b7605bf6-e092-4244-93ae-0c03661a99a8","system_id":"levelo_inurba_marseille","lat":43.292311,"lon":5.360731,"is_reserved":false,"is_disabled":false,"rental_uris":{"android":"levelo://app?vid=b7605bf6-e092-4244-93ae-0c03661a99a8","ios":"levelo://app?vid=b7605bf6-e092-4244-93ae-0c03661a99a8"},"vehicle_type_id":"4","last_reported":1715011807,"current_range_meters":27200,"station_id":"ce4bhbh2rcd13ifvqeqg","pricing_plan_id":"cebpf4jnsgd1na2vs0mg"},{"bike_id":"c734d7ae-5a59-4a76-ac1c-26fe940b054d","system_id":"levelo_inurba_marseille","lat":43.292311,"lon":5.360731,"is_reserved":false,"is_disabled":false,"rental_uris":{"android":"levelo://app?vid=c734d7ae-5a59-4a76-ac1c-26fe940b054d","ios":"levelo://app?vid=c734d7ae-5a59-4a76-ac1c-26fe940b054d"},"vehicle_type_id":"4","last_reported":1715011807,"current_range_meters":7200,"station_id":"ce4bhbh2rcd13ifvqeqg","pricing_plan_id":"cebpf4jnsgd1na2vs0mg"},{"bike_id":"0bf9f674-5b4c-41f4-aa81-5f08d30cb004","system_id":"levelo_inurba_marseille","lat":43.30085,"lon":5.390856,"is_reserved":false,"is_disabled":false,"rental_uris":{"android":"levelo://app?vid=0bf9f674-5b4c-41f4-aa81-5f08d30cb004","ios":"levelo://app?vid=0bf9f674-5b4c-41f4-aa81-5f08d30cb004"},"vehicle_type_id":"4","last_reported":1715011807,"current_range_meters":13600,"station_id":"ce4bh192rcd13ifvqdb0","pricing_plan_id":"cebpf4jnsgd1na2vs0mg"},{"bike_id":"0646c258-c01e-4e72-bfc8-753e25239122","system_id":"levelo_inurba_marseille","lat":43.30085,"lon":5.390856,"is_reserved":false,"is_disabled":false,"rental_uris":{"android":"levelo://app?vid=0646c258-c01e-4e72-bfc8-753e25239122","ios":"levelo://app?vid=0646c258-c01e-4e72-bfc8-753e25239122"},"vehicle_type_id":"4","last_reported":1715011807,"current_range_meters":24400,"station_id":"ce4bh192rcd13ifvqdb0","pricing_plan_id":"cebpf4jnsgd1na2vs0mg"},{"bike_id":"cde786de-5fa1-4c4d-b48f-d02ab0c47a01","system_id":"levelo_inurba_marseille","lat":43.30085,"lon":5.390856,"is_reserved":false,"is_disabled":false,"rental_uris":{"android":"levelo://app?vid=cde786de-5fa1-4c4d-b48f-d02ab0c47a01","ios":"levelo://app?vid=cde786de-5fa1-4c4d-b48f-d02ab0c47a01"},"vehicle_type_id":"4","last_reported":1715011807,"current_range_meters":31200,"station_id":"ce4bh192rcd13ifvqdb0","pricing_plan_id":"cebpf4jnsgd1na2vs0mg"},{"bike_id":"bfef74f3-4e07-46c1-98cf-8c107ad551d7","system_id":"levelo_inurba_marseille","lat":43.292311,"lon":5.360731,"is_reserved":false,"is_disabled":false,"rental_uris":{"android":"levelo://app?vid=bfef74f3-4e07-46c1-98cf-8c107ad551d7","ios":"levelo://app?vid=bfef74f3-4e07-46c1-98cf-8c107ad551d7"},"vehicle_type_id":"4","last_reported":1715011807,"current_range_meters":0,"station_id":"ce4bhbh2rcd13ifvqeqg","pricing_plan_id":"cebpf4jnsgd1na2vs0mg"},{"bike_id":"5d313068-eb43-46f4-aaec-664543bb2aa2","system_id":"levelo_inurba_marseille","lat":43.29226,"lon":5.36048,"is_reserved":false,"is_disabled":false,"rental_uris":{"android":"levelo://app?vid=5d313068-eb43-46f4-aaec-664543bb2aa2","ios":"levelo://app?vid=5d313068-eb43-46f4-aaec-664543bb2aa2"},"vehicle_type_id":"4","last_reported":1715011807,"current_range_meters":10000,"station_id":"ce4bhbh2rcd13ifvqeqg","pricing_plan_id":"cebpf4jnsgd1na2vs0mg"},{"bike_id":"75035047-029e-4afe-8cd1-5b8e4049a5d8","system_id":"levelo_inurba_marseille","lat":43.292311,"lon":5.360731,"is_reserved":false,"is_disabled":false,"rental_uris":{"android":"levelo://app?vid=75035047-029e-4afe-8cd1-5b8e4049a5d8","ios":"levelo://app?vid=75035047-029e-4afe-8cd1-5b8e4049a5d8"},"vehicle_type_id":"4","last_reported":1715011807,"current_range_meters":800,"station_id":"ce4bhbh2rcd13ifvqeqg","pricing_plan_id":"cebpf4jnsgd1na2vs0mg"},{"bike_id":"beb0f8b0-87b5-4560-90f1-8294a54bf483","system_id":"levelo_inurba_marseille","lat":43.31661,"lon":5.39549,"is_reserved":false,"is_disabled":false,"rental_uris":{"android":"levelo://app?vid=beb0f8b0-87b5-4560-90f1-8294a54bf483","ios":"levelo://app?vid=beb0f8b0-87b5-4560-90f1-8294a54bf483"},"vehicle_type_id":"4","last_reported":1715011807,"current_range_meters":28800,"station_id":"","pricing_plan_id":"cebpf4jnsgd1na2vs0mg"},{"bike_id":"e24dff82-443e-4e31-925b-774596138212","system_id":"levelo_inurba_marseille","lat":43.29879,"lon":5.38907,"is_reserved":false,"is_disabled":false,"rental_uris":{"android":"levelo://app?vid=e24dff82-443e-4e31-925b-774596138212","ios":"levelo://app?vid=e24dff82-443e-4e31-925b-774596138212"},"vehicle_type_id":"4","last_reported":1715011807,"current_range_meters":0,"station_id":"ce4bh392rcd13ifvqdl0","pricing_plan_id":"cebpf4jnsgd1na2vs0mg"},{"bike_id":"55cb962b-eb4b-4ef2-86a2-072570da42ae","system_id":"levelo_inurba_marseille","lat":43.303002,"lon":5.392142,"is_reserved":false,"is_disabled":false,"rental_uris":{"android":"levelo://app?vid=55cb962b-eb4b-4ef2-86a2-072570da42ae","ios":"levelo://app?vid=55cb962b-eb4b-4ef2-86a2-072570da42ae"},"vehicle_type_id":"4","last_reported":1715011807,"current_range_meters":22400,"station_id":"ce4bgkh2rcd13ifvqbk0","pricing_plan_id":"cebpf4jnsgd1na2vs0mg"},{"bike_id":"01461a4a-1cef-4bb4-a369-f7b890aec521","system_id":"levelo_inurba_marseille","lat":43.313291,"lon":5.396838,"is_reserved":false,"is_disabled":false,"rental_uris":{"android":"levelo://app?vid=01461a4a-1cef-4bb4-a369-f7b890aec521","ios":"levelo://app?vid=01461a4a-1cef-4bb4-a369-f7b890aec521"},"vehicle_type_id":"4","last_reported":1715011807,"current_range_meters":18400,"station_id":"ce4bgvp2rcd13ifvqcu0","pricing_plan_id":"cebpf4jnsgd1na2vs0mg"},{"bike_id":"028caa65-cb1b-4ade-bb29-bd986bac900d","system_id":"levelo_inurba_marseille","lat":43.309038,"lon":5.396546,"is_reserved":false,"is_disabled":false,"rental_uris":{"android":"levelo://app?vid=028caa65-cb1b-4ade-bb29-bd986bac900d","ios":"levelo://app?vid=028caa65-cb1b-4ade-bb29-bd986bac900d"},"vehicle_type_id":"4","last_reported":1715011807,"current_range_meters":28000,"station_id":"ce4bh012rcd13ifvqcv0","pricing_plan_id":"cebpf4jnsgd1na2vs0mg"},{"bike_id":"61ac56b0-197f-4baf-b67f-d160f30f4bee","system_id":"levelo_inurba_marseille","lat":43.292005,"lon":5.357875,"is_reserved":false,"is_disabled":false,"rental_uris":{"android":"levelo://app?vid=61ac56b0-197f-4baf-b67f-d160f30f4bee","ios":"levelo://app?vid=61ac56b0-197f-4baf-b67f-d160f30f4bee"},"vehicle_type_id":"4","last_reported":1715011807,"current_range_meters":25200,"station_id":"ce4bhb12rcd13ifvqel0","pricing_plan_id":"cebpf4jnsgd1na2vs0mg"},{"bike_id":"c6d24009-ec54-4b46-8604-016de76d2d9a","system_id":"levelo_inurba_marseille","lat":43.309047,"lon":5.396551,"is_reserved":false,"is_disabled":false,"rental_uris":{"android":"levelo://app?vid=c6d24009-ec54-4b46-8604-016de76d2d9a","ios":"levelo://app?vid=c6d24009-ec54-4b46-8604-016de76d2d9a"},"vehicle_type_id":"4","last_reported":1715011807,"current_range_meters":23600,"station_id":"ce4bh012rcd13ifvqcv0","pricing_plan_id":"cebpf4jnsgd1na2vs0mg"},{"bike_id":"a1622486-af2d-40bf-bdd5-3a5f5b2d401e","system_id":"levelo_inurba_marseille","lat":43.29197,"lon":5.35799,"is_reserved":false,"is_disabled":false,"rental_uris":{"android":"levelo://app?vid=a1622486-af2d-40bf-bdd5-3a5f5b2d401e","ios":"levelo://app?vid=a1622486-af2d-40bf-bdd5-3a5f5b2d401e"},"vehicle_type_id":"4","last_reported":1715011807,"current_range_meters":0,"station_id":"ce4bhb12rcd13ifvqel0","pricing_plan_id":"cebpf4jnsgd1na2vs0mg"},{"bike_id":"52270051-10c4-4f8c-8970-84bfd69b9ea3","system_id":"levelo_inurba_marseille","lat":43.313291,"lon":5.396838,"is_reserved":false,"is_disabled":false,"rental_uris":{"android":"levelo://app?vid=52270051-10c4-4f8c-8970-84bfd69b9ea3","ios":"levelo://app?vid=52270051-10c4-4f8c-8970-84bfd69b9ea3"},"vehicle_type_id":"4","last_reported":1715011807,"current_range_meters":24400,"station_id":"ce4bgvp2rcd13ifvqcu0","pricing_plan_id":"cebpf4jnsgd1na2vs0mg"},{"bike_id":"3fde3bb1-4e88-454d-8590-103e267f147f","system_id":"levelo_inurba_marseille","lat":43.313291,"lon":5.396838,"is_reserved":false,"is_disabled":false,"rental_uris":{"android":"levelo://app?vid=3fde3bb1-4e88-454d-8590-103e267f147f","ios":"levelo://app?vid=3fde3bb1-4e88-454d-8590-103e267f147f"},"vehicle_type_id":"4","last_reported":1715011807,"current_range_meters":20000,"station_id":"ce4bgvp2rcd13ifvqcu0","pricing_plan_id":"cebpf4jnsgd1na2vs0mg"},{"bike_id":"9c37ef9e-5dd0-4c38-a24d-b93d556e32ad","system_id":"levelo_inurba_marseille","lat":43.313291,"lon":5.396838,"is_reserved":false,"is_disabled":false,"rental_uris":{"android":"levelo://app?vid=9c37ef9e-5dd0-4c38-a24d-b93d556e32ad","ios":"levelo://app?vid=9c37ef9e-5dd0-4c38-a24d-b93d556e32ad"},"vehicle_type_id":"4","last_reported":1715011807,"current_range_meters":23200,"station_id":"ce4bgvp2rcd13ifvqcu0","pricing_plan_id":"cebpf4jnsgd1na2vs0mg"},{"bike_id":"96dae111-7599-4ea4-9f08-342312c15aa6","system_id":"levelo_inurba_marseille","lat":43.313291,"lon":5.396838,"is_reserved":false,"is_disabled":false,"rental_uris":{"android":"levelo://app?vid=96dae111-7599-4ea4-9f08-342312c15aa6","ios":"levelo://app?vid=96dae111-7599-4ea4-9f08-342312c15aa6"},"vehicle_type_id":"4","last_reported":1715011807,"current_range_meters":9200,"station_id":"ce4bgvp2rcd13ifvqcu0","pricing_plan_id":"cebpf4jnsgd1na2vs0mg"},{"bike_id":"af0f2049-839d-401b-8987-4019e8046f9b","system_id":"levelo_inurba_marseille","lat":43.313291,"lon":5.396838,"is_reserved":false,"is_disabled":false,"rental_uris":{"android":"levelo://app?vid=af0f2049-839d-401b-8987-4019e8046f9b","ios":"levelo://app?vid=af0f2049-839d-401b-8987-4019e8046f9b"},"vehicle_type_id":"4","last_reported":1715011807,"current_range_meters":23600,"station_id":"ce4bgvp2rcd13ifvqcu0","pricing_plan_id":"cebpf4jnsgd1na2vs0mg"},{"bike_id":"f8c3a437-1ecd-4dec-854c-ea6512b2be5e","system_id":"levelo_inurba_marseille","lat":43.309047,"lon":5.396551,"is_reserved":false,"is_disabled":false,"rental_uris":{"android":"levelo://app?vid=f8c3a437-1ecd-4dec-854c-ea6512b2be5e","ios":"levelo://app?vid=f8c3a437-1ecd-4dec-854c-ea6512b2be5e"},"vehicle_type_id":"4","last_reported":1715011807,"current_range_meters":16000,"station_id":"ce4bh012rcd13ifvqcv0","pricing_plan_id":"cebpf4jnsgd1na2vs0mg"},{"bike_id":"9a2ea2d5-4e56-4b89-a608-f2e0bee4b306","system_id":"levelo_inurba_marseille","lat":43.309038,"lon":5.396546,"is_reserved":false,"is_disabled":false,"rental_uris":{"android":"levelo://app?vid=9a2ea2d5-4e56-4b89-a608-f2e0bee4b306","ios":"levelo://app?vid=9a2ea2d5-4e56-4b89-a608-f2e0bee4b306"},"vehicle_type_id":"4","last_reported":1715011807,"current_range_meters":26400,"station_id":"ce4bh012rcd13ifvqcv0","pricing_plan_id":"cebpf4jnsgd1na2vs0mg"},{"bike_id":"2676e95a-8eec-46f9-8b55-e688146688da","system_id":"levelo_inurba_marseille","lat":43.313291,"lon":5.396838,"is_reserved":false,"is_disabled":false,"rental_uris":{"android":"levelo://app?vid=2676e95a-8eec-46f9-8b55-e688146688da","ios":"levelo://app?vid=2676e95a-8eec-46f9-8b55-e688146688da"},"vehicle_type_id":"4","last_reported":1715011807,"current_range_meters":4400,"station_id":"ce4bgvp2rcd13ifvqcu0","pricing_plan_id":"cebpf4jnsgd1na2vs0mg"},{"bike_id":"1aa1cbfb-49c0-4b33-a53a-ec02e84042f0","system_id":"levelo_inurba_marseille","lat":43.309047,"lon":5.396551,"is_reserved":false,"is_disabled":false,"rental_uris":{"android":"levelo://app?vid=1aa1cbfb-49c0-4b33-a53a-ec02e84042f0","ios":"levelo://app?vid=1aa1cbfb-49c0-4b33-a53a-ec02e84042f0"},"vehicle_type_id":"4","last_reported":1715011807,"current_range_meters":25200,"station_id":"ce4bh012rcd13ifvqcv0","pricing_plan_id":"cebpf4jnsgd1na2vs0mg"},{"bike_id":"e3bbfc75-9c5e-4b60-a64b-4192f35c3e65","system_id":"levelo_inurba_marseille","lat":43.313291,"lon":5.396838,"is_reserved":false,"is_disabled":false,"rental_uris":{"android":"levelo://app?vid=e3bbfc75-9c5e-4b60-a64b-4192f35c3e65","ios":"levelo://app?vid=e3bbfc75-9c5e-4b60-a64b-4192f35c3e65"},"vehicle_type_id":"4","last_reported":1715011807,"current_range_meters":15600,"station_id":"ce4bgvp2rcd13ifvqcu0","pricing_plan_id":"cebpf4jnsgd1na2vs0mg"},{"bike_id":"31ffe1e0-cb6b-4170-a365-9c857d1516c0","system_id":"levelo_inurba_marseille","lat":43.309047,"lon":5.396551,"is_reserved":false,"is_disabled":false,"rental_uris":{"android":"levelo://app?vid=31ffe1e0-cb6b-4170-a365-9c857d1516c0","ios":"levelo://app?vid=31ffe1e0-cb6b-4170-a365-9c857d1516c0"},"vehicle_type_id":"4","last_reported":1715011807,"current_range_meters":16000,"station_id":"ce4bh012rcd13ifvqcv0","pricing_plan_id":"cebpf4jnsgd1na2vs0mg"},{"bike_id":"ea6b3796-6d6e-4fb0-9ff2-ca0f05a991e5","system_id":"levelo_inurba_marseille","lat":43.309038,"lon":5.396546,"is_reserved":false,"is_disabled":false,"rental_uris":{"android":"levelo://app?vid=ea6b3796-6d6e-4fb0-9ff2-ca0f05a991e5","ios":"levelo://app?vid=ea6b3796-6d6e-4fb0-9ff2-ca0f05a991e5"},"vehicle_type_id":"4","last_reported":1715011807,"current_range_meters":4800,"station_id":"ce4bh012rcd13ifvqcv0","pricing_plan_id":"cebpf4jnsgd1na2vs0mg"},{"bike_id":"a5c48092-cd78-4a38-a482-f3130be38c2c","system_id":"levelo_inurba_marseille","lat":43.309047,"lon":5.396551,"is_reserved":false,"is_disabled":false,"rental_uris":{"android":"levelo://app?vid=a5c48092-cd78-4a38-a482-f3130be38c2c","ios":"levelo://app?vid=a5c48092-cd78-4a38-a482-f3130be38c2c"},"vehicle_type_id":"4","last_reported":1715011807,"current_range_meters":2000,"station_id":"ce4bh012rcd13ifvqcv0","pricing_plan_id":"cebpf4jnsgd1na2vs0mg"},{"bike_id":"d19c9d0a-0321-4cfd-9bb6-663ee495c09b","system_id":"levelo_inurba_marseille","lat":43.29529,"lon":5.385581,"is_reserved":false,"is_disabled":false,"rental_uris":{"android":"levelo://app?vid=d19c9d0a-0321-4cfd-9bb6-663ee495c09b","ios":"levelo://app?vid=d19c9d0a-0321-4cfd-9bb6-663ee495c09b"},"vehicle_type_id":"4","last_reported":1715011807,"current_range_meters":19200,"station_id":"ce4bgih2rcd13ifvqba0","pricing_plan_id":"cebpf4jnsgd1na2vs0mg"},{"bike_id":"9110214f-618f-4c12-9a78-4be36240f775","system_id":"levelo_inurba_marseille","lat":43.302759,"lon":5.400793,"is_reserved":false,"is_disabled":false,"rental_uris":{"android":"levelo://app?vid=9110214f-618f-4c12-9a78-4be36240f775","ios":"levelo://app?vid=9110214f-618f-4c12-9a78-4be36240f775"},"vehicle_type_id":"4","last_reported":1715011807,"current_range_meters":0,"station_id":"ce4bgvh2rcd13ifvqcs0","pricing_plan_id":"cebpf4jnsgd1na2vs0mg"},{"bike_id":"6831a8d2-b554-40c5-aabc-87c8790ddd3e","system_id":"levelo_inurba_marseille","lat":43.290779,"lon":5.371482,"is_reserved":false,"is_disabled":false,"rental_uris":{"android":"levelo://app?vid=6831a8d2-b554-40c5-aabc-87c8790ddd3e","ios":"levelo://app?vid=6831a8d2-b554-40c5-aabc-87c8790ddd3e"},"vehicle_type_id":"4","last_reported":1715011807,"current_range_meters":10400,"station_id":"ce4bh5p2rcd13ifvqe4g","pricing_plan_id":"cebpf4jnsgd1na2vs0mg"},{"bike_id":"285f1da5-aa56-4ebc-84ab-67da961f3682","system_id":"levelo_inurba_marseille","lat":43.302008,"lon":5.394694,"is_reserved":false,"is_disabled":false,"rental_uris":{"android":"levelo://app?vid=285f1da5-aa56-4ebc-84ab-67da961f3682","ios":"levelo://app?vid=285f1da5-aa56-4ebc-84ab-67da961f3682"},"vehicle_type_id":"4","last_reported":1715011807,"current_range_meters":28800,"station_id":"ce4bh0p2rcd13ifvqd70","pricing_plan_id":"cebpf4jnsgd1na2vs0mg"},{"bike_id":"c106e1e6-61d1-4f14-9997-c467bdb03067","system_id":"levelo_inurba_marseille","lat":43.302008,"lon":5.394694,"is_reserved":false,"is_disabled":false,"rental_uris":{"android":"levelo://app?vid=c106e1e6-61d1-4f14-9997-c467bdb03067","ios":"levelo://app?vid=c106e1e6-61d1-4f14-9997-c467bdb03067"},"vehicle_type_id":"4","last_reported":1715011807,"current_range_meters":16000,"station_id":"ce4bh0p2rcd13ifvqd70","pricing_plan_id":"cebpf4jnsgd1na2vs0mg"},{"bike_id":"d21111d9-7a9f-4aae-97d8-ba3c0a3ecfa8","system_id":"levelo_inurba_marseille","lat":43.290631,"lon":5.359244,"is_reserved":false,"is_disabled":false,"rental_uris":{"android":"levelo://app?vid=d21111d9-7a9f-4aae-97d8-ba3c0a3ecfa8","ios":"levelo://app?vid=d21111d9-7a9f-4aae-97d8-ba3c0a3ecfa8"},"vehicle_type_id":"4","last_reported":1715011807,"current_range_meters":17200,"station_id":"ce4bha92rcd13ifvqeg0","pricing_plan_id":"cebpf4jnsgd1na2vs0mg"},{"bike_id":"f6184742-0976-44a7-9456-5b7d17e12ad0","system_id":"levelo_inurba_marseille","lat":43.29422,"lon":5.386159,"is_reserved":false,"is_disabled":false,"rental_uris":{"android":"levelo://app?vid=f6184742-0976-44a7-9456-5b7d17e12ad0","ios":"levelo://app?vid=f6184742-0976-44a7-9456-5b7d17e12ad0"},"vehicle_type_id":"4","last_reported":1715011807,"current_range_meters":0,"station_id":"ce4bh2h2rcd13ifvqdh0","pricing_plan_id":"cebpf4jnsgd1na2vs0mg"},{"bike_id":"2542ab94-efd6-4dbf-aa2a-4232be0a4275","system_id":"levelo_inurba_marseille","lat":43.290319,"lon":5.375732,"is_reserved":false,"is_disabled":false,"rental_uris":{"android":"levelo://app?vid=2542ab94-efd6-4dbf-aa2a-4232be0a4275","ios":"levelo://app?vid=2542ab94-efd6-4dbf-aa2a-4232be0a4275"},"vehicle_type_id":"4","last_reported":1715011807,"current_range_meters":2800,"station_id":"ce4bh692rcd13ifvqe90","pricing_plan_id":"cebpf4jnsgd1na2vs0mg"},{"bike_id":"975c52ee-9cd0-423c-a581-75ce566b690e","system_id":"levelo_inurba_marseille","lat":43.294153,"lon":5.386305,"is_reserved":false,"is_disabled":false,"rental_uris":{"android":"levelo://app?vid=975c52ee-9cd0-423c-a581-75ce566b690e","ios":"levelo://app?vid=975c52ee-9cd0-423c-a581-75ce566b690e"},"vehicle_type_id":"4","last_reported":1715011807,"current_range_meters":400,"station_id":"ce4bh2h2rcd13ifvqdh0","pricing_plan_id":"cebpf4jnsgd1na2vs0mg"},{"bike_id":"10343d1b-26ac-45b4-86f5-8224ae79044c","system_id":"levelo_inurba_marseille","lat":43.294153,"lon":5.386305,"is_reserved":false,"is_disabled":false,"rental_uris":{"android":"levelo://app?vid=10343d1b-26ac-45b4-86f5-8224ae79044c","ios":"levelo://app?vid=10343d1b-26ac-45b4-86f5-8224ae79044c"},"vehicle_type_id":"4","last_reported":1715011807,"current_range_meters":5600,"station_id":"ce4bh2h2rcd13ifvqdh0","pricing_plan_id":"cebpf4jnsgd1na2vs0mg"},{"bike_id":"1cdb6af3-6f22-4293-8686-a9d6eac07f86","system_id":"levelo_inurba_marseille","lat":43.294153,"lon":5.386305,"is_reserved":false,"is_disabled":false,"rental_uris":{"android":"levelo://app?vid=1cdb6af3-6f22-4293-8686-a9d6eac07f86","ios":"levelo://app?vid=1cdb6af3-6f22-4293-8686-a9d6eac07f86"},"vehicle_type_id":"4","last_reported":1715011807,"current_range_meters":12800,"station_id":"ce4bh2h2rcd13ifvqdh0","pricing_plan_id":"cebpf4jnsgd1na2vs0mg"},{"bike_id":"84d48c7b-b2f6-4b6b-86e7-18e100455aa6","system_id":"levelo_inurba_marseille","lat":43.292644,"lon":5.384257,"is_reserved":false,"is_disabled":false,"rental_uris":{"android":"levelo://app?vid=84d48c7b-b2f6-4b6b-86e7-18e100455aa6","ios":"levelo://app?vid=84d48c7b-b2f6-4b6b-86e7-18e100455aa6"},