{"last_updated":1737886114,"ttl":60,"version":"2.2","data":{"bikes":[{"bike_id":"a121da0c-7488-4ce0-b19f-d3662404076f","system_id":"levelo_inurba_marseille","lat":43.30141,"lon":5.38088,"is_reserved":false,"is_disabled":false,"rental_uris":{"android":"levelo://app?vid=a121da0c-7488-4ce0-b19f-d3662404076f","ios":"levelo://app?vid=a121da0c-7488-4ce0-b19f-d3662404076f"},"vehicle_type_id":"4","last_reported":1737886115,"current_range_meters":38800,"station_id":"ce4bgjp2rcd13ifvqbh0","pricing_plan_id":"cebpf4jnsgd1na2vs0mg"},{"bike_id":"03c64e80-5e01-4332-bc90-93a2fb6ac145","system_id":"levelo_inurba_marseille","lat":43.22926,"lon":5.35381,"is_reserved":false,"is_disabled":false,"rental_uris":{"android":"levelo://app?vid=03c64e80-5e01-4332-bc90-93a2fb6ac145","ios":"levelo://app?vid=03c64e80-5e01-4332-bc90-93a2fb6ac145"},"vehicle_type_id":"4","last_reported":1737886115,"current_range_meters":37600,"station_id":"cpo3532slgdg3j2ikp40","pricing_plan_id":"cebpf4jnsgd1na2vs0mg"},{"bike_id":"97c63b7a-5ac4-4a5f-84a4-07f3ea5003b0","system_id":"levelo_inurba_marseille","lat":43.31073,"lon":5.38351,"is_reserved":false,"is_disabled":false,"rental_uris":{"android":"levelo://app?vid=97c63b7a-5ac4-4a5f-84a4-07f3ea5003b0","ios":"levelo://app?vid=97c63b7a-5ac4-4a5f-84a4-07f3ea5003b0"},"vehicle_type_id":"4","last_reported":1737886115,"current_range_meters":25200,"station_id":"ce4bgv92rcd13ifvqcr0","pricing_plan_id":"cebpf4jnsgd1na2vs0mg"},{"bike_id":"7cb17210-e6bd-4f16-9d5a-6665c44a1097","system_id":"levelo_inurba_marseille","lat":43.26044,"lon":5.394,"is_reserved":false,"is_disabled":false,"rental_uris":{"android":"levelo://app?vid=7cb17210-e6bd-4f16-9d5a-6665c44a1097","ios":"levelo://app?vid=7cb17210-e6bd-4f16-9d5a-6665c44a1097"},"vehicle_type_id":"4","last_reported":1737886115,"current_range_meters":38800,"station_id":"ce4bhh92rcd13ifvqfj0","pricing_plan_id":"cebpf4jnsgd1na2vs0mg"},{"bike_id":"22fdda07-29f7-4097-aa7c-457566d3caba","system_id":"levelo_inurba_marseille","lat":43.25072,"lon":5.39531,"is_reserved":false,"is_disabled":false,"rental_uris":{"android":"levelo://app?vid=22fdda07-29f7-4097-aa7c-457566d3caba","ios":"levelo://app?vid=22fdda07-29f7-4097-aa7c-457566d3caba"},"vehicle_type_id":"4","last_reported":1737886115,"current_range_meters":26800,"station_id":"ce4bhm12rcd13ifvqgkg","pricing_plan_id":"cebpf4jnsgd1na2vs0mg"},{"bike_id":"0f37f612-bab0-4811-95c1-da64c54e0705","system_id":"levelo_inurba_marseille","lat":43.28034,"lon":5.41542,"is_reserved":false,"is_disabled":false,"rental_uris":{"android":"levelo://app?vid=0f37f612-bab0-4811-95c1-da64c54e0705","ios":"levelo://app?vid=0f37f612-bab0-4811-95c1-da64c54e0705"},"vehicle_type_id":"4","last_reported":1737886115,"current_range_meters":38000,"station_id":"ce4bho12rcd13ifvqh1g","pricing_plan_id":"cebpf4jnsgd1na2vs0mg"},{"bike_id":"f581708e-08a0-4664-96a1-929f1015ec95","system_id":"levelo_inurba_marseille","lat":43.27207,"lon":5.39183,"is_reserved":false,"is_disabled":true,"rental_uris":{"android":"levelo://app?vid=f581708e-08a0-4664-96a1-929f1015ec95","ios":"levelo://app?vid=f581708e-08a0-4664-96a1-929f1015ec95"},"vehicle_type_id":"4","last_reported":1737886115,"current_range_meters":2000,"station_id":"ce4bhhp2rcd13ifvqfm0","pricing_plan_id":"cebpf4jnsgd1na2vs0mg"},{"bike_id":"b037c3ae-8195-465d-9526-617a49374658","system_id":"levelo_inurba_marseille","lat":43.30409,"lon":5.41279,"is_reserved":false,"is_disabled":false,"rental_uris":{"android":"levelo://app?vid=b037c3ae-8195-465d-9526-617a49374658","ios":"levelo://app?vid=b037c3ae-8195-465d-9526-617a49374658"},"vehicle_type_id":"4","last_reported":1737886115,"current_range_meters":28000,"station_id":"ce4bhop2rcd13ifvqh8g","pricing_plan_id":"cebpf4jnsgd1na2vs0mg"},{"bike_id":"58d9e3df-28a3-4560-b2cd-4d33fefbd544","system_id":"levelo_inurba_marseille","lat":43.28356,"lon":5.38102,"is_reserved":false,"is_disabled":true,"rental_uris":{"android":"levelo://app?vid=58d9e3df-28a3-4560-b2cd-4d33fefbd544","ios":"levelo://app?vid=58d9e3df-28a3-4560-b2cd-4d33fefbd544"},"vehicle_type_id":"4","last_reported":1737886115,"current_range_meters":17600,"station_id":"ce4bh412rcd13ifvqdr0","pricing_plan_id":"cebpf4jnsgd1na2vs0mg"},{"bike_id":"fa5cc696-fa74-45d7-9894-bb340f9342a9","system_id":"levelo_inurba_marseille","lat":43.28655,"lon":5.36353,"is_reserved":false,"is_disabled":true,"rental_uris":{"android":"levelo://app?vid=fa5cc696-fa74-45d7-9894-bb340f9342a9","ios":"levelo://app?vid=fa5cc696-fa74-45d7-9894-bb340f9342a9"},"vehicle_type_id":"4","last_reported":1737886115,"current_range_meters":0,"station_id":"ce4bhah2rcd13ifvqej0","pricing_plan_id":"cebpf4jnsgd1na2vs0mg"},{"bike_id":"6db53429-f5d1-4d8c-a5e6-0d38869a9a37","system_id":"levelo_inurba_marseille","lat":43.28615,"lon":5.35111,"is_reserved":false,"is_disabled":false,"rental_uris":{"android":"levelo://app?vid=6db53429-f5d1-4d8c-a5e6-0d38869a9a37","ios":"levelo://app?vid=6db53429-f5d1-4d8c-a5e6-0d38869a9a37"},"vehicle_type_id":"4","last_reported":1737886115,"current_range_meters":32400,"station_id":"ce4bhch2rcd13ifvqeug","pricing_plan_id":"cebpf4jnsgd1na2vs0mg"},{"bike_id":"6c59d583-dfeb-4bdd-85b1-7b2ff5275f42","system_id":"levelo_inurba_marseille","lat":43.30148,"lon":5.37422,"is_reserved":false,"is_disabled":true,"rental_uris":{"android":"levelo://app?vid=6c59d583-dfeb-4bdd-85b1-7b2ff5275f42","ios":"levelo://app?vid=6c59d583-dfeb-4bdd-85b1-7b2ff5275f42"},"vehicle_type_id":"4","last_reported":1737886115,"current_range_meters":38800,"station_id":"ce4bgs92rcd13ifvqcc0","pricing_plan_id":"cebpf4jnsgd1na2vs0mg"},{"bike_id":"1decbaba-ade5-485c-a51a-90b107b2b81b","system_id":"levelo_inurba_marseille","lat":43.302642,"lon":5.377213,"is_reserved":false,"is_disabled":false,"rental_uris":{"android":"levelo://app?vid=1decbaba-ade5-485c-a51a-90b107b2b81b","ios":"levelo://app?vid=1decbaba-ade5-485c-a51a-90b107b2b81b"},"vehicle_type_id":"4","last_reported":1737886115,"current_range_meters":16800,"station_id":"ce4bguh2rcd13ifvqcj0","pricing_plan_id":"cebpf4jnsgd1na2vs0mg"},{"bike_id":"ab709eb0-616b-4c13-8e18-a8dc7e291259","system_id":"levelo_inurba_marseille","lat":43.32479,"lon":5.3655,"is_reserved":false,"is_disabled":false,"rental_uris":{"android":"levelo://app?vid=ab709eb0-616b-4c13-8e18-a8dc7e291259","ios":"levelo://app?vid=ab709eb0-616b-4c13-8e18-a8dc7e291259"},"vehicle_type_id":"4","last_reported":1737886115,"current_range_meters":33600,"station_id":"ce4bhs12rcd13ifvqhvg","pricing_plan_id":"cebpf4jnsgd1na2vs0mg"},{"bike_id":"99676360-4326-4830-9645-65ec283f07b1","system_id":"levelo_inurba_marseille","lat":43.30148,"lon":5.38087,"is_reserved":false,"is_disabled":false,"rental_uris":{"android":"levelo://app?vid=99676360-4326-4830-9645-65ec283f07b1","ios":"levelo://app?vid=99676360-4326-4830-9645-65ec283f07b1"},"vehicle_type_id":"4","last_reported":1737886115,"current_range_meters":38800,"station_id":"ce4bgjp2rcd13ifvqbh0","pricing_plan_id":"cebpf4jnsgd1na2vs0mg"},{"bike_id":"6b15e23b-7fb3-40f1-81b4-29ac3513887f","system_id":"levelo_inurba_marseille","lat":43.32039,"lon":5.41561,"is_reserved":false,"is_disabled":false,"rental_uris":{"android":"levelo://app?vid=6b15e23b-7fb3-40f1-81b4-29ac3513887f","ios":"levelo://app?vid=6b15e23b-7fb3-40f1-81b4-29ac3513887f"},"vehicle_type_id":"4","last_reported":1737886115,"current_range_meters":39200,"station_id":"ce4bhq92rcd13ifvqhkg","pricing_plan_id":"cebpf4jnsgd1na2vs0mg"},{"bike_id":"aca72e04-9577-428c-9e99-b11a608f86f8","system_id":"levelo_inurba_marseille","lat":43.25107,"lon":5.40343,"is_reserved":false,"is_disabled":false,"rental_uris":{"android":"levelo://app?vid=aca72e04-9577-428c-9e99-b11a608f86f8","ios":"levelo://app?vid=aca72e04-9577-428c-9e99-b11a608f86f8"},"vehicle_type_id":"4","last_reported":1737886115,"current_range_meters":38000,"station_id":"ce4bhlh2rcd13ifvqgig","pricing_plan_id":"cebpf4jnsgd1na2vs0mg"},{"bike_id":"ddaeed22-77c6-4098-953f-49938a91c0d1","system_id":"levelo_inurba_marseille","lat":43.27192,"lon":5.39169,"is_reserved":false,"is_disabled":false,"rental_uris":{"android":"levelo://app?vid=ddaeed22-77c6-4098-953f-49938a91c0d1","ios":"levelo://app?vid=ddaeed22-77c6-4098-953f-49938a91c0d1"},"vehicle_type_id":"4","last_reported":1737886115,"current_range_meters":38800,"station_id":"ce4bhhp2rcd13ifvqfm0","pricing_plan_id":"cebpf4jnsgd1na2vs0mg"},{"bike_id":"457dbd0e-8f95-45e9-8ae6-40b39a5ca596","system_id":"levelo_inurba_marseille","lat":43.231962,"lon":5.355487,"is_reserved":false,"is_disabled":false,"rental_uris":{"android":"levelo://app?vid=457dbd0e-8f95-45e9-8ae6-40b39a5ca596","ios":"levelo://app?vid=457dbd0e-8f95-45e9-8ae6-40b39a5ca596"},"vehicle_type_id":"4","last_reported":1737886115,"current_range_meters":36400,"station_id":"ce4bhu92rcd13ifvqi70","pricing_plan_id":"cebpf4jnsgd1na2vs0mg"},{"bike_id":"110dbb4e-bf5d-43a3-9f79-a2284f90c9f2","system_id":"levelo_inurba_marseille","lat":43.23191,"lon":5.39974,"is_reserved":false,"is_disabled":false,"rental_uris":{"android":"levelo://app?vid=110dbb4e-bf5d-43a3-9f79-a2284f90c9f2","ios":"levelo://app?vid=110dbb4e-bf5d-43a3-9f79-a2284f90c9f2"},"vehicle_type_id":"4","last_reported":1737886115,"current_range_meters":8000,"station_id":"ce4bhn12rcd13ifvqgqg","pricing_plan_id":"cebpf4jnsgd1na2vs0mg"},{"bike_id":"e052512e-d0fe-4bbe-8fcb-e38e187d8be4","system_id":"levelo_inurba_marseille","lat":43.23956,"lon":5.3665,"is_reserved":false,"is_disabled":false,"rental_uris":{"android":"levelo://app?vid=e052512e-d0fe-4bbe-8fcb-e38e187d8be4","ios":"levelo://app?vid=e052512e-d0fe-4bbe-8fcb-e38e187d8be4"},"vehicle_type_id":"4","last_reported":1737886115,"current_range_meters":32400,"station_id":"ce4bhi12rcd13ifvqfp0","pricing_plan_id":"cebpf4jnsgd1na2vs0mg"},{"bike_id":"b059518b-cf2e-465f-b01b-867541f3ad91","system_id":"levelo_inurba_marseille","lat":43.24074,"lon":5.37694,"is_reserved":false,"is_disabled":false,"rental_uris":{"android":"levelo://app?vid=b059518b-cf2e-465f-b01b-867541f3ad91","ios":"levelo://app?vid=b059518b-cf2e-465f-b01b-867541f3ad91"},"vehicle_type_id":"4","last_reported":1737886115,"current_range_meters":38800,"station_id":"ce4bhnp2rcd13ifvqgvg","pricing_plan_id":"cebpf4jnsgd1na2vs0mg"},{"bike_id":"7c2bc30f-edd3-4d15-bbbf-ab8f7be0359f","system_id":"levelo_inurba_marseille","lat":43.27662,"lon":5.38923,"is_reserved":false,"is_disabled":false,"rental_uris":{"android":"levelo://app?vid=7c2bc30f-edd3-4d15-bbbf-ab8f7be0359f","ios":"levelo://app?vid=7c2bc30f-edd3-4d15-bbbf-ab8f7be0359f"},"vehicle_type_id":"4","last_reported":1737886115,"current_range_meters":38400,"station_id":"ce4bhi12rcd13ifvqfo0","pricing_plan_id":"cebpf4jnsgd1na2vs0mg"},{"bike_id":"4e4a5c41-6ed2-435b-9c6a-dbaeecb8e0b1","system_id":"levelo_inurba_marseille","lat":43.29902,"lon":5.43661,"is_reserved":false,"is_disabled":false,"rental_uris":{"android":"levelo://app?vid=4e4a5c41-6ed2-435b-9c6a-dbaeecb8e0b1","ios":"levelo://app?vid=4e4a5c41-6ed2-435b-9c6a-dbaeecb8e0b1"},"vehicle_type_id":"4","last_reported":1737886115,"current_range_meters":16800,"station_id":"ce4bhpp2rcd13ifvqhfg","pricing_plan_id":"cebpf4jnsgd1na2vs0mg"},{"bike_id":"d06b6dd8-7b26-4e14-8483-8f8817ba9baf","system_id":"levelo_inurba_marseille","lat":43.32009,"lon":5.41597,"is_reserved":false,"is_disabled":false,"rental_uris":{"android":"levelo://app?vid=d06b6dd8-7b26-4e14-8483-8f8817ba9baf","ios":"levelo://app?vid=d06b6dd8-7b26-4e14-8483-8f8817ba9baf"},"vehicle_type_id":"4","last_reported":1737886115,"current_range_meters":38800,"station_id":"ce4bhq92rcd13ifvqhkg","pricing_plan_id":"cebpf4jnsgd1na2vs0mg"},{"bike_id":"210624a0-0160-4ca7-abdb-10185ab00b32","system_id":"levelo_inurba_marseille","lat":43.31712,"lon":5.37751,"is_reserved":false,"is_disabled":false,"rental_uris":{"android":"levelo://app?vid=210624a0-0160-4ca7-abdb-10185ab00b32","ios":"levelo://app?vid=210624a0-0160-4ca7-abdb-10185ab00b32"},"vehicle_type_id":"4","last_reported":1737886115,"current_range_meters":38800,"station_id":"ce4bgth2rcd13ifvqch0","pricing_plan_id":"cebpf4jnsgd1na2vs0mg"},{"bike_id":"30205c73-194c-4d39-89ad-c9657f33b24a","system_id":"levelo_inurba_marseille","lat":43.27969,"lon":5.38746,"is_reserved":false,"is_disabled":false,"rental_uris":{"android":"levelo://app?vid=30205c73-194c-4d39-89ad-c9657f33b24a","ios":"levelo://app?vid=30205c73-194c-4d39-89ad-c9657f33b24a"},"vehicle_type_id":"4","last_reported":1737886115,"current_range_meters":34000,"station_id":"ce4bhg12rcd13ifvqf80","pricing_plan_id":"cebpf4jnsgd1na2vs0mg"},{"bike_id":"7e83737e-17a3-4dc8-b275-b52a496072fd","system_id":"levelo_inurba_marseille","lat":43.25504,"lon":5.3766,"is_reserved":false,"is_disabled":false,"rental_uris":{"android":"levelo://app?vid=7e83737e-17a3-4dc8-b275-b52a496072fd","ios":"levelo://app?vid=7e83737e-17a3-4dc8-b275-b52a496072fd"},"vehicle_type_id":"4","last_reported":1737886115,"current_range_meters":36800,"station_id":"ce4bhh12rcd13ifvqff0","pricing_plan_id":"cebpf4jnsgd1na2vs0mg"},{"bike_id":"7e448137-f671-4d26-871b-678fe0255452","system_id":"levelo_inurba_marseille","lat":43.31067,"lon":5.38346,"is_reserved":false,"is_disabled":false,"rental_uris":{"android":"levelo://app?vid=7e448137-f671-4d26-871b-678fe0255452","ios":"levelo://app?vid=7e448137-f671-4d26-871b-678fe0255452"},"vehicle_type_id":"4","last_reported":1737886115,"current_range_meters":27200,"station_id":"ce4bgv92rcd13ifvqcr0","pricing_plan_id":"cebpf4jnsgd1na2vs0mg"},{"bike_id":"57f05a0b-f0fb-46ee-8268-2701b15cfa8d","system_id":"levelo_inurba_marseille","lat":43.30297,"lon":5.40445,"is_reserved":false,"is_disabled":false,"rental_uris":{"android":"levelo://app?vid=57f05a0b-f0fb-46ee-8268-2701b15cfa8d","ios":"levelo://app?vid=57f05a0b-f0fb-46ee-8268-2701b15cfa8d"},"vehicle_type_id":"4","last_reported":1737886115,"current_range_meters":25200,"station_id":"ce4bh012rcd13ifvqd10","pricing_plan_id":"cebpf4jnsgd1na2vs0mg"},{"bike_id":"4ee228f4-d876-40c1-a3ee-470ecaf3e882","system_id":"levelo_inurba_marseille","lat":43.3194,"lon":5.37136,"is_reserved":false,"is_disabled":false,"rental_uris":{"android":"levelo://app?vid=4ee228f4-d876-40c1-a3ee-470ecaf3e882","ios":"levelo://app?vid=4ee228f4-d876-40c1-a3ee-470ecaf3e882"},"vehicle_type_id":"4","last_reported":1737886115,"current_range_meters":33200,"station_id":"","pricing_plan_id":"cebpf4jnsgd1na2vs0mg"},{"bike_id":"e9b18d33-2c32-4c0b-bac5-aee7380b5154","system_id":"levelo_inurba_marseille","lat":43.250828,"lon":5.395202,"is_reserved":false,"is_disabled":false,"rental_uris":{"android":"levelo://app?vid=e9b18d33-2c32-4c0b-bac5-aee7380b5154","ios":"levelo://app?vid=e9b18d33-2c32-4c0b-bac5-aee7380b5154"},"vehicle_type_id":"4","last_reported":1737886115,"current_range_meters":35200,"station_id":"ce4bhm12rcd13ifvqgkg","pricing_plan_id":"cebpf4jnsgd1na2vs0mg"},{"bike_id":"1edc3a9d-b073-4200-8435-21288127161e","system_id":"levelo_inurba_marseille","lat":43.31362,"lon":5.36709,"is_reserved":false,"is_disabled":false,"rental_uris":{"android":"levelo://app?vid=1edc3a9d-b073-4200-8435-21288127161e","ios":"levelo://app?vid=1edc3a9d-b073-4200-8435-21288127161e"},"vehicle_type_id":"4","last_reported":1737886115,"current_range_meters":16000,"station_id":"ce4bgr92rcd13ifvqc6g","pricing_plan_id":"cebpf4jnsgd1na2vs0mg"},{"bike_id":"bb9df935-971d-48fe-841d-0dade0ac91aa","system_id":"levelo_inurba_marseille","lat":43.2953,"lon":5.38554,"is_reserved":false,"is_disabled":true,"rental_uris":{"android":"levelo://app?vid=bb9df935-971d-48fe-841d-0dade0ac91aa","ios":"levelo://app?vid=bb9df935-971d-48fe-841d-0dade0ac91aa"},"vehicle_type_id":"4","last_reported":1737886115,"current_range_meters":31200,"station_id":"ce4bgih2rcd13ifvqba0","pricing_plan_id":"cebpf4jnsgd1na2vs0mg"},{"bike_id":"b8c7ac08-94bb-4c1a-be59-442ad905fc87","system_id":"levelo_inurba_marseille","lat":43.29243,"lon":5.36612,"is_reserved":false,"is_disabled":false,"rental_uris":{"android":"levelo://app?vid=b8c7ac08-94bb-4c1a-be59-442ad905fc87","ios":"levelo://app?vid=b8c7ac08-94bb-4c1a-be59-442ad905fc87"},"vehicle_type_id":"4","last_reported":1737886115,"current_range_meters":30400,"station_id":"","pricing_plan_id":"cebpf4jnsgd1na2vs0mg"},{"bike_id":"50ec5238-6e67-46cf-b206-0c6c3c9dc0b0","system_id":"levelo_inurba_marseille","lat":43.28024,"lon":5.36934,"is_reserved":false,"is_disabled":false,"rental_uris":{"android":"levelo://app?vid=50ec5238-6e67-46cf-b206-0c6c3c9dc0b0","ios":"levelo://app?vid=50ec5238-6e67-46cf-b206-0c6c3c9dc0b0"},"vehicle_type_id":"4","last_reported":1737886115,"current_range_meters":32000,"station_id":"ce4bha12rcd13ifvqef0","pricing_plan_id":"cebpf4jnsgd1na2vs0mg"},{"bike_id":"58dc75dd-e9d2-4ccf-8340-251c9e5c8f6e","system_id":"levelo_inurba_marseille","lat":43.29304,"lon":5.37457,"is_reserved":false,"is_disabled":false,"rental_uris":{"android":"levelo://app?vid=58dc75dd-e9d2-4ccf-8340-251c9e5c8f6e","ios":"levelo://app?vid=58dc75dd-e9d2-4ccf-8340-251c9e5c8f6e"},"vehicle_type_id":"4","last_reported":1737886115,"current_range_meters":28400,"station_id":"ce4bgi12rcd13ifvqb70","pricing_plan_id":"cebpf4jnsgd1na2vs0mg"},{"bike_id":"62552a9b-ca40-45cd-ae36-60bf4b3e6612","system_id":"levelo_inurba_marseille","lat":43.2757,"lon":5.38425,"is_reserved":false,"is_disabled":false,"rental_uris":{"android":"levelo://app?vid=62552a9b-ca40-45cd-ae36-60bf4b3e6612","ios":"levelo://app?vid=62552a9b-ca40-45cd-ae36-60bf4b3e6612"},"vehicle_type_id":"4","last_reported":1737886115,"current_range_meters":26000,"station_id":"ce4bhh92rcd13ifvqfi0","pricing_plan_id":"cebpf4jnsgd1na2vs0mg"},{"bike_id":"2b1f2c73-a648-48ba-86a5-fada76619153","system_id":"levelo_inurba_marseille","lat":43.31345,"lon":5.39688,"is_reserved":false,"is_disabled":false,"rental_uris":{"android":"levelo://app?vid=2b1f2c73-a648-48ba-86a5-fada76619153","ios":"levelo://app?vid=2b1f2c73-a648-48ba-86a5-fada76619153"},"vehicle_type_id":"4","last_reported":1737886115,"current_range_meters":38800,"station_id":"ce4bgvp2rcd13ifvqcu0","pricing_plan_id":"cebpf4jnsgd1na2vs0mg"},{"bike_id":"ceebbf8e-afc5-47be-9ab5-bb28573f1926","system_id":"levelo_inurba_marseille","lat":43.28941,"lon":5.39628,"is_reserved":false,"is_disabled":false,"rental_uris":{"android":"levelo://app?vid=ceebbf8e-afc5-47be-9ab5-bb28573f1926","ios":"levelo://app?vid=ceebbf8e-afc5-47be-9ab5-bb28573f1926"},"vehicle_type_id":"4","last_reported":1737886115,"current_range_meters":38800,"station_id":"ce4bh3h2rcd13ifvqdn0","pricing_plan_id":"cebpf4jnsgd1na2vs0mg"},{"bike_id":"2e3ff8ed-3443-4c7b-8de2-de9de90c7912","system_id":"levelo_inurba_marseille","lat":43.32482,"lon":5.36564,"is_reserved":false,"is_disabled":false,"rental_uris":{"android":"levelo://app?vid=2e3ff8ed-3443-4c7b-8de2-de9de90c7912","ios":"levelo://app?vid=2e3ff8ed-3443-4c7b-8de2-de9de90c7912"},"vehicle_type_id":"4","last_reported":1737886115,"current_range_meters":38400,"station_id":"ce4bhs12rcd13ifvqhvg","pricing_plan_id":"cebpf4jnsgd1na2vs0mg"},{"bike_id":"1b5250e4-2470-4d40-86ca-5191077c26d9","system_id":"levelo_inurba_marseille","lat":43.27064,"lon":5.42288,"is_reserved":false,"is_disabled":false,"rental_uris":{"android":"levelo://app?vid=1b5250e4-2470-4d40-86ca-5191077c26d9","ios":"levelo://app?vid=1b5250e4-2470-4d40-86ca-5191077c26d9"},"vehicle_type_id":"4","last_reported":1737886115,"current_range_meters":39200,"station_id":"ce4bhk92rcd13ifvqgb0","pricing_plan_id":"cebpf4jnsgd1na2vs0mg"},{"bike_id":"e3fe036a-9bec-4711-b1f2-14527a87ccbc","system_id":"levelo_inurba_marseille","lat":43.2871,"lon":5.3999,"is_reserved":false,"is_disabled":false,"rental_uris":{"android":"levelo://app?vid=e3fe036a-9bec-4711-b1f2-14527a87ccbc","ios":"levelo://app?vid=e3fe036a-9bec-4711-b1f2-14527a87ccbc"},"vehicle_type_id":"4","last_reported":1737886115,"current_range_meters":38800,"station_id":"ce4bho92rcd13ifvqh3g","pricing_plan_id":"cebpf4jnsgd1na2vs0mg"},{"bike_id":"63478736-837d-41fa-9e91-7be0d1155be3","system_id":"levelo_inurba_marseille","lat":43.31754,"lon":5.39023,"is_reserved":false,"is_disabled":false,"rental_uris":{"android":"levelo://app?vid=63478736-837d-41fa-9e91-7be0d1155be3","ios":"levelo://app?vid=63478736-837d-41fa-9e91-7be0d1155be3"},"vehicle_type_id":"4","last_reported":1737886115,"current_range_meters":38800,"station_id":"ce4bhqp2rcd13ifvqhng","pricing_plan_id":"cebpf4jnsgd1na2vs0mg"},{"bike_id":"88e10c79-68e2-484a-bc0e-09589e82e52b","system_id":"levelo_inurba_marseille","lat":43.28938,"lon":5.36652,"is_reserved":false,"is_disabled":true,"rental_uris":{"android":"levelo://app?vid=88e10c79-68e2-484a-bc0e-09589e82e52b","ios":"levelo://app?vid=88e10c79-68e2-484a-bc0e-09589e82e52b"},"vehicle_type_id":"4","last_reported":1737886115,"current_range_meters":33200,"station_id":"ce4bhap2rcd13ifvqek0","pricing_plan_id":"cebpf4jnsgd1na2vs0mg"},{"bike_id":"2581265e-461e-4093-96e3-176dcfa2ce51","system_id":"levelo_inurba_marseille","lat":43.24644,"lon":5.38911,"is_reserved":false,"is_disabled":false,"rental_uris":{"android":"levelo://app?vid=2581265e-461e-4093-96e3-176dcfa2ce51","ios":"levelo://app?vid=2581265e-461e-4093-96e3-176dcfa2ce51"},"vehicle_type_id":"4","last_reported":1737886115,"current_range_meters":39200,"station_id":"ce4bhg12rcd13ifvqf60","pricing_plan_id":"cebpf4jnsgd1na2vs0mg"},{"bike_id":"c0e635c8-e6f3-4193-9644-78b3ef59aa41","system_id":"levelo_inurba_marseille","lat":43.298123,"lon":5.39765,"is_reserved":false,"is_disabled":true,"rental_uris":{"android":"levelo://app?vid=c0e635c8-e6f3-4193-9644-78b3ef59aa41","ios":"levelo://app?vid=c0e635c8-e6f3-4193-9644-78b3ef59aa41"},"vehicle_type_id":"4","last_reported":1737886115,"current_range_meters":1200,"station_id":"","pricing_plan_id":"cebpf4jnsgd1na2vs0mg"},{"bike_id":"0661c734-5d2c-4ad3-b72b-0375e796cecb","system_id":"levelo_inurba_marseille","lat":43.250009,"lon":5.389332,"is_reserved":false,"is_disabled":false,"rental_uris":{"android":"levelo://app?vid=0661c734-5d2c-4ad3-b72b-0375e796cecb","ios":"levelo://app?vid=0661c734-5d2c-4ad3-b72b-0375e796cecb"},"vehicle_type_id":"4","last_reported":1737886115,"current_range_meters":31200,"station_id":"ce4bhgp2rcd13ifvqfd0","pricing_plan_id":"cebpf4jnsgd1na2vs0mg"},{"bike_id":"02f77f65-1c25-42c1-91b2-a1f4892237b0","system_id":"levelo_inurba_marseille","lat":43.3168,"lon":5.37771,"is_reserved":false,"is_disabled":false,"rental_uris":{"android":"levelo://app?vid=02f77f65-1c25-42c1-91b2-a1f4892237b0","ios":"levelo://app?vid=02f77f65-1c25-42c1-91b2-a1f4892237b0"},"vehicle_type_id":"4","last_reported":1737886115,"current_range_meters":14000,"station_id":"ce4bgth2rcd13ifvqch0","pricing_plan_id":"cebpf4jnsgd1na2vs0mg"},{"bike_id":"909a1c2e-107c-48f7-aae9-c2b5d9ac6e94","system_id":"levelo_inurba_marseille","lat":43.30916,"lon":5.36861,"is_reserved":false,"is_disabled":false,"rental_uris":{"android":"levelo://app?vid=909a1c2e-107c-48f7-aae9-c2b5d9ac6e94","ios":"levelo://app?vid=909a1c2e-107c-48f7-aae9-c2b5d9ac6e94"},"vehicle_type_id":"4","last_reported":1737886115,"current_range_meters":3200,"station_id":"ce4bgn92rcd13ifvqbvg","pricing_plan_id":"cebpf4jnsgd1na2vs0mg"},{"bike_id":"70405257-63dd-471c-8cac-4167f6851d7a","system_id":"levelo_inurba_marseille","lat":43.25722,"lon":5.4112,"is_reserved":false,"is_disabled":false,"rental_uris":{"android":"levelo://app?vid=70405257-63dd-471c-8cac-4167f6851d7a","ios":"levelo://app?vid=70405257-63dd-471c-8cac-4167f6851d7a"},"vehicle_type_id":"4","last_reported":1737886115,"current_range_meters":39200,"station_id":"ce4bhkp2rcd13ifvqgd0","pricing_plan_id":"cebpf4jnsgd1na2vs0mg"},{"bike_id":"a9641c5b-171a-4976-b9f9-fdfa44f463f3","system_id":"levelo_inurba_marseille","lat":43.23977,"lon":5.3664,"is_reserved":false,"is_disabled":false,"rental_uris":{"android":"levelo://app?vid=a9641c5b-171a-4976-b9f9-fdfa44f463f3","ios":"levelo://app?vid=a9641c5b-171a-4976-b9f9-fdfa44f463f3"},"vehicle_type_id":"4","last_reported":1737886115,"current_range_meters":36000,"station_id":"ce4bhi12rcd13ifvqfp0","pricing_plan_id":"cebpf4jnsgd1na2vs0mg"},{"bike_id":"5a504fe4-0ab6-4eed-b9ef-e27131441d67","system_id":"levelo_inurba_marseille","lat":43.30328,"lon":5.37848,"is_reserved":false,"is_disabled":false,"rental_uris":{"android":"levelo://app?vid=5a504fe4-0ab6-4eed-b9ef-e27131441d67","ios":"levelo://app?vid=5a504fe4-0ab6-4eed-b9ef-e27131441d67"},"vehicle_type_id":"4","last_reported":1737886115,"current_range_meters":28800,"station_id":"","pricing_plan_id":"cebpf4jnsgd1na2vs0mg"},{"bike_id":"9dcbdb06-89e8-40c7-a90f-0d08b9ad5ed3","system_id":"levelo_inurba_marseille","lat":43.30135,"lon":5.38111,"is_reserved":false,"is_disabled":false,"rental_uris":{"android":"levelo://app?vid=9dcbdb06-89e8-40c7-a90f-0d08b9ad5ed3","ios":"levelo://app?vid=9dcbdb06-89e8-40c7-a90f-0d08b9ad5ed3"},"vehicle_type_id":"4","last_reported":1737886115,"current_range_meters":18800,"station_id":"ce4bgjp2rcd13ifvqbh0","pricing_plan_id":"cebpf4jnsgd1na2vs0mg"},{"bike_id":"c2da4c3a-293f-4a31-be55-9bcc391cb620","system_id":"levelo_inurba_marseille","lat":43.26206,"lon":5.37443,"is_reserved":false,"is_disabled":false,"rental_uris":{"android":"levelo://app?vid=c2da4c3a-293f-4a31-be55-9bcc391cb620","ios":"levelo://app?vid=c2da4c3a-293f-4a31-be55-9bcc391cb620"},"vehicle_type_id":"4","last_reported":1737886115,"current_range_meters":21600,"station_id":"ce4bhgp2rcd13ifvqfc0","pricing_plan_id":"cebpf4jnsgd1na2vs0mg"},{"bike_id":"29537b6d-60f6-4053-b601-105bf13a2e3a","system_id":"levelo_inurba_marseille","lat":43.2847,"lon":5.38435,"is_reserved":false,"is_disabled":true,"rental_uris":{"android":"levelo://app?vid=29537b6d-60f6-4053-b601-105bf13a2e3a","ios":"levelo://app?vid=29537b6d-60f6-4053-b601-105bf13a2e3a"},"vehicle_type_id":"4","last_reported":1737886115,"current_range_meters":3200,"station_id":"ce4bh512rcd13ifvqe3g","pricing_plan_id":"cebpf4jnsgd1na2vs0mg"},{"bike_id":"b81c994b-0fb1-4961-9523-948b507ca2bb","system_id":"levelo_inurba_marseille","lat":43.28861,"lon":5.35846,"is_reserved":false,"is_disabled":false,"rental_uris":{"android":"levelo://app?vid=b81c994b-0fb1-4961-9523-948b507ca2bb","ios":"levelo://app?vid=b81c994b-0fb1-4961-9523-948b507ca2bb"},"vehicle_type_id":"4","last_reported":1737886115,"current_range_meters":14000,"station_id":"ce4bhb12rcd13ifvqem0","pricing_plan_id":"cebpf4jnsgd1na2vs0mg"},{"bike_id":"beb8719e-9c00-4513-9a7f-ed3e580411cb","system_id":"levelo_inurba_marseille","lat":43.30461,"lon":5.37904,"is_reserved":false,"is_disabled":false,"rental_uris":{"android":"levelo://app?vid=beb8719e-9c00-4513-9a7f-ed3e580411cb","ios":"levelo://app?vid=beb8719e-9c00-4513-9a7f-ed3e580411cb"},"vehicle_type_id":"4","last_reported":1737886115,"current_range_meters":26000,"station_id":"ce4bgup2rcd13ifvqcn0","pricing_plan_id":"cebpf4jnsgd1na2vs0mg"},{"bike_id":"7ce755d3-97f5-4800-ba81-7f3e210c7cea","system_id":"levelo_inurba_marseille","lat":43.23962,"lon":5.36634,"is_reserved":false,"is_disabled":false,"rental_uris":{"android":"levelo://app?vid=7ce755d3-97f5-4800-ba81-7f3e210c7cea","ios":"levelo://app?vid=7ce755d3-97f5-4800-ba81-7f3e210c7cea"},"vehicle_type_id":"4","last_reported":1737886115,"current_range_meters":24400,"station_id":"ce4bhi12rcd13ifvqfp0","pricing_plan_id":"cebpf4jnsgd1na2vs0mg"},{"bike_id":"c54f5b2e-f783-418a-8119-a38c5ea2c0aa","system_id":"levelo_inurba_marseille","lat":43.29,"lon":5.35621,"is_reserved":false,"is_disabled":true,"rental_uris":{"android":"levelo://app?vid=c54f5b2e-f783-418a-8119-a38c5ea2c0aa","ios":"levelo://app?vid=c54f5b2e-f783-418a-8119-a38c5ea2c0aa"},"vehicle_type_id":"4","last_reported":1737886115,"current_range_meters":6400,"station_id":"ce4bhb92rcd13ifvqen0","pricing_plan_id":"cebpf4jnsgd1na2vs0mg"},{"bike_id":"9838cc78-2b53-49d3-ae13-82df62c4fd64","system_id":"levelo_inurba_marseille","lat":43.28412,"lon":5.4094,"is_reserved":false,"is_disabled":true,"rental_uris":{"android":"levelo://app?vid=9838cc78-2b53-49d3-ae13-82df62c4fd64","ios":"levelo://app?vid=9838cc78-2b53-49d3-ae13-82df62c4fd64"},"vehicle_type_id":"4","last_reported":1737886115,"current_range_meters":0,"station_id":"","pricing_plan_id":"cebpf4jnsgd1na2vs0mg"},{"bike_id":"82d1f8b7-26e7-4669-ba4c-734433008f49","system_id":"levelo_inurba_marseille","lat":43.26566,"lon":5.39005,"is_reserved":false,"is_disabled":false,"rental_uris":{"android":"levelo://app?vid=82d1f8b7-26e7-4669-ba4c-734433008f49","ios":"levelo://app?vid=82d1f8b7-26e7-4669-ba4c-734433008f49"},"vehicle_type_id":"4","last_reported":1737886115,"current_range_meters":35200,"station_id":"ce4bhe12rcd13ifvqf30","pricing_plan_id":"cebpf4jnsgd1na2vs0mg"},{"bike_id":"7388e4af-aaff-434b-9224-eae36390cc17","system_id":"levelo_inurba_marseille","lat":43.32653,"lon":5.41006,"is_reserved":false,"is_disabled":false,"rental_uris":{"android":"levelo://app?vid=7388e4af-aaff-434b-9224-eae36390cc17","ios":"levelo://app?vid=7388e4af-aaff-434b-9224-eae36390cc17"},"vehicle_type_id":"4","last_reported":1737886115,"current_range_meters":13600,"station_id":"ce4bhpp2rcd13ifvqhgg","pricing_plan_id":"cebpf4jnsgd1na2vs0mg"},{"bike_id":"1a12ccc4-119d-4583-9cd0-f3b08fa41a49","system_id":"levelo_inurba_marseille","lat":43.24076,"lon":5.37749,"is_reserved":false,"is_disabled":false,"rental_uris":{"android":"levelo://app?vid=1a12ccc4-119d-4583-9cd0-f3b08fa41a49","ios":"levelo://app?vid=1a12ccc4-119d-4583-9cd0-f3b08fa41a49"},"vehicle_type_id":"4","last_reported":1737886115,"current_range_meters":38800,"station_id":"ce4bhnp2rcd13ifvqgvg","pricing_plan_id":"cebpf4jnsgd1na2vs0mg"},{"bike_id":"bf096a89-ee72-4f37-85bd-7b3cf9f0cb41","system_id":"levelo_inurba_marseille","lat":43.33732,"lon":5.39199,"is_reserved":false,"is_disabled":false,"rental_uris":{"android":"levelo://app?vid=bf096a89-ee72-4f37-85bd-7b3cf9f0cb41","ios":"levelo://app?vid=bf096a89-ee72-4f37-85bd-7b3cf9f0cb41"},"vehicle_type_id":"4","last_reported":1737886115,"current_range_meters":28400,"station_id":"ce4bhr92rcd13ifvqhsg","pricing_plan_id":"cebpf4jnsgd1na2vs0mg"},{"bike_id":"f0f42544-104f-4439-9c78-bb57f092128f","system_id":"levelo_inurba_marseille","lat":43.27056,"lon":5.42296,"is_reserved":false,"is_disabled":false,"rental_uris":{"android":"levelo://app?vid=f0f42544-104f-4439-9c78-bb57f092128f","ios":"levelo://app?vid=f0f42544-104f-4439-9c78-bb57f092128f"},"vehicle_type_id":"4","last_reported":1737886115,"current_range_meters":38000,"station_id":"ce4bhk92rcd13ifvqgb0","pricing_plan_id":"cebpf4jnsgd1na2vs0mg"},{"bike_id":"c2378bb1-796c-4edf-bf87-198266dfa5e8","system_id":"levelo_inurba_marseille","lat":43.23181,"lon":5.35601,"is_reserved":false,"is_disabled":false,"rental_uris":{"android":"levelo://app?vid=c2378bb1-796c-4edf-bf87-198266dfa5e8","ios":"levelo://app?vid=c2378bb1-796c-4edf-bf87-198266dfa5e8"},"vehicle_type_id":"4","last_reported":1737886115,"current_range_meters":38400,"station_id":"ce4bhu92rcd13ifvqi70","pricing_plan_id":"cebpf4jnsgd1na2vs0mg"},{"bike_id":"c141ae42-6610-4472-a965-721dbdaf5ee5","system_id":"levelo_inurba_marseille","lat":43.29782,"lon":5.37094,"is_reserved":false,"is_disabled":false,"rental_uris":{"android":"levelo://app?vid=c141ae42-6610-4472-a965-721dbdaf5ee5","ios":"levelo://app?vid=c141ae42-6610-4472-a965-721dbdaf5ee5"},"vehicle_type_id":"4","last_reported":1737886115,"current_range_meters":21600,"station_id":"ce4bgop2rcd13ifvqc1g","pricing_plan_id":"cebpf4jnsgd1na2vs0mg"},{"bike_id":"d69cf1fa-59ad-4f44-a9fb-82fbbe1b6b05","system_id":"levelo_inurba_marseille","lat":43.30795,"lon":5.43559,"is_reserved":false,"is_disabled":false,"rental_uris":{"android":"levelo://app?vid=d69cf1fa-59ad-4f44-a9fb-82fbbe1b6b05","ios":"levelo://app?vid=d69cf1fa-59ad-4f44-a9fb-82fbbe1b6b05"},"vehicle_type_id":"4","last_reported":1737886115,"current_range_meters":25200,"station_id":"ce4bhph2rcd13ifvqheg","pricing_plan_id":"cebpf4jnsgd1na2vs0mg"},{"bike_id":"01b48747-2242-4031-9251-f97dcd65ca70","system_id":"levelo_inurba_marseille","lat":43.29036,"lon":5.35938,"is_reserved":false,"is_disabled":false,"rental_uris":{"android":"levelo://app?vid=01b48747-2242-4031-9251-f97dcd65ca70","ios":"levelo://app?vid=01b48747-2242-4031-9251-f97dcd65ca70"},"vehicle_type_id":"4","last_reported":1737886115,"current_range_meters":38400,"station_id":"ce4bha92rcd13ifvqeg0","pricing_plan_id":"cebpf4jnsgd1na2vs0mg"},{"bike_id":"64f8b113-6460-4f0d-bf5f-6a6938afa43a","system_id":"levelo_inurba_marseille","lat":43.34134,"lon":5.40925,"is_reserved":false,"is_disabled":false,"rental_uris":{"android":"levelo://app?vid=64f8b113-6460-4f0d-bf5f-6a6938afa43a","ios":"levelo://app?vid=64f8b113-6460-4f0d-bf5f-6a6938afa43a"},"vehicle_type_id":"4","last_reported":1737886115,"current_range_meters":9200,"station_id":"ce4bhqh2rcd13ifvqhlg","pricing_plan_id":"cebpf4jnsgd1na2vs0mg"},{"bike_id":"2e0a8b86-b457-48a0-8577-213b01080398","system_id":"levelo_inurba_marseille","lat":43.23199,"lon":5.35552,"is_reserved":false,"is_disabled":false,"rental_uris":{"android":"levelo://app?vid=2e0a8b86-b457-48a0-8577-213b01080398","ios":"levelo://app?vid=2e0a8b86-b457-48a0-8577-213b01080398"},"vehicle_type_id":"4","last_reported":1737886115,"current_range_meters":38800,"station_id":"ce4bhu92rcd13ifvqi70","pricing_plan_id":"cebpf4jnsgd1na2vs0mg"},{"bike_id":"a7cf4467-440c-4bb8-a849-e8f193507576","system_id":"levelo_inurba_marseille","lat":43.29698,"lon":5.3765,"is_reserved":false,"is_disabled":false,"rental_uris":{"android":"levelo://app?vid=a7cf4467-440c-4bb8-a849-e8f193507576","ios":"levelo://app?vid=a7cf4467-440c-4bb8-a849-e8f193507576"},"vehicle_type_id":"4","last_reported":1737886115,"current_range_meters":28400,"station_id":"ce4bgkh2rcd13ifvqbl0","pricing_plan_id":"cebpf4jnsgd1na2vs0mg"},{"bike_id":"8bea530b-bc04-4ef2-9ef7-27c8d8dd6f29","system_id":"levelo_inurba_marseille","lat":43.30646,"lon":5.40063,"is_reserved":false,"is_disabled":false,"rental_uris":{"android":"levelo://app?vid=8bea530b-bc04-4ef2-9ef7-27c8d8dd6f29","ios":"levelo://app?vid=8bea530b-bc04-4ef2-9ef7-27c8d8dd6f29"},"vehicle_type_id":"4","last_reported":1737886115,"current_range_meters":11600,"station_id":"ce4bh112rcd13ifvqda0","pricing_plan_id":"cebpf4jnsgd1na2vs0mg"},{"bike_id":"f8e492eb-dc36-4051-8252-2795c1e60d93","system_id":"levelo_inurba_marseille","lat":43.29554,"lon":5.42287,"is_reserved":false,"is_disabled":false,"rental_uris":{"android":"levelo://app?vid=f8e492eb-dc36-4051-8252-2795c1e60d93","ios":"levelo://app?vid=f8e492eb-dc36-4051-8252-2795c1e60d93"},"vehicle_type_id":"4","last_reported":1737886115,"current_range_meters":38800,"station_id":"ce4bhph2rcd13ifvqhdg","pricing_plan_id":"cebpf4jnsgd1na2vs0mg"},{"bike_id":"8eebcd3c-964f-4ff5-9732-d556949d17ba","system_id":"levelo_inurba_marseille","lat":43.30516,"lon":5.38471,"is_reserved":false,"is_disabled":false,"rental_uris":{"android":"levelo://app?vid=8eebcd3c-964f-4ff5-9732-d556949d17ba","ios":"levelo://app?vid=8eebcd3c-964f-4ff5-9732-d556949d17ba"},"vehicle_type_id":"4","last_reported":1737886115,"current_range_meters":39200,"station_id":"ce4bgg92rcd13ifvqb30","pricing_plan_id":"cebpf4jnsgd1na2vs0mg"},{"bike_id":"87a5bed0-aef1-423b-bd85-fe44fdeeb863","system_id":"levelo_inurba_marseille","lat":43.3373,"lon":5.39187,"is_reserved":false,"is_disabled":false,"rental_uris":{"android":"levelo://app?vid=87a5bed0-aef1-423b-bd85-fe44fdeeb863","ios":"levelo://app?vid=87a5bed0-aef1-423b-bd85-fe44fdeeb863"},"vehicle_type_id":"4","last_reported":1737886115,"current_range_meters":35600,"station_id":"ce4bhr92rcd13ifvqhsg","pricing_plan_id":"cebpf4jnsgd1na2vs0mg"},{"bike_id":"bdec0346-331f-428d-ba08-cd71a7167114","system_id":"levelo_inurba_marseille","lat":43.26795,"lon":5.40252,"is_reserved":false,"is_disabled":false,"rental_uris":{"android":"levelo://app?vid=bdec0346-331f-428d-ba08-cd71a7167114","ios":"levelo://app?vid=bdec0346-331f-428d-ba08-cd71a7167114"},"vehicle_type_id":"4","last_reported":1737886115,"current_range_meters":38800,"station_id":"ce501612rcd8frsf0b60","pricing_plan_id":"cebpf4jnsgd1na2vs0mg"},{"bike_id":"770988d0-47fd-4d12-8823-5c1dca0d5dcb","system_id":"levelo_inurba_marseille","lat":43.27377,"lon":5.36257,"is_reserved":false,"is_disabled":false,"rental_uris":{"android":"levelo://app?vid=770988d0-47fd-4d12-8823-5c1dca0d5dcb","ios":"levelo://app?vid=770988d0-47fd-4d12-8823-5c1dca0d5dcb"},"vehicle_type_id":"4","last_reported":1737886115,"current_range_meters":38000,"station_id":"ce4bhbh2rcd13ifvqeo0","pricing_plan_id":"cebpf4jnsgd1na2vs0mg"},{"bike_id":"672498f6-2f09-4e5b-8f89-7143ebfb39c6","system_id":"levelo_inurba_marseille","lat":43.330172,"lon":5.390448,"is_reserved":false,"is_disabled":false,"rental_uris":{"android":"levelo://app?vid=672498f6-2f09-4e5b-8f89-7143ebfb39c6","ios":"levelo://app?vid=672498f6-2f09-4e5b-8f89-7143ebfb39c6"},"vehicle_type_id":"4","last_reported":1737886115,"current_range_meters":38400,"station_id":"ce4bhr92rcd13ifvqhrg","pricing_plan_id":"cebpf4jnsgd1na2vs0mg"},{"bike_id":"c9a44569-494e-4c0f-b049-f060ecec970b","system_id":"levelo_inurba_marseille","lat":43.31079,"lon":5.38347,"is_reserved":false,"is_disabled":false,"rental_uris":{"android":"levelo://app?vid=c9a44569-494e-4c0f-b049-f060ecec970b","ios":"levelo://app?vid=c9a44569-494e-4c0f-b049-f060ecec970b"},"vehicle_type_id":"4","last_reported":1737886115,"current_range_meters":24000,"station_id":"ce4bgv92rcd13ifvqcr0","pricing_plan_id":"cebpf4jnsgd1na2vs0mg"},{"bike_id":"71da579c-cda3-4821-8a44-f2f668c2dca9","system_id":"levelo_inurba_marseille","lat":43.24641,"lon":5.38929,"is_reserved":false,"is_disabled":false,"rental_uris":{"android":"levelo://app?vid=71da579c-cda3-4821-8a44-f2f668c2dca9","ios":"levelo://app?vid=71da579c-cda3-4821-8a44-f2f668c2dca9"},"vehicle_type_id":"4","last_reported":1737886115,"current_range_meters":38000,"station_id":"ce4bhg12rcd13ifvqf60","pricing_plan_id":"cebpf4jnsgd1na2vs0mg"},{"bike_id":"a466f83a-57a5-4cca-a7af-dc17d6c05cfd","system_id":"levelo_inurba_marseille","lat":43.28419,"lon":5.3503,"is_reserved":false,"is_disabled":false,"rental_uris":{"android":"levelo://app?vid=a466f83a-57a5-4cca-a7af-dc17d6c05cfd","ios":"levelo://app?vid=a466f83a-57a5-4cca-a7af-dc17d6c05cfd"},"vehicle_type_id":"4","last_reported":1737886115,"current_range_meters":36800,"station_id":"ce4bhbh2rcd13ifvqepg","pricing_plan_id":"cebpf4jnsgd1na2vs0mg"},{"bike_id":"b2a6f4ce-e5e6-4b95-91b9-5cf515000dc6","system_id":"levelo_inurba_marseille","lat":43.312775,"lon":5.401744,"is_reserved":false,"is_disabled":true,"rental_uris":{"android":"levelo://app?vid=b2a6f4ce-e5e6-4b95-91b9-5cf515000dc6","ios":"levelo://app?vid=b2a6f4ce-e5e6-4b95-91b9-5cf515000dc6"},"vehicle_type_id":"4","last_reported":1737886115,"current_range_meters":24000,"station_id":"ce4bh092rcd13ifvqd30","pricing_plan_id":"cebpf4jnsgd1na2vs0mg"},{"bike_id":"16b423f5-fefb-4d7b-8507-b9985fa027a0","system_id":"levelo_inurba_marseille","lat":43.33722,"lon":5.39201,"is_reserved":false,"is_disabled":false,"rental_uris":{"android":"levelo://app?vid=16b423f5-fefb-4d7b-8507-b9985fa027a0","ios":"levelo://app?vid=16b423f5-fefb-4d7b-8507-b9985fa027a0"},"vehicle_type_id":"4","last_reported":1737886115,"current_range_meters":38800,"station_id":"ce4bhr92rcd13ifvqhsg","pricing_plan_id":"cebpf4jnsgd1na2vs0mg"},{"bike_id":"ba2f8ba8-0782-4e46-b915-713bc59ac287","system_id":"levelo_inurba_marseille","lat":43.26946,"lon":5.38627,"is_reserved":false,"is_disabled":false,"rental_uris":{"android":"levelo://app?vid=ba2f8ba8-0782-4e46-b915-713bc59ac287","ios":"levelo://app?vid=ba2f8ba8-0782-4e46-b915-713bc59ac287"},"vehicle_type_id":"4","last_reported":1737886115,"current_range_meters":32800,"station_id":"ce4bhh92rcd13ifvqfh0","pricing_plan_id":"cebpf4jnsgd1na2vs0mg"},{"bike_id":"64e9009f-c066-4018-b62f-9a29844a1d10","system_id":"levelo_inurba_marseille","lat":43.32021,"lon":5.41577,"is_reserved":false,"is_disabled":false,"rental_uris":{"android":"levelo://app?vid=64e9009f-c066-4018-b62f-9a29844a1d10","ios":"levelo://app?vid=64e9009f-c066-4018-b62f-9a29844a1d10"},"vehicle_type_id":"4","last_reported":1737886115,"current_range_meters":38800,"station_id":"ce4bhq92rcd13ifvqhkg","pricing_plan_id":"cebpf4jnsgd1na2vs0mg"},{"bike_id":"53183fac-c09c-444c-813d-b61b94b6428a","system_id":"levelo_inurba_marseille","lat":43.26056,"lon":5.39404,"is_reserved":false,"is_disabled":true,"rental_uris":{"android":"levelo://app?vid=53183fac-c09c-444c-813d-b61b94b6428a","ios":"levelo://app?vid=53183fac-c09c-444c-813d-b61b94b6428a"},"vehicle_type_id":"4","last_reported":1737886115,"current_range_meters":0,"station_id":"ce4bhh92rcd13ifvqfj0","pricing_plan_id":"cebpf4jnsgd1na2vs0mg"},{"bike_id":"ac5d9a30-93eb-435a-9283-c0af934f705a","system_id":"levelo_inurba_marseille","lat":43.2842,"lon":5.34974,"is_reserved":false,"is_disabled":false,"rental_uris":{"android":"levelo://app?vid=ac5d9a30-93eb-435a-9283-c0af934f705a","ios":"levelo://app?vid=ac5d9a30-93eb-435a-9283-c0af934f705a"},"vehicle_type_id":"4","last_reported":1737886115,"current_range_meters":24000,"station_id":"ce4bhbh2rcd13ifvqepg","pricing_plan_id":"cebpf4jnsgd1na2vs0mg"},{"bike_id":"3fdd7e70-3e83-43bd-b13e-16385dfa32fb","system_id":"levelo_inurba_marseille","lat":43.24545,"lon":5.39552,"is_reserved":false,"is_disabled":false,"rental_uris":{"android":"levelo://app?vid=3fdd7e70-3e83-43bd-b13e-16385dfa32fb","ios":"levelo://app?vid=3fdd7e70-3e83-43bd-b13e-16385dfa32fb"},"vehicle_type_id":"4","last_reported":1737886115,"current_range_meters":20000,"station_id":"ce4bhlp2rcd13ifvqgjg","pricing_plan_id":"cebpf4jnsgd1na2vs0mg"},{"bike_id":"83d90d75-98f2-411e-8cba-2fddf7d84a4c","system_id":"levelo_inurba_marseille","lat":43.29017,"lon":5.38128,"is_reserved":false,"is_disabled":true,"rental_uris":{"android":"levelo://app?vid=83d90d75-98f2-411e-8cba-2fddf7d84a4c","ios":"levelo://app?vid=83d90d75-98f2-411e-8cba-2fddf7d84a4c"},"vehicle_type_id":"4","last_reported":1737886115,"current_range_meters":27600,"station_id":"ce4bh4p2rcd13ifvqe1g","pricing_plan_id":"cebpf4jnsgd1na2vs0mg"},{"bike_id":"8b0b0648-de26-4ff9-8eff-79a8191695a5","system_id":"levelo_inurba_marseille","lat":43.31986,"lon":5.38172,"is_reserved":false,"is_disabled":false,"rental_uris":{"android":"levelo://app?vid=8b0b0648-de26-4ff9-8eff-79a8191695a5","ios":"levelo://app?vid=8b0b0648-de26-4ff9-8eff-79a8191695a5"},"vehicle_type_id":"4","last_reported":1737886115,"current_range_meters":19200,"station_id":"ce4bhr12rcd13ifvqhpg","pricing_plan_id":"cebpf4jnsgd1na2vs0mg"},{"bike_id":"3cc2a2d0-6a06-44f3-b7d0-141ce0a38e20","system_id":"levelo_inurba_marseille","lat":43.29556,"lon":5.42307,"is_reserved":false,"is_disabled":false,"rental_uris":{"android":"levelo://app?vid=3cc2a2d0-6a06-44f3-b7d0-141ce0a38e20","ios":"levelo://app?vid=3cc2a2d0-6a06-44f3-b7d0-141ce0a38e20"},"vehicle_type_id":"4","last_reported":1737886115,"current_range_meters":34000,"station_id":"ce4bhph2rcd13ifvqhdg","pricing_plan_id":"cebpf4jnsgd1na2vs0mg"},{"bike_id":"10c8aa62-e7d3-400a-bba3-cc7dd12c212d","system_id":"levelo_inurba_marseille","lat":43.2892,"lon":5.3841,"is_reserved":false,"is_disabled":false,"rental_uris":{"android":"levelo://app?vid=10c8aa62-e7d3-400a-bba3-cc7dd12c212d","ios":"levelo://app?vid=10c8aa62-e7d3-400a-bba3-cc7dd12c212d"},"vehicle_type_id":"4","last_reported":1737886115,"current_range_meters":32000,"station_id":"ce4bh612rcd13ifvqe6g","pricing_plan_id":"cebpf4jnsgd1na2vs0mg"},{"bike_id":"db318319-ded9-4fb4-b352-ca3129b34752","system_id":"levelo_inurba_marseille","lat":43.30431,"lon":5.38908,"is_reserved":false,"is_disabled":false,"rental_uris":{"android":"levelo://app?vid=db318319-ded9-4fb4-b352-ca3129b34752","ios":"levelo://app?vid=db318319-ded9-4fb4-b352-ca3129b34752"},"vehicle_type_id":"4","last_reported":1737886115,"current_range_meters":39200,"station_id":"ce4bgk12rcd13ifvqbi0","pricing_plan_id":"cebpf4jnsgd1na2vs0mg"},{"bike_id":"dcf9d711-ba99-4755-b27f-9c85313f69fe","system_id":"levelo_inurba_marseille","lat":43.28408,"lon":5.35005,"is_reserved":false,"is_disabled":false,"rental_uris":{"android":"levelo://app?vid=dcf9d711-ba99-4755-b27f-9c85313f69fe","ios":"levelo://app?vid=dcf9d711-ba99-4755-b27f-9c85313f69fe"},"vehicle_type_id":"4","last_reported":1737886115,"current_range_meters":31200,"station_id":"ce4bhbh2rcd13ifvqepg","pricing_plan_id":"cebpf4jnsgd1na2vs0mg"},{"bike_id":"f34e8286-c4c8-4571-95a9-fd67b8e8f5fe","system_id":"levelo_inurba_marseille","lat":43.28936,"lon":5.36383,"is_reserved":false,"is_disabled":false,"rental_uris":{"android":"levelo://app?vid=f34e8286-c4c8-4571-95a9-fd67b8e8f5fe","ios":"levelo://app?vid=f34e8286-c4c8-4571-95a9-fd67b8e8f5fe"},"vehicle_type_id":"4","last_reported":1737886115,"current_range_meters":28000,"station_id":"ce4bhc92rcd13ifvqetg","pricing_plan_id":"cebpf4jnsgd1na2vs0mg"},{"bike_id":"2d0d2073-d710-414b-b25b-4383422beed0","system_id":"levelo_inurba_marseille","lat":43.27994,"lon":5.41681,"is_reserved":false,"is_disabled":false,"rental_uris":{"android":"levelo://app?vid=2d0d2073-d710-414b-b25b-4383422beed0","ios":"levelo://app?vid=2d0d2073-d710-414b-b25b-4383422beed0"},"vehicle_type_id":"4","last_reported":1737886115,"current_range_meters":38800,"station_id":"ce4bho12rcd13ifvqh1g","pricing_plan_id":"cebpf4jnsgd1na2vs0mg"},{"bike_id":"53893159-1296-4aed-9fa8-45be978a80b2","system_id":"levelo_inurba_marseille","lat":43.24177,"lon":5.39728,"is_reserved":false,"is_disabled":false,"rental_uris":{"android":"levelo://app?vid=53893159-1296-4aed-9fa8-45be978a80b2","ios":"levelo://app?vid=53893159-1296-4aed-9fa8-45be978a80b2"},"vehicle_type_id":"4","last_reported":1737886115,"current_range_meters":18000,"station_id":"ce4bhn12rcd13ifvqgpg","pricing_plan_id":"cebpf4jnsgd1na2vs0mg"},{"bike_id":"3655fbb3-6377-45da-b797-4ae2fcf7d747","system_id":"levelo_inurba_marseille","lat":43.307815,"lon":5.376597,"is_reserved":false,"is_disabled":false,"rental_uris":{"android":"levelo://app?vid=3655fbb3-6377-45da-b797-4ae2fcf7d747","ios":"levelo://app?vid=3655fbb3-6377-45da-b797-4ae2fcf7d747"},"vehicle_type_id":"4","last_reported":1737886115,"current_range_meters":38400,"station_id":"ce4bgv92rcd13ifvqcq0","pricing_plan_id":"cebpf4jnsgd1na2vs0mg"},{"bike_id":"e9bc701b-86ce-45d6-bb9e-c295f6ce732c","system_id":"levelo_inurba_marseille","lat":43.30667,"lon":5.4009,"is_reserved":false,"is_disabled":true,"rental_uris":{"android":"levelo://app?vid=e9bc701b-86ce-45d6-bb9e-c295f6ce732c","ios":"levelo://app?vid=e9bc701b-86ce-45d6-bb9e-c295f6ce732c"},"vehicle_type_id":"4","last_reported":1737886115,"current_range_meters":36000,"station_id":"ce4bh112rcd13ifvqda0","pricing_plan_id":"cebpf4jnsgd1na2vs0mg"},{"bike_id":"ebbb6dd1-ea2a-4b9e-a0fd-f2fc38df1042","system_id":"levelo_inurba_marseille","lat":43.25004,"lon":5.389445,"is_reserved":false,"is_disabled":true,"rental_uris":{"android":"levelo://app?vid=ebbb6dd1-ea2a-4b9e-a0fd-f2fc38df1042","ios":"levelo://app?vid=ebbb6dd1-ea2a-4b9e-a0fd-f2fc38df1042"},"vehicle_type_id":"4","last_reported":1737886115,"current_range_meters":0,"station_id":"ce4bhgp2rcd13ifvqfd0","pricing_plan_id":"cebpf4jnsgd1na2vs0mg"},{"bike_id":"101d9a0e-3b40-40b3-ba79-facd5bdeeccd","system_id":"levelo_inurba_marseille","lat":43.27502,"lon":5.42455,"is_reserved":false,"is_disabled":false,"rental_uris":{"android":"levelo://app?vid=101d9a0e-3b40-40b3-ba79-facd5bdeeccd","ios":"levelo://app?vid=101d9a0e-3b40-40b3-ba79-facd5bdeeccd"},"vehicle_type_id":"4","last_reported":1737886115,"current_range_meters":10000,"station_id":"ce4bhn92rcd13ifvqgrg","pricing_plan_id":"cebpf4jnsgd1na2vs0mg"},{"bike_id":"a585a9b5-dfad-4548-b7cf-f7b4672cde0a","system_id":"levelo_inurba_marseille","lat":43.30247,"lon":5.40089,"is_reserved":false,"is_disabled":false,"rental_uris":{"android":"levelo://app?vid=a585a9b5-dfad-4548-b7cf-f7b4672cde0a","ios":"levelo://app?vid=a585a9b5-dfad-4548-b7cf-f7b4672cde0a"},"vehicle_type_id":"4","last_reported":1737886115,"current_range_meters":39200,"station_id":"ce4bgvh2rcd13ifvqcs0","pricing_plan_id":"cebpf4jnsgd1na2vs0mg"},{"bike_id":"40999eef-4e91-43f9-9809-aa616390ca59","system_id":"levelo_inurba_marseille","lat":43.3054,"lon":5.36555,"is_reserved":false,"is_disabled":false,"rental_uris":{"android":"levelo://app?vid=40999eef-4e91-43f9-9809-aa616390ca59","ios":"levelo://app?vid=40999eef-4e91-43f9-9809-aa616390ca59"},"vehicle_type_id":"4","last_reported":1737886115,"current_range_meters":38800,"station_id":"ce4bgs12rcd13ifvqcag","pricing_plan_id":"cebpf4jnsgd1na2vs0mg"},{"bike_id":"6f20f9a6-b786-4af4-81af-ba59be1217ef","system_id":"levelo_inurba_marseille","lat":43.32,"lon":5.38165,"is_reserved":false,"is_disabled":false,"rental_uris":{"android":"levelo://app?vid=6f20f9a6-b786-4af4-81af-ba59be1217ef","ios":"levelo://app?vid=6f20f9a6-b786-4af4-81af-ba59be1217ef"},"vehicle_type_id":"4","last_reported":1737886115,"current_range_meters":38400,"station_id":"ce4bhr12rcd13ifvqhpg","pricing_plan_id":"cebpf4jnsgd1na2vs0mg"},{"bike_id":"e88400e9-8c92-4316-bea9-56c1c974c030","system_id":"levelo_inurba_marseille","lat":43.30256,"lon":5.40055,"is_reserved":false,"is_disabled":false,"rental_uris":{"android":"levelo://app?vid=e88400e9-8c92-4316-bea9-56c1c974c030","ios":"levelo://app?vid=e88400e9-8c92-4316-bea9-56c1c974c030"},"vehicle_type_id":"4","last_reported":1737886115,"current_range_meters":36400,"station_id":"ce4bgvh2rcd13ifvqcs0","pricing_plan_id":"cebpf4jnsgd1na2vs0mg"},{"bike_id":"5d01d30a-8f08-4da7-ba9d-36f97507c308","system_id":"levelo_inurba_marseille","lat":43.23205,"lon":5.35567,"is_reserved":false,"is_disabled":false,"rental_uris":{"android":"levelo://app?vid=5d01d30a-8f08-4da7-ba9d-36f97507c308","ios":"levelo://app?vid=5d01d30a-8f08-4da7-ba9d-36f97507c308"},"vehicle_type_id":"4","last_reported":1737886115,"current_range_meters":25200,"station_id":"ce4bhu92rcd13ifvqi70","pricing_plan_id":"cebpf4jnsgd1na2vs0mg"},{"bike_id":"29080ce8-41ec-4792-83ef-ef28c4c218e4","system_id":"levelo_inurba_marseille","lat":43.3067,"lon":5.40076,"is_reserved":false,"is_disabled":false,"rental_uris":{"android":"levelo://app?vid=29080ce8-41ec-4792-83ef-ef28c4c218e4","ios":"levelo://app?vid=29080ce8-41ec-4792-83ef-ef28c4c218e4"},"vehicle_type_id":"4","last_reported":1737886115,"current_range_meters":31200,"station_id":"ce4bh112rcd13ifvqda0","pricing_plan_id":"cebpf4jnsgd1na2vs0mg"},{"bike_id":"d54e7416-9133-47cb-bc55-3d590b1f98b8","system_id":"levelo_inurba_marseille","lat":43.28646,"lon":5.36351,"is_reserved":false,"is_disabled":true,"rental_uris":{"android":"levelo://app?vid=d54e7416-9133-47cb-bc55-3d590b1f98b8","ios":"levelo://app?vid=d54e7416-9133-47cb-bc55-3d590b1f98b8"},"vehicle_type_id":"4","last_reported":1737886115,"current_range_meters":0,"station_id":"ce4bhah2rcd13ifvqej0","pricing_plan_id":"cebpf4jnsgd1na2vs0mg"},{"bike_id":"70d2ca22-ee87-40ad-aedd-8067449d8dda","system_id":"levelo_inurba_marseille","lat":43.33602,"lon":5.41021,"is_reserved":false,"is_disabled":false,"rental_uris":{"android":"levelo://app?vid=70d2ca22-ee87-40ad-aedd-8067449d8dda","ios":"levelo://app?vid=70d2ca22-ee87-40ad-aedd-8067449d8dda"},"vehicle_type_id":"4","last_reported":1737886115,"current_range_meters":38800,"station_id":"ce4bhqh2rcd13ifvqhmg","pricing_plan_id":"cebpf4jnsgd1na2vs0mg"},{"bike_id":"5273c4d7-1747-4313-b031-4df98f8106fd","system_id":"levelo_inurba_marseille","lat":43.31717,"lon":5.37772,"is_reserved":false,"is_disabled":false,"rental_uris":{"android":"levelo://app?vid=5273c4d7-1747-4313-b031-4df98f8106fd","ios":"levelo://app?vid=5273c4d7-1747-4313-b031-4df98f8106fd"},"vehicle_type_id":"4","last_reported":1737886115,"current_range_meters":11200,"station_id":"ce4bgth2rcd13ifvqch0","pricing_plan_id":"cebpf4jnsgd1na2vs0mg"},{"bike_id":"4ba17b62-67ad-47d4-ae06-50d84fbf1296","system_id":"levelo_inurba_marseille","lat":43.29897,"lon":5.436595,"is_reserved":false,"is_disabled":false,"rental_uris":{"android":"levelo://app?vid=4ba17b62-67ad-47d4-ae06-50d84fbf1296","ios":"levelo://app?vid=4ba17b62-67ad-47d4-ae06-50d84fbf1296"},"vehicle_type_id":"4","last_reported":1737886115,"current_range_meters":8800,"station_id":"ce4bhpp2rcd13ifvqhfg","pricing_plan_id":"cebpf4jnsgd1na2vs0mg"},{"bike_id":"4825b2e9-7cf4-4c22-a427-8fc6902fa6c1","system_id":"levelo_inurba_marseille","lat":43.3127,"lon":5.40178,"is_reserved":false,"is_disabled":false,"rental_uris":{"android":"levelo://app?vid=4825b2e9-7cf4-4c22-a427-8fc6902fa6c1","ios":"levelo://app?vid=4825b2e9-7cf4-4c22-a427-8fc6902fa6c1"},"vehicle_type_id":"4","last_reported":1737886115,"current_range_meters":38800,"station_id":"ce4bh092rcd13ifvqd30","pricing_plan_id":"cebpf4jnsgd1na2vs0mg"},{"bike_id":"1c35c755-8b1c-439e-8798-f1a001a3969d","system_id":"levelo_inurba_marseille","lat":43.28147,"lon":5.37835,"is_reserved":false,"is_disabled":true,"rental_uris":{"android":"levelo://app?vid=1c35c755-8b1c-439e-8798-f1a001a3969d","ios":"levelo://app?vid=1c35c755-8b1c-439e-8798-f1a001a3969d"},"vehicle_type_id":"4","last_reported":1737886115,"current_range_meters":0,"station_id":"ce4bha12rcd13ifvqee0","pricing_plan_id":"cebpf4jnsgd1na2vs0mg"},{"bike_id":"87191250-0694-4012-b532-21c360f63947","system_id":"levelo_inurba_marseille","lat":43.31081,"lon":5.4244,"is_reserved":false,"is_disabled":false,"rental_uris":{"android":"levelo://app?vid=87191250-0694-4012-b532-21c360f63947","ios":"levelo://app?vid=87191250-0694-4012-b532-21c360f63947"},"vehicle_type_id":"4","last_reported":1737886115,"current_range_meters":14000,"station_id":"ce4bhp92rcd13ifvqhag","pricing_plan_id":"cebpf4jnsgd1na2vs0mg"},{"bike_id":"884f4337-debb-4f4e-9ffb-854d7bf11416","system_id":"levelo_inurba_marseille","lat":43.31738,"lon":5.38972,"is_reserved":false,"is_disabled":false,"rental_uris":{"android":"levelo://app?vid=884f4337-debb-4f4e-9ffb-854d7bf11416","ios":"levelo://app?vid=884f4337-debb-4f4e-9ffb-854d7bf11416"},"vehicle_type_id":"4","last_reported":1737886115,"current_range_meters":38400,"station_id":"ce4bhqp2rcd13ifvqhng","pricing_plan_id":"cebpf4jnsgd1na2vs0mg"},{"bike_id":"2f7b1522-13ef-4fcb-aa7b-f1186adb7d9c","system_id":"levelo_inurba_marseille","lat":43.30545,"lon":5.36721,"is_reserved":false,"is_disabled":false,"rental_uris":{"android":"levelo://app?vid=2f7b1522-13ef-4fcb-aa7b-f1186adb7d9c","ios":"levelo://app?vid=2f7b1522-13ef-4fcb-aa7b-f1186adb7d9c"},"vehicle_type_id":"4","last_reported":1737886115,"current_range_meters":38800,"station_id":"ce4bgrp2rcd13ifvqc9g","pricing_plan_id":"cebpf4jnsgd1na2vs0mg"},{"bike_id":"98d97eaf-4063-44c5-9fa5-8f80227cf654","system_id":"levelo_inurba_marseille","lat":43.29275,"lon":5.36845,"is_reserved":false,"is_disabled":false,"rental_uris":{"android":"levelo://app?vid=98d97eaf-4063-44c5-9fa5-8f80227cf654","ios":"levelo://app?vid=98d97eaf-4063-44c5-9fa5-8f80227cf654"},"vehicle_type_id":"4","last_reported":1737886115,"current_range_meters":35200,"station_id":"ce4bhbp2rcd13ifvqesg","pricing_plan_id":"cebpf4jnsgd1na2vs0mg"},{"bike_id":"f449d01f-cde9-4e06-8134-443d9b565a07","system_id":"levelo_inurba_marseille","lat":43.310664,"lon":5.383521,"is_reserved":false,"is_disabled":false,"rental_uris":{"android":"levelo://app?vid=f449d01f-cde9-4e06-8134-443d9b565a07","ios":"levelo://app?vid=f449d01f-cde9-4e06-8134-443d9b565a07"},"vehicle_type_id":"4","last_reported":1737886115,"current_range_meters":32000,"station_id":"ce4bgv92rcd13ifvqcr0","pricing_plan_id":"cebpf4jnsgd1na2vs0mg"},{"bike_id":"b96c22ba-a4c6-4ca8-b881-a2a2972e9bc2","system_id":"levelo_inurba_marseille","lat":43.26023,"lon":5.37557,"is_reserved":false,"is_disabled":true,"rental_uris":{"android":"levelo://app?vid=b96c22ba-a4c6-4ca8-b881-a2a2972e9bc2","ios":"levelo://app?vid=b96c22ba-a4c6-4ca8-b881-a2a2972e9bc2"},"vehicle_type_id":"4","last_reported":1737886115,"current_range_meters":32800,"station_id":"ce4bhgh2rcd13ifvqfa0","pricing_plan_id":"cebpf4jnsgd1na2vs0mg"},{"bike_id":"20aca4c6-a1fa-4610-9d81-997c3824a396","system_id":"levelo_inurba_marseille","lat":43.2695,"lon":5.38646,"is_reserved":false,"is_disabled":false,"rental_uris":{"android":"levelo://app?vid=20aca4c6-a1fa-4610-9d81-997c3824a396","ios":"levelo://app?vid=20aca4c6-a1fa-4610-9d81-997c3824a396"},"vehicle_type_id":"4","last_reported":1737886115,"current_range_meters":28400,"station_id":"ce4bhh92rcd13ifvqfh0","pricing_plan_id":"cebpf4jnsgd1na2vs0mg"},{"bike_id":"0e55f38d-d80f-4917-99ce-0f60f35c167b","system_id":"levelo_inurba_marseille","lat":43.26785,"lon":5.39417,"is_reserved":false,"is_disabled":false,"rental_uris":{"android":"levelo://app?vid=0e55f38d-d80f-4917-99ce-0f60f35c167b","ios":"levelo://app?vid=0e55f38d-d80f-4917-99ce-0f60f35c167b"},"vehicle_type_id":"4","last_reported":1737886115,"current_range_meters":35600,"station_id":"ce4bhh12rcd13ifvqfg0","pricing_plan_id":"cebpf4jnsgd1na2vs0mg"},{"bike_id":"b8605ace-012f-4c1d-9490-85865c28ea57","system_id":"levelo_inurba_marseille","lat":43.24656,"lon":5.38173,"is_reserved":false,"is_disabled":true,"rental_uris":{"android":"levelo://app?vid=b8605ace-012f-4c1d-9490-85865c28ea57","ios":"levelo://app?vid=b8605ace-012f-4c1d-9490-85865c28ea57"},"vehicle_type_id":"4","last_reported":1737886115,"current_range_meters":0,"station_id":"ce4bhih2rcd13ifvqfr0","pricing_plan_id":"cebpf4jnsgd1na2vs0mg"},{"bike_id":"dcb50635-0e5e-4da9-b4df-329e73a63f8f","system_id":"levelo_inurba_marseille","lat":43.24175,"lon":5.39742,"is_reserved":false,"is_disabled":false,"rental_uris":{"android":"levelo://app?vid=dcb50635-0e5e-4da9-b4df-329e73a63f8f","ios":"levelo://app?vid=dcb50635-0e5e-4da9-b4df-329e73a63f8f"},"vehicle_type_id":"4","last_reported":1737886115,"current_range_meters":28000,"station_id":"ce4bhn12rcd13ifvqgpg","pricing_plan_id":"cebpf4jnsgd1na2vs0mg"},{"bike_id":"1346ff93-9ddb-4093-aa5d-b6cb09dfef3c","system_id":"levelo_inurba_marseille","lat":43.28497,"lon":5.36796,"is_reserved":false,"is_disabled":true,"rental_uris":{"android":"levelo://app?vid=1346ff93-9ddb-4093-aa5d-b6cb09dfef3c","ios":"levelo://app?vid=1346ff93-9ddb-4093-aa5d-b6cb09dfef3c"},"vehicle_type_id":"4","last_reported":1737886115,"current_range_meters":0,"station_id":"","pricing_plan_id":"cebpf4jnsgd1na2vs0mg"},{"bike_id":"3266850a-5ee3-4db4-ad76-b3cc25a45b79","system_id":"levelo_inurba_marseille","lat":43.3265,"lon":5.41001,"is_reserved":false,"is_disabled":false,"rental_uris":{"android":"levelo://app?vid=3266850a-5ee3-4db4-ad76-b3cc25a45b79","ios":"levelo://app?vid=3266850a-5ee3-4db4-ad76-b3cc25a45b79"},"vehicle_type_id":"4","last_reported":1737886115,"current_range_meters":37600,"station_id":"ce4bhpp2rcd13ifvqhgg","pricing_plan_id":"cebpf4jnsgd1na2vs0mg"},{"bike_id":"61f48368-0924-4207-9b71-dc3cb5f9319e","system_id":"levelo_inurba_marseille","lat":43.28032,"lon":5.36955,"is_reserved":false,"is_disabled":false,"rental_uris":{"android":"levelo://app?vid=61f48368-0924-4207-9b71-dc3cb5f9319e","ios":"levelo://app?vid=61f48368-0924-4207-9b71-dc3cb5f9319e"},"vehicle_type_id":"4","last_reported":1737886115,"current_range_meters":38800,"station_id":"ce4bha12rcd13ifvqef0","pricing_plan_id":"cebpf4jnsgd1na2vs0mg"},{"bike_id":"cff6a491-5284-4b58-81b6-6f262d74c4a9","system_id":"levelo_inurba_marseille","lat":43.27803,"lon":5.40753,"is_reserved":false,"is_disabled":false,"rental_uris":{"android":"levelo://app?vid=cff6a491-5284-4b58-81b6-6f262d74c4a9","ios":"levelo://app?vid=cff6a491-5284-4b58-81b6-6f262d74c4a9"},"vehicle_type_id":"4","last_reported":1737886115,"current_range_meters":38800,"station_id":"ce4bhnh2rcd13ifvqgtg","pricing_plan_id":"cebpf4jnsgd1na2vs0mg"},{"bike_id":"c6f247f0-a037-460a-90f0-2b0c901e9375","system_id":"levelo_inurba_marseille","lat":43.32039,"lon":5.36832,"is_reserved":false,"is_disabled":false,"rental_uris":{"android":"levelo://app?vid=c6f247f0-a037-460a-90f0-2b0c901e9375","ios":"levelo://app?vid=c6f247f0-a037-460a-90f0-2b0c901e9375"},"vehicle_type_id":"4","last_reported":1737886115,"current_range_meters":28800,"station_id":"ce4bhrh2rcd13ifvqhug","pricing_plan_id":"cebpf4jnsgd1na2vs0mg"},{"bike_id":"5658bf19-5e40-4edf-ac7a-3999a5207afd","system_id":"levelo_inurba_marseille","lat":43.23174,"lon":5.35583,"is_reserved":false,"is_disabled":true,"rental_uris":{"android":"levelo://app?vid=5658bf19-5e40-4edf-ac7a-3999a5207afd","ios":"levelo://app?vid=5658bf19-5e40-4edf-ac7a-3999a5207afd"},"vehicle_type_id":"4","last_reported":1737886115,"current_range_meters":1200,"station_id":"ce4bhu92rcd13ifvqi70","pricing_plan_id":"cebpf4jnsgd1na2vs0mg"},{"bike_id":"ad4bfef8-bf5e-42e4-809d-e436e897f3fa","system_id":"levelo_inurba_marseille","lat":43.2896,"lon":5.36403,"is_reserved":false,"is_disabled":false,"rental_uris":{"android":"levelo://app?vid=ad4bfef8-bf5e-42e4-809d-e436e897f3fa","ios":"levelo://app?vid=ad4bfef8-bf5e-42e4-809d-e436e897f3fa"},"vehicle_type_id":"4","last_reported":1737886115,"current_range_meters":8400,"station_id":"ce4bhc92rcd13ifvqetg","pricing_plan_id":"cebpf4jnsgd1na2vs0mg"},{"bike_id":"35422ebd-a2cf-42b2-9801-6e7f91d03f6b","system_id":"levelo_inurba_marseille","lat":43.28435,"lon":5.35037,"is_reserved":false,"is_disabled":false,"rental_uris":{"android":"levelo://app?vid=35422ebd-a2cf-42b2-9801-6e7f91d03f6b","ios":"levelo://app?vid=35422ebd-a2cf-42b2-9801-6e7f91d03f6b"},"vehicle_type_id":"4","last_reported":1737886115,"current_range_meters":36800,"station_id":"ce4bhbh2rcd13ifvqepg","pricing_plan_id":"cebpf4jnsgd1na2vs0mg"},{"bike_id":"ce124f68-b35b-4c89-8108-0d8f6ca0eaaf","system_id":"levelo_inurba_marseille","lat":43.30147,"lon":5.38097,"is_reserved":false,"is_disabled":false,"rental_uris":{"android":"levelo://app?vid=ce124f68-b35b-4c89-8108-0d8f6ca0eaaf","ios":"levelo://app?vid=ce124f68-b35b-4c89-8108-0d8f6ca0eaaf"},"vehicle_type_id":"4","last_reported":1737886115,"current_range_meters":36800,"station_id":"ce4bgjp2rcd13ifvqbh0","pricing_plan_id":"cebpf4jnsgd1na2vs0mg"},{"bike_id":"66743e23-0594-4715-a08c-22434e1ddfd8","system_id":"levelo_inurba_marseille","lat":43.28008,"lon":5.41233,"is_reserved":false,"is_disabled":false,"rental_uris":{"android":"levelo://app?vid=66743e23-0594-4715-a08c-22434e1ddfd8","ios":"levelo://app?vid=66743e23-0594-4715-a08c-22434e1ddfd8"},"vehicle_type_id":"4","last_reported":1737886115,"current_range_meters":31200,"station_id":"","pricing_plan_id":"cebpf4jnsgd1na2vs0mg"},{"bike_id":"82268c69-bcd8-49fb-91ea-6277b4711aa7","system_id":"levelo_inurba_marseille","lat":43.255655,"lon":5.397874,"is_reserved":false,"is_disabled":false,"rental_uris":{"android":"levelo://app?vid=82268c69-bcd8-49fb-91ea-6277b4711aa7","ios":"levelo://app?vid=82268c69-bcd8-49fb-91ea-6277b4711aa7"},"vehicle_type_id":"4","last_reported":1737886115,"current_range_meters":30000,"station_id":"","pricing_plan_id":"cebpf4jnsgd1na2vs0mg"},{"bike_id":"fc79826f-43c1-4702-aafc-d1a3c6212402","system_id":"levelo_inurba_marseille","lat":43.25812,"lon":5.39427,"is_reserved":false,"is_disabled":false,"rental_uris":{"android":"levelo://app?vid=fc79826f-43c1-4702-aafc-d1a3c6212402","ios":"levelo://app?vid=fc79826f-43c1-4702-aafc-d1a3c6212402"},"vehicle_type_id":"4","last_reported":1737886115,"current_range_meters":39200,"station_id":"ce4bhip2rcd13ifvqft0","pricing_plan_id":"cebpf4jnsgd1na2vs0mg"},{"bike_id":"a2478b4a-01c1-497a-8dc8-5c0cc65dd3fd","system_id":"levelo_inurba_marseille","lat":43.30367,"lon":5.41875,"is_reserved":false,"is_disabled":false,"rental_uris":{"android":"levelo://app?vid=a2478b4a-01c1-497a-8dc8-5c0cc65dd3fd","ios":"levelo://app?vid=a2478b4a-01c1-497a-8dc8-5c0cc65dd3fd"},"vehicle_type_id":"4","last_reported":1737886115,"current_range_meters":38400,"station_id":"ce4bhop2rcd13ifvqh7g","pricing_plan_id":"cebpf4jnsgd1na2vs0mg"},{"bike_id":"f20dfb94-70c9-4a70-b5fa-7b18d7c03b69","system_id":"levelo_inurba_marseille","lat":43.26557,"lon":5.37284,"is_reserved":false,"is_disabled":false,"rental_uris":{"android":"levelo://app?vid=f20dfb94-70c9-4a70-b5fa-7b18d7c03b69","ios":"levelo://app?vid=f20dfb94-70c9-4a70-b5fa-7b18d7c03b69"},"vehicle_type_id":"4","last_reported":1737886115,"current_range_meters":28800,"station_id":"ce4bhg12rcd13ifvqf70","pricing_plan_id":"cebpf4jnsgd1na2vs0mg"},{"bike_id":"79bc66a4-aeed-4eda-a560-099c58d7dbf9","system_id":"levelo_inurba_marseille","lat":43.31487,"lon":5.37303,"is_reserved":false,"is_disabled":true,"rental_uris":{"android":"levelo://app?vid=79bc66a4-aeed-4eda-a560-099c58d7dbf9","ios":"levelo://app?vid=79bc66a4-aeed-4eda-a560-099c58d7dbf9"},"vehicle_type_id":"4","last_reported":1737886115,"current_range_meters":16400,"station_id":"ce4bgt12rcd13ifvqcd0","pricing_plan_id":"cebpf4jnsgd1na2vs0mg"},{"bike_id":"612cdb80-e2cc-4b64-a057-2821874f17be","system_id":"levelo_inurba_marseille","lat":43.32341,"lon":5.40617,"is_reserved":false,"is_disabled":false,"rental_uris":{"android":"levelo://app?vid=612cdb80-e2cc-4b64-a057-2821874f17be","ios":"levelo://app?vid=612cdb80-e2cc-4b64-a057-2821874f17be"},"vehicle_type_id":"4","last_reported":1737886115,"current_range_meters":38800,"station_id":"ce4bhq92rcd13ifvqhjg","pricing_plan_id":"cebpf4jnsgd1na2vs0mg"},{"bike_id":"14549f3c-9b93-4dce-b64e-10da7e275aeb","system_id":"levelo_inurba_marseille","lat":43.31501,"lon":5.37504,"is_reserved":false,"is_disabled":false,"rental_uris":{"android":"levelo://app?vid=14549f3c-9b93-4dce-b64e-10da7e275aeb","ios":"levelo://app?vid=14549f3c-9b93-4dce-b64e-10da7e275aeb"},"vehicle_type_id":"4","last_reported":1737886115,"current_range_meters":33200,"station_id":"","pricing_plan_id":"cebpf4jnsgd1na2vs0mg"},{"bike_id":"e84ea28d-d6c1-4a23-bfa5-fecf89bc2a9f","system_id":"levelo_inurba_marseille","lat":43.324811,"lon":5.365625,"is_reserved":false,"is_disabled":false,"rental_uris":{"android":"levelo://app?vid=e84ea28d-d6c1-4a23-bfa5-fecf89bc2a9f","ios":"levelo://app?vid=e84ea28d-d6c1-4a23-bfa5-fecf89bc2a9f"},"vehicle_type_id":"4","last_reported":1737886115,"current_range_meters":31200,"station_id":"ce4bhs12rcd13ifvqhvg","pricing_plan_id":"cebpf4jnsgd1na2vs0mg"},{"bike_id":"0b674fd5-64a5-4f5d-8528-bf11362983f2","system_id":"levelo_inurba_marseille","lat":43.31274,"lon":5.40169,"is_reserved":false,"is_disabled":false,"rental_uris":{"android":"levelo://app?vid=0b674fd5-64a5-4f5d-8528-bf11362983f2","ios":"levelo://app?vid=0b674fd5-64a5-4f5d-8528-bf11362983f2"},"vehicle_type_id":"4","last_reported":1737886115,"current_range_meters":38800,"station_id":"ce4bh092rcd13ifvqd30","pricing_plan_id":"cebpf4jnsgd1na2vs0mg"},{"bike_id":"57823e25-308b-4f11-a2b6-a7f52902c1c5","system_id":"levelo_inurba_marseille","lat":43.30796,"lon":5.38156,"is_reserved":false,"is_disabled":true,"rental_uris":{"android":"levelo://app?vid=57823e25-308b-4f11-a2b6-a7f52902c1c5","ios":"levelo://app?vid=57823e25-308b-4f11-a2b6-a7f52902c1c5"},"vehicle_type_id":"4","last_reported":1737886115,"current_range_meters":22400,"station_id":"ce4bgt12rcd13ifvqce0","pricing_plan_id":"cebpf4jnsgd1na2vs0mg"},{"bike_id":"ff68af14-5554-4f8d-a3de-4549d987f602","system_id":"levelo_inurba_marseille","lat":43.29907,"lon":5.43643,"is_reserved":false,"is_disabled":false,"rental_uris":{"android":"levelo://app?vid=ff68af14-5554-4f8d-a3de-4549d987f602","ios":"levelo://app?vid=ff68af14-5554-4f8d-a3de-4549d987f602"},"vehicle_type_id":"4","last_reported":1737886115,"current_range_meters":8800,"station_id":"ce4bhpp2rcd13ifvqhfg","pricing_plan_id":"cebpf4jnsgd1na2vs0mg"},{"bike_id":"06d30e2d-22f9-480d-ba83-2cb91870ed00","system_id":"levelo_inurba_marseille","lat":43.27191,"lon":5.4099,"is_reserved":false,"is_disabled":false,"rental_uris":{"android":"levelo://app?vid=06d30e2d-22f9-480d-ba83-2cb91870ed00","ios":"levelo://app?vid=06d30e2d-22f9-480d-ba83-2cb91870ed00"},"vehicle_type_id":"4","last_reported":1737886115,"current_range_meters":38800,"station_id":"ce4bhl12rcd13ifvqgf0","pricing_plan_id":"cebpf4jnsgd1na2vs0mg"},{"bike_id":"787fabc3-eb91-469a-81b6-44a6fdcc4a9b","system_id":"levelo_inurba_marseille","lat":43.23056,"lon":5.35499,"is_reserved":false,"is_disabled":false,"rental_uris":{"android":"levelo://app?vid=787fabc3-eb91-469a-81b6-44a6fdcc4a9b","ios":"levelo://app?vid=787fabc3-eb91-469a-81b6-44a6fdcc4a9b"},"vehicle_type_id":"4","last_reported":1737886115,"current_range_meters":37600,"station_id":"cpo3342slgdg3j2ifvpg","pricing_plan_id":"cebpf4jnsgd1na2vs0mg"},{"bike_id":"e78c1169-47c8-4567-972b-d01ea79ea5f0","system_id":"levelo_inurba_marseille","lat":43.32472,"lon":5.36604,"is_reserved":false,"is_disabled":false,"rental_uris":{"android":"levelo://app?vid=e78c1169-47c8-4567-972b-d01ea79ea5f0","ios":"levelo://app?vid=e78c1169-47c8-4567-972b-d01ea79ea5f0"},"vehicle_type_id":"4","last_reported":1737886115,"current_range_meters":14000,"station_id":"ce4bhs12rcd13ifvqhvg","pricing_plan_id":"cebpf4jnsgd1na2vs0mg"},{"bike_id":"1e328aaf-06e5-4767-a395-a9b21576497f","system_id":"levelo_inurba_marseille","lat":43.297604,"lon":5.370942,"is_reserved":false,"is_disabled":true,"rental_uris":{"android":"levelo://app?vid=1e328aaf-06e5-4767-a395-a9b21576497f","ios":"levelo://app?vid=1e328aaf-06e5-4767-a395-a9b21576497f"},"vehicle_type_id":"4","last_reported":1737886115,"current_range_meters":18800,"station_id":"ce4bgop2rcd13ifvqc1g","pricing_plan_id":"cebpf4jnsgd1na2vs0mg"},{"bike_id":"0d3d372f-af99-4896-b902-8e06a6c302f8","system_id":"levelo_inurba_marseille","lat":43.27376,"lon":5.36256,"is_reserved":false,"is_disabled":false,"rental_uris":{"android":"levelo://app?vid=0d3d372f-af99-4896-b902-8e06a6c302f8","ios":"levelo://app?vid=0d3d372f-af99-4896-b902-8e06a6c302f8"},"vehicle_type_id":"4","last_reported":1737886115,"current_range_meters":36000,"station_id":"ce4bhbh2rcd13ifvqeo0","pricing_plan_id":"cebpf4jnsgd1na2vs0mg"},{"bike_id":"7facede7-71a3-4129-a1f3-f8692190d63d","system_id":"levelo_inurba_marseille","lat":43.32478,"lon":5.36567,"is_reserved":false,"is_disabled":false,"rental_uris":{"android":"levelo://app?vid=7facede7-71a3-4129-a1f3-f8692190d63d","ios":"levelo://app?vid=7facede7-71a3-4129-a1f3-f8692190d63d"},"vehicle_type_id":"4","last_reported":1737886115,"current_range_meters":19600,"station_id":"ce4bhs12rcd13ifvqhvg","pricing_plan_id":"cebpf4jnsgd1na2vs0mg"},{"bike_id":"2a25d114-ced0-4f1e-9aef-a265fa08f1df","system_id":"levelo_inurba_marseille","lat":43.28695,"lon":5.37386,"is_reserved":false,"is_disabled":false,"rental_uris":{"android":"levelo://app?vid=2a25d114-ced0-4f1e-9aef-a265fa08f1df","ios":"levelo://app?vid=2a25d114-ced0-4f1e-9aef-a265fa08f1df"},"vehicle_type_id":"4","last_reported":1737886115,"current_range_meters":27600,"station_id":"ce4bh3p2rcd13ifvqdq0","pricing_plan_id":"cebpf4jnsgd1na2vs0mg"},{"bike_id":"0acc5ab2-0ef8-4105-8560-e701b09ddcd3","system_id":"levelo_inurba_marseille","lat":43.262,"lon":5.3793,"is_reserved":false,"is_disabled":false,"rental_uris":{"android":"levelo://app?vid=0acc5ab2-0ef8-4105-8560-e701b09ddcd3","ios":"levelo://app?vid=0acc5ab2-0ef8-4105-8560-e701b09ddcd3"},"vehicle_type_id":"4","last_reported":1737886115,"current_range_meters":29600,"station_id":"ce4bhjp2rcd13ifvqg90","pricing_plan_id":"cebpf4jnsgd1na2vs0mg"},{"bike_id":"9a7b4e18-b0a0-415c-a233-9fda71a32643","system_id":"levelo_inurba_marseille","lat":43.24388,"lon":5.37064,"is_reserved":false,"is_disabled":false,"rental_uris":{"android":"levelo://app?vid=9a7b4e18-b0a0-415c-a233-9fda71a32643","ios":"levelo://app?vid=9a7b4e18-b0a0-415c-a233-9fda71a32643"},"vehicle_type_id":"4","last_reported":1737886115,"current_range_meters":36400,"station_id":"ce4bhhh2rcd13ifvqfk0","pricing_plan_id":"cebpf4jnsgd1na2vs0mg"},{"bike_id":"c21eb7ac-68a8-4033-a9df-74309ce745a5","system_id":"levelo_inurba_marseille","lat":43.3025,"lon":5.40073,"is_reserved":false,"is_disabled":false,"rental_uris":{"android":"levelo://app?vid=c21eb7ac-68a8-4033-a9df-74309ce745a5","ios":"levelo://app?vid=c21eb7ac-68a8-4033-a9df-74309ce745a5"},"vehicle_type_id":"4","last_reported":1737886115,"current_range_meters":17200,"station_id":"ce4bgvh2rcd13ifvqcs0","pricing_plan_id":"cebpf4jnsgd1na2vs0mg"},{"bike_id":"efe51ebc-f13a-4840-9e3f-9cb391d372cd","system_id":"levelo_inurba_marseille","lat":43.31168,"lon":5.38728,"is_reserved":false,"is_disabled":false,"rental_uris":{"android":"levelo://app?vid=efe51ebc-f13a-4840-9e3f-9cb391d372cd","ios":"levelo://app?vid=efe51ebc-f13a-4840-9e3f-9cb391d372cd"},"vehicle_type_id":"4","last_reported":1737886115,"current_range_meters":6800,"station_id":"ce4bgv12rcd13ifvqcp0","pricing_plan_id":"cebpf4jnsgd1na2vs0mg"},{"bike_id":"a7fcc53e-6f14-41c5-8b6d-25ab86bedc5f","system_id":"levelo_inurba_marseille","lat":43.29022,"lon":5.38631,"is_reserved":false,"is_disabled":true,"rental_uris":{"android":"levelo://app?vid=a7fcc53e-6f14-41c5-8b6d-25ab86bedc5f","ios":"levelo://app?vid=a7fcc53e-6f14-41c5-8b6d-25ab86bedc5f"},"vehicle_type_id":"4","last_reported":1737886115,"current_range_meters":32000,"station_id":"ce4bh4p2rcd13ifvqe0g","pricing_plan_id":"cebpf4jnsgd1na2vs0mg"},{"bike_id":"03cfeb2a-ce31-483a-be69-826132ecd719","system_id":"levelo_inurba_marseille","lat":43.25821,"lon":5.39443,"is_reserved":false,"is_disabled":false,"rental_uris":{"android":"levelo://app?vid=03cfeb2a-ce31-483a-be69-826132ecd719","ios":"levelo://app?vid=03cfeb2a-ce31-483a-be69-826132ecd719"},"vehicle_type_id":"4","last_reported":1737886115,"current_range_meters":31200,"station_id":"ce4bhip2rcd13ifvqft0","pricing_plan_id":"cebpf4jnsgd1na2vs0mg"},{"bike_id":"035327b0-1051-463a-856f-659dfccf59a0","system_id":"levelo_inurba_marseille","lat":43.30452,"lon":5.37912,"is_reserved":false,"is_disabled":false,"rental_uris":{"android":"levelo://app?vid=035327b0-1051-463a-856f-659dfccf59a0","ios":"levelo://app?vid=035327b0-1051-463a-856f-659dfccf59a0"},"vehicle_type_id":"4","last_reported":1737886115,"current_range_meters":23200,"station_id":"ce4bgup2rcd13ifvqcn0","pricing_plan_id":"cebpf4jnsgd1na2vs0mg"},{"bike_id":"ba4fdef2-9c8e-45c1-910e-765cec798b8a","system_id":"levelo_inurba_marseille","lat":43.28033,"lon":5.36952,"is_reserved":false,"is_disabled":false,"rental_uris":{"android":"levelo://app?vid=ba4fdef2-9c8e-45c1-910e-765cec798b8a","ios":"levelo://app?vid=ba4fdef2-9c8e-45c1-910e-765cec798b8a"},"vehicle_type_id":"4","last_reported":1737886115,"current_range_meters":38000,"station_id":"ce4bha12rcd13ifvqef0","pricing_plan_id":"cebpf4jnsgd1na2vs0mg"},{"bike_id":"ddb786e2-a3d5-453e-b220-3ff72979cffa","system_id":"levelo_inurba_marseille","lat":43.29813,"lon":5.40406,"is_reserved":false,"is_disabled":false,"rental_uris":{"android":"levelo://app?vid=ddb786e2-a3d5-453e-b220-3ff72979cffa","ios":"levelo://app?vid=ddb786e2-a3d5-453e-b220-3ff72979cffa"},"vehicle_type_id":"4","last_reported":1737886115,"current_range_meters":38800,"station_id":"ce4bh112rcd13ifvqd90","pricing_plan_id":"cebpf4jnsgd1na2vs0mg"},{"bike_id":"e4b89815-f3d7-4d26-a380-9ca88709db83","system_id":"levelo_inurba_marseille","lat":43.2847,"lon":5.38425,"is_reserved":false,"is_disabled":true,"rental_uris":{"android":"levelo://app?vid=e4b89815-f3d7-4d26-a380-9ca88709db83","ios":"levelo://app?vid=e4b89815-f3d7-4d26-a380-9ca88709db83"},"vehicle_type_id":"4","last_reported":1737886115,"current_range_meters":0,"station_id":"ce4bh512rcd13ifvqe3g","pricing_plan_id":"cebpf4jnsgd1na2vs0mg"},{"bike_id":"b216d2b8-1056-415d-b47a-14b35e174f87","system_id":"levelo_inurba_marseille","lat":43.26844,"lon":5.40231,"is_reserved":false,"is_disabled":false,"rental_uris":{"android":"levelo://app?vid=b216d2b8-1056-415d-b47a-14b35e174f87","ios":"levelo://app?vid=b216d2b8-1056-415d-b47a-14b35e174f87"},"vehicle_type_id":"4","last_reported":1737886115,"current_range_meters":18800,"station_id":"","pricing_plan_id":"cebpf4jnsgd1na2vs0mg"},{"bike_id":"03deefff-87ac-4b19-8932-093032a2512e","system_id":"levelo_inurba_marseille","lat":43.32283,"lon":5.38257,"is_reserved":false,"is_disabled":false,"rental_uris":{"android":"levelo://app?vid=03deefff-87ac-4b19-8932-093032a2512e","ios":"levelo://app?vid=03deefff-87ac-4b19-8932-093032a2512e"},"vehicle_type_id":"4","last_reported":1737886115,"current_range_meters":30400,"station_id":"ce4bhr12rcd13ifvqhqg","pricing_plan_id":"cebpf4jnsgd1na2vs0mg"},{"bike_id":"1461eb36-50d6-43e8-bc57-68a0d32cd59c","system_id":"levelo_inurba_marseille","lat":43.3046,"lon":5.37925,"is_reserved":false,"is_disabled":false,"rental_uris":{"android":"levelo://app?vid=1461eb36-50d6-43e8-bc57-68a0d32cd59c","ios":"levelo://app?vid=1461eb36-50d6-43e8-bc57-68a0d32cd59c"},"vehicle_type_id":"4","last_reported":1737886115,"current_range_meters":22400,"station_id":"ce4bgup2rcd13ifvqcn0","pricing_plan_id":"cebpf4jnsgd1na2vs0mg"},{"bike_id":"06db7b38-d368-4168-a3af-68cb37ab41ea","system_id":"levelo_inurba_marseille","lat":43.31695,"lon":5.40454,"is_reserved":false,"is_disabled":false,"rental_uris":{"android":"levelo://app?vid=06db7b38-d368-4168-a3af-68cb37ab41ea","ios":"levelo://app?vid=06db7b38-d368-4168-a3af-68cb37ab41ea"},"vehicle_type_id":"4","last_reported":1737886115,"current_range_meters":38800,"station_id":"ce4bh012rcd13ifvqd00","pricing_plan_id":"cebpf4jnsgd1na2vs0mg"},{"bike_id":"02897972-5b3d-40a3-afd5-6f0834b56dd3","system_id":"levelo_inurba_marseille","lat":43.27069,"lon":5.42281,"is_reserved":false,"is_disabled":false,"rental_uris":{"android":"levelo://app?vid=02897972-5b3d-40a3-afd5-6f0834b56dd3","ios":"levelo://app?vid=02897972-5b3d-40a3-afd5-6f0834b56dd3"},"vehicle_type_id":"4","last_reported":1737886115,"current_range_meters":14800,"station_id":"ce4bhk92rcd13ifvqgb0","pricing_plan_id":"cebpf4jnsgd1na2vs0mg"},{"bike_id":"1e270496-6fac-41a1-bd27-7195eb51b61a","system_id":"levelo_inurba_marseille","lat":43.32657,"lon":5.40995,"is_reserved":false,"is_disabled":false,"rental_uris":{"android":"levelo://app?vid=1e270496-6fac-41a1-bd27-7195eb51b61a","ios":"levelo://app?vid=1e270496-6fac-41a1-bd27-7195eb51b61a"},"vehicle_type_id":"4","last_reported":1737886115,"current_range_meters":38800,"station_id":"ce4bhpp2rcd13ifvqhgg","pricing_plan_id":"cebpf4jnsgd1na2vs0mg"},{"bike_id":"3933e0a0-5351-4fbe-b321-53774862e3a6","system_id":"levelo_inurba_marseille","lat":43.30138,"lon":5.38106,"is_reserved":false,"is_disabled":false,"rental_uris":{"android":"levelo://app?vid=3933e0a0-5351-4fbe-b321-53774862e3a6","ios":"levelo://app?vid=3933e0a0-5351-4fbe-b321-53774862e3a6"},"vehicle_type_id":"4","last_reported":1737886115,"current_range_meters":27200,"station_id":"ce4bgjp2rcd13ifvqbh0","pricing_plan_id":"cebpf4jnsgd1na2vs0mg"},{"bike_id":"e7965682-cb07-492d-a8dc-957cdc5a4b6e","system_id":"levelo_inurba_marseille","lat":43.29965,"lon":5.38495,"is_reserved":false,"is_disabled":true,"rental_uris":{"android":"levelo://app?vid=e7965682-cb07-492d-a8dc-957cdc5a4b6e","ios":"levelo://app?vid=e7965682-cb07-492d-a8dc-957cdc5a4b6e"},"vehicle_type_id":"4","last_reported":1737886115,"current_range_meters":8800,"station_id":"ce4bgj92rcd13ifvqbd0","pricing_plan_id":"cebpf4jnsgd1na2vs0mg"},{"bike_id":"6a9e34c1-9f2c-44ed-af34-4f040d9ae6f3","system_id":"levelo_inurba_marseille","lat":43.29558,"lon":5.42283,"is_reserved":false,"is_disabled":false,"rental_uris":{"android":"levelo://app?vid=6a9e34c1-9f2c-44ed-af34-4f040d9ae6f3","ios":"levelo://app?vid=6a9e34c1-9f2c-44ed-af34-4f040d9ae6f3"},"vehicle_type_id":"4","last_reported":1737886115,"current_range_meters":18800,"station_id":"ce4bhph2rcd13ifvqhdg","pricing_plan_id":"cebpf4jnsgd1na2vs0mg"},{"bike_id":"06c3e76e-c1e9-4491-a816-69dfa242b750","system_id":"levelo_inurba_marseille","lat":43.29948,"lon":5.4134,"is_reserved":false,"is_disabled":false,"rental_uris":{"android":"levelo://app?vid=06c3e76e-c1e9-4491-a816-69dfa242b750","ios":"levelo://app?vid=06c3e76e-c1e9-4491-a816-69dfa242b750"},"vehicle_type_id":"4","last_reported":1737886115,"current_range_meters":38800,"station_id":"ce4bhp12rcd13ifvqh9g","pricing_plan_id":"cebpf4jnsgd1na2vs0mg"},{"bike_id":"e7b63a5d-2827-4f63-83cd-321e7b17d5d6","system_id":"levelo_inurba_marseille","lat":43.31335,"lon":5.38534,"is_reserved":false,"is_disabled":false,"rental_uris":{"android":"levelo://app?vid=e7b63a5d-2827-4f63-83cd-321e7b17d5d6","ios":"levelo://app?vid=e7b63a5d-2827-4f63-83cd-321e7b17d5d6"},"vehicle_type_id":"4","last_reported":1737886115,"current_range_meters":35200,"station_id":"ce4bgt92rcd13ifvqcf0","pricing_plan_id":"cebpf4jnsgd1na2vs0mg"},{"bike_id":"26d3de6a-b7db-4cd7-885c-9cb71bb28aa5","system_id":"levelo_inurba_marseille","lat":43.27366,"lon":5.36258,"is_reserved":false,"is_disabled":false,"rental_uris":{"android":"levelo://app?vid=26d3de6a-b7db-4cd7-885c-9cb71bb28aa5","ios":"levelo://app?vid=26d3de6a-b7db-4cd7-885c-9cb71bb28aa5"},"vehicle_type_id":"4","last_reported":1737886115,"current_range_meters":36800,"station_id":"ce4bhbh2rcd13ifvqeo0","pricing_plan_id":"cebpf4jnsgd1na2vs0mg"},{"bike_id":"07162cf2-9520-4954-8d12-669f863694e1","system_id":"levelo_inurba_marseille","lat":43.25576,"lon":5.38241,"is_reserved":false,"is_disabled":false,"rental_uris":{"android":"levelo://app?vid=07162cf2-9520-4954-8d12-669f863694e1","ios":"levelo://app?vid=07162cf2-9520-4954-8d12-669f863694e1"},"vehicle_type_id":"4","last_reported":1737886115,"current_range_meters":32000,"station_id":"ce4bhih2rcd13ifvqfs0","pricing_plan_id":"cebpf4jnsgd1na2vs0mg"},{"bike_id":"7c78a755-c7f5-4f07-a96b-621451d47948","system_id":"levelo_inurba_marseille","lat":43.29901,"lon":5.43672,"is_reserved":false,"is_disabled":false,"rental_uris":{"android":"levelo://app?vid=7c78a755-c7f5-4f07-a96b-621451d47948","ios":"levelo://app?vid=7c78a755-c7f5-4f07-a96b-621451d47948"},"vehicle_type_id":"4","last_reported":1737886115,"current_range_meters":32000,"station_id":"ce4bhpp2rcd13ifvqhfg","pricing_plan_id":"cebpf4jnsgd1na2vs0mg"},{"bike_id":"0272ba76-6ca2-48a1-97dc-d2ada6643830","system_id":"levelo_inurba_marseille","lat":43.30133,"lon":5.37426,"is_reserved":false,"is_disabled":false,"rental_uris":{"android":"levelo://app?vid=0272ba76-6ca2-48a1-97dc-d2ada6643830","ios":"levelo://app?vid=0272ba76-6ca2-48a1-97dc-d2ada6643830"},"vehicle_type_id":"4","last_reported":1737886115,"current_range_meters":38800,"station_id":"ce4bgs92rcd13ifvqcc0","pricing_plan_id":"cebpf4jnsgd1na2vs0mg"},{"bike_id":"57ad42fa-33f6-4179-8625-f01851334107","system_id":"levelo_inurba_marseille","lat":43.27944,"lon":5.41048,"is_reserved":false,"is_disabled":false,"rental_uris":{"android":"levelo://app?vid=57ad42fa-33f6-4179-8625-f01851334107","ios":"levelo://app?vid=57ad42fa-33f6-4179-8625-f01851334107"},"vehicle_type_id":"4","last_reported":1737886115,"current_range_meters":32000,"station_id":"ce4bhnp2rcd13ifvqh0g","pricing_plan_id":"cebpf4jnsgd1na2vs0mg"},{"bike_id":"411db94d-2a28-4940-91b6-7af39e445c36","system_id":"levelo_inurba_marseille","lat":43.27315,"lon":5.39074,"is_reserved":false,"is_disabled":false,"rental_uris":{"android":"levelo://app?vid=411db94d-2a28-4940-91b6-7af39e445c36","ios":"levelo://app?vid=411db94d-2a28-4940-91b6-7af39e445c36"},"vehicle_type_id":"4","last_reported":1737886115,"current_range_meters":4000,"station_id":"ce4bhgp2rcd13ifvqfe0","pricing_plan_id":"cebpf4jnsgd1na2vs0mg"},{"bike_id":"e4f34db4-be4b-445b-91b7-c3d5ebc6530c","system_id":"levelo_inurba_marseille","lat":43.31278,"lon":5.40164,"is_reserved":false,"is_disabled":false,"rental_uris":{"android":"levelo://app?vid=e4f34db4-be4b-445b-91b7-c3d5ebc6530c","ios":"levelo://app?vid=e4f34db4-be4b-445b-91b7-c3d5ebc6530c"},"vehicle_type_id":"4","last_reported":1737886115,"current_range_meters":38800,"station_id":"ce4bh092rcd13ifvqd30","pricing_plan_id":"cebpf4jnsgd1na2vs0mg"},{"bike_id":"4a09c4f3-d9c4-40c7-8011-9d24bc2ef389","system_id":"levelo_inurba_marseille","lat":43.23951,"lon":5.36655,"is_reserved":false,"is_disabled":false,"rental_uris":{"android":"levelo://app?vid=4a09c4f3-d9c4-40c7-8011-9d24bc2ef389","ios":"levelo://app?vid=4a09c4f3-d9c4-40c7-8011-9d24bc2ef389"},"vehicle_type_id":"4","last_reported":1737886115,"current_range_meters":25200,"station_id":"ce4bhi12rcd13ifvqfp0","pricing_plan_id":"cebpf4jnsgd1na2vs0mg"},{"bike_id":"a48a4fa8-387b-4ecc-bc7a-c3f07822bf47","system_id":"levelo_inurba_marseille","lat":43.27065,"lon":5.3922,"is_reserved":false,"is_disabled":true,"rental_uris":{"android":"levelo://app?vid=a48a4fa8-387b-4ecc-bc7a-c3f07822bf47","ios":"levelo://app?vid=a48a4fa8-387b-4ecc-bc7a-c3f07822bf47"},"vehicle_type_id":"4","last_reported":1737886115,"current_range_meters":0,"station_id":"","pricing_plan_id":"cebpf4jnsgd1na2vs0mg"},{"bike_id":"fd38b4b0-f42b-4d68-b90d-cf0284d0f76e","system_id":"levelo_inurba_marseille","lat":43.240762,"lon":5.377533,"is_reserved":false,"is_disabled":false,"rental_uris":{"android":"levelo://app?vid=fd38b4b0-f42b-4d68-b90d-cf0284d0f76e","ios":"levelo://app?vid=fd38b4b0-f42b-4d68-b90d-cf0284d0f76e"},"vehicle_type_id":"4","last_reported":1737886115,"current_range_meters":7200,"station_id":"ce4bhnp2rcd13ifvqgvg","pricing_plan_id":"cebpf4jnsgd1na2vs0mg"},{"bike_id":"6173c577-2f12-488f-868f-2d9a9e7d8962","system_id":"levelo_inurba_marseille","lat":43.28603,"lon":5.35125,"is_reserved":false,"is_disabled":false,"rental_uris":{"android":"levelo://app?vid=6173c577-2f12-488f-868f-2d9a9e7d8962","ios":"levelo://app?vid=6173c577-2f12-488f-868f-2d9a9e7d8962"},"vehicle_type_id":"4","last_reported":1737886115,"current_range_meters":30400,"station_id":"ce4bhch2rcd13ifvqeug","pricing_plan_id":"cebpf4jnsgd1na2vs0mg"},{"bike_id":"c50406bb-7e91-45b8-907e-ea15e34e94d4","system_id":"levelo_inurba_marseille","lat":43.30884,"lon":5.37222,"is_reserved":false,"is_disabled":false,"rental_uris":{"android":"levelo://app?vid=c50406bb-7e91-45b8-907e-ea15e34e94d4","ios":"levelo://app?vid=c50406bb-7e91-45b8-907e-ea15e34e94d4"},"vehicle_type_id":"4","last_reported":1737886115,"current_range_meters":17600,"station_id":"ce4bguh2rcd13ifvqckg","pricing_plan_id":"cebpf4jnsgd1na2vs0mg"},{"bike_id":"8fd0082a-8558-471d-bd5c-8f2bb03de120","system_id":"levelo_inurba_marseille","lat":43.28728,"lon":5.39981,"is_reserved":false,"is_disabled":true,"rental_uris":{"android":"levelo://app?vid=8fd0082a-8558-471d-bd5c-8f2bb03de120","ios":"levelo://app?vid=8fd0082a-8558-471d-bd5c-8f2bb03de120"},"vehicle_type_id":"4","last_reported":1737886115,"current_range_meters":27600,"station_id":"ce4bho92rcd13ifvqh3g","pricing_plan_id":"cebpf4jnsgd1na2vs0mg"},{"bike_id":"d366cae2-82ff-4e64-9fca-0a14d02521b6","system_id":"levelo_inurba_marseille","lat":43.31081,"lon":5.38288,"is_reserved":false,"is_disabled":false,"rental_uris":{"android":"levelo://app?vid=d366cae2-82ff-4e64-9fca-0a14d02521b6","ios":"levelo://app?vid=d366cae2-82ff-4e64-9fca-0a14d02521b6"},"vehicle_type_id":"4","last_reported":1737886115,"current_range_meters":38000,"station_id":"","pricing_plan_id":"cebpf4jnsgd1na2vs0mg"},{"bike_id":"27e61c09-0d99-483a-a167-b2451412d35e","system_id":"levelo_inurba_marseille","lat":43.27311,"lon":5.3912,"is_reserved":false,"is_disabled":false,"rental_uris":{"android":"levelo://app?vid=27e61c09-0d99-483a-a167-b2451412d35e","ios":"levelo://app?vid=27e61c09-0d99-483a-a167-b2451412d35e"},"vehicle_type_id":"4","last_reported":1737886115,"current_range_meters":32400,"station_id":"ce4bhgp2rcd13ifvqfe0","pricing_plan_id":"cebpf4jnsgd1na2vs0mg"},{"bike_id":"9c09af66-30f1-488d-910d-a8a905d02871","system_id":"levelo_inurba_marseille","lat":43.29402,"lon":5.37916,"is_reserved":false,"is_disabled":true,"rental_uris":{"android":"levelo://app?vid=9c09af66-30f1-488d-910d-a8a905d02871","ios":"levelo://app?vid=9c09af66-30f1-488d-910d-a8a905d02871"},"vehicle_type_id":"4","last_reported":1737886115,"current_range_meters":0,"station_id":"","pricing_plan_id":"cebpf4jnsgd1na2vs0mg"},{"bike_id":"5b053e1b-1b69-409a-9473-271354b961a5","system_id":"levelo_inurba_marseille","lat":43.27421,"lon":5.39418,"is_reserved":false,"is_disabled":false,"rental_uris":{"android":"levelo://app?vid=5b053e1b-1b69-409a-9473-271354b961a5","ios":"levelo://app?vid=5b053e1b-1b69-409a-9473-271354b961a5"},"vehicle_type_id":"4","last_reported":1737886115,"current_range_meters":26800,"station_id":"ce4bhdp2rcd13ifvqf20","pricing_plan_id":"cebpf4jnsgd1na2vs0mg"},{"bike_id":"b996c87f-d903-42b5-80db-0cef1eda72fd","system_id":"levelo_inurba_marseille","lat":43.23061,"lon":5.35521,"is_reserved":false,"is_disabled":false,"rental_uris":{"android":"levelo://app?vid=b996c87f-d903-42b5-80db-0cef1eda72fd","ios":"levelo://app?vid=b996c87f-d903-42b5-80db-0cef1eda72fd"},"vehicle_type_id":"4","last_reported":1737886115,"current_range_meters":6400,"station_id":"cpo3342slgdg3j2ifvpg","pricing_plan_id":"cebpf4jnsgd1na2vs0mg"},{"bike_id":"fdfb41bd-61c7-48ed-91a4-1ae8fd7fa7e7","system_id":"levelo_inurba_marseille","lat":43.29553,"lon":5.42284,"is_reserved":false,"is_disabled":false,"rental_uris":{"android":"levelo://app?vid=fdfb41bd-61c7-48ed-91a4-1ae8fd7fa7e7","ios":"levelo://app?vid=fdfb41bd-61c7-48ed-91a4-1ae8fd7fa7e7"},"vehicle_type_id":"4","last_reported":1737886115,"current_range_meters":32000,"station_id":"ce4bhph2rcd13ifvqhdg","pricing_plan_id":"cebpf4jnsgd1na2vs0mg"},{"bike_id":"c438c788-2c8f-4eda-8233-a8485c23c4af","system_id":"levelo_inurba_marseille","lat":43.30417,"lon":5.41285,"is_reserved":false,"is_disabled":true,"rental_uris":{"android":"levelo://app?vid=c438c788-2c8f-4eda-8233-a8485c23c4af","ios":"levelo://app?vid=c438c788-2c8f-4eda-8233-a8485c23c4af"},"vehicle_type_id":"4","last_reported":1737886115,"current_range_meters":0,"station_id":"ce4bhop2rcd13ifvqh8g","pricing_plan_id":"cebpf4jnsgd1na2vs0mg"},{"bike_id":"9353a8c9-0fb0-4e94-853c-ea392ad3a4d6","system_id":"levelo_inurba_marseille","lat":43.33016,"lon":5.3904,"is_reserved":false,"is_disabled":false,"rental_uris":{"android":"levelo://app?vid=9353a8c9-0fb0-4e94-853c-ea392ad3a4d6","ios":"levelo://app?vid=9353a8c9-0fb0-4e94-853c-ea392ad3a4d6"},"vehicle_type_id":"4","last_reported":1737886115,"current_range_meters":25200,"station_id":"ce4bhr92rcd13ifvqhrg","pricing_plan_id":"cebpf4jnsgd1na2vs0mg"},{"bike_id":"d5ab5ae8-4c08-4102-b5d2-88a239d3013d","system_id":"levelo_inurba_marseille","lat":43.30794,"lon":5.38153,"is_reserved":false,"is_disabled":false,"rental_uris":{"android":"levelo://app?vid=d5ab5ae8-4c08-4102-b5d2-88a239d3013d","ios":"levelo://app?vid=d5ab5ae8-4c08-4102-b5d2-88a239d3013d"},"vehicle_type_id":"4","last_reported":1737886115,"current_range_meters":38800,"station_id":"ce4bgt12rcd13ifvqce0","pricing_plan_id":"cebpf4jnsgd1na2vs0mg"},{"bike_id":"9d9ede29-ef33-4b74-8981-d5e383d61e12","system_id":"levelo_inurba_marseille","lat":43.298499,"lon":5.362884,"is_reserved":false,"is_disabled":false,"rental_uris":{"android":"levelo://app?vid=9d9ede29-ef33-4b74-8981-d5e383d61e12","ios":"levelo://app?vid=9d9ede29-ef33-4b74-8981-d5e383d61e12"},"vehicle_type_id":"4","last_reported":1737886115,"current_range_meters":35200,"station_id":"ce4bgpp2rcd13ifvqc3g","pricing_plan_id":"cebpf4jnsgd1na2vs0mg"},{"bike_id":"4f1dbc2f-1feb-47d9-bb81-d3e6faf38891","system_id":"levelo_inurba_marseille","lat":43.32318,"lon":5.40631,"is_reserved":false,"is_disabled":false,"rental_uris":{"android":"levelo://app?vid=4f1dbc2f-1feb-47d9-bb81-d3e6faf38891","ios":"levelo://app?vid=4f1dbc2f-1feb-47d9-bb81-d3e6faf38891"},"vehicle_type_id":"4","last_reported":1737886115,"current_range_meters":6800,"station_id":"ce4bhq92rcd13ifvqhjg","pricing_plan_id":"cebpf4jnsgd1na2vs0mg"},{"bike_id":"35b4539c-ff66-40b1-b56f-a956749f9d8a","system_id":"levelo_inurba_marseille","lat":43.32656,"lon":5.41011,"is_reserved":false,"is_disabled":false,"rental_uris":{"android":"levelo://app?vid=35b4539c-ff66-40b1-b56f-a956749f9d8a","ios":"levelo://app?vid=35b4539c-ff66-40b1-b56f-a956749f9d8a"},"vehicle_type_id":"4","last_reported":1737886115,"current_range_meters":38000,"station_id":"ce4bhpp2rcd13ifvqhgg","pricing_plan_id":"cebpf4jnsgd1na2vs0mg"},{"bike_id":"b36979bb-e83d-42b2-baca-d389264dec05","system_id":"levelo_inurba_marseille","lat":43.287,"lon":5.40015,"is_reserved":false,"is_disabled":false,"rental_uris":{"android":"levelo://app?vid=b36979bb-e83d-42b2-baca-d389264dec05","ios":"levelo://app?vid=b36979bb-e83d-42b2-baca-d389264dec05"},"vehicle_type_id":"4","last_reported":1737886115,"current_range_meters":36800,"station_id":"ce4bho92rcd13ifvqh3g","pricing_plan_id":"cebpf4jnsgd1na2vs0mg"},{"bike_id":"3d98c6ce-e80d-46e8-b577-648cd8c28632","system_id":"levelo_inurba_marseille","lat":43.34823,"lon":5.34827,"is_reserved":false,"is_disabled":true,"rental_uris":{"android":"levelo://app?vid=3d98c6ce-e80d-46e8-b577-648cd8c28632","ios":"levelo://app?vid=3d98c6ce-e80d-46e8-b577-648cd8c28632"},"vehicle_type_id":"4","last_reported":1737886115,"current_range_meters":0,"station_id":"","pricing_plan_id":"cebpf4jnsgd1na2vs0mg"},{"bike_id":"f13404b2-fb3e-4db4-bc17-139ef572528a","system_id":"levelo_inurba_marseille","lat":43.27549,"lon":5.35978,"is_reserved":false,"is_disabled":false,"rental_uris":{"android":"levelo://app?vid=f13404b2-fb3e-4db4-bc17-139ef572528a","ios":"levelo://app?vid=f13404b2-fb3e-4db4-bc17-139ef572528a"},"vehicle_type_id":"4","last_reported":1737886115,"current_range_meters":9600,"station_id":"ce4bgj92rcd13ifvqbe0","pricing_plan_id":"cebpf4jnsgd1na2vs0mg"},{"bike_id":"86167669-87ec-46d8-942a-1b0cb002dce8","system_id":"levelo_inurba_marseille","lat":43.29365,"lon":5.40076,"is_reserved":false,"is_disabled":true,"rental_uris":{"android":"levelo://app?vid=86167669-87ec-46d8-942a-1b0cb002dce8","ios":"levelo://app?vid=86167669-87ec-46d8-942a-1b0cb002dce8"},"vehicle_type_id":"4","last_reported":1737886115,"current_range_meters":26800,"station_id":"","pricing_plan_id":"cebpf4jnsgd1na2vs0mg"},{"bike_id":"6975cfd6-2081-4544-8ad1-47f93123d5f7","system_id":"levelo_inurba_marseille","lat":43.28646,"lon":5.40095,"is_reserved":false,"is_disabled":true,"rental_uris":{"android":"levelo://app?vid=6975cfd6-2081-4544-8ad1-47f93123d5f7","ios":"levelo://app?vid=6975cfd6-2081-4544-8ad1-47f93123d5f7"},"vehicle_type_id":"4","last_reported":1737886115,"current_range_meters":4800,"station_id":"ce4bho92rcd13ifvqh3g","pricing_plan_id":"cebpf4jnsgd1na2vs0mg"},{"bike_id":"16cba4e1-cb10-44ef-b1a1-eca95385335f","system_id":"levelo_inurba_marseille","lat":43.28431,"lon":5.35015,"is_reserved":false,"is_disabled":true,"rental_uris":{"android":"levelo://app?vid=16cba4e1-cb10-44ef-b1a1-eca95385335f","ios":"levelo://app?vid=16cba4e1-cb10-44ef-b1a1-eca95385335f"},"vehicle_type_id":"4","last_reported":1737886115,"current_range_meters":0,"station_id":"ce4bhbh2rcd13ifvqepg","pricing_plan_id":"cebpf4jnsgd1na2vs0mg"},{"bike_id":"f786da4d-b17e-404d-81b9-7a85ee6b4af8","system_id":"levelo_inurba_marseille","lat":43.26956,"lon":5.38632,"is_reserved":false,"is_disabled":false,"rental_uris":{"android":"levelo://app?vid=f786da4d-b17e-404d-81b9-7a85ee6b4af8","ios":"levelo://app?vid=f786da4d-b17e-404d-81b9-7a85ee6b4af8"},"vehicle_type_id":"4","last_reported":1737886115,"current_range_meters":26000,"station_id":"ce4bhh92rcd13ifvqfh0","pricing_plan_id":"cebpf4jnsgd1na2vs0mg"},{"bike_id":"c6305e75-62f7-4e29-b592-e03d3b37c637","system_id":"levelo_inurba_marseille","lat":43.30257,"lon":5.40088,"is_reserved":false,"is_disabled":false,"rental_uris":{"android":"levelo://app?vid=c6305e75-62f7-4e29-b592-e03d3b37c637","ios":"levelo://app?vid=c6305e75-62f7-4e29-b592-e03d3b37c637"},"vehicle_type_id":"4","last_reported":1737886115,"current_range_meters":34800,"station_id":"ce4bgvh2rcd13ifvqcs0","pricing_plan_id":"cebpf4jnsgd1na2vs0mg"},{"bike_id":"b77efc8b-41fe-4709-b58e-05026c2b2ca6","system_id":"levelo_inurba_marseille","lat":43.30796,"lon":5.43524,"is_reserved":false,"is_disabled":false,"rental_uris":{"android":"levelo://app?vid=b77efc8b-41fe-4709-b58e-05026c2b2ca6","ios":"levelo://app?vid=b77efc8b-41fe-4709-b58e-05026c2b2ca6"},"vehicle_type_id":"4","last_reported":1737886115,"current_range_meters":16800,"station_id":"ce4bhph2rcd13ifvqheg","pricing_plan_id":"cebpf4jnsgd1na2vs0mg"},{"bike_id":"af626622-21f7-44a1-828e-5bfb310401d4","system_id":"levelo_inurba_marseille","lat":43.2862,"lon":5.35116,"is_reserved":false,"is_disabled":false,"rental_uris":{"android":"levelo://app?vid=af626622-21f7-44a1-828e-5bfb310401d4","ios":"levelo://app?vid=af626622-21f7-44a1-828e-5bfb310401d4"},"vehicle_type_id":"4","last_reported":1737886115,"current_range_meters":30000,"station_id":"ce4bhch2rcd13ifvqeug","pricing_plan_id":"cebpf4jnsgd1na2vs0mg"},{"bike_id":"8fc5f132-29ed-47c1-bff0-bf17728d82ae","system_id":"levelo_inurba_marseille","lat":43.293745,"lon":5.378711,"is_reserved":false,"is_disabled":true,"rental_uris":{"android":"levelo://app?vid=8fc5f132-29ed-47c1-bff0-bf17728d82ae","ios":"levelo://app?vid=8fc5f132-29ed-47c1-bff0-bf17728d82ae"},"vehicle_type_id":"4","last_reported":1737886115,"current_range_meters":34800,"station_id":"ce4bgjh2rcd13ifvqbf0","pricing_plan_id":"cebpf4jnsgd1na2vs0mg"},{"bike_id":"837de97c-bbe6-4773-a9bd-02ee05797842","system_id":"levelo_inurba_marseille","lat":43.29275,"lon":5.36846,"is_reserved":false,"is_disabled":false,"rental_uris":{"android":"levelo://app?vid=837de97c-bbe6-4773-a9bd-02ee05797842","ios":"levelo://app?vid=837de97c-bbe6-4773-a9bd-02ee05797842"},"vehicle_type_id":"4","last_reported":1737886115,"current_range_meters":20400,"station_id":"ce4bhbp2rcd13ifvqesg","pricing_plan_id":"cebpf4jnsgd1na2vs0mg"},{"bike_id":"283cfd58-c0a1-4ca4-9c49-d4e7d8f088a6","system_id":"levelo_inurba_marseille","lat":43.27312,"lon":5.3908,"is_reserved":false,"is_disabled":false,"rental_uris":{"android":"levelo://app?vid=283cfd58-c0a1-4ca4-9c49-d4e7d8f088a6","ios":"levelo://app?vid=283cfd58-c0a1-4ca4-9c49-d4e7d8f088a6"},"vehicle_type_id":"4","last_reported":1737886115,"current_range_meters":17600,"station_id":"ce4bhgp2rcd13ifvqfe0","pricing_plan_id":"cebpf4jnsgd1na2vs0mg"},{"bike_id":"0409c418-1a87-452b-be7c-84da8e4aa35a","system_id":"levelo_inurba_marseille","lat":43.31995,"lon":5.381508,"is_reserved":false,"is_disabled":true,"rental_uris":{"android":"levelo://app?vid=0409c418-1a87-452b-be7c-84da8e4aa35a","ios":"levelo://app?vid=0409c418-1a87-452b-be7c-84da8e4aa35a"},"vehicle_type_id":"4","last_reported":1737886115,"current_range_meters":0,"station_id":"ce4bhr12rcd13ifvqhpg","pricing_plan_id":"cebpf4jnsgd1na2vs0mg"},{"bike_id":"e2b481af-a742-476b-8558-f6402fb49992","system_id":"levelo_inurba_marseille","lat":43.23152,"lon":5.43709,"is_reserved":false,"is_disabled":false,"rental_uris":{"android":"levelo://app?vid=e2b481af-a742-476b-8558-f6402fb49992","ios":"levelo://app?vid=e2b481af-a742-476b-8558-f6402fb49992"},"vehicle_type_id":"4","last_reported":1737886115,"current_range_meters":10800,"station_id":"ce4bhmp2rcd13ifvqgog","pricing_plan_id":"cebpf4jnsgd1na2vs0mg"},{"bike_id":"68a08c25-c790-478f-ace4-e4ca019e1fec","system_id":"levelo_inurba_marseille","lat":43.28705,"lon":5.39981,"is_reserved":false,"is_disabled":false,"rental_uris":{"android":"levelo://app?vid=68a08c25-c790-478f-ace4-e4ca019e1fec","ios":"levelo://app?vid=68a08c25-c790-478f-ace4-e4ca019e1fec"},"vehicle_type_id":"4","last_reported":1737886115,"current_range_meters":17600,"station_id":"ce4bho92rcd13ifvqh3g","pricing_plan_id":"cebpf4jnsgd1na2vs0mg"},{"bike_id":"91d66d54-aabf-44b7-ac3a-355a4b9e5628","system_id":"levelo_inurba_marseille","lat":43.24076,"lon":5.377497,"is_reserved":false,"is_disabled":true,"rental_uris":{"android":"levelo://app?vid=91d66d54-aabf-44b7-ac3a-355a4b9e5628","ios":"levelo://app?vid=91d66d54-aabf-44b7-ac3a-355a4b9e5628"},"vehicle_type_id":"4","last_reported":1737886115,"current_range_meters":38800,"station_id":"ce4bhnp2rcd13ifvqgvg","pricing_plan_id":"cebpf4jnsgd1na2vs0mg"},{"bike_id":"61186873-14bd-41af-bf79-69a582d4b1a6","system_id":"levelo_inurba_marseille","lat":43.25571,"lon":5.38241,"is_reserved":false,"is_disabled":false,"rental_uris":{"android":"levelo://app?vid=61186873-14bd-41af-bf79-69a582d4b1a6","ios":"levelo://app?vid=61186873-14bd-41af-bf79-69a582d4b1a6"},"vehicle_type_id":"4","last_reported":1737886115,"current_range_meters":28800,"station_id":"ce4bhih2rcd13ifvqfs0","pricing_plan_id":"cebpf4jnsgd1na2vs0mg"},{"bike_id":"c57a74b4-7baa-4c68-bd39-16a8debe385a","system_id":"levelo_inurba_marseille","lat":43.30539,"lon":5.36544,"is_reserved":false,"is_disabled":false,"rental_uris":{"android":"levelo://app?vid=c57a74b4-7baa-4c68-bd39-16a8debe385a","ios":"levelo://app?vid=c57a74b4-7baa-4c68-bd39-16a8debe385a"},"vehicle_type_id":"4","last_reported":1737886115,"current_range_meters":39200,"station_id":"ce4bgs12rcd13ifvqcag","pricing_plan_id":"cebpf4jnsgd1na2vs0mg"},{"bike_id":"a164554d-7c5e-4990-b022-26b5003f7ab3","system_id":"levelo_inurba_marseille","lat":43.27509,"lon":5.42444,"is_reserved":false,"is_disabled":false,"rental_uris":{"android":"levelo://app?vid=a164554d-7c5e-4990-b022-26b5003f7ab3","ios":"levelo://app?vid=a164554d-7c5e-4990-b022-26b5003f7ab3"},"vehicle_type_id":"4","last_reported":1737886115,"current_range_meters":9600,"station_id":"ce4bhn92rcd13ifvqgrg","pricing_plan_id":"cebpf4jnsgd1na2vs0mg"},