{"last_updated":1726247282,"ttl":30,"version":"2.2","data":{"bikes":[{"bike_id":"bc35aeaa-3e4d-43e6-9935-c8f1110a4b4c","system_id":"levelo_inurba_marseille","lat":43.30506,"lon":5.367,"is_reserved":false,"is_disabled":false,"rental_uris":{"android":"levelo://app?vid=bc35aeaa-3e4d-43e6-9935-c8f1110a4b4c","ios":"levelo://app?vid=bc35aeaa-3e4d-43e6-9935-c8f1110a4b4c"},"vehicle_type_id":"4","last_reported":1726247282,"current_range_meters":36800,"station_id":"ce4bgrp2rcd13ifvqc9g","pricing_plan_id":"cebpf4jnsgd1na2vs0mg"},{"bike_id":"2ca2fd52-6283-4397-ac7e-8db28b0c8f78","system_id":"levelo_inurba_marseille","lat":43.23196,"lon":5.35555,"is_reserved":false,"is_disabled":false,"rental_uris":{"android":"levelo://app?vid=2ca2fd52-6283-4397-ac7e-8db28b0c8f78","ios":"levelo://app?vid=2ca2fd52-6283-4397-ac7e-8db28b0c8f78"},"vehicle_type_id":"4","last_reported":1726247282,"current_range_meters":11200,"station_id":"ce4bhu92rcd13ifvqi70","pricing_plan_id":"cebpf4jnsgd1na2vs0mg"},{"bike_id":"3d5c9f68-71d3-4a4d-a72e-d7d786f83045","system_id":"levelo_inurba_marseille","lat":43.32359,"lon":5.3893,"is_reserved":false,"is_disabled":false,"rental_uris":{"android":"levelo://app?vid=3d5c9f68-71d3-4a4d-a72e-d7d786f83045","ios":"levelo://app?vid=3d5c9f68-71d3-4a4d-a72e-d7d786f83045"},"vehicle_type_id":"4","last_reported":1726247282,"current_range_meters":6000,"station_id":"ce4bhqp2rcd13ifvqhog","pricing_plan_id":"cebpf4jnsgd1na2vs0mg"},{"bike_id":"1433cc86-19c5-4d38-a0b5-c5c087739e0a","system_id":"levelo_inurba_marseille","lat":43.22932,"lon":5.35374,"is_reserved":false,"is_disabled":false,"rental_uris":{"android":"levelo://app?vid=1433cc86-19c5-4d38-a0b5-c5c087739e0a","ios":"levelo://app?vid=1433cc86-19c5-4d38-a0b5-c5c087739e0a"},"vehicle_type_id":"4","last_reported":1726247282,"current_range_meters":29600,"station_id":"cpo3532slgdg3j2ikp40","pricing_plan_id":"cebpf4jnsgd1na2vs0mg"},{"bike_id":"67468702-002a-4df5-9012-9c567f0d2e31","system_id":"levelo_inurba_marseille","lat":43.31764,"lon":5.38988,"is_reserved":false,"is_disabled":false,"rental_uris":{"android":"levelo://app?vid=67468702-002a-4df5-9012-9c567f0d2e31","ios":"levelo://app?vid=67468702-002a-4df5-9012-9c567f0d2e31"},"vehicle_type_id":"4","last_reported":1726247282,"current_range_meters":36000,"station_id":"ce4bhqp2rcd13ifvqhng","pricing_plan_id":"cebpf4jnsgd1na2vs0mg"},{"bike_id":"083984dd-1abd-4a7d-84c6-e8ceb7b63abe","system_id":"levelo_inurba_marseille","lat":43.31108,"lon":5.3778,"is_reserved":false,"is_disabled":false,"rental_uris":{"android":"levelo://app?vid=083984dd-1abd-4a7d-84c6-e8ceb7b63abe","ios":"levelo://app?vid=083984dd-1abd-4a7d-84c6-e8ceb7b63abe"},"vehicle_type_id":"4","last_reported":1726247282,"current_range_meters":36800,"station_id":"ce4bgt92rcd13ifvqcg0","pricing_plan_id":"cebpf4jnsgd1na2vs0mg"},{"bike_id":"f2aab370-6e0a-414f-a9aa-b82870be9ba4","system_id":"levelo_inurba_marseille","lat":43.28616,"lon":5.35111,"is_reserved":false,"is_disabled":false,"rental_uris":{"android":"levelo://app?vid=f2aab370-6e0a-414f-a9aa-b82870be9ba4","ios":"levelo://app?vid=f2aab370-6e0a-414f-a9aa-b82870be9ba4"},"vehicle_type_id":"4","last_reported":1726247282,"current_range_meters":21600,"station_id":"ce4bhch2rcd13ifvqeug","pricing_plan_id":"cebpf4jnsgd1na2vs0mg"},{"bike_id":"449af3d0-5520-458b-9558-d9f0c1a600d9","system_id":"levelo_inurba_marseille","lat":43.27069,"lon":5.42278,"is_reserved":false,"is_disabled":false,"rental_uris":{"android":"levelo://app?vid=449af3d0-5520-458b-9558-d9f0c1a600d9","ios":"levelo://app?vid=449af3d0-5520-458b-9558-d9f0c1a600d9"},"vehicle_type_id":"4","last_reported":1726247282,"current_range_meters":26800,"station_id":"ce4bhk92rcd13ifvqgb0","pricing_plan_id":"cebpf4jnsgd1na2vs0mg"},{"bike_id":"38ea4f19-b6e0-428a-b48b-5f9c7a7aded2","system_id":"levelo_inurba_marseille","lat":43.30147,"lon":5.37422,"is_reserved":false,"is_disabled":false,"rental_uris":{"android":"levelo://app?vid=38ea4f19-b6e0-428a-b48b-5f9c7a7aded2","ios":"levelo://app?vid=38ea4f19-b6e0-428a-b48b-5f9c7a7aded2"},"vehicle_type_id":"4","last_reported":1726247282,"current_range_meters":19200,"station_id":"ce4bgs92rcd13ifvqcc0","pricing_plan_id":"cebpf4jnsgd1na2vs0mg"},{"bike_id":"1921db88-c961-4c6d-96b7-1f3c25950a8b","system_id":"levelo_inurba_marseille","lat":43.31445,"lon":5.37061,"is_reserved":false,"is_disabled":false,"rental_uris":{"android":"levelo://app?vid=1921db88-c961-4c6d-96b7-1f3c25950a8b","ios":"levelo://app?vid=1921db88-c961-4c6d-96b7-1f3c25950a8b"},"vehicle_type_id":"4","last_reported":1726247282,"current_range_meters":12400,"station_id":"","pricing_plan_id":"cebpf4jnsgd1na2vs0mg"},{"bike_id":"73b7f41b-b846-48e2-9a9f-863df96db269","system_id":"levelo_inurba_marseille","lat":43.25114,"lon":5.40324,"is_reserved":false,"is_disabled":false,"rental_uris":{"android":"levelo://app?vid=73b7f41b-b846-48e2-9a9f-863df96db269","ios":"levelo://app?vid=73b7f41b-b846-48e2-9a9f-863df96db269"},"vehicle_type_id":"4","last_reported":1726247282,"current_range_meters":14000,"station_id":"ce4bhlh2rcd13ifvqgig","pricing_plan_id":"cebpf4jnsgd1na2vs0mg"},{"bike_id":"c5ed8bab-12e3-4101-81bb-39350c57310d","system_id":"levelo_inurba_marseille","lat":43.24166,"lon":5.364,"is_reserved":false,"is_disabled":false,"rental_uris":{"android":"levelo://app?vid=c5ed8bab-12e3-4101-81bb-39350c57310d","ios":"levelo://app?vid=c5ed8bab-12e3-4101-81bb-39350c57310d"},"vehicle_type_id":"4","last_reported":1726247282,"current_range_meters":3600,"station_id":"cpo36qri1sfpv3e86is0","pricing_plan_id":"cebpf4jnsgd1na2vs0mg"},{"bike_id":"ef1b8045-2f0a-4d86-bf74-93821aeeb0e7","system_id":"levelo_inurba_marseille","lat":43.31761,"lon":5.39016,"is_reserved":false,"is_disabled":false,"rental_uris":{"android":"levelo://app?vid=ef1b8045-2f0a-4d86-bf74-93821aeeb0e7","ios":"levelo://app?vid=ef1b8045-2f0a-4d86-bf74-93821aeeb0e7"},"vehicle_type_id":"4","last_reported":1726247282,"current_range_meters":38800,"station_id":"ce4bhqp2rcd13ifvqhng","pricing_plan_id":"cebpf4jnsgd1na2vs0mg"},{"bike_id":"b031936a-d69a-4a0a-b832-b0877a739ec9","system_id":"levelo_inurba_marseille","lat":43.30148,"lon":5.37423,"is_reserved":false,"is_disabled":false,"rental_uris":{"android":"levelo://app?vid=b031936a-d69a-4a0a-b832-b0877a739ec9","ios":"levelo://app?vid=b031936a-d69a-4a0a-b832-b0877a739ec9"},"vehicle_type_id":"4","last_reported":1726247282,"current_range_meters":8400,"station_id":"ce4bgs92rcd13ifvqcc0","pricing_plan_id":"cebpf4jnsgd1na2vs0mg"},{"bike_id":"13ec4916-f0ea-4897-8afc-596425b42c42","system_id":"levelo_inurba_marseille","lat":43.23191,"lon":5.35553,"is_reserved":false,"is_disabled":false,"rental_uris":{"android":"levelo://app?vid=13ec4916-f0ea-4897-8afc-596425b42c42","ios":"levelo://app?vid=13ec4916-f0ea-4897-8afc-596425b42c42"},"vehicle_type_id":"4","last_reported":1726247282,"current_range_meters":30800,"station_id":"ce4bhu92rcd13ifvqi70","pricing_plan_id":"cebpf4jnsgd1na2vs0mg"},{"bike_id":"2f382ca5-a810-4d77-9bef-79969b8ce95a","system_id":"levelo_inurba_marseille","lat":43.24668,"lon":5.38159,"is_reserved":false,"is_disabled":false,"rental_uris":{"android":"levelo://app?vid=2f382ca5-a810-4d77-9bef-79969b8ce95a","ios":"levelo://app?vid=2f382ca5-a810-4d77-9bef-79969b8ce95a"},"vehicle_type_id":"4","last_reported":1726247282,"current_range_meters":36800,"station_id":"ce4bhih2rcd13ifvqfr0","pricing_plan_id":"cebpf4jnsgd1na2vs0mg"},{"bike_id":"3f1e932a-540c-4c5d-a4f8-ac49240977b8","system_id":"levelo_inurba_marseille","lat":43.260284,"lon":5.375469,"is_reserved":false,"is_disabled":false,"rental_uris":{"android":"levelo://app?vid=3f1e932a-540c-4c5d-a4f8-ac49240977b8","ios":"levelo://app?vid=3f1e932a-540c-4c5d-a4f8-ac49240977b8"},"vehicle_type_id":"4","last_reported":1726247282,"current_range_meters":2000,"station_id":"ce4bhhh2rcd13ifvqfk0","pricing_plan_id":"cebpf4jnsgd1na2vs0mg"},{"bike_id":"1b69e28d-b657-4802-b5dd-aa17fb5a768b","system_id":"levelo_inurba_marseille","lat":43.27147,"lon":5.42801,"is_reserved":false,"is_disabled":false,"rental_uris":{"android":"levelo://app?vid=1b69e28d-b657-4802-b5dd-aa17fb5a768b","ios":"levelo://app?vid=1b69e28d-b657-4802-b5dd-aa17fb5a768b"},"vehicle_type_id":"4","last_reported":1726247282,"current_range_meters":30400,"station_id":"","pricing_plan_id":"cebpf4jnsgd1na2vs0mg"},{"bike_id":"995d3a7e-289e-4ebd-b785-9d2da426ad57","system_id":"levelo_inurba_marseille","lat":43.23198,"lon":5.3555,"is_reserved":false,"is_disabled":false,"rental_uris":{"android":"levelo://app?vid=995d3a7e-289e-4ebd-b785-9d2da426ad57","ios":"levelo://app?vid=995d3a7e-289e-4ebd-b785-9d2da426ad57"},"vehicle_type_id":"4","last_reported":1726247282,"current_range_meters":25600,"station_id":"ce4bhu92rcd13ifvqi70","pricing_plan_id":"cebpf4jnsgd1na2vs0mg"},{"bike_id":"74c67d55-8a5f-40c9-8066-d68354718f8c","system_id":"levelo_inurba_marseille","lat":43.23192,"lon":5.35558,"is_reserved":false,"is_disabled":false,"rental_uris":{"android":"levelo://app?vid=74c67d55-8a5f-40c9-8066-d68354718f8c","ios":"levelo://app?vid=74c67d55-8a5f-40c9-8066-d68354718f8c"},"vehicle_type_id":"4","last_reported":1726247282,"current_range_meters":28800,"station_id":"ce4bhu92rcd13ifvqi70","pricing_plan_id":"cebpf4jnsgd1na2vs0mg"},{"bike_id":"65b41972-e5b3-473a-a165-476202ec5eb9","system_id":"levelo_inurba_marseille","lat":43.27915,"lon":5.39584,"is_reserved":false,"is_disabled":false,"rental_uris":{"android":"levelo://app?vid=65b41972-e5b3-473a-a165-476202ec5eb9","ios":"levelo://app?vid=65b41972-e5b3-473a-a165-476202ec5eb9"},"vehicle_type_id":"4","last_reported":1726247282,"current_range_meters":9200,"station_id":"ce4bhf92rcd13ifvqf40","pricing_plan_id":"cebpf4jnsgd1na2vs0mg"},{"bike_id":"1d1fe77b-c32b-4d92-8e57-d6a8f8d034dd","system_id":"levelo_inurba_marseille","lat":43.27567,"lon":5.38422,"is_reserved":false,"is_disabled":false,"rental_uris":{"android":"levelo://app?vid=1d1fe77b-c32b-4d92-8e57-d6a8f8d034dd","ios":"levelo://app?vid=1d1fe77b-c32b-4d92-8e57-d6a8f8d034dd"},"vehicle_type_id":"4","last_reported":1726247282,"current_range_meters":22000,"station_id":"ce4bhh92rcd13ifvqfi0","pricing_plan_id":"cebpf4jnsgd1na2vs0mg"},{"bike_id":"690cf838-66d1-40e8-9ccd-4de9cdc05ba4","system_id":"levelo_inurba_marseille","lat":43.27811,"lon":5.4071,"is_reserved":false,"is_disabled":false,"rental_uris":{"android":"levelo://app?vid=690cf838-66d1-40e8-9ccd-4de9cdc05ba4","ios":"levelo://app?vid=690cf838-66d1-40e8-9ccd-4de9cdc05ba4"},"vehicle_type_id":"4","last_reported":1726247282,"current_range_meters":7200,"station_id":"ce4bhnh2rcd13ifvqgtg","pricing_plan_id":"cebpf4jnsgd1na2vs0mg"},{"bike_id":"e2be0aea-67dc-4dc6-b46f-e2412631f2dd","system_id":"levelo_inurba_marseille","lat":43.25007,"lon":5.38931,"is_reserved":false,"is_disabled":false,"rental_uris":{"android":"levelo://app?vid=e2be0aea-67dc-4dc6-b46f-e2412631f2dd","ios":"levelo://app?vid=e2be0aea-67dc-4dc6-b46f-e2412631f2dd"},"vehicle_type_id":"4","last_reported":1726247282,"current_range_meters":7200,"station_id":"ce4bhgp2rcd13ifvqfd0","pricing_plan_id":"cebpf4jnsgd1na2vs0mg"},{"bike_id":"dbcf613e-233e-4496-a7e9-4c361cbe1f45","system_id":"levelo_inurba_marseille","lat":43.29421,"lon":5.38633,"is_reserved":false,"is_disabled":false,"rental_uris":{"android":"levelo://app?vid=dbcf613e-233e-4496-a7e9-4c361cbe1f45","ios":"levelo://app?vid=dbcf613e-233e-4496-a7e9-4c361cbe1f45"},"vehicle_type_id":"4","last_reported":1726247282,"current_range_meters":38800,"station_id":"ce4bh2h2rcd13ifvqdh0","pricing_plan_id":"cebpf4jnsgd1na2vs0mg"},{"bike_id":"070f8b16-6205-48a5-9e7d-1cdd1803e5c5","system_id":"levelo_inurba_marseille","lat":43.25125,"lon":5.40326,"is_reserved":false,"is_disabled":false,"rental_uris":{"android":"levelo://app?vid=070f8b16-6205-48a5-9e7d-1cdd1803e5c5","ios":"levelo://app?vid=070f8b16-6205-48a5-9e7d-1cdd1803e5c5"},"vehicle_type_id":"4","last_reported":1726247282,"current_range_meters":37600,"station_id":"ce4bhlh2rcd13ifvqgig","pricing_plan_id":"cebpf4jnsgd1na2vs0mg"},{"bike_id":"ebb45b49-516e-4410-bd0e-a89a441e9c4e","system_id":"levelo_inurba_marseille","lat":43.30525,"lon":5.36708,"is_reserved":false,"is_disabled":false,"rental_uris":{"android":"levelo://app?vid=ebb45b49-516e-4410-bd0e-a89a441e9c4e","ios":"levelo://app?vid=ebb45b49-516e-4410-bd0e-a89a441e9c4e"},"vehicle_type_id":"4","last_reported":1726247282,"current_range_meters":8000,"station_id":"ce4bgrp2rcd13ifvqc9g","pricing_plan_id":"cebpf4jnsgd1na2vs0mg"},{"bike_id":"6267baa5-f35c-4311-91c4-71f926f47f2c","system_id":"levelo_inurba_marseille","lat":43.29748,"lon":5.3792,"is_reserved":false,"is_disabled":false,"rental_uris":{"android":"levelo://app?vid=6267baa5-f35c-4311-91c4-71f926f47f2c","ios":"levelo://app?vid=6267baa5-f35c-4311-91c4-71f926f47f2c"},"vehicle_type_id":"4","last_reported":1726247282,"current_range_meters":7200,"station_id":"","pricing_plan_id":"cebpf4jnsgd1na2vs0mg"},{"bike_id":"76e59acd-692f-4686-9ffe-1071fe514493","system_id":"levelo_inurba_marseille","lat":43.295177,"lon":5.390545,"is_reserved":false,"is_disabled":false,"rental_uris":{"android":"levelo://app?vid=76e59acd-692f-4686-9ffe-1071fe514493","ios":"levelo://app?vid=76e59acd-692f-4686-9ffe-1071fe514493"},"vehicle_type_id":"4","last_reported":1726247282,"current_range_meters":16800,"station_id":"ce4bh3p2rcd13ifvqdp0","pricing_plan_id":"cebpf4jnsgd1na2vs0mg"},{"bike_id":"309f7e3a-a0ab-480a-b22d-51f81c0495f2","system_id":"levelo_inurba_marseille","lat":43.25582,"lon":5.38236,"is_reserved":false,"is_disabled":false,"rental_uris":{"android":"levelo://app?vid=309f7e3a-a0ab-480a-b22d-51f81c0495f2","ios":"levelo://app?vid=309f7e3a-a0ab-480a-b22d-51f81c0495f2"},"vehicle_type_id":"4","last_reported":1726247282,"current_range_meters":36400,"station_id":"ce4bhih2rcd13ifvqfs0","pricing_plan_id":"cebpf4jnsgd1na2vs0mg"},{"bike_id":"e6bea8cd-bd1a-48c2-8a52-de5e2a98c0f4","system_id":"levelo_inurba_marseille","lat":43.25937,"lon":5.40901,"is_reserved":false,"is_disabled":false,"rental_uris":{"android":"levelo://app?vid=e6bea8cd-bd1a-48c2-8a52-de5e2a98c0f4","ios":"levelo://app?vid=e6bea8cd-bd1a-48c2-8a52-de5e2a98c0f4"},"vehicle_type_id":"4","last_reported":1726247282,"current_range_meters":36800,"station_id":"ce4bhm92rcd13ifvqglg","pricing_plan_id":"cebpf4jnsgd1na2vs0mg"},{"bike_id":"44f09c39-e560-4787-855a-6c24192c7f7b","system_id":"levelo_inurba_marseille","lat":43.33024,"lon":5.39038,"is_reserved":false,"is_disabled":false,"rental_uris":{"android":"levelo://app?vid=44f09c39-e560-4787-855a-6c24192c7f7b","ios":"levelo://app?vid=44f09c39-e560-4787-855a-6c24192c7f7b"},"vehicle_type_id":"4","last_reported":1726247282,"current_range_meters":25200,"station_id":"ce4bhr92rcd13ifvqhrg","pricing_plan_id":"cebpf4jnsgd1na2vs0mg"},{"bike_id":"bdcd95a0-5f9b-49ae-8f9b-3b02219d6eb4","system_id":"levelo_inurba_marseille","lat":43.23963,"lon":5.3664,"is_reserved":false,"is_disabled":false,"rental_uris":{"android":"levelo://app?vid=bdcd95a0-5f9b-49ae-8f9b-3b02219d6eb4","ios":"levelo://app?vid=bdcd95a0-5f9b-49ae-8f9b-3b02219d6eb4"},"vehicle_type_id":"4","last_reported":1726247282,"current_range_meters":12000,"station_id":"ce4bhi12rcd13ifvqfp0","pricing_plan_id":"cebpf4jnsgd1na2vs0mg"},{"bike_id":"af535742-2c29-4a75-aba4-bfe02b811be0","system_id":"levelo_inurba_marseille","lat":43.25582,"lon":5.38229,"is_reserved":false,"is_disabled":false,"rental_uris":{"android":"levelo://app?vid=af535742-2c29-4a75-aba4-bfe02b811be0","ios":"levelo://app?vid=af535742-2c29-4a75-aba4-bfe02b811be0"},"vehicle_type_id":"4","last_reported":1726247282,"current_range_meters":8400,"station_id":"ce4bhih2rcd13ifvqfs0","pricing_plan_id":"cebpf4jnsgd1na2vs0mg"},{"bike_id":"2a089944-b1a6-45af-99d1-9b70add064d3","system_id":"levelo_inurba_marseille","lat":43.24812,"lon":5.37461,"is_reserved":false,"is_disabled":false,"rental_uris":{"android":"levelo://app?vid=2a089944-b1a6-45af-99d1-9b70add064d3","ios":"levelo://app?vid=2a089944-b1a6-45af-99d1-9b70add064d3"},"vehicle_type_id":"4","last_reported":1726247282,"current_range_meters":16000,"station_id":"ce4bhgh2rcd13ifvqfb0","pricing_plan_id":"cebpf4jnsgd1na2vs0mg"},{"bike_id":"34721204-9cc8-4128-8304-5b698c26b1e6","system_id":"levelo_inurba_marseille","lat":43.23187,"lon":5.39985,"is_reserved":false,"is_disabled":false,"rental_uris":{"android":"levelo://app?vid=34721204-9cc8-4128-8304-5b698c26b1e6","ios":"levelo://app?vid=34721204-9cc8-4128-8304-5b698c26b1e6"},"vehicle_type_id":"4","last_reported":1726247282,"current_range_meters":39200,"station_id":"ce4bhn12rcd13ifvqgqg","pricing_plan_id":"cebpf4jnsgd1na2vs0mg"},{"bike_id":"a526ada8-a67a-4a96-8415-ef3e9c17fda7","system_id":"levelo_inurba_marseille","lat":43.24181,"lon":5.39723,"is_reserved":false,"is_disabled":false,"rental_uris":{"android":"levelo://app?vid=a526ada8-a67a-4a96-8415-ef3e9c17fda7","ios":"levelo://app?vid=a526ada8-a67a-4a96-8415-ef3e9c17fda7"},"vehicle_type_id":"4","last_reported":1726247282,"current_range_meters":9600,"station_id":"ce4bhn12rcd13ifvqgpg","pricing_plan_id":"cebpf4jnsgd1na2vs0mg"},{"bike_id":"39b86749-80ef-4310-953b-c60370086942","system_id":"levelo_inurba_marseille","lat":43.24545,"lon":5.39525,"is_reserved":false,"is_disabled":false,"rental_uris":{"android":"levelo://app?vid=39b86749-80ef-4310-953b-c60370086942","ios":"levelo://app?vid=39b86749-80ef-4310-953b-c60370086942"},"vehicle_type_id":"4","last_reported":1726247282,"current_range_meters":29600,"station_id":"ce4bhlp2rcd13ifvqgjg","pricing_plan_id":"cebpf4jnsgd1na2vs0mg"},{"bike_id":"6a8f2f10-9a94-4930-acf4-9d3abaa17531","system_id":"levelo_inurba_marseille","lat":43.255,"lon":5.37651,"is_reserved":false,"is_disabled":false,"rental_uris":{"android":"levelo://app?vid=6a8f2f10-9a94-4930-acf4-9d3abaa17531","ios":"levelo://app?vid=6a8f2f10-9a94-4930-acf4-9d3abaa17531"},"vehicle_type_id":"4","last_reported":1726247282,"current_range_meters":35600,"station_id":"ce4bhh12rcd13ifvqff0","pricing_plan_id":"cebpf4jnsgd1na2vs0mg"},{"bike_id":"4cad2379-f22f-4bf0-a45e-a36b3b61dd30","system_id":"levelo_inurba_marseille","lat":43.25585,"lon":5.38241,"is_reserved":false,"is_disabled":false,"rental_uris":{"android":"levelo://app?vid=4cad2379-f22f-4bf0-a45e-a36b3b61dd30","ios":"levelo://app?vid=4cad2379-f22f-4bf0-a45e-a36b3b61dd30"},"vehicle_type_id":"4","last_reported":1726247282,"current_range_meters":38400,"station_id":"ce4bhih2rcd13ifvqfs0","pricing_plan_id":"cebpf4jnsgd1na2vs0mg"},{"bike_id":"10bd8d29-eae5-4783-a0ff-cd095049b41d","system_id":"levelo_inurba_marseille","lat":43.29573,"lon":5.37518,"is_reserved":false,"is_disabled":false,"rental_uris":{"android":"levelo://app?vid=10bd8d29-eae5-4783-a0ff-cd095049b41d","ios":"levelo://app?vid=10bd8d29-eae5-4783-a0ff-cd095049b41d"},"vehicle_type_id":"4","last_reported":1726247282,"current_range_meters":29600,"station_id":"ce4bhbp2rcd13ifvqerg","pricing_plan_id":"cebpf4jnsgd1na2vs0mg"},{"bike_id":"acb4473c-f793-440a-9c76-0eca7b03c7c3","system_id":"levelo_inurba_marseille","lat":43.27658,"lon":5.38137,"is_reserved":false,"is_disabled":false,"rental_uris":{"android":"levelo://app?vid=acb4473c-f793-440a-9c76-0eca7b03c7c3","ios":"levelo://app?vid=acb4473c-f793-440a-9c76-0eca7b03c7c3"},"vehicle_type_id":"4","last_reported":1726247282,"current_range_meters":6000,"station_id":"","pricing_plan_id":"cebpf4jnsgd1na2vs0mg"},{"bike_id":"974be901-e580-4a26-9e48-0d5403def97c","system_id":"levelo_inurba_marseille","lat":43.26602,"lon":5.37577,"is_reserved":false,"is_disabled":false,"rental_uris":{"android":"levelo://app?vid=974be901-e580-4a26-9e48-0d5403def97c","ios":"levelo://app?vid=974be901-e580-4a26-9e48-0d5403def97c"},"vehicle_type_id":"4","last_reported":1726247282,"current_range_meters":21600,"station_id":"","pricing_plan_id":"cebpf4jnsgd1na2vs0mg"},{"bike_id":"2599aa4a-256f-42cc-a153-354014413cfd","system_id":"levelo_inurba_marseille","lat":43.28866,"lon":5.35862,"is_reserved":false,"is_disabled":false,"rental_uris":{"android":"levelo://app?vid=2599aa4a-256f-42cc-a153-354014413cfd","ios":"levelo://app?vid=2599aa4a-256f-42cc-a153-354014413cfd"},"vehicle_type_id":"4","last_reported":1726247282,"current_range_meters":24400,"station_id":"ce4bhb12rcd13ifvqem0","pricing_plan_id":"cebpf4jnsgd1na2vs0mg"},{"bike_id":"6e659059-b949-4ee0-af37-26f66881ba92","system_id":"levelo_inurba_marseille","lat":43.29574,"lon":5.39991,"is_reserved":false,"is_disabled":false,"rental_uris":{"android":"levelo://app?vid=6e659059-b949-4ee0-af37-26f66881ba92","ios":"levelo://app?vid=6e659059-b949-4ee0-af37-26f66881ba92"},"vehicle_type_id":"4","last_reported":1726247282,"current_range_meters":29600,"station_id":"ce4bh312rcd13ifvqdj0","pricing_plan_id":"cebpf4jnsgd1na2vs0mg"},{"bike_id":"69fc560a-a08b-4a9b-8230-4bf95f5d2e96","system_id":"levelo_inurba_marseille","lat":43.24546,"lon":5.39531,"is_reserved":false,"is_disabled":false,"rental_uris":{"android":"levelo://app?vid=69fc560a-a08b-4a9b-8230-4bf95f5d2e96","ios":"levelo://app?vid=69fc560a-a08b-4a9b-8230-4bf95f5d2e96"},"vehicle_type_id":"4","last_reported":1726247282,"current_range_meters":39200,"station_id":"ce4bhlp2rcd13ifvqgjg","pricing_plan_id":"cebpf4jnsgd1na2vs0mg"},{"bike_id":"5b739ee2-236a-4d43-bfb4-0c8f65a1c9d2","system_id":"levelo_inurba_marseille","lat":43.25813,"lon":5.3944,"is_reserved":false,"is_disabled":false,"rental_uris":{"android":"levelo://app?vid=5b739ee2-236a-4d43-bfb4-0c8f65a1c9d2","ios":"levelo://app?vid=5b739ee2-236a-4d43-bfb4-0c8f65a1c9d2"},"vehicle_type_id":"4","last_reported":1726247282,"current_range_meters":12000,"station_id":"ce4bhip2rcd13ifvqft0","pricing_plan_id":"cebpf4jnsgd1na2vs0mg"},{"bike_id":"eaf3218e-3b2a-4dde-9c15-99a6c4254e56","system_id":"levelo_inurba_marseille","lat":43.299,"lon":5.43657,"is_reserved":false,"is_disabled":false,"rental_uris":{"android":"levelo://app?vid=eaf3218e-3b2a-4dde-9c15-99a6c4254e56","ios":"levelo://app?vid=eaf3218e-3b2a-4dde-9c15-99a6c4254e56"},"vehicle_type_id":"4","last_reported":1726247282,"current_range_meters":38800,"station_id":"ce4bhpp2rcd13ifvqhfg","pricing_plan_id":"cebpf4jnsgd1na2vs0mg"},{"bike_id":"578fe535-1ca5-46e4-9e6c-f0e8aa8560bc","system_id":"levelo_inurba_marseille","lat":43.3236,"lon":5.38877,"is_reserved":false,"is_disabled":false,"rental_uris":{"android":"levelo://app?vid=578fe535-1ca5-46e4-9e6c-f0e8aa8560bc","ios":"levelo://app?vid=578fe535-1ca5-46e4-9e6c-f0e8aa8560bc"},"vehicle_type_id":"4","last_reported":1726247282,"current_range_meters":16400,"station_id":"ce4bhqp2rcd13ifvqhog","pricing_plan_id":"cebpf4jnsgd1na2vs0mg"},{"bike_id":"6dfe49f4-83e2-40d0-8865-0920a4415a17","system_id":"levelo_inurba_marseille","lat":43.29702,"lon":5.377,"is_reserved":false,"is_disabled":false,"rental_uris":{"android":"levelo://app?vid=6dfe49f4-83e2-40d0-8865-0920a4415a17","ios":"levelo://app?vid=6dfe49f4-83e2-40d0-8865-0920a4415a17"},"vehicle_type_id":"4","last_reported":1726247282,"current_range_meters":38400,"station_id":"ce4bgkh2rcd13ifvqbl0","pricing_plan_id":"cebpf4jnsgd1na2vs0mg"},{"bike_id":"16ca6d91-7513-415c-9a61-5d33eb8ad677","system_id":"levelo_inurba_marseille","lat":43.22934,"lon":5.353758,"is_reserved":false,"is_disabled":false,"rental_uris":{"android":"levelo://app?vid=16ca6d91-7513-415c-9a61-5d33eb8ad677","ios":"levelo://app?vid=16ca6d91-7513-415c-9a61-5d33eb8ad677"},"vehicle_type_id":"4","last_reported":1726247282,"current_range_meters":26000,"station_id":"cpo3532slgdg3j2ikp40","pricing_plan_id":"cebpf4jnsgd1na2vs0mg"},{"bike_id":"4b0ffb76-72ae-4f18-90a7-1873c3004871","system_id":"levelo_inurba_marseille","lat":43.3027,"lon":5.37711,"is_reserved":false,"is_disabled":false,"rental_uris":{"android":"levelo://app?vid=4b0ffb76-72ae-4f18-90a7-1873c3004871","ios":"levelo://app?vid=4b0ffb76-72ae-4f18-90a7-1873c3004871"},"vehicle_type_id":"4","last_reported":1726247282,"current_range_meters":22000,"station_id":"ce4bguh2rcd13ifvqcj0","pricing_plan_id":"cebpf4jnsgd1na2vs0mg"},{"bike_id":"6a73d7e8-7f18-49fb-adb6-053380a77979","system_id":"levelo_inurba_marseille","lat":43.311249,"lon":5.388522,"is_reserved":false,"is_disabled":false,"rental_uris":{"android":"levelo://app?vid=6a73d7e8-7f18-49fb-adb6-053380a77979","ios":"levelo://app?vid=6a73d7e8-7f18-49fb-adb6-053380a77979"},"vehicle_type_id":"4","last_reported":1726247282,"current_range_meters":27200,"station_id":"ce4bgv12rcd13ifvqcp0","pricing_plan_id":"cebpf4jnsgd1na2vs0mg"},{"bike_id":"da752d37-08d6-4594-a91f-f2daa05620f5","system_id":"levelo_inurba_marseille","lat":43.24649,"lon":5.38891,"is_reserved":false,"is_disabled":false,"rental_uris":{"android":"levelo://app?vid=da752d37-08d6-4594-a91f-f2daa05620f5","ios":"levelo://app?vid=da752d37-08d6-4594-a91f-f2daa05620f5"},"vehicle_type_id":"4","last_reported":1726247282,"current_range_meters":38800,"station_id":"ce4bhg12rcd13ifvqf60","pricing_plan_id":"cebpf4jnsgd1na2vs0mg"},{"bike_id":"c5465ea1-4e69-4539-880b-a7ffba1e41db","system_id":"levelo_inurba_marseille","lat":43.25699,"lon":5.41105,"is_reserved":false,"is_disabled":false,"rental_uris":{"android":"levelo://app?vid=c5465ea1-4e69-4539-880b-a7ffba1e41db","ios":"levelo://app?vid=c5465ea1-4e69-4539-880b-a7ffba1e41db"},"vehicle_type_id":"4","last_reported":1726247282,"current_range_meters":38400,"station_id":"ce4bhkp2rcd13ifvqgd0","pricing_plan_id":"cebpf4jnsgd1na2vs0mg"},{"bike_id":"e49093f7-6383-4e7f-9f16-cb91fa6cb74b","system_id":"levelo_inurba_marseille","lat":43.25004,"lon":5.38933,"is_reserved":false,"is_disabled":false,"rental_uris":{"android":"levelo://app?vid=e49093f7-6383-4e7f-9f16-cb91fa6cb74b","ios":"levelo://app?vid=e49093f7-6383-4e7f-9f16-cb91fa6cb74b"},"vehicle_type_id":"4","last_reported":1726247282,"current_range_meters":28000,"station_id":"ce4bhgp2rcd13ifvqfd0","pricing_plan_id":"cebpf4jnsgd1na2vs0mg"},{"bike_id":"bcaea7b5-936b-4e65-b428-5636b40aa919","system_id":"levelo_inurba_marseille","lat":43.31273,"lon":5.40169,"is_reserved":false,"is_disabled":false,"rental_uris":{"android":"levelo://app?vid=bcaea7b5-936b-4e65-b428-5636b40aa919","ios":"levelo://app?vid=bcaea7b5-936b-4e65-b428-5636b40aa919"},"vehicle_type_id":"4","last_reported":1726247282,"current_range_meters":38800,"station_id":"ce4bh092rcd13ifvqd30","pricing_plan_id":"cebpf4jnsgd1na2vs0mg"},{"bike_id":"98211fdd-55f8-4aac-8d0d-86f8807528b7","system_id":"levelo_inurba_marseille","lat":43.30334,"lon":5.40441,"is_reserved":false,"is_disabled":false,"rental_uris":{"android":"levelo://app?vid=98211fdd-55f8-4aac-8d0d-86f8807528b7","ios":"levelo://app?vid=98211fdd-55f8-4aac-8d0d-86f8807528b7"},"vehicle_type_id":"4","last_reported":1726247282,"current_range_meters":14800,"station_id":"ce4bh012rcd13ifvqd10","pricing_plan_id":"cebpf4jnsgd1na2vs0mg"},{"bike_id":"0f502031-6c93-4876-b2b3-fd0c55e17cbe","system_id":"levelo_inurba_marseille","lat":43.26955,"lon":5.38631,"is_reserved":false,"is_disabled":false,"rental_uris":{"android":"levelo://app?vid=0f502031-6c93-4876-b2b3-fd0c55e17cbe","ios":"levelo://app?vid=0f502031-6c93-4876-b2b3-fd0c55e17cbe"},"vehicle_type_id":"4","last_reported":1726247282,"current_range_meters":10000,"station_id":"ce4bhh92rcd13ifvqfh0","pricing_plan_id":"cebpf4jnsgd1na2vs0mg"},{"bike_id":"9b49fc06-69dc-4375-9bc8-2ab31283d424","system_id":"levelo_inurba_marseille","lat":43.29901,"lon":5.43657,"is_reserved":false,"is_disabled":false,"rental_uris":{"android":"levelo://app?vid=9b49fc06-69dc-4375-9bc8-2ab31283d424","ios":"levelo://app?vid=9b49fc06-69dc-4375-9bc8-2ab31283d424"},"vehicle_type_id":"4","last_reported":1726247282,"current_range_meters":36800,"station_id":"ce4bhpp2rcd13ifvqhfg","pricing_plan_id":"cebpf4jnsgd1na2vs0mg"},{"bike_id":"c6d56cc6-8f39-491f-9320-5e5bfa5fbbf4","system_id":"levelo_inurba_marseille","lat":43.27173,"lon":5.40988,"is_reserved":false,"is_disabled":false,"rental_uris":{"android":"levelo://app?vid=c6d56cc6-8f39-491f-9320-5e5bfa5fbbf4","ios":"levelo://app?vid=c6d56cc6-8f39-491f-9320-5e5bfa5fbbf4"},"vehicle_type_id":"4","last_reported":1726247282,"current_range_meters":3600,"station_id":"ce4bhl12rcd13ifvqgf0","pricing_plan_id":"cebpf4jnsgd1na2vs0mg"},{"bike_id":"b5305bc3-1f97-417d-ade0-d17e8d952c61","system_id":"levelo_inurba_marseille","lat":43.31719,"lon":5.43714,"is_reserved":false,"is_disabled":false,"rental_uris":{"android":"levelo://app?vid=b5305bc3-1f97-417d-ade0-d17e8d952c61","ios":"levelo://app?vid=b5305bc3-1f97-417d-ade0-d17e8d952c61"},"vehicle_type_id":"4","last_reported":1726247282,"current_range_meters":28000,"station_id":"ce4bhp92rcd13ifvqhcg","pricing_plan_id":"cebpf4jnsgd1na2vs0mg"},{"bike_id":"cf4844d9-34c3-4dd9-ac1c-1ed5e07bcc92","system_id":"levelo_inurba_marseille","lat":43.28464,"lon":5.35891,"is_reserved":false,"is_disabled":false,"rental_uris":{"android":"levelo://app?vid=cf4844d9-34c3-4dd9-ac1c-1ed5e07bcc92","ios":"levelo://app?vid=cf4844d9-34c3-4dd9-ac1c-1ed5e07bcc92"},"vehicle_type_id":"4","last_reported":1726247282,"current_range_meters":16800,"station_id":"ce4bhah2rcd13ifvqei0","pricing_plan_id":"cebpf4jnsgd1na2vs0mg"},{"bike_id":"897d581c-94d2-4cda-9033-39e195f05395","system_id":"levelo_inurba_marseille","lat":43.28446,"lon":5.39206,"is_reserved":false,"is_disabled":false,"rental_uris":{"android":"levelo://app?vid=897d581c-94d2-4cda-9033-39e195f05395","ios":"levelo://app?vid=897d581c-94d2-4cda-9033-39e195f05395"},"vehicle_type_id":"4","last_reported":1726247282,"current_range_meters":8000,"station_id":"ce4bhoh2rcd13ifvqh5g","pricing_plan_id":"cebpf4jnsgd1na2vs0mg"},{"bike_id":"fb6e104d-52ad-43d7-a367-586a7d5bf1fd","system_id":"levelo_inurba_marseille","lat":43.2926,"lon":5.40902,"is_reserved":false,"is_disabled":false,"rental_uris":{"android":"levelo://app?vid=fb6e104d-52ad-43d7-a367-586a7d5bf1fd","ios":"levelo://app?vid=fb6e104d-52ad-43d7-a367-586a7d5bf1fd"},"vehicle_type_id":"4","last_reported":1726247282,"current_range_meters":28400,"station_id":"ce4bh192rcd13ifvqdc0","pricing_plan_id":"cebpf4jnsgd1na2vs0mg"},{"bike_id":"79b7950d-90c8-4e3c-a243-1a31b18cd68e","system_id":"levelo_inurba_marseille","lat":43.23974,"lon":5.36623,"is_reserved":false,"is_disabled":false,"rental_uris":{"android":"levelo://app?vid=79b7950d-90c8-4e3c-a243-1a31b18cd68e","ios":"levelo://app?vid=79b7950d-90c8-4e3c-a243-1a31b18cd68e"},"vehicle_type_id":"4","last_reported":1726247282,"current_range_meters":10000,"station_id":"ce4bhi12rcd13ifvqfp0","pricing_plan_id":"cebpf4jnsgd1na2vs0mg"},{"bike_id":"4d0f967e-c81f-46ed-91db-75a0d012fc0f","system_id":"levelo_inurba_marseille","lat":43.2558,"lon":5.38242,"is_reserved":false,"is_disabled":false,"rental_uris":{"android":"levelo://app?vid=4d0f967e-c81f-46ed-91db-75a0d012fc0f","ios":"levelo://app?vid=4d0f967e-c81f-46ed-91db-75a0d012fc0f"},"vehicle_type_id":"4","last_reported":1726247282,"current_range_meters":19600,"station_id":"ce4bhih2rcd13ifvqfs0","pricing_plan_id":"cebpf4jnsgd1na2vs0mg"},{"bike_id":"976f83ce-ec26-40de-b77b-7cb80ff61012","system_id":"levelo_inurba_marseille","lat":43.314987,"lon":5.373138,"is_reserved":false,"is_disabled":false,"rental_uris":{"android":"levelo://app?vid=976f83ce-ec26-40de-b77b-7cb80ff61012","ios":"levelo://app?vid=976f83ce-ec26-40de-b77b-7cb80ff61012"},"vehicle_type_id":"4","last_reported":1726247282,"current_range_meters":6000,"station_id":"ce4bgih2rcd13ifvqba0","pricing_plan_id":"cebpf4jnsgd1na2vs0mg"},{"bike_id":"d237cecd-8ee6-4a24-ad40-e388fc0e0e15","system_id":"levelo_inurba_marseille","lat":43.27172,"lon":5.40996,"is_reserved":false,"is_disabled":false,"rental_uris":{"android":"levelo://app?vid=d237cecd-8ee6-4a24-ad40-e388fc0e0e15","ios":"levelo://app?vid=d237cecd-8ee6-4a24-ad40-e388fc0e0e15"},"vehicle_type_id":"4","last_reported":1726247282,"current_range_meters":28400,"station_id":"ce4bhl12rcd13ifvqgf0","pricing_plan_id":"cebpf4jnsgd1na2vs0mg"},{"bike_id":"c2f97207-3c28-4fdc-982d-e06641e3926c","system_id":"levelo_inurba_marseille","lat":43.29266,"lon":5.38445,"is_reserved":false,"is_disabled":false,"rental_uris":{"android":"levelo://app?vid=c2f97207-3c28-4fdc-982d-e06641e3926c","ios":"levelo://app?vid=c2f97207-3c28-4fdc-982d-e06641e3926c"},"vehicle_type_id":"4","last_reported":1726247282,"current_range_meters":27200,"station_id":"ce4bh692rcd13ifvqea0","pricing_plan_id":"cebpf4jnsgd1na2vs0mg"},{"bike_id":"60d5bda9-f640-405a-935d-62d1314e50fa","system_id":"levelo_inurba_marseille","lat":43.23968,"lon":5.36637,"is_reserved":false,"is_disabled":false,"rental_uris":{"android":"levelo://app?vid=60d5bda9-f640-405a-935d-62d1314e50fa","ios":"levelo://app?vid=60d5bda9-f640-405a-935d-62d1314e50fa"},"vehicle_type_id":"4","last_reported":1726247282,"current_range_meters":26800,"station_id":"ce4bhi12rcd13ifvqfp0","pricing_plan_id":"cebpf4jnsgd1na2vs0mg"},{"bike_id":"282bd09f-caa5-4f3c-9372-c9952bf71863","system_id":"levelo_inurba_marseille","lat":43.26062,"lon":5.39397,"is_reserved":false,"is_disabled":false,"rental_uris":{"android":"levelo://app?vid=282bd09f-caa5-4f3c-9372-c9952bf71863","ios":"levelo://app?vid=282bd09f-caa5-4f3c-9372-c9952bf71863"},"vehicle_type_id":"4","last_reported":1726247282,"current_range_meters":23200,"station_id":"ce4bhh92rcd13ifvqfj0","pricing_plan_id":"cebpf4jnsgd1na2vs0mg"},{"bike_id":"51efaa28-be78-438d-9593-a5c65646c0fd","system_id":"levelo_inurba_marseille","lat":43.25937,"lon":5.40915,"is_reserved":false,"is_disabled":false,"rental_uris":{"android":"levelo://app?vid=51efaa28-be78-438d-9593-a5c65646c0fd","ios":"levelo://app?vid=51efaa28-be78-438d-9593-a5c65646c0fd"},"vehicle_type_id":"4","last_reported":1726247282,"current_range_meters":38000,"station_id":"ce4bhm92rcd13ifvqglg","pricing_plan_id":"cebpf4jnsgd1na2vs0mg"},{"bike_id":"07054efa-fd20-48a1-9fdf-ce1b8991eb40","system_id":"levelo_inurba_marseille","lat":43.25117,"lon":5.40322,"is_reserved":false,"is_disabled":false,"rental_uris":{"android":"levelo://app?vid=07054efa-fd20-48a1-9fdf-ce1b8991eb40","ios":"levelo://app?vid=07054efa-fd20-48a1-9fdf-ce1b8991eb40"},"vehicle_type_id":"4","last_reported":1726247282,"current_range_meters":38800,"station_id":"ce4bhlh2rcd13ifvqgig","pricing_plan_id":"cebpf4jnsgd1na2vs0mg"},{"bike_id":"4f0ea37a-15ba-4240-b0fa-68e3874bc062","system_id":"levelo_inurba_marseille","lat":43.24996,"lon":5.38938,"is_reserved":false,"is_disabled":false,"rental_uris":{"android":"levelo://app?vid=4f0ea37a-15ba-4240-b0fa-68e3874bc062","ios":"levelo://app?vid=4f0ea37a-15ba-4240-b0fa-68e3874bc062"},"vehicle_type_id":"4","last_reported":1726247282,"current_range_meters":5600,"station_id":"ce4bhgp2rcd13ifvqfd0","pricing_plan_id":"cebpf4jnsgd1na2vs0mg"},{"bike_id":"37eddef0-a362-449d-9103-016296f1ceff","system_id":"levelo_inurba_marseille","lat":43.3172,"lon":5.42397,"is_reserved":false,"is_disabled":false,"rental_uris":{"android":"levelo://app?vid=37eddef0-a362-449d-9103-016296f1ceff","ios":"levelo://app?vid=37eddef0-a362-449d-9103-016296f1ceff"},"vehicle_type_id":"4","last_reported":1726247282,"current_range_meters":2800,"station_id":"ce4bhp92rcd13ifvqhbg","pricing_plan_id":"cebpf4jnsgd1na2vs0mg"},{"bike_id":"01397819-866a-466e-b7a8-fb1eaee03617","system_id":"levelo_inurba_marseille","lat":43.26948,"lon":5.40249,"is_reserved":false,"is_disabled":false,"rental_uris":{"android":"levelo://app?vid=01397819-866a-466e-b7a8-fb1eaee03617","ios":"levelo://app?vid=01397819-866a-466e-b7a8-fb1eaee03617"},"vehicle_type_id":"4","last_reported":1726247282,"current_range_meters":38000,"station_id":"cjm6bp8fraef2m0cb0m0","pricing_plan_id":"cebpf4jnsgd1na2vs0mg"},{"bike_id":"d9c275dc-0fcf-4fde-9d71-32b2cc515d1b","system_id":"levelo_inurba_marseille","lat":43.27808,"lon":5.40707,"is_reserved":false,"is_disabled":false,"rental_uris":{"android":"levelo://app?vid=d9c275dc-0fcf-4fde-9d71-32b2cc515d1b","ios":"levelo://app?vid=d9c275dc-0fcf-4fde-9d71-32b2cc515d1b"},"vehicle_type_id":"4","last_reported":1726247282,"current_range_meters":31200,"station_id":"ce4bhnh2rcd13ifvqgtg","pricing_plan_id":"cebpf4jnsgd1na2vs0mg"},{"bike_id":"df2d882e-485a-456b-a3dc-7d94861154c3","system_id":"levelo_inurba_marseille","lat":43.25863,"lon":5.39908,"is_reserved":false,"is_disabled":false,"rental_uris":{"android":"levelo://app?vid=df2d882e-485a-456b-a3dc-7d94861154c3","ios":"levelo://app?vid=df2d882e-485a-456b-a3dc-7d94861154c3"},"vehicle_type_id":"4","last_reported":1726247282,"current_range_meters":4400,"station_id":"ce4bhl92rcd13ifvqghg","pricing_plan_id":"cebpf4jnsgd1na2vs0mg"},{"bike_id":"02ad2c3d-0087-4851-8ace-c9437b1855db","system_id":"levelo_inurba_marseille","lat":43.29882,"lon":5.38906,"is_reserved":false,"is_disabled":false,"rental_uris":{"android":"levelo://app?vid=02ad2c3d-0087-4851-8ace-c9437b1855db","ios":"levelo://app?vid=02ad2c3d-0087-4851-8ace-c9437b1855db"},"vehicle_type_id":"4","last_reported":1726247282,"current_range_meters":19600,"station_id":"ce4bh392rcd13ifvqdl0","pricing_plan_id":"cebpf4jnsgd1na2vs0mg"},{"bike_id":"2d9f6a36-1e8d-46ce-8819-b2bb04006d43","system_id":"levelo_inurba_marseille","lat":43.25584,"lon":5.38223,"is_reserved":false,"is_disabled":false,"rental_uris":{"android":"levelo://app?vid=2d9f6a36-1e8d-46ce-8819-b2bb04006d43","ios":"levelo://app?vid=2d9f6a36-1e8d-46ce-8819-b2bb04006d43"},"vehicle_type_id":"4","last_reported":1726247282,"current_range_meters":28400,"station_id":"ce4bhih2rcd13ifvqfs0","pricing_plan_id":"cebpf4jnsgd1na2vs0mg"},{"bike_id":"75c35499-0de6-41a0-acf5-7c9b58381038","system_id":"levelo_inurba_marseille","lat":43.23179,"lon":5.39984,"is_reserved":false,"is_disabled":false,"rental_uris":{"android":"levelo://app?vid=75c35499-0de6-41a0-acf5-7c9b58381038","ios":"levelo://app?vid=75c35499-0de6-41a0-acf5-7c9b58381038"},"vehicle_type_id":"4","last_reported":1726247282,"current_range_meters":18800,"station_id":"ce4bhn12rcd13ifvqgqg","pricing_plan_id":"cebpf4jnsgd1na2vs0mg"},{"bike_id":"cab3912d-e9e1-4e44-b638-b45c03586c2a","system_id":"levelo_inurba_marseille","lat":43.25115,"lon":5.40318,"is_reserved":false,"is_disabled":false,"rental_uris":{"android":"levelo://app?vid=cab3912d-e9e1-4e44-b638-b45c03586c2a","ios":"levelo://app?vid=cab3912d-e9e1-4e44-b638-b45c03586c2a"},"vehicle_type_id":"4","last_reported":1726247282,"current_range_meters":27200,"station_id":"ce4bhlh2rcd13ifvqgig","pricing_plan_id":"cebpf4jnsgd1na2vs0mg"},{"bike_id":"e62c8c71-b14f-4c94-8aa4-e0afcaaf93b6","system_id":"levelo_inurba_marseille","lat":43.24816,"lon":5.37461,"is_reserved":false,"is_disabled":false,"rental_uris":{"android":"levelo://app?vid=e62c8c71-b14f-4c94-8aa4-e0afcaaf93b6","ios":"levelo://app?vid=e62c8c71-b14f-4c94-8aa4-e0afcaaf93b6"},"vehicle_type_id":"4","last_reported":1726247282,"current_range_meters":31200,"station_id":"ce4bhgh2rcd13ifvqfb0","pricing_plan_id":"cebpf4jnsgd1na2vs0mg"},{"bike_id":"af2e67ad-dc3d-4e46-97a0-d010cb5763b4","system_id":"levelo_inurba_marseille","lat":43.30804,"lon":5.38163,"is_reserved":false,"is_disabled":false,"rental_uris":{"android":"levelo://app?vid=af2e67ad-dc3d-4e46-97a0-d010cb5763b4","ios":"levelo://app?vid=af2e67ad-dc3d-4e46-97a0-d010cb5763b4"},"vehicle_type_id":"4","last_reported":1726247282,"current_range_meters":29600,"station_id":"ce4bgt12rcd13ifvqce0","pricing_plan_id":"cebpf4jnsgd1na2vs0mg"},{"bike_id":"43bffdaf-4949-4036-9f51-d44ed9706637","system_id":"levelo_inurba_marseille","lat":43.29526,"lon":5.39042,"is_reserved":false,"is_disabled":false,"rental_uris":{"android":"levelo://app?vid=43bffdaf-4949-4036-9f51-d44ed9706637","ios":"levelo://app?vid=43bffdaf-4949-4036-9f51-d44ed9706637"},"vehicle_type_id":"4","last_reported":1726247282,"current_range_meters":30000,"station_id":"ce4bh3p2rcd13ifvqdp0","pricing_plan_id":"cebpf4jnsgd1na2vs0mg"},{"bike_id":"b506159f-a775-4733-b310-23093ca74a69","system_id":"levelo_inurba_marseille","lat":43.33021,"lon":5.39048,"is_reserved":false,"is_disabled":false,"rental_uris":{"android":"levelo://app?vid=b506159f-a775-4733-b310-23093ca74a69","ios":"levelo://app?vid=b506159f-a775-4733-b310-23093ca74a69"},"vehicle_type_id":"4","last_reported":1726247282,"current_range_meters":17600,"station_id":"ce4bhr92rcd13ifvqhrg","pricing_plan_id":"cebpf4jnsgd1na2vs0mg"},{"bike_id":"bfecbd15-2d19-4641-9233-f24f0817f561","system_id":"levelo_inurba_marseille","lat":43.29007,"lon":5.35622,"is_reserved":false,"is_disabled":false,"rental_uris":{"android":"levelo://app?vid=bfecbd15-2d19-4641-9233-f24f0817f561","ios":"levelo://app?vid=bfecbd15-2d19-4641-9233-f24f0817f561"},"vehicle_type_id":"4","last_reported":1726247282,"current_range_meters":16800,"station_id":"ce4bhb92rcd13ifvqen0","pricing_plan_id":"cebpf4jnsgd1na2vs0mg"},{"bike_id":"91d155a1-0e95-42f4-9cf2-24e586735a13","system_id":"levelo_inurba_marseille","lat":43.33727,"lon":5.3918,"is_reserved":false,"is_disabled":false,"rental_uris":{"android":"levelo://app?vid=91d155a1-0e95-42f4-9cf2-24e586735a13","ios":"levelo://app?vid=91d155a1-0e95-42f4-9cf2-24e586735a13"},"vehicle_type_id":"4","last_reported":1726247282,"current_range_meters":28000,"station_id":"ce4bhr92rcd13ifvqhsg","pricing_plan_id":"cebpf4jnsgd1na2vs0mg"},{"bike_id":"078a3408-b55c-4f63-be3f-5d87d64d0202","system_id":"levelo_inurba_marseille","lat":43.33025,"lon":5.39044,"is_reserved":false,"is_disabled":false,"rental_uris":{"android":"levelo://app?vid=078a3408-b55c-4f63-be3f-5d87d64d0202","ios":"levelo://app?vid=078a3408-b55c-4f63-be3f-5d87d64d0202"},"vehicle_type_id":"4","last_reported":1726247282,"current_range_meters":24800,"station_id":"ce4bhr92rcd13ifvqhrg","pricing_plan_id":"cebpf4jnsgd1na2vs0mg"},{"bike_id":"9368e81d-9d41-40d8-9614-e043ff6b63f3","system_id":"levelo_inurba_marseille","lat":43.31367,"lon":5.38497,"is_reserved":false,"is_disabled":false,"rental_uris":{"android":"levelo://app?vid=9368e81d-9d41-40d8-9614-e043ff6b63f3","ios":"levelo://app?vid=9368e81d-9d41-40d8-9614-e043ff6b63f3"},"vehicle_type_id":"4","last_reported":1726247282,"current_range_meters":24000,"station_id":"ce4bgt92rcd13ifvqcf0","pricing_plan_id":"cebpf4jnsgd1na2vs0mg"},{"bike_id":"84d30493-e4e4-45f6-9ada-2a6b00efba45","system_id":"levelo_inurba_marseille","lat":43.28461,"lon":5.35883,"is_reserved":false,"is_disabled":false,"rental_uris":{"android":"levelo://app?vid=84d30493-e4e4-45f6-9ada-2a6b00efba45","ios":"levelo://app?vid=84d30493-e4e4-45f6-9ada-2a6b00efba45"},"vehicle_type_id":"4","last_reported":1726247282,"current_range_meters":23200,"station_id":"ce4bhah2rcd13ifvqei0","pricing_plan_id":"cebpf4jnsgd1na2vs0mg"},{"bike_id":"a8408bc0-1ad0-4261-92e7-4324637d7c82","system_id":"levelo_inurba_marseille","lat":43.28996,"lon":5.35654,"is_reserved":false,"is_disabled":false,"rental_uris":{"android":"levelo://app?vid=a8408bc0-1ad0-4261-92e7-4324637d7c82","ios":"levelo://app?vid=a8408bc0-1ad0-4261-92e7-4324637d7c82"},"vehicle_type_id":"4","last_reported":1726247282,"current_range_meters":38800,"station_id":"ce4bhb92rcd13ifvqen0","pricing_plan_id":"cebpf4jnsgd1na2vs0mg"},{"bike_id":"0d9f035c-8e47-426d-8593-e2bc7f05f235","system_id":"levelo_inurba_marseille","lat":43.3044,"lon":5.365,"is_reserved":false,"is_disabled":false,"rental_uris":{"android":"levelo://app?vid=0d9f035c-8e47-426d-8593-e2bc7f05f235","ios":"levelo://app?vid=0d9f035c-8e47-426d-8593-e2bc7f05f235"},"vehicle_type_id":"4","last_reported":1726247282,"current_range_meters":12000,"station_id":"","pricing_plan_id":"cebpf4jnsgd1na2vs0mg"},{"bike_id":"81d0d14e-72b8-4338-9c2e-ce41da7fbf95","system_id":"levelo_inurba_marseille","lat":43.33019,"lon":5.39029,"is_reserved":false,"is_disabled":false,"rental_uris":{"android":"levelo://app?vid=81d0d14e-72b8-4338-9c2e-ce41da7fbf95","ios":"levelo://app?vid=81d0d14e-72b8-4338-9c2e-ce41da7fbf95"},"vehicle_type_id":"4","last_reported":1726247282,"current_range_meters":2800,"station_id":"ce4bhr92rcd13ifvqhrg","pricing_plan_id":"cebpf4jnsgd1na2vs0mg"},{"bike_id":"7c6a3d1d-5586-40b3-8858-f9553a678be6","system_id":"levelo_inurba_marseille","lat":43.311737,"lon":5.387228,"is_reserved":false,"is_disabled":false,"rental_uris":{"android":"levelo://app?vid=7c6a3d1d-5586-40b3-8858-f9553a678be6","ios":"levelo://app?vid=7c6a3d1d-5586-40b3-8858-f9553a678be6"},"vehicle_type_id":"4","last_reported":1726247282,"current_range_meters":33200,"station_id":"ce4bgv12rcd13ifvqcp0","pricing_plan_id":"cebpf4jnsgd1na2vs0mg"},{"bike_id":"4fa3e9cb-6ee1-4de6-921f-e080fc027121","system_id":"levelo_inurba_marseille","lat":43.27811,"lon":5.40719,"is_reserved":false,"is_disabled":false,"rental_uris":{"android":"levelo://app?vid=4fa3e9cb-6ee1-4de6-921f-e080fc027121","ios":"levelo://app?vid=4fa3e9cb-6ee1-4de6-921f-e080fc027121"},"vehicle_type_id":"4","last_reported":1726247282,"current_range_meters":24800,"station_id":"ce4bhnh2rcd13ifvqgtg","pricing_plan_id":"cebpf4jnsgd1na2vs0mg"},{"bike_id":"6d2cd0d2-4579-48cc-a4c4-d76c3fc97e04","system_id":"levelo_inurba_marseille","lat":43.29528,"lon":5.38557,"is_reserved":false,"is_disabled":false,"rental_uris":{"android":"levelo://app?vid=6d2cd0d2-4579-48cc-a4c4-d76c3fc97e04","ios":"levelo://app?vid=6d2cd0d2-4579-48cc-a4c4-d76c3fc97e04"},"vehicle_type_id":"4","last_reported":1726247282,"current_range_meters":12400,"station_id":"ce4bgih2rcd13ifvqba0","pricing_plan_id":"cebpf4jnsgd1na2vs0mg"},{"bike_id":"552ccea4-a0ab-4fa2-9015-1ea8da64cd61","system_id":"levelo_inurba_marseille","lat":43.2558,"lon":5.38229,"is_reserved":false,"is_disabled":false,"rental_uris":{"android":"levelo://app?vid=552ccea4-a0ab-4fa2-9015-1ea8da64cd61","ios":"levelo://app?vid=552ccea4-a0ab-4fa2-9015-1ea8da64cd61"},"vehicle_type_id":"4","last_reported":1726247282,"current_range_meters":9200,"station_id":"ce4bhih2rcd13ifvqfs0","pricing_plan_id":"cebpf4jnsgd1na2vs0mg"},{"bike_id":"74b5bffc-423f-4572-b53d-4b789800802e","system_id":"levelo_inurba_marseille","lat":43.28436,"lon":5.39183,"is_reserved":false,"is_disabled":false,"rental_uris":{"android":"levelo://app?vid=74b5bffc-423f-4572-b53d-4b789800802e","ios":"levelo://app?vid=74b5bffc-423f-4572-b53d-4b789800802e"},"vehicle_type_id":"4","last_reported":1726247282,"current_range_meters":26000,"station_id":"ce4bhoh2rcd13ifvqh5g","pricing_plan_id":"cebpf4jnsgd1na2vs0mg"},{"bike_id":"7c0ae92f-06d0-4ab8-bbd8-831a5ec57f08","system_id":"levelo_inurba_marseille","lat":43.24664,"lon":5.38587,"is_reserved":false,"is_disabled":false,"rental_uris":{"android":"levelo://app?vid=7c0ae92f-06d0-4ab8-bbd8-831a5ec57f08","ios":"levelo://app?vid=7c0ae92f-06d0-4ab8-bbd8-831a5ec57f08"},"vehicle_type_id":"4","last_reported":1726247282,"current_range_meters":3600,"station_id":"","pricing_plan_id":"cebpf4jnsgd1na2vs0mg"},{"bike_id":"05740b2b-0778-49c7-9cd4-780ed5092aed","system_id":"levelo_inurba_marseille","lat":43.24389,"lon":5.37056,"is_reserved":false,"is_disabled":false,"rental_uris":{"android":"levelo://app?vid=05740b2b-0778-49c7-9cd4-780ed5092aed","ios":"levelo://app?vid=05740b2b-0778-49c7-9cd4-780ed5092aed"},"vehicle_type_id":"4","last_reported":1726247282,"current_range_meters":5600,"station_id":"ce4bhhh2rcd13ifvqfk0","pricing_plan_id":"cebpf4jnsgd1na2vs0mg"},{"bike_id":"68ea187f-1c60-49b3-828b-0034e7d44877","system_id":"levelo_inurba_marseille","lat":43.2845,"lon":5.35891,"is_reserved":false,"is_disabled":false,"rental_uris":{"android":"levelo://app?vid=68ea187f-1c60-49b3-828b-0034e7d44877","ios":"levelo://app?vid=68ea187f-1c60-49b3-828b-0034e7d44877"},"vehicle_type_id":"4","last_reported":1726247282,"current_range_meters":16000,"station_id":"ce4bhah2rcd13ifvqei0","pricing_plan_id":"cebpf4jnsgd1na2vs0mg"},{"bike_id":"1aecfa96-790f-4210-a22a-351e702c2113","system_id":"levelo_inurba_marseille","lat":43.3032,"lon":5.36903,"is_reserved":false,"is_disabled":false,"rental_uris":{"android":"levelo://app?vid=1aecfa96-790f-4210-a22a-351e702c2113","ios":"levelo://app?vid=1aecfa96-790f-4210-a22a-351e702c2113"},"vehicle_type_id":"4","last_reported":1726247282,"current_range_meters":3200,"station_id":"ce4bgqh2rcd13ifvqc5g","pricing_plan_id":"cebpf4jnsgd1na2vs0mg"},{"bike_id":"03fc5a7a-b9cb-42ca-8fea-fc7acfdf89b9","system_id":"levelo_inurba_marseille","lat":43.29423,"lon":5.3862,"is_reserved":false,"is_disabled":false,"rental_uris":{"android":"levelo://app?vid=03fc5a7a-b9cb-42ca-8fea-fc7acfdf89b9","ios":"levelo://app?vid=03fc5a7a-b9cb-42ca-8fea-fc7acfdf89b9"},"vehicle_type_id":"4","last_reported":1726247282,"current_range_meters":39200,"station_id":"ce4bh2h2rcd13ifvqdh0","pricing_plan_id":"cebpf4jnsgd1na2vs0mg"},{"bike_id":"c2fffdea-fea6-4584-bd0b-df4cf5a5c761","system_id":"levelo_inurba_marseille","lat":43.24668,"lon":5.38171,"is_reserved":false,"is_disabled":false,"rental_uris":{"android":"levelo://app?vid=c2fffdea-fea6-4584-bd0b-df4cf5a5c761","ios":"levelo://app?vid=c2fffdea-fea6-4584-bd0b-df4cf5a5c761"},"vehicle_type_id":"4","last_reported":1726247282,"current_range_meters":9200,"station_id":"ce4bhih2rcd13ifvqfr0","pricing_plan_id":"cebpf4jnsgd1na2vs0mg"},{"bike_id":"d9a73953-02ab-4cff-9eb0-9aaeaa7afa8d","system_id":"levelo_inurba_marseille","lat":43.290256,"lon":5.386559,"is_reserved":false,"is_disabled":false,"rental_uris":{"android":"levelo://app?vid=d9a73953-02ab-4cff-9eb0-9aaeaa7afa8d","ios":"levelo://app?vid=d9a73953-02ab-4cff-9eb0-9aaeaa7afa8d"},"vehicle_type_id":"4","last_reported":1726247282,"current_range_meters":17200,"station_id":"ce4bh4p2rcd13ifvqe0g","pricing_plan_id":"cebpf4jnsgd1na2vs0mg"},{"bike_id":"82c0c6a5-b733-407b-8add-3604b3233b0c","system_id":"levelo_inurba_marseille","lat":43.30909,"lon":5.36847,"is_reserved":false,"is_disabled":false,"rental_uris":{"android":"levelo://app?vid=82c0c6a5-b733-407b-8add-3604b3233b0c","ios":"levelo://app?vid=82c0c6a5-b733-407b-8add-3604b3233b0c"},"vehicle_type_id":"4","last_reported":1726247282,"current_range_meters":10800,"station_id":"ce4bgn92rcd13ifvqbvg","pricing_plan_id":"cebpf4jnsgd1na2vs0mg"},{"bike_id":"8261ace5-2139-442c-b15a-c46a7ca49df2","system_id":"levelo_inurba_marseille","lat":43.299,"lon":5.43668,"is_reserved":false,"is_disabled":false,"rental_uris":{"android":"levelo://app?vid=8261ace5-2139-442c-b15a-c46a7ca49df2","ios":"levelo://app?vid=8261ace5-2139-442c-b15a-c46a7ca49df2"},"vehicle_type_id":"4","last_reported":1726247282,"current_range_meters":30400,"station_id":"ce4bhpp2rcd13ifvqhfg","pricing_plan_id":"cebpf4jnsgd1na2vs0mg"},{"bike_id":"4afb8b00-be3a-4d15-9b8b-47916e625762","system_id":"levelo_inurba_marseille","lat":43.28533,"lon":5.4423,"is_reserved":false,"is_disabled":false,"rental_uris":{"android":"levelo://app?vid=4afb8b00-be3a-4d15-9b8b-47916e625762","ios":"levelo://app?vid=4afb8b00-be3a-4d15-9b8b-47916e625762"},"vehicle_type_id":"4","last_reported":1726247282,"current_range_meters":26800,"station_id":"","pricing_plan_id":"cebpf4jnsgd1na2vs0mg"},{"bike_id":"bb7acf50-b6bc-4b2d-adf4-833abc23b24c","system_id":"levelo_inurba_marseille","lat":43.23196,"lon":5.35557,"is_reserved":false,"is_disabled":false,"rental_uris":{"android":"levelo://app?vid=bb7acf50-b6bc-4b2d-adf4-833abc23b24c","ios":"levelo://app?vid=bb7acf50-b6bc-4b2d-adf4-833abc23b24c"},"vehicle_type_id":"4","last_reported":1726247282,"current_range_meters":39200,"station_id":"ce4bhu92rcd13ifvqi70","pricing_plan_id":"cebpf4jnsgd1na2vs0mg"},{"bike_id":"b18024c1-368a-4cb8-a217-bd113fc817c8","system_id":"levelo_inurba_marseille","lat":43.29897,"lon":5.43669,"is_reserved":false,"is_disabled":false,"rental_uris":{"android":"levelo://app?vid=b18024c1-368a-4cb8-a217-bd113fc817c8","ios":"levelo://app?vid=b18024c1-368a-4cb8-a217-bd113fc817c8"},"vehicle_type_id":"4","last_reported":1726247282,"current_range_meters":6800,"station_id":"ce4bhpp2rcd13ifvqhfg","pricing_plan_id":"cebpf4jnsgd1na2vs0mg"},{"bike_id":"bc8be1fd-7bee-49c5-817c-184bdd69b536","system_id":"levelo_inurba_marseille","lat":43.27866,"lon":5.42538,"is_reserved":false,"is_disabled":false,"rental_uris":{"android":"levelo://app?vid=bc8be1fd-7bee-49c5-817c-184bdd69b536","ios":"levelo://app?vid=bc8be1fd-7bee-49c5-817c-184bdd69b536"},"vehicle_type_id":"4","last_reported":1726247282,"current_range_meters":29600,"station_id":"","pricing_plan_id":"cebpf4jnsgd1na2vs0mg"},{"bike_id":"452dd062-9dd5-418a-a8a9-271926c5cfa3","system_id":"levelo_inurba_marseille","lat":43.30184,"lon":5.36614,"is_reserved":false,"is_disabled":false,"rental_uris":{"android":"levelo://app?vid=452dd062-9dd5-418a-a8a9-271926c5cfa3","ios":"levelo://app?vid=452dd062-9dd5-418a-a8a9-271926c5cfa3"},"vehicle_type_id":"4","last_reported":1726247282,"current_range_meters":38800,"station_id":"ce4bgrh2rcd13ifvqc8g","pricing_plan_id":"cebpf4jnsgd1na2vs0mg"},{"bike_id":"bacbd85c-71dc-4ea1-8e8c-762e4476b5b0","system_id":"levelo_inurba_marseille","lat":43.3237,"lon":5.38888,"is_reserved":false,"is_disabled":false,"rental_uris":{"android":"levelo://app?vid=bacbd85c-71dc-4ea1-8e8c-762e4476b5b0","ios":"levelo://app?vid=bacbd85c-71dc-4ea1-8e8c-762e4476b5b0"},"vehicle_type_id":"4","last_reported":1726247282,"current_range_meters":33200,"station_id":"ce4bhqp2rcd13ifvqhog","pricing_plan_id":"cebpf4jnsgd1na2vs0mg"},{"bike_id":"ed98b8c2-35cf-41e3-a455-60bcc6aa97ea","system_id":"levelo_inurba_marseille","lat":43.302,"lon":5.36624,"is_reserved":false,"is_disabled":false,"rental_uris":{"android":"levelo://app?vid=ed98b8c2-35cf-41e3-a455-60bcc6aa97ea","ios":"levelo://app?vid=ed98b8c2-35cf-41e3-a455-60bcc6aa97ea"},"vehicle_type_id":"4","last_reported":1726247282,"current_range_meters":36400,"station_id":"ce4bgrh2rcd13ifvqc8g","pricing_plan_id":"cebpf4jnsgd1na2vs0mg"},{"bike_id":"1b2aaa6a-b972-4d3e-bc36-f68099fbaed5","system_id":"levelo_inurba_marseille","lat":43.29788,"lon":5.39346,"is_reserved":false,"is_disabled":false,"rental_uris":{"android":"levelo://app?vid=1b2aaa6a-b972-4d3e-bc36-f68099fbaed5","ios":"levelo://app?vid=1b2aaa6a-b972-4d3e-bc36-f68099fbaed5"},"vehicle_type_id":"4","last_reported":1726247282,"current_range_meters":11200,"station_id":"chh1huq6cuj3fo74tm60","pricing_plan_id":"cebpf4jnsgd1na2vs0mg"},{"bike_id":"1c887a3b-4540-4149-99b9-24bf12dc648f","system_id":"levelo_inurba_marseille","lat":43.23191,"lon":5.39987,"is_reserved":false,"is_disabled":false,"rental_uris":{"android":"levelo://app?vid=1c887a3b-4540-4149-99b9-24bf12dc648f","ios":"levelo://app?vid=1c887a3b-4540-4149-99b9-24bf12dc648f"},"vehicle_type_id":"4","last_reported":1726247282,"current_range_meters":18800,"station_id":"ce4bhn12rcd13ifvqgqg","pricing_plan_id":"cebpf4jnsgd1na2vs0mg"},{"bike_id":"871d4b87-6cdd-4402-b16f-8164c61ab8cb","system_id":"levelo_inurba_marseille","lat":43.29422,"lon":5.38623,"is_reserved":false,"is_disabled":false,"rental_uris":{"android":"levelo://app?vid=871d4b87-6cdd-4402-b16f-8164c61ab8cb","ios":"levelo://app?vid=871d4b87-6cdd-4402-b16f-8164c61ab8cb"},"vehicle_type_id":"4","last_reported":1726247282,"current_range_meters":27600,"station_id":"ce4bh2h2rcd13ifvqdh0","pricing_plan_id":"cebpf4jnsgd1na2vs0mg"},{"bike_id":"4e71b161-2626-4195-90d8-1e2daa16850d","system_id":"levelo_inurba_marseille","lat":43.33026,"lon":5.39042,"is_reserved":false,"is_disabled":false,"rental_uris":{"android":"levelo://app?vid=4e71b161-2626-4195-90d8-1e2daa16850d","ios":"levelo://app?vid=4e71b161-2626-4195-90d8-1e2daa16850d"},"vehicle_type_id":"4","last_reported":1726247282,"current_range_meters":22000,"station_id":"ce4bhr92rcd13ifvqhrg","pricing_plan_id":"cebpf4jnsgd1na2vs0mg"},{"bike_id":"50a30cd5-a0ba-497f-b298-0389b976c80b","system_id":"levelo_inurba_marseille","lat":43.29573,"lon":5.3997,"is_reserved":false,"is_disabled":false,"rental_uris":{"android":"levelo://app?vid=50a30cd5-a0ba-497f-b298-0389b976c80b","ios":"levelo://app?vid=50a30cd5-a0ba-497f-b298-0389b976c80b"},"vehicle_type_id":"4","last_reported":1726247282,"current_range_meters":12000,"station_id":"ce4bh312rcd13ifvqdj0","pricing_plan_id":"cebpf4jnsgd1na2vs0mg"},{"bike_id":"cc820173-fa13-4e40-8bcf-49499ca9221e","system_id":"levelo_inurba_marseille","lat":43.30141,"lon":5.38783,"is_reserved":false,"is_disabled":false,"rental_uris":{"android":"levelo://app?vid=cc820173-fa13-4e40-8bcf-49499ca9221e","ios":"levelo://app?vid=cc820173-fa13-4e40-8bcf-49499ca9221e"},"vehicle_type_id":"4","last_reported":1726247282,"current_range_meters":17600,"station_id":"ce4bghh2rcd13ifvqb60","pricing_plan_id":"cebpf4jnsgd1na2vs0mg"},{"bike_id":"06444ed7-cf13-4c1e-9077-801c8a8ef5c3","system_id":"levelo_inurba_marseille","lat":43.29524,"lon":5.39057,"is_reserved":false,"is_disabled":false,"rental_uris":{"android":"levelo://app?vid=06444ed7-cf13-4c1e-9077-801c8a8ef5c3","ios":"levelo://app?vid=06444ed7-cf13-4c1e-9077-801c8a8ef5c3"},"vehicle_type_id":"4","last_reported":1726247282,"current_range_meters":10000,"station_id":"ce4bh3p2rcd13ifvqdp0","pricing_plan_id":"cebpf4jnsgd1na2vs0mg"},{"bike_id":"c28ff0f1-1713-431a-bccf-4e7a21e8e39b","system_id":"levelo_inurba_marseille","lat":43.25501,"lon":5.37651,"is_reserved":false,"is_disabled":false,"rental_uris":{"android":"levelo://app?vid=c28ff0f1-1713-431a-bccf-4e7a21e8e39b","ios":"levelo://app?vid=c28ff0f1-1713-431a-bccf-4e7a21e8e39b"},"vehicle_type_id":"4","last_reported":1726247282,"current_range_meters":39200,"station_id":"ce4bhh12rcd13ifvqff0","pricing_plan_id":"cebpf4jnsgd1na2vs0mg"},{"bike_id":"6faa3ef1-a9e1-473d-98c8-1ef595119efc","system_id":"levelo_inurba_marseille","lat":43.29539,"lon":5.38538,"is_reserved":false,"is_disabled":false,"rental_uris":{"android":"levelo://app?vid=6faa3ef1-a9e1-473d-98c8-1ef595119efc","ios":"levelo://app?vid=6faa3ef1-a9e1-473d-98c8-1ef595119efc"},"vehicle_type_id":"4","last_reported":1726247282,"current_range_meters":9600,"station_id":"ce4bgih2rcd13ifvqba0","pricing_plan_id":"cebpf4jnsgd1na2vs0mg"},{"bike_id":"d63b08fd-7716-422a-94e4-8f1dfff5bb11","system_id":"levelo_inurba_marseille","lat":43.28615,"lon":5.35097,"is_reserved":false,"is_disabled":false,"rental_uris":{"android":"levelo://app?vid=d63b08fd-7716-422a-94e4-8f1dfff5bb11","ios":"levelo://app?vid=d63b08fd-7716-422a-94e4-8f1dfff5bb11"},"vehicle_type_id":"4","last_reported":1726247282,"current_range_meters":38000,"station_id":"ce4bhch2rcd13ifvqeug","pricing_plan_id":"cebpf4jnsgd1na2vs0mg"},{"bike_id":"ec70d30b-37ec-4b5c-b10c-9617e30c7fa0","system_id":"levelo_inurba_marseille","lat":43.29897,"lon":5.36622,"is_reserved":false,"is_disabled":false,"rental_uris":{"android":"levelo://app?vid=ec70d30b-37ec-4b5c-b10c-9617e30c7fa0","ios":"levelo://app?vid=ec70d30b-37ec-4b5c-b10c-9617e30c7fa0"},"vehicle_type_id":"4","last_reported":1726247282,"current_range_meters":16000,"station_id":"","pricing_plan_id":"cebpf4jnsgd1na2vs0mg"},{"bike_id":"415d3c4f-5242-4572-8d05-9e1bd45eae7f","system_id":"levelo_inurba_marseille","lat":43.25575,"lon":5.38235,"is_reserved":false,"is_disabled":false,"rental_uris":{"android":"levelo://app?vid=415d3c4f-5242-4572-8d05-9e1bd45eae7f","ios":"levelo://app?vid=415d3c4f-5242-4572-8d05-9e1bd45eae7f"},"vehicle_type_id":"4","last_reported":1726247282,"current_range_meters":32400,"station_id":"ce4bhih2rcd13ifvqfs0","pricing_plan_id":"cebpf4jnsgd1na2vs0mg"},{"bike_id":"a8f6a4f8-4af2-406a-8422-284b6ef6c2d9","system_id":"levelo_inurba_marseille","lat":43.291138,"lon":5.380883,"is_reserved":false,"is_disabled":false,"rental_uris":{"android":"levelo://app?vid=a8f6a4f8-4af2-406a-8422-284b6ef6c2d9","ios":"levelo://app?vid=a8f6a4f8-4af2-406a-8422-284b6ef6c2d9"},"vehicle_type_id":"4","last_reported":1726247282,"current_range_meters":14000,"station_id":"ce4bh512rcd13ifvqe2g","pricing_plan_id":"cebpf4jnsgd1na2vs0mg"},{"bike_id":"856cd11f-ce80-4728-ab1d-2306907c6225","system_id":"levelo_inurba_marseille","lat":43.31081,"lon":5.4243,"is_reserved":false,"is_disabled":false,"rental_uris":{"android":"levelo://app?vid=856cd11f-ce80-4728-ab1d-2306907c6225","ios":"levelo://app?vid=856cd11f-ce80-4728-ab1d-2306907c6225"},"vehicle_type_id":"4","last_reported":1726247282,"current_range_meters":32000,"station_id":"ce4bhp92rcd13ifvqhag","pricing_plan_id":"cebpf4jnsgd1na2vs0mg"},{"bike_id":"b5b5287e-b66f-4f19-b47a-1f428d9f1b49","system_id":"levelo_inurba_marseille","lat":43.2288,"lon":5.43671,"is_reserved":false,"is_disabled":false,"rental_uris":{"android":"levelo://app?vid=b5b5287e-b66f-4f19-b47a-1f428d9f1b49","ios":"levelo://app?vid=b5b5287e-b66f-4f19-b47a-1f428d9f1b49"},"vehicle_type_id":"4","last_reported":1726247282,"current_range_meters":36800,"station_id":"","pricing_plan_id":"cebpf4jnsgd1na2vs0mg"},{"bike_id":"42e84e6d-33b9-4c46-830b-ea91b25f5838","system_id":"levelo_inurba_marseille","lat":43.30646,"lon":5.40064,"is_reserved":false,"is_disabled":false,"rental_uris":{"android":"levelo://app?vid=42e84e6d-33b9-4c46-830b-ea91b25f5838","ios":"levelo://app?vid=42e84e6d-33b9-4c46-830b-ea91b25f5838"},"vehicle_type_id":"4","last_reported":1726247282,"current_range_meters":31200,"station_id":"ce4bh112rcd13ifvqda0","pricing_plan_id":"cebpf4jnsgd1na2vs0mg"},{"bike_id":"f8702662-a0ec-4054-91f8-70a592e07b2d","system_id":"levelo_inurba_marseille","lat":43.28568,"lon":5.39494,"is_reserved":false,"is_disabled":false,"rental_uris":{"android":"levelo://app?vid=f8702662-a0ec-4054-91f8-70a592e07b2d","ios":"levelo://app?vid=f8702662-a0ec-4054-91f8-70a592e07b2d"},"vehicle_type_id":"4","last_reported":1726247282,"current_range_meters":34000,"station_id":"ce4bh292rcd13ifvqdg0","pricing_plan_id":"cebpf4jnsgd1na2vs0mg"},{"bike_id":"5370546a-7244-45da-af29-6ba1e105add1","system_id":"levelo_inurba_marseille","lat":43.27369,"lon":5.36247,"is_reserved":false,"is_disabled":false,"rental_uris":{"android":"levelo://app?vid=5370546a-7244-45da-af29-6ba1e105add1","ios":"levelo://app?vid=5370546a-7244-45da-af29-6ba1e105add1"},"vehicle_type_id":"4","last_reported":1726247282,"current_range_meters":24000,"station_id":"ce4bhbh2rcd13ifvqeo0","pricing_plan_id":"cebpf4jnsgd1na2vs0mg"},{"bike_id":"a71ade37-705a-48c5-8693-8659689a5617","system_id":"levelo_inurba_marseille","lat":43.2418,"lon":5.3973,"is_reserved":false,"is_disabled":false,"rental_uris":{"android":"levelo://app?vid=a71ade37-705a-48c5-8693-8659689a5617","ios":"levelo://app?vid=a71ade37-705a-48c5-8693-8659689a5617"},"vehicle_type_id":"4","last_reported":1726247282,"current_range_meters":5600,"station_id":"ce4bhn12rcd13ifvqgpg","pricing_plan_id":"cebpf4jnsgd1na2vs0mg"},{"bike_id":"6de9f70b-1b30-4cf0-91ad-0442d457bdde","system_id":"levelo_inurba_marseille","lat":43.307922,"lon":5.376466,"is_reserved":false,"is_disabled":false,"rental_uris":{"android":"levelo://app?vid=6de9f70b-1b30-4cf0-91ad-0442d457bdde","ios":"levelo://app?vid=6de9f70b-1b30-4cf0-91ad-0442d457bdde"},"vehicle_type_id":"4","last_reported":1726247282,"current_range_meters":29600,"station_id":"ce4bgv92rcd13ifvqcq0","pricing_plan_id":"cebpf4jnsgd1na2vs0mg"},{"bike_id":"fccf724a-930f-431f-9419-2fe59000549c","system_id":"levelo_inurba_marseille","lat":43.29799,"lon":5.38101,"is_reserved":false,"is_disabled":false,"rental_uris":{"android":"levelo://app?vid=fccf724a-930f-431f-9419-2fe59000549c","ios":"levelo://app?vid=fccf724a-930f-431f-9419-2fe59000549c"},"vehicle_type_id":"4","last_reported":1726247282,"current_range_meters":24400,"station_id":"ce4bgip2rcd13ifvqbb0","pricing_plan_id":"cebpf4jnsgd1na2vs0mg"},{"bike_id":"1964d304-3ebb-4f59-a5c9-a65ad18d80cb","system_id":"levelo_inurba_marseille","lat":43.31074,"lon":5.38358,"is_reserved":false,"is_disabled":false,"rental_uris":{"android":"levelo://app?vid=1964d304-3ebb-4f59-a5c9-a65ad18d80cb","ios":"levelo://app?vid=1964d304-3ebb-4f59-a5c9-a65ad18d80cb"},"vehicle_type_id":"4","last_reported":1726247282,"current_range_meters":38000,"station_id":"ce4bgv92rcd13ifvqcr0","pricing_plan_id":"cebpf4jnsgd1na2vs0mg"},{"bike_id":"1e9ab519-e28c-400f-aecb-cbc58f39def2","system_id":"levelo_inurba_marseille","lat":43.29789,"lon":5.37895,"is_reserved":false,"is_disabled":false,"rental_uris":{"android":"levelo://app?vid=1e9ab519-e28c-400f-aecb-cbc58f39def2","ios":"levelo://app?vid=1e9ab519-e28c-400f-aecb-cbc58f39def2"},"vehicle_type_id":"4","last_reported":1726247282,"current_range_meters":7200,"station_id":"","pricing_plan_id":"cebpf4jnsgd1na2vs0mg"},{"bike_id":"03200ce1-e816-4485-a9db-29a204ad97d8","system_id":"levelo_inurba_marseille","lat":43.23967,"lon":5.36625,"is_reserved":false,"is_disabled":false,"rental_uris":{"android":"levelo://app?vid=03200ce1-e816-4485-a9db-29a204ad97d8","ios":"levelo://app?vid=03200ce1-e816-4485-a9db-29a204ad97d8"},"vehicle_type_id":"4","last_reported":1726247282,"current_range_meters":39200,"station_id":"ce4bhi12rcd13ifvqfp0","pricing_plan_id":"cebpf4jnsgd1na2vs0mg"},{"bike_id":"954d2b54-362e-442e-bcaa-d17939d90e2d","system_id":"levelo_inurba_marseille","lat":43.25495,"lon":5.37653,"is_reserved":false,"is_disabled":false,"rental_uris":{"android":"levelo://app?vid=954d2b54-362e-442e-bcaa-d17939d90e2d","ios":"levelo://app?vid=954d2b54-362e-442e-bcaa-d17939d90e2d"},"vehicle_type_id":"4","last_reported":1726247282,"current_range_meters":39200,"station_id":"ce4bhh12rcd13ifvqff0","pricing_plan_id":"cebpf4jnsgd1na2vs0mg"},{"bike_id":"82dec1e1-c024-4a59-b080-1ca526441f94","system_id":"levelo_inurba_marseille","lat":43.337612,"lon":5.374504,"is_reserved":false,"is_disabled":false,"rental_uris":{"android":"levelo://app?vid=82dec1e1-c024-4a59-b080-1ca526441f94","ios":"levelo://app?vid=82dec1e1-c024-4a59-b080-1ca526441f94"},"vehicle_type_id":"4","last_reported":1726247282,"current_range_meters":14000,"station_id":"","pricing_plan_id":"cebpf4jnsgd1na2vs0mg"},{"bike_id":"02269f0e-1758-473f-8a5c-764f1ddf9ddc","system_id":"levelo_inurba_marseille","lat":43.23188,"lon":5.39979,"is_reserved":false,"is_disabled":false,"rental_uris":{"android":"levelo://app?vid=02269f0e-1758-473f-8a5c-764f1ddf9ddc","ios":"levelo://app?vid=02269f0e-1758-473f-8a5c-764f1ddf9ddc"},"vehicle_type_id":"4","last_reported":1726247282,"current_range_meters":39200,"station_id":"ce4bhn12rcd13ifvqgqg","pricing_plan_id":"cebpf4jnsgd1na2vs0mg"},{"bike_id":"baf7d0fc-eae3-4f0c-99fc-59a5573e709f","system_id":"levelo_inurba_marseille","lat":43.29846,"lon":5.36284,"is_reserved":false,"is_disabled":false,"rental_uris":{"android":"levelo://app?vid=baf7d0fc-eae3-4f0c-99fc-59a5573e709f","ios":"levelo://app?vid=baf7d0fc-eae3-4f0c-99fc-59a5573e709f"},"vehicle_type_id":"4","last_reported":1726247282,"current_range_meters":37600,"station_id":"ce4bgpp2rcd13ifvqc3g","pricing_plan_id":"cebpf4jnsgd1na2vs0mg"},{"bike_id":"df1396b5-d770-46ac-916d-e388c6bab2d2","system_id":"levelo_inurba_marseille","lat":43.27668,"lon":5.38892,"is_reserved":false,"is_disabled":false,"rental_uris":{"android":"levelo://app?vid=df1396b5-d770-46ac-916d-e388c6bab2d2","ios":"levelo://app?vid=df1396b5-d770-46ac-916d-e388c6bab2d2"},"vehicle_type_id":"4","last_reported":1726247282,"current_range_meters":17200,"station_id":"ce4bhi12rcd13ifvqfo0","pricing_plan_id":"cebpf4jnsgd1na2vs0mg"},{"bike_id":"1499f242-3352-4367-8bb1-76bada06940e","system_id":"levelo_inurba_marseille","lat":43.29313,"lon":5.393,"is_reserved":false,"is_disabled":false,"rental_uris":{"android":"levelo://app?vid=1499f242-3352-4367-8bb1-76bada06940e","ios":"levelo://app?vid=1499f242-3352-4367-8bb1-76bada06940e"},"vehicle_type_id":"4","last_reported":1726247282,"current_range_meters":28800,"station_id":"ce4bh192rcd13ifvqdd0","pricing_plan_id":"cebpf4jnsgd1na2vs0mg"},{"bike_id":"5bcea731-d4da-414e-b204-cc827bfa12b3","system_id":"levelo_inurba_marseille","lat":43.27615,"lon":5.36109,"is_reserved":false,"is_disabled":false,"rental_uris":{"android":"levelo://app?vid=5bcea731-d4da-414e-b204-cc827bfa12b3","ios":"levelo://app?vid=5bcea731-d4da-414e-b204-cc827bfa12b3"},"vehicle_type_id":"4","last_reported":1726247282,"current_range_meters":19600,"station_id":"ce4bgj92rcd13ifvqbe0","pricing_plan_id":"cebpf4jnsgd1na2vs0mg"},{"bike_id":"61e00977-be43-400f-99ea-3c33330f7657","system_id":"levelo_inurba_marseille","lat":43.2501,"lon":5.38916,"is_reserved":false,"is_disabled":false,"rental_uris":{"android":"levelo://app?vid=61e00977-be43-400f-99ea-3c33330f7657","ios":"levelo://app?vid=61e00977-be43-400f-99ea-3c33330f7657"},"vehicle_type_id":"4","last_reported":1726247282,"current_range_meters":24800,"station_id":"ce4bhgp2rcd13ifvqfd0","pricing_plan_id":"cebpf4jnsgd1na2vs0mg"},{"bike_id":"5bb02264-5903-4ecd-9448-ecd8a0958769","system_id":"levelo_inurba_marseille","lat":43.29708,"lon":5.3662,"is_reserved":false,"is_disabled":false,"rental_uris":{"android":"levelo://app?vid=5bb02264-5903-4ecd-9448-ecd8a0958769","ios":"levelo://app?vid=5bb02264-5903-4ecd-9448-ecd8a0958769"},"vehicle_type_id":"4","last_reported":1726247282,"current_range_meters":37600,"station_id":"ce4bgn12rcd13ifvqbt0","pricing_plan_id":"cebpf4jnsgd1na2vs0mg"},{"bike_id":"8c43e42e-a6b6-4ec9-bee9-d11715b44712","system_id":"levelo_inurba_marseille","lat":43.29615,"lon":5.37712,"is_reserved":false,"is_disabled":false,"rental_uris":{"android":"levelo://app?vid=8c43e42e-a6b6-4ec9-bee9-d11715b44712","ios":"levelo://app?vid=8c43e42e-a6b6-4ec9-bee9-d11715b44712"},"vehicle_type_id":"4","last_reported":1726247282,"current_range_meters":25600,"station_id":"ce4bgi92rcd13ifvqb90","pricing_plan_id":"cebpf4jnsgd1na2vs0mg"},{"bike_id":"aaf603db-4ea0-4359-9780-83e3114da772","system_id":"levelo_inurba_marseille","lat":43.288298,"lon":5.392463,"is_reserved":false,"is_disabled":false,"rental_uris":{"android":"levelo://app?vid=aaf603db-4ea0-4359-9780-83e3114da772","ios":"levelo://app?vid=aaf603db-4ea0-4359-9780-83e3114da772"},"vehicle_type_id":"4","last_reported":1726247282,"current_range_meters":30400,"station_id":"ce4bh2p2rcd13ifvqdi0","pricing_plan_id":"cebpf4jnsgd1na2vs0mg"},{"bike_id":"8042b6b0-1f4a-41a8-a659-c2cebe0186d6","system_id":"levelo_inurba_marseille","lat":43.31269,"lon":5.40177,"is_reserved":false,"is_disabled":false,"rental_uris":{"android":"levelo://app?vid=8042b6b0-1f4a-41a8-a659-c2cebe0186d6","ios":"levelo://app?vid=8042b6b0-1f4a-41a8-a659-c2cebe0186d6"},"vehicle_type_id":"4","last_reported":1726247282,"current_range_meters":6400,"station_id":"ce4bh092rcd13ifvqd30","pricing_plan_id":"cebpf4jnsgd1na2vs0mg"},{"bike_id":"511d0a9c-44af-4b2c-96e7-92ae1c740942","system_id":"levelo_inurba_marseille","lat":43.29557,"lon":5.42293,"is_reserved":false,"is_disabled":false,"rental_uris":{"android":"levelo://app?vid=511d0a9c-44af-4b2c-96e7-92ae1c740942","ios":"levelo://app?vid=511d0a9c-44af-4b2c-96e7-92ae1c740942"},"vehicle_type_id":"4","last_reported":1726247282,"current_range_meters":35200,"station_id":"ce4bhph2rcd13ifvqhdg","pricing_plan_id":"cebpf4jnsgd1na2vs0mg"},{"bike_id":"cdfa9b92-6aea-4b2a-b18f-08e40cb19af9","system_id":"levelo_inurba_marseille","lat":43.2319,"lon":5.39984,"is_reserved":false,"is_disabled":false,"rental_uris":{"android":"levelo://app?vid=cdfa9b92-6aea-4b2a-b18f-08e40cb19af9","ios":"levelo://app?vid=cdfa9b92-6aea-4b2a-b18f-08e40cb19af9"},"vehicle_type_id":"4","last_reported":1726247282,"current_range_meters":10000,"station_id":"ce4bhn12rcd13ifvqgqg","pricing_plan_id":"cebpf4jnsgd1na2vs0mg"},{"bike_id":"8375304b-8959-48b9-88d3-f98e6b2b9263","system_id":"levelo_inurba_marseille","lat":43.30188,"lon":5.36611,"is_reserved":false,"is_disabled":false,"rental_uris":{"android":"levelo://app?vid=8375304b-8959-48b9-88d3-f98e6b2b9263","ios":"levelo://app?vid=8375304b-8959-48b9-88d3-f98e6b2b9263"},"vehicle_type_id":"4","last_reported":1726247282,"current_range_meters":24800,"station_id":"ce4bgrh2rcd13ifvqc8g","pricing_plan_id":"cebpf4jnsgd1na2vs0mg"},{"bike_id":"3b4631f1-0e73-4449-be64-c1cdece0b434","system_id":"levelo_inurba_marseille","lat":43.28277,"lon":5.35085,"is_reserved":false,"is_disabled":false,"rental_uris":{"android":"levelo://app?vid=3b4631f1-0e73-4449-be64-c1cdece0b434","ios":"levelo://app?vid=3b4631f1-0e73-4449-be64-c1cdece0b434"},"vehicle_type_id":"4","last_reported":1726247282,"current_range_meters":39200,"station_id":"ce4bhbp2rcd13ifvqerg","pricing_plan_id":"cebpf4jnsgd1na2vs0mg"},{"bike_id":"aef09fda-9467-42e2-98fc-34612831dc7c","system_id":"levelo_inurba_marseille","lat":43.25086,"lon":5.39517,"is_reserved":false,"is_disabled":false,"rental_uris":{"android":"levelo://app?vid=aef09fda-9467-42e2-98fc-34612831dc7c","ios":"levelo://app?vid=aef09fda-9467-42e2-98fc-34612831dc7c"},"vehicle_type_id":"4","last_reported":1726247282,"current_range_meters":39200,"station_id":"ce4bhm12rcd13ifvqgkg","pricing_plan_id":"cebpf4jnsgd1na2vs0mg"},{"bike_id":"96c0486a-ee1f-44ab-bc29-72e94970ea78","system_id":"levelo_inurba_marseille","lat":43.30599,"lon":5.37235,"is_reserved":false,"is_disabled":false,"rental_uris":{"android":"levelo://app?vid=96c0486a-ee1f-44ab-bc29-72e94970ea78","ios":"levelo://app?vid=96c0486a-ee1f-44ab-bc29-72e94970ea78"},"vehicle_type_id":"4","last_reported":1726247282,"current_range_meters":26800,"station_id":"ce4bgqh2rcd13ifvqc4g","pricing_plan_id":"cebpf4jnsgd1na2vs0mg"},{"bike_id":"1d004851-c08b-4a01-aec6-6340c8507935","system_id":"levelo_inurba_marseille","lat":43.24169,"lon":5.39731,"is_reserved":false,"is_disabled":false,"rental_uris":{"android":"levelo://app?vid=1d004851-c08b-4a01-aec6-6340c8507935","ios":"levelo://app?vid=1d004851-c08b-4a01-aec6-6340c8507935"},"vehicle_type_id":"4","last_reported":1726247282,"current_range_meters":32400,"station_id":"ce4bhn12rcd13ifvqgpg","pricing_plan_id":"cebpf4jnsgd1na2vs0mg"},{"bike_id":"f20f613d-77b3-4abc-847d-4abd98073b48","system_id":"levelo_inurba_marseille","lat":43.28621,"lon":5.35104,"is_reserved":false,"is_disabled":false,"rental_uris":{"android":"levelo://app?vid=f20f613d-77b3-4abc-847d-4abd98073b48","ios":"levelo://app?vid=f20f613d-77b3-4abc-847d-4abd98073b48"},"vehicle_type_id":"4","last_reported":1726247282,"current_range_meters":30400,"station_id":"ce4bhch2rcd13ifvqeug","pricing_plan_id":"cebpf4jnsgd1na2vs0mg"},{"bike_id":"ac89321a-1521-4ca2-b0e4-69eed451e6a7","system_id":"levelo_inurba_marseille","lat":43.30263,"lon":5.40078,"is_reserved":false,"is_disabled":false,"rental_uris":{"android":"levelo://app?vid=ac89321a-1521-4ca2-b0e4-69eed451e6a7","ios":"levelo://app?vid=ac89321a-1521-4ca2-b0e4-69eed451e6a7"},"vehicle_type_id":"4","last_reported":1726247282,"current_range_meters":33600,"station_id":"ce4bgvh2rcd13ifvqcs0","pricing_plan_id":"cebpf4jnsgd1na2vs0mg"},{"bike_id":"52ef493d-112f-4c68-8662-3bb1cdb9cb18","system_id":"levelo_inurba_marseille","lat":43.23153,"lon":5.43724,"is_reserved":false,"is_disabled":false,"rental_uris":{"android":"levelo://app?vid=52ef493d-112f-4c68-8662-3bb1cdb9cb18","ios":"levelo://app?vid=52ef493d-112f-4c68-8662-3bb1cdb9cb18"},"vehicle_type_id":"4","last_reported":1726247282,"current_range_meters":35200,"station_id":"ce4bhmp2rcd13ifvqgog","pricing_plan_id":"cebpf4jnsgd1na2vs0mg"},{"bike_id":"340a83e1-ea5c-4ef4-a39e-0dca0ac4abe8","system_id":"levelo_inurba_marseille","lat":43.26032,"lon":5.37548,"is_reserved":false,"is_disabled":false,"rental_uris":{"android":"levelo://app?vid=340a83e1-ea5c-4ef4-a39e-0dca0ac4abe8","ios":"levelo://app?vid=340a83e1-ea5c-4ef4-a39e-0dca0ac4abe8"},"vehicle_type_id":"4","last_reported":1726247282,"current_range_meters":39200,"station_id":"ce4bhgh2rcd13ifvqfa0","pricing_plan_id":"cebpf4jnsgd1na2vs0mg"},{"bike_id":"f2749928-77c9-44d6-9bea-bffc58157bf7","system_id":"levelo_inurba_marseille","lat":43.29717,"lon":5.36624,"is_reserved":false,"is_disabled":false,"rental_uris":{"android":"levelo://app?vid=f2749928-77c9-44d6-9bea-bffc58157bf7","ios":"levelo://app?vid=f2749928-77c9-44d6-9bea-bffc58157bf7"},"vehicle_type_id":"4","last_reported":1726247282,"current_range_meters":12000,"station_id":"ce4bgn12rcd13ifvqbt0","pricing_plan_id":"cebpf4jnsgd1na2vs0mg"},{"bike_id":"e2a9ef80-b0c6-4e8a-a032-3e6634094c93","system_id":"levelo_inurba_marseille","lat":43.28615,"lon":5.35099,"is_reserved":false,"is_disabled":false,"rental_uris":{"android":"levelo://app?vid=e2a9ef80-b0c6-4e8a-a032-3e6634094c93","ios":"levelo://app?vid=e2a9ef80-b0c6-4e8a-a032-3e6634094c93"},"vehicle_type_id":"4","last_reported":1726247282,"current_range_meters":3200,"station_id":"ce4bhch2rcd13ifvqeug","pricing_plan_id":"cebpf4jnsgd1na2vs0mg"},{"bike_id":"df0b56bc-16b9-4f6c-9f86-fd08a46e6d6c","system_id":"levelo_inurba_marseille","lat":43.315302,"lon":5.380331,"is_reserved":false,"is_disabled":false,"rental_uris":{"android":"levelo://app?vid=df0b56bc-16b9-4f6c-9f86-fd08a46e6d6c","ios":"levelo://app?vid=df0b56bc-16b9-4f6c-9f86-fd08a46e6d6c"},"vehicle_type_id":"4","last_reported":1726247282,"current_range_meters":30000,"station_id":"ce4bhsp2rcd13ifvqi50","pricing_plan_id":"cebpf4jnsgd1na2vs0mg"},{"bike_id":"7f33ae95-af74-4bd8-a22b-ac8253fefb26","system_id":"levelo_inurba_marseille","lat":43.29918,"lon":5.37476,"is_reserved":false,"is_disabled":false,"rental_uris":{"android":"levelo://app?vid=7f33ae95-af74-4bd8-a22b-ac8253fefb26","ios":"levelo://app?vid=7f33ae95-af74-4bd8-a22b-ac8253fefb26"},"vehicle_type_id":"4","last_reported":1726247282,"current_range_meters":35200,"station_id":"ce4bgjh2rcd13ifvqbg0","pricing_plan_id":"cebpf4jnsgd1na2vs0mg"},{"bike_id":"cf6c9917-4a0d-445e-9fb1-543afd2c0e87","system_id":"levelo_inurba_marseille","lat":43.23155,"lon":5.43701,"is_reserved":false,"is_disabled":false,"rental_uris":{"android":"levelo://app?vid=cf6c9917-4a0d-445e-9fb1-543afd2c0e87","ios":"levelo://app?vid=cf6c9917-4a0d-445e-9fb1-543afd2c0e87"},"vehicle_type_id":"4","last_reported":1726247282,"current_range_meters":38400,"station_id":"ce4bhmp2rcd13ifvqgog","pricing_plan_id":"cebpf4jnsgd1na2vs0mg"},{"bike_id":"5c69ab67-8359-43fe-a191-f1b4c93b8062","system_id":"levelo_inurba_marseille","lat":43.32337,"lon":5.40622,"is_reserved":false,"is_disabled":false,"rental_uris":{"android":"levelo://app?vid=5c69ab67-8359-43fe-a191-f1b4c93b8062","ios":"levelo://app?vid=5c69ab67-8359-43fe-a191-f1b4c93b8062"},"vehicle_type_id":"4","last_reported":1726247282,"current_range_meters":2000,"station_id":"ce4bhq92rcd13ifvqhjg","pricing_plan_id":"cebpf4jnsgd1na2vs0mg"},{"bike_id":"b8842ea2-ab2d-4b52-b429-382a81c1a7d1","system_id":"levelo_inurba_marseille","lat":43.27997,"lon":5.40011,"is_reserved":false,"is_disabled":false,"rental_uris":{"android":"levelo://app?vid=b8842ea2-ab2d-4b52-b429-382a81c1a7d1","ios":"levelo://app?vid=b8842ea2-ab2d-4b52-b429-382a81c1a7d1"},"vehicle_type_id":"4","last_reported":1726247282,"current_range_meters":27600,"station_id":"ce4bho92rcd13ifvqh4g","pricing_plan_id":"cebpf4jnsgd1na2vs0mg"},{"bike_id":"32194af3-86e9-4c13-82d6-0103baeea50e","system_id":"levelo_inurba_marseille","lat":43.27565,"lon":5.38418,"is_reserved":false,"is_disabled":false,"rental_uris":{"android":"levelo://app?vid=32194af3-86e9-4c13-82d6-0103baeea50e","ios":"levelo://app?vid=32194af3-86e9-4c13-82d6-0103baeea50e"},"vehicle_type_id":"4","last_reported":1726247282,"current_range_meters":20400,"station_id":"ce4bhh92rcd13ifvqfi0","pricing_plan_id":"cebpf4jnsgd1na2vs0mg"},{"bike_id":"9c1ea379-03ae-4a0b-ad05-17a9be0b2477","system_id":"levelo_inurba_marseille","lat":43.27903,"lon":5.39576,"is_reserved":false,"is_disabled":false,"rental_uris":{"android":"levelo://app?vid=9c1ea379-03ae-4a0b-ad05-17a9be0b2477","ios":"levelo://app?vid=9c1ea379-03ae-4a0b-ad05-17a9be0b2477"},"vehicle_type_id":"4","last_reported":1726247282,"current_range_meters":18000,"station_id":"ce4bhf92rcd13ifvqf40","pricing_plan_id":"cebpf4jnsgd1na2vs0mg"},{"bike_id":"f400d370-a20e-4ced-86f0-64f62510749c","system_id":"levelo_inurba_marseille","lat":43.3237,"lon":5.38926,"is_reserved":false,"is_disabled":false,"rental_uris":{"android":"levelo://app?vid=f400d370-a20e-4ced-86f0-64f62510749c","ios":"levelo://app?vid=f400d370-a20e-4ced-86f0-64f62510749c"},"vehicle_type_id":"4","last_reported":1726247282,"current_range_meters":4000,"station_id":"","pricing_plan_id":"cebpf4jnsgd1na2vs0mg"},{"bike_id":"8578940c-55cb-4da5-a5e8-95031a7a0872","system_id":"levelo_inurba_marseille","lat":43.2586,"lon":5.39915,"is_reserved":false,"is_disabled":false,"rental_uris":{"android":"levelo://app?vid=8578940c-55cb-4da5-a5e8-95031a7a0872","ios":"levelo://app?vid=8578940c-55cb-4da5-a5e8-95031a7a0872"},"vehicle_type_id":"4","last_reported":1726247282,"current_range_meters":35600,"station_id":"ce4bhl92rcd13ifvqghg","pricing_plan_id":"cebpf4jnsgd1na2vs0mg"},{"bike_id":"29cde858-91d6-4fe7-8095-73bb300eeeb0","system_id":"levelo_inurba_marseille","lat":43.31758,"lon":5.39017,"is_reserved":false,"is_disabled":false,"rental_uris":{"android":"levelo://app?vid=29cde858-91d6-4fe7-8095-73bb300eeeb0","ios":"levelo://app?vid=29cde858-91d6-4fe7-8095-73bb300eeeb0"},"vehicle_type_id":"4","last_reported":1726247282,"current_range_meters":30400,"station_id":"ce4bhqp2rcd13ifvqhng","pricing_plan_id":"cebpf4jnsgd1na2vs0mg"},{"bike_id":"2d245df7-48c5-41a1-9011-b27281ffc8f8","system_id":"levelo_inurba_marseille","lat":43.25582,"lon":5.38227,"is_reserved":false,"is_disabled":false,"rental_uris":{"android":"levelo://app?vid=2d245df7-48c5-41a1-9011-b27281ffc8f8","ios":"levelo://app?vid=2d245df7-48c5-41a1-9011-b27281ffc8f8"},"vehicle_type_id":"4","last_reported":1726247282,"current_range_meters":8000,"station_id":"ce4bhih2rcd13ifvqfs0","pricing_plan_id":"cebpf4jnsgd1na2vs0mg"},{"bike_id":"89b29503-5b40-4849-b7d3-4da94fc1cb6b","system_id":"levelo_inurba_marseille","lat":43.29005,"lon":5.35617,"is_reserved":false,"is_disabled":false,"rental_uris":{"android":"levelo://app?vid=89b29503-5b40-4849-b7d3-4da94fc1cb6b","ios":"levelo://app?vid=89b29503-5b40-4849-b7d3-4da94fc1cb6b"},"vehicle_type_id":"4","last_reported":1726247282,"current_range_meters":2800,"station_id":"ce4bhb92rcd13ifvqen0","pricing_plan_id":"cebpf4jnsgd1na2vs0mg"},{"bike_id":"db49f660-b624-4865-b162-6539b8d366e6","system_id":"levelo_inurba_marseille","lat":43.26572,"lon":5.39025,"is_reserved":false,"is_disabled":false,"rental_uris":{"android":"levelo://app?vid=db49f660-b624-4865-b162-6539b8d366e6","ios":"levelo://app?vid=db49f660-b624-4865-b162-6539b8d366e6"},"vehicle_type_id":"4","last_reported":1726247282,"current_range_meters":12000,"station_id":"ce4bhe12rcd13ifvqf30","pricing_plan_id":"cebpf4jnsgd1na2vs0mg"},{"bike_id":"fc61066f-06d8-4a2f-adcf-8c083d39053f","system_id":"levelo_inurba_marseille","lat":43.25579,"lon":5.38239,"is_reserved":false,"is_disabled":false,"rental_uris":{"android":"levelo://app?vid=fc61066f-06d8-4a2f-adcf-8c083d39053f","ios":"levelo://app?vid=fc61066f-06d8-4a2f-adcf-8c083d39053f"},"vehicle_type_id":"4","last_reported":1726247282,"current_range_meters":12400,"station_id":"ce4bhih2rcd13ifvqfs0","pricing_plan_id":"cebpf4jnsgd1na2vs0mg"},{"bike_id":"c62313ef-dd0d-4ef2-9254-93094e565a6c","system_id":"levelo_inurba_marseille","lat":43.279461,"lon":5.410581,"is_reserved":false,"is_disabled":false,"rental_uris":{"android":"levelo://app?vid=c62313ef-dd0d-4ef2-9254-93094e565a6c","ios":"levelo://app?vid=c62313ef-dd0d-4ef2-9254-93094e565a6c"},"vehicle_type_id":"4","last_reported":1726247282,"current_range_meters":28400,"station_id":"ce4bhnp2rcd13ifvqh0g","pricing_plan_id":"cebpf4jnsgd1na2vs0mg"},{"bike_id":"328d45f9-980e-4811-97c0-47d761861509","system_id":"levelo_inurba_marseille","lat":43.29867,"lon":5.37829,"is_reserved":false,"is_disabled":false,"rental_uris":{"android":"levelo://app?vid=328d45f9-980e-4811-97c0-47d761861509","ios":"levelo://app?vid=328d45f9-980e-4811-97c0-47d761861509"},"vehicle_type_id":"4","last_reported":1726247282,"current_range_meters":36800,"station_id":"ce4bgkh2rcd13ifvqbl0","pricing_plan_id":"cebpf4jnsgd1na2vs0mg"},{"bike_id":"50c3effc-10c6-4298-8c56-44c0ee291628","system_id":"levelo_inurba_marseille","lat":43.31273,"lon":5.40168,"is_reserved":false,"is_disabled":false,"rental_uris":{"android":"levelo://app?vid=50c3effc-10c6-4298-8c56-44c0ee291628","ios":"levelo://app?vid=50c3effc-10c6-4298-8c56-44c0ee291628"},"vehicle_type_id":"4","last_reported":1726247282,"current_range_meters":32400,"station_id":"ce4bh092rcd13ifvqd30","pricing_plan_id":"cebpf4jnsgd1na2vs0mg"},{"bike_id":"439ce068-90f6-4bff-826e-5c676dfdced2","system_id":"levelo_inurba_marseille","lat":43.23155,"lon":5.43712,"is_reserved":false,"is_disabled":false,"rental_uris":{"android":"levelo://app?vid=439ce068-90f6-4bff-826e-5c676dfdced2","ios":"levelo://app?vid=439ce068-90f6-4bff-826e-5c676dfdced2"},"vehicle_type_id":"4","last_reported":1726247282,"current_range_meters":38800,"station_id":"ce4bhmp2rcd13ifvqgog","pricing_plan_id":"cebpf4jnsgd1na2vs0mg"},{"bike_id":"08af7560-af1c-4280-9213-6cf3c8b0b6f1","system_id":"levelo_inurba_marseille","lat":43.29274,"lon":5.38446,"is_reserved":false,"is_disabled":false,"rental_uris":{"android":"levelo://app?vid=08af7560-af1c-4280-9213-6cf3c8b0b6f1","ios":"levelo://app?vid=08af7560-af1c-4280-9213-6cf3c8b0b6f1"},"vehicle_type_id":"4","last_reported":1726247282,"current_range_meters":17600,"station_id":"ce4bh692rcd13ifvqea0","pricing_plan_id":"cebpf4jnsgd1na2vs0mg"},{"bike_id":"63b79cae-8738-43b3-8da9-ab7ada18a6bc","system_id":"levelo_inurba_marseille","lat":43.31367,"lon":5.38506,"is_reserved":false,"is_disabled":false,"rental_uris":{"android":"levelo://app?vid=63b79cae-8738-43b3-8da9-ab7ada18a6bc","ios":"levelo://app?vid=63b79cae-8738-43b3-8da9-ab7ada18a6bc"},"vehicle_type_id":"4","last_reported":1726247282,"current_range_meters":14400,"station_id":"ce4bgt92rcd13ifvqcf0","pricing_plan_id":"cebpf4jnsgd1na2vs0mg"},{"bike_id":"3aaf23df-ab45-4cad-bb64-d814895b7209","system_id":"levelo_inurba_marseille","lat":43.28442,"lon":5.392075,"is_reserved":false,"is_disabled":false,"rental_uris":{"android":"levelo://app?vid=3aaf23df-ab45-4cad-bb64-d814895b7209","ios":"levelo://app?vid=3aaf23df-ab45-4cad-bb64-d814895b7209"},"vehicle_type_id":"4","last_reported":1726247282,"current_range_meters":13600,"station_id":"ce4bhoh2rcd13ifvqh5g","pricing_plan_id":"cebpf4jnsgd1na2vs0mg"},{"bike_id":"fe89e6fb-759f-4d01-bfc4-162b3afd11ac","system_id":"levelo_inurba_marseille","lat":43.271715,"lon":5.409903,"is_reserved":false,"is_disabled":false,"rental_uris":{"android":"levelo://app?vid=fe89e6fb-759f-4d01-bfc4-162b3afd11ac","ios":"levelo://app?vid=fe89e6fb-759f-4d01-bfc4-162b3afd11ac"},"vehicle_type_id":"4","last_reported":1726247282,"current_range_meters":16400,"station_id":"ce4bhl12rcd13ifvqgf0","pricing_plan_id":"cebpf4jnsgd1na2vs0mg"},{"bike_id":"e683b8a3-fa6e-463c-8558-c310679783ad","system_id":"levelo_inurba_marseille","lat":43.29265,"lon":5.38445,"is_reserved":false,"is_disabled":false,"rental_uris":{"android":"levelo://app?vid=e683b8a3-fa6e-463c-8558-c310679783ad","ios":"levelo://app?vid=e683b8a3-fa6e-463c-8558-c310679783ad"},"vehicle_type_id":"4","last_reported":1726247282,"current_range_meters":35200,"station_id":"ce4bh692rcd13ifvqea0","pricing_plan_id":"cebpf4jnsgd1na2vs0mg"},{"bike_id":"d33e2940-31d9-4472-93e5-d5bbd5ac177e","system_id":"levelo_inurba_marseille","lat":43.27818,"lon":5.40721,"is_reserved":false,"is_disabled":false,"rental_uris":{"android":"levelo://app?vid=d33e2940-31d9-4472-93e5-d5bbd5ac177e","ios":"levelo://app?vid=d33e2940-31d9-4472-93e5-d5bbd5ac177e"},"vehicle_type_id":"4","last_reported":1726247282,"current_range_meters":26800,"station_id":"ce4bhnh2rcd13ifvqgtg","pricing_plan_id":"cebpf4jnsgd1na2vs0mg"},{"bike_id":"d3781f2c-bc46-4d9d-80c8-fbdadb2b8334","system_id":"levelo_inurba_marseille","lat":43.31165,"lon":5.38723,"is_reserved":false,"is_disabled":false,"rental_uris":{"android":"levelo://app?vid=d3781f2c-bc46-4d9d-80c8-fbdadb2b8334","ios":"levelo://app?vid=d3781f2c-bc46-4d9d-80c8-fbdadb2b8334"},"vehicle_type_id":"4","last_reported":1726247282,"current_range_meters":22000,"station_id":"ce4bgv12rcd13ifvqcp0","pricing_plan_id":"cebpf4jnsgd1na2vs0mg"},{"bike_id":"b610de34-0f16-4641-88fd-0afbc16b22a5","system_id":"levelo_inurba_marseille","lat":43.28152,"lon":5.42639,"is_reserved":false,"is_disabled":false,"rental_uris":{"android":"levelo://app?vid=b610de34-0f16-4641-88fd-0afbc16b22a5","ios":"levelo://app?vid=b610de34-0f16-4641-88fd-0afbc16b22a5"},"vehicle_type_id":"4","last_reported":1726247282,"current_range_meters":19600,"station_id":"ce4bhnh2rcd13ifvqgug","pricing_plan_id":"cebpf4jnsgd1na2vs0mg"},{"bike_id":"0a79b86d-b693-4299-8dc2-128f7a49bf0f","system_id":"levelo_inurba_marseille","lat":43.24547,"lon":5.39524,"is_reserved":false,"is_disabled":false,"rental_uris":{"android":"levelo://app?vid=0a79b86d-b693-4299-8dc2-128f7a49bf0f","ios":"levelo://app?vid=0a79b86d-b693-4299-8dc2-128f7a49bf0f"},"vehicle_type_id":"4","last_reported":1726247282,"current_range_meters":11200,"station_id":"ce4bhlp2rcd13ifvqgjg","pricing_plan_id":"cebpf4jnsgd1na2vs0mg"},{"bike_id":"ef43a975-391f-4dac-9815-f28eb4eda430","system_id":"levelo_inurba_marseille","lat":43.28155,"lon":5.42634,"is_reserved":false,"is_disabled":false,"rental_uris":{"android":"levelo://app?vid=ef43a975-391f-4dac-9815-f28eb4eda430","ios":"levelo://app?vid=ef43a975-391f-4dac-9815-f28eb4eda430"},"vehicle_type_id":"4","last_reported":1726247282,"current_range_meters":36400,"station_id":"ce4bhnh2rcd13ifvqgug","pricing_plan_id":"cebpf4jnsgd1na2vs0mg"},{"bike_id":"26afe759-2001-4462-84aa-106146ecbe64","system_id":"levelo_inurba_marseille","lat":43.25006,"lon":5.38926,"is_reserved":false,"is_disabled":false,"rental_uris":{"android":"levelo://app?vid=26afe759-2001-4462-84aa-106146ecbe64","ios":"levelo://app?vid=26afe759-2001-4462-84aa-106146ecbe64"},"vehicle_type_id":"4","last_reported":1726247282,"current_range_meters":38800,"station_id":"ce4bhgp2rcd13ifvqfd0","pricing_plan_id":"cebpf4jnsgd1na2vs0mg"},{"bike_id":"58900521-f788-4090-90d4-8129e5641ef0","system_id":"levelo_inurba_marseille","lat":43.28619,"lon":5.35102,"is_reserved":false,"is_disabled":false,"rental_uris":{"android":"levelo://app?vid=58900521-f788-4090-90d4-8129e5641ef0","ios":"levelo://app?vid=58900521-f788-4090-90d4-8129e5641ef0"},"vehicle_type_id":"4","last_reported":1726247282,"current_range_meters":27200,"station_id":"ce4bhch2rcd13ifvqeug","pricing_plan_id":"cebpf4jnsgd1na2vs0mg"},{"bike_id":"222a8090-f62b-4d5a-8604-5ec1f675bb54","system_id":"levelo_inurba_marseille","lat":43.29195,"lon":5.35803,"is_reserved":false,"is_disabled":false,"rental_uris":{"android":"levelo://app?vid=222a8090-f62b-4d5a-8604-5ec1f675bb54","ios":"levelo://app?vid=222a8090-f62b-4d5a-8604-5ec1f675bb54"},"vehicle_type_id":"4","last_reported":1726247282,"current_range_meters":6400,"station_id":"ce4bhb12rcd13ifvqel0","pricing_plan_id":"cebpf4jnsgd1na2vs0mg"},{"bike_id":"ead487be-7728-45bb-a346-58e3c6b707ce","system_id":"levelo_inurba_marseille","lat":43.27063,"lon":5.42268,"is_reserved":false,"is_disabled":false,"rental_uris":{"android":"levelo://app?vid=ead487be-7728-45bb-a346-58e3c6b707ce","ios":"levelo://app?vid=ead487be-7728-45bb-a346-58e3c6b707ce"},"vehicle_type_id":"4","last_reported":1726247282,"current_range_meters":5600,"station_id":"ce4bhk92rcd13ifvqgb0","pricing_plan_id":"cebpf4jnsgd1na2vs0mg"},{"bike_id":"79a32df0-717d-461b-91e9-32ab6fb0ff33","system_id":"levelo_inurba_marseille","lat":43.28853,"lon":5.35861,"is_reserved":false,"is_disabled":false,"rental_uris":{"android":"levelo://app?vid=79a32df0-717d-461b-91e9-32ab6fb0ff33","ios":"levelo://app?vid=79a32df0-717d-461b-91e9-32ab6fb0ff33"},"vehicle_type_id":"4","last_reported":1726247282,"current_range_meters":3600,"station_id":"ce4bhb12rcd13ifvqem0","pricing_plan_id":"cebpf4jnsgd1na2vs0mg"},{"bike_id":"d0108df0-44aa-4ec3-a393-64bc3498694e","system_id":"levelo_inurba_marseille","lat":43.25086,"lon":5.3952,"is_reserved":false,"is_disabled":false,"rental_uris":{"android":"levelo://app?vid=d0108df0-44aa-4ec3-a393-64bc3498694e","ios":"levelo://app?vid=d0108df0-44aa-4ec3-a393-64bc3498694e"},"vehicle_type_id":"4","last_reported":1726247282,"current_range_meters":22400,"station_id":"ce4bhm12rcd13ifvqgkg","pricing_plan_id":"cebpf4jnsgd1na2vs0mg"},{"bike_id":"3f12e812-178c-4f68-b24c-9a13e7ee0557","system_id":"levelo_inurba_marseille","lat":43.27071,"lon":5.42275,"is_reserved":false,"is_disabled":false,"rental_uris":{"android":"levelo://app?vid=3f12e812-178c-4f68-b24c-9a13e7ee0557","ios":"levelo://app?vid=3f12e812-178c-4f68-b24c-9a13e7ee0557"},"vehicle_type_id":"4","last_reported":1726247282,"current_range_meters":38800,"station_id":"ce4bhk92rcd13ifvqgb0","pricing_plan_id":"cebpf4jnsgd1na2vs0mg"},{"bike_id":"784578b7-14c5-4169-822a-f33c376cf7ff","system_id":"levelo_inurba_marseille","lat":43.28837,"lon":5.384587,"is_reserved":false,"is_disabled":false,"rental_uris":{"android":"levelo://app?vid=784578b7-14c5-4169-822a-f33c376cf7ff","ios":"levelo://app?vid=784578b7-14c5-4169-822a-f33c376cf7ff"},"vehicle_type_id":"4","last_reported":1726247282,"current_range_meters":8400,"station_id":"ce4bh612rcd13ifvqe6g","pricing_plan_id":"cebpf4jnsgd1na2vs0mg"},{"bike_id":"5c66317f-f4d2-4788-8285-989e7f5f67be","system_id":"levelo_inurba_marseille","lat":43.28853,"lon":5.39319,"is_reserved":false,"is_disabled":false,"rental_uris":{"android":"levelo://app?vid=5c66317f-f4d2-4788-8285-989e7f5f67be","ios":"levelo://app?vid=5c66317f-f4d2-4788-8285-989e7f5f67be"},"vehicle_type_id":"4","last_reported":1726247282,"current_range_meters":19600,"station_id":"ce4bh2p2rcd13ifvqdi0","pricing_plan_id":"cebpf4jnsgd1na2vs0mg"},{"bike_id":"cd421908-6d75-40b1-a6ad-75d57ce49055","system_id":"levelo_inurba_marseille","lat":43.29558,"lon":5.42294,"is_reserved":false,"is_disabled":false,"rental_uris":{"android":"levelo://app?vid=cd421908-6d75-40b1-a6ad-75d57ce49055","ios":"levelo://app?vid=cd421908-6d75-40b1-a6ad-75d57ce49055"},"vehicle_type_id":"4","last_reported":1726247282,"current_range_meters":16000,"station_id":"ce4bhph2rcd13ifvqhdg","pricing_plan_id":"cebpf4jnsgd1na2vs0mg"},{"bike_id":"8d6a5442-1ae1-4544-837c-027919a48d11","system_id":"levelo_inurba_marseille","lat":43.30149,"lon":5.37414,"is_reserved":false,"is_disabled":false,"rental_uris":{"android":"levelo://app?vid=8d6a5442-1ae1-4544-837c-027919a48d11","ios":"levelo://app?vid=8d6a5442-1ae1-4544-837c-027919a48d11"},"vehicle_type_id":"4","last_reported":1726247282,"current_range_meters":8000,"station_id":"ce4bgs92rcd13ifvqcc0","pricing_plan_id":"cebpf4jnsgd1na2vs0mg"},{"bike_id":"681bf72c-9439-40a1-ae22-c00f051d940d","system_id":"levelo_inurba_marseille","lat":43.30216,"lon":5.36619,"is_reserved":false,"is_disabled":false,"rental_uris":{"android":"levelo://app?vid=681bf72c-9439-40a1-ae22-c00f051d940d","ios":"levelo://app?vid=681bf72c-9439-40a1-ae22-c00f051d940d"},"vehicle_type_id":"4","last_reported":1726247282,"current_range_meters":24800,"station_id":"ce4bgrh2rcd13ifvqc8g","pricing_plan_id":"cebpf4jnsgd1na2vs0mg"},{"bike_id":"87247e9b-cbf2-4d82-a223-6665152ad812","system_id":"levelo_inurba_marseille","lat":43.29526,"lon":5.38539,"is_reserved":false,"is_disabled":false,"rental_uris":{"android":"levelo://app?vid=87247e9b-cbf2-4d82-a223-6665152ad812","ios":"levelo://app?vid=87247e9b-cbf2-4d82-a223-6665152ad812"},"vehicle_type_id":"4","last_reported":1726247282,"current_range_meters":27600,"station_id":"ce4bgih2rcd13ifvqba0","pricing_plan_id":"cebpf4jnsgd1na2vs0mg"},{"bike_id":"a76b37e0-69ab-4175-b89b-c58776e90119","system_id":"levelo_inurba_marseille","lat":43.23192,"lon":5.35556,"is_reserved":false,"is_disabled":false,"rental_uris":{"android":"levelo://app?vid=a76b37e0-69ab-4175-b89b-c58776e90119","ios":"levelo://app?vid=a76b37e0-69ab-4175-b89b-c58776e90119"},"vehicle_type_id":"4","last_reported":1726247282,"current_range_meters":3200,"station_id":"ce4bhu92rcd13ifvqi70","pricing_plan_id":"cebpf4jnsgd1na2vs0mg"},{"bike_id":"7179462c-fa12-4c05-b2f4-82fcb5f1694d","system_id":"levelo_inurba_marseille","lat":43.31119,"lon":5.37769,"is_reserved":false,"is_disabled":false,"rental_uris":{"android":"levelo://app?vid=7179462c-fa12-4c05-b2f4-82fcb5f1694d","ios":"levelo://app?vid=7179462c-fa12-4c05-b2f4-82fcb5f1694d"},"vehicle_type_id":"4","last_reported":1726247282,"current_range_meters":20400,"station_id":"ce4bgt92rcd13ifvqcg0","pricing_plan_id":"cebpf4jnsgd1na2vs0mg"},{"bike_id":"01e48d03-99cb-44bd-a3e7-17bbc9125fb3","system_id":"levelo_inurba_marseille","lat":43.25498,"lon":5.37652,"is_reserved":false,"is_disabled":false,"rental_uris":{"android":"levelo://app?vid=01e48d03-99cb-44bd-a3e7-17bbc9125fb3","ios":"levelo://app?vid=01e48d03-99cb-44bd-a3e7-17bbc9125fb3"},"vehicle_type_id":"4","last_reported":1726247282,"current_range_meters":37600,"station_id":"ce4bhh12rcd13ifvqff0","pricing_plan_id":"cebpf4jnsgd1na2vs0mg"},{"bike_id":"f9ad296d-48e8-4ea2-bfbe-5b963f4b39c3","system_id":"levelo_inurba_marseille","lat":43.24665,"lon":5.3816,"is_reserved":false,"is_disabled":false,"rental_uris":{"android":"levelo://app?vid=f9ad296d-48e8-4ea2-bfbe-5b963f4b39c3","ios":"levelo://app?vid=f9ad296d-48e8-4ea2-bfbe-5b963f4b39c3"},"vehicle_type_id":"4","last_reported":1726247282,"current_range_meters":32000,"station_id":"ce4bhih2rcd13ifvqfr0","pricing_plan_id":"cebpf4jnsgd1na2vs0mg"},{"bike_id":"db7fdd74-bb3c-40de-9da4-6340f701a5b5","system_id":"levelo_inurba_marseille","lat":43.312317,"lon":5.368519,"is_reserved":false,"is_disabled":false,"rental_uris":{"android":"levelo://app?vid=db7fdd74-bb3c-40de-9da4-6340f701a5b5","ios":"levelo://app?vid=db7fdd74-bb3c-40de-9da4-6340f701a5b5"},"vehicle_type_id":"4","last_reported":1726247282,"current_range_meters":14000,"station_id":"ce4bgl92rcd13ifvqbq0","pricing_plan_id":"cebpf4jnsgd1na2vs0mg"},{"bike_id":"9e849566-7557-4b2a-bdb0-ee24851ecbef","system_id":"levelo_inurba_marseille","lat":43.28009,"lon":5.40008,"is_reserved":false,"is_disabled":false,"rental_uris":{"android":"levelo://app?vid=9e849566-7557-4b2a-bdb0-ee24851ecbef","ios":"levelo://app?vid=9e849566-7557-4b2a-bdb0-ee24851ecbef"},"vehicle_type_id":"4","last_reported":1726247282,"current_range_meters":36800,"station_id":"ce4bho92rcd13ifvqh4g","pricing_plan_id":"cebpf4jnsgd1na2vs0mg"},{"bike_id":"07f0fe63-eabc-4647-8989-27ab0817a400","system_id":"levelo_inurba_marseille","lat":43.25091,"lon":5.39522,"is_reserved":false,"is_disabled":false,"rental_uris":{"android":"levelo://app?vid=07f0fe63-eabc-4647-8989-27ab0817a400","ios":"levelo://app?vid=07f0fe63-eabc-4647-8989-27ab0817a400"},"vehicle_type_id":"4","last_reported":1726247282,"current_range_meters":13600,"station_id":"ce4bhm12rcd13ifvqgkg","pricing_plan_id":"cebpf4jnsgd1na2vs0mg"},{"bike_id":"9d1d9ac4-240b-4aca-ab01-96398f7741c4","system_id":"levelo_inurba_marseille","lat":43.35869,"lon":5.36521,"is_reserved":false,"is_disabled":false,"rental_uris":{"android":"levelo://app?vid=9d1d9ac4-240b-4aca-ab01-96398f7741c4","ios":"levelo://app?vid=9d1d9ac4-240b-4aca-ab01-96398f7741c4"},"vehicle_type_id":"4","last_reported":1726247282,"current_range_meters":6800,"station_id":"","pricing_plan_id":"cebpf4jnsgd1na2vs0mg"},{"bike_id":"68e16d6c-eec9-4791-a5df-e2593cea927f","system_id":"levelo_inurba_marseille","lat":43.31708,"lon":5.437,"is_reserved":false,"is_disabled":false,"rental_uris":{"android":"levelo://app?vid=68e16d6c-eec9-4791-a5df-e2593cea927f","ios":"levelo://app?vid=68e16d6c-eec9-4791-a5df-e2593cea927f"},"vehicle_type_id":"4","last_reported":1726247282,"current_range_meters":12000,"station_id":"ce4bhp92rcd13ifvqhcg","pricing_plan_id":"cebpf4jnsgd1na2vs0mg"},{"bike_id":"10de68b4-666b-4c22-b323-5a363183fec9","system_id":"levelo_inurba_marseille","lat":43.29028,"lon":5.37552,"is_reserved":false,"is_disabled":false,"rental_uris":{"android":"levelo://app?vid=10de68b4-666b-4c22-b323-5a363183fec9","ios":"levelo://app?vid=10de68b4-666b-4c22-b323-5a363183fec9"},"vehicle_type_id":"4","last_reported":1726247282,"current_range_meters":33600,"station_id":"ce4bh692rcd13ifvqe90","pricing_plan_id":"cebpf4jnsgd1na2vs0mg"},{"bike_id":"a95a6f10-ed68-47b0-8c79-9970996d12d8","system_id":"levelo_inurba_marseille","lat":43.27995,"lon":5.40011,"is_reserved":false,"is_disabled":false,"rental_uris":{"android":"levelo://app?vid=a95a6f10-ed68-47b0-8c79-9970996d12d8","ios":"levelo://app?vid=a95a6f10-ed68-47b0-8c79-9970996d12d8"},"vehicle_type_id":"4","last_reported":1726247282,"current_range_meters":9600,"station_id":"ce4bho92rcd13ifvqh4g","pricing_plan_id":"cebpf4jnsgd1na2vs0mg"},{"bike_id":"72202ef3-6f23-47e1-947d-f75699fe9835","system_id":"levelo_inurba_marseille","lat":43.28356,"lon":5.38098,"is_reserved":false,"is_disabled":false,"rental_uris":{"android":"levelo://app?vid=72202ef3-6f23-47e1-947d-f75699fe9835","ios":"levelo://app?vid=72202ef3-6f23-47e1-947d-f75699fe9835"},"vehicle_type_id":"4","last_reported":1726247282,"current_range_meters":24400,"station_id":"ce4bh412rcd13ifvqdr0","pricing_plan_id":"cebpf4jnsgd1na2vs0mg"},{"bike_id":"0b3d50cd-3141-401a-8106-26bbba361927","system_id":"levelo_inurba_marseille","lat":43.28078,"lon":5.39659,"is_reserved":false,"is_disabled":false,"rental_uris":{"android":"levelo://app?vid=0b3d50cd-3141-401a-8106-26bbba361927","ios":"levelo://app?vid=0b3d50cd-3141-401a-8106-26bbba361927"},"vehicle_type_id":"4","last_reported":1726247282,"current_range_meters":38000,"station_id":"ce4bho12rcd13ifvqh2g","pricing_plan_id":"cebpf4jnsgd1na2vs0mg"},