{"last_updated":1726852060,"ttl":30,"version":"2.2","data":{"bikes":[{"bike_id":"0faf272a-fdc8-4442-914f-92f52b9bce91","system_id":"levelo_inurba_marseille","lat":43.27935,"lon":5.41052,"is_reserved":false,"is_disabled":false,"rental_uris":{"android":"levelo://app?vid=0faf272a-fdc8-4442-914f-92f52b9bce91","ios":"levelo://app?vid=0faf272a-fdc8-4442-914f-92f52b9bce91"},"vehicle_type_id":"4","last_reported":1726852061,"current_range_meters":10800,"station_id":"ce4bhnp2rcd13ifvqh0g","pricing_plan_id":"cebpf4jnsgd1na2vs0mg"},{"bike_id":"f662e825-9148-4a09-82cd-289cff82a6e2","system_id":"levelo_inurba_marseille","lat":43.27809,"lon":5.40716,"is_reserved":false,"is_disabled":false,"rental_uris":{"android":"levelo://app?vid=f662e825-9148-4a09-82cd-289cff82a6e2","ios":"levelo://app?vid=f662e825-9148-4a09-82cd-289cff82a6e2"},"vehicle_type_id":"4","last_reported":1726852061,"current_range_meters":19200,"station_id":"ce4bhnh2rcd13ifvqgtg","pricing_plan_id":"cebpf4jnsgd1na2vs0mg"},{"bike_id":"e1c7bd3b-a4c1-4fb2-900a-76f0aa837c1f","system_id":"levelo_inurba_marseille","lat":43.28725,"lon":5.36088,"is_reserved":false,"is_disabled":false,"rental_uris":{"android":"levelo://app?vid=e1c7bd3b-a4c1-4fb2-900a-76f0aa837c1f","ios":"levelo://app?vid=e1c7bd3b-a4c1-4fb2-900a-76f0aa837c1f"},"vehicle_type_id":"4","last_reported":1726852061,"current_range_meters":14000,"station_id":"cki0cbj6b192h4jlfktg","pricing_plan_id":"cebpf4jnsgd1na2vs0mg"},{"bike_id":"4e7d3d98-d81b-445e-ba87-3d949294b967","system_id":"levelo_inurba_marseille","lat":43.31227,"lon":5.36872,"is_reserved":false,"is_disabled":false,"rental_uris":{"android":"levelo://app?vid=4e7d3d98-d81b-445e-ba87-3d949294b967","ios":"levelo://app?vid=4e7d3d98-d81b-445e-ba87-3d949294b967"},"vehicle_type_id":"4","last_reported":1726852061,"current_range_meters":38800,"station_id":"ce4bgl92rcd13ifvqbq0","pricing_plan_id":"cebpf4jnsgd1na2vs0mg"},{"bike_id":"e2f55d73-da7f-402d-b07d-5f263564dadc","system_id":"levelo_inurba_marseille","lat":43.309,"lon":5.37202,"is_reserved":false,"is_disabled":false,"rental_uris":{"android":"levelo://app?vid=e2f55d73-da7f-402d-b07d-5f263564dadc","ios":"levelo://app?vid=e2f55d73-da7f-402d-b07d-5f263564dadc"},"vehicle_type_id":"4","last_reported":1726852061,"current_range_meters":3200,"station_id":"ce4bguh2rcd13ifvqckg","pricing_plan_id":"cebpf4jnsgd1na2vs0mg"},{"bike_id":"faf6981d-3998-4c26-804f-3198f4eab74a","system_id":"levelo_inurba_marseille","lat":43.304358,"lon":5.388918,"is_reserved":false,"is_disabled":false,"rental_uris":{"android":"levelo://app?vid=faf6981d-3998-4c26-804f-3198f4eab74a","ios":"levelo://app?vid=faf6981d-3998-4c26-804f-3198f4eab74a"},"vehicle_type_id":"4","last_reported":1726852061,"current_range_meters":3200,"station_id":"ce4bgk12rcd13ifvqbi0","pricing_plan_id":"cebpf4jnsgd1na2vs0mg"},{"bike_id":"98c58d90-864d-4b99-87b2-b78426096c44","system_id":"levelo_inurba_marseille","lat":43.29899,"lon":5.43673,"is_reserved":false,"is_disabled":false,"rental_uris":{"android":"levelo://app?vid=98c58d90-864d-4b99-87b2-b78426096c44","ios":"levelo://app?vid=98c58d90-864d-4b99-87b2-b78426096c44"},"vehicle_type_id":"4","last_reported":1726852061,"current_range_meters":14000,"station_id":"ce4bhpp2rcd13ifvqhfg","pricing_plan_id":"cebpf4jnsgd1na2vs0mg"},{"bike_id":"5eb090ec-2b95-4c94-8161-eff4c8f0e709","system_id":"levelo_inurba_marseille","lat":43.3248,"lon":5.36563,"is_reserved":false,"is_disabled":false,"rental_uris":{"android":"levelo://app?vid=5eb090ec-2b95-4c94-8161-eff4c8f0e709","ios":"levelo://app?vid=5eb090ec-2b95-4c94-8161-eff4c8f0e709"},"vehicle_type_id":"4","last_reported":1726852061,"current_range_meters":11600,"station_id":"ce4bhs12rcd13ifvqhvg","pricing_plan_id":"cebpf4jnsgd1na2vs0mg"},{"bike_id":"d835bf41-539c-4834-98d5-3da119f44c33","system_id":"levelo_inurba_marseille","lat":43.31338,"lon":5.39704,"is_reserved":false,"is_disabled":false,"rental_uris":{"android":"levelo://app?vid=d835bf41-539c-4834-98d5-3da119f44c33","ios":"levelo://app?vid=d835bf41-539c-4834-98d5-3da119f44c33"},"vehicle_type_id":"4","last_reported":1726852061,"current_range_meters":38800,"station_id":"ce4bgvp2rcd13ifvqcu0","pricing_plan_id":"cebpf4jnsgd1na2vs0mg"},{"bike_id":"f0fa9c47-c653-4fbd-8041-e4636c890339","system_id":"levelo_inurba_marseille","lat":43.31368,"lon":5.40247,"is_reserved":false,"is_disabled":false,"rental_uris":{"android":"levelo://app?vid=f0fa9c47-c653-4fbd-8041-e4636c890339","ios":"levelo://app?vid=f0fa9c47-c653-4fbd-8041-e4636c890339"},"vehicle_type_id":"4","last_reported":1726852061,"current_range_meters":6800,"station_id":"","pricing_plan_id":"cebpf4jnsgd1na2vs0mg"},{"bike_id":"7adb6a9c-fc7c-4226-a40a-fdb37f7e5bd8","system_id":"levelo_inurba_marseille","lat":43.24666,"lon":5.38159,"is_reserved":false,"is_disabled":false,"rental_uris":{"android":"levelo://app?vid=7adb6a9c-fc7c-4226-a40a-fdb37f7e5bd8","ios":"levelo://app?vid=7adb6a9c-fc7c-4226-a40a-fdb37f7e5bd8"},"vehicle_type_id":"4","last_reported":1726852061,"current_range_meters":38800,"station_id":"ce4bhih2rcd13ifvqfr0","pricing_plan_id":"cebpf4jnsgd1na2vs0mg"},{"bike_id":"3d9367e7-4334-4398-8840-7e7fd729c93f","system_id":"levelo_inurba_marseille","lat":43.32484,"lon":5.36568,"is_reserved":false,"is_disabled":false,"rental_uris":{"android":"levelo://app?vid=3d9367e7-4334-4398-8840-7e7fd729c93f","ios":"levelo://app?vid=3d9367e7-4334-4398-8840-7e7fd729c93f"},"vehicle_type_id":"4","last_reported":1726852061,"current_range_meters":38800,"station_id":"ce4bhs12rcd13ifvqhvg","pricing_plan_id":"cebpf4jnsgd1na2vs0mg"},{"bike_id":"12d81291-30fe-4d6b-94c5-cb0a8ba853d9","system_id":"levelo_inurba_marseille","lat":43.29419,"lon":5.38628,"is_reserved":false,"is_disabled":false,"rental_uris":{"android":"levelo://app?vid=12d81291-30fe-4d6b-94c5-cb0a8ba853d9","ios":"levelo://app?vid=12d81291-30fe-4d6b-94c5-cb0a8ba853d9"},"vehicle_type_id":"4","last_reported":1726852061,"current_range_meters":14000,"station_id":"ce4bh2h2rcd13ifvqdh0","pricing_plan_id":"cebpf4jnsgd1na2vs0mg"},{"bike_id":"a6ed4969-0556-414d-860c-5de0f6bbce5a","system_id":"levelo_inurba_marseille","lat":43.27372,"lon":5.36255,"is_reserved":false,"is_disabled":false,"rental_uris":{"android":"levelo://app?vid=a6ed4969-0556-414d-860c-5de0f6bbce5a","ios":"levelo://app?vid=a6ed4969-0556-414d-860c-5de0f6bbce5a"},"vehicle_type_id":"4","last_reported":1726852061,"current_range_meters":10800,"station_id":"ce4bhbh2rcd13ifvqeo0","pricing_plan_id":"cebpf4jnsgd1na2vs0mg"},{"bike_id":"03792e72-ed99-44f7-8a97-d29c90979ead","system_id":"levelo_inurba_marseille","lat":43.31696,"lon":5.40474,"is_reserved":false,"is_disabled":false,"rental_uris":{"android":"levelo://app?vid=03792e72-ed99-44f7-8a97-d29c90979ead","ios":"levelo://app?vid=03792e72-ed99-44f7-8a97-d29c90979ead"},"vehicle_type_id":"4","last_reported":1726852061,"current_range_meters":2000,"station_id":"ce4bh012rcd13ifvqd00","pricing_plan_id":"cebpf4jnsgd1na2vs0mg"},{"bike_id":"548ff5e8-4be6-4fa2-b210-beb1ef8053de","system_id":"levelo_inurba_marseille","lat":43.330057,"lon":5.389847,"is_reserved":false,"is_disabled":false,"rental_uris":{"android":"levelo://app?vid=548ff5e8-4be6-4fa2-b210-beb1ef8053de","ios":"levelo://app?vid=548ff5e8-4be6-4fa2-b210-beb1ef8053de"},"vehicle_type_id":"4","last_reported":1726852061,"current_range_meters":20000,"station_id":"ce4bhr92rcd13ifvqhrg","pricing_plan_id":"cebpf4jnsgd1na2vs0mg"},{"bike_id":"9a971950-b7df-4874-a53e-c24c025c4e8f","system_id":"levelo_inurba_marseille","lat":43.292999,"lon":5.374351,"is_reserved":false,"is_disabled":false,"rental_uris":{"android":"levelo://app?vid=9a971950-b7df-4874-a53e-c24c025c4e8f","ios":"levelo://app?vid=9a971950-b7df-4874-a53e-c24c025c4e8f"},"vehicle_type_id":"4","last_reported":1726852061,"current_range_meters":9200,"station_id":"ce4bgi12rcd13ifvqb70","pricing_plan_id":"cebpf4jnsgd1na2vs0mg"},{"bike_id":"258e5a86-8c5e-4195-9b9f-e91da5c4ec22","system_id":"levelo_inurba_marseille","lat":43.30795,"lon":5.43513,"is_reserved":false,"is_disabled":false,"rental_uris":{"android":"levelo://app?vid=258e5a86-8c5e-4195-9b9f-e91da5c4ec22","ios":"levelo://app?vid=258e5a86-8c5e-4195-9b9f-e91da5c4ec22"},"vehicle_type_id":"4","last_reported":1726852061,"current_range_meters":2000,"station_id":"ce4bhph2rcd13ifvqheg","pricing_plan_id":"cebpf4jnsgd1na2vs0mg"},{"bike_id":"553c4abe-6f46-4d97-a409-7725c0c56fc0","system_id":"levelo_inurba_marseille","lat":43.25585,"lon":5.38232,"is_reserved":false,"is_disabled":false,"rental_uris":{"android":"levelo://app?vid=553c4abe-6f46-4d97-a409-7725c0c56fc0","ios":"levelo://app?vid=553c4abe-6f46-4d97-a409-7725c0c56fc0"},"vehicle_type_id":"4","last_reported":1726852061,"current_range_meters":10800,"station_id":"ce4bhih2rcd13ifvqfs0","pricing_plan_id":"cebpf4jnsgd1na2vs0mg"},{"bike_id":"802cef9a-7486-4146-a45d-0de335c6522e","system_id":"levelo_inurba_marseille","lat":43.28715,"lon":5.37939,"is_reserved":false,"is_disabled":false,"rental_uris":{"android":"levelo://app?vid=802cef9a-7486-4146-a45d-0de335c6522e","ios":"levelo://app?vid=802cef9a-7486-4146-a45d-0de335c6522e"},"vehicle_type_id":"4","last_reported":1726852061,"current_range_meters":38800,"station_id":"ce4bh9p2rcd13ifvqec0","pricing_plan_id":"cebpf4jnsgd1na2vs0mg"},{"bike_id":"525d65ad-c68a-4bc7-81da-ac1570ffba9c","system_id":"levelo_inurba_marseille","lat":43.32365,"lon":5.38885,"is_reserved":false,"is_disabled":false,"rental_uris":{"android":"levelo://app?vid=525d65ad-c68a-4bc7-81da-ac1570ffba9c","ios":"levelo://app?vid=525d65ad-c68a-4bc7-81da-ac1570ffba9c"},"vehicle_type_id":"4","last_reported":1726852061,"current_range_meters":6400,"station_id":"ce4bhqp2rcd13ifvqhog","pricing_plan_id":"cebpf4jnsgd1na2vs0mg"},{"bike_id":"71933af7-f2a4-4fbf-a2c9-87fefab3a11c","system_id":"levelo_inurba_marseille","lat":43.296021,"lon":5.405695,"is_reserved":false,"is_disabled":false,"rental_uris":{"android":"levelo://app?vid=71933af7-f2a4-4fbf-a2c9-87fefab3a11c","ios":"levelo://app?vid=71933af7-f2a4-4fbf-a2c9-87fefab3a11c"},"vehicle_type_id":"4","last_reported":1726852061,"current_range_meters":19200,"station_id":"ce4bh0h2rcd13ifvqd60","pricing_plan_id":"cebpf4jnsgd1na2vs0mg"},{"bike_id":"b64ac26d-5e89-4552-82ce-aafd6147be0e","system_id":"levelo_inurba_marseille","lat":43.29276,"lon":5.36842,"is_reserved":false,"is_disabled":false,"rental_uris":{"android":"levelo://app?vid=b64ac26d-5e89-4552-82ce-aafd6147be0e","ios":"levelo://app?vid=b64ac26d-5e89-4552-82ce-aafd6147be0e"},"vehicle_type_id":"4","last_reported":1726852061,"current_range_meters":26000,"station_id":"ce4bhbp2rcd13ifvqesg","pricing_plan_id":"cebpf4jnsgd1na2vs0mg"},{"bike_id":"a757a674-1f48-4503-a861-0fd20fa29a4a","system_id":"levelo_inurba_marseille","lat":43.30928,"lon":5.372254,"is_reserved":false,"is_disabled":false,"rental_uris":{"android":"levelo://app?vid=a757a674-1f48-4503-a861-0fd20fa29a4a","ios":"levelo://app?vid=a757a674-1f48-4503-a861-0fd20fa29a4a"},"vehicle_type_id":"4","last_reported":1726852061,"current_range_meters":30400,"station_id":"ce4bgqh2rcd13ifvqc5g","pricing_plan_id":"cebpf4jnsgd1na2vs0mg"},{"bike_id":"6f78e88d-9cdc-477d-825d-6417d60361c3","system_id":"levelo_inurba_marseille","lat":43.285665,"lon":5.395019,"is_reserved":false,"is_disabled":false,"rental_uris":{"android":"levelo://app?vid=6f78e88d-9cdc-477d-825d-6417d60361c3","ios":"levelo://app?vid=6f78e88d-9cdc-477d-825d-6417d60361c3"},"vehicle_type_id":"4","last_reported":1726852061,"current_range_meters":2800,"station_id":"ce4bh292rcd13ifvqdg0","pricing_plan_id":"cebpf4jnsgd1na2vs0mg"},{"bike_id":"49f19abc-c388-4ed4-a45f-b173e84bef1b","system_id":"levelo_inurba_marseille","lat":43.314948,"lon":5.373165,"is_reserved":false,"is_disabled":false,"rental_uris":{"android":"levelo://app?vid=49f19abc-c388-4ed4-a45f-b173e84bef1b","ios":"levelo://app?vid=49f19abc-c388-4ed4-a45f-b173e84bef1b"},"vehicle_type_id":"4","last_reported":1726852061,"current_range_meters":6000,"station_id":"ce4bgt12rcd13ifvqcd0","pricing_plan_id":"cebpf4jnsgd1na2vs0mg"},{"bike_id":"edfb1ff5-b81b-4225-8da9-100a9115b1e3","system_id":"levelo_inurba_marseille","lat":43.29735,"lon":5.36561,"is_reserved":false,"is_disabled":false,"rental_uris":{"android":"levelo://app?vid=edfb1ff5-b81b-4225-8da9-100a9115b1e3","ios":"levelo://app?vid=edfb1ff5-b81b-4225-8da9-100a9115b1e3"},"vehicle_type_id":"4","last_reported":1726852061,"current_range_meters":12000,"station_id":"","pricing_plan_id":"cebpf4jnsgd1na2vs0mg"},{"bike_id":"5db8672a-2526-4c4f-9223-b6ec4948ee15","system_id":"levelo_inurba_marseille","lat":43.24805,"lon":5.37464,"is_reserved":false,"is_disabled":false,"rental_uris":{"android":"levelo://app?vid=5db8672a-2526-4c4f-9223-b6ec4948ee15","ios":"levelo://app?vid=5db8672a-2526-4c4f-9223-b6ec4948ee15"},"vehicle_type_id":"4","last_reported":1726852061,"current_range_meters":38000,"station_id":"ce4bhgh2rcd13ifvqfb0","pricing_plan_id":"cebpf4jnsgd1na2vs0mg"},{"bike_id":"15e3060d-1cfb-481c-9f48-257a94bd2c2a","system_id":"levelo_inurba_marseille","lat":43.32477,"lon":5.40757,"is_reserved":false,"is_disabled":false,"rental_uris":{"android":"levelo://app?vid=15e3060d-1cfb-481c-9f48-257a94bd2c2a","ios":"levelo://app?vid=15e3060d-1cfb-481c-9f48-257a94bd2c2a"},"vehicle_type_id":"4","last_reported":1726852061,"current_range_meters":36400,"station_id":"","pricing_plan_id":"cebpf4jnsgd1na2vs0mg"},{"bike_id":"c8558a3e-0779-4454-9c3b-d1ee2706fdca","system_id":"levelo_inurba_marseille","lat":43.31712,"lon":5.43731,"is_reserved":false,"is_disabled":false,"rental_uris":{"android":"levelo://app?vid=c8558a3e-0779-4454-9c3b-d1ee2706fdca","ios":"levelo://app?vid=c8558a3e-0779-4454-9c3b-d1ee2706fdca"},"vehicle_type_id":"4","last_reported":1726852061,"current_range_meters":38800,"station_id":"ce4bhp92rcd13ifvqhcg","pricing_plan_id":"cebpf4jnsgd1na2vs0mg"},{"bike_id":"a61f6505-0008-4853-80e5-91aa68db1d2c","system_id":"levelo_inurba_marseille","lat":43.285578,"lon":5.350596,"is_reserved":false,"is_disabled":false,"rental_uris":{"android":"levelo://app?vid=a61f6505-0008-4853-80e5-91aa68db1d2c","ios":"levelo://app?vid=a61f6505-0008-4853-80e5-91aa68db1d2c"},"vehicle_type_id":"4","last_reported":1726852061,"current_range_meters":17200,"station_id":"ce4bh2h2rcd13ifvqdh0","pricing_plan_id":"cebpf4jnsgd1na2vs0mg"},{"bike_id":"e4cd288b-58e9-4c73-81ff-0e54d332441e","system_id":"levelo_inurba_marseille","lat":43.33021,"lon":5.39045,"is_reserved":false,"is_disabled":false,"rental_uris":{"android":"levelo://app?vid=e4cd288b-58e9-4c73-81ff-0e54d332441e","ios":"levelo://app?vid=e4cd288b-58e9-4c73-81ff-0e54d332441e"},"vehicle_type_id":"4","last_reported":1726852061,"current_range_meters":20400,"station_id":"ce4bhr92rcd13ifvqhrg","pricing_plan_id":"cebpf4jnsgd1na2vs0mg"},{"bike_id":"03b4a95e-30d1-4814-a5e0-28d381895ec2","system_id":"levelo_inurba_marseille","lat":43.31713,"lon":5.43712,"is_reserved":false,"is_disabled":false,"rental_uris":{"android":"levelo://app?vid=03b4a95e-30d1-4814-a5e0-28d381895ec2","ios":"levelo://app?vid=03b4a95e-30d1-4814-a5e0-28d381895ec2"},"vehicle_type_id":"4","last_reported":1726852061,"current_range_meters":20400,"station_id":"ce4bhp92rcd13ifvqhcg","pricing_plan_id":"cebpf4jnsgd1na2vs0mg"},{"bike_id":"b262176a-eff7-4d72-8770-da2d8dfd2497","system_id":"levelo_inurba_marseille","lat":43.2953,"lon":5.38544,"is_reserved":false,"is_disabled":false,"rental_uris":{"android":"levelo://app?vid=b262176a-eff7-4d72-8770-da2d8dfd2497","ios":"levelo://app?vid=b262176a-eff7-4d72-8770-da2d8dfd2497"},"vehicle_type_id":"4","last_reported":1726852061,"current_range_meters":38000,"station_id":"ce4bgih2rcd13ifvqba0","pricing_plan_id":"cebpf4jnsgd1na2vs0mg"},{"bike_id":"bcbc3997-7b56-4960-bfde-08b4e3546a1f","system_id":"levelo_inurba_marseille","lat":43.28613,"lon":5.35103,"is_reserved":false,"is_disabled":false,"rental_uris":{"android":"levelo://app?vid=bcbc3997-7b56-4960-bfde-08b4e3546a1f","ios":"levelo://app?vid=bcbc3997-7b56-4960-bfde-08b4e3546a1f"},"vehicle_type_id":"4","last_reported":1726852061,"current_range_meters":12000,"station_id":"ce4bhch2rcd13ifvqeug","pricing_plan_id":"cebpf4jnsgd1na2vs0mg"},{"bike_id":"ca97d4b7-ec02-45c7-9280-bc772bfad916","system_id":"levelo_inurba_marseille","lat":43.28155,"lon":5.42644,"is_reserved":false,"is_disabled":false,"rental_uris":{"android":"levelo://app?vid=ca97d4b7-ec02-45c7-9280-bc772bfad916","ios":"levelo://app?vid=ca97d4b7-ec02-45c7-9280-bc772bfad916"},"vehicle_type_id":"4","last_reported":1726852061,"current_range_meters":38000,"station_id":"ce4bhnh2rcd13ifvqgug","pricing_plan_id":"cebpf4jnsgd1na2vs0mg"},{"bike_id":"a662793f-6068-46a4-a560-d9c3d0f98ce6","system_id":"levelo_inurba_marseille","lat":43.29318,"lon":5.41154,"is_reserved":false,"is_disabled":false,"rental_uris":{"android":"levelo://app?vid=a662793f-6068-46a4-a560-d9c3d0f98ce6","ios":"levelo://app?vid=a662793f-6068-46a4-a560-d9c3d0f98ce6"},"vehicle_type_id":"4","last_reported":1726852061,"current_range_meters":30000,"station_id":"ce4bh192rcd13ifvqdc0","pricing_plan_id":"cebpf4jnsgd1na2vs0mg"},{"bike_id":"85db97ee-2365-47af-b428-13901112f6a3","system_id":"levelo_inurba_marseille","lat":43.273919,"lon":5.362473,"is_reserved":false,"is_disabled":false,"rental_uris":{"android":"levelo://app?vid=85db97ee-2365-47af-b428-13901112f6a3","ios":"levelo://app?vid=85db97ee-2365-47af-b428-13901112f6a3"},"vehicle_type_id":"4","last_reported":1726852061,"current_range_meters":8400,"station_id":"ce4bhbh2rcd13ifvqeo0","pricing_plan_id":"cebpf4jnsgd1na2vs0mg"},{"bike_id":"9be11472-bb98-476e-b965-2e16758bf235","system_id":"levelo_inurba_marseille","lat":43.2903,"lon":5.37583,"is_reserved":false,"is_disabled":false,"rental_uris":{"android":"levelo://app?vid=9be11472-bb98-476e-b965-2e16758bf235","ios":"levelo://app?vid=9be11472-bb98-476e-b965-2e16758bf235"},"vehicle_type_id":"4","last_reported":1726852061,"current_range_meters":9600,"station_id":"ce4bh692rcd13ifvqe90","pricing_plan_id":"cebpf4jnsgd1na2vs0mg"},{"bike_id":"1a07f806-7a44-46ed-a139-6a037d045616","system_id":"levelo_inurba_marseille","lat":43.31328,"lon":5.39691,"is_reserved":false,"is_disabled":false,"rental_uris":{"android":"levelo://app?vid=1a07f806-7a44-46ed-a139-6a037d045616","ios":"levelo://app?vid=1a07f806-7a44-46ed-a139-6a037d045616"},"vehicle_type_id":"4","last_reported":1726852061,"current_range_meters":38800,"station_id":"ce4bgvp2rcd13ifvqcu0","pricing_plan_id":"cebpf4jnsgd1na2vs0mg"},{"bike_id":"41bd4900-1f2b-4aef-9abc-1f5a09b7ffa2","system_id":"levelo_inurba_marseille","lat":43.27067,"lon":5.42287,"is_reserved":false,"is_disabled":false,"rental_uris":{"android":"levelo://app?vid=41bd4900-1f2b-4aef-9abc-1f5a09b7ffa2","ios":"levelo://app?vid=41bd4900-1f2b-4aef-9abc-1f5a09b7ffa2"},"vehicle_type_id":"4","last_reported":1726852061,"current_range_meters":16000,"station_id":"ce4bhk92rcd13ifvqgb0","pricing_plan_id":"cebpf4jnsgd1na2vs0mg"},{"bike_id":"a3a6b38f-5824-4d2e-a929-e72df2388fdc","system_id":"levelo_inurba_marseille","lat":43.29581,"lon":5.36741,"is_reserved":false,"is_disabled":false,"rental_uris":{"android":"levelo://app?vid=a3a6b38f-5824-4d2e-a929-e72df2388fdc","ios":"levelo://app?vid=a3a6b38f-5824-4d2e-a929-e72df2388fdc"},"vehicle_type_id":"4","last_reported":1726852061,"current_range_meters":30000,"station_id":"ce4bgph2rcd13ifvqc2g","pricing_plan_id":"cebpf4jnsgd1na2vs0mg"},{"bike_id":"5840a821-7b4a-4179-8856-92a74917e83c","system_id":"levelo_inurba_marseille","lat":43.25004,"lon":5.38928,"is_reserved":false,"is_disabled":false,"rental_uris":{"android":"levelo://app?vid=5840a821-7b4a-4179-8856-92a74917e83c","ios":"levelo://app?vid=5840a821-7b4a-4179-8856-92a74917e83c"},"vehicle_type_id":"4","last_reported":1726852061,"current_range_meters":28400,"station_id":"ce4bhgp2rcd13ifvqfd0","pricing_plan_id":"cebpf4jnsgd1na2vs0mg"},{"bike_id":"97d008e1-0c44-4d9c-aab1-e747c44595e9","system_id":"levelo_inurba_marseille","lat":43.2861,"lon":5.35105,"is_reserved":false,"is_disabled":false,"rental_uris":{"android":"levelo://app?vid=97d008e1-0c44-4d9c-aab1-e747c44595e9","ios":"levelo://app?vid=97d008e1-0c44-4d9c-aab1-e747c44595e9"},"vehicle_type_id":"4","last_reported":1726852061,"current_range_meters":12800,"station_id":"ce4bhch2rcd13ifvqeug","pricing_plan_id":"cebpf4jnsgd1na2vs0mg"},{"bike_id":"5419b1bf-d37c-4076-a34c-52ede101758e","system_id":"levelo_inurba_marseille","lat":43.337444,"lon":5.374475,"is_reserved":false,"is_disabled":false,"rental_uris":{"android":"levelo://app?vid=5419b1bf-d37c-4076-a34c-52ede101758e","ios":"levelo://app?vid=5419b1bf-d37c-4076-a34c-52ede101758e"},"vehicle_type_id":"4","last_reported":1726852061,"current_range_meters":36400,"station_id":"","pricing_plan_id":"cebpf4jnsgd1na2vs0mg"},{"bike_id":"59bb4f1b-be25-4f30-adb4-cd2807a8d092","system_id":"levelo_inurba_marseille","lat":43.27902,"lon":5.38006,"is_reserved":false,"is_disabled":false,"rental_uris":{"android":"levelo://app?vid=59bb4f1b-be25-4f30-adb4-cd2807a8d092","ios":"levelo://app?vid=59bb4f1b-be25-4f30-adb4-cd2807a8d092"},"vehicle_type_id":"4","last_reported":1726852061,"current_range_meters":19600,"station_id":"ce4bhf92rcd13ifvqf50","pricing_plan_id":"cebpf4jnsgd1na2vs0mg"},{"bike_id":"6716c3d1-091d-47b2-aef1-1262452066fc","system_id":"levelo_inurba_marseille","lat":43.29897,"lon":5.43665,"is_reserved":false,"is_disabled":false,"rental_uris":{"android":"levelo://app?vid=6716c3d1-091d-47b2-aef1-1262452066fc","ios":"levelo://app?vid=6716c3d1-091d-47b2-aef1-1262452066fc"},"vehicle_type_id":"4","last_reported":1726852061,"current_range_meters":6800,"station_id":"ce4bhpp2rcd13ifvqhfg","pricing_plan_id":"cebpf4jnsgd1na2vs0mg"},{"bike_id":"9c85bd09-c493-4d97-a892-03487edb8d00","system_id":"levelo_inurba_marseille","lat":43.29617,"lon":5.37153,"is_reserved":false,"is_disabled":false,"rental_uris":{"android":"levelo://app?vid=9c85bd09-c493-4d97-a892-03487edb8d00","ios":"levelo://app?vid=9c85bd09-c493-4d97-a892-03487edb8d00"},"vehicle_type_id":"4","last_reported":1726852061,"current_range_meters":12000,"station_id":"ce4bgnh2rcd13ifvqc0g","pricing_plan_id":"cebpf4jnsgd1na2vs0mg"},{"bike_id":"4d2bd7fd-dfdf-4515-be1e-c257ecc849e2","system_id":"levelo_inurba_marseille","lat":43.30782,"lon":5.3766,"is_reserved":false,"is_disabled":false,"rental_uris":{"android":"levelo://app?vid=4d2bd7fd-dfdf-4515-be1e-c257ecc849e2","ios":"levelo://app?vid=4d2bd7fd-dfdf-4515-be1e-c257ecc849e2"},"vehicle_type_id":"4","last_reported":1726852061,"current_range_meters":38800,"station_id":"ce4bgv92rcd13ifvqcq0","pricing_plan_id":"cebpf4jnsgd1na2vs0mg"},{"bike_id":"83cfcd44-073f-41bd-9f0d-eca1d872c747","system_id":"levelo_inurba_marseille","lat":43.29507,"lon":5.38725,"is_reserved":false,"is_disabled":false,"rental_uris":{"android":"levelo://app?vid=83cfcd44-073f-41bd-9f0d-eca1d872c747","ios":"levelo://app?vid=83cfcd44-073f-41bd-9f0d-eca1d872c747"},"vehicle_type_id":"4","last_reported":1726852061,"current_range_meters":4000,"station_id":"ce4bh2h2rcd13ifvqdh0","pricing_plan_id":"cebpf4jnsgd1na2vs0mg"},{"bike_id":"5899dc76-4576-41fc-91db-67e269faacc4","system_id":"levelo_inurba_marseille","lat":43.31763,"lon":5.3901,"is_reserved":false,"is_disabled":false,"rental_uris":{"android":"levelo://app?vid=5899dc76-4576-41fc-91db-67e269faacc4","ios":"levelo://app?vid=5899dc76-4576-41fc-91db-67e269faacc4"},"vehicle_type_id":"4","last_reported":1726852061,"current_range_meters":3600,"station_id":"ce4bhqp2rcd13ifvqhng","pricing_plan_id":"cebpf4jnsgd1na2vs0mg"},{"bike_id":"9203739a-774a-4b9c-832c-d982cfd4c7c1","system_id":"levelo_inurba_marseille","lat":43.32382,"lon":5.3894,"is_reserved":false,"is_disabled":false,"rental_uris":{"android":"levelo://app?vid=9203739a-774a-4b9c-832c-d982cfd4c7c1","ios":"levelo://app?vid=9203739a-774a-4b9c-832c-d982cfd4c7c1"},"vehicle_type_id":"4","last_reported":1726852061,"current_range_meters":9600,"station_id":"ce4bhqp2rcd13ifvqhog","pricing_plan_id":"cebpf4jnsgd1na2vs0mg"},{"bike_id":"af42f746-66d2-45b8-9e58-3721ab0e338d","system_id":"levelo_inurba_marseille","lat":43.23192,"lon":5.35553,"is_reserved":false,"is_disabled":false,"rental_uris":{"android":"levelo://app?vid=af42f746-66d2-45b8-9e58-3721ab0e338d","ios":"levelo://app?vid=af42f746-66d2-45b8-9e58-3721ab0e338d"},"vehicle_type_id":"4","last_reported":1726852061,"current_range_meters":8000,"station_id":"ce4bhu92rcd13ifvqi70","pricing_plan_id":"cebpf4jnsgd1na2vs0mg"},{"bike_id":"355c50cb-84f0-4391-9935-65f0e7455aca","system_id":"levelo_inurba_marseille","lat":43.3088,"lon":5.39631,"is_reserved":false,"is_disabled":false,"rental_uris":{"android":"levelo://app?vid=355c50cb-84f0-4391-9935-65f0e7455aca","ios":"levelo://app?vid=355c50cb-84f0-4391-9935-65f0e7455aca"},"vehicle_type_id":"4","last_reported":1726852061,"current_range_meters":10800,"station_id":"ce4bh012rcd13ifvqcv0","pricing_plan_id":"cebpf4jnsgd1na2vs0mg"},{"bike_id":"c1348aa4-192c-4f07-a0b0-e764abab43fb","system_id":"levelo_inurba_marseille","lat":43.290257,"lon":5.386465,"is_reserved":false,"is_disabled":false,"rental_uris":{"android":"levelo://app?vid=c1348aa4-192c-4f07-a0b0-e764abab43fb","ios":"levelo://app?vid=c1348aa4-192c-4f07-a0b0-e764abab43fb"},"vehicle_type_id":"4","last_reported":1726852061,"current_range_meters":12800,"station_id":"ce4bh4p2rcd13ifvqe0g","pricing_plan_id":"cebpf4jnsgd1na2vs0mg"},{"bike_id":"bd248bc7-a1a6-4c83-92d3-231a636890e1","system_id":"levelo_inurba_marseille","lat":43.30802,"lon":5.43519,"is_reserved":false,"is_disabled":false,"rental_uris":{"android":"levelo://app?vid=bd248bc7-a1a6-4c83-92d3-231a636890e1","ios":"levelo://app?vid=bd248bc7-a1a6-4c83-92d3-231a636890e1"},"vehicle_type_id":"4","last_reported":1726852061,"current_range_meters":37600,"station_id":"ce4bhph2rcd13ifvqheg","pricing_plan_id":"cebpf4jnsgd1na2vs0mg"},{"bike_id":"3b16143c-a827-4de7-8176-3c8f7da12e54","system_id":"levelo_inurba_marseille","lat":43.24809,"lon":5.37456,"is_reserved":false,"is_disabled":false,"rental_uris":{"android":"levelo://app?vid=3b16143c-a827-4de7-8176-3c8f7da12e54","ios":"levelo://app?vid=3b16143c-a827-4de7-8176-3c8f7da12e54"},"vehicle_type_id":"4","last_reported":1726852061,"current_range_meters":22800,"station_id":"ce4bhgh2rcd13ifvqfb0","pricing_plan_id":"cebpf4jnsgd1na2vs0mg"},{"bike_id":"604c9531-be4f-4974-bfe2-bd7828d7386f","system_id":"levelo_inurba_marseille","lat":43.29895,"lon":5.43686,"is_reserved":false,"is_disabled":false,"rental_uris":{"android":"levelo://app?vid=604c9531-be4f-4974-bfe2-bd7828d7386f","ios":"levelo://app?vid=604c9531-be4f-4974-bfe2-bd7828d7386f"},"vehicle_type_id":"4","last_reported":1726852061,"current_range_meters":27600,"station_id":"ce4bhpp2rcd13ifvqhfg","pricing_plan_id":"cebpf4jnsgd1na2vs0mg"},{"bike_id":"c4d75b04-0336-434e-bef4-7a327c36711a","system_id":"levelo_inurba_marseille","lat":43.28715,"lon":5.37945,"is_reserved":false,"is_disabled":false,"rental_uris":{"android":"levelo://app?vid=c4d75b04-0336-434e-bef4-7a327c36711a","ios":"levelo://app?vid=c4d75b04-0336-434e-bef4-7a327c36711a"},"vehicle_type_id":"4","last_reported":1726852061,"current_range_meters":16800,"station_id":"ce4bh9p2rcd13ifvqec0","pricing_plan_id":"cebpf4jnsgd1na2vs0mg"},{"bike_id":"3a5c047a-0e6a-4426-8a83-90b5a77ff6b4","system_id":"levelo_inurba_marseille","lat":43.2396,"lon":5.36632,"is_reserved":false,"is_disabled":false,"rental_uris":{"android":"levelo://app?vid=3a5c047a-0e6a-4426-8a83-90b5a77ff6b4","ios":"levelo://app?vid=3a5c047a-0e6a-4426-8a83-90b5a77ff6b4"},"vehicle_type_id":"4","last_reported":1726852061,"current_range_meters":8400,"station_id":"ce4bhi12rcd13ifvqfp0","pricing_plan_id":"cebpf4jnsgd1na2vs0mg"},{"bike_id":"488231c3-dc41-4335-86fc-71a809b470fa","system_id":"levelo_inurba_marseille","lat":43.2537,"lon":5.37613,"is_reserved":false,"is_disabled":false,"rental_uris":{"android":"levelo://app?vid=488231c3-dc41-4335-86fc-71a809b470fa","ios":"levelo://app?vid=488231c3-dc41-4335-86fc-71a809b470fa"},"vehicle_type_id":"4","last_reported":1726852061,"current_range_meters":16400,"station_id":"ce4bhip2rcd13ifvqft0","pricing_plan_id":"cebpf4jnsgd1na2vs0mg"},{"bike_id":"c7fdb6e7-0be7-4cec-809d-2dd794ade93e","system_id":"levelo_inurba_marseille","lat":43.30787,"lon":5.37663,"is_reserved":false,"is_disabled":false,"rental_uris":{"android":"levelo://app?vid=c7fdb6e7-0be7-4cec-809d-2dd794ade93e","ios":"levelo://app?vid=c7fdb6e7-0be7-4cec-809d-2dd794ade93e"},"vehicle_type_id":"4","last_reported":1726852061,"current_range_meters":22400,"station_id":"ce4bgv92rcd13ifvqcq0","pricing_plan_id":"cebpf4jnsgd1na2vs0mg"},{"bike_id":"9ce5c826-7fac-42bc-b415-c2a988e347e7","system_id":"levelo_inurba_marseille","lat":43.2583,"lon":5.39439,"is_reserved":false,"is_disabled":false,"rental_uris":{"android":"levelo://app?vid=9ce5c826-7fac-42bc-b415-c2a988e347e7","ios":"levelo://app?vid=9ce5c826-7fac-42bc-b415-c2a988e347e7"},"vehicle_type_id":"4","last_reported":1726852061,"current_range_meters":8000,"station_id":"ce4bhip2rcd13ifvqft0","pricing_plan_id":"cebpf4jnsgd1na2vs0mg"},{"bike_id":"ba4489b3-86cf-4996-b09d-dbab116b1abe","system_id":"levelo_inurba_marseille","lat":43.290399,"lon":5.359155,"is_reserved":false,"is_disabled":false,"rental_uris":{"android":"levelo://app?vid=ba4489b3-86cf-4996-b09d-dbab116b1abe","ios":"levelo://app?vid=ba4489b3-86cf-4996-b09d-dbab116b1abe"},"vehicle_type_id":"4","last_reported":1726852061,"current_range_meters":33600,"station_id":"ce4bgj92rcd13ifvqbd0","pricing_plan_id":"cebpf4jnsgd1na2vs0mg"},{"bike_id":"8273c267-5219-4186-8f32-c3e55203a7ac","system_id":"levelo_inurba_marseille","lat":43.23978,"lon":5.39704,"is_reserved":false,"is_disabled":false,"rental_uris":{"android":"levelo://app?vid=8273c267-5219-4186-8f32-c3e55203a7ac","ios":"levelo://app?vid=8273c267-5219-4186-8f32-c3e55203a7ac"},"vehicle_type_id":"4","last_reported":1726852061,"current_range_meters":12400,"station_id":"","pricing_plan_id":"cebpf4jnsgd1na2vs0mg"},{"bike_id":"3ab6e463-3cd0-428e-9e4d-544082e49f23","system_id":"levelo_inurba_marseille","lat":43.29713,"lon":5.36622,"is_reserved":false,"is_disabled":false,"rental_uris":{"android":"levelo://app?vid=3ab6e463-3cd0-428e-9e4d-544082e49f23","ios":"levelo://app?vid=3ab6e463-3cd0-428e-9e4d-544082e49f23"},"vehicle_type_id":"4","last_reported":1726852061,"current_range_meters":15200,"station_id":"ce4bgn12rcd13ifvqbt0","pricing_plan_id":"cebpf4jnsgd1na2vs0mg"},{"bike_id":"8bff4be8-78f1-4838-9bd5-9a7fcd6e4227","system_id":"levelo_inurba_marseille","lat":43.304325,"lon":5.413113,"is_reserved":false,"is_disabled":false,"rental_uris":{"android":"levelo://app?vid=8bff4be8-78f1-4838-9bd5-9a7fcd6e4227","ios":"levelo://app?vid=8bff4be8-78f1-4838-9bd5-9a7fcd6e4227"},"vehicle_type_id":"4","last_reported":1726852061,"current_range_meters":36000,"station_id":"ce4bhop2rcd13ifvqh8g","pricing_plan_id":"cebpf4jnsgd1na2vs0mg"},{"bike_id":"b06aa759-2467-44fc-9a3e-d57b9898cc46","system_id":"levelo_inurba_marseille","lat":43.28419,"lon":5.37517,"is_reserved":false,"is_disabled":false,"rental_uris":{"android":"levelo://app?vid=b06aa759-2467-44fc-9a3e-d57b9898cc46","ios":"levelo://app?vid=b06aa759-2467-44fc-9a3e-d57b9898cc46"},"vehicle_type_id":"4","last_reported":1726852061,"current_range_meters":34800,"station_id":"ce4bh412rcd13ifvqds0","pricing_plan_id":"cebpf4jnsgd1na2vs0mg"},{"bike_id":"7814e06f-965a-4646-90b8-5aaa609d980e","system_id":"levelo_inurba_marseille","lat":43.29004,"lon":5.3561,"is_reserved":false,"is_disabled":false,"rental_uris":{"android":"levelo://app?vid=7814e06f-965a-4646-90b8-5aaa609d980e","ios":"levelo://app?vid=7814e06f-965a-4646-90b8-5aaa609d980e"},"vehicle_type_id":"4","last_reported":1726852061,"current_range_meters":11600,"station_id":"ce4bhb92rcd13ifvqen0","pricing_plan_id":"cebpf4jnsgd1na2vs0mg"},{"bike_id":"73fed0a5-eabe-48b1-989f-ef5ded8aea25","system_id":"levelo_inurba_marseille","lat":43.231833,"lon":5.399781,"is_reserved":false,"is_disabled":false,"rental_uris":{"android":"levelo://app?vid=73fed0a5-eabe-48b1-989f-ef5ded8aea25","ios":"levelo://app?vid=73fed0a5-eabe-48b1-989f-ef5ded8aea25"},"vehicle_type_id":"4","last_reported":1726852061,"current_range_meters":17600,"station_id":"ce4bhn12rcd13ifvqgqg","pricing_plan_id":"cebpf4jnsgd1na2vs0mg"},{"bike_id":"5705acbc-d503-4f36-a9f5-13b5f18aa34d","system_id":"levelo_inurba_marseille","lat":43.23965,"lon":5.36638,"is_reserved":false,"is_disabled":false,"rental_uris":{"android":"levelo://app?vid=5705acbc-d503-4f36-a9f5-13b5f18aa34d","ios":"levelo://app?vid=5705acbc-d503-4f36-a9f5-13b5f18aa34d"},"vehicle_type_id":"4","last_reported":1726852061,"current_range_meters":35200,"station_id":"ce4bhi12rcd13ifvqfp0","pricing_plan_id":"cebpf4jnsgd1na2vs0mg"},{"bike_id":"cf6b83af-71a5-4964-acbe-1bda88a688c0","system_id":"levelo_inurba_marseille","lat":43.310783,"lon":5.383515,"is_reserved":false,"is_disabled":false,"rental_uris":{"android":"levelo://app?vid=cf6b83af-71a5-4964-acbe-1bda88a688c0","ios":"levelo://app?vid=cf6b83af-71a5-4964-acbe-1bda88a688c0"},"vehicle_type_id":"4","last_reported":1726852061,"current_range_meters":8400,"station_id":"ce4bgv92rcd13ifvqcr0","pricing_plan_id":"cebpf4jnsgd1na2vs0mg"},{"bike_id":"8056aa53-c928-4d29-a223-1b6c6fd35978","system_id":"levelo_inurba_marseille","lat":43.31714,"lon":5.43694,"is_reserved":false,"is_disabled":false,"rental_uris":{"android":"levelo://app?vid=8056aa53-c928-4d29-a223-1b6c6fd35978","ios":"levelo://app?vid=8056aa53-c928-4d29-a223-1b6c6fd35978"},"vehicle_type_id":"4","last_reported":1726852061,"current_range_meters":11600,"station_id":"ce4bhp92rcd13ifvqhcg","pricing_plan_id":"cebpf4jnsgd1na2vs0mg"},{"bike_id":"7b9dd459-340b-4978-bfb0-6c163a5263e8","system_id":"levelo_inurba_marseille","lat":43.23191,"lon":5.35542,"is_reserved":false,"is_disabled":false,"rental_uris":{"android":"levelo://app?vid=7b9dd459-340b-4978-bfb0-6c163a5263e8","ios":"levelo://app?vid=7b9dd459-340b-4978-bfb0-6c163a5263e8"},"vehicle_type_id":"4","last_reported":1726852061,"current_range_meters":38800,"station_id":"ce4bhu92rcd13ifvqi70","pricing_plan_id":"cebpf4jnsgd1na2vs0mg"},{"bike_id":"4d40143f-6c2c-460d-b7c4-6ca5581b5ab7","system_id":"levelo_inurba_marseille","lat":43.28717,"lon":5.37949,"is_reserved":false,"is_disabled":false,"rental_uris":{"android":"levelo://app?vid=4d40143f-6c2c-460d-b7c4-6ca5581b5ab7","ios":"levelo://app?vid=4d40143f-6c2c-460d-b7c4-6ca5581b5ab7"},"vehicle_type_id":"4","last_reported":1726852061,"current_range_meters":6800,"station_id":"ce4bh9p2rcd13ifvqec0","pricing_plan_id":"cebpf4jnsgd1na2vs0mg"},{"bike_id":"d5930327-05c8-40b4-84e7-d23be375184a","system_id":"levelo_inurba_marseille","lat":43.255826,"lon":5.382272,"is_reserved":false,"is_disabled":false,"rental_uris":{"android":"levelo://app?vid=d5930327-05c8-40b4-84e7-d23be375184a","ios":"levelo://app?vid=d5930327-05c8-40b4-84e7-d23be375184a"},"vehicle_type_id":"4","last_reported":1726852061,"current_range_meters":22800,"station_id":"ce4bhih2rcd13ifvqfs0","pricing_plan_id":"cebpf4jnsgd1na2vs0mg"},{"bike_id":"15a022f8-27e9-43a6-b87f-8e1f3e0fd779","system_id":"levelo_inurba_marseille","lat":43.32,"lon":5.38164,"is_reserved":false,"is_disabled":false,"rental_uris":{"android":"levelo://app?vid=15a022f8-27e9-43a6-b87f-8e1f3e0fd779","ios":"levelo://app?vid=15a022f8-27e9-43a6-b87f-8e1f3e0fd779"},"vehicle_type_id":"4","last_reported":1726852061,"current_range_meters":8000,"station_id":"ce4bhr12rcd13ifvqhpg","pricing_plan_id":"cebpf4jnsgd1na2vs0mg"},{"bike_id":"e9b8e590-3bc0-4c22-b946-0db314d5083d","system_id":"levelo_inurba_marseille","lat":43.25855,"lon":5.39903,"is_reserved":false,"is_disabled":false,"rental_uris":{"android":"levelo://app?vid=e9b8e590-3bc0-4c22-b946-0db314d5083d","ios":"levelo://app?vid=e9b8e590-3bc0-4c22-b946-0db314d5083d"},"vehicle_type_id":"4","last_reported":1726852061,"current_range_meters":8800,"station_id":"ce4bhl92rcd13ifvqghg","pricing_plan_id":"cebpf4jnsgd1na2vs0mg"},{"bike_id":"f8b16a34-c7e3-4467-b88a-3cc588ef4459","system_id":"levelo_inurba_marseille","lat":43.28839,"lon":5.39326,"is_reserved":false,"is_disabled":false,"rental_uris":{"android":"levelo://app?vid=f8b16a34-c7e3-4467-b88a-3cc588ef4459","ios":"levelo://app?vid=f8b16a34-c7e3-4467-b88a-3cc588ef4459"},"vehicle_type_id":"4","last_reported":1726852061,"current_range_meters":6000,"station_id":"ce4bh2p2rcd13ifvqdi0","pricing_plan_id":"cebpf4jnsgd1na2vs0mg"},{"bike_id":"3740c6df-06cd-419b-9ae6-b8d9e5eff548","system_id":"levelo_inurba_marseille","lat":43.2753,"lon":5.40935,"is_reserved":false,"is_disabled":false,"rental_uris":{"android":"levelo://app?vid=3740c6df-06cd-419b-9ae6-b8d9e5eff548","ios":"levelo://app?vid=3740c6df-06cd-419b-9ae6-b8d9e5eff548"},"vehicle_type_id":"4","last_reported":1726852061,"current_range_meters":21600,"station_id":"","pricing_plan_id":"cebpf4jnsgd1na2vs0mg"},{"bike_id":"abfbb412-3d1e-4923-8d57-b51b16b6e096","system_id":"levelo_inurba_marseille","lat":43.30528,"lon":5.36719,"is_reserved":false,"is_disabled":false,"rental_uris":{"android":"levelo://app?vid=abfbb412-3d1e-4923-8d57-b51b16b6e096","ios":"levelo://app?vid=abfbb412-3d1e-4923-8d57-b51b16b6e096"},"vehicle_type_id":"4","last_reported":1726852061,"current_range_meters":31200,"station_id":"ce4bgrp2rcd13ifvqc9g","pricing_plan_id":"cebpf4jnsgd1na2vs0mg"},{"bike_id":"40ed9b0b-a8eb-4f97-9950-76dc057cd74b","system_id":"levelo_inurba_marseille","lat":43.33023,"lon":5.39046,"is_reserved":false,"is_disabled":false,"rental_uris":{"android":"levelo://app?vid=40ed9b0b-a8eb-4f97-9950-76dc057cd74b","ios":"levelo://app?vid=40ed9b0b-a8eb-4f97-9950-76dc057cd74b"},"vehicle_type_id":"4","last_reported":1726852061,"current_range_meters":9600,"station_id":"ce4bhr92rcd13ifvqhrg","pricing_plan_id":"cebpf4jnsgd1na2vs0mg"},{"bike_id":"4067e65b-4c25-4e9b-8259-a30d95fac45e","system_id":"levelo_inurba_marseille","lat":43.29573,"lon":5.36751,"is_reserved":false,"is_disabled":false,"rental_uris":{"android":"levelo://app?vid=4067e65b-4c25-4e9b-8259-a30d95fac45e","ios":"levelo://app?vid=4067e65b-4c25-4e9b-8259-a30d95fac45e"},"vehicle_type_id":"4","last_reported":1726852061,"current_range_meters":4400,"station_id":"ce4bgph2rcd13ifvqc2g","pricing_plan_id":"cebpf4jnsgd1na2vs0mg"},{"bike_id":"34b86a07-df38-4f2a-b63b-3e92e1bf13b6","system_id":"levelo_inurba_marseille","lat":43.29875,"lon":5.39728,"is_reserved":false,"is_disabled":false,"rental_uris":{"android":"levelo://app?vid=34b86a07-df38-4f2a-b63b-3e92e1bf13b6","ios":"levelo://app?vid=34b86a07-df38-4f2a-b63b-3e92e1bf13b6"},"vehicle_type_id":"4","last_reported":1726852061,"current_range_meters":28400,"station_id":"ce4bh0h2rcd13ifvqd50","pricing_plan_id":"cebpf4jnsgd1na2vs0mg"},{"bike_id":"a29bee4f-89c7-4015-b71f-7d3e01f9acb7","system_id":"levelo_inurba_marseille","lat":43.2984,"lon":5.36272,"is_reserved":false,"is_disabled":false,"rental_uris":{"android":"levelo://app?vid=a29bee4f-89c7-4015-b71f-7d3e01f9acb7","ios":"levelo://app?vid=a29bee4f-89c7-4015-b71f-7d3e01f9acb7"},"vehicle_type_id":"4","last_reported":1726852061,"current_range_meters":7200,"station_id":"ce4bgpp2rcd13ifvqc3g","pricing_plan_id":"cebpf4jnsgd1na2vs0mg"},{"bike_id":"59882401-3864-48cc-b72f-063424b08269","system_id":"levelo_inurba_marseille","lat":43.2841,"lon":5.37524,"is_reserved":false,"is_disabled":false,"rental_uris":{"android":"levelo://app?vid=59882401-3864-48cc-b72f-063424b08269","ios":"levelo://app?vid=59882401-3864-48cc-b72f-063424b08269"},"vehicle_type_id":"4","last_reported":1726852061,"current_range_meters":1200,"station_id":"ce4bh412rcd13ifvqds0","pricing_plan_id":"cebpf4jnsgd1na2vs0mg"},{"bike_id":"3be7e612-869f-464b-b816-30948fa7ba99","system_id":"levelo_inurba_marseille","lat":43.24809,"lon":5.37456,"is_reserved":false,"is_disabled":false,"rental_uris":{"android":"levelo://app?vid=3be7e612-869f-464b-b816-30948fa7ba99","ios":"levelo://app?vid=3be7e612-869f-464b-b816-30948fa7ba99"},"vehicle_type_id":"4","last_reported":1726852061,"current_range_meters":38800,"station_id":"ce4bhgh2rcd13ifvqfb0","pricing_plan_id":"cebpf4jnsgd1na2vs0mg"},{"bike_id":"304f89c1-9c3f-444e-a2c7-6b77e89ec341","system_id":"levelo_inurba_marseille","lat":43.302597,"lon":5.386794,"is_reserved":false,"is_disabled":false,"rental_uris":{"android":"levelo://app?vid=304f89c1-9c3f-444e-a2c7-6b77e89ec341","ios":"levelo://app?vid=304f89c1-9c3f-444e-a2c7-6b77e89ec341"},"vehicle_type_id":"4","last_reported":1726852061,"current_range_meters":30000,"station_id":"ce4bgg92rcd13ifvqb30","pricing_plan_id":"cebpf4jnsgd1na2vs0mg"},{"bike_id":"72410813-7020-4134-921e-47cbd709e4e5","system_id":"levelo_inurba_marseille","lat":43.25868,"lon":5.39905,"is_reserved":false,"is_disabled":false,"rental_uris":{"android":"levelo://app?vid=72410813-7020-4134-921e-47cbd709e4e5","ios":"levelo://app?vid=72410813-7020-4134-921e-47cbd709e4e5"},"vehicle_type_id":"4","last_reported":1726852061,"current_range_meters":8000,"station_id":"ce4bhl92rcd13ifvqghg","pricing_plan_id":"cebpf4jnsgd1na2vs0mg"},{"bike_id":"c3d73581-f879-46f2-a46e-4f78929cf52b","system_id":"levelo_inurba_marseille","lat":43.25494,"lon":5.37651,"is_reserved":false,"is_disabled":false,"rental_uris":{"android":"levelo://app?vid=c3d73581-f879-46f2-a46e-4f78929cf52b","ios":"levelo://app?vid=c3d73581-f879-46f2-a46e-4f78929cf52b"},"vehicle_type_id":"4","last_reported":1726852061,"current_range_meters":9600,"station_id":"ce4bhh12rcd13ifvqff0","pricing_plan_id":"cebpf4jnsgd1na2vs0mg"},{"bike_id":"e29a1ea7-3830-4c7a-9d05-3bcdf03fc7b0","system_id":"levelo_inurba_marseille","lat":43.31071,"lon":5.38369,"is_reserved":false,"is_disabled":false,"rental_uris":{"android":"levelo://app?vid=e29a1ea7-3830-4c7a-9d05-3bcdf03fc7b0","ios":"levelo://app?vid=e29a1ea7-3830-4c7a-9d05-3bcdf03fc7b0"},"vehicle_type_id":"4","last_reported":1726852061,"current_range_meters":38800,"station_id":"ce4bgv92rcd13ifvqcr0","pricing_plan_id":"cebpf4jnsgd1na2vs0mg"},{"bike_id":"b1585957-3c58-41d5-a134-281f6e42b0c2","system_id":"levelo_inurba_marseille","lat":43.29797,"lon":5.3811,"is_reserved":false,"is_disabled":false,"rental_uris":{"android":"levelo://app?vid=b1585957-3c58-41d5-a134-281f6e42b0c2","ios":"levelo://app?vid=b1585957-3c58-41d5-a134-281f6e42b0c2"},"vehicle_type_id":"4","last_reported":1726852061,"current_range_meters":10800,"station_id":"ce4bgip2rcd13ifvqbb0","pricing_plan_id":"cebpf4jnsgd1na2vs0mg"},{"bike_id":"bdcec6f3-3241-4ca6-8a8a-6420b84ec757","system_id":"levelo_inurba_marseille","lat":43.27939,"lon":5.41045,"is_reserved":false,"is_disabled":false,"rental_uris":{"android":"levelo://app?vid=bdcec6f3-3241-4ca6-8a8a-6420b84ec757","ios":"levelo://app?vid=bdcec6f3-3241-4ca6-8a8a-6420b84ec757"},"vehicle_type_id":"4","last_reported":1726852061,"current_range_meters":35600,"station_id":"ce4bhnp2rcd13ifvqh0g","pricing_plan_id":"cebpf4jnsgd1na2vs0mg"},{"bike_id":"c7a04026-0caa-443a-bee7-d92bafc7e89a","system_id":"levelo_inurba_marseille","lat":43.29433,"lon":5.397541,"is_reserved":false,"is_disabled":false,"rental_uris":{"android":"levelo://app?vid=c7a04026-0caa-443a-bee7-d92bafc7e89a","ios":"levelo://app?vid=c7a04026-0caa-443a-bee7-d92bafc7e89a"},"vehicle_type_id":"4","last_reported":1726852061,"current_range_meters":7200,"station_id":"ce4bh3h2rcd13ifvqdo0","pricing_plan_id":"cebpf4jnsgd1na2vs0mg"},{"bike_id":"4f6cd953-65f5-4d4f-a052-70118d864e1d","system_id":"levelo_inurba_marseille","lat":43.29893,"lon":5.43669,"is_reserved":false,"is_disabled":false,"rental_uris":{"android":"levelo://app?vid=4f6cd953-65f5-4d4f-a052-70118d864e1d","ios":"levelo://app?vid=4f6cd953-65f5-4d4f-a052-70118d864e1d"},"vehicle_type_id":"4","last_reported":1726852061,"current_range_meters":12400,"station_id":"ce4bhpp2rcd13ifvqhfg","pricing_plan_id":"cebpf4jnsgd1na2vs0mg"},{"bike_id":"7fc5c456-7aa3-49c9-b136-60eea56dcf03","system_id":"levelo_inurba_marseille","lat":43.29304,"lon":5.37456,"is_reserved":false,"is_disabled":false,"rental_uris":{"android":"levelo://app?vid=7fc5c456-7aa3-49c9-b136-60eea56dcf03","ios":"levelo://app?vid=7fc5c456-7aa3-49c9-b136-60eea56dcf03"},"vehicle_type_id":"4","last_reported":1726852061,"current_range_meters":20400,"station_id":"ce4bgi12rcd13ifvqb70","pricing_plan_id":"cebpf4jnsgd1na2vs0mg"},{"bike_id":"6975eebc-3817-405b-8ac8-bdb07f685f68","system_id":"levelo_inurba_marseille","lat":43.27673,"lon":5.38875,"is_reserved":false,"is_disabled":false,"rental_uris":{"android":"levelo://app?vid=6975eebc-3817-405b-8ac8-bdb07f685f68","ios":"levelo://app?vid=6975eebc-3817-405b-8ac8-bdb07f685f68"},"vehicle_type_id":"4","last_reported":1726852061,"current_range_meters":3200,"station_id":"ce4bhi12rcd13ifvqfo0","pricing_plan_id":"cebpf4jnsgd1na2vs0mg"},{"bike_id":"2b8c94a2-7e07-4d16-ae90-220eb9008fb2","system_id":"levelo_inurba_marseille","lat":43.29447,"lon":5.39747,"is_reserved":false,"is_disabled":false,"rental_uris":{"android":"levelo://app?vid=2b8c94a2-7e07-4d16-ae90-220eb9008fb2","ios":"levelo://app?vid=2b8c94a2-7e07-4d16-ae90-220eb9008fb2"},"vehicle_type_id":"4","last_reported":1726852061,"current_range_meters":4800,"station_id":"ce4bh3h2rcd13ifvqdo0","pricing_plan_id":"cebpf4jnsgd1na2vs0mg"},{"bike_id":"58014cc6-4f39-4119-a8a0-cdc0e2507820","system_id":"levelo_inurba_marseille","lat":43.32288,"lon":5.38274,"is_reserved":false,"is_disabled":false,"rental_uris":{"android":"levelo://app?vid=58014cc6-4f39-4119-a8a0-cdc0e2507820","ios":"levelo://app?vid=58014cc6-4f39-4119-a8a0-cdc0e2507820"},"vehicle_type_id":"4","last_reported":1726852061,"current_range_meters":38800,"station_id":"ce4bhr12rcd13ifvqhqg","pricing_plan_id":"cebpf4jnsgd1na2vs0mg"},{"bike_id":"bd56d88d-80a4-47cc-b9bd-93986ef501df","system_id":"levelo_inurba_marseille","lat":43.29621,"lon":5.37161,"is_reserved":false,"is_disabled":false,"rental_uris":{"android":"levelo://app?vid=bd56d88d-80a4-47cc-b9bd-93986ef501df","ios":"levelo://app?vid=bd56d88d-80a4-47cc-b9bd-93986ef501df"},"vehicle_type_id":"4","last_reported":1726852061,"current_range_meters":38800,"station_id":"ce4bgnh2rcd13ifvqc0g","pricing_plan_id":"cebpf4jnsgd1na2vs0mg"},{"bike_id":"5bab7fef-29fb-406e-8839-7ac335861c69","system_id":"levelo_inurba_marseille","lat":43.29278,"lon":5.36838,"is_reserved":false,"is_disabled":false,"rental_uris":{"android":"levelo://app?vid=5bab7fef-29fb-406e-8839-7ac335861c69","ios":"levelo://app?vid=5bab7fef-29fb-406e-8839-7ac335861c69"},"vehicle_type_id":"4","last_reported":1726852061,"current_range_meters":2000,"station_id":"ce4bhbp2rcd13ifvqesg","pricing_plan_id":"cebpf4jnsgd1na2vs0mg"},{"bike_id":"bce83964-771d-421d-a795-c2b376c5b9dc","system_id":"levelo_inurba_marseille","lat":43.23193,"lon":5.35546,"is_reserved":false,"is_disabled":false,"rental_uris":{"android":"levelo://app?vid=bce83964-771d-421d-a795-c2b376c5b9dc","ios":"levelo://app?vid=bce83964-771d-421d-a795-c2b376c5b9dc"},"vehicle_type_id":"4","last_reported":1726852061,"current_range_meters":18800,"station_id":"ce4bhu92rcd13ifvqi70","pricing_plan_id":"cebpf4jnsgd1na2vs0mg"},{"bike_id":"a91516c7-22df-464b-8f4f-70faa753c8ba","system_id":"levelo_inurba_marseille","lat":43.25081,"lon":5.38955,"is_reserved":false,"is_disabled":false,"rental_uris":{"android":"levelo://app?vid=a91516c7-22df-464b-8f4f-70faa753c8ba","ios":"levelo://app?vid=a91516c7-22df-464b-8f4f-70faa753c8ba"},"vehicle_type_id":"4","last_reported":1726852061,"current_range_meters":17200,"station_id":"ce4bhgp2rcd13ifvqfd0","pricing_plan_id":"cebpf4jnsgd1na2vs0mg"},{"bike_id":"5c4bffed-0019-4b39-a45e-d1fccf257ffb","system_id":"levelo_inurba_marseille","lat":43.31327,"lon":5.39698,"is_reserved":false,"is_disabled":false,"rental_uris":{"android":"levelo://app?vid=5c4bffed-0019-4b39-a45e-d1fccf257ffb","ios":"levelo://app?vid=5c4bffed-0019-4b39-a45e-d1fccf257ffb"},"vehicle_type_id":"4","last_reported":1726852061,"current_range_meters":30400,"station_id":"ce4bgvp2rcd13ifvqcu0","pricing_plan_id":"cebpf4jnsgd1na2vs0mg"},{"bike_id":"41015972-7da1-4bca-92ff-6b5628cd31bb","system_id":"levelo_inurba_marseille","lat":43.27622,"lon":5.36108,"is_reserved":false,"is_disabled":false,"rental_uris":{"android":"levelo://app?vid=41015972-7da1-4bca-92ff-6b5628cd31bb","ios":"levelo://app?vid=41015972-7da1-4bca-92ff-6b5628cd31bb"},"vehicle_type_id":"4","last_reported":1726852061,"current_range_meters":31200,"station_id":"ce4bgj92rcd13ifvqbe0","pricing_plan_id":"cebpf4jnsgd1na2vs0mg"},{"bike_id":"ed6e613b-1952-4250-9d4a-93e659bcc955","system_id":"levelo_inurba_marseille","lat":43.293823,"lon":5.38614,"is_reserved":false,"is_disabled":false,"rental_uris":{"android":"levelo://app?vid=ed6e613b-1952-4250-9d4a-93e659bcc955","ios":"levelo://app?vid=ed6e613b-1952-4250-9d4a-93e659bcc955"},"vehicle_type_id":"4","last_reported":1726852061,"current_range_meters":8800,"station_id":"ce4bgkh2rcd13ifvqbk0","pricing_plan_id":"cebpf4jnsgd1na2vs0mg"},{"bike_id":"e186148d-5a6d-4e86-9210-67558c73fc77","system_id":"levelo_inurba_marseille","lat":43.32386,"lon":5.38937,"is_reserved":false,"is_disabled":false,"rental_uris":{"android":"levelo://app?vid=e186148d-5a6d-4e86-9210-67558c73fc77","ios":"levelo://app?vid=e186148d-5a6d-4e86-9210-67558c73fc77"},"vehicle_type_id":"4","last_reported":1726852061,"current_range_meters":38800,"station_id":"ce4bhqp2rcd13ifvqhog","pricing_plan_id":"cebpf4jnsgd1na2vs0mg"},{"bike_id":"72a65385-bba8-48c4-b297-b93a02006969","system_id":"levelo_inurba_marseille","lat":43.25436,"lon":5.41302,"is_reserved":false,"is_disabled":false,"rental_uris":{"android":"levelo://app?vid=72a65385-bba8-48c4-b297-b93a02006969","ios":"levelo://app?vid=72a65385-bba8-48c4-b297-b93a02006969"},"vehicle_type_id":"4","last_reported":1726852061,"current_range_meters":12400,"station_id":"","pricing_plan_id":"cebpf4jnsgd1na2vs0mg"},{"bike_id":"5fd696fc-9eb8-4c93-b1b2-ac819a662521","system_id":"levelo_inurba_marseille","lat":43.24992,"lon":5.38948,"is_reserved":false,"is_disabled":false,"rental_uris":{"android":"levelo://app?vid=5fd696fc-9eb8-4c93-b1b2-ac819a662521","ios":"levelo://app?vid=5fd696fc-9eb8-4c93-b1b2-ac819a662521"},"vehicle_type_id":"4","last_reported":1726852061,"current_range_meters":8800,"station_id":"ce4bhgp2rcd13ifvqfd0","pricing_plan_id":"cebpf4jnsgd1na2vs0mg"},{"bike_id":"c806e55f-9a5b-4c90-b688-72828ccbca8d","system_id":"levelo_inurba_marseille","lat":43.24649,"lon":5.38889,"is_reserved":false,"is_disabled":false,"rental_uris":{"android":"levelo://app?vid=c806e55f-9a5b-4c90-b688-72828ccbca8d","ios":"levelo://app?vid=c806e55f-9a5b-4c90-b688-72828ccbca8d"},"vehicle_type_id":"4","last_reported":1726852061,"current_range_meters":33600,"station_id":"ce4bhg12rcd13ifvqf60","pricing_plan_id":"cebpf4jnsgd1na2vs0mg"},{"bike_id":"fc6633c7-8102-45c6-a86e-d132aba81f2e","system_id":"levelo_inurba_marseille","lat":43.28422,"lon":5.34982,"is_reserved":false,"is_disabled":false,"rental_uris":{"android":"levelo://app?vid=fc6633c7-8102-45c6-a86e-d132aba81f2e","ios":"levelo://app?vid=fc6633c7-8102-45c6-a86e-d132aba81f2e"},"vehicle_type_id":"4","last_reported":1726852061,"current_range_meters":24800,"station_id":"ce4bhbh2rcd13ifvqepg","pricing_plan_id":"cebpf4jnsgd1na2vs0mg"},{"bike_id":"fa2e946d-01fe-4bb4-a2b0-55af60a0bcec","system_id":"levelo_inurba_marseille","lat":43.33724,"lon":5.3918,"is_reserved":false,"is_disabled":false,"rental_uris":{"android":"levelo://app?vid=fa2e946d-01fe-4bb4-a2b0-55af60a0bcec","ios":"levelo://app?vid=fa2e946d-01fe-4bb4-a2b0-55af60a0bcec"},"vehicle_type_id":"4","last_reported":1726852061,"current_range_meters":35600,"station_id":"ce4bhr92rcd13ifvqhsg","pricing_plan_id":"cebpf4jnsgd1na2vs0mg"},{"bike_id":"1f045401-208b-4629-8422-8891044bc8c0","system_id":"levelo_inurba_marseille","lat":43.25034,"lon":5.40405,"is_reserved":false,"is_disabled":false,"rental_uris":{"android":"levelo://app?vid=1f045401-208b-4629-8422-8891044bc8c0","ios":"levelo://app?vid=1f045401-208b-4629-8422-8891044bc8c0"},"vehicle_type_id":"4","last_reported":1726852061,"current_range_meters":6400,"station_id":"ce4bhlh2rcd13ifvqgig","pricing_plan_id":"cebpf4jnsgd1na2vs0mg"},{"bike_id":"4e1f9844-542a-4e41-8660-9fe15475883a","system_id":"levelo_inurba_marseille","lat":43.32375,"lon":5.38931,"is_reserved":false,"is_disabled":false,"rental_uris":{"android":"levelo://app?vid=4e1f9844-542a-4e41-8660-9fe15475883a","ios":"levelo://app?vid=4e1f9844-542a-4e41-8660-9fe15475883a"},"vehicle_type_id":"4","last_reported":1726852061,"current_range_meters":28800,"station_id":"ce4bhqp2rcd13ifvqhog","pricing_plan_id":"cebpf4jnsgd1na2vs0mg"},{"bike_id":"e96e9aed-3737-4c16-bf34-a731160a438f","system_id":"levelo_inurba_marseille","lat":43.308791,"lon":5.396476,"is_reserved":false,"is_disabled":false,"rental_uris":{"android":"levelo://app?vid=e96e9aed-3737-4c16-bf34-a731160a438f","ios":"levelo://app?vid=e96e9aed-3737-4c16-bf34-a731160a438f"},"vehicle_type_id":"4","last_reported":1726852061,"current_range_meters":2000,"station_id":"ce4bh012rcd13ifvqcv0","pricing_plan_id":"cebpf4jnsgd1na2vs0mg"},{"bike_id":"9c35e2fd-f89a-4dbe-a215-0426af8f9fdb","system_id":"levelo_inurba_marseille","lat":43.29876,"lon":5.39735,"is_reserved":false,"is_disabled":false,"rental_uris":{"android":"levelo://app?vid=9c35e2fd-f89a-4dbe-a215-0426af8f9fdb","ios":"levelo://app?vid=9c35e2fd-f89a-4dbe-a215-0426af8f9fdb"},"vehicle_type_id":"4","last_reported":1726852061,"current_range_meters":29600,"station_id":"ce4bh0h2rcd13ifvqd50","pricing_plan_id":"cebpf4jnsgd1na2vs0mg"},{"bike_id":"7ddde004-025e-40dd-94ae-14b90002094f","system_id":"levelo_inurba_marseille","lat":43.33609,"lon":5.41035,"is_reserved":false,"is_disabled":false,"rental_uris":{"android":"levelo://app?vid=7ddde004-025e-40dd-94ae-14b90002094f","ios":"levelo://app?vid=7ddde004-025e-40dd-94ae-14b90002094f"},"vehicle_type_id":"4","last_reported":1726852061,"current_range_meters":10000,"station_id":"ce4bhqh2rcd13ifvqhmg","pricing_plan_id":"cebpf4jnsgd1na2vs0mg"},{"bike_id":"c004a4c5-73a1-4d4d-945d-5d308456a817","system_id":"levelo_inurba_marseille","lat":43.285985,"lon":5.351085,"is_reserved":false,"is_disabled":false,"rental_uris":{"android":"levelo://app?vid=c004a4c5-73a1-4d4d-945d-5d308456a817","ios":"levelo://app?vid=c004a4c5-73a1-4d4d-945d-5d308456a817"},"vehicle_type_id":"4","last_reported":1726852061,"current_range_meters":11200,"station_id":"ce4bhch2rcd13ifvqeug","pricing_plan_id":"cebpf4jnsgd1na2vs0mg"},{"bike_id":"aa29200f-5d7f-4d1e-a8b2-98561eb30973","system_id":"levelo_inurba_marseille","lat":43.31704,"lon":5.4371,"is_reserved":false,"is_disabled":false,"rental_uris":{"android":"levelo://app?vid=aa29200f-5d7f-4d1e-a8b2-98561eb30973","ios":"levelo://app?vid=aa29200f-5d7f-4d1e-a8b2-98561eb30973"},"vehicle_type_id":"4","last_reported":1726852061,"current_range_meters":30000,"station_id":"ce4bhp92rcd13ifvqhcg","pricing_plan_id":"cebpf4jnsgd1na2vs0mg"},{"bike_id":"fa690805-233a-4a70-a9f3-33f1b67cdb1f","system_id":"levelo_inurba_marseille","lat":43.32292,"lon":5.38265,"is_reserved":false,"is_disabled":false,"rental_uris":{"android":"levelo://app?vid=fa690805-233a-4a70-a9f3-33f1b67cdb1f","ios":"levelo://app?vid=fa690805-233a-4a70-a9f3-33f1b67cdb1f"},"vehicle_type_id":"4","last_reported":1726852061,"current_range_meters":17200,"station_id":"ce4bhr12rcd13ifvqhqg","pricing_plan_id":"cebpf4jnsgd1na2vs0mg"},{"bike_id":"21578335-a81b-4c00-bbb1-168b59687b9e","system_id":"levelo_inurba_marseille","lat":43.28273,"lon":5.35084,"is_reserved":false,"is_disabled":false,"rental_uris":{"android":"levelo://app?vid=21578335-a81b-4c00-bbb1-168b59687b9e","ios":"levelo://app?vid=21578335-a81b-4c00-bbb1-168b59687b9e"},"vehicle_type_id":"4","last_reported":1726852061,"current_range_meters":26000,"station_id":"ce4bhb92rcd13ifvqen0","pricing_plan_id":"cebpf4jnsgd1na2vs0mg"},{"bike_id":"a5cc52ca-a663-45e9-b99f-b3a7464fc286","system_id":"levelo_inurba_marseille","lat":43.28414,"lon":5.37508,"is_reserved":false,"is_disabled":false,"rental_uris":{"android":"levelo://app?vid=a5cc52ca-a663-45e9-b99f-b3a7464fc286","ios":"levelo://app?vid=a5cc52ca-a663-45e9-b99f-b3a7464fc286"},"vehicle_type_id":"4","last_reported":1726852061,"current_range_meters":30800,"station_id":"ce4bh412rcd13ifvqds0","pricing_plan_id":"cebpf4jnsgd1na2vs0mg"},{"bike_id":"4bc0bf3e-913b-4d80-8789-a2282ae00212","system_id":"levelo_inurba_marseille","lat":43.3053,"lon":5.36719,"is_reserved":false,"is_disabled":false,"rental_uris":{"android":"levelo://app?vid=4bc0bf3e-913b-4d80-8789-a2282ae00212","ios":"levelo://app?vid=4bc0bf3e-913b-4d80-8789-a2282ae00212"},"vehicle_type_id":"4","last_reported":1726852061,"current_range_meters":30800,"station_id":"ce4bgrp2rcd13ifvqc9g","pricing_plan_id":"cebpf4jnsgd1na2vs0mg"},{"bike_id":"b2763354-ec6c-4733-8de6-6c4493759ae9","system_id":"levelo_inurba_marseille","lat":43.29089,"lon":5.40185,"is_reserved":false,"is_disabled":false,"rental_uris":{"android":"levelo://app?vid=b2763354-ec6c-4733-8de6-6c4493759ae9","ios":"levelo://app?vid=b2763354-ec6c-4733-8de6-6c4493759ae9"},"vehicle_type_id":"4","last_reported":1726852061,"current_range_meters":19600,"station_id":"","pricing_plan_id":"cebpf4jnsgd1na2vs0mg"},{"bike_id":"1759b039-c9b3-4fad-b693-6c42c4ebf67a","system_id":"levelo_inurba_marseille","lat":43.28717,"lon":5.373854,"is_reserved":false,"is_disabled":false,"rental_uris":{"android":"levelo://app?vid=1759b039-c9b3-4fad-b693-6c42c4ebf67a","ios":"levelo://app?vid=1759b039-c9b3-4fad-b693-6c42c4ebf67a"},"vehicle_type_id":"4","last_reported":1726852061,"current_range_meters":2800,"station_id":"ce4bh3p2rcd13ifvqdq0","pricing_plan_id":"cebpf4jnsgd1na2vs0mg"},{"bike_id":"0653cb10-c12e-4c27-af75-8f3495a98f89","system_id":"levelo_inurba_marseille","lat":43.32288,"lon":5.38272,"is_reserved":false,"is_disabled":false,"rental_uris":{"android":"levelo://app?vid=0653cb10-c12e-4c27-af75-8f3495a98f89","ios":"levelo://app?vid=0653cb10-c12e-4c27-af75-8f3495a98f89"},"vehicle_type_id":"4","last_reported":1726852061,"current_range_meters":38800,"station_id":"ce4bhr12rcd13ifvqhqg","pricing_plan_id":"cebpf4jnsgd1na2vs0mg"},{"bike_id":"667dcb1e-82c9-4808-af86-f738f1852fe5","system_id":"levelo_inurba_marseille","lat":43.32481,"lon":5.36581,"is_reserved":false,"is_disabled":false,"rental_uris":{"android":"levelo://app?vid=667dcb1e-82c9-4808-af86-f738f1852fe5","ios":"levelo://app?vid=667dcb1e-82c9-4808-af86-f738f1852fe5"},"vehicle_type_id":"4","last_reported":1726852061,"current_range_meters":31200,"station_id":"ce4bhs12rcd13ifvqhvg","pricing_plan_id":"cebpf4jnsgd1na2vs0mg"},{"bike_id":"c2c9a555-6ec8-4b92-b33e-073571605c93","system_id":"levelo_inurba_marseille","lat":43.23191,"lon":5.35551,"is_reserved":false,"is_disabled":false,"rental_uris":{"android":"levelo://app?vid=c2c9a555-6ec8-4b92-b33e-073571605c93","ios":"levelo://app?vid=c2c9a555-6ec8-4b92-b33e-073571605c93"},"vehicle_type_id":"4","last_reported":1726852061,"current_range_meters":26000,"station_id":"ce4bhu92rcd13ifvqi70","pricing_plan_id":"cebpf4jnsgd1na2vs0mg"},{"bike_id":"361b1a59-ba52-4e27-a6ba-03ff95c39072","system_id":"levelo_inurba_marseille","lat":43.276031,"lon":5.361159,"is_reserved":false,"is_disabled":false,"rental_uris":{"android":"levelo://app?vid=361b1a59-ba52-4e27-a6ba-03ff95c39072","ios":"levelo://app?vid=361b1a59-ba52-4e27-a6ba-03ff95c39072"},"vehicle_type_id":"4","last_reported":1726852061,"current_range_meters":3200,"station_id":"ce4bgj92rcd13ifvqbe0","pricing_plan_id":"cebpf4jnsgd1na2vs0mg"},{"bike_id":"f61c4ef8-23fd-445b-bd3e-9e53a7036023","system_id":"levelo_inurba_marseille","lat":43.2872,"lon":5.3795,"is_reserved":false,"is_disabled":false,"rental_uris":{"android":"levelo://app?vid=f61c4ef8-23fd-445b-bd3e-9e53a7036023","ios":"levelo://app?vid=f61c4ef8-23fd-445b-bd3e-9e53a7036023"},"vehicle_type_id":"4","last_reported":1726852061,"current_range_meters":28400,"station_id":"ce4bh9p2rcd13ifvqec0","pricing_plan_id":"cebpf4jnsgd1na2vs0mg"},{"bike_id":"3ea8f54f-9145-4e7d-b8dd-375864b1fadc","system_id":"levelo_inurba_marseille","lat":43.31994,"lon":5.37204,"is_reserved":false,"is_disabled":false,"rental_uris":{"android":"levelo://app?vid=3ea8f54f-9145-4e7d-b8dd-375864b1fadc","ios":"levelo://app?vid=3ea8f54f-9145-4e7d-b8dd-375864b1fadc"},"vehicle_type_id":"4","last_reported":1726852061,"current_range_meters":12400,"station_id":"","pricing_plan_id":"cebpf4jnsgd1na2vs0mg"},{"bike_id":"6e55408b-37df-48b4-b3b0-f87aabbc6834","system_id":"levelo_inurba_marseille","lat":43.31218,"lon":5.36862,"is_reserved":false,"is_disabled":false,"rental_uris":{"android":"levelo://app?vid=6e55408b-37df-48b4-b3b0-f87aabbc6834","ios":"levelo://app?vid=6e55408b-37df-48b4-b3b0-f87aabbc6834"},"vehicle_type_id":"4","last_reported":1726852061,"current_range_meters":36800,"station_id":"ce4bgl92rcd13ifvqbq0","pricing_plan_id":"cebpf4jnsgd1na2vs0mg"},{"bike_id":"c7f020f7-8d40-49a1-a7c8-88ac5d41f99f","system_id":"levelo_inurba_marseille","lat":43.27944,"lon":5.41048,"is_reserved":false,"is_disabled":false,"rental_uris":{"android":"levelo://app?vid=c7f020f7-8d40-49a1-a7c8-88ac5d41f99f","ios":"levelo://app?vid=c7f020f7-8d40-49a1-a7c8-88ac5d41f99f"},"vehicle_type_id":"4","last_reported":1726852061,"current_range_meters":6400,"station_id":"ce4bhnp2rcd13ifvqh0g","pricing_plan_id":"cebpf4jnsgd1na2vs0mg"},{"bike_id":"1737fd4f-4557-4022-870a-f69a3d4c38f4","system_id":"levelo_inurba_marseille","lat":43.33021,"lon":5.39037,"is_reserved":false,"is_disabled":false,"rental_uris":{"android":"levelo://app?vid=1737fd4f-4557-4022-870a-f69a3d4c38f4","ios":"levelo://app?vid=1737fd4f-4557-4022-870a-f69a3d4c38f4"},"vehicle_type_id":"4","last_reported":1726852061,"current_range_meters":25600,"station_id":"ce4bhr92rcd13ifvqhrg","pricing_plan_id":"cebpf4jnsgd1na2vs0mg"},{"bike_id":"5dbf763e-c0f2-452b-8768-19f29c48a9f7","system_id":"levelo_inurba_marseille","lat":43.27179,"lon":5.40996,"is_reserved":false,"is_disabled":false,"rental_uris":{"android":"levelo://app?vid=5dbf763e-c0f2-452b-8768-19f29c48a9f7","ios":"levelo://app?vid=5dbf763e-c0f2-452b-8768-19f29c48a9f7"},"vehicle_type_id":"4","last_reported":1726852061,"current_range_meters":34000,"station_id":"ce4bhl12rcd13ifvqgf0","pricing_plan_id":"cebpf4jnsgd1na2vs0mg"},{"bike_id":"d95ee874-c885-490c-a9ac-17e342e12522","system_id":"levelo_inurba_marseille","lat":43.32384,"lon":5.38936,"is_reserved":false,"is_disabled":false,"rental_uris":{"android":"levelo://app?vid=d95ee874-c885-490c-a9ac-17e342e12522","ios":"levelo://app?vid=d95ee874-c885-490c-a9ac-17e342e12522"},"vehicle_type_id":"4","last_reported":1726852061,"current_range_meters":3600,"station_id":"ce4bhqp2rcd13ifvqhog","pricing_plan_id":"cebpf4jnsgd1na2vs0mg"},{"bike_id":"afe92be9-924c-457a-b0bc-d24cb92a3296","system_id":"levelo_inurba_marseille","lat":43.27994,"lon":5.40039,"is_reserved":false,"is_disabled":false,"rental_uris":{"android":"levelo://app?vid=afe92be9-924c-457a-b0bc-d24cb92a3296","ios":"levelo://app?vid=afe92be9-924c-457a-b0bc-d24cb92a3296"},"vehicle_type_id":"4","last_reported":1726852061,"current_range_meters":10000,"station_id":"ce4bho92rcd13ifvqh4g","pricing_plan_id":"cebpf4jnsgd1na2vs0mg"},{"bike_id":"7fb1e55d-5cee-4ec6-ae7f-d1760d5139d4","system_id":"levelo_inurba_marseille","lat":43.311761,"lon":5.387132,"is_reserved":false,"is_disabled":false,"rental_uris":{"android":"levelo://app?vid=7fb1e55d-5cee-4ec6-ae7f-d1760d5139d4","ios":"levelo://app?vid=7fb1e55d-5cee-4ec6-ae7f-d1760d5139d4"},"vehicle_type_id":"4","last_reported":1726852061,"current_range_meters":2800,"station_id":"ce4bgv12rcd13ifvqcp0","pricing_plan_id":"cebpf4jnsgd1na2vs0mg"},{"bike_id":"af3d81eb-8250-4f05-bb17-35fc1f8b48c0","system_id":"levelo_inurba_marseille","lat":43.32911,"lon":5.38848,"is_reserved":false,"is_disabled":false,"rental_uris":{"android":"levelo://app?vid=af3d81eb-8250-4f05-bb17-35fc1f8b48c0","ios":"levelo://app?vid=af3d81eb-8250-4f05-bb17-35fc1f8b48c0"},"vehicle_type_id":"4","last_reported":1726852061,"current_range_meters":14400,"station_id":"","pricing_plan_id":"cebpf4jnsgd1na2vs0mg"},{"bike_id":"68159eba-e301-4077-943e-46befe1273f0","system_id":"levelo_inurba_marseille","lat":43.23191,"lon":5.35556,"is_reserved":false,"is_disabled":false,"rental_uris":{"android":"levelo://app?vid=68159eba-e301-4077-943e-46befe1273f0","ios":"levelo://app?vid=68159eba-e301-4077-943e-46befe1273f0"},"vehicle_type_id":"4","last_reported":1726852061,"current_range_meters":32400,"station_id":"ce4bhu92rcd13ifvqi70","pricing_plan_id":"cebpf4jnsgd1na2vs0mg"},{"bike_id":"7d66f339-e9a1-4deb-8e88-576eebb910a0","system_id":"levelo_inurba_marseille","lat":43.31759,"lon":5.3903,"is_reserved":false,"is_disabled":false,"rental_uris":{"android":"levelo://app?vid=7d66f339-e9a1-4deb-8e88-576eebb910a0","ios":"levelo://app?vid=7d66f339-e9a1-4deb-8e88-576eebb910a0"},"vehicle_type_id":"4","last_reported":1726852061,"current_range_meters":5600,"station_id":"ce4bhqp2rcd13ifvqhng","pricing_plan_id":"cebpf4jnsgd1na2vs0mg"},{"bike_id":"a29344e5-4aa4-47f2-b35a-f74d059a7d86","system_id":"levelo_inurba_marseille","lat":43.24169,"lon":5.36398,"is_reserved":false,"is_disabled":false,"rental_uris":{"android":"levelo://app?vid=a29344e5-4aa4-47f2-b35a-f74d059a7d86","ios":"levelo://app?vid=a29344e5-4aa4-47f2-b35a-f74d059a7d86"},"vehicle_type_id":"4","last_reported":1726852061,"current_range_meters":9600,"station_id":"cpo36qri1sfpv3e86is0","pricing_plan_id":"cebpf4jnsgd1na2vs0mg"},{"bike_id":"f926f15c-869b-4026-b9be-2e7a17ab5ee7","system_id":"levelo_inurba_marseille","lat":43.31082,"lon":5.4243,"is_reserved":false,"is_disabled":false,"rental_uris":{"android":"levelo://app?vid=f926f15c-869b-4026-b9be-2e7a17ab5ee7","ios":"levelo://app?vid=f926f15c-869b-4026-b9be-2e7a17ab5ee7"},"vehicle_type_id":"4","last_reported":1726852061,"current_range_meters":37600,"station_id":"ce4bhp92rcd13ifvqhag","pricing_plan_id":"cebpf4jnsgd1na2vs0mg"},{"bike_id":"0f9e353b-34be-4131-bc94-f528c8afe4b7","system_id":"levelo_inurba_marseille","lat":43.32481,"lon":5.36562,"is_reserved":false,"is_disabled":false,"rental_uris":{"android":"levelo://app?vid=0f9e353b-34be-4131-bc94-f528c8afe4b7","ios":"levelo://app?vid=0f9e353b-34be-4131-bc94-f528c8afe4b7"},"vehicle_type_id":"4","last_reported":1726852061,"current_range_meters":14400,"station_id":"ce4bhs12rcd13ifvqhvg","pricing_plan_id":"cebpf4jnsgd1na2vs0mg"},{"bike_id":"830634f4-0e8c-42bf-9e7a-12bb49918ce7","system_id":"levelo_inurba_marseille","lat":43.29097,"lon":5.38141,"is_reserved":false,"is_disabled":false,"rental_uris":{"android":"levelo://app?vid=830634f4-0e8c-42bf-9e7a-12bb49918ce7","ios":"levelo://app?vid=830634f4-0e8c-42bf-9e7a-12bb49918ce7"},"vehicle_type_id":"4","last_reported":1726852061,"current_range_meters":7200,"station_id":"ce4bh512rcd13ifvqe2g","pricing_plan_id":"cebpf4jnsgd1na2vs0mg"},{"bike_id":"acf44b62-d8c8-47a7-a8d1-9161d6244362","system_id":"levelo_inurba_marseille","lat":43.23192,"lon":5.35557,"is_reserved":false,"is_disabled":false,"rental_uris":{"android":"levelo://app?vid=acf44b62-d8c8-47a7-a8d1-9161d6244362","ios":"levelo://app?vid=acf44b62-d8c8-47a7-a8d1-9161d6244362"},"vehicle_type_id":"4","last_reported":1726852061,"current_range_meters":8000,"station_id":"ce4bhu92rcd13ifvqi70","pricing_plan_id":"cebpf4jnsgd1na2vs0mg"},{"bike_id":"d323bc23-4105-4d98-87ab-fb3899c88f8a","system_id":"levelo_inurba_marseille","lat":43.2319,"lon":5.35556,"is_reserved":false,"is_disabled":false,"rental_uris":{"android":"levelo://app?vid=d323bc23-4105-4d98-87ab-fb3899c88f8a","ios":"levelo://app?vid=d323bc23-4105-4d98-87ab-fb3899c88f8a"},"vehicle_type_id":"4","last_reported":1726852061,"current_range_meters":38800,"station_id":"ce4bhu92rcd13ifvqi70","pricing_plan_id":"cebpf4jnsgd1na2vs0mg"},{"bike_id":"4fe8f3a4-a462-4f91-8ae4-78ac141fae82","system_id":"levelo_inurba_marseille","lat":43.3176,"lon":5.39013,"is_reserved":false,"is_disabled":false,"rental_uris":{"android":"levelo://app?vid=4fe8f3a4-a462-4f91-8ae4-78ac141fae82","ios":"levelo://app?vid=4fe8f3a4-a462-4f91-8ae4-78ac141fae82"},"vehicle_type_id":"4","last_reported":1726852061,"current_range_meters":9600,"station_id":"ce4bhqp2rcd13ifvqhng","pricing_plan_id":"cebpf4jnsgd1na2vs0mg"},{"bike_id":"41471405-75d5-4045-a97b-de0c4df9e4d6","system_id":"levelo_inurba_marseille","lat":43.28922,"lon":5.38402,"is_reserved":false,"is_disabled":false,"rental_uris":{"android":"levelo://app?vid=41471405-75d5-4045-a97b-de0c4df9e4d6","ios":"levelo://app?vid=41471405-75d5-4045-a97b-de0c4df9e4d6"},"vehicle_type_id":"4","last_reported":1726852061,"current_range_meters":8000,"station_id":"ce4bh612rcd13ifvqe6g","pricing_plan_id":"cebpf4jnsgd1na2vs0mg"},{"bike_id":"adb893b7-d14d-4db2-961c-594ebb91cd19","system_id":"levelo_inurba_marseille","lat":43.29888,"lon":5.39731,"is_reserved":false,"is_disabled":false,"rental_uris":{"android":"levelo://app?vid=adb893b7-d14d-4db2-961c-594ebb91cd19","ios":"levelo://app?vid=adb893b7-d14d-4db2-961c-594ebb91cd19"},"vehicle_type_id":"4","last_reported":1726852061,"current_range_meters":38400,"station_id":"ce4bh0h2rcd13ifvqd50","pricing_plan_id":"cebpf4jnsgd1na2vs0mg"},{"bike_id":"11c8b946-0616-4598-9b1e-2eb8d662ec07","system_id":"levelo_inurba_marseille","lat":43.28454,"lon":5.35891,"is_reserved":false,"is_disabled":false,"rental_uris":{"android":"levelo://app?vid=11c8b946-0616-4598-9b1e-2eb8d662ec07","ios":"levelo://app?vid=11c8b946-0616-4598-9b1e-2eb8d662ec07"},"vehicle_type_id":"4","last_reported":1726852061,"current_range_meters":13600,"station_id":"ce4bhah2rcd13ifvqei0","pricing_plan_id":"cebpf4jnsgd1na2vs0mg"},{"bike_id":"64591c17-8ee0-43df-8725-13f05b5cb133","system_id":"levelo_inurba_marseille","lat":43.28712,"lon":5.40007,"is_reserved":false,"is_disabled":false,"rental_uris":{"android":"levelo://app?vid=64591c17-8ee0-43df-8725-13f05b5cb133","ios":"levelo://app?vid=64591c17-8ee0-43df-8725-13f05b5cb133"},"vehicle_type_id":"4","last_reported":1726852061,"current_range_meters":36800,"station_id":"ce4bho92rcd13ifvqh3g","pricing_plan_id":"cebpf4jnsgd1na2vs0mg"},{"bike_id":"57820118-01ad-48e0-a115-73679483bad4","system_id":"levelo_inurba_marseille","lat":43.32366,"lon":5.38878,"is_reserved":false,"is_disabled":false,"rental_uris":{"android":"levelo://app?vid=57820118-01ad-48e0-a115-73679483bad4","ios":"levelo://app?vid=57820118-01ad-48e0-a115-73679483bad4"},"vehicle_type_id":"4","last_reported":1726852061,"current_range_meters":9200,"station_id":"ce4bhqp2rcd13ifvqhog","pricing_plan_id":"cebpf4jnsgd1na2vs0mg"},{"bike_id":"a6a26720-2b18-49b8-a7d7-5f1e20988ce4","system_id":"levelo_inurba_marseille","lat":43.25106,"lon":5.40323,"is_reserved":false,"is_disabled":false,"rental_uris":{"android":"levelo://app?vid=a6a26720-2b18-49b8-a7d7-5f1e20988ce4","ios":"levelo://app?vid=a6a26720-2b18-49b8-a7d7-5f1e20988ce4"},"vehicle_type_id":"4","last_reported":1726852061,"current_range_meters":4000,"station_id":"ce4bhlh2rcd13ifvqgig","pricing_plan_id":"cebpf4jnsgd1na2vs0mg"},{"bike_id":"a85cea4a-c3f6-4018-90c5-a2e856339d61","system_id":"levelo_inurba_marseille","lat":43.29173,"lon":5.37165,"is_reserved":false,"is_disabled":false,"rental_uris":{"android":"levelo://app?vid=a85cea4a-c3f6-4018-90c5-a2e856339d61","ios":"levelo://app?vid=a85cea4a-c3f6-4018-90c5-a2e856339d61"},"vehicle_type_id":"4","last_reported":1726852061,"current_range_meters":38800,"station_id":"ce4bha92rcd13ifvqeh0","pricing_plan_id":"cebpf4jnsgd1na2vs0mg"},{"bike_id":"2aa62193-56c9-457a-acb4-e42694c40f8c","system_id":"levelo_inurba_marseille","lat":43.29002,"lon":5.35618,"is_reserved":false,"is_disabled":false,"rental_uris":{"android":"levelo://app?vid=2aa62193-56c9-457a-acb4-e42694c40f8c","ios":"levelo://app?vid=2aa62193-56c9-457a-acb4-e42694c40f8c"},"vehicle_type_id":"4","last_reported":1726852061,"current_range_meters":7200,"station_id":"ce4bhb92rcd13ifvqen0","pricing_plan_id":"cebpf4jnsgd1na2vs0mg"},{"bike_id":"fe0898fe-a98e-4a9d-8865-0616ed1dde2f","system_id":"levelo_inurba_marseille","lat":43.27615,"lon":5.36105,"is_reserved":false,"is_disabled":false,"rental_uris":{"android":"levelo://app?vid=fe0898fe-a98e-4a9d-8865-0616ed1dde2f","ios":"levelo://app?vid=fe0898fe-a98e-4a9d-8865-0616ed1dde2f"},"vehicle_type_id":"4","last_reported":1726852061,"current_range_meters":16000,"station_id":"ce4bgj92rcd13ifvqbe0","pricing_plan_id":"cebpf4jnsgd1na2vs0mg"},{"bike_id":"6388e495-3762-4608-8b80-54f6f1b4f882","system_id":"levelo_inurba_marseille","lat":43.23195,"lon":5.35552,"is_reserved":false,"is_disabled":false,"rental_uris":{"android":"levelo://app?vid=6388e495-3762-4608-8b80-54f6f1b4f882","ios":"levelo://app?vid=6388e495-3762-4608-8b80-54f6f1b4f882"},"vehicle_type_id":"4","last_reported":1726852061,"current_range_meters":11200,"station_id":"ce4bhu92rcd13ifvqi70","pricing_plan_id":"cebpf4jnsgd1na2vs0mg"},{"bike_id":"14930c46-dee2-42dd-82f7-85599dfbc01f","system_id":"levelo_inurba_marseille","lat":43.28405,"lon":5.37519,"is_reserved":false,"is_disabled":false,"rental_uris":{"android":"levelo://app?vid=14930c46-dee2-42dd-82f7-85599dfbc01f","ios":"levelo://app?vid=14930c46-dee2-42dd-82f7-85599dfbc01f"},"vehicle_type_id":"4","last_reported":1726852061,"current_range_meters":25200,"station_id":"ce4bh412rcd13ifvqds0","pricing_plan_id":"cebpf4jnsgd1na2vs0mg"},{"bike_id":"a08c16d2-99a0-4fbd-b970-795e60419327","system_id":"levelo_inurba_marseille","lat":43.29549,"lon":5.42297,"is_reserved":false,"is_disabled":false,"rental_uris":{"android":"levelo://app?vid=a08c16d2-99a0-4fbd-b970-795e60419327","ios":"levelo://app?vid=a08c16d2-99a0-4fbd-b970-795e60419327"},"vehicle_type_id":"4","last_reported":1726852061,"current_range_meters":9200,"station_id":"ce4bhph2rcd13ifvqhdg","pricing_plan_id":"cebpf4jnsgd1na2vs0mg"},{"bike_id":"22e5e8b4-2780-465e-a665-87f6f1172653","system_id":"levelo_inurba_marseille","lat":43.25004,"lon":5.38927,"is_reserved":false,"is_disabled":false,"rental_uris":{"android":"levelo://app?vid=22e5e8b4-2780-465e-a665-87f6f1172653","ios":"levelo://app?vid=22e5e8b4-2780-465e-a665-87f6f1172653"},"vehicle_type_id":"4","last_reported":1726852061,"current_range_meters":16400,"station_id":"ce4bhgp2rcd13ifvqfd0","pricing_plan_id":"cebpf4jnsgd1na2vs0mg"},{"bike_id":"c0dad189-fca0-4e4e-b3f1-16810320880b","system_id":"levelo_inurba_marseille","lat":43.29423,"lon":5.38631,"is_reserved":false,"is_disabled":false,"rental_uris":{"android":"levelo://app?vid=c0dad189-fca0-4e4e-b3f1-16810320880b","ios":"levelo://app?vid=c0dad189-fca0-4e4e-b3f1-16810320880b"},"vehicle_type_id":"4","last_reported":1726852061,"current_range_meters":28400,"station_id":"ce4bh2h2rcd13ifvqdh0","pricing_plan_id":"cebpf4jnsgd1na2vs0mg"},{"bike_id":"e9d98009-1903-4526-baed-d7ef0e42ab66","system_id":"levelo_inurba_marseille","lat":43.23191,"lon":5.3556,"is_reserved":false,"is_disabled":false,"rental_uris":{"android":"levelo://app?vid=e9d98009-1903-4526-baed-d7ef0e42ab66","ios":"levelo://app?vid=e9d98009-1903-4526-baed-d7ef0e42ab66"},"vehicle_type_id":"4","last_reported":1726852061,"current_range_meters":38800,"station_id":"ce4bhu92rcd13ifvqi70","pricing_plan_id":"cebpf4jnsgd1na2vs0mg"},{"bike_id":"fe5f40e0-ac82-45f2-918a-06ba0565826c","system_id":"levelo_inurba_marseille","lat":43.29279,"lon":5.36846,"is_reserved":false,"is_disabled":false,"rental_uris":{"android":"levelo://app?vid=fe5f40e0-ac82-45f2-918a-06ba0565826c","ios":"levelo://app?vid=fe5f40e0-ac82-45f2-918a-06ba0565826c"},"vehicle_type_id":"4","last_reported":1726852061,"current_range_meters":8400,"station_id":"ce4bhbp2rcd13ifvqesg","pricing_plan_id":"cebpf4jnsgd1na2vs0mg"},{"bike_id":"848b0575-e29a-4534-b786-164ea25be193","system_id":"levelo_inurba_marseille","lat":43.24646,"lon":5.38891,"is_reserved":false,"is_disabled":false,"rental_uris":{"android":"levelo://app?vid=848b0575-e29a-4534-b786-164ea25be193","ios":"levelo://app?vid=848b0575-e29a-4534-b786-164ea25be193"},"vehicle_type_id":"4","last_reported":1726852061,"current_range_meters":11200,"station_id":"ce4bhg12rcd13ifvqf60","pricing_plan_id":"cebpf4jnsgd1na2vs0mg"},{"bike_id":"45333d86-f0c3-44b1-9547-d659d0157bb9","system_id":"levelo_inurba_marseille","lat":43.31759,"lon":5.39017,"is_reserved":false,"is_disabled":false,"rental_uris":{"android":"levelo://app?vid=45333d86-f0c3-44b1-9547-d659d0157bb9","ios":"levelo://app?vid=45333d86-f0c3-44b1-9547-d659d0157bb9"},"vehicle_type_id":"4","last_reported":1726852061,"current_range_meters":6400,"station_id":"ce4bhqp2rcd13ifvqhng","pricing_plan_id":"cebpf4jnsgd1na2vs0mg"},{"bike_id":"b89986b8-1f7f-4889-8c57-bdccb23bbe1b","system_id":"levelo_inurba_marseille","lat":43.29435,"lon":5.39757,"is_reserved":false,"is_disabled":false,"rental_uris":{"android":"levelo://app?vid=b89986b8-1f7f-4889-8c57-bdccb23bbe1b","ios":"levelo://app?vid=b89986b8-1f7f-4889-8c57-bdccb23bbe1b"},"vehicle_type_id":"4","last_reported":1726852061,"current_range_meters":12400,"station_id":"ce4bh3h2rcd13ifvqdo0","pricing_plan_id":"cebpf4jnsgd1na2vs0mg"},{"bike_id":"5a1bd0a4-9030-4ee2-ba5f-50acfbc5a932","system_id":"levelo_inurba_marseille","lat":43.29518,"lon":5.37501,"is_reserved":false,"is_disabled":false,"rental_uris":{"android":"levelo://app?vid=5a1bd0a4-9030-4ee2-ba5f-50acfbc5a932","ios":"levelo://app?vid=5a1bd0a4-9030-4ee2-ba5f-50acfbc5a932"},"vehicle_type_id":"4","last_reported":1726852061,"current_range_meters":26000,"station_id":"ce4bgkp2rcd13ifvqbmg","pricing_plan_id":"cebpf4jnsgd1na2vs0mg"},{"bike_id":"ab3a0e62-d4a5-4885-80d9-b9dc3ef92270","system_id":"levelo_inurba_marseille","lat":43.29871,"lon":5.39752,"is_reserved":false,"is_disabled":false,"rental_uris":{"android":"levelo://app?vid=ab3a0e62-d4a5-4885-80d9-b9dc3ef92270","ios":"levelo://app?vid=ab3a0e62-d4a5-4885-80d9-b9dc3ef92270"},"vehicle_type_id":"4","last_reported":1726852061,"current_range_meters":38800,"station_id":"ce4bh0h2rcd13ifvqd50","pricing_plan_id":"cebpf4jnsgd1na2vs0mg"},{"bike_id":"f30ac8e0-f39e-4665-8247-2674f177f423","system_id":"levelo_inurba_marseille","lat":43.30135,"lon":5.39872,"is_reserved":false,"is_disabled":false,"rental_uris":{"android":"levelo://app?vid=f30ac8e0-f39e-4665-8247-2674f177f423","ios":"levelo://app?vid=f30ac8e0-f39e-4665-8247-2674f177f423"},"vehicle_type_id":"4","last_reported":1726852061,"current_range_meters":4000,"station_id":"ce4bh0h2rcd13ifvqd40","pricing_plan_id":"cebpf4jnsgd1na2vs0mg"},{"bike_id":"c46916a6-361e-4169-9515-d406113ec927","system_id":"levelo_inurba_marseille","lat":43.30648,"lon":5.400957,"is_reserved":false,"is_disabled":false,"rental_uris":{"android":"levelo://app?vid=c46916a6-361e-4169-9515-d406113ec927","ios":"levelo://app?vid=c46916a6-361e-4169-9515-d406113ec927"},"vehicle_type_id":"4","last_reported":1726852061,"current_range_meters":32000,"station_id":"ce4bh112rcd13ifvqda0","pricing_plan_id":"cebpf4jnsgd1na2vs0mg"},{"bike_id":"534173ed-c7da-49ff-8f57-5d6e6781b1b9","system_id":"levelo_inurba_marseille","lat":43.23195,"lon":5.35543,"is_reserved":false,"is_disabled":false,"rental_uris":{"android":"levelo://app?vid=534173ed-c7da-49ff-8f57-5d6e6781b1b9","ios":"levelo://app?vid=534173ed-c7da-49ff-8f57-5d6e6781b1b9"},"vehicle_type_id":"4","last_reported":1726852061,"current_range_meters":36000,"station_id":"ce4bhu92rcd13ifvqi70","pricing_plan_id":"cebpf4jnsgd1na2vs0mg"},{"bike_id":"df182baa-86cd-4122-917d-f1225a55ca07","system_id":"levelo_inurba_marseille","lat":43.29633,"lon":5.406,"is_reserved":false,"is_disabled":false,"rental_uris":{"android":"levelo://app?vid=df182baa-86cd-4122-917d-f1225a55ca07","ios":"levelo://app?vid=df182baa-86cd-4122-917d-f1225a55ca07"},"vehicle_type_id":"4","last_reported":1726852061,"current_range_meters":22000,"station_id":"ce4bh0h2rcd13ifvqd60","pricing_plan_id":"cebpf4jnsgd1na2vs0mg"},{"bike_id":"ba87e853-4115-4841-8e01-6a1c5d0dc910","system_id":"levelo_inurba_marseille","lat":43.279938,"lon":5.400087,"is_reserved":false,"is_disabled":false,"rental_uris":{"android":"levelo://app?vid=ba87e853-4115-4841-8e01-6a1c5d0dc910","ios":"levelo://app?vid=ba87e853-4115-4841-8e01-6a1c5d0dc910"},"vehicle_type_id":"4","last_reported":1726852061,"current_range_meters":30800,"station_id":"ce4bho92rcd13ifvqh4g","pricing_plan_id":"cebpf4jnsgd1na2vs0mg"},{"bike_id":"1770a4ac-ce5a-49ed-91cc-d49156049c6d","system_id":"levelo_inurba_marseille","lat":43.23959,"lon":5.36623,"is_reserved":false,"is_disabled":false,"rental_uris":{"android":"levelo://app?vid=1770a4ac-ce5a-49ed-91cc-d49156049c6d","ios":"levelo://app?vid=1770a4ac-ce5a-49ed-91cc-d49156049c6d"},"vehicle_type_id":"4","last_reported":1726852061,"current_range_meters":34000,"station_id":"ce4bhi12rcd13ifvqfp0","pricing_plan_id":"cebpf4jnsgd1na2vs0mg"},{"bike_id":"7790bead-229f-4a16-af48-aad2ead53425","system_id":"levelo_inurba_marseille","lat":43.2996,"lon":5.41318,"is_reserved":false,"is_disabled":false,"rental_uris":{"android":"levelo://app?vid=7790bead-229f-4a16-af48-aad2ead53425","ios":"levelo://app?vid=7790bead-229f-4a16-af48-aad2ead53425"},"vehicle_type_id":"4","last_reported":1726852061,"current_range_meters":16800,"station_id":"ce4bhp12rcd13ifvqh9g","pricing_plan_id":"cebpf4jnsgd1na2vs0mg"},{"bike_id":"b582b6de-bd20-4de9-a2b3-a2c563eac813","system_id":"levelo_inurba_marseille","lat":43.25094,"lon":5.39525,"is_reserved":false,"is_disabled":false,"rental_uris":{"android":"levelo://app?vid=b582b6de-bd20-4de9-a2b3-a2c563eac813","ios":"levelo://app?vid=b582b6de-bd20-4de9-a2b3-a2c563eac813"},"vehicle_type_id":"4","last_reported":1726852061,"current_range_meters":9600,"station_id":"ce4bhm12rcd13ifvqgkg","pricing_plan_id":"cebpf4jnsgd1na2vs0mg"},{"bike_id":"961edbf0-b1ca-48e3-9d68-d787db86c375","system_id":"levelo_inurba_marseille","lat":43.31078,"lon":5.38355,"is_reserved":false,"is_disabled":false,"rental_uris":{"android":"levelo://app?vid=961edbf0-b1ca-48e3-9d68-d787db86c375","ios":"levelo://app?vid=961edbf0-b1ca-48e3-9d68-d787db86c375"},"vehicle_type_id":"4","last_reported":1726852061,"current_range_meters":28400,"station_id":"ce4bgv92rcd13ifvqcr0","pricing_plan_id":"cebpf4jnsgd1na2vs0mg"},{"bike_id":"3062b245-4042-4743-acce-70d60c6688ae","system_id":"levelo_inurba_marseille","lat":43.279582,"lon":5.387412,"is_reserved":false,"is_disabled":false,"rental_uris":{"android":"levelo://app?vid=3062b245-4042-4743-acce-70d60c6688ae","ios":"levelo://app?vid=3062b245-4042-4743-acce-70d60c6688ae"},"vehicle_type_id":"4","last_reported":1726852061,"current_range_meters":18800,"station_id":"ce4bhg12rcd13ifvqf80","pricing_plan_id":"cebpf4jnsgd1na2vs0mg"},{"bike_id":"a4d062ac-37c6-4bb4-90ee-f90491d88ab9","system_id":"levelo_inurba_marseille","lat":43.290233,"lon":5.386523,"is_reserved":false,"is_disabled":false,"rental_uris":{"android":"levelo://app?vid=a4d062ac-37c6-4bb4-90ee-f90491d88ab9","ios":"levelo://app?vid=a4d062ac-37c6-4bb4-90ee-f90491d88ab9"},"vehicle_type_id":"4","last_reported":1726852061,"current_range_meters":20400,"station_id":"ce4bh4p2rcd13ifvqe0g","pricing_plan_id":"cebpf4jnsgd1na2vs0mg"},{"bike_id":"eafce9ac-7896-4c89-98aa-a9d2c386b7ec","system_id":"levelo_inurba_marseille","lat":43.2894,"lon":5.3964,"is_reserved":false,"is_disabled":false,"rental_uris":{"android":"levelo://app?vid=eafce9ac-7896-4c89-98aa-a9d2c386b7ec","ios":"levelo://app?vid=eafce9ac-7896-4c89-98aa-a9d2c386b7ec"},"vehicle_type_id":"4","last_reported":1726852061,"current_range_meters":22000,"station_id":"ce4bh3h2rcd13ifvqdn0","pricing_plan_id":"cebpf4jnsgd1na2vs0mg"},{"bike_id":"d8a041ab-c6bd-40f4-b8f7-4e63dcda0914","system_id":"levelo_inurba_marseille","lat":43.33296,"lon":5.42908,"is_reserved":false,"is_disabled":false,"rental_uris":{"android":"levelo://app?vid=d8a041ab-c6bd-40f4-b8f7-4e63dcda0914","ios":"levelo://app?vid=d8a041ab-c6bd-40f4-b8f7-4e63dcda0914"},"vehicle_type_id":"4","last_reported":1726852061,"current_range_meters":18000,"station_id":"","pricing_plan_id":"cebpf4jnsgd1na2vs0mg"},{"bike_id":"eb4f0792-3b17-447a-aee1-573fbc465364","system_id":"levelo_inurba_marseille","lat":43.23965,"lon":5.3663,"is_reserved":false,"is_disabled":false,"rental_uris":{"android":"levelo://app?vid=eb4f0792-3b17-447a-aee1-573fbc465364","ios":"levelo://app?vid=eb4f0792-3b17-447a-aee1-573fbc465364"},"vehicle_type_id":"4","last_reported":1726852061,"current_range_meters":11200,"station_id":"ce4bhi12rcd13ifvqfp0","pricing_plan_id":"cebpf4jnsgd1na2vs0mg"},{"bike_id":"435c011e-554b-45d8-8d48-3378bb43f48f","system_id":"levelo_inurba_marseille","lat":43.28461,"lon":5.35882,"is_reserved":false,"is_disabled":false,"rental_uris":{"android":"levelo://app?vid=435c011e-554b-45d8-8d48-3378bb43f48f","ios":"levelo://app?vid=435c011e-554b-45d8-8d48-3378bb43f48f"},"vehicle_type_id":"4","last_reported":1726852061,"current_range_meters":28000,"station_id":"ce4bhah2rcd13ifvqei0","pricing_plan_id":"cebpf4jnsgd1na2vs0mg"},{"bike_id":"52601092-1667-4e8a-96cd-bfd3b8271f40","system_id":"levelo_inurba_marseille","lat":43.29784,"lon":5.39345,"is_reserved":false,"is_disabled":false,"rental_uris":{"android":"levelo://app?vid=52601092-1667-4e8a-96cd-bfd3b8271f40","ios":"levelo://app?vid=52601092-1667-4e8a-96cd-bfd3b8271f40"},"vehicle_type_id":"4","last_reported":1726852061,"current_range_meters":26800,"station_id":"chh1huq6cuj3fo74tm60","pricing_plan_id":"cebpf4jnsgd1na2vs0mg"},{"bike_id":"6c49d7fc-28d4-430a-a652-7d35afd8384c","system_id":"levelo_inurba_marseille","lat":43.29898,"lon":5.43674,"is_reserved":false,"is_disabled":false,"rental_uris":{"android":"levelo://app?vid=6c49d7fc-28d4-430a-a652-7d35afd8384c","ios":"levelo://app?vid=6c49d7fc-28d4-430a-a652-7d35afd8384c"},"vehicle_type_id":"4","last_reported":1726852061,"current_range_meters":10000,"station_id":"ce4bhpp2rcd13ifvqhfg","pricing_plan_id":"cebpf4jnsgd1na2vs0mg"},{"bike_id":"a8c94e8e-2b95-43db-aa8c-07e8e97ceeec","system_id":"levelo_inurba_marseille","lat":43.295556,"lon":5.422846,"is_reserved":false,"is_disabled":false,"rental_uris":{"android":"levelo://app?vid=a8c94e8e-2b95-43db-aa8c-07e8e97ceeec","ios":"levelo://app?vid=a8c94e8e-2b95-43db-aa8c-07e8e97ceeec"},"vehicle_type_id":"4","last_reported":1726852061,"current_range_meters":7200,"station_id":"ce4bhph2rcd13ifvqhdg","pricing_plan_id":"cebpf4jnsgd1na2vs0mg"},{"bike_id":"6e36ea44-3b1f-4817-a3c2-6875f463ff52","system_id":"levelo_inurba_marseille","lat":43.23966,"lon":5.36631,"is_reserved":false,"is_disabled":false,"rental_uris":{"android":"levelo://app?vid=6e36ea44-3b1f-4817-a3c2-6875f463ff52","ios":"levelo://app?vid=6e36ea44-3b1f-4817-a3c2-6875f463ff52"},"vehicle_type_id":"4","last_reported":1726852061,"current_range_meters":32400,"station_id":"ce4bhi12rcd13ifvqfp0","pricing_plan_id":"cebpf4jnsgd1na2vs0mg"},{"bike_id":"e420e0e7-7ea3-429e-a604-5634898f715a","system_id":"levelo_inurba_marseille","lat":43.32034,"lon":5.41566,"is_reserved":false,"is_disabled":false,"rental_uris":{"android":"levelo://app?vid=e420e0e7-7ea3-429e-a604-5634898f715a","ios":"levelo://app?vid=e420e0e7-7ea3-429e-a604-5634898f715a"},"vehicle_type_id":"4","last_reported":1726852061,"current_range_meters":19200,"station_id":"ce4bhq92rcd13ifvqhkg","pricing_plan_id":"cebpf4jnsgd1na2vs0mg"},{"bike_id":"e545355e-bdfc-431f-9443-98845acf00d1","system_id":"levelo_inurba_marseille","lat":43.27495,"lon":5.42454,"is_reserved":false,"is_disabled":false,"rental_uris":{"android":"levelo://app?vid=e545355e-bdfc-431f-9443-98845acf00d1","ios":"levelo://app?vid=e545355e-bdfc-431f-9443-98845acf00d1"},"vehicle_type_id":"4","last_reported":1726852061,"current_range_meters":2800,"station_id":"ce4bhn92rcd13ifvqgrg","pricing_plan_id":"cebpf4jnsgd1na2vs0mg"},{"bike_id":"b43d11ac-346a-4bf4-bae3-aca5049cdc61","system_id":"levelo_inurba_marseille","lat":43.313253,"lon":5.396881,"is_reserved":false,"is_disabled":false,"rental_uris":{"android":"levelo://app?vid=b43d11ac-346a-4bf4-bae3-aca5049cdc61","ios":"levelo://app?vid=b43d11ac-346a-4bf4-bae3-aca5049cdc61"},"vehicle_type_id":"4","last_reported":1726852061,"current_range_meters":35200,"station_id":"ce4bhq12rcd13ifvqhig","pricing_plan_id":"cebpf4jnsgd1na2vs0mg"},{"bike_id":"231df590-15eb-4c0a-bdf6-dddd3cb861cb","system_id":"levelo_inurba_marseille","lat":43.337444,"lon":5.374475,"is_reserved":false,"is_disabled":false,"rental_uris":{"android":"levelo://app?vid=231df590-15eb-4c0a-bdf6-dddd3cb861cb","ios":"levelo://app?vid=231df590-15eb-4c0a-bdf6-dddd3cb861cb"},"vehicle_type_id":"4","last_reported":1726852061,"current_range_meters":34800,"station_id":"","pricing_plan_id":"cebpf4jnsgd1na2vs0mg"},{"bike_id":"8e7d42cc-ed0d-4a07-a603-3b911ab2f749","system_id":"levelo_inurba_marseille","lat":43.25725,"lon":5.41113,"is_reserved":false,"is_disabled":false,"rental_uris":{"android":"levelo://app?vid=8e7d42cc-ed0d-4a07-a603-3b911ab2f749","ios":"levelo://app?vid=8e7d42cc-ed0d-4a07-a603-3b911ab2f749"},"vehicle_type_id":"4","last_reported":1726852061,"current_range_meters":8400,"station_id":"ce4bhkp2rcd13ifvqgd0","pricing_plan_id":"cebpf4jnsgd1na2vs0mg"},{"bike_id":"cc092de0-4c23-44c5-8af5-e0044787ab4f","system_id":"levelo_inurba_marseille","lat":43.31996,"lon":5.38155,"is_reserved":false,"is_disabled":false,"rental_uris":{"android":"levelo://app?vid=cc092de0-4c23-44c5-8af5-e0044787ab4f","ios":"levelo://app?vid=cc092de0-4c23-44c5-8af5-e0044787ab4f"},"vehicle_type_id":"4","last_reported":1726852061,"current_range_meters":38800,"station_id":"ce4bhr12rcd13ifvqhpg","pricing_plan_id":"cebpf4jnsgd1na2vs0mg"},{"bike_id":"c8b78497-b39a-45a4-ad1a-7383bfb5783e","system_id":"levelo_inurba_marseille","lat":43.31759,"lon":5.39024,"is_reserved":false,"is_disabled":false,"rental_uris":{"android":"levelo://app?vid=c8b78497-b39a-45a4-ad1a-7383bfb5783e","ios":"levelo://app?vid=c8b78497-b39a-45a4-ad1a-7383bfb5783e"},"vehicle_type_id":"4","last_reported":1726852061,"current_range_meters":24400,"station_id":"ce4bhqp2rcd13ifvqhng","pricing_plan_id":"cebpf4jnsgd1na2vs0mg"},{"bike_id":"9f2695c6-ccc1-40a0-9939-f217cf698810","system_id":"levelo_inurba_marseille","lat":43.309143,"lon":5.380209,"is_reserved":false,"is_disabled":false,"rental_uris":{"android":"levelo://app?vid=9f2695c6-ccc1-40a0-9939-f217cf698810","ios":"levelo://app?vid=9f2695c6-ccc1-40a0-9939-f217cf698810"},"vehicle_type_id":"4","last_reported":1726852061,"current_range_meters":21600,"station_id":"","pricing_plan_id":"cebpf4jnsgd1na2vs0mg"},{"bike_id":"6770055e-825c-4ae2-ba3b-92bb615bacc1","system_id":"levelo_inurba_marseille","lat":43.30601,"lon":5.37235,"is_reserved":false,"is_disabled":false,"rental_uris":{"android":"levelo://app?vid=6770055e-825c-4ae2-ba3b-92bb615bacc1","ios":"levelo://app?vid=6770055e-825c-4ae2-ba3b-92bb615bacc1"},"vehicle_type_id":"4","last_reported":1726852061,"current_range_meters":38800,"station_id":"ce4bgqh2rcd13ifvqc4g","pricing_plan_id":"cebpf4jnsgd1na2vs0mg"},{"bike_id":"bd8d2fa7-c98b-48e3-a7ef-5c307e3342a9","system_id":"levelo_inurba_marseille","lat":43.2904,"lon":5.35879,"is_reserved":false,"is_disabled":false,"rental_uris":{"android":"levelo://app?vid=bd8d2fa7-c98b-48e3-a7ef-5c307e3342a9","ios":"levelo://app?vid=bd8d2fa7-c98b-48e3-a7ef-5c307e3342a9"},"vehicle_type_id":"4","last_reported":1726852061,"current_range_meters":35200,"station_id":"ce4bha92rcd13ifvqeg0","pricing_plan_id":"cebpf4jnsgd1na2vs0mg"},{"bike_id":"7b47853b-3f08-4c74-9de8-cbec07893527","system_id":"levelo_inurba_marseille","lat":43.33025,"lon":5.39044,"is_reserved":false,"is_disabled":false,"rental_uris":{"android":"levelo://app?vid=7b47853b-3f08-4c74-9de8-cbec07893527","ios":"levelo://app?vid=7b47853b-3f08-4c74-9de8-cbec07893527"},"vehicle_type_id":"4","last_reported":1726852061,"current_range_meters":34000,"station_id":"ce4bhr92rcd13ifvqhrg","pricing_plan_id":"cebpf4jnsgd1na2vs0mg"},{"bike_id":"56ebc7f9-317b-4ff0-b073-4e0e58ab95cc","system_id":"levelo_inurba_marseille","lat":43.23193,"lon":5.35549,"is_reserved":false,"is_disabled":false,"rental_uris":{"android":"levelo://app?vid=56ebc7f9-317b-4ff0-b073-4e0e58ab95cc","ios":"levelo://app?vid=56ebc7f9-317b-4ff0-b073-4e0e58ab95cc"},"vehicle_type_id":"4","last_reported":1726852061,"current_range_meters":4000,"station_id":"ce4bhu92rcd13ifvqi70","pricing_plan_id":"cebpf4jnsgd1na2vs0mg"},{"bike_id":"e658f900-acaa-47ab-967d-9f3f2b86e377","system_id":"levelo_inurba_marseille","lat":43.29775,"lon":5.37111,"is_reserved":false,"is_disabled":false,"rental_uris":{"android":"levelo://app?vid=e658f900-acaa-47ab-967d-9f3f2b86e377","ios":"levelo://app?vid=e658f900-acaa-47ab-967d-9f3f2b86e377"},"vehicle_type_id":"4","last_reported":1726852061,"current_range_meters":38800,"station_id":"ce4bgop2rcd13ifvqc1g","pricing_plan_id":"cebpf4jnsgd1na2vs0mg"},{"bike_id":"4024f914-c508-4cdd-af68-25623a876612","system_id":"levelo_inurba_marseille","lat":43.31759,"lon":5.39023,"is_reserved":false,"is_disabled":false,"rental_uris":{"android":"levelo://app?vid=4024f914-c508-4cdd-af68-25623a876612","ios":"levelo://app?vid=4024f914-c508-4cdd-af68-25623a876612"},"vehicle_type_id":"4","last_reported":1726852061,"current_range_meters":14400,"station_id":"ce4bhqp2rcd13ifvqhng","pricing_plan_id":"cebpf4jnsgd1na2vs0mg"},{"bike_id":"5e93a29b-fbf8-441f-bab9-2113219b36a8","system_id":"levelo_inurba_marseille","lat":43.29713,"lon":5.36624,"is_reserved":false,"is_disabled":false,"rental_uris":{"android":"levelo://app?vid=5e93a29b-fbf8-441f-bab9-2113219b36a8","ios":"levelo://app?vid=5e93a29b-fbf8-441f-bab9-2113219b36a8"},"vehicle_type_id":"4","last_reported":1726852061,"current_range_meters":38800,"station_id":"ce4bgn12rcd13ifvqbt0","pricing_plan_id":"cebpf4jnsgd1na2vs0mg"},{"bike_id":"d0b0e93c-d602-43bd-9b03-63523ab4dd36","system_id":"levelo_inurba_marseille","lat":43.23191,"lon":5.35544,"is_reserved":false,"is_disabled":false,"rental_uris":{"android":"levelo://app?vid=d0b0e93c-d602-43bd-9b03-63523ab4dd36","ios":"levelo://app?vid=d0b0e93c-d602-43bd-9b03-63523ab4dd36"},"vehicle_type_id":"4","last_reported":1726852061,"current_range_meters":26000,"station_id":"ce4bhu92rcd13ifvqi70","pricing_plan_id":"cebpf4jnsgd1na2vs0mg"},{"bike_id":"b496cef2-c398-4559-a692-0b3bae02a74b","system_id":"levelo_inurba_marseille","lat":43.29898,"lon":5.43674,"is_reserved":false,"is_disabled":false,"rental_uris":{"android":"levelo://app?vid=b496cef2-c398-4559-a692-0b3bae02a74b","ios":"levelo://app?vid=b496cef2-c398-4559-a692-0b3bae02a74b"},"vehicle_type_id":"4","last_reported":1726852061,"current_range_meters":6400,"station_id":"ce4bhpp2rcd13ifvqhfg","pricing_plan_id":"cebpf4jnsgd1na2vs0mg"},{"bike_id":"8a6b7a58-3847-46b0-ae2e-fce2e714362e","system_id":"levelo_inurba_marseille","lat":43.274966,"lon":5.424551,"is_reserved":false,"is_disabled":false,"rental_uris":{"android":"levelo://app?vid=8a6b7a58-3847-46b0-ae2e-fce2e714362e","ios":"levelo://app?vid=8a6b7a58-3847-46b0-ae2e-fce2e714362e"},"vehicle_type_id":"4","last_reported":1726852061,"current_range_meters":12000,"station_id":"ce4bhn92rcd13ifvqgrg","pricing_plan_id":"cebpf4jnsgd1na2vs0mg"},{"bike_id":"c32ae62c-3f31-4ecf-86d6-21da29586880","system_id":"levelo_inurba_marseille","lat":43.3047,"lon":5.37906,"is_reserved":false,"is_disabled":false,"rental_uris":{"android":"levelo://app?vid=c32ae62c-3f31-4ecf-86d6-21da29586880","ios":"levelo://app?vid=c32ae62c-3f31-4ecf-86d6-21da29586880"},"vehicle_type_id":"4","last_reported":1726852061,"current_range_meters":11600,"station_id":"ce4bgup2rcd13ifvqcn0","pricing_plan_id":"cebpf4jnsgd1na2vs0mg"},{"bike_id":"24f4cfb5-6e4a-41ac-868d-67e75de882a6","system_id":"levelo_inurba_marseille","lat":43.29031,"lon":5.38667,"is_reserved":false,"is_disabled":false,"rental_uris":{"android":"levelo://app?vid=24f4cfb5-6e4a-41ac-868d-67e75de882a6","ios":"levelo://app?vid=24f4cfb5-6e4a-41ac-868d-67e75de882a6"},"vehicle_type_id":"4","last_reported":1726852061,"current_range_meters":31200,"station_id":"ce4bh4p2rcd13ifvqe0g","pricing_plan_id":"cebpf4jnsgd1na2vs0mg"},{"bike_id":"6856d6e5-d86d-49a6-9aa9-a0f2f47bb75b","system_id":"levelo_inurba_marseille","lat":43.28615,"lon":5.35106,"is_reserved":false,"is_disabled":false,"rental_uris":{"android":"levelo://app?vid=6856d6e5-d86d-49a6-9aa9-a0f2f47bb75b","ios":"levelo://app?vid=6856d6e5-d86d-49a6-9aa9-a0f2f47bb75b"},"vehicle_type_id":"4","last_reported":1726852061,"current_range_meters":33200,"station_id":"ce4bhch2rcd13ifvqeug","pricing_plan_id":"cebpf4jnsgd1na2vs0mg"},{"bike_id":"55d8b92d-b714-404c-a6a7-cf5febb26694","system_id":"levelo_inurba_marseille","lat":43.31356,"lon":5.38498,"is_reserved":false,"is_disabled":false,"rental_uris":{"android":"levelo://app?vid=55d8b92d-b714-404c-a6a7-cf5febb26694","ios":"levelo://app?vid=55d8b92d-b714-404c-a6a7-cf5febb26694"},"vehicle_type_id":"4","last_reported":1726852061,"current_range_meters":38000,"station_id":"ce4bgt92rcd13ifvqcf0","pricing_plan_id":"cebpf4jnsgd1na2vs0mg"},{"bike_id":"027f4c6d-ee7f-4841-b5b0-5709eb7ee65a","system_id":"levelo_inurba_marseille","lat":43.29207,"lon":5.3993,"is_reserved":false,"is_disabled":false,"rental_uris":{"android":"levelo://app?vid=027f4c6d-ee7f-4841-b5b0-5709eb7ee65a","ios":"levelo://app?vid=027f4c6d-ee7f-4841-b5b0-5709eb7ee65a"},"vehicle_type_id":"4","last_reported":1726852061,"current_range_meters":10800,"station_id":"ce4bh192rcd13ifvqdc0","pricing_plan_id":"cebpf4jnsgd1na2vs0mg"},{"bike_id":"82120c9e-592f-402c-a5e7-f54ee2d53da8","system_id":"levelo_inurba_marseille","lat":43.32484,"lon":5.3657,"is_reserved":false,"is_disabled":false,"rental_uris":{"android":"levelo://app?vid=82120c9e-592f-402c-a5e7-f54ee2d53da8","ios":"levelo://app?vid=82120c9e-592f-402c-a5e7-f54ee2d53da8"},"vehicle_type_id":"4","last_reported":1726852061,"current_range_meters":39200,"station_id":"ce4bhs12rcd13ifvqhvg","pricing_plan_id":"cebpf4jnsgd1na2vs0mg"},{"bike_id":"0c344b7a-3481-411d-8658-844803215f81","system_id":"levelo_inurba_marseille","lat":43.231945,"lon":5.355542,"is_reserved":false,"is_disabled":false,"rental_uris":{"android":"levelo://app?vid=0c344b7a-3481-411d-8658-844803215f81","ios":"levelo://app?vid=0c344b7a-3481-411d-8658-844803215f81"},"vehicle_type_id":"4","last_reported":1726852061,"current_range_meters":24800,"station_id":"ce4bhu92rcd13ifvqi70","pricing_plan_id":"cebpf4jnsgd1na2vs0mg"},{"bike_id":"7cb6ee41-aafd-4bfe-b482-202e29d09f93","system_id":"levelo_inurba_marseille","lat":43.23195,"lon":5.35548,"is_reserved":false,"is_disabled":false,"rental_uris":{"android":"levelo://app?vid=7cb6ee41-aafd-4bfe-b482-202e29d09f93","ios":"levelo://app?vid=7cb6ee41-aafd-4bfe-b482-202e29d09f93"},"vehicle_type_id":"4","last_reported":1726852061,"current_range_meters":22400,"station_id":"ce4bhu92rcd13ifvqi70","pricing_plan_id":"cebpf4jnsgd1na2vs0mg"},{"bike_id":"d6546676-c8af-42d2-b8ab-664f7ce63476","system_id":"levelo_inurba_marseille","lat":43.27376,"lon":5.3626,"is_reserved":false,"is_disabled":false,"rental_uris":{"android":"levelo://app?vid=d6546676-c8af-42d2-b8ab-664f7ce63476","ios":"levelo://app?vid=d6546676-c8af-42d2-b8ab-664f7ce63476"},"vehicle_type_id":"4","last_reported":1726852061,"current_range_meters":19600,"station_id":"ce4bhbh2rcd13ifvqeo0","pricing_plan_id":"cebpf4jnsgd1na2vs0mg"},{"bike_id":"0e0c2438-b28c-4fd1-94a4-0c34708aec37","system_id":"levelo_inurba_marseille","lat":43.33023,"lon":5.39041,"is_reserved":false,"is_disabled":false,"rental_uris":{"android":"levelo://app?vid=0e0c2438-b28c-4fd1-94a4-0c34708aec37","ios":"levelo://app?vid=0e0c2438-b28c-4fd1-94a4-0c34708aec37"},"vehicle_type_id":"4","last_reported":1726852061,"current_range_meters":10000,"station_id":"ce4bhr92rcd13ifvqhrg","pricing_plan_id":"cebpf4jnsgd1na2vs0mg"},{"bike_id":"925f9356-54c8-49ac-823a-e6ff518eaaec","system_id":"levelo_inurba_marseille","lat":43.29878,"lon":5.39737,"is_reserved":false,"is_disabled":false,"rental_uris":{"android":"levelo://app?vid=925f9356-54c8-49ac-823a-e6ff518eaaec","ios":"levelo://app?vid=925f9356-54c8-49ac-823a-e6ff518eaaec"},"vehicle_type_id":"4","last_reported":1726852061,"current_range_meters":36000,"station_id":"ce4bh0h2rcd13ifvqd50","pricing_plan_id":"cebpf4jnsgd1na2vs0mg"},{"bike_id":"8e25339d-61ed-4ba2-9ba0-8be7e91e5499","system_id":"levelo_inurba_marseille","lat":43.31528,"lon":5.38032,"is_reserved":false,"is_disabled":false,"rental_uris":{"android":"levelo://app?vid=8e25339d-61ed-4ba2-9ba0-8be7e91e5499","ios":"levelo://app?vid=8e25339d-61ed-4ba2-9ba0-8be7e91e5499"},"vehicle_type_id":"4","last_reported":1726852061,"current_range_meters":9600,"station_id":"ce4bhsp2rcd13ifvqi50","pricing_plan_id":"cebpf4jnsgd1na2vs0mg"},{"bike_id":"71ba00b9-96ad-4619-946a-db954de7215d","system_id":"levelo_inurba_marseille","lat":43.28151,"lon":5.42654,"is_reserved":false,"is_disabled":false,"rental_uris":{"android":"levelo://app?vid=71ba00b9-96ad-4619-946a-db954de7215d","ios":"levelo://app?vid=71ba00b9-96ad-4619-946a-db954de7215d"},"vehicle_type_id":"4","last_reported":1726852061,"current_range_meters":14000,"station_id":"ce4bhnh2rcd13ifvqgug","pricing_plan_id":"cebpf4jnsgd1na2vs0mg"},