{"last_updated":1728378590,"ttl":60,"version":"2.2","data":{"bikes":[{"bike_id":"d5483046-1f3f-4c2d-8fc6-edab674e9853","system_id":"levelo_inurba_marseille","lat":43.2721,"lon":5.39184,"is_reserved":false,"is_disabled":false,"rental_uris":{"android":"levelo://app?vid=d5483046-1f3f-4c2d-8fc6-edab674e9853","ios":"levelo://app?vid=d5483046-1f3f-4c2d-8fc6-edab674e9853"},"vehicle_type_id":"4","last_reported":1728378590,"current_range_meters":16400,"station_id":"ce4bhhp2rcd13ifvqfm0","pricing_plan_id":"cebpf4jnsgd1na2vs0mg"},{"bike_id":"e9cf1c78-d7cb-49f1-a6e4-b9e06b7768b9","system_id":"levelo_inurba_marseille","lat":43.24651,"lon":5.38895,"is_reserved":false,"is_disabled":false,"rental_uris":{"android":"levelo://app?vid=e9cf1c78-d7cb-49f1-a6e4-b9e06b7768b9","ios":"levelo://app?vid=e9cf1c78-d7cb-49f1-a6e4-b9e06b7768b9"},"vehicle_type_id":"4","last_reported":1728378590,"current_range_meters":28800,"station_id":"ce4bhg12rcd13ifvqf60","pricing_plan_id":"cebpf4jnsgd1na2vs0mg"},{"bike_id":"68cc9b2e-3bdd-4866-a986-7cead00d4cfc","system_id":"levelo_inurba_marseille","lat":43.33752,"lon":5.37449,"is_reserved":false,"is_disabled":false,"rental_uris":{"android":"levelo://app?vid=68cc9b2e-3bdd-4866-a986-7cead00d4cfc","ios":"levelo://app?vid=68cc9b2e-3bdd-4866-a986-7cead00d4cfc"},"vehicle_type_id":"4","last_reported":1728378590,"current_range_meters":36800,"station_id":"","pricing_plan_id":"cebpf4jnsgd1na2vs0mg"},{"bike_id":"6ea71e61-0162-482a-8abc-aba97e9028bf","system_id":"levelo_inurba_marseille","lat":43.28153,"lon":5.42641,"is_reserved":false,"is_disabled":false,"rental_uris":{"android":"levelo://app?vid=6ea71e61-0162-482a-8abc-aba97e9028bf","ios":"levelo://app?vid=6ea71e61-0162-482a-8abc-aba97e9028bf"},"vehicle_type_id":"4","last_reported":1728378590,"current_range_meters":38000,"station_id":"ce4bhnh2rcd13ifvqgug","pricing_plan_id":"cebpf4jnsgd1na2vs0mg"},{"bike_id":"ff5e4479-2444-4048-9fba-9dcdbd25e12e","system_id":"levelo_inurba_marseille","lat":43.27809,"lon":5.40721,"is_reserved":false,"is_disabled":false,"rental_uris":{"android":"levelo://app?vid=ff5e4479-2444-4048-9fba-9dcdbd25e12e","ios":"levelo://app?vid=ff5e4479-2444-4048-9fba-9dcdbd25e12e"},"vehicle_type_id":"4","last_reported":1728378590,"current_range_meters":38800,"station_id":"ce4bhnh2rcd13ifvqgtg","pricing_plan_id":"cebpf4jnsgd1na2vs0mg"},{"bike_id":"21043ddc-1385-4a23-bc94-429cb4387c04","system_id":"levelo_inurba_marseille","lat":43.23966,"lon":5.36632,"is_reserved":false,"is_disabled":false,"rental_uris":{"android":"levelo://app?vid=21043ddc-1385-4a23-bc94-429cb4387c04","ios":"levelo://app?vid=21043ddc-1385-4a23-bc94-429cb4387c04"},"vehicle_type_id":"4","last_reported":1728378590,"current_range_meters":18800,"station_id":"ce4bhi12rcd13ifvqfp0","pricing_plan_id":"cebpf4jnsgd1na2vs0mg"},{"bike_id":"d317d822-240a-4602-bbf8-c1a80772608e","system_id":"levelo_inurba_marseille","lat":43.29004,"lon":5.35618,"is_reserved":false,"is_disabled":false,"rental_uris":{"android":"levelo://app?vid=d317d822-240a-4602-bbf8-c1a80772608e","ios":"levelo://app?vid=d317d822-240a-4602-bbf8-c1a80772608e"},"vehicle_type_id":"4","last_reported":1728378590,"current_range_meters":38000,"station_id":"ce4bhb92rcd13ifvqen0","pricing_plan_id":"cebpf4jnsgd1na2vs0mg"},{"bike_id":"14b2a9f0-2bf2-458a-b544-3c0a1745be00","system_id":"levelo_inurba_marseille","lat":43.29617,"lon":5.37167,"is_reserved":false,"is_disabled":false,"rental_uris":{"android":"levelo://app?vid=14b2a9f0-2bf2-458a-b544-3c0a1745be00","ios":"levelo://app?vid=14b2a9f0-2bf2-458a-b544-3c0a1745be00"},"vehicle_type_id":"4","last_reported":1728378590,"current_range_meters":26000,"station_id":"ce4bgnh2rcd13ifvqc0g","pricing_plan_id":"cebpf4jnsgd1na2vs0mg"},{"bike_id":"3edccbad-c604-40df-acb2-6e9d91b67298","system_id":"levelo_inurba_marseille","lat":43.23053,"lon":5.35494,"is_reserved":false,"is_disabled":false,"rental_uris":{"android":"levelo://app?vid=3edccbad-c604-40df-acb2-6e9d91b67298","ios":"levelo://app?vid=3edccbad-c604-40df-acb2-6e9d91b67298"},"vehicle_type_id":"4","last_reported":1728378590,"current_range_meters":16000,"station_id":"cpo3342slgdg3j2ifvpg","pricing_plan_id":"cebpf4jnsgd1na2vs0mg"},{"bike_id":"928600bf-7e6c-4304-b978-40f5f0afb4b3","system_id":"levelo_inurba_marseille","lat":43.294647,"lon":5.379545,"is_reserved":false,"is_disabled":false,"rental_uris":{"android":"levelo://app?vid=928600bf-7e6c-4304-b978-40f5f0afb4b3","ios":"levelo://app?vid=928600bf-7e6c-4304-b978-40f5f0afb4b3"},"vehicle_type_id":"4","last_reported":1728378590,"current_range_meters":30000,"station_id":"ce4bhh12rcd13ifvqfg0","pricing_plan_id":"cebpf4jnsgd1na2vs0mg"},{"bike_id":"5e55ff59-a486-4491-8e1d-bdae7e9aa0f4","system_id":"levelo_inurba_marseille","lat":43.30525,"lon":5.36722,"is_reserved":false,"is_disabled":false,"rental_uris":{"android":"levelo://app?vid=5e55ff59-a486-4491-8e1d-bdae7e9aa0f4","ios":"levelo://app?vid=5e55ff59-a486-4491-8e1d-bdae7e9aa0f4"},"vehicle_type_id":"4","last_reported":1728378590,"current_range_meters":20000,"station_id":"ce4bgrp2rcd13ifvqc9g","pricing_plan_id":"cebpf4jnsgd1na2vs0mg"},{"bike_id":"9e30128d-8534-4462-826e-e6d85697f9d5","system_id":"levelo_inurba_marseille","lat":43.25931,"lon":5.40905,"is_reserved":false,"is_disabled":false,"rental_uris":{"android":"levelo://app?vid=9e30128d-8534-4462-826e-e6d85697f9d5","ios":"levelo://app?vid=9e30128d-8534-4462-826e-e6d85697f9d5"},"vehicle_type_id":"4","last_reported":1728378590,"current_range_meters":10000,"station_id":"ce4bhm92rcd13ifvqglg","pricing_plan_id":"cebpf4jnsgd1na2vs0mg"},{"bike_id":"52f0b8b5-6eaf-4c1c-bebf-564bf53fe900","system_id":"levelo_inurba_marseille","lat":43.29613,"lon":5.40597,"is_reserved":false,"is_disabled":false,"rental_uris":{"android":"levelo://app?vid=52f0b8b5-6eaf-4c1c-bebf-564bf53fe900","ios":"levelo://app?vid=52f0b8b5-6eaf-4c1c-bebf-564bf53fe900"},"vehicle_type_id":"4","last_reported":1728378590,"current_range_meters":25200,"station_id":"ce4bh0h2rcd13ifvqd60","pricing_plan_id":"cebpf4jnsgd1na2vs0mg"},{"bike_id":"f88ca191-612a-4421-bc25-699ac149a51f","system_id":"levelo_inurba_marseille","lat":43.2621,"lon":5.3744,"is_reserved":false,"is_disabled":false,"rental_uris":{"android":"levelo://app?vid=f88ca191-612a-4421-bc25-699ac149a51f","ios":"levelo://app?vid=f88ca191-612a-4421-bc25-699ac149a51f"},"vehicle_type_id":"4","last_reported":1728378590,"current_range_meters":37600,"station_id":"ce4bhgp2rcd13ifvqfc0","pricing_plan_id":"cebpf4jnsgd1na2vs0mg"},{"bike_id":"4a2aa11a-a153-469f-88fd-3adfadc9f5b1","system_id":"levelo_inurba_marseille","lat":43.3176,"lon":5.39009,"is_reserved":false,"is_disabled":false,"rental_uris":{"android":"levelo://app?vid=4a2aa11a-a153-469f-88fd-3adfadc9f5b1","ios":"levelo://app?vid=4a2aa11a-a153-469f-88fd-3adfadc9f5b1"},"vehicle_type_id":"4","last_reported":1728378590,"current_range_meters":34000,"station_id":"ce4bhqp2rcd13ifvqhng","pricing_plan_id":"cebpf4jnsgd1na2vs0mg"},{"bike_id":"c3c436d2-1283-466b-855c-9c9393ac99b4","system_id":"levelo_inurba_marseille","lat":43.34141,"lon":5.40898,"is_reserved":false,"is_disabled":false,"rental_uris":{"android":"levelo://app?vid=c3c436d2-1283-466b-855c-9c9393ac99b4","ios":"levelo://app?vid=c3c436d2-1283-466b-855c-9c9393ac99b4"},"vehicle_type_id":"4","last_reported":1728378590,"current_range_meters":35600,"station_id":"ce4bhqh2rcd13ifvqhlg","pricing_plan_id":"cebpf4jnsgd1na2vs0mg"},{"bike_id":"09c86d2a-7e11-4c9e-bec7-62f912b5a3ed","system_id":"levelo_inurba_marseille","lat":43.30648,"lon":5.40079,"is_reserved":false,"is_disabled":false,"rental_uris":{"android":"levelo://app?vid=09c86d2a-7e11-4c9e-bec7-62f912b5a3ed","ios":"levelo://app?vid=09c86d2a-7e11-4c9e-bec7-62f912b5a3ed"},"vehicle_type_id":"4","last_reported":1728378590,"current_range_meters":8400,"station_id":"ce4bh112rcd13ifvqda0","pricing_plan_id":"cebpf4jnsgd1na2vs0mg"},{"bike_id":"24282d45-ac00-46f5-87fd-de0f68173250","system_id":"levelo_inurba_marseille","lat":43.25114,"lon":5.4032,"is_reserved":false,"is_disabled":false,"rental_uris":{"android":"levelo://app?vid=24282d45-ac00-46f5-87fd-de0f68173250","ios":"levelo://app?vid=24282d45-ac00-46f5-87fd-de0f68173250"},"vehicle_type_id":"4","last_reported":1728378590,"current_range_meters":39200,"station_id":"ce4bhlh2rcd13ifvqgig","pricing_plan_id":"cebpf4jnsgd1na2vs0mg"},{"bike_id":"7f8896c9-e044-4169-ba02-75989da632b5","system_id":"levelo_inurba_marseille","lat":43.24812,"lon":5.37463,"is_reserved":false,"is_disabled":false,"rental_uris":{"android":"levelo://app?vid=7f8896c9-e044-4169-ba02-75989da632b5","ios":"levelo://app?vid=7f8896c9-e044-4169-ba02-75989da632b5"},"vehicle_type_id":"4","last_reported":1728378590,"current_range_meters":38000,"station_id":"ce4bhgh2rcd13ifvqfb0","pricing_plan_id":"cebpf4jnsgd1na2vs0mg"},{"bike_id":"087ab288-8b52-46e7-8eef-9b62a342c78a","system_id":"levelo_inurba_marseille","lat":43.31363,"lon":5.38495,"is_reserved":false,"is_disabled":false,"rental_uris":{"android":"levelo://app?vid=087ab288-8b52-46e7-8eef-9b62a342c78a","ios":"levelo://app?vid=087ab288-8b52-46e7-8eef-9b62a342c78a"},"vehicle_type_id":"4","last_reported":1728378590,"current_range_meters":37600,"station_id":"ce4bgt92rcd13ifvqcf0","pricing_plan_id":"cebpf4jnsgd1na2vs0mg"},{"bike_id":"f1fcf759-323f-47ed-8065-17977692e5a8","system_id":"levelo_inurba_marseille","lat":43.33613,"lon":5.41028,"is_reserved":false,"is_disabled":false,"rental_uris":{"android":"levelo://app?vid=f1fcf759-323f-47ed-8065-17977692e5a8","ios":"levelo://app?vid=f1fcf759-323f-47ed-8065-17977692e5a8"},"vehicle_type_id":"4","last_reported":1728378590,"current_range_meters":32000,"station_id":"ce4bhqh2rcd13ifvqhmg","pricing_plan_id":"cebpf4jnsgd1na2vs0mg"},{"bike_id":"eb1088ba-d9c3-4e40-abd0-ca392e4a77e6","system_id":"levelo_inurba_marseille","lat":43.29574,"lon":5.39968,"is_reserved":false,"is_disabled":false,"rental_uris":{"android":"levelo://app?vid=eb1088ba-d9c3-4e40-abd0-ca392e4a77e6","ios":"levelo://app?vid=eb1088ba-d9c3-4e40-abd0-ca392e4a77e6"},"vehicle_type_id":"4","last_reported":1728378590,"current_range_meters":38400,"station_id":"ce4bh312rcd13ifvqdj0","pricing_plan_id":"cebpf4jnsgd1na2vs0mg"},{"bike_id":"81b07a05-4c57-4e76-99d6-5f6e3acbb201","system_id":"levelo_inurba_marseille","lat":43.23062,"lon":5.35496,"is_reserved":false,"is_disabled":false,"rental_uris":{"android":"levelo://app?vid=81b07a05-4c57-4e76-99d6-5f6e3acbb201","ios":"levelo://app?vid=81b07a05-4c57-4e76-99d6-5f6e3acbb201"},"vehicle_type_id":"4","last_reported":1728378590,"current_range_meters":8000,"station_id":"cpo3342slgdg3j2ifvpg","pricing_plan_id":"cebpf4jnsgd1na2vs0mg"},{"bike_id":"caa1a0a4-f0d0-4d8b-bdff-7ca90d856e2b","system_id":"levelo_inurba_marseille","lat":43.31223,"lon":5.36863,"is_reserved":false,"is_disabled":false,"rental_uris":{"android":"levelo://app?vid=caa1a0a4-f0d0-4d8b-bdff-7ca90d856e2b","ios":"levelo://app?vid=caa1a0a4-f0d0-4d8b-bdff-7ca90d856e2b"},"vehicle_type_id":"4","last_reported":1728378590,"current_range_meters":28400,"station_id":"ce4bgl92rcd13ifvqbq0","pricing_plan_id":"cebpf4jnsgd1na2vs0mg"},{"bike_id":"553df947-caf6-4536-a36f-f5b78240b269","system_id":"levelo_inurba_marseille","lat":43.327114,"lon":5.391931,"is_reserved":false,"is_disabled":false,"rental_uris":{"android":"levelo://app?vid=553df947-caf6-4536-a36f-f5b78240b269","ios":"levelo://app?vid=553df947-caf6-4536-a36f-f5b78240b269"},"vehicle_type_id":"4","last_reported":1728378590,"current_range_meters":36400,"station_id":"","pricing_plan_id":"cebpf4jnsgd1na2vs0mg"},{"bike_id":"2860fea1-6b50-43f5-8998-d43e31b9ded2","system_id":"levelo_inurba_marseille","lat":43.29421,"lon":5.38619,"is_reserved":false,"is_disabled":false,"rental_uris":{"android":"levelo://app?vid=2860fea1-6b50-43f5-8998-d43e31b9ded2","ios":"levelo://app?vid=2860fea1-6b50-43f5-8998-d43e31b9ded2"},"vehicle_type_id":"4","last_reported":1728378590,"current_range_meters":14400,"station_id":"ce4bh2h2rcd13ifvqdh0","pricing_plan_id":"cebpf4jnsgd1na2vs0mg"},{"bike_id":"e9d4eb03-0b7a-4bae-b9ff-59d21a0cf381","system_id":"levelo_inurba_marseille","lat":43.29361,"lon":5.37829,"is_reserved":false,"is_disabled":false,"rental_uris":{"android":"levelo://app?vid=e9d4eb03-0b7a-4bae-b9ff-59d21a0cf381","ios":"levelo://app?vid=e9d4eb03-0b7a-4bae-b9ff-59d21a0cf381"},"vehicle_type_id":"4","last_reported":1728378590,"current_range_meters":18800,"station_id":"ce4bgjh2rcd13ifvqbf0","pricing_plan_id":"cebpf4jnsgd1na2vs0mg"},{"bike_id":"762dfd87-8ce0-4343-9247-678ec7b3cdab","system_id":"levelo_inurba_marseille","lat":43.27976,"lon":5.38751,"is_reserved":false,"is_disabled":false,"rental_uris":{"android":"levelo://app?vid=762dfd87-8ce0-4343-9247-678ec7b3cdab","ios":"levelo://app?vid=762dfd87-8ce0-4343-9247-678ec7b3cdab"},"vehicle_type_id":"4","last_reported":1728378590,"current_range_meters":25200,"station_id":"ce4bhg12rcd13ifvqf80","pricing_plan_id":"cebpf4jnsgd1na2vs0mg"},{"bike_id":"7aa99108-0320-4437-bbb5-f211f58bbb9f","system_id":"levelo_inurba_marseille","lat":43.292236,"lon":5.396057,"is_reserved":false,"is_disabled":false,"rental_uris":{"android":"levelo://app?vid=7aa99108-0320-4437-bbb5-f211f58bbb9f","ios":"levelo://app?vid=7aa99108-0320-4437-bbb5-f211f58bbb9f"},"vehicle_type_id":"4","last_reported":1728378590,"current_range_meters":22800,"station_id":"","pricing_plan_id":"cebpf4jnsgd1na2vs0mg"},{"bike_id":"f74b456e-4904-4388-ad75-19e35c0d94f8","system_id":"levelo_inurba_marseille","lat":43.29891,"lon":5.38462,"is_reserved":false,"is_disabled":false,"rental_uris":{"android":"levelo://app?vid=f74b456e-4904-4388-ad75-19e35c0d94f8","ios":"levelo://app?vid=f74b456e-4904-4388-ad75-19e35c0d94f8"},"vehicle_type_id":"4","last_reported":1728378590,"current_range_meters":30400,"station_id":"ce4bgh92rcd13ifvqb50","pricing_plan_id":"cebpf4jnsgd1na2vs0mg"},{"bike_id":"04e16607-5d45-4223-be78-cd7fbad55558","system_id":"levelo_inurba_marseille","lat":43.29581,"lon":5.36743,"is_reserved":false,"is_disabled":false,"rental_uris":{"android":"levelo://app?vid=04e16607-5d45-4223-be78-cd7fbad55558","ios":"levelo://app?vid=04e16607-5d45-4223-be78-cd7fbad55558"},"vehicle_type_id":"4","last_reported":1728378590,"current_range_meters":36000,"station_id":"ce4bgph2rcd13ifvqc2g","pricing_plan_id":"cebpf4jnsgd1na2vs0mg"},{"bike_id":"fcd951aa-2c4b-43f7-97fb-2a9f20027c5c","system_id":"levelo_inurba_marseille","lat":43.2407,"lon":5.37758,"is_reserved":false,"is_disabled":false,"rental_uris":{"android":"levelo://app?vid=fcd951aa-2c4b-43f7-97fb-2a9f20027c5c","ios":"levelo://app?vid=fcd951aa-2c4b-43f7-97fb-2a9f20027c5c"},"vehicle_type_id":"4","last_reported":1728378590,"current_range_meters":27200,"station_id":"ce4bhnp2rcd13ifvqgvg","pricing_plan_id":"cebpf4jnsgd1na2vs0mg"},{"bike_id":"7f22cb8f-89d4-4b60-a0b9-407c6db75e9f","system_id":"levelo_inurba_marseille","lat":43.33755,"lon":5.3745,"is_reserved":false,"is_disabled":false,"rental_uris":{"android":"levelo://app?vid=7f22cb8f-89d4-4b60-a0b9-407c6db75e9f","ios":"levelo://app?vid=7f22cb8f-89d4-4b60-a0b9-407c6db75e9f"},"vehicle_type_id":"4","last_reported":1728378590,"current_range_meters":32400,"station_id":"","pricing_plan_id":"cebpf4jnsgd1na2vs0mg"},{"bike_id":"8416b54c-6cc1-40d9-972e-776172218e59","system_id":"levelo_inurba_marseille","lat":43.26482,"lon":5.39549,"is_reserved":false,"is_disabled":false,"rental_uris":{"android":"levelo://app?vid=8416b54c-6cc1-40d9-972e-776172218e59","ios":"levelo://app?vid=8416b54c-6cc1-40d9-972e-776172218e59"},"vehicle_type_id":"4","last_reported":1728378590,"current_range_meters":20400,"station_id":"ce4bhi12rcd13ifvqfq0","pricing_plan_id":"cebpf4jnsgd1na2vs0mg"},{"bike_id":"663d807d-5236-4795-8907-d41427101515","system_id":"levelo_inurba_marseille","lat":43.33019,"lon":5.39033,"is_reserved":false,"is_disabled":false,"rental_uris":{"android":"levelo://app?vid=663d807d-5236-4795-8907-d41427101515","ios":"levelo://app?vid=663d807d-5236-4795-8907-d41427101515"},"vehicle_type_id":"4","last_reported":1728378590,"current_range_meters":37600,"station_id":"ce4bhr92rcd13ifvqhrg","pricing_plan_id":"cebpf4jnsgd1na2vs0mg"},{"bike_id":"0190a491-52c0-46a5-be20-b72d156a36de","system_id":"levelo_inurba_marseille","lat":43.31268,"lon":5.40166,"is_reserved":false,"is_disabled":false,"rental_uris":{"android":"levelo://app?vid=0190a491-52c0-46a5-be20-b72d156a36de","ios":"levelo://app?vid=0190a491-52c0-46a5-be20-b72d156a36de"},"vehicle_type_id":"4","last_reported":1728378590,"current_range_meters":33200,"station_id":"ce4bh092rcd13ifvqd30","pricing_plan_id":"cebpf4jnsgd1na2vs0mg"},{"bike_id":"066ccb90-6b9a-4302-bde4-9c97dfce747d","system_id":"levelo_inurba_marseille","lat":43.33724,"lon":5.39195,"is_reserved":false,"is_disabled":false,"rental_uris":{"android":"levelo://app?vid=066ccb90-6b9a-4302-bde4-9c97dfce747d","ios":"levelo://app?vid=066ccb90-6b9a-4302-bde4-9c97dfce747d"},"vehicle_type_id":"4","last_reported":1728378590,"current_range_meters":37600,"station_id":"ce4bhr92rcd13ifvqhsg","pricing_plan_id":"cebpf4jnsgd1na2vs0mg"},{"bike_id":"f50162c6-b604-4fac-8f3c-6b59d21e8e0f","system_id":"levelo_inurba_marseille","lat":43.24174,"lon":5.3973,"is_reserved":false,"is_disabled":false,"rental_uris":{"android":"levelo://app?vid=f50162c6-b604-4fac-8f3c-6b59d21e8e0f","ios":"levelo://app?vid=f50162c6-b604-4fac-8f3c-6b59d21e8e0f"},"vehicle_type_id":"4","last_reported":1728378590,"current_range_meters":11200,"station_id":"ce4bhn12rcd13ifvqgpg","pricing_plan_id":"cebpf4jnsgd1na2vs0mg"},{"bike_id":"ec7312b7-400d-4df3-a66d-0c4d4f9c38a0","system_id":"levelo_inurba_marseille","lat":43.30908,"lon":5.36856,"is_reserved":false,"is_disabled":false,"rental_uris":{"android":"levelo://app?vid=ec7312b7-400d-4df3-a66d-0c4d4f9c38a0","ios":"levelo://app?vid=ec7312b7-400d-4df3-a66d-0c4d4f9c38a0"},"vehicle_type_id":"4","last_reported":1728378590,"current_range_meters":24000,"station_id":"ce4bgn92rcd13ifvqbvg","pricing_plan_id":"cebpf4jnsgd1na2vs0mg"},{"bike_id":"12974a0f-2544-4d26-91a5-435eae1a2365","system_id":"levelo_inurba_marseille","lat":43.3169,"lon":5.40473,"is_reserved":false,"is_disabled":false,"rental_uris":{"android":"levelo://app?vid=12974a0f-2544-4d26-91a5-435eae1a2365","ios":"levelo://app?vid=12974a0f-2544-4d26-91a5-435eae1a2365"},"vehicle_type_id":"4","last_reported":1728378590,"current_range_meters":36800,"station_id":"ce4bh012rcd13ifvqd00","pricing_plan_id":"cebpf4jnsgd1na2vs0mg"},{"bike_id":"b86fc600-2b91-4b84-961b-f338f765214a","system_id":"levelo_inurba_marseille","lat":43.29573,"lon":5.37503,"is_reserved":false,"is_disabled":false,"rental_uris":{"android":"levelo://app?vid=b86fc600-2b91-4b84-961b-f338f765214a","ios":"levelo://app?vid=b86fc600-2b91-4b84-961b-f338f765214a"},"vehicle_type_id":"4","last_reported":1728378590,"current_range_meters":38000,"station_id":"ce4bgh92rcd13ifvqb50","pricing_plan_id":"cebpf4jnsgd1na2vs0mg"},{"bike_id":"acc98aff-5149-4b47-9960-d6248e233e6c","system_id":"levelo_inurba_marseille","lat":43.30895,"lon":5.39633,"is_reserved":false,"is_disabled":false,"rental_uris":{"android":"levelo://app?vid=acc98aff-5149-4b47-9960-d6248e233e6c","ios":"levelo://app?vid=acc98aff-5149-4b47-9960-d6248e233e6c"},"vehicle_type_id":"4","last_reported":1728378590,"current_range_meters":8400,"station_id":"ce4bh012rcd13ifvqcv0","pricing_plan_id":"cebpf4jnsgd1na2vs0mg"},{"bike_id":"963db0d0-a27d-422a-8c3c-17d986663a87","system_id":"levelo_inurba_marseille","lat":43.27488,"lon":5.4246,"is_reserved":false,"is_disabled":false,"rental_uris":{"android":"levelo://app?vid=963db0d0-a27d-422a-8c3c-17d986663a87","ios":"levelo://app?vid=963db0d0-a27d-422a-8c3c-17d986663a87"},"vehicle_type_id":"4","last_reported":1728378590,"current_range_meters":36800,"station_id":"ce4bhn92rcd13ifvqgrg","pricing_plan_id":"cebpf4jnsgd1na2vs0mg"},{"bike_id":"35db5aab-a536-4286-87d7-90ec43783f24","system_id":"levelo_inurba_marseille","lat":43.23193,"lon":5.35554,"is_reserved":false,"is_disabled":false,"rental_uris":{"android":"levelo://app?vid=35db5aab-a536-4286-87d7-90ec43783f24","ios":"levelo://app?vid=35db5aab-a536-4286-87d7-90ec43783f24"},"vehicle_type_id":"4","last_reported":1728378590,"current_range_meters":30800,"station_id":"ce4bhu92rcd13ifvqi70","pricing_plan_id":"cebpf4jnsgd1na2vs0mg"},{"bike_id":"336420f6-74ce-460d-8b4f-64be200db7dc","system_id":"levelo_inurba_marseille","lat":43.30902,"lon":5.36852,"is_reserved":false,"is_disabled":false,"rental_uris":{"android":"levelo://app?vid=336420f6-74ce-460d-8b4f-64be200db7dc","ios":"levelo://app?vid=336420f6-74ce-460d-8b4f-64be200db7dc"},"vehicle_type_id":"4","last_reported":1728378590,"current_range_meters":16000,"station_id":"ce4bgn92rcd13ifvqbvg","pricing_plan_id":"cebpf4jnsgd1na2vs0mg"},{"bike_id":"24c4519e-310e-426d-93a1-ff44ec0f9d1d","system_id":"levelo_inurba_marseille","lat":43.23149,"lon":5.43726,"is_reserved":false,"is_disabled":false,"rental_uris":{"android":"levelo://app?vid=24c4519e-310e-426d-93a1-ff44ec0f9d1d","ios":"levelo://app?vid=24c4519e-310e-426d-93a1-ff44ec0f9d1d"},"vehicle_type_id":"4","last_reported":1728378590,"current_range_meters":31200,"station_id":"ce4bhmp2rcd13ifvqgog","pricing_plan_id":"cebpf4jnsgd1na2vs0mg"},{"bike_id":"62dfd99c-f976-4937-b2d0-5b50f5ae699f","system_id":"levelo_inurba_marseille","lat":43.24168,"lon":5.36398,"is_reserved":false,"is_disabled":false,"rental_uris":{"android":"levelo://app?vid=62dfd99c-f976-4937-b2d0-5b50f5ae699f","ios":"levelo://app?vid=62dfd99c-f976-4937-b2d0-5b50f5ae699f"},"vehicle_type_id":"4","last_reported":1728378590,"current_range_meters":6400,"station_id":"cpo36qri1sfpv3e86is0","pricing_plan_id":"cebpf4jnsgd1na2vs0mg"},{"bike_id":"247dfbdc-2238-4e61-8208-907574d0d596","system_id":"levelo_inurba_marseille","lat":43.30284,"lon":5.37706,"is_reserved":false,"is_disabled":false,"rental_uris":{"android":"levelo://app?vid=247dfbdc-2238-4e61-8208-907574d0d596","ios":"levelo://app?vid=247dfbdc-2238-4e61-8208-907574d0d596"},"vehicle_type_id":"4","last_reported":1728378590,"current_range_meters":38400,"station_id":"ce4bguh2rcd13ifvqcj0","pricing_plan_id":"cebpf4jnsgd1na2vs0mg"},{"bike_id":"d5b8bfb4-409c-4850-a69d-4732b5060224","system_id":"levelo_inurba_marseille","lat":43.31367,"lon":5.36704,"is_reserved":false,"is_disabled":false,"rental_uris":{"android":"levelo://app?vid=d5b8bfb4-409c-4850-a69d-4732b5060224","ios":"levelo://app?vid=d5b8bfb4-409c-4850-a69d-4732b5060224"},"vehicle_type_id":"4","last_reported":1728378590,"current_range_meters":37600,"station_id":"ce4bgr92rcd13ifvqc6g","pricing_plan_id":"cebpf4jnsgd1na2vs0mg"},{"bike_id":"f4793b99-7728-4628-8857-6672386d2140","system_id":"levelo_inurba_marseille","lat":43.30192,"lon":5.36625,"is_reserved":false,"is_disabled":false,"rental_uris":{"android":"levelo://app?vid=f4793b99-7728-4628-8857-6672386d2140","ios":"levelo://app?vid=f4793b99-7728-4628-8857-6672386d2140"},"vehicle_type_id":"4","last_reported":1728378590,"current_range_meters":38000,"station_id":"ce4bgrh2rcd13ifvqc8g","pricing_plan_id":"cebpf4jnsgd1na2vs0mg"},{"bike_id":"51ea515d-944c-489c-8a74-b1f09acd3971","system_id":"levelo_inurba_marseille","lat":43.25578,"lon":5.38245,"is_reserved":false,"is_disabled":false,"rental_uris":{"android":"levelo://app?vid=51ea515d-944c-489c-8a74-b1f09acd3971","ios":"levelo://app?vid=51ea515d-944c-489c-8a74-b1f09acd3971"},"vehicle_type_id":"4","last_reported":1728378590,"current_range_meters":39200,"station_id":"ce4bhih2rcd13ifvqfs0","pricing_plan_id":"cebpf4jnsgd1na2vs0mg"},{"bike_id":"458ab060-5d31-4967-a0ab-0b614de9b702","system_id":"levelo_inurba_marseille","lat":43.29297,"lon":5.37457,"is_reserved":false,"is_disabled":false,"rental_uris":{"android":"levelo://app?vid=458ab060-5d31-4967-a0ab-0b614de9b702","ios":"levelo://app?vid=458ab060-5d31-4967-a0ab-0b614de9b702"},"vehicle_type_id":"4","last_reported":1728378590,"current_range_meters":5600,"station_id":"ce4bgi12rcd13ifvqb70","pricing_plan_id":"cebpf4jnsgd1na2vs0mg"},{"bike_id":"6b4225a0-fc3c-414f-ab5c-ac39d39bdac0","system_id":"levelo_inurba_marseille","lat":43.28987,"lon":5.37824,"is_reserved":false,"is_disabled":false,"rental_uris":{"android":"levelo://app?vid=6b4225a0-fc3c-414f-ab5c-ac39d39bdac0","ios":"levelo://app?vid=6b4225a0-fc3c-414f-ab5c-ac39d39bdac0"},"vehicle_type_id":"4","last_reported":1728378590,"current_range_meters":8000,"station_id":"ce4bh9p2rcd13ifvqed0","pricing_plan_id":"cebpf4jnsgd1na2vs0mg"},{"bike_id":"a7a6ddea-d4ca-4d55-b8ce-c157abf492cd","system_id":"levelo_inurba_marseille","lat":43.25932,"lon":5.40897,"is_reserved":false,"is_disabled":false,"rental_uris":{"android":"levelo://app?vid=a7a6ddea-d4ca-4d55-b8ce-c157abf492cd","ios":"levelo://app?vid=a7a6ddea-d4ca-4d55-b8ce-c157abf492cd"},"vehicle_type_id":"4","last_reported":1728378590,"current_range_meters":10000,"station_id":"ce4bhm92rcd13ifvqglg","pricing_plan_id":"cebpf4jnsgd1na2vs0mg"},{"bike_id":"71557b2f-0cba-4338-83db-d8c00bdfcacb","system_id":"levelo_inurba_marseille","lat":43.31712,"lon":5.37764,"is_reserved":false,"is_disabled":false,"rental_uris":{"android":"levelo://app?vid=71557b2f-0cba-4338-83db-d8c00bdfcacb","ios":"levelo://app?vid=71557b2f-0cba-4338-83db-d8c00bdfcacb"},"vehicle_type_id":"4","last_reported":1728378590,"current_range_meters":23200,"station_id":"ce4bgth2rcd13ifvqch0","pricing_plan_id":"cebpf4jnsgd1na2vs0mg"},{"bike_id":"c4cf2875-13a7-4faf-94c9-1e0420eb1156","system_id":"levelo_inurba_marseille","lat":43.30203,"lon":5.39471,"is_reserved":false,"is_disabled":false,"rental_uris":{"android":"levelo://app?vid=c4cf2875-13a7-4faf-94c9-1e0420eb1156","ios":"levelo://app?vid=c4cf2875-13a7-4faf-94c9-1e0420eb1156"},"vehicle_type_id":"4","last_reported":1728378590,"current_range_meters":20800,"station_id":"ce4bh0p2rcd13ifvqd70","pricing_plan_id":"cebpf4jnsgd1na2vs0mg"},{"bike_id":"825c2146-05a1-4266-ab11-4d2b5c44897f","system_id":"levelo_inurba_marseille","lat":43.29907,"lon":5.38155,"is_reserved":false,"is_disabled":false,"rental_uris":{"android":"levelo://app?vid=825c2146-05a1-4266-ab11-4d2b5c44897f","ios":"levelo://app?vid=825c2146-05a1-4266-ab11-4d2b5c44897f"},"vehicle_type_id":"4","last_reported":1728378590,"current_range_meters":38400,"station_id":"ce4bgj12rcd13ifvqbc0","pricing_plan_id":"cebpf4jnsgd1na2vs0mg"},{"bike_id":"9d0787ff-01e0-4693-9b58-540904cb2507","system_id":"levelo_inurba_marseille","lat":43.29193,"lon":5.35804,"is_reserved":false,"is_disabled":false,"rental_uris":{"android":"levelo://app?vid=9d0787ff-01e0-4693-9b58-540904cb2507","ios":"levelo://app?vid=9d0787ff-01e0-4693-9b58-540904cb2507"},"vehicle_type_id":"4","last_reported":1728378590,"current_range_meters":5600,"station_id":"ce4bhb12rcd13ifvqel0","pricing_plan_id":"cebpf4jnsgd1na2vs0mg"},{"bike_id":"55f10eb2-0793-4f33-9ab4-dc7c932e9d7a","system_id":"levelo_inurba_marseille","lat":43.28477,"lon":5.38559,"is_reserved":false,"is_disabled":false,"rental_uris":{"android":"levelo://app?vid=55f10eb2-0793-4f33-9ab4-dc7c932e9d7a","ios":"levelo://app?vid=55f10eb2-0793-4f33-9ab4-dc7c932e9d7a"},"vehicle_type_id":"4","last_reported":1728378590,"current_range_meters":10000,"station_id":"ce4bh8p2rcd13ifvqeb0","pricing_plan_id":"cebpf4jnsgd1na2vs0mg"},{"bike_id":"72f390d6-8036-4225-a9fd-bbdc6e34eeea","system_id":"levelo_inurba_marseille","lat":43.23189,"lon":5.39993,"is_reserved":false,"is_disabled":false,"rental_uris":{"android":"levelo://app?vid=72f390d6-8036-4225-a9fd-bbdc6e34eeea","ios":"levelo://app?vid=72f390d6-8036-4225-a9fd-bbdc6e34eeea"},"vehicle_type_id":"4","last_reported":1728378590,"current_range_meters":38000,"station_id":"ce4bhn12rcd13ifvqgqg","pricing_plan_id":"cebpf4jnsgd1na2vs0mg"},{"bike_id":"8b8a31b5-2d07-4ee0-b57e-4ddc8bcaba63","system_id":"levelo_inurba_marseille","lat":43.30154,"lon":5.38088,"is_reserved":false,"is_disabled":false,"rental_uris":{"android":"levelo://app?vid=8b8a31b5-2d07-4ee0-b57e-4ddc8bcaba63","ios":"levelo://app?vid=8b8a31b5-2d07-4ee0-b57e-4ddc8bcaba63"},"vehicle_type_id":"4","last_reported":1728378590,"current_range_meters":38800,"station_id":"ce4bgjp2rcd13ifvqbh0","pricing_plan_id":"cebpf4jnsgd1na2vs0mg"},{"bike_id":"28599adc-cefe-4dc4-9e60-2a07522c60e4","system_id":"levelo_inurba_marseille","lat":43.24803,"lon":5.37449,"is_reserved":false,"is_disabled":false,"rental_uris":{"android":"levelo://app?vid=28599adc-cefe-4dc4-9e60-2a07522c60e4","ios":"levelo://app?vid=28599adc-cefe-4dc4-9e60-2a07522c60e4"},"vehicle_type_id":"4","last_reported":1728378590,"current_range_meters":38800,"station_id":"ce4bhgh2rcd13ifvqfb0","pricing_plan_id":"cebpf4jnsgd1na2vs0mg"},{"bike_id":"4af55307-045f-4c66-a045-a91d88bb4c16","system_id":"levelo_inurba_marseille","lat":43.22932,"lon":5.35376,"is_reserved":false,"is_disabled":false,"rental_uris":{"android":"levelo://app?vid=4af55307-045f-4c66-a045-a91d88bb4c16","ios":"levelo://app?vid=4af55307-045f-4c66-a045-a91d88bb4c16"},"vehicle_type_id":"4","last_reported":1728378590,"current_range_meters":22400,"station_id":"cpo3532slgdg3j2ikp40","pricing_plan_id":"cebpf4jnsgd1na2vs0mg"},{"bike_id":"aa598db1-3c3a-48c0-acd0-1929a2b13407","system_id":"levelo_inurba_marseille","lat":43.31712,"lon":5.43708,"is_reserved":false,"is_disabled":false,"rental_uris":{"android":"levelo://app?vid=aa598db1-3c3a-48c0-acd0-1929a2b13407","ios":"levelo://app?vid=aa598db1-3c3a-48c0-acd0-1929a2b13407"},"vehicle_type_id":"4","last_reported":1728378590,"current_range_meters":38800,"station_id":"ce4bhp92rcd13ifvqhcg","pricing_plan_id":"cebpf4jnsgd1na2vs0mg"},{"bike_id":"47efe985-66e3-4fb1-a00d-60851f779f19","system_id":"levelo_inurba_marseille","lat":43.32538,"lon":5.41441,"is_reserved":false,"is_disabled":false,"rental_uris":{"android":"levelo://app?vid=47efe985-66e3-4fb1-a00d-60851f779f19","ios":"levelo://app?vid=47efe985-66e3-4fb1-a00d-60851f779f19"},"vehicle_type_id":"4","last_reported":1728378590,"current_range_meters":26800,"station_id":"ce4bhq12rcd13ifvqhhg","pricing_plan_id":"cebpf4jnsgd1na2vs0mg"},{"bike_id":"954377c4-cf56-446e-a5b1-322151537b83","system_id":"levelo_inurba_marseille","lat":43.23152,"lon":5.43719,"is_reserved":false,"is_disabled":false,"rental_uris":{"android":"levelo://app?vid=954377c4-cf56-446e-a5b1-322151537b83","ios":"levelo://app?vid=954377c4-cf56-446e-a5b1-322151537b83"},"vehicle_type_id":"4","last_reported":1728378590,"current_range_meters":6400,"station_id":"ce4bhmp2rcd13ifvqgog","pricing_plan_id":"cebpf4jnsgd1na2vs0mg"},{"bike_id":"ef1cf88d-9e1f-4158-8b37-1f0e3f35e886","system_id":"levelo_inurba_marseille","lat":43.29019,"lon":5.38141,"is_reserved":false,"is_disabled":false,"rental_uris":{"android":"levelo://app?vid=ef1cf88d-9e1f-4158-8b37-1f0e3f35e886","ios":"levelo://app?vid=ef1cf88d-9e1f-4158-8b37-1f0e3f35e886"},"vehicle_type_id":"4","last_reported":1728378590,"current_range_meters":38800,"station_id":"ce4bh4p2rcd13ifvqe1g","pricing_plan_id":"cebpf4jnsgd1na2vs0mg"},{"bike_id":"98f8d887-86dd-48a1-8fad-ec868dc0d206","system_id":"levelo_inurba_marseille","lat":43.27437,"lon":5.38546,"is_reserved":false,"is_disabled":false,"rental_uris":{"android":"levelo://app?vid=98f8d887-86dd-48a1-8fad-ec868dc0d206","ios":"levelo://app?vid=98f8d887-86dd-48a1-8fad-ec868dc0d206"},"vehicle_type_id":"4","last_reported":1728378590,"current_range_meters":34000,"station_id":"ce4bhh92rcd13ifvqfi0","pricing_plan_id":"cebpf4jnsgd1na2vs0mg"},{"bike_id":"480eecf8-5d47-4f93-815e-826c050e484c","system_id":"levelo_inurba_marseille","lat":43.31325,"lon":5.39693,"is_reserved":false,"is_disabled":false,"rental_uris":{"android":"levelo://app?vid=480eecf8-5d47-4f93-815e-826c050e484c","ios":"levelo://app?vid=480eecf8-5d47-4f93-815e-826c050e484c"},"vehicle_type_id":"4","last_reported":1728378590,"current_range_meters":38800,"station_id":"ce4bgvp2rcd13ifvqcu0","pricing_plan_id":"cebpf4jnsgd1na2vs0mg"},{"bike_id":"c12c46a4-bd86-493d-803e-5d507cd7924b","system_id":"levelo_inurba_marseille","lat":43.23197,"lon":5.35551,"is_reserved":false,"is_disabled":false,"rental_uris":{"android":"levelo://app?vid=c12c46a4-bd86-493d-803e-5d507cd7924b","ios":"levelo://app?vid=c12c46a4-bd86-493d-803e-5d507cd7924b"},"vehicle_type_id":"4","last_reported":1728378590,"current_range_meters":19200,"station_id":"ce4bhu92rcd13ifvqi70","pricing_plan_id":"cebpf4jnsgd1na2vs0mg"},{"bike_id":"1e22ea5d-d406-4b63-92d6-06a783dc0af8","system_id":"levelo_inurba_marseille","lat":43.23185,"lon":5.39978,"is_reserved":false,"is_disabled":false,"rental_uris":{"android":"levelo://app?vid=1e22ea5d-d406-4b63-92d6-06a783dc0af8","ios":"levelo://app?vid=1e22ea5d-d406-4b63-92d6-06a783dc0af8"},"vehicle_type_id":"4","last_reported":1728378590,"current_range_meters":19600,"station_id":"ce4bhn12rcd13ifvqgqg","pricing_plan_id":"cebpf4jnsgd1na2vs0mg"},{"bike_id":"998e2e49-4cc9-46e9-b5f3-912af191a3c2","system_id":"levelo_inurba_marseille","lat":43.25082,"lon":5.39521,"is_reserved":false,"is_disabled":false,"rental_uris":{"android":"levelo://app?vid=998e2e49-4cc9-46e9-b5f3-912af191a3c2","ios":"levelo://app?vid=998e2e49-4cc9-46e9-b5f3-912af191a3c2"},"vehicle_type_id":"4","last_reported":1728378590,"current_range_meters":23200,"station_id":"ce4bhm12rcd13ifvqgkg","pricing_plan_id":"cebpf4jnsgd1na2vs0mg"},{"bike_id":"f5bb8d98-44a5-49f3-a016-96042b7ca5f4","system_id":"levelo_inurba_marseille","lat":43.27564,"lon":5.38428,"is_reserved":false,"is_disabled":false,"rental_uris":{"android":"levelo://app?vid=f5bb8d98-44a5-49f3-a016-96042b7ca5f4","ios":"levelo://app?vid=f5bb8d98-44a5-49f3-a016-96042b7ca5f4"},"vehicle_type_id":"4","last_reported":1728378590,"current_range_meters":38800,"station_id":"ce4bhh92rcd13ifvqfi0","pricing_plan_id":"cebpf4jnsgd1na2vs0mg"},{"bike_id":"41ba639b-5ba8-493f-8faa-237875b093d0","system_id":"levelo_inurba_marseille","lat":43.24387,"lon":5.37059,"is_reserved":false,"is_disabled":false,"rental_uris":{"android":"levelo://app?vid=41ba639b-5ba8-493f-8faa-237875b093d0","ios":"levelo://app?vid=41ba639b-5ba8-493f-8faa-237875b093d0"},"vehicle_type_id":"4","last_reported":1728378590,"current_range_meters":28800,"station_id":"ce4bhhh2rcd13ifvqfk0","pricing_plan_id":"cebpf4jnsgd1na2vs0mg"},{"bike_id":"fc9bcf4c-771a-4343-bdc2-d50e643aa836","system_id":"levelo_inurba_marseille","lat":43.23154,"lon":5.43712,"is_reserved":false,"is_disabled":false,"rental_uris":{"android":"levelo://app?vid=fc9bcf4c-771a-4343-bdc2-d50e643aa836","ios":"levelo://app?vid=fc9bcf4c-771a-4343-bdc2-d50e643aa836"},"vehicle_type_id":"4","last_reported":1728378590,"current_range_meters":11600,"station_id":"ce4bhmp2rcd13ifvqgog","pricing_plan_id":"cebpf4jnsgd1na2vs0mg"},{"bike_id":"eb8fc8ee-c5fc-4298-a869-d0284f45a890","system_id":"levelo_inurba_marseille","lat":43.32366,"lon":5.38884,"is_reserved":false,"is_disabled":false,"rental_uris":{"android":"levelo://app?vid=eb8fc8ee-c5fc-4298-a869-d0284f45a890","ios":"levelo://app?vid=eb8fc8ee-c5fc-4298-a869-d0284f45a890"},"vehicle_type_id":"4","last_reported":1728378590,"current_range_meters":34800,"station_id":"ce4bhqp2rcd13ifvqhog","pricing_plan_id":"cebpf4jnsgd1na2vs0mg"},{"bike_id":"b6640f17-7ab3-4932-bbd1-5fe22e83845e","system_id":"levelo_inurba_marseille","lat":43.32291,"lon":5.38271,"is_reserved":false,"is_disabled":false,"rental_uris":{"android":"levelo://app?vid=b6640f17-7ab3-4932-bbd1-5fe22e83845e","ios":"levelo://app?vid=b6640f17-7ab3-4932-bbd1-5fe22e83845e"},"vehicle_type_id":"4","last_reported":1728378590,"current_range_meters":38800,"station_id":"ce4bhr12rcd13ifvqhqg","pricing_plan_id":"cebpf4jnsgd1na2vs0mg"},{"bike_id":"d655940a-d6dd-445d-bf38-d1d1ffaecc63","system_id":"levelo_inurba_marseille","lat":43.30557,"lon":5.36711,"is_reserved":false,"is_disabled":false,"rental_uris":{"android":"levelo://app?vid=d655940a-d6dd-445d-bf38-d1d1ffaecc63","ios":"levelo://app?vid=d655940a-d6dd-445d-bf38-d1d1ffaecc63"},"vehicle_type_id":"4","last_reported":1728378590,"current_range_meters":12800,"station_id":"ce4bgrp2rcd13ifvqc9g","pricing_plan_id":"cebpf4jnsgd1na2vs0mg"},{"bike_id":"21315382-5bf4-4726-a3f8-7d0b6f1cc7e1","system_id":"levelo_inurba_marseille","lat":43.29726,"lon":5.37687,"is_reserved":false,"is_disabled":false,"rental_uris":{"android":"levelo://app?vid=21315382-5bf4-4726-a3f8-7d0b6f1cc7e1","ios":"levelo://app?vid=21315382-5bf4-4726-a3f8-7d0b6f1cc7e1"},"vehicle_type_id":"4","last_reported":1728378590,"current_range_meters":37600,"station_id":"ce4bgkh2rcd13ifvqbl0","pricing_plan_id":"cebpf4jnsgd1na2vs0mg"},{"bike_id":"bc884bab-7cdf-4100-874d-71d6c86a7840","system_id":"levelo_inurba_marseille","lat":43.28267,"lon":5.35075,"is_reserved":false,"is_disabled":false,"rental_uris":{"android":"levelo://app?vid=bc884bab-7cdf-4100-874d-71d6c86a7840","ios":"levelo://app?vid=bc884bab-7cdf-4100-874d-71d6c86a7840"},"vehicle_type_id":"4","last_reported":1728378590,"current_range_meters":38000,"station_id":"ce4bhbp2rcd13ifvqerg","pricing_plan_id":"cebpf4jnsgd1na2vs0mg"},{"bike_id":"83be9ff0-5274-42f2-8232-51daab64e656","system_id":"levelo_inurba_marseille","lat":43.266083,"lon":5.394538,"is_reserved":false,"is_disabled":false,"rental_uris":{"android":"levelo://app?vid=83be9ff0-5274-42f2-8232-51daab64e656","ios":"levelo://app?vid=83be9ff0-5274-42f2-8232-51daab64e656"},"vehicle_type_id":"4","last_reported":1728378590,"current_range_meters":28000,"station_id":"ce4bh512rcd13ifvqe3g","pricing_plan_id":"cebpf4jnsgd1na2vs0mg"},{"bike_id":"95837ceb-6b80-4bc9-afd7-222f3f438634","system_id":"levelo_inurba_marseille","lat":43.26952,"lon":5.3862,"is_reserved":false,"is_disabled":false,"rental_uris":{"android":"levelo://app?vid=95837ceb-6b80-4bc9-afd7-222f3f438634","ios":"levelo://app?vid=95837ceb-6b80-4bc9-afd7-222f3f438634"},"vehicle_type_id":"4","last_reported":1728378590,"current_range_meters":39200,"station_id":"ce4bhh92rcd13ifvqfh0","pricing_plan_id":"cebpf4jnsgd1na2vs0mg"},{"bike_id":"f2318ff9-1c48-414c-ba93-720ba21616ce","system_id":"levelo_inurba_marseille","lat":43.27492,"lon":5.42452,"is_reserved":false,"is_disabled":false,"rental_uris":{"android":"levelo://app?vid=f2318ff9-1c48-414c-ba93-720ba21616ce","ios":"levelo://app?vid=f2318ff9-1c48-414c-ba93-720ba21616ce"},"vehicle_type_id":"4","last_reported":1728378590,"current_range_meters":32800,"station_id":"ce4bhn92rcd13ifvqgrg","pricing_plan_id":"cebpf4jnsgd1na2vs0mg"},{"bike_id":"51518c00-b5c7-480d-8547-a82c8d12269e","system_id":"levelo_inurba_marseille","lat":43.23154,"lon":5.43724,"is_reserved":false,"is_disabled":false,"rental_uris":{"android":"levelo://app?vid=51518c00-b5c7-480d-8547-a82c8d12269e","ios":"levelo://app?vid=51518c00-b5c7-480d-8547-a82c8d12269e"},"vehicle_type_id":"4","last_reported":1728378590,"current_range_meters":16800,"station_id":"ce4bhmp2rcd13ifvqgog","pricing_plan_id":"cebpf4jnsgd1na2vs0mg"},{"bike_id":"62c20907-37b0-4a30-9212-04239ba69697","system_id":"levelo_inurba_marseille","lat":43.3133,"lon":5.39693,"is_reserved":false,"is_disabled":false,"rental_uris":{"android":"levelo://app?vid=62c20907-37b0-4a30-9212-04239ba69697","ios":"levelo://app?vid=62c20907-37b0-4a30-9212-04239ba69697"},"vehicle_type_id":"4","last_reported":1728378590,"current_range_meters":38800,"station_id":"ce4bgvp2rcd13ifvqcu0","pricing_plan_id":"cebpf4jnsgd1na2vs0mg"},{"bike_id":"d00a3477-782a-4de0-b711-15ed9dd434f4","system_id":"levelo_inurba_marseille","lat":43.23049,"lon":5.35498,"is_reserved":false,"is_disabled":false,"rental_uris":{"android":"levelo://app?vid=d00a3477-782a-4de0-b711-15ed9dd434f4","ios":"levelo://app?vid=d00a3477-782a-4de0-b711-15ed9dd434f4"},"vehicle_type_id":"4","last_reported":1728378590,"current_range_meters":6000,"station_id":"cpo3342slgdg3j2ifvpg","pricing_plan_id":"cebpf4jnsgd1na2vs0mg"},{"bike_id":"1f2894cb-9f86-4c5b-bd23-4460a630d2a1","system_id":"levelo_inurba_marseille","lat":43.33608,"lon":5.41021,"is_reserved":false,"is_disabled":false,"rental_uris":{"android":"levelo://app?vid=1f2894cb-9f86-4c5b-bd23-4460a630d2a1","ios":"levelo://app?vid=1f2894cb-9f86-4c5b-bd23-4460a630d2a1"},"vehicle_type_id":"4","last_reported":1728378590,"current_range_meters":38000,"station_id":"ce4bhqh2rcd13ifvqhmg","pricing_plan_id":"cebpf4jnsgd1na2vs0mg"},{"bike_id":"5ba71456-09f6-4486-b845-7cd2887ffa1e","system_id":"levelo_inurba_marseille","lat":43.27549,"lon":5.38423,"is_reserved":false,"is_disabled":false,"rental_uris":{"android":"levelo://app?vid=5ba71456-09f6-4486-b845-7cd2887ffa1e","ios":"levelo://app?vid=5ba71456-09f6-4486-b845-7cd2887ffa1e"},"vehicle_type_id":"4","last_reported":1728378590,"current_range_meters":19200,"station_id":"ce4bhh92rcd13ifvqfi0","pricing_plan_id":"cebpf4jnsgd1na2vs0mg"},{"bike_id":"1d49f50f-e84f-411d-b2da-aa0b71327451","system_id":"levelo_inurba_marseille","lat":43.30909,"lon":5.36853,"is_reserved":false,"is_disabled":false,"rental_uris":{"android":"levelo://app?vid=1d49f50f-e84f-411d-b2da-aa0b71327451","ios":"levelo://app?vid=1d49f50f-e84f-411d-b2da-aa0b71327451"},"vehicle_type_id":"4","last_reported":1728378590,"current_range_meters":30800,"station_id":"ce4bgn92rcd13ifvqbvg","pricing_plan_id":"cebpf4jnsgd1na2vs0mg"},{"bike_id":"c41645cc-9ca8-4599-a273-1dfae7017ffb","system_id":"levelo_inurba_marseille","lat":43.31277,"lon":5.40174,"is_reserved":false,"is_disabled":false,"rental_uris":{"android":"levelo://app?vid=c41645cc-9ca8-4599-a273-1dfae7017ffb","ios":"levelo://app?vid=c41645cc-9ca8-4599-a273-1dfae7017ffb"},"vehicle_type_id":"4","last_reported":1728378590,"current_range_meters":9200,"station_id":"ce4bh092rcd13ifvqd30","pricing_plan_id":"cebpf4jnsgd1na2vs0mg"},{"bike_id":"0addcf89-f5f6-4899-92b3-5cd2981eb4de","system_id":"levelo_inurba_marseille","lat":43.31714,"lon":5.37754,"is_reserved":false,"is_disabled":false,"rental_uris":{"android":"levelo://app?vid=0addcf89-f5f6-4899-92b3-5cd2981eb4de","ios":"levelo://app?vid=0addcf89-f5f6-4899-92b3-5cd2981eb4de"},"vehicle_type_id":"4","last_reported":1728378590,"current_range_meters":36800,"station_id":"ce4bgth2rcd13ifvqch0","pricing_plan_id":"cebpf4jnsgd1na2vs0mg"},{"bike_id":"ba7281d9-65d2-41b7-a763-b45df716c2ec","system_id":"levelo_inurba_marseille","lat":43.29006,"lon":5.35617,"is_reserved":false,"is_disabled":false,"rental_uris":{"android":"levelo://app?vid=ba7281d9-65d2-41b7-a763-b45df716c2ec","ios":"levelo://app?vid=ba7281d9-65d2-41b7-a763-b45df716c2ec"},"vehicle_type_id":"4","last_reported":1728378590,"current_range_meters":22800,"station_id":"ce4bhb92rcd13ifvqen0","pricing_plan_id":"cebpf4jnsgd1na2vs0mg"},{"bike_id":"e8f38f77-6572-42be-9296-0cbe6e7cb972","system_id":"levelo_inurba_marseille","lat":43.23054,"lon":5.35492,"is_reserved":false,"is_disabled":false,"rental_uris":{"android":"levelo://app?vid=e8f38f77-6572-42be-9296-0cbe6e7cb972","ios":"levelo://app?vid=e8f38f77-6572-42be-9296-0cbe6e7cb972"},"vehicle_type_id":"4","last_reported":1728378590,"current_range_meters":32800,"station_id":"cpo3342slgdg3j2ifvpg","pricing_plan_id":"cebpf4jnsgd1na2vs0mg"},{"bike_id":"da2bef50-9604-4ee2-b6fe-7fbad7a1e331","system_id":"levelo_inurba_marseille","lat":43.31702,"lon":5.37775,"is_reserved":false,"is_disabled":false,"rental_uris":{"android":"levelo://app?vid=da2bef50-9604-4ee2-b6fe-7fbad7a1e331","ios":"levelo://app?vid=da2bef50-9604-4ee2-b6fe-7fbad7a1e331"},"vehicle_type_id":"4","last_reported":1728378590,"current_range_meters":38000,"station_id":"ce4bgth2rcd13ifvqch0","pricing_plan_id":"cebpf4jnsgd1na2vs0mg"},{"bike_id":"c82e04e9-ad0b-4de0-a926-3716c1e83d6c","system_id":"levelo_inurba_marseille","lat":43.28408,"lon":5.37521,"is_reserved":false,"is_disabled":false,"rental_uris":{"android":"levelo://app?vid=c82e04e9-ad0b-4de0-a926-3716c1e83d6c","ios":"levelo://app?vid=c82e04e9-ad0b-4de0-a926-3716c1e83d6c"},"vehicle_type_id":"4","last_reported":1728378590,"current_range_meters":38800,"station_id":"ce4bh412rcd13ifvqds0","pricing_plan_id":"cebpf4jnsgd1na2vs0mg"},{"bike_id":"7bbbb50e-11be-4858-b2ac-fffbd221bf46","system_id":"levelo_inurba_marseille","lat":43.29557,"lon":5.37518,"is_reserved":false,"is_disabled":false,"rental_uris":{"android":"levelo://app?vid=7bbbb50e-11be-4858-b2ac-fffbd221bf46","ios":"levelo://app?vid=7bbbb50e-11be-4858-b2ac-fffbd221bf46"},"vehicle_type_id":"4","last_reported":1728378590,"current_range_meters":10000,"station_id":"ce4bgh92rcd13ifvqb50","pricing_plan_id":"cebpf4jnsgd1na2vs0mg"},{"bike_id":"57d711d8-2b8b-4899-bf10-6ede2fe2fb1a","system_id":"levelo_inurba_marseille","lat":43.3088,"lon":5.37204,"is_reserved":false,"is_disabled":false,"rental_uris":{"android":"levelo://app?vid=57d711d8-2b8b-4899-bf10-6ede2fe2fb1a","ios":"levelo://app?vid=57d711d8-2b8b-4899-bf10-6ede2fe2fb1a"},"vehicle_type_id":"4","last_reported":1728378590,"current_range_meters":36000,"station_id":"ce4bguh2rcd13ifvqckg","pricing_plan_id":"cebpf4jnsgd1na2vs0mg"},{"bike_id":"485bc90e-76e5-4ef0-8a60-6695dcc5102a","system_id":"levelo_inurba_marseille","lat":43.32482,"lon":5.36573,"is_reserved":false,"is_disabled":false,"rental_uris":{"android":"levelo://app?vid=485bc90e-76e5-4ef0-8a60-6695dcc5102a","ios":"levelo://app?vid=485bc90e-76e5-4ef0-8a60-6695dcc5102a"},"vehicle_type_id":"4","last_reported":1728378590,"current_range_meters":12400,"station_id":"ce4bhs12rcd13ifvqhvg","pricing_plan_id":"cebpf4jnsgd1na2vs0mg"},{"bike_id":"77d131a6-db5f-44eb-adb1-7fc7032d111b","system_id":"levelo_inurba_marseille","lat":43.24648,"lon":5.38901,"is_reserved":false,"is_disabled":false,"rental_uris":{"android":"levelo://app?vid=77d131a6-db5f-44eb-adb1-7fc7032d111b","ios":"levelo://app?vid=77d131a6-db5f-44eb-adb1-7fc7032d111b"},"vehicle_type_id":"4","last_reported":1728378590,"current_range_meters":14400,"station_id":"ce4bhg12rcd13ifvqf60","pricing_plan_id":"cebpf4jnsgd1na2vs0mg"},{"bike_id":"daf4cb02-43e6-40b1-af02-6448d898b1e4","system_id":"levelo_inurba_marseille","lat":43.28149,"lon":5.42641,"is_reserved":false,"is_disabled":false,"rental_uris":{"android":"levelo://app?vid=daf4cb02-43e6-40b1-af02-6448d898b1e4","ios":"levelo://app?vid=daf4cb02-43e6-40b1-af02-6448d898b1e4"},"vehicle_type_id":"4","last_reported":1728378590,"current_range_meters":28400,"station_id":"ce4bhnh2rcd13ifvqgug","pricing_plan_id":"cebpf4jnsgd1na2vs0mg"},{"bike_id":"c05850ea-4342-4c26-b5a8-c76690fde6b5","system_id":"levelo_inurba_marseille","lat":43.29918,"lon":5.38142,"is_reserved":false,"is_disabled":false,"rental_uris":{"android":"levelo://app?vid=c05850ea-4342-4c26-b5a8-c76690fde6b5","ios":"levelo://app?vid=c05850ea-4342-4c26-b5a8-c76690fde6b5"},"vehicle_type_id":"4","last_reported":1728378590,"current_range_meters":37600,"station_id":"ce4bgj12rcd13ifvqbc0","pricing_plan_id":"cebpf4jnsgd1na2vs0mg"},{"bike_id":"20ecf6ba-4f45-436f-9fc7-1325f4f494f4","system_id":"levelo_inurba_marseille","lat":43.2911,"lon":5.38107,"is_reserved":false,"is_disabled":false,"rental_uris":{"android":"levelo://app?vid=20ecf6ba-4f45-436f-9fc7-1325f4f494f4","ios":"levelo://app?vid=20ecf6ba-4f45-436f-9fc7-1325f4f494f4"},"vehicle_type_id":"4","last_reported":1728378590,"current_range_meters":31200,"station_id":"ce4bh512rcd13ifvqe2g","pricing_plan_id":"cebpf4jnsgd1na2vs0mg"},{"bike_id":"1e572d13-e9e5-4d70-a9f1-ccff66fd5efe","system_id":"levelo_inurba_marseille","lat":43.31217,"lon":5.36857,"is_reserved":false,"is_disabled":false,"rental_uris":{"android":"levelo://app?vid=1e572d13-e9e5-4d70-a9f1-ccff66fd5efe","ios":"levelo://app?vid=1e572d13-e9e5-4d70-a9f1-ccff66fd5efe"},"vehicle_type_id":"4","last_reported":1728378590,"current_range_meters":25600,"station_id":"ce4bgl92rcd13ifvqbq0","pricing_plan_id":"cebpf4jnsgd1na2vs0mg"},{"bike_id":"6c4e88ed-e84b-44cb-b34f-ad52f7e8f702","system_id":"levelo_inurba_marseille","lat":43.29002,"lon":5.35617,"is_reserved":false,"is_disabled":false,"rental_uris":{"android":"levelo://app?vid=6c4e88ed-e84b-44cb-b34f-ad52f7e8f702","ios":"levelo://app?vid=6c4e88ed-e84b-44cb-b34f-ad52f7e8f702"},"vehicle_type_id":"4","last_reported":1728378590,"current_range_meters":29600,"station_id":"ce4bhb92rcd13ifvqen0","pricing_plan_id":"cebpf4jnsgd1na2vs0mg"},{"bike_id":"2f4b888d-5c74-4153-900e-18576b429381","system_id":"levelo_inurba_marseille","lat":43.31696,"lon":5.4046,"is_reserved":false,"is_disabled":false,"rental_uris":{"android":"levelo://app?vid=2f4b888d-5c74-4153-900e-18576b429381","ios":"levelo://app?vid=2f4b888d-5c74-4153-900e-18576b429381"},"vehicle_type_id":"4","last_reported":1728378590,"current_range_meters":36800,"station_id":"ce4bh012rcd13ifvqd00","pricing_plan_id":"cebpf4jnsgd1na2vs0mg"},{"bike_id":"49244ba5-d85f-432a-9dcc-80e7eaef97ac","system_id":"levelo_inurba_marseille","lat":43.31333,"lon":5.39693,"is_reserved":false,"is_disabled":false,"rental_uris":{"android":"levelo://app?vid=49244ba5-d85f-432a-9dcc-80e7eaef97ac","ios":"levelo://app?vid=49244ba5-d85f-432a-9dcc-80e7eaef97ac"},"vehicle_type_id":"4","last_reported":1728378590,"current_range_meters":4800,"station_id":"ce4bgvp2rcd13ifvqcu0","pricing_plan_id":"cebpf4jnsgd1na2vs0mg"},{"bike_id":"6a7984cc-f518-40dd-ab2e-99cb03ed4821","system_id":"levelo_inurba_marseille","lat":43.26676,"lon":5.38263,"is_reserved":false,"is_disabled":false,"rental_uris":{"android":"levelo://app?vid=6a7984cc-f518-40dd-ab2e-99cb03ed4821","ios":"levelo://app?vid=6a7984cc-f518-40dd-ab2e-99cb03ed4821"},"vehicle_type_id":"4","last_reported":1728378590,"current_range_meters":31200,"station_id":"ce4bhg92rcd13ifvqf90","pricing_plan_id":"cebpf4jnsgd1na2vs0mg"},{"bike_id":"ce9937f7-150e-4f28-b18b-01d864c29354","system_id":"levelo_inurba_marseille","lat":43.29196,"lon":5.35803,"is_reserved":false,"is_disabled":false,"rental_uris":{"android":"levelo://app?vid=ce9937f7-150e-4f28-b18b-01d864c29354","ios":"levelo://app?vid=ce9937f7-150e-4f28-b18b-01d864c29354"},"vehicle_type_id":"4","last_reported":1728378590,"current_range_meters":27200,"station_id":"ce4bhb12rcd13ifvqel0","pricing_plan_id":"cebpf4jnsgd1na2vs0mg"},{"bike_id":"409eb33b-1407-4c77-9cae-11fe7c9175ae","system_id":"levelo_inurba_marseille","lat":43.27493,"lon":5.42454,"is_reserved":false,"is_disabled":false,"rental_uris":{"android":"levelo://app?vid=409eb33b-1407-4c77-9cae-11fe7c9175ae","ios":"levelo://app?vid=409eb33b-1407-4c77-9cae-11fe7c9175ae"},"vehicle_type_id":"4","last_reported":1728378590,"current_range_meters":16800,"station_id":"ce4bhn92rcd13ifvqgrg","pricing_plan_id":"cebpf4jnsgd1na2vs0mg"},{"bike_id":"b5142c12-3f3f-452c-853c-bcb33ce12fbf","system_id":"levelo_inurba_marseille","lat":43.23194,"lon":5.35551,"is_reserved":false,"is_disabled":false,"rental_uris":{"android":"levelo://app?vid=b5142c12-3f3f-452c-853c-bcb33ce12fbf","ios":"levelo://app?vid=b5142c12-3f3f-452c-853c-bcb33ce12fbf"},"vehicle_type_id":"4","last_reported":1728378590,"current_range_meters":38000,"station_id":"ce4bhu92rcd13ifvqi70","pricing_plan_id":"cebpf4jnsgd1na2vs0mg"},{"bike_id":"309d6ee4-3367-453d-b330-32e736c0b81c","system_id":"levelo_inurba_marseille","lat":43.29956,"lon":5.41322,"is_reserved":false,"is_disabled":false,"rental_uris":{"android":"levelo://app?vid=309d6ee4-3367-453d-b330-32e736c0b81c","ios":"levelo://app?vid=309d6ee4-3367-453d-b330-32e736c0b81c"},"vehicle_type_id":"4","last_reported":1728378590,"current_range_meters":35600,"station_id":"ce4bhp12rcd13ifvqh9g","pricing_plan_id":"cebpf4jnsgd1na2vs0mg"},{"bike_id":"63058893-c509-445b-b19e-dd0a41d11d9d","system_id":"levelo_inurba_marseille","lat":43.299957,"lon":5.374352,"is_reserved":false,"is_disabled":false,"rental_uris":{"android":"levelo://app?vid=63058893-c509-445b-b19e-dd0a41d11d9d","ios":"levelo://app?vid=63058893-c509-445b-b19e-dd0a41d11d9d"},"vehicle_type_id":"4","last_reported":1728378590,"current_range_meters":26000,"station_id":"ce4bhqp2rcd13ifvqhng","pricing_plan_id":"cebpf4jnsgd1na2vs0mg"},{"bike_id":"07da7e27-0e31-4df8-a274-b76408a0f862","system_id":"levelo_inurba_marseille","lat":43.29555,"lon":5.42295,"is_reserved":false,"is_disabled":false,"rental_uris":{"android":"levelo://app?vid=07da7e27-0e31-4df8-a274-b76408a0f862","ios":"levelo://app?vid=07da7e27-0e31-4df8-a274-b76408a0f862"},"vehicle_type_id":"4","last_reported":1728378590,"current_range_meters":38000,"station_id":"ce4bhph2rcd13ifvqhdg","pricing_plan_id":"cebpf4jnsgd1na2vs0mg"},{"bike_id":"513184d9-4a6b-49fd-81e0-1b13bcd19fd6","system_id":"levelo_inurba_marseille","lat":43.28418,"lon":5.40043,"is_reserved":false,"is_disabled":false,"rental_uris":{"android":"levelo://app?vid=513184d9-4a6b-49fd-81e0-1b13bcd19fd6","ios":"levelo://app?vid=513184d9-4a6b-49fd-81e0-1b13bcd19fd6"},"vehicle_type_id":"4","last_reported":1728378590,"current_range_meters":23200,"station_id":"","pricing_plan_id":"cebpf4jnsgd1na2vs0mg"},{"bike_id":"c6a829e4-11e7-4c5d-8eac-a07399119d67","system_id":"levelo_inurba_marseille","lat":43.28272,"lon":5.3506,"is_reserved":false,"is_disabled":false,"rental_uris":{"android":"levelo://app?vid=c6a829e4-11e7-4c5d-8eac-a07399119d67","ios":"levelo://app?vid=c6a829e4-11e7-4c5d-8eac-a07399119d67"},"vehicle_type_id":"4","last_reported":1728378590,"current_range_meters":19200,"station_id":"ce4bhbp2rcd13ifvqerg","pricing_plan_id":"cebpf4jnsgd1na2vs0mg"},{"bike_id":"92a71a1a-a766-4079-b07b-f2597f98efcb","system_id":"levelo_inurba_marseille","lat":43.32361,"lon":5.38877,"is_reserved":false,"is_disabled":false,"rental_uris":{"android":"levelo://app?vid=92a71a1a-a766-4079-b07b-f2597f98efcb","ios":"levelo://app?vid=92a71a1a-a766-4079-b07b-f2597f98efcb"},"vehicle_type_id":"4","last_reported":1728378590,"current_range_meters":27600,"station_id":"ce4bhqp2rcd13ifvqhog","pricing_plan_id":"cebpf4jnsgd1na2vs0mg"},{"bike_id":"93d45870-2e1c-4ed1-9664-7b219a4ed443","system_id":"levelo_inurba_marseille","lat":43.22927,"lon":5.35381,"is_reserved":false,"is_disabled":false,"rental_uris":{"android":"levelo://app?vid=93d45870-2e1c-4ed1-9664-7b219a4ed443","ios":"levelo://app?vid=93d45870-2e1c-4ed1-9664-7b219a4ed443"},"vehicle_type_id":"4","last_reported":1728378590,"current_range_meters":32000,"station_id":"cpo3532slgdg3j2ikp40","pricing_plan_id":"cebpf4jnsgd1na2vs0mg"},{"bike_id":"41383494-62f0-495d-af60-15e1c19da96d","system_id":"levelo_inurba_marseille","lat":43.29562,"lon":5.37511,"is_reserved":false,"is_disabled":false,"rental_uris":{"android":"levelo://app?vid=41383494-62f0-495d-af60-15e1c19da96d","ios":"levelo://app?vid=41383494-62f0-495d-af60-15e1c19da96d"},"vehicle_type_id":"4","last_reported":1728378590,"current_range_meters":24800,"station_id":"ce4bgh92rcd13ifvqb50","pricing_plan_id":"cebpf4jnsgd1na2vs0mg"},{"bike_id":"897de76e-ad41-4185-9858-0e43dec53069","system_id":"levelo_inurba_marseille","lat":43.32531,"lon":5.41446,"is_reserved":false,"is_disabled":false,"rental_uris":{"android":"levelo://app?vid=897de76e-ad41-4185-9858-0e43dec53069","ios":"levelo://app?vid=897de76e-ad41-4185-9858-0e43dec53069"},"vehicle_type_id":"4","last_reported":1728378590,"current_range_meters":14800,"station_id":"ce4bhq12rcd13ifvqhhg","pricing_plan_id":"cebpf4jnsgd1na2vs0mg"},{"bike_id":"0e3bfff6-2bee-4be5-8568-766c0160a493","system_id":"levelo_inurba_marseille","lat":43.31702,"lon":5.43706,"is_reserved":false,"is_disabled":false,"rental_uris":{"android":"levelo://app?vid=0e3bfff6-2bee-4be5-8568-766c0160a493","ios":"levelo://app?vid=0e3bfff6-2bee-4be5-8568-766c0160a493"},"vehicle_type_id":"4","last_reported":1728378590,"current_range_meters":8400,"station_id":"ce4bhp92rcd13ifvqhcg","pricing_plan_id":"cebpf4jnsgd1na2vs0mg"},{"bike_id":"d412ca17-d85b-4711-b723-85e987c4d11d","system_id":"levelo_inurba_marseille","lat":43.299095,"lon":5.38149,"is_reserved":false,"is_disabled":false,"rental_uris":{"android":"levelo://app?vid=d412ca17-d85b-4711-b723-85e987c4d11d","ios":"levelo://app?vid=d412ca17-d85b-4711-b723-85e987c4d11d"},"vehicle_type_id":"4","last_reported":1728378590,"current_range_meters":38800,"station_id":"ce4bgj12rcd13ifvqbc0","pricing_plan_id":"cebpf4jnsgd1na2vs0mg"},{"bike_id":"d073c59d-1b40-46df-b66a-07ca7926c385","system_id":"levelo_inurba_marseille","lat":43.30139,"lon":5.3987,"is_reserved":false,"is_disabled":false,"rental_uris":{"android":"levelo://app?vid=d073c59d-1b40-46df-b66a-07ca7926c385","ios":"levelo://app?vid=d073c59d-1b40-46df-b66a-07ca7926c385"},"vehicle_type_id":"4","last_reported":1728378590,"current_range_meters":24000,"station_id":"ce4bh0h2rcd13ifvqd40","pricing_plan_id":"cebpf4jnsgd1na2vs0mg"},{"bike_id":"ccc17164-6456-4916-af4b-b0ad35eeb52d","system_id":"levelo_inurba_marseille","lat":43.28155,"lon":5.42647,"is_reserved":false,"is_disabled":false,"rental_uris":{"android":"levelo://app?vid=ccc17164-6456-4916-af4b-b0ad35eeb52d","ios":"levelo://app?vid=ccc17164-6456-4916-af4b-b0ad35eeb52d"},"vehicle_type_id":"4","last_reported":1728378590,"current_range_meters":24800,"station_id":"ce4bhnh2rcd13ifvqgug","pricing_plan_id":"cebpf4jnsgd1na2vs0mg"},{"bike_id":"517b31bb-7aee-44ba-98f2-10063971413a","system_id":"levelo_inurba_marseille","lat":43.27053,"lon":5.40262,"is_reserved":false,"is_disabled":false,"rental_uris":{"android":"levelo://app?vid=517b31bb-7aee-44ba-98f2-10063971413a","ios":"levelo://app?vid=517b31bb-7aee-44ba-98f2-10063971413a"},"vehicle_type_id":"4","last_reported":1728378590,"current_range_meters":20800,"station_id":"ce4bhk92rcd13ifvqgc0","pricing_plan_id":"cebpf4jnsgd1na2vs0mg"},{"bike_id":"83ca7793-fb7f-4f63-843d-a13c4fc0bddf","system_id":"levelo_inurba_marseille","lat":43.25941,"lon":5.40899,"is_reserved":false,"is_disabled":false,"rental_uris":{"android":"levelo://app?vid=83ca7793-fb7f-4f63-843d-a13c4fc0bddf","ios":"levelo://app?vid=83ca7793-fb7f-4f63-843d-a13c4fc0bddf"},"vehicle_type_id":"4","last_reported":1728378590,"current_range_meters":32400,"station_id":"ce4bhm92rcd13ifvqglg","pricing_plan_id":"cebpf4jnsgd1na2vs0mg"},{"bike_id":"5baf043c-e564-4d63-a1f2-b7b54836ab59","system_id":"levelo_inurba_marseille","lat":43.30196,"lon":5.39479,"is_reserved":false,"is_disabled":false,"rental_uris":{"android":"levelo://app?vid=5baf043c-e564-4d63-a1f2-b7b54836ab59","ios":"levelo://app?vid=5baf043c-e564-4d63-a1f2-b7b54836ab59"},"vehicle_type_id":"4","last_reported":1728378590,"current_range_meters":26800,"station_id":"ce4bh0p2rcd13ifvqd70","pricing_plan_id":"cebpf4jnsgd1na2vs0mg"},{"bike_id":"9b6b5881-a380-4c2c-a61f-60264745454a","system_id":"levelo_inurba_marseille","lat":43.28479,"lon":5.38412,"is_reserved":false,"is_disabled":false,"rental_uris":{"android":"levelo://app?vid=9b6b5881-a380-4c2c-a61f-60264745454a","ios":"levelo://app?vid=9b6b5881-a380-4c2c-a61f-60264745454a"},"vehicle_type_id":"4","last_reported":1728378590,"current_range_meters":38800,"station_id":"ce4bh512rcd13ifvqe3g","pricing_plan_id":"cebpf4jnsgd1na2vs0mg"},{"bike_id":"93a538e2-33d2-44e2-ac66-feb42e05dfad","system_id":"levelo_inurba_marseille","lat":43.24165,"lon":5.36392,"is_reserved":false,"is_disabled":false,"rental_uris":{"android":"levelo://app?vid=93a538e2-33d2-44e2-ac66-feb42e05dfad","ios":"levelo://app?vid=93a538e2-33d2-44e2-ac66-feb42e05dfad"},"vehicle_type_id":"4","last_reported":1728378590,"current_range_meters":25200,"station_id":"cpo36qri1sfpv3e86is0","pricing_plan_id":"cebpf4jnsgd1na2vs0mg"},{"bike_id":"dd9798d1-5fe6-4495-9394-c9c4e9fde239","system_id":"levelo_inurba_marseille","lat":43.29637,"lon":5.40595,"is_reserved":false,"is_disabled":false,"rental_uris":{"android":"levelo://app?vid=dd9798d1-5fe6-4495-9394-c9c4e9fde239","ios":"levelo://app?vid=dd9798d1-5fe6-4495-9394-c9c4e9fde239"},"vehicle_type_id":"4","last_reported":1728378590,"current_range_meters":38000,"station_id":"ce4bh0h2rcd13ifvqd60","pricing_plan_id":"cebpf4jnsgd1na2vs0mg"},{"bike_id":"472a1f42-a951-4c1b-9fa0-aa85eff3bb7f","system_id":"levelo_inurba_marseille","lat":43.28264,"lon":5.3508,"is_reserved":false,"is_disabled":false,"rental_uris":{"android":"levelo://app?vid=472a1f42-a951-4c1b-9fa0-aa85eff3bb7f","ios":"levelo://app?vid=472a1f42-a951-4c1b-9fa0-aa85eff3bb7f"},"vehicle_type_id":"4","last_reported":1728378590,"current_range_meters":37600,"station_id":"ce4bhbp2rcd13ifvqerg","pricing_plan_id":"cebpf4jnsgd1na2vs0mg"},{"bike_id":"a758b7ad-50ca-44a9-baf5-9b94eedca986","system_id":"levelo_inurba_marseille","lat":43.27491,"lon":5.42459,"is_reserved":false,"is_disabled":false,"rental_uris":{"android":"levelo://app?vid=a758b7ad-50ca-44a9-baf5-9b94eedca986","ios":"levelo://app?vid=a758b7ad-50ca-44a9-baf5-9b94eedca986"},"vehicle_type_id":"4","last_reported":1728378590,"current_range_meters":38800,"station_id":"ce4bhn92rcd13ifvqgrg","pricing_plan_id":"cebpf4jnsgd1na2vs0mg"},{"bike_id":"383b720f-1ca4-4499-860d-a106b25540b3","system_id":"levelo_inurba_marseille","lat":43.27563,"lon":5.38436,"is_reserved":false,"is_disabled":false,"rental_uris":{"android":"levelo://app?vid=383b720f-1ca4-4499-860d-a106b25540b3","ios":"levelo://app?vid=383b720f-1ca4-4499-860d-a106b25540b3"},"vehicle_type_id":"4","last_reported":1728378590,"current_range_meters":22800,"station_id":"ce4bhh92rcd13ifvqfi0","pricing_plan_id":"cebpf4jnsgd1na2vs0mg"},{"bike_id":"2a9899af-5714-4404-b731-ffd6243bebc6","system_id":"levelo_inurba_marseille","lat":43.2842,"lon":5.34987,"is_reserved":false,"is_disabled":false,"rental_uris":{"android":"levelo://app?vid=2a9899af-5714-4404-b731-ffd6243bebc6","ios":"levelo://app?vid=2a9899af-5714-4404-b731-ffd6243bebc6"},"vehicle_type_id":"4","last_reported":1728378590,"current_range_meters":28800,"station_id":"ce4bhbh2rcd13ifvqepg","pricing_plan_id":"cebpf4jnsgd1na2vs0mg"},{"bike_id":"a24a0a4b-89ff-4753-9358-b721c4492730","system_id":"levelo_inurba_marseille","lat":43.25004,"lon":5.38925,"is_reserved":false,"is_disabled":false,"rental_uris":{"android":"levelo://app?vid=a24a0a4b-89ff-4753-9358-b721c4492730","ios":"levelo://app?vid=a24a0a4b-89ff-4753-9358-b721c4492730"},"vehicle_type_id":"4","last_reported":1728378590,"current_range_meters":39200,"station_id":"ce4bhgp2rcd13ifvqfd0","pricing_plan_id":"cebpf4jnsgd1na2vs0mg"},{"bike_id":"51252150-6263-4793-9b8b-46506e295cb3","system_id":"levelo_inurba_marseille","lat":43.31692,"lon":5.40469,"is_reserved":false,"is_disabled":false,"rental_uris":{"android":"levelo://app?vid=51252150-6263-4793-9b8b-46506e295cb3","ios":"levelo://app?vid=51252150-6263-4793-9b8b-46506e295cb3"},"vehicle_type_id":"4","last_reported":1728378590,"current_range_meters":37600,"station_id":"ce4bh012rcd13ifvqd00","pricing_plan_id":"cebpf4jnsgd1na2vs0mg"},{"bike_id":"a92f6206-1720-4e29-9ed4-ca1db6a5dc4b","system_id":"levelo_inurba_marseille","lat":43.29909,"lon":5.37475,"is_reserved":false,"is_disabled":false,"rental_uris":{"android":"levelo://app?vid=a92f6206-1720-4e29-9ed4-ca1db6a5dc4b","ios":"levelo://app?vid=a92f6206-1720-4e29-9ed4-ca1db6a5dc4b"},"vehicle_type_id":"4","last_reported":1728378590,"current_range_meters":31200,"station_id":"ce4bgjh2rcd13ifvqbg0","pricing_plan_id":"cebpf4jnsgd1na2vs0mg"},{"bike_id":"98459ce7-f863-46d1-932f-b1d6988cd971","system_id":"levelo_inurba_marseille","lat":43.304633,"lon":5.379092,"is_reserved":false,"is_disabled":false,"rental_uris":{"android":"levelo://app?vid=98459ce7-f863-46d1-932f-b1d6988cd971","ios":"levelo://app?vid=98459ce7-f863-46d1-932f-b1d6988cd971"},"vehicle_type_id":"4","last_reported":1728378590,"current_range_meters":30000,"station_id":"ce4bhop2rcd13ifvqh8g","pricing_plan_id":"cebpf4jnsgd1na2vs0mg"},{"bike_id":"7aa0ab8b-09e0-4724-b831-d9734d5ddcfd","system_id":"levelo_inurba_marseille","lat":43.30906,"lon":5.36856,"is_reserved":false,"is_disabled":false,"rental_uris":{"android":"levelo://app?vid=7aa0ab8b-09e0-4724-b831-d9734d5ddcfd","ios":"levelo://app?vid=7aa0ab8b-09e0-4724-b831-d9734d5ddcfd"},"vehicle_type_id":"4","last_reported":1728378590,"current_range_meters":39200,"station_id":"ce4bgn92rcd13ifvqbvg","pricing_plan_id":"cebpf4jnsgd1na2vs0mg"},{"bike_id":"f44d1233-23b6-4dc5-ba07-f9350ceba1f9","system_id":"levelo_inurba_marseille","lat":43.30124,"lon":5.39882,"is_reserved":false,"is_disabled":false,"rental_uris":{"android":"levelo://app?vid=f44d1233-23b6-4dc5-ba07-f9350ceba1f9","ios":"levelo://app?vid=f44d1233-23b6-4dc5-ba07-f9350ceba1f9"},"vehicle_type_id":"4","last_reported":1728378590,"current_range_meters":33600,"station_id":"ce4bh0h2rcd13ifvqd40","pricing_plan_id":"cebpf4jnsgd1na2vs0mg"},{"bike_id":"3753907e-3c5b-414b-a571-984d06e94c3c","system_id":"levelo_inurba_marseille","lat":43.27207,"lon":5.39181,"is_reserved":false,"is_disabled":false,"rental_uris":{"android":"levelo://app?vid=3753907e-3c5b-414b-a571-984d06e94c3c","ios":"levelo://app?vid=3753907e-3c5b-414b-a571-984d06e94c3c"},"vehicle_type_id":"4","last_reported":1728378590,"current_range_meters":22000,"station_id":"ce4bhhp2rcd13ifvqfm0","pricing_plan_id":"cebpf4jnsgd1na2vs0mg"},{"bike_id":"7ad06205-868a-4802-a1e3-0dc7e4c673d2","system_id":"levelo_inurba_marseille","lat":43.32486,"lon":5.36569,"is_reserved":false,"is_disabled":false,"rental_uris":{"android":"levelo://app?vid=7ad06205-868a-4802-a1e3-0dc7e4c673d2","ios":"levelo://app?vid=7ad06205-868a-4802-a1e3-0dc7e4c673d2"},"vehicle_type_id":"4","last_reported":1728378590,"current_range_meters":31200,"station_id":"ce4bhs12rcd13ifvqhvg","pricing_plan_id":"cebpf4jnsgd1na2vs0mg"},{"bike_id":"6c80a266-5201-49fa-a634-06da8f620caa","system_id":"levelo_inurba_marseille","lat":43.27613,"lon":5.36103,"is_reserved":false,"is_disabled":false,"rental_uris":{"android":"levelo://app?vid=6c80a266-5201-49fa-a634-06da8f620caa","ios":"levelo://app?vid=6c80a266-5201-49fa-a634-06da8f620caa"},"vehicle_type_id":"4","last_reported":1728378590,"current_range_meters":12400,"station_id":"ce4bgj92rcd13ifvqbe0","pricing_plan_id":"cebpf4jnsgd1na2vs0mg"},{"bike_id":"e18cba71-a13d-462c-a37a-f87f83c17a1f","system_id":"levelo_inurba_marseille","lat":43.30462,"lon":5.37904,"is_reserved":false,"is_disabled":false,"rental_uris":{"android":"levelo://app?vid=e18cba71-a13d-462c-a37a-f87f83c17a1f","ios":"levelo://app?vid=e18cba71-a13d-462c-a37a-f87f83c17a1f"},"vehicle_type_id":"4","last_reported":1728378590,"current_range_meters":35200,"station_id":"ce4bgup2rcd13ifvqcn0","pricing_plan_id":"cebpf4jnsgd1na2vs0mg"},{"bike_id":"85adc7bb-2e55-4c4b-beef-0036728afabc","system_id":"levelo_inurba_marseille","lat":43.30468,"lon":5.37904,"is_reserved":false,"is_disabled":false,"rental_uris":{"android":"levelo://app?vid=85adc7bb-2e55-4c4b-beef-0036728afabc","ios":"levelo://app?vid=85adc7bb-2e55-4c4b-beef-0036728afabc"},"vehicle_type_id":"4","last_reported":1728378590,"current_range_meters":14400,"station_id":"ce4bgup2rcd13ifvqcn0","pricing_plan_id":"cebpf4jnsgd1na2vs0mg"},{"bike_id":"08e881b4-39c2-4880-929c-1f061e2aa504","system_id":"levelo_inurba_marseille","lat":43.31357,"lon":5.38502,"is_reserved":false,"is_disabled":false,"rental_uris":{"android":"levelo://app?vid=08e881b4-39c2-4880-929c-1f061e2aa504","ios":"levelo://app?vid=08e881b4-39c2-4880-929c-1f061e2aa504"},"vehicle_type_id":"4","last_reported":1728378590,"current_range_meters":36400,"station_id":"ce4bgt92rcd13ifvqcf0","pricing_plan_id":"cebpf4jnsgd1na2vs0mg"},{"bike_id":"a070df44-ca49-49b7-b4b2-82f3056092c4","system_id":"levelo_inurba_marseille","lat":43.32479,"lon":5.3657,"is_reserved":false,"is_disabled":false,"rental_uris":{"android":"levelo://app?vid=a070df44-ca49-49b7-b4b2-82f3056092c4","ios":"levelo://app?vid=a070df44-ca49-49b7-b4b2-82f3056092c4"},"vehicle_type_id":"4","last_reported":1728378590,"current_range_meters":30400,"station_id":"ce4bhs12rcd13ifvqhvg","pricing_plan_id":"cebpf4jnsgd1na2vs0mg"},{"bike_id":"f7612392-4f4b-453b-a64c-499de3c2600f","system_id":"levelo_inurba_marseille","lat":43.2417,"lon":5.3639,"is_reserved":false,"is_disabled":false,"rental_uris":{"android":"levelo://app?vid=f7612392-4f4b-453b-a64c-499de3c2600f","ios":"levelo://app?vid=f7612392-4f4b-453b-a64c-499de3c2600f"},"vehicle_type_id":"4","last_reported":1728378590,"current_range_meters":32000,"station_id":"cpo36qri1sfpv3e86is0","pricing_plan_id":"cebpf4jnsgd1na2vs0mg"},{"bike_id":"c4e56026-ef99-4078-aa9f-f2e4e78fcabe","system_id":"levelo_inurba_marseille","lat":43.26215,"lon":5.3744,"is_reserved":false,"is_disabled":false,"rental_uris":{"android":"levelo://app?vid=c4e56026-ef99-4078-aa9f-f2e4e78fcabe","ios":"levelo://app?vid=c4e56026-ef99-4078-aa9f-f2e4e78fcabe"},"vehicle_type_id":"4","last_reported":1728378590,"current_range_meters":38000,"station_id":"ce4bhgp2rcd13ifvqfc0","pricing_plan_id":"cebpf4jnsgd1na2vs0mg"},{"bike_id":"0d568641-6bad-4b74-89a4-8e83c4799303","system_id":"levelo_inurba_marseille","lat":43.30204,"lon":5.39476,"is_reserved":false,"is_disabled":false,"rental_uris":{"android":"levelo://app?vid=0d568641-6bad-4b74-89a4-8e83c4799303","ios":"levelo://app?vid=0d568641-6bad-4b74-89a4-8e83c4799303"},"vehicle_type_id":"4","last_reported":1728378590,"current_range_meters":32000,"station_id":"ce4bh0p2rcd13ifvqd70","pricing_plan_id":"cebpf4jnsgd1na2vs0mg"},{"bike_id":"f37f2108-dda2-405a-a659-2488475870db","system_id":"levelo_inurba_marseille","lat":43.26956,"lon":5.38631,"is_reserved":false,"is_disabled":false,"rental_uris":{"android":"levelo://app?vid=f37f2108-dda2-405a-a659-2488475870db","ios":"levelo://app?vid=f37f2108-dda2-405a-a659-2488475870db"},"vehicle_type_id":"4","last_reported":1728378590,"current_range_meters":39200,"station_id":"ce4bhh92rcd13ifvqfh0","pricing_plan_id":"cebpf4jnsgd1na2vs0mg"},{"bike_id":"8c5d7047-f95d-4dc5-9ca0-fd2ef99e7832","system_id":"levelo_inurba_marseille","lat":43.322902,"lon":5.382748,"is_reserved":false,"is_disabled":false,"rental_uris":{"android":"levelo://app?vid=8c5d7047-f95d-4dc5-9ca0-fd2ef99e7832","ios":"levelo://app?vid=8c5d7047-f95d-4dc5-9ca0-fd2ef99e7832"},"vehicle_type_id":"4","last_reported":1728378590,"current_range_meters":36800,"station_id":"ce4bhr12rcd13ifvqhqg","pricing_plan_id":"cebpf4jnsgd1na2vs0mg"},{"bike_id":"db011bc4-e88a-4bd2-ab48-10cdba02a938","system_id":"levelo_inurba_marseille","lat":43.286723,"lon":5.387093,"is_reserved":false,"is_disabled":false,"rental_uris":{"android":"levelo://app?vid=db011bc4-e88a-4bd2-ab48-10cdba02a938","ios":"levelo://app?vid=db011bc4-e88a-4bd2-ab48-10cdba02a938"},"vehicle_type_id":"4","last_reported":1728378590,"current_range_meters":27600,"station_id":"ce4bh492rcd13ifvqdug","pricing_plan_id":"cebpf4jnsgd1na2vs0mg"},{"bike_id":"3efc2064-e79d-4131-9384-1759113832ea","system_id":"levelo_inurba_marseille","lat":43.29024,"lon":5.38136,"is_reserved":false,"is_disabled":false,"rental_uris":{"android":"levelo://app?vid=3efc2064-e79d-4131-9384-1759113832ea","ios":"levelo://app?vid=3efc2064-e79d-4131-9384-1759113832ea"},"vehicle_type_id":"4","last_reported":1728378590,"current_range_meters":6400,"station_id":"ce4bh4p2rcd13ifvqe1g","pricing_plan_id":"cebpf4jnsgd1na2vs0mg"},{"bike_id":"200771b2-43c8-4159-88c4-600d6d19ef08","system_id":"levelo_inurba_marseille","lat":43.27805,"lon":5.40726,"is_reserved":false,"is_disabled":false,"rental_uris":{"android":"levelo://app?vid=200771b2-43c8-4159-88c4-600d6d19ef08","ios":"levelo://app?vid=200771b2-43c8-4159-88c4-600d6d19ef08"},"vehicle_type_id":"4","last_reported":1728378590,"current_range_meters":38800,"station_id":"ce4bhnh2rcd13ifvqgtg","pricing_plan_id":"cebpf4jnsgd1na2vs0mg"},{"bike_id":"f10bd89b-9103-4bdd-97c4-1fb022995012","system_id":"levelo_inurba_marseille","lat":43.241711,"lon":5.397336,"is_reserved":false,"is_disabled":false,"rental_uris":{"android":"levelo://app?vid=f10bd89b-9103-4bdd-97c4-1fb022995012","ios":"levelo://app?vid=f10bd89b-9103-4bdd-97c4-1fb022995012"},"vehicle_type_id":"4","last_reported":1728378590,"current_range_meters":8800,"station_id":"ce4bhn12rcd13ifvqgpg","pricing_plan_id":"cebpf4jnsgd1na2vs0mg"},{"bike_id":"5c6df190-25b3-4d50-85db-e491d8547ce4","system_id":"levelo_inurba_marseille","lat":43.26556,"lon":5.37283,"is_reserved":false,"is_disabled":false,"rental_uris":{"android":"levelo://app?vid=5c6df190-25b3-4d50-85db-e491d8547ce4","ios":"levelo://app?vid=5c6df190-25b3-4d50-85db-e491d8547ce4"},"vehicle_type_id":"4","last_reported":1728378590,"current_range_meters":12000,"station_id":"ce4bhg12rcd13ifvqf70","pricing_plan_id":"cebpf4jnsgd1na2vs0mg"},{"bike_id":"0a8ccba5-237d-43b9-a077-96384e616267","system_id":"levelo_inurba_marseille","lat":43.25932,"lon":5.40915,"is_reserved":false,"is_disabled":false,"rental_uris":{"android":"levelo://app?vid=0a8ccba5-237d-43b9-a077-96384e616267","ios":"levelo://app?vid=0a8ccba5-237d-43b9-a077-96384e616267"},"vehicle_type_id":"4","last_reported":1728378590,"current_range_meters":23200,"station_id":"ce4bhm92rcd13ifvqglg","pricing_plan_id":"cebpf4jnsgd1na2vs0mg"},{"bike_id":"87ea1288-b035-4368-87b6-a8a946f83189","system_id":"levelo_inurba_marseille","lat":43.30905,"lon":5.36856,"is_reserved":false,"is_disabled":false,"rental_uris":{"android":"levelo://app?vid=87ea1288-b035-4368-87b6-a8a946f83189","ios":"levelo://app?vid=87ea1288-b035-4368-87b6-a8a946f83189"},"vehicle_type_id":"4","last_reported":1728378590,"current_range_meters":39200,"station_id":"ce4bgn92rcd13ifvqbvg","pricing_plan_id":"cebpf4jnsgd1na2vs0mg"},{"bike_id":"b356d79d-0fab-4432-9bdf-f65dc71a7233","system_id":"levelo_inurba_marseille","lat":43.30555,"lon":5.36537,"is_reserved":false,"is_disabled":false,"rental_uris":{"android":"levelo://app?vid=b356d79d-0fab-4432-9bdf-f65dc71a7233","ios":"levelo://app?vid=b356d79d-0fab-4432-9bdf-f65dc71a7233"},"vehicle_type_id":"4","last_reported":1728378590,"current_range_meters":39200,"station_id":"ce4bgs12rcd13ifvqcag","pricing_plan_id":"cebpf4jnsgd1na2vs0mg"},{"bike_id":"cf927195-cafe-4fe6-8a9b-b503bf9be2b0","system_id":"levelo_inurba_marseille","lat":43.23192,"lon":5.39982,"is_reserved":false,"is_disabled":false,"rental_uris":{"android":"levelo://app?vid=cf927195-cafe-4fe6-8a9b-b503bf9be2b0","ios":"levelo://app?vid=cf927195-cafe-4fe6-8a9b-b503bf9be2b0"},"vehicle_type_id":"4","last_reported":1728378590,"current_range_meters":38400,"station_id":"ce4bhn12rcd13ifvqgqg","pricing_plan_id":"cebpf4jnsgd1na2vs0mg"},{"bike_id":"12a78c07-0435-47cc-994b-79cda0650bdc","system_id":"levelo_inurba_marseille","lat":43.3095,"lon":5.39042,"is_reserved":false,"is_disabled":false,"rental_uris":{"android":"levelo://app?vid=12a78c07-0435-47cc-994b-79cda0650bdc","ios":"levelo://app?vid=12a78c07-0435-47cc-994b-79cda0650bdc"},"vehicle_type_id":"4","last_reported":1728378590,"current_range_meters":32000,"station_id":"ce4bgup2rcd13ifvqco0","pricing_plan_id":"cebpf4jnsgd1na2vs0mg"},{"bike_id":"22c361ab-9b42-4c8d-b8d3-4f3f999f3c35","system_id":"levelo_inurba_marseille","lat":43.30903,"lon":5.36858,"is_reserved":false,"is_disabled":false,"rental_uris":{"android":"levelo://app?vid=22c361ab-9b42-4c8d-b8d3-4f3f999f3c35","ios":"levelo://app?vid=22c361ab-9b42-4c8d-b8d3-4f3f999f3c35"},"vehicle_type_id":"4","last_reported":1728378590,"current_range_meters":36400,"station_id":"ce4bgn92rcd13ifvqbvg","pricing_plan_id":"cebpf4jnsgd1na2vs0mg"},{"bike_id":"22942128-eccb-447c-a404-8ab36ea27ffe","system_id":"levelo_inurba_marseille","lat":43.2594,"lon":5.40903,"is_reserved":false,"is_disabled":false,"rental_uris":{"android":"levelo://app?vid=22942128-eccb-447c-a404-8ab36ea27ffe","ios":"levelo://app?vid=22942128-eccb-447c-a404-8ab36ea27ffe"},"vehicle_type_id":"4","last_reported":1728378590,"current_range_meters":38000,"station_id":"ce4bhm92rcd13ifvqglg","pricing_plan_id":"cebpf4jnsgd1na2vs0mg"},{"bike_id":"b52e1778-2d7c-4d72-bed4-6fb162b82d51","system_id":"levelo_inurba_marseille","lat":43.2695,"lon":5.38633,"is_reserved":false,"is_disabled":false,"rental_uris":{"android":"levelo://app?vid=b52e1778-2d7c-4d72-bed4-6fb162b82d51","ios":"levelo://app?vid=b52e1778-2d7c-4d72-bed4-6fb162b82d51"},"vehicle_type_id":"4","last_reported":1728378590,"current_range_meters":12400,"station_id":"ce4bhh92rcd13ifvqfh0","pricing_plan_id":"cebpf4jnsgd1na2vs0mg"},{"bike_id":"542404d0-7ad8-4d88-9837-14b7ea9cdc5a","system_id":"levelo_inurba_marseille","lat":43.31716,"lon":5.43707,"is_reserved":false,"is_disabled":false,"rental_uris":{"android":"levelo://app?vid=542404d0-7ad8-4d88-9837-14b7ea9cdc5a","ios":"levelo://app?vid=542404d0-7ad8-4d88-9837-14b7ea9cdc5a"},"vehicle_type_id":"4","last_reported":1728378590,"current_range_meters":38000,"station_id":"ce4bhp92rcd13ifvqhcg","pricing_plan_id":"cebpf4jnsgd1na2vs0mg"},{"bike_id":"4c4a7e2d-9e86-42d7-8c95-4d80dc9bf749","system_id":"levelo_inurba_marseille","lat":43.337444,"lon":5.374475,"is_reserved":false,"is_disabled":false,"rental_uris":{"android":"levelo://app?vid=4c4a7e2d-9e86-42d7-8c95-4d80dc9bf749","ios":"levelo://app?vid=4c4a7e2d-9e86-42d7-8c95-4d80dc9bf749"},"vehicle_type_id":"4","last_reported":1728378590,"current_range_meters":38800,"station_id":"","pricing_plan_id":"cebpf4jnsgd1na2vs0mg"},{"bike_id":"a774f550-3ce3-43eb-9d80-b5fdc228d567","system_id":"levelo_inurba_marseille","lat":43.31063,"lon":5.38346,"is_reserved":false,"is_disabled":false,"rental_uris":{"android":"levelo://app?vid=a774f550-3ce3-43eb-9d80-b5fdc228d567","ios":"levelo://app?vid=a774f550-3ce3-43eb-9d80-b5fdc228d567"},"vehicle_type_id":"4","last_reported":1728378590,"current_range_meters":36800,"station_id":"ce4bgv92rcd13ifvqcr0","pricing_plan_id":"cebpf4jnsgd1na2vs0mg"},{"bike_id":"6731d1b1-b391-47f7-84a2-e5222ded00d2","system_id":"levelo_inurba_marseille","lat":43.33009,"lon":5.3903,"is_reserved":false,"is_disabled":false,"rental_uris":{"android":"levelo://app?vid=6731d1b1-b391-47f7-84a2-e5222ded00d2","ios":"levelo://app?vid=6731d1b1-b391-47f7-84a2-e5222ded00d2"},"vehicle_type_id":"4","last_reported":1728378590,"current_range_meters":26000,"station_id":"ce4bhr92rcd13ifvqhrg","pricing_plan_id":"cebpf4jnsgd1na2vs0mg"},{"bike_id":"107d9d68-ee80-4323-afbd-5ac994ea76d1","system_id":"levelo_inurba_marseille","lat":43.29982,"lon":5.37185,"is_reserved":false,"is_disabled":false,"rental_uris":{"android":"levelo://app?vid=107d9d68-ee80-4323-afbd-5ac994ea76d1","ios":"levelo://app?vid=107d9d68-ee80-4323-afbd-5ac994ea76d1"},"vehicle_type_id":"4","last_reported":1728378590,"current_range_meters":32000,"station_id":"ce4bh0p2rcd13ifvqd70","pricing_plan_id":"cebpf4jnsgd1na2vs0mg"},{"bike_id":"10c72fe1-4f91-46c9-adbe-5dfe0657c9ba","system_id":"levelo_inurba_marseille","lat":43.25582,"lon":5.38231,"is_reserved":false,"is_disabled":false,"rental_uris":{"android":"levelo://app?vid=10c72fe1-4f91-46c9-adbe-5dfe0657c9ba","ios":"levelo://app?vid=10c72fe1-4f91-46c9-adbe-5dfe0657c9ba"},"vehicle_type_id":"4","last_reported":1728378590,"current_range_meters":16000,"station_id":"ce4bhih2rcd13ifvqfs0","pricing_plan_id":"cebpf4jnsgd1na2vs0mg"},{"bike_id":"c49a7ec7-b5e3-4704-bc56-e84b37bb455b","system_id":"levelo_inurba_marseille","lat":43.23963,"lon":5.36631,"is_reserved":false,"is_disabled":false,"rental_uris":{"android":"levelo://app?vid=c49a7ec7-b5e3-4704-bc56-e84b37bb455b","ios":"levelo://app?vid=c49a7ec7-b5e3-4704-bc56-e84b37bb455b"},"vehicle_type_id":"4","last_reported":1728378590,"current_range_meters":37600,"station_id":"ce4bhi12rcd13ifvqfp0","pricing_plan_id":"cebpf4jnsgd1na2vs0mg"},{"bike_id":"bbbd13b6-ea15-4495-bfdc-94e30fe3abb0","system_id":"levelo_inurba_marseille","lat":43.3035,"lon":5.41885,"is_reserved":false,"is_disabled":false,"rental_uris":{"android":"levelo://app?vid=bbbd13b6-ea15-4495-bfdc-94e30fe3abb0","ios":"levelo://app?vid=bbbd13b6-ea15-4495-bfdc-94e30fe3abb0"},"vehicle_type_id":"4","last_reported":1728378590,"current_range_meters":38800,"station_id":"ce4bhop2rcd13ifvqh7g","pricing_plan_id":"cebpf4jnsgd1na2vs0mg"},{"bike_id":"763cd71d-a5cc-4c10-b1d5-8b562bc1cd70","system_id":"levelo_inurba_marseille","lat":43.300903,"lon":5.390916,"is_reserved":false,"is_disabled":false,"rental_uris":{"android":"levelo://app?vid=763cd71d-a5cc-4c10-b1d5-8b562bc1cd70","ios":"levelo://app?vid=763cd71d-a5cc-4c10-b1d5-8b562bc1cd70"},"vehicle_type_id":"4","last_reported":1728378590,"current_range_meters":28000,"station_id":"ce4bh192rcd13ifvqdb0","pricing_plan_id":"cebpf4jnsgd1na2vs0mg"},{"bike_id":"8c57ef0e-a429-4a21-8b4d-70eeecda1108","system_id":"levelo_inurba_marseille","lat":43.25937,"lon":5.40902,"is_reserved":false,"is_disabled":false,"rental_uris":{"android":"levelo://app?vid=8c57ef0e-a429-4a21-8b4d-70eeecda1108","ios":"levelo://app?vid=8c57ef0e-a429-4a21-8b4d-70eeecda1108"},"vehicle_type_id":"4","last_reported":1728378590,"current_range_meters":9200,"station_id":"ce4bhm92rcd13ifvqglg","pricing_plan_id":"cebpf4jnsgd1na2vs0mg"},{"bike_id":"03bd6886-ca29-4479-8bf5-995d8ecb1649","system_id":"levelo_inurba_marseille","lat":43.29551,"lon":5.42292,"is_reserved":false,"is_disabled":false,"rental_uris":{"android":"levelo://app?vid=03bd6886-ca29-4479-8bf5-995d8ecb1649","ios":"levelo://app?vid=03bd6886-ca29-4479-8bf5-995d8ecb1649"},"vehicle_type_id":"4","last_reported":1728378590,"current_range_meters":37600,"station_id":"ce4bhph2rcd13ifvqhdg","pricing_plan_id":"cebpf4jnsgd1na2vs0mg"},{"bike_id":"4a96fa96-a51c-45a7-8cef-57bdac1d20c5","system_id":"levelo_inurba_marseille","lat":43.29006,"lon":5.35618,"is_reserved":false,"is_disabled":false,"rental_uris":{"android":"levelo://app?vid=4a96fa96-a51c-45a7-8cef-57bdac1d20c5","ios":"levelo://app?vid=4a96fa96-a51c-45a7-8cef-57bdac1d20c5"},"vehicle_type_id":"4","last_reported":1728378590,"current_range_meters":38800,"station_id":"ce4bhb92rcd13ifvqen0","pricing_plan_id":"cebpf4jnsgd1na2vs0mg"},{"bike_id":"f9d644f2-8d7c-4d08-954d-547864f0a8a3","system_id":"levelo_inurba_marseille","lat":43.30541,"lon":5.36718,"is_reserved":false,"is_disabled":false,"rental_uris":{"android":"levelo://app?vid=f9d644f2-8d7c-4d08-954d-547864f0a8a3","ios":"levelo://app?vid=f9d644f2-8d7c-4d08-954d-547864f0a8a3"},"vehicle_type_id":"4","last_reported":1728378590,"current_range_meters":36800,"station_id":"ce4bgrp2rcd13ifvqc9g","pricing_plan_id":"cebpf4jnsgd1na2vs0mg"},{"bike_id":"78af8b1f-769c-4a43-8fa0-254d80d32086","system_id":"levelo_inurba_marseille","lat":43.26501,"lon":5.39547,"is_reserved":false,"is_disabled":false,"rental_uris":{"android":"levelo://app?vid=78af8b1f-769c-4a43-8fa0-254d80d32086","ios":"levelo://app?vid=78af8b1f-769c-4a43-8fa0-254d80d32086"},"vehicle_type_id":"4","last_reported":1728378590,"current_range_meters":8400,"station_id":"ce4bhi12rcd13ifvqfq0","pricing_plan_id":"cebpf4jnsgd1na2vs0mg"},{"bike_id":"f1510c6a-ec9a-4cb6-ba53-8ced3616703a","system_id":"levelo_inurba_marseille","lat":43.32486,"lon":5.36566,"is_reserved":false,"is_disabled":false,"rental_uris":{"android":"levelo://app?vid=f1510c6a-ec9a-4cb6-ba53-8ced3616703a","ios":"levelo://app?vid=f1510c6a-ec9a-4cb6-ba53-8ced3616703a"},"vehicle_type_id":"4","last_reported":1728378590,"current_range_meters":38000,"station_id":"ce4bhs12rcd13ifvqhvg","pricing_plan_id":"cebpf4jnsgd1na2vs0mg"},{"bike_id":"e750d3c3-df16-407a-b157-edf9172a65b7","system_id":"levelo_inurba_marseille","lat":43.33757,"lon":5.37442,"is_reserved":false,"is_disabled":false,"rental_uris":{"android":"levelo://app?vid=e750d3c3-df16-407a-b157-edf9172a65b7","ios":"levelo://app?vid=e750d3c3-df16-407a-b157-edf9172a65b7"},"vehicle_type_id":"4","last_reported":1728378590,"current_range_meters":22800,"station_id":"","pricing_plan_id":"cebpf4jnsgd1na2vs0mg"},{"bike_id":"5e43c5a9-b674-4529-8b56-808e9103d8ad","system_id":"levelo_inurba_marseille","lat":43.27901,"lon":5.39588,"is_reserved":false,"is_disabled":false,"rental_uris":{"android":"levelo://app?vid=5e43c5a9-b674-4529-8b56-808e9103d8ad","ios":"levelo://app?vid=5e43c5a9-b674-4529-8b56-808e9103d8ad"},"vehicle_type_id":"4","last_reported":1728378590,"current_range_meters":38800,"station_id":"ce4bhf92rcd13ifvqf40","pricing_plan_id":"cebpf4jnsgd1na2vs0mg"},{"bike_id":"09ef71aa-0817-4eb5-83ac-bde0ebd31387","system_id":"levelo_inurba_marseille","lat":43.32365,"lon":5.38884,"is_reserved":false,"is_disabled":false,"rental_uris":{"android":"levelo://app?vid=09ef71aa-0817-4eb5-83ac-bde0ebd31387","ios":"levelo://app?vid=09ef71aa-0817-4eb5-83ac-bde0ebd31387"},"vehicle_type_id":"4","last_reported":1728378590,"current_range_meters":38000,"station_id":"ce4bhqp2rcd13ifvqhog","pricing_plan_id":"cebpf4jnsgd1na2vs0mg"},{"bike_id":"0c77c4a2-64b6-497d-b773-8b66f82d6082","system_id":"levelo_inurba_marseille","lat":43.33769,"lon":5.3743,"is_reserved":false,"is_disabled":false,"rental_uris":{"android":"levelo://app?vid=0c77c4a2-64b6-497d-b773-8b66f82d6082","ios":"levelo://app?vid=0c77c4a2-64b6-497d-b773-8b66f82d6082"},"vehicle_type_id":"4","last_reported":1728378590,"current_range_meters":36000,"station_id":"","pricing_plan_id":"cebpf4jnsgd1na2vs0mg"},{"bike_id":"dfd8c5a1-8a93-4f4d-a10a-749816e7c454","system_id":"levelo_inurba_marseille","lat":43.24072,"lon":5.37758,"is_reserved":false,"is_disabled":false,"rental_uris":{"android":"levelo://app?vid=dfd8c5a1-8a93-4f4d-a10a-749816e7c454","ios":"levelo://app?vid=dfd8c5a1-8a93-4f4d-a10a-749816e7c454"},"vehicle_type_id":"4","last_reported":1728378590,"current_range_meters":36400,"station_id":"ce4bhnp2rcd13ifvqgvg","pricing_plan_id":"cebpf4jnsgd1na2vs0mg"},{"bike_id":"6e14ac97-d5ce-4f91-b9ed-3d3c9175f77d","system_id":"levelo_inurba_marseille","lat":43.30661,"lon":5.40084,"is_reserved":false,"is_disabled":false,"rental_uris":{"android":"levelo://app?vid=6e14ac97-d5ce-4f91-b9ed-3d3c9175f77d","ios":"levelo://app?vid=6e14ac97-d5ce-4f91-b9ed-3d3c9175f77d"},"vehicle_type_id":"4","last_reported":1728378590,"current_range_meters":29600,"station_id":"ce4bh112rcd13ifvqda0","pricing_plan_id":"cebpf4jnsgd1na2vs0mg"},{"bike_id":"6826c930-8aa2-4db5-96a6-4b67fd5214fe","system_id":"levelo_inurba_marseille","lat":43.282705,"lon":5.35065,"is_reserved":false,"is_disabled":false,"rental_uris":{"android":"levelo://app?vid=6826c930-8aa2-4db5-96a6-4b67fd5214fe","ios":"levelo://app?vid=6826c930-8aa2-4db5-96a6-4b67fd5214fe"},"vehicle_type_id":"4","last_reported":1728378590,"current_range_meters":38000,"station_id":"ce4bhbp2rcd13ifvqerg","pricing_plan_id":"cebpf4jnsgd1na2vs0mg"},{"bike_id":"3a9f2c15-f6c3-471c-9798-2df1dcf8c603","system_id":"levelo_inurba_marseille","lat":43.24077,"lon":5.37758,"is_reserved":false,"is_disabled":false,"rental_uris":{"android":"levelo://app?vid=3a9f2c15-f6c3-471c-9798-2df1dcf8c603","ios":"levelo://app?vid=3a9f2c15-f6c3-471c-9798-2df1dcf8c603"},"vehicle_type_id":"4","last_reported":1728378590,"current_range_meters":36400,"station_id":"ce4bhnp2rcd13ifvqgvg","pricing_plan_id":"cebpf4jnsgd1na2vs0mg"},{"bike_id":"3e38b949-a8d1-40ca-a990-e6c0e7555bc1","system_id":"levelo_inurba_marseille","lat":43.30599,"lon":5.39353,"is_reserved":false,"is_disabled":false,"rental_uris":{"android":"levelo://app?vid=3e38b949-a8d1-40ca-a990-e6c0e7555bc1","ios":"levelo://app?vid=3e38b949-a8d1-40ca-a990-e6c0e7555bc1"},"vehicle_type_id":"4","last_reported":1728378590,"current_range_meters":30000,"station_id":"ce4bh0p2rcd13ifvqd80","pricing_plan_id":"cebpf4jnsgd1na2vs0mg"},{"bike_id":"8b03ce6a-789f-45fa-be9c-ce799ffdae96","system_id":"levelo_inurba_marseille","lat":43.30428,"lon":5.39748,"is_reserved":false,"is_disabled":false,"rental_uris":{"android":"levelo://app?vid=8b03ce6a-789f-45fa-be9c-ce799ffdae96","ios":"levelo://app?vid=8b03ce6a-789f-45fa-be9c-ce799ffdae96"},"vehicle_type_id":"4","last_reported":1728378590,"current_range_meters":39200,"station_id":"ce4bh092rcd13ifvqd20","pricing_plan_id":"cebpf4jnsgd1na2vs0mg"},{"bike_id":"d07390dc-1d7c-4679-893a-865f7e9f92b2","system_id":"levelo_inurba_marseille","lat":43.29196,"lon":5.35803,"is_reserved":false,"is_disabled":false,"rental_uris":{"android":"levelo://app?vid=d07390dc-1d7c-4679-893a-865f7e9f92b2","ios":"levelo://app?vid=d07390dc-1d7c-4679-893a-865f7e9f92b2"},"vehicle_type_id":"4","last_reported":1728378590,"current_range_meters":29600,"station_id":"ce4bhb12rcd13ifvqel0","pricing_plan_id":"cebpf4jnsgd1na2vs0mg"},{"bike_id":"f8b19c30-a9c4-40e5-ac2e-0ede1e886bdc","system_id":"levelo_inurba_marseille","lat":43.28185,"lon":5.39904,"is_reserved":false,"is_disabled":false,"rental_uris":{"android":"levelo://app?vid=f8b19c30-a9c4-40e5-ac2e-0ede1e886bdc","ios":"levelo://app?vid=f8b19c30-a9c4-40e5-ac2e-0ede1e886bdc"},"vehicle_type_id":"4","last_reported":1728378590,"current_range_meters":18000,"station_id":"ce4bho92rcd13ifvqh3g","pricing_plan_id":"cebpf4jnsgd1na2vs0mg"},{"bike_id":"7a284141-427f-4b3a-b279-a9138bc649ca","system_id":"levelo_inurba_marseille","lat":43.33024,"lon":5.39042,"is_reserved":false,"is_disabled":false,"rental_uris":{"android":"levelo://app?vid=7a284141-427f-4b3a-b279-a9138bc649ca","ios":"levelo://app?vid=7a284141-427f-4b3a-b279-a9138bc649ca"},"vehicle_type_id":"4","last_reported":1728378590,"current_range_meters":37600,"station_id":"ce4bhr92rcd13ifvqhrg","pricing_plan_id":"cebpf4jnsgd1na2vs0mg"},{"bike_id":"c190b4a1-ea1d-47e2-b2e8-eefa3099f9cc","system_id":"levelo_inurba_marseille","lat":43.23192,"lon":5.35552,"is_reserved":false,"is_disabled":false,"rental_uris":{"android":"levelo://app?vid=c190b4a1-ea1d-47e2-b2e8-eefa3099f9cc","ios":"levelo://app?vid=c190b4a1-ea1d-47e2-b2e8-eefa3099f9cc"},"vehicle_type_id":"4","last_reported":1728378590,"current_range_meters":36400,"station_id":"ce4bhu92rcd13ifvqi70","pricing_plan_id":"cebpf4jnsgd1na2vs0mg"},{"bike_id":"6f34ba66-dc7e-4580-ad03-13f9f6e9f96e","system_id":"levelo_inurba_marseille","lat":43.32477,"lon":5.36568,"is_reserved":false,"is_disabled":false,"rental_uris":{"android":"levelo://app?vid=6f34ba66-dc7e-4580-ad03-13f9f6e9f96e","ios":"levelo://app?vid=6f34ba66-dc7e-4580-ad03-13f9f6e9f96e"},"vehicle_type_id":"4","last_reported":1728378590,"current_range_meters":39200,"station_id":"ce4bhs12rcd13ifvqhvg","pricing_plan_id":"cebpf4jnsgd1na2vs0mg"},{"bike_id":"ff5ba5ff-b9bc-44eb-9be7-e35bd733d917","system_id":"levelo_inurba_marseille","lat":43.24169,"lon":5.36396,"is_reserved":false,"is_disabled":false,"rental_uris":{"android":"levelo://app?vid=ff5ba5ff-b9bc-44eb-9be7-e35bd733d917","ios":"levelo://app?vid=ff5ba5ff-b9bc-44eb-9be7-e35bd733d917"},"vehicle_type_id":"4","last_reported":1728378590,"current_range_meters":37600,"station_id":"cpo36qri1sfpv3e86is0","pricing_plan_id":"cebpf4jnsgd1na2vs0mg"},{"bike_id":"cb993cbe-db88-4a1d-8894-70c8e679ff80","system_id":"levelo_inurba_marseille","lat":43.27489,"lon":5.42456,"is_reserved":false,"is_disabled":false,"rental_uris":{"android":"levelo://app?vid=cb993cbe-db88-4a1d-8894-70c8e679ff80","ios":"levelo://app?vid=cb993cbe-db88-4a1d-8894-70c8e679ff80"},"vehicle_type_id":"4","last_reported":1728378590,"current_range_meters":35600,"station_id":"ce4bhn92rcd13ifvqgrg","pricing_plan_id":"cebpf4jnsgd1na2vs0mg"},{"bike_id":"1d6fe866-e5a6-4cae-9c9a-6f55815c6cc1","system_id":"levelo_inurba_marseille","lat":43.31223,"lon":5.36878,"is_reserved":false,"is_disabled":false,"rental_uris":{"android":"levelo://app?vid=1d6fe866-e5a6-4cae-9c9a-6f55815c6cc1","ios":"levelo://app?vid=1d6fe866-e5a6-4cae-9c9a-6f55815c6cc1"},"vehicle_type_id":"4","last_reported":1728378590,"current_range_meters":31200,"station_id":"ce4bgl92rcd13ifvqbq0","pricing_plan_id":"cebpf4jnsgd1na2vs0mg"},{"bike_id":"301038ae-0144-46d0-b564-990ffdf12f70","system_id":"levelo_inurba_marseille","lat":43.27568,"lon":5.38419,"is_reserved":false,"is_disabled":false,"rental_uris":{"android":"levelo://app?vid=301038ae-0144-46d0-b564-990ffdf12f70","ios":"levelo://app?vid=301038ae-0144-46d0-b564-990ffdf12f70"},"vehicle_type_id":"4","last_reported":1728378590,"current_range_meters":31200,"station_id":"ce4bhh92rcd13ifvqfi0","pricing_plan_id":"cebpf4jnsgd1na2vs0mg"},{"bike_id":"6b4618ac-bf15-42bd-b8ce-f62f3e28352b","system_id":"levelo_inurba_marseille","lat":43.23195,"lon":5.35553,"is_reserved":false,"is_disabled":false,"rental_uris":{"android":"levelo://app?vid=6b4618ac-bf15-42bd-b8ce-f62f3e28352b","ios":"levelo://app?vid=6b4618ac-bf15-42bd-b8ce-f62f3e28352b"},"vehicle_type_id":"4","last_reported":1728378590,"current_range_meters":28400,"station_id":"ce4bhu92rcd13ifvqi70","pricing_plan_id":"cebpf4jnsgd1na2vs0mg"},{"bike_id":"aff02cca-9575-4ece-b466-0b316bcc6b14","system_id":"levelo_inurba_marseille","lat":43.28939,"lon":5.39624,"is_reserved":false,"is_disabled":false,"rental_uris":{"android":"levelo://app?vid=aff02cca-9575-4ece-b466-0b316bcc6b14","ios":"levelo://app?vid=aff02cca-9575-4ece-b466-0b316bcc6b14"},"vehicle_type_id":"4","last_reported":1728378590,"current_range_meters":4000,"station_id":"ce4bh3h2rcd13ifvqdn0","pricing_plan_id":"cebpf4jnsgd1na2vs0mg"},{"bike_id":"a87feeaa-8440-45bc-9201-d499b489e7c9","system_id":"levelo_inurba_marseille","lat":43.33018,"lon":5.39024,"is_reserved":false,"is_disabled":false,"rental_uris":{"android":"levelo://app?vid=a87feeaa-8440-45bc-9201-d499b489e7c9","ios":"levelo://app?vid=a87feeaa-8440-45bc-9201-d499b489e7c9"},"vehicle_type_id":"4","last_reported":1728378590,"current_range_meters":18800,"station_id":"ce4bhr92rcd13ifvqhrg","pricing_plan_id":"cebpf4jnsgd1na2vs0mg"},{"bike_id":"74d9a3c9-96b5-4dbf-b3c3-81ef3a14d238","system_id":"levelo_inurba_marseille","lat":43.23149,"lon":5.4372,"is_reserved":false,"is_disabled":false,"rental_uris":{"android":"levelo://app?vid=74d9a3c9-96b5-4dbf-b3c3-81ef3a14d238","ios":"levelo://app?vid=74d9a3c9-96b5-4dbf-b3c3-81ef3a14d238"},"vehicle_type_id":"4","last_reported":1728378590,"current_range_meters":3200,"station_id":"ce4bhmp2rcd13ifvqgog","pricing_plan_id":"cebpf4jnsgd1na2vs0mg"},{"bike_id":"16059a15-afdf-4f1d-84cb-7cfde15d704d","system_id":"levelo_inurba_marseille","lat":43.30537,"lon":5.36552,"is_reserved":false,"is_disabled":false,"rental_uris":{"android":"levelo://app?vid=16059a15-afdf-4f1d-84cb-7cfde15d704d","ios":"levelo://app?vid=16059a15-afdf-4f1d-84cb-7cfde15d704d"},"vehicle_type_id":"4","last_reported":1728378590,"current_range_meters":27600,"station_id":"ce4bgs12rcd13ifvqcag","pricing_plan_id":"cebpf4jnsgd1na2vs0mg"},{"bike_id":"3b1a5f1f-c442-4b6c-9231-70b6e1e60feb","system_id":"levelo_inurba_marseille","lat":43.2903,"lon":5.38644,"is_reserved":false,"is_disabled":false,"rental_uris":{"android":"levelo://app?vid=3b1a5f1f-c442-4b6c-9231-70b6e1e60feb","ios":"levelo://app?vid=3b1a5f1f-c442-4b6c-9231-70b6e1e60feb"},"vehicle_type_id":"4","last_reported":1728378590,"current_range_meters":31200,"station_id":"ce4bh4p2rcd13ifvqe0g","pricing_plan_id":"cebpf4jnsgd1na2vs0mg"},{"bike_id":"94ed02f3-dcfd-4145-af6a-e195228d7427","system_id":"levelo_inurba_marseille","lat":43.29584,"lon":5.36742,"is_reserved":false,"is_disabled":false,"rental_uris":{"android":"levelo://app?vid=94ed02f3-dcfd-4145-af6a-e195228d7427","ios":"levelo://app?vid=94ed02f3-dcfd-4145-af6a-e195228d7427"},"vehicle_type_id":"4","last_reported":1728378590,"current_range_meters":38000,"station_id":"ce4bgph2rcd13ifvqc2g","pricing_plan_id":"cebpf4jnsgd1na2vs0mg"},{"bike_id":"eff5b926-3097-4891-ae58-40dde512e34f","system_id":"levelo_inurba_marseille","lat":43.29006,"lon":5.35611,"is_reserved":false,"is_disabled":false,"rental_uris":{"android":"levelo://app?vid=eff5b926-3097-4891-ae58-40dde512e34f","ios":"levelo://app?vid=eff5b926-3097-4891-ae58-40dde512e34f"},"vehicle_type_id":"4","last_reported":1728378590,"current_range_meters":16800,"station_id":"ce4bhb92rcd13ifvqen0","pricing_plan_id":"cebpf4jnsgd1na2vs0mg"},{"bike_id":"dafbe001-ebbb-4e98-b3d7-c871b5fc47e0","system_id":"levelo_inurba_marseille","lat":43.31352,"lon":5.36701,"is_reserved":false,"is_disabled":false,"rental_uris":{"android":"levelo://app?vid=dafbe001-ebbb-4e98-b3d7-c871b5fc47e0","ios":"levelo://app?vid=dafbe001-ebbb-4e98-b3d7-c871b5fc47e0"},"vehicle_type_id":"4","last_reported":1728378590,"current_range_meters":31200,"station_id":"ce4bgr92rcd13ifvqc6g","pricing_plan_id":"cebpf4jnsgd1na2vs0mg"},{"bike_id":"8c071b9e-2db5-4e0d-a9f9-97dc98100095","system_id":"levelo_inurba_marseille","lat":43.23149,"lon":5.43715,"is_reserved":false,"is_disabled":false,"rental_uris":{"android":"levelo://app?vid=8c071b9e-2db5-4e0d-a9f9-97dc98100095","ios":"levelo://app?vid=8c071b9e-2db5-4e0d-a9f9-97dc98100095"},"vehicle_type_id":"4","last_reported":1728378590,"current_range_meters":29600,"station_id":"ce4bhmp2rcd13ifvqgog","pricing_plan_id":"cebpf4jnsgd1na2vs0mg"},{"bike_id":"9f7bb594-fb34-4e78-a4aa-b9e9b8fc8e6a","system_id":"levelo_inurba_marseille","lat":43.31322,"lon":5.39695,"is_reserved":false,"is_disabled":false,"rental_uris":{"android":"levelo://app?vid=9f7bb594-fb34-4e78-a4aa-b9e9b8fc8e6a","ios":"levelo://app?vid=9f7bb594-fb34-4e78-a4aa-b9e9b8fc8e6a"},"vehicle_type_id":"4","last_reported":1728378590,"current_range_meters":38800,"station_id":"ce4bgvp2rcd13ifvqcu0","pricing_plan_id":"cebpf4jnsgd1na2vs0mg"},{"bike_id":"1a42ed45-4828-4c7c-a7e3-ac4d96ac72fa","system_id":"levelo_inurba_marseille","lat":43.25867,"lon":5.39898,"is_reserved":false,"is_disabled":false,"rental_uris":{"android":"levelo://app?vid=1a42ed45-4828-4c7c-a7e3-ac4d96ac72fa","ios":"levelo://app?vid=1a42ed45-4828-4c7c-a7e3-ac4d96ac72fa"},"vehicle_type_id":"4","last_reported":1728378590,"current_range_meters":39200,"station_id":"ce4bhl92rcd13ifvqghg","pricing_plan_id":"cebpf4jnsgd1na2vs0mg"},{"bike_id":"ad6d9e33-5c42-4466-93c0-365a4d4696f9","system_id":"levelo_inurba_marseille","lat":43.31349,"lon":5.38503,"is_reserved":false,"is_disabled":false,"rental_uris":{"android":"levelo://app?vid=ad6d9e33-5c42-4466-93c0-365a4d4696f9","ios":"levelo://app?vid=ad6d9e33-5c42-4466-93c0-365a4d4696f9"},"vehicle_type_id":"4","last_reported":1728378590,"current_range_meters":28400,"station_id":"ce4bgt92rcd13ifvqcf0","pricing_plan_id":"cebpf4jnsgd1na2vs0mg"},{"bike_id":"74e5fcd3-d8f8-49cf-a50e-5527a4954b42","system_id":"levelo_inurba_marseille","lat":43.25578,"lon":5.38238,"is_reserved":false,"is_disabled":false,"rental_uris":{"android":"levelo://app?vid=74e5fcd3-d8f8-49cf-a50e-5527a4954b42","ios":"levelo://app?vid=74e5fcd3-d8f8-49cf-a50e-5527a4954b42"},"vehicle_type_id":"4","last_reported":1728378590,"current_range_meters":23200,"station_id":"ce4bhih2rcd13ifvqfs0","pricing_plan_id":"cebpf4jnsgd1na2vs0mg"},{"bike_id":"f78b4e15-ca30-47ee-aafc-45c1722fbe47","system_id":"levelo_inurba_marseille","lat":43.24077,"lon":5.37755,"is_reserved":false,"is_disabled":false,"rental_uris":{"android":"levelo://app?vid=f78b4e15-ca30-47ee-aafc-45c1722fbe47","ios":"levelo://app?vid=f78b4e15-ca30-47ee-aafc-45c1722fbe47"},"vehicle_type_id":"4","last_reported":1728378590,"current_range_meters":30800,"station_id":"ce4bhnp2rcd13ifvqgvg","pricing_plan_id":"cebpf4jnsgd1na2vs0mg"},{"bike_id":"f236458b-a68f-4be5-ae65-f5ccd4ea25a1","system_id":"levelo_inurba_marseille","lat":43.31996,"lon":5.3815,"is_reserved":false,"is_disabled":false,"rental_uris":{"android":"levelo://app?vid=f236458b-a68f-4be5-ae65-f5ccd4ea25a1","ios":"levelo://app?vid=f236458b-a68f-4be5-ae65-f5ccd4ea25a1"},"vehicle_type_id":"4","last_reported":1728378590,"current_range_meters":38800,"station_id":"ce4bhr12rcd13ifvqhpg","pricing_plan_id":"cebpf4jnsgd1na2vs0mg"},{"bike_id":"404b4697-2249-46d0-afb0-44351c2d122f","system_id":"levelo_inurba_marseille","lat":43.29552,"lon":5.42295,"is_reserved":false,"is_disabled":false,"rental_uris":{"android":"levelo://app?vid=404b4697-2249-46d0-afb0-44351c2d122f","ios":"levelo://app?vid=404b4697-2249-46d0-afb0-44351c2d122f"},"vehicle_type_id":"4","last_reported":1728378590,"current_range_meters":17600,"station_id":"ce4bhph2rcd13ifvqhdg","pricing_plan_id":"cebpf4jnsgd1na2vs0mg"},{"bike_id":"5a5f58a2-6b73-4ffc-8b15-2ebdc68cb38f","system_id":"levelo_inurba_marseille","lat":43.30925,"lon":5.40144,"is_reserved":false,"is_disabled":false,"rental_uris":{"android":"levelo://app?vid=5a5f58a2-6b73-4ffc-8b15-2ebdc68cb38f","ios":"levelo://app?vid=5a5f58a2-6b73-4ffc-8b15-2ebdc68cb38f"},"vehicle_type_id":"4","last_reported":1728378590,"current_range_meters":28400,"station_id":"ce4bgvp2rcd13ifvqct0","pricing_plan_id":"cebpf4jnsgd1na2vs0mg"},{"bike_id":"ce9d01ef-7d06-4fb3-9664-537322597344","system_id":"levelo_inurba_marseille","lat":43.29413,"lon":5.3863,"is_reserved":false,"is_disabled":false,"rental_uris":{"android":"levelo://app?vid=ce9d01ef-7d06-4fb3-9664-537322597344","ios":"levelo://app?vid=ce9d01ef-7d06-4fb3-9664-537322597344"},"vehicle_type_id":"4","last_reported":1728378590,"current_range_meters":34800,"station_id":"ce4bh2h2rcd13ifvqdh0","pricing_plan_id":"cebpf4jnsgd1na2vs0mg"},{"bike_id":"f2d7776b-a977-4c4c-aaf9-d46af18b35d3","system_id":"levelo_inurba_marseille","lat":43.30211,"lon":5.39469,"is_reserved":false,"is_disabled":false,"rental_uris":{"android":"levelo://app?vid=f2d7776b-a977-4c4c-aaf9-d46af18b35d3","ios":"levelo://app?vid=f2d7776b-a977-4c4c-aaf9-d46af18b35d3"},"vehicle_type_id":"4","last_reported":1728378590,"current_range_meters":27200,"station_id":"ce4bh0p2rcd13ifvqd70","pricing_plan_id":"cebpf4jnsgd1na2vs0mg"},{"bike_id":"b625834a-54ef-4eab-8c9d-e8c85e149a97","system_id":"levelo_inurba_marseille","lat":43.31081,"lon":5.4243,"is_reserved":false,"is_disabled":false,"rental_uris":{"android":"levelo://app?vid=b625834a-54ef-4eab-8c9d-e8c85e149a97","ios":"levelo://app?vid=b625834a-54ef-4eab-8c9d-e8c85e149a97"},"vehicle_type_id":"4","last_reported":1728378590,"current_range_meters":37600,"station_id":"ce4bhp92rcd13ifvqhag","pricing_plan_id":"cebpf4jnsgd1na2vs0mg"},