{"last_updated":1776801558,"ttl":60,"version":"2.2","data":{"bikes":[{"bike_id":"48713af2-72c3-4ac6-97df-5f2e919c9f23","system_id":"levelo_inurba_marseille","lat":43.29051,"lon":5.4271,"is_reserved":false,"is_disabled":false,"rental_uris":{"android":"levelo://app?vid=48713af2-72c3-4ac6-97df-5f2e919c9f23","ios":"levelo://app?vid=48713af2-72c3-4ac6-97df-5f2e919c9f23"},"vehicle_type_id":"4","last_reported":1776801559,"current_range_meters":2800,"station_id":"","pricing_plan_id":"cebpf4jnsgd1na2vs0mg"},{"bike_id":"ae327807-d8ff-45af-b8c4-c90d3303c082","system_id":"levelo_inurba_marseille","lat":43.28481,"lon":5.48392,"is_reserved":false,"is_disabled":false,"rental_uris":{"android":"levelo://app?vid=ae327807-d8ff-45af-b8c4-c90d3303c082","ios":"levelo://app?vid=ae327807-d8ff-45af-b8c4-c90d3303c082"},"vehicle_type_id":"4","last_reported":1776801559,"current_range_meters":2800,"station_id":"","pricing_plan_id":"cebpf4jnsgd1na2vs0mg"},{"bike_id":"98f52c6f-7b17-49bc-8f49-ef4c9f541038","system_id":"levelo_inurba_marseille","lat":43.29809,"lon":5.38086,"is_reserved":false,"is_disabled":false,"rental_uris":{"android":"levelo://app?vid=98f52c6f-7b17-49bc-8f49-ef4c9f541038","ios":"levelo://app?vid=98f52c6f-7b17-49bc-8f49-ef4c9f541038"},"vehicle_type_id":"4","last_reported":1776801559,"current_range_meters":2800,"station_id":"ce4bgip2rcd13ifvqbb0","pricing_plan_id":"cebpf4jnsgd1na2vs0mg"},{"bike_id":"2f193797-74b0-44a9-b626-3da0467e8c13","system_id":"levelo_inurba_marseille","lat":43.24811,"lon":5.37463,"is_reserved":false,"is_disabled":false,"rental_uris":{"android":"levelo://app?vid=2f193797-74b0-44a9-b626-3da0467e8c13","ios":"levelo://app?vid=2f193797-74b0-44a9-b626-3da0467e8c13"},"vehicle_type_id":"4","last_reported":1776801559,"current_range_meters":2800,"station_id":"ce4bhgh2rcd13ifvqfb0","pricing_plan_id":"cebpf4jnsgd1na2vs0mg"},{"bike_id":"a2f16209-a68b-401b-91f8-28a5abbac2b6","system_id":"levelo_inurba_marseille","lat":43.29426,"lon":5.37384,"is_reserved":false,"is_disabled":false,"rental_uris":{"android":"levelo://app?vid=a2f16209-a68b-401b-91f8-28a5abbac2b6","ios":"levelo://app?vid=a2f16209-a68b-401b-91f8-28a5abbac2b6"},"vehicle_type_id":"4","last_reported":1776801559,"current_range_meters":2800,"station_id":"","pricing_plan_id":"cebpf4jnsgd1na2vs0mg"},{"bike_id":"80ebcc2f-0aca-4101-bd24-8004dcefdae4","system_id":"levelo_inurba_marseille","lat":43.29472,"lon":5.39095,"is_reserved":false,"is_disabled":false,"rental_uris":{"android":"levelo://app?vid=80ebcc2f-0aca-4101-bd24-8004dcefdae4","ios":"levelo://app?vid=80ebcc2f-0aca-4101-bd24-8004dcefdae4"},"vehicle_type_id":"4","last_reported":1776801559,"current_range_meters":2800,"station_id":"","pricing_plan_id":"cebpf4jnsgd1na2vs0mg"},{"bike_id":"1c0d9c29-8e05-4bf0-afda-f2ae5a3cd252","system_id":"levelo_inurba_marseille","lat":43.29038,"lon":5.38647,"is_reserved":false,"is_disabled":false,"rental_uris":{"android":"levelo://app?vid=1c0d9c29-8e05-4bf0-afda-f2ae5a3cd252","ios":"levelo://app?vid=1c0d9c29-8e05-4bf0-afda-f2ae5a3cd252"},"vehicle_type_id":"4","last_reported":1776801559,"current_range_meters":2800,"station_id":"ce4bh4p2rcd13ifvqe0g","pricing_plan_id":"cebpf4jnsgd1na2vs0mg"},{"bike_id":"6d375430-f81e-4fab-b9af-395f9c9a0b6c","system_id":"levelo_inurba_marseille","lat":43.31329,"lon":5.39682,"is_reserved":false,"is_disabled":false,"rental_uris":{"android":"levelo://app?vid=6d375430-f81e-4fab-b9af-395f9c9a0b6c","ios":"levelo://app?vid=6d375430-f81e-4fab-b9af-395f9c9a0b6c"},"vehicle_type_id":"4","last_reported":1776801559,"current_range_meters":2800,"station_id":"ce4bgvp2rcd13ifvqcu0","pricing_plan_id":"cebpf4jnsgd1na2vs0mg"},{"bike_id":"c25e4d38-b6fa-44e1-8956-03229fe406ab","system_id":"levelo_inurba_marseille","lat":43.30591,"lon":5.3723,"is_reserved":false,"is_disabled":false,"rental_uris":{"android":"levelo://app?vid=c25e4d38-b6fa-44e1-8956-03229fe406ab","ios":"levelo://app?vid=c25e4d38-b6fa-44e1-8956-03229fe406ab"},"vehicle_type_id":"4","last_reported":1776801559,"current_range_meters":2800,"station_id":"ce4bgqh2rcd13ifvqc4g","pricing_plan_id":"cebpf4jnsgd1na2vs0mg"},{"bike_id":"2b1ab602-0a38-4f44-b314-1a6df8dee1a5","system_id":"levelo_inurba_marseille","lat":43.30087,"lon":5.3909,"is_reserved":false,"is_disabled":false,"rental_uris":{"android":"levelo://app?vid=2b1ab602-0a38-4f44-b314-1a6df8dee1a5","ios":"levelo://app?vid=2b1ab602-0a38-4f44-b314-1a6df8dee1a5"},"vehicle_type_id":"4","last_reported":1776801559,"current_range_meters":2800,"station_id":"ce4bh192rcd13ifvqdb0","pricing_plan_id":"cebpf4jnsgd1na2vs0mg"},{"bike_id":"23b787a7-4e39-4275-94bf-cbf95afbbe81","system_id":"levelo_inurba_marseille","lat":43.28446,"lon":5.38577,"is_reserved":false,"is_disabled":false,"rental_uris":{"android":"levelo://app?vid=23b787a7-4e39-4275-94bf-cbf95afbbe81","ios":"levelo://app?vid=23b787a7-4e39-4275-94bf-cbf95afbbe81"},"vehicle_type_id":"4","last_reported":1776801559,"current_range_meters":2800,"station_id":"ce4bh8p2rcd13ifvqeb0","pricing_plan_id":"cebpf4jnsgd1na2vs0mg"},{"bike_id":"2a1b69bf-2f35-4f93-ac9e-234a3599ac8c","system_id":"levelo_inurba_marseille","lat":43.30933,"lon":5.40136,"is_reserved":false,"is_disabled":false,"rental_uris":{"android":"levelo://app?vid=2a1b69bf-2f35-4f93-ac9e-234a3599ac8c","ios":"levelo://app?vid=2a1b69bf-2f35-4f93-ac9e-234a3599ac8c"},"vehicle_type_id":"4","last_reported":1776801559,"current_range_meters":2800,"station_id":"ce4bgvp2rcd13ifvqct0","pricing_plan_id":"cebpf4jnsgd1na2vs0mg"},{"bike_id":"f3c07bb4-0997-453e-9611-e4823f4278d9","system_id":"levelo_inurba_marseille","lat":43.289399,"lon":5.366374,"is_reserved":false,"is_disabled":false,"rental_uris":{"android":"levelo://app?vid=f3c07bb4-0997-453e-9611-e4823f4278d9","ios":"levelo://app?vid=f3c07bb4-0997-453e-9611-e4823f4278d9"},"vehicle_type_id":"4","last_reported":1776801559,"current_range_meters":2800,"station_id":"ce4bhap2rcd13ifvqek0","pricing_plan_id":"cebpf4jnsgd1na2vs0mg"},{"bike_id":"82e4a329-5952-4081-9814-b1ad72240a02","system_id":"levelo_inurba_marseille","lat":43.26092,"lon":5.39906,"is_reserved":false,"is_disabled":false,"rental_uris":{"android":"levelo://app?vid=82e4a329-5952-4081-9814-b1ad72240a02","ios":"levelo://app?vid=82e4a329-5952-4081-9814-b1ad72240a02"},"vehicle_type_id":"4","last_reported":1776801559,"current_range_meters":2800,"station_id":"","pricing_plan_id":"cebpf4jnsgd1na2vs0mg"},{"bike_id":"ef4460cf-c33d-465d-8f99-319f3140e8d6","system_id":"levelo_inurba_marseille","lat":43.29434,"lon":5.39765,"is_reserved":false,"is_disabled":false,"rental_uris":{"android":"levelo://app?vid=ef4460cf-c33d-465d-8f99-319f3140e8d6","ios":"levelo://app?vid=ef4460cf-c33d-465d-8f99-319f3140e8d6"},"vehicle_type_id":"4","last_reported":1776801559,"current_range_meters":3200,"station_id":"ce4bh3h2rcd13ifvqdo0","pricing_plan_id":"cebpf4jnsgd1na2vs0mg"},{"bike_id":"119e2c0d-1456-45cf-a1f5-ad9cc03c860e","system_id":"levelo_inurba_marseille","lat":43.30466,"lon":5.37904,"is_reserved":false,"is_disabled":false,"rental_uris":{"android":"levelo://app?vid=119e2c0d-1456-45cf-a1f5-ad9cc03c860e","ios":"levelo://app?vid=119e2c0d-1456-45cf-a1f5-ad9cc03c860e"},"vehicle_type_id":"4","last_reported":1776801559,"current_range_meters":3200,"station_id":"ce4bgup2rcd13ifvqcn0","pricing_plan_id":"cebpf4jnsgd1na2vs0mg"},{"bike_id":"f2a84c6a-5d6b-47d8-9a16-76a7ec1e77c1","system_id":"levelo_inurba_marseille","lat":43.30104,"lon":5.39886,"is_reserved":false,"is_disabled":false,"rental_uris":{"android":"levelo://app?vid=f2a84c6a-5d6b-47d8-9a16-76a7ec1e77c1","ios":"levelo://app?vid=f2a84c6a-5d6b-47d8-9a16-76a7ec1e77c1"},"vehicle_type_id":"4","last_reported":1776801559,"current_range_meters":3200,"station_id":"ce4bh0h2rcd13ifvqd40","pricing_plan_id":"cebpf4jnsgd1na2vs0mg"},{"bike_id":"d1e6e4a4-d180-4311-a0b9-30bdee643795","system_id":"levelo_inurba_marseille","lat":43.29526,"lon":5.38535,"is_reserved":false,"is_disabled":false,"rental_uris":{"android":"levelo://app?vid=d1e6e4a4-d180-4311-a0b9-30bdee643795","ios":"levelo://app?vid=d1e6e4a4-d180-4311-a0b9-30bdee643795"},"vehicle_type_id":"4","last_reported":1776801559,"current_range_meters":3200,"station_id":"ce4bgih2rcd13ifvqba0","pricing_plan_id":"cebpf4jnsgd1na2vs0mg"},{"bike_id":"f8d03333-9381-4e1b-8eea-986ea33f897c","system_id":"levelo_inurba_marseille","lat":43.30557,"lon":5.36544,"is_reserved":false,"is_disabled":false,"rental_uris":{"android":"levelo://app?vid=f8d03333-9381-4e1b-8eea-986ea33f897c","ios":"levelo://app?vid=f8d03333-9381-4e1b-8eea-986ea33f897c"},"vehicle_type_id":"4","last_reported":1776801559,"current_range_meters":3200,"station_id":"ce4bgs12rcd13ifvqcag","pricing_plan_id":"cebpf4jnsgd1na2vs0mg"},{"bike_id":"c4788050-b849-4e97-8b93-5d92ef7d02d0","system_id":"levelo_inurba_marseille","lat":43.29913,"lon":5.37465,"is_reserved":false,"is_disabled":false,"rental_uris":{"android":"levelo://app?vid=c4788050-b849-4e97-8b93-5d92ef7d02d0","ios":"levelo://app?vid=c4788050-b849-4e97-8b93-5d92ef7d02d0"},"vehicle_type_id":"4","last_reported":1776801559,"current_range_meters":3200,"station_id":"ce4bgjh2rcd13ifvqbg0","pricing_plan_id":"cebpf4jnsgd1na2vs0mg"},{"bike_id":"798ae7cd-c941-48e6-8d49-d102d835d637","system_id":"levelo_inurba_marseille","lat":43.30467,"lon":5.37907,"is_reserved":false,"is_disabled":false,"rental_uris":{"android":"levelo://app?vid=798ae7cd-c941-48e6-8d49-d102d835d637","ios":"levelo://app?vid=798ae7cd-c941-48e6-8d49-d102d835d637"},"vehicle_type_id":"4","last_reported":1776801559,"current_range_meters":3200,"station_id":"ce4bgup2rcd13ifvqcn0","pricing_plan_id":"cebpf4jnsgd1na2vs0mg"},{"bike_id":"b2011645-cbc6-44f3-8c33-1aca90ae2d9e","system_id":"levelo_inurba_marseille","lat":43.23237,"lon":5.35114,"is_reserved":false,"is_disabled":false,"rental_uris":{"android":"levelo://app?vid=b2011645-cbc6-44f3-8c33-1aca90ae2d9e","ios":"levelo://app?vid=b2011645-cbc6-44f3-8c33-1aca90ae2d9e"},"vehicle_type_id":"4","last_reported":1776801559,"current_range_meters":3200,"station_id":"","pricing_plan_id":"cebpf4jnsgd1na2vs0mg"},{"bike_id":"f40c5ace-016c-4cc6-bad0-4ce61b5af209","system_id":"levelo_inurba_marseille","lat":43.27819,"lon":5.40716,"is_reserved":false,"is_disabled":false,"rental_uris":{"android":"levelo://app?vid=f40c5ace-016c-4cc6-bad0-4ce61b5af209","ios":"levelo://app?vid=f40c5ace-016c-4cc6-bad0-4ce61b5af209"},"vehicle_type_id":"4","last_reported":1776801559,"current_range_meters":3200,"station_id":"ce4bhnh2rcd13ifvqgtg","pricing_plan_id":"cebpf4jnsgd1na2vs0mg"},{"bike_id":"e5492a05-25fd-43f3-9e22-83a184ca839c","system_id":"levelo_inurba_marseille","lat":43.24943,"lon":5.40498,"is_reserved":false,"is_disabled":false,"rental_uris":{"android":"levelo://app?vid=e5492a05-25fd-43f3-9e22-83a184ca839c","ios":"levelo://app?vid=e5492a05-25fd-43f3-9e22-83a184ca839c"},"vehicle_type_id":"4","last_reported":1776801559,"current_range_meters":3200,"station_id":"st_d2ngiaodas8pm72gd1h0","pricing_plan_id":"cebpf4jnsgd1na2vs0mg"},{"bike_id":"6115ea93-f36b-4933-8d3b-76d3754fa534","system_id":"levelo_inurba_marseille","lat":43.24045,"lon":5.37748,"is_reserved":false,"is_disabled":false,"rental_uris":{"android":"levelo://app?vid=6115ea93-f36b-4933-8d3b-76d3754fa534","ios":"levelo://app?vid=6115ea93-f36b-4933-8d3b-76d3754fa534"},"vehicle_type_id":"4","last_reported":1776801559,"current_range_meters":3200,"station_id":"ce4bhnp2rcd13ifvqgvg","pricing_plan_id":"cebpf4jnsgd1na2vs0mg"},{"bike_id":"860a2c26-e5e4-4806-ab3a-9d31fffb9f44","system_id":"levelo_inurba_marseille","lat":43.307983,"lon":5.381527,"is_reserved":false,"is_disabled":false,"rental_uris":{"android":"levelo://app?vid=860a2c26-e5e4-4806-ab3a-9d31fffb9f44","ios":"levelo://app?vid=860a2c26-e5e4-4806-ab3a-9d31fffb9f44"},"vehicle_type_id":"4","last_reported":1776801559,"current_range_meters":3200,"station_id":"ce4bgt12rcd13ifvqce0","pricing_plan_id":"cebpf4jnsgd1na2vs0mg"},{"bike_id":"c76f4d05-3c1e-4ad2-86ba-7e757867f667","system_id":"levelo_inurba_marseille","lat":43.29532,"lon":5.38538,"is_reserved":false,"is_disabled":false,"rental_uris":{"android":"levelo://app?vid=c76f4d05-3c1e-4ad2-86ba-7e757867f667","ios":"levelo://app?vid=c76f4d05-3c1e-4ad2-86ba-7e757867f667"},"vehicle_type_id":"4","last_reported":1776801559,"current_range_meters":3200,"station_id":"ce4bgih2rcd13ifvqba0","pricing_plan_id":"cebpf4jnsgd1na2vs0mg"},{"bike_id":"e17e8235-56e9-4b93-9762-cc0a8a1d9ac4","system_id":"levelo_inurba_marseille","lat":43.29718,"lon":5.3769,"is_reserved":false,"is_disabled":false,"rental_uris":{"android":"levelo://app?vid=e17e8235-56e9-4b93-9762-cc0a8a1d9ac4","ios":"levelo://app?vid=e17e8235-56e9-4b93-9762-cc0a8a1d9ac4"},"vehicle_type_id":"4","last_reported":1776801559,"current_range_meters":3200,"station_id":"ce4bgkh2rcd13ifvqbl0","pricing_plan_id":"cebpf4jnsgd1na2vs0mg"},{"bike_id":"678be1e3-7bf2-4e61-8458-42d5abd6c5bd","system_id":"levelo_inurba_marseille","lat":43.33758,"lon":5.37483,"is_reserved":false,"is_disabled":false,"rental_uris":{"android":"levelo://app?vid=678be1e3-7bf2-4e61-8458-42d5abd6c5bd","ios":"levelo://app?vid=678be1e3-7bf2-4e61-8458-42d5abd6c5bd"},"vehicle_type_id":"4","last_reported":1776801559,"current_range_meters":3600,"station_id":"","pricing_plan_id":"cebpf4jnsgd1na2vs0mg"},{"bike_id":"1f7a2d29-0ba7-4b8b-9cac-6ff894aac21f","system_id":"levelo_inurba_marseille","lat":43.32954,"lon":5.38981,"is_reserved":false,"is_disabled":false,"rental_uris":{"android":"levelo://app?vid=1f7a2d29-0ba7-4b8b-9cac-6ff894aac21f","ios":"levelo://app?vid=1f7a2d29-0ba7-4b8b-9cac-6ff894aac21f"},"vehicle_type_id":"4","last_reported":1776801559,"current_range_meters":3600,"station_id":"","pricing_plan_id":"cebpf4jnsgd1na2vs0mg"},{"bike_id":"f27eb424-5b95-4293-b6fc-67955ab5fbc1","system_id":"levelo_inurba_marseille","lat":43.31694,"lon":5.40443,"is_reserved":false,"is_disabled":false,"rental_uris":{"android":"levelo://app?vid=f27eb424-5b95-4293-b6fc-67955ab5fbc1","ios":"levelo://app?vid=f27eb424-5b95-4293-b6fc-67955ab5fbc1"},"vehicle_type_id":"4","last_reported":1776801559,"current_range_meters":3600,"station_id":"ce4bh012rcd13ifvqd00","pricing_plan_id":"cebpf4jnsgd1na2vs0mg"},{"bike_id":"d800b5df-2c8a-4007-890c-99d6b4a4fbc0","system_id":"levelo_inurba_marseille","lat":43.28446,"lon":5.35895,"is_reserved":false,"is_disabled":false,"rental_uris":{"android":"levelo://app?vid=d800b5df-2c8a-4007-890c-99d6b4a4fbc0","ios":"levelo://app?vid=d800b5df-2c8a-4007-890c-99d6b4a4fbc0"},"vehicle_type_id":"4","last_reported":1776801559,"current_range_meters":3600,"station_id":"ce4bhah2rcd13ifvqei0","pricing_plan_id":"cebpf4jnsgd1na2vs0mg"},{"bike_id":"5d8d4171-b73f-4b93-91f6-73578047ed4f","system_id":"levelo_inurba_marseille","lat":43.30082,"lon":5.39088,"is_reserved":false,"is_disabled":false,"rental_uris":{"android":"levelo://app?vid=5d8d4171-b73f-4b93-91f6-73578047ed4f","ios":"levelo://app?vid=5d8d4171-b73f-4b93-91f6-73578047ed4f"},"vehicle_type_id":"4","last_reported":1776801559,"current_range_meters":3600,"station_id":"ce4bh192rcd13ifvqdb0","pricing_plan_id":"cebpf4jnsgd1na2vs0mg"},{"bike_id":"fc65a632-bd3b-4cc7-8723-5cc6caf0ef89","system_id":"levelo_inurba_marseille","lat":43.2951,"lon":5.394,"is_reserved":false,"is_disabled":false,"rental_uris":{"android":"levelo://app?vid=fc65a632-bd3b-4cc7-8723-5cc6caf0ef89","ios":"levelo://app?vid=fc65a632-bd3b-4cc7-8723-5cc6caf0ef89"},"vehicle_type_id":"4","last_reported":1776801559,"current_range_meters":3600,"station_id":"ce4bh292rcd13ifvqdf0","pricing_plan_id":"cebpf4jnsgd1na2vs0mg"},{"bike_id":"404b62c4-0c20-4500-af98-e959afbac900","system_id":"levelo_inurba_marseille","lat":43.29304,"lon":5.37174,"is_reserved":false,"is_disabled":false,"rental_uris":{"android":"levelo://app?vid=404b62c4-0c20-4500-af98-e959afbac900","ios":"levelo://app?vid=404b62c4-0c20-4500-af98-e959afbac900"},"vehicle_type_id":"4","last_reported":1776801559,"current_range_meters":3600,"station_id":"ce4bgh92rcd13ifvqb40","pricing_plan_id":"cebpf4jnsgd1na2vs0mg"},{"bike_id":"39e8586f-e71e-475c-ab43-1aae034f493d","system_id":"levelo_inurba_marseille","lat":43.29198,"lon":5.39302,"is_reserved":false,"is_disabled":false,"rental_uris":{"android":"levelo://app?vid=39e8586f-e71e-475c-ab43-1aae034f493d","ios":"levelo://app?vid=39e8586f-e71e-475c-ab43-1aae034f493d"},"vehicle_type_id":"4","last_reported":1776801559,"current_range_meters":3600,"station_id":"ce4bh192rcd13ifvqdd0","pricing_plan_id":"cebpf4jnsgd1na2vs0mg"},{"bike_id":"72ce5c7b-f90a-4320-83e6-79770c82c65e","system_id":"levelo_inurba_marseille","lat":43.27383,"lon":5.38493,"is_reserved":false,"is_disabled":false,"rental_uris":{"android":"levelo://app?vid=72ce5c7b-f90a-4320-83e6-79770c82c65e","ios":"levelo://app?vid=72ce5c7b-f90a-4320-83e6-79770c82c65e"},"vehicle_type_id":"4","last_reported":1776801559,"current_range_meters":3600,"station_id":"","pricing_plan_id":"cebpf4jnsgd1na2vs0mg"},{"bike_id":"f1dc6c9c-e9a3-4937-b042-bcfba714f415","system_id":"levelo_inurba_marseille","lat":43.29611,"lon":5.37388,"is_reserved":false,"is_disabled":false,"rental_uris":{"android":"levelo://app?vid=f1dc6c9c-e9a3-4937-b042-bcfba714f415","ios":"levelo://app?vid=f1dc6c9c-e9a3-4937-b042-bcfba714f415"},"vehicle_type_id":"4","last_reported":1776801559,"current_range_meters":3600,"station_id":"","pricing_plan_id":"cebpf4jnsgd1na2vs0mg"},{"bike_id":"22033817-0b57-4aac-b4c2-cb663c9a4002","system_id":"levelo_inurba_marseille","lat":43.31161,"lon":5.39001,"is_reserved":false,"is_disabled":false,"rental_uris":{"android":"levelo://app?vid=22033817-0b57-4aac-b4c2-cb663c9a4002","ios":"levelo://app?vid=22033817-0b57-4aac-b4c2-cb663c9a4002"},"vehicle_type_id":"4","last_reported":1776801559,"current_range_meters":3600,"station_id":"","pricing_plan_id":"cebpf4jnsgd1na2vs0mg"},{"bike_id":"6ecec79b-c2e0-447a-adc6-7094acfeb45f","system_id":"levelo_inurba_marseille","lat":43.31167,"lon":5.38721,"is_reserved":false,"is_disabled":false,"rental_uris":{"android":"levelo://app?vid=6ecec79b-c2e0-447a-adc6-7094acfeb45f","ios":"levelo://app?vid=6ecec79b-c2e0-447a-adc6-7094acfeb45f"},"vehicle_type_id":"4","last_reported":1776801559,"current_range_meters":3600,"station_id":"ce4bgv12rcd13ifvqcp0","pricing_plan_id":"cebpf4jnsgd1na2vs0mg"},{"bike_id":"21298c5a-eda3-4af3-a524-0558894f8b98","system_id":"levelo_inurba_marseille","lat":43.3038,"lon":5.47294,"is_reserved":false,"is_disabled":false,"rental_uris":{"android":"levelo://app?vid=21298c5a-eda3-4af3-a524-0558894f8b98","ios":"levelo://app?vid=21298c5a-eda3-4af3-a524-0558894f8b98"},"vehicle_type_id":"4","last_reported":1776801559,"current_range_meters":3600,"station_id":"","pricing_plan_id":"cebpf4jnsgd1na2vs0mg"},{"bike_id":"0fdc542d-acd2-4025-8d63-512d2f4432f7","system_id":"levelo_inurba_marseille","lat":43.292316,"lon":5.360695,"is_reserved":false,"is_disabled":false,"rental_uris":{"android":"levelo://app?vid=0fdc542d-acd2-4025-8d63-512d2f4432f7","ios":"levelo://app?vid=0fdc542d-acd2-4025-8d63-512d2f4432f7"},"vehicle_type_id":"4","last_reported":1776801559,"current_range_meters":3600,"station_id":"ce4bh192rcd13ifvqdd0","pricing_plan_id":"cebpf4jnsgd1na2vs0mg"},{"bike_id":"529b2191-f0c2-4fcf-a59d-d39414c4c16f","system_id":"levelo_inurba_marseille","lat":43.28093,"lon":5.37862,"is_reserved":false,"is_disabled":false,"rental_uris":{"android":"levelo://app?vid=529b2191-f0c2-4fcf-a59d-d39414c4c16f","ios":"levelo://app?vid=529b2191-f0c2-4fcf-a59d-d39414c4c16f"},"vehicle_type_id":"4","last_reported":1776801559,"current_range_meters":3600,"station_id":"ce4bha12rcd13ifvqee0","pricing_plan_id":"cebpf4jnsgd1na2vs0mg"},{"bike_id":"9b2535e7-e74f-4946-8e30-761556cc1cd3","system_id":"levelo_inurba_marseille","lat":43.2928,"lon":5.40123,"is_reserved":false,"is_disabled":false,"rental_uris":{"android":"levelo://app?vid=9b2535e7-e74f-4946-8e30-761556cc1cd3","ios":"levelo://app?vid=9b2535e7-e74f-4946-8e30-761556cc1cd3"},"vehicle_type_id":"4","last_reported":1776801559,"current_range_meters":4000,"station_id":"ce4bh312rcd13ifvqdk0","pricing_plan_id":"cebpf4jnsgd1na2vs0mg"},{"bike_id":"a6fb96ab-d466-4abd-9d6d-58e578569bd4","system_id":"levelo_inurba_marseille","lat":43.29512,"lon":5.38553,"is_reserved":false,"is_disabled":false,"rental_uris":{"android":"levelo://app?vid=a6fb96ab-d466-4abd-9d6d-58e578569bd4","ios":"levelo://app?vid=a6fb96ab-d466-4abd-9d6d-58e578569bd4"},"vehicle_type_id":"4","last_reported":1776801559,"current_range_meters":4000,"station_id":"ce4bgih2rcd13ifvqba0","pricing_plan_id":"cebpf4jnsgd1na2vs0mg"},{"bike_id":"6cb77786-5dff-4b6b-b399-83a9c40b38d5","system_id":"levelo_inurba_marseille","lat":43.21195,"lon":5.35069,"is_reserved":false,"is_disabled":false,"rental_uris":{"android":"levelo://app?vid=6cb77786-5dff-4b6b-b399-83a9c40b38d5","ios":"levelo://app?vid=6cb77786-5dff-4b6b-b399-83a9c40b38d5"},"vehicle_type_id":"4","last_reported":1776801559,"current_range_meters":4000,"station_id":"st_cvj6sg6p6f1abm77japg","pricing_plan_id":"cebpf4jnsgd1na2vs0mg"},{"bike_id":"4a049369-7aae-4493-aa1e-991c52515875","system_id":"levelo_inurba_marseille","lat":43.29207,"lon":5.35798,"is_reserved":false,"is_disabled":true,"rental_uris":{"android":"levelo://app?vid=4a049369-7aae-4493-aa1e-991c52515875","ios":"levelo://app?vid=4a049369-7aae-4493-aa1e-991c52515875"},"vehicle_type_id":"4","last_reported":1776801559,"current_range_meters":4000,"station_id":"ce4bhb12rcd13ifvqel0","pricing_plan_id":"cebpf4jnsgd1na2vs0mg"},{"bike_id":"428a3e1f-0c14-4644-9951-f64ac1c47a29","system_id":"levelo_inurba_marseille","lat":43.33546,"lon":5.37467,"is_reserved":false,"is_disabled":false,"rental_uris":{"android":"levelo://app?vid=428a3e1f-0c14-4644-9951-f64ac1c47a29","ios":"levelo://app?vid=428a3e1f-0c14-4644-9951-f64ac1c47a29"},"vehicle_type_id":"4","last_reported":1776801559,"current_range_meters":4000,"station_id":"st_d46tts09ee8s73dlu43g","pricing_plan_id":"cebpf4jnsgd1na2vs0mg"},{"bike_id":"114d929b-ed2e-4ee2-8cfa-4993b8ccf4af","system_id":"levelo_inurba_marseille","lat":43.29537,"lon":5.38494,"is_reserved":false,"is_disabled":false,"rental_uris":{"android":"levelo://app?vid=114d929b-ed2e-4ee2-8cfa-4993b8ccf4af","ios":"levelo://app?vid=114d929b-ed2e-4ee2-8cfa-4993b8ccf4af"},"vehicle_type_id":"4","last_reported":1776801559,"current_range_meters":4000,"station_id":"","pricing_plan_id":"cebpf4jnsgd1na2vs0mg"},{"bike_id":"48adc2d9-cd03-445d-9ee2-91e860af3ff5","system_id":"levelo_inurba_marseille","lat":43.29704,"lon":5.36611,"is_reserved":false,"is_disabled":false,"rental_uris":{"android":"levelo://app?vid=48adc2d9-cd03-445d-9ee2-91e860af3ff5","ios":"levelo://app?vid=48adc2d9-cd03-445d-9ee2-91e860af3ff5"},"vehicle_type_id":"4","last_reported":1776801559,"current_range_meters":4000,"station_id":"ce4bgn12rcd13ifvqbt0","pricing_plan_id":"cebpf4jnsgd1na2vs0mg"},{"bike_id":"c01d9f5d-b214-4dab-9a71-6ebca17bb84d","system_id":"levelo_inurba_marseille","lat":43.31358,"lon":5.38497,"is_reserved":false,"is_disabled":false,"rental_uris":{"android":"levelo://app?vid=c01d9f5d-b214-4dab-9a71-6ebca17bb84d","ios":"levelo://app?vid=c01d9f5d-b214-4dab-9a71-6ebca17bb84d"},"vehicle_type_id":"4","last_reported":1776801559,"current_range_meters":4000,"station_id":"ce4bgt92rcd13ifvqcf0","pricing_plan_id":"cebpf4jnsgd1na2vs0mg"},{"bike_id":"2b91d518-5095-4415-99e4-124095a25fff","system_id":"levelo_inurba_marseille","lat":43.33692,"lon":5.39839,"is_reserved":false,"is_disabled":false,"rental_uris":{"android":"levelo://app?vid=2b91d518-5095-4415-99e4-124095a25fff","ios":"levelo://app?vid=2b91d518-5095-4415-99e4-124095a25fff"},"vehicle_type_id":"4","last_reported":1776801559,"current_range_meters":4000,"station_id":"","pricing_plan_id":"cebpf4jnsgd1na2vs0mg"},{"bike_id":"e40613a8-ab78-4dc5-9ba0-76898374136e","system_id":"levelo_inurba_marseille","lat":43.28511,"lon":5.44115,"is_reserved":false,"is_disabled":false,"rental_uris":{"android":"levelo://app?vid=e40613a8-ab78-4dc5-9ba0-76898374136e","ios":"levelo://app?vid=e40613a8-ab78-4dc5-9ba0-76898374136e"},"vehicle_type_id":"4","last_reported":1776801559,"current_range_meters":4000,"station_id":"st_d3j3df2ikq2c7380ej80","pricing_plan_id":"cebpf4jnsgd1na2vs0mg"},{"bike_id":"cd1f3ea7-2505-461d-b68a-23023e8ad292","system_id":"levelo_inurba_marseille","lat":43.30323,"lon":5.40437,"is_reserved":false,"is_disabled":false,"rental_uris":{"android":"levelo://app?vid=cd1f3ea7-2505-461d-b68a-23023e8ad292","ios":"levelo://app?vid=cd1f3ea7-2505-461d-b68a-23023e8ad292"},"vehicle_type_id":"4","last_reported":1776801559,"current_range_meters":4000,"station_id":"ce4bh012rcd13ifvqd10","pricing_plan_id":"cebpf4jnsgd1na2vs0mg"},{"bike_id":"c49b139f-2645-4fb3-b76b-1c5416e295f8","system_id":"levelo_inurba_marseille","lat":43.30201,"lon":5.36601,"is_reserved":false,"is_disabled":false,"rental_uris":{"android":"levelo://app?vid=c49b139f-2645-4fb3-b76b-1c5416e295f8","ios":"levelo://app?vid=c49b139f-2645-4fb3-b76b-1c5416e295f8"},"vehicle_type_id":"4","last_reported":1776801559,"current_range_meters":4000,"station_id":"ce4bgrh2rcd13ifvqc8g","pricing_plan_id":"cebpf4jnsgd1na2vs0mg"},{"bike_id":"fdde59fb-e056-425c-9fdc-14b94359e5a7","system_id":"levelo_inurba_marseille","lat":43.31774,"lon":5.3846,"is_reserved":false,"is_disabled":false,"rental_uris":{"android":"levelo://app?vid=fdde59fb-e056-425c-9fdc-14b94359e5a7","ios":"levelo://app?vid=fdde59fb-e056-425c-9fdc-14b94359e5a7"},"vehicle_type_id":"4","last_reported":1776801559,"current_range_meters":4000,"station_id":"","pricing_plan_id":"cebpf4jnsgd1na2vs0mg"},{"bike_id":"259873a5-a1ea-41b3-8200-d0477284c8f2","system_id":"levelo_inurba_marseille","lat":43.28541,"lon":5.44102,"is_reserved":false,"is_disabled":false,"rental_uris":{"android":"levelo://app?vid=259873a5-a1ea-41b3-8200-d0477284c8f2","ios":"levelo://app?vid=259873a5-a1ea-41b3-8200-d0477284c8f2"},"vehicle_type_id":"4","last_reported":1776801559,"current_range_meters":4000,"station_id":"st_d3j3df2ikq2c7380ej80","pricing_plan_id":"cebpf4jnsgd1na2vs0mg"},{"bike_id":"d40b051f-a52c-4717-a040-051e4caeba6c","system_id":"levelo_inurba_marseille","lat":43.232066,"lon":5.400085,"is_reserved":false,"is_disabled":false,"rental_uris":{"android":"levelo://app?vid=d40b051f-a52c-4717-a040-051e4caeba6c","ios":"levelo://app?vid=d40b051f-a52c-4717-a040-051e4caeba6c"},"vehicle_type_id":"4","last_reported":1776801559,"current_range_meters":4000,"station_id":"ce4bhn12rcd13ifvqgqg","pricing_plan_id":"cebpf4jnsgd1na2vs0mg"},{"bike_id":"13c08019-a496-4ae7-b597-df45493d6708","system_id":"levelo_inurba_marseille","lat":43.23187,"lon":5.3557,"is_reserved":false,"is_disabled":false,"rental_uris":{"android":"levelo://app?vid=13c08019-a496-4ae7-b597-df45493d6708","ios":"levelo://app?vid=13c08019-a496-4ae7-b597-df45493d6708"},"vehicle_type_id":"4","last_reported":1776801559,"current_range_meters":4400,"station_id":"ce4bhu92rcd13ifvqi70","pricing_plan_id":"cebpf4jnsgd1na2vs0mg"},{"bike_id":"7e2a87cb-9ff9-4cbc-9979-cb779f79fd26","system_id":"levelo_inurba_marseille","lat":43.2918,"lon":5.3931,"is_reserved":false,"is_disabled":false,"rental_uris":{"android":"levelo://app?vid=7e2a87cb-9ff9-4cbc-9979-cb779f79fd26","ios":"levelo://app?vid=7e2a87cb-9ff9-4cbc-9979-cb779f79fd26"},"vehicle_type_id":"4","last_reported":1776801559,"current_range_meters":4400,"station_id":"ce4bh192rcd13ifvqdd0","pricing_plan_id":"cebpf4jnsgd1na2vs0mg"},{"bike_id":"14c96f2b-5bfd-4acb-affb-34747bb616ea","system_id":"levelo_inurba_marseille","lat":43.29783,"lon":5.39335,"is_reserved":false,"is_disabled":false,"rental_uris":{"android":"levelo://app?vid=14c96f2b-5bfd-4acb-affb-34747bb616ea","ios":"levelo://app?vid=14c96f2b-5bfd-4acb-affb-34747bb616ea"},"vehicle_type_id":"4","last_reported":1776801559,"current_range_meters":4400,"station_id":"chh1huq6cuj3fo74tm60","pricing_plan_id":"cebpf4jnsgd1na2vs0mg"},{"bike_id":"21d03c10-c14d-4b84-ac83-dab76914fcd0","system_id":"levelo_inurba_marseille","lat":43.31167,"lon":5.38737,"is_reserved":false,"is_disabled":false,"rental_uris":{"android":"levelo://app?vid=21d03c10-c14d-4b84-ac83-dab76914fcd0","ios":"levelo://app?vid=21d03c10-c14d-4b84-ac83-dab76914fcd0"},"vehicle_type_id":"4","last_reported":1776801559,"current_range_meters":4400,"station_id":"ce4bgv12rcd13ifvqcp0","pricing_plan_id":"cebpf4jnsgd1na2vs0mg"},{"bike_id":"65c36df8-a7fe-4010-8370-f48b0c45f206","system_id":"levelo_inurba_marseille","lat":43.33583,"lon":5.375,"is_reserved":false,"is_disabled":false,"rental_uris":{"android":"levelo://app?vid=65c36df8-a7fe-4010-8370-f48b0c45f206","ios":"levelo://app?vid=65c36df8-a7fe-4010-8370-f48b0c45f206"},"vehicle_type_id":"4","last_reported":1776801559,"current_range_meters":4400,"station_id":"st_d46tts09ee8s73dlu43g","pricing_plan_id":"cebpf4jnsgd1na2vs0mg"},{"bike_id":"eb0dd92c-7777-4aff-ab88-96a22419386b","system_id":"levelo_inurba_marseille","lat":43.30139,"lon":5.38116,"is_reserved":false,"is_disabled":true,"rental_uris":{"android":"levelo://app?vid=eb0dd92c-7777-4aff-ab88-96a22419386b","ios":"levelo://app?vid=eb0dd92c-7777-4aff-ab88-96a22419386b"},"vehicle_type_id":"4","last_reported":1776801559,"current_range_meters":4400,"station_id":"ce4bgjp2rcd13ifvqbh0","pricing_plan_id":"cebpf4jnsgd1na2vs0mg"},{"bike_id":"be5348a3-1499-4f44-9d7a-d050ef9268e8","system_id":"levelo_inurba_marseille","lat":43.32699,"lon":5.38328,"is_reserved":false,"is_disabled":false,"rental_uris":{"android":"levelo://app?vid=be5348a3-1499-4f44-9d7a-d050ef9268e8","ios":"levelo://app?vid=be5348a3-1499-4f44-9d7a-d050ef9268e8"},"vehicle_type_id":"4","last_reported":1776801559,"current_range_meters":4400,"station_id":"","pricing_plan_id":"cebpf4jnsgd1na2vs0mg"},{"bike_id":"ea0af9eb-53b3-4939-b804-746c86fd33bd","system_id":"levelo_inurba_marseille","lat":43.27375,"lon":5.36258,"is_reserved":false,"is_disabled":false,"rental_uris":{"android":"levelo://app?vid=ea0af9eb-53b3-4939-b804-746c86fd33bd","ios":"levelo://app?vid=ea0af9eb-53b3-4939-b804-746c86fd33bd"},"vehicle_type_id":"4","last_reported":1776801559,"current_range_meters":4400,"station_id":"ce4bhbh2rcd13ifvqeo0","pricing_plan_id":"cebpf4jnsgd1na2vs0mg"},{"bike_id":"6ab37850-da00-49b4-a8c0-2a2b801468af","system_id":"levelo_inurba_marseille","lat":43.29069,"lon":5.37152,"is_reserved":false,"is_disabled":false,"rental_uris":{"android":"levelo://app?vid=6ab37850-da00-49b4-a8c0-2a2b801468af","ios":"levelo://app?vid=6ab37850-da00-49b4-a8c0-2a2b801468af"},"vehicle_type_id":"4","last_reported":1776801559,"current_range_meters":4400,"station_id":"ce4bh5p2rcd13ifvqe4g","pricing_plan_id":"cebpf4jnsgd1na2vs0mg"},{"bike_id":"53c700b8-845b-473e-b238-598a75d59a87","system_id":"levelo_inurba_marseille","lat":43.308004,"lon":5.381417,"is_reserved":false,"is_disabled":false,"rental_uris":{"android":"levelo://app?vid=53c700b8-845b-473e-b238-598a75d59a87","ios":"levelo://app?vid=53c700b8-845b-473e-b238-598a75d59a87"},"vehicle_type_id":"4","last_reported":1776801559,"current_range_meters":4400,"station_id":"ce4bgt12rcd13ifvqce0","pricing_plan_id":"cebpf4jnsgd1na2vs0mg"},{"bike_id":"58ed09d9-0aa1-471f-818a-54c432b83970","system_id":"levelo_inurba_marseille","lat":43.26622,"lon":5.42816,"is_reserved":false,"is_disabled":false,"rental_uris":{"android":"levelo://app?vid=58ed09d9-0aa1-471f-818a-54c432b83970","ios":"levelo://app?vid=58ed09d9-0aa1-471f-818a-54c432b83970"},"vehicle_type_id":"4","last_reported":1776801559,"current_range_meters":4800,"station_id":"","pricing_plan_id":"cebpf4jnsgd1na2vs0mg"},{"bike_id":"3fab059d-18a7-482e-8115-cee8992a6a7a","system_id":"levelo_inurba_marseille","lat":43.27941,"lon":5.4105,"is_reserved":false,"is_disabled":false,"rental_uris":{"android":"levelo://app?vid=3fab059d-18a7-482e-8115-cee8992a6a7a","ios":"levelo://app?vid=3fab059d-18a7-482e-8115-cee8992a6a7a"},"vehicle_type_id":"4","last_reported":1776801559,"current_range_meters":4800,"station_id":"ce4bhnp2rcd13ifvqh0g","pricing_plan_id":"cebpf4jnsgd1na2vs0mg"},{"bike_id":"9e8e03d7-80fe-4d5a-b3ba-3f867ba336df","system_id":"levelo_inurba_marseille","lat":43.31715,"lon":5.43703,"is_reserved":false,"is_disabled":false,"rental_uris":{"android":"levelo://app?vid=9e8e03d7-80fe-4d5a-b3ba-3f867ba336df","ios":"levelo://app?vid=9e8e03d7-80fe-4d5a-b3ba-3f867ba336df"},"vehicle_type_id":"4","last_reported":1776801559,"current_range_meters":4800,"station_id":"ce4bhp92rcd13ifvqhcg","pricing_plan_id":"cebpf4jnsgd1na2vs0mg"},{"bike_id":"685942dc-6a9b-4b49-b452-b6620f26b3ab","system_id":"levelo_inurba_marseille","lat":43.29801,"lon":5.38093,"is_reserved":false,"is_disabled":false,"rental_uris":{"android":"levelo://app?vid=685942dc-6a9b-4b49-b452-b6620f26b3ab","ios":"levelo://app?vid=685942dc-6a9b-4b49-b452-b6620f26b3ab"},"vehicle_type_id":"4","last_reported":1776801559,"current_range_meters":4800,"station_id":"ce4bgip2rcd13ifvqbb0","pricing_plan_id":"cebpf4jnsgd1na2vs0mg"},{"bike_id":"64d94556-6834-4dbf-9283-c66d7f63f63b","system_id":"levelo_inurba_marseille","lat":43.29488,"lon":5.43299,"is_reserved":false,"is_disabled":false,"rental_uris":{"android":"levelo://app?vid=64d94556-6834-4dbf-9283-c66d7f63f63b","ios":"levelo://app?vid=64d94556-6834-4dbf-9283-c66d7f63f63b"},"vehicle_type_id":"4","last_reported":1776801559,"current_range_meters":4800,"station_id":"st_d3j5ugp08ojc73fj9d10","pricing_plan_id":"cebpf4jnsgd1na2vs0mg"},{"bike_id":"d39f5df9-4090-4dd0-8577-8fdf7ac9c9dc","system_id":"levelo_inurba_marseille","lat":43.28931,"lon":5.3963,"is_reserved":false,"is_disabled":false,"rental_uris":{"android":"levelo://app?vid=d39f5df9-4090-4dd0-8577-8fdf7ac9c9dc","ios":"levelo://app?vid=d39f5df9-4090-4dd0-8577-8fdf7ac9c9dc"},"vehicle_type_id":"4","last_reported":1776801559,"current_range_meters":4800,"station_id":"ce4bh3h2rcd13ifvqdn0","pricing_plan_id":"cebpf4jnsgd1na2vs0mg"},{"bike_id":"55b9e363-aef1-4e55-a55c-7c19ee416703","system_id":"levelo_inurba_marseille","lat":43.31848,"lon":5.37298,"is_reserved":false,"is_disabled":false,"rental_uris":{"android":"levelo://app?vid=55b9e363-aef1-4e55-a55c-7c19ee416703","ios":"levelo://app?vid=55b9e363-aef1-4e55-a55c-7c19ee416703"},"vehicle_type_id":"4","last_reported":1776801559,"current_range_meters":4800,"station_id":"","pricing_plan_id":"cebpf4jnsgd1na2vs0mg"},{"bike_id":"b785f7ea-cfcc-407f-b48a-6739a001a77c","system_id":"levelo_inurba_marseille","lat":43.3317,"lon":5.37695,"is_reserved":false,"is_disabled":false,"rental_uris":{"android":"levelo://app?vid=b785f7ea-cfcc-407f-b48a-6739a001a77c","ios":"levelo://app?vid=b785f7ea-cfcc-407f-b48a-6739a001a77c"},"vehicle_type_id":"4","last_reported":1776801559,"current_range_meters":4800,"station_id":"st_d46cu089ee8s73dldbu0","pricing_plan_id":"cebpf4jnsgd1na2vs0mg"},{"bike_id":"34202420-2145-44b8-a54a-bbf0e5201a0a","system_id":"levelo_inurba_marseille","lat":43.30123,"lon":5.39845,"is_reserved":false,"is_disabled":false,"rental_uris":{"android":"levelo://app?vid=34202420-2145-44b8-a54a-bbf0e5201a0a","ios":"levelo://app?vid=34202420-2145-44b8-a54a-bbf0e5201a0a"},"vehicle_type_id":"4","last_reported":1776801559,"current_range_meters":4800,"station_id":"ce4bh0h2rcd13ifvqd40","pricing_plan_id":"cebpf4jnsgd1na2vs0mg"},{"bike_id":"032aadbc-bf18-4be0-887f-decf5b2cc280","system_id":"levelo_inurba_marseille","lat":43.31866,"lon":5.40756,"is_reserved":false,"is_disabled":false,"rental_uris":{"android":"levelo://app?vid=032aadbc-bf18-4be0-887f-decf5b2cc280","ios":"levelo://app?vid=032aadbc-bf18-4be0-887f-decf5b2cc280"},"vehicle_type_id":"4","last_reported":1776801559,"current_range_meters":4800,"station_id":"ce4bhq12rcd13ifvqhig","pricing_plan_id":"cebpf4jnsgd1na2vs0mg"},{"bike_id":"624daf69-f815-4f9b-8f7c-0a5468b5d0f6","system_id":"levelo_inurba_marseille","lat":43.26195,"lon":5.37046,"is_reserved":false,"is_disabled":false,"rental_uris":{"android":"levelo://app?vid=624daf69-f815-4f9b-8f7c-0a5468b5d0f6","ios":"levelo://app?vid=624daf69-f815-4f9b-8f7c-0a5468b5d0f6"},"vehicle_type_id":"4","last_reported":1776801559,"current_range_meters":4800,"station_id":"","pricing_plan_id":"cebpf4jnsgd1na2vs0mg"},{"bike_id":"9c0e0af9-1779-4487-ae26-d9494be59195","system_id":"levelo_inurba_marseille","lat":43.291969,"lon":5.393232,"is_reserved":false,"is_disabled":false,"rental_uris":{"android":"levelo://app?vid=9c0e0af9-1779-4487-ae26-d9494be59195","ios":"levelo://app?vid=9c0e0af9-1779-4487-ae26-d9494be59195"},"vehicle_type_id":"4","last_reported":1776801559,"current_range_meters":4800,"station_id":"ce4bh192rcd13ifvqdd0","pricing_plan_id":"cebpf4jnsgd1na2vs0mg"},{"bike_id":"a5adfe07-d53d-428b-a39e-c4b14d135656","system_id":"levelo_inurba_marseille","lat":43.29519,"lon":5.38555,"is_reserved":false,"is_disabled":false,"rental_uris":{"android":"levelo://app?vid=a5adfe07-d53d-428b-a39e-c4b14d135656","ios":"levelo://app?vid=a5adfe07-d53d-428b-a39e-c4b14d135656"},"vehicle_type_id":"4","last_reported":1776801559,"current_range_meters":5600,"station_id":"ce4bgih2rcd13ifvqba0","pricing_plan_id":"cebpf4jnsgd1na2vs0mg"},{"bike_id":"ae3cdbc1-046c-42e5-b909-29c9e0bcb254","system_id":"levelo_inurba_marseille","lat":43.331329,"lon":5.377049,"is_reserved":false,"is_disabled":false,"rental_uris":{"android":"levelo://app?vid=ae3cdbc1-046c-42e5-b909-29c9e0bcb254","ios":"levelo://app?vid=ae3cdbc1-046c-42e5-b909-29c9e0bcb254"},"vehicle_type_id":"4","last_reported":1776801559,"current_range_meters":5600,"station_id":"","pricing_plan_id":"cebpf4jnsgd1na2vs0mg"},{"bike_id":"106fcb9a-de5c-4dd9-94f9-c5b0245ccd6c","system_id":"levelo_inurba_marseille","lat":43.30451,"lon":5.38869,"is_reserved":false,"is_disabled":false,"rental_uris":{"android":"levelo://app?vid=106fcb9a-de5c-4dd9-94f9-c5b0245ccd6c","ios":"levelo://app?vid=106fcb9a-de5c-4dd9-94f9-c5b0245ccd6c"},"vehicle_type_id":"4","last_reported":1776801559,"current_range_meters":5600,"station_id":"ce4bgk12rcd13ifvqbi0","pricing_plan_id":"cebpf4jnsgd1na2vs0mg"},{"bike_id":"9990d86e-b67a-4df5-a750-4383b9979214","system_id":"levelo_inurba_marseille","lat":43.29543,"lon":5.38535,"is_reserved":false,"is_disabled":false,"rental_uris":{"android":"levelo://app?vid=9990d86e-b67a-4df5-a750-4383b9979214","ios":"levelo://app?vid=9990d86e-b67a-4df5-a750-4383b9979214"},"vehicle_type_id":"4","last_reported":1776801559,"current_range_meters":5600,"station_id":"ce4bgih2rcd13ifvqba0","pricing_plan_id":"cebpf4jnsgd1na2vs0mg"},{"bike_id":"c4e93ff0-02a4-4886-9bdc-0144cc9e6e06","system_id":"levelo_inurba_marseille","lat":43.30317,"lon":5.4044,"is_reserved":false,"is_disabled":false,"rental_uris":{"android":"levelo://app?vid=c4e93ff0-02a4-4886-9bdc-0144cc9e6e06","ios":"levelo://app?vid=c4e93ff0-02a4-4886-9bdc-0144cc9e6e06"},"vehicle_type_id":"4","last_reported":1776801559,"current_range_meters":5600,"station_id":"ce4bh012rcd13ifvqd10","pricing_plan_id":"cebpf4jnsgd1na2vs0mg"},{"bike_id":"377e474f-c237-483e-b0c8-ff00e3d0a440","system_id":"levelo_inurba_marseille","lat":43.25102,"lon":5.39502,"is_reserved":false,"is_disabled":false,"rental_uris":{"android":"levelo://app?vid=377e474f-c237-483e-b0c8-ff00e3d0a440","ios":"levelo://app?vid=377e474f-c237-483e-b0c8-ff00e3d0a440"},"vehicle_type_id":"4","last_reported":1776801559,"current_range_meters":5600,"station_id":"ce4bhm12rcd13ifvqgkg","pricing_plan_id":"cebpf4jnsgd1na2vs0mg"},{"bike_id":"4231289c-2f05-4dc1-b7ad-99ad02a6b2c3","system_id":"levelo_inurba_marseille","lat":43.29918,"lon":5.37468,"is_reserved":false,"is_disabled":false,"rental_uris":{"android":"levelo://app?vid=4231289c-2f05-4dc1-b7ad-99ad02a6b2c3","ios":"levelo://app?vid=4231289c-2f05-4dc1-b7ad-99ad02a6b2c3"},"vehicle_type_id":"4","last_reported":1776801559,"current_range_meters":5600,"station_id":"ce4bgjh2rcd13ifvqbg0","pricing_plan_id":"cebpf4jnsgd1na2vs0mg"},{"bike_id":"556cd305-e137-4c81-b443-317ec74edf73","system_id":"levelo_inurba_marseille","lat":43.29528,"lon":5.39038,"is_reserved":false,"is_disabled":false,"rental_uris":{"android":"levelo://app?vid=556cd305-e137-4c81-b443-317ec74edf73","ios":"levelo://app?vid=556cd305-e137-4c81-b443-317ec74edf73"},"vehicle_type_id":"4","last_reported":1776801559,"current_range_meters":5600,"station_id":"ce4bh3p2rcd13ifvqdp0","pricing_plan_id":"cebpf4jnsgd1na2vs0mg"},{"bike_id":"ab1f99ae-4f83-4e47-8e84-c2cf195f4bb7","system_id":"levelo_inurba_marseille","lat":43.3118,"lon":5.38718,"is_reserved":false,"is_disabled":false,"rental_uris":{"android":"levelo://app?vid=ab1f99ae-4f83-4e47-8e84-c2cf195f4bb7","ios":"levelo://app?vid=ab1f99ae-4f83-4e47-8e84-c2cf195f4bb7"},"vehicle_type_id":"4","last_reported":1776801559,"current_range_meters":5600,"station_id":"ce4bgv12rcd13ifvqcp0","pricing_plan_id":"cebpf4jnsgd1na2vs0mg"},{"bike_id":"89ae0f2f-794c-4a12-8b40-aa4e433e6b6e","system_id":"levelo_inurba_marseille","lat":43.29012,"lon":5.38123,"is_reserved":false,"is_disabled":false,"rental_uris":{"android":"levelo://app?vid=89ae0f2f-794c-4a12-8b40-aa4e433e6b6e","ios":"levelo://app?vid=89ae0f2f-794c-4a12-8b40-aa4e433e6b6e"},"vehicle_type_id":"4","last_reported":1776801559,"current_range_meters":5600,"station_id":"ce4bh4p2rcd13ifvqe1g","pricing_plan_id":"cebpf4jnsgd1na2vs0mg"},{"bike_id":"85d008d7-db23-4109-8c7e-d94d301d8f6b","system_id":"levelo_inurba_marseille","lat":43.26325,"lon":5.37337,"is_reserved":false,"is_disabled":false,"rental_uris":{"android":"levelo://app?vid=85d008d7-db23-4109-8c7e-d94d301d8f6b","ios":"levelo://app?vid=85d008d7-db23-4109-8c7e-d94d301d8f6b"},"vehicle_type_id":"4","last_reported":1776801559,"current_range_meters":5600,"station_id":"","pricing_plan_id":"cebpf4jnsgd1na2vs0mg"},{"bike_id":"7a7ef9a4-4fe1-44da-a8f2-e32be43ee122","system_id":"levelo_inurba_marseille","lat":43.26206,"lon":5.37443,"is_reserved":false,"is_disabled":false,"rental_uris":{"android":"levelo://app?vid=7a7ef9a4-4fe1-44da-a8f2-e32be43ee122","ios":"levelo://app?vid=7a7ef9a4-4fe1-44da-a8f2-e32be43ee122"},"vehicle_type_id":"4","last_reported":1776801559,"current_range_meters":5600,"station_id":"ce4bhgp2rcd13ifvqfc0","pricing_plan_id":"cebpf4jnsgd1na2vs0mg"},{"bike_id":"b1825e17-c86a-4867-83b0-b5fcfd88ca26","system_id":"levelo_inurba_marseille","lat":43.29226,"lon":5.38766,"is_reserved":false,"is_disabled":false,"rental_uris":{"android":"levelo://app?vid=b1825e17-c86a-4867-83b0-b5fcfd88ca26","ios":"levelo://app?vid=b1825e17-c86a-4867-83b0-b5fcfd88ca26"},"vehicle_type_id":"4","last_reported":1776801559,"current_range_meters":6000,"station_id":"","pricing_plan_id":"cebpf4jnsgd1na2vs0mg"},{"bike_id":"ef230661-68ca-41f2-8121-f390ccfd8612","system_id":"levelo_inurba_marseille","lat":43.27494,"lon":5.42453,"is_reserved":false,"is_disabled":false,"rental_uris":{"android":"levelo://app?vid=ef230661-68ca-41f2-8121-f390ccfd8612","ios":"levelo://app?vid=ef230661-68ca-41f2-8121-f390ccfd8612"},"vehicle_type_id":"4","last_reported":1776801559,"current_range_meters":6000,"station_id":"ce4bhn92rcd13ifvqgrg","pricing_plan_id":"cebpf4jnsgd1na2vs0mg"},{"bike_id":"f0560ebd-54f4-470b-b211-8f235f923412","system_id":"levelo_inurba_marseille","lat":43.31327,"lon":5.37635,"is_reserved":false,"is_disabled":false,"rental_uris":{"android":"levelo://app?vid=f0560ebd-54f4-470b-b211-8f235f923412","ios":"levelo://app?vid=f0560ebd-54f4-470b-b211-8f235f923412"},"vehicle_type_id":"4","last_reported":1776801559,"current_range_meters":6000,"station_id":"","pricing_plan_id":"cebpf4jnsgd1na2vs0mg"},{"bike_id":"72cbc3d1-cb88-4c89-b50f-4d95e37ef423","system_id":"levelo_inurba_marseille","lat":43.284613,"lon":5.358814,"is_reserved":false,"is_disabled":false,"rental_uris":{"android":"levelo://app?vid=72cbc3d1-cb88-4c89-b50f-4d95e37ef423","ios":"levelo://app?vid=72cbc3d1-cb88-4c89-b50f-4d95e37ef423"},"vehicle_type_id":"4","last_reported":1776801559,"current_range_meters":6000,"station_id":"ce4bhah2rcd13ifvqei0","pricing_plan_id":"cebpf4jnsgd1na2vs0mg"},{"bike_id":"93ebf785-3499-42cb-9d8c-bfedd972e688","system_id":"levelo_inurba_marseille","lat":43.29548,"lon":5.39978,"is_reserved":false,"is_disabled":false,"rental_uris":{"android":"levelo://app?vid=93ebf785-3499-42cb-9d8c-bfedd972e688","ios":"levelo://app?vid=93ebf785-3499-42cb-9d8c-bfedd972e688"},"vehicle_type_id":"4","last_reported":1776801559,"current_range_meters":6000,"station_id":"ce4bh312rcd13ifvqdj0","pricing_plan_id":"cebpf4jnsgd1na2vs0mg"},{"bike_id":"ce4f7ebb-425f-47f9-bd03-7a83850a37bd","system_id":"levelo_inurba_marseille","lat":43.27664,"lon":5.38938,"is_reserved":false,"is_disabled":false,"rental_uris":{"android":"levelo://app?vid=ce4f7ebb-425f-47f9-bd03-7a83850a37bd","ios":"levelo://app?vid=ce4f7ebb-425f-47f9-bd03-7a83850a37bd"},"vehicle_type_id":"4","last_reported":1776801559,"current_range_meters":6000,"station_id":"ce4bhi12rcd13ifvqfo0","pricing_plan_id":"cebpf4jnsgd1na2vs0mg"},{"bike_id":"e7026b6c-0d36-4db9-b4d9-9038a44218f7","system_id":"levelo_inurba_marseille","lat":43.23182,"lon":5.39986,"is_reserved":false,"is_disabled":false,"rental_uris":{"android":"levelo://app?vid=e7026b6c-0d36-4db9-b4d9-9038a44218f7","ios":"levelo://app?vid=e7026b6c-0d36-4db9-b4d9-9038a44218f7"},"vehicle_type_id":"4","last_reported":1776801559,"current_range_meters":6000,"station_id":"ce4bhn12rcd13ifvqgqg","pricing_plan_id":"cebpf4jnsgd1na2vs0mg"},{"bike_id":"2923d899-e487-4cd1-8eb4-a2f0428efa22","system_id":"levelo_inurba_marseille","lat":43.33152,"lon":5.37728,"is_reserved":false,"is_disabled":false,"rental_uris":{"android":"levelo://app?vid=2923d899-e487-4cd1-8eb4-a2f0428efa22","ios":"levelo://app?vid=2923d899-e487-4cd1-8eb4-a2f0428efa22"},"vehicle_type_id":"4","last_reported":1776801559,"current_range_meters":6000,"station_id":"st_d46cu089ee8s73dldbu0","pricing_plan_id":"cebpf4jnsgd1na2vs0mg"},{"bike_id":"c224c9cf-d497-4bf6-82cd-eee25423f927","system_id":"levelo_inurba_marseille","lat":43.29697,"lon":5.37265,"is_reserved":false,"is_disabled":true,"rental_uris":{"android":"levelo://app?vid=c224c9cf-d497-4bf6-82cd-eee25423f927","ios":"levelo://app?vid=c224c9cf-d497-4bf6-82cd-eee25423f927"},"vehicle_type_id":"4","last_reported":1776801559,"current_range_meters":6000,"station_id":"ce4bgk12rcd13ifvqbj0","pricing_plan_id":"cebpf4jnsgd1na2vs0mg"},{"bike_id":"2cdb39a5-c681-4ab8-a8cd-989d794cea8c","system_id":"levelo_inurba_marseille","lat":43.28461,"lon":5.35896,"is_reserved":false,"is_disabled":false,"rental_uris":{"android":"levelo://app?vid=2cdb39a5-c681-4ab8-a8cd-989d794cea8c","ios":"levelo://app?vid=2cdb39a5-c681-4ab8-a8cd-989d794cea8c"},"vehicle_type_id":"4","last_reported":1776801559,"current_range_meters":6000,"station_id":"ce4bhah2rcd13ifvqei0","pricing_plan_id":"cebpf4jnsgd1na2vs0mg"},{"bike_id":"a7edeb15-dab8-402d-b25d-62606dbc3f3c","system_id":"levelo_inurba_marseille","lat":43.28461,"lon":5.3589,"is_reserved":false,"is_disabled":false,"rental_uris":{"android":"levelo://app?vid=a7edeb15-dab8-402d-b25d-62606dbc3f3c","ios":"levelo://app?vid=a7edeb15-dab8-402d-b25d-62606dbc3f3c"},"vehicle_type_id":"4","last_reported":1776801559,"current_range_meters":6000,"station_id":"ce4bhah2rcd13ifvqei0","pricing_plan_id":"cebpf4jnsgd1na2vs0mg"},{"bike_id":"a4e0f64d-01c4-4b0d-9de4-db9e20bfbea8","system_id":"levelo_inurba_marseille","lat":43.23189,"lon":5.35553,"is_reserved":false,"is_disabled":false,"rental_uris":{"android":"levelo://app?vid=a4e0f64d-01c4-4b0d-9de4-db9e20bfbea8","ios":"levelo://app?vid=a4e0f64d-01c4-4b0d-9de4-db9e20bfbea8"},"vehicle_type_id":"4","last_reported":1776801559,"current_range_meters":6000,"station_id":"ce4bhu92rcd13ifvqi70","pricing_plan_id":"cebpf4jnsgd1na2vs0mg"},{"bike_id":"2c0c31d0-4c63-499e-bb77-623ac44e31b5","system_id":"levelo_inurba_marseille","lat":43.29966,"lon":5.384951,"is_reserved":false,"is_disabled":false,"rental_uris":{"android":"levelo://app?vid=2c0c31d0-4c63-499e-bb77-623ac44e31b5","ios":"levelo://app?vid=2c0c31d0-4c63-499e-bb77-623ac44e31b5"},"vehicle_type_id":"4","last_reported":1776801559,"current_range_meters":6400,"station_id":"","pricing_plan_id":"cebpf4jnsgd1na2vs0mg"},{"bike_id":"2bf658ef-a912-4563-9f63-3110eb25e849","system_id":"levelo_inurba_marseille","lat":43.29729,"lon":5.35979,"is_reserved":false,"is_disabled":false,"rental_uris":{"android":"levelo://app?vid=2bf658ef-a912-4563-9f63-3110eb25e849","ios":"levelo://app?vid=2bf658ef-a912-4563-9f63-3110eb25e849"},"vehicle_type_id":"4","last_reported":1776801559,"current_range_meters":6400,"station_id":"","pricing_plan_id":"cebpf4jnsgd1na2vs0mg"},{"bike_id":"92415417-b266-4203-afd3-a7b608f61819","system_id":"levelo_inurba_marseille","lat":43.28653,"lon":5.38673,"is_reserved":false,"is_disabled":false,"rental_uris":{"android":"levelo://app?vid=92415417-b266-4203-afd3-a7b608f61819","ios":"levelo://app?vid=92415417-b266-4203-afd3-a7b608f61819"},"vehicle_type_id":"4","last_reported":1776801559,"current_range_meters":6400,"station_id":"ce4bh492rcd13ifvqdug","pricing_plan_id":"cebpf4jnsgd1na2vs0mg"},{"bike_id":"fc23d143-28ed-4c33-8f63-5edf8cb2b527","system_id":"levelo_inurba_marseille","lat":43.29026,"lon":5.38635,"is_reserved":false,"is_disabled":false,"rental_uris":{"android":"levelo://app?vid=fc23d143-28ed-4c33-8f63-5edf8cb2b527","ios":"levelo://app?vid=fc23d143-28ed-4c33-8f63-5edf8cb2b527"},"vehicle_type_id":"4","last_reported":1776801559,"current_range_meters":6400,"station_id":"ce4bh4p2rcd13ifvqe0g","pricing_plan_id":"cebpf4jnsgd1na2vs0mg"},{"bike_id":"bbf3da38-7b45-43ac-8ebf-5002e0aa1af7","system_id":"levelo_inurba_marseille","lat":43.29506,"lon":5.38572,"is_reserved":false,"is_disabled":false,"rental_uris":{"android":"levelo://app?vid=bbf3da38-7b45-43ac-8ebf-5002e0aa1af7","ios":"levelo://app?vid=bbf3da38-7b45-43ac-8ebf-5002e0aa1af7"},"vehicle_type_id":"4","last_reported":1776801559,"current_range_meters":6400,"station_id":"ce4bgih2rcd13ifvqba0","pricing_plan_id":"cebpf4jnsgd1na2vs0mg"},{"bike_id":"e9c1c731-1912-4153-abf3-120b800b8c67","system_id":"levelo_inurba_marseille","lat":43.27214,"lon":5.39178,"is_reserved":false,"is_disabled":true,"rental_uris":{"android":"levelo://app?vid=e9c1c731-1912-4153-abf3-120b800b8c67","ios":"levelo://app?vid=e9c1c731-1912-4153-abf3-120b800b8c67"},"vehicle_type_id":"4","last_reported":1776801559,"current_range_meters":6400,"station_id":"ce4bhhp2rcd13ifvqfm0","pricing_plan_id":"cebpf4jnsgd1na2vs0mg"},{"bike_id":"fec54d59-47d4-4ddb-8655-648e0f95cb70","system_id":"levelo_inurba_marseille","lat":43.23188,"lon":5.35555,"is_reserved":false,"is_disabled":false,"rental_uris":{"android":"levelo://app?vid=fec54d59-47d4-4ddb-8655-648e0f95cb70","ios":"levelo://app?vid=fec54d59-47d4-4ddb-8655-648e0f95cb70"},"vehicle_type_id":"4","last_reported":1776801559,"current_range_meters":6400,"station_id":"ce4bhu92rcd13ifvqi70","pricing_plan_id":"cebpf4jnsgd1na2vs0mg"},{"bike_id":"7dc76ee2-4081-4e1c-b3c6-04d2a49590ff","system_id":"levelo_inurba_marseille","lat":43.29181,"lon":5.39325,"is_reserved":false,"is_disabled":false,"rental_uris":{"android":"levelo://app?vid=7dc76ee2-4081-4e1c-b3c6-04d2a49590ff","ios":"levelo://app?vid=7dc76ee2-4081-4e1c-b3c6-04d2a49590ff"},"vehicle_type_id":"4","last_reported":1776801559,"current_range_meters":6400,"station_id":"ce4bh192rcd13ifvqdd0","pricing_plan_id":"cebpf4jnsgd1na2vs0mg"},{"bike_id":"ceacc663-0c06-4c34-9626-ec0263eb9268","system_id":"levelo_inurba_marseille","lat":43.31033,"lon":5.37198,"is_reserved":false,"is_disabled":false,"rental_uris":{"android":"levelo://app?vid=ceacc663-0c06-4c34-9626-ec0263eb9268","ios":"levelo://app?vid=ceacc663-0c06-4c34-9626-ec0263eb9268"},"vehicle_type_id":"4","last_reported":1776801559,"current_range_meters":6400,"station_id":"st_d4kl2rp97mjs73e7tdfg","pricing_plan_id":"cebpf4jnsgd1na2vs0mg"},{"bike_id":"14290775-1809-431a-89de-994574cdc895","system_id":"levelo_inurba_marseille","lat":43.27545,"lon":5.38665,"is_reserved":false,"is_disabled":false,"rental_uris":{"android":"levelo://app?vid=14290775-1809-431a-89de-994574cdc895","ios":"levelo://app?vid=14290775-1809-431a-89de-994574cdc895"},"vehicle_type_id":"4","last_reported":1776801559,"current_range_meters":6400,"station_id":"","pricing_plan_id":"cebpf4jnsgd1na2vs0mg"},{"bike_id":"e78c04eb-42fe-48ff-b4a7-8a50b3005232","system_id":"levelo_inurba_marseille","lat":43.27827,"lon":5.40738,"is_reserved":false,"is_disabled":false,"rental_uris":{"android":"levelo://app?vid=e78c04eb-42fe-48ff-b4a7-8a50b3005232","ios":"levelo://app?vid=e78c04eb-42fe-48ff-b4a7-8a50b3005232"},"vehicle_type_id":"4","last_reported":1776801559,"current_range_meters":6400,"station_id":"ce4bhnh2rcd13ifvqgtg","pricing_plan_id":"cebpf4jnsgd1na2vs0mg"},{"bike_id":"64a5c5f8-1cf2-47a6-9317-211cf4defa08","system_id":"levelo_inurba_marseille","lat":43.3094,"lon":5.39049,"is_reserved":false,"is_disabled":false,"rental_uris":{"android":"levelo://app?vid=64a5c5f8-1cf2-47a6-9317-211cf4defa08","ios":"levelo://app?vid=64a5c5f8-1cf2-47a6-9317-211cf4defa08"},"vehicle_type_id":"4","last_reported":1776801559,"current_range_meters":6400,"station_id":"ce4bgup2rcd13ifvqco0","pricing_plan_id":"cebpf4jnsgd1na2vs0mg"},{"bike_id":"daea04f0-fe52-422b-a277-387c802f8573","system_id":"levelo_inurba_marseille","lat":43.28846,"lon":5.35846,"is_reserved":false,"is_disabled":false,"rental_uris":{"android":"levelo://app?vid=daea04f0-fe52-422b-a277-387c802f8573","ios":"levelo://app?vid=daea04f0-fe52-422b-a277-387c802f8573"},"vehicle_type_id":"4","last_reported":1776801559,"current_range_meters":6400,"station_id":"ce4bhb12rcd13ifvqem0","pricing_plan_id":"cebpf4jnsgd1na2vs0mg"},{"bike_id":"c2554c35-25b6-4939-acea-97182470bfa4","system_id":"levelo_inurba_marseille","lat":43.31333,"lon":5.39689,"is_reserved":false,"is_disabled":false,"rental_uris":{"android":"levelo://app?vid=c2554c35-25b6-4939-acea-97182470bfa4","ios":"levelo://app?vid=c2554c35-25b6-4939-acea-97182470bfa4"},"vehicle_type_id":"4","last_reported":1776801559,"current_range_meters":6400,"station_id":"ce4bgvp2rcd13ifvqcu0","pricing_plan_id":"cebpf4jnsgd1na2vs0mg"},{"bike_id":"f9e36f38-ef4d-44c9-9f31-a0f8b13d14ba","system_id":"levelo_inurba_marseille","lat":43.33147,"lon":5.37706,"is_reserved":false,"is_disabled":false,"rental_uris":{"android":"levelo://app?vid=f9e36f38-ef4d-44c9-9f31-a0f8b13d14ba","ios":"levelo://app?vid=f9e36f38-ef4d-44c9-9f31-a0f8b13d14ba"},"vehicle_type_id":"4","last_reported":1776801559,"current_range_meters":6400,"station_id":"st_d46cu089ee8s73dldbu0","pricing_plan_id":"cebpf4jnsgd1na2vs0mg"},{"bike_id":"e4a791b5-7383-42df-bdd8-c9b3b5b51512","system_id":"levelo_inurba_marseille","lat":43.29049,"lon":5.35916,"is_reserved":false,"is_disabled":false,"rental_uris":{"android":"levelo://app?vid=e4a791b5-7383-42df-bdd8-c9b3b5b51512","ios":"levelo://app?vid=e4a791b5-7383-42df-bdd8-c9b3b5b51512"},"vehicle_type_id":"4","last_reported":1776801559,"current_range_meters":6800,"station_id":"ce4bha92rcd13ifvqeg0","pricing_plan_id":"cebpf4jnsgd1na2vs0mg"},{"bike_id":"06519d3a-c94b-4042-82d4-ae362225365d","system_id":"levelo_inurba_marseille","lat":43.29967,"lon":5.38497,"is_reserved":false,"is_disabled":false,"rental_uris":{"android":"levelo://app?vid=06519d3a-c94b-4042-82d4-ae362225365d","ios":"levelo://app?vid=06519d3a-c94b-4042-82d4-ae362225365d"},"vehicle_type_id":"4","last_reported":1776801559,"current_range_meters":6800,"station_id":"ce4bgj92rcd13ifvqbd0","pricing_plan_id":"cebpf4jnsgd1na2vs0mg"},{"bike_id":"38a0c1fe-c793-4677-abc9-44884653b8c5","system_id":"levelo_inurba_marseille","lat":43.29593,"lon":5.37776,"is_reserved":false,"is_disabled":false,"rental_uris":{"android":"levelo://app?vid=38a0c1fe-c793-4677-abc9-44884653b8c5","ios":"levelo://app?vid=38a0c1fe-c793-4677-abc9-44884653b8c5"},"vehicle_type_id":"4","last_reported":1776801559,"current_range_meters":6800,"station_id":"","pricing_plan_id":"cebpf4jnsgd1na2vs0mg"},{"bike_id":"1fd10be9-0a9a-46a4-9d74-69cc8527ad5b","system_id":"levelo_inurba_marseille","lat":43.2848,"lon":5.484,"is_reserved":false,"is_disabled":false,"rental_uris":{"android":"levelo://app?vid=1fd10be9-0a9a-46a4-9d74-69cc8527ad5b","ios":"levelo://app?vid=1fd10be9-0a9a-46a4-9d74-69cc8527ad5b"},"vehicle_type_id":"4","last_reported":1776801559,"current_range_meters":6800,"station_id":"","pricing_plan_id":"cebpf4jnsgd1na2vs0mg"},{"bike_id":"147ebe04-bf5f-4d97-a8ae-b04adf3d5699","system_id":"levelo_inurba_marseille","lat":43.29526,"lon":5.39036,"is_reserved":false,"is_disabled":false,"rental_uris":{"android":"levelo://app?vid=147ebe04-bf5f-4d97-a8ae-b04adf3d5699","ios":"levelo://app?vid=147ebe04-bf5f-4d97-a8ae-b04adf3d5699"},"vehicle_type_id":"4","last_reported":1776801559,"current_range_meters":6800,"station_id":"ce4bh3p2rcd13ifvqdp0","pricing_plan_id":"cebpf4jnsgd1na2vs0mg"},{"bike_id":"0905b5c7-f3f5-4ae8-84e9-eb3f0d54aee5","system_id":"levelo_inurba_marseille","lat":43.29355,"lon":5.3784,"is_reserved":false,"is_disabled":false,"rental_uris":{"android":"levelo://app?vid=0905b5c7-f3f5-4ae8-84e9-eb3f0d54aee5","ios":"levelo://app?vid=0905b5c7-f3f5-4ae8-84e9-eb3f0d54aee5"},"vehicle_type_id":"4","last_reported":1776801559,"current_range_meters":6800,"station_id":"ce4bgjh2rcd13ifvqbf0","pricing_plan_id":"cebpf4jnsgd1na2vs0mg"},{"bike_id":"af8a1ef7-3bce-462c-8983-73c0060888a3","system_id":"levelo_inurba_marseille","lat":43.29012,"lon":5.38127,"is_reserved":false,"is_disabled":true,"rental_uris":{"android":"levelo://app?vid=af8a1ef7-3bce-462c-8983-73c0060888a3","ios":"levelo://app?vid=af8a1ef7-3bce-462c-8983-73c0060888a3"},"vehicle_type_id":"4","last_reported":1776801559,"current_range_meters":6800,"station_id":"ce4bh4p2rcd13ifvqe1g","pricing_plan_id":"cebpf4jnsgd1na2vs0mg"},{"bike_id":"1bcf353f-b495-4deb-9190-fb2399df9c0c","system_id":"levelo_inurba_marseille","lat":43.28454,"lon":5.35891,"is_reserved":false,"is_disabled":false,"rental_uris":{"android":"levelo://app?vid=1bcf353f-b495-4deb-9190-fb2399df9c0c","ios":"levelo://app?vid=1bcf353f-b495-4deb-9190-fb2399df9c0c"},"vehicle_type_id":"4","last_reported":1776801559,"current_range_meters":6800,"station_id":"ce4bhah2rcd13ifvqei0","pricing_plan_id":"cebpf4jnsgd1na2vs0mg"},{"bike_id":"afe6c9ff-8c7f-40d2-96bc-86354113b443","system_id":"levelo_inurba_marseille","lat":43.28479,"lon":5.48396,"is_reserved":false,"is_disabled":false,"rental_uris":{"android":"levelo://app?vid=afe6c9ff-8c7f-40d2-96bc-86354113b443","ios":"levelo://app?vid=afe6c9ff-8c7f-40d2-96bc-86354113b443"},"vehicle_type_id":"4","last_reported":1776801559,"current_range_meters":6800,"station_id":"","pricing_plan_id":"cebpf4jnsgd1na2vs0mg"},{"bike_id":"1d70c6b4-5412-4cc3-ac3a-51c6f51ff5a1","system_id":"levelo_inurba_marseille","lat":43.30848,"lon":5.38076,"is_reserved":false,"is_disabled":false,"rental_uris":{"android":"levelo://app?vid=1d70c6b4-5412-4cc3-ac3a-51c6f51ff5a1","ios":"levelo://app?vid=1d70c6b4-5412-4cc3-ac3a-51c6f51ff5a1"},"vehicle_type_id":"4","last_reported":1776801559,"current_range_meters":6800,"station_id":"ce4bgt12rcd13ifvqce0","pricing_plan_id":"cebpf4jnsgd1na2vs0mg"},{"bike_id":"cea85b7d-5f16-4381-85fc-dee142fcc641","system_id":"levelo_inurba_marseille","lat":43.312,"lon":5.36906,"is_reserved":false,"is_disabled":false,"rental_uris":{"android":"levelo://app?vid=cea85b7d-5f16-4381-85fc-dee142fcc641","ios":"levelo://app?vid=cea85b7d-5f16-4381-85fc-dee142fcc641"},"vehicle_type_id":"4","last_reported":1776801559,"current_range_meters":6800,"station_id":"ce4bgl92rcd13ifvqbq0","pricing_plan_id":"cebpf4jnsgd1na2vs0mg"},{"bike_id":"2d40a836-133e-4df4-8e94-64278280c4e2","system_id":"levelo_inurba_marseille","lat":43.28481,"lon":5.48391,"is_reserved":false,"is_disabled":false,"rental_uris":{"android":"levelo://app?vid=2d40a836-133e-4df4-8e94-64278280c4e2","ios":"levelo://app?vid=2d40a836-133e-4df4-8e94-64278280c4e2"},"vehicle_type_id":"4","last_reported":1776801559,"current_range_meters":6800,"station_id":"","pricing_plan_id":"cebpf4jnsgd1na2vs0mg"},{"bike_id":"2372ff5c-b340-4c5f-8531-5cd2273c37fc","system_id":"levelo_inurba_marseille","lat":43.29869,"lon":5.38921,"is_reserved":false,"is_disabled":false,"rental_uris":{"android":"levelo://app?vid=2372ff5c-b340-4c5f-8531-5cd2273c37fc","ios":"levelo://app?vid=2372ff5c-b340-4c5f-8531-5cd2273c37fc"},"vehicle_type_id":"4","last_reported":1776801559,"current_range_meters":6800,"station_id":"ce4bh392rcd13ifvqdl0","pricing_plan_id":"cebpf4jnsgd1na2vs0mg"},{"bike_id":"2224c961-bce6-4c33-966e-f3361d1b2ab2","system_id":"levelo_inurba_marseille","lat":43.2749,"lon":5.4159,"is_reserved":false,"is_disabled":false,"rental_uris":{"android":"levelo://app?vid=2224c961-bce6-4c33-966e-f3361d1b2ab2","ios":"levelo://app?vid=2224c961-bce6-4c33-966e-f3361d1b2ab2"},"vehicle_type_id":"4","last_reported":1776801559,"current_range_meters":6800,"station_id":"st_d6im8g6chgec73a5pndg","pricing_plan_id":"cebpf4jnsgd1na2vs0mg"},{"bike_id":"26ec90e2-6d85-426a-a2fe-8813d3e66ad9","system_id":"levelo_inurba_marseille","lat":43.30132,"lon":5.39885,"is_reserved":false,"is_disabled":false,"rental_uris":{"android":"levelo://app?vid=26ec90e2-6d85-426a-a2fe-8813d3e66ad9","ios":"levelo://app?vid=26ec90e2-6d85-426a-a2fe-8813d3e66ad9"},"vehicle_type_id":"4","last_reported":1776801559,"current_range_meters":7200,"station_id":"ce4bh0h2rcd13ifvqd40","pricing_plan_id":"cebpf4jnsgd1na2vs0mg"},{"bike_id":"17a218ae-0cbc-4023-80f0-9ffddf1324e3","system_id":"levelo_inurba_marseille","lat":43.260356,"lon":5.397998,"is_reserved":false,"is_disabled":false,"rental_uris":{"android":"levelo://app?vid=17a218ae-0cbc-4023-80f0-9ffddf1324e3","ios":"levelo://app?vid=17a218ae-0cbc-4023-80f0-9ffddf1324e3"},"vehicle_type_id":"4","last_reported":1776801559,"current_range_meters":7200,"station_id":"","pricing_plan_id":"cebpf4jnsgd1na2vs0mg"},{"bike_id":"3270381e-44e7-4481-9720-b4e778c7865c","system_id":"levelo_inurba_marseille","lat":43.30121,"lon":5.3987,"is_reserved":false,"is_disabled":false,"rental_uris":{"android":"levelo://app?vid=3270381e-44e7-4481-9720-b4e778c7865c","ios":"levelo://app?vid=3270381e-44e7-4481-9720-b4e778c7865c"},"vehicle_type_id":"4","last_reported":1776801559,"current_range_meters":7200,"station_id":"ce4bh0h2rcd13ifvqd40","pricing_plan_id":"cebpf4jnsgd1na2vs0mg"},{"bike_id":"fb58b342-270a-4b82-bfe0-c2bd1955229a","system_id":"levelo_inurba_marseille","lat":43.29442,"lon":5.3867,"is_reserved":false,"is_disabled":false,"rental_uris":{"android":"levelo://app?vid=fb58b342-270a-4b82-bfe0-c2bd1955229a","ios":"levelo://app?vid=fb58b342-270a-4b82-bfe0-c2bd1955229a"},"vehicle_type_id":"4","last_reported":1776801559,"current_range_meters":7200,"station_id":"","pricing_plan_id":"cebpf4jnsgd1na2vs0mg"},{"bike_id":"ae1c3d13-01f8-45b2-8dc2-6fefbdddc68b","system_id":"levelo_inurba_marseille","lat":43.31116,"lon":5.37767,"is_reserved":false,"is_disabled":false,"rental_uris":{"android":"levelo://app?vid=ae1c3d13-01f8-45b2-8dc2-6fefbdddc68b","ios":"levelo://app?vid=ae1c3d13-01f8-45b2-8dc2-6fefbdddc68b"},"vehicle_type_id":"4","last_reported":1776801559,"current_range_meters":7200,"station_id":"ce4bgt92rcd13ifvqcg0","pricing_plan_id":"cebpf4jnsgd1na2vs0mg"},{"bike_id":"415e0658-223c-4fe0-abd1-f3287f2893c2","system_id":"levelo_inurba_marseille","lat":43.31913,"lon":5.36812,"is_reserved":false,"is_disabled":false,"rental_uris":{"android":"levelo://app?vid=415e0658-223c-4fe0-abd1-f3287f2893c2","ios":"levelo://app?vid=415e0658-223c-4fe0-abd1-f3287f2893c2"},"vehicle_type_id":"4","last_reported":1776801559,"current_range_meters":7200,"station_id":"st_d6o2h0d0559c73evc1b0","pricing_plan_id":"cebpf4jnsgd1na2vs0mg"},{"bike_id":"92615081-641c-4a0d-ad8c-093e43d7e234","system_id":"levelo_inurba_marseille","lat":43.29258,"lon":5.37614,"is_reserved":false,"is_disabled":false,"rental_uris":{"android":"levelo://app?vid=92615081-641c-4a0d-ad8c-093e43d7e234","ios":"levelo://app?vid=92615081-641c-4a0d-ad8c-093e43d7e234"},"vehicle_type_id":"4","last_reported":1776801559,"current_range_meters":7200,"station_id":"ce4bgi12rcd13ifvqb80","pricing_plan_id":"cebpf4jnsgd1na2vs0mg"},{"bike_id":"357c8a3f-22a7-437b-9400-0efde2fb9a38","system_id":"levelo_inurba_marseille","lat":43.27088,"lon":5.4227,"is_reserved":false,"is_disabled":false,"rental_uris":{"android":"levelo://app?vid=357c8a3f-22a7-437b-9400-0efde2fb9a38","ios":"levelo://app?vid=357c8a3f-22a7-437b-9400-0efde2fb9a38"},"vehicle_type_id":"4","last_reported":1776801559,"current_range_meters":7200,"station_id":"ce4bhk92rcd13ifvqgb0","pricing_plan_id":"cebpf4jnsgd1na2vs0mg"},{"bike_id":"4a4f8c1a-6cd1-40bb-813c-2cf949d2509e","system_id":"levelo_inurba_marseille","lat":43.29033,"lon":5.38646,"is_reserved":false,"is_disabled":false,"rental_uris":{"android":"levelo://app?vid=4a4f8c1a-6cd1-40bb-813c-2cf949d2509e","ios":"levelo://app?vid=4a4f8c1a-6cd1-40bb-813c-2cf949d2509e"},"vehicle_type_id":"4","last_reported":1776801559,"current_range_meters":7200,"station_id":"ce4bh4p2rcd13ifvqe0g","pricing_plan_id":"cebpf4jnsgd1na2vs0mg"},{"bike_id":"b4008d98-09e8-4dd2-940a-317f4c31307b","system_id":"levelo_inurba_marseille","lat":43.29583,"lon":5.39969,"is_reserved":false,"is_disabled":false,"rental_uris":{"android":"levelo://app?vid=b4008d98-09e8-4dd2-940a-317f4c31307b","ios":"levelo://app?vid=b4008d98-09e8-4dd2-940a-317f4c31307b"},"vehicle_type_id":"4","last_reported":1776801559,"current_range_meters":7200,"station_id":"ce4bh312rcd13ifvqdj0","pricing_plan_id":"cebpf4jnsgd1na2vs0mg"},{"bike_id":"842d0df7-332d-4e0d-af29-a1003ef4505c","system_id":"levelo_inurba_marseille","lat":43.292841,"lon":5.409467,"is_reserved":false,"is_disabled":false,"rental_uris":{"android":"levelo://app?vid=842d0df7-332d-4e0d-af29-a1003ef4505c","ios":"levelo://app?vid=842d0df7-332d-4e0d-af29-a1003ef4505c"},"vehicle_type_id":"4","last_reported":1776801559,"current_range_meters":7200,"station_id":"ce4bh192rcd13ifvqdc0","pricing_plan_id":"cebpf4jnsgd1na2vs0mg"},{"bike_id":"324b3559-353b-4ffa-9ac9-89a4eef6387d","system_id":"levelo_inurba_marseille","lat":43.290965,"lon":5.380476,"is_reserved":false,"is_disabled":false,"rental_uris":{"android":"levelo://app?vid=324b3559-353b-4ffa-9ac9-89a4eef6387d","ios":"levelo://app?vid=324b3559-353b-4ffa-9ac9-89a4eef6387d"},"vehicle_type_id":"4","last_reported":1776801559,"current_range_meters":7200,"station_id":"ce4bh612rcd13ifvqe6g","pricing_plan_id":"cebpf4jnsgd1na2vs0mg"},{"bike_id":"0357d1c6-d080-4ed7-b154-319624c20433","system_id":"levelo_inurba_marseille","lat":43.23376,"lon":5.41257,"is_reserved":false,"is_disabled":false,"rental_uris":{"android":"levelo://app?vid=0357d1c6-d080-4ed7-b154-319624c20433","ios":"levelo://app?vid=0357d1c6-d080-4ed7-b154-319624c20433"},"vehicle_type_id":"4","last_reported":1776801559,"current_range_meters":7200,"station_id":"st_d75pvndhf9lc73cqq3eg","pricing_plan_id":"cebpf4jnsgd1na2vs0mg"},{"bike_id":"ec69f4d9-c069-420b-997b-fdd74d56d6db","system_id":"levelo_inurba_marseille","lat":43.24676,"lon":5.38146,"is_reserved":false,"is_disabled":false,"rental_uris":{"android":"levelo://app?vid=ec69f4d9-c069-420b-997b-fdd74d56d6db","ios":"levelo://app?vid=ec69f4d9-c069-420b-997b-fdd74d56d6db"},"vehicle_type_id":"4","last_reported":1776801559,"current_range_meters":7200,"station_id":"ce4bhih2rcd13ifvqfr0","pricing_plan_id":"cebpf4jnsgd1na2vs0mg"},{"bike_id":"4dd90c3a-c53a-454b-ad3a-8e2561f63203","system_id":"levelo_inurba_marseille","lat":43.312301,"lon":5.36869,"is_reserved":false,"is_disabled":false,"rental_uris":{"android":"levelo://app?vid=4dd90c3a-c53a-454b-ad3a-8e2561f63203","ios":"levelo://app?vid=4dd90c3a-c53a-454b-ad3a-8e2561f63203"},"vehicle_type_id":"4","last_reported":1776801559,"current_range_meters":7200,"station_id":"","pricing_plan_id":"cebpf4jnsgd1na2vs0mg"},{"bike_id":"b3e77728-83d6-4d73-b332-cee0f129b853","system_id":"levelo_inurba_marseille","lat":43.27557,"lon":5.38434,"is_reserved":false,"is_disabled":false,"rental_uris":{"android":"levelo://app?vid=b3e77728-83d6-4d73-b332-cee0f129b853","ios":"levelo://app?vid=b3e77728-83d6-4d73-b332-cee0f129b853"},"vehicle_type_id":"4","last_reported":1776801559,"current_range_meters":7200,"station_id":"ce4bhh92rcd13ifvqfi0","pricing_plan_id":"cebpf4jnsgd1na2vs0mg"},{"bike_id":"6941bf81-2b71-45da-86f8-ae002d5a69db","system_id":"levelo_inurba_marseille","lat":43.28044,"lon":5.36942,"is_reserved":false,"is_disabled":false,"rental_uris":{"android":"levelo://app?vid=6941bf81-2b71-45da-86f8-ae002d5a69db","ios":"levelo://app?vid=6941bf81-2b71-45da-86f8-ae002d5a69db"},"vehicle_type_id":"4","last_reported":1776801559,"current_range_meters":7200,"station_id":"ce4bha12rcd13ifvqef0","pricing_plan_id":"cebpf4jnsgd1na2vs0mg"},{"bike_id":"e9f1d806-450e-4249-b16a-09eaa151bac4","system_id":"levelo_inurba_marseille","lat":43.2884,"lon":5.39297,"is_reserved":false,"is_disabled":false,"rental_uris":{"android":"levelo://app?vid=e9f1d806-450e-4249-b16a-09eaa151bac4","ios":"levelo://app?vid=e9f1d806-450e-4249-b16a-09eaa151bac4"},"vehicle_type_id":"4","last_reported":1776801559,"current_range_meters":7200,"station_id":"ce4bh2p2rcd13ifvqdi0","pricing_plan_id":"cebpf4jnsgd1na2vs0mg"},{"bike_id":"909929ad-6150-4e90-9010-fc5021f6e58c","system_id":"levelo_inurba_marseille","lat":43.27208,"lon":5.40107,"is_reserved":false,"is_disabled":false,"rental_uris":{"android":"levelo://app?vid=909929ad-6150-4e90-9010-fc5021f6e58c","ios":"levelo://app?vid=909929ad-6150-4e90-9010-fc5021f6e58c"},"vehicle_type_id":"4","last_reported":1776801559,"current_range_meters":8000,"station_id":"","pricing_plan_id":"cebpf4jnsgd1na2vs0mg"},{"bike_id":"f36b765d-0d6f-4a5f-9f6c-3cb9e1935dc2","system_id":"levelo_inurba_marseille","lat":43.29796,"lon":5.37701,"is_reserved":false,"is_disabled":false,"rental_uris":{"android":"levelo://app?vid=f36b765d-0d6f-4a5f-9f6c-3cb9e1935dc2","ios":"levelo://app?vid=f36b765d-0d6f-4a5f-9f6c-3cb9e1935dc2"},"vehicle_type_id":"4","last_reported":1776801559,"current_range_meters":8000,"station_id":"","pricing_plan_id":"cebpf4jnsgd1na2vs0mg"},{"bike_id":"983191f1-3164-47ba-8628-38d887c1942f","system_id":"levelo_inurba_marseille","lat":43.29803,"lon":5.38078,"is_reserved":false,"is_disabled":false,"rental_uris":{"android":"levelo://app?vid=983191f1-3164-47ba-8628-38d887c1942f","ios":"levelo://app?vid=983191f1-3164-47ba-8628-38d887c1942f"},"vehicle_type_id":"4","last_reported":1776801559,"current_range_meters":8000,"station_id":"ce4bgip2rcd13ifvqbb0","pricing_plan_id":"cebpf4jnsgd1na2vs0mg"},{"bike_id":"d420143e-37e9-4bbd-a3bb-322c4c4ad02e","system_id":"levelo_inurba_marseille","lat":43.2795,"lon":5.38705,"is_reserved":false,"is_disabled":false,"rental_uris":{"android":"levelo://app?vid=d420143e-37e9-4bbd-a3bb-322c4c4ad02e","ios":"levelo://app?vid=d420143e-37e9-4bbd-a3bb-322c4c4ad02e"},"vehicle_type_id":"4","last_reported":1776801559,"current_range_meters":8000,"station_id":"ce4bhg12rcd13ifvqf80","pricing_plan_id":"cebpf4jnsgd1na2vs0mg"},{"bike_id":"53398df8-835b-4ed2-bf08-039bd71fda25","system_id":"levelo_inurba_marseille","lat":43.25928,"lon":5.38592,"is_reserved":false,"is_disabled":false,"rental_uris":{"android":"levelo://app?vid=53398df8-835b-4ed2-bf08-039bd71fda25","ios":"levelo://app?vid=53398df8-835b-4ed2-bf08-039bd71fda25"},"vehicle_type_id":"4","last_reported":1776801559,"current_range_meters":8000,"station_id":"","pricing_plan_id":"cebpf4jnsgd1na2vs0mg"},{"bike_id":"6c651683-f993-4fd1-ae31-3a12a6e3cdc6","system_id":"levelo_inurba_marseille","lat":43.30299,"lon":5.36894,"is_reserved":false,"is_disabled":false,"rental_uris":{"android":"levelo://app?vid=6c651683-f993-4fd1-ae31-3a12a6e3cdc6","ios":"levelo://app?vid=6c651683-f993-4fd1-ae31-3a12a6e3cdc6"},"vehicle_type_id":"4","last_reported":1776801559,"current_range_meters":8000,"station_id":"ce4bgqh2rcd13ifvqc5g","pricing_plan_id":"cebpf4jnsgd1na2vs0mg"},{"bike_id":"04d9f990-ead5-466c-adb0-472dbaea3d8d","system_id":"levelo_inurba_marseille","lat":43.26818,"lon":5.4024,"is_reserved":false,"is_disabled":false,"rental_uris":{"android":"levelo://app?vid=04d9f990-ead5-466c-adb0-472dbaea3d8d","ios":"levelo://app?vid=04d9f990-ead5-466c-adb0-472dbaea3d8d"},"vehicle_type_id":"4","last_reported":1776801559,"current_range_meters":8000,"station_id":"ce501612rcd8frsf0b60","pricing_plan_id":"cebpf4jnsgd1na2vs0mg"},{"bike_id":"264cc7ea-c8dc-44e0-a96b-e869a670d09b","system_id":"levelo_inurba_marseille","lat":43.30091,"lon":5.39078,"is_reserved":false,"is_disabled":false,"rental_uris":{"android":"levelo://app?vid=264cc7ea-c8dc-44e0-a96b-e869a670d09b","ios":"levelo://app?vid=264cc7ea-c8dc-44e0-a96b-e869a670d09b"},"vehicle_type_id":"4","last_reported":1776801559,"current_range_meters":8000,"station_id":"ce4bh192rcd13ifvqdb0","pricing_plan_id":"cebpf4jnsgd1na2vs0mg"},{"bike_id":"ae1a0ce0-3e2e-4cf2-b858-405a12aeabc1","system_id":"levelo_inurba_marseille","lat":43.27078,"lon":5.42281,"is_reserved":false,"is_disabled":false,"rental_uris":{"android":"levelo://app?vid=ae1a0ce0-3e2e-4cf2-b858-405a12aeabc1","ios":"levelo://app?vid=ae1a0ce0-3e2e-4cf2-b858-405a12aeabc1"},"vehicle_type_id":"4","last_reported":1776801559,"current_range_meters":8000,"station_id":"ce4bhk92rcd13ifvqgb0","pricing_plan_id":"cebpf4jnsgd1na2vs0mg"},{"bike_id":"66523509-bb9a-4197-b18a-11277587c3c7","system_id":"levelo_inurba_marseille","lat":43.29971,"lon":5.37177,"is_reserved":false,"is_disabled":false,"rental_uris":{"android":"levelo://app?vid=66523509-bb9a-4197-b18a-11277587c3c7","ios":"levelo://app?vid=66523509-bb9a-4197-b18a-11277587c3c7"},"vehicle_type_id":"4","last_reported":1776801559,"current_range_meters":8000,"station_id":"ce4bgr92rcd13ifvqc7g","pricing_plan_id":"cebpf4jnsgd1na2vs0mg"},{"bike_id":"d9be86bb-6c4e-4c05-bc60-e02431cbb916","system_id":"levelo_inurba_marseille","lat":43.31902,"lon":5.36805,"is_reserved":false,"is_disabled":false,"rental_uris":{"android":"levelo://app?vid=d9be86bb-6c4e-4c05-bc60-e02431cbb916","ios":"levelo://app?vid=d9be86bb-6c4e-4c05-bc60-e02431cbb916"},"vehicle_type_id":"4","last_reported":1776801559,"current_range_meters":8000,"station_id":"st_d6o2h0d0559c73evc1b0","pricing_plan_id":"cebpf4jnsgd1na2vs0mg"},{"bike_id":"d06470f0-b058-4131-9fac-6835f2e57445","system_id":"levelo_inurba_marseille","lat":43.2998,"lon":5.37177,"is_reserved":false,"is_disabled":false,"rental_uris":{"android":"levelo://app?vid=d06470f0-b058-4131-9fac-6835f2e57445","ios":"levelo://app?vid=d06470f0-b058-4131-9fac-6835f2e57445"},"vehicle_type_id":"4","last_reported":1776801559,"current_range_meters":8000,"station_id":"ce4bgr92rcd13ifvqc7g","pricing_plan_id":"cebpf4jnsgd1na2vs0mg"},{"bike_id":"820cb578-102b-4e01-9b87-dffa6e646243","system_id":"levelo_inurba_marseille","lat":43.29238,"lon":5.40918,"is_reserved":false,"is_disabled":false,"rental_uris":{"android":"levelo://app?vid=820cb578-102b-4e01-9b87-dffa6e646243","ios":"levelo://app?vid=820cb578-102b-4e01-9b87-dffa6e646243"},"vehicle_type_id":"4","last_reported":1776801559,"current_range_meters":8000,"station_id":"ce4bh192rcd13ifvqdc0","pricing_plan_id":"cebpf4jnsgd1na2vs0mg"},{"bike_id":"61b3aea9-0113-4ac0-b8e1-3dc8d194446c","system_id":"levelo_inurba_marseille","lat":43.30131,"lon":5.43118,"is_reserved":false,"is_disabled":true,"rental_uris":{"android":"levelo://app?vid=61b3aea9-0113-4ac0-b8e1-3dc8d194446c","ios":"levelo://app?vid=61b3aea9-0113-4ac0-b8e1-3dc8d194446c"},"vehicle_type_id":"4","last_reported":1776801559,"current_range_meters":8000,"station_id":"st_d3js3co5814s73ftftug","pricing_plan_id":"cebpf4jnsgd1na2vs0mg"},{"bike_id":"4437ceaf-8daf-49be-aedf-a33d965b7280","system_id":"levelo_inurba_marseille","lat":43.23459,"lon":5.41359,"is_reserved":false,"is_disabled":false,"rental_uris":{"android":"levelo://app?vid=4437ceaf-8daf-49be-aedf-a33d965b7280","ios":"levelo://app?vid=4437ceaf-8daf-49be-aedf-a33d965b7280"},"vehicle_type_id":"4","last_reported":1776801559,"current_range_meters":8400,"station_id":"st_d75pvndhf9lc73cqq3eg","pricing_plan_id":"cebpf4jnsgd1na2vs0mg"},{"bike_id":"2ef9b6ee-1669-49db-a422-18f980861580","system_id":"levelo_inurba_marseille","lat":43.28351,"lon":5.38111,"is_reserved":false,"is_disabled":false,"rental_uris":{"android":"levelo://app?vid=2ef9b6ee-1669-49db-a422-18f980861580","ios":"levelo://app?vid=2ef9b6ee-1669-49db-a422-18f980861580"},"vehicle_type_id":"4","last_reported":1776801559,"current_range_meters":8400,"station_id":"ce4bh412rcd13ifvqdr0","pricing_plan_id":"cebpf4jnsgd1na2vs0mg"},{"bike_id":"93ffcb54-2a39-4a97-ae96-eee3744a5267","system_id":"levelo_inurba_marseille","lat":43.30329,"lon":5.36928,"is_reserved":false,"is_disabled":false,"rental_uris":{"android":"levelo://app?vid=93ffcb54-2a39-4a97-ae96-eee3744a5267","ios":"levelo://app?vid=93ffcb54-2a39-4a97-ae96-eee3744a5267"},"vehicle_type_id":"4","last_reported":1776801559,"current_range_meters":8400,"station_id":"ce4bgqh2rcd13ifvqc5g","pricing_plan_id":"cebpf4jnsgd1na2vs0mg"},{"bike_id":"156a9278-c7f8-442d-9b54-2a52d275e0c5","system_id":"levelo_inurba_marseille","lat":43.28619,"lon":5.35092,"is_reserved":false,"is_disabled":true,"rental_uris":{"android":"levelo://app?vid=156a9278-c7f8-442d-9b54-2a52d275e0c5","ios":"levelo://app?vid=156a9278-c7f8-442d-9b54-2a52d275e0c5"},"vehicle_type_id":"4","last_reported":1776801559,"current_range_meters":8400,"station_id":"ce4bhch2rcd13ifvqeug","pricing_plan_id":"cebpf4jnsgd1na2vs0mg"},{"bike_id":"ac881409-e7c1-4dc7-868f-5470aa726fd2","system_id":"levelo_inurba_marseille","lat":43.29797,"lon":5.44101,"is_reserved":false,"is_disabled":false,"rental_uris":{"android":"levelo://app?vid=ac881409-e7c1-4dc7-868f-5470aa726fd2","ios":"levelo://app?vid=ac881409-e7c1-4dc7-868f-5470aa726fd2"},"vehicle_type_id":"4","last_reported":1776801559,"current_range_meters":8400,"station_id":"st_d3jp68qikq2c7381ktn0","pricing_plan_id":"cebpf4jnsgd1na2vs0mg"},{"bike_id":"37eae820-b39c-4a10-b9f1-bbf6af567e33","system_id":"levelo_inurba_marseille","lat":43.29605,"lon":5.37722,"is_reserved":false,"is_disabled":false,"rental_uris":{"android":"levelo://app?vid=37eae820-b39c-4a10-b9f1-bbf6af567e33","ios":"levelo://app?vid=37eae820-b39c-4a10-b9f1-bbf6af567e33"},"vehicle_type_id":"4","last_reported":1776801559,"current_range_meters":8400,"station_id":"ce4bgi92rcd13ifvqb90","pricing_plan_id":"cebpf4jnsgd1na2vs0mg"},{"bike_id":"a17722a5-0933-4213-98dd-37d3e07432f2","system_id":"levelo_inurba_marseille","lat":43.28708,"lon":5.46674,"is_reserved":false,"is_disabled":false,"rental_uris":{"android":"levelo://app?vid=a17722a5-0933-4213-98dd-37d3e07432f2","ios":"levelo://app?vid=a17722a5-0933-4213-98dd-37d3e07432f2"},"vehicle_type_id":"4","last_reported":1776801559,"current_range_meters":8400,"station_id":"st_d6tc3vkotcvc738tfjhg","pricing_plan_id":"cebpf4jnsgd1na2vs0mg"},{"bike_id":"0cf9c7d1-4ff6-4885-afdb-1945ed4e0993","system_id":"levelo_inurba_marseille","lat":43.2964,"lon":5.40611,"is_reserved":false,"is_disabled":true,"rental_uris":{"android":"levelo://app?vid=0cf9c7d1-4ff6-4885-afdb-1945ed4e0993","ios":"levelo://app?vid=0cf9c7d1-4ff6-4885-afdb-1945ed4e0993"},"vehicle_type_id":"4","last_reported":1776801559,"current_range_meters":8400,"station_id":"ce4bh0h2rcd13ifvqd60","pricing_plan_id":"cebpf4jnsgd1na2vs0mg"},{"bike_id":"3448f0f4-d448-4b78-8559-0a980538ebbf","system_id":"levelo_inurba_marseille","lat":43.29482,"lon":5.43243,"is_reserved":false,"is_disabled":false,"rental_uris":{"android":"levelo://app?vid=3448f0f4-d448-4b78-8559-0a980538ebbf","ios":"levelo://app?vid=3448f0f4-d448-4b78-8559-0a980538ebbf"},"vehicle_type_id":"4","last_reported":1776801559,"current_range_meters":8400,"station_id":"st_d3j5ugp08ojc73fj9d10","pricing_plan_id":"cebpf4jnsgd1na2vs0mg"},{"bike_id":"a2e88054-dd45-471a-9705-a8a558e47e23","system_id":"levelo_inurba_marseille","lat":43.29302,"lon":5.37495,"is_reserved":false,"is_disabled":false,"rental_uris":{"android":"levelo://app?vid=a2e88054-dd45-471a-9705-a8a558e47e23","ios":"levelo://app?vid=a2e88054-dd45-471a-9705-a8a558e47e23"},"vehicle_type_id":"4","last_reported":1776801559,"current_range_meters":8400,"station_id":"ce4bgi12rcd13ifvqb70","pricing_plan_id":"cebpf4jnsgd1na2vs0mg"},{"bike_id":"f3a27c26-b051-4321-9fc6-40c8888f8629","system_id":"levelo_inurba_marseille","lat":43.29304,"lon":5.37157,"is_reserved":false,"is_disabled":false,"rental_uris":{"android":"levelo://app?vid=f3a27c26-b051-4321-9fc6-40c8888f8629","ios":"levelo://app?vid=f3a27c26-b051-4321-9fc6-40c8888f8629"},"vehicle_type_id":"4","last_reported":1776801559,"current_range_meters":8400,"station_id":"ce4bgh92rcd13ifvqb40","pricing_plan_id":"cebpf4jnsgd1na2vs0mg"},{"bike_id":"d0a8881a-8c43-4555-8173-4d7ea35d93bd","system_id":"levelo_inurba_marseille","lat":43.29458,"lon":5.38622,"is_reserved":false,"is_disabled":false,"rental_uris":{"android":"levelo://app?vid=d0a8881a-8c43-4555-8173-4d7ea35d93bd","ios":"levelo://app?vid=d0a8881a-8c43-4555-8173-4d7ea35d93bd"},"vehicle_type_id":"4","last_reported":1776801559,"current_range_meters":8400,"station_id":"","pricing_plan_id":"cebpf4jnsgd1na2vs0mg"},{"bike_id":"beafb519-18ba-43f5-901e-4d2a35f80af8","system_id":"levelo_inurba_marseille","lat":43.2438,"lon":5.37099,"is_reserved":false,"is_disabled":false,"rental_uris":{"android":"levelo://app?vid=beafb519-18ba-43f5-901e-4d2a35f80af8","ios":"levelo://app?vid=beafb519-18ba-43f5-901e-4d2a35f80af8"},"vehicle_type_id":"4","last_reported":1776801559,"current_range_meters":8400,"station_id":"ce4bhhh2rcd13ifvqfk0","pricing_plan_id":"cebpf4jnsgd1na2vs0mg"},{"bike_id":"5dca9a8e-83e7-4e4f-baef-b39340f4d785","system_id":"levelo_inurba_marseille","lat":43.29563,"lon":5.3998,"is_reserved":false,"is_disabled":true,"rental_uris":{"android":"levelo://app?vid=5dca9a8e-83e7-4e4f-baef-b39340f4d785","ios":"levelo://app?vid=5dca9a8e-83e7-4e4f-baef-b39340f4d785"},"vehicle_type_id":"4","last_reported":1776801559,"current_range_meters":8400,"station_id":"ce4bh312rcd13ifvqdj0","pricing_plan_id":"cebpf4jnsgd1na2vs0mg"},{"bike_id":"1ec60160-146d-454e-ae7a-848269f6c3ad","system_id":"levelo_inurba_marseille","lat":43.23189,"lon":5.35554,"is_reserved":false,"is_disabled":false,"rental_uris":{"android":"levelo://app?vid=1ec60160-146d-454e-ae7a-848269f6c3ad","ios":"levelo://app?vid=1ec60160-146d-454e-ae7a-848269f6c3ad"},"vehicle_type_id":"4","last_reported":1776801559,"current_range_meters":8400,"station_id":"ce4bhu92rcd13ifvqi70","pricing_plan_id":"cebpf4jnsgd1na2vs0mg"},{"bike_id":"3887a9d6-4069-4923-8506-8898186c9240","system_id":"levelo_inurba_marseille","lat":43.30327,"lon":5.40433,"is_reserved":false,"is_disabled":false,"rental_uris":{"android":"levelo://app?vid=3887a9d6-4069-4923-8506-8898186c9240","ios":"levelo://app?vid=3887a9d6-4069-4923-8506-8898186c9240"},"vehicle_type_id":"4","last_reported":1776801559,"current_range_meters":8400,"station_id":"ce4bh012rcd13ifvqd10","pricing_plan_id":"cebpf4jnsgd1na2vs0mg"},{"bike_id":"9b5cbf55-e62e-454a-b83f-35836124b692","system_id":"levelo_inurba_marseille","lat":43.26053,"lon":5.39394,"is_reserved":false,"is_disabled":false,"rental_uris":{"android":"levelo://app?vid=9b5cbf55-e62e-454a-b83f-35836124b692","ios":"levelo://app?vid=9b5cbf55-e62e-454a-b83f-35836124b692"},"vehicle_type_id":"4","last_reported":1776801559,"current_range_meters":8400,"station_id":"ce4bhh92rcd13ifvqfj0","pricing_plan_id":"cebpf4jnsgd1na2vs0mg"},{"bike_id":"58172956-6468-46d7-886c-4b30c6fc9899","system_id":"levelo_inurba_marseille","lat":43.30143,"lon":5.37404,"is_reserved":false,"is_disabled":false,"rental_uris":{"android":"levelo://app?vid=58172956-6468-46d7-886c-4b30c6fc9899","ios":"levelo://app?vid=58172956-6468-46d7-886c-4b30c6fc9899"},"vehicle_type_id":"4","last_reported":1776801559,"current_range_meters":8800,"station_id":"ce4bgs92rcd13ifvqcc0","pricing_plan_id":"cebpf4jnsgd1na2vs0mg"},{"bike_id":"e923ed6c-2b44-4dbc-904b-67db3c09373b","system_id":"levelo_inurba_marseille","lat":43.29909,"lon":5.38134,"is_reserved":false,"is_disabled":false,"rental_uris":{"android":"levelo://app?vid=e923ed6c-2b44-4dbc-904b-67db3c09373b","ios":"levelo://app?vid=e923ed6c-2b44-4dbc-904b-67db3c09373b"},"vehicle_type_id":"4","last_reported":1776801559,"current_range_meters":8800,"station_id":"ce4bgj12rcd13ifvqbc0","pricing_plan_id":"cebpf4jnsgd1na2vs0mg"},{"bike_id":"9b5f530a-feb3-40f8-b325-17ef686ceeee","system_id":"levelo_inurba_marseille","lat":43.29109,"lon":5.38558,"is_reserved":false,"is_disabled":false,"rental_uris":{"android":"levelo://app?vid=9b5f530a-feb3-40f8-b325-17ef686ceeee","ios":"levelo://app?vid=9b5f530a-feb3-40f8-b325-17ef686ceeee"},"vehicle_type_id":"4","last_reported":1776801559,"current_range_meters":8800,"station_id":"","pricing_plan_id":"cebpf4jnsgd1na2vs0mg"},{"bike_id":"d89766e2-040e-4a7d-8414-766bcdb241b5","system_id":"levelo_inurba_marseille","lat":43.29268,"lon":5.38435,"is_reserved":false,"is_disabled":false,"rental_uris":{"android":"levelo://app?vid=d89766e2-040e-4a7d-8414-766bcdb241b5","ios":"levelo://app?vid=d89766e2-040e-4a7d-8414-766bcdb241b5"},"vehicle_type_id":"4","last_reported":1776801559,"current_range_meters":8800,"station_id":"ce4bh692rcd13ifvqea0","pricing_plan_id":"cebpf4jnsgd1na2vs0mg"},{"bike_id":"de221127-6266-4faa-9b6b-7920240c2136","system_id":"levelo_inurba_marseille","lat":43.29205,"lon":5.39305,"is_reserved":false,"is_disabled":false,"rental_uris":{"android":"levelo://app?vid=de221127-6266-4faa-9b6b-7920240c2136","ios":"levelo://app?vid=de221127-6266-4faa-9b6b-7920240c2136"},"vehicle_type_id":"4","last_reported":1776801559,"current_range_meters":8800,"station_id":"ce4bh192rcd13ifvqdd0","pricing_plan_id":"cebpf4jnsgd1na2vs0mg"},{"bike_id":"efafe04d-4c99-4008-b213-fd769bff4eb0","system_id":"levelo_inurba_marseille","lat":43.29505,"lon":5.3939,"is_reserved":false,"is_disabled":true,"rental_uris":{"android":"levelo://app?vid=efafe04d-4c99-4008-b213-fd769bff4eb0","ios":"levelo://app?vid=efafe04d-4c99-4008-b213-fd769bff4eb0"},"vehicle_type_id":"4","last_reported":1776801559,"current_range_meters":8800,"station_id":"ce4bh292rcd13ifvqdf0","pricing_plan_id":"cebpf4jnsgd1na2vs0mg"},{"bike_id":"33b6c338-058b-47c2-a903-d45a5c585d34","system_id":"levelo_inurba_marseille","lat":43.284828,"lon":5.385599,"is_reserved":false,"is_disabled":false,"rental_uris":{"android":"levelo://app?vid=33b6c338-058b-47c2-a903-d45a5c585d34","ios":"levelo://app?vid=33b6c338-058b-47c2-a903-d45a5c585d34"},"vehicle_type_id":"4","last_reported":1776801559,"current_range_meters":8800,"station_id":"ce4bh8p2rcd13ifvqeb0","pricing_plan_id":"cebpf4jnsgd1na2vs0mg"},{"bike_id":"1451c58d-8a43-4406-a5c6-ff70ba6ebe56","system_id":"levelo_inurba_marseille","lat":43.294374,"lon":5.397509,"is_reserved":false,"is_disabled":false,"rental_uris":{"android":"levelo://app?vid=1451c58d-8a43-4406-a5c6-ff70ba6ebe56","ios":"levelo://app?vid=1451c58d-8a43-4406-a5c6-ff70ba6ebe56"},"vehicle_type_id":"4","last_reported":1776801559,"current_range_meters":8800,"station_id":"ce4bh3h2rcd13ifvqdo0","pricing_plan_id":"cebpf4jnsgd1na2vs0mg"},{"bike_id":"2d43b0c4-097c-4591-b60c-5a5feba5dc3d","system_id":"levelo_inurba_marseille","lat":43.2952,"lon":5.39029,"is_reserved":false,"is_disabled":false,"rental_uris":{"android":"levelo://app?vid=2d43b0c4-097c-4591-b60c-5a5feba5dc3d","ios":"levelo://app?vid=2d43b0c4-097c-4591-b60c-5a5feba5dc3d"},"vehicle_type_id":"4","last_reported":1776801559,"current_range_meters":8800,"station_id":"ce4bh3p2rcd13ifvqdp0","pricing_plan_id":"cebpf4jnsgd1na2vs0mg"},{"bike_id":"350e7442-23d7-4e56-8901-abbc70fd101f","system_id":"levelo_inurba_marseille","lat":43.31169,"lon":5.38713,"is_reserved":false,"is_disabled":false,"rental_uris":{"android":"levelo://app?vid=350e7442-23d7-4e56-8901-abbc70fd101f","ios":"levelo://app?vid=350e7442-23d7-4e56-8901-abbc70fd101f"},"vehicle_type_id":"4","last_reported":1776801559,"current_range_meters":8800,"station_id":"ce4bgv12rcd13ifvqcp0","pricing_plan_id":"cebpf4jnsgd1na2vs0mg"},{"bike_id":"b996a8f3-671c-4aa6-9d99-446cde0245d5","system_id":"levelo_inurba_marseille","lat":43.29895,"lon":5.43671,"is_reserved":false,"is_disabled":false,"rental_uris":{"android":"levelo://app?vid=b996a8f3-671c-4aa6-9d99-446cde0245d5","ios":"levelo://app?vid=b996a8f3-671c-4aa6-9d99-446cde0245d5"},"vehicle_type_id":"4","last_reported":1776801559,"current_range_meters":8800,"station_id":"ce4bhpp2rcd13ifvqhfg","pricing_plan_id":"cebpf4jnsgd1na2vs0mg"},{"bike_id":"92f0d726-8ad1-42c8-b7a0-ddde28d30f31","system_id":"levelo_inurba_marseille","lat":43.29527,"lon":5.38541,"is_reserved":false,"is_disabled":false,"rental_uris":{"android":"levelo://app?vid=92f0d726-8ad1-42c8-b7a0-ddde28d30f31","ios":"levelo://app?vid=92f0d726-8ad1-42c8-b7a0-ddde28d30f31"},"vehicle_type_id":"4","last_reported":1776801559,"current_range_meters":8800,"station_id":"ce4bgih2rcd13ifvqba0","pricing_plan_id":"cebpf4jnsgd1na2vs0mg"},{"bike_id":"468b098b-8742-43b6-94e4-77df021ec20c","system_id":"levelo_inurba_marseille","lat":43.30725,"lon":5.42451,"is_reserved":false,"is_disabled":false,"rental_uris":{"android":"levelo://app?vid=468b098b-8742-43b6-94e4-77df021ec20c","ios":"levelo://app?vid=468b098b-8742-43b6-94e4-77df021ec20c"},"vehicle_type_id":"4","last_reported":1776801559,"current_range_meters":8800,"station_id":"st_cvj6ca6bvosntc0bfgr0","pricing_plan_id":"cebpf4jnsgd1na2vs0mg"},{"bike_id":"a5932d33-7fe4-4ab5-ab73-558a4a420627","system_id":"levelo_inurba_marseille","lat":43.24457,"lon":5.40029,"is_reserved":false,"is_disabled":false,"rental_uris":{"android":"levelo://app?vid=a5932d33-7fe4-4ab5-ab73-558a4a420627","ios":"levelo://app?vid=a5932d33-7fe4-4ab5-ab73-558a4a420627"},"vehicle_type_id":"4","last_reported":1776801559,"current_range_meters":8800,"station_id":"","pricing_plan_id":"cebpf4jnsgd1na2vs0mg"},{"bike_id":"353dbd75-4f34-4a0c-8a05-bb9d61e99cd2","system_id":"levelo_inurba_marseille","lat":43.30234,"lon":5.40077,"is_reserved":false,"is_disabled":false,"rental_uris":{"android":"levelo://app?vid=353dbd75-4f34-4a0c-8a05-bb9d61e99cd2","ios":"levelo://app?vid=353dbd75-4f34-4a0c-8a05-bb9d61e99cd2"},"vehicle_type_id":"4","last_reported":1776801559,"current_range_meters":8800,"station_id":"ce4bgvh2rcd13ifvqcs0","pricing_plan_id":"cebpf4jnsgd1na2vs0mg"},{"bike_id":"56c00156-7e73-4cab-86ad-f56b0a5ac53f","system_id":"levelo_inurba_marseille","lat":43.28678,"lon":5.38673,"is_reserved":false,"is_disabled":false,"rental_uris":{"android":"levelo://app?vid=56c00156-7e73-4cab-86ad-f56b0a5ac53f","ios":"levelo://app?vid=56c00156-7e73-4cab-86ad-f56b0a5ac53f"},"vehicle_type_id":"4","last_reported":1776801559,"current_range_meters":9200,"station_id":"ce4bh492rcd13ifvqdug","pricing_plan_id":"cebpf4jnsgd1na2vs0mg"},{"bike_id":"32023100-5ce8-4637-ad41-206e633c27ce","system_id":"levelo_inurba_marseille","lat":43.24807,"lon":5.37455,"is_reserved":false,"is_disabled":true,"rental_uris":{"android":"levelo://app?vid=32023100-5ce8-4637-ad41-206e633c27ce","ios":"levelo://app?vid=32023100-5ce8-4637-ad41-206e633c27ce"},"vehicle_type_id":"4","last_reported":1776801559,"current_range_meters":9200,"station_id":"ce4bhgh2rcd13ifvqfb0","pricing_plan_id":"cebpf4jnsgd1na2vs0mg"},{"bike_id":"fc83597b-c92a-4d6b-9ec3-85cccb5b70a7","system_id":"levelo_inurba_marseille","lat":43.31948,"lon":5.36868,"is_reserved":false,"is_disabled":false,"rental_uris":{"android":"levelo://app?vid=fc83597b-c92a-4d6b-9ec3-85cccb5b70a7","ios":"levelo://app?vid=fc83597b-c92a-4d6b-9ec3-85cccb5b70a7"},"vehicle_type_id":"4","last_reported":1776801559,"current_range_meters":9200,"station_id":"","pricing_plan_id":"cebpf4jnsgd1na2vs0mg"},{"bike_id":"04257b95-4499-46e1-a4e3-88ab526291ba","system_id":"levelo_inurba_marseille","lat":43.28506,"lon":5.48402,"is_reserved":false,"is_disabled":false,"rental_uris":{"android":"levelo://app?vid=04257b95-4499-46e1-a4e3-88ab526291ba","ios":"levelo://app?vid=04257b95-4499-46e1-a4e3-88ab526291ba"},"vehicle_type_id":"4","last_reported":1776801559,"current_range_meters":9200,"station_id":"st_d3svhcjqgbts73a3dn0g","pricing_plan_id":"cebpf4jnsgd1na2vs0mg"},{"bike_id":"9d18c893-9c47-4769-8ace-ec89a607a0d0","system_id":"levelo_inurba_marseille","lat":43.31311,"lon":5.39717,"is_reserved":false,"is_disabled":false,"rental_uris":{"android":"levelo://app?vid=9d18c893-9c47-4769-8ace-ec89a607a0d0","ios":"levelo://app?vid=9d18c893-9c47-4769-8ace-ec89a607a0d0"},"vehicle_type_id":"4","last_reported":1776801559,"current_range_meters":9200,"station_id":"ce4bgvp2rcd13ifvqcu0","pricing_plan_id":"cebpf4jnsgd1na2vs0mg"},{"bike_id":"2e91429e-26d4-4cb4-b1d3-cd915485ff5f","system_id":"levelo_inurba_marseille","lat":43.31118,"lon":5.37766,"is_reserved":false,"is_disabled":false,"rental_uris":{"android":"levelo://app?vid=2e91429e-26d4-4cb4-b1d3-cd915485ff5f","ios":"levelo://app?vid=2e91429e-26d4-4cb4-b1d3-cd915485ff5f"},"vehicle_type_id":"4","last_reported":1776801559,"current_range_meters":9200,"station_id":"ce4bgt92rcd13ifvqcg0","pricing_plan_id":"cebpf4jnsgd1na2vs0mg"},{"bike_id":"32fd39c8-747f-4e51-ab12-cdc3c3974430","system_id":"levelo_inurba_marseille","lat":43.27919,"lon":5.39573,"is_reserved":false,"is_disabled":false,"rental_uris":{"android":"levelo://app?vid=32fd39c8-747f-4e51-ab12-cdc3c3974430","ios":"levelo://app?vid=32fd39c8-747f-4e51-ab12-cdc3c3974430"},"vehicle_type_id":"4","last_reported":1776801559,"current_range_meters":9200,"station_id":"ce4bhf92rcd13ifvqf40","pricing_plan_id":"cebpf4jnsgd1na2vs0mg"},{"bike_id":"6d804725-3e06-48aa-bb02-3731fe39ff8c","system_id":"levelo_inurba_marseille","lat":43.29532,"lon":5.38532,"is_reserved":false,"is_disabled":false,"rental_uris":{"android":"levelo://app?vid=6d804725-3e06-48aa-bb02-3731fe39ff8c","ios":"levelo://app?vid=6d804725-3e06-48aa-bb02-3731fe39ff8c"},"vehicle_type_id":"4","last_reported":1776801559,"current_range_meters":9200,"station_id":"ce4bgih2rcd13ifvqba0","pricing_plan_id":"cebpf4jnsgd1na2vs0mg"},{"bike_id":"d516b241-18a7-43d9-9154-21f273af7ca2","system_id":"levelo_inurba_marseille","lat":43.29166,"lon":5.38846,"is_reserved":false,"is_disabled":false,"rental_uris":{"android":"levelo://app?vid=d516b241-18a7-43d9-9154-21f273af7ca2","ios":"levelo://app?vid=d516b241-18a7-43d9-9154-21f273af7ca2"},"vehicle_type_id":"4","last_reported":1776801559,"current_range_meters":9200,"station_id":"","pricing_plan_id":"cebpf4jnsgd1na2vs0mg"},{"bike_id":"fc182d5e-a901-481f-9982-3c345938d4dd","system_id":"levelo_inurba_marseille","lat":43.30104,"lon":5.39072,"is_reserved":false,"is_disabled":false,"rental_uris":{"android":"levelo://app?vid=fc182d5e-a901-481f-9982-3c345938d4dd","ios":"levelo://app?vid=fc182d5e-a901-481f-9982-3c345938d4dd"},"vehicle_type_id":"4","last_reported":1776801559,"current_range_meters":9200,"station_id":"ce4bh192rcd13ifvqdb0","pricing_plan_id":"cebpf4jnsgd1na2vs0mg"},{"bike_id":"6a37b8f2-598c-4865-986b-c1637c9a4546","system_id":"levelo_inurba_marseille","lat":43.23887,"lon":5.37467,"is_reserved":false,"is_disabled":false,"rental_uris":{"android":"levelo://app?vid=6a37b8f2-598c-4865-986b-c1637c9a4546","ios":"levelo://app?vid=6a37b8f2-598c-4865-986b-c1637c9a4546"},"vehicle_type_id":"4","last_reported":1776801559,"current_range_meters":9200,"station_id":"st_d6sm7csbq4hs73f8fpjg","pricing_plan_id":"cebpf4jnsgd1na2vs0mg"},{"bike_id":"f19589cb-032e-4633-a8f7-a3f1edd606b6","system_id":"levelo_inurba_marseille","lat":43.29534,"lon":5.38532,"is_reserved":false,"is_disabled":false,"rental_uris":{"android":"levelo://app?vid=f19589cb-032e-4633-a8f7-a3f1edd606b6","ios":"levelo://app?vid=f19589cb-032e-4633-a8f7-a3f1edd606b6"},"vehicle_type_id":"4","last_reported":1776801559,"current_range_meters":9200,"station_id":"ce4bgih2rcd13ifvqba0","pricing_plan_id":"cebpf4jnsgd1na2vs0mg"},{"bike_id":"63a9e180-e9e9-4e14-8782-e52d07be535b","system_id":"levelo_inurba_marseille","lat":43.30888,"lon":5.39625,"is_reserved":false,"is_disabled":true,"rental_uris":{"android":"levelo://app?vid=63a9e180-e9e9-4e14-8782-e52d07be535b","ios":"levelo://app?vid=63a9e180-e9e9-4e14-8782-e52d07be535b"},"vehicle_type_id":"4","last_reported":1776801559,"current_range_meters":9200,"station_id":"ce4bh012rcd13ifvqcv0","pricing_plan_id":"cebpf4jnsgd1na2vs0mg"},{"bike_id":"059b4ad8-665d-46df-9a3f-e9b9a20a1c99","system_id":"levelo_inurba_marseille","lat":43.33542,"lon":5.37469,"is_reserved":false,"is_disabled":false,"rental_uris":{"android":"levelo://app?vid=059b4ad8-665d-46df-9a3f-e9b9a20a1c99","ios":"levelo://app?vid=059b4ad8-665d-46df-9a3f-e9b9a20a1c99"},"vehicle_type_id":"4","last_reported":1776801559,"current_range_meters":9200,"station_id":"st_d46tts09ee8s73dlu43g","pricing_plan_id":"cebpf4jnsgd1na2vs0mg"},{"bike_id":"1c4db81e-e54e-450a-b910-a202dc639503","system_id":"levelo_inurba_marseille","lat":43.28477,"lon":5.48401,"is_reserved":false,"is_disabled":false,"rental_uris":{"android":"levelo://app?vid=1c4db81e-e54e-450a-b910-a202dc639503","ios":"levelo://app?vid=1c4db81e-e54e-450a-b910-a202dc639503"},"vehicle_type_id":"4","last_reported":1776801559,"current_range_meters":9600,"station_id":"","pricing_plan_id":"cebpf4jnsgd1na2vs0mg"},{"bike_id":"54158463-085c-499f-9d12-01f94070f32c","system_id":"levelo_inurba_marseille","lat":43.23817,"lon":5.36618,"is_reserved":false,"is_disabled":false,"rental_uris":{"android":"levelo://app?vid=54158463-085c-499f-9d12-01f94070f32c","ios":"levelo://app?vid=54158463-085c-499f-9d12-01f94070f32c"},"vehicle_type_id":"4","last_reported":1776801559,"current_range_meters":9600,"station_id":"st_d3nk18o9ro0c73en2l3g","pricing_plan_id":"cebpf4jnsgd1na2vs0mg"},{"bike_id":"b3f322d0-4f50-49da-92fd-b27e373cb56e","system_id":"levelo_inurba_marseille","lat":43.29194,"lon":5.39312,"is_reserved":false,"is_disabled":false,"rental_uris":{"android":"levelo://app?vid=b3f322d0-4f50-49da-92fd-b27e373cb56e","ios":"levelo://app?vid=b3f322d0-4f50-49da-92fd-b27e373cb56e"},"vehicle_type_id":"4","last_reported":1776801559,"current_range_meters":9600,"station_id":"ce4bh192rcd13ifvqdd0","pricing_plan_id":"cebpf4jnsgd1na2vs0mg"},{"bike_id":"c6ac2744-2a5b-4c71-9c20-f0e8df2f2a62","system_id":"levelo_inurba_marseille","lat":43.27999,"lon":5.41664,"is_reserved":false,"is_disabled":false,"rental_uris":{"android":"levelo://app?vid=c6ac2744-2a5b-4c71-9c20-f0e8df2f2a62","ios":"levelo://app?vid=c6ac2744-2a5b-4c71-9c20-f0e8df2f2a62"},"vehicle_type_id":"4","last_reported":1776801559,"current_range_meters":9600,"station_id":"ce4bho12rcd13ifvqh1g","pricing_plan_id":"cebpf4jnsgd1na2vs0mg"},{"bike_id":"0ae342eb-a682-4024-97ab-997c93fd978f","system_id":"levelo_inurba_marseille","lat":43.31435,"lon":5.37379,"is_reserved":false,"is_disabled":false,"rental_uris":{"android":"levelo://app?vid=0ae342eb-a682-4024-97ab-997c93fd978f","ios":"levelo://app?vid=0ae342eb-a682-4024-97ab-997c93fd978f"},"vehicle_type_id":"4","last_reported":1776801559,"current_range_meters":9600,"station_id":"","pricing_plan_id":"cebpf4jnsgd1na2vs0mg"},{"bike_id":"12d1ddb5-1e2c-4b2d-a0d4-dafdec917212","system_id":"levelo_inurba_marseille","lat":43.28491,"lon":5.48401,"is_reserved":false,"is_disabled":false,"rental_uris":{"android":"levelo://app?vid=12d1ddb5-1e2c-4b2d-a0d4-dafdec917212","ios":"levelo://app?vid=12d1ddb5-1e2c-4b2d-a0d4-dafdec917212"},"vehicle_type_id":"4","last_reported":1776801559,"current_range_meters":9600,"station_id":"","pricing_plan_id":"cebpf4jnsgd1na2vs0mg"},{"bike_id":"f15a484b-87e9-4498-9521-1599f41882b0","system_id":"levelo_inurba_marseille","lat":43.31711,"lon":5.43704,"is_reserved":false,"is_disabled":false,"rental_uris":{"android":"levelo://app?vid=f15a484b-87e9-4498-9521-1599f41882b0","ios":"levelo://app?vid=f15a484b-87e9-4498-9521-1599f41882b0"},"vehicle_type_id":"4","last_reported":1776801559,"current_range_meters":9600,"station_id":"ce4bhp92rcd13ifvqhcg","pricing_plan_id":"cebpf4jnsgd1na2vs0mg"},{"bike_id":"42bc5912-9f51-49f0-a597-ebcfd7df5cbb","system_id":"levelo_inurba_marseille","lat":43.29713,"lon":5.36584,"is_reserved":false,"is_disabled":true,"rental_uris":{"android":"levelo://app?vid=42bc5912-9f51-49f0-a597-ebcfd7df5cbb","ios":"levelo://app?vid=42bc5912-9f51-49f0-a597-ebcfd7df5cbb"},"vehicle_type_id":"4","last_reported":1776801559,"current_range_meters":9600,"station_id":"ce4bgn12rcd13ifvqbt0","pricing_plan_id":"cebpf4jnsgd1na2vs0mg"},{"bike_id":"c7ff1d8c-9f80-4101-92ef-2f0b68fb525f","system_id":"levelo_inurba_marseille","lat":43.27603,"lon":5.39505,"is_reserved":false,"is_disabled":false,"rental_uris":{"android":"levelo://app?vid=c7ff1d8c-9f80-4101-92ef-2f0b68fb525f","ios":"levelo://app?vid=c7ff1d8c-9f80-4101-92ef-2f0b68fb525f"},"vehicle_type_id":"4","last_reported":1776801559,"current_range_meters":9600,"station_id":"","pricing_plan_id":"cebpf4jnsgd1na2vs0mg"},{"bike_id":"d1fda486-70ba-4609-b998-7713b50defe1","system_id":"levelo_inurba_marseille","lat":43.27047,"lon":5.40053,"is_reserved":false,"is_disabled":false,"rental_uris":{"android":"levelo://app?vid=d1fda486-70ba-4609-b998-7713b50defe1","ios":"levelo://app?vid=d1fda486-70ba-4609-b998-7713b50defe1"},"vehicle_type_id":"4","last_reported":1776801559,"current_range_meters":9600,"station_id":"","pricing_plan_id":"cebpf4jnsgd1na2vs0mg"},