{"last_updated":1747529906,"ttl":60,"version":"2.2","data":{"bikes":[{"bike_id":"c0b9fd4f-e181-46ce-b0bf-f5119973334f","system_id":"levelo_inurba_marseille","lat":43.33771,"lon":5.37424,"is_reserved":false,"is_disabled":false,"rental_uris":{"android":"levelo://app?vid=c0b9fd4f-e181-46ce-b0bf-f5119973334f","ios":"levelo://app?vid=c0b9fd4f-e181-46ce-b0bf-f5119973334f"},"vehicle_type_id":"4","last_reported":1747529906,"current_range_meters":3200,"station_id":"","pricing_plan_id":"cebpf4jnsgd1na2vs0mg"},{"bike_id":"fc2577e7-1497-425b-9d4f-ab8d7dc843c6","system_id":"levelo_inurba_marseille","lat":43.33771,"lon":5.37485,"is_reserved":false,"is_disabled":true,"rental_uris":{"android":"levelo://app?vid=fc2577e7-1497-425b-9d4f-ab8d7dc843c6","ios":"levelo://app?vid=fc2577e7-1497-425b-9d4f-ab8d7dc843c6"},"vehicle_type_id":"4","last_reported":1747529906,"current_range_meters":0,"station_id":"","pricing_plan_id":"cebpf4jnsgd1na2vs0mg"},{"bike_id":"7e8f9622-74b3-4df1-9fba-94b450718227","system_id":"levelo_inurba_marseille","lat":43.287811,"lon":5.382396,"is_reserved":false,"is_disabled":true,"rental_uris":{"android":"levelo://app?vid=7e8f9622-74b3-4df1-9fba-94b450718227","ios":"levelo://app?vid=7e8f9622-74b3-4df1-9fba-94b450718227"},"vehicle_type_id":"4","last_reported":1747529906,"current_range_meters":0,"station_id":"","pricing_plan_id":"cebpf4jnsgd1na2vs0mg"},{"bike_id":"80d0d83f-909d-4568-b4e7-8a3ef4eed2de","system_id":"levelo_inurba_marseille","lat":43.253983,"lon":5.41902,"is_reserved":false,"is_disabled":true,"rental_uris":{"android":"levelo://app?vid=80d0d83f-909d-4568-b4e7-8a3ef4eed2de","ios":"levelo://app?vid=80d0d83f-909d-4568-b4e7-8a3ef4eed2de"},"vehicle_type_id":"4","last_reported":1747529906,"current_range_meters":0,"station_id":"","pricing_plan_id":"cebpf4jnsgd1na2vs0mg"},{"bike_id":"59e33bab-443b-4b82-946a-94b602858b07","system_id":"levelo_inurba_marseille","lat":43.28186,"lon":5.3846,"is_reserved":false,"is_disabled":true,"rental_uris":{"android":"levelo://app?vid=59e33bab-443b-4b82-946a-94b602858b07","ios":"levelo://app?vid=59e33bab-443b-4b82-946a-94b602858b07"},"vehicle_type_id":"4","last_reported":1747529906,"current_range_meters":0,"station_id":"","pricing_plan_id":"cebpf4jnsgd1na2vs0mg"},{"bike_id":"0b7b8d9e-a565-4a78-b09b-a8c868649f48","system_id":"levelo_inurba_marseille","lat":43.337444,"lon":5.374475,"is_reserved":false,"is_disabled":true,"rental_uris":{"android":"levelo://app?vid=0b7b8d9e-a565-4a78-b09b-a8c868649f48","ios":"levelo://app?vid=0b7b8d9e-a565-4a78-b09b-a8c868649f48"},"vehicle_type_id":"4","last_reported":1747529906,"current_range_meters":0,"station_id":"","pricing_plan_id":"cebpf4jnsgd1na2vs0mg"},{"bike_id":"ce4325af-2448-4172-bdec-81d552ee0b62","system_id":"levelo_inurba_marseille","lat":43.26167,"lon":5.42016,"is_reserved":false,"is_disabled":true,"rental_uris":{"android":"levelo://app?vid=ce4325af-2448-4172-bdec-81d552ee0b62","ios":"levelo://app?vid=ce4325af-2448-4172-bdec-81d552ee0b62"},"vehicle_type_id":"4","last_reported":1747529906,"current_range_meters":0,"station_id":"","pricing_plan_id":"cebpf4jnsgd1na2vs0mg"},{"bike_id":"23939faf-d206-4b93-ade4-199417584041","system_id":"levelo_inurba_marseille","lat":43.249487,"lon":5.375443,"is_reserved":false,"is_disabled":true,"rental_uris":{"android":"levelo://app?vid=23939faf-d206-4b93-ade4-199417584041","ios":"levelo://app?vid=23939faf-d206-4b93-ade4-199417584041"},"vehicle_type_id":"4","last_reported":1747529906,"current_range_meters":0,"station_id":"","pricing_plan_id":"cebpf4jnsgd1na2vs0mg"},{"bike_id":"c94af0c5-fcda-4413-885f-4b4f3e453db7","system_id":"levelo_inurba_marseille","lat":43.24575,"lon":5.37378,"is_reserved":false,"is_disabled":true,"rental_uris":{"android":"levelo://app?vid=c94af0c5-fcda-4413-885f-4b4f3e453db7","ios":"levelo://app?vid=c94af0c5-fcda-4413-885f-4b4f3e453db7"},"vehicle_type_id":"4","last_reported":1747529906,"current_range_meters":0,"station_id":"","pricing_plan_id":"cebpf4jnsgd1na2vs0mg"},{"bike_id":"792567c6-0442-4011-aff0-9c05e25deb48","system_id":"levelo_inurba_marseille","lat":43.337444,"lon":5.374475,"is_reserved":false,"is_disabled":true,"rental_uris":{"android":"levelo://app?vid=792567c6-0442-4011-aff0-9c05e25deb48","ios":"levelo://app?vid=792567c6-0442-4011-aff0-9c05e25deb48"},"vehicle_type_id":"4","last_reported":1747529906,"current_range_meters":0,"station_id":"","pricing_plan_id":"cebpf4jnsgd1na2vs0mg"},{"bike_id":"bb0baa39-1e01-43e0-a77c-5ba8d631e8a2","system_id":"levelo_inurba_marseille","lat":43.27252,"lon":5.38585,"is_reserved":false,"is_disabled":true,"rental_uris":{"android":"levelo://app?vid=bb0baa39-1e01-43e0-a77c-5ba8d631e8a2","ios":"levelo://app?vid=bb0baa39-1e01-43e0-a77c-5ba8d631e8a2"},"vehicle_type_id":"4","last_reported":1747529906,"current_range_meters":0,"station_id":"","pricing_plan_id":"cebpf4jnsgd1na2vs0mg"},{"bike_id":"8a67ee22-e899-46db-bf38-31fcb7e4849f","system_id":"levelo_inurba_marseille","lat":43.30311,"lon":5.40084,"is_reserved":false,"is_disabled":true,"rental_uris":{"android":"levelo://app?vid=8a67ee22-e899-46db-bf38-31fcb7e4849f","ios":"levelo://app?vid=8a67ee22-e899-46db-bf38-31fcb7e4849f"},"vehicle_type_id":"4","last_reported":1747529906,"current_range_meters":0,"station_id":"ce4bgvh2rcd13ifvqcs0","pricing_plan_id":"cebpf4jnsgd1na2vs0mg"},{"bike_id":"a33a3eca-e2d9-40a8-a630-a9284a0706c5","system_id":"levelo_inurba_marseille","lat":43.29261,"lon":5.40907,"is_reserved":false,"is_disabled":true,"rental_uris":{"android":"levelo://app?vid=a33a3eca-e2d9-40a8-a630-a9284a0706c5","ios":"levelo://app?vid=a33a3eca-e2d9-40a8-a630-a9284a0706c5"},"vehicle_type_id":"4","last_reported":1747529906,"current_range_meters":0,"station_id":"ce4bh192rcd13ifvqdc0","pricing_plan_id":"cebpf4jnsgd1na2vs0mg"},{"bike_id":"806fbaf0-12b9-4576-bd63-75d5dcea0150","system_id":"levelo_inurba_marseille","lat":43.25939,"lon":5.40905,"is_reserved":false,"is_disabled":true,"rental_uris":{"android":"levelo://app?vid=806fbaf0-12b9-4576-bd63-75d5dcea0150","ios":"levelo://app?vid=806fbaf0-12b9-4576-bd63-75d5dcea0150"},"vehicle_type_id":"4","last_reported":1747529906,"current_range_meters":0,"station_id":"ce4bhm92rcd13ifvqglg","pricing_plan_id":"cebpf4jnsgd1na2vs0mg"},{"bike_id":"51bc64ef-d569-4774-b094-b557a3415a20","system_id":"levelo_inurba_marseille","lat":43.28154,"lon":5.42647,"is_reserved":false,"is_disabled":true,"rental_uris":{"android":"levelo://app?vid=51bc64ef-d569-4774-b094-b557a3415a20","ios":"levelo://app?vid=51bc64ef-d569-4774-b094-b557a3415a20"},"vehicle_type_id":"4","last_reported":1747529906,"current_range_meters":0,"station_id":"ce4bhnh2rcd13ifvqgug","pricing_plan_id":"cebpf4jnsgd1na2vs0mg"},{"bike_id":"4c8b85b7-6445-440b-974c-cf69ef597251","system_id":"levelo_inurba_marseille","lat":43.22932,"lon":5.35382,"is_reserved":false,"is_disabled":true,"rental_uris":{"android":"levelo://app?vid=4c8b85b7-6445-440b-974c-cf69ef597251","ios":"levelo://app?vid=4c8b85b7-6445-440b-974c-cf69ef597251"},"vehicle_type_id":"4","last_reported":1747529906,"current_range_meters":0,"station_id":"cpo3532slgdg3j2ikp40","pricing_plan_id":"cebpf4jnsgd1na2vs0mg"},{"bike_id":"343caff8-66ae-48de-8ad2-12268cecda98","system_id":"levelo_inurba_marseille","lat":43.24169,"lon":5.36398,"is_reserved":false,"is_disabled":true,"rental_uris":{"android":"levelo://app?vid=343caff8-66ae-48de-8ad2-12268cecda98","ios":"levelo://app?vid=343caff8-66ae-48de-8ad2-12268cecda98"},"vehicle_type_id":"4","last_reported":1747529906,"current_range_meters":0,"station_id":"cpo36qri1sfpv3e86is0","pricing_plan_id":"cebpf4jnsgd1na2vs0mg"},{"bike_id":"761f97ef-3d44-49e1-a980-dbcf9a00e013","system_id":"levelo_inurba_marseille","lat":43.22497,"lon":5.34788,"is_reserved":false,"is_disabled":true,"rental_uris":{"android":"levelo://app?vid=761f97ef-3d44-49e1-a980-dbcf9a00e013","ios":"levelo://app?vid=761f97ef-3d44-49e1-a980-dbcf9a00e013"},"vehicle_type_id":"4","last_reported":1747529906,"current_range_meters":0,"station_id":"st_cvj5dfep6f1abm77gieg","pricing_plan_id":"cebpf4jnsgd1na2vs0mg"},{"bike_id":"78a72d2e-086e-4202-8619-96d6a7e70ccc","system_id":"levelo_inurba_marseille","lat":43.28344,"lon":5.3994,"is_reserved":false,"is_disabled":true,"rental_uris":{"android":"levelo://app?vid=78a72d2e-086e-4202-8619-96d6a7e70ccc","ios":"levelo://app?vid=78a72d2e-086e-4202-8619-96d6a7e70ccc"},"vehicle_type_id":"4","last_reported":1747529906,"current_range_meters":400,"station_id":"","pricing_plan_id":"cebpf4jnsgd1na2vs0mg"},{"bike_id":"b9df08aa-aab5-4f64-a98b-f889afb71ea6","system_id":"levelo_inurba_marseille","lat":43.23966,"lon":5.36634,"is_reserved":false,"is_disabled":true,"rental_uris":{"android":"levelo://app?vid=b9df08aa-aab5-4f64-a98b-f889afb71ea6","ios":"levelo://app?vid=b9df08aa-aab5-4f64-a98b-f889afb71ea6"},"vehicle_type_id":"4","last_reported":1747529906,"current_range_meters":400,"station_id":"ce4bhi12rcd13ifvqfp0","pricing_plan_id":"cebpf4jnsgd1na2vs0mg"},{"bike_id":"59f9598d-e110-4192-bc18-7a255f754535","system_id":"levelo_inurba_marseille","lat":43.21751,"lon":5.346009,"is_reserved":false,"is_disabled":true,"rental_uris":{"android":"levelo://app?vid=59f9598d-e110-4192-bc18-7a255f754535","ios":"levelo://app?vid=59f9598d-e110-4192-bc18-7a255f754535"},"vehicle_type_id":"4","last_reported":1747529906,"current_range_meters":400,"station_id":"st_cvj6r9ubvosntc0bgbag","pricing_plan_id":"cebpf4jnsgd1na2vs0mg"},{"bike_id":"5d23977f-d32e-4dd6-b71d-2d14316b7dad","system_id":"levelo_inurba_marseille","lat":43.2397,"lon":5.366221,"is_reserved":false,"is_disabled":true,"rental_uris":{"android":"levelo://app?vid=5d23977f-d32e-4dd6-b71d-2d14316b7dad","ios":"levelo://app?vid=5d23977f-d32e-4dd6-b71d-2d14316b7dad"},"vehicle_type_id":"4","last_reported":1747529906,"current_range_meters":800,"station_id":"ce4bhi12rcd13ifvqfp0","pricing_plan_id":"cebpf4jnsgd1na2vs0mg"},{"bike_id":"d8911881-e82e-4c7b-963e-42a565f0cadb","system_id":"levelo_inurba_marseille","lat":43.2701,"lon":5.407,"is_reserved":false,"is_disabled":true,"rental_uris":{"android":"levelo://app?vid=d8911881-e82e-4c7b-963e-42a565f0cadb","ios":"levelo://app?vid=d8911881-e82e-4c7b-963e-42a565f0cadb"},"vehicle_type_id":"4","last_reported":1747529906,"current_range_meters":1200,"station_id":"","pricing_plan_id":"cebpf4jnsgd1na2vs0mg"},{"bike_id":"588f7a8e-1bad-4d7c-ac84-8a504f69b8fd","system_id":"levelo_inurba_marseille","lat":43.28583,"lon":5.39496,"is_reserved":false,"is_disabled":true,"rental_uris":{"android":"levelo://app?vid=588f7a8e-1bad-4d7c-ac84-8a504f69b8fd","ios":"levelo://app?vid=588f7a8e-1bad-4d7c-ac84-8a504f69b8fd"},"vehicle_type_id":"4","last_reported":1747529906,"current_range_meters":2000,"station_id":"ce4bh292rcd13ifvqdg0","pricing_plan_id":"cebpf4jnsgd1na2vs0mg"},{"bike_id":"e9dd3aa4-b5e7-4480-926d-d7f537719bfa","system_id":"levelo_inurba_marseille","lat":43.23011,"lon":5.40231,"is_reserved":false,"is_disabled":false,"rental_uris":{"android":"levelo://app?vid=e9dd3aa4-b5e7-4480-926d-d7f537719bfa","ios":"levelo://app?vid=e9dd3aa4-b5e7-4480-926d-d7f537719bfa"},"vehicle_type_id":"4","last_reported":1747529906,"current_range_meters":3200,"station_id":"","pricing_plan_id":"cebpf4jnsgd1na2vs0mg"},{"bike_id":"3193ad55-2474-4440-81b7-a1e4a46d043c","system_id":"levelo_inurba_marseille","lat":43.28451,"lon":5.35892,"is_reserved":false,"is_disabled":false,"rental_uris":{"android":"levelo://app?vid=3193ad55-2474-4440-81b7-a1e4a46d043c","ios":"levelo://app?vid=3193ad55-2474-4440-81b7-a1e4a46d043c"},"vehicle_type_id":"4","last_reported":1747529906,"current_range_meters":3600,"station_id":"ce4bhah2rcd13ifvqei0","pricing_plan_id":"cebpf4jnsgd1na2vs0mg"},{"bike_id":"56b914ed-b644-430a-a56c-4570a71d8bb5","system_id":"levelo_inurba_marseille","lat":43.28434,"lon":5.39176,"is_reserved":false,"is_disabled":false,"rental_uris":{"android":"levelo://app?vid=56b914ed-b644-430a-a56c-4570a71d8bb5","ios":"levelo://app?vid=56b914ed-b644-430a-a56c-4570a71d8bb5"},"vehicle_type_id":"4","last_reported":1747529906,"current_range_meters":3600,"station_id":"ce4bhoh2rcd13ifvqh5g","pricing_plan_id":"cebpf4jnsgd1na2vs0mg"},{"bike_id":"206eb918-ba6a-41e3-bf08-d57e5b278296","system_id":"levelo_inurba_marseille","lat":43.30299,"lon":5.39221,"is_reserved":false,"is_disabled":false,"rental_uris":{"android":"levelo://app?vid=206eb918-ba6a-41e3-bf08-d57e5b278296","ios":"levelo://app?vid=206eb918-ba6a-41e3-bf08-d57e5b278296"},"vehicle_type_id":"4","last_reported":1747529906,"current_range_meters":4400,"station_id":"ce4bgkh2rcd13ifvqbk0","pricing_plan_id":"cebpf4jnsgd1na2vs0mg"},{"bike_id":"9f0c1fb2-960c-4ed7-992e-e8d2729e9fd5","system_id":"levelo_inurba_marseille","lat":43.30774,"lon":5.3815,"is_reserved":false,"is_disabled":false,"rental_uris":{"android":"levelo://app?vid=9f0c1fb2-960c-4ed7-992e-e8d2729e9fd5","ios":"levelo://app?vid=9f0c1fb2-960c-4ed7-992e-e8d2729e9fd5"},"vehicle_type_id":"4","last_reported":1747529906,"current_range_meters":4400,"station_id":"ce4bgt12rcd13ifvqce0","pricing_plan_id":"cebpf4jnsgd1na2vs0mg"},{"bike_id":"093b888a-9c5d-4574-bb57-20f4bb5014c9","system_id":"levelo_inurba_marseille","lat":43.30635,"lon":5.40091,"is_reserved":false,"is_disabled":false,"rental_uris":{"android":"levelo://app?vid=093b888a-9c5d-4574-bb57-20f4bb5014c9","ios":"levelo://app?vid=093b888a-9c5d-4574-bb57-20f4bb5014c9"},"vehicle_type_id":"4","last_reported":1747529906,"current_range_meters":4400,"station_id":"ce4bh112rcd13ifvqda0","pricing_plan_id":"cebpf4jnsgd1na2vs0mg"},{"bike_id":"a377e757-06fa-4e74-a459-39953c1a6a0b","system_id":"levelo_inurba_marseille","lat":43.28702,"lon":5.37391,"is_reserved":false,"is_disabled":false,"rental_uris":{"android":"levelo://app?vid=a377e757-06fa-4e74-a459-39953c1a6a0b","ios":"levelo://app?vid=a377e757-06fa-4e74-a459-39953c1a6a0b"},"vehicle_type_id":"4","last_reported":1747529906,"current_range_meters":4400,"station_id":"ce4bh3p2rcd13ifvqdq0","pricing_plan_id":"cebpf4jnsgd1na2vs0mg"},{"bike_id":"18524f64-02db-44be-879b-785127c15095","system_id":"levelo_inurba_marseille","lat":43.25834,"lon":5.39415,"is_reserved":false,"is_disabled":false,"rental_uris":{"android":"levelo://app?vid=18524f64-02db-44be-879b-785127c15095","ios":"levelo://app?vid=18524f64-02db-44be-879b-785127c15095"},"vehicle_type_id":"4","last_reported":1747529906,"current_range_meters":4400,"station_id":"ce4bhip2rcd13ifvqft0","pricing_plan_id":"cebpf4jnsgd1na2vs0mg"},{"bike_id":"6e612e7b-28be-478c-9618-97651a5de57b","system_id":"levelo_inurba_marseille","lat":43.24622,"lon":5.39606,"is_reserved":false,"is_disabled":false,"rental_uris":{"android":"levelo://app?vid=6e612e7b-28be-478c-9618-97651a5de57b","ios":"levelo://app?vid=6e612e7b-28be-478c-9618-97651a5de57b"},"vehicle_type_id":"4","last_reported":1747529906,"current_range_meters":4800,"station_id":"","pricing_plan_id":"cebpf4jnsgd1na2vs0mg"},{"bike_id":"68e3d075-c8d2-4c17-85a4-31baebb175fc","system_id":"levelo_inurba_marseille","lat":43.23579,"lon":5.40338,"is_reserved":false,"is_disabled":false,"rental_uris":{"android":"levelo://app?vid=68e3d075-c8d2-4c17-85a4-31baebb175fc","ios":"levelo://app?vid=68e3d075-c8d2-4c17-85a4-31baebb175fc"},"vehicle_type_id":"4","last_reported":1747529906,"current_range_meters":4800,"station_id":"","pricing_plan_id":"cebpf4jnsgd1na2vs0mg"},{"bike_id":"6906f954-bb21-4ff3-9038-904a598decd8","system_id":"levelo_inurba_marseille","lat":43.287116,"lon":5.373991,"is_reserved":false,"is_disabled":false,"rental_uris":{"android":"levelo://app?vid=6906f954-bb21-4ff3-9038-904a598decd8","ios":"levelo://app?vid=6906f954-bb21-4ff3-9038-904a598decd8"},"vehicle_type_id":"4","last_reported":1747529906,"current_range_meters":4800,"station_id":"ce4bh3p2rcd13ifvqdq0","pricing_plan_id":"cebpf4jnsgd1na2vs0mg"},{"bike_id":"9b9e79af-a96c-43c3-9679-d942d955b379","system_id":"levelo_inurba_marseille","lat":43.28372,"lon":5.38638,"is_reserved":false,"is_disabled":false,"rental_uris":{"android":"levelo://app?vid=9b9e79af-a96c-43c3-9679-d942d955b379","ios":"levelo://app?vid=9b9e79af-a96c-43c3-9679-d942d955b379"},"vehicle_type_id":"4","last_reported":1747529906,"current_range_meters":4800,"station_id":"ce4bh492rcd13ifvqdvg","pricing_plan_id":"cebpf4jnsgd1na2vs0mg"},{"bike_id":"a4063de7-3465-4b39-9bf8-ef1a75de7c2d","system_id":"levelo_inurba_marseille","lat":43.28586,"lon":5.46083,"is_reserved":false,"is_disabled":false,"rental_uris":{"android":"levelo://app?vid=a4063de7-3465-4b39-9bf8-ef1a75de7c2d","ios":"levelo://app?vid=a4063de7-3465-4b39-9bf8-ef1a75de7c2d"},"vehicle_type_id":"4","last_reported":1747529906,"current_range_meters":5600,"station_id":"","pricing_plan_id":"cebpf4jnsgd1na2vs0mg"},{"bike_id":"c4842f2c-2caf-42cd-a69f-adb966206205","system_id":"levelo_inurba_marseille","lat":43.30449,"lon":5.38881,"is_reserved":false,"is_disabled":false,"rental_uris":{"android":"levelo://app?vid=c4842f2c-2caf-42cd-a69f-adb966206205","ios":"levelo://app?vid=c4842f2c-2caf-42cd-a69f-adb966206205"},"vehicle_type_id":"4","last_reported":1747529906,"current_range_meters":5600,"station_id":"ce4bgk12rcd13ifvqbi0","pricing_plan_id":"cebpf4jnsgd1na2vs0mg"},{"bike_id":"247923c1-8cb9-486a-8e5a-c9b973edfdcc","system_id":"levelo_inurba_marseille","lat":43.28413,"lon":5.37506,"is_reserved":false,"is_disabled":false,"rental_uris":{"android":"levelo://app?vid=247923c1-8cb9-486a-8e5a-c9b973edfdcc","ios":"levelo://app?vid=247923c1-8cb9-486a-8e5a-c9b973edfdcc"},"vehicle_type_id":"4","last_reported":1747529906,"current_range_meters":5600,"station_id":"ce4bh412rcd13ifvqds0","pricing_plan_id":"cebpf4jnsgd1na2vs0mg"},{"bike_id":"8594e44d-133b-4d21-b3d2-4415afc8262a","system_id":"levelo_inurba_marseille","lat":43.296552,"lon":5.378027,"is_reserved":false,"is_disabled":false,"rental_uris":{"android":"levelo://app?vid=8594e44d-133b-4d21-b3d2-4415afc8262a","ios":"levelo://app?vid=8594e44d-133b-4d21-b3d2-4415afc8262a"},"vehicle_type_id":"4","last_reported":1747529906,"current_range_meters":5600,"station_id":"ce4bhap2rcd13ifvqek0","pricing_plan_id":"cebpf4jnsgd1na2vs0mg"},{"bike_id":"5e16ea8f-95fb-446c-ab51-fae1112c0aff","system_id":"levelo_inurba_marseille","lat":43.25938,"lon":5.40886,"is_reserved":false,"is_disabled":false,"rental_uris":{"android":"levelo://app?vid=5e16ea8f-95fb-446c-ab51-fae1112c0aff","ios":"levelo://app?vid=5e16ea8f-95fb-446c-ab51-fae1112c0aff"},"vehicle_type_id":"4","last_reported":1747529906,"current_range_meters":5600,"station_id":"ce4bhm92rcd13ifvqglg","pricing_plan_id":"cebpf4jnsgd1na2vs0mg"},{"bike_id":"69aa41dd-00d4-4743-85c7-2382bfa71cba","system_id":"levelo_inurba_marseille","lat":43.28429,"lon":5.3918,"is_reserved":false,"is_disabled":false,"rental_uris":{"android":"levelo://app?vid=69aa41dd-00d4-4743-85c7-2382bfa71cba","ios":"levelo://app?vid=69aa41dd-00d4-4743-85c7-2382bfa71cba"},"vehicle_type_id":"4","last_reported":1747529906,"current_range_meters":5600,"station_id":"ce4bhoh2rcd13ifvqh5g","pricing_plan_id":"cebpf4jnsgd1na2vs0mg"},{"bike_id":"6cd5c425-f8ac-4068-b8ea-a8bfbef29ee5","system_id":"levelo_inurba_marseille","lat":43.249947,"lon":5.379338,"is_reserved":false,"is_disabled":false,"rental_uris":{"android":"levelo://app?vid=6cd5c425-f8ac-4068-b8ea-a8bfbef29ee5","ios":"levelo://app?vid=6cd5c425-f8ac-4068-b8ea-a8bfbef29ee5"},"vehicle_type_id":"4","last_reported":1747529906,"current_range_meters":6400,"station_id":"","pricing_plan_id":"cebpf4jnsgd1na2vs0mg"},{"bike_id":"3fa58c22-00c6-48db-914d-ec2861a3d890","system_id":"levelo_inurba_marseille","lat":43.310762,"lon":5.402231,"is_reserved":false,"is_disabled":false,"rental_uris":{"android":"levelo://app?vid=3fa58c22-00c6-48db-914d-ec2861a3d890","ios":"levelo://app?vid=3fa58c22-00c6-48db-914d-ec2861a3d890"},"vehicle_type_id":"4","last_reported":1747529906,"current_range_meters":6400,"station_id":"","pricing_plan_id":"cebpf4jnsgd1na2vs0mg"},{"bike_id":"36b1745a-43fa-4776-bad2-1802bcb8f390","system_id":"levelo_inurba_marseille","lat":43.297971,"lon":5.404071,"is_reserved":false,"is_disabled":false,"rental_uris":{"android":"levelo://app?vid=36b1745a-43fa-4776-bad2-1802bcb8f390","ios":"levelo://app?vid=36b1745a-43fa-4776-bad2-1802bcb8f390"},"vehicle_type_id":"4","last_reported":1747529906,"current_range_meters":6400,"station_id":"ce4bh112rcd13ifvqd90","pricing_plan_id":"cebpf4jnsgd1na2vs0mg"},{"bike_id":"f422de0d-c618-4f7f-bb53-97f17150b375","system_id":"levelo_inurba_marseille","lat":43.28457,"lon":5.35877,"is_reserved":false,"is_disabled":false,"rental_uris":{"android":"levelo://app?vid=f422de0d-c618-4f7f-bb53-97f17150b375","ios":"levelo://app?vid=f422de0d-c618-4f7f-bb53-97f17150b375"},"vehicle_type_id":"4","last_reported":1747529906,"current_range_meters":6400,"station_id":"ce4bhah2rcd13ifvqei0","pricing_plan_id":"cebpf4jnsgd1na2vs0mg"},{"bike_id":"3ada38a9-c7bf-40bd-8e56-eedf1b279d42","system_id":"levelo_inurba_marseille","lat":43.231532,"lon":5.437214,"is_reserved":false,"is_disabled":false,"rental_uris":{"android":"levelo://app?vid=3ada38a9-c7bf-40bd-8e56-eedf1b279d42","ios":"levelo://app?vid=3ada38a9-c7bf-40bd-8e56-eedf1b279d42"},"vehicle_type_id":"4","last_reported":1747529906,"current_range_meters":6400,"station_id":"ce4bhmp2rcd13ifvqgog","pricing_plan_id":"cebpf4jnsgd1na2vs0mg"},{"bike_id":"3b843dca-d67a-4b0e-916b-710ebb36ec6d","system_id":"levelo_inurba_marseille","lat":43.325132,"lon":5.401362,"is_reserved":false,"is_disabled":false,"rental_uris":{"android":"levelo://app?vid=3b843dca-d67a-4b0e-916b-710ebb36ec6d","ios":"levelo://app?vid=3b843dca-d67a-4b0e-916b-710ebb36ec6d"},"vehicle_type_id":"4","last_reported":1747529906,"current_range_meters":6800,"station_id":"","pricing_plan_id":"cebpf4jnsgd1na2vs0mg"},{"bike_id":"b74e02a7-216e-4efa-87f3-aea7fd4b97d5","system_id":"levelo_inurba_marseille","lat":43.30301,"lon":5.36883,"is_reserved":false,"is_disabled":false,"rental_uris":{"android":"levelo://app?vid=b74e02a7-216e-4efa-87f3-aea7fd4b97d5","ios":"levelo://app?vid=b74e02a7-216e-4efa-87f3-aea7fd4b97d5"},"vehicle_type_id":"4","last_reported":1747529906,"current_range_meters":6800,"station_id":"ce4bgqh2rcd13ifvqc5g","pricing_plan_id":"cebpf4jnsgd1na2vs0mg"},{"bike_id":"fd8cc24a-6707-458f-be40-b0fcf29dedae","system_id":"levelo_inurba_marseille","lat":43.28569,"lon":5.39497,"is_reserved":false,"is_disabled":false,"rental_uris":{"android":"levelo://app?vid=fd8cc24a-6707-458f-be40-b0fcf29dedae","ios":"levelo://app?vid=fd8cc24a-6707-458f-be40-b0fcf29dedae"},"vehicle_type_id":"4","last_reported":1747529906,"current_range_meters":6800,"station_id":"ce4bh292rcd13ifvqdg0","pricing_plan_id":"cebpf4jnsgd1na2vs0mg"},{"bike_id":"06f7afc6-2996-4b94-a5cc-33e2d654b02f","system_id":"levelo_inurba_marseille","lat":43.28949,"lon":5.39642,"is_reserved":false,"is_disabled":false,"rental_uris":{"android":"levelo://app?vid=06f7afc6-2996-4b94-a5cc-33e2d654b02f","ios":"levelo://app?vid=06f7afc6-2996-4b94-a5cc-33e2d654b02f"},"vehicle_type_id":"4","last_reported":1747529906,"current_range_meters":6800,"station_id":"ce4bh3h2rcd13ifvqdn0","pricing_plan_id":"cebpf4jnsgd1na2vs0mg"},{"bike_id":"b3de89ab-2a89-4dea-b461-7a0f4d86dd9e","system_id":"levelo_inurba_marseille","lat":43.28461,"lon":5.35881,"is_reserved":false,"is_disabled":false,"rental_uris":{"android":"levelo://app?vid=b3de89ab-2a89-4dea-b461-7a0f4d86dd9e","ios":"levelo://app?vid=b3de89ab-2a89-4dea-b461-7a0f4d86dd9e"},"vehicle_type_id":"4","last_reported":1747529906,"current_range_meters":6800,"station_id":"ce4bhah2rcd13ifvqei0","pricing_plan_id":"cebpf4jnsgd1na2vs0mg"},{"bike_id":"e2fc8af1-f5b5-4887-bcc2-61f17df64fdc","system_id":"levelo_inurba_marseille","lat":43.24675,"lon":5.38156,"is_reserved":false,"is_disabled":false,"rental_uris":{"android":"levelo://app?vid=e2fc8af1-f5b5-4887-bcc2-61f17df64fdc","ios":"levelo://app?vid=e2fc8af1-f5b5-4887-bcc2-61f17df64fdc"},"vehicle_type_id":"4","last_reported":1747529906,"current_range_meters":6800,"station_id":"ce4bhih2rcd13ifvqfr0","pricing_plan_id":"cebpf4jnsgd1na2vs0mg"},{"bike_id":"2bdbf59f-e481-4844-905c-61239f926a33","system_id":"levelo_inurba_marseille","lat":43.23171,"lon":5.39978,"is_reserved":false,"is_disabled":false,"rental_uris":{"android":"levelo://app?vid=2bdbf59f-e481-4844-905c-61239f926a33","ios":"levelo://app?vid=2bdbf59f-e481-4844-905c-61239f926a33"},"vehicle_type_id":"4","last_reported":1747529906,"current_range_meters":6800,"station_id":"ce4bhn12rcd13ifvqgqg","pricing_plan_id":"cebpf4jnsgd1na2vs0mg"},{"bike_id":"1e5a7839-d218-47a9-988d-f5fdcdfa5acb","system_id":"levelo_inurba_marseille","lat":43.25821,"lon":5.394525,"is_reserved":false,"is_disabled":false,"rental_uris":{"android":"levelo://app?vid=1e5a7839-d218-47a9-988d-f5fdcdfa5acb","ios":"levelo://app?vid=1e5a7839-d218-47a9-988d-f5fdcdfa5acb"},"vehicle_type_id":"4","last_reported":1747529906,"current_range_meters":7200,"station_id":"ce4bhip2rcd13ifvqft0","pricing_plan_id":"cebpf4jnsgd1na2vs0mg"},{"bike_id":"c58ea559-fb55-4c54-a6ec-d6edb1d73717","system_id":"levelo_inurba_marseille","lat":43.29555,"lon":5.42273,"is_reserved":false,"is_disabled":false,"rental_uris":{"android":"levelo://app?vid=c58ea559-fb55-4c54-a6ec-d6edb1d73717","ios":"levelo://app?vid=c58ea559-fb55-4c54-a6ec-d6edb1d73717"},"vehicle_type_id":"4","last_reported":1747529906,"current_range_meters":7200,"station_id":"ce4bhph2rcd13ifvqhdg","pricing_plan_id":"cebpf4jnsgd1na2vs0mg"},{"bike_id":"123ae55b-6b07-49b7-90aa-71520b895cea","system_id":"levelo_inurba_marseille","lat":43.2706,"lon":5.40267,"is_reserved":false,"is_disabled":false,"rental_uris":{"android":"levelo://app?vid=123ae55b-6b07-49b7-90aa-71520b895cea","ios":"levelo://app?vid=123ae55b-6b07-49b7-90aa-71520b895cea"},"vehicle_type_id":"4","last_reported":1747529906,"current_range_meters":8000,"station_id":"ce4bhk92rcd13ifvqgc0","pricing_plan_id":"cebpf4jnsgd1na2vs0mg"},{"bike_id":"7711fff8-1c30-4c3a-aa27-6e5dbb51f698","system_id":"levelo_inurba_marseille","lat":43.251029,"lon":5.403278,"is_reserved":false,"is_disabled":false,"rental_uris":{"android":"levelo://app?vid=7711fff8-1c30-4c3a-aa27-6e5dbb51f698","ios":"levelo://app?vid=7711fff8-1c30-4c3a-aa27-6e5dbb51f698"},"vehicle_type_id":"4","last_reported":1747529906,"current_range_meters":8000,"station_id":"ce4bhlh2rcd13ifvqgig","pricing_plan_id":"cebpf4jnsgd1na2vs0mg"},{"bike_id":"18e4ed23-84c4-4801-91e1-7b53274d9ead","system_id":"levelo_inurba_marseille","lat":43.321,"lon":5.36807,"is_reserved":false,"is_disabled":false,"rental_uris":{"android":"levelo://app?vid=18e4ed23-84c4-4801-91e1-7b53274d9ead","ios":"levelo://app?vid=18e4ed23-84c4-4801-91e1-7b53274d9ead"},"vehicle_type_id":"4","last_reported":1747529906,"current_range_meters":8000,"station_id":"ce4bhrh2rcd13ifvqhug","pricing_plan_id":"cebpf4jnsgd1na2vs0mg"},{"bike_id":"80ce8948-82cf-42c6-8ab6-4636b50ac5f8","system_id":"levelo_inurba_marseille","lat":43.315257,"lon":5.380358,"is_reserved":false,"is_disabled":false,"rental_uris":{"android":"levelo://app?vid=80ce8948-82cf-42c6-8ab6-4636b50ac5f8","ios":"levelo://app?vid=80ce8948-82cf-42c6-8ab6-4636b50ac5f8"},"vehicle_type_id":"4","last_reported":1747529906,"current_range_meters":8000,"station_id":"ce4bhsp2rcd13ifvqi50","pricing_plan_id":"cebpf4jnsgd1na2vs0mg"},{"bike_id":"55fb771a-6e76-45c4-a9b7-cda97a0011d0","system_id":"levelo_inurba_marseille","lat":43.28753,"lon":5.38266,"is_reserved":false,"is_disabled":false,"rental_uris":{"android":"levelo://app?vid=55fb771a-6e76-45c4-a9b7-cda97a0011d0","ios":"levelo://app?vid=55fb771a-6e76-45c4-a9b7-cda97a0011d0"},"vehicle_type_id":"4","last_reported":1747529906,"current_range_meters":8400,"station_id":"","pricing_plan_id":"cebpf4jnsgd1na2vs0mg"},{"bike_id":"dc90dba8-61be-49b2-98c8-a8e3d46f6759","system_id":"levelo_inurba_marseille","lat":43.30933,"lon":5.40156,"is_reserved":false,"is_disabled":false,"rental_uris":{"android":"levelo://app?vid=dc90dba8-61be-49b2-98c8-a8e3d46f6759","ios":"levelo://app?vid=dc90dba8-61be-49b2-98c8-a8e3d46f6759"},"vehicle_type_id":"4","last_reported":1747529906,"current_range_meters":8400,"station_id":"ce4bgvp2rcd13ifvqct0","pricing_plan_id":"cebpf4jnsgd1na2vs0mg"},{"bike_id":"39295a67-818d-4c4b-acd8-ebcf53b310ba","system_id":"levelo_inurba_marseille","lat":43.30986,"lon":5.40106,"is_reserved":false,"is_disabled":false,"rental_uris":{"android":"levelo://app?vid=39295a67-818d-4c4b-acd8-ebcf53b310ba","ios":"levelo://app?vid=39295a67-818d-4c4b-acd8-ebcf53b310ba"},"vehicle_type_id":"4","last_reported":1747529906,"current_range_meters":8400,"station_id":"ce4bgvp2rcd13ifvqct0","pricing_plan_id":"cebpf4jnsgd1na2vs0mg"},{"bike_id":"32322682-2395-470f-b5f5-a01e73b4ebbb","system_id":"levelo_inurba_marseille","lat":43.28853,"lon":5.39317,"is_reserved":false,"is_disabled":false,"rental_uris":{"android":"levelo://app?vid=32322682-2395-470f-b5f5-a01e73b4ebbb","ios":"levelo://app?vid=32322682-2395-470f-b5f5-a01e73b4ebbb"},"vehicle_type_id":"4","last_reported":1747529906,"current_range_meters":8400,"station_id":"ce4bh2p2rcd13ifvqdi0","pricing_plan_id":"cebpf4jnsgd1na2vs0mg"},{"bike_id":"456df13e-096a-4823-8eea-67f822f45ee6","system_id":"levelo_inurba_marseille","lat":43.2512,"lon":5.40327,"is_reserved":false,"is_disabled":false,"rental_uris":{"android":"levelo://app?vid=456df13e-096a-4823-8eea-67f822f45ee6","ios":"levelo://app?vid=456df13e-096a-4823-8eea-67f822f45ee6"},"vehicle_type_id":"4","last_reported":1747529906,"current_range_meters":8400,"station_id":"ce4bhlh2rcd13ifvqgig","pricing_plan_id":"cebpf4jnsgd1na2vs0mg"},{"bike_id":"7e8ca646-fbd8-47c1-b576-6a662073d69b","system_id":"levelo_inurba_marseille","lat":43.25114,"lon":5.40322,"is_reserved":false,"is_disabled":false,"rental_uris":{"android":"levelo://app?vid=7e8ca646-fbd8-47c1-b576-6a662073d69b","ios":"levelo://app?vid=7e8ca646-fbd8-47c1-b576-6a662073d69b"},"vehicle_type_id":"4","last_reported":1747529906,"current_range_meters":8400,"station_id":"ce4bhlh2rcd13ifvqgig","pricing_plan_id":"cebpf4jnsgd1na2vs0mg"},{"bike_id":"3a75c5f4-243e-4f18-b95d-8635947008bf","system_id":"levelo_inurba_marseille","lat":43.25111,"lon":5.40326,"is_reserved":false,"is_disabled":false,"rental_uris":{"android":"levelo://app?vid=3a75c5f4-243e-4f18-b95d-8635947008bf","ios":"levelo://app?vid=3a75c5f4-243e-4f18-b95d-8635947008bf"},"vehicle_type_id":"4","last_reported":1747529906,"current_range_meters":8400,"station_id":"ce4bhlh2rcd13ifvqgig","pricing_plan_id":"cebpf4jnsgd1na2vs0mg"},{"bike_id":"d0cc36ba-dea5-4301-b9bc-2db32098db5e","system_id":"levelo_inurba_marseille","lat":43.25091,"lon":5.39506,"is_reserved":false,"is_disabled":false,"rental_uris":{"android":"levelo://app?vid=d0cc36ba-dea5-4301-b9bc-2db32098db5e","ios":"levelo://app?vid=d0cc36ba-dea5-4301-b9bc-2db32098db5e"},"vehicle_type_id":"4","last_reported":1747529906,"current_range_meters":8400,"station_id":"ce4bhm12rcd13ifvqgkg","pricing_plan_id":"cebpf4jnsgd1na2vs0mg"},{"bike_id":"d796888f-19f7-44cb-b77a-5927886255b3","system_id":"levelo_inurba_marseille","lat":43.30464,"lon":5.379037,"is_reserved":false,"is_disabled":false,"rental_uris":{"android":"levelo://app?vid=d796888f-19f7-44cb-b77a-5927886255b3","ios":"levelo://app?vid=d796888f-19f7-44cb-b77a-5927886255b3"},"vehicle_type_id":"4","last_reported":1747529906,"current_range_meters":8800,"station_id":"ce4bgup2rcd13ifvqcn0","pricing_plan_id":"cebpf4jnsgd1na2vs0mg"},{"bike_id":"5ea6f467-857b-4ea7-a4b9-4a241fcc702a","system_id":"levelo_inurba_marseille","lat":43.24663,"lon":5.38187,"is_reserved":false,"is_disabled":false,"rental_uris":{"android":"levelo://app?vid=5ea6f467-857b-4ea7-a4b9-4a241fcc702a","ios":"levelo://app?vid=5ea6f467-857b-4ea7-a4b9-4a241fcc702a"},"vehicle_type_id":"4","last_reported":1747529906,"current_range_meters":8800,"station_id":"ce4bhih2rcd13ifvqfr0","pricing_plan_id":"cebpf4jnsgd1na2vs0mg"},{"bike_id":"0e643c49-55b7-4013-9035-8e29a4bbf97b","system_id":"levelo_inurba_marseille","lat":43.24662,"lon":5.38191,"is_reserved":false,"is_disabled":false,"rental_uris":{"android":"levelo://app?vid=0e643c49-55b7-4013-9035-8e29a4bbf97b","ios":"levelo://app?vid=0e643c49-55b7-4013-9035-8e29a4bbf97b"},"vehicle_type_id":"4","last_reported":1747529906,"current_range_meters":8800,"station_id":"ce4bhih2rcd13ifvqfr0","pricing_plan_id":"cebpf4jnsgd1na2vs0mg"},{"bike_id":"818239c2-f0fd-4602-ae73-9f5ef045dcb7","system_id":"levelo_inurba_marseille","lat":43.29559,"lon":5.42291,"is_reserved":false,"is_disabled":false,"rental_uris":{"android":"levelo://app?vid=818239c2-f0fd-4602-ae73-9f5ef045dcb7","ios":"levelo://app?vid=818239c2-f0fd-4602-ae73-9f5ef045dcb7"},"vehicle_type_id":"4","last_reported":1747529906,"current_range_meters":8800,"station_id":"ce4bhph2rcd13ifvqhdg","pricing_plan_id":"cebpf4jnsgd1na2vs0mg"},{"bike_id":"b8e6468b-87db-4ff6-8122-ef13bf5b7c8c","system_id":"levelo_inurba_marseille","lat":43.31379,"lon":5.37916,"is_reserved":false,"is_disabled":false,"rental_uris":{"android":"levelo://app?vid=b8e6468b-87db-4ff6-8122-ef13bf5b7c8c","ios":"levelo://app?vid=b8e6468b-87db-4ff6-8122-ef13bf5b7c8c"},"vehicle_type_id":"4","last_reported":1747529906,"current_range_meters":9200,"station_id":"","pricing_plan_id":"cebpf4jnsgd1na2vs0mg"},{"bike_id":"822dd0b4-7412-48bb-99dc-94cac0c42c1e","system_id":"levelo_inurba_marseille","lat":43.29418,"lon":5.39777,"is_reserved":false,"is_disabled":false,"rental_uris":{"android":"levelo://app?vid=822dd0b4-7412-48bb-99dc-94cac0c42c1e","ios":"levelo://app?vid=822dd0b4-7412-48bb-99dc-94cac0c42c1e"},"vehicle_type_id":"4","last_reported":1747529906,"current_range_meters":9200,"station_id":"ce4bh3h2rcd13ifvqdo0","pricing_plan_id":"cebpf4jnsgd1na2vs0mg"},{"bike_id":"82862649-485d-4988-aeb2-e287bb522774","system_id":"levelo_inurba_marseille","lat":43.28933,"lon":5.36401,"is_reserved":false,"is_disabled":false,"rental_uris":{"android":"levelo://app?vid=82862649-485d-4988-aeb2-e287bb522774","ios":"levelo://app?vid=82862649-485d-4988-aeb2-e287bb522774"},"vehicle_type_id":"4","last_reported":1747529906,"current_range_meters":9200,"station_id":"ce4bhc92rcd13ifvqetg","pricing_plan_id":"cebpf4jnsgd1na2vs0mg"},{"bike_id":"6bad99d6-c400-4729-a6f1-dd5f2da6c3f2","system_id":"levelo_inurba_marseille","lat":43.31719,"lon":5.42426,"is_reserved":false,"is_disabled":false,"rental_uris":{"android":"levelo://app?vid=6bad99d6-c400-4729-a6f1-dd5f2da6c3f2","ios":"levelo://app?vid=6bad99d6-c400-4729-a6f1-dd5f2da6c3f2"},"vehicle_type_id":"4","last_reported":1747529906,"current_range_meters":9200,"station_id":"ce4bhp92rcd13ifvqhbg","pricing_plan_id":"cebpf4jnsgd1na2vs0mg"},{"bike_id":"21c6d32c-90d0-47be-94c5-48372006aeda","system_id":"levelo_inurba_marseille","lat":43.32463,"lon":5.36592,"is_reserved":false,"is_disabled":false,"rental_uris":{"android":"levelo://app?vid=21c6d32c-90d0-47be-94c5-48372006aeda","ios":"levelo://app?vid=21c6d32c-90d0-47be-94c5-48372006aeda"},"vehicle_type_id":"4","last_reported":1747529906,"current_range_meters":9200,"station_id":"ce4bhs12rcd13ifvqhvg","pricing_plan_id":"cebpf4jnsgd1na2vs0mg"},{"bike_id":"87b1d5a0-ca20-4099-8fc3-ab0909b77445","system_id":"levelo_inurba_marseille","lat":43.30926,"lon":5.40193,"is_reserved":false,"is_disabled":false,"rental_uris":{"android":"levelo://app?vid=87b1d5a0-ca20-4099-8fc3-ab0909b77445","ios":"levelo://app?vid=87b1d5a0-ca20-4099-8fc3-ab0909b77445"},"vehicle_type_id":"4","last_reported":1747529906,"current_range_meters":9600,"station_id":"ce4bgvp2rcd13ifvqct0","pricing_plan_id":"cebpf4jnsgd1na2vs0mg"},{"bike_id":"48aec151-f27a-48c6-a1d0-5f755752c784","system_id":"levelo_inurba_marseille","lat":43.28567,"lon":5.39498,"is_reserved":false,"is_disabled":false,"rental_uris":{"android":"levelo://app?vid=48aec151-f27a-48c6-a1d0-5f755752c784","ios":"levelo://app?vid=48aec151-f27a-48c6-a1d0-5f755752c784"},"vehicle_type_id":"4","last_reported":1747529906,"current_range_meters":9600,"station_id":"ce4bh292rcd13ifvqdg0","pricing_plan_id":"cebpf4jnsgd1na2vs0mg"},{"bike_id":"dbebb23c-0d76-46f8-9a78-14655ed12205","system_id":"levelo_inurba_marseille","lat":43.25579,"lon":5.38228,"is_reserved":false,"is_disabled":false,"rental_uris":{"android":"levelo://app?vid=dbebb23c-0d76-46f8-9a78-14655ed12205","ios":"levelo://app?vid=dbebb23c-0d76-46f8-9a78-14655ed12205"},"vehicle_type_id":"4","last_reported":1747529906,"current_range_meters":9600,"station_id":"ce4bhih2rcd13ifvqfs0","pricing_plan_id":"cebpf4jnsgd1na2vs0mg"},{"bike_id":"8f189487-f31d-4ca2-a926-e41f071bd7f5","system_id":"levelo_inurba_marseille","lat":43.24078,"lon":5.37761,"is_reserved":false,"is_disabled":false,"rental_uris":{"android":"levelo://app?vid=8f189487-f31d-4ca2-a926-e41f071bd7f5","ios":"levelo://app?vid=8f189487-f31d-4ca2-a926-e41f071bd7f5"},"vehicle_type_id":"4","last_reported":1747529906,"current_range_meters":9600,"station_id":"ce4bhnp2rcd13ifvqgvg","pricing_plan_id":"cebpf4jnsgd1na2vs0mg"},{"bike_id":"0fb02880-5c6e-4026-9e4a-07529c572b44","system_id":"levelo_inurba_marseille","lat":43.25477,"lon":5.37374,"is_reserved":false,"is_disabled":false,"rental_uris":{"android":"levelo://app?vid=0fb02880-5c6e-4026-9e4a-07529c572b44","ios":"levelo://app?vid=0fb02880-5c6e-4026-9e4a-07529c572b44"},"vehicle_type_id":"4","last_reported":1747529906,"current_range_meters":10000,"station_id":"","pricing_plan_id":"cebpf4jnsgd1na2vs0mg"},{"bike_id":"a5033b18-066a-4230-b4e3-ba83e3434b14","system_id":"levelo_inurba_marseille","lat":43.308918,"lon":5.371968,"is_reserved":false,"is_disabled":false,"rental_uris":{"android":"levelo://app?vid=a5033b18-066a-4230-b4e3-ba83e3434b14","ios":"levelo://app?vid=a5033b18-066a-4230-b4e3-ba83e3434b14"},"vehicle_type_id":"4","last_reported":1747529906,"current_range_meters":10000,"station_id":"ce4bguh2rcd13ifvqckg","pricing_plan_id":"cebpf4jnsgd1na2vs0mg"},{"bike_id":"fbb9dc35-fa9d-42e4-9fd8-bc3154190a90","system_id":"levelo_inurba_marseille","lat":43.30931,"lon":5.401573,"is_reserved":false,"is_disabled":false,"rental_uris":{"android":"levelo://app?vid=fbb9dc35-fa9d-42e4-9fd8-bc3154190a90","ios":"levelo://app?vid=fbb9dc35-fa9d-42e4-9fd8-bc3154190a90"},"vehicle_type_id":"4","last_reported":1747529906,"current_range_meters":10000,"station_id":"ce4bgvp2rcd13ifvqct0","pricing_plan_id":"cebpf4jnsgd1na2vs0mg"},{"bike_id":"db22b70b-7de1-403c-85af-ebb538cde99e","system_id":"levelo_inurba_marseille","lat":43.298735,"lon":5.397367,"is_reserved":false,"is_disabled":false,"rental_uris":{"android":"levelo://app?vid=db22b70b-7de1-403c-85af-ebb538cde99e","ios":"levelo://app?vid=db22b70b-7de1-403c-85af-ebb538cde99e"},"vehicle_type_id":"4","last_reported":1747529906,"current_range_meters":10000,"station_id":"ce4bh0h2rcd13ifvqd50","pricing_plan_id":"cebpf4jnsgd1na2vs0mg"},{"bike_id":"806a5ecd-5ec7-4d46-a8ec-ec9e24c0d11c","system_id":"levelo_inurba_marseille","lat":43.29512,"lon":5.39404,"is_reserved":false,"is_disabled":false,"rental_uris":{"android":"levelo://app?vid=806a5ecd-5ec7-4d46-a8ec-ec9e24c0d11c","ios":"levelo://app?vid=806a5ecd-5ec7-4d46-a8ec-ec9e24c0d11c"},"vehicle_type_id":"4","last_reported":1747529906,"current_range_meters":10000,"station_id":"ce4bh292rcd13ifvqdf0","pricing_plan_id":"cebpf4jnsgd1na2vs0mg"},{"bike_id":"337b08c3-9453-4585-b2d5-7cd494c9cc9f","system_id":"levelo_inurba_marseille","lat":43.28403,"lon":5.37531,"is_reserved":false,"is_disabled":false,"rental_uris":{"android":"levelo://app?vid=337b08c3-9453-4585-b2d5-7cd494c9cc9f","ios":"levelo://app?vid=337b08c3-9453-4585-b2d5-7cd494c9cc9f"},"vehicle_type_id":"4","last_reported":1747529906,"current_range_meters":10000,"station_id":"ce4bh412rcd13ifvqds0","pricing_plan_id":"cebpf4jnsgd1na2vs0mg"},{"bike_id":"792c9dbd-158e-4661-91d4-2c1ed379e655","system_id":"levelo_inurba_marseille","lat":43.24654,"lon":5.38158,"is_reserved":false,"is_disabled":false,"rental_uris":{"android":"levelo://app?vid=792c9dbd-158e-4661-91d4-2c1ed379e655","ios":"levelo://app?vid=792c9dbd-158e-4661-91d4-2c1ed379e655"},"vehicle_type_id":"4","last_reported":1747529906,"current_range_meters":10000,"station_id":"ce4bhih2rcd13ifvqfr0","pricing_plan_id":"cebpf4jnsgd1na2vs0mg"},{"bike_id":"b947e013-2e44-4d3f-95bd-7fde4f81ce7e","system_id":"levelo_inurba_marseille","lat":43.323358,"lon":5.406222,"is_reserved":false,"is_disabled":false,"rental_uris":{"android":"levelo://app?vid=b947e013-2e44-4d3f-95bd-7fde4f81ce7e","ios":"levelo://app?vid=b947e013-2e44-4d3f-95bd-7fde4f81ce7e"},"vehicle_type_id":"4","last_reported":1747529906,"current_range_meters":10000,"station_id":"ce4bhq92rcd13ifvqhjg","pricing_plan_id":"cebpf4jnsgd1na2vs0mg"},{"bike_id":"2013cd87-0d43-443c-a50a-2ae65b408add","system_id":"levelo_inurba_marseille","lat":43.323685,"lon":5.388845,"is_reserved":false,"is_disabled":false,"rental_uris":{"android":"levelo://app?vid=2013cd87-0d43-443c-a50a-2ae65b408add","ios":"levelo://app?vid=2013cd87-0d43-443c-a50a-2ae65b408add"},"vehicle_type_id":"4","last_reported":1747529906,"current_range_meters":10000,"station_id":"ce4bhqp2rcd13ifvqhog","pricing_plan_id":"cebpf4jnsgd1na2vs0mg"},{"bike_id":"3980d76b-e904-45ba-9bbd-4ee10919b44c","system_id":"levelo_inurba_marseille","lat":43.31085,"lon":5.38189,"is_reserved":false,"is_disabled":false,"rental_uris":{"android":"levelo://app?vid=3980d76b-e904-45ba-9bbd-4ee10919b44c","ios":"levelo://app?vid=3980d76b-e904-45ba-9bbd-4ee10919b44c"},"vehicle_type_id":"4","last_reported":1747529906,"current_range_meters":10800,"station_id":"","pricing_plan_id":"cebpf4jnsgd1na2vs0mg"},{"bike_id":"6e1bd625-3ec1-43df-9657-36d71ae09f8d","system_id":"levelo_inurba_marseille","lat":43.33747,"lon":5.374629,"is_reserved":false,"is_disabled":false,"rental_uris":{"android":"levelo://app?vid=6e1bd625-3ec1-43df-9657-36d71ae09f8d","ios":"levelo://app?vid=6e1bd625-3ec1-43df-9657-36d71ae09f8d"},"vehicle_type_id":"4","last_reported":1747529906,"current_range_meters":10800,"station_id":"","pricing_plan_id":"cebpf4jnsgd1na2vs0mg"},{"bike_id":"14603e41-b2dd-4757-a53c-2e366aa4f983","system_id":"levelo_inurba_marseille","lat":43.26986,"lon":5.42819,"is_reserved":false,"is_disabled":false,"rental_uris":{"android":"levelo://app?vid=14603e41-b2dd-4757-a53c-2e366aa4f983","ios":"levelo://app?vid=14603e41-b2dd-4757-a53c-2e366aa4f983"},"vehicle_type_id":"4","last_reported":1747529906,"current_range_meters":10800,"station_id":"","pricing_plan_id":"cebpf4jnsgd1na2vs0mg"},{"bike_id":"80bd32ce-938d-45aa-9142-5fc1fd0e2285","system_id":"levelo_inurba_marseille","lat":43.31072,"lon":5.38364,"is_reserved":false,"is_disabled":false,"rental_uris":{"android":"levelo://app?vid=80bd32ce-938d-45aa-9142-5fc1fd0e2285","ios":"levelo://app?vid=80bd32ce-938d-45aa-9142-5fc1fd0e2285"},"vehicle_type_id":"4","last_reported":1747529906,"current_range_meters":10800,"station_id":"ce4bgv92rcd13ifvqcr0","pricing_plan_id":"cebpf4jnsgd1na2vs0mg"},{"bike_id":"264af734-f21a-475c-aba2-ce34d4da0d18","system_id":"levelo_inurba_marseille","lat":43.28465,"lon":5.358763,"is_reserved":false,"is_disabled":false,"rental_uris":{"android":"levelo://app?vid=264af734-f21a-475c-aba2-ce34d4da0d18","ios":"levelo://app?vid=264af734-f21a-475c-aba2-ce34d4da0d18"},"vehicle_type_id":"4","last_reported":1747529906,"current_range_meters":10800,"station_id":"ce4bhah2rcd13ifvqei0","pricing_plan_id":"cebpf4jnsgd1na2vs0mg"},{"bike_id":"d6bc9737-e10c-40fa-9983-e152c46f4f30","system_id":"levelo_inurba_marseille","lat":43.29565,"lon":5.42267,"is_reserved":false,"is_disabled":false,"rental_uris":{"android":"levelo://app?vid=d6bc9737-e10c-40fa-9983-e152c46f4f30","ios":"levelo://app?vid=d6bc9737-e10c-40fa-9983-e152c46f4f30"},"vehicle_type_id":"4","last_reported":1747529906,"current_range_meters":10800,"station_id":"ce4bhph2rcd13ifvqhdg","pricing_plan_id":"cebpf4jnsgd1na2vs0mg"},{"bike_id":"412b7944-d9c6-437d-84f1-edf0f9988092","system_id":"levelo_inurba_marseille","lat":43.29556,"lon":5.42277,"is_reserved":false,"is_disabled":false,"rental_uris":{"android":"levelo://app?vid=412b7944-d9c6-437d-84f1-edf0f9988092","ios":"levelo://app?vid=412b7944-d9c6-437d-84f1-edf0f9988092"},"vehicle_type_id":"4","last_reported":1747529906,"current_range_meters":10800,"station_id":"ce4bhph2rcd13ifvqhdg","pricing_plan_id":"cebpf4jnsgd1na2vs0mg"},{"bike_id":"caf4c81d-8b81-4d8d-a4f9-9d00bac7ad70","system_id":"levelo_inurba_marseille","lat":43.307775,"lon":5.428148,"is_reserved":false,"is_disabled":false,"rental_uris":{"android":"levelo://app?vid=caf4c81d-8b81-4d8d-a4f9-9d00bac7ad70","ios":"levelo://app?vid=caf4c81d-8b81-4d8d-a4f9-9d00bac7ad70"},"vehicle_type_id":"4","last_reported":1747529906,"current_range_meters":11200,"station_id":"","pricing_plan_id":"cebpf4jnsgd1na2vs0mg"},{"bike_id":"d5d53912-8630-46e2-8425-a65e03887380","system_id":"levelo_inurba_marseille","lat":43.31176,"lon":5.38715,"is_reserved":false,"is_disabled":false,"rental_uris":{"android":"levelo://app?vid=d5d53912-8630-46e2-8425-a65e03887380","ios":"levelo://app?vid=d5d53912-8630-46e2-8425-a65e03887380"},"vehicle_type_id":"4","last_reported":1747529906,"current_range_meters":11200,"station_id":"ce4bgv12rcd13ifvqcp0","pricing_plan_id":"cebpf4jnsgd1na2vs0mg"},{"bike_id":"0f42c805-92e1-4274-b532-29e3edd02304","system_id":"levelo_inurba_marseille","lat":43.29262,"lon":5.40149,"is_reserved":false,"is_disabled":false,"rental_uris":{"android":"levelo://app?vid=0f42c805-92e1-4274-b532-29e3edd02304","ios":"levelo://app?vid=0f42c805-92e1-4274-b532-29e3edd02304"},"vehicle_type_id":"4","last_reported":1747529906,"current_range_meters":11200,"station_id":"ce4bh312rcd13ifvqdk0","pricing_plan_id":"cebpf4jnsgd1na2vs0mg"},{"bike_id":"04caccac-fac0-4257-8dfe-104b91321d87","system_id":"levelo_inurba_marseille","lat":43.28407,"lon":5.3752,"is_reserved":false,"is_disabled":false,"rental_uris":{"android":"levelo://app?vid=04caccac-fac0-4257-8dfe-104b91321d87","ios":"levelo://app?vid=04caccac-fac0-4257-8dfe-104b91321d87"},"vehicle_type_id":"4","last_reported":1747529906,"current_range_meters":11200,"station_id":"ce4bh412rcd13ifvqds0","pricing_plan_id":"cebpf4jnsgd1na2vs0mg"},{"bike_id":"0cdb5523-a291-4d1d-987d-f04a427dd8fd","system_id":"levelo_inurba_marseille","lat":43.30951,"lon":5.39041,"is_reserved":false,"is_disabled":false,"rental_uris":{"android":"levelo://app?vid=0cdb5523-a291-4d1d-987d-f04a427dd8fd","ios":"levelo://app?vid=0cdb5523-a291-4d1d-987d-f04a427dd8fd"},"vehicle_type_id":"4","last_reported":1747529906,"current_range_meters":11600,"station_id":"ce4bgup2rcd13ifvqco0","pricing_plan_id":"cebpf4jnsgd1na2vs0mg"},{"bike_id":"3725928c-be3e-412e-a7ab-18d223db2dcb","system_id":"levelo_inurba_marseille","lat":43.28562,"lon":5.39491,"is_reserved":false,"is_disabled":false,"rental_uris":{"android":"levelo://app?vid=3725928c-be3e-412e-a7ab-18d223db2dcb","ios":"levelo://app?vid=3725928c-be3e-412e-a7ab-18d223db2dcb"},"vehicle_type_id":"4","last_reported":1747529906,"current_range_meters":11600,"station_id":"ce4bh292rcd13ifvqdg0","pricing_plan_id":"cebpf4jnsgd1na2vs0mg"},{"bike_id":"0ed9aa78-44cd-4e0d-8cbf-403f16048f90","system_id":"levelo_inurba_marseille","lat":43.2846,"lon":5.35885,"is_reserved":false,"is_disabled":false,"rental_uris":{"android":"levelo://app?vid=0ed9aa78-44cd-4e0d-8cbf-403f16048f90","ios":"levelo://app?vid=0ed9aa78-44cd-4e0d-8cbf-403f16048f90"},"vehicle_type_id":"4","last_reported":1747529906,"current_range_meters":11600,"station_id":"ce4bhah2rcd13ifvqei0","pricing_plan_id":"cebpf4jnsgd1na2vs0mg"},{"bike_id":"9174d559-4e85-42b4-a063-f2d23adfad9b","system_id":"levelo_inurba_marseille","lat":43.25111,"lon":5.40324,"is_reserved":false,"is_disabled":false,"rental_uris":{"android":"levelo://app?vid=9174d559-4e85-42b4-a063-f2d23adfad9b","ios":"levelo://app?vid=9174d559-4e85-42b4-a063-f2d23adfad9b"},"vehicle_type_id":"4","last_reported":1747529906,"current_range_meters":11600,"station_id":"ce4bhlh2rcd13ifvqgig","pricing_plan_id":"cebpf4jnsgd1na2vs0mg"},{"bike_id":"ffc3ddf2-0082-4578-9e25-c91f5b4279bc","system_id":"levelo_inurba_marseille","lat":43.28317,"lon":5.41135,"is_reserved":false,"is_disabled":false,"rental_uris":{"android":"levelo://app?vid=ffc3ddf2-0082-4578-9e25-c91f5b4279bc","ios":"levelo://app?vid=ffc3ddf2-0082-4578-9e25-c91f5b4279bc"},"vehicle_type_id":"4","last_reported":1747529906,"current_range_meters":12000,"station_id":"","pricing_plan_id":"cebpf4jnsgd1na2vs0mg"},{"bike_id":"4c510317-8658-40c8-a819-b9b26196449f","system_id":"levelo_inurba_marseille","lat":43.303,"lon":5.39232,"is_reserved":false,"is_disabled":false,"rental_uris":{"android":"levelo://app?vid=4c510317-8658-40c8-a819-b9b26196449f","ios":"levelo://app?vid=4c510317-8658-40c8-a819-b9b26196449f"},"vehicle_type_id":"4","last_reported":1747529906,"current_range_meters":12000,"station_id":"ce4bgkh2rcd13ifvqbk0","pricing_plan_id":"cebpf4jnsgd1na2vs0mg"},{"bike_id":"000f7fa2-ef9e-4840-b1b6-0be61cd91e00","system_id":"levelo_inurba_marseille","lat":43.30788,"lon":5.38161,"is_reserved":false,"is_disabled":false,"rental_uris":{"android":"levelo://app?vid=000f7fa2-ef9e-4840-b1b6-0be61cd91e00","ios":"levelo://app?vid=000f7fa2-ef9e-4840-b1b6-0be61cd91e00"},"vehicle_type_id":"4","last_reported":1747529906,"current_range_meters":12000,"station_id":"ce4bgt12rcd13ifvqce0","pricing_plan_id":"cebpf4jnsgd1na2vs0mg"},{"bike_id":"99aab1ac-0e74-4853-a5d5-d682d1f9422c","system_id":"levelo_inurba_marseille","lat":43.30934,"lon":5.40145,"is_reserved":false,"is_disabled":false,"rental_uris":{"android":"levelo://app?vid=99aab1ac-0e74-4853-a5d5-d682d1f9422c","ios":"levelo://app?vid=99aab1ac-0e74-4853-a5d5-d682d1f9422c"},"vehicle_type_id":"4","last_reported":1747529906,"current_range_meters":12000,"station_id":"ce4bgvp2rcd13ifvqct0","pricing_plan_id":"cebpf4jnsgd1na2vs0mg"},{"bike_id":"7d9dd8c1-69f5-4957-8992-21b219e4420c","system_id":"levelo_inurba_marseille","lat":43.24682,"lon":5.38164,"is_reserved":false,"is_disabled":false,"rental_uris":{"android":"levelo://app?vid=7d9dd8c1-69f5-4957-8992-21b219e4420c","ios":"levelo://app?vid=7d9dd8c1-69f5-4957-8992-21b219e4420c"},"vehicle_type_id":"4","last_reported":1747529906,"current_range_meters":12000,"station_id":"ce4bhih2rcd13ifvqfr0","pricing_plan_id":"cebpf4jnsgd1na2vs0mg"},{"bike_id":"c608898e-58b6-42f7-903a-6008119c7a64","system_id":"levelo_inurba_marseille","lat":43.24074,"lon":5.37769,"is_reserved":false,"is_disabled":false,"rental_uris":{"android":"levelo://app?vid=c608898e-58b6-42f7-903a-6008119c7a64","ios":"levelo://app?vid=c608898e-58b6-42f7-903a-6008119c7a64"},"vehicle_type_id":"4","last_reported":1747529906,"current_range_meters":12000,"station_id":"ce4bhnp2rcd13ifvqgvg","pricing_plan_id":"cebpf4jnsgd1na2vs0mg"},{"bike_id":"554678c4-0192-4354-a2c0-3b105229a783","system_id":"levelo_inurba_marseille","lat":43.29423,"lon":5.38104,"is_reserved":false,"is_disabled":false,"rental_uris":{"android":"levelo://app?vid=554678c4-0192-4354-a2c0-3b105229a783","ios":"levelo://app?vid=554678c4-0192-4354-a2c0-3b105229a783"},"vehicle_type_id":"4","last_reported":1747529906,"current_range_meters":12400,"station_id":"","pricing_plan_id":"cebpf4jnsgd1na2vs0mg"},{"bike_id":"262036fe-d80c-4d06-a49b-dfb02bc52ea7","system_id":"levelo_inurba_marseille","lat":43.3093,"lon":5.40144,"is_reserved":false,"is_disabled":false,"rental_uris":{"android":"levelo://app?vid=262036fe-d80c-4d06-a49b-dfb02bc52ea7","ios":"levelo://app?vid=262036fe-d80c-4d06-a49b-dfb02bc52ea7"},"vehicle_type_id":"4","last_reported":1747529906,"current_range_meters":12400,"station_id":"ce4bgvp2rcd13ifvqct0","pricing_plan_id":"cebpf4jnsgd1na2vs0mg"},{"bike_id":"8dfe3edc-82df-4b5a-a412-16963c595c57","system_id":"levelo_inurba_marseille","lat":43.30869,"lon":5.39636,"is_reserved":false,"is_disabled":false,"rental_uris":{"android":"levelo://app?vid=8dfe3edc-82df-4b5a-a412-16963c595c57","ios":"levelo://app?vid=8dfe3edc-82df-4b5a-a412-16963c595c57"},"vehicle_type_id":"4","last_reported":1747529906,"current_range_meters":12400,"station_id":"ce4bh012rcd13ifvqcv0","pricing_plan_id":"cebpf4jnsgd1na2vs0mg"},{"bike_id":"bbad5bf7-b54d-4284-aeee-744acb86bc7d","system_id":"levelo_inurba_marseille","lat":43.27807,"lon":5.40727,"is_reserved":false,"is_disabled":false,"rental_uris":{"android":"levelo://app?vid=bbad5bf7-b54d-4284-aeee-744acb86bc7d","ios":"levelo://app?vid=bbad5bf7-b54d-4284-aeee-744acb86bc7d"},"vehicle_type_id":"4","last_reported":1747529906,"current_range_meters":12400,"station_id":"ce4bhnh2rcd13ifvqgtg","pricing_plan_id":"cebpf4jnsgd1na2vs0mg"},{"bike_id":"f4422497-4aad-4e8b-bd52-83c14c78c01b","system_id":"levelo_inurba_marseille","lat":43.25129,"lon":5.40252,"is_reserved":false,"is_disabled":false,"rental_uris":{"android":"levelo://app?vid=f4422497-4aad-4e8b-bd52-83c14c78c01b","ios":"levelo://app?vid=f4422497-4aad-4e8b-bd52-83c14c78c01b"},"vehicle_type_id":"4","last_reported":1747529906,"current_range_meters":12800,"station_id":"","pricing_plan_id":"cebpf4jnsgd1na2vs0mg"},{"bike_id":"2927246c-7aec-408a-9ea9-e6da636c68cc","system_id":"levelo_inurba_marseille","lat":43.29453,"lon":5.39753,"is_reserved":false,"is_disabled":false,"rental_uris":{"android":"levelo://app?vid=2927246c-7aec-408a-9ea9-e6da636c68cc","ios":"levelo://app?vid=2927246c-7aec-408a-9ea9-e6da636c68cc"},"vehicle_type_id":"4","last_reported":1747529906,"current_range_meters":12800,"station_id":"ce4bh3h2rcd13ifvqdo0","pricing_plan_id":"cebpf4jnsgd1na2vs0mg"},{"bike_id":"7868986d-a54c-4a37-84be-fce32b4b1235","system_id":"levelo_inurba_marseille","lat":43.265403,"lon":5.395735,"is_reserved":false,"is_disabled":false,"rental_uris":{"android":"levelo://app?vid=7868986d-a54c-4a37-84be-fce32b4b1235","ios":"levelo://app?vid=7868986d-a54c-4a37-84be-fce32b4b1235"},"vehicle_type_id":"4","last_reported":1747529906,"current_range_meters":12800,"station_id":"ce4bhi12rcd13ifvqfq0","pricing_plan_id":"cebpf4jnsgd1na2vs0mg"},{"bike_id":"0e689d43-c17d-4781-a4d7-f7a5ff3e0dbd","system_id":"levelo_inurba_marseille","lat":43.30328,"lon":5.4039,"is_reserved":false,"is_disabled":false,"rental_uris":{"android":"levelo://app?vid=0e689d43-c17d-4781-a4d7-f7a5ff3e0dbd","ios":"levelo://app?vid=0e689d43-c17d-4781-a4d7-f7a5ff3e0dbd"},"vehicle_type_id":"4","last_reported":1747529906,"current_range_meters":13600,"station_id":"ce4bh012rcd13ifvqd10","pricing_plan_id":"cebpf4jnsgd1na2vs0mg"},{"bike_id":"4739d0ee-0dbc-4b41-a171-18fe3d7e3cc9","system_id":"levelo_inurba_marseille","lat":43.29872,"lon":5.39731,"is_reserved":false,"is_disabled":false,"rental_uris":{"android":"levelo://app?vid=4739d0ee-0dbc-4b41-a171-18fe3d7e3cc9","ios":"levelo://app?vid=4739d0ee-0dbc-4b41-a171-18fe3d7e3cc9"},"vehicle_type_id":"4","last_reported":1747529906,"current_range_meters":13600,"station_id":"ce4bh0h2rcd13ifvqd50","pricing_plan_id":"cebpf4jnsgd1na2vs0mg"},{"bike_id":"aec52bc3-9728-40f0-98ec-43f09b1f4cc9","system_id":"levelo_inurba_marseille","lat":43.28644,"lon":5.36323,"is_reserved":false,"is_disabled":false,"rental_uris":{"android":"levelo://app?vid=aec52bc3-9728-40f0-98ec-43f09b1f4cc9","ios":"levelo://app?vid=aec52bc3-9728-40f0-98ec-43f09b1f4cc9"},"vehicle_type_id":"4","last_reported":1747529906,"current_range_meters":13600,"station_id":"ce4bhah2rcd13ifvqej0","pricing_plan_id":"cebpf4jnsgd1na2vs0mg"},{"bike_id":"4fb67793-4f63-45d5-8c2d-f5750c8a4186","system_id":"levelo_inurba_marseille","lat":43.27562,"lon":5.38431,"is_reserved":false,"is_disabled":false,"rental_uris":{"android":"levelo://app?vid=4fb67793-4f63-45d5-8c2d-f5750c8a4186","ios":"levelo://app?vid=4fb67793-4f63-45d5-8c2d-f5750c8a4186"},"vehicle_type_id":"4","last_reported":1747529906,"current_range_meters":13600,"station_id":"ce4bhh92rcd13ifvqfi0","pricing_plan_id":"cebpf4jnsgd1na2vs0mg"},{"bike_id":"073b04fc-81d8-4d02-9068-9f3e68c33eb2","system_id":"levelo_inurba_marseille","lat":43.25815,"lon":5.39447,"is_reserved":false,"is_disabled":false,"rental_uris":{"android":"levelo://app?vid=073b04fc-81d8-4d02-9068-9f3e68c33eb2","ios":"levelo://app?vid=073b04fc-81d8-4d02-9068-9f3e68c33eb2"},"vehicle_type_id":"4","last_reported":1747529906,"current_range_meters":13600,"station_id":"ce4bhip2rcd13ifvqft0","pricing_plan_id":"cebpf4jnsgd1na2vs0mg"},{"bike_id":"b3a3c8ad-cc23-4fc7-987d-f81bc9748bb7","system_id":"levelo_inurba_marseille","lat":43.29803,"lon":5.38102,"is_reserved":false,"is_disabled":false,"rental_uris":{"android":"levelo://app?vid=b3a3c8ad-cc23-4fc7-987d-f81bc9748bb7","ios":"levelo://app?vid=b3a3c8ad-cc23-4fc7-987d-f81bc9748bb7"},"vehicle_type_id":"4","last_reported":1747529906,"current_range_meters":14000,"station_id":"ce4bgip2rcd13ifvqbb0","pricing_plan_id":"cebpf4jnsgd1na2vs0mg"},{"bike_id":"7238b89e-2b97-4bc5-95ab-4759c70767ab","system_id":"levelo_inurba_marseille","lat":43.31121,"lon":5.3778,"is_reserved":false,"is_disabled":false,"rental_uris":{"android":"levelo://app?vid=7238b89e-2b97-4bc5-95ab-4759c70767ab","ios":"levelo://app?vid=7238b89e-2b97-4bc5-95ab-4759c70767ab"},"vehicle_type_id":"4","last_reported":1747529906,"current_range_meters":14000,"station_id":"ce4bgt92rcd13ifvqcg0","pricing_plan_id":"cebpf4jnsgd1na2vs0mg"},{"bike_id":"27f05115-decc-4fbb-b226-cbb837efe701","system_id":"levelo_inurba_marseille","lat":43.30252,"lon":5.40072,"is_reserved":false,"is_disabled":false,"rental_uris":{"android":"levelo://app?vid=27f05115-decc-4fbb-b226-cbb837efe701","ios":"levelo://app?vid=27f05115-decc-4fbb-b226-cbb837efe701"},"vehicle_type_id":"4","last_reported":1747529906,"current_range_meters":14000,"station_id":"ce4bgvh2rcd13ifvqcs0","pricing_plan_id":"cebpf4jnsgd1na2vs0mg"},{"bike_id":"56de12ec-c2b3-4960-90ca-a3bf7841338a","system_id":"levelo_inurba_marseille","lat":43.246527,"lon":5.38887,"is_reserved":false,"is_disabled":false,"rental_uris":{"android":"levelo://app?vid=56de12ec-c2b3-4960-90ca-a3bf7841338a","ios":"levelo://app?vid=56de12ec-c2b3-4960-90ca-a3bf7841338a"},"vehicle_type_id":"4","last_reported":1747529906,"current_range_meters":14000,"station_id":"ce4bhg12rcd13ifvqf60","pricing_plan_id":"cebpf4jnsgd1na2vs0mg"},{"bike_id":"4b0b1f5b-0b5f-4c37-a22b-41ace886ce88","system_id":"levelo_inurba_marseille","lat":43.27656,"lon":5.42658,"is_reserved":false,"is_disabled":false,"rental_uris":{"android":"levelo://app?vid=4b0b1f5b-0b5f-4c37-a22b-41ace886ce88","ios":"levelo://app?vid=4b0b1f5b-0b5f-4c37-a22b-41ace886ce88"},"vehicle_type_id":"4","last_reported":1747529906,"current_range_meters":14400,"station_id":"","pricing_plan_id":"cebpf4jnsgd1na2vs0mg"},{"bike_id":"92c0459c-522b-4e51-bf45-fa5573a5f2d9","system_id":"levelo_inurba_marseille","lat":43.29628,"lon":5.40594,"is_reserved":false,"is_disabled":false,"rental_uris":{"android":"levelo://app?vid=92c0459c-522b-4e51-bf45-fa5573a5f2d9","ios":"levelo://app?vid=92c0459c-522b-4e51-bf45-fa5573a5f2d9"},"vehicle_type_id":"4","last_reported":1747529906,"current_range_meters":14400,"station_id":"ce4bh0h2rcd13ifvqd60","pricing_plan_id":"cebpf4jnsgd1na2vs0mg"},{"bike_id":"ac3834a9-965b-4a58-89b3-af339b7bb1c6","system_id":"levelo_inurba_marseille","lat":43.284152,"lon":5.375073,"is_reserved":false,"is_disabled":false,"rental_uris":{"android":"levelo://app?vid=ac3834a9-965b-4a58-89b3-af339b7bb1c6","ios":"levelo://app?vid=ac3834a9-965b-4a58-89b3-af339b7bb1c6"},"vehicle_type_id":"4","last_reported":1747529906,"current_range_meters":14400,"station_id":"ce4bh412rcd13ifvqds0","pricing_plan_id":"cebpf4jnsgd1na2vs0mg"},{"bike_id":"584c70d0-0918-4aa0-b289-fcc6a9442003","system_id":"levelo_inurba_marseille","lat":43.25064,"lon":5.39524,"is_reserved":false,"is_disabled":false,"rental_uris":{"android":"levelo://app?vid=584c70d0-0918-4aa0-b289-fcc6a9442003","ios":"levelo://app?vid=584c70d0-0918-4aa0-b289-fcc6a9442003"},"vehicle_type_id":"4","last_reported":1747529906,"current_range_meters":14400,"station_id":"ce4bhm12rcd13ifvqgkg","pricing_plan_id":"cebpf4jnsgd1na2vs0mg"},{"bike_id":"e601ce08-8e8b-4e19-aba6-1226c7cf3db9","system_id":"levelo_inurba_marseille","lat":43.28442,"lon":5.39188,"is_reserved":false,"is_disabled":false,"rental_uris":{"android":"levelo://app?vid=e601ce08-8e8b-4e19-aba6-1226c7cf3db9","ios":"levelo://app?vid=e601ce08-8e8b-4e19-aba6-1226c7cf3db9"},"vehicle_type_id":"4","last_reported":1747529906,"current_range_meters":14400,"station_id":"ce4bhoh2rcd13ifvqh5g","pricing_plan_id":"cebpf4jnsgd1na2vs0mg"},{"bike_id":"a2e8ac07-c27d-4596-ac54-d8fb456abf0d","system_id":"levelo_inurba_marseille","lat":43.28254,"lon":5.424,"is_reserved":false,"is_disabled":false,"rental_uris":{"android":"levelo://app?vid=a2e8ac07-c27d-4596-ac54-d8fb456abf0d","ios":"levelo://app?vid=a2e8ac07-c27d-4596-ac54-d8fb456abf0d"},"vehicle_type_id":"4","last_reported":1747529906,"current_range_meters":14800,"station_id":"","pricing_plan_id":"cebpf4jnsgd1na2vs0mg"},{"bike_id":"4560143e-10d4-4e77-88c9-cb044d9e3e3a","system_id":"levelo_inurba_marseille","lat":43.305935,"lon":5.39361,"is_reserved":false,"is_disabled":false,"rental_uris":{"android":"levelo://app?vid=4560143e-10d4-4e77-88c9-cb044d9e3e3a","ios":"levelo://app?vid=4560143e-10d4-4e77-88c9-cb044d9e3e3a"},"vehicle_type_id":"4","last_reported":1747529906,"current_range_meters":14800,"station_id":"ce4bh0p2rcd13ifvqd80","pricing_plan_id":"cebpf4jnsgd1na2vs0mg"},{"bike_id":"55982159-14b0-423d-a8c0-c157cf2770cd","system_id":"levelo_inurba_marseille","lat":43.27725,"lon":5.36264,"is_reserved":false,"is_disabled":false,"rental_uris":{"android":"levelo://app?vid=55982159-14b0-423d-a8c0-c157cf2770cd","ios":"levelo://app?vid=55982159-14b0-423d-a8c0-c157cf2770cd"},"vehicle_type_id":"4","last_reported":1747529906,"current_range_meters":15200,"station_id":"","pricing_plan_id":"cebpf4jnsgd1na2vs0mg"},{"bike_id":"b26a0dd7-cbdc-4ab7-8def-31c4b88b224a","system_id":"levelo_inurba_marseille","lat":43.31205,"lon":5.3928,"is_reserved":false,"is_disabled":false,"rental_uris":{"android":"levelo://app?vid=b26a0dd7-cbdc-4ab7-8def-31c4b88b224a","ios":"levelo://app?vid=b26a0dd7-cbdc-4ab7-8def-31c4b88b224a"},"vehicle_type_id":"4","last_reported":1747529906,"current_range_meters":15200,"station_id":"","pricing_plan_id":"cebpf4jnsgd1na2vs0mg"},{"bike_id":"568a387c-cfaa-4ae3-b6a9-02bd0b7847a0","system_id":"levelo_inurba_marseille","lat":43.30299,"lon":5.39198,"is_reserved":false,"is_disabled":false,"rental_uris":{"android":"levelo://app?vid=568a387c-cfaa-4ae3-b6a9-02bd0b7847a0","ios":"levelo://app?vid=568a387c-cfaa-4ae3-b6a9-02bd0b7847a0"},"vehicle_type_id":"4","last_reported":1747529906,"current_range_meters":15200,"station_id":"ce4bgkh2rcd13ifvqbk0","pricing_plan_id":"cebpf4jnsgd1na2vs0mg"},{"bike_id":"b8973b9c-dab4-4410-8782-804997527496","system_id":"levelo_inurba_marseille","lat":43.30949,"lon":5.39049,"is_reserved":false,"is_disabled":false,"rental_uris":{"android":"levelo://app?vid=b8973b9c-dab4-4410-8782-804997527496","ios":"levelo://app?vid=b8973b9c-dab4-4410-8782-804997527496"},"vehicle_type_id":"4","last_reported":1747529906,"current_range_meters":15200,"station_id":"ce4bgup2rcd13ifvqco0","pricing_plan_id":"cebpf4jnsgd1na2vs0mg"},{"bike_id":"3845b92b-2215-4a79-be64-fa2b0d45d0ba","system_id":"levelo_inurba_marseille","lat":43.30248,"lon":5.40049,"is_reserved":false,"is_disabled":false,"rental_uris":{"android":"levelo://app?vid=3845b92b-2215-4a79-be64-fa2b0d45d0ba","ios":"levelo://app?vid=3845b92b-2215-4a79-be64-fa2b0d45d0ba"},"vehicle_type_id":"4","last_reported":1747529906,"current_range_meters":15200,"station_id":"ce4bgvh2rcd13ifvqcs0","pricing_plan_id":"cebpf4jnsgd1na2vs0mg"},{"bike_id":"b41619e3-6dbe-49d7-baca-02ff8f7f1d54","system_id":"levelo_inurba_marseille","lat":43.30927,"lon":5.40145,"is_reserved":false,"is_disabled":false,"rental_uris":{"android":"levelo://app?vid=b41619e3-6dbe-49d7-baca-02ff8f7f1d54","ios":"levelo://app?vid=b41619e3-6dbe-49d7-baca-02ff8f7f1d54"},"vehicle_type_id":"4","last_reported":1747529906,"current_range_meters":15200,"station_id":"ce4bgvp2rcd13ifvqct0","pricing_plan_id":"cebpf4jnsgd1na2vs0mg"},{"bike_id":"5911af4c-0fec-4cf2-a307-b3bae3f3f5c8","system_id":"levelo_inurba_marseille","lat":43.31331,"lon":5.39695,"is_reserved":false,"is_disabled":false,"rental_uris":{"android":"levelo://app?vid=5911af4c-0fec-4cf2-a307-b3bae3f3f5c8","ios":"levelo://app?vid=5911af4c-0fec-4cf2-a307-b3bae3f3f5c8"},"vehicle_type_id":"4","last_reported":1747529906,"current_range_meters":15200,"station_id":"ce4bgvp2rcd13ifvqcu0","pricing_plan_id":"cebpf4jnsgd1na2vs0mg"},{"bike_id":"bd726530-57b5-4f98-8c5c-abbfa7ce7928","system_id":"levelo_inurba_marseille","lat":43.31707,"lon":5.40462,"is_reserved":false,"is_disabled":false,"rental_uris":{"android":"levelo://app?vid=bd726530-57b5-4f98-8c5c-abbfa7ce7928","ios":"levelo://app?vid=bd726530-57b5-4f98-8c5c-abbfa7ce7928"},"vehicle_type_id":"4","last_reported":1747529906,"current_range_meters":15200,"station_id":"ce4bh012rcd13ifvqd00","pricing_plan_id":"cebpf4jnsgd1na2vs0mg"},{"bike_id":"2f0cadb4-d32c-481d-b010-d7df56ff1e9c","system_id":"levelo_inurba_marseille","lat":43.29249,"lon":5.40924,"is_reserved":false,"is_disabled":false,"rental_uris":{"android":"levelo://app?vid=2f0cadb4-d32c-481d-b010-d7df56ff1e9c","ios":"levelo://app?vid=2f0cadb4-d32c-481d-b010-d7df56ff1e9c"},"vehicle_type_id":"4","last_reported":1747529906,"current_range_meters":15200,"station_id":"ce4bh192rcd13ifvqdc0","pricing_plan_id":"cebpf4jnsgd1na2vs0mg"},{"bike_id":"1cb8de45-6a2e-4eb3-9101-6ff953a05b07","system_id":"levelo_inurba_marseille","lat":43.28455,"lon":5.3589,"is_reserved":false,"is_disabled":false,"rental_uris":{"android":"levelo://app?vid=1cb8de45-6a2e-4eb3-9101-6ff953a05b07","ios":"levelo://app?vid=1cb8de45-6a2e-4eb3-9101-6ff953a05b07"},"vehicle_type_id":"4","last_reported":1747529906,"current_range_meters":15200,"station_id":"ce4bhah2rcd13ifvqei0","pricing_plan_id":"cebpf4jnsgd1na2vs0mg"},{"bike_id":"834030b7-ca92-479e-8f4c-9101b82edad3","system_id":"levelo_inurba_marseille","lat":43.295577,"lon":5.422923,"is_reserved":false,"is_disabled":false,"rental_uris":{"android":"levelo://app?vid=834030b7-ca92-479e-8f4c-9101b82edad3","ios":"levelo://app?vid=834030b7-ca92-479e-8f4c-9101b82edad3"},"vehicle_type_id":"4","last_reported":1747529906,"current_range_meters":15200,"station_id":"ce4bhph2rcd13ifvqhdg","pricing_plan_id":"cebpf4jnsgd1na2vs0mg"},{"bike_id":"be618097-71ef-4efa-ad65-e2c258e7d642","system_id":"levelo_inurba_marseille","lat":43.31247,"lon":5.36873,"is_reserved":false,"is_disabled":false,"rental_uris":{"android":"levelo://app?vid=be618097-71ef-4efa-ad65-e2c258e7d642","ios":"levelo://app?vid=be618097-71ef-4efa-ad65-e2c258e7d642"},"vehicle_type_id":"4","last_reported":1747529906,"current_range_meters":16000,"station_id":"ce4bgl92rcd13ifvqbq0","pricing_plan_id":"cebpf4jnsgd1na2vs0mg"},{"bike_id":"1df77482-56ed-43f0-a80c-7f28eed744f8","system_id":"levelo_inurba_marseille","lat":43.25118,"lon":5.40336,"is_reserved":false,"is_disabled":false,"rental_uris":{"android":"levelo://app?vid=1df77482-56ed-43f0-a80c-7f28eed744f8","ios":"levelo://app?vid=1df77482-56ed-43f0-a80c-7f28eed744f8"},"vehicle_type_id":"4","last_reported":1747529906,"current_range_meters":16000,"station_id":"ce4bhlh2rcd13ifvqgig","pricing_plan_id":"cebpf4jnsgd1na2vs0mg"},{"bike_id":"6296a881-388b-44b2-9538-c35f452174d9","system_id":"levelo_inurba_marseille","lat":43.28002,"lon":5.40018,"is_reserved":false,"is_disabled":false,"rental_uris":{"android":"levelo://app?vid=6296a881-388b-44b2-9538-c35f452174d9","ios":"levelo://app?vid=6296a881-388b-44b2-9538-c35f452174d9"},"vehicle_type_id":"4","last_reported":1747529906,"current_range_meters":16000,"station_id":"ce4bho92rcd13ifvqh4g","pricing_plan_id":"cebpf4jnsgd1na2vs0mg"},{"bike_id":"7a31f435-63bc-4ff6-838b-d79912959956","system_id":"levelo_inurba_marseille","lat":43.26187,"lon":5.40498,"is_reserved":false,"is_disabled":false,"rental_uris":{"android":"levelo://app?vid=7a31f435-63bc-4ff6-838b-d79912959956","ios":"levelo://app?vid=7a31f435-63bc-4ff6-838b-d79912959956"},"vehicle_type_id":"4","last_reported":1747529906,"current_range_meters":16400,"station_id":"","pricing_plan_id":"cebpf4jnsgd1na2vs0mg"},{"bike_id":"ee75602a-f143-4ba1-b3de-330c8991247c","system_id":"levelo_inurba_marseille","lat":43.31457,"lon":5.37308,"is_reserved":false,"is_disabled":false,"rental_uris":{"android":"levelo://app?vid=ee75602a-f143-4ba1-b3de-330c8991247c","ios":"levelo://app?vid=ee75602a-f143-4ba1-b3de-330c8991247c"},"vehicle_type_id":"4","last_reported":1747529906,"current_range_meters":16400,"station_id":"ce4bgt12rcd13ifvqcd0","pricing_plan_id":"cebpf4jnsgd1na2vs0mg"},{"bike_id":"cbff0bd8-ab69-455f-978e-8e044433b1ea","system_id":"levelo_inurba_marseille","lat":43.30353,"lon":5.40365,"is_reserved":false,"is_disabled":false,"rental_uris":{"android":"levelo://app?vid=cbff0bd8-ab69-455f-978e-8e044433b1ea","ios":"levelo://app?vid=cbff0bd8-ab69-455f-978e-8e044433b1ea"},"vehicle_type_id":"4","last_reported":1747529906,"current_range_meters":16400,"station_id":"ce4bh012rcd13ifvqd10","pricing_plan_id":"cebpf4jnsgd1na2vs0mg"},{"bike_id":"7fdcf52b-541b-4360-8c0a-0ae336ff6d66","system_id":"levelo_inurba_marseille","lat":43.301314,"lon":5.398595,"is_reserved":false,"is_disabled":false,"rental_uris":{"android":"levelo://app?vid=7fdcf52b-541b-4360-8c0a-0ae336ff6d66","ios":"levelo://app?vid=7fdcf52b-541b-4360-8c0a-0ae336ff6d66"},"vehicle_type_id":"4","last_reported":1747529906,"current_range_meters":16400,"station_id":"ce4bh0h2rcd13ifvqd40","pricing_plan_id":"cebpf4jnsgd1na2vs0mg"},{"bike_id":"2aaa1fec-5d89-4772-858b-830dca7816ff","system_id":"levelo_inurba_marseille","lat":43.30167,"lon":5.37385,"is_reserved":false,"is_disabled":false,"rental_uris":{"android":"levelo://app?vid=2aaa1fec-5d89-4772-858b-830dca7816ff","ios":"levelo://app?vid=2aaa1fec-5d89-4772-858b-830dca7816ff"},"vehicle_type_id":"4","last_reported":1747529906,"current_range_meters":16800,"station_id":"ce4bgs92rcd13ifvqcc0","pricing_plan_id":"cebpf4jnsgd1na2vs0mg"},{"bike_id":"c5ff94be-c2ea-413f-a053-ee20ee5d180d","system_id":"levelo_inurba_marseille","lat":43.31126,"lon":5.37762,"is_reserved":false,"is_disabled":false,"rental_uris":{"android":"levelo://app?vid=c5ff94be-c2ea-413f-a053-ee20ee5d180d","ios":"levelo://app?vid=c5ff94be-c2ea-413f-a053-ee20ee5d180d"},"vehicle_type_id":"4","last_reported":1747529906,"current_range_meters":16800,"station_id":"ce4bgt92rcd13ifvqcg0","pricing_plan_id":"cebpf4jnsgd1na2vs0mg"},{"bike_id":"d2953a77-285f-4475-a833-6f98dc4d090c","system_id":"levelo_inurba_marseille","lat":43.286633,"lon":5.386746,"is_reserved":false,"is_disabled":false,"rental_uris":{"android":"levelo://app?vid=d2953a77-285f-4475-a833-6f98dc4d090c","ios":"levelo://app?vid=d2953a77-285f-4475-a833-6f98dc4d090c"},"vehicle_type_id":"4","last_reported":1747529906,"current_range_meters":16800,"station_id":"ce4bh492rcd13ifvqdug","pricing_plan_id":"cebpf4jnsgd1na2vs0mg"},{"bike_id":"942d70f0-6de3-463e-b885-a14fc7604da5","system_id":"levelo_inurba_marseille","lat":43.246655,"lon":5.381648,"is_reserved":false,"is_disabled":false,"rental_uris":{"android":"levelo://app?vid=942d70f0-6de3-463e-b885-a14fc7604da5","ios":"levelo://app?vid=942d70f0-6de3-463e-b885-a14fc7604da5"},"vehicle_type_id":"4","last_reported":1747529906,"current_range_meters":16800,"station_id":"ce4bhih2rcd13ifvqfr0","pricing_plan_id":"cebpf4jnsgd1na2vs0mg"},{"bike_id":"58887f66-7108-4294-a00e-551c17af804a","system_id":"levelo_inurba_marseille","lat":43.26217,"lon":5.40473,"is_reserved":false,"is_disabled":false,"rental_uris":{"android":"levelo://app?vid=58887f66-7108-4294-a00e-551c17af804a","ios":"levelo://app?vid=58887f66-7108-4294-a00e-551c17af804a"},"vehicle_type_id":"4","last_reported":1747529906,"current_range_meters":16800,"station_id":"ce4bhmh2rcd13ifvqgmg","pricing_plan_id":"cebpf4jnsgd1na2vs0mg"},{"bike_id":"0a672e4f-4d62-47b0-88d5-45b4c1c6a08c","system_id":"levelo_inurba_marseille","lat":43.29556,"lon":5.42297,"is_reserved":false,"is_disabled":false,"rental_uris":{"android":"levelo://app?vid=0a672e4f-4d62-47b0-88d5-45b4c1c6a08c","ios":"levelo://app?vid=0a672e4f-4d62-47b0-88d5-45b4c1c6a08c"},"vehicle_type_id":"4","last_reported":1747529906,"current_range_meters":16800,"station_id":"ce4bhph2rcd13ifvqhdg","pricing_plan_id":"cebpf4jnsgd1na2vs0mg"},{"bike_id":"bf2b2bfb-9733-4bda-908d-03391ae976cc","system_id":"levelo_inurba_marseille","lat":43.31225,"lon":5.4162,"is_reserved":false,"is_disabled":false,"rental_uris":{"android":"levelo://app?vid=bf2b2bfb-9733-4bda-908d-03391ae976cc","ios":"levelo://app?vid=bf2b2bfb-9733-4bda-908d-03391ae976cc"},"vehicle_type_id":"4","last_reported":1747529906,"current_range_meters":17200,"station_id":"","pricing_plan_id":"cebpf4jnsgd1na2vs0mg"},{"bike_id":"5dee036b-29cd-483a-bada-e312729a7e07","system_id":"levelo_inurba_marseille","lat":43.307997,"lon":5.38157,"is_reserved":false,"is_disabled":false,"rental_uris":{"android":"levelo://app?vid=5dee036b-29cd-483a-bada-e312729a7e07","ios":"levelo://app?vid=5dee036b-29cd-483a-bada-e312729a7e07"},"vehicle_type_id":"4","last_reported":1747529906,"current_range_meters":17200,"station_id":"ce4bgt12rcd13ifvqce0","pricing_plan_id":"cebpf4jnsgd1na2vs0mg"},{"bike_id":"60c2cda1-4c0f-4611-bcd8-501e957b3fcd","system_id":"levelo_inurba_marseille","lat":43.30249,"lon":5.40062,"is_reserved":false,"is_disabled":false,"rental_uris":{"android":"levelo://app?vid=60c2cda1-4c0f-4611-bcd8-501e957b3fcd","ios":"levelo://app?vid=60c2cda1-4c0f-4611-bcd8-501e957b3fcd"},"vehicle_type_id":"4","last_reported":1747529906,"current_range_meters":17200,"station_id":"ce4bgvh2rcd13ifvqcs0","pricing_plan_id":"cebpf4jnsgd1na2vs0mg"},{"bike_id":"dc1a0c20-0b73-48c7-81bb-5d5d5de057a7","system_id":"levelo_inurba_marseille","lat":43.28839,"lon":5.35876,"is_reserved":false,"is_disabled":false,"rental_uris":{"android":"levelo://app?vid=dc1a0c20-0b73-48c7-81bb-5d5d5de057a7","ios":"levelo://app?vid=dc1a0c20-0b73-48c7-81bb-5d5d5de057a7"},"vehicle_type_id":"4","last_reported":1747529906,"current_range_meters":17200,"station_id":"ce4bhb12rcd13ifvqem0","pricing_plan_id":"cebpf4jnsgd1na2vs0mg"},{"bike_id":"c38c0434-7c0b-4918-a236-1841e549db1d","system_id":"levelo_inurba_marseille","lat":43.25108,"lon":5.40317,"is_reserved":false,"is_disabled":false,"rental_uris":{"android":"levelo://app?vid=c38c0434-7c0b-4918-a236-1841e549db1d","ios":"levelo://app?vid=c38c0434-7c0b-4918-a236-1841e549db1d"},"vehicle_type_id":"4","last_reported":1747529906,"current_range_meters":17200,"station_id":"ce4bhlh2rcd13ifvqgig","pricing_plan_id":"cebpf4jnsgd1na2vs0mg"},{"bike_id":"ac25e498-bb19-40a6-9b78-628d48d84d83","system_id":"levelo_inurba_marseille","lat":43.25131,"lon":5.40336,"is_reserved":false,"is_disabled":false,"rental_uris":{"android":"levelo://app?vid=ac25e498-bb19-40a6-9b78-628d48d84d83","ios":"levelo://app?vid=ac25e498-bb19-40a6-9b78-628d48d84d83"},"vehicle_type_id":"4","last_reported":1747529906,"current_range_meters":17200,"station_id":"ce4bhlh2rcd13ifvqgig","pricing_plan_id":"cebpf4jnsgd1na2vs0mg"},{"bike_id":"ed34fad4-c48e-4c1a-b9b1-8eb1cd77d573","system_id":"levelo_inurba_marseille","lat":43.30949,"lon":5.38636,"is_reserved":false,"is_disabled":false,"rental_uris":{"android":"levelo://app?vid=ed34fad4-c48e-4c1a-b9b1-8eb1cd77d573","ios":"levelo://app?vid=ed34fad4-c48e-4c1a-b9b1-8eb1cd77d573"},"vehicle_type_id":"4","last_reported":1747529906,"current_range_meters":17200,"station_id":"ce4bhqh2rcd13ifvqhmg","pricing_plan_id":"cebpf4jnsgd1na2vs0mg"},{"bike_id":"c591037e-9bdc-4128-b08a-269580cd419f","system_id":"levelo_inurba_marseille","lat":43.31996,"lon":5.38173,"is_reserved":false,"is_disabled":false,"rental_uris":{"android":"levelo://app?vid=c591037e-9bdc-4128-b08a-269580cd419f","ios":"levelo://app?vid=c591037e-9bdc-4128-b08a-269580cd419f"},"vehicle_type_id":"4","last_reported":1747529906,"current_range_meters":17200,"station_id":"ce4bhr12rcd13ifvqhpg","pricing_plan_id":"cebpf4jnsgd1na2vs0mg"},{"bike_id":"1b586395-d7b7-480d-8921-ab9290352404","system_id":"levelo_inurba_marseille","lat":43.32362,"lon":5.3676,"is_reserved":false,"is_disabled":false,"rental_uris":{"android":"levelo://app?vid=1b586395-d7b7-480d-8921-ab9290352404","ios":"levelo://app?vid=1b586395-d7b7-480d-8921-ab9290352404"},"vehicle_type_id":"4","last_reported":1747529906,"current_range_meters":17200,"station_id":"ce4bhsh2rcd13ifvqi2g","pricing_plan_id":"cebpf4jnsgd1na2vs0mg"},{"bike_id":"19456222-7d38-48cf-a950-06daadd07927","system_id":"levelo_inurba_marseille","lat":43.25022,"lon":5.37543,"is_reserved":false,"is_disabled":false,"rental_uris":{"android":"levelo://app?vid=19456222-7d38-48cf-a950-06daadd07927","ios":"levelo://app?vid=19456222-7d38-48cf-a950-06daadd07927"},"vehicle_type_id":"4","last_reported":1747529906,"current_range_meters":17600,"station_id":"","pricing_plan_id":"cebpf4jnsgd1na2vs0mg"},{"bike_id":"86603db7-b462-4e72-8622-a2dee8bb2920","system_id":"levelo_inurba_marseille","lat":43.337444,"lon":5.374475,"is_reserved":false,"is_disabled":false,"rental_uris":{"android":"levelo://app?vid=86603db7-b462-4e72-8622-a2dee8bb2920","ios":"levelo://app?vid=86603db7-b462-4e72-8622-a2dee8bb2920"},"vehicle_type_id":"4","last_reported":1747529906,"current_range_meters":17600,"station_id":"","pricing_plan_id":"cebpf4jnsgd1na2vs0mg"},{"bike_id":"cf1bbe4c-bd28-4957-a715-4af898806139","system_id":"levelo_inurba_marseille","lat":43.30882,"lon":5.37191,"is_reserved":false,"is_disabled":false,"rental_uris":{"android":"levelo://app?vid=cf1bbe4c-bd28-4957-a715-4af898806139","ios":"levelo://app?vid=cf1bbe4c-bd28-4957-a715-4af898806139"},"vehicle_type_id":"4","last_reported":1747529906,"current_range_meters":17600,"station_id":"ce4bguh2rcd13ifvqckg","pricing_plan_id":"cebpf4jnsgd1na2vs0mg"},{"bike_id":"8d2d9f61-e608-4b0f-bb8a-b346f6f803f9","system_id":"levelo_inurba_marseille","lat":43.301338,"lon":5.39865,"is_reserved":false,"is_disabled":false,"rental_uris":{"android":"levelo://app?vid=8d2d9f61-e608-4b0f-bb8a-b346f6f803f9","ios":"levelo://app?vid=8d2d9f61-e608-4b0f-bb8a-b346f6f803f9"},"vehicle_type_id":"4","last_reported":1747529906,"current_range_meters":17600,"station_id":"ce4bh0h2rcd13ifvqd40","pricing_plan_id":"cebpf4jnsgd1na2vs0mg"},{"bike_id":"bac9ccf4-f77f-41ae-9af3-26c36050f5df","system_id":"levelo_inurba_marseille","lat":43.29874,"lon":5.39736,"is_reserved":false,"is_disabled":false,"rental_uris":{"android":"levelo://app?vid=bac9ccf4-f77f-41ae-9af3-26c36050f5df","ios":"levelo://app?vid=bac9ccf4-f77f-41ae-9af3-26c36050f5df"},"vehicle_type_id":"4","last_reported":1747529906,"current_range_meters":17600,"station_id":"ce4bh0h2rcd13ifvqd50","pricing_plan_id":"cebpf4jnsgd1na2vs0mg"},{"bike_id":"19e2c0aa-ac37-4902-bf60-b4daa790ee25","system_id":"levelo_inurba_marseille","lat":43.2707,"lon":5.42282,"is_reserved":false,"is_disabled":false,"rental_uris":{"android":"levelo://app?vid=19e2c0aa-ac37-4902-bf60-b4daa790ee25","ios":"levelo://app?vid=19e2c0aa-ac37-4902-bf60-b4daa790ee25"},"vehicle_type_id":"4","last_reported":1747529906,"current_range_meters":17600,"station_id":"ce4bhk92rcd13ifvqgb0","pricing_plan_id":"cebpf4jnsgd1na2vs0mg"},{"bike_id":"dcfc1075-09a3-4249-a3dc-22aa08ec40e5","system_id":"levelo_inurba_marseille","lat":43.2572,"lon":5.41116,"is_reserved":false,"is_disabled":false,"rental_uris":{"android":"levelo://app?vid=dcfc1075-09a3-4249-a3dc-22aa08ec40e5","ios":"levelo://app?vid=dcfc1075-09a3-4249-a3dc-22aa08ec40e5"},"vehicle_type_id":"4","last_reported":1747529906,"current_range_meters":17600,"station_id":"ce4bhkp2rcd13ifvqgd0","pricing_plan_id":"cebpf4jnsgd1na2vs0mg"},{"bike_id":"5ddd41df-5811-4b09-99f7-599fa0ee82b0","system_id":"levelo_inurba_marseille","lat":43.24517,"lon":5.3952,"is_reserved":false,"is_disabled":false,"rental_uris":{"android":"levelo://app?vid=5ddd41df-5811-4b09-99f7-599fa0ee82b0","ios":"levelo://app?vid=5ddd41df-5811-4b09-99f7-599fa0ee82b0"},"vehicle_type_id":"4","last_reported":1747529906,"current_range_meters":17600,"station_id":"ce4bhlp2rcd13ifvqgjg","pricing_plan_id":"cebpf4jnsgd1na2vs0mg"},{"bike_id":"db647a88-7197-40ac-aeb0-6195ce252bd5","system_id":"levelo_inurba_marseille","lat":43.31084,"lon":5.42447,"is_reserved":false,"is_disabled":false,"rental_uris":{"android":"levelo://app?vid=db647a88-7197-40ac-aeb0-6195ce252bd5","ios":"levelo://app?vid=db647a88-7197-40ac-aeb0-6195ce252bd5"},"vehicle_type_id":"4","last_reported":1747529906,"current_range_meters":17600,"station_id":"ce4bhp92rcd13ifvqhag","pricing_plan_id":"cebpf4jnsgd1na2vs0mg"},{"bike_id":"1e2f0c80-2ce7-417a-ae75-e6a168f4d00d","system_id":"levelo_inurba_marseille","lat":43.286,"lon":5.38683,"is_reserved":false,"is_disabled":false,"rental_uris":{"android":"levelo://app?vid=1e2f0c80-2ce7-417a-ae75-e6a168f4d00d","ios":"levelo://app?vid=1e2f0c80-2ce7-417a-ae75-e6a168f4d00d"},"vehicle_type_id":"4","last_reported":1747529906,"current_range_meters":18000,"station_id":"","pricing_plan_id":"cebpf4jnsgd1na2vs0mg"},{"bike_id":"bf5ae813-579c-457c-8bf8-b874e79e5881","system_id":"levelo_inurba_marseille","lat":43.27044,"lon":5.40271,"is_reserved":false,"is_disabled":false,"rental_uris":{"android":"levelo://app?vid=bf5ae813-579c-457c-8bf8-b874e79e5881","ios":"levelo://app?vid=bf5ae813-579c-457c-8bf8-b874e79e5881"},"vehicle_type_id":"4","last_reported":1747529906,"current_range_meters":18000,"station_id":"ce4bhk92rcd13ifvqgc0","pricing_plan_id":"cebpf4jnsgd1na2vs0mg"},{"bike_id":"cf99a182-05bd-4cbc-b6a6-6a33541bdb08","system_id":"levelo_inurba_marseille","lat":43.25109,"lon":5.40314,"is_reserved":false,"is_disabled":false,"rental_uris":{"android":"levelo://app?vid=cf99a182-05bd-4cbc-b6a6-6a33541bdb08","ios":"levelo://app?vid=cf99a182-05bd-4cbc-b6a6-6a33541bdb08"},"vehicle_type_id":"4","last_reported":1747529906,"current_range_meters":18000,"station_id":"ce4bhlh2rcd13ifvqgig","pricing_plan_id":"cebpf4jnsgd1na2vs0mg"},{"bike_id":"26ae3f71-446b-4d48-9715-d0cb78472fbf","system_id":"levelo_inurba_marseille","lat":43.31158,"lon":5.37009,"is_reserved":false,"is_disabled":false,"rental_uris":{"android":"levelo://app?vid=26ae3f71-446b-4d48-9715-d0cb78472fbf","ios":"levelo://app?vid=26ae3f71-446b-4d48-9715-d0cb78472fbf"},"vehicle_type_id":"4","last_reported":1747529906,"current_range_meters":18800,"station_id":"","pricing_plan_id":"cebpf4jnsgd1na2vs0mg"},{"bike_id":"cec3f715-614f-4bf0-96bd-7080ba74ba99","system_id":"levelo_inurba_marseille","lat":43.31128,"lon":5.3776,"is_reserved":false,"is_disabled":false,"rental_uris":{"android":"levelo://app?vid=cec3f715-614f-4bf0-96bd-7080ba74ba99","ios":"levelo://app?vid=cec3f715-614f-4bf0-96bd-7080ba74ba99"},"vehicle_type_id":"4","last_reported":1747529906,"current_range_meters":18800,"station_id":"ce4bgt92rcd13ifvqcg0","pricing_plan_id":"cebpf4jnsgd1na2vs0mg"},{"bike_id":"42f7bc70-35f1-483d-91ad-5ba245ad6033","system_id":"levelo_inurba_marseille","lat":43.298,"lon":5.40403,"is_reserved":false,"is_disabled":false,"rental_uris":{"android":"levelo://app?vid=42f7bc70-35f1-483d-91ad-5ba245ad6033","ios":"levelo://app?vid=42f7bc70-35f1-483d-91ad-5ba245ad6033"},"vehicle_type_id":"4","last_reported":1747529906,"current_range_meters":18800,"station_id":"ce4bh112rcd13ifvqd90","pricing_plan_id":"cebpf4jnsgd1na2vs0mg"},{"bike_id":"a8085997-0af4-4667-a061-b271c4b9805c","system_id":"levelo_inurba_marseille","lat":43.29254,"lon":5.40905,"is_reserved":false,"is_disabled":false,"rental_uris":{"android":"levelo://app?vid=a8085997-0af4-4667-a061-b271c4b9805c","ios":"levelo://app?vid=a8085997-0af4-4667-a061-b271c4b9805c"},"vehicle_type_id":"4","last_reported":1747529906,"current_range_meters":18800,"station_id":"ce4bh192rcd13ifvqdc0","pricing_plan_id":"cebpf4jnsgd1na2vs0mg"},{"bike_id":"10c61589-e6eb-469d-8214-e4ff226596c8","system_id":"levelo_inurba_marseille","lat":43.2869,"lon":5.37393,"is_reserved":false,"is_disabled":false,"rental_uris":{"android":"levelo://app?vid=10c61589-e6eb-469d-8214-e4ff226596c8","ios":"levelo://app?vid=10c61589-e6eb-469d-8214-e4ff226596c8"},"vehicle_type_id":"4","last_reported":1747529906,"current_range_meters":18800,"station_id":"ce4bh3p2rcd13ifvqdq0","pricing_plan_id":"cebpf4jnsgd1na2vs0mg"},{"bike_id":"9b675469-68e4-4d63-a0fe-3351b274fa61","system_id":"levelo_inurba_marseille","lat":43.26566,"lon":5.39006,"is_reserved":false,"is_disabled":false,"rental_uris":{"android":"levelo://app?vid=9b675469-68e4-4d63-a0fe-3351b274fa61","ios":"levelo://app?vid=9b675469-68e4-4d63-a0fe-3351b274fa61"},"vehicle_type_id":"4","last_reported":1747529906,"current_range_meters":18800,"station_id":"ce4bhe12rcd13ifvqf30","pricing_plan_id":"cebpf4jnsgd1na2vs0mg"},{"bike_id":"1cb24b9f-a37d-4af6-9f87-a9aadd9d84ab","system_id":"levelo_inurba_marseille","lat":43.30354,"lon":5.41884,"is_reserved":false,"is_disabled":false,"rental_uris":{"android":"levelo://app?vid=1cb24b9f-a37d-4af6-9f87-a9aadd9d84ab","ios":"levelo://app?vid=1cb24b9f-a37d-4af6-9f87-a9aadd9d84ab"},"vehicle_type_id":"4","last_reported":1747529906,"current_range_meters":18800,"station_id":"ce4bhop2rcd13ifvqh7g","pricing_plan_id":"cebpf4jnsgd1na2vs0mg"},{"bike_id":"e02af135-527e-4f04-b463-540aa971dcbc","system_id":"levelo_inurba_marseille","lat":43.3093,"lon":5.40148,"is_reserved":false,"is_disabled":false,"rental_uris":{"android":"levelo://app?vid=e02af135-527e-4f04-b463-540aa971dcbc","ios":"levelo://app?vid=e02af135-527e-4f04-b463-540aa971dcbc"},"vehicle_type_id":"4","last_reported":1747529906,"current_range_meters":19200,"station_id":"ce4bgvp2rcd13ifvqct0","pricing_plan_id":"cebpf4jnsgd1na2vs0mg"},{"bike_id":"ebf9c3ce-9479-4c19-8a75-de779fc4a8aa","system_id":"levelo_inurba_marseille","lat":43.239653,"lon":5.366363,"is_reserved":false,"is_disabled":false,"rental_uris":{"android":"levelo://app?vid=ebf9c3ce-9479-4c19-8a75-de779fc4a8aa","ios":"levelo://app?vid=ebf9c3ce-9479-4c19-8a75-de779fc4a8aa"},"vehicle_type_id":"4","last_reported":1747529906,"current_range_meters":19200,"station_id":"ce4bhi12rcd13ifvqfp0","pricing_plan_id":"cebpf4jnsgd1na2vs0mg"},{"bike_id":"e380e188-a303-474b-b80b-a2c302d00fcc","system_id":"levelo_inurba_marseille","lat":43.29783,"lon":5.39349,"is_reserved":false,"is_disabled":false,"rental_uris":{"android":"levelo://app?vid=e380e188-a303-474b-b80b-a2c302d00fcc","ios":"levelo://app?vid=e380e188-a303-474b-b80b-a2c302d00fcc"},"vehicle_type_id":"4","last_reported":1747529906,"current_range_meters":19200,"station_id":"chh1huq6cuj3fo74tm60","pricing_plan_id":"cebpf4jnsgd1na2vs0mg"},{"bike_id":"6450735b-3d48-4b6f-93ec-dbcda2681c1c","system_id":"levelo_inurba_marseille","lat":43.28845,"lon":5.39308,"is_reserved":false,"is_disabled":false,"rental_uris":{"android":"levelo://app?vid=6450735b-3d48-4b6f-93ec-dbcda2681c1c","ios":"levelo://app?vid=6450735b-3d48-4b6f-93ec-dbcda2681c1c"},"vehicle_type_id":"4","last_reported":1747529906,"current_range_meters":19600,"station_id":"ce4bh2p2rcd13ifvqdi0","pricing_plan_id":"cebpf4jnsgd1na2vs0mg"},{"bike_id":"19a61da9-a97e-4007-8732-605f996b7778","system_id":"levelo_inurba_marseille","lat":43.283959,"lon":5.37524,"is_reserved":false,"is_disabled":false,"rental_uris":{"android":"levelo://app?vid=19a61da9-a97e-4007-8732-605f996b7778","ios":"levelo://app?vid=19a61da9-a97e-4007-8732-605f996b7778"},"vehicle_type_id":"4","last_reported":1747529906,"current_range_meters":19600,"station_id":"ce4bh512rcd13ifvqe2g","pricing_plan_id":"cebpf4jnsgd1na2vs0mg"},{"bike_id":"705d059e-e522-46d0-931e-4864d8928f53","system_id":"levelo_inurba_marseille","lat":43.27172,"lon":5.40993,"is_reserved":false,"is_disabled":false,"rental_uris":{"android":"levelo://app?vid=705d059e-e522-46d0-931e-4864d8928f53","ios":"levelo://app?vid=705d059e-e522-46d0-931e-4864d8928f53"},"vehicle_type_id":"4","last_reported":1747529906,"current_range_meters":19600,"station_id":"ce4bhl12rcd13ifvqgf0","pricing_plan_id":"cebpf4jnsgd1na2vs0mg"},{"bike_id":"3c607d26-d466-4111-9280-a2c2d0ec9d14","system_id":"levelo_inurba_marseille","lat":43.29553,"lon":5.42291,"is_reserved":false,"is_disabled":false,"rental_uris":{"android":"levelo://app?vid=3c607d26-d466-4111-9280-a2c2d0ec9d14","ios":"levelo://app?vid=3c607d26-d466-4111-9280-a2c2d0ec9d14"},"vehicle_type_id":"4","last_reported":1747529906,"current_range_meters":19600,"station_id":"ce4bhph2rcd13ifvqhdg","pricing_plan_id":"cebpf4jnsgd1na2vs0mg"},{"bike_id":"6693d09e-6ce0-4133-b75f-a7d085056fc2","system_id":"levelo_inurba_marseille","lat":43.28731,"lon":5.36077,"is_reserved":false,"is_disabled":false,"rental_uris":{"android":"levelo://app?vid=6693d09e-6ce0-4133-b75f-a7d085056fc2","ios":"levelo://app?vid=6693d09e-6ce0-4133-b75f-a7d085056fc2"},"vehicle_type_id":"4","last_reported":1747529906,"current_range_meters":19600,"station_id":"cki0cbj6b192h4jlfktg","pricing_plan_id":"cebpf4jnsgd1na2vs0mg"},{"bike_id":"b3594d0a-6267-4611-9097-5bb94a2ba24f","system_id":"levelo_inurba_marseille","lat":43.311375,"lon":5.37004,"is_reserved":false,"is_disabled":false,"rental_uris":{"android":"levelo://app?vid=b3594d0a-6267-4611-9097-5bb94a2ba24f","ios":"levelo://app?vid=b3594d0a-6267-4611-9097-5bb94a2ba24f"},"vehicle_type_id":"4","last_reported":1747529906,"current_range_meters":20000,"station_id":"","pricing_plan_id":"cebpf4jnsgd1na2vs0mg"},{"bike_id":"69557a2b-8909-4a37-9c6b-bf5bedfdcfd9","system_id":"levelo_inurba_marseille","lat":43.29493,"lon":5.38162,"is_reserved":false,"is_disabled":false,"rental_uris":{"android":"levelo://app?vid=69557a2b-8909-4a37-9c6b-bf5bedfdcfd9","ios":"levelo://app?vid=69557a2b-8909-4a37-9c6b-bf5bedfdcfd9"},"vehicle_type_id":"4","last_reported":1747529906,"current_range_meters":20000,"station_id":"","pricing_plan_id":"cebpf4jnsgd1na2vs0mg"},{"bike_id":"58bc1918-f5c8-4d0e-b24d-e43ec7eaaa81","system_id":"levelo_inurba_marseille","lat":43.30751,"lon":5.37667,"is_reserved":false,"is_disabled":false,"rental_uris":{"android":"levelo://app?vid=58bc1918-f5c8-4d0e-b24d-e43ec7eaaa81","ios":"levelo://app?vid=58bc1918-f5c8-4d0e-b24d-e43ec7eaaa81"},"vehicle_type_id":"4","last_reported":1747529906,"current_range_meters":20000,"station_id":"ce4bgv92rcd13ifvqcq0","pricing_plan_id":"cebpf4jnsgd1na2vs0mg"},{"bike_id":"7e776d8b-a483-44cf-9f77-d16941600e6a","system_id":"levelo_inurba_marseille","lat":43.30421,"lon":5.397443,"is_reserved":false,"is_disabled":false,"rental_uris":{"android":"levelo://app?vid=7e776d8b-a483-44cf-9f77-d16941600e6a","ios":"levelo://app?vid=7e776d8b-a483-44cf-9f77-d16941600e6a"},"vehicle_type_id":"4","last_reported":1747529906,"current_range_meters":20000,"station_id":"ce4bh092rcd13ifvqd20","pricing_plan_id":"cebpf4jnsgd1na2vs0mg"},{"bike_id":"734a580c-9739-42f9-9439-74025ffd9d7f","system_id":"levelo_inurba_marseille","lat":43.30125,"lon":5.3987,"is_reserved":false,"is_disabled":false,"rental_uris":{"android":"levelo://app?vid=734a580c-9739-42f9-9439-74025ffd9d7f","ios":"levelo://app?vid=734a580c-9739-42f9-9439-74025ffd9d7f"},"vehicle_type_id":"4","last_reported":1747529906,"current_range_meters":20000,"station_id":"ce4bh0h2rcd13ifvqd40","pricing_plan_id":"cebpf4jnsgd1na2vs0mg"},{"bike_id":"f9321d35-bb41-4a9b-8646-b69084b6891e","system_id":"levelo_inurba_marseille","lat":43.29631,"lon":5.40608,"is_reserved":false,"is_disabled":false,"rental_uris":{"android":"levelo://app?vid=f9321d35-bb41-4a9b-8646-b69084b6891e","ios":"levelo://app?vid=f9321d35-bb41-4a9b-8646-b69084b6891e"},"vehicle_type_id":"4","last_reported":1747529906,"current_range_meters":20000,"station_id":"ce4bh0h2rcd13ifvqd60","pricing_plan_id":"cebpf4jnsgd1na2vs0mg"},{"bike_id":"7a94e7c9-9345-481d-9142-7378cbdb1cdf","system_id":"levelo_inurba_marseille","lat":43.29539,"lon":5.39402,"is_reserved":false,"is_disabled":false,"rental_uris":{"android":"levelo://app?vid=7a94e7c9-9345-481d-9142-7378cbdb1cdf","ios":"levelo://app?vid=7a94e7c9-9345-481d-9142-7378cbdb1cdf"},"vehicle_type_id":"4","last_reported":1747529906,"current_range_meters":20000,"station_id":"ce4bh292rcd13ifvqdf0","pricing_plan_id":"cebpf4jnsgd1na2vs0mg"},{"bike_id":"11595ed8-8a87-4135-bacb-4f28f6f3f7c3","system_id":"levelo_inurba_marseille","lat":43.284598,"lon":5.358958,"is_reserved":false,"is_disabled":false,"rental_uris":{"android":"levelo://app?vid=11595ed8-8a87-4135-bacb-4f28f6f3f7c3","ios":"levelo://app?vid=11595ed8-8a87-4135-bacb-4f28f6f3f7c3"},"vehicle_type_id":"4","last_reported":1747529906,"current_range_meters":20000,"station_id":"ce4bhah2rcd13ifvqei0","pricing_plan_id":"cebpf4jnsgd1na2vs0mg"},{"bike_id":"188c0480-8788-40d0-af36-4aa2d4838ea7","system_id":"levelo_inurba_marseille","lat":43.26554,"lon":5.39034,"is_reserved":false,"is_disabled":false,"rental_uris":{"android":"levelo://app?vid=188c0480-8788-40d0-af36-4aa2d4838ea7","ios":"levelo://app?vid=188c0480-8788-40d0-af36-4aa2d4838ea7"},"vehicle_type_id":"4","last_reported":1747529906,"current_range_meters":20000,"station_id":"ce4bhe12rcd13ifvqf30","pricing_plan_id":"cebpf4jnsgd1na2vs0mg"},{"bike_id":"566adc86-6127-44ab-8e50-1918798c55f9","system_id":"levelo_inurba_marseille","lat":43.24676,"lon":5.38171,"is_reserved":false,"is_disabled":false,"rental_uris":{"android":"levelo://app?vid=566adc86-6127-44ab-8e50-1918798c55f9","ios":"levelo://app?vid=566adc86-6127-44ab-8e50-1918798c55f9"},"vehicle_type_id":"4","last_reported":1747529906,"current_range_meters":20000,"station_id":"ce4bhih2rcd13ifvqfr0","pricing_plan_id":"cebpf4jnsgd1na2vs0mg"},{"bike_id":"ab717c00-35ed-4fda-8613-66e36eeaf35d","system_id":"levelo_inurba_marseille","lat":43.29552,"lon":5.422918,"is_reserved":false,"is_disabled":false,"rental_uris":{"android":"levelo://app?vid=ab717c00-35ed-4fda-8613-66e36eeaf35d","ios":"levelo://app?vid=ab717c00-35ed-4fda-8613-66e36eeaf35d"},"vehicle_type_id":"4","last_reported":1747529906,"current_range_meters":20000,"station_id":"ce4bhph2rcd13ifvqhdg","pricing_plan_id":"cebpf4jnsgd1na2vs0mg"},{"bike_id":"0df27879-b9ab-4c1d-86ff-031abc232570","system_id":"levelo_inurba_marseille","lat":43.287051,"lon":5.373956,"is_reserved":false,"is_disabled":false,"rental_uris":{"android":"levelo://app?vid=0df27879-b9ab-4c1d-86ff-031abc232570","ios":"levelo://app?vid=0df27879-b9ab-4c1d-86ff-031abc232570"},"vehicle_type_id":"4","last_reported":1747529906,"current_range_meters":20400,"station_id":"ce4bh3p2rcd13ifvqdq0","pricing_plan_id":"cebpf4jnsgd1na2vs0mg"},{"bike_id":"94839884-9b77-42c7-8a79-2eae096ce7f4","system_id":"levelo_inurba_marseille","lat":43.2649,"lon":5.39541,"is_reserved":false,"is_disabled":false,"rental_uris":{"android":"levelo://app?vid=94839884-9b77-42c7-8a79-2eae096ce7f4","ios":"levelo://app?vid=94839884-9b77-42c7-8a79-2eae096ce7f4"},"vehicle_type_id":"4","last_reported":1747529906,"current_range_meters":20400,"station_id":"ce4bhi12rcd13ifvqfq0","pricing_plan_id":"cebpf4jnsgd1na2vs0mg"},{"bike_id":"2d8e7071-6ffa-4dc6-8402-96d258f1bb66","system_id":"levelo_inurba_marseille","lat":43.25721,"lon":5.41117,"is_reserved":false,"is_disabled":false,"rental_uris":{"android":"levelo://app?vid=2d8e7071-6ffa-4dc6-8402-96d258f1bb66","ios":"levelo://app?vid=2d8e7071-6ffa-4dc6-8402-96d258f1bb66"},"vehicle_type_id":"4","last_reported":1747529906,"current_range_meters":20400,"station_id":"ce4bhkp2rcd13ifvqgd0","pricing_plan_id":"cebpf4jnsgd1na2vs0mg"},{"bike_id":"e3f5446b-bb98-46a9-a0f3-9de5ac9cbfe8","system_id":"levelo_inurba_marseille","lat":43.26232,"lon":5.40457,"is_reserved":false,"is_disabled":false,"rental_uris":{"android":"levelo://app?vid=e3f5446b-bb98-46a9-a0f3-9de5ac9cbfe8","ios":"levelo://app?vid=e3f5446b-bb98-46a9-a0f3-9de5ac9cbfe8"},"vehicle_type_id":"4","last_reported":1747529906,"current_range_meters":20400,"station_id":"ce4bhmh2rcd13ifvqgmg","pricing_plan_id":"cebpf4jnsgd1na2vs0mg"},{"bike_id":"5d140f7b-8225-4b01-9103-f17b88333a52","system_id":"levelo_inurba_marseille","lat":43.2847,"lon":5.3856,"is_reserved":false,"is_disabled":false,"rental_uris":{"android":"levelo://app?vid=5d140f7b-8225-4b01-9103-f17b88333a52","ios":"levelo://app?vid=5d140f7b-8225-4b01-9103-f17b88333a52"},"vehicle_type_id":"4","last_reported":1747529906,"current_range_meters":20800,"station_id":"ce4bh8p2rcd13ifvqeb0","pricing_plan_id":"cebpf4jnsgd1na2vs0mg"},{"bike_id":"7c64d0bf-e0eb-4c30-8e02-571c500b473c","system_id":"levelo_inurba_marseille","lat":43.30131,"lon":5.39861,"is_reserved":false,"is_disabled":false,"rental_uris":{"android":"levelo://app?vid=7c64d0bf-e0eb-4c30-8e02-571c500b473c","ios":"levelo://app?vid=7c64d0bf-e0eb-4c30-8e02-571c500b473c"},"vehicle_type_id":"4","last_reported":1747529906,"current_range_meters":21600,"station_id":"ce4bh0h2rcd13ifvqd40","pricing_plan_id":"cebpf4jnsgd1na2vs0mg"},{"bike_id":"39904e6d-7769-41af-997b-f038992df78f","system_id":"levelo_inurba_marseille","lat":43.29247,"lon":5.40914,"is_reserved":false,"is_disabled":false,"rental_uris":{"android":"levelo://app?vid=39904e6d-7769-41af-997b-f038992df78f","ios":"levelo://app?vid=39904e6d-7769-41af-997b-f038992df78f"},"vehicle_type_id":"4","last_reported":1747529906,"current_range_meters":21600,"station_id":"ce4bh192rcd13ifvqdc0","pricing_plan_id":"cebpf4jnsgd1na2vs0mg"},{"bike_id":"3041cd5e-fc09-4e0a-b51a-14bc0455bed0","system_id":"levelo_inurba_marseille","lat":43.28566,"lon":5.39511,"is_reserved":false,"is_disabled":false,"rental_uris":{"android":"levelo://app?vid=3041cd5e-fc09-4e0a-b51a-14bc0455bed0","ios":"levelo://app?vid=3041cd5e-fc09-4e0a-b51a-14bc0455bed0"},"vehicle_type_id":"4","last_reported":1747529906,"current_range_meters":21600,"station_id":"ce4bh292rcd13ifvqdg0","pricing_plan_id":"cebpf4jnsgd1na2vs0mg"},{"bike_id":"3c4a05b5-a6cd-43dc-af15-6fed23eab376","system_id":"levelo_inurba_marseille","lat":43.24661,"lon":5.38164,"is_reserved":false,"is_disabled":false,"rental_uris":{"android":"levelo://app?vid=3c4a05b5-a6cd-43dc-af15-6fed23eab376","ios":"levelo://app?vid=3c4a05b5-a6cd-43dc-af15-6fed23eab376"},"vehicle_type_id":"4","last_reported":1747529906,"current_range_meters":21600,"station_id":"ce4bhih2rcd13ifvqfr0","pricing_plan_id":"cebpf4jnsgd1na2vs0mg"},{"bike_id":"d40067b5-13cd-4bf1-a4e8-8af31baa5cea","system_id":"levelo_inurba_marseille","lat":43.2818,"lon":5.39038,"is_reserved":false,"is_disabled":false,"rental_uris":{"android":"levelo://app?vid=d40067b5-13cd-4bf1-a4e8-8af31baa5cea","ios":"levelo://app?vid=d40067b5-13cd-4bf1-a4e8-8af31baa5cea"},"vehicle_type_id":"4","last_reported":1747529906,"current_range_meters":22000,"station_id":"","pricing_plan_id":"cebpf4jnsgd1na2vs0mg"},{"bike_id":"67f72f62-eb9d-4994-bbcf-c10b28dd838c","system_id":"levelo_inurba_marseille","lat":43.29306,"lon":5.3716,"is_reserved":false,"is_disabled":false,"rental_uris":{"android":"levelo://app?vid=67f72f62-eb9d-4994-bbcf-c10b28dd838c","ios":"levelo://app?vid=67f72f62-eb9d-4994-bbcf-c10b28dd838c"},"vehicle_type_id":"4","last_reported":1747529906,"current_range_meters":22000,"station_id":"ce4bgh92rcd13ifvqb40","pricing_plan_id":"cebpf4jnsgd1na2vs0mg"},{"bike_id":"f5add0ca-3e2f-4c5f-9917-84435c06a472","system_id":"levelo_inurba_marseille","lat":43.30445,"lon":5.38908,"is_reserved":false,"is_disabled":false,"rental_uris":{"android":"levelo://app?vid=f5add0ca-3e2f-4c5f-9917-84435c06a472","ios":"levelo://app?vid=f5add0ca-3e2f-4c5f-9917-84435c06a472"},"vehicle_type_id":"4","last_reported":1747529906,"current_range_meters":22000,"station_id":"ce4bgk12rcd13ifvqbi0","pricing_plan_id":"cebpf4jnsgd1na2vs0mg"},{"bike_id":"a52431d0-61fa-4bec-98db-a950a2301f49","system_id":"levelo_inurba_marseille","lat":43.30334,"lon":5.40444,"is_reserved":false,"is_disabled":false,"rental_uris":{"android":"levelo://app?vid=a52431d0-61fa-4bec-98db-a950a2301f49","ios":"levelo://app?vid=a52431d0-61fa-4bec-98db-a950a2301f49"},"vehicle_type_id":"4","last_reported":1747529906,"current_range_meters":22000,"station_id":"ce4bh012rcd13ifvqd10","pricing_plan_id":"cebpf4jnsgd1na2vs0mg"},{"bike_id":"8f58dfb2-e698-4228-804c-aa5894fdd553","system_id":"levelo_inurba_marseille","lat":43.24551,"lon":5.39551,"is_reserved":false,"is_disabled":false,"rental_uris":{"android":"levelo://app?vid=8f58dfb2-e698-4228-804c-aa5894fdd553","ios":"levelo://app?vid=8f58dfb2-e698-4228-804c-aa5894fdd553"},"vehicle_type_id":"4","last_reported":1747529906,"current_range_meters":22000,"station_id":"ce4bhlp2rcd13ifvqgjg","pricing_plan_id":"cebpf4jnsgd1na2vs0mg"},{"bike_id":"f4247170-e5be-4f06-82e6-d1c345cdf713","system_id":"levelo_inurba_marseille","lat":43.30259,"lon":5.40082,"is_reserved":false,"is_disabled":false,"rental_uris":{"android":"levelo://app?vid=f4247170-e5be-4f06-82e6-d1c345cdf713","ios":"levelo://app?vid=f4247170-e5be-4f06-82e6-d1c345cdf713"},"vehicle_type_id":"4","last_reported":1747529906,"current_range_meters":22400,"station_id":"ce4bgvh2rcd13ifvqcs0","pricing_plan_id":"cebpf4jnsgd1na2vs0mg"},{"bike_id":"f9226e90-3468-4f20-8b28-b98e8a356545","system_id":"levelo_inurba_marseille","lat":43.30325,"lon":5.40447,"is_reserved":false,"is_disabled":false,"rental_uris":{"android":"levelo://app?vid=f9226e90-3468-4f20-8b28-b98e8a356545","ios":"levelo://app?vid=f9226e90-3468-4f20-8b28-b98e8a356545"},