{"last_updated":1727953606,"ttl":60,"version":"2.2","data":{"bikes":[{"bike_id":"8769409d-10b6-4e8f-8d36-2f29881d4ee3","system_id":"levelo_inurba_marseille","lat":43.28846,"lon":5.35872,"is_reserved":false,"is_disabled":false,"rental_uris":{"android":"levelo://app?vid=8769409d-10b6-4e8f-8d36-2f29881d4ee3","ios":"levelo://app?vid=8769409d-10b6-4e8f-8d36-2f29881d4ee3"},"vehicle_type_id":"4","last_reported":1727953606,"current_range_meters":22400,"station_id":"ce4bhb12rcd13ifvqem0","pricing_plan_id":"cebpf4jnsgd1na2vs0mg"},{"bike_id":"8bc0aa01-1d61-49ab-973d-784704f64634","system_id":"levelo_inurba_marseille","lat":43.29941,"lon":5.36543,"is_reserved":false,"is_disabled":false,"rental_uris":{"android":"levelo://app?vid=8bc0aa01-1d61-49ab-973d-784704f64634","ios":"levelo://app?vid=8bc0aa01-1d61-49ab-973d-784704f64634"},"vehicle_type_id":"4","last_reported":1727953606,"current_range_meters":38800,"station_id":"ce4bgm92rcd13ifvqbr0","pricing_plan_id":"cebpf4jnsgd1na2vs0mg"},{"bike_id":"06e17c36-47d6-465d-b5f7-ae0e5b29f94d","system_id":"levelo_inurba_marseille","lat":43.28038,"lon":5.36945,"is_reserved":false,"is_disabled":false,"rental_uris":{"android":"levelo://app?vid=06e17c36-47d6-465d-b5f7-ae0e5b29f94d","ios":"levelo://app?vid=06e17c36-47d6-465d-b5f7-ae0e5b29f94d"},"vehicle_type_id":"4","last_reported":1727953606,"current_range_meters":6400,"station_id":"ce4bha12rcd13ifvqef0","pricing_plan_id":"cebpf4jnsgd1na2vs0mg"},{"bike_id":"a834c68a-6b11-4784-9755-0728191cad9f","system_id":"levelo_inurba_marseille","lat":43.23144,"lon":5.43713,"is_reserved":false,"is_disabled":false,"rental_uris":{"android":"levelo://app?vid=a834c68a-6b11-4784-9755-0728191cad9f","ios":"levelo://app?vid=a834c68a-6b11-4784-9755-0728191cad9f"},"vehicle_type_id":"4","last_reported":1727953606,"current_range_meters":36800,"station_id":"ce4bhmp2rcd13ifvqgog","pricing_plan_id":"cebpf4jnsgd1na2vs0mg"},{"bike_id":"8865a3ff-bbf9-4d88-9a8b-b1e2d5eef127","system_id":"levelo_inurba_marseille","lat":43.32372,"lon":5.38882,"is_reserved":false,"is_disabled":false,"rental_uris":{"android":"levelo://app?vid=8865a3ff-bbf9-4d88-9a8b-b1e2d5eef127","ios":"levelo://app?vid=8865a3ff-bbf9-4d88-9a8b-b1e2d5eef127"},"vehicle_type_id":"4","last_reported":1727953606,"current_range_meters":23200,"station_id":"ce4bhqp2rcd13ifvqhog","pricing_plan_id":"cebpf4jnsgd1na2vs0mg"},{"bike_id":"c1fb7592-445d-40cd-acc7-ce9b15aafdf4","system_id":"levelo_inurba_marseille","lat":43.27072,"lon":5.4228,"is_reserved":false,"is_disabled":false,"rental_uris":{"android":"levelo://app?vid=c1fb7592-445d-40cd-acc7-ce9b15aafdf4","ios":"levelo://app?vid=c1fb7592-445d-40cd-acc7-ce9b15aafdf4"},"vehicle_type_id":"4","last_reported":1727953606,"current_range_meters":20400,"station_id":"ce4bhk92rcd13ifvqgb0","pricing_plan_id":"cebpf4jnsgd1na2vs0mg"},{"bike_id":"576fcdbf-b9d7-4a33-8a32-2a82b570cb1a","system_id":"levelo_inurba_marseille","lat":43.29787,"lon":5.39335,"is_reserved":false,"is_disabled":false,"rental_uris":{"android":"levelo://app?vid=576fcdbf-b9d7-4a33-8a32-2a82b570cb1a","ios":"levelo://app?vid=576fcdbf-b9d7-4a33-8a32-2a82b570cb1a"},"vehicle_type_id":"4","last_reported":1727953606,"current_range_meters":11200,"station_id":"chh1huq6cuj3fo74tm60","pricing_plan_id":"cebpf4jnsgd1na2vs0mg"},{"bike_id":"d73772b5-d9cb-413f-80ef-df4ee9369cea","system_id":"levelo_inurba_marseille","lat":43.30144,"lon":5.38091,"is_reserved":false,"is_disabled":false,"rental_uris":{"android":"levelo://app?vid=d73772b5-d9cb-413f-80ef-df4ee9369cea","ios":"levelo://app?vid=d73772b5-d9cb-413f-80ef-df4ee9369cea"},"vehicle_type_id":"4","last_reported":1727953606,"current_range_meters":37600,"station_id":"ce4bgjp2rcd13ifvqbh0","pricing_plan_id":"cebpf4jnsgd1na2vs0mg"},{"bike_id":"dfa316ed-31fe-4eb7-ae98-3312a562d760","system_id":"levelo_inurba_marseille","lat":43.27188,"lon":5.40989,"is_reserved":false,"is_disabled":false,"rental_uris":{"android":"levelo://app?vid=dfa316ed-31fe-4eb7-ae98-3312a562d760","ios":"levelo://app?vid=dfa316ed-31fe-4eb7-ae98-3312a562d760"},"vehicle_type_id":"4","last_reported":1727953606,"current_range_meters":36000,"station_id":"ce4bhl12rcd13ifvqgf0","pricing_plan_id":"cebpf4jnsgd1na2vs0mg"},{"bike_id":"df4ec099-b188-48ab-96c7-11a1ce7c7011","system_id":"levelo_inurba_marseille","lat":43.246487,"lon":5.389117,"is_reserved":false,"is_disabled":false,"rental_uris":{"android":"levelo://app?vid=df4ec099-b188-48ab-96c7-11a1ce7c7011","ios":"levelo://app?vid=df4ec099-b188-48ab-96c7-11a1ce7c7011"},"vehicle_type_id":"4","last_reported":1727953606,"current_range_meters":9600,"station_id":"ce4bhg12rcd13ifvqf60","pricing_plan_id":"cebpf4jnsgd1na2vs0mg"},{"bike_id":"1fdd009b-cf6f-4659-9993-112be1a2442e","system_id":"levelo_inurba_marseille","lat":43.24166,"lon":5.36401,"is_reserved":false,"is_disabled":false,"rental_uris":{"android":"levelo://app?vid=1fdd009b-cf6f-4659-9993-112be1a2442e","ios":"levelo://app?vid=1fdd009b-cf6f-4659-9993-112be1a2442e"},"vehicle_type_id":"4","last_reported":1727953606,"current_range_meters":25600,"station_id":"cpo36qri1sfpv3e86is0","pricing_plan_id":"cebpf4jnsgd1na2vs0mg"},{"bike_id":"b97a9468-8fb3-49af-8867-c4aa359ad523","system_id":"levelo_inurba_marseille","lat":43.30592,"lon":5.39362,"is_reserved":false,"is_disabled":false,"rental_uris":{"android":"levelo://app?vid=b97a9468-8fb3-49af-8867-c4aa359ad523","ios":"levelo://app?vid=b97a9468-8fb3-49af-8867-c4aa359ad523"},"vehicle_type_id":"4","last_reported":1727953606,"current_range_meters":26800,"station_id":"ce4bh0p2rcd13ifvqd80","pricing_plan_id":"cebpf4jnsgd1na2vs0mg"},{"bike_id":"55284b84-83c5-4b2c-928e-9a74cd123c12","system_id":"levelo_inurba_marseille","lat":43.28082,"lon":5.39662,"is_reserved":false,"is_disabled":false,"rental_uris":{"android":"levelo://app?vid=55284b84-83c5-4b2c-928e-9a74cd123c12","ios":"levelo://app?vid=55284b84-83c5-4b2c-928e-9a74cd123c12"},"vehicle_type_id":"4","last_reported":1727953606,"current_range_meters":28800,"station_id":"ce4bho12rcd13ifvqh2g","pricing_plan_id":"cebpf4jnsgd1na2vs0mg"},{"bike_id":"91dd8c22-d1e9-4d71-ae55-5dd7e65d7d5a","system_id":"levelo_inurba_marseille","lat":43.23147,"lon":5.43705,"is_reserved":false,"is_disabled":false,"rental_uris":{"android":"levelo://app?vid=91dd8c22-d1e9-4d71-ae55-5dd7e65d7d5a","ios":"levelo://app?vid=91dd8c22-d1e9-4d71-ae55-5dd7e65d7d5a"},"vehicle_type_id":"4","last_reported":1727953606,"current_range_meters":19600,"station_id":"ce4bhmp2rcd13ifvqgog","pricing_plan_id":"cebpf4jnsgd1na2vs0mg"},{"bike_id":"ff89b7e6-8dbb-4502-ae6b-954b46feae02","system_id":"levelo_inurba_marseille","lat":43.25005,"lon":5.38914,"is_reserved":false,"is_disabled":false,"rental_uris":{"android":"levelo://app?vid=ff89b7e6-8dbb-4502-ae6b-954b46feae02","ios":"levelo://app?vid=ff89b7e6-8dbb-4502-ae6b-954b46feae02"},"vehicle_type_id":"4","last_reported":1727953606,"current_range_meters":37600,"station_id":"ce4bhgp2rcd13ifvqfd0","pricing_plan_id":"cebpf4jnsgd1na2vs0mg"},{"bike_id":"bc41810d-3fc6-4e9c-bcc1-3b1d7bce3ce2","system_id":"levelo_inurba_marseille","lat":43.23183,"lon":5.39985,"is_reserved":false,"is_disabled":false,"rental_uris":{"android":"levelo://app?vid=bc41810d-3fc6-4e9c-bcc1-3b1d7bce3ce2","ios":"levelo://app?vid=bc41810d-3fc6-4e9c-bcc1-3b1d7bce3ce2"},"vehicle_type_id":"4","last_reported":1727953606,"current_range_meters":24800,"station_id":"ce4bhn12rcd13ifvqgqg","pricing_plan_id":"cebpf4jnsgd1na2vs0mg"},{"bike_id":"5be27cfd-2f51-431f-abf2-51279afe0380","system_id":"levelo_inurba_marseille","lat":43.305506,"lon":5.365541,"is_reserved":false,"is_disabled":false,"rental_uris":{"android":"levelo://app?vid=5be27cfd-2f51-431f-abf2-51279afe0380","ios":"levelo://app?vid=5be27cfd-2f51-431f-abf2-51279afe0380"},"vehicle_type_id":"4","last_reported":1727953606,"current_range_meters":22800,"station_id":"ce4bgs12rcd13ifvqcag","pricing_plan_id":"cebpf4jnsgd1na2vs0mg"},{"bike_id":"4b6721b8-1a28-4ce5-a9fa-1b893f7f0ac0","system_id":"levelo_inurba_marseille","lat":43.32485,"lon":5.36549,"is_reserved":false,"is_disabled":false,"rental_uris":{"android":"levelo://app?vid=4b6721b8-1a28-4ce5-a9fa-1b893f7f0ac0","ios":"levelo://app?vid=4b6721b8-1a28-4ce5-a9fa-1b893f7f0ac0"},"vehicle_type_id":"4","last_reported":1727953606,"current_range_meters":39200,"station_id":"ce4bhs12rcd13ifvqhvg","pricing_plan_id":"cebpf4jnsgd1na2vs0mg"},{"bike_id":"ee78a534-94a4-4683-833d-7487cf689360","system_id":"levelo_inurba_marseille","lat":43.30595,"lon":5.39356,"is_reserved":false,"is_disabled":false,"rental_uris":{"android":"levelo://app?vid=ee78a534-94a4-4683-833d-7487cf689360","ios":"levelo://app?vid=ee78a534-94a4-4683-833d-7487cf689360"},"vehicle_type_id":"4","last_reported":1727953606,"current_range_meters":37600,"station_id":"ce4bh0p2rcd13ifvqd80","pricing_plan_id":"cebpf4jnsgd1na2vs0mg"},{"bike_id":"2fe71f7f-b8d0-4c8f-942d-27483b73dfc4","system_id":"levelo_inurba_marseille","lat":43.28725,"lon":5.37934,"is_reserved":false,"is_disabled":false,"rental_uris":{"android":"levelo://app?vid=2fe71f7f-b8d0-4c8f-942d-27483b73dfc4","ios":"levelo://app?vid=2fe71f7f-b8d0-4c8f-942d-27483b73dfc4"},"vehicle_type_id":"4","last_reported":1727953606,"current_range_meters":38000,"station_id":"ce4bh9p2rcd13ifvqec0","pricing_plan_id":"cebpf4jnsgd1na2vs0mg"},{"bike_id":"65be8cf9-f9e3-43d4-8c05-ca463c223a35","system_id":"levelo_inurba_marseille","lat":43.305084,"lon":5.391123,"is_reserved":false,"is_disabled":false,"rental_uris":{"android":"levelo://app?vid=65be8cf9-f9e3-43d4-8c05-ca463c223a35","ios":"levelo://app?vid=65be8cf9-f9e3-43d4-8c05-ca463c223a35"},"vehicle_type_id":"4","last_reported":1727953606,"current_range_meters":35600,"station_id":"ce4bh092rcd13ifvqd30","pricing_plan_id":"cebpf4jnsgd1na2vs0mg"},{"bike_id":"0a9918d7-41e5-40b7-a2f3-9509ab8baede","system_id":"levelo_inurba_marseille","lat":43.28342,"lon":5.41277,"is_reserved":false,"is_disabled":false,"rental_uris":{"android":"levelo://app?vid=0a9918d7-41e5-40b7-a2f3-9509ab8baede","ios":"levelo://app?vid=0a9918d7-41e5-40b7-a2f3-9509ab8baede"},"vehicle_type_id":"4","last_reported":1727953606,"current_range_meters":18800,"station_id":"","pricing_plan_id":"cebpf4jnsgd1na2vs0mg"},{"bike_id":"fd802ec6-87e9-40f7-8a8b-86140cac3ad3","system_id":"levelo_inurba_marseille","lat":43.29586,"lon":5.36739,"is_reserved":false,"is_disabled":false,"rental_uris":{"android":"levelo://app?vid=fd802ec6-87e9-40f7-8a8b-86140cac3ad3","ios":"levelo://app?vid=fd802ec6-87e9-40f7-8a8b-86140cac3ad3"},"vehicle_type_id":"4","last_reported":1727953606,"current_range_meters":38800,"station_id":"ce4bgph2rcd13ifvqc2g","pricing_plan_id":"cebpf4jnsgd1na2vs0mg"},{"bike_id":"16a714d4-56a8-49e7-92a3-debf531ddf74","system_id":"levelo_inurba_marseille","lat":43.24182,"lon":5.39731,"is_reserved":false,"is_disabled":false,"rental_uris":{"android":"levelo://app?vid=16a714d4-56a8-49e7-92a3-debf531ddf74","ios":"levelo://app?vid=16a714d4-56a8-49e7-92a3-debf531ddf74"},"vehicle_type_id":"4","last_reported":1727953606,"current_range_meters":24800,"station_id":"ce4bhn12rcd13ifvqgpg","pricing_plan_id":"cebpf4jnsgd1na2vs0mg"},{"bike_id":"c86382ac-a52c-44c4-ae21-a21b0f63f107","system_id":"levelo_inurba_marseille","lat":43.29245,"lon":5.40903,"is_reserved":false,"is_disabled":false,"rental_uris":{"android":"levelo://app?vid=c86382ac-a52c-44c4-ae21-a21b0f63f107","ios":"levelo://app?vid=c86382ac-a52c-44c4-ae21-a21b0f63f107"},"vehicle_type_id":"4","last_reported":1727953606,"current_range_meters":20800,"station_id":"ce4bh192rcd13ifvqdc0","pricing_plan_id":"cebpf4jnsgd1na2vs0mg"},{"bike_id":"0b6cd543-60a7-47b1-b002-d5c034bfce5f","system_id":"levelo_inurba_marseille","lat":43.30141,"lon":5.37408,"is_reserved":false,"is_disabled":false,"rental_uris":{"android":"levelo://app?vid=0b6cd543-60a7-47b1-b002-d5c034bfce5f","ios":"levelo://app?vid=0b6cd543-60a7-47b1-b002-d5c034bfce5f"},"vehicle_type_id":"4","last_reported":1727953606,"current_range_meters":27600,"station_id":"ce4bgs92rcd13ifvqcc0","pricing_plan_id":"cebpf4jnsgd1na2vs0mg"},{"bike_id":"3ca71755-e7ba-423c-8a1e-bfd74e250abe","system_id":"levelo_inurba_marseille","lat":43.29032,"lon":5.38648,"is_reserved":false,"is_disabled":false,"rental_uris":{"android":"levelo://app?vid=3ca71755-e7ba-423c-8a1e-bfd74e250abe","ios":"levelo://app?vid=3ca71755-e7ba-423c-8a1e-bfd74e250abe"},"vehicle_type_id":"4","last_reported":1727953606,"current_range_meters":4800,"station_id":"ce4bh4p2rcd13ifvqe0g","pricing_plan_id":"cebpf4jnsgd1na2vs0mg"},{"bike_id":"765473fe-269b-4965-aa55-0d454f784a96","system_id":"levelo_inurba_marseille","lat":43.3302,"lon":5.39049,"is_reserved":false,"is_disabled":false,"rental_uris":{"android":"levelo://app?vid=765473fe-269b-4965-aa55-0d454f784a96","ios":"levelo://app?vid=765473fe-269b-4965-aa55-0d454f784a96"},"vehicle_type_id":"4","last_reported":1727953606,"current_range_meters":38800,"station_id":"ce4bhr92rcd13ifvqhrg","pricing_plan_id":"cebpf4jnsgd1na2vs0mg"},{"bike_id":"5da03882-647a-472a-9cf5-54a412236445","system_id":"levelo_inurba_marseille","lat":43.30599,"lon":5.39358,"is_reserved":false,"is_disabled":false,"rental_uris":{"android":"levelo://app?vid=5da03882-647a-472a-9cf5-54a412236445","ios":"levelo://app?vid=5da03882-647a-472a-9cf5-54a412236445"},"vehicle_type_id":"4","last_reported":1727953606,"current_range_meters":28000,"station_id":"ce4bh0p2rcd13ifvqd80","pricing_plan_id":"cebpf4jnsgd1na2vs0mg"},{"bike_id":"7e779a18-a7ac-4578-b0bd-23ed1c02289a","system_id":"levelo_inurba_marseille","lat":43.29087,"lon":5.38155,"is_reserved":false,"is_disabled":false,"rental_uris":{"android":"levelo://app?vid=7e779a18-a7ac-4578-b0bd-23ed1c02289a","ios":"levelo://app?vid=7e779a18-a7ac-4578-b0bd-23ed1c02289a"},"vehicle_type_id":"4","last_reported":1727953606,"current_range_meters":12400,"station_id":"ce4bh512rcd13ifvqe2g","pricing_plan_id":"cebpf4jnsgd1na2vs0mg"},{"bike_id":"59d55614-009a-47b9-92c7-eaf553547a3e","system_id":"levelo_inurba_marseille","lat":43.29032,"lon":5.37549,"is_reserved":false,"is_disabled":false,"rental_uris":{"android":"levelo://app?vid=59d55614-009a-47b9-92c7-eaf553547a3e","ios":"levelo://app?vid=59d55614-009a-47b9-92c7-eaf553547a3e"},"vehicle_type_id":"4","last_reported":1727953606,"current_range_meters":2000,"station_id":"ce4bh692rcd13ifvqe90","pricing_plan_id":"cebpf4jnsgd1na2vs0mg"},{"bike_id":"0d85dad1-cd4b-43e6-bec7-f20cb70cbe4f","system_id":"levelo_inurba_marseille","lat":43.25583,"lon":5.38224,"is_reserved":false,"is_disabled":false,"rental_uris":{"android":"levelo://app?vid=0d85dad1-cd4b-43e6-bec7-f20cb70cbe4f","ios":"levelo://app?vid=0d85dad1-cd4b-43e6-bec7-f20cb70cbe4f"},"vehicle_type_id":"4","last_reported":1727953606,"current_range_meters":22000,"station_id":"ce4bhih2rcd13ifvqfs0","pricing_plan_id":"cebpf4jnsgd1na2vs0mg"},{"bike_id":"97c413f0-0499-425d-bfab-2f45162826bf","system_id":"levelo_inurba_marseille","lat":43.25488,"lon":5.37645,"is_reserved":false,"is_disabled":false,"rental_uris":{"android":"levelo://app?vid=97c413f0-0499-425d-bfab-2f45162826bf","ios":"levelo://app?vid=97c413f0-0499-425d-bfab-2f45162826bf"},"vehicle_type_id":"4","last_reported":1727953606,"current_range_meters":36400,"station_id":"ce4bhh12rcd13ifvqff0","pricing_plan_id":"cebpf4jnsgd1na2vs0mg"},{"bike_id":"78f485d1-bf5b-445b-a57f-ee387d423c2a","system_id":"levelo_inurba_marseille","lat":43.24646,"lon":5.38889,"is_reserved":false,"is_disabled":false,"rental_uris":{"android":"levelo://app?vid=78f485d1-bf5b-445b-a57f-ee387d423c2a","ios":"levelo://app?vid=78f485d1-bf5b-445b-a57f-ee387d423c2a"},"vehicle_type_id":"4","last_reported":1727953606,"current_range_meters":36400,"station_id":"ce4bhg12rcd13ifvqf60","pricing_plan_id":"cebpf4jnsgd1na2vs0mg"},{"bike_id":"0626ef49-1c3b-479e-b037-7ceaafc3606b","system_id":"levelo_inurba_marseille","lat":43.31368,"lon":5.38491,"is_reserved":false,"is_disabled":false,"rental_uris":{"android":"levelo://app?vid=0626ef49-1c3b-479e-b037-7ceaafc3606b","ios":"levelo://app?vid=0626ef49-1c3b-479e-b037-7ceaafc3606b"},"vehicle_type_id":"4","last_reported":1727953606,"current_range_meters":33600,"station_id":"ce4bgup2rcd13ifvqcn0","pricing_plan_id":"cebpf4jnsgd1na2vs0mg"},{"bike_id":"797ce8dc-e20c-4580-b4fe-1d62071126fc","system_id":"levelo_inurba_marseille","lat":43.26952,"lon":5.386323,"is_reserved":false,"is_disabled":false,"rental_uris":{"android":"levelo://app?vid=797ce8dc-e20c-4580-b4fe-1d62071126fc","ios":"levelo://app?vid=797ce8dc-e20c-4580-b4fe-1d62071126fc"},"vehicle_type_id":"4","last_reported":1727953606,"current_range_meters":26000,"station_id":"ce4bhh92rcd13ifvqfh0","pricing_plan_id":"cebpf4jnsgd1na2vs0mg"},{"bike_id":"24c98704-a72f-4136-b091-895885dbb2c8","system_id":"levelo_inurba_marseille","lat":43.24083,"lon":5.37751,"is_reserved":false,"is_disabled":false,"rental_uris":{"android":"levelo://app?vid=24c98704-a72f-4136-b091-895885dbb2c8","ios":"levelo://app?vid=24c98704-a72f-4136-b091-895885dbb2c8"},"vehicle_type_id":"4","last_reported":1727953606,"current_range_meters":28000,"station_id":"ce4bhnp2rcd13ifvqgvg","pricing_plan_id":"cebpf4jnsgd1na2vs0mg"},{"bike_id":"a2105016-831b-4430-8e5a-d92ad4b3c953","system_id":"levelo_inurba_marseille","lat":43.333488,"lon":5.410206,"is_reserved":false,"is_disabled":false,"rental_uris":{"android":"levelo://app?vid=a2105016-831b-4430-8e5a-d92ad4b3c953","ios":"levelo://app?vid=a2105016-831b-4430-8e5a-d92ad4b3c953"},"vehicle_type_id":"4","last_reported":1727953606,"current_range_meters":8800,"station_id":"ce4bhq12rcd13ifvqhhg","pricing_plan_id":"cebpf4jnsgd1na2vs0mg"},{"bike_id":"e1bcc177-08e1-4a20-b1b7-81beeec2304b","system_id":"levelo_inurba_marseille","lat":43.28364,"lon":5.38096,"is_reserved":false,"is_disabled":false,"rental_uris":{"android":"levelo://app?vid=e1bcc177-08e1-4a20-b1b7-81beeec2304b","ios":"levelo://app?vid=e1bcc177-08e1-4a20-b1b7-81beeec2304b"},"vehicle_type_id":"4","last_reported":1727953606,"current_range_meters":16000,"station_id":"ce4bh412rcd13ifvqdr0","pricing_plan_id":"cebpf4jnsgd1na2vs0mg"},{"bike_id":"0254b970-14d7-4dfc-8d38-0171ca9ae025","system_id":"levelo_inurba_marseille","lat":43.26683,"lon":5.38265,"is_reserved":false,"is_disabled":false,"rental_uris":{"android":"levelo://app?vid=0254b970-14d7-4dfc-8d38-0171ca9ae025","ios":"levelo://app?vid=0254b970-14d7-4dfc-8d38-0171ca9ae025"},"vehicle_type_id":"4","last_reported":1727953606,"current_range_meters":19600,"station_id":"ce4bhg92rcd13ifvqf90","pricing_plan_id":"cebpf4jnsgd1na2vs0mg"},{"bike_id":"b507c12a-bf18-412f-9cd0-6aa3f3e47a23","system_id":"levelo_inurba_marseille","lat":43.30557,"lon":5.36545,"is_reserved":false,"is_disabled":false,"rental_uris":{"android":"levelo://app?vid=b507c12a-bf18-412f-9cd0-6aa3f3e47a23","ios":"levelo://app?vid=b507c12a-bf18-412f-9cd0-6aa3f3e47a23"},"vehicle_type_id":"4","last_reported":1727953606,"current_range_meters":12000,"station_id":"ce4bgs12rcd13ifvqcag","pricing_plan_id":"cebpf4jnsgd1na2vs0mg"},{"bike_id":"02447cfb-8a7f-40d3-9f77-633ca01370ed","system_id":"levelo_inurba_marseille","lat":43.29841,"lon":5.36277,"is_reserved":false,"is_disabled":false,"rental_uris":{"android":"levelo://app?vid=02447cfb-8a7f-40d3-9f77-633ca01370ed","ios":"levelo://app?vid=02447cfb-8a7f-40d3-9f77-633ca01370ed"},"vehicle_type_id":"4","last_reported":1727953606,"current_range_meters":27200,"station_id":"ce4bgpp2rcd13ifvqc3g","pricing_plan_id":"cebpf4jnsgd1na2vs0mg"},{"bike_id":"6ff769ff-38f9-461e-82af-41c719bec12e","system_id":"levelo_inurba_marseille","lat":43.33611,"lon":5.41033,"is_reserved":false,"is_disabled":false,"rental_uris":{"android":"levelo://app?vid=6ff769ff-38f9-461e-82af-41c719bec12e","ios":"levelo://app?vid=6ff769ff-38f9-461e-82af-41c719bec12e"},"vehicle_type_id":"4","last_reported":1727953606,"current_range_meters":9200,"station_id":"ce4bhqh2rcd13ifvqhmg","pricing_plan_id":"cebpf4jnsgd1na2vs0mg"},{"bike_id":"22094e14-fe04-4f6d-940c-3e57c3ad82a9","system_id":"levelo_inurba_marseille","lat":43.23151,"lon":5.43704,"is_reserved":false,"is_disabled":false,"rental_uris":{"android":"levelo://app?vid=22094e14-fe04-4f6d-940c-3e57c3ad82a9","ios":"levelo://app?vid=22094e14-fe04-4f6d-940c-3e57c3ad82a9"},"vehicle_type_id":"4","last_reported":1727953606,"current_range_meters":26000,"station_id":"ce4bhmp2rcd13ifvqgog","pricing_plan_id":"cebpf4jnsgd1na2vs0mg"},{"bike_id":"f6f97f2d-6d4d-44b7-b4df-5c820d9e1be3","system_id":"levelo_inurba_marseille","lat":43.27834,"lon":5.39204,"is_reserved":false,"is_disabled":false,"rental_uris":{"android":"levelo://app?vid=f6f97f2d-6d4d-44b7-b4df-5c820d9e1be3","ios":"levelo://app?vid=f6f97f2d-6d4d-44b7-b4df-5c820d9e1be3"},"vehicle_type_id":"4","last_reported":1727953606,"current_range_meters":38800,"station_id":"ce4bhjp2rcd13ifvqga0","pricing_plan_id":"cebpf4jnsgd1na2vs0mg"},{"bike_id":"fc8dc565-4c11-4e2a-a08d-27bbe88a17b8","system_id":"levelo_inurba_marseille","lat":43.28242,"lon":5.38606,"is_reserved":false,"is_disabled":false,"rental_uris":{"android":"levelo://app?vid=fc8dc565-4c11-4e2a-a08d-27bbe88a17b8","ios":"levelo://app?vid=fc8dc565-4c11-4e2a-a08d-27bbe88a17b8"},"vehicle_type_id":"4","last_reported":1727953606,"current_range_meters":30000,"station_id":"ce4bh512rcd13ifvqe2g","pricing_plan_id":"cebpf4jnsgd1na2vs0mg"},{"bike_id":"a513f1f4-9ec3-4163-813b-01270fe9be89","system_id":"levelo_inurba_marseille","lat":43.29845,"lon":5.36284,"is_reserved":false,"is_disabled":false,"rental_uris":{"android":"levelo://app?vid=a513f1f4-9ec3-4163-813b-01270fe9be89","ios":"levelo://app?vid=a513f1f4-9ec3-4163-813b-01270fe9be89"},"vehicle_type_id":"4","last_reported":1727953606,"current_range_meters":10000,"station_id":"ce4bgpp2rcd13ifvqc3g","pricing_plan_id":"cebpf4jnsgd1na2vs0mg"},{"bike_id":"0d38caac-4e1b-4bc6-8634-fba8549655ca","system_id":"levelo_inurba_marseille","lat":43.32112,"lon":5.36771,"is_reserved":false,"is_disabled":false,"rental_uris":{"android":"levelo://app?vid=0d38caac-4e1b-4bc6-8634-fba8549655ca","ios":"levelo://app?vid=0d38caac-4e1b-4bc6-8634-fba8549655ca"},"vehicle_type_id":"4","last_reported":1727953606,"current_range_meters":36800,"station_id":"ce4bhrh2rcd13ifvqhug","pricing_plan_id":"cebpf4jnsgd1na2vs0mg"},{"bike_id":"bbb27d72-0252-43c1-8bee-677ba4f1e987","system_id":"levelo_inurba_marseille","lat":43.23149,"lon":5.43716,"is_reserved":false,"is_disabled":false,"rental_uris":{"android":"levelo://app?vid=bbb27d72-0252-43c1-8bee-677ba4f1e987","ios":"levelo://app?vid=bbb27d72-0252-43c1-8bee-677ba4f1e987"},"vehicle_type_id":"4","last_reported":1727953606,"current_range_meters":11200,"station_id":"ce4bhmp2rcd13ifvqgog","pricing_plan_id":"cebpf4jnsgd1na2vs0mg"},{"bike_id":"358c3eba-85da-405b-9745-5fd5c13e37b2","system_id":"levelo_inurba_marseille","lat":43.27422,"lon":5.39421,"is_reserved":false,"is_disabled":false,"rental_uris":{"android":"levelo://app?vid=358c3eba-85da-405b-9745-5fd5c13e37b2","ios":"levelo://app?vid=358c3eba-85da-405b-9745-5fd5c13e37b2"},"vehicle_type_id":"4","last_reported":1727953606,"current_range_meters":11200,"station_id":"ce4bhdp2rcd13ifvqf20","pricing_plan_id":"cebpf4jnsgd1na2vs0mg"},{"bike_id":"4f012cc6-31d2-4caa-8f39-337ae9626f04","system_id":"levelo_inurba_marseille","lat":43.23147,"lon":5.43714,"is_reserved":false,"is_disabled":false,"rental_uris":{"android":"levelo://app?vid=4f012cc6-31d2-4caa-8f39-337ae9626f04","ios":"levelo://app?vid=4f012cc6-31d2-4caa-8f39-337ae9626f04"},"vehicle_type_id":"4","last_reported":1727953606,"current_range_meters":8400,"station_id":"ce4bhmp2rcd13ifvqgog","pricing_plan_id":"cebpf4jnsgd1na2vs0mg"},{"bike_id":"3526900e-6c59-4665-915f-3e0e2c02bf3a","system_id":"levelo_inurba_marseille","lat":43.2958,"lon":5.37523,"is_reserved":false,"is_disabled":false,"rental_uris":{"android":"levelo://app?vid=3526900e-6c59-4665-915f-3e0e2c02bf3a","ios":"levelo://app?vid=3526900e-6c59-4665-915f-3e0e2c02bf3a"},"vehicle_type_id":"4","last_reported":1727953606,"current_range_meters":16000,"station_id":"","pricing_plan_id":"cebpf4jnsgd1na2vs0mg"},{"bike_id":"62ea12dd-5e31-4d89-a767-d1aa2c6f9ab9","system_id":"levelo_inurba_marseille","lat":43.30944,"lon":5.39036,"is_reserved":false,"is_disabled":false,"rental_uris":{"android":"levelo://app?vid=62ea12dd-5e31-4d89-a767-d1aa2c6f9ab9","ios":"levelo://app?vid=62ea12dd-5e31-4d89-a767-d1aa2c6f9ab9"},"vehicle_type_id":"4","last_reported":1727953606,"current_range_meters":13600,"station_id":"ce4bgup2rcd13ifvqco0","pricing_plan_id":"cebpf4jnsgd1na2vs0mg"},{"bike_id":"0d810ac3-f15c-4276-a95f-7e6eeccca9ff","system_id":"levelo_inurba_marseille","lat":43.30591,"lon":5.39356,"is_reserved":false,"is_disabled":false,"rental_uris":{"android":"levelo://app?vid=0d810ac3-f15c-4276-a95f-7e6eeccca9ff","ios":"levelo://app?vid=0d810ac3-f15c-4276-a95f-7e6eeccca9ff"},"vehicle_type_id":"4","last_reported":1727953606,"current_range_meters":38000,"station_id":"ce4bh0p2rcd13ifvqd80","pricing_plan_id":"cebpf4jnsgd1na2vs0mg"},{"bike_id":"a206afd1-5f87-4881-9f82-f59b6b528411","system_id":"levelo_inurba_marseille","lat":43.30326,"lon":5.40439,"is_reserved":false,"is_disabled":false,"rental_uris":{"android":"levelo://app?vid=a206afd1-5f87-4881-9f82-f59b6b528411","ios":"levelo://app?vid=a206afd1-5f87-4881-9f82-f59b6b528411"},"vehicle_type_id":"4","last_reported":1727953606,"current_range_meters":35200,"station_id":"ce4bh012rcd13ifvqd10","pricing_plan_id":"cebpf4jnsgd1na2vs0mg"},{"bike_id":"499cb64c-6fb8-4407-89d8-a118e3c5c28d","system_id":"levelo_inurba_marseille","lat":43.279938,"lon":5.400014,"is_reserved":false,"is_disabled":false,"rental_uris":{"android":"levelo://app?vid=499cb64c-6fb8-4407-89d8-a118e3c5c28d","ios":"levelo://app?vid=499cb64c-6fb8-4407-89d8-a118e3c5c28d"},"vehicle_type_id":"4","last_reported":1727953606,"current_range_meters":20400,"station_id":"ce4bho92rcd13ifvqh4g","pricing_plan_id":"cebpf4jnsgd1na2vs0mg"},{"bike_id":"6cf50d30-573c-4c3c-89b2-24f900d71927","system_id":"levelo_inurba_marseille","lat":43.268,"lon":5.3941,"is_reserved":false,"is_disabled":false,"rental_uris":{"android":"levelo://app?vid=6cf50d30-573c-4c3c-89b2-24f900d71927","ios":"levelo://app?vid=6cf50d30-573c-4c3c-89b2-24f900d71927"},"vehicle_type_id":"4","last_reported":1727953606,"current_range_meters":22000,"station_id":"ce4bhh12rcd13ifvqfg0","pricing_plan_id":"cebpf4jnsgd1na2vs0mg"},{"bike_id":"73f66102-21cd-4be5-9fb3-258e3aabfc34","system_id":"levelo_inurba_marseille","lat":43.31223,"lon":5.36858,"is_reserved":false,"is_disabled":false,"rental_uris":{"android":"levelo://app?vid=73f66102-21cd-4be5-9fb3-258e3aabfc34","ios":"levelo://app?vid=73f66102-21cd-4be5-9fb3-258e3aabfc34"},"vehicle_type_id":"4","last_reported":1727953606,"current_range_meters":40000,"station_id":"ce4bgl92rcd13ifvqbq0","pricing_plan_id":"cebpf4jnsgd1na2vs0mg"},{"bike_id":"c3b270f8-38a0-434b-80d4-259a3e014124","system_id":"levelo_inurba_marseille","lat":43.30209,"lon":5.39465,"is_reserved":false,"is_disabled":false,"rental_uris":{"android":"levelo://app?vid=c3b270f8-38a0-434b-80d4-259a3e014124","ios":"levelo://app?vid=c3b270f8-38a0-434b-80d4-259a3e014124"},"vehicle_type_id":"4","last_reported":1727953606,"current_range_meters":32400,"station_id":"ce4bh0p2rcd13ifvqd70","pricing_plan_id":"cebpf4jnsgd1na2vs0mg"},{"bike_id":"3e2daf70-0524-4e71-8de4-0ed4b5df5a53","system_id":"levelo_inurba_marseille","lat":43.25499,"lon":5.37645,"is_reserved":false,"is_disabled":false,"rental_uris":{"android":"levelo://app?vid=3e2daf70-0524-4e71-8de4-0ed4b5df5a53","ios":"levelo://app?vid=3e2daf70-0524-4e71-8de4-0ed4b5df5a53"},"vehicle_type_id":"4","last_reported":1727953606,"current_range_meters":24000,"station_id":"ce4bhh12rcd13ifvqff0","pricing_plan_id":"cebpf4jnsgd1na2vs0mg"},{"bike_id":"85f44b8a-dfdd-4b88-bc87-12b823ac38dd","system_id":"levelo_inurba_marseille","lat":43.28033,"lon":5.36938,"is_reserved":false,"is_disabled":false,"rental_uris":{"android":"levelo://app?vid=85f44b8a-dfdd-4b88-bc87-12b823ac38dd","ios":"levelo://app?vid=85f44b8a-dfdd-4b88-bc87-12b823ac38dd"},"vehicle_type_id":"4","last_reported":1727953606,"current_range_meters":34800,"station_id":"ce4bha12rcd13ifvqef0","pricing_plan_id":"cebpf4jnsgd1na2vs0mg"},{"bike_id":"3ff87dce-8468-42cc-935a-574e0053202b","system_id":"levelo_inurba_marseille","lat":43.2893,"lon":5.38395,"is_reserved":false,"is_disabled":false,"rental_uris":{"android":"levelo://app?vid=3ff87dce-8468-42cc-935a-574e0053202b","ios":"levelo://app?vid=3ff87dce-8468-42cc-935a-574e0053202b"},"vehicle_type_id":"4","last_reported":1727953606,"current_range_meters":19600,"station_id":"ce4bh612rcd13ifvqe6g","pricing_plan_id":"cebpf4jnsgd1na2vs0mg"},{"bike_id":"8e575bb9-7cbb-4077-9bcf-2404cc844e4d","system_id":"levelo_inurba_marseille","lat":43.2694,"lon":5.40249,"is_reserved":false,"is_disabled":false,"rental_uris":{"android":"levelo://app?vid=8e575bb9-7cbb-4077-9bcf-2404cc844e4d","ios":"levelo://app?vid=8e575bb9-7cbb-4077-9bcf-2404cc844e4d"},"vehicle_type_id":"4","last_reported":1727953606,"current_range_meters":38800,"station_id":"cjm6bp8fraef2m0cb0m0","pricing_plan_id":"cebpf4jnsgd1na2vs0mg"},{"bike_id":"15f8bbc8-fa56-4ae9-b2c0-59f21192974f","system_id":"levelo_inurba_marseille","lat":43.28268,"lon":5.35061,"is_reserved":false,"is_disabled":false,"rental_uris":{"android":"levelo://app?vid=15f8bbc8-fa56-4ae9-b2c0-59f21192974f","ios":"levelo://app?vid=15f8bbc8-fa56-4ae9-b2c0-59f21192974f"},"vehicle_type_id":"4","last_reported":1727953606,"current_range_meters":29600,"station_id":"ce4bhbp2rcd13ifvqerg","pricing_plan_id":"cebpf4jnsgd1na2vs0mg"},{"bike_id":"7bfb5721-baf3-4893-bbf9-7c8112a113a1","system_id":"levelo_inurba_marseille","lat":43.27992,"lon":5.40009,"is_reserved":false,"is_disabled":false,"rental_uris":{"android":"levelo://app?vid=7bfb5721-baf3-4893-bbf9-7c8112a113a1","ios":"levelo://app?vid=7bfb5721-baf3-4893-bbf9-7c8112a113a1"},"vehicle_type_id":"4","last_reported":1727953606,"current_range_meters":34800,"station_id":"ce4bho92rcd13ifvqh4g","pricing_plan_id":"cebpf4jnsgd1na2vs0mg"},{"bike_id":"a689a59b-c5bf-43fa-85ec-6f4efa9591ad","system_id":"levelo_inurba_marseille","lat":43.32544,"lon":5.41434,"is_reserved":false,"is_disabled":false,"rental_uris":{"android":"levelo://app?vid=a689a59b-c5bf-43fa-85ec-6f4efa9591ad","ios":"levelo://app?vid=a689a59b-c5bf-43fa-85ec-6f4efa9591ad"},"vehicle_type_id":"4","last_reported":1727953606,"current_range_meters":38800,"station_id":"ce4bhq12rcd13ifvqhhg","pricing_plan_id":"cebpf4jnsgd1na2vs0mg"},{"bike_id":"4491ad8d-0f5f-4170-a2b4-2cbe70bb99c0","system_id":"levelo_inurba_marseille","lat":43.29983,"lon":5.37193,"is_reserved":false,"is_disabled":false,"rental_uris":{"android":"levelo://app?vid=4491ad8d-0f5f-4170-a2b4-2cbe70bb99c0","ios":"levelo://app?vid=4491ad8d-0f5f-4170-a2b4-2cbe70bb99c0"},"vehicle_type_id":"4","last_reported":1727953606,"current_range_meters":38800,"station_id":"ce4bgr92rcd13ifvqc7g","pricing_plan_id":"cebpf4jnsgd1na2vs0mg"},{"bike_id":"ab28cfd4-424b-4c3f-9f7b-7f4457705823","system_id":"levelo_inurba_marseille","lat":43.2937,"lon":5.37832,"is_reserved":false,"is_disabled":false,"rental_uris":{"android":"levelo://app?vid=ab28cfd4-424b-4c3f-9f7b-7f4457705823","ios":"levelo://app?vid=ab28cfd4-424b-4c3f-9f7b-7f4457705823"},"vehicle_type_id":"4","last_reported":1727953606,"current_range_meters":38000,"station_id":"ce4bgjh2rcd13ifvqbf0","pricing_plan_id":"cebpf4jnsgd1na2vs0mg"},{"bike_id":"71df8d68-d681-474c-bc91-c17849864970","system_id":"levelo_inurba_marseille","lat":43.312208,"lon":5.368845,"is_reserved":false,"is_disabled":false,"rental_uris":{"android":"levelo://app?vid=71df8d68-d681-474c-bc91-c17849864970","ios":"levelo://app?vid=71df8d68-d681-474c-bc91-c17849864970"},"vehicle_type_id":"4","last_reported":1727953606,"current_range_meters":21600,"station_id":"ce4bgl92rcd13ifvqbq0","pricing_plan_id":"cebpf4jnsgd1na2vs0mg"},{"bike_id":"9d875d5b-4cc2-4f51-be6b-5a060a29bb34","system_id":"levelo_inurba_marseille","lat":43.28474,"lon":5.38423,"is_reserved":false,"is_disabled":false,"rental_uris":{"android":"levelo://app?vid=9d875d5b-4cc2-4f51-be6b-5a060a29bb34","ios":"levelo://app?vid=9d875d5b-4cc2-4f51-be6b-5a060a29bb34"},"vehicle_type_id":"4","last_reported":1727953606,"current_range_meters":6800,"station_id":"ce4bh512rcd13ifvqe3g","pricing_plan_id":"cebpf4jnsgd1na2vs0mg"},{"bike_id":"28df1bbb-ecc2-496e-ac28-32ddf46af307","system_id":"levelo_inurba_marseille","lat":43.31365,"lon":5.36694,"is_reserved":false,"is_disabled":false,"rental_uris":{"android":"levelo://app?vid=28df1bbb-ecc2-496e-ac28-32ddf46af307","ios":"levelo://app?vid=28df1bbb-ecc2-496e-ac28-32ddf46af307"},"vehicle_type_id":"4","last_reported":1727953606,"current_range_meters":26800,"station_id":"ce4bgr92rcd13ifvqc6g","pricing_plan_id":"cebpf4jnsgd1na2vs0mg"},{"bike_id":"7248f3f3-f7e1-4a75-a961-1a2be4d035cc","system_id":"levelo_inurba_marseille","lat":43.29798,"lon":5.38094,"is_reserved":false,"is_disabled":false,"rental_uris":{"android":"levelo://app?vid=7248f3f3-f7e1-4a75-a961-1a2be4d035cc","ios":"levelo://app?vid=7248f3f3-f7e1-4a75-a961-1a2be4d035cc"},"vehicle_type_id":"4","last_reported":1727953606,"current_range_meters":27600,"station_id":"ce4bgip2rcd13ifvqbb0","pricing_plan_id":"cebpf4jnsgd1na2vs0mg"},{"bike_id":"8c3c7b43-3ed3-4cbe-a7ad-9ee58804015f","system_id":"levelo_inurba_marseille","lat":43.29606,"lon":5.38105,"is_reserved":false,"is_disabled":false,"rental_uris":{"android":"levelo://app?vid=8c3c7b43-3ed3-4cbe-a7ad-9ee58804015f","ios":"levelo://app?vid=8c3c7b43-3ed3-4cbe-a7ad-9ee58804015f"},"vehicle_type_id":"4","last_reported":1727953606,"current_range_meters":38000,"station_id":"ce4bgl12rcd13ifvqbo0","pricing_plan_id":"cebpf4jnsgd1na2vs0mg"},{"bike_id":"5912a7a0-e07c-490b-9411-47d996d98b75","system_id":"levelo_inurba_marseille","lat":43.280334,"lon":5.404312,"is_reserved":false,"is_disabled":false,"rental_uris":{"android":"levelo://app?vid=5912a7a0-e07c-490b-9411-47d996d98b75","ios":"levelo://app?vid=5912a7a0-e07c-490b-9411-47d996d98b75"},"vehicle_type_id":"4","last_reported":1727953606,"current_range_meters":11600,"station_id":"ce4bho92rcd13ifvqh3g","pricing_plan_id":"cebpf4jnsgd1na2vs0mg"},{"bike_id":"1b6d9c68-11a7-4b21-bdf9-c9b43a60ddc5","system_id":"levelo_inurba_marseille","lat":43.30097,"lon":5.39085,"is_reserved":false,"is_disabled":false,"rental_uris":{"android":"levelo://app?vid=1b6d9c68-11a7-4b21-bdf9-c9b43a60ddc5","ios":"levelo://app?vid=1b6d9c68-11a7-4b21-bdf9-c9b43a60ddc5"},"vehicle_type_id":"4","last_reported":1727953606,"current_range_meters":38800,"station_id":"ce4bh192rcd13ifvqdb0","pricing_plan_id":"cebpf4jnsgd1na2vs0mg"},{"bike_id":"2b24b079-94a5-45ef-a737-6b32e7409534","system_id":"levelo_inurba_marseille","lat":43.28616,"lon":5.35105,"is_reserved":false,"is_disabled":false,"rental_uris":{"android":"levelo://app?vid=2b24b079-94a5-45ef-a737-6b32e7409534","ios":"levelo://app?vid=2b24b079-94a5-45ef-a737-6b32e7409534"},"vehicle_type_id":"4","last_reported":1727953606,"current_range_meters":28400,"station_id":"ce4bhch2rcd13ifvqeug","pricing_plan_id":"cebpf4jnsgd1na2vs0mg"},{"bike_id":"77c41238-d9ed-4958-b9c1-1bbae1ec1a5f","system_id":"levelo_inurba_marseille","lat":43.26553,"lon":5.37285,"is_reserved":false,"is_disabled":false,"rental_uris":{"android":"levelo://app?vid=77c41238-d9ed-4958-b9c1-1bbae1ec1a5f","ios":"levelo://app?vid=77c41238-d9ed-4958-b9c1-1bbae1ec1a5f"},"vehicle_type_id":"4","last_reported":1727953606,"current_range_meters":32800,"station_id":"ce4bhg12rcd13ifvqf70","pricing_plan_id":"cebpf4jnsgd1na2vs0mg"},{"bike_id":"b3926858-a41b-495a-bbc1-06ce82f46ee8","system_id":"levelo_inurba_marseille","lat":43.2315,"lon":5.43707,"is_reserved":false,"is_disabled":false,"rental_uris":{"android":"levelo://app?vid=b3926858-a41b-495a-bbc1-06ce82f46ee8","ios":"levelo://app?vid=b3926858-a41b-495a-bbc1-06ce82f46ee8"},"vehicle_type_id":"4","last_reported":1727953606,"current_range_meters":38800,"station_id":"ce4bhmp2rcd13ifvqgog","pricing_plan_id":"cebpf4jnsgd1na2vs0mg"},{"bike_id":"4fddd8d7-fa6b-45f8-a02c-3e433ad8238e","system_id":"levelo_inurba_marseille","lat":43.29192,"lon":5.38034,"is_reserved":false,"is_disabled":false,"rental_uris":{"android":"levelo://app?vid=4fddd8d7-fa6b-45f8-a02c-3e433ad8238e","ios":"levelo://app?vid=4fddd8d7-fa6b-45f8-a02c-3e433ad8238e"},"vehicle_type_id":"4","last_reported":1727953606,"current_range_meters":33600,"station_id":"ce4bh512rcd13ifvqe3g","pricing_plan_id":"cebpf4jnsgd1na2vs0mg"},{"bike_id":"422a7c4b-04a2-4d7a-bb60-e21896c982e3","system_id":"levelo_inurba_marseille","lat":43.26676,"lon":5.38258,"is_reserved":false,"is_disabled":false,"rental_uris":{"android":"levelo://app?vid=422a7c4b-04a2-4d7a-bb60-e21896c982e3","ios":"levelo://app?vid=422a7c4b-04a2-4d7a-bb60-e21896c982e3"},"vehicle_type_id":"4","last_reported":1727953606,"current_range_meters":8800,"station_id":"ce4bhg92rcd13ifvqf90","pricing_plan_id":"cebpf4jnsgd1na2vs0mg"},{"bike_id":"f405a66a-fe0c-4c0e-bca5-17665a8e7617","system_id":"levelo_inurba_marseille","lat":43.25498,"lon":5.37647,"is_reserved":false,"is_disabled":false,"rental_uris":{"android":"levelo://app?vid=f405a66a-fe0c-4c0e-bca5-17665a8e7617","ios":"levelo://app?vid=f405a66a-fe0c-4c0e-bca5-17665a8e7617"},"vehicle_type_id":"4","last_reported":1727953606,"current_range_meters":22800,"station_id":"ce4bhh12rcd13ifvqff0","pricing_plan_id":"cebpf4jnsgd1na2vs0mg"},{"bike_id":"c6eefddf-5fae-4139-a463-616d8530af6f","system_id":"levelo_inurba_marseille","lat":43.288536,"lon":5.393063,"is_reserved":false,"is_disabled":false,"rental_uris":{"android":"levelo://app?vid=c6eefddf-5fae-4139-a463-616d8530af6f","ios":"levelo://app?vid=c6eefddf-5fae-4139-a463-616d8530af6f"},"vehicle_type_id":"4","last_reported":1727953606,"current_range_meters":34800,"station_id":"ce4bh2p2rcd13ifvqdi0","pricing_plan_id":"cebpf4jnsgd1na2vs0mg"},{"bike_id":"12f00153-0c3a-4fa5-818d-ce3a92d2c07a","system_id":"levelo_inurba_marseille","lat":43.26626,"lon":5.40023,"is_reserved":false,"is_disabled":false,"rental_uris":{"android":"levelo://app?vid=12f00153-0c3a-4fa5-818d-ce3a92d2c07a","ios":"levelo://app?vid=12f00153-0c3a-4fa5-818d-ce3a92d2c07a"},"vehicle_type_id":"4","last_reported":1727953606,"current_range_meters":23200,"station_id":"","pricing_plan_id":"cebpf4jnsgd1na2vs0mg"},{"bike_id":"90837b27-359b-403d-97f0-8265592e9511","system_id":"levelo_inurba_marseille","lat":43.25722,"lon":5.41103,"is_reserved":false,"is_disabled":false,"rental_uris":{"android":"levelo://app?vid=90837b27-359b-403d-97f0-8265592e9511","ios":"levelo://app?vid=90837b27-359b-403d-97f0-8265592e9511"},"vehicle_type_id":"4","last_reported":1727953606,"current_range_meters":13600,"station_id":"ce4bhkp2rcd13ifvqgd0","pricing_plan_id":"cebpf4jnsgd1na2vs0mg"},{"bike_id":"ea0f8101-307b-4e2e-b319-bcb0cd145925","system_id":"levelo_inurba_marseille","lat":43.309478,"lon":5.401413,"is_reserved":false,"is_disabled":false,"rental_uris":{"android":"levelo://app?vid=ea0f8101-307b-4e2e-b319-bcb0cd145925","ios":"levelo://app?vid=ea0f8101-307b-4e2e-b319-bcb0cd145925"},"vehicle_type_id":"4","last_reported":1727953606,"current_range_meters":17600,"station_id":"ce4bgvp2rcd13ifvqct0","pricing_plan_id":"cebpf4jnsgd1na2vs0mg"},{"bike_id":"128ff93f-012a-4903-92f9-5e387dc4cc5c","system_id":"levelo_inurba_marseille","lat":43.28707,"lon":5.39975,"is_reserved":false,"is_disabled":false,"rental_uris":{"android":"levelo://app?vid=128ff93f-012a-4903-92f9-5e387dc4cc5c","ios":"levelo://app?vid=128ff93f-012a-4903-92f9-5e387dc4cc5c"},"vehicle_type_id":"4","last_reported":1727953606,"current_range_meters":4400,"station_id":"ce4bho92rcd13ifvqh3g","pricing_plan_id":"cebpf4jnsgd1na2vs0mg"},{"bike_id":"80e10b6b-b930-4216-a26e-cfd3b6068366","system_id":"levelo_inurba_marseille","lat":43.30547,"lon":5.36707,"is_reserved":false,"is_disabled":false,"rental_uris":{"android":"levelo://app?vid=80e10b6b-b930-4216-a26e-cfd3b6068366","ios":"levelo://app?vid=80e10b6b-b930-4216-a26e-cfd3b6068366"},"vehicle_type_id":"4","last_reported":1727953606,"current_range_meters":31200,"station_id":"ce4bgrp2rcd13ifvqc9g","pricing_plan_id":"cebpf4jnsgd1na2vs0mg"},{"bike_id":"c10088d7-b116-4e89-861b-aaea5b563ec9","system_id":"levelo_inurba_marseille","lat":43.28038,"lon":5.36951,"is_reserved":false,"is_disabled":false,"rental_uris":{"android":"levelo://app?vid=c10088d7-b116-4e89-861b-aaea5b563ec9","ios":"levelo://app?vid=c10088d7-b116-4e89-861b-aaea5b563ec9"},"vehicle_type_id":"4","last_reported":1727953606,"current_range_meters":26800,"station_id":"ce4bha12rcd13ifvqef0","pricing_plan_id":"cebpf4jnsgd1na2vs0mg"},{"bike_id":"a292cc6b-0b15-4b33-8f09-f41be692a4eb","system_id":"levelo_inurba_marseille","lat":43.24392,"lon":5.37058,"is_reserved":false,"is_disabled":false,"rental_uris":{"android":"levelo://app?vid=a292cc6b-0b15-4b33-8f09-f41be692a4eb","ios":"levelo://app?vid=a292cc6b-0b15-4b33-8f09-f41be692a4eb"},"vehicle_type_id":"4","last_reported":1727953606,"current_range_meters":38000,"station_id":"ce4bhhh2rcd13ifvqfk0","pricing_plan_id":"cebpf4jnsgd1na2vs0mg"},{"bike_id":"6ac99431-eebf-47e7-93aa-ba0dd1c392fa","system_id":"levelo_inurba_marseille","lat":43.26497,"lon":5.39535,"is_reserved":false,"is_disabled":false,"rental_uris":{"android":"levelo://app?vid=6ac99431-eebf-47e7-93aa-ba0dd1c392fa","ios":"levelo://app?vid=6ac99431-eebf-47e7-93aa-ba0dd1c392fa"},"vehicle_type_id":"4","last_reported":1727953606,"current_range_meters":20400,"station_id":"ce4bhi12rcd13ifvqfq0","pricing_plan_id":"cebpf4jnsgd1na2vs0mg"},{"bike_id":"3cf74a3f-8222-4d03-b2e6-c9d25d38cf35","system_id":"levelo_inurba_marseille","lat":43.24998,"lon":5.38928,"is_reserved":false,"is_disabled":false,"rental_uris":{"android":"levelo://app?vid=3cf74a3f-8222-4d03-b2e6-c9d25d38cf35","ios":"levelo://app?vid=3cf74a3f-8222-4d03-b2e6-c9d25d38cf35"},"vehicle_type_id":"4","last_reported":1727953606,"current_range_meters":36800,"station_id":"ce4bhgp2rcd13ifvqfd0","pricing_plan_id":"cebpf4jnsgd1na2vs0mg"},{"bike_id":"813754e2-89a1-4d9f-b9cc-a77e5bca7aa4","system_id":"levelo_inurba_marseille","lat":43.23154,"lon":5.437,"is_reserved":false,"is_disabled":false,"rental_uris":{"android":"levelo://app?vid=813754e2-89a1-4d9f-b9cc-a77e5bca7aa4","ios":"levelo://app?vid=813754e2-89a1-4d9f-b9cc-a77e5bca7aa4"},"vehicle_type_id":"4","last_reported":1727953606,"current_range_meters":28400,"station_id":"ce4bhmp2rcd13ifvqgog","pricing_plan_id":"cebpf4jnsgd1na2vs0mg"},{"bike_id":"fc2906d0-db21-4fe8-851a-5aa5ec9b580a","system_id":"levelo_inurba_marseille","lat":43.33611,"lon":5.41023,"is_reserved":false,"is_disabled":false,"rental_uris":{"android":"levelo://app?vid=fc2906d0-db21-4fe8-851a-5aa5ec9b580a","ios":"levelo://app?vid=fc2906d0-db21-4fe8-851a-5aa5ec9b580a"},"vehicle_type_id":"4","last_reported":1727953606,"current_range_meters":22400,"station_id":"ce4bhqh2rcd13ifvqhmg","pricing_plan_id":"cebpf4jnsgd1na2vs0mg"},{"bike_id":"de302269-fdda-4ef3-9935-87f4834e17d5","system_id":"levelo_inurba_marseille","lat":43.25932,"lon":5.40908,"is_reserved":false,"is_disabled":false,"rental_uris":{"android":"levelo://app?vid=de302269-fdda-4ef3-9935-87f4834e17d5","ios":"levelo://app?vid=de302269-fdda-4ef3-9935-87f4834e17d5"},"vehicle_type_id":"4","last_reported":1727953606,"current_range_meters":9200,"station_id":"ce4bhm92rcd13ifvqglg","pricing_plan_id":"cebpf4jnsgd1na2vs0mg"},{"bike_id":"c48b4344-59ad-4dc7-8591-806a49e96470","system_id":"levelo_inurba_marseille","lat":43.30597,"lon":5.39357,"is_reserved":false,"is_disabled":false,"rental_uris":{"android":"levelo://app?vid=c48b4344-59ad-4dc7-8591-806a49e96470","ios":"levelo://app?vid=c48b4344-59ad-4dc7-8591-806a49e96470"},"vehicle_type_id":"4","last_reported":1727953606,"current_range_meters":28800,"station_id":"ce4bh0p2rcd13ifvqd80","pricing_plan_id":"cebpf4jnsgd1na2vs0mg"},{"bike_id":"9dcad781-f836-4fe1-ae3a-b7f100f432a3","system_id":"levelo_inurba_marseille","lat":43.27878,"lon":5.38223,"is_reserved":false,"is_disabled":false,"rental_uris":{"android":"levelo://app?vid=9dcad781-f836-4fe1-ae3a-b7f100f432a3","ios":"levelo://app?vid=9dcad781-f836-4fe1-ae3a-b7f100f432a3"},"vehicle_type_id":"4","last_reported":1727953606,"current_range_meters":24400,"station_id":"ce4bha12rcd13ifvqef0","pricing_plan_id":"cebpf4jnsgd1na2vs0mg"},{"bike_id":"0f53c290-ccde-436e-93da-5e6799c490b6","system_id":"levelo_inurba_marseille","lat":43.317797,"lon":5.389991,"is_reserved":false,"is_disabled":false,"rental_uris":{"android":"levelo://app?vid=0f53c290-ccde-436e-93da-5e6799c490b6","ios":"levelo://app?vid=0f53c290-ccde-436e-93da-5e6799c490b6"},"vehicle_type_id":"4","last_reported":1727953606,"current_range_meters":8800,"station_id":"ce4bhqp2rcd13ifvqhng","pricing_plan_id":"cebpf4jnsgd1na2vs0mg"},{"bike_id":"086469e0-3a4c-449b-823f-3ab025193336","system_id":"levelo_inurba_marseille","lat":43.30148,"lon":5.38093,"is_reserved":false,"is_disabled":false,"rental_uris":{"android":"levelo://app?vid=086469e0-3a4c-449b-823f-3ab025193336","ios":"levelo://app?vid=086469e0-3a4c-449b-823f-3ab025193336"},"vehicle_type_id":"4","last_reported":1727953606,"current_range_meters":28000,"station_id":"ce4bgjp2rcd13ifvqbh0","pricing_plan_id":"cebpf4jnsgd1na2vs0mg"},{"bike_id":"5b7a7f5d-f37b-4d9f-a7a7-2de1ee375614","system_id":"levelo_inurba_marseille","lat":43.29971,"lon":5.371748,"is_reserved":false,"is_disabled":false,"rental_uris":{"android":"levelo://app?vid=5b7a7f5d-f37b-4d9f-a7a7-2de1ee375614","ios":"levelo://app?vid=5b7a7f5d-f37b-4d9f-a7a7-2de1ee375614"},"vehicle_type_id":"4","last_reported":1727953606,"current_range_meters":38400,"station_id":"ce4bgr92rcd13ifvqc7g","pricing_plan_id":"cebpf4jnsgd1na2vs0mg"},{"bike_id":"fde1a248-2072-4dff-9f45-162d1b347b92","system_id":"levelo_inurba_marseille","lat":43.33609,"lon":5.41021,"is_reserved":false,"is_disabled":false,"rental_uris":{"android":"levelo://app?vid=fde1a248-2072-4dff-9f45-162d1b347b92","ios":"levelo://app?vid=fde1a248-2072-4dff-9f45-162d1b347b92"},"vehicle_type_id":"4","last_reported":1727953606,"current_range_meters":25200,"station_id":"ce4bhqh2rcd13ifvqhmg","pricing_plan_id":"cebpf4jnsgd1na2vs0mg"},{"bike_id":"2b58fe52-cecf-4d77-847f-b40d2ae6cb7d","system_id":"levelo_inurba_marseille","lat":43.31353,"lon":5.36716,"is_reserved":false,"is_disabled":false,"rental_uris":{"android":"levelo://app?vid=2b58fe52-cecf-4d77-847f-b40d2ae6cb7d","ios":"levelo://app?vid=2b58fe52-cecf-4d77-847f-b40d2ae6cb7d"},"vehicle_type_id":"4","last_reported":1727953606,"current_range_meters":4400,"station_id":"ce4bgr92rcd13ifvqc6g","pricing_plan_id":"cebpf4jnsgd1na2vs0mg"},{"bike_id":"1815b4d6-3172-47a4-bdf3-7e813b4c1840","system_id":"levelo_inurba_marseille","lat":43.23147,"lon":5.43703,"is_reserved":false,"is_disabled":false,"rental_uris":{"android":"levelo://app?vid=1815b4d6-3172-47a4-bdf3-7e813b4c1840","ios":"levelo://app?vid=1815b4d6-3172-47a4-bdf3-7e813b4c1840"},"vehicle_type_id":"4","last_reported":1727953606,"current_range_meters":14800,"station_id":"ce4bhmp2rcd13ifvqgog","pricing_plan_id":"cebpf4jnsgd1na2vs0mg"},{"bike_id":"563810eb-a038-4837-9e82-0693fa5230ae","system_id":"levelo_inurba_marseille","lat":43.30556,"lon":5.36538,"is_reserved":false,"is_disabled":false,"rental_uris":{"android":"levelo://app?vid=563810eb-a038-4837-9e82-0693fa5230ae","ios":"levelo://app?vid=563810eb-a038-4837-9e82-0693fa5230ae"},"vehicle_type_id":"4","last_reported":1727953606,"current_range_meters":37600,"station_id":"ce4bgs12rcd13ifvqcag","pricing_plan_id":"cebpf4jnsgd1na2vs0mg"},{"bike_id":"c3e43c90-8307-4031-8b69-e5723ab9f340","system_id":"levelo_inurba_marseille","lat":43.31357,"lon":5.38493,"is_reserved":false,"is_disabled":false,"rental_uris":{"android":"levelo://app?vid=c3e43c90-8307-4031-8b69-e5723ab9f340","ios":"levelo://app?vid=c3e43c90-8307-4031-8b69-e5723ab9f340"},"vehicle_type_id":"4","last_reported":1727953606,"current_range_meters":30000,"station_id":"ce4bgt92rcd13ifvqcf0","pricing_plan_id":"cebpf4jnsgd1na2vs0mg"},{"bike_id":"fc03d24b-d917-4d5d-a01b-7980fdda8afa","system_id":"levelo_inurba_marseille","lat":43.27619,"lon":5.36115,"is_reserved":false,"is_disabled":false,"rental_uris":{"android":"levelo://app?vid=fc03d24b-d917-4d5d-a01b-7980fdda8afa","ios":"levelo://app?vid=fc03d24b-d917-4d5d-a01b-7980fdda8afa"},"vehicle_type_id":"4","last_reported":1727953606,"current_range_meters":39200,"station_id":"ce4bgj92rcd13ifvqbe0","pricing_plan_id":"cebpf4jnsgd1na2vs0mg"},{"bike_id":"2846fd3b-625e-4ef9-b6fe-38c440201202","system_id":"levelo_inurba_marseille","lat":43.30092,"lon":5.39073,"is_reserved":false,"is_disabled":false,"rental_uris":{"android":"levelo://app?vid=2846fd3b-625e-4ef9-b6fe-38c440201202","ios":"levelo://app?vid=2846fd3b-625e-4ef9-b6fe-38c440201202"},"vehicle_type_id":"4","last_reported":1727953606,"current_range_meters":32800,"station_id":"ce4bh192rcd13ifvqdb0","pricing_plan_id":"cebpf4jnsgd1na2vs0mg"},{"bike_id":"137d56b1-cdc7-4f99-ba23-c424b109461a","system_id":"levelo_inurba_marseille","lat":43.30132,"lon":5.37409,"is_reserved":false,"is_disabled":false,"rental_uris":{"android":"levelo://app?vid=137d56b1-cdc7-4f99-ba23-c424b109461a","ios":"levelo://app?vid=137d56b1-cdc7-4f99-ba23-c424b109461a"},"vehicle_type_id":"4","last_reported":1727953606,"current_range_meters":22000,"station_id":"ce4bgs92rcd13ifvqcc0","pricing_plan_id":"cebpf4jnsgd1na2vs0mg"},{"bike_id":"db142718-4cf6-4038-8766-c6aab4bc104b","system_id":"levelo_inurba_marseille","lat":43.27814,"lon":5.40709,"is_reserved":false,"is_disabled":false,"rental_uris":{"android":"levelo://app?vid=db142718-4cf6-4038-8766-c6aab4bc104b","ios":"levelo://app?vid=db142718-4cf6-4038-8766-c6aab4bc104b"},"vehicle_type_id":"4","last_reported":1727953606,"current_range_meters":26000,"station_id":"ce4bhnh2rcd13ifvqgtg","pricing_plan_id":"cebpf4jnsgd1na2vs0mg"},{"bike_id":"daf80234-31fb-470b-b52a-2e074c646063","system_id":"levelo_inurba_marseille","lat":43.25579,"lon":5.38231,"is_reserved":false,"is_disabled":false,"rental_uris":{"android":"levelo://app?vid=daf80234-31fb-470b-b52a-2e074c646063","ios":"levelo://app?vid=daf80234-31fb-470b-b52a-2e074c646063"},"vehicle_type_id":"4","last_reported":1727953606,"current_range_meters":34000,"station_id":"ce4bhih2rcd13ifvqfs0","pricing_plan_id":"cebpf4jnsgd1na2vs0mg"},{"bike_id":"306c64fa-f507-4bbe-b154-7c24d178c43c","system_id":"levelo_inurba_marseille","lat":43.30594,"lon":5.39352,"is_reserved":false,"is_disabled":false,"rental_uris":{"android":"levelo://app?vid=306c64fa-f507-4bbe-b154-7c24d178c43c","ios":"levelo://app?vid=306c64fa-f507-4bbe-b154-7c24d178c43c"},"vehicle_type_id":"4","last_reported":1727953606,"current_range_meters":30400,"station_id":"ce4bh0p2rcd13ifvqd80","pricing_plan_id":"cebpf4jnsgd1na2vs0mg"},{"bike_id":"b1d51174-fb8a-4157-861c-fbb07b19325a","system_id":"levelo_inurba_marseille","lat":43.305908,"lon":5.372481,"is_reserved":false,"is_disabled":false,"rental_uris":{"android":"levelo://app?vid=b1d51174-fb8a-4157-861c-fbb07b19325a","ios":"levelo://app?vid=b1d51174-fb8a-4157-861c-fbb07b19325a"},"vehicle_type_id":"4","last_reported":1727953606,"current_range_meters":28000,"station_id":"ce4bgqh2rcd13ifvqc4g","pricing_plan_id":"cebpf4jnsgd1na2vs0mg"},{"bike_id":"638657f4-8224-4987-bb4e-5ed39fd85762","system_id":"levelo_inurba_marseille","lat":43.29531,"lon":5.39033,"is_reserved":false,"is_disabled":false,"rental_uris":{"android":"levelo://app?vid=638657f4-8224-4987-bb4e-5ed39fd85762","ios":"levelo://app?vid=638657f4-8224-4987-bb4e-5ed39fd85762"},"vehicle_type_id":"4","last_reported":1727953606,"current_range_meters":16400,"station_id":"ce4bh3p2rcd13ifvqdp0","pricing_plan_id":"cebpf4jnsgd1na2vs0mg"},{"bike_id":"e13b0b9c-9beb-47ca-95c0-b951aa2cea88","system_id":"levelo_inurba_marseille","lat":43.29267,"lon":5.40119,"is_reserved":false,"is_disabled":false,"rental_uris":{"android":"levelo://app?vid=e13b0b9c-9beb-47ca-95c0-b951aa2cea88","ios":"levelo://app?vid=e13b0b9c-9beb-47ca-95c0-b951aa2cea88"},"vehicle_type_id":"4","last_reported":1727953606,"current_range_meters":23200,"station_id":"ce4bh312rcd13ifvqdk0","pricing_plan_id":"cebpf4jnsgd1na2vs0mg"},{"bike_id":"6e4153d1-c02e-4f3a-b5d7-cbb70709406a","system_id":"levelo_inurba_marseille","lat":43.30934,"lon":5.4014,"is_reserved":false,"is_disabled":false,"rental_uris":{"android":"levelo://app?vid=6e4153d1-c02e-4f3a-b5d7-cbb70709406a","ios":"levelo://app?vid=6e4153d1-c02e-4f3a-b5d7-cbb70709406a"},"vehicle_type_id":"4","last_reported":1727953606,"current_range_meters":20400,"station_id":"ce4bgvp2rcd13ifvqct0","pricing_plan_id":"cebpf4jnsgd1na2vs0mg"},{"bike_id":"53c6fe7a-c5f0-4c29-bdb6-08c6c7db5c71","system_id":"levelo_inurba_marseille","lat":43.32115,"lon":5.36766,"is_reserved":false,"is_disabled":false,"rental_uris":{"android":"levelo://app?vid=53c6fe7a-c5f0-4c29-bdb6-08c6c7db5c71","ios":"levelo://app?vid=53c6fe7a-c5f0-4c29-bdb6-08c6c7db5c71"},"vehicle_type_id":"4","last_reported":1727953606,"current_range_meters":10000,"station_id":"ce4bhrh2rcd13ifvqhug","pricing_plan_id":"cebpf4jnsgd1na2vs0mg"},{"bike_id":"8cd4967a-5c3b-494d-8d94-4caf3da84f74","system_id":"levelo_inurba_marseille","lat":43.25933,"lon":5.40911,"is_reserved":false,"is_disabled":false,"rental_uris":{"android":"levelo://app?vid=8cd4967a-5c3b-494d-8d94-4caf3da84f74","ios":"levelo://app?vid=8cd4967a-5c3b-494d-8d94-4caf3da84f74"},"vehicle_type_id":"4","last_reported":1727953606,"current_range_meters":8000,"station_id":"ce4bhm92rcd13ifvqglg","pricing_plan_id":"cebpf4jnsgd1na2vs0mg"},{"bike_id":"3bfeb359-d5a3-4e82-a8c1-2660f47a3245","system_id":"levelo_inurba_marseille","lat":43.301456,"lon":5.374135,"is_reserved":false,"is_disabled":false,"rental_uris":{"android":"levelo://app?vid=3bfeb359-d5a3-4e82-a8c1-2660f47a3245","ios":"levelo://app?vid=3bfeb359-d5a3-4e82-a8c1-2660f47a3245"},"vehicle_type_id":"4","last_reported":1727953606,"current_range_meters":20000,"station_id":"ce4bgs92rcd13ifvqcc0","pricing_plan_id":"cebpf4jnsgd1na2vs0mg"},{"bike_id":"6ce60676-3f86-4aaa-a5df-572436c32ad4","system_id":"levelo_inurba_marseille","lat":43.23193,"lon":5.35543,"is_reserved":false,"is_disabled":false,"rental_uris":{"android":"levelo://app?vid=6ce60676-3f86-4aaa-a5df-572436c32ad4","ios":"levelo://app?vid=6ce60676-3f86-4aaa-a5df-572436c32ad4"},"vehicle_type_id":"4","last_reported":1727953606,"current_range_meters":20400,"station_id":"ce4bhu92rcd13ifvqi70","pricing_plan_id":"cebpf4jnsgd1na2vs0mg"},{"bike_id":"dee6229e-26d0-4d7e-9236-92ea7c2f2755","system_id":"levelo_inurba_marseille","lat":43.2963,"lon":5.37153,"is_reserved":false,"is_disabled":false,"rental_uris":{"android":"levelo://app?vid=dee6229e-26d0-4d7e-9236-92ea7c2f2755","ios":"levelo://app?vid=dee6229e-26d0-4d7e-9236-92ea7c2f2755"},"vehicle_type_id":"4","last_reported":1727953606,"current_range_meters":32800,"station_id":"ce4bgnh2rcd13ifvqc0g","pricing_plan_id":"cebpf4jnsgd1na2vs0mg"},{"bike_id":"f1a6c662-1f2f-43d3-bba4-20a506ee3ee3","system_id":"levelo_inurba_marseille","lat":43.301485,"lon":5.374163,"is_reserved":false,"is_disabled":false,"rental_uris":{"android":"levelo://app?vid=f1a6c662-1f2f-43d3-bba4-20a506ee3ee3","ios":"levelo://app?vid=f1a6c662-1f2f-43d3-bba4-20a506ee3ee3"},"vehicle_type_id":"4","last_reported":1727953606,"current_range_meters":30400,"station_id":"ce4bgs92rcd13ifvqcc0","pricing_plan_id":"cebpf4jnsgd1na2vs0mg"},{"bike_id":"c44517f6-e519-4b9a-af41-7bba70751b24","system_id":"levelo_inurba_marseille","lat":43.24179,"lon":5.39726,"is_reserved":false,"is_disabled":false,"rental_uris":{"android":"levelo://app?vid=c44517f6-e519-4b9a-af41-7bba70751b24","ios":"levelo://app?vid=c44517f6-e519-4b9a-af41-7bba70751b24"},"vehicle_type_id":"4","last_reported":1727953606,"current_range_meters":39200,"station_id":"ce4bhn12rcd13ifvqgpg","pricing_plan_id":"cebpf4jnsgd1na2vs0mg"},{"bike_id":"18546fdf-b8ba-4aec-a245-1c584b1703fb","system_id":"levelo_inurba_marseille","lat":43.30152,"lon":5.38083,"is_reserved":false,"is_disabled":false,"rental_uris":{"android":"levelo://app?vid=18546fdf-b8ba-4aec-a245-1c584b1703fb","ios":"levelo://app?vid=18546fdf-b8ba-4aec-a245-1c584b1703fb"},"vehicle_type_id":"4","last_reported":1727953606,"current_range_meters":36000,"station_id":"ce4bgjp2rcd13ifvqbh0","pricing_plan_id":"cebpf4jnsgd1na2vs0mg"},{"bike_id":"2bd41e8f-595a-48d8-87d1-c39e3b02765b","system_id":"levelo_inurba_marseille","lat":43.33746,"lon":5.37437,"is_reserved":false,"is_disabled":false,"rental_uris":{"android":"levelo://app?vid=2bd41e8f-595a-48d8-87d1-c39e3b02765b","ios":"levelo://app?vid=2bd41e8f-595a-48d8-87d1-c39e3b02765b"},"vehicle_type_id":"4","last_reported":1727953606,"current_range_meters":36000,"station_id":"","pricing_plan_id":"cebpf4jnsgd1na2vs0mg"},{"bike_id":"8e66c478-d5f1-4e78-b5ac-2b81f403d82b","system_id":"levelo_inurba_marseille","lat":43.32039,"lon":5.41549,"is_reserved":false,"is_disabled":false,"rental_uris":{"android":"levelo://app?vid=8e66c478-d5f1-4e78-b5ac-2b81f403d82b","ios":"levelo://app?vid=8e66c478-d5f1-4e78-b5ac-2b81f403d82b"},"vehicle_type_id":"4","last_reported":1727953606,"current_range_meters":20400,"station_id":"ce4bhq92rcd13ifvqhkg","pricing_plan_id":"cebpf4jnsgd1na2vs0mg"},{"bike_id":"fa19d165-97e6-43d2-8987-3cd42ef9befe","system_id":"levelo_inurba_marseille","lat":43.296295,"lon":5.381414,"is_reserved":false,"is_disabled":false,"rental_uris":{"android":"levelo://app?vid=fa19d165-97e6-43d2-8987-3cd42ef9befe","ios":"levelo://app?vid=fa19d165-97e6-43d2-8987-3cd42ef9befe"},"vehicle_type_id":"4","last_reported":1727953606,"current_range_meters":24400,"station_id":"ce4bgn12rcd13ifvqbt0","pricing_plan_id":"cebpf4jnsgd1na2vs0mg"},{"bike_id":"12fb16da-7f5d-444f-9fb7-83211bd7d07c","system_id":"levelo_inurba_marseille","lat":43.30649,"lon":5.40095,"is_reserved":false,"is_disabled":false,"rental_uris":{"android":"levelo://app?vid=12fb16da-7f5d-444f-9fb7-83211bd7d07c","ios":"levelo://app?vid=12fb16da-7f5d-444f-9fb7-83211bd7d07c"},"vehicle_type_id":"4","last_reported":1727953606,"current_range_meters":7200,"station_id":"ce4bh112rcd13ifvqda0","pricing_plan_id":"cebpf4jnsgd1na2vs0mg"},{"bike_id":"47a258fa-deaf-41f7-8457-1c637affa01a","system_id":"levelo_inurba_marseille","lat":43.30468,"lon":5.3791,"is_reserved":false,"is_disabled":false,"rental_uris":{"android":"levelo://app?vid=47a258fa-deaf-41f7-8457-1c637affa01a","ios":"levelo://app?vid=47a258fa-deaf-41f7-8457-1c637affa01a"},"vehicle_type_id":"4","last_reported":1727953606,"current_range_meters":25200,"station_id":"ce4bgup2rcd13ifvqcn0","pricing_plan_id":"cebpf4jnsgd1na2vs0mg"},{"bike_id":"7a7dee93-6c29-407e-bcf5-949befcd0be2","system_id":"levelo_inurba_marseille","lat":43.26948,"lon":5.38636,"is_reserved":false,"is_disabled":false,"rental_uris":{"android":"levelo://app?vid=7a7dee93-6c29-407e-bcf5-949befcd0be2","ios":"levelo://app?vid=7a7dee93-6c29-407e-bcf5-949befcd0be2"},"vehicle_type_id":"4","last_reported":1727953606,"current_range_meters":25600,"station_id":"ce4bhh92rcd13ifvqfh0","pricing_plan_id":"cebpf4jnsgd1na2vs0mg"},{"bike_id":"73905b5e-9e91-4f0c-8285-efd721a2c2a7","system_id":"levelo_inurba_marseille","lat":43.23966,"lon":5.36633,"is_reserved":false,"is_disabled":false,"rental_uris":{"android":"levelo://app?vid=73905b5e-9e91-4f0c-8285-efd721a2c2a7","ios":"levelo://app?vid=73905b5e-9e91-4f0c-8285-efd721a2c2a7"},"vehicle_type_id":"4","last_reported":1727953606,"current_range_meters":6400,"station_id":"ce4bhi12rcd13ifvqfp0","pricing_plan_id":"cebpf4jnsgd1na2vs0mg"},{"bike_id":"9e0f3fae-960a-459e-9544-640ffabb4848","system_id":"levelo_inurba_marseille","lat":43.32003,"lon":5.38169,"is_reserved":false,"is_disabled":false,"rental_uris":{"android":"levelo://app?vid=9e0f3fae-960a-459e-9544-640ffabb4848","ios":"levelo://app?vid=9e0f3fae-960a-459e-9544-640ffabb4848"},"vehicle_type_id":"4","last_reported":1727953606,"current_range_meters":35200,"station_id":"ce4bhr12rcd13ifvqhpg","pricing_plan_id":"cebpf4jnsgd1na2vs0mg"},{"bike_id":"af712472-1aaf-4780-8611-bc568681935f","system_id":"levelo_inurba_marseille","lat":43.30589,"lon":5.39348,"is_reserved":false,"is_disabled":false,"rental_uris":{"android":"levelo://app?vid=af712472-1aaf-4780-8611-bc568681935f","ios":"levelo://app?vid=af712472-1aaf-4780-8611-bc568681935f"},"vehicle_type_id":"4","last_reported":1727953606,"current_range_meters":38800,"station_id":"ce4bh0p2rcd13ifvqd80","pricing_plan_id":"cebpf4jnsgd1na2vs0mg"},{"bike_id":"0066c6b0-1057-4400-85b9-4677ce2f8905","system_id":"levelo_inurba_marseille","lat":43.29842,"lon":5.36261,"is_reserved":false,"is_disabled":false,"rental_uris":{"android":"levelo://app?vid=0066c6b0-1057-4400-85b9-4677ce2f8905","ios":"levelo://app?vid=0066c6b0-1057-4400-85b9-4677ce2f8905"},"vehicle_type_id":"4","last_reported":1727953606,"current_range_meters":16400,"station_id":"ce4bgpp2rcd13ifvqc3g","pricing_plan_id":"cebpf4jnsgd1na2vs0mg"},{"bike_id":"abfa74ce-ac56-4bd7-af8d-9fbafd2dc3d5","system_id":"levelo_inurba_marseille","lat":43.23966,"lon":5.36639,"is_reserved":false,"is_disabled":false,"rental_uris":{"android":"levelo://app?vid=abfa74ce-ac56-4bd7-af8d-9fbafd2dc3d5","ios":"levelo://app?vid=abfa74ce-ac56-4bd7-af8d-9fbafd2dc3d5"},"vehicle_type_id":"4","last_reported":1727953606,"current_range_meters":29600,"station_id":"ce4bhi12rcd13ifvqfp0","pricing_plan_id":"cebpf4jnsgd1na2vs0mg"},{"bike_id":"7c4b1431-91b4-4236-acaa-b1a4245ffa92","system_id":"levelo_inurba_marseille","lat":43.29784,"lon":5.37108,"is_reserved":false,"is_disabled":false,"rental_uris":{"android":"levelo://app?vid=7c4b1431-91b4-4236-acaa-b1a4245ffa92","ios":"levelo://app?vid=7c4b1431-91b4-4236-acaa-b1a4245ffa92"},"vehicle_type_id":"4","last_reported":1727953606,"current_range_meters":26800,"station_id":"ce4bgop2rcd13ifvqc1g","pricing_plan_id":"cebpf4jnsgd1na2vs0mg"},{"bike_id":"abbddb8a-cbdf-4be6-8e62-60fbee2d4805","system_id":"levelo_inurba_marseille","lat":43.28024,"lon":5.36953,"is_reserved":false,"is_disabled":false,"rental_uris":{"android":"levelo://app?vid=abbddb8a-cbdf-4be6-8e62-60fbee2d4805","ios":"levelo://app?vid=abbddb8a-cbdf-4be6-8e62-60fbee2d4805"},"vehicle_type_id":"4","last_reported":1727953606,"current_range_meters":8800,"station_id":"ce4bha12rcd13ifvqef0","pricing_plan_id":"cebpf4jnsgd1na2vs0mg"},{"bike_id":"5e6ae22a-8b03-4847-9fcb-b4ee23216d1b","system_id":"levelo_inurba_marseille","lat":43.29028,"lon":5.38653,"is_reserved":false,"is_disabled":false,"rental_uris":{"android":"levelo://app?vid=5e6ae22a-8b03-4847-9fcb-b4ee23216d1b","ios":"levelo://app?vid=5e6ae22a-8b03-4847-9fcb-b4ee23216d1b"},"vehicle_type_id":"4","last_reported":1727953606,"current_range_meters":24000,"station_id":"ce4bh4p2rcd13ifvqe0g","pricing_plan_id":"cebpf4jnsgd1na2vs0mg"},{"bike_id":"eff113c7-59b9-441e-aff3-5dd68542a590","system_id":"levelo_inurba_marseille","lat":43.24677,"lon":5.38168,"is_reserved":false,"is_disabled":false,"rental_uris":{"android":"levelo://app?vid=eff113c7-59b9-441e-aff3-5dd68542a590","ios":"levelo://app?vid=eff113c7-59b9-441e-aff3-5dd68542a590"},"vehicle_type_id":"4","last_reported":1727953606,"current_range_meters":27200,"station_id":"ce4bhih2rcd13ifvqfr0","pricing_plan_id":"cebpf4jnsgd1na2vs0mg"},{"bike_id":"aba06049-175b-4c5a-92b9-c6be4210c304","system_id":"levelo_inurba_marseille","lat":43.288447,"lon":5.393146,"is_reserved":false,"is_disabled":false,"rental_uris":{"android":"levelo://app?vid=aba06049-175b-4c5a-92b9-c6be4210c304","ios":"levelo://app?vid=aba06049-175b-4c5a-92b9-c6be4210c304"},"vehicle_type_id":"4","last_reported":1727953606,"current_range_meters":36400,"station_id":"","pricing_plan_id":"cebpf4jnsgd1na2vs0mg"},{"bike_id":"6c5a26eb-ee07-4d34-9b92-1ad63d0731a1","system_id":"levelo_inurba_marseille","lat":43.30292,"lon":5.37689,"is_reserved":false,"is_disabled":false,"rental_uris":{"android":"levelo://app?vid=6c5a26eb-ee07-4d34-9b92-1ad63d0731a1","ios":"levelo://app?vid=6c5a26eb-ee07-4d34-9b92-1ad63d0731a1"},"vehicle_type_id":"4","last_reported":1727953606,"current_range_meters":35200,"station_id":"ce4bguh2rcd13ifvqcj0","pricing_plan_id":"cebpf4jnsgd1na2vs0mg"},{"bike_id":"c8e4ff73-620c-4248-92f7-758d5098242c","system_id":"levelo_inurba_marseille","lat":43.22928,"lon":5.35376,"is_reserved":false,"is_disabled":false,"rental_uris":{"android":"levelo://app?vid=c8e4ff73-620c-4248-92f7-758d5098242c","ios":"levelo://app?vid=c8e4ff73-620c-4248-92f7-758d5098242c"},"vehicle_type_id":"4","last_reported":1727953606,"current_range_meters":27600,"station_id":"cpo3532slgdg3j2ikp40","pricing_plan_id":"cebpf4jnsgd1na2vs0mg"},{"bike_id":"38657abd-bfa2-4837-82cf-a61f9691d6cf","system_id":"levelo_inurba_marseille","lat":43.3055,"lon":5.36538,"is_reserved":false,"is_disabled":false,"rental_uris":{"android":"levelo://app?vid=38657abd-bfa2-4837-82cf-a61f9691d6cf","ios":"levelo://app?vid=38657abd-bfa2-4837-82cf-a61f9691d6cf"},"vehicle_type_id":"4","last_reported":1727953606,"current_range_meters":33200,"station_id":"ce4bgs12rcd13ifvqcag","pricing_plan_id":"cebpf4jnsgd1na2vs0mg"},{"bike_id":"f482c2cf-ba02-4c58-a5f7-4a140a15281f","system_id":"levelo_inurba_marseille","lat":43.314862,"lon":5.373106,"is_reserved":false,"is_disabled":false,"rental_uris":{"android":"levelo://app?vid=f482c2cf-ba02-4c58-a5f7-4a140a15281f","ios":"levelo://app?vid=f482c2cf-ba02-4c58-a5f7-4a140a15281f"},"vehicle_type_id":"4","last_reported":1727953606,"current_range_meters":6400,"station_id":"ce4bgth2rcd13ifvqch0","pricing_plan_id":"cebpf4jnsgd1na2vs0mg"},{"bike_id":"4a5a50e4-c72a-4b8d-88ce-dbf53703cacc","system_id":"levelo_inurba_marseille","lat":43.3059,"lon":5.39353,"is_reserved":false,"is_disabled":false,"rental_uris":{"android":"levelo://app?vid=4a5a50e4-c72a-4b8d-88ce-dbf53703cacc","ios":"levelo://app?vid=4a5a50e4-c72a-4b8d-88ce-dbf53703cacc"},"vehicle_type_id":"4","last_reported":1727953606,"current_range_meters":27600,"station_id":"ce4bh0p2rcd13ifvqd80","pricing_plan_id":"cebpf4jnsgd1na2vs0mg"},{"bike_id":"5fd74767-be89-4d70-934d-0d640f37cdd6","system_id":"levelo_inurba_marseille","lat":43.23148,"lon":5.43708,"is_reserved":false,"is_disabled":false,"rental_uris":{"android":"levelo://app?vid=5fd74767-be89-4d70-934d-0d640f37cdd6","ios":"levelo://app?vid=5fd74767-be89-4d70-934d-0d640f37cdd6"},"vehicle_type_id":"4","last_reported":1727953606,"current_range_meters":17600,"station_id":"ce4bhmp2rcd13ifvqgog","pricing_plan_id":"cebpf4jnsgd1na2vs0mg"},{"bike_id":"eea02000-c069-4533-af9e-a32a1e59b69d","system_id":"levelo_inurba_marseille","lat":43.26956,"lon":5.38641,"is_reserved":false,"is_disabled":false,"rental_uris":{"android":"levelo://app?vid=eea02000-c069-4533-af9e-a32a1e59b69d","ios":"levelo://app?vid=eea02000-c069-4533-af9e-a32a1e59b69d"},"vehicle_type_id":"4","last_reported":1727953606,"current_range_meters":14400,"station_id":"ce4bhh92rcd13ifvqfh0","pricing_plan_id":"cebpf4jnsgd1na2vs0mg"},{"bike_id":"96e09bbf-80bf-4b4a-8c1c-bc174ee515fe","system_id":"levelo_inurba_marseille","lat":43.30475,"lon":5.37917,"is_reserved":false,"is_disabled":false,"rental_uris":{"android":"levelo://app?vid=96e09bbf-80bf-4b4a-8c1c-bc174ee515fe","ios":"levelo://app?vid=96e09bbf-80bf-4b4a-8c1c-bc174ee515fe"},"vehicle_type_id":"4","last_reported":1727953606,"current_range_meters":38400,"station_id":"ce4bgup2rcd13ifvqcn0","pricing_plan_id":"cebpf4jnsgd1na2vs0mg"},{"bike_id":"00a17f64-c208-4bb0-9459-b530b32eb7e4","system_id":"levelo_inurba_marseille","lat":43.3047,"lon":5.37913,"is_reserved":false,"is_disabled":false,"rental_uris":{"android":"levelo://app?vid=00a17f64-c208-4bb0-9459-b530b32eb7e4","ios":"levelo://app?vid=00a17f64-c208-4bb0-9459-b530b32eb7e4"},"vehicle_type_id":"4","last_reported":1727953606,"current_range_meters":18800,"station_id":"ce4bgup2rcd13ifvqcn0","pricing_plan_id":"cebpf4jnsgd1na2vs0mg"},{"bike_id":"00d84a6e-e25c-4762-8f97-237202e627a2","system_id":"levelo_inurba_marseille","lat":43.323679,"lon":5.388775,"is_reserved":false,"is_disabled":false,"rental_uris":{"android":"levelo://app?vid=00d84a6e-e25c-4762-8f97-237202e627a2","ios":"levelo://app?vid=00d84a6e-e25c-4762-8f97-237202e627a2"},"vehicle_type_id":"4","last_reported":1727953606,"current_range_meters":8400,"station_id":"ce4bhqp2rcd13ifvqhog","pricing_plan_id":"cebpf4jnsgd1na2vs0mg"},{"bike_id":"dbf66c04-a155-49c8-884d-e33cb954e957","system_id":"levelo_inurba_marseille","lat":43.2315,"lon":5.43716,"is_reserved":false,"is_disabled":false,"rental_uris":{"android":"levelo://app?vid=dbf66c04-a155-49c8-884d-e33cb954e957","ios":"levelo://app?vid=dbf66c04-a155-49c8-884d-e33cb954e957"},"vehicle_type_id":"4","last_reported":1727953606,"current_range_meters":9200,"station_id":"ce4bhmp2rcd13ifvqgog","pricing_plan_id":"cebpf4jnsgd1na2vs0mg"},{"bike_id":"d5b0d861-b4b1-493e-b705-5a0fb68b3b99","system_id":"levelo_inurba_marseille","lat":43.24804,"lon":5.37463,"is_reserved":false,"is_disabled":false,"rental_uris":{"android":"levelo://app?vid=d5b0d861-b4b1-493e-b705-5a0fb68b3b99","ios":"levelo://app?vid=d5b0d861-b4b1-493e-b705-5a0fb68b3b99"},"vehicle_type_id":"4","last_reported":1727953606,"current_range_meters":36400,"station_id":"ce4bhgh2rcd13ifvqfb0","pricing_plan_id":"cebpf4jnsgd1na2vs0mg"},{"bike_id":"279deea5-d960-4cac-a348-cfd072a8fdd8","system_id":"levelo_inurba_marseille","lat":43.30906,"lon":5.36855,"is_reserved":false,"is_disabled":false,"rental_uris":{"android":"levelo://app?vid=279deea5-d960-4cac-a348-cfd072a8fdd8","ios":"levelo://app?vid=279deea5-d960-4cac-a348-cfd072a8fdd8"},"vehicle_type_id":"4","last_reported":1727953606,"current_range_meters":30800,"station_id":"ce4bgn92rcd13ifvqbvg","pricing_plan_id":"cebpf4jnsgd1na2vs0mg"},{"bike_id":"1e92032b-1e00-4776-82f5-bd6e3b57f288","system_id":"levelo_inurba_marseille","lat":43.295839,"lon":5.367433,"is_reserved":false,"is_disabled":false,"rental_uris":{"android":"levelo://app?vid=1e92032b-1e00-4776-82f5-bd6e3b57f288","ios":"levelo://app?vid=1e92032b-1e00-4776-82f5-bd6e3b57f288"},"vehicle_type_id":"4","last_reported":1727953606,"current_range_meters":37600,"station_id":"ce4bgph2rcd13ifvqc2g","pricing_plan_id":"cebpf4jnsgd1na2vs0mg"},{"bike_id":"75b6d23c-8e6a-4f18-bb07-ff063c93e683","system_id":"levelo_inurba_marseille","lat":43.30911,"lon":5.3685,"is_reserved":false,"is_disabled":false,"rental_uris":{"android":"levelo://app?vid=75b6d23c-8e6a-4f18-bb07-ff063c93e683","ios":"levelo://app?vid=75b6d23c-8e6a-4f18-bb07-ff063c93e683"},"vehicle_type_id":"4","last_reported":1727953606,"current_range_meters":38400,"station_id":"ce4bgn92rcd13ifvqbvg","pricing_plan_id":"cebpf4jnsgd1na2vs0mg"},{"bike_id":"13b11a44-2648-400e-9769-adc3a6afd0fe","system_id":"levelo_inurba_marseille","lat":43.29008,"lon":5.35607,"is_reserved":false,"is_disabled":false,"rental_uris":{"android":"levelo://app?vid=13b11a44-2648-400e-9769-adc3a6afd0fe","ios":"levelo://app?vid=13b11a44-2648-400e-9769-adc3a6afd0fe"},"vehicle_type_id":"4","last_reported":1727953606,"current_range_meters":12000,"station_id":"ce4bhb92rcd13ifvqen0","pricing_plan_id":"cebpf4jnsgd1na2vs0mg"},{"bike_id":"e2eb5636-e76d-48f4-81e9-ae49f394971e","system_id":"levelo_inurba_marseille","lat":43.25499,"lon":5.37651,"is_reserved":false,"is_disabled":false,"rental_uris":{"android":"levelo://app?vid=e2eb5636-e76d-48f4-81e9-ae49f394971e","ios":"levelo://app?vid=e2eb5636-e76d-48f4-81e9-ae49f394971e"},"vehicle_type_id":"4","last_reported":1727953606,"current_range_meters":14800,"station_id":"ce4bhh12rcd13ifvqff0","pricing_plan_id":"cebpf4jnsgd1na2vs0mg"},{"bike_id":"7024178e-a300-44e0-931d-dfb325a8eb14","system_id":"levelo_inurba_marseille","lat":43.283723,"lon":5.386246,"is_reserved":false,"is_disabled":false,"rental_uris":{"android":"levelo://app?vid=7024178e-a300-44e0-931d-dfb325a8eb14","ios":"levelo://app?vid=7024178e-a300-44e0-931d-dfb325a8eb14"},"vehicle_type_id":"4","last_reported":1727953606,"current_range_meters":28800,"station_id":"ce4bhkp2rcd13ifvqgd0","pricing_plan_id":"cebpf4jnsgd1na2vs0mg"},{"bike_id":"4a18e28e-9bad-4e5c-9538-59a77d5e7b0c","system_id":"levelo_inurba_marseille","lat":43.23147,"lon":5.43718,"is_reserved":false,"is_disabled":false,"rental_uris":{"android":"levelo://app?vid=4a18e28e-9bad-4e5c-9538-59a77d5e7b0c","ios":"levelo://app?vid=4a18e28e-9bad-4e5c-9538-59a77d5e7b0c"},"vehicle_type_id":"4","last_reported":1727953606,"current_range_meters":8000,"station_id":"ce4bhmp2rcd13ifvqgog","pricing_plan_id":"cebpf4jnsgd1na2vs0mg"},{"bike_id":"90929468-3a22-4292-8c2f-d446fdf14173","system_id":"levelo_inurba_marseille","lat":43.22925,"lon":5.35371,"is_reserved":false,"is_disabled":false,"rental_uris":{"android":"levelo://app?vid=90929468-3a22-4292-8c2f-d446fdf14173","ios":"levelo://app?vid=90929468-3a22-4292-8c2f-d446fdf14173"},"vehicle_type_id":"4","last_reported":1727953606,"current_range_meters":18800,"station_id":"cpo3532slgdg3j2ikp40","pricing_plan_id":"cebpf4jnsgd1na2vs0mg"},{"bike_id":"353d9945-a4f8-4d68-b95e-aff3a5d26f12","system_id":"levelo_inurba_marseille","lat":43.23966,"lon":5.36632,"is_reserved":false,"is_disabled":false,"rental_uris":{"android":"levelo://app?vid=353d9945-a4f8-4d68-b95e-aff3a5d26f12","ios":"levelo://app?vid=353d9945-a4f8-4d68-b95e-aff3a5d26f12"},"vehicle_type_id":"4","last_reported":1727953606,"current_range_meters":28000,"station_id":"ce4bhi12rcd13ifvqfp0","pricing_plan_id":"cebpf4jnsgd1na2vs0mg"},{"bike_id":"2b7b0848-4c2d-4d4e-ba86-9dcf7971875c","system_id":"levelo_inurba_marseille","lat":43.33758,"lon":5.3745,"is_reserved":false,"is_disabled":false,"rental_uris":{"android":"levelo://app?vid=2b7b0848-4c2d-4d4e-ba86-9dcf7971875c","ios":"levelo://app?vid=2b7b0848-4c2d-4d4e-ba86-9dcf7971875c"},"vehicle_type_id":"4","last_reported":1727953606,"current_range_meters":36400,"station_id":"","pricing_plan_id":"cebpf4jnsgd1na2vs0mg"},{"bike_id":"4f69c4e4-4aab-4ccb-88ff-64579ae1a72c","system_id":"levelo_inurba_marseille","lat":43.24181,"lon":5.39711,"is_reserved":false,"is_disabled":false,"rental_uris":{"android":"levelo://app?vid=4f69c4e4-4aab-4ccb-88ff-64579ae1a72c","ios":"levelo://app?vid=4f69c4e4-4aab-4ccb-88ff-64579ae1a72c"},"vehicle_type_id":"4","last_reported":1727953606,"current_range_meters":12800,"station_id":"ce4bhn12rcd13ifvqgpg","pricing_plan_id":"cebpf4jnsgd1na2vs0mg"},{"bike_id":"181392b0-603b-4480-b63b-dacd7d83fe41","system_id":"levelo_inurba_marseille","lat":43.2827,"lon":5.35061,"is_reserved":false,"is_disabled":false,"rental_uris":{"android":"levelo://app?vid=181392b0-603b-4480-b63b-dacd7d83fe41","ios":"levelo://app?vid=181392b0-603b-4480-b63b-dacd7d83fe41"},"vehicle_type_id":"4","last_reported":1727953606,"current_range_meters":12800,"station_id":"ce4bhbp2rcd13ifvqerg","pricing_plan_id":"cebpf4jnsgd1na2vs0mg"},{"bike_id":"9fec9171-ecc3-4458-a490-f5c3b2300c5d","system_id":"levelo_inurba_marseille","lat":43.29248,"lon":5.40911,"is_reserved":false,"is_disabled":false,"rental_uris":{"android":"levelo://app?vid=9fec9171-ecc3-4458-a490-f5c3b2300c5d","ios":"levelo://app?vid=9fec9171-ecc3-4458-a490-f5c3b2300c5d"},"vehicle_type_id":"4","last_reported":1727953606,"current_range_meters":30400,"station_id":"ce4bh192rcd13ifvqdc0","pricing_plan_id":"cebpf4jnsgd1na2vs0mg"},{"bike_id":"5d5d8844-37a5-4243-805a-e995a1529fa2","system_id":"levelo_inurba_marseille","lat":43.29095,"lon":5.38169,"is_reserved":false,"is_disabled":false,"rental_uris":{"android":"levelo://app?vid=5d5d8844-37a5-4243-805a-e995a1529fa2","ios":"levelo://app?vid=5d5d8844-37a5-4243-805a-e995a1529fa2"},"vehicle_type_id":"4","last_reported":1727953606,"current_range_meters":24800,"station_id":"ce4bh512rcd13ifvqe2g","pricing_plan_id":"cebpf4jnsgd1na2vs0mg"},{"bike_id":"9005e603-eaee-4b75-8194-67715ec7fc55","system_id":"levelo_inurba_marseille","lat":43.3171,"lon":5.43702,"is_reserved":false,"is_disabled":false,"rental_uris":{"android":"levelo://app?vid=9005e603-eaee-4b75-8194-67715ec7fc55","ios":"levelo://app?vid=9005e603-eaee-4b75-8194-67715ec7fc55"},"vehicle_type_id":"4","last_reported":1727953606,"current_range_meters":29600,"station_id":"ce4bhp92rcd13ifvqhcg","pricing_plan_id":"cebpf4jnsgd1na2vs0mg"},{"bike_id":"b868d0a8-f18c-40e0-8a49-27f27af68cda","system_id":"levelo_inurba_marseille","lat":43.30138,"lon":5.37402,"is_reserved":false,"is_disabled":false,"rental_uris":{"android":"levelo://app?vid=b868d0a8-f18c-40e0-8a49-27f27af68cda","ios":"levelo://app?vid=b868d0a8-f18c-40e0-8a49-27f27af68cda"},"vehicle_type_id":"4","last_reported":1727953606,"current_range_meters":27600,"station_id":"ce4bgs92rcd13ifvqcc0","pricing_plan_id":"cebpf4jnsgd1na2vs0mg"},{"bike_id":"23fcd5dc-52e3-40b6-b601-8da82c35b64a","system_id":"levelo_inurba_marseille","lat":43.23198,"lon":5.35546,"is_reserved":false,"is_disabled":false,"rental_uris":{"android":"levelo://app?vid=23fcd5dc-52e3-40b6-b601-8da82c35b64a","ios":"levelo://app?vid=23fcd5dc-52e3-40b6-b601-8da82c35b64a"},"vehicle_type_id":"4","last_reported":1727953606,"current_range_meters":37600,"station_id":"ce4bhu92rcd13ifvqi70","pricing_plan_id":"cebpf4jnsgd1na2vs0mg"},{"bike_id":"4e96f5e5-51ad-40c7-a3fb-c7bccd283bdd","system_id":"levelo_inurba_marseille","lat":43.24547,"lon":5.39526,"is_reserved":false,"is_disabled":false,"rental_uris":{"android":"levelo://app?vid=4e96f5e5-51ad-40c7-a3fb-c7bccd283bdd","ios":"levelo://app?vid=4e96f5e5-51ad-40c7-a3fb-c7bccd283bdd"},"vehicle_type_id":"4","last_reported":1727953606,"current_range_meters":37600,"station_id":"ce4bhlp2rcd13ifvqgjg","pricing_plan_id":"cebpf4jnsgd1na2vs0mg"},{"bike_id":"f4d1402d-e441-432d-a09a-a111f1847214","system_id":"levelo_inurba_marseille","lat":43.31226,"lon":5.36852,"is_reserved":false,"is_disabled":false,"rental_uris":{"android":"levelo://app?vid=f4d1402d-e441-432d-a09a-a111f1847214","ios":"levelo://app?vid=f4d1402d-e441-432d-a09a-a111f1847214"},"vehicle_type_id":"4","last_reported":1727953606,"current_range_meters":25200,"station_id":"ce4bgl92rcd13ifvqbq0","pricing_plan_id":"cebpf4jnsgd1na2vs0mg"},{"bike_id":"5c099b0d-a750-4b91-86e7-2abb5b1fed68","system_id":"levelo_inurba_marseille","lat":43.25945,"lon":5.40897,"is_reserved":false,"is_disabled":false,"rental_uris":{"android":"levelo://app?vid=5c099b0d-a750-4b91-86e7-2abb5b1fed68","ios":"levelo://app?vid=5c099b0d-a750-4b91-86e7-2abb5b1fed68"},"vehicle_type_id":"4","last_reported":1727953606,"current_range_meters":11600,"station_id":"ce4bhm92rcd13ifvqglg","pricing_plan_id":"cebpf4jnsgd1na2vs0mg"},{"bike_id":"9b079716-11fd-4041-bcd0-b84efe8a14ef","system_id":"levelo_inurba_marseille","lat":43.29804,"lon":5.38066,"is_reserved":false,"is_disabled":false,"rental_uris":{"android":"levelo://app?vid=9b079716-11fd-4041-bcd0-b84efe8a14ef","ios":"levelo://app?vid=9b079716-11fd-4041-bcd0-b84efe8a14ef"},"vehicle_type_id":"4","last_reported":1727953606,"current_range_meters":30800,"station_id":"ce4bgip2rcd13ifvqbb0","pricing_plan_id":"cebpf4jnsgd1na2vs0mg"},{"bike_id":"7d3e0c4d-ca7c-4de4-b417-1505937c7044","system_id":"levelo_inurba_marseille","lat":43.24391,"lon":5.37052,"is_reserved":false,"is_disabled":false,"rental_uris":{"android":"levelo://app?vid=7d3e0c4d-ca7c-4de4-b417-1505937c7044","ios":"levelo://app?vid=7d3e0c4d-ca7c-4de4-b417-1505937c7044"},"vehicle_type_id":"4","last_reported":1727953606,"current_range_meters":24000,"station_id":"ce4bhhh2rcd13ifvqfk0","pricing_plan_id":"cebpf4jnsgd1na2vs0mg"},{"bike_id":"f027679f-0392-4cbd-81e4-662400cc8a67","system_id":"levelo_inurba_marseille","lat":43.29842,"lon":5.36269,"is_reserved":false,"is_disabled":false,"rental_uris":{"android":"levelo://app?vid=f027679f-0392-4cbd-81e4-662400cc8a67","ios":"levelo://app?vid=f027679f-0392-4cbd-81e4-662400cc8a67"},"vehicle_type_id":"4","last_reported":1727953606,"current_range_meters":28800,"station_id":"ce4bgpp2rcd13ifvqc3g","pricing_plan_id":"cebpf4jnsgd1na2vs0mg"},{"bike_id":"48c5b446-ffeb-465b-a832-96aecc7a1ec0","system_id":"levelo_inurba_marseille","lat":43.28863,"lon":5.39411,"is_reserved":false,"is_disabled":false,"rental_uris":{"android":"levelo://app?vid=48c5b446-ffeb-465b-a832-96aecc7a1ec0","ios":"levelo://app?vid=48c5b446-ffeb-465b-a832-96aecc7a1ec0"},"vehicle_type_id":"4","last_reported":1727953606,"current_range_meters":11600,"station_id":"ce4bh2p2rcd13ifvqdi0","pricing_plan_id":"cebpf4jnsgd1na2vs0mg"},{"bike_id":"97eb5edc-36e5-49cb-80b9-7628fc0c7cdd","system_id":"levelo_inurba_marseille","lat":43.23968,"lon":5.36627,"is_reserved":false,"is_disabled":false,"rental_uris":{"android":"levelo://app?vid=97eb5edc-36e5-49cb-80b9-7628fc0c7cdd","ios":"levelo://app?vid=97eb5edc-36e5-49cb-80b9-7628fc0c7cdd"},"vehicle_type_id":"4","last_reported":1727953606,"current_range_meters":24000,"station_id":"ce4bhi12rcd13ifvqfp0","pricing_plan_id":"cebpf4jnsgd1na2vs0mg"},{"bike_id":"b50fb500-8b08-4ea7-9998-1b4da015d02c","system_id":"levelo_inurba_marseille","lat":43.27814,"lon":5.40705,"is_reserved":false,"is_disabled":false,"rental_uris":{"android":"levelo://app?vid=b50fb500-8b08-4ea7-9998-1b4da015d02c","ios":"levelo://app?vid=b50fb500-8b08-4ea7-9998-1b4da015d02c"},"vehicle_type_id":"4","last_reported":1727953606,"current_range_meters":6400,"station_id":"ce4bhnh2rcd13ifvqgtg","pricing_plan_id":"cebpf4jnsgd1na2vs0mg"},{"bike_id":"b074aba7-6016-4bd6-968d-61e6fe872681","system_id":"levelo_inurba_marseille","lat":43.32479,"lon":5.36563,"is_reserved":false,"is_disabled":false,"rental_uris":{"android":"levelo://app?vid=b074aba7-6016-4bd6-968d-61e6fe872681","ios":"levelo://app?vid=b074aba7-6016-4bd6-968d-61e6fe872681"},"vehicle_type_id":"4","last_reported":1727953606,"current_range_meters":24000,"station_id":"ce4bhs12rcd13ifvqhvg","pricing_plan_id":"cebpf4jnsgd1na2vs0mg"},{"bike_id":"d9513a24-3235-43a7-b9a5-1c5cfe37603f","system_id":"levelo_inurba_marseille","lat":43.2305,"lon":5.35487,"is_reserved":false,"is_disabled":false,"rental_uris":{"android":"levelo://app?vid=d9513a24-3235-43a7-b9a5-1c5cfe37603f","ios":"levelo://app?vid=d9513a24-3235-43a7-b9a5-1c5cfe37603f"},"vehicle_type_id":"4","last_reported":1727953606,"current_range_meters":30000,"station_id":"cpo3342slgdg3j2ifvpg","pricing_plan_id":"cebpf4jnsgd1na2vs0mg"},{"bike_id":"b94f53fb-aa1d-4bd5-a1f3-b111bbe71dd8","system_id":"levelo_inurba_marseille","lat":43.30297,"lon":5.39572,"is_reserved":false,"is_disabled":false,"rental_uris":{"android":"levelo://app?vid=b94f53fb-aa1d-4bd5-a1f3-b111bbe71dd8","ios":"levelo://app?vid=b94f53fb-aa1d-4bd5-a1f3-b111bbe71dd8"},"vehicle_type_id":"4","last_reported":1727953606,"current_range_meters":28400,"station_id":"ce4bgup2rcd13ifvqcn0","pricing_plan_id":"cebpf4jnsgd1na2vs0mg"},{"bike_id":"751ce559-76dc-4c0e-a00a-e2174349b090","system_id":"levelo_inurba_marseille","lat":43.303,"lon":5.36894,"is_reserved":false,"is_disabled":false,"rental_uris":{"android":"levelo://app?vid=751ce559-76dc-4c0e-a00a-e2174349b090","ios":"levelo://app?vid=751ce559-76dc-4c0e-a00a-e2174349b090"},"vehicle_type_id":"4","last_reported":1727953606,"current_range_meters":38800,"station_id":"ce4bgqh2rcd13ifvqc5g","pricing_plan_id":"cebpf4jnsgd1na2vs0mg"},{"bike_id":"ac091767-a753-42e0-bf5f-f1801206657f","system_id":"levelo_inurba_marseille","lat":43.30467,"lon":5.37905,"is_reserved":false,"is_disabled":false,"rental_uris":{"android":"levelo://app?vid=ac091767-a753-42e0-bf5f-f1801206657f","ios":"levelo://app?vid=ac091767-a753-42e0-bf5f-f1801206657f"},"vehicle_type_id":"4","last_reported":1727953606,"current_range_meters":23200,"station_id":"ce4bgup2rcd13ifvqcn0","pricing_plan_id":"cebpf4jnsgd1na2vs0mg"},{"bike_id":"89f79560-9417-4d80-afea-9f3796d9baaf","system_id":"levelo_inurba_marseille","lat":43.337444,"lon":5.374475,"is_reserved":false,"is_disabled":false,"rental_uris":{"android":"levelo://app?vid=89f79560-9417-4d80-afea-9f3796d9baaf","ios":"levelo://app?vid=89f79560-9417-4d80-afea-9f3796d9baaf"},"vehicle_type_id":"4","last_reported":1727953606,"current_range_meters":10800,"station_id":"","pricing_plan_id":"cebpf4jnsgd1na2vs0mg"},{"bike_id":"ede8fed6-a18b-483e-aa30-a9a6c7d9b8b2","system_id":"levelo_inurba_marseille","lat":43.31325,"lon":5.39695,"is_reserved":false,"is_disabled":false,"rental_uris":{"android":"levelo://app?vid=ede8fed6-a18b-483e-aa30-a9a6c7d9b8b2","ios":"levelo://app?vid=ede8fed6-a18b-483e-aa30-a9a6c7d9b8b2"},"vehicle_type_id":"4","last_reported":1727953606,"current_range_meters":35600,"station_id":"ce4bgvp2rcd13ifvqcu0","pricing_plan_id":"cebpf4jnsgd1na2vs0mg"},{"bike_id":"3838aa69-5c79-4b20-8602-b7519a220900","system_id":"levelo_inurba_marseille","lat":43.28938,"lon":5.36633,"is_reserved":false,"is_disabled":false,"rental_uris":{"android":"levelo://app?vid=3838aa69-5c79-4b20-8602-b7519a220900","ios":"levelo://app?vid=3838aa69-5c79-4b20-8602-b7519a220900"},"vehicle_type_id":"4","last_reported":1727953606,"current_range_meters":5600,"station_id":"ce4bhap2rcd13ifvqek0","pricing_plan_id":"cebpf4jnsgd1na2vs0mg"},{"bike_id":"764c6c33-8c6d-4196-afca-b4f9d900a3fe","system_id":"levelo_inurba_marseille","lat":43.30139,"lon":5.37417,"is_reserved":false,"is_disabled":false,"rental_uris":{"android":"levelo://app?vid=764c6c33-8c6d-4196-afca-b4f9d900a3fe","ios":"levelo://app?vid=764c6c33-8c6d-4196-afca-b4f9d900a3fe"},"vehicle_type_id":"4","last_reported":1727953606,"current_range_meters":31200,"station_id":"ce4bgs92rcd13ifvqcc0","pricing_plan_id":"cebpf4jnsgd1na2vs0mg"},{"bike_id":"a20f876d-db85-424e-87cd-a76a6280c509","system_id":"levelo_inurba_marseille","lat":43.29717,"lon":5.37698,"is_reserved":false,"is_disabled":false,"rental_uris":{"android":"levelo://app?vid=a20f876d-db85-424e-87cd-a76a6280c509","ios":"levelo://app?vid=a20f876d-db85-424e-87cd-a76a6280c509"},"vehicle_type_id":"4","last_reported":1727953606,"current_range_meters":24400,"station_id":"ce4bgkh2rcd13ifvqbl0","pricing_plan_id":"cebpf4jnsgd1na2vs0mg"},{"bike_id":"9bf124ee-5cc5-4a86-aaf0-0555a3177f69","system_id":"levelo_inurba_marseille","lat":43.30557,"lon":5.36546,"is_reserved":false,"is_disabled":false,"rental_uris":{"android":"levelo://app?vid=9bf124ee-5cc5-4a86-aaf0-0555a3177f69","ios":"levelo://app?vid=9bf124ee-5cc5-4a86-aaf0-0555a3177f69"},"vehicle_type_id":"4","last_reported":1727953606,"current_range_meters":9600,"station_id":"ce4bgs12rcd13ifvqcag","pricing_plan_id":"cebpf4jnsgd1na2vs0mg"},{"bike_id":"b4cdc7e9-bab2-45da-87b6-fdccb381bf0b","system_id":"levelo_inurba_marseille","lat":43.33612,"lon":5.41035,"is_reserved":false,"is_disabled":false,"rental_uris":{"android":"levelo://app?vid=b4cdc7e9-bab2-45da-87b6-fdccb381bf0b","ios":"levelo://app?vid=b4cdc7e9-bab2-45da-87b6-fdccb381bf0b"},"vehicle_type_id":"4","last_reported":1727953606,"current_range_meters":8400,"station_id":"ce4bhqh2rcd13ifvqhmg","pricing_plan_id":"cebpf4jnsgd1na2vs0mg"},{"bike_id":"c11e4bd0-e2c3-48ea-a4b3-91464161cb45","system_id":"levelo_inurba_marseille","lat":43.23958,"lon":5.36637,"is_reserved":false,"is_disabled":false,"rental_uris":{"android":"levelo://app?vid=c11e4bd0-e2c3-48ea-a4b3-91464161cb45","ios":"levelo://app?vid=c11e4bd0-e2c3-48ea-a4b3-91464161cb45"},"vehicle_type_id":"4","last_reported":1727953606,"current_range_meters":38400,"station_id":"ce4bhi12rcd13ifvqfp0","pricing_plan_id":"cebpf4jnsgd1na2vs0mg"},{"bike_id":"6969f528-4a62-42e3-84a6-9475bef01981","system_id":"levelo_inurba_marseille","lat":43.33603,"lon":5.41027,"is_reserved":false,"is_disabled":false,"rental_uris":{"android":"levelo://app?vid=6969f528-4a62-42e3-84a6-9475bef01981","ios":"levelo://app?vid=6969f528-4a62-42e3-84a6-9475bef01981"},"vehicle_type_id":"4","last_reported":1727953606,"current_range_meters":33600,"station_id":"ce4bhqh2rcd13ifvqhmg","pricing_plan_id":"cebpf4jnsgd1na2vs0mg"},{"bike_id":"d1b19411-4566-47f6-aa66-8f704d1b81b5","system_id":"levelo_inurba_marseille","lat":43.24545,"lon":5.39523,"is_reserved":false,"is_disabled":false,"rental_uris":{"android":"levelo://app?vid=d1b19411-4566-47f6-aa66-8f704d1b81b5","ios":"levelo://app?vid=d1b19411-4566-47f6-aa66-8f704d1b81b5"},"vehicle_type_id":"4","last_reported":1727953606,"current_range_meters":19600,"station_id":"ce4bhlp2rcd13ifvqgjg","pricing_plan_id":"cebpf4jnsgd1na2vs0mg"},{"bike_id":"1430add3-d4f9-4c53-8101-19290ecfc468","system_id":"levelo_inurba_marseille","lat":43.29837,"lon":5.36266,"is_reserved":false,"is_disabled":false,"rental_uris":{"android":"levelo://app?vid=1430add3-d4f9-4c53-8101-19290ecfc468","ios":"levelo://app?vid=1430add3-d4f9-4c53-8101-19290ecfc468"},"vehicle_type_id":"4","last_reported":1727953606,"current_range_meters":16000,"station_id":"ce4bgpp2rcd13ifvqc3g","pricing_plan_id":"cebpf4jnsgd1na2vs0mg"},{"bike_id":"c77732fc-6f69-43d9-b2d0-1630ada65ad7","system_id":"levelo_inurba_marseille","lat":43.24168,"lon":5.36392,"is_reserved":false,"is_disabled":false,"rental_uris":{"android":"levelo://app?vid=c77732fc-6f69-43d9-b2d0-1630ada65ad7","ios":"levelo://app?vid=c77732fc-6f69-43d9-b2d0-1630ada65ad7"},"vehicle_type_id":"4","last_reported":1727953606,"current_range_meters":35600,"station_id":"cpo36qri1sfpv3e86is0","pricing_plan_id":"cebpf4jnsgd1na2vs0mg"},{"bike_id":"5cfb007f-28bf-49ca-af28-135c25e894a5","system_id":"levelo_inurba_marseille","lat":43.34143,"lon":5.40897,"is_reserved":false,"is_disabled":false,"rental_uris":{"android":"levelo://app?vid=5cfb007f-28bf-49ca-af28-135c25e894a5","ios":"levelo://app?vid=5cfb007f-28bf-49ca-af28-135c25e894a5"},"vehicle_type_id":"4","last_reported":1727953606,"current_range_meters":11200,"station_id":"ce4bhqh2rcd13ifvqhlg","pricing_plan_id":"cebpf4jnsgd1na2vs0mg"},{"bike_id":"d4c72ee8-381c-4441-a843-e00b3abcb0ec","system_id":"levelo_inurba_marseille","lat":43.287,"lon":5.39987,"is_reserved":false,"is_disabled":false,"rental_uris":{"android":"levelo://app?vid=d4c72ee8-381c-4441-a843-e00b3abcb0ec","ios":"levelo://app?vid=d4c72ee8-381c-4441-a843-e00b3abcb0ec"},"vehicle_type_id":"4","last_reported":1727953606,"current_range_meters":32000,"station_id":"ce4bho92rcd13ifvqh3g","pricing_plan_id":"cebpf4jnsgd1na2vs0mg"},{"bike_id":"5fade192-d6e6-447e-a014-805eec400e7c","system_id":"levelo_inurba_marseille","lat":43.29791,"lon":5.38104,"is_reserved":false,"is_disabled":false,"rental_uris":{"android":"levelo://app?vid=5fade192-d6e6-447e-a014-805eec400e7c","ios":"levelo://app?vid=5fade192-d6e6-447e-a014-805eec400e7c"},"vehicle_type_id":"4","last_reported":1727953606,"current_range_meters":36800,"station_id":"ce4bgip2rcd13ifvqbb0","pricing_plan_id":"cebpf4jnsgd1na2vs0mg"},{"bike_id":"04d8ea9f-d3c3-4482-bae3-fcfb0c99c7ad","system_id":"levelo_inurba_marseille","lat":43.26788,"lon":5.39412,"is_reserved":false,"is_disabled":false,"rental_uris":{"android":"levelo://app?vid=04d8ea9f-d3c3-4482-bae3-fcfb0c99c7ad","ios":"levelo://app?vid=04d8ea9f-d3c3-4482-bae3-fcfb0c99c7ad"},"vehicle_type_id":"4","last_reported":1727953606,"current_range_meters":33600,"station_id":"ce4bhh12rcd13ifvqfg0","pricing_plan_id":"cebpf4jnsgd1na2vs0mg"},{"bike_id":"f2f621a6-283d-4076-b028-0bf061bd9f73","system_id":"levelo_inurba_marseille","lat":43.30884,"lon":5.39657,"is_reserved":false,"is_disabled":false,"rental_uris":{"android":"levelo://app?vid=f2f621a6-283d-4076-b028-0bf061bd9f73","ios":"levelo://app?vid=f2f621a6-283d-4076-b028-0bf061bd9f73"},"vehicle_type_id":"4","last_reported":1727953606,"current_range_meters":3600,"station_id":"ce4bh012rcd13ifvqcv0","pricing_plan_id":"cebpf4jnsgd1na2vs0mg"},{"bike_id":"d4ca3cb7-3285-4e3b-9f6a-2440127c81f8","system_id":"levelo_inurba_marseille","lat":43.31707,"lon":5.37736,"is_reserved":false,"is_disabled":false,"rental_uris":{"android":"levelo://app?vid=d4ca3cb7-3285-4e3b-9f6a-2440127c81f8","ios":"levelo://app?vid=d4ca3cb7-3285-4e3b-9f6a-2440127c81f8"},"vehicle_type_id":"4","last_reported":1727953606,"current_range_meters":31200,"station_id":"ce4bgth2rcd13ifvqch0","pricing_plan_id":"cebpf4jnsgd1na2vs0mg"},{"bike_id":"4ab62dea-de07-4790-aaf5-f93db104f566","system_id":"levelo_inurba_marseille","lat":43.26941,"lon":5.40264,"is_reserved":false,"is_disabled":false,"rental_uris":{"android":"levelo://app?vid=4ab62dea-de07-4790-aaf5-f93db104f566","ios":"levelo://app?vid=4ab62dea-de07-4790-aaf5-f93db104f566"},"vehicle_type_id":"4","last_reported":1727953606,"current_range_meters":38800,"station_id":"cjm6bp8fraef2m0cb0m0","pricing_plan_id":"cebpf4jnsgd1na2vs0mg"},{"bike_id":"0c78b637-e915-4f42-831d-430311b82b4c","system_id":"levelo_inurba_marseille","lat":43.28316,"lon":5.37927,"is_reserved":false,"is_disabled":false,"rental_uris":{"android":"levelo://app?vid=0c78b637-e915-4f42-831d-430311b82b4c","ios":"levelo://app?vid=0c78b637-e915-4f42-831d-430311b82b4c"},"vehicle_type_id":"4","last_reported":1727953606,"current_range_meters":20400,"station_id":"ce4bh412rcd13ifvqdr0","pricing_plan_id":"cebpf4jnsgd1na2vs0mg"},{"bike_id":"6f239231-5594-45aa-abc9-aa64c98a50b0","system_id":"levelo_inurba_marseille","lat":43.23962,"lon":5.36631,"is_reserved":false,"is_disabled":false,"rental_uris":{"android":"levelo://app?vid=6f239231-5594-45aa-abc9-aa64c98a50b0","ios":"levelo://app?vid=6f239231-5594-45aa-abc9-aa64c98a50b0"},"vehicle_type_id":"4","last_reported":1727953606,"current_range_meters":38000,"station_id":"ce4bhi12rcd13ifvqfp0","pricing_plan_id":"cebpf4jnsgd1na2vs0mg"},{"bike_id":"a787bd63-a04d-493b-a811-055b49a24464","system_id":"levelo_inurba_marseille","lat":43.27946,"lon":5.41051,"is_reserved":false,"is_disabled":false,"rental_uris":{"android":"levelo://app?vid=a787bd63-a04d-493b-a811-055b49a24464","ios":"levelo://app?vid=a787bd63-a04d-493b-a811-055b49a24464"},"vehicle_type_id":"4","last_reported":1727953606,"current_range_meters":20400,"station_id":"ce4bhnp2rcd13ifvqh0g","pricing_plan_id":"cebpf4jnsgd1na2vs0mg"},{"bike_id":"a4503d94-f06d-4d0f-a784-fbcccf24d5aa","system_id":"levelo_inurba_marseille","lat":43.27833,"lon":5.39216,"is_reserved":false,"is_disabled":false,"rental_uris":{"android":"levelo://app?vid=a4503d94-f06d-4d0f-a784-fbcccf24d5aa","ios":"levelo://app?vid=a4503d94-f06d-4d0f-a784-fbcccf24d5aa"},"vehicle_type_id":"4","last_reported":1727953606,"current_range_meters":37600,"station_id":"ce4bhjp2rcd13ifvqga0","pricing_plan_id":"cebpf4jnsgd1na2vs0mg"},{"bike_id":"b30a297f-af1c-470f-856b-c514b7e86dd3","system_id":"levelo_inurba_marseille","lat":43.29973,"lon":5.39846,"is_reserved":false,"is_disabled":false,"rental_uris":{"android":"levelo://app?vid=b30a297f-af1c-470f-856b-c514b7e86dd3","ios":"levelo://app?vid=b30a297f-af1c-470f-856b-c514b7e86dd3"},"vehicle_type_id":"4","last_reported":1727953606,"current_range_meters":30000,"station_id":"chh1huq6cuj3fo74tm60","pricing_plan_id":"cebpf4jnsgd1na2vs0mg"},{"bike_id":"60382ffd-f00b-44b0-8be8-ed1b0ee6ba67","system_id":"levelo_inurba_marseille","lat":43.29524,"lon":5.3854,"is_reserved":false,"is_disabled":false,"rental_uris":{"android":"levelo://app?vid=60382ffd-f00b-44b0-8be8-ed1b0ee6ba67","ios":"levelo://app?vid=60382ffd-f00b-44b0-8be8-ed1b0ee6ba67"},"vehicle_type_id":"4","last_reported":1727953606,"current_range_meters":25200,"station_id":"ce4bgih2rcd13ifvqba0","pricing_plan_id":"cebpf4jnsgd1na2vs0mg"},{"bike_id":"634132cd-ddff-4ec9-88b9-e64b9304e131","system_id":"levelo_inurba_marseille","lat":43.288522,"lon":5.393183,"is_reserved":false,"is_disabled":false,"rental_uris":{"android":"levelo://app?vid=634132cd-ddff-4ec9-88b9-e64b9304e131","ios":"levelo://app?vid=634132cd-ddff-4ec9-88b9-e64b9304e131"},"vehicle_type_id":"4","last_reported":1727953606,"current_range_meters":38000,"station_id":"ce4bh2p2rcd13ifvqdi0","pricing_plan_id":"cebpf4jnsgd1na2vs0mg"},{"bike_id":"d1874411-77fb-49d5-9c2a-e5976195f6b1","system_id":"levelo_inurba_marseille","lat":43.3059,"lon":5.39361,"is_reserved":false,"is_disabled":false,"rental_uris":{"android":"levelo://app?vid=d1874411-77fb-49d5-9c2a-e5976195f6b1","ios":"levelo://app?vid=d1874411-77fb-49d5-9c2a-e5976195f6b1"},"vehicle_type_id":"4","last_reported":1727953606,"current_range_meters":23200,"station_id":"ce4bh0p2rcd13ifvqd80","pricing_plan_id":"cebpf4jnsgd1na2vs0mg"},{"bike_id":"9b05ca02-dd5b-4c5f-8ade-4a1bc1f3708c","system_id":"levelo_inurba_marseille","lat":43.23178,"lon":5.39985,"is_reserved":false,"is_disabled":false,"rental_uris":{"android":"levelo://app?vid=9b05ca02-dd5b-4c5f-8ade-4a1bc1f3708c","ios":"levelo://app?vid=9b05ca02-dd5b-4c5f-8ade-4a1bc1f3708c"},"vehicle_type_id":"4","last_reported":1727953606,"current_range_meters":22800,"station_id":"ce4bhn12rcd13ifvqgqg","pricing_plan_id":"cebpf4jnsgd1na2vs0mg"},{"bike_id":"0d71b32b-d6f5-4bb0-b03f-a3b7411ac4c1","system_id":"levelo_inurba_marseille","lat":43.24801,"lon":5.37452,"is_reserved":false,"is_disabled":false,"rental_uris":{"android":"levelo://app?vid=0d71b32b-d6f5-4bb0-b03f-a3b7411ac4c1","ios":"levelo://app?vid=0d71b32b-d6f5-4bb0-b03f-a3b7411ac4c1"},"vehicle_type_id":"4","last_reported":1727953606,"current_range_meters":38000,"station_id":"ce4bhgh2rcd13ifvqfb0","pricing_plan_id":"cebpf4jnsgd1na2vs0mg"},{"bike_id":"78e21163-5c06-4666-b28c-9bce465b88c6","system_id":"levelo_inurba_marseille","lat":43.33263,"lon":5.41006,"is_reserved":false,"is_disabled":false,"rental_uris":{"android":"levelo://app?vid=78e21163-5c06-4666-b28c-9bce465b88c6","ios":"levelo://app?vid=78e21163-5c06-4666-b28c-9bce465b88c6"},"vehicle_type_id":"4","last_reported":1727953606,"current_range_meters":8400,"station_id":"ce4bhq92rcd13ifvqhkg","pricing_plan_id":"cebpf4jnsgd1na2vs0mg"},{"bike_id":"5084d4e8-22d7-4248-aec8-4997331ff1e0","system_id":"levelo_inurba_marseille","lat":43.22926,"lon":5.35378,"is_reserved":false,"is_disabled":false,"rental_uris":{"android":"levelo://app?vid=5084d4e8-22d7-4248-aec8-4997331ff1e0","ios":"levelo://app?vid=5084d4e8-22d7-4248-aec8-4997331ff1e0"},"vehicle_type_id":"4","last_reported":1727953606,"current_range_meters":35200,"station_id":"cpo3532slgdg3j2ikp40","pricing_plan_id":"cebpf4jnsgd1na2vs0mg"},{"bike_id":"bfdea504-caae-45f8-a180-d0833cf6aa7c","system_id":"levelo_inurba_marseille","lat":43.306,"lon":5.39363,"is_reserved":false,"is_disabled":false,"rental_uris":{"android":"levelo://app?vid=bfdea504-caae-45f8-a180-d0833cf6aa7c","ios":"levelo://app?vid=bfdea504-caae-45f8-a180-d0833cf6aa7c"},"vehicle_type_id":"4","last_reported":1727953606,"current_range_meters":38800,"station_id":"ce4bh0p2rcd13ifvqd80","pricing_plan_id":"cebpf4jnsgd1na2vs0mg"},{"bike_id":"7210bf21-f433-435e-8014-d41588a8f807","system_id":"levelo_inurba_marseille","lat":43.29969,"lon":5.38491,"is_reserved":false,"is_disabled":false,"rental_uris":{"android":"levelo://app?vid=7210bf21-f433-435e-8014-d41588a8f807","ios":"levelo://app?vid=7210bf21-f433-435e-8014-d41588a8f807"},"vehicle_type_id":"4","last_reported":1727953606,"current_range_meters":27200,"station_id":"ce4bh392rcd13ifvqdl0","pricing_plan_id":"cebpf4jnsgd1na2vs0mg"},{"bike_id":"17774e5e-4ca1-4447-afa9-8f03dd4b5e12","system_id":"levelo_inurba_marseille","lat":43.26194,"lon":5.37448,"is_reserved":false,"is_disabled":false,"rental_uris":{"android":"levelo://app?vid=17774e5e-4ca1-4447-afa9-8f03dd4b5e12","ios":"levelo://app?vid=17774e5e-4ca1-4447-afa9-8f03dd4b5e12"},"vehicle_type_id":"4","last_reported":1727953606,"current_range_meters":8800,"station_id":"ce4bhgp2rcd13ifvqfc0","pricing_plan_id":"cebpf4jnsgd1na2vs0mg"},{"bike_id":"acb30e7d-f238-4473-aac3-af55990f9bcc","system_id":"levelo_inurba_marseille","lat":43.247925,"lon":5.374437,"is_reserved":false,"is_disabled":false,"rental_uris":{"android":"levelo://app?vid=acb30e7d-f238-4473-aac3-af55990f9bcc","ios":"levelo://app?vid=acb30e7d-f238-4473-aac3-af55990f9bcc"},"vehicle_type_id":"4","last_reported":1727953606,"current_range_meters":38000,"station_id":"ce4bhgh2rcd13ifvqfb0","pricing_plan_id":"cebpf4jnsgd1na2vs0mg"},{"bike_id":"72874289-d55b-4589-a58d-5439d0347367","system_id":"levelo_inurba_marseille","lat":43.29986,"lon":5.37174,"is_reserved":false,"is_disabled":false,"rental_uris":{"android":"levelo://app?vid=72874289-d55b-4589-a58d-5439d0347367","ios":"levelo://app?vid=72874289-d55b-4589-a58d-5439d0347367"},"vehicle_type_id":"4","last_reported":1727953606,"current_range_meters":38000,"station_id":"ce4bgr92rcd13ifvqc7g","pricing_plan_id":"cebpf4jnsgd1na2vs0mg"},{"bike_id":"bd25a2c1-a162-4449-89c5-5d04162aed82","system_id":"levelo_inurba_marseille","lat":43.33783,"lon":5.3745,"is_reserved":false,"is_disabled":false,"rental_uris":{"android":"levelo://app?vid=bd25a2c1-a162-4449-89c5-5d04162aed82","ios":"levelo://app?vid=bd25a2c1-a162-4449-89c5-5d04162aed82"},"vehicle_type_id":"4","last_reported":1727953606,"current_range_meters":38000,"station_id":"","pricing_plan_id":"cebpf4jnsgd1na2vs0mg"},{"bike_id":"895ff04e-6bd2-4b32-b1aa-3864ece20b94","system_id":"levelo_inurba_marseille","lat":43.29708,"lon":5.36609,"is_reserved":false,"is_disabled":false,"rental_uris":{"android":"levelo://app?vid=895ff04e-6bd2-4b32-b1aa-3864ece20b94","ios":"levelo://app?vid=895ff04e-6bd2-4b32-b1aa-3864ece20b94"},"vehicle_type_id":"4","last_reported":1727953606,"current_range_meters":35200,"station_id":"ce4bgn12rcd13ifvqbt0","pricing_plan_id":"cebpf4jnsgd1na2vs0mg"},