{"last_updated":1737533557,"ttl":60,"version":"2.2","data":{"bikes":[{"bike_id":"7426e5d7-ef23-48f2-8bc1-17f3f5acaa9b","system_id":"levelo_inurba_marseille","lat":43.28316,"lon":5.39273,"is_reserved":false,"is_disabled":false,"rental_uris":{"android":"levelo://app?vid=7426e5d7-ef23-48f2-8bc1-17f3f5acaa9b","ios":"levelo://app?vid=7426e5d7-ef23-48f2-8bc1-17f3f5acaa9b"},"vehicle_type_id":"4","last_reported":1737533557,"current_range_meters":12800,"station_id":"","pricing_plan_id":"cebpf4jnsgd1na2vs0mg"},{"bike_id":"a319178b-5f98-41a6-9d48-283823ef5830","system_id":"levelo_inurba_marseille","lat":43.3163,"lon":5.40589,"is_reserved":false,"is_disabled":false,"rental_uris":{"android":"levelo://app?vid=a319178b-5f98-41a6-9d48-283823ef5830","ios":"levelo://app?vid=a319178b-5f98-41a6-9d48-283823ef5830"},"vehicle_type_id":"4","last_reported":1737533557,"current_range_meters":28000,"station_id":"ce4bh012rcd13ifvqd00","pricing_plan_id":"cebpf4jnsgd1na2vs0mg"},{"bike_id":"67652c3d-3809-45c0-8816-399370d8a70e","system_id":"levelo_inurba_marseille","lat":43.29817,"lon":5.38541,"is_reserved":false,"is_disabled":false,"rental_uris":{"android":"levelo://app?vid=67652c3d-3809-45c0-8816-399370d8a70e","ios":"levelo://app?vid=67652c3d-3809-45c0-8816-399370d8a70e"},"vehicle_type_id":"4","last_reported":1737533557,"current_range_meters":30800,"station_id":"ce4bh4p2rcd13ifvqe1g","pricing_plan_id":"cebpf4jnsgd1na2vs0mg"},{"bike_id":"e95ead81-6002-43ee-acd4-2ad45ddbcb0b","system_id":"levelo_inurba_marseille","lat":43.29042,"lon":5.3996,"is_reserved":false,"is_disabled":false,"rental_uris":{"android":"levelo://app?vid=e95ead81-6002-43ee-acd4-2ad45ddbcb0b","ios":"levelo://app?vid=e95ead81-6002-43ee-acd4-2ad45ddbcb0b"},"vehicle_type_id":"4","last_reported":1737533557,"current_range_meters":30800,"station_id":"ce4bh392rcd13ifvqdm0","pricing_plan_id":"cebpf4jnsgd1na2vs0mg"},{"bike_id":"69249617-d866-43f9-b563-9d5202d5cba6","system_id":"levelo_inurba_marseille","lat":43.2696,"lon":5.38619,"is_reserved":false,"is_disabled":false,"rental_uris":{"android":"levelo://app?vid=69249617-d866-43f9-b563-9d5202d5cba6","ios":"levelo://app?vid=69249617-d866-43f9-b563-9d5202d5cba6"},"vehicle_type_id":"4","last_reported":1737533557,"current_range_meters":36800,"station_id":"ce4bhh92rcd13ifvqfh0","pricing_plan_id":"cebpf4jnsgd1na2vs0mg"},{"bike_id":"3948ea88-cf3f-4efe-ace3-cb99aab83717","system_id":"levelo_inurba_marseille","lat":43.28608,"lon":5.35122,"is_reserved":false,"is_disabled":true,"rental_uris":{"android":"levelo://app?vid=3948ea88-cf3f-4efe-ace3-cb99aab83717","ios":"levelo://app?vid=3948ea88-cf3f-4efe-ace3-cb99aab83717"},"vehicle_type_id":"4","last_reported":1737533557,"current_range_meters":23200,"station_id":"ce4bhch2rcd13ifvqeug","pricing_plan_id":"cebpf4jnsgd1na2vs0mg"},{"bike_id":"22d9778a-3096-4868-b2ab-bb4576097f42","system_id":"levelo_inurba_marseille","lat":43.290418,"lon":5.399666,"is_reserved":false,"is_disabled":false,"rental_uris":{"android":"levelo://app?vid=22d9778a-3096-4868-b2ab-bb4576097f42","ios":"levelo://app?vid=22d9778a-3096-4868-b2ab-bb4576097f42"},"vehicle_type_id":"4","last_reported":1737533557,"current_range_meters":39200,"station_id":"ce4bh392rcd13ifvqdm0","pricing_plan_id":"cebpf4jnsgd1na2vs0mg"},{"bike_id":"41204f02-5a80-452b-83bf-3a4ad529f025","system_id":"levelo_inurba_marseille","lat":43.28721,"lon":5.39968,"is_reserved":false,"is_disabled":false,"rental_uris":{"android":"levelo://app?vid=41204f02-5a80-452b-83bf-3a4ad529f025","ios":"levelo://app?vid=41204f02-5a80-452b-83bf-3a4ad529f025"},"vehicle_type_id":"4","last_reported":1737533557,"current_range_meters":12000,"station_id":"ce4bho92rcd13ifvqh3g","pricing_plan_id":"cebpf4jnsgd1na2vs0mg"},{"bike_id":"3f12e175-81a3-4206-b4ae-6f06c4b453c7","system_id":"levelo_inurba_marseille","lat":43.30137,"lon":5.39875,"is_reserved":false,"is_disabled":false,"rental_uris":{"android":"levelo://app?vid=3f12e175-81a3-4206-b4ae-6f06c4b453c7","ios":"levelo://app?vid=3f12e175-81a3-4206-b4ae-6f06c4b453c7"},"vehicle_type_id":"4","last_reported":1737533557,"current_range_meters":38400,"station_id":"ce4bh0h2rcd13ifvqd40","pricing_plan_id":"cebpf4jnsgd1na2vs0mg"},{"bike_id":"a53d501f-9ee9-4f66-bb90-6eda7557b686","system_id":"levelo_inurba_marseille","lat":43.33747,"lon":5.37454,"is_reserved":false,"is_disabled":false,"rental_uris":{"android":"levelo://app?vid=a53d501f-9ee9-4f66-bb90-6eda7557b686","ios":"levelo://app?vid=a53d501f-9ee9-4f66-bb90-6eda7557b686"},"vehicle_type_id":"4","last_reported":1737533557,"current_range_meters":37600,"station_id":"","pricing_plan_id":"cebpf4jnsgd1na2vs0mg"},{"bike_id":"bae6085a-9912-4d15-8445-8a3f905d5654","system_id":"levelo_inurba_marseille","lat":43.26697,"lon":5.38257,"is_reserved":false,"is_disabled":true,"rental_uris":{"android":"levelo://app?vid=bae6085a-9912-4d15-8445-8a3f905d5654","ios":"levelo://app?vid=bae6085a-9912-4d15-8445-8a3f905d5654"},"vehicle_type_id":"4","last_reported":1737533557,"current_range_meters":23200,"station_id":"ce4bhg92rcd13ifvqf90","pricing_plan_id":"cebpf4jnsgd1na2vs0mg"},{"bike_id":"4290bcaa-2c5d-43d4-9777-d79974cac771","system_id":"levelo_inurba_marseille","lat":43.29259,"lon":5.3845,"is_reserved":false,"is_disabled":true,"rental_uris":{"android":"levelo://app?vid=4290bcaa-2c5d-43d4-9777-d79974cac771","ios":"levelo://app?vid=4290bcaa-2c5d-43d4-9777-d79974cac771"},"vehicle_type_id":"4","last_reported":1737533557,"current_range_meters":16000,"station_id":"ce4bh692rcd13ifvqea0","pricing_plan_id":"cebpf4jnsgd1na2vs0mg"},{"bike_id":"06e198a1-1d1c-49dd-bcb2-c5bbd85f71b3","system_id":"levelo_inurba_marseille","lat":43.301617,"lon":5.380832,"is_reserved":false,"is_disabled":false,"rental_uris":{"android":"levelo://app?vid=06e198a1-1d1c-49dd-bcb2-c5bbd85f71b3","ios":"levelo://app?vid=06e198a1-1d1c-49dd-bcb2-c5bbd85f71b3"},"vehicle_type_id":"4","last_reported":1737533557,"current_range_meters":38800,"station_id":"ce4bgjp2rcd13ifvqbh0","pricing_plan_id":"cebpf4jnsgd1na2vs0mg"},{"bike_id":"7dc251a9-9c7a-4f8b-9459-3f4b38c3247f","system_id":"levelo_inurba_marseille","lat":43.33018,"lon":5.39037,"is_reserved":false,"is_disabled":true,"rental_uris":{"android":"levelo://app?vid=7dc251a9-9c7a-4f8b-9459-3f4b38c3247f","ios":"levelo://app?vid=7dc251a9-9c7a-4f8b-9459-3f4b38c3247f"},"vehicle_type_id":"4","last_reported":1737533557,"current_range_meters":1200,"station_id":"ce4bhr92rcd13ifvqhrg","pricing_plan_id":"cebpf4jnsgd1na2vs0mg"},{"bike_id":"e82e2b29-4a00-4d0f-bbe2-17287496ac72","system_id":"levelo_inurba_marseille","lat":43.27304,"lon":5.39108,"is_reserved":false,"is_disabled":false,"rental_uris":{"android":"levelo://app?vid=e82e2b29-4a00-4d0f-bbe2-17287496ac72","ios":"levelo://app?vid=e82e2b29-4a00-4d0f-bbe2-17287496ac72"},"vehicle_type_id":"4","last_reported":1737533557,"current_range_meters":33600,"station_id":"ce4bhgp2rcd13ifvqfe0","pricing_plan_id":"cebpf4jnsgd1na2vs0mg"},{"bike_id":"bf7eb50d-a124-487a-bd34-be0646460ed1","system_id":"levelo_inurba_marseille","lat":43.31764,"lon":5.39013,"is_reserved":false,"is_disabled":false,"rental_uris":{"android":"levelo://app?vid=bf7eb50d-a124-487a-bd34-be0646460ed1","ios":"levelo://app?vid=bf7eb50d-a124-487a-bd34-be0646460ed1"},"vehicle_type_id":"4","last_reported":1737533557,"current_range_meters":10000,"station_id":"ce4bhqp2rcd13ifvqhng","pricing_plan_id":"cebpf4jnsgd1na2vs0mg"},{"bike_id":"841df8ac-7948-49dd-80f1-68c882cfc745","system_id":"levelo_inurba_marseille","lat":43.32292,"lon":5.38273,"is_reserved":false,"is_disabled":false,"rental_uris":{"android":"levelo://app?vid=841df8ac-7948-49dd-80f1-68c882cfc745","ios":"levelo://app?vid=841df8ac-7948-49dd-80f1-68c882cfc745"},"vehicle_type_id":"4","last_reported":1737533557,"current_range_meters":27200,"station_id":"ce4bhr12rcd13ifvqhqg","pricing_plan_id":"cebpf4jnsgd1na2vs0mg"},{"bike_id":"73b5b8fa-af4d-461f-91e2-112593d8066e","system_id":"levelo_inurba_marseille","lat":43.24037,"lon":5.37795,"is_reserved":false,"is_disabled":false,"rental_uris":{"android":"levelo://app?vid=73b5b8fa-af4d-461f-91e2-112593d8066e","ios":"levelo://app?vid=73b5b8fa-af4d-461f-91e2-112593d8066e"},"vehicle_type_id":"4","last_reported":1737533557,"current_range_meters":39200,"station_id":"ce4bhnp2rcd13ifvqgvg","pricing_plan_id":"cebpf4jnsgd1na2vs0mg"},{"bike_id":"ec4813fa-126a-4e93-bf6e-e6c3ea38f561","system_id":"levelo_inurba_marseille","lat":43.29616,"lon":5.40672,"is_reserved":false,"is_disabled":false,"rental_uris":{"android":"levelo://app?vid=ec4813fa-126a-4e93-bf6e-e6c3ea38f561","ios":"levelo://app?vid=ec4813fa-126a-4e93-bf6e-e6c3ea38f561"},"vehicle_type_id":"4","last_reported":1737533557,"current_range_meters":38800,"station_id":"ce4bh0h2rcd13ifvqd60","pricing_plan_id":"cebpf4jnsgd1na2vs0mg"},{"bike_id":"a2771881-b956-4a9a-9bc9-a89642d437c9","system_id":"levelo_inurba_marseille","lat":43.23199,"lon":5.35548,"is_reserved":false,"is_disabled":false,"rental_uris":{"android":"levelo://app?vid=a2771881-b956-4a9a-9bc9-a89642d437c9","ios":"levelo://app?vid=a2771881-b956-4a9a-9bc9-a89642d437c9"},"vehicle_type_id":"4","last_reported":1737533557,"current_range_meters":38000,"station_id":"ce4bhu92rcd13ifvqi70","pricing_plan_id":"cebpf4jnsgd1na2vs0mg"},{"bike_id":"86026dde-12b1-4041-beb7-70a4d634500e","system_id":"levelo_inurba_marseille","lat":43.2558,"lon":5.38242,"is_reserved":false,"is_disabled":false,"rental_uris":{"android":"levelo://app?vid=86026dde-12b1-4041-beb7-70a4d634500e","ios":"levelo://app?vid=86026dde-12b1-4041-beb7-70a4d634500e"},"vehicle_type_id":"4","last_reported":1737533557,"current_range_meters":23200,"station_id":"ce4bhih2rcd13ifvqfs0","pricing_plan_id":"cebpf4jnsgd1na2vs0mg"},{"bike_id":"7ec76538-ebc1-44b6-beab-4afe6f6fb409","system_id":"levelo_inurba_marseille","lat":43.27494,"lon":5.42464,"is_reserved":false,"is_disabled":false,"rental_uris":{"android":"levelo://app?vid=7ec76538-ebc1-44b6-beab-4afe6f6fb409","ios":"levelo://app?vid=7ec76538-ebc1-44b6-beab-4afe6f6fb409"},"vehicle_type_id":"4","last_reported":1737533557,"current_range_meters":9200,"station_id":"ce4bhn92rcd13ifvqgrg","pricing_plan_id":"cebpf4jnsgd1na2vs0mg"},{"bike_id":"ff69a801-4bbd-4978-9bec-e6f242dc486b","system_id":"levelo_inurba_marseille","lat":43.30479,"lon":5.37915,"is_reserved":false,"is_disabled":false,"rental_uris":{"android":"levelo://app?vid=ff69a801-4bbd-4978-9bec-e6f242dc486b","ios":"levelo://app?vid=ff69a801-4bbd-4978-9bec-e6f242dc486b"},"vehicle_type_id":"4","last_reported":1737533557,"current_range_meters":22800,"station_id":"ce4bgup2rcd13ifvqcn0","pricing_plan_id":"cebpf4jnsgd1na2vs0mg"},{"bike_id":"46c271a9-84a6-4074-bc6b-ea8b2041c27a","system_id":"levelo_inurba_marseille","lat":43.25579,"lon":5.382352,"is_reserved":false,"is_disabled":false,"rental_uris":{"android":"levelo://app?vid=46c271a9-84a6-4074-bc6b-ea8b2041c27a","ios":"levelo://app?vid=46c271a9-84a6-4074-bc6b-ea8b2041c27a"},"vehicle_type_id":"4","last_reported":1737533557,"current_range_meters":30800,"station_id":"ce4bhih2rcd13ifvqfs0","pricing_plan_id":"cebpf4jnsgd1na2vs0mg"},{"bike_id":"c2390fe0-2401-45a1-ae0d-67a8543ea284","system_id":"levelo_inurba_marseille","lat":43.30145,"lon":5.37418,"is_reserved":false,"is_disabled":false,"rental_uris":{"android":"levelo://app?vid=c2390fe0-2401-45a1-ae0d-67a8543ea284","ios":"levelo://app?vid=c2390fe0-2401-45a1-ae0d-67a8543ea284"},"vehicle_type_id":"4","last_reported":1737533557,"current_range_meters":16400,"station_id":"ce4bgs92rcd13ifvqcc0","pricing_plan_id":"cebpf4jnsgd1na2vs0mg"},{"bike_id":"9b8e59cc-176c-4543-87f0-686d1d230657","system_id":"levelo_inurba_marseille","lat":43.29199,"lon":5.35819,"is_reserved":false,"is_disabled":true,"rental_uris":{"android":"levelo://app?vid=9b8e59cc-176c-4543-87f0-686d1d230657","ios":"levelo://app?vid=9b8e59cc-176c-4543-87f0-686d1d230657"},"vehicle_type_id":"4","last_reported":1737533557,"current_range_meters":400,"station_id":"ce4bhb12rcd13ifvqel0","pricing_plan_id":"cebpf4jnsgd1na2vs0mg"},{"bike_id":"0f35782f-f969-40a2-9f3e-14f4f594f78f","system_id":"levelo_inurba_marseille","lat":43.24091,"lon":5.37752,"is_reserved":false,"is_disabled":false,"rental_uris":{"android":"levelo://app?vid=0f35782f-f969-40a2-9f3e-14f4f594f78f","ios":"levelo://app?vid=0f35782f-f969-40a2-9f3e-14f4f594f78f"},"vehicle_type_id":"4","last_reported":1737533557,"current_range_meters":19200,"station_id":"ce4bhnp2rcd13ifvqgvg","pricing_plan_id":"cebpf4jnsgd1na2vs0mg"},{"bike_id":"886c4567-ad19-45ee-a0c4-26d5faf2dff2","system_id":"levelo_inurba_marseille","lat":43.29037,"lon":5.38644,"is_reserved":false,"is_disabled":false,"rental_uris":{"android":"levelo://app?vid=886c4567-ad19-45ee-a0c4-26d5faf2dff2","ios":"levelo://app?vid=886c4567-ad19-45ee-a0c4-26d5faf2dff2"},"vehicle_type_id":"4","last_reported":1737533557,"current_range_meters":28400,"station_id":"ce4bh4p2rcd13ifvqe0g","pricing_plan_id":"cebpf4jnsgd1na2vs0mg"},{"bike_id":"0c5ad6b7-3862-4c1f-ae20-eed2815f3aa4","system_id":"levelo_inurba_marseille","lat":43.313654,"lon":5.384941,"is_reserved":false,"is_disabled":false,"rental_uris":{"android":"levelo://app?vid=0c5ad6b7-3862-4c1f-ae20-eed2815f3aa4","ios":"levelo://app?vid=0c5ad6b7-3862-4c1f-ae20-eed2815f3aa4"},"vehicle_type_id":"4","last_reported":1737533557,"current_range_meters":11200,"station_id":"ce4bgt92rcd13ifvqcf0","pricing_plan_id":"cebpf4jnsgd1na2vs0mg"},{"bike_id":"ccd1c39d-849e-47f4-98a4-a44127393ba6","system_id":"levelo_inurba_marseille","lat":43.29575,"lon":5.36743,"is_reserved":false,"is_disabled":false,"rental_uris":{"android":"levelo://app?vid=ccd1c39d-849e-47f4-98a4-a44127393ba6","ios":"levelo://app?vid=ccd1c39d-849e-47f4-98a4-a44127393ba6"},"vehicle_type_id":"4","last_reported":1737533557,"current_range_meters":31200,"station_id":"ce4bgph2rcd13ifvqc2g","pricing_plan_id":"cebpf4jnsgd1na2vs0mg"},{"bike_id":"f704117d-f7e5-4f9a-85fd-f0d266620f17","system_id":"levelo_inurba_marseille","lat":43.27334,"lon":5.39081,"is_reserved":false,"is_disabled":false,"rental_uris":{"android":"levelo://app?vid=f704117d-f7e5-4f9a-85fd-f0d266620f17","ios":"levelo://app?vid=f704117d-f7e5-4f9a-85fd-f0d266620f17"},"vehicle_type_id":"4","last_reported":1737533557,"current_range_meters":30400,"station_id":"ce4bhgp2rcd13ifvqfe0","pricing_plan_id":"cebpf4jnsgd1na2vs0mg"},{"bike_id":"e8e2ff4b-263b-4f3d-86f2-89df3874fcb1","system_id":"levelo_inurba_marseille","lat":43.30447,"lon":5.37913,"is_reserved":false,"is_disabled":false,"rental_uris":{"android":"levelo://app?vid=e8e2ff4b-263b-4f3d-86f2-89df3874fcb1","ios":"levelo://app?vid=e8e2ff4b-263b-4f3d-86f2-89df3874fcb1"},"vehicle_type_id":"4","last_reported":1737533557,"current_range_meters":16400,"station_id":"ce4bgup2rcd13ifvqcn0","pricing_plan_id":"cebpf4jnsgd1na2vs0mg"},{"bike_id":"5c01ebfb-992b-4e94-baa6-4615b3d195e3","system_id":"levelo_inurba_marseille","lat":43.26919,"lon":5.40268,"is_reserved":false,"is_disabled":false,"rental_uris":{"android":"levelo://app?vid=5c01ebfb-992b-4e94-baa6-4615b3d195e3","ios":"levelo://app?vid=5c01ebfb-992b-4e94-baa6-4615b3d195e3"},"vehicle_type_id":"4","last_reported":1737533557,"current_range_meters":3600,"station_id":"cjm6bp8fraef2m0cb0m0","pricing_plan_id":"cebpf4jnsgd1na2vs0mg"},{"bike_id":"6eb47bba-2b2a-4496-b25b-c094174d4731","system_id":"levelo_inurba_marseille","lat":43.2594,"lon":5.409,"is_reserved":false,"is_disabled":false,"rental_uris":{"android":"levelo://app?vid=6eb47bba-2b2a-4496-b25b-c094174d4731","ios":"levelo://app?vid=6eb47bba-2b2a-4496-b25b-c094174d4731"},"vehicle_type_id":"4","last_reported":1737533557,"current_range_meters":18800,"station_id":"ce4bhm92rcd13ifvqglg","pricing_plan_id":"cebpf4jnsgd1na2vs0mg"},{"bike_id":"0ec0257b-90a0-4795-823a-d8d50d2f0d73","system_id":"levelo_inurba_marseille","lat":43.3169,"lon":5.40481,"is_reserved":false,"is_disabled":false,"rental_uris":{"android":"levelo://app?vid=0ec0257b-90a0-4795-823a-d8d50d2f0d73","ios":"levelo://app?vid=0ec0257b-90a0-4795-823a-d8d50d2f0d73"},"vehicle_type_id":"4","last_reported":1737533557,"current_range_meters":16800,"station_id":"ce4bh012rcd13ifvqd00","pricing_plan_id":"cebpf4jnsgd1na2vs0mg"},{"bike_id":"ef459963-0ed0-47f9-a10e-2e49c0408e8a","system_id":"levelo_inurba_marseille","lat":43.29868,"lon":5.36269,"is_reserved":false,"is_disabled":false,"rental_uris":{"android":"levelo://app?vid=ef459963-0ed0-47f9-a10e-2e49c0408e8a","ios":"levelo://app?vid=ef459963-0ed0-47f9-a10e-2e49c0408e8a"},"vehicle_type_id":"4","last_reported":1737533557,"current_range_meters":38800,"station_id":"ce4bgpp2rcd13ifvqc3g","pricing_plan_id":"cebpf4jnsgd1na2vs0mg"},{"bike_id":"56c16567-a209-442e-b152-823591129e8b","system_id":"levelo_inurba_marseille","lat":43.28284,"lon":5.35082,"is_reserved":false,"is_disabled":false,"rental_uris":{"android":"levelo://app?vid=56c16567-a209-442e-b152-823591129e8b","ios":"levelo://app?vid=56c16567-a209-442e-b152-823591129e8b"},"vehicle_type_id":"4","last_reported":1737533557,"current_range_meters":37600,"station_id":"ce4bhbp2rcd13ifvqerg","pricing_plan_id":"cebpf4jnsgd1na2vs0mg"},{"bike_id":"601e94b9-6519-4608-b962-82d9abb347bb","system_id":"levelo_inurba_marseille","lat":43.30321,"lon":5.39204,"is_reserved":false,"is_disabled":false,"rental_uris":{"android":"levelo://app?vid=601e94b9-6519-4608-b962-82d9abb347bb","ios":"levelo://app?vid=601e94b9-6519-4608-b962-82d9abb347bb"},"vehicle_type_id":"4","last_reported":1737533557,"current_range_meters":30800,"station_id":"ce4bgkh2rcd13ifvqbk0","pricing_plan_id":"cebpf4jnsgd1na2vs0mg"},{"bike_id":"cc8190cc-c655-4b6b-b8a9-4a668ec97d5d","system_id":"levelo_inurba_marseille","lat":43.33613,"lon":5.41007,"is_reserved":false,"is_disabled":false,"rental_uris":{"android":"levelo://app?vid=cc8190cc-c655-4b6b-b8a9-4a668ec97d5d","ios":"levelo://app?vid=cc8190cc-c655-4b6b-b8a9-4a668ec97d5d"},"vehicle_type_id":"4","last_reported":1737533557,"current_range_meters":33600,"station_id":"ce4bhqh2rcd13ifvqhmg","pricing_plan_id":"cebpf4jnsgd1na2vs0mg"},{"bike_id":"ef2c1b03-bd1f-4a60-b621-61f7751b628d","system_id":"levelo_inurba_marseille","lat":43.29444,"lon":5.39775,"is_reserved":false,"is_disabled":true,"rental_uris":{"android":"levelo://app?vid=ef2c1b03-bd1f-4a60-b621-61f7751b628d","ios":"levelo://app?vid=ef2c1b03-bd1f-4a60-b621-61f7751b628d"},"vehicle_type_id":"4","last_reported":1737533557,"current_range_meters":2000,"station_id":"ce4bh3h2rcd13ifvqdo0","pricing_plan_id":"cebpf4jnsgd1na2vs0mg"},{"bike_id":"1eb2452e-9527-4cc7-99f1-3114fdf5918d","system_id":"levelo_inurba_marseille","lat":43.25653,"lon":5.41072,"is_reserved":false,"is_disabled":false,"rental_uris":{"android":"levelo://app?vid=1eb2452e-9527-4cc7-99f1-3114fdf5918d","ios":"levelo://app?vid=1eb2452e-9527-4cc7-99f1-3114fdf5918d"},"vehicle_type_id":"4","last_reported":1737533557,"current_range_meters":17200,"station_id":"","pricing_plan_id":"cebpf4jnsgd1na2vs0mg"},{"bike_id":"9bc726c4-f0ae-46a7-9894-3042b33f1aaf","system_id":"levelo_inurba_marseille","lat":43.23151,"lon":5.43718,"is_reserved":false,"is_disabled":false,"rental_uris":{"android":"levelo://app?vid=9bc726c4-f0ae-46a7-9894-3042b33f1aaf","ios":"levelo://app?vid=9bc726c4-f0ae-46a7-9894-3042b33f1aaf"},"vehicle_type_id":"4","last_reported":1737533557,"current_range_meters":38000,"station_id":"ce4bhmp2rcd13ifvqgog","pricing_plan_id":"cebpf4jnsgd1na2vs0mg"},{"bike_id":"04656797-d164-454b-8244-55edc7fec428","system_id":"levelo_inurba_marseille","lat":43.31721,"lon":5.42408,"is_reserved":false,"is_disabled":false,"rental_uris":{"android":"levelo://app?vid=04656797-d164-454b-8244-55edc7fec428","ios":"levelo://app?vid=04656797-d164-454b-8244-55edc7fec428"},"vehicle_type_id":"4","last_reported":1737533557,"current_range_meters":38800,"station_id":"ce4bhp92rcd13ifvqhbg","pricing_plan_id":"cebpf4jnsgd1na2vs0mg"},{"bike_id":"4b4ae6fe-1091-4d19-80d2-9abfc56106f8","system_id":"levelo_inurba_marseille","lat":43.27311,"lon":5.39084,"is_reserved":false,"is_disabled":false,"rental_uris":{"android":"levelo://app?vid=4b4ae6fe-1091-4d19-80d2-9abfc56106f8","ios":"levelo://app?vid=4b4ae6fe-1091-4d19-80d2-9abfc56106f8"},"vehicle_type_id":"4","last_reported":1737533557,"current_range_meters":18000,"station_id":"ce4bhgp2rcd13ifvqfe0","pricing_plan_id":"cebpf4jnsgd1na2vs0mg"},{"bike_id":"1f16ad06-6773-4946-8305-97dc88287b9f","system_id":"levelo_inurba_marseille","lat":43.30754,"lon":5.37706,"is_reserved":false,"is_disabled":false,"rental_uris":{"android":"levelo://app?vid=1f16ad06-6773-4946-8305-97dc88287b9f","ios":"levelo://app?vid=1f16ad06-6773-4946-8305-97dc88287b9f"},"vehicle_type_id":"4","last_reported":1737533557,"current_range_meters":24000,"station_id":"","pricing_plan_id":"cebpf4jnsgd1na2vs0mg"},{"bike_id":"08498b64-c464-4119-afb2-6f220d6847bc","system_id":"levelo_inurba_marseille","lat":43.28254,"lon":5.35077,"is_reserved":false,"is_disabled":true,"rental_uris":{"android":"levelo://app?vid=08498b64-c464-4119-afb2-6f220d6847bc","ios":"levelo://app?vid=08498b64-c464-4119-afb2-6f220d6847bc"},"vehicle_type_id":"4","last_reported":1737533557,"current_range_meters":35600,"station_id":"ce4bhbp2rcd13ifvqerg","pricing_plan_id":"cebpf4jnsgd1na2vs0mg"},{"bike_id":"72c6a75a-dcec-4bc7-8f9e-96be42e21f17","system_id":"levelo_inurba_marseille","lat":43.2511,"lon":5.40325,"is_reserved":false,"is_disabled":false,"rental_uris":{"android":"levelo://app?vid=72c6a75a-dcec-4bc7-8f9e-96be42e21f17","ios":"levelo://app?vid=72c6a75a-dcec-4bc7-8f9e-96be42e21f17"},"vehicle_type_id":"4","last_reported":1737533557,"current_range_meters":39200,"station_id":"ce4bhlh2rcd13ifvqgig","pricing_plan_id":"cebpf4jnsgd1na2vs0mg"},{"bike_id":"25b82b37-b383-4df0-bef5-ff1c7e54aa8a","system_id":"levelo_inurba_marseille","lat":43.30599,"lon":5.39371,"is_reserved":false,"is_disabled":false,"rental_uris":{"android":"levelo://app?vid=25b82b37-b383-4df0-bef5-ff1c7e54aa8a","ios":"levelo://app?vid=25b82b37-b383-4df0-bef5-ff1c7e54aa8a"},"vehicle_type_id":"4","last_reported":1737533557,"current_range_meters":22000,"station_id":"ce4bh0p2rcd13ifvqd80","pricing_plan_id":"cebpf4jnsgd1na2vs0mg"},{"bike_id":"debafc9f-0156-470f-b1d1-580c5ee03d1b","system_id":"levelo_inurba_marseille","lat":43.30948,"lon":5.39035,"is_reserved":false,"is_disabled":false,"rental_uris":{"android":"levelo://app?vid=debafc9f-0156-470f-b1d1-580c5ee03d1b","ios":"levelo://app?vid=debafc9f-0156-470f-b1d1-580c5ee03d1b"},"vehicle_type_id":"4","last_reported":1737533557,"current_range_meters":20800,"station_id":"ce4bgup2rcd13ifvqco0","pricing_plan_id":"cebpf4jnsgd1na2vs0mg"},{"bike_id":"74aa2cd9-5408-4b97-9ed0-299cf590f8db","system_id":"levelo_inurba_marseille","lat":43.28264,"lon":5.35077,"is_reserved":false,"is_disabled":false,"rental_uris":{"android":"levelo://app?vid=74aa2cd9-5408-4b97-9ed0-299cf590f8db","ios":"levelo://app?vid=74aa2cd9-5408-4b97-9ed0-299cf590f8db"},"vehicle_type_id":"4","last_reported":1737533557,"current_range_meters":39200,"station_id":"ce4bhbp2rcd13ifvqerg","pricing_plan_id":"cebpf4jnsgd1na2vs0mg"},{"bike_id":"5ae99370-9d6c-4455-9edb-57a0f1c3e10a","system_id":"levelo_inurba_marseille","lat":43.28027,"lon":5.36947,"is_reserved":false,"is_disabled":false,"rental_uris":{"android":"levelo://app?vid=5ae99370-9d6c-4455-9edb-57a0f1c3e10a","ios":"levelo://app?vid=5ae99370-9d6c-4455-9edb-57a0f1c3e10a"},"vehicle_type_id":"4","last_reported":1737533557,"current_range_meters":4000,"station_id":"ce4bha12rcd13ifvqef0","pricing_plan_id":"cebpf4jnsgd1na2vs0mg"},{"bike_id":"61583537-d876-48a9-bfc2-adfe9938d33d","system_id":"levelo_inurba_marseille","lat":43.29693,"lon":5.37358,"is_reserved":false,"is_disabled":false,"rental_uris":{"android":"levelo://app?vid=61583537-d876-48a9-bfc2-adfe9938d33d","ios":"levelo://app?vid=61583537-d876-48a9-bfc2-adfe9938d33d"},"vehicle_type_id":"4","last_reported":1737533557,"current_range_meters":24400,"station_id":"","pricing_plan_id":"cebpf4jnsgd1na2vs0mg"},{"bike_id":"fb051a1b-f405-4fb7-8edb-82e638aff8f9","system_id":"levelo_inurba_marseille","lat":43.298003,"lon":5.361276,"is_reserved":false,"is_disabled":false,"rental_uris":{"android":"levelo://app?vid=fb051a1b-f405-4fb7-8edb-82e638aff8f9","ios":"levelo://app?vid=fb051a1b-f405-4fb7-8edb-82e638aff8f9"},"vehicle_type_id":"4","last_reported":1737533557,"current_range_meters":36400,"station_id":"","pricing_plan_id":"cebpf4jnsgd1na2vs0mg"},{"bike_id":"63468950-507d-45fc-b23b-b241b7129b89","system_id":"levelo_inurba_marseille","lat":43.231873,"lon":5.399897,"is_reserved":false,"is_disabled":false,"rental_uris":{"android":"levelo://app?vid=63468950-507d-45fc-b23b-b241b7129b89","ios":"levelo://app?vid=63468950-507d-45fc-b23b-b241b7129b89"},"vehicle_type_id":"4","last_reported":1737533557,"current_range_meters":33200,"station_id":"ce4bhn12rcd13ifvqgqg","pricing_plan_id":"cebpf4jnsgd1na2vs0mg"},{"bike_id":"245a70c7-2a5d-4a73-a3a8-17e7e21e9a8b","system_id":"levelo_inurba_marseille","lat":43.32367,"lon":5.36763,"is_reserved":false,"is_disabled":false,"rental_uris":{"android":"levelo://app?vid=245a70c7-2a5d-4a73-a3a8-17e7e21e9a8b","ios":"levelo://app?vid=245a70c7-2a5d-4a73-a3a8-17e7e21e9a8b"},"vehicle_type_id":"4","last_reported":1737533557,"current_range_meters":29600,"station_id":"ce4bhsh2rcd13ifvqi2g","pricing_plan_id":"cebpf4jnsgd1na2vs0mg"},{"bike_id":"1b02c112-b381-4166-a3e2-64cf4bda4f82","system_id":"levelo_inurba_marseille","lat":43.26954,"lon":5.38639,"is_reserved":false,"is_disabled":false,"rental_uris":{"android":"levelo://app?vid=1b02c112-b381-4166-a3e2-64cf4bda4f82","ios":"levelo://app?vid=1b02c112-b381-4166-a3e2-64cf4bda4f82"},"vehicle_type_id":"4","last_reported":1737533557,"current_range_meters":6400,"station_id":"ce4bhh92rcd13ifvqfh0","pricing_plan_id":"cebpf4jnsgd1na2vs0mg"},{"bike_id":"09b24c4b-1afa-4a0b-87b1-d705eeaf6d39","system_id":"levelo_inurba_marseille","lat":43.27497,"lon":5.42466,"is_reserved":false,"is_disabled":false,"rental_uris":{"android":"levelo://app?vid=09b24c4b-1afa-4a0b-87b1-d705eeaf6d39","ios":"levelo://app?vid=09b24c4b-1afa-4a0b-87b1-d705eeaf6d39"},"vehicle_type_id":"4","last_reported":1737533557,"current_range_meters":16800,"station_id":"ce4bhn92rcd13ifvqgrg","pricing_plan_id":"cebpf4jnsgd1na2vs0mg"},{"bike_id":"f6132854-ba8b-4268-9a7d-378c728dd4c5","system_id":"levelo_inurba_marseille","lat":43.30602,"lon":5.39342,"is_reserved":false,"is_disabled":false,"rental_uris":{"android":"levelo://app?vid=f6132854-ba8b-4268-9a7d-378c728dd4c5","ios":"levelo://app?vid=f6132854-ba8b-4268-9a7d-378c728dd4c5"},"vehicle_type_id":"4","last_reported":1737533557,"current_range_meters":30400,"station_id":"ce4bh0p2rcd13ifvqd80","pricing_plan_id":"cebpf4jnsgd1na2vs0mg"},{"bike_id":"b7fe99b3-2520-409c-820c-45dc30488ce6","system_id":"levelo_inurba_marseille","lat":43.30462,"lon":5.37912,"is_reserved":false,"is_disabled":false,"rental_uris":{"android":"levelo://app?vid=b7fe99b3-2520-409c-820c-45dc30488ce6","ios":"levelo://app?vid=b7fe99b3-2520-409c-820c-45dc30488ce6"},"vehicle_type_id":"4","last_reported":1737533557,"current_range_meters":19600,"station_id":"ce4bgup2rcd13ifvqcn0","pricing_plan_id":"cebpf4jnsgd1na2vs0mg"},{"bike_id":"cf6cc3c3-ec68-4af1-9f0b-e76bd62acc1d","system_id":"levelo_inurba_marseille","lat":43.25917,"lon":5.40923,"is_reserved":false,"is_disabled":false,"rental_uris":{"android":"levelo://app?vid=cf6cc3c3-ec68-4af1-9f0b-e76bd62acc1d","ios":"levelo://app?vid=cf6cc3c3-ec68-4af1-9f0b-e76bd62acc1d"},"vehicle_type_id":"4","last_reported":1737533557,"current_range_meters":28400,"station_id":"ce4bhm92rcd13ifvqglg","pricing_plan_id":"cebpf4jnsgd1na2vs0mg"},{"bike_id":"46819045-a76c-4f28-b0a2-c29d305da33c","system_id":"levelo_inurba_marseille","lat":43.3047,"lon":5.37924,"is_reserved":false,"is_disabled":false,"rental_uris":{"android":"levelo://app?vid=46819045-a76c-4f28-b0a2-c29d305da33c","ios":"levelo://app?vid=46819045-a76c-4f28-b0a2-c29d305da33c"},"vehicle_type_id":"4","last_reported":1737533557,"current_range_meters":28400,"station_id":"ce4bgup2rcd13ifvqcn0","pricing_plan_id":"cebpf4jnsgd1na2vs0mg"},{"bike_id":"6a243d90-aa22-417f-ad42-e4d8ab85b602","system_id":"levelo_inurba_marseille","lat":43.30517,"lon":5.36718,"is_reserved":false,"is_disabled":false,"rental_uris":{"android":"levelo://app?vid=6a243d90-aa22-417f-ad42-e4d8ab85b602","ios":"levelo://app?vid=6a243d90-aa22-417f-ad42-e4d8ab85b602"},"vehicle_type_id":"4","last_reported":1737533557,"current_range_meters":24400,"station_id":"ce4bgrp2rcd13ifvqc9g","pricing_plan_id":"cebpf4jnsgd1na2vs0mg"},{"bike_id":"d6e7e882-1ba0-452e-bda2-861fb950b72a","system_id":"levelo_inurba_marseille","lat":43.31352,"lon":5.36725,"is_reserved":false,"is_disabled":false,"rental_uris":{"android":"levelo://app?vid=d6e7e882-1ba0-452e-bda2-861fb950b72a","ios":"levelo://app?vid=d6e7e882-1ba0-452e-bda2-861fb950b72a"},"vehicle_type_id":"4","last_reported":1737533557,"current_range_meters":27200,"station_id":"ce4bgr92rcd13ifvqc6g","pricing_plan_id":"cebpf4jnsgd1na2vs0mg"},{"bike_id":"229dd1d5-aa46-48d3-b747-f187a4236bff","system_id":"levelo_inurba_marseille","lat":43.32333,"lon":5.38908,"is_reserved":false,"is_disabled":false,"rental_uris":{"android":"levelo://app?vid=229dd1d5-aa46-48d3-b747-f187a4236bff","ios":"levelo://app?vid=229dd1d5-aa46-48d3-b747-f187a4236bff"},"vehicle_type_id":"4","last_reported":1737533557,"current_range_meters":24400,"station_id":"ce4bhqp2rcd13ifvqhog","pricing_plan_id":"cebpf4jnsgd1na2vs0mg"},{"bike_id":"92074eeb-7c24-47b3-a1d7-6aecb177d103","system_id":"levelo_inurba_marseille","lat":43.33564,"lon":5.41103,"is_reserved":false,"is_disabled":false,"rental_uris":{"android":"levelo://app?vid=92074eeb-7c24-47b3-a1d7-6aecb177d103","ios":"levelo://app?vid=92074eeb-7c24-47b3-a1d7-6aecb177d103"},"vehicle_type_id":"4","last_reported":1737533557,"current_range_meters":36400,"station_id":"ce4bhqh2rcd13ifvqhmg","pricing_plan_id":"cebpf4jnsgd1na2vs0mg"},{"bike_id":"388bf2cf-af51-463d-a5ac-6234f3f91974","system_id":"levelo_inurba_marseille","lat":43.30455,"lon":5.37913,"is_reserved":false,"is_disabled":true,"rental_uris":{"android":"levelo://app?vid=388bf2cf-af51-463d-a5ac-6234f3f91974","ios":"levelo://app?vid=388bf2cf-af51-463d-a5ac-6234f3f91974"},"vehicle_type_id":"4","last_reported":1737533557,"current_range_meters":38800,"station_id":"ce4bgup2rcd13ifvqcn0","pricing_plan_id":"cebpf4jnsgd1na2vs0mg"},{"bike_id":"a8d1e8a2-7f0c-48b3-8ec6-103bd14c2b76","system_id":"levelo_inurba_marseille","lat":43.32487,"lon":5.36561,"is_reserved":false,"is_disabled":false,"rental_uris":{"android":"levelo://app?vid=a8d1e8a2-7f0c-48b3-8ec6-103bd14c2b76","ios":"levelo://app?vid=a8d1e8a2-7f0c-48b3-8ec6-103bd14c2b76"},"vehicle_type_id":"4","last_reported":1737533557,"current_range_meters":24000,"station_id":"ce4bhs12rcd13ifvqhvg","pricing_plan_id":"cebpf4jnsgd1na2vs0mg"},{"bike_id":"2b9b2bd3-d403-463f-bab7-3e9bdaa7f40f","system_id":"levelo_inurba_marseille","lat":43.25939,"lon":5.409,"is_reserved":false,"is_disabled":false,"rental_uris":{"android":"levelo://app?vid=2b9b2bd3-d403-463f-bab7-3e9bdaa7f40f","ios":"levelo://app?vid=2b9b2bd3-d403-463f-bab7-3e9bdaa7f40f"},"vehicle_type_id":"4","last_reported":1737533557,"current_range_meters":3600,"station_id":"ce4bhm92rcd13ifvqglg","pricing_plan_id":"cebpf4jnsgd1na2vs0mg"},{"bike_id":"fc4611da-77a7-4c7f-96e0-518d1af34c80","system_id":"levelo_inurba_marseille","lat":43.30593,"lon":5.39362,"is_reserved":false,"is_disabled":false,"rental_uris":{"android":"levelo://app?vid=fc4611da-77a7-4c7f-96e0-518d1af34c80","ios":"levelo://app?vid=fc4611da-77a7-4c7f-96e0-518d1af34c80"},"vehicle_type_id":"4","last_reported":1737533557,"current_range_meters":36800,"station_id":"ce4bh0p2rcd13ifvqd80","pricing_plan_id":"cebpf4jnsgd1na2vs0mg"},{"bike_id":"bef6c1af-f80b-4a93-9039-cf48e3f45fa6","system_id":"levelo_inurba_marseille","lat":43.23978,"lon":5.3662,"is_reserved":false,"is_disabled":false,"rental_uris":{"android":"levelo://app?vid=bef6c1af-f80b-4a93-9039-cf48e3f45fa6","ios":"levelo://app?vid=bef6c1af-f80b-4a93-9039-cf48e3f45fa6"},"vehicle_type_id":"4","last_reported":1737533557,"current_range_meters":27600,"station_id":"ce4bhi12rcd13ifvqfp0","pricing_plan_id":"cebpf4jnsgd1na2vs0mg"},{"bike_id":"d927ff8f-344e-4eed-94fc-a6db86b8e90c","system_id":"levelo_inurba_marseille","lat":43.31076,"lon":5.38364,"is_reserved":false,"is_disabled":false,"rental_uris":{"android":"levelo://app?vid=d927ff8f-344e-4eed-94fc-a6db86b8e90c","ios":"levelo://app?vid=d927ff8f-344e-4eed-94fc-a6db86b8e90c"},"vehicle_type_id":"4","last_reported":1737533557,"current_range_meters":23200,"station_id":"ce4bgv92rcd13ifvqcr0","pricing_plan_id":"cebpf4jnsgd1na2vs0mg"},{"bike_id":"7913d9ce-121f-49fa-9a7c-09d5d8f80136","system_id":"levelo_inurba_marseille","lat":43.2785,"lon":5.38044,"is_reserved":false,"is_disabled":false,"rental_uris":{"android":"levelo://app?vid=7913d9ce-121f-49fa-9a7c-09d5d8f80136","ios":"levelo://app?vid=7913d9ce-121f-49fa-9a7c-09d5d8f80136"},"vehicle_type_id":"4","last_reported":1737533557,"current_range_meters":38800,"station_id":"ce4bhf92rcd13ifvqf50","pricing_plan_id":"cebpf4jnsgd1na2vs0mg"},{"bike_id":"fe71ffd1-57ef-45b1-8082-78407a87e5dd","system_id":"levelo_inurba_marseille","lat":43.32476,"lon":5.36562,"is_reserved":false,"is_disabled":false,"rental_uris":{"android":"levelo://app?vid=fe71ffd1-57ef-45b1-8082-78407a87e5dd","ios":"levelo://app?vid=fe71ffd1-57ef-45b1-8082-78407a87e5dd"},"vehicle_type_id":"4","last_reported":1737533557,"current_range_meters":26000,"station_id":"ce4bhs12rcd13ifvqhvg","pricing_plan_id":"cebpf4jnsgd1na2vs0mg"},{"bike_id":"7f389e7a-ade1-4b76-bf3a-bd5bf61f3d42","system_id":"levelo_inurba_marseille","lat":43.30934,"lon":5.40161,"is_reserved":false,"is_disabled":false,"rental_uris":{"android":"levelo://app?vid=7f389e7a-ade1-4b76-bf3a-bd5bf61f3d42","ios":"levelo://app?vid=7f389e7a-ade1-4b76-bf3a-bd5bf61f3d42"},"vehicle_type_id":"4","last_reported":1737533557,"current_range_meters":39200,"station_id":"ce4bgvp2rcd13ifvqct0","pricing_plan_id":"cebpf4jnsgd1na2vs0mg"},{"bike_id":"aac71eed-fec9-4f89-95a8-f2df692ed8b3","system_id":"levelo_inurba_marseille","lat":43.309321,"lon":5.401529,"is_reserved":false,"is_disabled":false,"rental_uris":{"android":"levelo://app?vid=aac71eed-fec9-4f89-95a8-f2df692ed8b3","ios":"levelo://app?vid=aac71eed-fec9-4f89-95a8-f2df692ed8b3"},"vehicle_type_id":"4","last_reported":1737533557,"current_range_meters":38800,"station_id":"ce4bgvp2rcd13ifvqct0","pricing_plan_id":"cebpf4jnsgd1na2vs0mg"},{"bike_id":"5b0c2773-d5b2-4dbe-bd78-1515ffe55928","system_id":"levelo_inurba_marseille","lat":43.25932,"lon":5.40912,"is_reserved":false,"is_disabled":false,"rental_uris":{"android":"levelo://app?vid=5b0c2773-d5b2-4dbe-bd78-1515ffe55928","ios":"levelo://app?vid=5b0c2773-d5b2-4dbe-bd78-1515ffe55928"},"vehicle_type_id":"4","last_reported":1737533557,"current_range_meters":24400,"station_id":"ce4bhm92rcd13ifvqglg","pricing_plan_id":"cebpf4jnsgd1na2vs0mg"},{"bike_id":"37296be2-71c5-4057-9ec0-05b66a98ee16","system_id":"levelo_inurba_marseille","lat":43.29171,"lon":5.37158,"is_reserved":false,"is_disabled":false,"rental_uris":{"android":"levelo://app?vid=37296be2-71c5-4057-9ec0-05b66a98ee16","ios":"levelo://app?vid=37296be2-71c5-4057-9ec0-05b66a98ee16"},"vehicle_type_id":"4","last_reported":1737533557,"current_range_meters":34000,"station_id":"ce4bha92rcd13ifvqeh0","pricing_plan_id":"cebpf4jnsgd1na2vs0mg"},{"bike_id":"2512448d-137b-4c58-a2dc-a8485ce50ee5","system_id":"levelo_inurba_marseille","lat":43.27808,"lon":5.4073,"is_reserved":false,"is_disabled":false,"rental_uris":{"android":"levelo://app?vid=2512448d-137b-4c58-a2dc-a8485ce50ee5","ios":"levelo://app?vid=2512448d-137b-4c58-a2dc-a8485ce50ee5"},"vehicle_type_id":"4","last_reported":1737533557,"current_range_meters":38800,"station_id":"ce4bhnh2rcd13ifvqgtg","pricing_plan_id":"cebpf4jnsgd1na2vs0mg"},{"bike_id":"e6b4a07a-7142-4c60-ad42-8a9947eb9acf","system_id":"levelo_inurba_marseille","lat":43.316827,"lon":5.404767,"is_reserved":false,"is_disabled":false,"rental_uris":{"android":"levelo://app?vid=e6b4a07a-7142-4c60-ad42-8a9947eb9acf","ios":"levelo://app?vid=e6b4a07a-7142-4c60-ad42-8a9947eb9acf"},"vehicle_type_id":"4","last_reported":1737533557,"current_range_meters":32400,"station_id":"ce4bh012rcd13ifvqd00","pricing_plan_id":"cebpf4jnsgd1na2vs0mg"},{"bike_id":"96e2fa78-a9ec-4b79-b618-7a6b5e10da55","system_id":"levelo_inurba_marseille","lat":43.28352,"lon":5.38105,"is_reserved":false,"is_disabled":true,"rental_uris":{"android":"levelo://app?vid=96e2fa78-a9ec-4b79-b618-7a6b5e10da55","ios":"levelo://app?vid=96e2fa78-a9ec-4b79-b618-7a6b5e10da55"},"vehicle_type_id":"4","last_reported":1737533557,"current_range_meters":26000,"station_id":"ce4bh412rcd13ifvqdr0","pricing_plan_id":"cebpf4jnsgd1na2vs0mg"},{"bike_id":"65af0458-5b43-4e16-8bf6-cc36bd0a7ddf","system_id":"levelo_inurba_marseille","lat":43.3045,"lon":5.37922,"is_reserved":false,"is_disabled":false,"rental_uris":{"android":"levelo://app?vid=65af0458-5b43-4e16-8bf6-cc36bd0a7ddf","ios":"levelo://app?vid=65af0458-5b43-4e16-8bf6-cc36bd0a7ddf"},"vehicle_type_id":"4","last_reported":1737533557,"current_range_meters":32800,"station_id":"ce4bgup2rcd13ifvqcn0","pricing_plan_id":"cebpf4jnsgd1na2vs0mg"},{"bike_id":"3ab3e001-4f5e-4747-b5ef-9f0283fb336c","system_id":"levelo_inurba_marseille","lat":43.28923,"lon":5.36385,"is_reserved":false,"is_disabled":false,"rental_uris":{"android":"levelo://app?vid=3ab3e001-4f5e-4747-b5ef-9f0283fb336c","ios":"levelo://app?vid=3ab3e001-4f5e-4747-b5ef-9f0283fb336c"},"vehicle_type_id":"4","last_reported":1737533557,"current_range_meters":31200,"station_id":"ce4bhc92rcd13ifvqetg","pricing_plan_id":"cebpf4jnsgd1na2vs0mg"},{"bike_id":"40be62b4-6dda-47cf-b32e-27a6594e08ac","system_id":"levelo_inurba_marseille","lat":43.28506,"lon":5.38557,"is_reserved":false,"is_disabled":false,"rental_uris":{"android":"levelo://app?vid=40be62b4-6dda-47cf-b32e-27a6594e08ac","ios":"levelo://app?vid=40be62b4-6dda-47cf-b32e-27a6594e08ac"},"vehicle_type_id":"4","last_reported":1737533557,"current_range_meters":7200,"station_id":"ce4bh8p2rcd13ifvqeb0","pricing_plan_id":"cebpf4jnsgd1na2vs0mg"},{"bike_id":"1f5cb474-798b-4357-9d76-fbb42e648fb5","system_id":"levelo_inurba_marseille","lat":43.286249,"lon":5.351082,"is_reserved":false,"is_disabled":false,"rental_uris":{"android":"levelo://app?vid=1f5cb474-798b-4357-9d76-fbb42e648fb5","ios":"levelo://app?vid=1f5cb474-798b-4357-9d76-fbb42e648fb5"},"vehicle_type_id":"4","last_reported":1737533557,"current_range_meters":10800,"station_id":"ce4bhch2rcd13ifvqeug","pricing_plan_id":"cebpf4jnsgd1na2vs0mg"},{"bike_id":"7602ec5e-b6be-4286-8ae1-0dcc95a85012","system_id":"levelo_inurba_marseille","lat":43.27366,"lon":5.36256,"is_reserved":false,"is_disabled":false,"rental_uris":{"android":"levelo://app?vid=7602ec5e-b6be-4286-8ae1-0dcc95a85012","ios":"levelo://app?vid=7602ec5e-b6be-4286-8ae1-0dcc95a85012"},"vehicle_type_id":"4","last_reported":1737533557,"current_range_meters":26800,"station_id":"ce4bhbh2rcd13ifvqeo0","pricing_plan_id":"cebpf4jnsgd1na2vs0mg"},{"bike_id":"0097aaa5-ea1c-4726-a554-1ef9b35f0ea2","system_id":"levelo_inurba_marseille","lat":43.30467,"lon":5.37915,"is_reserved":false,"is_disabled":false,"rental_uris":{"android":"levelo://app?vid=0097aaa5-ea1c-4726-a554-1ef9b35f0ea2","ios":"levelo://app?vid=0097aaa5-ea1c-4726-a554-1ef9b35f0ea2"},"vehicle_type_id":"4","last_reported":1737533557,"current_range_meters":38800,"station_id":"ce4bgup2rcd13ifvqcn0","pricing_plan_id":"cebpf4jnsgd1na2vs0mg"},{"bike_id":"ed11be0d-e3ee-457b-8522-1b8beb42e90f","system_id":"levelo_inurba_marseille","lat":43.27893,"lon":5.38028,"is_reserved":false,"is_disabled":true,"rental_uris":{"android":"levelo://app?vid=ed11be0d-e3ee-457b-8522-1b8beb42e90f","ios":"levelo://app?vid=ed11be0d-e3ee-457b-8522-1b8beb42e90f"},"vehicle_type_id":"4","last_reported":1737533557,"current_range_meters":38800,"station_id":"ce4bhf92rcd13ifvqf50","pricing_plan_id":"cebpf4jnsgd1na2vs0mg"},{"bike_id":"58c2689a-7995-4e22-843d-53744bced3e6","system_id":"levelo_inurba_marseille","lat":43.30644,"lon":5.40108,"is_reserved":false,"is_disabled":false,"rental_uris":{"android":"levelo://app?vid=58c2689a-7995-4e22-843d-53744bced3e6","ios":"levelo://app?vid=58c2689a-7995-4e22-843d-53744bced3e6"},"vehicle_type_id":"4","last_reported":1737533557,"current_range_meters":39200,"station_id":"ce4bh112rcd13ifvqda0","pricing_plan_id":"cebpf4jnsgd1na2vs0mg"},{"bike_id":"a5fb094f-c563-46a7-8a76-54204734f670","system_id":"levelo_inurba_marseille","lat":43.30612,"lon":5.39341,"is_reserved":false,"is_disabled":false,"rental_uris":{"android":"levelo://app?vid=a5fb094f-c563-46a7-8a76-54204734f670","ios":"levelo://app?vid=a5fb094f-c563-46a7-8a76-54204734f670"},"vehicle_type_id":"4","last_reported":1737533557,"current_range_meters":18800,"station_id":"ce4bh0p2rcd13ifvqd80","pricing_plan_id":"cebpf4jnsgd1na2vs0mg"},{"bike_id":"750102fe-50ac-4888-87c2-c2f80f7ddbf9","system_id":"levelo_inurba_marseille","lat":43.30948,"lon":5.39028,"is_reserved":false,"is_disabled":false,"rental_uris":{"android":"levelo://app?vid=750102fe-50ac-4888-87c2-c2f80f7ddbf9","ios":"levelo://app?vid=750102fe-50ac-4888-87c2-c2f80f7ddbf9"},"vehicle_type_id":"4","last_reported":1737533557,"current_range_meters":38800,"station_id":"ce4bgup2rcd13ifvqco0","pricing_plan_id":"cebpf4jnsgd1na2vs0mg"},{"bike_id":"8e7f04d3-65ad-47a4-aea0-00bc1e348077","system_id":"levelo_inurba_marseille","lat":43.27368,"lon":5.36252,"is_reserved":false,"is_disabled":true,"rental_uris":{"android":"levelo://app?vid=8e7f04d3-65ad-47a4-aea0-00bc1e348077","ios":"levelo://app?vid=8e7f04d3-65ad-47a4-aea0-00bc1e348077"},"vehicle_type_id":"4","last_reported":1737533557,"current_range_meters":39200,"station_id":"ce4bhbh2rcd13ifvqeo0","pricing_plan_id":"cebpf4jnsgd1na2vs0mg"},{"bike_id":"cb81130e-1c32-4378-a0eb-627350e954d9","system_id":"levelo_inurba_marseille","lat":43.2408,"lon":5.37746,"is_reserved":false,"is_disabled":false,"rental_uris":{"android":"levelo://app?vid=cb81130e-1c32-4378-a0eb-627350e954d9","ios":"levelo://app?vid=cb81130e-1c32-4378-a0eb-627350e954d9"},"vehicle_type_id":"4","last_reported":1737533557,"current_range_meters":38400,"station_id":"ce4bhnp2rcd13ifvqgvg","pricing_plan_id":"cebpf4jnsgd1na2vs0mg"},{"bike_id":"4f95d47b-2855-4595-95ca-7766f2032318","system_id":"levelo_inurba_marseille","lat":43.313653,"lon":5.384834,"is_reserved":false,"is_disabled":false,"rental_uris":{"android":"levelo://app?vid=4f95d47b-2855-4595-95ca-7766f2032318","ios":"levelo://app?vid=4f95d47b-2855-4595-95ca-7766f2032318"},"vehicle_type_id":"4","last_reported":1737533557,"current_range_meters":28000,"station_id":"ce4bgt92rcd13ifvqcf0","pricing_plan_id":"cebpf4jnsgd1na2vs0mg"},{"bike_id":"2cf918f6-2152-49aa-b918-01ff8a1d8cb0","system_id":"levelo_inurba_marseille","lat":43.30148,"lon":5.37423,"is_reserved":false,"is_disabled":false,"rental_uris":{"android":"levelo://app?vid=2cf918f6-2152-49aa-b918-01ff8a1d8cb0","ios":"levelo://app?vid=2cf918f6-2152-49aa-b918-01ff8a1d8cb0"},"vehicle_type_id":"4","last_reported":1737533557,"current_range_meters":21600,"station_id":"ce4bgs92rcd13ifvqcc0","pricing_plan_id":"cebpf4jnsgd1na2vs0mg"},{"bike_id":"7db55a91-b073-4c5e-bbde-3eaf0a58e70a","system_id":"levelo_inurba_marseille","lat":43.26675,"lon":5.38261,"is_reserved":false,"is_disabled":false,"rental_uris":{"android":"levelo://app?vid=7db55a91-b073-4c5e-bbde-3eaf0a58e70a","ios":"levelo://app?vid=7db55a91-b073-4c5e-bbde-3eaf0a58e70a"},"vehicle_type_id":"4","last_reported":1737533557,"current_range_meters":19200,"station_id":"ce4bhg92rcd13ifvqf90","pricing_plan_id":"cebpf4jnsgd1na2vs0mg"},{"bike_id":"8be60f39-a086-4763-94b5-18b873ffb015","system_id":"levelo_inurba_marseille","lat":43.30905,"lon":5.36847,"is_reserved":false,"is_disabled":false,"rental_uris":{"android":"levelo://app?vid=8be60f39-a086-4763-94b5-18b873ffb015","ios":"levelo://app?vid=8be60f39-a086-4763-94b5-18b873ffb015"},"vehicle_type_id":"4","last_reported":1737533557,"current_range_meters":32400,"station_id":"ce4bgn92rcd13ifvqbvg","pricing_plan_id":"cebpf4jnsgd1na2vs0mg"},{"bike_id":"dfae3e73-0188-4683-9589-24d6f6a1d5af","system_id":"levelo_inurba_marseille","lat":43.25007,"lon":5.38923,"is_reserved":false,"is_disabled":false,"rental_uris":{"android":"levelo://app?vid=dfae3e73-0188-4683-9589-24d6f6a1d5af","ios":"levelo://app?vid=dfae3e73-0188-4683-9589-24d6f6a1d5af"},"vehicle_type_id":"4","last_reported":1737533557,"current_range_meters":17600,"station_id":"ce4bhgp2rcd13ifvqfd0","pricing_plan_id":"cebpf4jnsgd1na2vs0mg"},{"bike_id":"6b30d96f-f237-432c-a2c8-c1523d3df7c1","system_id":"levelo_inurba_marseille","lat":43.29534,"lon":5.38552,"is_reserved":false,"is_disabled":true,"rental_uris":{"android":"levelo://app?vid=6b30d96f-f237-432c-a2c8-c1523d3df7c1","ios":"levelo://app?vid=6b30d96f-f237-432c-a2c8-c1523d3df7c1"},"vehicle_type_id":"4","last_reported":1737533557,"current_range_meters":0,"station_id":"ce4bgih2rcd13ifvqba0","pricing_plan_id":"cebpf4jnsgd1na2vs0mg"},{"bike_id":"f5643cb3-d244-4763-ada9-ff8324d131b4","system_id":"levelo_inurba_marseille","lat":43.31348,"lon":5.3674,"is_reserved":false,"is_disabled":false,"rental_uris":{"android":"levelo://app?vid=f5643cb3-d244-4763-ada9-ff8324d131b4","ios":"levelo://app?vid=f5643cb3-d244-4763-ada9-ff8324d131b4"},"vehicle_type_id":"4","last_reported":1737533557,"current_range_meters":38400,"station_id":"ce4bgr92rcd13ifvqc6g","pricing_plan_id":"cebpf4jnsgd1na2vs0mg"},{"bike_id":"966632b3-ddbb-42a2-879d-3bf9ebee52b0","system_id":"levelo_inurba_marseille","lat":43.30592,"lon":5.39356,"is_reserved":false,"is_disabled":false,"rental_uris":{"android":"levelo://app?vid=966632b3-ddbb-42a2-879d-3bf9ebee52b0","ios":"levelo://app?vid=966632b3-ddbb-42a2-879d-3bf9ebee52b0"},"vehicle_type_id":"4","last_reported":1737533557,"current_range_meters":24800,"station_id":"ce4bh0p2rcd13ifvqd80","pricing_plan_id":"cebpf4jnsgd1na2vs0mg"},{"bike_id":"342a8b30-2c1e-4b11-9637-723350f4af7d","system_id":"levelo_inurba_marseille","lat":43.275,"lon":5.42445,"is_reserved":false,"is_disabled":false,"rental_uris":{"android":"levelo://app?vid=342a8b30-2c1e-4b11-9637-723350f4af7d","ios":"levelo://app?vid=342a8b30-2c1e-4b11-9637-723350f4af7d"},"vehicle_type_id":"4","last_reported":1737533557,"current_range_meters":30400,"station_id":"ce4bhn92rcd13ifvqgrg","pricing_plan_id":"cebpf4jnsgd1na2vs0mg"},{"bike_id":"48178648-a5cc-49a7-a582-fb3aa5589302","system_id":"levelo_inurba_marseille","lat":43.25008,"lon":5.38203,"is_reserved":false,"is_disabled":true,"rental_uris":{"android":"levelo://app?vid=48178648-a5cc-49a7-a582-fb3aa5589302","ios":"levelo://app?vid=48178648-a5cc-49a7-a582-fb3aa5589302"},"vehicle_type_id":"4","last_reported":1737533557,"current_range_meters":0,"station_id":"","pricing_plan_id":"cebpf4jnsgd1na2vs0mg"},{"bike_id":"2501ae24-5703-45d3-ac01-dec581041e28","system_id":"levelo_inurba_marseille","lat":43.28639,"lon":5.36375,"is_reserved":false,"is_disabled":true,"rental_uris":{"android":"levelo://app?vid=2501ae24-5703-45d3-ac01-dec581041e28","ios":"levelo://app?vid=2501ae24-5703-45d3-ac01-dec581041e28"},"vehicle_type_id":"4","last_reported":1737533557,"current_range_meters":8800,"station_id":"ce4bhah2rcd13ifvqej0","pricing_plan_id":"cebpf4jnsgd1na2vs0mg"},{"bike_id":"741aa226-41f7-40d7-9698-9eb35a5fef23","system_id":"levelo_inurba_marseille","lat":43.25108,"lon":5.40293,"is_reserved":false,"is_disabled":false,"rental_uris":{"android":"levelo://app?vid=741aa226-41f7-40d7-9698-9eb35a5fef23","ios":"levelo://app?vid=741aa226-41f7-40d7-9698-9eb35a5fef23"},"vehicle_type_id":"4","last_reported":1737533557,"current_range_meters":22000,"station_id":"ce4bhlh2rcd13ifvqgig","pricing_plan_id":"cebpf4jnsgd1na2vs0mg"},{"bike_id":"d67942c8-d259-4623-a015-43f76a136b9b","system_id":"levelo_inurba_marseille","lat":43.30432,"lon":5.39761,"is_reserved":false,"is_disabled":false,"rental_uris":{"android":"levelo://app?vid=d67942c8-d259-4623-a015-43f76a136b9b","ios":"levelo://app?vid=d67942c8-d259-4623-a015-43f76a136b9b"},"vehicle_type_id":"4","last_reported":1737533557,"current_range_meters":34000,"station_id":"ce4bh092rcd13ifvqd20","pricing_plan_id":"cebpf4jnsgd1na2vs0mg"},{"bike_id":"24afdfab-37c4-4735-92c6-d449a19a0169","system_id":"levelo_inurba_marseille","lat":43.2815,"lon":5.42645,"is_reserved":false,"is_disabled":false,"rental_uris":{"android":"levelo://app?vid=24afdfab-37c4-4735-92c6-d449a19a0169","ios":"levelo://app?vid=24afdfab-37c4-4735-92c6-d449a19a0169"},"vehicle_type_id":"4","last_reported":1737533557,"current_range_meters":36800,"station_id":"ce4bhnh2rcd13ifvqgug","pricing_plan_id":"cebpf4jnsgd1na2vs0mg"},{"bike_id":"3e2413f1-be2a-4539-9db1-7ce3307c11de","system_id":"levelo_inurba_marseille","lat":43.30646,"lon":5.400735,"is_reserved":false,"is_disabled":false,"rental_uris":{"android":"levelo://app?vid=3e2413f1-be2a-4539-9db1-7ce3307c11de","ios":"levelo://app?vid=3e2413f1-be2a-4539-9db1-7ce3307c11de"},"vehicle_type_id":"4","last_reported":1737533557,"current_range_meters":34000,"station_id":"ce4bh112rcd13ifvqda0","pricing_plan_id":"cebpf4jnsgd1na2vs0mg"},{"bike_id":"57187212-c5d1-4371-a8d8-60b7f99af388","system_id":"levelo_inurba_marseille","lat":43.30335,"lon":5.41907,"is_reserved":false,"is_disabled":false,"rental_uris":{"android":"levelo://app?vid=57187212-c5d1-4371-a8d8-60b7f99af388","ios":"levelo://app?vid=57187212-c5d1-4371-a8d8-60b7f99af388"},"vehicle_type_id":"4","last_reported":1737533557,"current_range_meters":38400,"station_id":"ce4bhop2rcd13ifvqh7g","pricing_plan_id":"cebpf4jnsgd1na2vs0mg"},{"bike_id":"d5b436b2-f12b-4b14-903e-3514e55b73b3","system_id":"levelo_inurba_marseille","lat":43.28271,"lon":5.35059,"is_reserved":false,"is_disabled":false,"rental_uris":{"android":"levelo://app?vid=d5b436b2-f12b-4b14-903e-3514e55b73b3","ios":"levelo://app?vid=d5b436b2-f12b-4b14-903e-3514e55b73b3"},"vehicle_type_id":"4","last_reported":1737533557,"current_range_meters":39200,"station_id":"ce4bhbp2rcd13ifvqerg","pricing_plan_id":"cebpf4jnsgd1na2vs0mg"},{"bike_id":"41db3dd6-8867-4dd9-8a4d-d33e2316bd9b","system_id":"levelo_inurba_marseille","lat":43.32475,"lon":5.36575,"is_reserved":false,"is_disabled":false,"rental_uris":{"android":"levelo://app?vid=41db3dd6-8867-4dd9-8a4d-d33e2316bd9b","ios":"levelo://app?vid=41db3dd6-8867-4dd9-8a4d-d33e2316bd9b"},"vehicle_type_id":"4","last_reported":1737533557,"current_range_meters":20000,"station_id":"ce4bhs12rcd13ifvqhvg","pricing_plan_id":"cebpf4jnsgd1na2vs0mg"},{"bike_id":"5325ddfb-2027-4167-a975-4a84d4ad472c","system_id":"levelo_inurba_marseille","lat":43.30144,"lon":5.38075,"is_reserved":false,"is_disabled":false,"rental_uris":{"android":"levelo://app?vid=5325ddfb-2027-4167-a975-4a84d4ad472c","ios":"levelo://app?vid=5325ddfb-2027-4167-a975-4a84d4ad472c"},"vehicle_type_id":"4","last_reported":1737533557,"current_range_meters":10800,"station_id":"ce4bgjp2rcd13ifvqbh0","pricing_plan_id":"cebpf4jnsgd1na2vs0mg"},{"bike_id":"50348d1e-afd5-4713-af14-072368523fb3","system_id":"levelo_inurba_marseille","lat":43.275,"lon":5.42443,"is_reserved":false,"is_disabled":true,"rental_uris":{"android":"levelo://app?vid=50348d1e-afd5-4713-af14-072368523fb3","ios":"levelo://app?vid=50348d1e-afd5-4713-af14-072368523fb3"},"vehicle_type_id":"4","last_reported":1737533557,"current_range_meters":1600,"station_id":"ce4bhn92rcd13ifvqgrg","pricing_plan_id":"cebpf4jnsgd1na2vs0mg"},{"bike_id":"b75be948-5a35-4727-9a66-f965d347ca07","system_id":"levelo_inurba_marseille","lat":43.2907,"lon":5.37169,"is_reserved":false,"is_disabled":false,"rental_uris":{"android":"levelo://app?vid=b75be948-5a35-4727-9a66-f965d347ca07","ios":"levelo://app?vid=b75be948-5a35-4727-9a66-f965d347ca07"},"vehicle_type_id":"4","last_reported":1737533557,"current_range_meters":27600,"station_id":"ce4bh5p2rcd13ifvqe4g","pricing_plan_id":"cebpf4jnsgd1na2vs0mg"},{"bike_id":"5f8e19c0-9d34-400f-8357-29490985c9f2","system_id":"levelo_inurba_marseille","lat":43.27376,"lon":5.36253,"is_reserved":false,"is_disabled":false,"rental_uris":{"android":"levelo://app?vid=5f8e19c0-9d34-400f-8357-29490985c9f2","ios":"levelo://app?vid=5f8e19c0-9d34-400f-8357-29490985c9f2"},"vehicle_type_id":"4","last_reported":1737533557,"current_range_meters":38000,"station_id":"ce4bhbh2rcd13ifvqeo0","pricing_plan_id":"cebpf4jnsgd1na2vs0mg"},{"bike_id":"0c9d5d78-9287-4bbd-a59a-c5c82cae86ff","system_id":"levelo_inurba_marseille","lat":43.31483,"lon":5.3731,"is_reserved":false,"is_disabled":false,"rental_uris":{"android":"levelo://app?vid=0c9d5d78-9287-4bbd-a59a-c5c82cae86ff","ios":"levelo://app?vid=0c9d5d78-9287-4bbd-a59a-c5c82cae86ff"},"vehicle_type_id":"4","last_reported":1737533557,"current_range_meters":22000,"station_id":"ce4bgt12rcd13ifvqcd0","pricing_plan_id":"cebpf4jnsgd1na2vs0mg"},{"bike_id":"782a366d-5b51-4864-8e8d-a63bbed1e20d","system_id":"levelo_inurba_marseille","lat":43.259389,"lon":5.408952,"is_reserved":false,"is_disabled":false,"rental_uris":{"android":"levelo://app?vid=782a366d-5b51-4864-8e8d-a63bbed1e20d","ios":"levelo://app?vid=782a366d-5b51-4864-8e8d-a63bbed1e20d"},"vehicle_type_id":"4","last_reported":1737533557,"current_range_meters":8000,"station_id":"ce4bhm92rcd13ifvqglg","pricing_plan_id":"cebpf4jnsgd1na2vs0mg"},{"bike_id":"1fd36133-78d8-4b3f-bd1d-a89eb8693c06","system_id":"levelo_inurba_marseille","lat":43.33719,"lon":5.39176,"is_reserved":false,"is_disabled":false,"rental_uris":{"android":"levelo://app?vid=1fd36133-78d8-4b3f-bd1d-a89eb8693c06","ios":"levelo://app?vid=1fd36133-78d8-4b3f-bd1d-a89eb8693c06"},"vehicle_type_id":"4","last_reported":1737533557,"current_range_meters":14400,"station_id":"ce4bhr92rcd13ifvqhsg","pricing_plan_id":"cebpf4jnsgd1na2vs0mg"},{"bike_id":"a546c9b0-986b-47f8-b1d7-665e2fa1229f","system_id":"levelo_inurba_marseille","lat":43.28091,"lon":5.37868,"is_reserved":false,"is_disabled":true,"rental_uris":{"android":"levelo://app?vid=a546c9b0-986b-47f8-b1d7-665e2fa1229f","ios":"levelo://app?vid=a546c9b0-986b-47f8-b1d7-665e2fa1229f"},"vehicle_type_id":"4","last_reported":1737533557,"current_range_meters":37600,"station_id":"ce4bha12rcd13ifvqee0","pricing_plan_id":"cebpf4jnsgd1na2vs0mg"},{"bike_id":"847abf41-fb95-4772-afb9-a2d68d6ebb80","system_id":"levelo_inurba_marseille","lat":43.31349,"lon":5.36722,"is_reserved":false,"is_disabled":false,"rental_uris":{"android":"levelo://app?vid=847abf41-fb95-4772-afb9-a2d68d6ebb80","ios":"levelo://app?vid=847abf41-fb95-4772-afb9-a2d68d6ebb80"},"vehicle_type_id":"4","last_reported":1737533557,"current_range_meters":15200,"station_id":"ce4bgr92rcd13ifvqc6g","pricing_plan_id":"cebpf4jnsgd1na2vs0mg"},{"bike_id":"8e1d8b51-c006-49e9-90af-c6bd66e9af45","system_id":"levelo_inurba_marseille","lat":43.31669,"lon":5.40484,"is_reserved":false,"is_disabled":false,"rental_uris":{"android":"levelo://app?vid=8e1d8b51-c006-49e9-90af-c6bd66e9af45","ios":"levelo://app?vid=8e1d8b51-c006-49e9-90af-c6bd66e9af45"},"vehicle_type_id":"4","last_reported":1737533557,"current_range_meters":38800,"station_id":"ce4bh012rcd13ifvqd00","pricing_plan_id":"cebpf4jnsgd1na2vs0mg"},{"bike_id":"d9c40ab6-bac5-4917-9ef3-09d6eec588a5","system_id":"levelo_inurba_marseille","lat":43.30274,"lon":5.37718,"is_reserved":false,"is_disabled":false,"rental_uris":{"android":"levelo://app?vid=d9c40ab6-bac5-4917-9ef3-09d6eec588a5","ios":"levelo://app?vid=d9c40ab6-bac5-4917-9ef3-09d6eec588a5"},"vehicle_type_id":"4","last_reported":1737533557,"current_range_meters":26800,"station_id":"ce4bguh2rcd13ifvqcj0","pricing_plan_id":"cebpf4jnsgd1na2vs0mg"},{"bike_id":"d8295cf5-2073-4467-967e-5891f4e48e1e","system_id":"levelo_inurba_marseille","lat":43.33734,"lon":5.39167,"is_reserved":false,"is_disabled":false,"rental_uris":{"android":"levelo://app?vid=d8295cf5-2073-4467-967e-5891f4e48e1e","ios":"levelo://app?vid=d8295cf5-2073-4467-967e-5891f4e48e1e"},"vehicle_type_id":"4","last_reported":1737533557,"current_range_meters":20800,"station_id":"ce4bhr92rcd13ifvqhsg","pricing_plan_id":"cebpf4jnsgd1na2vs0mg"},{"bike_id":"11fa77bb-0c0a-442b-b723-8002972f3c48","system_id":"levelo_inurba_marseille","lat":43.32472,"lon":5.36575,"is_reserved":false,"is_disabled":true,"rental_uris":{"android":"levelo://app?vid=11fa77bb-0c0a-442b-b723-8002972f3c48","ios":"levelo://app?vid=11fa77bb-0c0a-442b-b723-8002972f3c48"},"vehicle_type_id":"4","last_reported":1737533557,"current_range_meters":29600,"station_id":"ce4bhs12rcd13ifvqhvg","pricing_plan_id":"cebpf4jnsgd1na2vs0mg"},{"bike_id":"dd7100dd-be0e-42a3-b01c-070bb9c830e8","system_id":"levelo_inurba_marseille","lat":43.24066,"lon":5.37762,"is_reserved":false,"is_disabled":false,"rental_uris":{"android":"levelo://app?vid=dd7100dd-be0e-42a3-b01c-070bb9c830e8","ios":"levelo://app?vid=dd7100dd-be0e-42a3-b01c-070bb9c830e8"},"vehicle_type_id":"4","last_reported":1737533557,"current_range_meters":27600,"station_id":"ce4bhnp2rcd13ifvqgvg","pricing_plan_id":"cebpf4jnsgd1na2vs0mg"},{"bike_id":"0b9b413f-7704-4860-841a-7f725dbde95d","system_id":"levelo_inurba_marseille","lat":43.2508,"lon":5.39513,"is_reserved":false,"is_disabled":true,"rental_uris":{"android":"levelo://app?vid=0b9b413f-7704-4860-841a-7f725dbde95d","ios":"levelo://app?vid=0b9b413f-7704-4860-841a-7f725dbde95d"},"vehicle_type_id":"4","last_reported":1737533557,"current_range_meters":800,"station_id":"ce4bhm12rcd13ifvqgkg","pricing_plan_id":"cebpf4jnsgd1na2vs0mg"},{"bike_id":"618b0e68-1c2e-441c-9c46-00c4f7057a3b","system_id":"levelo_inurba_marseille","lat":43.30935,"lon":5.39039,"is_reserved":false,"is_disabled":false,"rental_uris":{"android":"levelo://app?vid=618b0e68-1c2e-441c-9c46-00c4f7057a3b","ios":"levelo://app?vid=618b0e68-1c2e-441c-9c46-00c4f7057a3b"},"vehicle_type_id":"4","last_reported":1737533557,"current_range_meters":9600,"station_id":"ce4bgup2rcd13ifvqco0","pricing_plan_id":"cebpf4jnsgd1na2vs0mg"},{"bike_id":"29e4913b-9c16-4a50-a874-dbc1ddb78ad9","system_id":"levelo_inurba_marseille","lat":43.3254,"lon":5.41427,"is_reserved":false,"is_disabled":false,"rental_uris":{"android":"levelo://app?vid=29e4913b-9c16-4a50-a874-dbc1ddb78ad9","ios":"levelo://app?vid=29e4913b-9c16-4a50-a874-dbc1ddb78ad9"},"vehicle_type_id":"4","last_reported":1737533557,"current_range_meters":39200,"station_id":"ce4bhq12rcd13ifvqhhg","pricing_plan_id":"cebpf4jnsgd1na2vs0mg"},{"bike_id":"f6d34ec5-9a82-496d-91e1-3e7f8d04fbfb","system_id":"levelo_inurba_marseille","lat":43.29767,"lon":5.37097,"is_reserved":false,"is_disabled":false,"rental_uris":{"android":"levelo://app?vid=f6d34ec5-9a82-496d-91e1-3e7f8d04fbfb","ios":"levelo://app?vid=f6d34ec5-9a82-496d-91e1-3e7f8d04fbfb"},"vehicle_type_id":"4","last_reported":1737533557,"current_range_meters":38800,"station_id":"ce4bgop2rcd13ifvqc1g","pricing_plan_id":"cebpf4jnsgd1na2vs0mg"},{"bike_id":"685b26e0-0c83-4eb3-8fc9-77d25696e815","system_id":"levelo_inurba_marseille","lat":43.29253,"lon":5.4014,"is_reserved":false,"is_disabled":false,"rental_uris":{"android":"levelo://app?vid=685b26e0-0c83-4eb3-8fc9-77d25696e815","ios":"levelo://app?vid=685b26e0-0c83-4eb3-8fc9-77d25696e815"},"vehicle_type_id":"4","last_reported":1737533557,"current_range_meters":36800,"station_id":"ce4bh312rcd13ifvqdk0","pricing_plan_id":"cebpf4jnsgd1na2vs0mg"},{"bike_id":"1cd05b4a-f688-43b0-b3a4-eaca2bcc4d3d","system_id":"levelo_inurba_marseille","lat":43.31337,"lon":5.36724,"is_reserved":false,"is_disabled":false,"rental_uris":{"android":"levelo://app?vid=1cd05b4a-f688-43b0-b3a4-eaca2bcc4d3d","ios":"levelo://app?vid=1cd05b4a-f688-43b0-b3a4-eaca2bcc4d3d"},"vehicle_type_id":"4","last_reported":1737533557,"current_range_meters":16000,"station_id":"ce4bgr92rcd13ifvqc6g","pricing_plan_id":"cebpf4jnsgd1na2vs0mg"},{"bike_id":"6e5615c3-5cad-4ecf-a585-92b4575fdd37","system_id":"levelo_inurba_marseille","lat":43.30881,"lon":5.39655,"is_reserved":false,"is_disabled":false,"rental_uris":{"android":"levelo://app?vid=6e5615c3-5cad-4ecf-a585-92b4575fdd37","ios":"levelo://app?vid=6e5615c3-5cad-4ecf-a585-92b4575fdd37"},"vehicle_type_id":"4","last_reported":1737533557,"current_range_meters":18800,"station_id":"ce4bh012rcd13ifvqcv0","pricing_plan_id":"cebpf4jnsgd1na2vs0mg"},{"bike_id":"7c50e3af-9ba5-49f8-a875-029bbf43a625","system_id":"levelo_inurba_marseille","lat":43.30948,"lon":5.3904,"is_reserved":false,"is_disabled":true,"rental_uris":{"android":"levelo://app?vid=7c50e3af-9ba5-49f8-a875-029bbf43a625","ios":"levelo://app?vid=7c50e3af-9ba5-49f8-a875-029bbf43a625"},"vehicle_type_id":"4","last_reported":1737533557,"current_range_meters":800,"station_id":"ce4bgup2rcd13ifvqco0","pricing_plan_id":"cebpf4jnsgd1na2vs0mg"},{"bike_id":"2fc90e2b-7bc3-4c1c-b9a1-54e988a74917","system_id":"levelo_inurba_marseille","lat":43.279439,"lon":5.389008,"is_reserved":false,"is_disabled":true,"rental_uris":{"android":"levelo://app?vid=2fc90e2b-7bc3-4c1c-b9a1-54e988a74917","ios":"levelo://app?vid=2fc90e2b-7bc3-4c1c-b9a1-54e988a74917"},"vehicle_type_id":"4","last_reported":1737533557,"current_range_meters":30000,"station_id":"","pricing_plan_id":"cebpf4jnsgd1na2vs0mg"},{"bike_id":"6afeeefa-11c0-4f74-82c2-cb592a43a0b2","system_id":"levelo_inurba_marseille","lat":43.2815,"lon":5.42644,"is_reserved":false,"is_disabled":false,"rental_uris":{"android":"levelo://app?vid=6afeeefa-11c0-4f74-82c2-cb592a43a0b2","ios":"levelo://app?vid=6afeeefa-11c0-4f74-82c2-cb592a43a0b2"},"vehicle_type_id":"4","last_reported":1737533557,"current_range_meters":38800,"station_id":"ce4bhnh2rcd13ifvqgug","pricing_plan_id":"cebpf4jnsgd1na2vs0mg"},{"bike_id":"c7ddd3a4-15e8-495a-88c8-c9e8be4fd358","system_id":"levelo_inurba_marseille","lat":43.28646,"lon":5.35048,"is_reserved":false,"is_disabled":false,"rental_uris":{"android":"levelo://app?vid=c7ddd3a4-15e8-495a-88c8-c9e8be4fd358","ios":"levelo://app?vid=c7ddd3a4-15e8-495a-88c8-c9e8be4fd358"},"vehicle_type_id":"4","last_reported":1737533557,"current_range_meters":8000,"station_id":"ce4bhch2rcd13ifvqeug","pricing_plan_id":"cebpf4jnsgd1na2vs0mg"},{"bike_id":"4bad523f-f3e6-4690-beef-57bb27e34d8b","system_id":"levelo_inurba_marseille","lat":43.3265,"lon":5.40994,"is_reserved":false,"is_disabled":false,"rental_uris":{"android":"levelo://app?vid=4bad523f-f3e6-4690-beef-57bb27e34d8b","ios":"levelo://app?vid=4bad523f-f3e6-4690-beef-57bb27e34d8b"},"vehicle_type_id":"4","last_reported":1737533557,"current_range_meters":32400,"station_id":"ce4bhpp2rcd13ifvqhgg","pricing_plan_id":"cebpf4jnsgd1na2vs0mg"},{"bike_id":"23eb4461-43a1-4020-9a5d-31b940fcfcf0","system_id":"levelo_inurba_marseille","lat":43.25497,"lon":5.37651,"is_reserved":false,"is_disabled":false,"rental_uris":{"android":"levelo://app?vid=23eb4461-43a1-4020-9a5d-31b940fcfcf0","ios":"levelo://app?vid=23eb4461-43a1-4020-9a5d-31b940fcfcf0"},"vehicle_type_id":"4","last_reported":1737533557,"current_range_meters":38000,"station_id":"ce4bhh12rcd13ifvqff0","pricing_plan_id":"cebpf4jnsgd1na2vs0mg"},{"bike_id":"227e78bf-cdca-4dfa-9c62-95921093e4a7","system_id":"levelo_inurba_marseille","lat":43.28389,"lon":5.3499,"is_reserved":false,"is_disabled":false,"rental_uris":{"android":"levelo://app?vid=227e78bf-cdca-4dfa-9c62-95921093e4a7","ios":"levelo://app?vid=227e78bf-cdca-4dfa-9c62-95921093e4a7"},"vehicle_type_id":"4","last_reported":1737533557,"current_range_meters":11200,"station_id":"ce4bhbh2rcd13ifvqepg","pricing_plan_id":"cebpf4jnsgd1na2vs0mg"},{"bike_id":"3fc74b94-ed11-4e63-a3db-79791383adef","system_id":"levelo_inurba_marseille","lat":43.30594,"lon":5.39336,"is_reserved":false,"is_disabled":false,"rental_uris":{"android":"levelo://app?vid=3fc74b94-ed11-4e63-a3db-79791383adef","ios":"levelo://app?vid=3fc74b94-ed11-4e63-a3db-79791383adef"},"vehicle_type_id":"4","last_reported":1737533557,"current_range_meters":26800,"station_id":"ce4bh0p2rcd13ifvqd80","pricing_plan_id":"cebpf4jnsgd1na2vs0mg"},{"bike_id":"14bf62af-c950-435b-82dd-0bca67231add","system_id":"levelo_inurba_marseille","lat":43.25714,"lon":5.41116,"is_reserved":false,"is_disabled":false,"rental_uris":{"android":"levelo://app?vid=14bf62af-c950-435b-82dd-0bca67231add","ios":"levelo://app?vid=14bf62af-c950-435b-82dd-0bca67231add"},"vehicle_type_id":"4","last_reported":1737533557,"current_range_meters":37600,"station_id":"ce4bhkp2rcd13ifvqgd0","pricing_plan_id":"cebpf4jnsgd1na2vs0mg"},{"bike_id":"509edcb3-c5bb-4913-aeae-8110c0663740","system_id":"levelo_inurba_marseille","lat":43.29573,"lon":5.39958,"is_reserved":false,"is_disabled":true,"rental_uris":{"android":"levelo://app?vid=509edcb3-c5bb-4913-aeae-8110c0663740","ios":"levelo://app?vid=509edcb3-c5bb-4913-aeae-8110c0663740"},"vehicle_type_id":"4","last_reported":1737533557,"current_range_meters":21600,"station_id":"ce4bh312rcd13ifvqdj0","pricing_plan_id":"cebpf4jnsgd1na2vs0mg"},{"bike_id":"4fba1d7e-0070-4e3d-88d9-4156c0d4f027","system_id":"levelo_inurba_marseille","lat":43.28349,"lon":5.38104,"is_reserved":false,"is_disabled":false,"rental_uris":{"android":"levelo://app?vid=4fba1d7e-0070-4e3d-88d9-4156c0d4f027","ios":"levelo://app?vid=4fba1d7e-0070-4e3d-88d9-4156c0d4f027"},"vehicle_type_id":"4","last_reported":1737533557,"current_range_meters":36000,"station_id":"ce4bh412rcd13ifvqdr0","pricing_plan_id":"cebpf4jnsgd1na2vs0mg"},{"bike_id":"f1509c1e-301c-4b7b-97b4-0841ead5fa37","system_id":"levelo_inurba_marseille","lat":43.30975,"lon":5.39037,"is_reserved":false,"is_disabled":false,"rental_uris":{"android":"levelo://app?vid=f1509c1e-301c-4b7b-97b4-0841ead5fa37","ios":"levelo://app?vid=f1509c1e-301c-4b7b-97b4-0841ead5fa37"},"vehicle_type_id":"4","last_reported":1737533557,"current_range_meters":16800,"station_id":"ce4bgup2rcd13ifvqco0","pricing_plan_id":"cebpf4jnsgd1na2vs0mg"},{"bike_id":"131fc262-d7f0-46c0-a36a-b025da916368","system_id":"levelo_inurba_marseille","lat":43.28457,"lon":5.38466,"is_reserved":false,"is_disabled":true,"rental_uris":{"android":"levelo://app?vid=131fc262-d7f0-46c0-a36a-b025da916368","ios":"levelo://app?vid=131fc262-d7f0-46c0-a36a-b025da916368"},"vehicle_type_id":"4","last_reported":1737533557,"current_range_meters":25200,"station_id":"ce4bh512rcd13ifvqe3g","pricing_plan_id":"cebpf4jnsgd1na2vs0mg"},{"bike_id":"38700acb-6eec-4c46-89fe-1be42acbf095","system_id":"levelo_inurba_marseille","lat":43.31086,"lon":5.42433,"is_reserved":false,"is_disabled":false,"rental_uris":{"android":"levelo://app?vid=38700acb-6eec-4c46-89fe-1be42acbf095","ios":"levelo://app?vid=38700acb-6eec-4c46-89fe-1be42acbf095"},"vehicle_type_id":"4","last_reported":1737533557,"current_range_meters":30000,"station_id":"ce4bhp92rcd13ifvqhag","pricing_plan_id":"cebpf4jnsgd1na2vs0mg"},{"bike_id":"34d4460c-2a86-4690-9dea-0c5faca166cb","system_id":"levelo_inurba_marseille","lat":43.29867,"lon":5.38922,"is_reserved":false,"is_disabled":true,"rental_uris":{"android":"levelo://app?vid=34d4460c-2a86-4690-9dea-0c5faca166cb","ios":"levelo://app?vid=34d4460c-2a86-4690-9dea-0c5faca166cb"},"vehicle_type_id":"4","last_reported":1737533557,"current_range_meters":800,"station_id":"ce4bh392rcd13ifvqdl0","pricing_plan_id":"cebpf4jnsgd1na2vs0mg"},{"bike_id":"683bf2c0-a894-4526-a475-e083908b29eb","system_id":"levelo_inurba_marseille","lat":43.30923,"lon":5.40155,"is_reserved":false,"is_disabled":false,"rental_uris":{"android":"levelo://app?vid=683bf2c0-a894-4526-a475-e083908b29eb","ios":"levelo://app?vid=683bf2c0-a894-4526-a475-e083908b29eb"},"vehicle_type_id":"4","last_reported":1737533557,"current_range_meters":5600,"station_id":"ce4bgvp2rcd13ifvqct0","pricing_plan_id":"cebpf4jnsgd1na2vs0mg"},{"bike_id":"6f540227-5b29-44fc-a745-c108fa3063aa","system_id":"levelo_inurba_marseille","lat":43.29099,"lon":5.38114,"is_reserved":false,"is_disabled":false,"rental_uris":{"android":"levelo://app?vid=6f540227-5b29-44fc-a745-c108fa3063aa","ios":"levelo://app?vid=6f540227-5b29-44fc-a745-c108fa3063aa"},"vehicle_type_id":"4","last_reported":1737533557,"current_range_meters":30400,"station_id":"ce4bh512rcd13ifvqe2g","pricing_plan_id":"cebpf4jnsgd1na2vs0mg"},{"bike_id":"96c51aad-ee75-4f00-896d-bac249442a79","system_id":"levelo_inurba_marseille","lat":43.30909,"lon":5.36858,"is_reserved":false,"is_disabled":false,"rental_uris":{"android":"levelo://app?vid=96c51aad-ee75-4f00-896d-bac249442a79","ios":"levelo://app?vid=96c51aad-ee75-4f00-896d-bac249442a79"},"vehicle_type_id":"4","last_reported":1737533557,"current_range_meters":37600,"station_id":"ce4bgn92rcd13ifvqbvg","pricing_plan_id":"cebpf4jnsgd1na2vs0mg"},{"bike_id":"5954b14c-b84c-496e-95b6-f96cad1f6599","system_id":"levelo_inurba_marseille","lat":43.28656,"lon":5.3635,"is_reserved":false,"is_disabled":false,"rental_uris":{"android":"levelo://app?vid=5954b14c-b84c-496e-95b6-f96cad1f6599","ios":"levelo://app?vid=5954b14c-b84c-496e-95b6-f96cad1f6599"},"vehicle_type_id":"4","last_reported":1737533557,"current_range_meters":8400,"station_id":"ce4bhah2rcd13ifvqej0","pricing_plan_id":"cebpf4jnsgd1na2vs0mg"},{"bike_id":"71070b02-a8ac-49e2-88c2-f4184a605ea4","system_id":"levelo_inurba_marseille","lat":43.28951,"lon":5.36419,"is_reserved":false,"is_disabled":false,"rental_uris":{"android":"levelo://app?vid=71070b02-a8ac-49e2-88c2-f4184a605ea4","ios":"levelo://app?vid=71070b02-a8ac-49e2-88c2-f4184a605ea4"},"vehicle_type_id":"4","last_reported":1737533557,"current_range_meters":36800,"station_id":"ce4bhc92rcd13ifvqetg","pricing_plan_id":"cebpf4jnsgd1na2vs0mg"},{"bike_id":"7c8aa9ca-997d-4de8-a714-6b80618cb5e2","system_id":"levelo_inurba_marseille","lat":43.29079,"lon":5.37185,"is_reserved":false,"is_disabled":false,"rental_uris":{"android":"levelo://app?vid=7c8aa9ca-997d-4de8-a714-6b80618cb5e2","ios":"levelo://app?vid=7c8aa9ca-997d-4de8-a714-6b80618cb5e2"},"vehicle_type_id":"4","last_reported":1737533557,"current_range_meters":28000,"station_id":"ce4bh5p2rcd13ifvqe4g","pricing_plan_id":"cebpf4jnsgd1na2vs0mg"},{"bike_id":"e00eb66b-6dbe-408c-a448-5fd51eb2bb85","system_id":"levelo_inurba_marseille","lat":43.31282,"lon":5.40163,"is_reserved":false,"is_disabled":false,"rental_uris":{"android":"levelo://app?vid=e00eb66b-6dbe-408c-a448-5fd51eb2bb85","ios":"levelo://app?vid=e00eb66b-6dbe-408c-a448-5fd51eb2bb85"},"vehicle_type_id":"4","last_reported":1737533557,"current_range_meters":38800,"station_id":"ce4bh092rcd13ifvqd30","pricing_plan_id":"cebpf4jnsgd1na2vs0mg"},{"bike_id":"423c7685-688f-4bcd-8230-435fbc9db2a3","system_id":"levelo_inurba_marseille","lat":43.32491,"lon":5.36572,"is_reserved":false,"is_disabled":false,"rental_uris":{"android":"levelo://app?vid=423c7685-688f-4bcd-8230-435fbc9db2a3","ios":"levelo://app?vid=423c7685-688f-4bcd-8230-435fbc9db2a3"},"vehicle_type_id":"4","last_reported":1737533557,"current_range_meters":32800,"station_id":"ce4bhs12rcd13ifvqhvg","pricing_plan_id":"cebpf4jnsgd1na2vs0mg"},{"bike_id":"1523ad92-f97a-4e32-985b-07285132063a","system_id":"levelo_inurba_marseille","lat":43.30954,"lon":5.39053,"is_reserved":false,"is_disabled":false,"rental_uris":{"android":"levelo://app?vid=1523ad92-f97a-4e32-985b-07285132063a","ios":"levelo://app?vid=1523ad92-f97a-4e32-985b-07285132063a"},"vehicle_type_id":"4","last_reported":1737533557,"current_range_meters":39200,"station_id":"ce4bgup2rcd13ifvqco0","pricing_plan_id":"cebpf4jnsgd1na2vs0mg"},{"bike_id":"301ad218-79fc-4f77-96f2-3aac2d1a8ccf","system_id":"levelo_inurba_marseille","lat":43.25907,"lon":5.3946,"is_reserved":false,"is_disabled":true,"rental_uris":{"android":"levelo://app?vid=301ad218-79fc-4f77-96f2-3aac2d1a8ccf","ios":"levelo://app?vid=301ad218-79fc-4f77-96f2-3aac2d1a8ccf"},"vehicle_type_id":"4","last_reported":1737533557,"current_range_meters":3200,"station_id":"","pricing_plan_id":"cebpf4jnsgd1na2vs0mg"},{"bike_id":"586a2980-e4c2-41d5-8aec-10c6ea4c877d","system_id":"levelo_inurba_marseille","lat":43.27912,"lon":5.39561,"is_reserved":false,"is_disabled":true,"rental_uris":{"android":"levelo://app?vid=586a2980-e4c2-41d5-8aec-10c6ea4c877d","ios":"levelo://app?vid=586a2980-e4c2-41d5-8aec-10c6ea4c877d"},"vehicle_type_id":"4","last_reported":1737533557,"current_range_meters":36800,"station_id":"ce4bhf92rcd13ifvqf40","pricing_plan_id":"cebpf4jnsgd1na2vs0mg"},{"bike_id":"c2585015-904a-4609-a64e-a02117955d78","system_id":"levelo_inurba_marseille","lat":43.31363,"lon":5.38509,"is_reserved":false,"is_disabled":false,"rental_uris":{"android":"levelo://app?vid=c2585015-904a-4609-a64e-a02117955d78","ios":"levelo://app?vid=c2585015-904a-4609-a64e-a02117955d78"},"vehicle_type_id":"4","last_reported":1737533557,"current_range_meters":19200,"station_id":"ce4bgt92rcd13ifvqcf0","pricing_plan_id":"cebpf4jnsgd1na2vs0mg"},{"bike_id":"06f4f197-b1f5-4dd4-99ea-466acb9af920","system_id":"levelo_inurba_marseille","lat":43.30943,"lon":5.3903,"is_reserved":false,"is_disabled":false,"rental_uris":{"android":"levelo://app?vid=06f4f197-b1f5-4dd4-99ea-466acb9af920","ios":"levelo://app?vid=06f4f197-b1f5-4dd4-99ea-466acb9af920"},"vehicle_type_id":"4","last_reported":1737533557,"current_range_meters":30000,"station_id":"ce4bgup2rcd13ifvqco0","pricing_plan_id":"cebpf4jnsgd1na2vs0mg"},{"bike_id":"791753af-f52a-4381-a458-8b27405d5e3d","system_id":"levelo_inurba_marseille","lat":43.32468,"lon":5.36597,"is_reserved":false,"is_disabled":false,"rental_uris":{"android":"levelo://app?vid=791753af-f52a-4381-a458-8b27405d5e3d","ios":"levelo://app?vid=791753af-f52a-4381-a458-8b27405d5e3d"},"vehicle_type_id":"4","last_reported":1737533557,"current_range_meters":3600,"station_id":"ce4bhs12rcd13ifvqhvg","pricing_plan_id":"cebpf4jnsgd1na2vs0mg"},{"bike_id":"21278822-b45f-47c8-b5ba-5a45212c8aba","system_id":"levelo_inurba_marseille","lat":43.30933,"lon":5.40147,"is_reserved":false,"is_disabled":false,"rental_uris":{"android":"levelo://app?vid=21278822-b45f-47c8-b5ba-5a45212c8aba","ios":"levelo://app?vid=21278822-b45f-47c8-b5ba-5a45212c8aba"},"vehicle_type_id":"4","last_reported":1737533557,"current_range_meters":7200,"station_id":"ce4bgvp2rcd13ifvqct0","pricing_plan_id":"cebpf4jnsgd1na2vs0mg"},{"bike_id":"a478c8e4-70f7-4330-80af-a80f08fe66b3","system_id":"levelo_inurba_marseille","lat":43.25749,"lon":5.41125,"is_reserved":false,"is_disabled":false,"rental_uris":{"android":"levelo://app?vid=a478c8e4-70f7-4330-80af-a80f08fe66b3","ios":"levelo://app?vid=a478c8e4-70f7-4330-80af-a80f08fe66b3"},"vehicle_type_id":"4","last_reported":1737533557,"current_range_meters":20800,"station_id":"ce4bhkp2rcd13ifvqgd0","pricing_plan_id":"cebpf4jnsgd1na2vs0mg"},{"bike_id":"cae2d61f-f314-477c-bd30-db7b7de4ba43","system_id":"levelo_inurba_marseille","lat":43.3373,"lon":5.39178,"is_reserved":false,"is_disabled":false,"rental_uris":{"android":"levelo://app?vid=cae2d61f-f314-477c-bd30-db7b7de4ba43","ios":"levelo://app?vid=cae2d61f-f314-477c-bd30-db7b7de4ba43"},"vehicle_type_id":"4","last_reported":1737533557,"current_range_meters":14400,"station_id":"ce4bhr92rcd13ifvqhsg","pricing_plan_id":"cebpf4jnsgd1na2vs0mg"},{"bike_id":"fbb01c40-b41d-4b44-9d8e-fe2d5b6dc6cb","system_id":"levelo_inurba_marseille","lat":43.29088,"lon":5.38141,"is_reserved":false,"is_disabled":false,"rental_uris":{"android":"levelo://app?vid=fbb01c40-b41d-4b44-9d8e-fe2d5b6dc6cb","ios":"levelo://app?vid=fbb01c40-b41d-4b44-9d8e-fe2d5b6dc6cb"},"vehicle_type_id":"4","last_reported":1737533557,"current_range_meters":4000,"station_id":"ce4bh512rcd13ifvqe2g","pricing_plan_id":"cebpf4jnsgd1na2vs0mg"},{"bike_id":"5ca0c40f-c01a-44fb-a897-efaa615e7850","system_id":"levelo_inurba_marseille","lat":43.24062,"lon":5.37768,"is_reserved":false,"is_disabled":false,"rental_uris":{"android":"levelo://app?vid=5ca0c40f-c01a-44fb-a897-efaa615e7850","ios":"levelo://app?vid=5ca0c40f-c01a-44fb-a897-efaa615e7850"},"vehicle_type_id":"4","last_reported":1737533557,"current_range_meters":12800,"station_id":"ce4bhnp2rcd13ifvqgvg","pricing_plan_id":"cebpf4jnsgd1na2vs0mg"},{"bike_id":"b834a014-a9be-4559-bbaa-15aa5f1cbaa1","system_id":"levelo_inurba_marseille","lat":43.23189,"lon":5.35566,"is_reserved":false,"is_disabled":false,"rental_uris":{"android":"levelo://app?vid=b834a014-a9be-4559-bbaa-15aa5f1cbaa1","ios":"levelo://app?vid=b834a014-a9be-4559-bbaa-15aa5f1cbaa1"},"vehicle_type_id":"4","last_reported":1737533557,"current_range_meters":35200,"station_id":"ce4bhu92rcd13ifvqi70","pricing_plan_id":"cebpf4jnsgd1na2vs0mg"},{"bike_id":"5f776b34-b727-4c57-9619-656fb56904de","system_id":"levelo_inurba_marseille","lat":43.317286,"lon":5.423919,"is_reserved":false,"is_disabled":false,"rental_uris":{"android":"levelo://app?vid=5f776b34-b727-4c57-9619-656fb56904de","ios":"levelo://app?vid=5f776b34-b727-4c57-9619-656fb56904de"},"vehicle_type_id":"4","last_reported":1737533557,"current_range_meters":36000,"station_id":"ce4bhp92rcd13ifvqhbg","pricing_plan_id":"cebpf4jnsgd1na2vs0mg"},{"bike_id":"ca0dc8e0-206b-40b7-8d43-9b4ec69057c7","system_id":"levelo_inurba_marseille","lat":43.24164,"lon":5.36404,"is_reserved":false,"is_disabled":false,"rental_uris":{"android":"levelo://app?vid=ca0dc8e0-206b-40b7-8d43-9b4ec69057c7","ios":"levelo://app?vid=ca0dc8e0-206b-40b7-8d43-9b4ec69057c7"},"vehicle_type_id":"4","last_reported":1737533557,"current_range_meters":17600,"station_id":"cpo36qri1sfpv3e86is0","pricing_plan_id":"cebpf4jnsgd1na2vs0mg"},{"bike_id":"74700d96-6c34-49f9-a730-82ed9150e526","system_id":"levelo_inurba_marseille","lat":43.26792,"lon":5.39409,"is_reserved":false,"is_disabled":false,"rental_uris":{"android":"levelo://app?vid=74700d96-6c34-49f9-a730-82ed9150e526","ios":"levelo://app?vid=74700d96-6c34-49f9-a730-82ed9150e526"},"vehicle_type_id":"4","last_reported":1737533557,"current_range_meters":36000,"station_id":"ce4bhh12rcd13ifvqfg0","pricing_plan_id":"cebpf4jnsgd1na2vs0mg"},{"bike_id":"6ff3890b-4ee4-40dd-9c01-ccb6adedf00e","system_id":"levelo_inurba_marseille","lat":43.28441,"lon":5.38562,"is_reserved":false,"is_disabled":false,"rental_uris":{"android":"levelo://app?vid=6ff3890b-4ee4-40dd-9c01-ccb6adedf00e","ios":"levelo://app?vid=6ff3890b-4ee4-40dd-9c01-ccb6adedf00e"},"vehicle_type_id":"4","last_reported":1737533557,"current_range_meters":38800,"station_id":"ce4bh8p2rcd13ifvqeb0","pricing_plan_id":"cebpf4jnsgd1na2vs0mg"},{"bike_id":"6b9c251d-3d9c-4fda-ad0d-227edf516238","system_id":"levelo_inurba_marseille","lat":43.29757,"lon":5.371,"is_reserved":false,"is_disabled":false,"rental_uris":{"android":"levelo://app?vid=6b9c251d-3d9c-4fda-ad0d-227edf516238","ios":"levelo://app?vid=6b9c251d-3d9c-4fda-ad0d-227edf516238"},"vehicle_type_id":"4","last_reported":1737533557,"current_range_meters":14000,"station_id":"ce4bgop2rcd13ifvqc1g","pricing_plan_id":"cebpf4jnsgd1na2vs0mg"},{"bike_id":"d8b49f42-144a-4cb8-8172-0b5099baab4f","system_id":"levelo_inurba_marseille","lat":43.23953,"lon":5.36633,"is_reserved":false,"is_disabled":false,"rental_uris":{"android":"levelo://app?vid=d8b49f42-144a-4cb8-8172-0b5099baab4f","ios":"levelo://app?vid=d8b49f42-144a-4cb8-8172-0b5099baab4f"},"vehicle_type_id":"4","last_reported":1737533557,"current_range_meters":25200,"station_id":"ce4bhi12rcd13ifvqfp0","pricing_plan_id":"cebpf4jnsgd1na2vs0mg"},{"bike_id":"df7c011c-5cd5-4fbb-8a4e-d73dd3867dd2","system_id":"levelo_inurba_marseille","lat":43.32474,"lon":5.36587,"is_reserved":false,"is_disabled":true,"rental_uris":{"android":"levelo://app?vid=df7c011c-5cd5-4fbb-8a4e-d73dd3867dd2","ios":"levelo://app?vid=df7c011c-5cd5-4fbb-8a4e-d73dd3867dd2"},"vehicle_type_id":"4","last_reported":1737533557,"current_range_meters":38400,"station_id":"ce4bhs12rcd13ifvqhvg","pricing_plan_id":"cebpf4jnsgd1na2vs0mg"},{"bike_id":"828da11f-fce0-4a03-a4c3-40cf572a86a4","system_id":"levelo_inurba_marseille","lat":43.32475,"lon":5.36572,"is_reserved":false,"is_disabled":false,"rental_uris":{"android":"levelo://app?vid=828da11f-fce0-4a03-a4c3-40cf572a86a4","ios":"levelo://app?vid=828da11f-fce0-4a03-a4c3-40cf572a86a4"},"vehicle_type_id":"4","last_reported":1737533557,"current_range_meters":32800,"station_id":"ce4bhs12rcd13ifvqhvg","pricing_plan_id":"cebpf4jnsgd1na2vs0mg"},{"bike_id":"a2d65268-c2c6-4ea7-9997-90163c52beca","system_id":"levelo_inurba_marseille","lat":43.28964,"lon":5.36622,"is_reserved":false,"is_disabled":true,"rental_uris":{"android":"levelo://app?vid=a2d65268-c2c6-4ea7-9997-90163c52beca","ios":"levelo://app?vid=a2d65268-c2c6-4ea7-9997-90163c52beca"},"vehicle_type_id":"4","last_reported":1737533557,"current_range_meters":0,"station_id":"ce4bhap2rcd13ifvqek0","pricing_plan_id":"cebpf4jnsgd1na2vs0mg"},{"bike_id":"747124dd-cec1-4745-98af-46c2e9b1fccf","system_id":"levelo_inurba_marseille","lat":43.3107,"lon":5.3836,"is_reserved":false,"is_disabled":false,"rental_uris":{"android":"levelo://app?vid=747124dd-cec1-4745-98af-46c2e9b1fccf","ios":"levelo://app?vid=747124dd-cec1-4745-98af-46c2e9b1fccf"},"vehicle_type_id":"4","last_reported":1737533557,"current_range_meters":33200,"station_id":"ce4bgv92rcd13ifvqcr0","pricing_plan_id":"cebpf4jnsgd1na2vs0mg"},{"bike_id":"6ca649b0-82ff-432f-9441-130cb8d9b189","system_id":"levelo_inurba_marseille","lat":43.30132,"lon":5.38776,"is_reserved":false,"is_disabled":false,"rental_uris":{"android":"levelo://app?vid=6ca649b0-82ff-432f-9441-130cb8d9b189","ios":"levelo://app?vid=6ca649b0-82ff-432f-9441-130cb8d9b189"},"vehicle_type_id":"4","last_reported":1737533557,"current_range_meters":24800,"station_id":"ce4bghh2rcd13ifvqb60","pricing_plan_id":"cebpf4jnsgd1na2vs0mg"},{"bike_id":"2cc6f5df-1b42-4b6d-87d2-2a8900168535","system_id":"levelo_inurba_marseille","lat":43.29807,"lon":5.40411,"is_reserved":false,"is_disabled":true,"rental_uris":{"android":"levelo://app?vid=2cc6f5df-1b42-4b6d-87d2-2a8900168535","ios":"levelo://app?vid=2cc6f5df-1b42-4b6d-87d2-2a8900168535"},"vehicle_type_id":"4","last_reported":1737533557,"current_range_meters":12400,"station_id":"ce4bh112rcd13ifvqd90","pricing_plan_id":"cebpf4jnsgd1na2vs0mg"},{"bike_id":"52b24477-8bd3-4b72-ae59-39743df5fbcf","system_id":"levelo_inurba_marseille","lat":43.28567,"lon":5.3948,"is_reserved":false,"is_disabled":false,"rental_uris":{"android":"levelo://app?vid=52b24477-8bd3-4b72-ae59-39743df5fbcf","ios":"levelo://app?vid=52b24477-8bd3-4b72-ae59-39743df5fbcf"},"vehicle_type_id":"4","last_reported":1737533557,"current_range_meters":38800,"station_id":"ce4bh292rcd13ifvqdg0","pricing_plan_id":"cebpf4jnsgd1na2vs0mg"},{"bike_id":"cb662706-1259-41de-8e51-a8b72ac231ab","system_id":"levelo_inurba_marseille","lat":43.30524,"lon":5.39132,"is_reserved":false,"is_disabled":false,"rental_uris":{"android":"levelo://app?vid=cb662706-1259-41de-8e51-a8b72ac231ab","ios":"levelo://app?vid=cb662706-1259-41de-8e51-a8b72ac231ab"},"vehicle_type_id":"4","last_reported":1737533557,"current_range_meters":28400,"station_id":"","pricing_plan_id":"cebpf4jnsgd1na2vs0mg"},{"bike_id":"1a919d33-9571-4cee-906f-273e677fcc23","system_id":"levelo_inurba_marseille","lat":43.30943,"lon":5.39034,"is_reserved":false,"is_disabled":false,"rental_uris":{"android":"levelo://app?vid=1a919d33-9571-4cee-906f-273e677fcc23","ios":"levelo://app?vid=1a919d33-9571-4cee-906f-273e677fcc23"},"vehicle_type_id":"4","last_reported":1737533557,"current_range_meters":33600,"station_id":"ce4bgup2rcd13ifvqco0","pricing_plan_id":"cebpf4jnsgd1na2vs0mg"},{"bike_id":"61d4266f-fc8a-4049-a3f0-d3cb8b6a79aa","system_id":"levelo_inurba_marseille","lat":43.28923,"lon":5.36407,"is_reserved":false,"is_disabled":true,"rental_uris":{"android":"levelo://app?vid=61d4266f-fc8a-4049-a3f0-d3cb8b6a79aa","ios":"levelo://app?vid=61d4266f-fc8a-4049-a3f0-d3cb8b6a79aa"},"vehicle_type_id":"4","last_reported":1737533557,"current_range_meters":30000,"station_id":"ce4bhc92rcd13ifvqetg","pricing_plan_id":"cebpf4jnsgd1na2vs0mg"},{"bike_id":"72afd676-a0aa-46c7-b23f-fb50bae19a9e","system_id":"levelo_inurba_marseille","lat":43.30471,"lon":5.37916,"is_reserved":false,"is_disabled":false,"rental_uris":{"android":"levelo://app?vid=72afd676-a0aa-46c7-b23f-fb50bae19a9e","ios":"levelo://app?vid=72afd676-a0aa-46c7-b23f-fb50bae19a9e"},"vehicle_type_id":"4","last_reported":1737533557,"current_range_meters":20000,"station_id":"ce4bgup2rcd13ifvqcn0","pricing_plan_id":"cebpf4jnsgd1na2vs0mg"},{"bike_id":"627bbf0b-be3d-4e81-923e-f75730693991","system_id":"levelo_inurba_marseille","lat":43.30087,"lon":5.38046,"is_reserved":false,"is_disabled":true,"rental_uris":{"android":"levelo://app?vid=627bbf0b-be3d-4e81-923e-f75730693991","ios":"levelo://app?vid=627bbf0b-be3d-4e81-923e-f75730693991"},"vehicle_type_id":"4","last_reported":1737533557,"current_range_meters":1200,"station_id":"","pricing_plan_id":"cebpf4jnsgd1na2vs0mg"},{"bike_id":"c05d17e6-8ff9-46c6-8c1e-4a317d252d9d","system_id":"levelo_inurba_marseille","lat":43.32367,"lon":5.36766,"is_reserved":false,"is_disabled":false,"rental_uris":{"android":"levelo://app?vid=c05d17e6-8ff9-46c6-8c1e-4a317d252d9d","ios":"levelo://app?vid=c05d17e6-8ff9-46c6-8c1e-4a317d252d9d"},"vehicle_type_id":"4","last_reported":1737533557,"current_range_meters":28800,"station_id":"ce4bhsh2rcd13ifvqi2g","pricing_plan_id":"cebpf4jnsgd1na2vs0mg"},{"bike_id":"1da7ad70-ab8d-4acc-81b9-b3f208a4e8b9","system_id":"levelo_inurba_marseille","lat":43.28344,"lon":5.3811,"is_reserved":false,"is_disabled":true,"rental_uris":{"android":"levelo://app?vid=1da7ad70-ab8d-4acc-81b9-b3f208a4e8b9","ios":"levelo://app?vid=1da7ad70-ab8d-4acc-81b9-b3f208a4e8b9"},"vehicle_type_id":"4","last_reported":1737533557,"current_range_meters":2000,"station_id":"ce4bh412rcd13ifvqdr0","pricing_plan_id":"cebpf4jnsgd1na2vs0mg"},{"bike_id":"70c457e0-4412-429f-834d-73746f9cc5ef","system_id":"levelo_inurba_marseille","lat":43.30536,"lon":5.36564,"is_reserved":false,"is_disabled":false,"rental_uris":{"android":"levelo://app?vid=70c457e0-4412-429f-834d-73746f9cc5ef","ios":"levelo://app?vid=70c457e0-4412-429f-834d-73746f9cc5ef"},"vehicle_type_id":"4","last_reported":1737533557,"current_range_meters":30000,"station_id":"ce4bgs12rcd13ifvqcag","pricing_plan_id":"cebpf4jnsgd1na2vs0mg"},{"bike_id":"ec9864b4-299b-47f3-ba8a-38b5cf795a7a","system_id":"levelo_inurba_marseille","lat":43.24643,"lon":5.389,"is_reserved":false,"is_disabled":false,"rental_uris":{"android":"levelo://app?vid=ec9864b4-299b-47f3-ba8a-38b5cf795a7a","ios":"levelo://app?vid=ec9864b4-299b-47f3-ba8a-38b5cf795a7a"},"vehicle_type_id":"4","last_reported":1737533557,"current_range_meters":38000,"station_id":"ce4bhg12rcd13ifvqf60","pricing_plan_id":"cebpf4jnsgd1na2vs0mg"},{"bike_id":"2abcb777-2f75-44f8-b2ed-158bcd3e9732","system_id":"levelo_inurba_marseille","lat":43.3041,"lon":5.41243,"is_reserved":false,"is_disabled":false,"rental_uris":{"android":"levelo://app?vid=2abcb777-2f75-44f8-b2ed-158bcd3e9732","ios":"levelo://app?vid=2abcb777-2f75-44f8-b2ed-158bcd3e9732"},"vehicle_type_id":"4","last_reported":1737533557,"current_range_meters":33600,"station_id":"ce4bhop2rcd13ifvqh8g","pricing_plan_id":"cebpf4jnsgd1na2vs0mg"},{"bike_id":"188bc35e-b96d-4353-8224-81939b718e35","system_id":"levelo_inurba_marseille","lat":43.32359,"lon":5.38892,"is_reserved":false,"is_disabled":false,"rental_uris":{"android":"levelo://app?vid=188bc35e-b96d-4353-8224-81939b718e35","ios":"levelo://app?vid=188bc35e-b96d-4353-8224-81939b718e35"},"vehicle_type_id":"4","last_reported":1737533557,"current_range_meters":27200,"station_id":"ce4bhqp2rcd13ifvqhog","pricing_plan_id":"cebpf4jnsgd1na2vs0mg"},{"bike_id":"42707e4f-fc86-4055-94d3-267e0305077b","system_id":"levelo_inurba_marseille","lat":43.29829,"lon":5.36271,"is_reserved":false,"is_disabled":false,"rental_uris":{"android":"levelo://app?vid=42707e4f-fc86-4055-94d3-267e0305077b","ios":"levelo://app?vid=42707e4f-fc86-4055-94d3-267e0305077b"},"vehicle_type_id":"4","last_reported":1737533557,"current_range_meters":37600,"station_id":"ce4bgpp2rcd13ifvqc3g","pricing_plan_id":"cebpf4jnsgd1na2vs0mg"},{"bike_id":"41162eaf-1d86-4562-a41f-047ccb2288c4","system_id":"levelo_inurba_marseille","lat":43.31503,"lon":5.42966,"is_reserved":false,"is_disabled":true,"rental_uris":{"android":"levelo://app?vid=41162eaf-1d86-4562-a41f-047ccb2288c4","ios":"levelo://app?vid=41162eaf-1d86-4562-a41f-047ccb2288c4"},"vehicle_type_id":"4","last_reported":1737533557,"current_range_meters":33600,"station_id":"","pricing_plan_id":"cebpf4jnsgd1na2vs0mg"},{"bike_id":"85e92cd5-de65-4f1f-84ed-4c3069403bc9","system_id":"levelo_inurba_marseille","lat":43.30655,"lon":5.40095,"is_reserved":false,"is_disabled":false,"rental_uris":{"android":"levelo://app?vid=85e92cd5-de65-4f1f-84ed-4c3069403bc9","ios":"levelo://app?vid=85e92cd5-de65-4f1f-84ed-4c3069403bc9"},"vehicle_type_id":"4","last_reported":1737533557,"current_range_meters":26800,"station_id":"ce4bh112rcd13ifvqda0","pricing_plan_id":"cebpf4jnsgd1na2vs0mg"},{"bike_id":"92b1553e-063e-4a75-8df6-139bf5f9d010","system_id":"levelo_inurba_marseille","lat":43.28135,"lon":5.42661,"is_reserved":false,"is_disabled":true,"rental_uris":{"android":"levelo://app?vid=92b1553e-063e-4a75-8df6-139bf5f9d010","ios":"levelo://app?vid=92b1553e-063e-4a75-8df6-139bf5f9d010"},"vehicle_type_id":"4","last_reported":1737533557,"current_range_meters":0,"station_id":"ce4bhnh2rcd13ifvqgug","pricing_plan_id":"cebpf4jnsgd1na2vs0mg"},{"bike_id":"25678099-afba-4a5b-89f0-84d4817708fe","system_id":"levelo_inurba_marseille","lat":43.295776,"lon":5.39979,"is_reserved":false,"is_disabled":false,"rental_uris":{"android":"levelo://app?vid=25678099-afba-4a5b-89f0-84d4817708fe","ios":"levelo://app?vid=25678099-afba-4a5b-89f0-84d4817708fe"},"vehicle_type_id":"4","last_reported":1737533557,"current_range_meters":17600,"station_id":"ce4bh312rcd13ifvqdj0","pricing_plan_id":"cebpf4jnsgd1na2vs0mg"},{"bike_id":"3448e7d2-a85d-47d6-ad0c-f45a0c35e35f","system_id":"levelo_inurba_marseille","lat":43.30959,"lon":5.39061,"is_reserved":false,"is_disabled":false,"rental_uris":{"android":"levelo://app?vid=3448e7d2-a85d-47d6-ad0c-f45a0c35e35f","ios":"levelo://app?vid=3448e7d2-a85d-47d6-ad0c-f45a0c35e35f"},"vehicle_type_id":"4","last_reported":1737533557,"current_range_meters":35200,"station_id":"ce4bgup2rcd13ifvqco0","pricing_plan_id":"cebpf4jnsgd1na2vs0mg"},{"bike_id":"634e500c-74ef-4cdc-830f-99b7d06c375b","system_id":"levelo_inurba_marseille","lat":43.30336,"lon":5.4189,"is_reserved":false,"is_disabled":false,"rental_uris":{"android":"levelo://app?vid=634e500c-74ef-4cdc-830f-99b7d06c375b","ios":"levelo://app?vid=634e500c-74ef-4cdc-830f-99b7d06c375b"},"vehicle_type_id":"4","last_reported":1737533557,"current_range_meters":38800,"station_id":"ce4bhop2rcd13ifvqh7g","pricing_plan_id":"cebpf4jnsgd1na2vs0mg"},{"bike_id":"332ed00f-1a13-4d8b-8b0c-d1b24118bc07","system_id":"levelo_inurba_marseille","lat":43.33158,"lon":5.37709,"is_reserved":false,"is_disabled":false,"rental_uris":{"android":"levelo://app?vid=332ed00f-1a13-4d8b-8b0c-d1b24118bc07","ios":"levelo://app?vid=332ed00f-1a13-4d8b-8b0c-d1b24118bc07"},"vehicle_type_id":"4","last_reported":1737533557,"current_range_meters":16000,"station_id":"","pricing_plan_id":"cebpf4jnsgd1na2vs0mg"},{"bike_id":"548189a6-b8aa-4b1b-88b8-00739cc2fbfa","system_id":"levelo_inurba_marseille","lat":43.28039,"lon":5.36946,"is_reserved":false,"is_disabled":false,"rental_uris":{"android":"levelo://app?vid=548189a6-b8aa-4b1b-88b8-00739cc2fbfa","ios":"levelo://app?vid=548189a6-b8aa-4b1b-88b8-00739cc2fbfa"},"vehicle_type_id":"4","last_reported":1737533557,"current_range_meters":13600,"station_id":"ce4bha12rcd13ifvqef0","pricing_plan_id":"cebpf4jnsgd1na2vs0mg"},{"bike_id":"daa95c34-b998-42f7-a8b9-b93b3a858a82","system_id":"levelo_inurba_marseille","lat":43.31362,"lon":5.38506,"is_reserved":false,"is_disabled":false,"rental_uris":{"android":"levelo://app?vid=daa95c34-b998-42f7-a8b9-b93b3a858a82","ios":"levelo://app?vid=daa95c34-b998-42f7-a8b9-b93b3a858a82"},"vehicle_type_id":"4","last_reported":1737533557,"current_range_meters":39200,"station_id":"ce4bgt92rcd13ifvqcf0","pricing_plan_id":"cebpf4jnsgd1na2vs0mg"},{"bike_id":"c40499d9-796e-4199-ab9e-14e84c3b44c3","system_id":"levelo_inurba_marseille","lat":43.29566,"lon":5.37523,"is_reserved":false,"is_disabled":false,"rental_uris":{"android":"levelo://app?vid=c40499d9-796e-4199-ab9e-14e84c3b44c3","ios":"levelo://app?vid=c40499d9-796e-4199-ab9e-14e84c3b44c3"},"vehicle_type_id":"4","last_reported":1737533557,"current_range_meters":37600,"station_id":"ce4bgh92rcd13ifvqb50","pricing_plan_id":"cebpf4jnsgd1na2vs0mg"},{"bike_id":"cc4f9a0b-1c1a-4123-a1e3-ae4ed873a4c0","system_id":"levelo_inurba_marseille","lat":43.24077,"lon":5.37765,"is_reserved":false,"is_disabled":false,"rental_uris":{"android":"levelo://app?vid=cc4f9a0b-1c1a-4123-a1e3-ae4ed873a4c0","ios":"levelo://app?vid=cc4f9a0b-1c1a-4123-a1e3-ae4ed873a4c0"},"vehicle_type_id":"4","last_reported":1737533557,"current_range_meters":34000,"station_id":"ce4bhnp2rcd13ifvqgvg","pricing_plan_id":"cebpf4jnsgd1na2vs0mg"},{"bike_id":"022d942c-9315-4fd9-8ecd-dd95de916b89","system_id":"levelo_inurba_marseille","lat":43.24649,"lon":5.38898,"is_reserved":false,"is_disabled":true,"rental_uris":{"android":"levelo://app?vid=022d942c-9315-4fd9-8ecd-dd95de916b89","ios":"levelo://app?vid=022d942c-9315-4fd9-8ecd-dd95de916b89"},"vehicle_type_id":"4","last_reported":1737533557,"current_range_meters":800,"station_id":"ce4bhg12rcd13ifvqf60","pricing_plan_id":"cebpf4jnsgd1na2vs0mg"},{"bike_id":"61e4a5be-8f04-4c3f-94ce-459a800ea6fb","system_id":"levelo_inurba_marseille","lat":43.24081,"lon":5.37742,"is_reserved":false,"is_disabled":false,"rental_uris":{"android":"levelo://app?vid=61e4a5be-8f04-4c3f-94ce-459a800ea6fb","ios":"levelo://app?vid=61e4a5be-8f04-4c3f-94ce-459a800ea6fb"},"vehicle_type_id":"4","last_reported":1737533557,"current_range_meters":21600,"station_id":"ce4bhnp2rcd13ifvqgvg","pricing_plan_id":"cebpf4jnsgd1na2vs0mg"},{"bike_id":"f5b04eba-d976-4a88-a384-7207daf1f229","system_id":"levelo_inurba_marseille","lat":43.33592,"lon":5.41054,"is_reserved":false,"is_disabled":false,"rental_uris":{"android":"levelo://app?vid=f5b04eba-d976-4a88-a384-7207daf1f229","ios":"levelo://app?vid=f5b04eba-d976-4a88-a384-7207daf1f229"},"vehicle_type_id":"4","last_reported":1737533557,"current_range_meters":27600,"station_id":"ce4bhqh2rcd13ifvqhmg","pricing_plan_id":"cebpf4jnsgd1na2vs0mg"},{"bike_id":"ad4cf7b5-48ab-49e8-bb63-b4c6437ba89d","system_id":"levelo_inurba_marseille","lat":43.32051,"lon":5.41546,"is_reserved":false,"is_disabled":false,"rental_uris":{"android":"levelo://app?vid=ad4cf7b5-48ab-49e8-bb63-b4c6437ba89d","ios":"levelo://app?vid=ad4cf7b5-48ab-49e8-bb63-b4c6437ba89d"},"vehicle_type_id":"4","last_reported":1737533557,"current_range_meters":23200,"station_id":"ce4bhq92rcd13ifvqhkg","pricing_plan_id":"cebpf4jnsgd1na2vs0mg"},{"bike_id":"60b7d049-237a-4dbd-ad0c-436ecde1802f","system_id":"levelo_inurba_marseille","lat":43.2317,"lon":5.35569,"is_reserved":false,"is_disabled":false,"rental_uris":{"android":"levelo://app?vid=60b7d049-237a-4dbd-ad0c-436ecde1802f","ios":"levelo://app?vid=60b7d049-237a-4dbd-ad0c-436ecde1802f"},"vehicle_type_id":"4","last_reported":1737533557,"current_range_meters":16800,"station_id":"ce4bhu92rcd13ifvqi70","pricing_plan_id":"cebpf4jnsgd1na2vs0mg"},{"bike_id":"fe7011bb-5454-4247-a00a-90c1b444d493","system_id":"levelo_inurba_marseille","lat":43.239605,"lon":5.366386,"is_reserved":false,"is_disabled":false,"rental_uris":{"android":"levelo://app?vid=fe7011bb-5454-4247-a00a-90c1b444d493","ios":"levelo://app?vid=fe7011bb-5454-4247-a00a-90c1b444d493"},"vehicle_type_id":"4","last_reported":1737533557,"current_range_meters":9600,"station_id":"ce4bhi12rcd13ifvqfp0","pricing_plan_id":"cebpf4jnsgd1na2vs0mg"},{"bike_id":"de54a39c-85a2-40b1-b3e0-a69725dd3d03","system_id":"levelo_inurba_marseille","lat":43.26934,"lon":5.40255,"is_reserved":false,"is_disabled":false,"rental_uris":{"android":"levelo://app?vid=de54a39c-85a2-40b1-b3e0-a69725dd3d03","ios":"levelo://app?vid=de54a39c-85a2-40b1-b3e0-a69725dd3d03"},"vehicle_type_id":"4","last_reported":1737533557,"current_range_meters":38800,"station_id":"cjm6bp8fraef2m0cb0m0","pricing_plan_id":"cebpf4jnsgd1na2vs0mg"},{"bike_id":"75d5fc2f-d46b-4ecb-ba71-c08e0bd8a730","system_id":"levelo_inurba_marseille","lat":43.24079,"lon":5.37758,"is_reserved":false,"is_disabled":true,"rental_uris":{"android":"levelo://app?vid=75d5fc2f-d46b-4ecb-ba71-c08e0bd8a730","ios":"levelo://app?vid=75d5fc2f-d46b-4ecb-ba71-c08e0bd8a730"},"vehicle_type_id":"4","last_reported":1737533557,"current_range_meters":2000,"station_id":"ce4bhnp2rcd13ifvqgvg","pricing_plan_id":"cebpf4jnsgd1na2vs0mg"},{"bike_id":"f0b7ede6-ae3e-4357-996f-96fcff157b0f","system_id":"levelo_inurba_marseille","lat":43.32534,"lon":5.41435,"is_reserved":false,"is_disabled":true,"rental_uris":{"android":"levelo://app?vid=f0b7ede6-ae3e-4357-996f-96fcff157b0f","ios":"levelo://app?vid=f0b7ede6-ae3e-4357-996f-96fcff157b0f"},"vehicle_type_id":"4","last_reported":1737533557,"current_range_meters":38800,"station_id":"ce4bhq12rcd13ifvqhhg","pricing_plan_id":"cebpf4jnsgd1na2vs0mg"},{"bike_id":"28feb18b-0cd5-4fb7-994b-cabb832b9dc0","system_id":"levelo_inurba_marseille","lat":43.30935,"lon":5.40156,"is_reserved":false,"is_disabled":false,"rental_uris":{"android":"levelo://app?vid=28feb18b-0cd5-4fb7-994b-cabb832b9dc0","ios":"levelo://app?vid=28feb18b-0cd5-4fb7-994b-cabb832b9dc0"},"vehicle_type_id":"4","last_reported":1737533557,"current_range_meters":12000,"station_id":"ce4bgvp2rcd13ifvqct0","pricing_plan_id":"cebpf4jnsgd1na2vs0mg"},{"bike_id":"44e532d2-4333-4f9b-9a33-74683ac1ba16","system_id":"levelo_inurba_marseille","lat":43.27494,"lon":5.42463,"is_reserved":false,"is_disabled":false,"rental_uris":{"android":"levelo://app?vid=44e532d2-4333-4f9b-9a33-74683ac1ba16","ios":"levelo://app?vid=44e532d2-4333-4f9b-9a33-74683ac1ba16"},"vehicle_type_id":"4","last_reported":1737533557,"current_range_meters":24800,"station_id":"ce4bhn92rcd13ifvqgrg","pricing_plan_id":"cebpf4jnsgd1na2vs0mg"},{"bike_id":"aae7e03d-5289-421a-9035-b75ee928b86a","system_id":"levelo_inurba_marseille","lat":43.2406,"lon":5.37748,"is_reserved":false,"is_disabled":false,"rental_uris":{"android":"levelo://app?vid=aae7e03d-5289-421a-9035-b75ee928b86a","ios":"levelo://app?vid=aae7e03d-5289-421a-9035-b75ee928b86a"},"vehicle_type_id":"4","last_reported":1737533557,"current_range_meters":7200,"station_id":"ce4bhnp2rcd13ifvqgvg","pricing_plan_id":"cebpf4jnsgd1na2vs0mg"},{"bike_id":"ae0bbd57-f7db-40a7-bc84-00325ac093a7","system_id":"levelo_inurba_marseille","lat":43.32107,"lon":5.36772,"is_reserved":false,"is_disabled":false,"rental_uris":{"android":"levelo://app?vid=ae0bbd57-f7db-40a7-bc84-00325ac093a7","ios":"levelo://app?vid=ae0bbd57-f7db-40a7-bc84-00325ac093a7"},"vehicle_type_id":"4","last_reported":1737533557,"current_range_meters":21600,"station_id":"ce4bhrh2rcd13ifvqhug","pricing_plan_id":"cebpf4jnsgd1na2vs0mg"},{"bike_id":"ba769519-d785-483e-a5f5-f1a1ebdda9f3","system_id":"levelo_inurba_marseille","lat":43.2792,"lon":5.41202,"is_reserved":false,"is_disabled":true,"rental_uris":{"android":"levelo://app?vid=ba769519-d785-483e-a5f5-f1a1ebdda9f3","ios":"levelo://app?vid=ba769519-d785-483e-a5f5-f1a1ebdda9f3"},"vehicle_type_id":"4","last_reported":1737533557,"current_range_meters":0,"station_id":"","pricing_plan_id":"cebpf4jnsgd1na2vs0mg"},{"bike_id":"5dfa238e-4273-4404-88c2-6a1d6f697d1c","system_id":"levelo_inurba_marseille","lat":43.29305,"lon":5.37465,"is_reserved":false,"is_disabled":false,"rental_uris":{"android":"levelo://app?vid=5dfa238e-4273-4404-88c2-6a1d6f697d1c","ios":"levelo://app?vid=5dfa238e-4273-4404-88c2-6a1d6f697d1c"},"vehicle_type_id":"4","last_reported":1737533557,"current_range_meters":30000,"station_id":"ce4bgi12rcd13ifvqb70","pricing_plan_id":"cebpf4jnsgd1na2vs0mg"},{"bike_id":"b76a1ecc-7d85-471e-b218-134ef5c942e1","system_id":"levelo_inurba_marseille","lat":43.32335,"lon":5.40628,"is_reserved":false,"is_disabled":false,"rental_uris":{"android":"levelo://app?vid=b76a1ecc-7d85-471e-b218-134ef5c942e1","ios":"levelo://app?vid=b76a1ecc-7d85-471e-b218-134ef5c942e1"},"vehicle_type_id":"4","last_reported":1737533557,"current_range_meters":22400,"station_id":"ce4bhq92rcd13ifvqhjg","pricing_plan_id":"cebpf4jnsgd1na2vs0mg"},{"bike_id":"401b8474-3c2e-4106-ad30-96ea6a9ba2df","system_id":"levelo_inurba_marseille","lat":43.31274,"lon":5.40155,"is_reserved":false,"is_disabled":false,"rental_uris":{"android":"levelo://app?vid=401b8474-3c2e-4106-ad30-96ea6a9ba2df","ios":"levelo://app?vid=401b8474-3c2e-4106-ad30-96ea6a9ba2df"},"vehicle_type_id":"4","last_reported":1737533557,"current_range_meters":37600,"station_id":"ce4bh092rcd13ifvqd30","pricing_plan_id":"cebpf4jnsgd1na2vs0mg"},