{"last_updated":1737652077,"ttl":60,"version":"2.2","data":{"bikes":[{"bike_id":"5374e8e0-341a-4027-8bc1-160ff2afeacc","system_id":"levelo_inurba_marseille","lat":43.23185,"lon":5.39994,"is_reserved":false,"is_disabled":false,"rental_uris":{"android":"levelo://app?vid=5374e8e0-341a-4027-8bc1-160ff2afeacc","ios":"levelo://app?vid=5374e8e0-341a-4027-8bc1-160ff2afeacc"},"vehicle_type_id":"4","last_reported":1737652077,"current_range_meters":20000,"station_id":"ce4bhn12rcd13ifvqgqg","pricing_plan_id":"cebpf4jnsgd1na2vs0mg"},{"bike_id":"91a5d59b-5c83-4a2c-a8b4-b44609fde994","system_id":"levelo_inurba_marseille","lat":43.28099,"lon":5.37834,"is_reserved":false,"is_disabled":true,"rental_uris":{"android":"levelo://app?vid=91a5d59b-5c83-4a2c-a8b4-b44609fde994","ios":"levelo://app?vid=91a5d59b-5c83-4a2c-a8b4-b44609fde994"},"vehicle_type_id":"4","last_reported":1737652077,"current_range_meters":400,"station_id":"ce4bha12rcd13ifvqee0","pricing_plan_id":"cebpf4jnsgd1na2vs0mg"},{"bike_id":"eccf0d1b-bc05-4442-912e-9450590b779a","system_id":"levelo_inurba_marseille","lat":43.31996,"lon":5.38165,"is_reserved":false,"is_disabled":false,"rental_uris":{"android":"levelo://app?vid=eccf0d1b-bc05-4442-912e-9450590b779a","ios":"levelo://app?vid=eccf0d1b-bc05-4442-912e-9450590b779a"},"vehicle_type_id":"4","last_reported":1737652077,"current_range_meters":17200,"station_id":"ce4bhr12rcd13ifvqhpg","pricing_plan_id":"cebpf4jnsgd1na2vs0mg"},{"bike_id":"dcf4555a-aebc-4561-8ac8-3e8a57d63da1","system_id":"levelo_inurba_marseille","lat":43.29579,"lon":5.36738,"is_reserved":false,"is_disabled":false,"rental_uris":{"android":"levelo://app?vid=dcf4555a-aebc-4561-8ac8-3e8a57d63da1","ios":"levelo://app?vid=dcf4555a-aebc-4561-8ac8-3e8a57d63da1"},"vehicle_type_id":"4","last_reported":1737652077,"current_range_meters":38800,"station_id":"ce4bgph2rcd13ifvqc2g","pricing_plan_id":"cebpf4jnsgd1na2vs0mg"},{"bike_id":"7ffa4c5f-399b-415f-a0ea-597f39a741fa","system_id":"levelo_inurba_marseille","lat":43.28458,"lon":5.35894,"is_reserved":false,"is_disabled":false,"rental_uris":{"android":"levelo://app?vid=7ffa4c5f-399b-415f-a0ea-597f39a741fa","ios":"levelo://app?vid=7ffa4c5f-399b-415f-a0ea-597f39a741fa"},"vehicle_type_id":"4","last_reported":1737652077,"current_range_meters":24400,"station_id":"ce4bhah2rcd13ifvqei0","pricing_plan_id":"cebpf4jnsgd1na2vs0mg"},{"bike_id":"a7531057-4bb5-43f6-be6f-37f5b27a6b07","system_id":"levelo_inurba_marseille","lat":43.30465,"lon":5.38998,"is_reserved":false,"is_disabled":false,"rental_uris":{"android":"levelo://app?vid=a7531057-4bb5-43f6-be6f-37f5b27a6b07","ios":"levelo://app?vid=a7531057-4bb5-43f6-be6f-37f5b27a6b07"},"vehicle_type_id":"4","last_reported":1737652077,"current_range_meters":32000,"station_id":"","pricing_plan_id":"cebpf4jnsgd1na2vs0mg"},{"bike_id":"b5cb07e6-6ffd-4db4-8954-0084503b2aef","system_id":"levelo_inurba_marseille","lat":43.33012,"lon":5.39057,"is_reserved":false,"is_disabled":false,"rental_uris":{"android":"levelo://app?vid=b5cb07e6-6ffd-4db4-8954-0084503b2aef","ios":"levelo://app?vid=b5cb07e6-6ffd-4db4-8954-0084503b2aef"},"vehicle_type_id":"4","last_reported":1737652077,"current_range_meters":38800,"station_id":"ce4bhr92rcd13ifvqhrg","pricing_plan_id":"cebpf4jnsgd1na2vs0mg"},{"bike_id":"ce2b86ec-5c6e-436b-bbf1-eb1b6c761903","system_id":"levelo_inurba_marseille","lat":43.27638,"lon":5.38972,"is_reserved":false,"is_disabled":false,"rental_uris":{"android":"levelo://app?vid=ce2b86ec-5c6e-436b-bbf1-eb1b6c761903","ios":"levelo://app?vid=ce2b86ec-5c6e-436b-bbf1-eb1b6c761903"},"vehicle_type_id":"4","last_reported":1737652077,"current_range_meters":36000,"station_id":"","pricing_plan_id":"cebpf4jnsgd1na2vs0mg"},{"bike_id":"ec016e4b-1100-4b80-a9e8-7ce8bce9aee4","system_id":"levelo_inurba_marseille","lat":43.27996,"lon":5.40016,"is_reserved":false,"is_disabled":false,"rental_uris":{"android":"levelo://app?vid=ec016e4b-1100-4b80-a9e8-7ce8bce9aee4","ios":"levelo://app?vid=ec016e4b-1100-4b80-a9e8-7ce8bce9aee4"},"vehicle_type_id":"4","last_reported":1737652077,"current_range_meters":22400,"station_id":"ce4bho92rcd13ifvqh4g","pricing_plan_id":"cebpf4jnsgd1na2vs0mg"},{"bike_id":"5c28359f-046c-4cf4-8759-33e9669b37cb","system_id":"levelo_inurba_marseille","lat":43.28731,"lon":5.37964,"is_reserved":false,"is_disabled":false,"rental_uris":{"android":"levelo://app?vid=5c28359f-046c-4cf4-8759-33e9669b37cb","ios":"levelo://app?vid=5c28359f-046c-4cf4-8759-33e9669b37cb"},"vehicle_type_id":"4","last_reported":1737652077,"current_range_meters":26000,"station_id":"ce4bh9p2rcd13ifvqec0","pricing_plan_id":"cebpf4jnsgd1na2vs0mg"},{"bike_id":"13670fc0-cc3e-47ce-b67a-a8b1afe66154","system_id":"levelo_inurba_marseille","lat":43.277991,"lon":5.406982,"is_reserved":false,"is_disabled":false,"rental_uris":{"android":"levelo://app?vid=13670fc0-cc3e-47ce-b67a-a8b1afe66154","ios":"levelo://app?vid=13670fc0-cc3e-47ce-b67a-a8b1afe66154"},"vehicle_type_id":"4","last_reported":1737652077,"current_range_meters":25600,"station_id":"ce4bhnh2rcd13ifvqgtg","pricing_plan_id":"cebpf4jnsgd1na2vs0mg"},{"bike_id":"90ef6c1c-7716-486b-815b-e3296621e8a4","system_id":"levelo_inurba_marseille","lat":43.27931,"lon":5.3956,"is_reserved":false,"is_disabled":true,"rental_uris":{"android":"levelo://app?vid=90ef6c1c-7716-486b-815b-e3296621e8a4","ios":"levelo://app?vid=90ef6c1c-7716-486b-815b-e3296621e8a4"},"vehicle_type_id":"4","last_reported":1737652077,"current_range_meters":0,"station_id":"ce4bhf92rcd13ifvqf40","pricing_plan_id":"cebpf4jnsgd1na2vs0mg"},{"bike_id":"bd5d155e-c941-4c20-9810-5c28e98a5d75","system_id":"levelo_inurba_marseille","lat":43.29868,"lon":5.3974,"is_reserved":false,"is_disabled":false,"rental_uris":{"android":"levelo://app?vid=bd5d155e-c941-4c20-9810-5c28e98a5d75","ios":"levelo://app?vid=bd5d155e-c941-4c20-9810-5c28e98a5d75"},"vehicle_type_id":"4","last_reported":1737652077,"current_range_meters":9600,"station_id":"ce4bh0h2rcd13ifvqd50","pricing_plan_id":"cebpf4jnsgd1na2vs0mg"},{"bike_id":"7a6cfcd6-bc05-4fcd-b5f2-7f03c14f9506","system_id":"levelo_inurba_marseille","lat":43.28943,"lon":5.3664,"is_reserved":false,"is_disabled":false,"rental_uris":{"android":"levelo://app?vid=7a6cfcd6-bc05-4fcd-b5f2-7f03c14f9506","ios":"levelo://app?vid=7a6cfcd6-bc05-4fcd-b5f2-7f03c14f9506"},"vehicle_type_id":"4","last_reported":1737652077,"current_range_meters":20800,"station_id":"ce4bhap2rcd13ifvqek0","pricing_plan_id":"cebpf4jnsgd1na2vs0mg"},{"bike_id":"f7e068d9-be8a-4e26-8d37-7ec03de6c74a","system_id":"levelo_inurba_marseille","lat":43.29305,"lon":5.37172,"is_reserved":false,"is_disabled":false,"rental_uris":{"android":"levelo://app?vid=f7e068d9-be8a-4e26-8d37-7ec03de6c74a","ios":"levelo://app?vid=f7e068d9-be8a-4e26-8d37-7ec03de6c74a"},"vehicle_type_id":"4","last_reported":1737652077,"current_range_meters":13600,"station_id":"ce4bgh92rcd13ifvqb40","pricing_plan_id":"cebpf4jnsgd1na2vs0mg"},{"bike_id":"8306911c-1b49-4f25-b658-2afe8ce20858","system_id":"levelo_inurba_marseille","lat":43.28463,"lon":5.35885,"is_reserved":false,"is_disabled":false,"rental_uris":{"android":"levelo://app?vid=8306911c-1b49-4f25-b658-2afe8ce20858","ios":"levelo://app?vid=8306911c-1b49-4f25-b658-2afe8ce20858"},"vehicle_type_id":"4","last_reported":1737652077,"current_range_meters":31200,"station_id":"ce4bhah2rcd13ifvqei0","pricing_plan_id":"cebpf4jnsgd1na2vs0mg"},{"bike_id":"e38da209-d8d9-4680-be99-11d1954272ef","system_id":"levelo_inurba_marseille","lat":43.262,"lon":5.37931,"is_reserved":false,"is_disabled":false,"rental_uris":{"android":"levelo://app?vid=e38da209-d8d9-4680-be99-11d1954272ef","ios":"levelo://app?vid=e38da209-d8d9-4680-be99-11d1954272ef"},"vehicle_type_id":"4","last_reported":1737652077,"current_range_meters":39200,"station_id":"ce4bhjp2rcd13ifvqg90","pricing_plan_id":"cebpf4jnsgd1na2vs0mg"},{"bike_id":"3797cfec-e8e8-4763-a6d2-dd14bd67c606","system_id":"levelo_inurba_marseille","lat":43.31365,"lon":5.38493,"is_reserved":false,"is_disabled":false,"rental_uris":{"android":"levelo://app?vid=3797cfec-e8e8-4763-a6d2-dd14bd67c606","ios":"levelo://app?vid=3797cfec-e8e8-4763-a6d2-dd14bd67c606"},"vehicle_type_id":"4","last_reported":1737652077,"current_range_meters":9600,"station_id":"ce4bgt92rcd13ifvqcf0","pricing_plan_id":"cebpf4jnsgd1na2vs0mg"},{"bike_id":"cefc7761-5704-4e2f-9c21-5d8755a0f7c5","system_id":"levelo_inurba_marseille","lat":43.293,"lon":5.372,"is_reserved":false,"is_disabled":false,"rental_uris":{"android":"levelo://app?vid=cefc7761-5704-4e2f-9c21-5d8755a0f7c5","ios":"levelo://app?vid=cefc7761-5704-4e2f-9c21-5d8755a0f7c5"},"vehicle_type_id":"4","last_reported":1737652077,"current_range_meters":28000,"station_id":"ce4bgh92rcd13ifvqb40","pricing_plan_id":"cebpf4jnsgd1na2vs0mg"},{"bike_id":"644e1c08-c502-4c85-94d4-d4a064391ff0","system_id":"levelo_inurba_marseille","lat":43.31529,"lon":5.38946,"is_reserved":false,"is_disabled":false,"rental_uris":{"android":"levelo://app?vid=644e1c08-c502-4c85-94d4-d4a064391ff0","ios":"levelo://app?vid=644e1c08-c502-4c85-94d4-d4a064391ff0"},"vehicle_type_id":"4","last_reported":1737652077,"current_range_meters":7200,"station_id":"","pricing_plan_id":"cebpf4jnsgd1na2vs0mg"},{"bike_id":"553e4976-b27f-47dc-8e32-f79d8de69447","system_id":"levelo_inurba_marseille","lat":43.28998,"lon":5.35616,"is_reserved":false,"is_disabled":false,"rental_uris":{"android":"levelo://app?vid=553e4976-b27f-47dc-8e32-f79d8de69447","ios":"levelo://app?vid=553e4976-b27f-47dc-8e32-f79d8de69447"},"vehicle_type_id":"4","last_reported":1737652077,"current_range_meters":38800,"station_id":"ce4bhb92rcd13ifvqen0","pricing_plan_id":"cebpf4jnsgd1na2vs0mg"},{"bike_id":"d176d05d-f592-4680-9312-b4c47d85e9a1","system_id":"levelo_inurba_marseille","lat":43.2842,"lon":5.37548,"is_reserved":false,"is_disabled":false,"rental_uris":{"android":"levelo://app?vid=d176d05d-f592-4680-9312-b4c47d85e9a1","ios":"levelo://app?vid=d176d05d-f592-4680-9312-b4c47d85e9a1"},"vehicle_type_id":"4","last_reported":1737652077,"current_range_meters":8000,"station_id":"ce4bh412rcd13ifvqds0","pricing_plan_id":"cebpf4jnsgd1na2vs0mg"},{"bike_id":"c0d87deb-3034-4283-85a4-3460960a8a8a","system_id":"levelo_inurba_marseille","lat":43.304201,"lon":5.412944,"is_reserved":false,"is_disabled":false,"rental_uris":{"android":"levelo://app?vid=c0d87deb-3034-4283-85a4-3460960a8a8a","ios":"levelo://app?vid=c0d87deb-3034-4283-85a4-3460960a8a8a"},"vehicle_type_id":"4","last_reported":1737652077,"current_range_meters":12400,"station_id":"ce4bhop2rcd13ifvqh8g","pricing_plan_id":"cebpf4jnsgd1na2vs0mg"},{"bike_id":"148cfa4a-8941-476e-9f1f-f49459a3d13d","system_id":"levelo_inurba_marseille","lat":43.29779,"lon":5.39336,"is_reserved":false,"is_disabled":false,"rental_uris":{"android":"levelo://app?vid=148cfa4a-8941-476e-9f1f-f49459a3d13d","ios":"levelo://app?vid=148cfa4a-8941-476e-9f1f-f49459a3d13d"},"vehicle_type_id":"4","last_reported":1737652077,"current_range_meters":24800,"station_id":"chh1huq6cuj3fo74tm60","pricing_plan_id":"cebpf4jnsgd1na2vs0mg"},{"bike_id":"159f9a9d-60ed-4b8f-90f2-23c1bf57b24d","system_id":"levelo_inurba_marseille","lat":43.28261,"lon":5.3505,"is_reserved":false,"is_disabled":false,"rental_uris":{"android":"levelo://app?vid=159f9a9d-60ed-4b8f-90f2-23c1bf57b24d","ios":"levelo://app?vid=159f9a9d-60ed-4b8f-90f2-23c1bf57b24d"},"vehicle_type_id":"4","last_reported":1737652077,"current_range_meters":30000,"station_id":"ce4bhbp2rcd13ifvqerg","pricing_plan_id":"cebpf4jnsgd1na2vs0mg"},{"bike_id":"e8ada0c3-d480-4ee2-b4a9-3e7a47fe79b3","system_id":"levelo_inurba_marseille","lat":43.30429,"lon":5.38882,"is_reserved":false,"is_disabled":false,"rental_uris":{"android":"levelo://app?vid=e8ada0c3-d480-4ee2-b4a9-3e7a47fe79b3","ios":"levelo://app?vid=e8ada0c3-d480-4ee2-b4a9-3e7a47fe79b3"},"vehicle_type_id":"4","last_reported":1737652077,"current_range_meters":3600,"station_id":"ce4bgk12rcd13ifvqbi0","pricing_plan_id":"cebpf4jnsgd1na2vs0mg"},{"bike_id":"b6917ed1-8eaf-41df-a2b9-bec381c3c412","system_id":"levelo_inurba_marseille","lat":43.29779,"lon":5.39361,"is_reserved":false,"is_disabled":false,"rental_uris":{"android":"levelo://app?vid=b6917ed1-8eaf-41df-a2b9-bec381c3c412","ios":"levelo://app?vid=b6917ed1-8eaf-41df-a2b9-bec381c3c412"},"vehicle_type_id":"4","last_reported":1737652077,"current_range_meters":38800,"station_id":"chh1huq6cuj3fo74tm60","pricing_plan_id":"cebpf4jnsgd1na2vs0mg"},{"bike_id":"0672c778-6d96-43cb-9618-48f187d64dea","system_id":"levelo_inurba_marseille","lat":43.25575,"lon":5.38222,"is_reserved":false,"is_disabled":false,"rental_uris":{"android":"levelo://app?vid=0672c778-6d96-43cb-9618-48f187d64dea","ios":"levelo://app?vid=0672c778-6d96-43cb-9618-48f187d64dea"},"vehicle_type_id":"4","last_reported":1737652077,"current_range_meters":7200,"station_id":"ce4bhih2rcd13ifvqfs0","pricing_plan_id":"cebpf4jnsgd1na2vs0mg"},{"bike_id":"b7c1b669-81b3-4492-91f7-f1e7410caa45","system_id":"levelo_inurba_marseille","lat":43.323625,"lon":5.367594,"is_reserved":false,"is_disabled":false,"rental_uris":{"android":"levelo://app?vid=b7c1b669-81b3-4492-91f7-f1e7410caa45","ios":"levelo://app?vid=b7c1b669-81b3-4492-91f7-f1e7410caa45"},"vehicle_type_id":"4","last_reported":1737652077,"current_range_meters":30800,"station_id":"ce4bhsh2rcd13ifvqi2g","pricing_plan_id":"cebpf4jnsgd1na2vs0mg"},{"bike_id":"8aa6cd00-6eb9-40b7-8094-4fd0cdb96d7a","system_id":"levelo_inurba_marseille","lat":43.3055,"lon":5.38422,"is_reserved":false,"is_disabled":false,"rental_uris":{"android":"levelo://app?vid=8aa6cd00-6eb9-40b7-8094-4fd0cdb96d7a","ios":"levelo://app?vid=8aa6cd00-6eb9-40b7-8094-4fd0cdb96d7a"},"vehicle_type_id":"4","last_reported":1737652077,"current_range_meters":3600,"station_id":"ce4bgg92rcd13ifvqb30","pricing_plan_id":"cebpf4jnsgd1na2vs0mg"},{"bike_id":"bbdfc660-e997-4a11-9591-bbb56c89be46","system_id":"levelo_inurba_marseille","lat":43.33031,"lon":5.39039,"is_reserved":false,"is_disabled":false,"rental_uris":{"android":"levelo://app?vid=bbdfc660-e997-4a11-9591-bbb56c89be46","ios":"levelo://app?vid=bbdfc660-e997-4a11-9591-bbb56c89be46"},"vehicle_type_id":"4","last_reported":1737652077,"current_range_meters":38800,"station_id":"ce4bhr92rcd13ifvqhrg","pricing_plan_id":"cebpf4jnsgd1na2vs0mg"},{"bike_id":"5e75dd30-ab3b-44d3-8dcb-cb5fd4a0eb65","system_id":"levelo_inurba_marseille","lat":43.24648,"lon":5.38888,"is_reserved":false,"is_disabled":false,"rental_uris":{"android":"levelo://app?vid=5e75dd30-ab3b-44d3-8dcb-cb5fd4a0eb65","ios":"levelo://app?vid=5e75dd30-ab3b-44d3-8dcb-cb5fd4a0eb65"},"vehicle_type_id":"4","last_reported":1737652077,"current_range_meters":37600,"station_id":"ce4bhg12rcd13ifvqf60","pricing_plan_id":"cebpf4jnsgd1na2vs0mg"},{"bike_id":"2423a5fd-234f-4c3b-883b-845ca420a836","system_id":"levelo_inurba_marseille","lat":43.27618,"lon":5.36105,"is_reserved":false,"is_disabled":false,"rental_uris":{"android":"levelo://app?vid=2423a5fd-234f-4c3b-883b-845ca420a836","ios":"levelo://app?vid=2423a5fd-234f-4c3b-883b-845ca420a836"},"vehicle_type_id":"4","last_reported":1737652077,"current_range_meters":19200,"station_id":"ce4bgj92rcd13ifvqbe0","pricing_plan_id":"cebpf4jnsgd1na2vs0mg"},{"bike_id":"a9c31a40-9201-412b-8757-c85cddf83ffd","system_id":"levelo_inurba_marseille","lat":43.26688,"lon":5.38278,"is_reserved":false,"is_disabled":false,"rental_uris":{"android":"levelo://app?vid=a9c31a40-9201-412b-8757-c85cddf83ffd","ios":"levelo://app?vid=a9c31a40-9201-412b-8757-c85cddf83ffd"},"vehicle_type_id":"4","last_reported":1737652077,"current_range_meters":36800,"station_id":"ce4bhg92rcd13ifvqf90","pricing_plan_id":"cebpf4jnsgd1na2vs0mg"},{"bike_id":"918b1e06-c10a-433e-9e7d-57b9ed9bf5d7","system_id":"levelo_inurba_marseille","lat":43.29522,"lon":5.39046,"is_reserved":false,"is_disabled":false,"rental_uris":{"android":"levelo://app?vid=918b1e06-c10a-433e-9e7d-57b9ed9bf5d7","ios":"levelo://app?vid=918b1e06-c10a-433e-9e7d-57b9ed9bf5d7"},"vehicle_type_id":"4","last_reported":1737652077,"current_range_meters":30000,"station_id":"ce4bh3p2rcd13ifvqdp0","pricing_plan_id":"cebpf4jnsgd1na2vs0mg"},{"bike_id":"dc26e2a0-9a50-4769-9349-2a8cbbbae4b7","system_id":"levelo_inurba_marseille","lat":43.29229,"lon":5.36062,"is_reserved":false,"is_disabled":false,"rental_uris":{"android":"levelo://app?vid=dc26e2a0-9a50-4769-9349-2a8cbbbae4b7","ios":"levelo://app?vid=dc26e2a0-9a50-4769-9349-2a8cbbbae4b7"},"vehicle_type_id":"4","last_reported":1737652077,"current_range_meters":14400,"station_id":"ce4bhbh2rcd13ifvqeqg","pricing_plan_id":"cebpf4jnsgd1na2vs0mg"},{"bike_id":"9838cc78-2b53-49d3-ae13-82df62c4fd64","system_id":"levelo_inurba_marseille","lat":43.28434,"lon":5.40932,"is_reserved":false,"is_disabled":false,"rental_uris":{"android":"levelo://app?vid=9838cc78-2b53-49d3-ae13-82df62c4fd64","ios":"levelo://app?vid=9838cc78-2b53-49d3-ae13-82df62c4fd64"},"vehicle_type_id":"4","last_reported":1737652077,"current_range_meters":5600,"station_id":"","pricing_plan_id":"cebpf4jnsgd1na2vs0mg"},{"bike_id":"d9d67e50-ff60-4024-bb97-06b4cc192a7e","system_id":"levelo_inurba_marseille","lat":43.30234,"lon":5.37458,"is_reserved":false,"is_disabled":true,"rental_uris":{"android":"levelo://app?vid=d9d67e50-ff60-4024-bb97-06b4cc192a7e","ios":"levelo://app?vid=d9d67e50-ff60-4024-bb97-06b4cc192a7e"},"vehicle_type_id":"4","last_reported":1737652077,"current_range_meters":38800,"station_id":"","pricing_plan_id":"cebpf4jnsgd1na2vs0mg"},{"bike_id":"7d763c98-42ea-4785-9a67-445fecef725e","system_id":"levelo_inurba_marseille","lat":43.2827,"lon":5.350659,"is_reserved":false,"is_disabled":false,"rental_uris":{"android":"levelo://app?vid=7d763c98-42ea-4785-9a67-445fecef725e","ios":"levelo://app?vid=7d763c98-42ea-4785-9a67-445fecef725e"},"vehicle_type_id":"4","last_reported":1737652077,"current_range_meters":38800,"station_id":"ce4bhbp2rcd13ifvqerg","pricing_plan_id":"cebpf4jnsgd1na2vs0mg"},{"bike_id":"bf096a89-ee72-4f37-85bd-7b3cf9f0cb41","system_id":"levelo_inurba_marseille","lat":43.31931,"lon":5.37892,"is_reserved":false,"is_disabled":false,"rental_uris":{"android":"levelo://app?vid=bf096a89-ee72-4f37-85bd-7b3cf9f0cb41","ios":"levelo://app?vid=bf096a89-ee72-4f37-85bd-7b3cf9f0cb41"},"vehicle_type_id":"4","last_reported":1737652077,"current_range_meters":37600,"station_id":"","pricing_plan_id":"cebpf4jnsgd1na2vs0mg"},{"bike_id":"4078e194-9a49-4303-b9e9-14bd13d7cef2","system_id":"levelo_inurba_marseille","lat":43.251,"lon":5.4033,"is_reserved":false,"is_disabled":false,"rental_uris":{"android":"levelo://app?vid=4078e194-9a49-4303-b9e9-14bd13d7cef2","ios":"levelo://app?vid=4078e194-9a49-4303-b9e9-14bd13d7cef2"},"vehicle_type_id":"4","last_reported":1737652077,"current_range_meters":12400,"station_id":"ce4bhlh2rcd13ifvqgig","pricing_plan_id":"cebpf4jnsgd1na2vs0mg"},{"bike_id":"634d56c1-a2c0-4178-97ec-f77ccc52b51c","system_id":"levelo_inurba_marseille","lat":43.23192,"lon":5.39977,"is_reserved":false,"is_disabled":false,"rental_uris":{"android":"levelo://app?vid=634d56c1-a2c0-4178-97ec-f77ccc52b51c","ios":"levelo://app?vid=634d56c1-a2c0-4178-97ec-f77ccc52b51c"},"vehicle_type_id":"4","last_reported":1737652077,"current_range_meters":35600,"station_id":"ce4bhn12rcd13ifvqgqg","pricing_plan_id":"cebpf4jnsgd1na2vs0mg"},{"bike_id":"453049cf-9b62-421e-aca6-df9a4afd0bf0","system_id":"levelo_inurba_marseille","lat":43.281233,"lon":5.378249,"is_reserved":false,"is_disabled":false,"rental_uris":{"android":"levelo://app?vid=453049cf-9b62-421e-aca6-df9a4afd0bf0","ios":"levelo://app?vid=453049cf-9b62-421e-aca6-df9a4afd0bf0"},"vehicle_type_id":"4","last_reported":1737652077,"current_range_meters":10800,"station_id":"ce4bha12rcd13ifvqee0","pricing_plan_id":"cebpf4jnsgd1na2vs0mg"},{"bike_id":"92dc41e3-39f7-4d4d-9bc1-c37481200d58","system_id":"levelo_inurba_marseille","lat":43.27836,"lon":5.39192,"is_reserved":false,"is_disabled":false,"rental_uris":{"android":"levelo://app?vid=92dc41e3-39f7-4d4d-9bc1-c37481200d58","ios":"levelo://app?vid=92dc41e3-39f7-4d4d-9bc1-c37481200d58"},"vehicle_type_id":"4","last_reported":1737652077,"current_range_meters":24400,"station_id":"ce4bhjp2rcd13ifvqga0","pricing_plan_id":"cebpf4jnsgd1na2vs0mg"},{"bike_id":"fc2760a3-eaa4-4974-a2b7-7f983d2e525a","system_id":"levelo_inurba_marseille","lat":43.25584,"lon":5.38239,"is_reserved":false,"is_disabled":false,"rental_uris":{"android":"levelo://app?vid=fc2760a3-eaa4-4974-a2b7-7f983d2e525a","ios":"levelo://app?vid=fc2760a3-eaa4-4974-a2b7-7f983d2e525a"},"vehicle_type_id":"4","last_reported":1737652077,"current_range_meters":12800,"station_id":"ce4bhih2rcd13ifvqfs0","pricing_plan_id":"cebpf4jnsgd1na2vs0mg"},{"bike_id":"f2b60f64-7786-4c54-ac24-29f68bd8380a","system_id":"levelo_inurba_marseille","lat":43.2952,"lon":5.39057,"is_reserved":false,"is_disabled":false,"rental_uris":{"android":"levelo://app?vid=f2b60f64-7786-4c54-ac24-29f68bd8380a","ios":"levelo://app?vid=f2b60f64-7786-4c54-ac24-29f68bd8380a"},"vehicle_type_id":"4","last_reported":1737652077,"current_range_meters":8000,"station_id":"ce4bh3p2rcd13ifvqdp0","pricing_plan_id":"cebpf4jnsgd1na2vs0mg"},{"bike_id":"6e7c2cc5-d6ea-4a5a-ad05-e08327a378ed","system_id":"levelo_inurba_marseille","lat":43.29172,"lon":5.37157,"is_reserved":false,"is_disabled":false,"rental_uris":{"android":"levelo://app?vid=6e7c2cc5-d6ea-4a5a-ad05-e08327a378ed","ios":"levelo://app?vid=6e7c2cc5-d6ea-4a5a-ad05-e08327a378ed"},"vehicle_type_id":"4","last_reported":1737652077,"current_range_meters":10000,"station_id":"ce4bha92rcd13ifvqeh0","pricing_plan_id":"cebpf4jnsgd1na2vs0mg"},{"bike_id":"48abaa4a-2251-4b1a-985d-736d5322fef9","system_id":"levelo_inurba_marseille","lat":43.2656,"lon":5.3728,"is_reserved":false,"is_disabled":false,"rental_uris":{"android":"levelo://app?vid=48abaa4a-2251-4b1a-985d-736d5322fef9","ios":"levelo://app?vid=48abaa4a-2251-4b1a-985d-736d5322fef9"},"vehicle_type_id":"4","last_reported":1737652077,"current_range_meters":16800,"station_id":"ce4bhg12rcd13ifvqf70","pricing_plan_id":"cebpf4jnsgd1na2vs0mg"},{"bike_id":"266f33ed-1f11-40fe-a296-8639c179d07a","system_id":"levelo_inurba_marseille","lat":43.28427,"lon":5.34996,"is_reserved":false,"is_disabled":false,"rental_uris":{"android":"levelo://app?vid=266f33ed-1f11-40fe-a296-8639c179d07a","ios":"levelo://app?vid=266f33ed-1f11-40fe-a296-8639c179d07a"},"vehicle_type_id":"4","last_reported":1737652077,"current_range_meters":34800,"station_id":"ce4bhbh2rcd13ifvqepg","pricing_plan_id":"cebpf4jnsgd1na2vs0mg"},{"bike_id":"58e04e08-346e-461f-85c7-12eadb78d927","system_id":"levelo_inurba_marseille","lat":43.31867,"lon":5.40285,"is_reserved":false,"is_disabled":false,"rental_uris":{"android":"levelo://app?vid=58e04e08-346e-461f-85c7-12eadb78d927","ios":"levelo://app?vid=58e04e08-346e-461f-85c7-12eadb78d927"},"vehicle_type_id":"4","last_reported":1737652077,"current_range_meters":15200,"station_id":"ce4bgvp2rcd13ifvqcu0","pricing_plan_id":"cebpf4jnsgd1na2vs0mg"},{"bike_id":"536484ed-d967-41c5-8f88-22ed70378acb","system_id":"levelo_inurba_marseille","lat":43.27513,"lon":5.39768,"is_reserved":false,"is_disabled":false,"rental_uris":{"android":"levelo://app?vid=536484ed-d967-41c5-8f88-22ed70378acb","ios":"levelo://app?vid=536484ed-d967-41c5-8f88-22ed70378acb"},"vehicle_type_id":"4","last_reported":1737652077,"current_range_meters":8000,"station_id":"","pricing_plan_id":"cebpf4jnsgd1na2vs0mg"},{"bike_id":"a48a1d35-3f13-45af-a2ef-e29bf30d3d17","system_id":"levelo_inurba_marseille","lat":43.30807,"lon":5.43511,"is_reserved":false,"is_disabled":false,"rental_uris":{"android":"levelo://app?vid=a48a1d35-3f13-45af-a2ef-e29bf30d3d17","ios":"levelo://app?vid=a48a1d35-3f13-45af-a2ef-e29bf30d3d17"},"vehicle_type_id":"4","last_reported":1737652077,"current_range_meters":10000,"station_id":"ce4bhph2rcd13ifvqheg","pricing_plan_id":"cebpf4jnsgd1na2vs0mg"},{"bike_id":"050bd42b-0fa4-4ea3-8a02-3c1196960ece","system_id":"levelo_inurba_marseille","lat":43.31654,"lon":5.37432,"is_reserved":false,"is_disabled":false,"rental_uris":{"android":"levelo://app?vid=050bd42b-0fa4-4ea3-8a02-3c1196960ece","ios":"levelo://app?vid=050bd42b-0fa4-4ea3-8a02-3c1196960ece"},"vehicle_type_id":"4","last_reported":1737652077,"current_range_meters":26800,"station_id":"","pricing_plan_id":"cebpf4jnsgd1na2vs0mg"},{"bike_id":"3a59db95-3ba3-45d9-9d51-35faeb1e0f2b","system_id":"levelo_inurba_marseille","lat":43.25117,"lon":5.40316,"is_reserved":false,"is_disabled":false,"rental_uris":{"android":"levelo://app?vid=3a59db95-3ba3-45d9-9d51-35faeb1e0f2b","ios":"levelo://app?vid=3a59db95-3ba3-45d9-9d51-35faeb1e0f2b"},"vehicle_type_id":"4","last_reported":1737652077,"current_range_meters":29600,"station_id":"ce4bhlh2rcd13ifvqgig","pricing_plan_id":"cebpf4jnsgd1na2vs0mg"},{"bike_id":"773aef51-1c1e-46db-addb-ab008f84058c","system_id":"levelo_inurba_marseille","lat":43.28922,"lon":5.38416,"is_reserved":false,"is_disabled":false,"rental_uris":{"android":"levelo://app?vid=773aef51-1c1e-46db-addb-ab008f84058c","ios":"levelo://app?vid=773aef51-1c1e-46db-addb-ab008f84058c"},"vehicle_type_id":"4","last_reported":1737652077,"current_range_meters":6400,"station_id":"ce4bh612rcd13ifvqe6g","pricing_plan_id":"cebpf4jnsgd1na2vs0mg"},{"bike_id":"2f4fa984-4c44-4974-abb6-1d4b539de1f0","system_id":"levelo_inurba_marseille","lat":43.28656,"lon":5.38668,"is_reserved":false,"is_disabled":true,"rental_uris":{"android":"levelo://app?vid=2f4fa984-4c44-4974-abb6-1d4b539de1f0","ios":"levelo://app?vid=2f4fa984-4c44-4974-abb6-1d4b539de1f0"},"vehicle_type_id":"4","last_reported":1737652077,"current_range_meters":36000,"station_id":"ce4bh492rcd13ifvqdug","pricing_plan_id":"cebpf4jnsgd1na2vs0mg"},{"bike_id":"347dd29e-9a9e-4a37-8ddd-6e2050aaff03","system_id":"levelo_inurba_marseille","lat":43.33734,"lon":5.39187,"is_reserved":false,"is_disabled":true,"rental_uris":{"android":"levelo://app?vid=347dd29e-9a9e-4a37-8ddd-6e2050aaff03","ios":"levelo://app?vid=347dd29e-9a9e-4a37-8ddd-6e2050aaff03"},"vehicle_type_id":"4","last_reported":1737652077,"current_range_meters":0,"station_id":"ce4bhr92rcd13ifvqhsg","pricing_plan_id":"cebpf4jnsgd1na2vs0mg"},{"bike_id":"fefc6a99-8efa-4988-8160-d14768893e91","system_id":"levelo_inurba_marseille","lat":43.31699,"lon":5.37772,"is_reserved":false,"is_disabled":false,"rental_uris":{"android":"levelo://app?vid=fefc6a99-8efa-4988-8160-d14768893e91","ios":"levelo://app?vid=fefc6a99-8efa-4988-8160-d14768893e91"},"vehicle_type_id":"4","last_reported":1737652077,"current_range_meters":36400,"station_id":"ce4bgth2rcd13ifvqch0","pricing_plan_id":"cebpf4jnsgd1na2vs0mg"},{"bike_id":"aa3af2f7-004f-44e2-9163-8810216f25f3","system_id":"levelo_inurba_marseille","lat":43.28444,"lon":5.392,"is_reserved":false,"is_disabled":false,"rental_uris":{"android":"levelo://app?vid=aa3af2f7-004f-44e2-9163-8810216f25f3","ios":"levelo://app?vid=aa3af2f7-004f-44e2-9163-8810216f25f3"},"vehicle_type_id":"4","last_reported":1737652077,"current_range_meters":2000,"station_id":"ce4bhoh2rcd13ifvqh5g","pricing_plan_id":"cebpf4jnsgd1na2vs0mg"},{"bike_id":"33bdb648-9d21-4884-aef8-a671389b4fbb","system_id":"levelo_inurba_marseille","lat":43.29276,"lon":5.36851,"is_reserved":false,"is_disabled":true,"rental_uris":{"android":"levelo://app?vid=33bdb648-9d21-4884-aef8-a671389b4fbb","ios":"levelo://app?vid=33bdb648-9d21-4884-aef8-a671389b4fbb"},"vehicle_type_id":"4","last_reported":1737652077,"current_range_meters":1200,"station_id":"ce4bhbp2rcd13ifvqesg","pricing_plan_id":"cebpf4jnsgd1na2vs0mg"},{"bike_id":"f98a7ee0-f9fe-4556-933e-ecf6827038e5","system_id":"levelo_inurba_marseille","lat":43.29191,"lon":5.35691,"is_reserved":false,"is_disabled":false,"rental_uris":{"android":"levelo://app?vid=f98a7ee0-f9fe-4556-933e-ecf6827038e5","ios":"levelo://app?vid=f98a7ee0-f9fe-4556-933e-ecf6827038e5"},"vehicle_type_id":"4","last_reported":1737652077,"current_range_meters":12400,"station_id":"","pricing_plan_id":"cebpf4jnsgd1na2vs0mg"},{"bike_id":"90b8a1b1-ad54-458d-9362-f5197bbdf048","system_id":"levelo_inurba_marseille","lat":43.229342,"lon":5.35379,"is_reserved":false,"is_disabled":false,"rental_uris":{"android":"levelo://app?vid=90b8a1b1-ad54-458d-9362-f5197bbdf048","ios":"levelo://app?vid=90b8a1b1-ad54-458d-9362-f5197bbdf048"},"vehicle_type_id":"4","last_reported":1737652077,"current_range_meters":36800,"station_id":"cpo3532slgdg3j2ikp40","pricing_plan_id":"cebpf4jnsgd1na2vs0mg"},{"bike_id":"656571c3-6c17-4e0d-a9af-c80324863edf","system_id":"levelo_inurba_marseille","lat":43.2919,"lon":5.35798,"is_reserved":false,"is_disabled":false,"rental_uris":{"android":"levelo://app?vid=656571c3-6c17-4e0d-a9af-c80324863edf","ios":"levelo://app?vid=656571c3-6c17-4e0d-a9af-c80324863edf"},"vehicle_type_id":"4","last_reported":1737652077,"current_range_meters":38000,"station_id":"ce4bhb12rcd13ifvqel0","pricing_plan_id":"cebpf4jnsgd1na2vs0mg"},{"bike_id":"a9c23fb1-511e-43b8-b931-01b881895edd","system_id":"levelo_inurba_marseille","lat":43.30647,"lon":5.40102,"is_reserved":false,"is_disabled":false,"rental_uris":{"android":"levelo://app?vid=a9c23fb1-511e-43b8-b931-01b881895edd","ios":"levelo://app?vid=a9c23fb1-511e-43b8-b931-01b881895edd"},"vehicle_type_id":"4","last_reported":1737652077,"current_range_meters":6800,"station_id":"ce4bh112rcd13ifvqda0","pricing_plan_id":"cebpf4jnsgd1na2vs0mg"},{"bike_id":"4812c3a0-5023-4b12-b8cc-d3d5969a4b83","system_id":"levelo_inurba_marseille","lat":43.30419,"lon":5.41287,"is_reserved":false,"is_disabled":false,"rental_uris":{"android":"levelo://app?vid=4812c3a0-5023-4b12-b8cc-d3d5969a4b83","ios":"levelo://app?vid=4812c3a0-5023-4b12-b8cc-d3d5969a4b83"},"vehicle_type_id":"4","last_reported":1737652077,"current_range_meters":18800,"station_id":"ce4bhop2rcd13ifvqh8g","pricing_plan_id":"cebpf4jnsgd1na2vs0mg"},{"bike_id":"9d84fd6f-e26c-45ac-9322-408afc25d2e3","system_id":"levelo_inurba_marseille","lat":43.27618,"lon":5.36115,"is_reserved":false,"is_disabled":false,"rental_uris":{"android":"levelo://app?vid=9d84fd6f-e26c-45ac-9322-408afc25d2e3","ios":"levelo://app?vid=9d84fd6f-e26c-45ac-9322-408afc25d2e3"},"vehicle_type_id":"4","last_reported":1737652077,"current_range_meters":25600,"station_id":"ce4bgj92rcd13ifvqbe0","pricing_plan_id":"cebpf4jnsgd1na2vs0mg"},{"bike_id":"62069f6c-3dd9-4b79-9f44-941214b1a57f","system_id":"levelo_inurba_marseille","lat":43.29945,"lon":5.365093,"is_reserved":false,"is_disabled":false,"rental_uris":{"android":"levelo://app?vid=62069f6c-3dd9-4b79-9f44-941214b1a57f","ios":"levelo://app?vid=62069f6c-3dd9-4b79-9f44-941214b1a57f"},"vehicle_type_id":"4","last_reported":1737652077,"current_range_meters":38800,"station_id":"ce4bgm92rcd13ifvqbr0","pricing_plan_id":"cebpf4jnsgd1na2vs0mg"},{"bike_id":"1c521484-0b29-41a9-9bd2-15ebb17b6cb5","system_id":"levelo_inurba_marseille","lat":43.2762,"lon":5.36109,"is_reserved":false,"is_disabled":false,"rental_uris":{"android":"levelo://app?vid=1c521484-0b29-41a9-9bd2-15ebb17b6cb5","ios":"levelo://app?vid=1c521484-0b29-41a9-9bd2-15ebb17b6cb5"},"vehicle_type_id":"4","last_reported":1737652077,"current_range_meters":20000,"station_id":"ce4bgj92rcd13ifvqbe0","pricing_plan_id":"cebpf4jnsgd1na2vs0mg"},{"bike_id":"ce90fea6-ff2a-4d0b-bd4f-45ced0acf4c0","system_id":"levelo_inurba_marseille","lat":43.32367,"lon":5.36761,"is_reserved":false,"is_disabled":false,"rental_uris":{"android":"levelo://app?vid=ce90fea6-ff2a-4d0b-bd4f-45ced0acf4c0","ios":"levelo://app?vid=ce90fea6-ff2a-4d0b-bd4f-45ced0acf4c0"},"vehicle_type_id":"4","last_reported":1737652077,"current_range_meters":10800,"station_id":"ce4bhsh2rcd13ifvqi2g","pricing_plan_id":"cebpf4jnsgd1na2vs0mg"},{"bike_id":"ab13439f-1c4b-4b83-ac72-9f4e6d1f64cb","system_id":"levelo_inurba_marseille","lat":43.312445,"lon":5.379695,"is_reserved":false,"is_disabled":true,"rental_uris":{"android":"levelo://app?vid=ab13439f-1c4b-4b83-ac72-9f4e6d1f64cb","ios":"levelo://app?vid=ab13439f-1c4b-4b83-ac72-9f4e6d1f64cb"},"vehicle_type_id":"4","last_reported":1737652077,"current_range_meters":9600,"station_id":"","pricing_plan_id":"cebpf4jnsgd1na2vs0mg"},{"bike_id":"1689374f-dccd-469a-adc5-cb47fb9d2a2a","system_id":"levelo_inurba_marseille","lat":43.303614,"lon":5.41908,"is_reserved":false,"is_disabled":false,"rental_uris":{"android":"levelo://app?vid=1689374f-dccd-469a-adc5-cb47fb9d2a2a","ios":"levelo://app?vid=1689374f-dccd-469a-adc5-cb47fb9d2a2a"},"vehicle_type_id":"4","last_reported":1737652077,"current_range_meters":38800,"station_id":"ce4bhop2rcd13ifvqh7g","pricing_plan_id":"cebpf4jnsgd1na2vs0mg"},{"bike_id":"02394dc5-85af-47df-a8e1-31c154c9e2cc","system_id":"levelo_inurba_marseille","lat":43.2319,"lon":5.39983,"is_reserved":false,"is_disabled":false,"rental_uris":{"android":"levelo://app?vid=02394dc5-85af-47df-a8e1-31c154c9e2cc","ios":"levelo://app?vid=02394dc5-85af-47df-a8e1-31c154c9e2cc"},"vehicle_type_id":"4","last_reported":1737652077,"current_range_meters":37600,"station_id":"ce4bhn12rcd13ifvqgqg","pricing_plan_id":"cebpf4jnsgd1na2vs0mg"},{"bike_id":"05779520-77c5-4dc7-abe1-2ccf6422ba4d","system_id":"levelo_inurba_marseille","lat":43.2862,"lon":5.3509,"is_reserved":false,"is_disabled":false,"rental_uris":{"android":"levelo://app?vid=05779520-77c5-4dc7-abe1-2ccf6422ba4d","ios":"levelo://app?vid=05779520-77c5-4dc7-abe1-2ccf6422ba4d"},"vehicle_type_id":"4","last_reported":1737652077,"current_range_meters":38800,"station_id":"ce4bhch2rcd13ifvqeug","pricing_plan_id":"cebpf4jnsgd1na2vs0mg"},{"bike_id":"69c47985-dae8-486f-a22e-57ba7614bd83","system_id":"levelo_inurba_marseille","lat":43.29969,"lon":5.41314,"is_reserved":false,"is_disabled":false,"rental_uris":{"android":"levelo://app?vid=69c47985-dae8-486f-a22e-57ba7614bd83","ios":"levelo://app?vid=69c47985-dae8-486f-a22e-57ba7614bd83"},"vehicle_type_id":"4","last_reported":1737652077,"current_range_meters":39200,"station_id":"ce4bhp12rcd13ifvqh9g","pricing_plan_id":"cebpf4jnsgd1na2vs0mg"},{"bike_id":"852c4b2c-ff0b-4349-b1ad-8f4566913b6c","system_id":"levelo_inurba_marseille","lat":43.29726,"lon":5.37692,"is_reserved":false,"is_disabled":true,"rental_uris":{"android":"levelo://app?vid=852c4b2c-ff0b-4349-b1ad-8f4566913b6c","ios":"levelo://app?vid=852c4b2c-ff0b-4349-b1ad-8f4566913b6c"},"vehicle_type_id":"4","last_reported":1737652077,"current_range_meters":400,"station_id":"ce4bgkh2rcd13ifvqbl0","pricing_plan_id":"cebpf4jnsgd1na2vs0mg"},{"bike_id":"68e83d05-d94a-49cd-97b5-b91a5ceffe71","system_id":"levelo_inurba_marseille","lat":43.28933,"lon":5.38416,"is_reserved":false,"is_disabled":false,"rental_uris":{"android":"levelo://app?vid=68e83d05-d94a-49cd-97b5-b91a5ceffe71","ios":"levelo://app?vid=68e83d05-d94a-49cd-97b5-b91a5ceffe71"},"vehicle_type_id":"4","last_reported":1737652077,"current_range_meters":27600,"station_id":"ce4bh612rcd13ifvqe6g","pricing_plan_id":"cebpf4jnsgd1na2vs0mg"},{"bike_id":"5134984d-8a77-45c8-84b2-42be4bacac88","system_id":"levelo_inurba_marseille","lat":43.303505,"lon":5.418845,"is_reserved":false,"is_disabled":false,"rental_uris":{"android":"levelo://app?vid=5134984d-8a77-45c8-84b2-42be4bacac88","ios":"levelo://app?vid=5134984d-8a77-45c8-84b2-42be4bacac88"},"vehicle_type_id":"4","last_reported":1737652077,"current_range_meters":37600,"station_id":"ce4bhop2rcd13ifvqh7g","pricing_plan_id":"cebpf4jnsgd1na2vs0mg"},{"bike_id":"d6122d6f-00d2-486c-99c7-90dc2bcbd920","system_id":"levelo_inurba_marseille","lat":43.31319,"lon":5.39713,"is_reserved":false,"is_disabled":false,"rental_uris":{"android":"levelo://app?vid=d6122d6f-00d2-486c-99c7-90dc2bcbd920","ios":"levelo://app?vid=d6122d6f-00d2-486c-99c7-90dc2bcbd920"},"vehicle_type_id":"4","last_reported":1737652077,"current_range_meters":36800,"station_id":"ce4bgvp2rcd13ifvqcu0","pricing_plan_id":"cebpf4jnsgd1na2vs0mg"},{"bike_id":"2876aca2-4ddb-4f16-984a-1efd2877960c","system_id":"levelo_inurba_marseille","lat":43.33733,"lon":5.39195,"is_reserved":false,"is_disabled":false,"rental_uris":{"android":"levelo://app?vid=2876aca2-4ddb-4f16-984a-1efd2877960c","ios":"levelo://app?vid=2876aca2-4ddb-4f16-984a-1efd2877960c"},"vehicle_type_id":"4","last_reported":1737652077,"current_range_meters":38800,"station_id":"ce4bhr92rcd13ifvqhsg","pricing_plan_id":"cebpf4jnsgd1na2vs0mg"},{"bike_id":"08e327aa-4f5b-4e8a-b7e7-01baaa34cbd9","system_id":"levelo_inurba_marseille","lat":43.28002,"lon":5.40026,"is_reserved":false,"is_disabled":true,"rental_uris":{"android":"levelo://app?vid=08e327aa-4f5b-4e8a-b7e7-01baaa34cbd9","ios":"levelo://app?vid=08e327aa-4f5b-4e8a-b7e7-01baaa34cbd9"},"vehicle_type_id":"4","last_reported":1737652077,"current_range_meters":400,"station_id":"ce4bho92rcd13ifvqh4g","pricing_plan_id":"cebpf4jnsgd1na2vs0mg"},{"bike_id":"acb23a67-c708-4e69-adcd-37fdba94603e","system_id":"levelo_inurba_marseille","lat":43.30939,"lon":5.40164,"is_reserved":false,"is_disabled":false,"rental_uris":{"android":"levelo://app?vid=acb23a67-c708-4e69-adcd-37fdba94603e","ios":"levelo://app?vid=acb23a67-c708-4e69-adcd-37fdba94603e"},"vehicle_type_id":"4","last_reported":1737652077,"current_range_meters":19200,"station_id":"ce4bgvp2rcd13ifvqct0","pricing_plan_id":"cebpf4jnsgd1na2vs0mg"},{"bike_id":"52867c66-fa12-4c42-9d10-d451f1131452","system_id":"levelo_inurba_marseille","lat":43.29693,"lon":5.37637,"is_reserved":false,"is_disabled":false,"rental_uris":{"android":"levelo://app?vid=52867c66-fa12-4c42-9d10-d451f1131452","ios":"levelo://app?vid=52867c66-fa12-4c42-9d10-d451f1131452"},"vehicle_type_id":"4","last_reported":1737652077,"current_range_meters":10800,"station_id":"ce4bgkh2rcd13ifvqbl0","pricing_plan_id":"cebpf4jnsgd1na2vs0mg"},{"bike_id":"300bfd42-aae0-4e7f-af35-5a351cbcd259","system_id":"levelo_inurba_marseille","lat":43.24391,"lon":5.37064,"is_reserved":false,"is_disabled":false,"rental_uris":{"android":"levelo://app?vid=300bfd42-aae0-4e7f-af35-5a351cbcd259","ios":"levelo://app?vid=300bfd42-aae0-4e7f-af35-5a351cbcd259"},"vehicle_type_id":"4","last_reported":1737652077,"current_range_meters":9600,"station_id":"ce4bhhh2rcd13ifvqfk0","pricing_plan_id":"cebpf4jnsgd1na2vs0mg"},{"bike_id":"e505fad4-237b-4dd9-bd13-a8b88153cfa5","system_id":"levelo_inurba_marseille","lat":43.29229,"lon":5.36073,"is_reserved":false,"is_disabled":true,"rental_uris":{"android":"levelo://app?vid=e505fad4-237b-4dd9-bd13-a8b88153cfa5","ios":"levelo://app?vid=e505fad4-237b-4dd9-bd13-a8b88153cfa5"},"vehicle_type_id":"4","last_reported":1737652077,"current_range_meters":800,"station_id":"ce4bhbh2rcd13ifvqeqg","pricing_plan_id":"cebpf4jnsgd1na2vs0mg"},{"bike_id":"615695c9-836b-4f42-8478-a1cf7b6b001e","system_id":"levelo_inurba_marseille","lat":43.28477,"lon":5.38424,"is_reserved":false,"is_disabled":false,"rental_uris":{"android":"levelo://app?vid=615695c9-836b-4f42-8478-a1cf7b6b001e","ios":"levelo://app?vid=615695c9-836b-4f42-8478-a1cf7b6b001e"},"vehicle_type_id":"4","last_reported":1737652077,"current_range_meters":25200,"station_id":"ce4bh512rcd13ifvqe3g","pricing_plan_id":"cebpf4jnsgd1na2vs0mg"},{"bike_id":"232b25b7-fa81-4630-9104-082348ac0480","system_id":"levelo_inurba_marseille","lat":43.27998,"lon":5.40018,"is_reserved":false,"is_disabled":false,"rental_uris":{"android":"levelo://app?vid=232b25b7-fa81-4630-9104-082348ac0480","ios":"levelo://app?vid=232b25b7-fa81-4630-9104-082348ac0480"},"vehicle_type_id":"4","last_reported":1737652077,"current_range_meters":38800,"station_id":"ce4bho92rcd13ifvqh4g","pricing_plan_id":"cebpf4jnsgd1na2vs0mg"},{"bike_id":"f7d48dec-58d8-4d1f-9306-318a3e03c002","system_id":"levelo_inurba_marseille","lat":43.29214,"lon":5.35817,"is_reserved":false,"is_disabled":false,"rental_uris":{"android":"levelo://app?vid=f7d48dec-58d8-4d1f-9306-318a3e03c002","ios":"levelo://app?vid=f7d48dec-58d8-4d1f-9306-318a3e03c002"},"vehicle_type_id":"4","last_reported":1737652077,"current_range_meters":37600,"station_id":"ce4bhb12rcd13ifvqel0","pricing_plan_id":"cebpf4jnsgd1na2vs0mg"},{"bike_id":"bafbe8f1-ac88-425e-8ad2-7cd146b22947","system_id":"levelo_inurba_marseille","lat":43.27922,"lon":5.39576,"is_reserved":false,"is_disabled":false,"rental_uris":{"android":"levelo://app?vid=bafbe8f1-ac88-425e-8ad2-7cd146b22947","ios":"levelo://app?vid=bafbe8f1-ac88-425e-8ad2-7cd146b22947"},"vehicle_type_id":"4","last_reported":1737652077,"current_range_meters":14800,"station_id":"ce4bhf92rcd13ifvqf40","pricing_plan_id":"cebpf4jnsgd1na2vs0mg"},{"bike_id":"e5918268-d163-4dfc-934a-8c03f49f9ea3","system_id":"levelo_inurba_marseille","lat":43.27002,"lon":5.39948,"is_reserved":false,"is_disabled":false,"rental_uris":{"android":"levelo://app?vid=e5918268-d163-4dfc-934a-8c03f49f9ea3","ios":"levelo://app?vid=e5918268-d163-4dfc-934a-8c03f49f9ea3"},"vehicle_type_id":"4","last_reported":1737652077,"current_range_meters":19200,"station_id":"","pricing_plan_id":"cebpf4jnsgd1na2vs0mg"},{"bike_id":"7a55f28a-5a5b-4ca4-9825-dee123c17d08","system_id":"levelo_inurba_marseille","lat":43.32114,"lon":5.36776,"is_reserved":false,"is_disabled":true,"rental_uris":{"android":"levelo://app?vid=7a55f28a-5a5b-4ca4-9825-dee123c17d08","ios":"levelo://app?vid=7a55f28a-5a5b-4ca4-9825-dee123c17d08"},"vehicle_type_id":"4","last_reported":1737652077,"current_range_meters":0,"station_id":"ce4bhrh2rcd13ifvqhug","pricing_plan_id":"cebpf4jnsgd1na2vs0mg"},{"bike_id":"8a0547ae-3286-41ff-b300-91a4f79f34d4","system_id":"levelo_inurba_marseille","lat":43.30146,"lon":5.37418,"is_reserved":false,"is_disabled":false,"rental_uris":{"android":"levelo://app?vid=8a0547ae-3286-41ff-b300-91a4f79f34d4","ios":"levelo://app?vid=8a0547ae-3286-41ff-b300-91a4f79f34d4"},"vehicle_type_id":"4","last_reported":1737652077,"current_range_meters":20800,"station_id":"ce4bgs92rcd13ifvqcc0","pricing_plan_id":"cebpf4jnsgd1na2vs0mg"},{"bike_id":"cfefc854-5973-44d6-9d32-f2181e70b7be","system_id":"levelo_inurba_marseille","lat":43.29453,"lon":5.39755,"is_reserved":false,"is_disabled":false,"rental_uris":{"android":"levelo://app?vid=cfefc854-5973-44d6-9d32-f2181e70b7be","ios":"levelo://app?vid=cfefc854-5973-44d6-9d32-f2181e70b7be"},"vehicle_type_id":"4","last_reported":1737652077,"current_range_meters":32400,"station_id":"ce4bh3h2rcd13ifvqdo0","pricing_plan_id":"cebpf4jnsgd1na2vs0mg"},{"bike_id":"db13887a-15c7-489a-a26b-73f98b3c9471","system_id":"levelo_inurba_marseille","lat":43.29539,"lon":5.3941,"is_reserved":false,"is_disabled":false,"rental_uris":{"android":"levelo://app?vid=db13887a-15c7-489a-a26b-73f98b3c9471","ios":"levelo://app?vid=db13887a-15c7-489a-a26b-73f98b3c9471"},"vehicle_type_id":"4","last_reported":1737652077,"current_range_meters":22000,"station_id":"ce4bh292rcd13ifvqdf0","pricing_plan_id":"cebpf4jnsgd1na2vs0mg"},{"bike_id":"7ae57d4a-987c-4a94-bf67-7089b41c8d83","system_id":"levelo_inurba_marseille","lat":43.2761,"lon":5.36113,"is_reserved":false,"is_disabled":true,"rental_uris":{"android":"levelo://app?vid=7ae57d4a-987c-4a94-bf67-7089b41c8d83","ios":"levelo://app?vid=7ae57d4a-987c-4a94-bf67-7089b41c8d83"},"vehicle_type_id":"4","last_reported":1737652077,"current_range_meters":2000,"station_id":"ce4bgj92rcd13ifvqbe0","pricing_plan_id":"cebpf4jnsgd1na2vs0mg"},{"bike_id":"acc9e968-42f2-443f-bb58-cd32856c66f2","system_id":"levelo_inurba_marseille","lat":43.2841,"lon":5.37519,"is_reserved":false,"is_disabled":false,"rental_uris":{"android":"levelo://app?vid=acc9e968-42f2-443f-bb58-cd32856c66f2","ios":"levelo://app?vid=acc9e968-42f2-443f-bb58-cd32856c66f2"},"vehicle_type_id":"4","last_reported":1737652077,"current_range_meters":28400,"station_id":"ce4bh412rcd13ifvqds0","pricing_plan_id":"cebpf4jnsgd1na2vs0mg"},{"bike_id":"0a4445a0-e252-471a-99c0-848ee2415c47","system_id":"levelo_inurba_marseille","lat":43.27692,"lon":5.38905,"is_reserved":false,"is_disabled":false,"rental_uris":{"android":"levelo://app?vid=0a4445a0-e252-471a-99c0-848ee2415c47","ios":"levelo://app?vid=0a4445a0-e252-471a-99c0-848ee2415c47"},"vehicle_type_id":"4","last_reported":1737652077,"current_range_meters":39200,"station_id":"ce4bhi12rcd13ifvqfo0","pricing_plan_id":"cebpf4jnsgd1na2vs0mg"},{"bike_id":"32a7a9e3-790a-4a87-900b-bc4289dad89f","system_id":"levelo_inurba_marseille","lat":43.26951,"lon":5.38635,"is_reserved":false,"is_disabled":false,"rental_uris":{"android":"levelo://app?vid=32a7a9e3-790a-4a87-900b-bc4289dad89f","ios":"levelo://app?vid=32a7a9e3-790a-4a87-900b-bc4289dad89f"},"vehicle_type_id":"4","last_reported":1737652077,"current_range_meters":38800,"station_id":"ce4bhh92rcd13ifvqfh0","pricing_plan_id":"cebpf4jnsgd1na2vs0mg"},{"bike_id":"35614ed7-a0df-4792-bca2-a1978fcd9fab","system_id":"levelo_inurba_marseille","lat":43.30797,"lon":5.4354,"is_reserved":false,"is_disabled":true,"rental_uris":{"android":"levelo://app?vid=35614ed7-a0df-4792-bca2-a1978fcd9fab","ios":"levelo://app?vid=35614ed7-a0df-4792-bca2-a1978fcd9fab"},"vehicle_type_id":"4","last_reported":1737652077,"current_range_meters":0,"station_id":"ce4bhph2rcd13ifvqheg","pricing_plan_id":"cebpf4jnsgd1na2vs0mg"},{"bike_id":"59330309-df9a-48c4-9235-796da7a2782d","system_id":"levelo_inurba_marseille","lat":43.30789,"lon":5.43515,"is_reserved":false,"is_disabled":true,"rental_uris":{"android":"levelo://app?vid=59330309-df9a-48c4-9235-796da7a2782d","ios":"levelo://app?vid=59330309-df9a-48c4-9235-796da7a2782d"},"vehicle_type_id":"4","last_reported":1737652077,"current_range_meters":0,"station_id":"ce4bhph2rcd13ifvqheg","pricing_plan_id":"cebpf4jnsgd1na2vs0mg"},{"bike_id":"8661b5e3-5c50-41b5-9990-f6cea7332865","system_id":"levelo_inurba_marseille","lat":43.29192,"lon":5.35814,"is_reserved":false,"is_disabled":true,"rental_uris":{"android":"levelo://app?vid=8661b5e3-5c50-41b5-9990-f6cea7332865","ios":"levelo://app?vid=8661b5e3-5c50-41b5-9990-f6cea7332865"},"vehicle_type_id":"4","last_reported":1737652077,"current_range_meters":0,"station_id":"ce4bhb12rcd13ifvqel0","pricing_plan_id":"cebpf4jnsgd1na2vs0mg"},{"bike_id":"3b92e248-f10a-4051-88bf-c5d6784f1b36","system_id":"levelo_inurba_marseille","lat":43.29876,"lon":5.39734,"is_reserved":false,"is_disabled":false,"rental_uris":{"android":"levelo://app?vid=3b92e248-f10a-4051-88bf-c5d6784f1b36","ios":"levelo://app?vid=3b92e248-f10a-4051-88bf-c5d6784f1b36"},"vehicle_type_id":"4","last_reported":1737652077,"current_range_meters":39200,"station_id":"ce4bh0h2rcd13ifvqd50","pricing_plan_id":"cebpf4jnsgd1na2vs0mg"},{"bike_id":"5e0169dd-cfb6-4345-b9e5-59ab64e75e4d","system_id":"levelo_inurba_marseille","lat":43.32287,"lon":5.38274,"is_reserved":false,"is_disabled":false,"rental_uris":{"android":"levelo://app?vid=5e0169dd-cfb6-4345-b9e5-59ab64e75e4d","ios":"levelo://app?vid=5e0169dd-cfb6-4345-b9e5-59ab64e75e4d"},"vehicle_type_id":"4","last_reported":1737652077,"current_range_meters":38800,"station_id":"ce4bhr12rcd13ifvqhqg","pricing_plan_id":"cebpf4jnsgd1na2vs0mg"},{"bike_id":"d99375ff-5a06-44d1-a637-67e28a37381e","system_id":"levelo_inurba_marseille","lat":43.24668,"lon":5.38169,"is_reserved":false,"is_disabled":false,"rental_uris":{"android":"levelo://app?vid=d99375ff-5a06-44d1-a637-67e28a37381e","ios":"levelo://app?vid=d99375ff-5a06-44d1-a637-67e28a37381e"},"vehicle_type_id":"4","last_reported":1737652077,"current_range_meters":11600,"station_id":"ce4bhih2rcd13ifvqfr0","pricing_plan_id":"cebpf4jnsgd1na2vs0mg"},{"bike_id":"96bd9e64-ec79-445f-af92-f8aeeeeb8575","system_id":"levelo_inurba_marseille","lat":43.28417,"lon":5.37518,"is_reserved":false,"is_disabled":false,"rental_uris":{"android":"levelo://app?vid=96bd9e64-ec79-445f-af92-f8aeeeeb8575","ios":"levelo://app?vid=96bd9e64-ec79-445f-af92-f8aeeeeb8575"},"vehicle_type_id":"4","last_reported":1737652077,"current_range_meters":12400,"station_id":"ce4bh412rcd13ifvqds0","pricing_plan_id":"cebpf4jnsgd1na2vs0mg"},{"bike_id":"293e07ec-c760-4aa8-bf21-7bf85c8f50f0","system_id":"levelo_inurba_marseille","lat":43.28708,"lon":5.36309,"is_reserved":false,"is_disabled":false,"rental_uris":{"android":"levelo://app?vid=293e07ec-c760-4aa8-bf21-7bf85c8f50f0","ios":"levelo://app?vid=293e07ec-c760-4aa8-bf21-7bf85c8f50f0"},"vehicle_type_id":"4","last_reported":1737652077,"current_range_meters":24400,"station_id":"","pricing_plan_id":"cebpf4jnsgd1na2vs0mg"},{"bike_id":"a909192c-b42e-42fd-897a-26537d9a69e9","system_id":"levelo_inurba_marseille","lat":43.299639,"lon":5.41318,"is_reserved":false,"is_disabled":true,"rental_uris":{"android":"levelo://app?vid=a909192c-b42e-42fd-897a-26537d9a69e9","ios":"levelo://app?vid=a909192c-b42e-42fd-897a-26537d9a69e9"},"vehicle_type_id":"4","last_reported":1737652077,"current_range_meters":0,"station_id":"ce4bhp12rcd13ifvqh9g","pricing_plan_id":"cebpf4jnsgd1na2vs0mg"},{"bike_id":"b7484b8b-3a71-45d6-b948-aa32b13a1995","system_id":"levelo_inurba_marseille","lat":43.29918,"lon":5.4368,"is_reserved":false,"is_disabled":false,"rental_uris":{"android":"levelo://app?vid=b7484b8b-3a71-45d6-b948-aa32b13a1995","ios":"levelo://app?vid=b7484b8b-3a71-45d6-b948-aa32b13a1995"},"vehicle_type_id":"4","last_reported":1737652077,"current_range_meters":18800,"station_id":"ce4bhpp2rcd13ifvqhfg","pricing_plan_id":"cebpf4jnsgd1na2vs0mg"},{"bike_id":"ad313d2f-e480-4049-a4ea-ea7dd7293246","system_id":"levelo_inurba_marseille","lat":43.3108,"lon":5.42434,"is_reserved":false,"is_disabled":false,"rental_uris":{"android":"levelo://app?vid=ad313d2f-e480-4049-a4ea-ea7dd7293246","ios":"levelo://app?vid=ad313d2f-e480-4049-a4ea-ea7dd7293246"},"vehicle_type_id":"4","last_reported":1737652077,"current_range_meters":38000,"station_id":"ce4bhp92rcd13ifvqhag","pricing_plan_id":"cebpf4jnsgd1na2vs0mg"},{"bike_id":"730a19d7-8638-4500-9d66-b33219f24537","system_id":"levelo_inurba_marseille","lat":43.30799,"lon":5.43521,"is_reserved":false,"is_disabled":false,"rental_uris":{"android":"levelo://app?vid=730a19d7-8638-4500-9d66-b33219f24537","ios":"levelo://app?vid=730a19d7-8638-4500-9d66-b33219f24537"},"vehicle_type_id":"4","last_reported":1737652077,"current_range_meters":25200,"station_id":"ce4bhph2rcd13ifvqheg","pricing_plan_id":"cebpf4jnsgd1na2vs0mg"},{"bike_id":"f2a423d2-541a-4d27-98b1-bbdc8f11174c","system_id":"levelo_inurba_marseille","lat":43.30614,"lon":5.39363,"is_reserved":false,"is_disabled":true,"rental_uris":{"android":"levelo://app?vid=f2a423d2-541a-4d27-98b1-bbdc8f11174c","ios":"levelo://app?vid=f2a423d2-541a-4d27-98b1-bbdc8f11174c"},"vehicle_type_id":"4","last_reported":1737652077,"current_range_meters":9200,"station_id":"ce4bh0p2rcd13ifvqd80","pricing_plan_id":"cebpf4jnsgd1na2vs0mg"},{"bike_id":"90562b19-8802-4e76-a682-f90dad6ec469","system_id":"levelo_inurba_marseille","lat":43.29532,"lon":5.38548,"is_reserved":false,"is_disabled":true,"rental_uris":{"android":"levelo://app?vid=90562b19-8802-4e76-a682-f90dad6ec469","ios":"levelo://app?vid=90562b19-8802-4e76-a682-f90dad6ec469"},"vehicle_type_id":"4","last_reported":1737652077,"current_range_meters":800,"station_id":"ce4bgih2rcd13ifvqba0","pricing_plan_id":"cebpf4jnsgd1na2vs0mg"},{"bike_id":"9863b7f9-4316-4322-9f6c-3cc66b0448e2","system_id":"levelo_inurba_marseille","lat":43.279439,"lon":5.389008,"is_reserved":false,"is_disabled":true,"rental_uris":{"android":"levelo://app?vid=9863b7f9-4316-4322-9f6c-3cc66b0448e2","ios":"levelo://app?vid=9863b7f9-4316-4322-9f6c-3cc66b0448e2"},"vehicle_type_id":"4","last_reported":1737652077,"current_range_meters":24000,"station_id":"","pricing_plan_id":"cebpf4jnsgd1na2vs0mg"},{"bike_id":"41490647-7dcc-4071-b4f6-d8e4813dd93b","system_id":"levelo_inurba_marseille","lat":43.28567,"lon":5.39489,"is_reserved":false,"is_disabled":false,"rental_uris":{"android":"levelo://app?vid=41490647-7dcc-4071-b4f6-d8e4813dd93b","ios":"levelo://app?vid=41490647-7dcc-4071-b4f6-d8e4813dd93b"},"vehicle_type_id":"4","last_reported":1737652077,"current_range_meters":18000,"station_id":"ce4bh292rcd13ifvqdg0","pricing_plan_id":"cebpf4jnsgd1na2vs0mg"},{"bike_id":"ce4b35bb-449d-4519-9b5b-d52a4d2c1d44","system_id":"levelo_inurba_marseille","lat":43.304273,"lon":5.389017,"is_reserved":false,"is_disabled":false,"rental_uris":{"android":"levelo://app?vid=ce4b35bb-449d-4519-9b5b-d52a4d2c1d44","ios":"levelo://app?vid=ce4b35bb-449d-4519-9b5b-d52a4d2c1d44"},"vehicle_type_id":"4","last_reported":1737652077,"current_range_meters":16400,"station_id":"ce4bgk12rcd13ifvqbi0","pricing_plan_id":"cebpf4jnsgd1na2vs0mg"},{"bike_id":"086944e8-159a-432d-8b38-e4ac9fec383d","system_id":"levelo_inurba_marseille","lat":43.26035,"lon":5.37557,"is_reserved":false,"is_disabled":false,"rental_uris":{"android":"levelo://app?vid=086944e8-159a-432d-8b38-e4ac9fec383d","ios":"levelo://app?vid=086944e8-159a-432d-8b38-e4ac9fec383d"},"vehicle_type_id":"4","last_reported":1737652077,"current_range_meters":17600,"station_id":"ce4bhgh2rcd13ifvqfa0","pricing_plan_id":"cebpf4jnsgd1na2vs0mg"},{"bike_id":"5afc9552-c672-4f7f-b1de-5ed4d0c571cc","system_id":"levelo_inurba_marseille","lat":43.30483,"lon":5.37901,"is_reserved":false,"is_disabled":true,"rental_uris":{"android":"levelo://app?vid=5afc9552-c672-4f7f-b1de-5ed4d0c571cc","ios":"levelo://app?vid=5afc9552-c672-4f7f-b1de-5ed4d0c571cc"},"vehicle_type_id":"4","last_reported":1737652077,"current_range_meters":1600,"station_id":"ce4bgup2rcd13ifvqcn0","pricing_plan_id":"cebpf4jnsgd1na2vs0mg"},{"bike_id":"7555df76-45e5-4931-82aa-7216ceb1ea14","system_id":"levelo_inurba_marseille","lat":43.25864,"lon":5.39898,"is_reserved":false,"is_disabled":false,"rental_uris":{"android":"levelo://app?vid=7555df76-45e5-4931-82aa-7216ceb1ea14","ios":"levelo://app?vid=7555df76-45e5-4931-82aa-7216ceb1ea14"},"vehicle_type_id":"4","last_reported":1737652077,"current_range_meters":9600,"station_id":"ce4bhl92rcd13ifvqghg","pricing_plan_id":"cebpf4jnsgd1na2vs0mg"},{"bike_id":"9d79683f-a047-4132-afe7-78b7268fa04d","system_id":"levelo_inurba_marseille","lat":43.28268,"lon":5.35072,"is_reserved":false,"is_disabled":false,"rental_uris":{"android":"levelo://app?vid=9d79683f-a047-4132-afe7-78b7268fa04d","ios":"levelo://app?vid=9d79683f-a047-4132-afe7-78b7268fa04d"},"vehicle_type_id":"4","last_reported":1737652077,"current_range_meters":8400,"station_id":"ce4bhbp2rcd13ifvqerg","pricing_plan_id":"cebpf4jnsgd1na2vs0mg"},{"bike_id":"67337a5d-5f6a-4006-8745-b11c63c3534f","system_id":"levelo_inurba_marseille","lat":43.29291,"lon":5.40124,"is_reserved":false,"is_disabled":false,"rental_uris":{"android":"levelo://app?vid=67337a5d-5f6a-4006-8745-b11c63c3534f","ios":"levelo://app?vid=67337a5d-5f6a-4006-8745-b11c63c3534f"},"vehicle_type_id":"4","last_reported":1737652077,"current_range_meters":37600,"station_id":"ce4bh312rcd13ifvqdk0","pricing_plan_id":"cebpf4jnsgd1na2vs0mg"},{"bike_id":"bba8d9ed-088b-480a-8039-4cdf027e28b2","system_id":"levelo_inurba_marseille","lat":43.29611,"lon":5.38096,"is_reserved":false,"is_disabled":false,"rental_uris":{"android":"levelo://app?vid=bba8d9ed-088b-480a-8039-4cdf027e28b2","ios":"levelo://app?vid=bba8d9ed-088b-480a-8039-4cdf027e28b2"},"vehicle_type_id":"4","last_reported":1737652077,"current_range_meters":33600,"station_id":"ce4bgl12rcd13ifvqbo0","pricing_plan_id":"cebpf4jnsgd1na2vs0mg"},{"bike_id":"7618d29f-2360-4ead-9d75-51dc8b5bf276","system_id":"levelo_inurba_marseille","lat":43.26566,"lon":5.39011,"is_reserved":false,"is_disabled":true,"rental_uris":{"android":"levelo://app?vid=7618d29f-2360-4ead-9d75-51dc8b5bf276","ios":"levelo://app?vid=7618d29f-2360-4ead-9d75-51dc8b5bf276"},"vehicle_type_id":"4","last_reported":1737652077,"current_range_meters":800,"station_id":"ce4bhe12rcd13ifvqf30","pricing_plan_id":"cebpf4jnsgd1na2vs0mg"},{"bike_id":"e610f673-5d8d-4197-b5fd-37236b4e31e1","system_id":"levelo_inurba_marseille","lat":43.30097,"lon":5.39075,"is_reserved":false,"is_disabled":false,"rental_uris":{"android":"levelo://app?vid=e610f673-5d8d-4197-b5fd-37236b4e31e1","ios":"levelo://app?vid=e610f673-5d8d-4197-b5fd-37236b4e31e1"},"vehicle_type_id":"4","last_reported":1737652077,"current_range_meters":25200,"station_id":"ce4bh192rcd13ifvqdb0","pricing_plan_id":"cebpf4jnsgd1na2vs0mg"},{"bike_id":"18305a17-125c-4015-86f4-c5219597f201","system_id":"levelo_inurba_marseille","lat":43.2942,"lon":5.38624,"is_reserved":false,"is_disabled":false,"rental_uris":{"android":"levelo://app?vid=18305a17-125c-4015-86f4-c5219597f201","ios":"levelo://app?vid=18305a17-125c-4015-86f4-c5219597f201"},"vehicle_type_id":"4","last_reported":1737652077,"current_range_meters":25600,"station_id":"ce4bh2h2rcd13ifvqdh0","pricing_plan_id":"cebpf4jnsgd1na2vs0mg"},{"bike_id":"dd92e770-58a9-4d74-b1be-6fb798c08c1a","system_id":"levelo_inurba_marseille","lat":43.293716,"lon":5.378352,"is_reserved":false,"is_disabled":false,"rental_uris":{"android":"levelo://app?vid=dd92e770-58a9-4d74-b1be-6fb798c08c1a","ios":"levelo://app?vid=dd92e770-58a9-4d74-b1be-6fb798c08c1a"},"vehicle_type_id":"4","last_reported":1737652077,"current_range_meters":36800,"station_id":"ce4bhc92rcd13ifvqetg","pricing_plan_id":"cebpf4jnsgd1na2vs0mg"},{"bike_id":"b89dea21-daae-43fd-b315-8f82c7d3aeca","system_id":"levelo_inurba_marseille","lat":43.29556,"lon":5.42256,"is_reserved":false,"is_disabled":false,"rental_uris":{"android":"levelo://app?vid=b89dea21-daae-43fd-b315-8f82c7d3aeca","ios":"levelo://app?vid=b89dea21-daae-43fd-b315-8f82c7d3aeca"},"vehicle_type_id":"4","last_reported":1737652077,"current_range_meters":38800,"station_id":"ce4bhph2rcd13ifvqhdg","pricing_plan_id":"cebpf4jnsgd1na2vs0mg"},{"bike_id":"7c78a755-c7f5-4f07-a96b-621451d47948","system_id":"levelo_inurba_marseille","lat":43.29893,"lon":5.43658,"is_reserved":false,"is_disabled":false,"rental_uris":{"android":"levelo://app?vid=7c78a755-c7f5-4f07-a96b-621451d47948","ios":"levelo://app?vid=7c78a755-c7f5-4f07-a96b-621451d47948"},"vehicle_type_id":"4","last_reported":1737652077,"current_range_meters":10800,"station_id":"ce4bhpp2rcd13ifvqhfg","pricing_plan_id":"cebpf4jnsgd1na2vs0mg"},{"bike_id":"93e388d1-68d8-4281-8bf0-f565721d268d","system_id":"levelo_inurba_marseille","lat":43.28076,"lon":5.39664,"is_reserved":false,"is_disabled":false,"rental_uris":{"android":"levelo://app?vid=93e388d1-68d8-4281-8bf0-f565721d268d","ios":"levelo://app?vid=93e388d1-68d8-4281-8bf0-f565721d268d"},"vehicle_type_id":"4","last_reported":1737652077,"current_range_meters":33200,"station_id":"ce4bho12rcd13ifvqh2g","pricing_plan_id":"cebpf4jnsgd1na2vs0mg"},{"bike_id":"8fde85f8-843d-4642-a5b7-43d61f01af4c","system_id":"levelo_inurba_marseille","lat":43.29579,"lon":5.3997,"is_reserved":false,"is_disabled":false,"rental_uris":{"android":"levelo://app?vid=8fde85f8-843d-4642-a5b7-43d61f01af4c","ios":"levelo://app?vid=8fde85f8-843d-4642-a5b7-43d61f01af4c"},"vehicle_type_id":"4","last_reported":1737652077,"current_range_meters":16800,"station_id":"ce4bh312rcd13ifvqdj0","pricing_plan_id":"cebpf4jnsgd1na2vs0mg"},{"bike_id":"b01fce57-63c8-454c-9252-5518a237155b","system_id":"levelo_inurba_marseille","lat":43.23184,"lon":5.39979,"is_reserved":false,"is_disabled":false,"rental_uris":{"android":"levelo://app?vid=b01fce57-63c8-454c-9252-5518a237155b","ios":"levelo://app?vid=b01fce57-63c8-454c-9252-5518a237155b"},"vehicle_type_id":"4","last_reported":1737652077,"current_range_meters":19600,"station_id":"ce4bhn12rcd13ifvqgqg","pricing_plan_id":"cebpf4jnsgd1na2vs0mg"},{"bike_id":"97086a37-7661-4d28-bd83-8cd494b8e172","system_id":"levelo_inurba_marseille","lat":43.31323,"lon":5.39694,"is_reserved":false,"is_disabled":false,"rental_uris":{"android":"levelo://app?vid=97086a37-7661-4d28-bd83-8cd494b8e172","ios":"levelo://app?vid=97086a37-7661-4d28-bd83-8cd494b8e172"},"vehicle_type_id":"4","last_reported":1737652077,"current_range_meters":8400,"station_id":"ce4bgvp2rcd13ifvqcu0","pricing_plan_id":"cebpf4jnsgd1na2vs0mg"},{"bike_id":"e8d9d6f3-9b03-4243-912d-9bad2a7ce84b","system_id":"levelo_inurba_marseille","lat":43.26787,"lon":5.39406,"is_reserved":false,"is_disabled":false,"rental_uris":{"android":"levelo://app?vid=e8d9d6f3-9b03-4243-912d-9bad2a7ce84b","ios":"levelo://app?vid=e8d9d6f3-9b03-4243-912d-9bad2a7ce84b"},"vehicle_type_id":"4","last_reported":1737652077,"current_range_meters":11200,"station_id":"ce4bhh12rcd13ifvqfg0","pricing_plan_id":"cebpf4jnsgd1na2vs0mg"},{"bike_id":"9606accd-df45-4327-811f-03432cd4b674","system_id":"levelo_inurba_marseille","lat":43.2857,"lon":5.39491,"is_reserved":false,"is_disabled":false,"rental_uris":{"android":"levelo://app?vid=9606accd-df45-4327-811f-03432cd4b674","ios":"levelo://app?vid=9606accd-df45-4327-811f-03432cd4b674"},"vehicle_type_id":"4","last_reported":1737652077,"current_range_meters":9600,"station_id":"ce4bh292rcd13ifvqdg0","pricing_plan_id":"cebpf4jnsgd1na2vs0mg"},{"bike_id":"edb063c2-5269-4848-a95e-51c2a2327baa","system_id":"levelo_inurba_marseille","lat":43.28984,"lon":5.37842,"is_reserved":false,"is_disabled":true,"rental_uris":{"android":"levelo://app?vid=edb063c2-5269-4848-a95e-51c2a2327baa","ios":"levelo://app?vid=edb063c2-5269-4848-a95e-51c2a2327baa"},"vehicle_type_id":"4","last_reported":1737652077,"current_range_meters":800,"station_id":"ce4bh9p2rcd13ifvqed0","pricing_plan_id":"cebpf4jnsgd1na2vs0mg"},{"bike_id":"5c923bf3-874d-46ac-8c9a-4c8b37e5fa80","system_id":"levelo_inurba_marseille","lat":43.28934,"lon":5.38415,"is_reserved":false,"is_disabled":false,"rental_uris":{"android":"levelo://app?vid=5c923bf3-874d-46ac-8c9a-4c8b37e5fa80","ios":"levelo://app?vid=5c923bf3-874d-46ac-8c9a-4c8b37e5fa80"},"vehicle_type_id":"4","last_reported":1737652077,"current_range_meters":38000,"station_id":"ce4bh612rcd13ifvqe6g","pricing_plan_id":"cebpf4jnsgd1na2vs0mg"},{"bike_id":"8091da5a-cc04-462d-bb09-ae380ca5e4ce","system_id":"levelo_inurba_marseille","lat":43.2318,"lon":5.39988,"is_reserved":false,"is_disabled":false,"rental_uris":{"android":"levelo://app?vid=8091da5a-cc04-462d-bb09-ae380ca5e4ce","ios":"levelo://app?vid=8091da5a-cc04-462d-bb09-ae380ca5e4ce"},"vehicle_type_id":"4","last_reported":1737652077,"current_range_meters":10000,"station_id":"ce4bhn12rcd13ifvqgqg","pricing_plan_id":"cebpf4jnsgd1na2vs0mg"},{"bike_id":"9dc6e481-805d-44ee-904f-f86a18f58ae7","system_id":"levelo_inurba_marseille","lat":43.29269,"lon":5.40116,"is_reserved":false,"is_disabled":false,"rental_uris":{"android":"levelo://app?vid=9dc6e481-805d-44ee-904f-f86a18f58ae7","ios":"levelo://app?vid=9dc6e481-805d-44ee-904f-f86a18f58ae7"},"vehicle_type_id":"4","last_reported":1737652077,"current_range_meters":9200,"station_id":"ce4bh312rcd13ifvqdk0","pricing_plan_id":"cebpf4jnsgd1na2vs0mg"},{"bike_id":"577cbeb8-c338-425d-b9c4-3683689c8f04","system_id":"levelo_inurba_marseille","lat":43.2942,"lon":5.38629,"is_reserved":false,"is_disabled":false,"rental_uris":{"android":"levelo://app?vid=577cbeb8-c338-425d-b9c4-3683689c8f04","ios":"levelo://app?vid=577cbeb8-c338-425d-b9c4-3683689c8f04"},"vehicle_type_id":"4","last_reported":1737652077,"current_range_meters":13600,"station_id":"ce4bh2h2rcd13ifvqdh0","pricing_plan_id":"cebpf4jnsgd1na2vs0mg"},{"bike_id":"65b9275e-af70-42c3-8666-2ab8bdb9b397","system_id":"levelo_inurba_marseille","lat":43.28077,"lon":5.39663,"is_reserved":false,"is_disabled":false,"rental_uris":{"android":"levelo://app?vid=65b9275e-af70-42c3-8666-2ab8bdb9b397","ios":"levelo://app?vid=65b9275e-af70-42c3-8666-2ab8bdb9b397"},"vehicle_type_id":"4","last_reported":1737652077,"current_range_meters":6400,"station_id":"ce4bho12rcd13ifvqh2g","pricing_plan_id":"cebpf4jnsgd1na2vs0mg"},{"bike_id":"8210b62d-a1a5-4f4c-8046-84672334af72","system_id":"levelo_inurba_marseille","lat":43.25128,"lon":5.40322,"is_reserved":false,"is_disabled":false,"rental_uris":{"android":"levelo://app?vid=8210b62d-a1a5-4f4c-8046-84672334af72","ios":"levelo://app?vid=8210b62d-a1a5-4f4c-8046-84672334af72"},"vehicle_type_id":"4","last_reported":1737652077,"current_range_meters":32000,"station_id":"ce4bhlh2rcd13ifvqgig","pricing_plan_id":"cebpf4jnsgd1na2vs0mg"},{"bike_id":"72428ff6-b760-4407-bd52-28cdb9f11441","system_id":"levelo_inurba_marseille","lat":43.27374,"lon":5.36257,"is_reserved":false,"is_disabled":false,"rental_uris":{"android":"levelo://app?vid=72428ff6-b760-4407-bd52-28cdb9f11441","ios":"levelo://app?vid=72428ff6-b760-4407-bd52-28cdb9f11441"},"vehicle_type_id":"4","last_reported":1737652077,"current_range_meters":22800,"station_id":"ce4bhbh2rcd13ifvqeo0","pricing_plan_id":"cebpf4jnsgd1na2vs0mg"},{"bike_id":"51b693ec-6376-489f-b989-9f78de29a1f3","system_id":"levelo_inurba_marseille","lat":43.24171,"lon":5.36381,"is_reserved":false,"is_disabled":false,"rental_uris":{"android":"levelo://app?vid=51b693ec-6376-489f-b989-9f78de29a1f3","ios":"levelo://app?vid=51b693ec-6376-489f-b989-9f78de29a1f3"},"vehicle_type_id":"4","last_reported":1737652077,"current_range_meters":21600,"station_id":"cpo36qri1sfpv3e86is0","pricing_plan_id":"cebpf4jnsgd1na2vs0mg"},{"bike_id":"7e973957-be9a-4f5f-ab91-45ded88f7b14","system_id":"levelo_inurba_marseille","lat":43.29103,"lon":5.38131,"is_reserved":false,"is_disabled":false,"rental_uris":{"android":"levelo://app?vid=7e973957-be9a-4f5f-ab91-45ded88f7b14","ios":"levelo://app?vid=7e973957-be9a-4f5f-ab91-45ded88f7b14"},"vehicle_type_id":"4","last_reported":1737652077,"current_range_meters":33200,"station_id":"ce4bh512rcd13ifvqe2g","pricing_plan_id":"cebpf4jnsgd1na2vs0mg"},{"bike_id":"a63050c1-4fd1-4dba-883c-a8ac6453adb0","system_id":"levelo_inurba_marseille","lat":43.29549,"lon":5.42292,"is_reserved":false,"is_disabled":false,"rental_uris":{"android":"levelo://app?vid=a63050c1-4fd1-4dba-883c-a8ac6453adb0","ios":"levelo://app?vid=a63050c1-4fd1-4dba-883c-a8ac6453adb0"},"vehicle_type_id":"4","last_reported":1737652077,"current_range_meters":37600,"station_id":"ce4bhph2rcd13ifvqhdg","pricing_plan_id":"cebpf4jnsgd1na2vs0mg"},{"bike_id":"13ff516e-16cf-4543-8540-9030b8b296b4","system_id":"levelo_inurba_marseille","lat":43.23194,"lon":5.355589,"is_reserved":false,"is_disabled":false,"rental_uris":{"android":"levelo://app?vid=13ff516e-16cf-4543-8540-9030b8b296b4","ios":"levelo://app?vid=13ff516e-16cf-4543-8540-9030b8b296b4"},"vehicle_type_id":"4","last_reported":1737652077,"current_range_meters":28400,"station_id":"ce4bhu92rcd13ifvqi70","pricing_plan_id":"cebpf4jnsgd1na2vs0mg"},{"bike_id":"382b1d8c-119f-472b-8efe-763a8ffd1020","system_id":"levelo_inurba_marseille","lat":43.27949,"lon":5.41051,"is_reserved":false,"is_disabled":true,"rental_uris":{"android":"levelo://app?vid=382b1d8c-119f-472b-8efe-763a8ffd1020","ios":"levelo://app?vid=382b1d8c-119f-472b-8efe-763a8ffd1020"},"vehicle_type_id":"4","last_reported":1737652077,"current_range_meters":0,"station_id":"ce4bhnp2rcd13ifvqh0g","pricing_plan_id":"cebpf4jnsgd1na2vs0mg"},{"bike_id":"526411c5-28e0-4d9e-96f1-15ccb2f9b9d7","system_id":"levelo_inurba_marseille","lat":43.28722,"lon":5.36095,"is_reserved":false,"is_disabled":true,"rental_uris":{"android":"levelo://app?vid=526411c5-28e0-4d9e-96f1-15ccb2f9b9d7","ios":"levelo://app?vid=526411c5-28e0-4d9e-96f1-15ccb2f9b9d7"},"vehicle_type_id":"4","last_reported":1737652077,"current_range_meters":1600,"station_id":"cki0cbj6b192h4jlfktg","pricing_plan_id":"cebpf4jnsgd1na2vs0mg"},{"bike_id":"8a151ccc-edf6-40ab-a6a3-42b4ac96f698","system_id":"levelo_inurba_marseille","lat":43.28282,"lon":5.35066,"is_reserved":false,"is_disabled":true,"rental_uris":{"android":"levelo://app?vid=8a151ccc-edf6-40ab-a6a3-42b4ac96f698","ios":"levelo://app?vid=8a151ccc-edf6-40ab-a6a3-42b4ac96f698"},"vehicle_type_id":"4","last_reported":1737652077,"current_range_meters":27200,"station_id":"ce4bhbp2rcd13ifvqerg","pricing_plan_id":"cebpf4jnsgd1na2vs0mg"},{"bike_id":"c2b6d836-f83d-4720-8dcc-e7f64397917b","system_id":"levelo_inurba_marseille","lat":43.29928,"lon":5.37481,"is_reserved":false,"is_disabled":false,"rental_uris":{"android":"levelo://app?vid=c2b6d836-f83d-4720-8dcc-e7f64397917b","ios":"levelo://app?vid=c2b6d836-f83d-4720-8dcc-e7f64397917b"},"vehicle_type_id":"4","last_reported":1737652077,"current_range_meters":11600,"station_id":"ce4bgjh2rcd13ifvqbg0","pricing_plan_id":"cebpf4jnsgd1na2vs0mg"},{"bike_id":"fffcee47-9079-44a9-8720-18702126d26c","system_id":"levelo_inurba_marseille","lat":43.30262,"lon":5.40078,"is_reserved":false,"is_disabled":false,"rental_uris":{"android":"levelo://app?vid=fffcee47-9079-44a9-8720-18702126d26c","ios":"levelo://app?vid=fffcee47-9079-44a9-8720-18702126d26c"},"vehicle_type_id":"4","last_reported":1737652077,"current_range_meters":16000,"station_id":"ce4bgvh2rcd13ifvqcs0","pricing_plan_id":"cebpf4jnsgd1na2vs0mg"},{"bike_id":"5cefcaef-c8d0-426e-85a3-d6a61a1b5e27","system_id":"levelo_inurba_marseille","lat":43.27817,"lon":5.40693,"is_reserved":false,"is_disabled":false,"rental_uris":{"android":"levelo://app?vid=5cefcaef-c8d0-426e-85a3-d6a61a1b5e27","ios":"levelo://app?vid=5cefcaef-c8d0-426e-85a3-d6a61a1b5e27"},"vehicle_type_id":"4","last_reported":1737652077,"current_range_meters":36800,"station_id":"ce4bhnh2rcd13ifvqgtg","pricing_plan_id":"cebpf4jnsgd1na2vs0mg"},{"bike_id":"c149c6e4-98da-47c0-a441-66414b31d9d8","system_id":"levelo_inurba_marseille","lat":43.29027,"lon":5.38621,"is_reserved":false,"is_disabled":false,"rental_uris":{"android":"levelo://app?vid=c149c6e4-98da-47c0-a441-66414b31d9d8","ios":"levelo://app?vid=c149c6e4-98da-47c0-a441-66414b31d9d8"},"vehicle_type_id":"4","last_reported":1737652077,"current_range_meters":14000,"station_id":"ce4bh4p2rcd13ifvqe0g","pricing_plan_id":"cebpf4jnsgd1na2vs0mg"},{"bike_id":"d7694ff0-5a62-4579-acec-5b073add17ad","system_id":"levelo_inurba_marseille","lat":43.31327,"lon":5.39687,"is_reserved":false,"is_disabled":false,"rental_uris":{"android":"levelo://app?vid=d7694ff0-5a62-4579-acec-5b073add17ad","ios":"levelo://app?vid=d7694ff0-5a62-4579-acec-5b073add17ad"},"vehicle_type_id":"4","last_reported":1737652077,"current_range_meters":28000,"station_id":"ce4bgvp2rcd13ifvqcu0","pricing_plan_id":"cebpf4jnsgd1na2vs0mg"},{"bike_id":"78581ce1-edd3-44ae-b499-5a81087699de","system_id":"levelo_inurba_marseille","lat":43.28704,"lon":5.37402,"is_reserved":false,"is_disabled":false,"rental_uris":{"android":"levelo://app?vid=78581ce1-edd3-44ae-b499-5a81087699de","ios":"levelo://app?vid=78581ce1-edd3-44ae-b499-5a81087699de"},"vehicle_type_id":"4","last_reported":1737652077,"current_range_meters":38800,"station_id":"ce4bh3p2rcd13ifvqdq0","pricing_plan_id":"cebpf4jnsgd1na2vs0mg"},{"bike_id":"e1cd9866-5b4a-4efe-a8a6-5860705b5fe2","system_id":"levelo_inurba_marseille","lat":43.25106,"lon":5.40329,"is_reserved":false,"is_disabled":false,"rental_uris":{"android":"levelo://app?vid=e1cd9866-5b4a-4efe-a8a6-5860705b5fe2","ios":"levelo://app?vid=e1cd9866-5b4a-4efe-a8a6-5860705b5fe2"},"vehicle_type_id":"4","last_reported":1737652077,"current_range_meters":38800,"station_id":"ce4bhlh2rcd13ifvqgig","pricing_plan_id":"cebpf4jnsgd1na2vs0mg"},{"bike_id":"b8338bfe-1284-4232-9a51-15bb8e974f1c","system_id":"levelo_inurba_marseille","lat":43.298424,"lon":5.362658,"is_reserved":false,"is_disabled":false,"rental_uris":{"android":"levelo://app?vid=b8338bfe-1284-4232-9a51-15bb8e974f1c","ios":"levelo://app?vid=b8338bfe-1284-4232-9a51-15bb8e974f1c"},"vehicle_type_id":"4","last_reported":1737652077,"current_range_meters":38800,"station_id":"ce4bgpp2rcd13ifvqc3g","pricing_plan_id":"cebpf4jnsgd1na2vs0mg"},{"bike_id":"75495e7c-20bd-4569-84c6-35df34ab244d","system_id":"levelo_inurba_marseille","lat":43.29902,"lon":5.43667,"is_reserved":false,"is_disabled":true,"rental_uris":{"android":"levelo://app?vid=75495e7c-20bd-4569-84c6-35df34ab244d","ios":"levelo://app?vid=75495e7c-20bd-4569-84c6-35df34ab244d"},"vehicle_type_id":"4","last_reported":1737652077,"current_range_meters":2000,"station_id":"ce4bhpp2rcd13ifvqhfg","pricing_plan_id":"cebpf4jnsgd1na2vs0mg"},{"bike_id":"5c6dd2ff-5977-45ea-9ab6-79ed70b4ade5","system_id":"levelo_inurba_marseille","lat":43.29415,"lon":5.38574,"is_reserved":false,"is_disabled":true,"rental_uris":{"android":"levelo://app?vid=5c6dd2ff-5977-45ea-9ab6-79ed70b4ade5","ios":"levelo://app?vid=5c6dd2ff-5977-45ea-9ab6-79ed70b4ade5"},"vehicle_type_id":"4","last_reported":1737652077,"current_range_meters":35600,"station_id":"ce4bh2h2rcd13ifvqdh0","pricing_plan_id":"cebpf4jnsgd1na2vs0mg"},{"bike_id":"657792be-237c-472b-a65e-16c177677754","system_id":"levelo_inurba_marseille","lat":43.30604,"lon":5.39318,"is_reserved":false,"is_disabled":false,"rental_uris":{"android":"levelo://app?vid=657792be-237c-472b-a65e-16c177677754","ios":"levelo://app?vid=657792be-237c-472b-a65e-16c177677754"},"vehicle_type_id":"4","last_reported":1737652077,"current_range_meters":28400,"station_id":"ce4bh0p2rcd13ifvqd80","pricing_plan_id":"cebpf4jnsgd1na2vs0mg"},{"bike_id":"f15a3926-03ea-4c4b-9f1b-6e7324acfe94","system_id":"levelo_inurba_marseille","lat":43.28757,"lon":5.3763,"is_reserved":false,"is_disabled":true,"rental_uris":{"android":"levelo://app?vid=f15a3926-03ea-4c4b-9f1b-6e7324acfe94","ios":"levelo://app?vid=f15a3926-03ea-4c4b-9f1b-6e7324acfe94"},"vehicle_type_id":"4","last_reported":1737652077,"current_range_meters":9600,"station_id":"","pricing_plan_id":"cebpf4jnsgd1na2vs0mg"},{"bike_id":"d22b6dd8-70dd-44e2-b2da-7416379d6042","system_id":"levelo_inurba_marseille","lat":43.26664,"lon":5.38241,"is_reserved":false,"is_disabled":false,"rental_uris":{"android":"levelo://app?vid=d22b6dd8-70dd-44e2-b2da-7416379d6042","ios":"levelo://app?vid=d22b6dd8-70dd-44e2-b2da-7416379d6042"},"vehicle_type_id":"4","last_reported":1737652077,"current_range_meters":38800,"station_id":"ce4bhg92rcd13ifvqf90","pricing_plan_id":"cebpf4jnsgd1na2vs0mg"},{"bike_id":"0683b8fa-bf66-4a85-b23f-305b1ef8e2c5","system_id":"levelo_inurba_marseille","lat":43.29904,"lon":5.43672,"is_reserved":false,"is_disabled":false,"rental_uris":{"android":"levelo://app?vid=0683b8fa-bf66-4a85-b23f-305b1ef8e2c5","ios":"levelo://app?vid=0683b8fa-bf66-4a85-b23f-305b1ef8e2c5"},"vehicle_type_id":"4","last_reported":1737652077,"current_range_meters":16400,"station_id":"ce4bhpp2rcd13ifvqhfg","pricing_plan_id":"cebpf4jnsgd1na2vs0mg"},{"bike_id":"56a10203-4f91-413e-8e1e-062543c2442a","system_id":"levelo_inurba_marseille","lat":43.31528,"lon":5.38036,"is_reserved":false,"is_disabled":false,"rental_uris":{"android":"levelo://app?vid=56a10203-4f91-413e-8e1e-062543c2442a","ios":"levelo://app?vid=56a10203-4f91-413e-8e1e-062543c2442a"},"vehicle_type_id":"4","last_reported":1737652077,"current_range_meters":24400,"station_id":"ce4bhsp2rcd13ifvqi50","pricing_plan_id":"cebpf4jnsgd1na2vs0mg"},{"bike_id":"da888d15-7d35-4be3-b47b-92b0b03a2fab","system_id":"levelo_inurba_marseille","lat":43.27921,"lon":5.3958,"is_reserved":false,"is_disabled":false,"rental_uris":{"android":"levelo://app?vid=da888d15-7d35-4be3-b47b-92b0b03a2fab","ios":"levelo://app?vid=da888d15-7d35-4be3-b47b-92b0b03a2fab"},"vehicle_type_id":"4","last_reported":1737652077,"current_range_meters":31200,"station_id":"ce4bhf92rcd13ifvqf40","pricing_plan_id":"cebpf4jnsgd1na2vs0mg"},{"bike_id":"ce9b6775-622a-4006-8fb5-f269869a0dfc","system_id":"levelo_inurba_marseille","lat":43.313604,"lon":5.384944,"is_reserved":false,"is_disabled":true,"rental_uris":{"android":"levelo://app?vid=ce9b6775-622a-4006-8fb5-f269869a0dfc","ios":"levelo://app?vid=ce9b6775-622a-4006-8fb5-f269869a0dfc"},"vehicle_type_id":"4","last_reported":1737652077,"current_range_meters":30000,"station_id":"ce4bgt92rcd13ifvqcf0","pricing_plan_id":"cebpf4jnsgd1na2vs0mg"},{"bike_id":"c709a6f6-06c6-414a-b7e4-50a0683e65e2","system_id":"levelo_inurba_marseille","lat":43.27624,"lon":5.3611,"is_reserved":false,"is_disabled":false,"rental_uris":{"android":"levelo://app?vid=c709a6f6-06c6-414a-b7e4-50a0683e65e2","ios":"levelo://app?vid=c709a6f6-06c6-414a-b7e4-50a0683e65e2"},"vehicle_type_id":"4","last_reported":1737652077,"current_range_meters":28800,"station_id":"ce4bgj92rcd13ifvqbe0","pricing_plan_id":"cebpf4jnsgd1na2vs0mg"},{"bike_id":"a5ed3966-a51b-43e4-ab41-024c21dcf49c","system_id":"levelo_inurba_marseille","lat":43.313333,"lon":5.40239,"is_reserved":false,"is_disabled":false,"rental_uris":{"android":"levelo://app?vid=a5ed3966-a51b-43e4-ab41-024c21dcf49c","ios":"levelo://app?vid=a5ed3966-a51b-43e4-ab41-024c21dcf49c"},"vehicle_type_id":"4","last_reported":1737652077,"current_range_meters":2800,"station_id":"","pricing_plan_id":"cebpf4jnsgd1na2vs0mg"},{"bike_id":"9d0a1296-bc68-4335-9e8a-2b917ca7e52b","system_id":"levelo_inurba_marseille","lat":43.27618,"lon":5.36117,"is_reserved":false,"is_disabled":false,"rental_uris":{"android":"levelo://app?vid=9d0a1296-bc68-4335-9e8a-2b917ca7e52b","ios":"levelo://app?vid=9d0a1296-bc68-4335-9e8a-2b917ca7e52b"},"vehicle_type_id":"4","last_reported":1737652077,"current_range_meters":18800,"station_id":"ce4bgj92rcd13ifvqbe0","pricing_plan_id":"cebpf4jnsgd1na2vs0mg"},{"bike_id":"77ea11c3-2707-4b7a-8a41-6bcf8439a940","system_id":"levelo_inurba_marseille","lat":43.29078,"lon":5.37185,"is_reserved":false,"is_disabled":false,"rental_uris":{"android":"levelo://app?vid=77ea11c3-2707-4b7a-8a41-6bcf8439a940","ios":"levelo://app?vid=77ea11c3-2707-4b7a-8a41-6bcf8439a940"},"vehicle_type_id":"4","last_reported":1737652077,"current_range_meters":26000,"station_id":"ce4bh5p2rcd13ifvqe4g","pricing_plan_id":"cebpf4jnsgd1na2vs0mg"},{"bike_id":"6430b4be-9b3b-400c-84f4-c4ff28229b18","system_id":"levelo_inurba_marseille","lat":43.28096,"lon":5.3786,"is_reserved":false,"is_disabled":false,"rental_uris":{"android":"levelo://app?vid=6430b4be-9b3b-400c-84f4-c4ff28229b18","ios":"levelo://app?vid=6430b4be-9b3b-400c-84f4-c4ff28229b18"},"vehicle_type_id":"4","last_reported":1737652077,"current_range_meters":28400,"station_id":"ce4bha12rcd13ifvqee0","pricing_plan_id":"cebpf4jnsgd1na2vs0mg"},{"bike_id":"f10162bc-45ac-4be3-a823-90614decb8dc","system_id":"levelo_inurba_marseille","lat":43.29536,"lon":5.38563,"is_reserved":false,"is_disabled":false,"rental_uris":{"android":"levelo://app?vid=f10162bc-45ac-4be3-a823-90614decb8dc","ios":"levelo://app?vid=f10162bc-45ac-4be3-a823-90614decb8dc"},"vehicle_type_id":"4","last_reported":1737652077,"current_range_meters":22800,"station_id":"ce4bgih2rcd13ifvqba0","pricing_plan_id":"cebpf4jnsgd1na2vs0mg"},{"bike_id":"2bd02e6c-b6c0-4a0b-8c9f-9a362214733a","system_id":"levelo_inurba_marseille","lat":43.28717,"lon":5.379401,"is_reserved":false,"is_disabled":false,"rental_uris":{"android":"levelo://app?vid=2bd02e6c-b6c0-4a0b-8c9f-9a362214733a","ios":"levelo://app?vid=2bd02e6c-b6c0-4a0b-8c9f-9a362214733a"},"vehicle_type_id":"4","last_reported":1737652077,"current_range_meters":8400,"station_id":"ce4bh9p2rcd13ifvqec0","pricing_plan_id":"cebpf4jnsgd1na2vs0mg"},{"bike_id":"b6e0561b-aa16-462a-be12-9767ed0d77b6","system_id":"levelo_inurba_marseille","lat":43.2794,"lon":5.41058,"is_reserved":false,"is_disabled":false,"rental_uris":{"android":"levelo://app?vid=b6e0561b-aa16-462a-be12-9767ed0d77b6","ios":"levelo://app?vid=b6e0561b-aa16-462a-be12-9767ed0d77b6"},"vehicle_type_id":"4","last_reported":1737652077,"current_range_meters":28800,"station_id":"ce4bhnp2rcd13ifvqh0g","pricing_plan_id":"cebpf4jnsgd1na2vs0mg"},{"bike_id":"e80d7fc7-c2d6-4f88-9a1b-4ff860ed9c10","system_id":"levelo_inurba_marseille","lat":43.29618,"lon":5.37731,"is_reserved":false,"is_disabled":true,"rental_uris":{"android":"levelo://app?vid=e80d7fc7-c2d6-4f88-9a1b-4ff860ed9c10","ios":"levelo://app?vid=e80d7fc7-c2d6-4f88-9a1b-4ff860ed9c10"},"vehicle_type_id":"4","last_reported":1737652077,"current_range_meters":800,"station_id":"ce4bgi92rcd13ifvqb90","pricing_plan_id":"cebpf4jnsgd1na2vs0mg"},{"bike_id":"ddd963ba-9a0c-435b-be45-69b594dc5944","system_id":"levelo_inurba_marseille","lat":43.25104,"lon":5.40331,"is_reserved":false,"is_disabled":false,"rental_uris":{"android":"levelo://app?vid=ddd963ba-9a0c-435b-be45-69b594dc5944","ios":"levelo://app?vid=ddd963ba-9a0c-435b-be45-69b594dc5944"},"vehicle_type_id":"4","last_reported":1737652077,"current_range_meters":22800,"station_id":"ce4bhlh2rcd13ifvqgig","pricing_plan_id":"cebpf4jnsgd1na2vs0mg"},{"bike_id":"6ed860f1-8dca-41ad-b63e-90f5208c809c","system_id":"levelo_inurba_marseille","lat":43.279944,"lon":5.400214,"is_reserved":false,"is_disabled":false,"rental_uris":{"android":"levelo://app?vid=6ed860f1-8dca-41ad-b63e-90f5208c809c","ios":"levelo://app?vid=6ed860f1-8dca-41ad-b63e-90f5208c809c"},"vehicle_type_id":"4","last_reported":1737652077,"current_range_meters":26000,"station_id":"ce4bho92rcd13ifvqh4g","pricing_plan_id":"cebpf4jnsgd1na2vs0mg"},{"bike_id":"4b50bc4c-b085-478e-a97b-9c11f4c46896","system_id":"levelo_inurba_marseille","lat":43.314828,"lon":5.372936,"is_reserved":false,"is_disabled":false,"rental_uris":{"android":"levelo://app?vid=4b50bc4c-b085-478e-a97b-9c11f4c46896","ios":"levelo://app?vid=4b50bc4c-b085-478e-a97b-9c11f4c46896"},"vehicle_type_id":"4","last_reported":1737652077,"current_range_meters":38400,"station_id":"ce4bgt12rcd13ifvqcd0","pricing_plan_id":"cebpf4jnsgd1na2vs0mg"},{"bike_id":"46a6f3ea-bf9e-49e8-ba46-58296b2ab5d6","system_id":"levelo_inurba_marseille","lat":43.25823,"lon":5.39438,"is_reserved":false,"is_disabled":false,"rental_uris":{"android":"levelo://app?vid=46a6f3ea-bf9e-49e8-ba46-58296b2ab5d6","ios":"levelo://app?vid=46a6f3ea-bf9e-49e8-ba46-58296b2ab5d6"},"vehicle_type_id":"4","last_reported":1737652077,"current_range_meters":29600,"station_id":"ce4bhip2rcd13ifvqft0","pricing_plan_id":"cebpf4jnsgd1na2vs0mg"},{"bike_id":"de7118bf-ca6e-4b12-b657-decea3c7ab02","system_id":"levelo_inurba_marseille","lat":43.26935,"lon":5.38903,"is_reserved":false,"is_disabled":false,"rental_uris":{"android":"levelo://app?vid=de7118bf-ca6e-4b12-b657-decea3c7ab02","ios":"levelo://app?vid=de7118bf-ca6e-4b12-b657-decea3c7ab02"},"vehicle_type_id":"4","last_reported":1737652077,"current_range_meters":39200,"station_id":"ce4bhhh2rcd13ifvqfl0","pricing_plan_id":"cebpf4jnsgd1na2vs0mg"},{"bike_id":"54aca84e-06a2-42f9-82f0-807c1ed11713","system_id":"levelo_inurba_marseille","lat":43.27989,"lon":5.40037,"is_reserved":false,"is_disabled":false,"rental_uris":{"android":"levelo://app?vid=54aca84e-06a2-42f9-82f0-807c1ed11713","ios":"levelo://app?vid=54aca84e-06a2-42f9-82f0-807c1ed11713"},"vehicle_type_id":"4","last_reported":1737652077,"current_range_meters":37600,"station_id":"ce4bho92rcd13ifvqh4g","pricing_plan_id":"cebpf4jnsgd1na2vs0mg"},{"bike_id":"ed699997-82cc-4e28-bfc8-fb27238883ac","system_id":"levelo_inurba_marseille","lat":43.2917,"lon":5.37163,"is_reserved":false,"is_disabled":false,"rental_uris":{"android":"levelo://app?vid=ed699997-82cc-4e28-bfc8-fb27238883ac","ios":"levelo://app?vid=ed699997-82cc-4e28-bfc8-fb27238883ac"},"vehicle_type_id":"4","last_reported":1737652077,"current_range_meters":33200,"station_id":"ce4bha92rcd13ifvqeh0","pricing_plan_id":"cebpf4jnsgd1na2vs0mg"},{"bike_id":"21a3400f-6f4c-4878-9167-d193e12aff92","system_id":"levelo_inurba_marseille","lat":43.26571,"lon":5.39012,"is_reserved":false,"is_disabled":true,"rental_uris":{"android":"levelo://app?vid=21a3400f-6f4c-4878-9167-d193e12aff92","ios":"levelo://app?vid=21a3400f-6f4c-4878-9167-d193e12aff92"},"vehicle_type_id":"4","last_reported":1737652077,"current_range_meters":17600,"station_id":"ce4bhe12rcd13ifvqf30","pricing_plan_id":"cebpf4jnsgd1na2vs0mg"},{"bike_id":"8b8929bc-4b9f-45f1-9607-384009214396","system_id":"levelo_inurba_marseille","lat":43.25725,"lon":5.41112,"is_reserved":false,"is_disabled":true,"rental_uris":{"android":"levelo://app?vid=8b8929bc-4b9f-45f1-9607-384009214396","ios":"levelo://app?vid=8b8929bc-4b9f-45f1-9607-384009214396"},"vehicle_type_id":"4","last_reported":1737652077,"current_range_meters":1200,"station_id":"ce4bhkp2rcd13ifvqgd0","pricing_plan_id":"cebpf4jnsgd1na2vs0mg"},{"bike_id":"5801677c-5c9e-41fa-89e2-fe61a9da5268","system_id":"levelo_inurba_marseille","lat":43.25591,"lon":5.38227,"is_reserved":false,"is_disabled":false,"rental_uris":{"android":"levelo://app?vid=5801677c-5c9e-41fa-89e2-fe61a9da5268","ios":"levelo://app?vid=5801677c-5c9e-41fa-89e2-fe61a9da5268"},"vehicle_type_id":"4","last_reported":1737652077,"current_range_meters":32800,"station_id":"ce4bhih2rcd13ifvqfs0","pricing_plan_id":"cebpf4jnsgd1na2vs0mg"},{"bike_id":"f5cbbbf5-bd3a-41a7-a79e-d0792ac682f0","system_id":"levelo_inurba_marseille","lat":43.28623,"lon":5.35106,"is_reserved":false,"is_disabled":false,"rental_uris":{"android":"levelo://app?vid=f5cbbbf5-bd3a-41a7-a79e-d0792ac682f0","ios":"levelo://app?vid=f5cbbbf5-bd3a-41a7-a79e-d0792ac682f0"},"vehicle_type_id":"4","last_reported":1737652077,"current_range_meters":24000,"station_id":"ce4bhch2rcd13ifvqeug","pricing_plan_id":"cebpf4jnsgd1na2vs0mg"},{"bike_id":"0ba477c3-d5de-431c-9e50-8953caff39f5","system_id":"levelo_inurba_marseille","lat":43.3043,"lon":5.39746,"is_reserved":false,"is_disabled":false,"rental_uris":{"android":"levelo://app?vid=0ba477c3-d5de-431c-9e50-8953caff39f5","ios":"levelo://app?vid=0ba477c3-d5de-431c-9e50-8953caff39f5"},"vehicle_type_id":"4","last_reported":1737652077,"current_range_meters":30800,"station_id":"ce4bh092rcd13ifvqd20","pricing_plan_id":"cebpf4jnsgd1na2vs0mg"},{"bike_id":"1e21a5e0-55ac-415c-8211-f9cb995ad12e","system_id":"levelo_inurba_marseille","lat":43.30894,"lon":5.39663,"is_reserved":false,"is_disabled":false,"rental_uris":{"android":"levelo://app?vid=1e21a5e0-55ac-415c-8211-f9cb995ad12e","ios":"levelo://app?vid=1e21a5e0-55ac-415c-8211-f9cb995ad12e"},"vehicle_type_id":"4","last_reported":1737652077,"current_range_meters":35600,"station_id":"ce4bh012rcd13ifvqcv0","pricing_plan_id":"cebpf4jnsgd1na2vs0mg"},{"bike_id":"e51f8e31-5664-408f-bff9-2c84c9a728c0","system_id":"levelo_inurba_marseille","lat":43.29027,"lon":5.38648,"is_reserved":false,"is_disabled":false,"rental_uris":{"android":"levelo://app?vid=e51f8e31-5664-408f-bff9-2c84c9a728c0","ios":"levelo://app?vid=e51f8e31-5664-408f-bff9-2c84c9a728c0"},"vehicle_type_id":"4","last_reported":1737652077,"current_range_meters":38800,"station_id":"ce4bh4p2rcd13ifvqe0g","pricing_plan_id":"cebpf4jnsgd1na2vs0mg"},{"bike_id":"2512f82c-59f4-4f85-8cd3-133991d6f7a4","system_id":"levelo_inurba_marseille","lat":43.31714,"lon":5.43716,"is_reserved":false,"is_disabled":false,"rental_uris":{"android":"levelo://app?vid=2512f82c-59f4-4f85-8cd3-133991d6f7a4","ios":"levelo://app?vid=2512f82c-59f4-4f85-8cd3-133991d6f7a4"},"vehicle_type_id":"4","last_reported":1737652077,"current_range_meters":30400,"station_id":"ce4bhp92rcd13ifvqhcg","pricing_plan_id":"cebpf4jnsgd1na2vs0mg"},{"bike_id":"fa446126-b7c5-4e94-88a5-bd6925129656","system_id":"levelo_inurba_marseille","lat":43.29422,"lon":5.38615,"is_reserved":false,"is_disabled":false,"rental_uris":{"android":"levelo://app?vid=fa446126-b7c5-4e94-88a5-bd6925129656","ios":"levelo://app?vid=fa446126-b7c5-4e94-88a5-bd6925129656"},"vehicle_type_id":"4","last_reported":1737652077,"current_range_meters":37600,"station_id":"ce4bh2h2rcd13ifvqdh0","pricing_plan_id":"cebpf4jnsgd1na2vs0mg"},{"bike_id":"3c9d5d82-e531-4fce-b24d-74c2797405a3","system_id":"levelo_inurba_marseille","lat":43.32363,"lon":5.36766,"is_reserved":false,"is_disabled":false,"rental_uris":{"android":"levelo://app?vid=3c9d5d82-e531-4fce-b24d-74c2797405a3","ios":"levelo://app?vid=3c9d5d82-e531-4fce-b24d-74c2797405a3"},"vehicle_type_id":"4","last_reported":1737652077,"current_range_meters":16000,"station_id":"ce4bhsh2rcd13ifvqi2g","pricing_plan_id":"cebpf4jnsgd1na2vs0mg"},{"bike_id":"e7ac4ec6-432e-4ab9-a340-7a0f45957c4e","system_id":"levelo_inurba_marseille","lat":43.33738,"lon":5.39184,"is_reserved":false,"is_disabled":false,"rental_uris":{"android":"levelo://app?vid=e7ac4ec6-432e-4ab9-a340-7a0f45957c4e","ios":"levelo://app?vid=e7ac4ec6-432e-4ab9-a340-7a0f45957c4e"},"vehicle_type_id":"4","last_reported":1737652077,"current_range_meters":38800,"station_id":"ce4bhr92rcd13ifvqhsg","pricing_plan_id":"cebpf4jnsgd1na2vs0mg"},{"bike_id":"9ebe6da3-99b5-4623-a8f5-c14708d586f4","system_id":"levelo_inurba_marseille","lat":43.2986,"lon":5.36275,"is_reserved":false,"is_disabled":false,"rental_uris":{"android":"levelo://app?vid=9ebe6da3-99b5-4623-a8f5-c14708d586f4","ios":"levelo://app?vid=9ebe6da3-99b5-4623-a8f5-c14708d586f4"},"vehicle_type_id":"4","last_reported":1737652077,"current_range_meters":38800,"station_id":"ce4bgpp2rcd13ifvqc3g","pricing_plan_id":"cebpf4jnsgd1na2vs0mg"},{"bike_id":"b3ccd738-a45b-484b-b466-323d3aa9a710","system_id":"levelo_inurba_marseille","lat":43.29847,"lon":5.36277,"is_reserved":false,"is_disabled":false,"rental_uris":{"android":"levelo://app?vid=b3ccd738-a45b-484b-b466-323d3aa9a710","ios":"levelo://app?vid=b3ccd738-a45b-484b-b466-323d3aa9a710"},"vehicle_type_id":"4","last_reported":1737652077,"current_range_meters":22800,"station_id":"ce4bgpp2rcd13ifvqc3g","pricing_plan_id":"cebpf4jnsgd1na2vs0mg"},{"bike_id":"4756969f-b769-43a9-8978-4908b8b5e2aa","system_id":"levelo_inurba_marseille","lat":43.26686,"lon":5.3827,"is_reserved":false,"is_disabled":false,"rental_uris":{"android":"levelo://app?vid=4756969f-b769-43a9-8978-4908b8b5e2aa","ios":"levelo://app?vid=4756969f-b769-43a9-8978-4908b8b5e2aa"},"vehicle_type_id":"4","last_reported":1737652077,"current_range_meters":8000,"station_id":"ce4bhg92rcd13ifvqf90","pricing_plan_id":"cebpf4jnsgd1na2vs0mg"},{"bike_id":"09516abb-444a-4ef2-87fb-422fef2a7c18","system_id":"levelo_inurba_marseille","lat":43.29866,"lon":5.3627,"is_reserved":false,"is_disabled":false,"rental_uris":{"android":"levelo://app?vid=09516abb-444a-4ef2-87fb-422fef2a7c18","ios":"levelo://app?vid=09516abb-444a-4ef2-87fb-422fef2a7c18"},"vehicle_type_id":"4","last_reported":1737652077,"current_range_meters":23200,"station_id":"ce4bgpp2rcd13ifvqc3g","pricing_plan_id":"cebpf4jnsgd1na2vs0mg"},{"bike_id":"c423dedd-05cc-42d3-bc43-f79e885506a6","system_id":"levelo_inurba_marseille","lat":43.28489,"lon":5.38421,"is_reserved":false,"is_disabled":false,"rental_uris":{"android":"levelo://app?vid=c423dedd-05cc-42d3-bc43-f79e885506a6","ios":"levelo://app?vid=c423dedd-05cc-42d3-bc43-f79e885506a6"},"vehicle_type_id":"4","last_reported":1737652077,"current_range_meters":18000,"station_id":"ce4bh512rcd13ifvqe3g","pricing_plan_id":"cebpf4jnsgd1na2vs0mg"},{"bike_id":"6fd73f4f-1954-4782-9e90-de7f65b3c67c","system_id":"levelo_inurba_marseille","lat":43.31773,"lon":5.38995,"is_reserved":false,"is_disabled":false,"rental_uris":{"android":"levelo://app?vid=6fd73f4f-1954-4782-9e90-de7f65b3c67c","ios":"levelo://app?vid=6fd73f4f-1954-4782-9e90-de7f65b3c67c"},"vehicle_type_id":"4","last_reported":1737652077,"current_range_meters":38800,"station_id":"ce4bhqp2rcd13ifvqhng","pricing_plan_id":"cebpf4jnsgd1na2vs0mg"},{"bike_id":"7db52b9f-ce79-4063-a90d-1d006402972c","system_id":"levelo_inurba_marseille","lat":43.32368,"lon":5.3676,"is_reserved":false,"is_disabled":false,"rental_uris":{"android":"levelo://app?vid=7db52b9f-ce79-4063-a90d-1d006402972c","ios":"levelo://app?vid=7db52b9f-ce79-4063-a90d-1d006402972c"},"vehicle_type_id":"4","last_reported":1737652077,"current_range_meters":25600,"station_id":"ce4bhsh2rcd13ifvqi2g","pricing_plan_id":"cebpf4jnsgd1na2vs0mg"},{"bike_id":"23bd3d6c-bcdb-47df-831c-1bf04f2dea43","system_id":"levelo_inurba_marseille","lat":43.31988,"lon":5.38144,"is_reserved":false,"is_disabled":false,"rental_uris":{"android":"levelo://app?vid=23bd3d6c-bcdb-47df-831c-1bf04f2dea43","ios":"levelo://app?vid=23bd3d6c-bcdb-47df-831c-1bf04f2dea43"},"vehicle_type_id":"4","last_reported":1737652077,"current_range_meters":38800,"station_id":"ce4bhr12rcd13ifvqhpg","pricing_plan_id":"cebpf4jnsgd1na2vs0mg"},{"bike_id":"fedb5350-b7d9-42e2-84f1-11b20745ecf9","system_id":"levelo_inurba_marseille","lat":43.33026,"lon":5.39037,"is_reserved":false,"is_disabled":false,"rental_uris":{"android":"levelo://app?vid=fedb5350-b7d9-42e2-84f1-11b20745ecf9","ios":"levelo://app?vid=fedb5350-b7d9-42e2-84f1-11b20745ecf9"},"vehicle_type_id":"4","last_reported":1737652077,"current_range_meters":22400,"station_id":"ce4bhr92rcd13ifvqhrg","pricing_plan_id":"cebpf4jnsgd1na2vs0mg"},{"bike_id":"2d07b7ce-114f-4163-867f-a23c2c38a0a4","system_id":"levelo_inurba_marseille","lat":43.30092,"lon":5.39096,"is_reserved":false,"is_disabled":false,"rental_uris":{"android":"levelo://app?vid=2d07b7ce-114f-4163-867f-a23c2c38a0a4","ios":"levelo://app?vid=2d07b7ce-114f-4163-867f-a23c2c38a0a4"},"vehicle_type_id":"4","last_reported":1737652077,"current_range_meters":28400,"station_id":"ce4bh192rcd13ifvqdb0","pricing_plan_id":"cebpf4jnsgd1na2vs0mg"},{"bike_id":"6f91d618-21e7-4346-9444-3a1bb0416f40","system_id":"levelo_inurba_marseille","lat":43.299001,"lon":5.436762,"is_reserved":false,"is_disabled":false,"rental_uris":{"android":"levelo://app?vid=6f91d618-21e7-4346-9444-3a1bb0416f40","ios":"levelo://app?vid=6f91d618-21e7-4346-9444-3a1bb0416f40"},"vehicle_type_id":"4","last_reported":1737652077,"current_range_meters":24000,"station_id":"ce4bhpp2rcd13ifvqhfg","pricing_plan_id":"cebpf4jnsgd1na2vs0mg"},{"bike_id":"66e2b2a3-ad8d-4342-978a-ecc4b2ad37b5","system_id":"levelo_inurba_marseille","lat":43.31313,"lon":5.39688,"is_reserved":false,"is_disabled":false,"rental_uris":{"android":"levelo://app?vid=66e2b2a3-ad8d-4342-978a-ecc4b2ad37b5","ios":"levelo://app?vid=66e2b2a3-ad8d-4342-978a-ecc4b2ad37b5"},"vehicle_type_id":"4","last_reported":1737652077,"current_range_meters":17600,"station_id":"ce4bgvp2rcd13ifvqcu0","pricing_plan_id":"cebpf4jnsgd1na2vs0mg"},{"bike_id":"6cbb06af-878a-43e4-ba61-cd57c4dedb2a","system_id":"levelo_inurba_marseille","lat":43.29783,"lon":5.39354,"is_reserved":false,"is_disabled":false,"rental_uris":{"android":"levelo://app?vid=6cbb06af-878a-43e4-ba61-cd57c4dedb2a","ios":"levelo://app?vid=6cbb06af-878a-43e4-ba61-cd57c4dedb2a"},"vehicle_type_id":"4","last_reported":1737652077,"current_range_meters":4000,"station_id":"chh1huq6cuj3fo74tm60","pricing_plan_id":"cebpf4jnsgd1na2vs0mg"},{"bike_id":"b282e8bd-23e5-427e-9583-978f51fcfb04","system_id":"levelo_inurba_marseille","lat":43.26198,"lon":5.37454,"is_reserved":false,"is_disabled":true,"rental_uris":{"android":"levelo://app?vid=b282e8bd-23e5-427e-9583-978f51fcfb04","ios":"levelo://app?vid=b282e8bd-23e5-427e-9583-978f51fcfb04"},"vehicle_type_id":"4","last_reported":1737652077,"current_range_meters":2000,"station_id":"ce4bhgp2rcd13ifvqfc0","pricing_plan_id":"cebpf4jnsgd1na2vs0mg"},{"bike_id":"21c2aea9-b686-42a3-a88d-3eca8015263d","system_id":"levelo_inurba_marseille","lat":43.30158,"lon":5.38068,"is_reserved":false,"is_disabled":true,"rental_uris":{"android":"levelo://app?vid=21c2aea9-b686-42a3-a88d-3eca8015263d","ios":"levelo://app?vid=21c2aea9-b686-42a3-a88d-3eca8015263d"},"vehicle_type_id":"4","last_reported":1737652077,"current_range_meters":400,"station_id":"ce4bgjp2rcd13ifvqbh0","pricing_plan_id":"cebpf4jnsgd1na2vs0mg"},{"bike_id":"1286c82b-ba0f-4aef-af67-a43787a5b7a6","system_id":"levelo_inurba_marseille","lat":43.3046,"lon":5.37905,"is_reserved":false,"is_disabled":false,"rental_uris":{"android":"levelo://app?vid=1286c82b-ba0f-4aef-af67-a43787a5b7a6","ios":"levelo://app?vid=1286c82b-ba0f-4aef-af67-a43787a5b7a6"},"vehicle_type_id":"4","last_reported":1737652077,"current_range_meters":28800,"station_id":"ce4bgup2rcd13ifvqcn0","pricing_plan_id":"cebpf4jnsgd1na2vs0mg"},{"bike_id":"27b1ca79-4034-4e9d-9dbb-c47eea117728","system_id":"levelo_inurba_marseille","lat":43.28422,"lon":5.34995,"is_reserved":false,"is_disabled":false,"rental_uris":{"android":"levelo://app?vid=27b1ca79-4034-4e9d-9dbb-c47eea117728","ios":"levelo://app?vid=27b1ca79-4034-4e9d-9dbb-c47eea117728"},"vehicle_type_id":"4","last_reported":1737652077,"current_range_meters":14400,"station_id":"ce4bhbh2rcd13ifvqepg","pricing_plan_id":"cebpf4jnsgd1na2vs0mg"},{"bike_id":"752cbd98-1c12-4121-82a7-d860edb16a58","system_id":"levelo_inurba_marseille","lat":43.30802,"lon":5.38144,"is_reserved":false,"is_disabled":false,"rental_uris":{"android":"levelo://app?vid=752cbd98-1c12-4121-82a7-d860edb16a58","ios":"levelo://app?vid=752cbd98-1c12-4121-82a7-d860edb16a58"},"vehicle_type_id":"4","last_reported":1737652077,"current_range_meters":34800,"station_id":"ce4bgt12rcd13ifvqce0","pricing_plan_id":"cebpf4jnsgd1na2vs0mg"},{"bike_id":"5aacdde2-2e46-4cf4-82f8-f5614e1e733d","system_id":"levelo_inurba_marseille","lat":43.27976,"lon":5.40002,"is_reserved":false,"is_disabled":true,"rental_uris":{"android":"levelo://app?vid=5aacdde2-2e46-4cf4-82f8-f5614e1e733d","ios":"levelo://app?vid=5aacdde2-2e46-4cf4-82f8-f5614e1e733d"},"vehicle_type_id":"4","last_reported":1737652077,"current_range_meters":0,"station_id":"ce4bho92rcd13ifvqh4g","pricing_plan_id":"cebpf4jnsgd1na2vs0mg"},{"bike_id":"ea766d34-60b9-4cb5-8e88-555615f7f843","system_id":"levelo_inurba_marseille","lat":43.29715,"lon":5.36585,"is_reserved":false,"is_disabled":false,"rental_uris":{"android":"levelo://app?vid=ea766d34-60b9-4cb5-8e88-555615f7f843","ios":"levelo://app?vid=ea766d34-60b9-4cb5-8e88-555615f7f843"},"vehicle_type_id":"4","last_reported":1737652077,"current_range_meters":10000,"station_id":"ce4bgn12rcd13ifvqbt0","pricing_plan_id":"cebpf4jnsgd1na2vs0mg"},{"bike_id":"9a533986-934d-4ab5-b6e9-79df5e3a4fbd","system_id":"levelo_inurba_marseille","lat":43.31123,"lon":5.37755,"is_reserved":false,"is_disabled":false,"rental_uris":{"android":"levelo://app?vid=9a533986-934d-4ab5-b6e9-79df5e3a4fbd","ios":"levelo://app?vid=9a533986-934d-4ab5-b6e9-79df5e3a4fbd"},"vehicle_type_id":"4","last_reported":1737652077,"current_range_meters":38800,"station_id":"ce4bgt92rcd13ifvqcg0","pricing_plan_id":"cebpf4jnsgd1na2vs0mg"},{"bike_id":"e48a9b90-410a-4927-bd7f-749e10a697e2","system_id":"levelo_inurba_marseille","lat":43.32295,"lon":5.38281,"is_reserved":false,"is_disabled":false,"rental_uris":{"android":"levelo://app?vid=e48a9b90-410a-4927-bd7f-749e10a697e2","ios":"levelo://app?vid=e48a9b90-410a-4927-bd7f-749e10a697e2"},"vehicle_type_id":"4","last_reported":1737652077,"current_range_meters":39200,"station_id":"ce4bhr12rcd13ifvqhqg","pricing_plan_id":"cebpf4jnsgd1na2vs0mg"},{"bike_id":"fd99a0c7-3e61-45ec-a4ed-f59328a671d0","system_id":"levelo_inurba_marseille","lat":43.29189,"lon":5.35807,"is_reserved":false,"is_disabled":false,"rental_uris":{"android":"levelo://app?vid=fd99a0c7-3e61-45ec-a4ed-f59328a671d0","ios":"levelo://app?vid=fd99a0c7-3e61-45ec-a4ed-f59328a671d0"},"vehicle_type_id":"4","last_reported":1737652077,"current_range_meters":31200,"station_id":"ce4bhb12rcd13ifvqel0","pricing_plan_id":"cebpf4jnsgd1na2vs0mg"},{"bike_id":"3872ddb6-aea9-4d6c-9e12-4ec51f5250f8","system_id":"levelo_inurba_marseille","lat":43.30649,"lon":5.40109,"is_reserved":false,"is_disabled":false,"rental_uris":{"android":"levelo://app?vid=3872ddb6-aea9-4d6c-9e12-4ec51f5250f8","ios":"levelo://app?vid=3872ddb6-aea9-4d6c-9e12-4ec51f5250f8"},"vehicle_type_id":"4","last_reported":1737652077,"current_range_meters":36800,"station_id":"ce4bh112rcd13ifvqda0","pricing_plan_id":"cebpf4jnsgd1na2vs0mg"},{"bike_id":"85cf7a35-fb12-4dc2-b5bb-c1d2e0f7abec","system_id":"levelo_inurba_marseille","lat":43.24166,"lon":5.39719,"is_reserved":false,"is_disabled":true,"rental_uris":{"android":"levelo://app?vid=85cf7a35-fb12-4dc2-b5bb-c1d2e0f7abec","ios":"levelo://app?vid=85cf7a35-fb12-4dc2-b5bb-c1d2e0f7abec"},"vehicle_type_id":"4","last_reported":1737652077,"current_range_meters":12000,"station_id":"ce4bhn12rcd13ifvqgpg","pricing_plan_id":"cebpf4jnsgd1na2vs0mg"},{"bike_id":"f21f32cb-b2cf-491d-ba5f-953e1a8957cd","system_id":"levelo_inurba_marseille","lat":43.26057,"lon":5.3938,"is_reserved":false,"is_disabled":false,"rental_uris":{"android":"levelo://app?vid=f21f32cb-b2cf-491d-ba5f-953e1a8957cd","ios":"levelo://app?vid=f21f32cb-b2cf-491d-ba5f-953e1a8957cd"},"vehicle_type_id":"4","last_reported":1737652077,"current_range_meters":39200,"station_id":"ce4bhh92rcd13ifvqfj0","pricing_plan_id":"cebpf4jnsgd1na2vs0mg"},{"bike_id":"de834d8b-7851-4a77-81f0-3580dbad88be","system_id":"levelo_inurba_marseille","lat":43.26936,"lon":5.38928,"is_reserved":false,"is_disabled":false,"rental_uris":{"android":"levelo://app?vid=de834d8b-7851-4a77-81f0-3580dbad88be","ios":"levelo://app?vid=de834d8b-7851-4a77-81f0-3580dbad88be"},"vehicle_type_id":"4","last_reported":1737652077,"current_range_meters":29600,"station_id":"ce4bhhh2rcd13ifvqfl0","pricing_plan_id":"cebpf4jnsgd1na2vs0mg"},{"bike_id":"339bb1a6-1412-4bbe-8a06-6b2e8a25601d","system_id":"levelo_inurba_marseille","lat":43.23074,"lon":5.35484,"is_reserved":false,"is_disabled":false,"rental_uris":{"android":"levelo://app?vid=339bb1a6-1412-4bbe-8a06-6b2e8a25601d","ios":"levelo://app?vid=339bb1a6-1412-4bbe-8a06-6b2e8a25601d"},"vehicle_type_id":"4","last_reported":1737652077,"current_range_meters":24000,"station_id":"cpo3342slgdg3j2ifvpg","pricing_plan_id":"cebpf4jnsgd1na2vs0mg"},