{"last_updated":1751411434,"ttl":60,"version":"2.2","data":{"bikes":[{"bike_id":"3da29fb8-fc97-44c6-b9ac-31dd456b2fd4","system_id":"levelo_inurba_marseille","lat":43.33771,"lon":5.37424,"is_reserved":false,"is_disabled":true,"rental_uris":{"android":"levelo://app?vid=3da29fb8-fc97-44c6-b9ac-31dd456b2fd4","ios":"levelo://app?vid=3da29fb8-fc97-44c6-b9ac-31dd456b2fd4"},"vehicle_type_id":"4","last_reported":1751411434,"current_range_meters":0,"station_id":"","pricing_plan_id":"cebpf4jnsgd1na2vs0mg"},{"bike_id":"01861ad8-a8d7-4be6-816e-651927c87584","system_id":"levelo_inurba_marseille","lat":43.33751,"lon":5.37456,"is_reserved":false,"is_disabled":true,"rental_uris":{"android":"levelo://app?vid=01861ad8-a8d7-4be6-816e-651927c87584","ios":"levelo://app?vid=01861ad8-a8d7-4be6-816e-651927c87584"},"vehicle_type_id":"4","last_reported":1751411434,"current_range_meters":0,"station_id":"","pricing_plan_id":"cebpf4jnsgd1na2vs0mg"},{"bike_id":"3168b9fb-97d2-4a0e-b7ee-673bb8cf7525","system_id":"levelo_inurba_marseille","lat":43.277651,"lon":5.355713,"is_reserved":false,"is_disabled":true,"rental_uris":{"android":"levelo://app?vid=3168b9fb-97d2-4a0e-b7ee-673bb8cf7525","ios":"levelo://app?vid=3168b9fb-97d2-4a0e-b7ee-673bb8cf7525"},"vehicle_type_id":"4","last_reported":1751411434,"current_range_meters":0,"station_id":"","pricing_plan_id":"cebpf4jnsgd1na2vs0mg"},{"bike_id":"d9ff6e9f-639f-40d8-85fa-0d0a1ef2cd49","system_id":"levelo_inurba_marseille","lat":43.269382,"lon":5.402714,"is_reserved":false,"is_disabled":true,"rental_uris":{"android":"levelo://app?vid=d9ff6e9f-639f-40d8-85fa-0d0a1ef2cd49","ios":"levelo://app?vid=d9ff6e9f-639f-40d8-85fa-0d0a1ef2cd49"},"vehicle_type_id":"4","last_reported":1751411434,"current_range_meters":0,"station_id":"","pricing_plan_id":"cebpf4jnsgd1na2vs0mg"},{"bike_id":"a0c739b7-33d0-407a-9ce5-2e701bb7e0fe","system_id":"levelo_inurba_marseille","lat":43.26993,"lon":5.43157,"is_reserved":false,"is_disabled":true,"rental_uris":{"android":"levelo://app?vid=a0c739b7-33d0-407a-9ce5-2e701bb7e0fe","ios":"levelo://app?vid=a0c739b7-33d0-407a-9ce5-2e701bb7e0fe"},"vehicle_type_id":"4","last_reported":1751411434,"current_range_meters":0,"station_id":"","pricing_plan_id":"cebpf4jnsgd1na2vs0mg"},{"bike_id":"a0fee4a0-d255-44d8-85d9-fd32ba974a7f","system_id":"levelo_inurba_marseille","lat":43.24697,"lon":5.4027,"is_reserved":false,"is_disabled":true,"rental_uris":{"android":"levelo://app?vid=a0fee4a0-d255-44d8-85d9-fd32ba974a7f","ios":"levelo://app?vid=a0fee4a0-d255-44d8-85d9-fd32ba974a7f"},"vehicle_type_id":"4","last_reported":1751411434,"current_range_meters":0,"station_id":"","pricing_plan_id":"cebpf4jnsgd1na2vs0mg"},{"bike_id":"3378c13c-e4e0-45be-9bfe-f3a4bc2c600e","system_id":"levelo_inurba_marseille","lat":43.29783,"lon":5.46021,"is_reserved":false,"is_disabled":true,"rental_uris":{"android":"levelo://app?vid=3378c13c-e4e0-45be-9bfe-f3a4bc2c600e","ios":"levelo://app?vid=3378c13c-e4e0-45be-9bfe-f3a4bc2c600e"},"vehicle_type_id":"4","last_reported":1751411434,"current_range_meters":0,"station_id":"","pricing_plan_id":"cebpf4jnsgd1na2vs0mg"},{"bike_id":"2ccccc82-c8a9-4c3b-909d-52c0bf697aa3","system_id":"levelo_inurba_marseille","lat":43.276024,"lon":5.358591,"is_reserved":false,"is_disabled":true,"rental_uris":{"android":"levelo://app?vid=2ccccc82-c8a9-4c3b-909d-52c0bf697aa3","ios":"levelo://app?vid=2ccccc82-c8a9-4c3b-909d-52c0bf697aa3"},"vehicle_type_id":"4","last_reported":1751411434,"current_range_meters":0,"station_id":"","pricing_plan_id":"cebpf4jnsgd1na2vs0mg"},{"bike_id":"c9700359-7f1e-4ea5-8eb5-d9c4ea1b8ef7","system_id":"levelo_inurba_marseille","lat":43.26316,"lon":5.3739,"is_reserved":false,"is_disabled":true,"rental_uris":{"android":"levelo://app?vid=c9700359-7f1e-4ea5-8eb5-d9c4ea1b8ef7","ios":"levelo://app?vid=c9700359-7f1e-4ea5-8eb5-d9c4ea1b8ef7"},"vehicle_type_id":"4","last_reported":1751411434,"current_range_meters":0,"station_id":"","pricing_plan_id":"cebpf4jnsgd1na2vs0mg"},{"bike_id":"e86e78b6-1768-4fed-8981-df086d3fa7b6","system_id":"levelo_inurba_marseille","lat":43.31323,"lon":5.39688,"is_reserved":false,"is_disabled":true,"rental_uris":{"android":"levelo://app?vid=e86e78b6-1768-4fed-8981-df086d3fa7b6","ios":"levelo://app?vid=e86e78b6-1768-4fed-8981-df086d3fa7b6"},"vehicle_type_id":"4","last_reported":1751411434,"current_range_meters":0,"station_id":"ce4bgvp2rcd13ifvqcu0","pricing_plan_id":"cebpf4jnsgd1na2vs0mg"},{"bike_id":"17349fd1-bac9-4be9-a6e7-6b597e262fe6","system_id":"levelo_inurba_marseille","lat":43.30649,"lon":5.401,"is_reserved":false,"is_disabled":true,"rental_uris":{"android":"levelo://app?vid=17349fd1-bac9-4be9-a6e7-6b597e262fe6","ios":"levelo://app?vid=17349fd1-bac9-4be9-a6e7-6b597e262fe6"},"vehicle_type_id":"4","last_reported":1751411434,"current_range_meters":0,"station_id":"ce4bh112rcd13ifvqda0","pricing_plan_id":"cebpf4jnsgd1na2vs0mg"},{"bike_id":"f6790789-5c16-4a33-b3f0-d00217e07a22","system_id":"levelo_inurba_marseille","lat":43.29413,"lon":5.38617,"is_reserved":false,"is_disabled":true,"rental_uris":{"android":"levelo://app?vid=f6790789-5c16-4a33-b3f0-d00217e07a22","ios":"levelo://app?vid=f6790789-5c16-4a33-b3f0-d00217e07a22"},"vehicle_type_id":"4","last_reported":1751411434,"current_range_meters":0,"station_id":"ce4bh2h2rcd13ifvqdh0","pricing_plan_id":"cebpf4jnsgd1na2vs0mg"},{"bike_id":"4138189c-1557-41f6-b781-9ab2d13564e5","system_id":"levelo_inurba_marseille","lat":43.23151,"lon":5.43717,"is_reserved":false,"is_disabled":true,"rental_uris":{"android":"levelo://app?vid=4138189c-1557-41f6-b781-9ab2d13564e5","ios":"levelo://app?vid=4138189c-1557-41f6-b781-9ab2d13564e5"},"vehicle_type_id":"4","last_reported":1751411434,"current_range_meters":0,"station_id":"ce4bhmp2rcd13ifvqgog","pricing_plan_id":"cebpf4jnsgd1na2vs0mg"},{"bike_id":"6346854d-967c-470e-9bcf-0ee9cbb31745","system_id":"levelo_inurba_marseille","lat":43.26913,"lon":5.42052,"is_reserved":false,"is_disabled":true,"rental_uris":{"android":"levelo://app?vid=6346854d-967c-470e-9bcf-0ee9cbb31745","ios":"levelo://app?vid=6346854d-967c-470e-9bcf-0ee9cbb31745"},"vehicle_type_id":"4","last_reported":1751411434,"current_range_meters":400,"station_id":"","pricing_plan_id":"cebpf4jnsgd1na2vs0mg"},{"bike_id":"9c17b5e7-ce14-4f93-aecc-823f855a019f","system_id":"levelo_inurba_marseille","lat":43.29054,"lon":5.40518,"is_reserved":false,"is_disabled":true,"rental_uris":{"android":"levelo://app?vid=9c17b5e7-ce14-4f93-aecc-823f855a019f","ios":"levelo://app?vid=9c17b5e7-ce14-4f93-aecc-823f855a019f"},"vehicle_type_id":"4","last_reported":1751411434,"current_range_meters":800,"station_id":"","pricing_plan_id":"cebpf4jnsgd1na2vs0mg"},{"bike_id":"23dabb6a-b30f-4115-84e2-e0e3be07c95c","system_id":"levelo_inurba_marseille","lat":43.26354,"lon":5.37837,"is_reserved":false,"is_disabled":true,"rental_uris":{"android":"levelo://app?vid=23dabb6a-b30f-4115-84e2-e0e3be07c95c","ios":"levelo://app?vid=23dabb6a-b30f-4115-84e2-e0e3be07c95c"},"vehicle_type_id":"4","last_reported":1751411434,"current_range_meters":800,"station_id":"","pricing_plan_id":"cebpf4jnsgd1na2vs0mg"},{"bike_id":"06ef01ba-a533-4c6a-9f6b-c3c681f796ed","system_id":"levelo_inurba_marseille","lat":43.28938,"lon":5.38365,"is_reserved":false,"is_disabled":true,"rental_uris":{"android":"levelo://app?vid=06ef01ba-a533-4c6a-9f6b-c3c681f796ed","ios":"levelo://app?vid=06ef01ba-a533-4c6a-9f6b-c3c681f796ed"},"vehicle_type_id":"4","last_reported":1751411434,"current_range_meters":800,"station_id":"ce4bh612rcd13ifvqe6g","pricing_plan_id":"cebpf4jnsgd1na2vs0mg"},{"bike_id":"bd9c8a2d-504c-4294-b2af-c13eb32e1e20","system_id":"levelo_inurba_marseille","lat":43.27952,"lon":5.41039,"is_reserved":false,"is_disabled":true,"rental_uris":{"android":"levelo://app?vid=bd9c8a2d-504c-4294-b2af-c13eb32e1e20","ios":"levelo://app?vid=bd9c8a2d-504c-4294-b2af-c13eb32e1e20"},"vehicle_type_id":"4","last_reported":1751411434,"current_range_meters":800,"station_id":"ce4bhnp2rcd13ifvqh0g","pricing_plan_id":"cebpf4jnsgd1na2vs0mg"},{"bike_id":"2b79eac2-8d7f-455a-ab7b-57d1965acf5f","system_id":"levelo_inurba_marseille","lat":43.31892,"lon":5.38198,"is_reserved":false,"is_disabled":true,"rental_uris":{"android":"levelo://app?vid=2b79eac2-8d7f-455a-ab7b-57d1965acf5f","ios":"levelo://app?vid=2b79eac2-8d7f-455a-ab7b-57d1965acf5f"},"vehicle_type_id":"4","last_reported":1751411434,"current_range_meters":1200,"station_id":"","pricing_plan_id":"cebpf4jnsgd1na2vs0mg"},{"bike_id":"7547e1e4-2d85-4907-971d-6c8e5c4cb529","system_id":"levelo_inurba_marseille","lat":43.25351,"lon":5.37528,"is_reserved":false,"is_disabled":true,"rental_uris":{"android":"levelo://app?vid=7547e1e4-2d85-4907-971d-6c8e5c4cb529","ios":"levelo://app?vid=7547e1e4-2d85-4907-971d-6c8e5c4cb529"},"vehicle_type_id":"4","last_reported":1751411434,"current_range_meters":1200,"station_id":"","pricing_plan_id":"cebpf4jnsgd1na2vs0mg"},{"bike_id":"cb8e160a-4921-45fe-a5f9-a8132a0c83a6","system_id":"levelo_inurba_marseille","lat":43.31705,"lon":5.3773,"is_reserved":false,"is_disabled":true,"rental_uris":{"android":"levelo://app?vid=cb8e160a-4921-45fe-a5f9-a8132a0c83a6","ios":"levelo://app?vid=cb8e160a-4921-45fe-a5f9-a8132a0c83a6"},"vehicle_type_id":"4","last_reported":1751411434,"current_range_meters":1200,"station_id":"ce4bgth2rcd13ifvqch0","pricing_plan_id":"cebpf4jnsgd1na2vs0mg"},{"bike_id":"dd9a7411-8d6f-4404-8146-106bc7c77574","system_id":"levelo_inurba_marseille","lat":43.28853,"lon":5.39306,"is_reserved":false,"is_disabled":true,"rental_uris":{"android":"levelo://app?vid=dd9a7411-8d6f-4404-8146-106bc7c77574","ios":"levelo://app?vid=dd9a7411-8d6f-4404-8146-106bc7c77574"},"vehicle_type_id":"4","last_reported":1751411434,"current_range_meters":2000,"station_id":"ce4bh2p2rcd13ifvqdi0","pricing_plan_id":"cebpf4jnsgd1na2vs0mg"},{"bike_id":"8308ae53-e0a1-49ca-9148-608d72168524","system_id":"levelo_inurba_marseille","lat":43.28706,"lon":5.37394,"is_reserved":false,"is_disabled":true,"rental_uris":{"android":"levelo://app?vid=8308ae53-e0a1-49ca-9148-608d72168524","ios":"levelo://app?vid=8308ae53-e0a1-49ca-9148-608d72168524"},"vehicle_type_id":"4","last_reported":1751411434,"current_range_meters":2000,"station_id":"ce4bh3p2rcd13ifvqdq0","pricing_plan_id":"cebpf4jnsgd1na2vs0mg"},{"bike_id":"2c1e9593-1449-433a-974c-83d3c8a0f2d1","system_id":"levelo_inurba_marseille","lat":43.28703,"lon":5.37392,"is_reserved":false,"is_disabled":false,"rental_uris":{"android":"levelo://app?vid=2c1e9593-1449-433a-974c-83d3c8a0f2d1","ios":"levelo://app?vid=2c1e9593-1449-433a-974c-83d3c8a0f2d1"},"vehicle_type_id":"4","last_reported":1751411434,"current_range_meters":2800,"station_id":"ce4bh3p2rcd13ifvqdq0","pricing_plan_id":"cebpf4jnsgd1na2vs0mg"},{"bike_id":"897cf961-b80d-4642-b6bb-094974cfb42f","system_id":"levelo_inurba_marseille","lat":43.28442,"lon":5.39181,"is_reserved":false,"is_disabled":false,"rental_uris":{"android":"levelo://app?vid=897cf961-b80d-4642-b6bb-094974cfb42f","ios":"levelo://app?vid=897cf961-b80d-4642-b6bb-094974cfb42f"},"vehicle_type_id":"4","last_reported":1751411434,"current_range_meters":3200,"station_id":"ce4bhoh2rcd13ifvqh5g","pricing_plan_id":"cebpf4jnsgd1na2vs0mg"},{"bike_id":"3db53c49-77e8-4ed4-976d-f90540af92ef","system_id":"levelo_inurba_marseille","lat":43.29789,"lon":5.39343,"is_reserved":false,"is_disabled":false,"rental_uris":{"android":"levelo://app?vid=3db53c49-77e8-4ed4-976d-f90540af92ef","ios":"levelo://app?vid=3db53c49-77e8-4ed4-976d-f90540af92ef"},"vehicle_type_id":"4","last_reported":1751411434,"current_range_meters":3200,"station_id":"chh1huq6cuj3fo74tm60","pricing_plan_id":"cebpf4jnsgd1na2vs0mg"},{"bike_id":"20717010-0a59-4c58-9ada-dfa3894b4c24","system_id":"levelo_inurba_marseille","lat":43.29444,"lon":5.39751,"is_reserved":false,"is_disabled":false,"rental_uris":{"android":"levelo://app?vid=20717010-0a59-4c58-9ada-dfa3894b4c24","ios":"levelo://app?vid=20717010-0a59-4c58-9ada-dfa3894b4c24"},"vehicle_type_id":"4","last_reported":1751411434,"current_range_meters":3600,"station_id":"ce4bh3h2rcd13ifvqdo0","pricing_plan_id":"cebpf4jnsgd1na2vs0mg"},{"bike_id":"162af4e6-d224-4240-aeac-6cb0ae06de53","system_id":"levelo_inurba_marseille","lat":43.29896,"lon":5.37835,"is_reserved":false,"is_disabled":false,"rental_uris":{"android":"levelo://app?vid=162af4e6-d224-4240-aeac-6cb0ae06de53","ios":"levelo://app?vid=162af4e6-d224-4240-aeac-6cb0ae06de53"},"vehicle_type_id":"4","last_reported":1751411434,"current_range_meters":4000,"station_id":"","pricing_plan_id":"cebpf4jnsgd1na2vs0mg"},{"bike_id":"0d98ccc4-b803-4dd0-9995-a19595e0cef9","system_id":"levelo_inurba_marseille","lat":43.29528,"lon":5.38532,"is_reserved":false,"is_disabled":false,"rental_uris":{"android":"levelo://app?vid=0d98ccc4-b803-4dd0-9995-a19595e0cef9","ios":"levelo://app?vid=0d98ccc4-b803-4dd0-9995-a19595e0cef9"},"vehicle_type_id":"4","last_reported":1751411434,"current_range_meters":4000,"station_id":"ce4bgih2rcd13ifvqba0","pricing_plan_id":"cebpf4jnsgd1na2vs0mg"},{"bike_id":"21e2c51d-4563-4efd-afbf-0ddeff93c862","system_id":"levelo_inurba_marseille","lat":43.21749,"lon":5.34605,"is_reserved":false,"is_disabled":false,"rental_uris":{"android":"levelo://app?vid=21e2c51d-4563-4efd-afbf-0ddeff93c862","ios":"levelo://app?vid=21e2c51d-4563-4efd-afbf-0ddeff93c862"},"vehicle_type_id":"4","last_reported":1751411434,"current_range_meters":4800,"station_id":"st_cvj6r9ubvosntc0bgbag","pricing_plan_id":"cebpf4jnsgd1na2vs0mg"},{"bike_id":"8bab2861-4486-4d51-959a-b2430879f72d","system_id":"levelo_inurba_marseille","lat":43.30585,"lon":5.37248,"is_reserved":false,"is_disabled":false,"rental_uris":{"android":"levelo://app?vid=8bab2861-4486-4d51-959a-b2430879f72d","ios":"levelo://app?vid=8bab2861-4486-4d51-959a-b2430879f72d"},"vehicle_type_id":"4","last_reported":1751411434,"current_range_meters":5600,"station_id":"ce4bgqh2rcd13ifvqc4g","pricing_plan_id":"cebpf4jnsgd1na2vs0mg"},{"bike_id":"8f2348e4-d693-4a50-8d06-cb524bbf1a8f","system_id":"levelo_inurba_marseille","lat":43.295303,"lon":5.390489,"is_reserved":false,"is_disabled":false,"rental_uris":{"android":"levelo://app?vid=8f2348e4-d693-4a50-8d06-cb524bbf1a8f","ios":"levelo://app?vid=8f2348e4-d693-4a50-8d06-cb524bbf1a8f"},"vehicle_type_id":"4","last_reported":1751411434,"current_range_meters":6000,"station_id":"ce4bh3p2rcd13ifvqdp0","pricing_plan_id":"cebpf4jnsgd1na2vs0mg"},{"bike_id":"5df883ee-e31d-484c-a69e-99c57e05c372","system_id":"levelo_inurba_marseille","lat":43.31705,"lon":5.43703,"is_reserved":false,"is_disabled":false,"rental_uris":{"android":"levelo://app?vid=5df883ee-e31d-484c-a69e-99c57e05c372","ios":"levelo://app?vid=5df883ee-e31d-484c-a69e-99c57e05c372"},"vehicle_type_id":"4","last_reported":1751411434,"current_range_meters":6000,"station_id":"ce4bhp92rcd13ifvqhcg","pricing_plan_id":"cebpf4jnsgd1na2vs0mg"},{"bike_id":"43fcb430-53f7-4349-b49c-62f8e6ea8db4","system_id":"levelo_inurba_marseille","lat":43.2845,"lon":5.43703,"is_reserved":false,"is_disabled":false,"rental_uris":{"android":"levelo://app?vid=43fcb430-53f7-4349-b49c-62f8e6ea8db4","ios":"levelo://app?vid=43fcb430-53f7-4349-b49c-62f8e6ea8db4"},"vehicle_type_id":"4","last_reported":1751411434,"current_range_meters":6400,"station_id":"","pricing_plan_id":"cebpf4jnsgd1na2vs0mg"},{"bike_id":"820f4298-f57a-4b9c-b396-8d7e0e851e0b","system_id":"levelo_inurba_marseille","lat":43.29969,"lon":5.37179,"is_reserved":false,"is_disabled":false,"rental_uris":{"android":"levelo://app?vid=820f4298-f57a-4b9c-b396-8d7e0e851e0b","ios":"levelo://app?vid=820f4298-f57a-4b9c-b396-8d7e0e851e0b"},"vehicle_type_id":"4","last_reported":1751411434,"current_range_meters":6400,"station_id":"ce4bgr92rcd13ifvqc7g","pricing_plan_id":"cebpf4jnsgd1na2vs0mg"},{"bike_id":"0ff038a3-9af1-400b-9196-c6a285a5f5d1","system_id":"levelo_inurba_marseille","lat":43.31062,"lon":5.38359,"is_reserved":false,"is_disabled":false,"rental_uris":{"android":"levelo://app?vid=0ff038a3-9af1-400b-9196-c6a285a5f5d1","ios":"levelo://app?vid=0ff038a3-9af1-400b-9196-c6a285a5f5d1"},"vehicle_type_id":"4","last_reported":1751411434,"current_range_meters":6400,"station_id":"ce4bgv92rcd13ifvqcr0","pricing_plan_id":"cebpf4jnsgd1na2vs0mg"},{"bike_id":"a2017121-8342-439c-9853-789b6ff0806f","system_id":"levelo_inurba_marseille","lat":43.21191,"lon":5.350709,"is_reserved":false,"is_disabled":false,"rental_uris":{"android":"levelo://app?vid=a2017121-8342-439c-9853-789b6ff0806f","ios":"levelo://app?vid=a2017121-8342-439c-9853-789b6ff0806f"},"vehicle_type_id":"4","last_reported":1751411434,"current_range_meters":6400,"station_id":"st_cvj6sg6p6f1abm77japg","pricing_plan_id":"cebpf4jnsgd1na2vs0mg"},{"bike_id":"13100f5f-44ca-4e5c-b956-a2edff3bc702","system_id":"levelo_inurba_marseille","lat":43.30807,"lon":5.38155,"is_reserved":false,"is_disabled":false,"rental_uris":{"android":"levelo://app?vid=13100f5f-44ca-4e5c-b956-a2edff3bc702","ios":"levelo://app?vid=13100f5f-44ca-4e5c-b956-a2edff3bc702"},"vehicle_type_id":"4","last_reported":1751411434,"current_range_meters":6800,"station_id":"ce4bgt12rcd13ifvqce0","pricing_plan_id":"cebpf4jnsgd1na2vs0mg"},{"bike_id":"5683d2b4-d960-4ce6-8162-df1a4f7e1426","system_id":"levelo_inurba_marseille","lat":43.31069,"lon":5.38355,"is_reserved":false,"is_disabled":false,"rental_uris":{"android":"levelo://app?vid=5683d2b4-d960-4ce6-8162-df1a4f7e1426","ios":"levelo://app?vid=5683d2b4-d960-4ce6-8162-df1a4f7e1426"},"vehicle_type_id":"4","last_reported":1751411434,"current_range_meters":7200,"station_id":"ce4bgv92rcd13ifvqcr0","pricing_plan_id":"cebpf4jnsgd1na2vs0mg"},{"bike_id":"5bc5f9f6-5a82-4593-ac99-4e05bb27524f","system_id":"levelo_inurba_marseille","lat":43.29261,"lon":5.36859,"is_reserved":false,"is_disabled":false,"rental_uris":{"android":"levelo://app?vid=5bc5f9f6-5a82-4593-ac99-4e05bb27524f","ios":"levelo://app?vid=5bc5f9f6-5a82-4593-ac99-4e05bb27524f"},"vehicle_type_id":"4","last_reported":1751411434,"current_range_meters":7200,"station_id":"ce4bhbp2rcd13ifvqesg","pricing_plan_id":"cebpf4jnsgd1na2vs0mg"},{"bike_id":"2355fb7c-c79a-4316-ba9e-f48fa3d1f785","system_id":"levelo_inurba_marseille","lat":43.28736,"lon":5.39971,"is_reserved":false,"is_disabled":false,"rental_uris":{"android":"levelo://app?vid=2355fb7c-c79a-4316-ba9e-f48fa3d1f785","ios":"levelo://app?vid=2355fb7c-c79a-4316-ba9e-f48fa3d1f785"},"vehicle_type_id":"4","last_reported":1751411434,"current_range_meters":7200,"station_id":"ce4bho92rcd13ifvqh3g","pricing_plan_id":"cebpf4jnsgd1na2vs0mg"},{"bike_id":"8c47896b-a302-4eea-a61d-6b228147aeac","system_id":"levelo_inurba_marseille","lat":43.31717,"lon":5.43713,"is_reserved":false,"is_disabled":false,"rental_uris":{"android":"levelo://app?vid=8c47896b-a302-4eea-a61d-6b228147aeac","ios":"levelo://app?vid=8c47896b-a302-4eea-a61d-6b228147aeac"},"vehicle_type_id":"4","last_reported":1751411434,"current_range_meters":7200,"station_id":"ce4bhp92rcd13ifvqhcg","pricing_plan_id":"cebpf4jnsgd1na2vs0mg"},{"bike_id":"da3b3e8f-1c4d-4aed-8fe8-c7d5d5f45310","system_id":"levelo_inurba_marseille","lat":43.3043,"lon":5.38895,"is_reserved":false,"is_disabled":false,"rental_uris":{"android":"levelo://app?vid=da3b3e8f-1c4d-4aed-8fe8-c7d5d5f45310","ios":"levelo://app?vid=da3b3e8f-1c4d-4aed-8fe8-c7d5d5f45310"},"vehicle_type_id":"4","last_reported":1751411434,"current_range_meters":8000,"station_id":"ce4bgk12rcd13ifvqbi0","pricing_plan_id":"cebpf4jnsgd1na2vs0mg"},{"bike_id":"552e034f-8972-478a-8d8b-5e6857aee11b","system_id":"levelo_inurba_marseille","lat":43.302118,"lon":5.39469,"is_reserved":false,"is_disabled":false,"rental_uris":{"android":"levelo://app?vid=552e034f-8972-478a-8d8b-5e6857aee11b","ios":"levelo://app?vid=552e034f-8972-478a-8d8b-5e6857aee11b"},"vehicle_type_id":"4","last_reported":1751411434,"current_range_meters":8000,"station_id":"ce4bh0p2rcd13ifvqd70","pricing_plan_id":"cebpf4jnsgd1na2vs0mg"},{"bike_id":"58e8b1e0-da6c-4e3d-a9b0-d1e850a6b512","system_id":"levelo_inurba_marseille","lat":43.32344,"lon":5.38892,"is_reserved":false,"is_disabled":false,"rental_uris":{"android":"levelo://app?vid=58e8b1e0-da6c-4e3d-a9b0-d1e850a6b512","ios":"levelo://app?vid=58e8b1e0-da6c-4e3d-a9b0-d1e850a6b512"},"vehicle_type_id":"4","last_reported":1751411434,"current_range_meters":8000,"station_id":"ce4bhqp2rcd13ifvqhog","pricing_plan_id":"cebpf4jnsgd1na2vs0mg"},{"bike_id":"8252b44a-d048-4379-9209-2efa2e627825","system_id":"levelo_inurba_marseille","lat":43.292375,"lon":5.405676,"is_reserved":false,"is_disabled":false,"rental_uris":{"android":"levelo://app?vid=8252b44a-d048-4379-9209-2efa2e627825","ios":"levelo://app?vid=8252b44a-d048-4379-9209-2efa2e627825"},"vehicle_type_id":"4","last_reported":1751411434,"current_range_meters":8400,"station_id":"","pricing_plan_id":"cebpf4jnsgd1na2vs0mg"},{"bike_id":"d404f5cb-192e-40dc-b4e9-e0c2a7daffa2","system_id":"levelo_inurba_marseille","lat":43.314866,"lon":5.37305,"is_reserved":false,"is_disabled":false,"rental_uris":{"android":"levelo://app?vid=d404f5cb-192e-40dc-b4e9-e0c2a7daffa2","ios":"levelo://app?vid=d404f5cb-192e-40dc-b4e9-e0c2a7daffa2"},"vehicle_type_id":"4","last_reported":1751411434,"current_range_meters":8400,"station_id":"ce4bgt12rcd13ifvqcd0","pricing_plan_id":"cebpf4jnsgd1na2vs0mg"},{"bike_id":"340c8daf-c3be-4ff1-a6a2-eb168dbe8179","system_id":"levelo_inurba_marseille","lat":43.28344,"lon":5.38108,"is_reserved":false,"is_disabled":false,"rental_uris":{"android":"levelo://app?vid=340c8daf-c3be-4ff1-a6a2-eb168dbe8179","ios":"levelo://app?vid=340c8daf-c3be-4ff1-a6a2-eb168dbe8179"},"vehicle_type_id":"4","last_reported":1751411434,"current_range_meters":8400,"station_id":"ce4bh412rcd13ifvqdr0","pricing_plan_id":"cebpf4jnsgd1na2vs0mg"},{"bike_id":"11ed509f-a702-4a66-85c0-7dd63b4bd328","system_id":"levelo_inurba_marseille","lat":43.28684,"lon":5.38669,"is_reserved":false,"is_disabled":false,"rental_uris":{"android":"levelo://app?vid=11ed509f-a702-4a66-85c0-7dd63b4bd328","ios":"levelo://app?vid=11ed509f-a702-4a66-85c0-7dd63b4bd328"},"vehicle_type_id":"4","last_reported":1751411434,"current_range_meters":8400,"station_id":"ce4bh492rcd13ifvqdug","pricing_plan_id":"cebpf4jnsgd1na2vs0mg"},{"bike_id":"f7258756-b714-46b7-8008-2311b56664b3","system_id":"levelo_inurba_marseille","lat":43.326488,"lon":5.409938,"is_reserved":false,"is_disabled":false,"rental_uris":{"android":"levelo://app?vid=f7258756-b714-46b7-8008-2311b56664b3","ios":"levelo://app?vid=f7258756-b714-46b7-8008-2311b56664b3"},"vehicle_type_id":"4","last_reported":1751411434,"current_range_meters":8400,"station_id":"ce4bhpp2rcd13ifvqhgg","pricing_plan_id":"cebpf4jnsgd1na2vs0mg"},{"bike_id":"e3ff2741-2c53-4741-96b7-d2ff3c39c0e2","system_id":"levelo_inurba_marseille","lat":43.30783,"lon":5.37641,"is_reserved":false,"is_disabled":false,"rental_uris":{"android":"levelo://app?vid=e3ff2741-2c53-4741-96b7-d2ff3c39c0e2","ios":"levelo://app?vid=e3ff2741-2c53-4741-96b7-d2ff3c39c0e2"},"vehicle_type_id":"4","last_reported":1751411434,"current_range_meters":8800,"station_id":"ce4bgv92rcd13ifvqcq0","pricing_plan_id":"cebpf4jnsgd1na2vs0mg"},{"bike_id":"edcfcca9-b57e-4199-9368-81e93ed01b2e","system_id":"levelo_inurba_marseille","lat":43.28408,"lon":5.37531,"is_reserved":false,"is_disabled":false,"rental_uris":{"android":"levelo://app?vid=edcfcca9-b57e-4199-9368-81e93ed01b2e","ios":"levelo://app?vid=edcfcca9-b57e-4199-9368-81e93ed01b2e"},"vehicle_type_id":"4","last_reported":1751411434,"current_range_meters":8800,"station_id":"ce4bh412rcd13ifvqds0","pricing_plan_id":"cebpf4jnsgd1na2vs0mg"},{"bike_id":"83015633-1b29-4bf9-9024-4fe2ee97954a","system_id":"levelo_inurba_marseille","lat":43.32349,"lon":5.38876,"is_reserved":false,"is_disabled":false,"rental_uris":{"android":"levelo://app?vid=83015633-1b29-4bf9-9024-4fe2ee97954a","ios":"levelo://app?vid=83015633-1b29-4bf9-9024-4fe2ee97954a"},"vehicle_type_id":"4","last_reported":1751411434,"current_range_meters":8800,"station_id":"ce4bhqp2rcd13ifvqhog","pricing_plan_id":"cebpf4jnsgd1na2vs0mg"},{"bike_id":"28477ccc-cb48-44f2-8ac3-dc21d395da4f","system_id":"levelo_inurba_marseille","lat":43.22739,"lon":5.36575,"is_reserved":false,"is_disabled":false,"rental_uris":{"android":"levelo://app?vid=28477ccc-cb48-44f2-8ac3-dc21d395da4f","ios":"levelo://app?vid=28477ccc-cb48-44f2-8ac3-dc21d395da4f"},"vehicle_type_id":"4","last_reported":1751411434,"current_range_meters":9200,"station_id":"","pricing_plan_id":"cebpf4jnsgd1na2vs0mg"},{"bike_id":"fd658628-a052-4578-ab3d-afa4e524d5dd","system_id":"levelo_inurba_marseille","lat":43.31071,"lon":5.38352,"is_reserved":false,"is_disabled":false,"rental_uris":{"android":"levelo://app?vid=fd658628-a052-4578-ab3d-afa4e524d5dd","ios":"levelo://app?vid=fd658628-a052-4578-ab3d-afa4e524d5dd"},"vehicle_type_id":"4","last_reported":1751411434,"current_range_meters":9200,"station_id":"ce4bgv92rcd13ifvqcr0","pricing_plan_id":"cebpf4jnsgd1na2vs0mg"},{"bike_id":"58b71408-f898-419b-889f-04fdbb4fb40c","system_id":"levelo_inurba_marseille","lat":43.30253,"lon":5.40094,"is_reserved":false,"is_disabled":false,"rental_uris":{"android":"levelo://app?vid=58b71408-f898-419b-889f-04fdbb4fb40c","ios":"levelo://app?vid=58b71408-f898-419b-889f-04fdbb4fb40c"},"vehicle_type_id":"4","last_reported":1751411434,"current_range_meters":9200,"station_id":"ce4bgvh2rcd13ifvqcs0","pricing_plan_id":"cebpf4jnsgd1na2vs0mg"},{"bike_id":"b2ec7371-4e1a-4f7b-ae6c-60c5a54c237b","system_id":"levelo_inurba_marseille","lat":43.211902,"lon":5.350692,"is_reserved":false,"is_disabled":false,"rental_uris":{"android":"levelo://app?vid=b2ec7371-4e1a-4f7b-ae6c-60c5a54c237b","ios":"levelo://app?vid=b2ec7371-4e1a-4f7b-ae6c-60c5a54c237b"},"vehicle_type_id":"4","last_reported":1751411434,"current_range_meters":9200,"station_id":"st_cvj6sg6p6f1abm77japg","pricing_plan_id":"cebpf4jnsgd1na2vs0mg"},{"bike_id":"c0d83e2b-ec48-4547-9efe-585cfde24f4a","system_id":"levelo_inurba_marseille","lat":43.31065,"lon":5.38376,"is_reserved":false,"is_disabled":false,"rental_uris":{"android":"levelo://app?vid=c0d83e2b-ec48-4547-9efe-585cfde24f4a","ios":"levelo://app?vid=c0d83e2b-ec48-4547-9efe-585cfde24f4a"},"vehicle_type_id":"4","last_reported":1751411434,"current_range_meters":9600,"station_id":"ce4bgv92rcd13ifvqcr0","pricing_plan_id":"cebpf4jnsgd1na2vs0mg"},{"bike_id":"3b96e17f-ffc3-420b-b29c-f5e29ec6a474","system_id":"levelo_inurba_marseille","lat":43.306439,"lon":5.40098,"is_reserved":false,"is_disabled":false,"rental_uris":{"android":"levelo://app?vid=3b96e17f-ffc3-420b-b29c-f5e29ec6a474","ios":"levelo://app?vid=3b96e17f-ffc3-420b-b29c-f5e29ec6a474"},"vehicle_type_id":"4","last_reported":1751411434,"current_range_meters":10000,"station_id":"ce4bh112rcd13ifvqda0","pricing_plan_id":"cebpf4jnsgd1na2vs0mg"},{"bike_id":"68dd4e09-533f-4a33-af06-1c3830142cb9","system_id":"levelo_inurba_marseille","lat":43.29244,"lon":5.40908,"is_reserved":false,"is_disabled":false,"rental_uris":{"android":"levelo://app?vid=68dd4e09-533f-4a33-af06-1c3830142cb9","ios":"levelo://app?vid=68dd4e09-533f-4a33-af06-1c3830142cb9"},"vehicle_type_id":"4","last_reported":1751411434,"current_range_meters":10000,"station_id":"ce4bh192rcd13ifvqdc0","pricing_plan_id":"cebpf4jnsgd1na2vs0mg"},{"bike_id":"88af6ad9-894d-4c01-8547-9ffe7560e668","system_id":"levelo_inurba_marseille","lat":43.29274,"lon":5.40148,"is_reserved":false,"is_disabled":false,"rental_uris":{"android":"levelo://app?vid=88af6ad9-894d-4c01-8547-9ffe7560e668","ios":"levelo://app?vid=88af6ad9-894d-4c01-8547-9ffe7560e668"},"vehicle_type_id":"4","last_reported":1751411434,"current_range_meters":10000,"station_id":"ce4bh312rcd13ifvqdk0","pricing_plan_id":"cebpf4jnsgd1na2vs0mg"},{"bike_id":"61b5725b-2795-41d7-a558-c6ef5a5cb351","system_id":"levelo_inurba_marseille","lat":43.28714,"lon":5.39974,"is_reserved":false,"is_disabled":false,"rental_uris":{"android":"levelo://app?vid=61b5725b-2795-41d7-a558-c6ef5a5cb351","ios":"levelo://app?vid=61b5725b-2795-41d7-a558-c6ef5a5cb351"},"vehicle_type_id":"4","last_reported":1751411434,"current_range_meters":10000,"station_id":"ce4bho92rcd13ifvqh3g","pricing_plan_id":"cebpf4jnsgd1na2vs0mg"},{"bike_id":"2726f14f-8d32-4e17-9b3e-62cc809675e1","system_id":"levelo_inurba_marseille","lat":43.32113,"lon":5.36768,"is_reserved":false,"is_disabled":false,"rental_uris":{"android":"levelo://app?vid=2726f14f-8d32-4e17-9b3e-62cc809675e1","ios":"levelo://app?vid=2726f14f-8d32-4e17-9b3e-62cc809675e1"},"vehicle_type_id":"4","last_reported":1751411434,"current_range_meters":10000,"station_id":"ce4bhrh2rcd13ifvqhug","pricing_plan_id":"cebpf4jnsgd1na2vs0mg"},{"bike_id":"b28aa0a0-791c-4a08-9a16-c7bf6ea0ed5a","system_id":"levelo_inurba_marseille","lat":43.22509,"lon":5.34772,"is_reserved":false,"is_disabled":false,"rental_uris":{"android":"levelo://app?vid=b28aa0a0-791c-4a08-9a16-c7bf6ea0ed5a","ios":"levelo://app?vid=b28aa0a0-791c-4a08-9a16-c7bf6ea0ed5a"},"vehicle_type_id":"4","last_reported":1751411434,"current_range_meters":10000,"station_id":"st_cvj5dfep6f1abm77gieg","pricing_plan_id":"cebpf4jnsgd1na2vs0mg"},{"bike_id":"e74a06ec-710c-47ea-bc8c-a4f33c04bf8f","system_id":"levelo_inurba_marseille","lat":43.304318,"lon":5.388874,"is_reserved":false,"is_disabled":false,"rental_uris":{"android":"levelo://app?vid=e74a06ec-710c-47ea-bc8c-a4f33c04bf8f","ios":"levelo://app?vid=e74a06ec-710c-47ea-bc8c-a4f33c04bf8f"},"vehicle_type_id":"4","last_reported":1751411434,"current_range_meters":10800,"station_id":"ce4bgk12rcd13ifvqbi0","pricing_plan_id":"cebpf4jnsgd1na2vs0mg"},{"bike_id":"05ae8623-fe79-491a-b166-90b5eb60d3c1","system_id":"levelo_inurba_marseille","lat":43.30606,"lon":5.37226,"is_reserved":false,"is_disabled":false,"rental_uris":{"android":"levelo://app?vid=05ae8623-fe79-491a-b166-90b5eb60d3c1","ios":"levelo://app?vid=05ae8623-fe79-491a-b166-90b5eb60d3c1"},"vehicle_type_id":"4","last_reported":1751411434,"current_range_meters":10800,"station_id":"ce4bgqh2rcd13ifvqc4g","pricing_plan_id":"cebpf4jnsgd1na2vs0mg"},{"bike_id":"c2b72fe0-bae6-4c7b-ad48-9e771b203dc8","system_id":"levelo_inurba_marseille","lat":43.313592,"lon":5.384492,"is_reserved":false,"is_disabled":false,"rental_uris":{"android":"levelo://app?vid=c2b72fe0-bae6-4c7b-ad48-9e771b203dc8","ios":"levelo://app?vid=c2b72fe0-bae6-4c7b-ad48-9e771b203dc8"},"vehicle_type_id":"4","last_reported":1751411434,"current_range_meters":10800,"station_id":"ce4bgt92rcd13ifvqcf0","pricing_plan_id":"cebpf4jnsgd1na2vs0mg"},{"bike_id":"974fbe3d-8c91-465e-8b62-f2388a60ae3c","system_id":"levelo_inurba_marseille","lat":43.28389,"lon":5.37533,"is_reserved":false,"is_disabled":false,"rental_uris":{"android":"levelo://app?vid=974fbe3d-8c91-465e-8b62-f2388a60ae3c","ios":"levelo://app?vid=974fbe3d-8c91-465e-8b62-f2388a60ae3c"},"vehicle_type_id":"4","last_reported":1751411434,"current_range_meters":10800,"station_id":"ce4bh412rcd13ifvqds0","pricing_plan_id":"cebpf4jnsgd1na2vs0mg"},{"bike_id":"58f5c2cb-ee10-44f3-86b3-626487e61292","system_id":"levelo_inurba_marseille","lat":43.2846,"lon":5.35887,"is_reserved":false,"is_disabled":false,"rental_uris":{"android":"levelo://app?vid=58f5c2cb-ee10-44f3-86b3-626487e61292","ios":"levelo://app?vid=58f5c2cb-ee10-44f3-86b3-626487e61292"},"vehicle_type_id":"4","last_reported":1751411434,"current_range_meters":10800,"station_id":"ce4bhah2rcd13ifvqei0","pricing_plan_id":"cebpf4jnsgd1na2vs0mg"},{"bike_id":"f84f0996-d676-4748-9790-2a047c10d82b","system_id":"levelo_inurba_marseille","lat":43.27805,"lon":5.40716,"is_reserved":false,"is_disabled":false,"rental_uris":{"android":"levelo://app?vid=f84f0996-d676-4748-9790-2a047c10d82b","ios":"levelo://app?vid=f84f0996-d676-4748-9790-2a047c10d82b"},"vehicle_type_id":"4","last_reported":1751411434,"current_range_meters":10800,"station_id":"ce4bhnh2rcd13ifvqgtg","pricing_plan_id":"cebpf4jnsgd1na2vs0mg"},{"bike_id":"e9725332-88e4-4b1f-93f0-834e5871467a","system_id":"levelo_inurba_marseille","lat":43.27945,"lon":5.4104,"is_reserved":false,"is_disabled":false,"rental_uris":{"android":"levelo://app?vid=e9725332-88e4-4b1f-93f0-834e5871467a","ios":"levelo://app?vid=e9725332-88e4-4b1f-93f0-834e5871467a"},"vehicle_type_id":"4","last_reported":1751411434,"current_range_meters":10800,"station_id":"ce4bhnp2rcd13ifvqh0g","pricing_plan_id":"cebpf4jnsgd1na2vs0mg"},{"bike_id":"30f52f63-f5b3-45f3-bd4e-755a730a4772","system_id":"levelo_inurba_marseille","lat":43.287,"lon":5.39982,"is_reserved":false,"is_disabled":false,"rental_uris":{"android":"levelo://app?vid=30f52f63-f5b3-45f3-bd4e-755a730a4772","ios":"levelo://app?vid=30f52f63-f5b3-45f3-bd4e-755a730a4772"},"vehicle_type_id":"4","last_reported":1751411434,"current_range_meters":10800,"station_id":"ce4bho92rcd13ifvqh3g","pricing_plan_id":"cebpf4jnsgd1na2vs0mg"},{"bike_id":"8f10a9ab-b2d1-48a1-84c5-75424f1b18f7","system_id":"levelo_inurba_marseille","lat":43.211895,"lon":5.350738,"is_reserved":false,"is_disabled":false,"rental_uris":{"android":"levelo://app?vid=8f10a9ab-b2d1-48a1-84c5-75424f1b18f7","ios":"levelo://app?vid=8f10a9ab-b2d1-48a1-84c5-75424f1b18f7"},"vehicle_type_id":"4","last_reported":1751411434,"current_range_meters":10800,"station_id":"st_cvj6sg6p6f1abm77japg","pricing_plan_id":"cebpf4jnsgd1na2vs0mg"},{"bike_id":"3d64f2b6-68f4-4b5e-b336-121bc5116e11","system_id":"levelo_inurba_marseille","lat":43.30935,"lon":5.40152,"is_reserved":false,"is_disabled":false,"rental_uris":{"android":"levelo://app?vid=3d64f2b6-68f4-4b5e-b336-121bc5116e11","ios":"levelo://app?vid=3d64f2b6-68f4-4b5e-b336-121bc5116e11"},"vehicle_type_id":"4","last_reported":1751411434,"current_range_meters":11200,"station_id":"ce4bgvp2rcd13ifvqct0","pricing_plan_id":"cebpf4jnsgd1na2vs0mg"},{"bike_id":"20055cde-d200-407b-bc08-2ab506b76db1","system_id":"levelo_inurba_marseille","lat":43.30211,"lon":5.39479,"is_reserved":false,"is_disabled":false,"rental_uris":{"android":"levelo://app?vid=20055cde-d200-407b-bc08-2ab506b76db1","ios":"levelo://app?vid=20055cde-d200-407b-bc08-2ab506b76db1"},"vehicle_type_id":"4","last_reported":1751411434,"current_range_meters":11200,"station_id":"ce4bh0p2rcd13ifvqd70","pricing_plan_id":"cebpf4jnsgd1na2vs0mg"},{"bike_id":"1bf55e84-ea98-40db-bdcd-49fd06c95f55","system_id":"levelo_inurba_marseille","lat":43.29037,"lon":5.39955,"is_reserved":false,"is_disabled":false,"rental_uris":{"android":"levelo://app?vid=1bf55e84-ea98-40db-bdcd-49fd06c95f55","ios":"levelo://app?vid=1bf55e84-ea98-40db-bdcd-49fd06c95f55"},"vehicle_type_id":"4","last_reported":1751411434,"current_range_meters":11200,"station_id":"ce4bh392rcd13ifvqdm0","pricing_plan_id":"cebpf4jnsgd1na2vs0mg"},{"bike_id":"34ef8d19-abd3-418b-af23-9942dadb071a","system_id":"levelo_inurba_marseille","lat":43.21186,"lon":5.35091,"is_reserved":false,"is_disabled":false,"rental_uris":{"android":"levelo://app?vid=34ef8d19-abd3-418b-af23-9942dadb071a","ios":"levelo://app?vid=34ef8d19-abd3-418b-af23-9942dadb071a"},"vehicle_type_id":"4","last_reported":1751411434,"current_range_meters":11200,"station_id":"st_cvj6sg6p6f1abm77japg","pricing_plan_id":"cebpf4jnsgd1na2vs0mg"},{"bike_id":"2e9532de-711e-4617-9d7f-485a71e4a6dd","system_id":"levelo_inurba_marseille","lat":43.31325,"lon":5.39696,"is_reserved":false,"is_disabled":false,"rental_uris":{"android":"levelo://app?vid=2e9532de-711e-4617-9d7f-485a71e4a6dd","ios":"levelo://app?vid=2e9532de-711e-4617-9d7f-485a71e4a6dd"},"vehicle_type_id":"4","last_reported":1751411434,"current_range_meters":11600,"station_id":"ce4bgvp2rcd13ifvqcu0","pricing_plan_id":"cebpf4jnsgd1na2vs0mg"},{"bike_id":"88f696cf-89bd-4347-944f-7ee948008b48","system_id":"levelo_inurba_marseille","lat":43.28352,"lon":5.38108,"is_reserved":false,"is_disabled":false,"rental_uris":{"android":"levelo://app?vid=88f696cf-89bd-4347-944f-7ee948008b48","ios":"levelo://app?vid=88f696cf-89bd-4347-944f-7ee948008b48"},"vehicle_type_id":"4","last_reported":1751411434,"current_range_meters":11600,"station_id":"ce4bh412rcd13ifvqdr0","pricing_plan_id":"cebpf4jnsgd1na2vs0mg"},{"bike_id":"8686853f-4c76-42d4-853a-8b0762870909","system_id":"levelo_inurba_marseille","lat":43.28708,"lon":5.39973,"is_reserved":false,"is_disabled":false,"rental_uris":{"android":"levelo://app?vid=8686853f-4c76-42d4-853a-8b0762870909","ios":"levelo://app?vid=8686853f-4c76-42d4-853a-8b0762870909"},"vehicle_type_id":"4","last_reported":1751411434,"current_range_meters":11600,"station_id":"ce4bho92rcd13ifvqh3g","pricing_plan_id":"cebpf4jnsgd1na2vs0mg"},{"bike_id":"c0228700-5312-4a39-89af-ec53a5d729c5","system_id":"levelo_inurba_marseille","lat":43.28296,"lon":5.43265,"is_reserved":false,"is_disabled":false,"rental_uris":{"android":"levelo://app?vid=c0228700-5312-4a39-89af-ec53a5d729c5","ios":"levelo://app?vid=c0228700-5312-4a39-89af-ec53a5d729c5"},"vehicle_type_id":"4","last_reported":1751411434,"current_range_meters":12000,"station_id":"","pricing_plan_id":"cebpf4jnsgd1na2vs0mg"},{"bike_id":"0972ad3b-5543-4d36-8cd8-e19d9c553fe7","system_id":"levelo_inurba_marseille","lat":43.30873,"lon":5.3965,"is_reserved":false,"is_disabled":false,"rental_uris":{"android":"levelo://app?vid=0972ad3b-5543-4d36-8cd8-e19d9c553fe7","ios":"levelo://app?vid=0972ad3b-5543-4d36-8cd8-e19d9c553fe7"},"vehicle_type_id":"4","last_reported":1751411434,"current_range_meters":12000,"station_id":"ce4bh012rcd13ifvqcv0","pricing_plan_id":"cebpf4jnsgd1na2vs0mg"},{"bike_id":"a0ffdf28-d659-45dc-b870-b2d591eeef83","system_id":"levelo_inurba_marseille","lat":43.25736,"lon":5.41102,"is_reserved":false,"is_disabled":false,"rental_uris":{"android":"levelo://app?vid=a0ffdf28-d659-45dc-b870-b2d591eeef83","ios":"levelo://app?vid=a0ffdf28-d659-45dc-b870-b2d591eeef83"},"vehicle_type_id":"4","last_reported":1751411434,"current_range_meters":12000,"station_id":"ce4bhkp2rcd13ifvqgd0","pricing_plan_id":"cebpf4jnsgd1na2vs0mg"},{"bike_id":"1b65b4b7-b4c8-4161-a7c2-18f9827565bf","system_id":"levelo_inurba_marseille","lat":43.30347,"lon":5.41866,"is_reserved":false,"is_disabled":false,"rental_uris":{"android":"levelo://app?vid=1b65b4b7-b4c8-4161-a7c2-18f9827565bf","ios":"levelo://app?vid=1b65b4b7-b4c8-4161-a7c2-18f9827565bf"},"vehicle_type_id":"4","last_reported":1751411434,"current_range_meters":12000,"station_id":"ce4bhop2rcd13ifvqh7g","pricing_plan_id":"cebpf4jnsgd1na2vs0mg"},{"bike_id":"c61036a9-1a66-4480-8bd4-cd2fb585b287","system_id":"levelo_inurba_marseille","lat":43.26961,"lon":5.40588,"is_reserved":false,"is_disabled":false,"rental_uris":{"android":"levelo://app?vid=c61036a9-1a66-4480-8bd4-cd2fb585b287","ios":"levelo://app?vid=c61036a9-1a66-4480-8bd4-cd2fb585b287"},"vehicle_type_id":"4","last_reported":1751411434,"current_range_meters":12400,"station_id":"","pricing_plan_id":"cebpf4jnsgd1na2vs0mg"},{"bike_id":"9d5f8745-b764-403f-8ea5-b25ec6baf50d","system_id":"levelo_inurba_marseille","lat":43.304261,"lon":5.388893,"is_reserved":false,"is_disabled":false,"rental_uris":{"android":"levelo://app?vid=9d5f8745-b764-403f-8ea5-b25ec6baf50d","ios":"levelo://app?vid=9d5f8745-b764-403f-8ea5-b25ec6baf50d"},"vehicle_type_id":"4","last_reported":1751411434,"current_range_meters":12400,"station_id":"ce4bgih2rcd13ifvqba0","pricing_plan_id":"cebpf4jnsgd1na2vs0mg"},{"bike_id":"fdceec57-221c-4f8e-8651-0d216b4f5dc7","system_id":"levelo_inurba_marseille","lat":43.31715,"lon":5.37733,"is_reserved":false,"is_disabled":false,"rental_uris":{"android":"levelo://app?vid=fdceec57-221c-4f8e-8651-0d216b4f5dc7","ios":"levelo://app?vid=fdceec57-221c-4f8e-8651-0d216b4f5dc7"},"vehicle_type_id":"4","last_reported":1751411434,"current_range_meters":12400,"station_id":"ce4bgth2rcd13ifvqch0","pricing_plan_id":"cebpf4jnsgd1na2vs0mg"},{"bike_id":"146ed2c8-b209-4879-9f30-c930f1862c7a","system_id":"levelo_inurba_marseille","lat":43.29423,"lon":5.3978,"is_reserved":false,"is_disabled":false,"rental_uris":{"android":"levelo://app?vid=146ed2c8-b209-4879-9f30-c930f1862c7a","ios":"levelo://app?vid=146ed2c8-b209-4879-9f30-c930f1862c7a"},"vehicle_type_id":"4","last_reported":1751411434,"current_range_meters":12400,"station_id":"ce4bh3h2rcd13ifvqdo0","pricing_plan_id":"cebpf4jnsgd1na2vs0mg"},{"bike_id":"c1bbbaa1-58f1-44d0-97db-b6b6fbc144ab","system_id":"levelo_inurba_marseille","lat":43.24685,"lon":5.38158,"is_reserved":false,"is_disabled":false,"rental_uris":{"android":"levelo://app?vid=c1bbbaa1-58f1-44d0-97db-b6b6fbc144ab","ios":"levelo://app?vid=c1bbbaa1-58f1-44d0-97db-b6b6fbc144ab"},"vehicle_type_id":"4","last_reported":1751411434,"current_range_meters":12400,"station_id":"ce4bhih2rcd13ifvqfr0","pricing_plan_id":"cebpf4jnsgd1na2vs0mg"},{"bike_id":"b1a4f46d-cd33-412a-bad2-6c71013b8a27","system_id":"levelo_inurba_marseille","lat":43.28142,"lon":5.42663,"is_reserved":false,"is_disabled":false,"rental_uris":{"android":"levelo://app?vid=b1a4f46d-cd33-412a-bad2-6c71013b8a27","ios":"levelo://app?vid=b1a4f46d-cd33-412a-bad2-6c71013b8a27"},"vehicle_type_id":"4","last_reported":1751411434,"current_range_meters":12400,"station_id":"ce4bhnh2rcd13ifvqgug","pricing_plan_id":"cebpf4jnsgd1na2vs0mg"},{"bike_id":"14a8345c-1a0a-4f1d-bc10-2f4e01109d1c","system_id":"levelo_inurba_marseille","lat":43.30655,"lon":5.4007,"is_reserved":false,"is_disabled":false,"rental_uris":{"android":"levelo://app?vid=14a8345c-1a0a-4f1d-bc10-2f4e01109d1c","ios":"levelo://app?vid=14a8345c-1a0a-4f1d-bc10-2f4e01109d1c"},"vehicle_type_id":"4","last_reported":1751411434,"current_range_meters":12800,"station_id":"ce4bh112rcd13ifvqda0","pricing_plan_id":"cebpf4jnsgd1na2vs0mg"},{"bike_id":"86fa6ce7-8cbe-47ff-b5d3-c2b4938fd05c","system_id":"levelo_inurba_marseille","lat":43.21187,"lon":5.3508,"is_reserved":false,"is_disabled":false,"rental_uris":{"android":"levelo://app?vid=86fa6ce7-8cbe-47ff-b5d3-c2b4938fd05c","ios":"levelo://app?vid=86fa6ce7-8cbe-47ff-b5d3-c2b4938fd05c"},"vehicle_type_id":"4","last_reported":1751411434,"current_range_meters":13600,"station_id":"","pricing_plan_id":"cebpf4jnsgd1na2vs0mg"},{"bike_id":"7e918440-88b2-46bb-b33c-27dbfad1b4ca","system_id":"levelo_inurba_marseille","lat":43.28407,"lon":5.37533,"is_reserved":false,"is_disabled":false,"rental_uris":{"android":"levelo://app?vid=7e918440-88b2-46bb-b33c-27dbfad1b4ca","ios":"levelo://app?vid=7e918440-88b2-46bb-b33c-27dbfad1b4ca"},"vehicle_type_id":"4","last_reported":1751411434,"current_range_meters":13600,"station_id":"ce4bh412rcd13ifvqds0","pricing_plan_id":"cebpf4jnsgd1na2vs0mg"},{"bike_id":"6335e18e-9829-4571-82f7-23b6ce10fe5e","system_id":"levelo_inurba_marseille","lat":43.24164,"lon":5.36399,"is_reserved":false,"is_disabled":false,"rental_uris":{"android":"levelo://app?vid=6335e18e-9829-4571-82f7-23b6ce10fe5e","ios":"levelo://app?vid=6335e18e-9829-4571-82f7-23b6ce10fe5e"},"vehicle_type_id":"4","last_reported":1751411434,"current_range_meters":13600,"station_id":"cpo36qri1sfpv3e86is0","pricing_plan_id":"cebpf4jnsgd1na2vs0mg"},{"bike_id":"69b74abf-4372-470c-87d6-d3ea30801429","system_id":"levelo_inurba_marseille","lat":43.31494,"lon":5.3731,"is_reserved":false,"is_disabled":false,"rental_uris":{"android":"levelo://app?vid=69b74abf-4372-470c-87d6-d3ea30801429","ios":"levelo://app?vid=69b74abf-4372-470c-87d6-d3ea30801429"},"vehicle_type_id":"4","last_reported":1751411434,"current_range_meters":14000,"station_id":"ce4bgt12rcd13ifvqcd0","pricing_plan_id":"cebpf4jnsgd1na2vs0mg"},{"bike_id":"0e893a70-31b5-4cbe-89a1-f190fe5f41c2","system_id":"levelo_inurba_marseille","lat":43.28711,"lon":5.39966,"is_reserved":false,"is_disabled":false,"rental_uris":{"android":"levelo://app?vid=0e893a70-31b5-4cbe-89a1-f190fe5f41c2","ios":"levelo://app?vid=0e893a70-31b5-4cbe-89a1-f190fe5f41c2"},"vehicle_type_id":"4","last_reported":1751411434,"current_range_meters":14000,"station_id":"ce4bho92rcd13ifvqh3g","pricing_plan_id":"cebpf4jnsgd1na2vs0mg"},{"bike_id":"670352d3-ba5f-4bd2-a411-8499634517d3","system_id":"levelo_inurba_marseille","lat":43.32316,"lon":5.40642,"is_reserved":false,"is_disabled":false,"rental_uris":{"android":"levelo://app?vid=670352d3-ba5f-4bd2-a411-8499634517d3","ios":"levelo://app?vid=670352d3-ba5f-4bd2-a411-8499634517d3"},"vehicle_type_id":"4","last_reported":1751411434,"current_range_meters":14000,"station_id":"ce4bhq92rcd13ifvqhjg","pricing_plan_id":"cebpf4jnsgd1na2vs0mg"},{"bike_id":"bf9a42f0-3236-41b2-aead-463e94f79ff6","system_id":"levelo_inurba_marseille","lat":43.23277,"lon":5.35418,"is_reserved":false,"is_disabled":false,"rental_uris":{"android":"levelo://app?vid=bf9a42f0-3236-41b2-aead-463e94f79ff6","ios":"levelo://app?vid=bf9a42f0-3236-41b2-aead-463e94f79ff6"},"vehicle_type_id":"4","last_reported":1751411434,"current_range_meters":14400,"station_id":"","pricing_plan_id":"cebpf4jnsgd1na2vs0mg"},{"bike_id":"ef523680-e695-47b2-b663-9d1681d0a96f","system_id":"levelo_inurba_marseille","lat":43.30621,"lon":5.400893,"is_reserved":false,"is_disabled":false,"rental_uris":{"android":"levelo://app?vid=ef523680-e695-47b2-b663-9d1681d0a96f","ios":"levelo://app?vid=ef523680-e695-47b2-b663-9d1681d0a96f"},"vehicle_type_id":"4","last_reported":1751411434,"current_range_meters":14400,"station_id":"ce4bh112rcd13ifvqda0","pricing_plan_id":"cebpf4jnsgd1na2vs0mg"},{"bike_id":"96b6b043-817e-45a0-a067-97c1bfcd6862","system_id":"levelo_inurba_marseille","lat":43.27497,"lon":5.42454,"is_reserved":false,"is_disabled":false,"rental_uris":{"android":"levelo://app?vid=96b6b043-817e-45a0-a067-97c1bfcd6862","ios":"levelo://app?vid=96b6b043-817e-45a0-a067-97c1bfcd6862"},"vehicle_type_id":"4","last_reported":1751411434,"current_range_meters":14400,"station_id":"ce4bhn92rcd13ifvqgrg","pricing_plan_id":"cebpf4jnsgd1na2vs0mg"},{"bike_id":"5ea1dd93-3c49-4f8f-bb7f-00d3c982b0ae","system_id":"levelo_inurba_marseille","lat":43.22933,"lon":5.35372,"is_reserved":false,"is_disabled":false,"rental_uris":{"android":"levelo://app?vid=5ea1dd93-3c49-4f8f-bb7f-00d3c982b0ae","ios":"levelo://app?vid=5ea1dd93-3c49-4f8f-bb7f-00d3c982b0ae"},"vehicle_type_id":"4","last_reported":1751411434,"current_range_meters":14400,"station_id":"cpo3532slgdg3j2ikp40","pricing_plan_id":"cebpf4jnsgd1na2vs0mg"},{"bike_id":"539ed013-9e80-448a-999f-a7819f54786a","system_id":"levelo_inurba_marseille","lat":43.290309,"lon":5.375668,"is_reserved":false,"is_disabled":false,"rental_uris":{"android":"levelo://app?vid=539ed013-9e80-448a-999f-a7819f54786a","ios":"levelo://app?vid=539ed013-9e80-448a-999f-a7819f54786a"},"vehicle_type_id":"4","last_reported":1751411434,"current_range_meters":14800,"station_id":"","pricing_plan_id":"cebpf4jnsgd1na2vs0mg"},{"bike_id":"7f1153ca-399c-420f-aca8-db6f968135f8","system_id":"levelo_inurba_marseille","lat":43.31371,"lon":5.38514,"is_reserved":false,"is_disabled":false,"rental_uris":{"android":"levelo://app?vid=7f1153ca-399c-420f-aca8-db6f968135f8","ios":"levelo://app?vid=7f1153ca-399c-420f-aca8-db6f968135f8"},"vehicle_type_id":"4","last_reported":1751411434,"current_range_meters":14800,"station_id":"ce4bgt92rcd13ifvqcf0","pricing_plan_id":"cebpf4jnsgd1na2vs0mg"},{"bike_id":"12c8f0e5-0eb8-4779-b094-556c6faf06b5","system_id":"levelo_inurba_marseille","lat":43.31061,"lon":5.38377,"is_reserved":false,"is_disabled":false,"rental_uris":{"android":"levelo://app?vid=12c8f0e5-0eb8-4779-b094-556c6faf06b5","ios":"levelo://app?vid=12c8f0e5-0eb8-4779-b094-556c6faf06b5"},"vehicle_type_id":"4","last_reported":1751411434,"current_range_meters":14800,"station_id":"ce4bgv92rcd13ifvqcr0","pricing_plan_id":"cebpf4jnsgd1na2vs0mg"},{"bike_id":"5d118b4f-58ea-4de8-8aba-9280737a04c7","system_id":"levelo_inurba_marseille","lat":43.246672,"lon":5.381622,"is_reserved":false,"is_disabled":false,"rental_uris":{"android":"levelo://app?vid=5d118b4f-58ea-4de8-8aba-9280737a04c7","ios":"levelo://app?vid=5d118b4f-58ea-4de8-8aba-9280737a04c7"},"vehicle_type_id":"4","last_reported":1751411434,"current_range_meters":14800,"station_id":"ce4bhih2rcd13ifvqfr0","pricing_plan_id":"cebpf4jnsgd1na2vs0mg"},{"bike_id":"a0cef316-ad95-4855-8f78-a31341a2b90e","system_id":"levelo_inurba_marseille","lat":43.31277,"lon":5.37778,"is_reserved":false,"is_disabled":false,"rental_uris":{"android":"levelo://app?vid=a0cef316-ad95-4855-8f78-a31341a2b90e","ios":"levelo://app?vid=a0cef316-ad95-4855-8f78-a31341a2b90e"},"vehicle_type_id":"4","last_reported":1751411434,"current_range_meters":15200,"station_id":"","pricing_plan_id":"cebpf4jnsgd1na2vs0mg"},{"bike_id":"f1b6bdd0-6e44-43a0-a0d1-4c967470767c","system_id":"levelo_inurba_marseille","lat":43.27611,"lon":5.36122,"is_reserved":false,"is_disabled":false,"rental_uris":{"android":"levelo://app?vid=f1b6bdd0-6e44-43a0-a0d1-4c967470767c","ios":"levelo://app?vid=f1b6bdd0-6e44-43a0-a0d1-4c967470767c"},"vehicle_type_id":"4","last_reported":1751411434,"current_range_meters":15200,"station_id":"ce4bgj92rcd13ifvqbe0","pricing_plan_id":"cebpf4jnsgd1na2vs0mg"},{"bike_id":"49e517ee-cefd-4cc1-8e49-00ee0ad8e160","system_id":"levelo_inurba_marseille","lat":43.28077,"lon":5.39665,"is_reserved":false,"is_disabled":false,"rental_uris":{"android":"levelo://app?vid=49e517ee-cefd-4cc1-8e49-00ee0ad8e160","ios":"levelo://app?vid=49e517ee-cefd-4cc1-8e49-00ee0ad8e160"},"vehicle_type_id":"4","last_reported":1751411434,"current_range_meters":15200,"station_id":"ce4bho12rcd13ifvqh2g","pricing_plan_id":"cebpf4jnsgd1na2vs0mg"},{"bike_id":"0c1b4f74-5294-4b59-932d-b742ce647d9e","system_id":"levelo_inurba_marseille","lat":43.2119,"lon":5.3508,"is_reserved":false,"is_disabled":false,"rental_uris":{"android":"levelo://app?vid=0c1b4f74-5294-4b59-932d-b742ce647d9e","ios":"levelo://app?vid=0c1b4f74-5294-4b59-932d-b742ce647d9e"},"vehicle_type_id":"4","last_reported":1751411434,"current_range_meters":15200,"station_id":"st_cvj6sg6p6f1abm77japg","pricing_plan_id":"cebpf4jnsgd1na2vs0mg"},{"bike_id":"8a74f5cd-9efa-4362-bea7-a32db4dcc85c","system_id":"levelo_inurba_marseille","lat":43.21188,"lon":5.35085,"is_reserved":false,"is_disabled":false,"rental_uris":{"android":"levelo://app?vid=8a74f5cd-9efa-4362-bea7-a32db4dcc85c","ios":"levelo://app?vid=8a74f5cd-9efa-4362-bea7-a32db4dcc85c"},"vehicle_type_id":"4","last_reported":1751411434,"current_range_meters":15200,"station_id":"st_cvj6sg6p6f1abm77japg","pricing_plan_id":"cebpf4jnsgd1na2vs0mg"},{"bike_id":"55fe1fc3-6542-4dfc-b0a9-b5dc3cd50393","system_id":"levelo_inurba_marseille","lat":43.30929,"lon":5.40142,"is_reserved":false,"is_disabled":false,"rental_uris":{"android":"levelo://app?vid=55fe1fc3-6542-4dfc-b0a9-b5dc3cd50393","ios":"levelo://app?vid=55fe1fc3-6542-4dfc-b0a9-b5dc3cd50393"},"vehicle_type_id":"4","last_reported":1751411434,"current_range_meters":16000,"station_id":"ce4bgvp2rcd13ifvqct0","pricing_plan_id":"cebpf4jnsgd1na2vs0mg"},{"bike_id":"586532ee-214e-4350-b127-7757b004c27e","system_id":"levelo_inurba_marseille","lat":43.28699,"lon":5.37377,"is_reserved":false,"is_disabled":false,"rental_uris":{"android":"levelo://app?vid=586532ee-214e-4350-b127-7757b004c27e","ios":"levelo://app?vid=586532ee-214e-4350-b127-7757b004c27e"},"vehicle_type_id":"4","last_reported":1751411434,"current_range_meters":16000,"station_id":"ce4bh3p2rcd13ifvqdq0","pricing_plan_id":"cebpf4jnsgd1na2vs0mg"},{"bike_id":"c2cc3873-3136-4ba7-984d-6514f2a6bcc2","system_id":"levelo_inurba_marseille","lat":43.26692,"lon":5.3827,"is_reserved":false,"is_disabled":false,"rental_uris":{"android":"levelo://app?vid=c2cc3873-3136-4ba7-984d-6514f2a6bcc2","ios":"levelo://app?vid=c2cc3873-3136-4ba7-984d-6514f2a6bcc2"},"vehicle_type_id":"4","last_reported":1751411434,"current_range_meters":16000,"station_id":"ce4bhg92rcd13ifvqf90","pricing_plan_id":"cebpf4jnsgd1na2vs0mg"},{"bike_id":"35e6d633-7629-4b1a-a6b3-e96e18bad3fd","system_id":"levelo_inurba_marseille","lat":43.27665,"lon":5.3886,"is_reserved":false,"is_disabled":false,"rental_uris":{"android":"levelo://app?vid=35e6d633-7629-4b1a-a6b3-e96e18bad3fd","ios":"levelo://app?vid=35e6d633-7629-4b1a-a6b3-e96e18bad3fd"},"vehicle_type_id":"4","last_reported":1751411434,"current_range_meters":16000,"station_id":"ce4bhi12rcd13ifvqfo0","pricing_plan_id":"cebpf4jnsgd1na2vs0mg"},{"bike_id":"d4c73a67-6ae9-4da7-86b1-c540a417377a","system_id":"levelo_inurba_marseille","lat":43.32346,"lon":5.40606,"is_reserved":false,"is_disabled":false,"rental_uris":{"android":"levelo://app?vid=d4c73a67-6ae9-4da7-86b1-c540a417377a","ios":"levelo://app?vid=d4c73a67-6ae9-4da7-86b1-c540a417377a"},"vehicle_type_id":"4","last_reported":1751411434,"current_range_meters":16000,"station_id":"ce4bhq92rcd13ifvqhjg","pricing_plan_id":"cebpf4jnsgd1na2vs0mg"},{"bike_id":"ee0317a9-0b3d-4631-9294-b4dddc155611","system_id":"levelo_inurba_marseille","lat":43.323576,"lon":5.367562,"is_reserved":false,"is_disabled":false,"rental_uris":{"android":"levelo://app?vid=ee0317a9-0b3d-4631-9294-b4dddc155611","ios":"levelo://app?vid=ee0317a9-0b3d-4631-9294-b4dddc155611"},"vehicle_type_id":"4","last_reported":1751411434,"current_range_meters":16000,"station_id":"ce4bhsh2rcd13ifvqi2g","pricing_plan_id":"cebpf4jnsgd1na2vs0mg"},{"bike_id":"60aed5b4-04a7-4930-a9c4-5540cdbcfb8b","system_id":"levelo_inurba_marseille","lat":43.337747,"lon":5.374437,"is_reserved":false,"is_disabled":false,"rental_uris":{"android":"levelo://app?vid=60aed5b4-04a7-4930-a9c4-5540cdbcfb8b","ios":"levelo://app?vid=60aed5b4-04a7-4930-a9c4-5540cdbcfb8b"},"vehicle_type_id":"4","last_reported":1751411434,"current_range_meters":16400,"station_id":"","pricing_plan_id":"cebpf4jnsgd1na2vs0mg"},{"bike_id":"8b44a078-25b6-4fc7-a0ee-3b325d289415","system_id":"levelo_inurba_marseille","lat":43.309319,"lon":5.401513,"is_reserved":false,"is_disabled":false,"rental_uris":{"android":"levelo://app?vid=8b44a078-25b6-4fc7-a0ee-3b325d289415","ios":"levelo://app?vid=8b44a078-25b6-4fc7-a0ee-3b325d289415"},"vehicle_type_id":"4","last_reported":1751411434,"current_range_meters":16400,"station_id":"ce4bgvp2rcd13ifvqct0","pricing_plan_id":"cebpf4jnsgd1na2vs0mg"},{"bike_id":"483ba61c-e9d3-4100-9ca2-9f76b3853385","system_id":"levelo_inurba_marseille","lat":43.31274,"lon":5.40163,"is_reserved":false,"is_disabled":false,"rental_uris":{"android":"levelo://app?vid=483ba61c-e9d3-4100-9ca2-9f76b3853385","ios":"levelo://app?vid=483ba61c-e9d3-4100-9ca2-9f76b3853385"},"vehicle_type_id":"4","last_reported":1751411434,"current_range_meters":16400,"station_id":"ce4bh092rcd13ifvqd30","pricing_plan_id":"cebpf4jnsgd1na2vs0mg"},{"bike_id":"16fe4b8f-aa54-4e34-9437-7dd47aac9baf","system_id":"levelo_inurba_marseille","lat":43.29025,"lon":5.39959,"is_reserved":false,"is_disabled":false,"rental_uris":{"android":"levelo://app?vid=16fe4b8f-aa54-4e34-9437-7dd47aac9baf","ios":"levelo://app?vid=16fe4b8f-aa54-4e34-9437-7dd47aac9baf"},"vehicle_type_id":"4","last_reported":1751411434,"current_range_meters":16400,"station_id":"ce4bh392rcd13ifvqdm0","pricing_plan_id":"cebpf4jnsgd1na2vs0mg"},{"bike_id":"d2686da2-7f93-400e-86d4-66c3d4b5f6bc","system_id":"levelo_inurba_marseille","lat":43.27962,"lon":5.41017,"is_reserved":false,"is_disabled":false,"rental_uris":{"android":"levelo://app?vid=d2686da2-7f93-400e-86d4-66c3d4b5f6bc","ios":"levelo://app?vid=d2686da2-7f93-400e-86d4-66c3d4b5f6bc"},"vehicle_type_id":"4","last_reported":1751411434,"current_range_meters":16400,"station_id":"ce4bhnp2rcd13ifvqh0g","pricing_plan_id":"cebpf4jnsgd1na2vs0mg"},{"bike_id":"072ce126-17ba-4d6a-833e-b467b7c6da3f","system_id":"levelo_inurba_marseille","lat":43.30415,"lon":5.41285,"is_reserved":false,"is_disabled":false,"rental_uris":{"android":"levelo://app?vid=072ce126-17ba-4d6a-833e-b467b7c6da3f","ios":"levelo://app?vid=072ce126-17ba-4d6a-833e-b467b7c6da3f"},"vehicle_type_id":"4","last_reported":1751411434,"current_range_meters":16400,"station_id":"ce4bhop2rcd13ifvqh8g","pricing_plan_id":"cebpf4jnsgd1na2vs0mg"},{"bike_id":"f00e3044-9bd1-48b5-b342-151af21b34fa","system_id":"levelo_inurba_marseille","lat":43.29981,"lon":5.3741,"is_reserved":false,"is_disabled":false,"rental_uris":{"android":"levelo://app?vid=f00e3044-9bd1-48b5-b342-151af21b34fa","ios":"levelo://app?vid=f00e3044-9bd1-48b5-b342-151af21b34fa"},"vehicle_type_id":"4","last_reported":1751411434,"current_range_meters":16800,"station_id":"","pricing_plan_id":"cebpf4jnsgd1na2vs0mg"},{"bike_id":"b72c80d1-2411-479c-9f73-214d8794eec8","system_id":"levelo_inurba_marseille","lat":43.28031,"lon":5.36934,"is_reserved":false,"is_disabled":false,"rental_uris":{"android":"levelo://app?vid=b72c80d1-2411-479c-9f73-214d8794eec8","ios":"levelo://app?vid=b72c80d1-2411-479c-9f73-214d8794eec8"},"vehicle_type_id":"4","last_reported":1751411434,"current_range_meters":16800,"station_id":"ce4bha12rcd13ifvqef0","pricing_plan_id":"cebpf4jnsgd1na2vs0mg"},{"bike_id":"53c8e5da-f5e3-4b38-adc1-6a8af76880b0","system_id":"levelo_inurba_marseille","lat":43.25094,"lon":5.40343,"is_reserved":false,"is_disabled":false,"rental_uris":{"android":"levelo://app?vid=53c8e5da-f5e3-4b38-adc1-6a8af76880b0","ios":"levelo://app?vid=53c8e5da-f5e3-4b38-adc1-6a8af76880b0"},"vehicle_type_id":"4","last_reported":1751411434,"current_range_meters":16800,"station_id":"ce4bhlh2rcd13ifvqgig","pricing_plan_id":"cebpf4jnsgd1na2vs0mg"},{"bike_id":"713568aa-1b30-4e33-8b57-5ef927d68fe3","system_id":"levelo_inurba_marseille","lat":43.28706,"lon":5.39987,"is_reserved":false,"is_disabled":false,"rental_uris":{"android":"levelo://app?vid=713568aa-1b30-4e33-8b57-5ef927d68fe3","ios":"levelo://app?vid=713568aa-1b30-4e33-8b57-5ef927d68fe3"},"vehicle_type_id":"4","last_reported":1751411434,"current_range_meters":16800,"station_id":"ce4bho92rcd13ifvqh3g","pricing_plan_id":"cebpf4jnsgd1na2vs0mg"},{"bike_id":"d0f90c24-dd03-411b-9731-55305f76b7c8","system_id":"levelo_inurba_marseille","lat":43.211921,"lon":5.350813,"is_reserved":false,"is_disabled":false,"rental_uris":{"android":"levelo://app?vid=d0f90c24-dd03-411b-9731-55305f76b7c8","ios":"levelo://app?vid=d0f90c24-dd03-411b-9731-55305f76b7c8"},"vehicle_type_id":"4","last_reported":1751411434,"current_range_meters":16800,"station_id":"st_cvj6sg6p6f1abm77japg","pricing_plan_id":"cebpf4jnsgd1na2vs0mg"},{"bike_id":"fdcc33b3-b27b-4fd9-90cb-c9421efe9db6","system_id":"levelo_inurba_marseille","lat":43.27803,"lon":5.41448,"is_reserved":false,"is_disabled":false,"rental_uris":{"android":"levelo://app?vid=fdcc33b3-b27b-4fd9-90cb-c9421efe9db6","ios":"levelo://app?vid=fdcc33b3-b27b-4fd9-90cb-c9421efe9db6"},"vehicle_type_id":"4","last_reported":1751411434,"current_range_meters":17200,"station_id":"","pricing_plan_id":"cebpf4jnsgd1na2vs0mg"},{"bike_id":"2e98dc25-5dc5-45dd-9cad-94c98181c445","system_id":"levelo_inurba_marseille","lat":43.30232,"lon":5.40042,"is_reserved":false,"is_disabled":false,"rental_uris":{"android":"levelo://app?vid=2e98dc25-5dc5-45dd-9cad-94c98181c445","ios":"levelo://app?vid=2e98dc25-5dc5-45dd-9cad-94c98181c445"},"vehicle_type_id":"4","last_reported":1751411434,"current_range_meters":17200,"station_id":"ce4bgvh2rcd13ifvqcs0","pricing_plan_id":"cebpf4jnsgd1na2vs0mg"},{"bike_id":"544c11d1-874b-4125-81a6-313bbd11e64c","system_id":"levelo_inurba_marseille","lat":43.31325,"lon":5.39711,"is_reserved":false,"is_disabled":false,"rental_uris":{"android":"levelo://app?vid=544c11d1-874b-4125-81a6-313bbd11e64c","ios":"levelo://app?vid=544c11d1-874b-4125-81a6-313bbd11e64c"},"vehicle_type_id":"4","last_reported":1751411434,"current_range_meters":17200,"station_id":"ce4bgvp2rcd13ifvqcu0","pricing_plan_id":"cebpf4jnsgd1na2vs0mg"},{"bike_id":"94a43244-f717-4d28-a079-ee4081aaddf9","system_id":"levelo_inurba_marseille","lat":43.2789,"lon":5.38014,"is_reserved":false,"is_disabled":false,"rental_uris":{"android":"levelo://app?vid=94a43244-f717-4d28-a079-ee4081aaddf9","ios":"levelo://app?vid=94a43244-f717-4d28-a079-ee4081aaddf9"},"vehicle_type_id":"4","last_reported":1751411434,"current_range_meters":17200,"station_id":"ce4bhf92rcd13ifvqf50","pricing_plan_id":"cebpf4jnsgd1na2vs0mg"},{"bike_id":"8cbb1ffb-b7f4-42e6-abb6-2601bf24db08","system_id":"levelo_inurba_marseille","lat":43.33606,"lon":5.41033,"is_reserved":false,"is_disabled":false,"rental_uris":{"android":"levelo://app?vid=8cbb1ffb-b7f4-42e6-abb6-2601bf24db08","ios":"levelo://app?vid=8cbb1ffb-b7f4-42e6-abb6-2601bf24db08"},"vehicle_type_id":"4","last_reported":1751411434,"current_range_meters":17200,"station_id":"ce4bhqh2rcd13ifvqhmg","pricing_plan_id":"cebpf4jnsgd1na2vs0mg"},{"bike_id":"cfc0aa67-590a-4038-b894-cb7b8f074cc7","system_id":"levelo_inurba_marseille","lat":43.217437,"lon":5.346067,"is_reserved":false,"is_disabled":false,"rental_uris":{"android":"levelo://app?vid=cfc0aa67-590a-4038-b894-cb7b8f074cc7","ios":"levelo://app?vid=cfc0aa67-590a-4038-b894-cb7b8f074cc7"},"vehicle_type_id":"4","last_reported":1751411434,"current_range_meters":17200,"station_id":"st_cvj6r9ubvosntc0bgbag","pricing_plan_id":"cebpf4jnsgd1na2vs0mg"},{"bike_id":"dbe6a7d8-6edc-4015-8658-f68eeb46a661","system_id":"levelo_inurba_marseille","lat":43.3357,"lon":5.39874,"is_reserved":false,"is_disabled":false,"rental_uris":{"android":"levelo://app?vid=dbe6a7d8-6edc-4015-8658-f68eeb46a661","ios":"levelo://app?vid=dbe6a7d8-6edc-4015-8658-f68eeb46a661"},"vehicle_type_id":"4","last_reported":1751411434,"current_range_meters":17600,"station_id":"","pricing_plan_id":"cebpf4jnsgd1na2vs0mg"},{"bike_id":"7e62b058-a7ed-4634-80f1-04d3de596de7","system_id":"levelo_inurba_marseille","lat":43.29845,"lon":5.36811,"is_reserved":false,"is_disabled":false,"rental_uris":{"android":"levelo://app?vid=7e62b058-a7ed-4634-80f1-04d3de596de7","ios":"levelo://app?vid=7e62b058-a7ed-4634-80f1-04d3de596de7"},"vehicle_type_id":"4","last_reported":1751411434,"current_range_meters":17600,"station_id":"","pricing_plan_id":"cebpf4jnsgd1na2vs0mg"},{"bike_id":"d68dacc3-2ebb-4596-94df-9035662fd853","system_id":"levelo_inurba_marseille","lat":43.25712,"lon":5.41026,"is_reserved":false,"is_disabled":false,"rental_uris":{"android":"levelo://app?vid=d68dacc3-2ebb-4596-94df-9035662fd853","ios":"levelo://app?vid=d68dacc3-2ebb-4596-94df-9035662fd853"},"vehicle_type_id":"4","last_reported":1751411434,"current_range_meters":17600,"station_id":"","pricing_plan_id":"cebpf4jnsgd1na2vs0mg"},{"bike_id":"9100c131-294f-4378-9b77-c233ecbccf9d","system_id":"levelo_inurba_marseille","lat":43.29031,"lon":5.39958,"is_reserved":false,"is_disabled":false,"rental_uris":{"android":"levelo://app?vid=9100c131-294f-4378-9b77-c233ecbccf9d","ios":"levelo://app?vid=9100c131-294f-4378-9b77-c233ecbccf9d"},"vehicle_type_id":"4","last_reported":1751411434,"current_range_meters":17600,"station_id":"ce4bh392rcd13ifvqdm0","pricing_plan_id":"cebpf4jnsgd1na2vs0mg"},{"bike_id":"5725b188-77bd-4f53-a38d-b667a7a2b9de","system_id":"levelo_inurba_marseille","lat":43.28708,"lon":5.37387,"is_reserved":false,"is_disabled":false,"rental_uris":{"android":"levelo://app?vid=5725b188-77bd-4f53-a38d-b667a7a2b9de","ios":"levelo://app?vid=5725b188-77bd-4f53-a38d-b667a7a2b9de"},"vehicle_type_id":"4","last_reported":1751411434,"current_range_meters":17600,"station_id":"ce4bh3p2rcd13ifvqdq0","pricing_plan_id":"cebpf4jnsgd1na2vs0mg"},{"bike_id":"4d840d8d-deb4-472a-b48d-72130909c5e9","system_id":"levelo_inurba_marseille","lat":43.28363,"lon":5.38635,"is_reserved":false,"is_disabled":false,"rental_uris":{"android":"levelo://app?vid=4d840d8d-deb4-472a-b48d-72130909c5e9","ios":"levelo://app?vid=4d840d8d-deb4-472a-b48d-72130909c5e9"},"vehicle_type_id":"4","last_reported":1751411434,"current_range_meters":17600,"station_id":"ce4bh492rcd13ifvqdvg","pricing_plan_id":"cebpf4jnsgd1na2vs0mg"},{"bike_id":"755b12ad-e5aa-4a8f-87f8-64585fb1ce89","system_id":"levelo_inurba_marseille","lat":43.27903,"lon":5.39578,"is_reserved":false,"is_disabled":false,"rental_uris":{"android":"levelo://app?vid=755b12ad-e5aa-4a8f-87f8-64585fb1ce89","ios":"levelo://app?vid=755b12ad-e5aa-4a8f-87f8-64585fb1ce89"},"vehicle_type_id":"4","last_reported":1751411434,"current_range_meters":17600,"station_id":"ce4bhf92rcd13ifvqf40","pricing_plan_id":"cebpf4jnsgd1na2vs0mg"},{"bike_id":"0b952b41-063f-44fd-8039-09856d22ee45","system_id":"levelo_inurba_marseille","lat":43.2481,"lon":5.37458,"is_reserved":false,"is_disabled":false,"rental_uris":{"android":"levelo://app?vid=0b952b41-063f-44fd-8039-09856d22ee45","ios":"levelo://app?vid=0b952b41-063f-44fd-8039-09856d22ee45"},"vehicle_type_id":"4","last_reported":1751411434,"current_range_meters":17600,"station_id":"ce4bhgh2rcd13ifvqfb0","pricing_plan_id":"cebpf4jnsgd1na2vs0mg"},{"bike_id":"4fd602b9-b9fc-471c-b938-5990c9f13902","system_id":"levelo_inurba_marseille","lat":43.32355,"lon":5.38911,"is_reserved":false,"is_disabled":false,"rental_uris":{"android":"levelo://app?vid=4fd602b9-b9fc-471c-b938-5990c9f13902","ios":"levelo://app?vid=4fd602b9-b9fc-471c-b938-5990c9f13902"},"vehicle_type_id":"4","last_reported":1751411434,"current_range_meters":17600,"station_id":"ce4bhqp2rcd13ifvqhog","pricing_plan_id":"cebpf4jnsgd1na2vs0mg"},{"bike_id":"3e49e6c3-63b1-488b-8c64-bbe9476863c7","system_id":"levelo_inurba_marseille","lat":43.268053,"lon":5.40266,"is_reserved":false,"is_disabled":false,"rental_uris":{"android":"levelo://app?vid=3e49e6c3-63b1-488b-8c64-bbe9476863c7","ios":"levelo://app?vid=3e49e6c3-63b1-488b-8c64-bbe9476863c7"},"vehicle_type_id":"4","last_reported":1751411434,"current_range_meters":17600,"station_id":"ce501612rcd8frsf0b60","pricing_plan_id":"cebpf4jnsgd1na2vs0mg"},{"bike_id":"12968da4-6587-4337-b41d-8c292aea852f","system_id":"levelo_inurba_marseille","lat":43.319815,"lon":5.371107,"is_reserved":false,"is_disabled":false,"rental_uris":{"android":"levelo://app?vid=12968da4-6587-4337-b41d-8c292aea852f","ios":"levelo://app?vid=12968da4-6587-4337-b41d-8c292aea852f"},"vehicle_type_id":"4","last_reported":1751411434,"current_range_meters":18000,"station_id":"","pricing_plan_id":"cebpf4jnsgd1na2vs0mg"},{"bike_id":"95fe31aa-f0f9-4204-ae87-b8877635eb91","system_id":"levelo_inurba_marseille","lat":43.288467,"lon":5.393157,"is_reserved":false,"is_disabled":false,"rental_uris":{"android":"levelo://app?vid=95fe31aa-f0f9-4204-ae87-b8877635eb91","ios":"levelo://app?vid=95fe31aa-f0f9-4204-ae87-b8877635eb91"},"vehicle_type_id":"4","last_reported":1751411434,"current_range_meters":18000,"station_id":"ce4bh2p2rcd13ifvqdi0","pricing_plan_id":"cebpf4jnsgd1na2vs0mg"},{"bike_id":"14e68205-30a4-4365-8d45-0e892797dd85","system_id":"levelo_inurba_marseille","lat":43.27211,"lon":5.39174,"is_reserved":false,"is_disabled":false,"rental_uris":{"android":"levelo://app?vid=14e68205-30a4-4365-8d45-0e892797dd85","ios":"levelo://app?vid=14e68205-30a4-4365-8d45-0e892797dd85"},"vehicle_type_id":"4","last_reported":1751411434,"current_range_meters":18000,"station_id":"ce4bhhp2rcd13ifvqfm0","pricing_plan_id":"cebpf4jnsgd1na2vs0mg"},{"bike_id":"65e670df-bc16-4358-880f-dba8f8cbd1c8","system_id":"levelo_inurba_marseille","lat":43.31269,"lon":5.40177,"is_reserved":false,"is_disabled":false,"rental_uris":{"android":"levelo://app?vid=65e670df-bc16-4358-880f-dba8f8cbd1c8","ios":"levelo://app?vid=65e670df-bc16-4358-880f-dba8f8cbd1c8"},"vehicle_type_id":"4","last_reported":1751411434,"current_range_meters":18800,"station_id":"ce4bh092rcd13ifvqd30","pricing_plan_id":"cebpf4jnsgd1na2vs0mg"},{"bike_id":"0e030323-4386-4e72-9a0d-0f6a2ff539de","system_id":"levelo_inurba_marseille","lat":43.29623,"lon":5.40564,"is_reserved":false,"is_disabled":false,"rental_uris":{"android":"levelo://app?vid=0e030323-4386-4e72-9a0d-0f6a2ff539de","ios":"levelo://app?vid=0e030323-4386-4e72-9a0d-0f6a2ff539de"},"vehicle_type_id":"4","last_reported":1751411434,"current_range_meters":18800,"station_id":"ce4bh0h2rcd13ifvqd60","pricing_plan_id":"cebpf4jnsgd1na2vs0mg"},{"bike_id":"aa20020f-c0b3-472e-87b1-3641b28bc629","system_id":"levelo_inurba_marseille","lat":43.286908,"lon":5.386604,"is_reserved":false,"is_disabled":false,"rental_uris":{"android":"levelo://app?vid=aa20020f-c0b3-472e-87b1-3641b28bc629","ios":"levelo://app?vid=aa20020f-c0b3-472e-87b1-3641b28bc629"},"vehicle_type_id":"4","last_reported":1751411434,"current_range_meters":18800,"station_id":"ce4bh492rcd13ifvqdug","pricing_plan_id":"cebpf4jnsgd1na2vs0mg"},{"bike_id":"7440a83d-d2eb-4aec-843d-e9a2bc12e9e7","system_id":"levelo_inurba_marseille","lat":43.24157,"lon":5.39705,"is_reserved":false,"is_disabled":false,"rental_uris":{"android":"levelo://app?vid=7440a83d-d2eb-4aec-843d-e9a2bc12e9e7","ios":"levelo://app?vid=7440a83d-d2eb-4aec-843d-e9a2bc12e9e7"},"vehicle_type_id":"4","last_reported":1751411434,"current_range_meters":18800,"station_id":"ce4bhn12rcd13ifvqgpg","pricing_plan_id":"cebpf4jnsgd1na2vs0mg"},{"bike_id":"bcfd0eda-b9ab-4bec-9ca3-3f2b86617415","system_id":"levelo_inurba_marseille","lat":43.21193,"lon":5.35067,"is_reserved":false,"is_disabled":false,"rental_uris":{"android":"levelo://app?vid=bcfd0eda-b9ab-4bec-9ca3-3f2b86617415","ios":"levelo://app?vid=bcfd0eda-b9ab-4bec-9ca3-3f2b86617415"},"vehicle_type_id":"4","last_reported":1751411434,"current_range_meters":18800,"station_id":"st_cvj6sg6p6f1abm77japg","pricing_plan_id":"cebpf4jnsgd1na2vs0mg"},{"bike_id":"16a8afe6-e43e-4d1b-a7bd-ed83d113735a","system_id":"levelo_inurba_marseille","lat":43.32436,"lon":5.41185,"is_reserved":false,"is_disabled":false,"rental_uris":{"android":"levelo://app?vid=16a8afe6-e43e-4d1b-a7bd-ed83d113735a","ios":"levelo://app?vid=16a8afe6-e43e-4d1b-a7bd-ed83d113735a"},"vehicle_type_id":"4","last_reported":1751411434,"current_range_meters":19200,"station_id":"","pricing_plan_id":"cebpf4jnsgd1na2vs0mg"},{"bike_id":"d98b4152-dc5c-4709-836d-736229e21c44","system_id":"levelo_inurba_marseille","lat":43.30638,"lon":5.40072,"is_reserved":false,"is_disabled":false,"rental_uris":{"android":"levelo://app?vid=d98b4152-dc5c-4709-836d-736229e21c44","ios":"levelo://app?vid=d98b4152-dc5c-4709-836d-736229e21c44"},"vehicle_type_id":"4","last_reported":1751411434,"current_range_meters":19200,"station_id":"ce4bh112rcd13ifvqda0","pricing_plan_id":"cebpf4jnsgd1na2vs0mg"},{"bike_id":"cec83254-79e3-4c45-a463-aa4a696c22f3","system_id":"levelo_inurba_marseille","lat":43.27807,"lon":5.40729,"is_reserved":false,"is_disabled":false,"rental_uris":{"android":"levelo://app?vid=cec83254-79e3-4c45-a463-aa4a696c22f3","ios":"levelo://app?vid=cec83254-79e3-4c45-a463-aa4a696c22f3"},"vehicle_type_id":"4","last_reported":1751411434,"current_range_meters":19200,"station_id":"ce4bhnh2rcd13ifvqgtg","pricing_plan_id":"cebpf4jnsgd1na2vs0mg"},{"bike_id":"110be0f7-19b6-4419-935c-8afdb1f29359","system_id":"levelo_inurba_marseille","lat":43.21173,"lon":5.35081,"is_reserved":false,"is_disabled":false,"rental_uris":{"android":"levelo://app?vid=110be0f7-19b6-4419-935c-8afdb1f29359","ios":"levelo://app?vid=110be0f7-19b6-4419-935c-8afdb1f29359"},"vehicle_type_id":"4","last_reported":1751411434,"current_range_meters":19200,"station_id":"st_cvj6sg6p6f1abm77japg","pricing_plan_id":"cebpf4jnsgd1na2vs0mg"},{"bike_id":"09a94feb-8911-4d3d-9f22-a7f611710ea1","system_id":"levelo_inurba_marseille","lat":43.21197,"lon":5.35063,"is_reserved":false,"is_disabled":false,"rental_uris":{"android":"levelo://app?vid=09a94feb-8911-4d3d-9f22-a7f611710ea1","ios":"levelo://app?vid=09a94feb-8911-4d3d-9f22-a7f611710ea1"},"vehicle_type_id":"4","last_reported":1751411434,"current_range_meters":19200,"station_id":"st_cvj6sg6p6f1abm77japg","pricing_plan_id":"cebpf4jnsgd1na2vs0mg"},{"bike_id":"959e6f20-8ed0-4d36-bc1d-3efb82d6190b","system_id":"levelo_inurba_marseille","lat":43.21192,"lon":5.35074,"is_reserved":false,"is_disabled":false,"rental_uris":{"android":"levelo://app?vid=959e6f20-8ed0-4d36-bc1d-3efb82d6190b","ios":"levelo://app?vid=959e6f20-8ed0-4d36-bc1d-3efb82d6190b"},"vehicle_type_id":"4","last_reported":1751411434,"current_range_meters":19200,"station_id":"st_cvj6sg6p6f1abm77japg","pricing_plan_id":"cebpf4jnsgd1na2vs0mg"},{"bike_id":"5b026029-dd11-4f2c-b8e4-e7689d864237","system_id":"levelo_inurba_marseille","lat":43.25106,"lon":5.40428,"is_reserved":false,"is_disabled":false,"rental_uris":{"android":"levelo://app?vid=5b026029-dd11-4f2c-b8e4-e7689d864237","ios":"levelo://app?vid=5b026029-dd11-4f2c-b8e4-e7689d864237"},"vehicle_type_id":"4","last_reported":1751411434,"current_range_meters":19600,"station_id":"","pricing_plan_id":"cebpf4jnsgd1na2vs0mg"},{"bike_id":"1fa8c134-c61b-4ed0-b074-6c39a0f19164","system_id":"levelo_inurba_marseille","lat":43.31489,"lon":5.373,"is_reserved":false,"is_disabled":false,"rental_uris":{"android":"levelo://app?vid=1fa8c134-c61b-4ed0-b074-6c39a0f19164","ios":"levelo://app?vid=1fa8c134-c61b-4ed0-b074-6c39a0f19164"},"vehicle_type_id":"4","last_reported":1751411434,"current_range_meters":19600,"station_id":"ce4bgt12rcd13ifvqcd0","pricing_plan_id":"cebpf4jnsgd1na2vs0mg"},{"bike_id":"a48854b8-6c8f-4c57-a2c4-d1ffec01842d","system_id":"levelo_inurba_marseille","lat":43.30227,"lon":5.39473,"is_reserved":false,"is_disabled":false,"rental_uris":{"android":"levelo://app?vid=a48854b8-6c8f-4c57-a2c4-d1ffec01842d","ios":"levelo://app?vid=a48854b8-6c8f-4c57-a2c4-d1ffec01842d"},"vehicle_type_id":"4","last_reported":1751411434,"current_range_meters":19600,"station_id":"ce4bh0p2rcd13ifvqd70","pricing_plan_id":"cebpf4jnsgd1na2vs0mg"},{"bike_id":"d8a56c79-a8e4-4ea3-8c73-4092677ae1bf","system_id":"levelo_inurba_marseille","lat":43.30648,"lon":5.40098,"is_reserved":false,"is_disabled":false,"rental_uris":{"android":"levelo://app?vid=d8a56c79-a8e4-4ea3-8c73-4092677ae1bf","ios":"levelo://app?vid=d8a56c79-a8e4-4ea3-8c73-4092677ae1bf"},"vehicle_type_id":"4","last_reported":1751411434,"current_range_meters":19600,"station_id":"ce4bh112rcd13ifvqda0","pricing_plan_id":"cebpf4jnsgd1na2vs0mg"},{"bike_id":"eec7b02a-461b-41f7-b40b-680625481db1","system_id":"levelo_inurba_marseille","lat":43.245697,"lon":5.395089,"is_reserved":false,"is_disabled":false,"rental_uris":{"android":"levelo://app?vid=eec7b02a-461b-41f7-b40b-680625481db1","ios":"levelo://app?vid=eec7b02a-461b-41f7-b40b-680625481db1"},"vehicle_type_id":"4","last_reported":1751411434,"current_range_meters":19600,"station_id":"ce4bhlp2rcd13ifvqgjg","pricing_plan_id":"cebpf4jnsgd1na2vs0mg"},{"bike_id":"8dc58e2c-a77f-4c91-9bbb-c23de70dcae7","system_id":"levelo_inurba_marseille","lat":43.27811,"lon":5.40719,"is_reserved":false,"is_disabled":false,"rental_uris":{"android":"levelo://app?vid=8dc58e2c-a77f-4c91-9bbb-c23de70dcae7","ios":"levelo://app?vid=8dc58e2c-a77f-4c91-9bbb-c23de70dcae7"},"vehicle_type_id":"4","last_reported":1751411434,"current_range_meters":19600,"station_id":"ce4bhnh2rcd13ifvqgtg","pricing_plan_id":"cebpf4jnsgd1na2vs0mg"},{"bike_id":"8bf0d992-d2a0-428e-940a-091ee9b7c2a4","system_id":"levelo_inurba_marseille","lat":43.21183,"lon":5.35085,"is_reserved":false,"is_disabled":false,"rental_uris":{"android":"levelo://app?vid=8bf0d992-d2a0-428e-940a-091ee9b7c2a4","ios":"levelo://app?vid=8bf0d992-d2a0-428e-940a-091ee9b7c2a4"},"vehicle_type_id":"4","last_reported":1751411434,"current_range_meters":19600,"station_id":"st_cvj6sg6p6f1abm77japg","pricing_plan_id":"cebpf4jnsgd1na2vs0mg"},{"bike_id":"31917f7a-b66c-43b0-8d5d-9dbffc8528b9","system_id":"levelo_inurba_marseille","lat":43.30799,"lon":5.38163,"is_reserved":false,"is_disabled":false,"rental_uris":{"android":"levelo://app?vid=31917f7a-b66c-43b0-8d5d-9dbffc8528b9","ios":"levelo://app?vid=31917f7a-b66c-43b0-8d5d-9dbffc8528b9"},"vehicle_type_id":"4","last_reported":1751411434,"current_range_meters":20000,"station_id":"ce4bgt12rcd13ifvqce0","pricing_plan_id":"cebpf4jnsgd1na2vs0mg"},{"bike_id":"b6abd69a-fa21-4f4b-8ff9-d4e35691bf66","system_id":"levelo_inurba_marseille","lat":43.30259,"lon":5.4005,"is_reserved":false,"is_disabled":false,"rental_uris":{"android":"levelo://app?vid=b6abd69a-fa21-4f4b-8ff9-d4e35691bf66","ios":"levelo://app?vid=b6abd69a-fa21-4f4b-8ff9-d4e35691bf66"},"vehicle_type_id":"4","last_reported":1751411434,"current_range_meters":20000,"station_id":"ce4bgvh2rcd13ifvqcs0","pricing_plan_id":"cebpf4jnsgd1na2vs0mg"},{"bike_id":"9092aa20-6983-4a86-a670-05977151b1cd","system_id":"levelo_inurba_marseille","lat":43.2622,"lon":5.40476,"is_reserved":false,"is_disabled":false,"rental_uris":{"android":"levelo://app?vid=9092aa20-6983-4a86-a670-05977151b1cd","ios":"levelo://app?vid=9092aa20-6983-4a86-a670-05977151b1cd"},"vehicle_type_id":"4","last_reported":1751411434,"current_range_meters":20000,"station_id":"ce4bhmh2rcd13ifvqgmg","pricing_plan_id":"cebpf4jnsgd1na2vs0mg"},{"bike_id":"f4e416d9-591f-46af-8312-48c2a2d3205e","system_id":"levelo_inurba_marseille","lat":43.3171,"lon":5.4371,"is_reserved":false,"is_disabled":false,"rental_uris":{"android":"levelo://app?vid=f4e416d9-591f-46af-8312-48c2a2d3205e","ios":"levelo://app?vid=f4e416d9-591f-46af-8312-48c2a2d3205e"},"vehicle_type_id":"4","last_reported":1751411434,"current_range_meters":20000,"station_id":"ce4bhp92rcd13ifvqhcg","pricing_plan_id":"cebpf4jnsgd1na2vs0mg"},{"bike_id":"c10a4283-320d-4e64-8d75-ff83e94026ba","system_id":"levelo_inurba_marseille","lat":43.21196,"lon":5.35094,"is_reserved":false,"is_disabled":false,"rental_uris":{"android":"levelo://app?vid=c10a4283-320d-4e64-8d75-ff83e94026ba","ios":"levelo://app?vid=c10a4283-320d-4e64-8d75-ff83e94026ba"},"vehicle_type_id":"4","last_reported":1751411434,"current_range_meters":20000,"station_id":"st_cvj6sg6p6f1abm77japg","pricing_plan_id":"cebpf4jnsgd1na2vs0mg"},{"bike_id":"6d2da863-a742-45db-855b-55a94467cfa4","system_id":"levelo_inurba_marseille","lat":43.32602,"lon":5.4274,"is_reserved":false,"is_disabled":false,"rental_uris":{"android":"levelo://app?vid=6d2da863-a742-45db-855b-55a94467cfa4","ios":"levelo://app?vid=6d2da863-a742-45db-855b-55a94467cfa4"},"vehicle_type_id":"4","last_reported":1751411434,"current_range_meters":20400,"station_id":"","pricing_plan_id":"cebpf4jnsgd1na2vs0mg"},{"bike_id":"595df265-f110-43e0-8074-a86c1ced3010","system_id":"levelo_inurba_marseille","lat":43.29791,"lon":5.37105,"is_reserved":false,"is_disabled":false,"rental_uris":{"android":"levelo://app?vid=595df265-f110-43e0-8074-a86c1ced3010","ios":"levelo://app?vid=595df265-f110-43e0-8074-a86c1ced3010"},"vehicle_type_id":"4","last_reported":1751411434,"current_range_meters":20400,"station_id":"ce4bgop2rcd13ifvqc1g","pricing_plan_id":"cebpf4jnsgd1na2vs0mg"},{"bike_id":"accfe5f4-3219-463b-a541-55860167a0a8","system_id":"levelo_inurba_marseille","lat":43.3172,"lon":5.37747,"is_reserved":false,"is_disabled":false,"rental_uris":{"android":"levelo://app?vid=accfe5f4-3219-463b-a541-55860167a0a8","ios":"levelo://app?vid=accfe5f4-3219-463b-a541-55860167a0a8"},"vehicle_type_id":"4","last_reported":1751411434,"current_range_meters":20400,"station_id":"ce4bgth2rcd13ifvqch0","pricing_plan_id":"cebpf4jnsgd1na2vs0mg"},{"bike_id":"caed79ff-ef77-41e6-adab-ae43fdc50fb2","system_id":"levelo_inurba_marseille","lat":43.30256,"lon":5.40065,"is_reserved":false,"is_disabled":false,"rental_uris":{"android":"levelo://app?vid=caed79ff-ef77-41e6-adab-ae43fdc50fb2","ios":"levelo://app?vid=caed79ff-ef77-41e6-adab-ae43fdc50fb2"},"vehicle_type_id":"4","last_reported":1751411434,"current_range_meters":20400,"station_id":"ce4bgvh2rcd13ifvqcs0","pricing_plan_id":"cebpf4jnsgd1na2vs0mg"},{"bike_id":"3d371d41-385d-4066-97f7-97d49629f1f2","system_id":"levelo_inurba_marseille","lat":43.26556,"lon":5.37284,"is_reserved":false,"is_disabled":false,"rental_uris":{"android":"levelo://app?vid=3d371d41-385d-4066-97f7-97d49629f1f2","ios":"levelo://app?vid=3d371d41-385d-4066-97f7-97d49629f1f2"},"vehicle_type_id":"4","last_reported":1751411434,"current_range_meters":20400,"station_id":"ce4bhg12rcd13ifvqf70","pricing_plan_id":"cebpf4jnsgd1na2vs0mg"},{"bike_id":"53357e14-8322-41ce-9b6a-e5c7b975dff4","system_id":"levelo_inurba_marseille","lat":43.26186,"lon":5.40473,"is_reserved":false,"is_disabled":false,"rental_uris":{"android":"levelo://app?vid=53357e14-8322-41ce-9b6a-e5c7b975dff4","ios":"levelo://app?vid=53357e14-8322-41ce-9b6a-e5c7b975dff4"},"vehicle_type_id":"4","last_reported":1751411434,"current_range_meters":20400,"station_id":"ce4bhmh2rcd13ifvqgmg","pricing_plan_id":"cebpf4jnsgd1na2vs0mg"},{"bike_id":"0f1ad247-ba2f-4a7c-8933-f7432279af1a","system_id":"levelo_inurba_marseille","lat":43.29278,"lon":5.40134,"is_reserved":false,"is_disabled":false,"rental_uris":{"android":"levelo://app?vid=0f1ad247-ba2f-4a7c-8933-f7432279af1a","ios":"levelo://app?vid=0f1ad247-ba2f-4a7c-8933-f7432279af1a"},"vehicle_type_id":"4","last_reported":1751411434,"current_range_meters":20800,"station_id":"ce4bh312rcd13ifvqdk0","pricing_plan_id":"cebpf4jnsgd1na2vs0mg"},{"bike_id":"1aef026b-d489-4aa5-bf7e-89f611aac7b7","system_id":"levelo_inurba_marseille","lat":43.28433,"lon":5.39208,"is_reserved":false,"is_disabled":false,"rental_uris":{"android":"levelo://app?vid=1aef026b-d489-4aa5-bf7e-89f611aac7b7","ios":"levelo://app?vid=1aef026b-d489-4aa5-bf7e-89f611aac7b7"},"vehicle_type_id":"4","last_reported":1751411434,"current_range_meters":20800,"station_id":"ce4bhoh2rcd13ifvqh5g","pricing_plan_id":"cebpf4jnsgd1na2vs0mg"},{"bike_id":"bdf938b2-62b1-4cee-9792-c416be9d8134","system_id":"levelo_inurba_marseille","lat":43.32047,"lon":5.41554,"is_reserved":false,"is_disabled":false,"rental_uris":{"android":"levelo://app?vid=bdf938b2-62b1-4cee-9792-c416be9d8134","ios":"levelo://app?vid=bdf938b2-62b1-4cee-9792-c416be9d8134"},"vehicle_type_id":"4","last_reported":1751411434,"current_range_meters":20800,"station_id":"ce4bhq92rcd13ifvqhkg","pricing_plan_id":"cebpf4jnsgd1na2vs0mg"},{"bike_id":"bfa88f67-5f5b-49db-81cc-e4921c6889b1","system_id":"levelo_inurba_marseille","lat":43.321125,"lon":5.367708,"is_reserved":false,"is_disabled":false,"rental_uris":{"android":"levelo://app?vid=bfa88f67-5f5b-49db-81cc-e4921c6889b1","ios":"levelo://app?vid=bfa88f67-5f5b-49db-81cc-e4921c6889b1"},"vehicle_type_id":"4","last_reported":1751411434,"current_range_meters":20800,"station_id":"ce4bhrh2rcd13ifvqhug","pricing_plan_id":"cebpf4jnsgd1na2vs0mg"},{"bike_id":"0f590c2a-c81e-469d-a7d1-2741de3642a2","system_id":"levelo_inurba_marseille","lat":43.21198,"lon":5.35074,"is_reserved":false,"is_disabled":false,"rental_uris":{"android":"levelo://app?vid=0f590c2a-c81e-469d-a7d1-2741de3642a2","ios":"levelo://app?vid=0f590c2a-c81e-469d-a7d1-2741de3642a2"},"vehicle_type_id":"4","last_reported":1751411434,"current_range_meters":20800,"station_id":"st_cvj6sg6p6f1abm77japg","pricing_plan_id":"cebpf4jnsgd1na2vs0mg"},{"bike_id":"78811adb-f50c-4bb7-82e3-1b69d586dfc1","system_id":"levelo_inurba_marseille","lat":43.293111,"lon":5.374691,"is_reserved":false,"is_disabled":false,"rental_uris":{"android":"levelo://app?vid=78811adb-f50c-4bb7-82e3-1b69d586dfc1","ios":"levelo://app?vid=78811adb-f50c-4bb7-82e3-1b69d586dfc1"},"vehicle_type_id":"4","last_reported":1751411434,"current_range_meters":21600,"station_id":"","pricing_plan_id":"cebpf4jnsgd1na2vs0mg"},{"bike_id":"fafa3e7a-ea85-47b9-9867-4cc150a47aaa","system_id":"levelo_inurba_marseille","lat":43.31067,"lon":5.3835,"is_reserved":false,"is_disabled":false,"rental_uris":{"android":"levelo://app?vid=fafa3e7a-ea85-47b9-9867-4cc150a47aaa","ios":"levelo://app?vid=fafa3e7a-ea85-47b9-9867-4cc150a47aaa"},"vehicle_type_id":"4","last_reported":1751411434,"current_range_meters":21600,"station_id":"ce4bgv92rcd13ifvqcr0","pricing_plan_id":"cebpf4jnsgd1na2vs0mg"},{"bike_id":"4ee364e5-d2e6-4657-91d5-078a604c14b0","system_id":"levelo_inurba_marseille","lat":43.30894,"lon":5.39653,"is_reserved":false,"is_disabled":false,"rental_uris":{"android":"levelo://app?vid=4ee364e5-d2e6-4657-91d5-078a604c14b0","ios":"levelo://app?vid=4ee364e5-d2e6-4657-91d5-078a604c14b0"},"vehicle_type_id":"4","last_reported":1751411434,"current_range_meters":21600,"station_id":"ce4bh012rcd13ifvqcv0","pricing_plan_id":"cebpf4jnsgd1na2vs0mg"},{"bike_id":"a8403a11-7708-4518-9856-372a31d0dbd6","system_id":"levelo_inurba_marseille","lat":43.28717,"lon":5.3996,"is_reserved":false,"is_disabled":false,"rental_uris":{"android":"levelo://app?vid=a8403a11-7708-4518-9856-372a31d0dbd6","ios":"levelo://app?vid=a8403a11-7708-4518-9856-372a31d0dbd6"},"vehicle_type_id":"4","last_reported":1751411434,"current_range_meters":21600,"station_id":"ce4bho92rcd13ifvqh3g","pricing_plan_id":"cebpf4jnsgd1na2vs0mg"},{"bike_id":"ee45dab8-3f08-4c7a-8322-5c5d727123ec","system_id":"levelo_inurba_marseille","lat":43.32351,"lon":5.40608,"is_reserved":false,"is_disabled":false,"rental_uris":{"android":"levelo://app?vid=ee45dab8-3f08-4c7a-8322-5c5d727123ec","ios":"levelo://app?vid=ee45dab8-3f08-4c7a-8322-5c5d727123ec"},"vehicle_type_id":"4","last_reported":1751411434,"current_range_meters":21600,"station_id":"ce4bhq92rcd13ifvqhjg","pricing_plan_id":"cebpf4jnsgd1na2vs0mg"},{"bike_id":"d393009a-4549-46b8-9394-75871ff606d4","system_id":"levelo_inurba_marseille","lat":43.32359,"lon":5.367513,"is_reserved":false,"is_disabled":false,"rental_uris":{"android":"levelo://app?vid=d393009a-4549-46b8-9394-75871ff606d4","ios":"levelo://app?vid=d393009a-4549-46b8-9394-75871ff606d4"},"vehicle_type_id":"4","last_reported":1751411434,"current_range_meters":22000,"station_id":"","pricing_plan_id":"cebpf4jnsgd1na2vs0mg"},{"bike_id":"2cb4697f-29e8-431a-8ff6-1bd5eef105cf","system_id":"levelo_inurba_marseille","lat":43.31166,"lon":5.38714,"is_reserved":false,"is_disabled":false,"rental_uris":{"android":"levelo://app?vid=2cb4697f-29e8-431a-8ff6-1bd5eef105cf","ios":"levelo://app?vid=2cb4697f-29e8-431a-8ff6-1bd5eef105cf"},"vehicle_type_id":"4","last_reported":1751411434,"current_range_meters":22000,"station_id":"ce4bgv12rcd13ifvqcp0","pricing_plan_id":"cebpf4jnsgd1na2vs0mg"},{"bike_id":"757a1f3a-eb92-4036-a04d-ee2606e2bcca","system_id":"levelo_inurba_marseille","lat":43.29571,"lon":5.39972,"is_reserved":false,"is_disabled":false,"rental_uris":{"android":"levelo://app?vid=757a1f3a-eb92-4036-a04d-ee2606e2bcca","ios":"levelo://app?vid=757a1f3a-eb92-4036-a04d-ee2606e2bcca"},"vehicle_type_id":"4","last_reported":1751411434,"current_range_meters":22000,"station_id":"ce4bh312rcd13ifvqdj0","pricing_plan_id":"cebpf4jnsgd1na2vs0mg"},{"bike_id":"a2c09ae1-252b-4356-a262-0c7e6c233884","system_id":"levelo_inurba_marseille","lat":43.26935,"lon":5.3891,"is_reserved":false,"is_disabled":false,"rental_uris":{"android":"levelo://app?vid=a2c09ae1-252b-4356-a262-0c7e6c233884","ios":"levelo://app?vid=a2c09ae1-252b-4356-a262-0c7e6c233884"},"vehicle_type_id":"4","last_reported":1751411434,"current_range_meters":22000,"station_id":"ce4bhhh2rcd13ifvqfl0","pricing_plan_id":"cebpf4jnsgd1na2vs0mg"},{"bike_id":"b2325bea-9a74-459a-a713-509c2ba84f3e","system_id":"levelo_inurba_marseille","lat":43.28324,"lon":5.41271,"is_reserved":false,"is_disabled":false,"rental_uris":{"android":"levelo://app?vid=b2325bea-9a74-459a-a713-509c2ba84f3e","ios":"levelo://app?vid=b2325bea-9a74-459a-a713-509c2ba84f3e"},"vehicle_type_id":"4","last_reported":1751411434,"current_range_meters":22400,"station_id":"","pricing_plan_id":"cebpf4jnsgd1na2vs0mg"},{"bike_id":"82029f37-dab8-49ad-96b9-9a55fa9e8652","system_id":"levelo_inurba_marseille","lat":43.31166,"lon":5.38723,"is_reserved":false,"is_disabled":false,"rental_uris":{"android":"levelo://app?vid=82029f37-dab8-49ad-96b9-9a55fa9e8652","ios":"levelo://app?vid=82029f37-dab8-49ad-96b9-9a55fa9e8652"},"vehicle_type_id":"4","last_reported":1751411434,"current_range_meters":22400,"station_id":"ce4bgv12rcd13ifvqcp0","pricing_plan_id":"cebpf4jnsgd1na2vs0mg"},{"bike_id":"9ef05213-df4c-4653-a85e-247f28f7fe4e","system_id":"levelo_inurba_marseille","lat":43.3031,"lon":5.40477,"is_reserved":false,"is_disabled":false,"rental_uris":{"android":"levelo://app?vid=9ef05213-df4c-4653-a85e-247f28f7fe4e","ios":"levelo://app?vid=9ef05213-df4c-4653-a85e-247f28f7fe4e"},"vehicle_type_id":"4","last_reported":1751411434,"current_range_meters":22400,"station_id":"ce4bh012rcd13ifvqd10","pricing_plan_id":"cebpf4jnsgd1na2vs0mg"},{"bike_id":"1ac3800d-b551-4226-bfa6-fbe7b45ae503","system_id":"levelo_inurba_marseille","lat":43.30646,"lon":5.40091,"is_reserved":false,"is_disabled":false,"rental_uris":{"android":"levelo://app?vid=1ac3800d-b551-4226-bfa6-fbe7b45ae503","ios":"levelo://app?vid=1ac3800d-b551-4226-bfa6-fbe7b45ae503"},"vehicle_type_id":"4","last_reported":1751411434,"current_range_meters":22400,"station_id":"ce4bh112rcd13ifvqda0","pricing_plan_id":"cebpf4jnsgd1na2vs0mg"},{"bike_id":"cc2be97d-82a8-4a78-9730-d33423a2abfa","system_id":"levelo_inurba_marseille","lat":43.29289,"lon":5.40163,"is_reserved":false,"is_disabled":false,"rental_uris":{"android":"levelo://app?vid=cc2be97d-82a8-4a78-9730-d33423a2abfa","ios":"levelo://app?vid=cc2be97d-82a8-4a78-9730-d33423a2abfa"},"vehicle_type_id":"4","last_reported":1751411434,"current_range_meters":22400,"station_id":"ce4bh312rcd13ifvqdk0","pricing_plan_id":"cebpf4jnsgd1na2vs0mg"},{"bike_id":"fd639549-cff6-4e2a-99dd-179281b981f7","system_id":"levelo_inurba_marseille","lat":43.29049,"lon":5.39924,"is_reserved":false,"is_disabled":false,"rental_uris":{"android":"levelo://app?vid=fd639549-cff6-4e2a-99dd-179281b981f7","ios":"levelo://app?vid=fd639549-cff6-4e2a-99dd-179281b981f7"},"vehicle_type_id":"4","last_reported":1751411434,"current_range_meters":22400,"station_id":"ce4bh392rcd13ifvqdm0","pricing_plan_id":"cebpf4jnsgd1na2vs0mg"},{"bike_id":"37babf29-10b7-4254-b338-46cdb7a8b8a5","system_id":"levelo_inurba_marseille","lat":43.28443,"lon":5.39205,"is_reserved":false,"is_disabled":false,"rental_uris":{"android":"levelo://app?vid=37babf29-10b7-4254-b338-46cdb7a8b8a5","ios":"levelo://app?vid=37babf29-10b7-4254-b338-46cdb7a8b8a5"},"vehicle_type_id":"4","last_reported":1751411434,"current_range_meters":22400,"station_id":"ce4bhoh2rcd13ifvqh5g","pricing_plan_id":"cebpf4jnsgd1na2vs0mg"},{"bike_id":"5a124bb1-3994-4924-a0c5-936fd6d2ae7b","system_id":"levelo_inurba_marseille","lat":43.31885,"lon":5.40737,"is_reserved":false,"is_disabled":false,"rental_uris":{"android":"levelo://app?vid=5a124bb1-3994-4924-a0c5-936fd6d2ae7b","ios":"levelo://app?vid=5a124bb1-3994-4924-a0c5-936fd6d2ae7b"},"vehicle_type_id":"4","last_reported":1751411434,"current_range_meters":22400,"station_id":"ce4bhq12rcd13ifvqhig","pricing_plan_id":"cebpf4jnsgd1na2vs0mg"},{"bike_id":"515ec3ca-f5c6-46fa-a700-b09851f49068","system_id":"levelo_inurba_marseille","lat":43.21201,"lon":5.35072,"is_reserved":false,"is_disabled":false,"rental_uris":{"android":"levelo://app?vid=515ec3ca-f5c6-46fa-a700-b09851f49068","ios":"levelo://app?vid=515ec3ca-f5c6-46fa-a700-b09851f49068"},"vehicle_type_id":"4","last_reported":1751411434,"current_range_meters":22400,"station_id":"st_cvj6sg6p6f1abm77japg","pricing_plan_id":"cebpf4jnsgd1na2vs0mg"},{"bike_id":"37b84a38-055a-4a6e-a56a-8ff3d0c1b2ec","system_id":"levelo_inurba_marseille","lat":43.21186,"lon":5.35085,"is_reserved":false,"is_disabled":false,"rental_uris":{"android":"levelo://app?vid=37b84a38-055a-4a6e-a56a-8ff3d0c1b2ec","ios":"levelo://app?vid=37b84a38-055a-4a6e-a56a-8ff3d0c1b2ec"},"vehicle_type_id":"4","last_reported":1751411434,"current_range_meters":22400,"station_id":"st_cvj6sg6p6f1abm77japg","pricing_plan_id":"cebpf4jnsgd1na2vs0mg"},{"bike_id":"b7c4f4e7-ddbb-4243-982d-1ca4f75e59a6","system_id":"levelo_inurba_marseille","lat":43.32264,"lon":5.36772,"is_reserved":false,"is_disabled":false,"rental_uris":{"android":"levelo://app?vid=b7c4f4e7-ddbb-4243-982d-1ca4f75e59a6","ios":"levelo://app?vid=b7c4f4e7-ddbb-4243-982d-1ca4f75e59a6"},"vehicle_type_id":"4","last_reported":1751411434,"current_range_meters":22800,"station_id":"","pricing_plan_id":"cebpf4jnsgd1na2vs0mg"},{"bike_id":"725a10b0-fe20-40f0-b549-b8326cc7900a","system_id":"levelo_inurba_marseille","lat":43.28463,"lon":5.35886,"is_reserved":false,"is_disabled":false,"rental_uris":{"android":"levelo://app?vid=725a10b0-fe20-40f0-b549-b8326cc7900a","ios":"levelo://app?vid=725a10b0-fe20-40f0-b549-b8326cc7900a"},"vehicle_type_id":"4","last_reported":1751411434,"current_range_meters":22800,"station_id":"ce4bhah2rcd13ifvqei0","pricing_plan_id":"cebpf4jnsgd1na2vs0mg"},{"bike_id":"2c27e379-c3f4-4cb9-a803-1da3ae08643e","system_id":"levelo_inurba_marseille","lat":43.23964,"lon":5.36625,"is_reserved":false,"is_disabled":false,"rental_uris":{"android":"levelo://app?vid=2c27e379-c3f4-4cb9-a803-1da3ae08643e","ios":"levelo://app?vid=2c27e379-c3f4-4cb9-a803-1da3ae08643e"},"vehicle_type_id":"4","last_reported":1751411434,"current_range_meters":22800,"station_id":"ce4bhi12rcd13ifvqfp0","pricing_plan_id":"cebpf4jnsgd1na2vs0mg"},{"bike_id":"2d5df1a3-acfb-45d5-a99f-efffd7e29a7d","system_id":"levelo_inurba_marseille","lat":43.26512,"lon":5.39527,"is_reserved":false,"is_disabled":false,"rental_uris":{"android":"levelo://app?vid=2d5df1a3-acfb-45d5-a99f-efffd7e29a7d","ios":"levelo://app?vid=2d5df1a3-acfb-45d5-a99f-efffd7e29a7d"},"vehicle_type_id":"4","last_reported":1751411434,"current_range_meters":22800,"station_id":"ce4bhi12rcd13ifvqfq0","pricing_plan_id":"cebpf4jnsgd1na2vs0mg"},{"bike_id":"637a8044-2394-48b8-a878-f1d9477e103d","system_id":"levelo_inurba_marseille","lat":43.2511,"lon":5.40324,"is_reserved":false,"is_disabled":false,"rental_uris":{"android":"levelo://app?vid=637a8044-2394-48b8-a878-f1d9477e103d","ios":"levelo://app?vid=637a8044-2394-48b8-a878-f1d9477e103d"},"vehicle_type_id":"4","last_reported":1751411434,"current_range_meters":22800,"station_id":"ce4bhlh2rcd13ifvqgig","pricing_plan_id":"cebpf4jnsgd1na2vs0mg"},{"bike_id":"2c1a8a84-7c8d-44f5-a3ab-3cde01b0279f","system_id":"levelo_inurba_marseille","lat":43.23144,"lon":5.4373,"is_reserved":false,"is_disabled":false,"rental_uris":{"android":"levelo://app?vid=2c1a8a84-7c8d-44f5-a3ab-3cde01b0279f","ios":"levelo://app?vid=2c1a8a84-7c8d-44f5-a3ab-3cde01b0279f"},"vehicle_type_id":"4","last_reported":1751411434,"current_range_meters":22800,"station_id":"ce4bhmp2rcd13ifvqgog","pricing_plan_id":"cebpf4jnsgd1na2vs0mg"},{"bike_id":"48a8b866-9a64-4b58-8b3a-d988de0d4af0","system_id":"levelo_inurba_marseille","lat":43.24166,"lon":5.36385,"is_reserved":false,"is_disabled":false,"rental_uris":{"android":"levelo://app?vid=48a8b866-9a64-4b58-8b3a-d988de0d4af0","ios":"levelo://app?vid=48a8b866-9a64-4b58-8b3a-d988de0d4af0"},"vehicle_type_id":"4","last_reported":1751411434,"current_range_meters":22800,"station_id":"cpo36qri1sfpv3e86is0","pricing_plan_id":"cebpf4jnsgd1na2vs0mg"},{"bike_id":"821ebb4e-dab0-4cd0-a18a-20bedcf3937c","system_id":"levelo_inurba_marseille","lat":43.27893,"lon":5.37908,"is_reserved":false,"is_disabled":false,"rental_uris":{"android":"levelo://app?vid=821ebb4e-dab0-4cd0-a18a-20bedcf3937c","ios":"levelo://app?vid=821ebb4e-dab0-4cd0-a18a-20bedcf3937c"},"vehicle_type_id":"4","last_reported":1751411434,"current_range_meters":23200,"station_id":"","pricing_plan_id":"cebpf4jnsgd1na2vs0mg"},{"bike_id":"e3649e5f-c995-4872-897d-aa9a0c5a993b","system_id":"levelo_inurba_marseille","lat":43.31062,"lon":5.38342,"is_reserved":false,"is_disabled":false,"rental_uris":{"android":"levelo://app?vid=e3649e5f-c995-4872-897d-aa9a0c5a993b","ios":"levelo://app?vid=e3649e5f-c995-4872-897d-aa9a0c5a993b"},"vehicle_type_id":"4","last_reported":1751411434,"current_range_meters":23200,"station_id":"ce4bgv92rcd13ifvqcr0","pricing_plan_id":"cebpf4jnsgd1na2vs0mg"},{"bike_id":"572efbd4-3040-4e29-aba0-53d59c23467f","system_id":"levelo_inurba_marseille","lat":43.30252,"lon":5.40058,"is_reserved":false,"is_disabled":false,"rental_uris":{"android":"levelo://app?vid=572efbd4-3040-4e29-aba0-53d59c23467f","ios":"levelo://app?vid=572efbd4-3040-4e29-aba0-53d59c23467f"},"vehicle_type_id":"4","last_reported":1751411434,"current_range_meters":23200,"station_id":"ce4bgvh2rcd13ifvqcs0","pricing_plan_id":"cebpf4jnsgd1na2vs0mg"},{"bike_id":"89d1d90a-8f02-4d60-b821-9a3bcf5d8b31","system_id":"levelo_inurba_marseille","lat":43.30325,"lon":5.40438,"is_reserved":false,"is_disabled":false,"rental_uris":{"android":"levelo://app?vid=89d1d90a-8f02-4d60-b821-9a3bcf5d8b31","ios":"levelo://app?vid=89d1d90a-8f02-4d60-b821-9a3bcf5d8b31"},"vehicle_type_id":"4","last_reported":1751411434,"current_range_meters":23200,"station_id":"ce4bh012rcd13ifvqd10","pricing_plan_id":"cebpf4jnsgd1na2vs0mg"},{"bike_id":"9c8f26e7-3318-45a6-b43e-5886f4432834","system_id":"levelo_inurba_marseille","lat":43.28041,"lon":5.36942,"is_reserved":false,"is_disabled":false,"rental_uris":{"android":"levelo://app?vid=9c8f26e7-3318-45a6-b43e-5886f4432834","ios":"levelo://app?vid=9c8f26e7-3318-45a6-b43e-5886f4432834"},"vehicle_type_id":"4","last_reported":1751411434,"current_range_meters":23200,"station_id":"ce4bha12rcd13ifvqef0","pricing_plan_id":"cebpf4jnsgd1na2vs0mg"},{"bike_id":"35a38d9f-af4d-4a62-9e6c-8bfc8cca2d52","system_id":"levelo_inurba_marseille","lat":43.22933,"lon":5.35397,"is_reserved":false,"is_disabled":false,"rental_uris":{"android":"levelo://app?vid=35a38d9f-af4d-4a62-9e6c-8bfc8cca2d52","ios":"levelo://app?vid=35a38d9f-af4d-4a62-9e6c-8bfc8cca2d52"},"vehicle_type_id":"4","last_reported":1751411434,"current_range_meters":23200,"station_id":"cpo3532slgdg3j2ikp40","pricing_plan_id":"cebpf4jnsgd1na2vs0mg"},{"bike_id":"4d4995e7-0bba-4ac2-a238-afd84a5e99b5","system_id":"levelo_inurba_marseille","lat":43.304848,"lon":5.398345,"is_reserved":false,"is_disabled":false,"rental_uris":{"android":"levelo://app?vid=4d4995e7-0bba-4ac2-a238-afd84a5e99b5","ios":"levelo://app?vid=4d4995e7-0bba-4ac2-a238-afd84a5e99b5"},"vehicle_type_id":"4","last_reported":1751411434,"current_range_meters":24000,"station_id":"","pricing_plan_id":"cebpf4jnsgd1na2vs0mg"},{"bike_id":"2d7ab8c9-ccb6-4168-91f8-ffbbd54cc09d","system_id":"levelo_inurba_marseille","lat":43.29745,"lon":5.37007,"is_reserved":false,"is_disabled":false,"rental_uris":{"android":"levelo://app?vid=2d7ab8c9-ccb6-4168-91f8-ffbbd54cc09d","ios":"levelo://app?vid=2d7ab8c9-ccb6-4168-91f8-ffbbd54cc09d"},"vehicle_type_id":"4","last_reported":1751411434,"current_range_meters":24000,"station_id":"","pricing_plan_id":"cebpf4jnsgd1na2vs0mg"},{"bike_id":"e3a98632-a7b9-4584-8553-1e74b7dee560","system_id":"levelo_inurba_marseille","lat":43.30249,"lon":5.40046,"is_reserved":false,"is_disabled":false,"rental_uris":{"android":"levelo://app?vid=e3a98632-a7b9-4584-8553-1e74b7dee560","ios":"levelo://app?vid=e3a98632-a7b9-4584-8553-1e74b7dee560"},"vehicle_type_id":"4","last_reported":1751411434,"current_range_meters":24000,"station_id":"ce4bgvh2rcd13ifvqcs0","pricing_plan_id":"cebpf4jnsgd1na2vs0mg"},{"bike_id":"38532e47-839d-4523-a481-e01d39b98fc5","system_id":"levelo_inurba_marseille","lat":43.31254,"lon":5.40175,"is_reserved":false,"is_disabled":false,"rental_uris":{"android":"levelo://app?vid=38532e47-839d-4523-a481-e01d39b98fc5","ios":"levelo://app?vid=38532e47-839d-4523-a481-e01d39b98fc5"},"vehicle_type_id":"4","last_reported":1751411434,"current_range_meters":24000,"station_id":"ce4bh092rcd13ifvqd30","pricing_plan_id":"cebpf4jnsgd1na2vs0mg"},{"bike_id":"925f495f-4339-4d1c-8895-5fe178a84e91","system_id":"levelo_inurba_marseille","lat":43.2925,"lon":5.40911,"is_reserved":false,"is_disabled":false,"rental_uris":{"android":"levelo://app?vid=925f495f-4339-4d1c-8895-5fe178a84e91","ios":"levelo://app?vid=925f495f-4339-4d1c-8895-5fe178a84e91"},"vehicle_type_id":"4","last_reported":1751411434,"current_range_meters":24000,"station_id":"ce4bh192rcd13ifvqdc0","pricing_plan_id":"cebpf4jnsgd1na2vs0mg"},{"bike_id":"37bde3ba-f88c-4428-9f87-ed11f840512b","system_id":"levelo_inurba_marseille","lat":43.29437,"lon":5.3976,"is_reserved":false,"is_disabled":false,"rental_uris":{"android":"levelo://app?vid=37bde3ba-f88c-4428-9f87-ed11f840512b","ios":"levelo://app?vid=37bde3ba-f88c-4428-9f87-ed11f840512b"},"vehicle_type_id":"4","last_reported":1751411434,"current_range_meters":24000,"station_id":"ce4bh3h2rcd13ifvqdo0","pricing_plan_id":"cebpf4jnsgd1na2vs0mg"},{"bike_id":"7e8761bb-bfe1-4a6e-b90d-5fa4a36f6e8e","system_id":"levelo_inurba_marseille","lat":43.24547,"lon":5.39533,"is_reserved":false,"is_disabled":false,"rental_uris":{"android":"levelo://app?vid=7e8761bb-bfe1-4a6e-b90d-5fa4a36f6e8e","ios":"levelo://app?vid=7e8761bb-bfe1-4a6e-b90d-5fa4a36f6e8e"},"vehicle_type_id":"4","last_reported":1751411434,"current_range_meters":24000,"station_id":"ce4bhlp2rcd13ifvqgjg","pricing_plan_id":"cebpf4jnsgd1na2vs0mg"},{"bike_id":"aad76093-cca7-41b9-a03e-efb3cde70f0a","system_id":"levelo_inurba_marseille","lat":43.30003,"lon":5.38858,"is_reserved":false,"is_disabled":false,"rental_uris":{"android":"levelo://app?vid=aad76093-cca7-41b9-a03e-efb3cde70f0a","ios":"levelo://app?vid=aad76093-cca7-41b9-a03e-efb3cde70f0a"},"vehicle_type_id":"4","last_reported":1751411434,"current_range_meters":24400,"station_id":"","pricing_plan_id":"cebpf4jnsgd1na2vs0mg"},