{"last_updated":1726215106,"ttl":30,"version":"2.2","data":{"bikes":[{"bike_id":"2ca2fd52-6283-4397-ac7e-8db28b0c8f78","system_id":"levelo_inurba_marseille","lat":43.23196,"lon":5.35555,"is_reserved":false,"is_disabled":false,"rental_uris":{"android":"levelo://app?vid=2ca2fd52-6283-4397-ac7e-8db28b0c8f78","ios":"levelo://app?vid=2ca2fd52-6283-4397-ac7e-8db28b0c8f78"},"vehicle_type_id":"4","last_reported":1726215106,"current_range_meters":12800,"station_id":"ce4bhu92rcd13ifvqi70","pricing_plan_id":"cebpf4jnsgd1na2vs0mg"},{"bike_id":"2c88e731-11a2-44d0-806c-83ba8bff3e6b","system_id":"levelo_inurba_marseille","lat":43.30319,"lon":5.36909,"is_reserved":false,"is_disabled":false,"rental_uris":{"android":"levelo://app?vid=2c88e731-11a2-44d0-806c-83ba8bff3e6b","ios":"levelo://app?vid=2c88e731-11a2-44d0-806c-83ba8bff3e6b"},"vehicle_type_id":"4","last_reported":1726215106,"current_range_meters":39200,"station_id":"ce4bgqh2rcd13ifvqc5g","pricing_plan_id":"cebpf4jnsgd1na2vs0mg"},{"bike_id":"78daf548-540b-4a2e-b49b-346b3b3d76ec","system_id":"levelo_inurba_marseille","lat":43.23167,"lon":5.43709,"is_reserved":false,"is_disabled":false,"rental_uris":{"android":"levelo://app?vid=78daf548-540b-4a2e-b49b-346b3b3d76ec","ios":"levelo://app?vid=78daf548-540b-4a2e-b49b-346b3b3d76ec"},"vehicle_type_id":"4","last_reported":1726215106,"current_range_meters":12400,"station_id":"ce4bhmp2rcd13ifvqgog","pricing_plan_id":"cebpf4jnsgd1na2vs0mg"},{"bike_id":"06d633bc-3468-451e-ad8c-e487093dd302","system_id":"levelo_inurba_marseille","lat":43.29036,"lon":5.39964,"is_reserved":false,"is_disabled":false,"rental_uris":{"android":"levelo://app?vid=06d633bc-3468-451e-ad8c-e487093dd302","ios":"levelo://app?vid=06d633bc-3468-451e-ad8c-e487093dd302"},"vehicle_type_id":"4","last_reported":1726215106,"current_range_meters":22800,"station_id":"ce4bh392rcd13ifvqdm0","pricing_plan_id":"cebpf4jnsgd1na2vs0mg"},{"bike_id":"1433cc86-19c5-4d38-a0b5-c5c087739e0a","system_id":"levelo_inurba_marseille","lat":43.22932,"lon":5.35374,"is_reserved":false,"is_disabled":false,"rental_uris":{"android":"levelo://app?vid=1433cc86-19c5-4d38-a0b5-c5c087739e0a","ios":"levelo://app?vid=1433cc86-19c5-4d38-a0b5-c5c087739e0a"},"vehicle_type_id":"4","last_reported":1726215106,"current_range_meters":31200,"station_id":"cpo3532slgdg3j2ikp40","pricing_plan_id":"cebpf4jnsgd1na2vs0mg"},{"bike_id":"ad4e1c78-f0d7-492f-b728-5e388f9b88f9","system_id":"levelo_inurba_marseille","lat":43.26951,"lon":5.38628,"is_reserved":false,"is_disabled":false,"rental_uris":{"android":"levelo://app?vid=ad4e1c78-f0d7-492f-b728-5e388f9b88f9","ios":"levelo://app?vid=ad4e1c78-f0d7-492f-b728-5e388f9b88f9"},"vehicle_type_id":"4","last_reported":1726215106,"current_range_meters":19200,"station_id":"ce4bhh92rcd13ifvqfh0","pricing_plan_id":"cebpf4jnsgd1na2vs0mg"},{"bike_id":"17eaeb7a-22bf-4e92-bb7d-8f4c1ac5a7dd","system_id":"levelo_inurba_marseille","lat":43.27486,"lon":5.42473,"is_reserved":false,"is_disabled":false,"rental_uris":{"android":"levelo://app?vid=17eaeb7a-22bf-4e92-bb7d-8f4c1ac5a7dd","ios":"levelo://app?vid=17eaeb7a-22bf-4e92-bb7d-8f4c1ac5a7dd"},"vehicle_type_id":"4","last_reported":1726215106,"current_range_meters":38800,"station_id":"ce4bhn92rcd13ifvqgrg","pricing_plan_id":"cebpf4jnsgd1na2vs0mg"},{"bike_id":"ae8c7bd4-e320-4650-aaec-5acdea38c512","system_id":"levelo_inurba_marseille","lat":43.28092,"lon":5.38709,"is_reserved":false,"is_disabled":false,"rental_uris":{"android":"levelo://app?vid=ae8c7bd4-e320-4650-aaec-5acdea38c512","ios":"levelo://app?vid=ae8c7bd4-e320-4650-aaec-5acdea38c512"},"vehicle_type_id":"4","last_reported":1726215106,"current_range_meters":22800,"station_id":"","pricing_plan_id":"cebpf4jnsgd1na2vs0mg"},{"bike_id":"0ac293a5-409b-4c77-9d1b-336bd09deec1","system_id":"levelo_inurba_marseille","lat":43.31506,"lon":5.37312,"is_reserved":false,"is_disabled":false,"rental_uris":{"android":"levelo://app?vid=0ac293a5-409b-4c77-9d1b-336bd09deec1","ios":"levelo://app?vid=0ac293a5-409b-4c77-9d1b-336bd09deec1"},"vehicle_type_id":"4","last_reported":1726215106,"current_range_meters":37600,"station_id":"ce4bgt12rcd13ifvqcd0","pricing_plan_id":"cebpf4jnsgd1na2vs0mg"},{"bike_id":"6857c5d1-5581-450d-a969-e54e4e134161","system_id":"levelo_inurba_marseille","lat":43.2758,"lon":5.384,"is_reserved":false,"is_disabled":false,"rental_uris":{"android":"levelo://app?vid=6857c5d1-5581-450d-a969-e54e4e134161","ios":"levelo://app?vid=6857c5d1-5581-450d-a969-e54e4e134161"},"vehicle_type_id":"4","last_reported":1726215106,"current_range_meters":30000,"station_id":"ce4bhh92rcd13ifvqfi0","pricing_plan_id":"cebpf4jnsgd1na2vs0mg"},{"bike_id":"1c9df10b-5f8c-4fbe-a691-32d403952ff7","system_id":"levelo_inurba_marseille","lat":43.33607,"lon":5.41036,"is_reserved":false,"is_disabled":false,"rental_uris":{"android":"levelo://app?vid=1c9df10b-5f8c-4fbe-a691-32d403952ff7","ios":"levelo://app?vid=1c9df10b-5f8c-4fbe-a691-32d403952ff7"},"vehicle_type_id":"4","last_reported":1726215106,"current_range_meters":14000,"station_id":"ce4bhqh2rcd13ifvqhmg","pricing_plan_id":"cebpf4jnsgd1na2vs0mg"},{"bike_id":"b961dfeb-c89b-4953-8a6f-897cb13c41c1","system_id":"levelo_inurba_marseille","lat":43.33608,"lon":5.41023,"is_reserved":false,"is_disabled":false,"rental_uris":{"android":"levelo://app?vid=b961dfeb-c89b-4953-8a6f-897cb13c41c1","ios":"levelo://app?vid=b961dfeb-c89b-4953-8a6f-897cb13c41c1"},"vehicle_type_id":"4","last_reported":1726215106,"current_range_meters":27200,"station_id":"ce4bhqh2rcd13ifvqhmg","pricing_plan_id":"cebpf4jnsgd1na2vs0mg"},{"bike_id":"20a93905-b3a1-4ead-a861-f6bd36aa5b5e","system_id":"levelo_inurba_marseille","lat":43.23155,"lon":5.4371,"is_reserved":false,"is_disabled":false,"rental_uris":{"android":"levelo://app?vid=20a93905-b3a1-4ead-a861-f6bd36aa5b5e","ios":"levelo://app?vid=20a93905-b3a1-4ead-a861-f6bd36aa5b5e"},"vehicle_type_id":"4","last_reported":1726215106,"current_range_meters":21600,"station_id":"ce4bhmp2rcd13ifvqgog","pricing_plan_id":"cebpf4jnsgd1na2vs0mg"},{"bike_id":"5acc2cfe-a866-4897-9174-0395a94f269d","system_id":"levelo_inurba_marseille","lat":43.31704,"lon":5.37749,"is_reserved":false,"is_disabled":false,"rental_uris":{"android":"levelo://app?vid=5acc2cfe-a866-4897-9174-0395a94f269d","ios":"levelo://app?vid=5acc2cfe-a866-4897-9174-0395a94f269d"},"vehicle_type_id":"4","last_reported":1726215106,"current_range_meters":8800,"station_id":"ce4bgth2rcd13ifvqch0","pricing_plan_id":"cebpf4jnsgd1na2vs0mg"},{"bike_id":"118d8d6e-e982-4920-9eff-10d0a637c53e","system_id":"levelo_inurba_marseille","lat":43.24082,"lon":5.37757,"is_reserved":false,"is_disabled":false,"rental_uris":{"android":"levelo://app?vid=118d8d6e-e982-4920-9eff-10d0a637c53e","ios":"levelo://app?vid=118d8d6e-e982-4920-9eff-10d0a637c53e"},"vehicle_type_id":"4","last_reported":1726215106,"current_range_meters":8800,"station_id":"ce4bhnp2rcd13ifvqgvg","pricing_plan_id":"cebpf4jnsgd1na2vs0mg"},{"bike_id":"f8d0fba0-b375-496d-9fb6-aac6b8a7715f","system_id":"levelo_inurba_marseille","lat":43.3171,"lon":5.37727,"is_reserved":false,"is_disabled":false,"rental_uris":{"android":"levelo://app?vid=f8d0fba0-b375-496d-9fb6-aac6b8a7715f","ios":"levelo://app?vid=f8d0fba0-b375-496d-9fb6-aac6b8a7715f"},"vehicle_type_id":"4","last_reported":1726215106,"current_range_meters":10000,"station_id":"ce4bgth2rcd13ifvqch0","pricing_plan_id":"cebpf4jnsgd1na2vs0mg"},{"bike_id":"f45d9413-9a73-47f2-a10e-0dc762623601","system_id":"levelo_inurba_marseille","lat":43.23161,"lon":5.43703,"is_reserved":false,"is_disabled":false,"rental_uris":{"android":"levelo://app?vid=f45d9413-9a73-47f2-a10e-0dc762623601","ios":"levelo://app?vid=f45d9413-9a73-47f2-a10e-0dc762623601"},"vehicle_type_id":"4","last_reported":1726215106,"current_range_meters":38000,"station_id":"ce4bhmp2rcd13ifvqgog","pricing_plan_id":"cebpf4jnsgd1na2vs0mg"},{"bike_id":"54aa2a47-2273-403b-adac-c28fe72c49bd","system_id":"levelo_inurba_marseille","lat":43.30159,"lon":5.38069,"is_reserved":false,"is_disabled":false,"rental_uris":{"android":"levelo://app?vid=54aa2a47-2273-403b-adac-c28fe72c49bd","ios":"levelo://app?vid=54aa2a47-2273-403b-adac-c28fe72c49bd"},"vehicle_type_id":"4","last_reported":1726215106,"current_range_meters":38800,"station_id":"ce4bgjp2rcd13ifvqbh0","pricing_plan_id":"cebpf4jnsgd1na2vs0mg"},{"bike_id":"13ec4916-f0ea-4897-8afc-596425b42c42","system_id":"levelo_inurba_marseille","lat":43.23193,"lon":5.35551,"is_reserved":false,"is_disabled":false,"rental_uris":{"android":"levelo://app?vid=13ec4916-f0ea-4897-8afc-596425b42c42","ios":"levelo://app?vid=13ec4916-f0ea-4897-8afc-596425b42c42"},"vehicle_type_id":"4","last_reported":1726215106,"current_range_meters":32800,"station_id":"ce4bhu92rcd13ifvqi70","pricing_plan_id":"cebpf4jnsgd1na2vs0mg"},{"bike_id":"4763e540-68d4-47e4-91ce-c776505c9525","system_id":"levelo_inurba_marseille","lat":43.29919,"lon":5.37463,"is_reserved":false,"is_disabled":false,"rental_uris":{"android":"levelo://app?vid=4763e540-68d4-47e4-91ce-c776505c9525","ios":"levelo://app?vid=4763e540-68d4-47e4-91ce-c776505c9525"},"vehicle_type_id":"4","last_reported":1726215106,"current_range_meters":30400,"station_id":"ce4bgjh2rcd13ifvqbg0","pricing_plan_id":"cebpf4jnsgd1na2vs0mg"},{"bike_id":"b6e3e73b-d583-48b5-980c-ef8c79d236fd","system_id":"levelo_inurba_marseille","lat":43.2408,"lon":5.37757,"is_reserved":false,"is_disabled":false,"rental_uris":{"android":"levelo://app?vid=b6e3e73b-d583-48b5-980c-ef8c79d236fd","ios":"levelo://app?vid=b6e3e73b-d583-48b5-980c-ef8c79d236fd"},"vehicle_type_id":"4","last_reported":1726215106,"current_range_meters":30400,"station_id":"ce4bhnp2rcd13ifvqgvg","pricing_plan_id":"cebpf4jnsgd1na2vs0mg"},{"bike_id":"a59d64a6-0c90-478e-8726-6eda2f84c2f7","system_id":"levelo_inurba_marseille","lat":43.26035,"lon":5.37546,"is_reserved":false,"is_disabled":false,"rental_uris":{"android":"levelo://app?vid=a59d64a6-0c90-478e-8726-6eda2f84c2f7","ios":"levelo://app?vid=a59d64a6-0c90-478e-8726-6eda2f84c2f7"},"vehicle_type_id":"4","last_reported":1726215106,"current_range_meters":6000,"station_id":"ce4bhgh2rcd13ifvqfa0","pricing_plan_id":"cebpf4jnsgd1na2vs0mg"},{"bike_id":"d035d579-2e69-4a79-8e97-e3875f643f43","system_id":"levelo_inurba_marseille","lat":43.25831,"lon":5.39433,"is_reserved":false,"is_disabled":false,"rental_uris":{"android":"levelo://app?vid=d035d579-2e69-4a79-8e97-e3875f643f43","ios":"levelo://app?vid=d035d579-2e69-4a79-8e97-e3875f643f43"},"vehicle_type_id":"4","last_reported":1726215106,"current_range_meters":39200,"station_id":"ce4bhip2rcd13ifvqft0","pricing_plan_id":"cebpf4jnsgd1na2vs0mg"},{"bike_id":"acd8a3d5-a9db-4ea3-b234-2a790cfd605a","system_id":"levelo_inurba_marseille","lat":43.23965,"lon":5.36619,"is_reserved":false,"is_disabled":false,"rental_uris":{"android":"levelo://app?vid=acd8a3d5-a9db-4ea3-b234-2a790cfd605a","ios":"levelo://app?vid=acd8a3d5-a9db-4ea3-b234-2a790cfd605a"},"vehicle_type_id":"4","last_reported":1726215106,"current_range_meters":17200,"station_id":"ce4bhi12rcd13ifvqfp0","pricing_plan_id":"cebpf4jnsgd1na2vs0mg"},{"bike_id":"ea778e9e-9567-4c5b-81e0-3475dd96fd52","system_id":"levelo_inurba_marseille","lat":43.28159,"lon":5.42638,"is_reserved":false,"is_disabled":false,"rental_uris":{"android":"levelo://app?vid=ea778e9e-9567-4c5b-81e0-3475dd96fd52","ios":"levelo://app?vid=ea778e9e-9567-4c5b-81e0-3475dd96fd52"},"vehicle_type_id":"4","last_reported":1726215106,"current_range_meters":30000,"station_id":"ce4bhnh2rcd13ifvqgug","pricing_plan_id":"cebpf4jnsgd1na2vs0mg"},{"bike_id":"f16d9709-3a53-4cda-9f88-fe6320822116","system_id":"levelo_inurba_marseille","lat":43.24084,"lon":5.37749,"is_reserved":false,"is_disabled":false,"rental_uris":{"android":"levelo://app?vid=f16d9709-3a53-4cda-9f88-fe6320822116","ios":"levelo://app?vid=f16d9709-3a53-4cda-9f88-fe6320822116"},"vehicle_type_id":"4","last_reported":1726215106,"current_range_meters":26800,"station_id":"ce4bhnp2rcd13ifvqgvg","pricing_plan_id":"cebpf4jnsgd1na2vs0mg"},{"bike_id":"ee5bd0a5-1257-48de-9343-ea8521c36cdd","system_id":"levelo_inurba_marseille","lat":43.23199,"lon":5.35551,"is_reserved":false,"is_disabled":false,"rental_uris":{"android":"levelo://app?vid=ee5bd0a5-1257-48de-9343-ea8521c36cdd","ios":"levelo://app?vid=ee5bd0a5-1257-48de-9343-ea8521c36cdd"},"vehicle_type_id":"4","last_reported":1726215106,"current_range_meters":4400,"station_id":"ce4bhu92rcd13ifvqi70","pricing_plan_id":"cebpf4jnsgd1na2vs0mg"},{"bike_id":"995d3a7e-289e-4ebd-b785-9d2da426ad57","system_id":"levelo_inurba_marseille","lat":43.23193,"lon":5.35537,"is_reserved":false,"is_disabled":false,"rental_uris":{"android":"levelo://app?vid=995d3a7e-289e-4ebd-b785-9d2da426ad57","ios":"levelo://app?vid=995d3a7e-289e-4ebd-b785-9d2da426ad57"},"vehicle_type_id":"4","last_reported":1726215106,"current_range_meters":27600,"station_id":"ce4bhu92rcd13ifvqi70","pricing_plan_id":"cebpf4jnsgd1na2vs0mg"},{"bike_id":"74c67d55-8a5f-40c9-8066-d68354718f8c","system_id":"levelo_inurba_marseille","lat":43.23195,"lon":5.35551,"is_reserved":false,"is_disabled":false,"rental_uris":{"android":"levelo://app?vid=74c67d55-8a5f-40c9-8066-d68354718f8c","ios":"levelo://app?vid=74c67d55-8a5f-40c9-8066-d68354718f8c"},"vehicle_type_id":"4","last_reported":1726215106,"current_range_meters":30800,"station_id":"ce4bhu92rcd13ifvqi70","pricing_plan_id":"cebpf4jnsgd1na2vs0mg"},{"bike_id":"ce6d4141-dafd-49ae-b179-ff03abd3cf57","system_id":"levelo_inurba_marseille","lat":43.25579,"lon":5.38232,"is_reserved":false,"is_disabled":false,"rental_uris":{"android":"levelo://app?vid=ce6d4141-dafd-49ae-b179-ff03abd3cf57","ios":"levelo://app?vid=ce6d4141-dafd-49ae-b179-ff03abd3cf57"},"vehicle_type_id":"4","last_reported":1726215106,"current_range_meters":18000,"station_id":"ce4bhih2rcd13ifvqfs0","pricing_plan_id":"cebpf4jnsgd1na2vs0mg"},{"bike_id":"c7a72c95-d3e6-46b3-8c83-3114a189ce35","system_id":"levelo_inurba_marseille","lat":43.25582,"lon":5.3823,"is_reserved":false,"is_disabled":false,"rental_uris":{"android":"levelo://app?vid=c7a72c95-d3e6-46b3-8c83-3114a189ce35","ios":"levelo://app?vid=c7a72c95-d3e6-46b3-8c83-3114a189ce35"},"vehicle_type_id":"4","last_reported":1726215106,"current_range_meters":9600,"station_id":"ce4bhih2rcd13ifvqfs0","pricing_plan_id":"cebpf4jnsgd1na2vs0mg"},{"bike_id":"9f41d6ac-b6f0-407c-8958-c25276347868","system_id":"levelo_inurba_marseille","lat":43.30962,"lon":5.39032,"is_reserved":false,"is_disabled":false,"rental_uris":{"android":"levelo://app?vid=9f41d6ac-b6f0-407c-8958-c25276347868","ios":"levelo://app?vid=9f41d6ac-b6f0-407c-8958-c25276347868"},"vehicle_type_id":"4","last_reported":1726215106,"current_range_meters":39200,"station_id":"ce4bgup2rcd13ifvqco0","pricing_plan_id":"cebpf4jnsgd1na2vs0mg"},{"bike_id":"ddcd6a1d-6048-412e-a374-9c40896ddcb7","system_id":"levelo_inurba_marseille","lat":43.23162,"lon":5.43701,"is_reserved":false,"is_disabled":false,"rental_uris":{"android":"levelo://app?vid=ddcd6a1d-6048-412e-a374-9c40896ddcb7","ios":"levelo://app?vid=ddcd6a1d-6048-412e-a374-9c40896ddcb7"},"vehicle_type_id":"4","last_reported":1726215106,"current_range_meters":16000,"station_id":"ce4bhmp2rcd13ifvqgog","pricing_plan_id":"cebpf4jnsgd1na2vs0mg"},{"bike_id":"7f7d711b-d42e-403c-8bf5-e4217831a361","system_id":"levelo_inurba_marseille","lat":43.28353,"lon":5.38101,"is_reserved":false,"is_disabled":false,"rental_uris":{"android":"levelo://app?vid=7f7d711b-d42e-403c-8bf5-e4217831a361","ios":"levelo://app?vid=7f7d711b-d42e-403c-8bf5-e4217831a361"},"vehicle_type_id":"4","last_reported":1726215106,"current_range_meters":18000,"station_id":"ce4bh412rcd13ifvqdr0","pricing_plan_id":"cebpf4jnsgd1na2vs0mg"},{"bike_id":"cc2db375-fdd5-4fea-ab1a-7a2f5e969165","system_id":"levelo_inurba_marseille","lat":43.26226,"lon":5.37449,"is_reserved":false,"is_disabled":false,"rental_uris":{"android":"levelo://app?vid=cc2db375-fdd5-4fea-ab1a-7a2f5e969165","ios":"levelo://app?vid=cc2db375-fdd5-4fea-ab1a-7a2f5e969165"},"vehicle_type_id":"4","last_reported":1726215106,"current_range_meters":18000,"station_id":"ce4bhgp2rcd13ifvqfc0","pricing_plan_id":"cebpf4jnsgd1na2vs0mg"},{"bike_id":"4c3408ec-cd57-468f-a4f3-d648cffdd4db","system_id":"levelo_inurba_marseille","lat":43.30493,"lon":5.37915,"is_reserved":false,"is_disabled":false,"rental_uris":{"android":"levelo://app?vid=4c3408ec-cd57-468f-a4f3-d648cffdd4db","ios":"levelo://app?vid=4c3408ec-cd57-468f-a4f3-d648cffdd4db"},"vehicle_type_id":"4","last_reported":1726215106,"current_range_meters":39200,"station_id":"ce4bgup2rcd13ifvqcn0","pricing_plan_id":"cebpf4jnsgd1na2vs0mg"},{"bike_id":"59488802-6166-4a54-8b1e-a1f33164b68c","system_id":"levelo_inurba_marseille","lat":43.30277,"lon":5.37697,"is_reserved":false,"is_disabled":false,"rental_uris":{"android":"levelo://app?vid=59488802-6166-4a54-8b1e-a1f33164b68c","ios":"levelo://app?vid=59488802-6166-4a54-8b1e-a1f33164b68c"},"vehicle_type_id":"4","last_reported":1726215106,"current_range_meters":30000,"station_id":"ce4bguh2rcd13ifvqcj0","pricing_plan_id":"cebpf4jnsgd1na2vs0mg"},{"bike_id":"d6f781b5-d5a7-4af2-81cd-266dd0f272bf","system_id":"levelo_inurba_marseille","lat":43.33616,"lon":5.41028,"is_reserved":false,"is_disabled":false,"rental_uris":{"android":"levelo://app?vid=d6f781b5-d5a7-4af2-81cd-266dd0f272bf","ios":"levelo://app?vid=d6f781b5-d5a7-4af2-81cd-266dd0f272bf"},"vehicle_type_id":"4","last_reported":1726215106,"current_range_meters":39200,"station_id":"ce4bhqh2rcd13ifvqhmg","pricing_plan_id":"cebpf4jnsgd1na2vs0mg"},{"bike_id":"8650baf2-bb77-4de5-86db-3d5c55fc9920","system_id":"levelo_inurba_marseille","lat":43.29834,"lon":5.36268,"is_reserved":false,"is_disabled":false,"rental_uris":{"android":"levelo://app?vid=8650baf2-bb77-4de5-86db-3d5c55fc9920","ios":"levelo://app?vid=8650baf2-bb77-4de5-86db-3d5c55fc9920"},"vehicle_type_id":"4","last_reported":1726215106,"current_range_meters":30800,"station_id":"ce4bgpp2rcd13ifvqc3g","pricing_plan_id":"cebpf4jnsgd1na2vs0mg"},{"bike_id":"fbc6bc50-cb35-4d0d-a0ed-403889426346","system_id":"levelo_inurba_marseille","lat":43.30956,"lon":5.39042,"is_reserved":false,"is_disabled":false,"rental_uris":{"android":"levelo://app?vid=fbc6bc50-cb35-4d0d-a0ed-403889426346","ios":"levelo://app?vid=fbc6bc50-cb35-4d0d-a0ed-403889426346"},"vehicle_type_id":"4","last_reported":1726215106,"current_range_meters":19600,"station_id":"ce4bgup2rcd13ifvqco0","pricing_plan_id":"cebpf4jnsgd1na2vs0mg"},{"bike_id":"e282c87c-6405-4cef-9dbe-6269476c0221","system_id":"levelo_inurba_marseille","lat":43.30326,"lon":5.40437,"is_reserved":false,"is_disabled":false,"rental_uris":{"android":"levelo://app?vid=e282c87c-6405-4cef-9dbe-6269476c0221","ios":"levelo://app?vid=e282c87c-6405-4cef-9dbe-6269476c0221"},"vehicle_type_id":"4","last_reported":1726215106,"current_range_meters":18800,"station_id":"ce4bh012rcd13ifvqd10","pricing_plan_id":"cebpf4jnsgd1na2vs0mg"},{"bike_id":"d54209f6-3398-4e00-8b3a-a3ed0a88f3b6","system_id":"levelo_inurba_marseille","lat":43.24549,"lon":5.37312,"is_reserved":false,"is_disabled":false,"rental_uris":{"android":"levelo://app?vid=d54209f6-3398-4e00-8b3a-a3ed0a88f3b6","ios":"levelo://app?vid=d54209f6-3398-4e00-8b3a-a3ed0a88f3b6"},"vehicle_type_id":"4","last_reported":1726215106,"current_range_meters":28800,"station_id":"","pricing_plan_id":"cebpf4jnsgd1na2vs0mg"},{"bike_id":"3083500b-3b09-403c-853a-ccf0fdae3c0c","system_id":"levelo_inurba_marseille","lat":43.26201,"lon":5.37931,"is_reserved":false,"is_disabled":false,"rental_uris":{"android":"levelo://app?vid=3083500b-3b09-403c-853a-ccf0fdae3c0c","ios":"levelo://app?vid=3083500b-3b09-403c-853a-ccf0fdae3c0c"},"vehicle_type_id":"4","last_reported":1726215106,"current_range_meters":39200,"station_id":"ce4bhjp2rcd13ifvqg90","pricing_plan_id":"cebpf4jnsgd1na2vs0mg"},{"bike_id":"133b2dd8-66b3-4f81-8da6-3dc23041a5a4","system_id":"levelo_inurba_marseille","lat":43.29793,"lon":5.37101,"is_reserved":false,"is_disabled":false,"rental_uris":{"android":"levelo://app?vid=133b2dd8-66b3-4f81-8da6-3dc23041a5a4","ios":"levelo://app?vid=133b2dd8-66b3-4f81-8da6-3dc23041a5a4"},"vehicle_type_id":"4","last_reported":1726215106,"current_range_meters":10800,"station_id":"ce4bgop2rcd13ifvqc1g","pricing_plan_id":"cebpf4jnsgd1na2vs0mg"},{"bike_id":"29169557-0cff-4e0e-b234-4d98249318da","system_id":"levelo_inurba_marseille","lat":43.26586,"lon":5.39011,"is_reserved":false,"is_disabled":false,"rental_uris":{"android":"levelo://app?vid=29169557-0cff-4e0e-b234-4d98249318da","ios":"levelo://app?vid=29169557-0cff-4e0e-b234-4d98249318da"},"vehicle_type_id":"4","last_reported":1726215106,"current_range_meters":19600,"station_id":"ce4bhe12rcd13ifvqf30","pricing_plan_id":"cebpf4jnsgd1na2vs0mg"},{"bike_id":"8263ea4a-64d0-4c72-9510-874ccbb3b8e8","system_id":"levelo_inurba_marseille","lat":43.28669,"lon":5.36359,"is_reserved":false,"is_disabled":false,"rental_uris":{"android":"levelo://app?vid=8263ea4a-64d0-4c72-9510-874ccbb3b8e8","ios":"levelo://app?vid=8263ea4a-64d0-4c72-9510-874ccbb3b8e8"},"vehicle_type_id":"4","last_reported":1726215106,"current_range_meters":39200,"station_id":"ce4bhah2rcd13ifvqej0","pricing_plan_id":"cebpf4jnsgd1na2vs0mg"},{"bike_id":"07055ae7-bb92-42e8-a360-55c0f2b039da","system_id":"levelo_inurba_marseille","lat":43.24651,"lon":5.38896,"is_reserved":false,"is_disabled":false,"rental_uris":{"android":"levelo://app?vid=07055ae7-bb92-42e8-a360-55c0f2b039da","ios":"levelo://app?vid=07055ae7-bb92-42e8-a360-55c0f2b039da"},"vehicle_type_id":"4","last_reported":1726215106,"current_range_meters":38800,"station_id":"ce4bhg12rcd13ifvqf60","pricing_plan_id":"cebpf4jnsgd1na2vs0mg"},{"bike_id":"1919458c-09f7-4c5e-ad0f-dfa8fa080d15","system_id":"levelo_inurba_marseille","lat":43.27054,"lon":5.40257,"is_reserved":false,"is_disabled":false,"rental_uris":{"android":"levelo://app?vid=1919458c-09f7-4c5e-ad0f-dfa8fa080d15","ios":"levelo://app?vid=1919458c-09f7-4c5e-ad0f-dfa8fa080d15"},"vehicle_type_id":"4","last_reported":1726215106,"current_range_meters":34000,"station_id":"ce4bhk92rcd13ifvqgc0","pricing_plan_id":"cebpf4jnsgd1na2vs0mg"},{"bike_id":"a761f2b2-ba5a-4fbe-adc5-601ef30d93b0","system_id":"levelo_inurba_marseille","lat":43.337444,"lon":5.374475,"is_reserved":false,"is_disabled":false,"rental_uris":{"android":"levelo://app?vid=a761f2b2-ba5a-4fbe-adc5-601ef30d93b0","ios":"levelo://app?vid=a761f2b2-ba5a-4fbe-adc5-601ef30d93b0"},"vehicle_type_id":"4","last_reported":1726215106,"current_range_meters":8400,"station_id":"","pricing_plan_id":"cebpf4jnsgd1na2vs0mg"},{"bike_id":"39b86749-80ef-4310-953b-c60370086942","system_id":"levelo_inurba_marseille","lat":43.24544,"lon":5.39523,"is_reserved":false,"is_disabled":false,"rental_uris":{"android":"levelo://app?vid=39b86749-80ef-4310-953b-c60370086942","ios":"levelo://app?vid=39b86749-80ef-4310-953b-c60370086942"},"vehicle_type_id":"4","last_reported":1726215106,"current_range_meters":31200,"station_id":"ce4bhlp2rcd13ifvqgjg","pricing_plan_id":"cebpf4jnsgd1na2vs0mg"},{"bike_id":"6a8f2f10-9a94-4930-acf4-9d3abaa17531","system_id":"levelo_inurba_marseille","lat":43.25504,"lon":5.37624,"is_reserved":false,"is_disabled":false,"rental_uris":{"android":"levelo://app?vid=6a8f2f10-9a94-4930-acf4-9d3abaa17531","ios":"levelo://app?vid=6a8f2f10-9a94-4930-acf4-9d3abaa17531"},"vehicle_type_id":"4","last_reported":1726215106,"current_range_meters":36400,"station_id":"ce4bhh12rcd13ifvqff0","pricing_plan_id":"cebpf4jnsgd1na2vs0mg"},{"bike_id":"ec3be02e-39ad-49e9-b399-fd1e500eb14f","system_id":"levelo_inurba_marseille","lat":43.2695,"lon":5.386181,"is_reserved":false,"is_disabled":false,"rental_uris":{"android":"levelo://app?vid=ec3be02e-39ad-49e9-b399-fd1e500eb14f","ios":"levelo://app?vid=ec3be02e-39ad-49e9-b399-fd1e500eb14f"},"vehicle_type_id":"4","last_reported":1726215106,"current_range_meters":8800,"station_id":"ce4bhh92rcd13ifvqfh0","pricing_plan_id":"cebpf4jnsgd1na2vs0mg"},{"bike_id":"976a4a08-3cc1-4b84-afb0-078a903accb6","system_id":"levelo_inurba_marseille","lat":43.25581,"lon":5.3823,"is_reserved":false,"is_disabled":false,"rental_uris":{"android":"levelo://app?vid=976a4a08-3cc1-4b84-afb0-078a903accb6","ios":"levelo://app?vid=976a4a08-3cc1-4b84-afb0-078a903accb6"},"vehicle_type_id":"4","last_reported":1726215106,"current_range_meters":30000,"station_id":"ce4bhih2rcd13ifvqfs0","pricing_plan_id":"cebpf4jnsgd1na2vs0mg"},{"bike_id":"463a29c6-de5f-452d-8ad2-3526bf777173","system_id":"levelo_inurba_marseille","lat":43.30537,"lon":5.3653,"is_reserved":false,"is_disabled":false,"rental_uris":{"android":"levelo://app?vid=463a29c6-de5f-452d-8ad2-3526bf777173","ios":"levelo://app?vid=463a29c6-de5f-452d-8ad2-3526bf777173"},"vehicle_type_id":"4","last_reported":1726215106,"current_range_meters":9200,"station_id":"ce4bgs12rcd13ifvqcag","pricing_plan_id":"cebpf4jnsgd1na2vs0mg"},{"bike_id":"b006715f-f2d3-4398-8a4b-c171b855becd","system_id":"levelo_inurba_marseille","lat":43.30157,"lon":5.37439,"is_reserved":false,"is_disabled":false,"rental_uris":{"android":"levelo://app?vid=b006715f-f2d3-4398-8a4b-c171b855becd","ios":"levelo://app?vid=b006715f-f2d3-4398-8a4b-c171b855becd"},"vehicle_type_id":"4","last_reported":1726215106,"current_range_meters":39200,"station_id":"ce4bgs92rcd13ifvqcc0","pricing_plan_id":"cebpf4jnsgd1na2vs0mg"},{"bike_id":"a4ebeed2-14aa-4c67-9d05-e22ecdbb5a9a","system_id":"levelo_inurba_marseille","lat":43.337444,"lon":5.374475,"is_reserved":false,"is_disabled":false,"rental_uris":{"android":"levelo://app?vid=a4ebeed2-14aa-4c67-9d05-e22ecdbb5a9a","ios":"levelo://app?vid=a4ebeed2-14aa-4c67-9d05-e22ecdbb5a9a"},"vehicle_type_id":"4","last_reported":1726215106,"current_range_meters":22800,"station_id":"ce4bhh92rcd13ifvqfh0","pricing_plan_id":"cebpf4jnsgd1na2vs0mg"},{"bike_id":"9b598b8e-1224-4f15-a059-59ec72ffe837","system_id":"levelo_inurba_marseille","lat":43.27489,"lon":5.42454,"is_reserved":false,"is_disabled":false,"rental_uris":{"android":"levelo://app?vid=9b598b8e-1224-4f15-a059-59ec72ffe837","ios":"levelo://app?vid=9b598b8e-1224-4f15-a059-59ec72ffe837"},"vehicle_type_id":"4","last_reported":1726215106,"current_range_meters":24000,"station_id":"ce4bhn92rcd13ifvqgrg","pricing_plan_id":"cebpf4jnsgd1na2vs0mg"},{"bike_id":"f28581ff-902c-4761-a312-4ea1190c753a","system_id":"levelo_inurba_marseille","lat":43.28157,"lon":5.42642,"is_reserved":false,"is_disabled":false,"rental_uris":{"android":"levelo://app?vid=f28581ff-902c-4761-a312-4ea1190c753a","ios":"levelo://app?vid=f28581ff-902c-4761-a312-4ea1190c753a"},"vehicle_type_id":"4","last_reported":1726215106,"current_range_meters":24400,"station_id":"ce4bhnh2rcd13ifvqgug","pricing_plan_id":"cebpf4jnsgd1na2vs0mg"},{"bike_id":"36fd52bf-fc90-4cac-9fe1-847e64e7094e","system_id":"levelo_inurba_marseille","lat":43.27616,"lon":5.36119,"is_reserved":false,"is_disabled":false,"rental_uris":{"android":"levelo://app?vid=36fd52bf-fc90-4cac-9fe1-847e64e7094e","ios":"levelo://app?vid=36fd52bf-fc90-4cac-9fe1-847e64e7094e"},"vehicle_type_id":"4","last_reported":1726215106,"current_range_meters":38000,"station_id":"ce4bgj92rcd13ifvqbe0","pricing_plan_id":"cebpf4jnsgd1na2vs0mg"},{"bike_id":"5483f9b1-08d8-47bd-ace2-b461fdc9ec9d","system_id":"levelo_inurba_marseille","lat":43.29563,"lon":5.42277,"is_reserved":false,"is_disabled":false,"rental_uris":{"android":"levelo://app?vid=5483f9b1-08d8-47bd-ace2-b461fdc9ec9d","ios":"levelo://app?vid=5483f9b1-08d8-47bd-ace2-b461fdc9ec9d"},"vehicle_type_id":"4","last_reported":1726215106,"current_range_meters":29600,"station_id":"ce4bhph2rcd13ifvqhdg","pricing_plan_id":"cebpf4jnsgd1na2vs0mg"},{"bike_id":"4067cf6c-6e3d-4ac9-99bf-c1b92b69f736","system_id":"levelo_inurba_marseille","lat":43.32486,"lon":5.36557,"is_reserved":false,"is_disabled":false,"rental_uris":{"android":"levelo://app?vid=4067cf6c-6e3d-4ac9-99bf-c1b92b69f736","ios":"levelo://app?vid=4067cf6c-6e3d-4ac9-99bf-c1b92b69f736"},"vehicle_type_id":"4","last_reported":1726215106,"current_range_meters":25200,"station_id":"ce4bhs12rcd13ifvqhvg","pricing_plan_id":"cebpf4jnsgd1na2vs0mg"},{"bike_id":"9a294201-177a-42e2-b4e6-ec74738f7951","system_id":"levelo_inurba_marseille","lat":43.26959,"lon":5.38634,"is_reserved":false,"is_disabled":false,"rental_uris":{"android":"levelo://app?vid=9a294201-177a-42e2-b4e6-ec74738f7951","ios":"levelo://app?vid=9a294201-177a-42e2-b4e6-ec74738f7951"},"vehicle_type_id":"4","last_reported":1726215106,"current_range_meters":38800,"station_id":"ce4bhh92rcd13ifvqfh0","pricing_plan_id":"cebpf4jnsgd1na2vs0mg"},{"bike_id":"c98dc5e2-c6a5-4697-bb9c-48d700e31a64","system_id":"levelo_inurba_marseille","lat":43.30948,"lon":5.39028,"is_reserved":false,"is_disabled":false,"rental_uris":{"android":"levelo://app?vid=c98dc5e2-c6a5-4697-bb9c-48d700e31a64","ios":"levelo://app?vid=c98dc5e2-c6a5-4697-bb9c-48d700e31a64"},"vehicle_type_id":"4","last_reported":1726215106,"current_range_meters":16400,"station_id":"ce4bh4p2rcd13ifvqe1g","pricing_plan_id":"cebpf4jnsgd1na2vs0mg"},{"bike_id":"78ad1ed1-5c3f-4cb0-b4c3-f368830893ef","system_id":"levelo_inurba_marseille","lat":43.31493,"lon":5.37296,"is_reserved":false,"is_disabled":false,"rental_uris":{"android":"levelo://app?vid=78ad1ed1-5c3f-4cb0-b4c3-f368830893ef","ios":"levelo://app?vid=78ad1ed1-5c3f-4cb0-b4c3-f368830893ef"},"vehicle_type_id":"4","last_reported":1726215106,"current_range_meters":4800,"station_id":"ce4bgt12rcd13ifvqcd0","pricing_plan_id":"cebpf4jnsgd1na2vs0mg"},{"bike_id":"eaf3218e-3b2a-4dde-9c15-99a6c4254e56","system_id":"levelo_inurba_marseille","lat":43.29895,"lon":5.43662,"is_reserved":false,"is_disabled":false,"rental_uris":{"android":"levelo://app?vid=eaf3218e-3b2a-4dde-9c15-99a6c4254e56","ios":"levelo://app?vid=eaf3218e-3b2a-4dde-9c15-99a6c4254e56"},"vehicle_type_id":"4","last_reported":1726215106,"current_range_meters":38800,"station_id":"ce4bhpp2rcd13ifvqhfg","pricing_plan_id":"cebpf4jnsgd1na2vs0mg"},{"bike_id":"666567cc-2e65-4160-9df5-8745ddbe7e28","system_id":"levelo_inurba_marseille","lat":43.31357,"lon":5.36706,"is_reserved":false,"is_disabled":false,"rental_uris":{"android":"levelo://app?vid=666567cc-2e65-4160-9df5-8745ddbe7e28","ios":"levelo://app?vid=666567cc-2e65-4160-9df5-8745ddbe7e28"},"vehicle_type_id":"4","last_reported":1726215106,"current_range_meters":37600,"station_id":"ce4bgr92rcd13ifvqc6g","pricing_plan_id":"cebpf4jnsgd1na2vs0mg"},{"bike_id":"9c95abdd-a030-43f1-837e-ad70e1bbcbc9","system_id":"levelo_inurba_marseille","lat":43.3014,"lon":5.3742,"is_reserved":false,"is_disabled":false,"rental_uris":{"android":"levelo://app?vid=9c95abdd-a030-43f1-837e-ad70e1bbcbc9","ios":"levelo://app?vid=9c95abdd-a030-43f1-837e-ad70e1bbcbc9"},"vehicle_type_id":"4","last_reported":1726215106,"current_range_meters":12800,"station_id":"ce4bgs92rcd13ifvqcc0","pricing_plan_id":"cebpf4jnsgd1na2vs0mg"},{"bike_id":"0ea99d89-f29c-4e54-9766-bdcd2d65271c","system_id":"levelo_inurba_marseille","lat":43.22935,"lon":5.35376,"is_reserved":false,"is_disabled":false,"rental_uris":{"android":"levelo://app?vid=0ea99d89-f29c-4e54-9766-bdcd2d65271c","ios":"levelo://app?vid=0ea99d89-f29c-4e54-9766-bdcd2d65271c"},"vehicle_type_id":"4","last_reported":1726215106,"current_range_meters":27600,"station_id":"cpo3532slgdg3j2ikp40","pricing_plan_id":"cebpf4jnsgd1na2vs0mg"},{"bike_id":"ba81e19a-02db-4df6-ba4c-045bfb8f6f7d","system_id":"levelo_inurba_marseille","lat":43.30537,"lon":5.36542,"is_reserved":false,"is_disabled":false,"rental_uris":{"android":"levelo://app?vid=ba81e19a-02db-4df6-ba4c-045bfb8f6f7d","ios":"levelo://app?vid=ba81e19a-02db-4df6-ba4c-045bfb8f6f7d"},"vehicle_type_id":"4","last_reported":1726215106,"current_range_meters":24800,"station_id":"ce4bgs12rcd13ifvqcag","pricing_plan_id":"cebpf4jnsgd1na2vs0mg"},{"bike_id":"45eb7e78-e68d-4dc7-9f08-324dadf34c21","system_id":"levelo_inurba_marseille","lat":43.23155,"lon":5.43723,"is_reserved":false,"is_disabled":false,"rental_uris":{"android":"levelo://app?vid=45eb7e78-e68d-4dc7-9f08-324dadf34c21","ios":"levelo://app?vid=45eb7e78-e68d-4dc7-9f08-324dadf34c21"},"vehicle_type_id":"4","last_reported":1726215106,"current_range_meters":18000,"station_id":"ce4bhmp2rcd13ifvqgog","pricing_plan_id":"cebpf4jnsgd1na2vs0mg"},{"bike_id":"6c4f4964-6267-44c6-9bbd-1ffdf7464af9","system_id":"levelo_inurba_marseille","lat":43.30469,"lon":5.37911,"is_reserved":false,"is_disabled":false,"rental_uris":{"android":"levelo://app?vid=6c4f4964-6267-44c6-9bbd-1ffdf7464af9","ios":"levelo://app?vid=6c4f4964-6267-44c6-9bbd-1ffdf7464af9"},"vehicle_type_id":"4","last_reported":1726215106,"current_range_meters":28400,"station_id":"ce4bgup2rcd13ifvqcn0","pricing_plan_id":"cebpf4jnsgd1na2vs0mg"},{"bike_id":"e49093f7-6383-4e7f-9f16-cb91fa6cb74b","system_id":"levelo_inurba_marseille","lat":43.25002,"lon":5.38927,"is_reserved":false,"is_disabled":false,"rental_uris":{"android":"levelo://app?vid=e49093f7-6383-4e7f-9f16-cb91fa6cb74b","ios":"levelo://app?vid=e49093f7-6383-4e7f-9f16-cb91fa6cb74b"},"vehicle_type_id":"4","last_reported":1726215106,"current_range_meters":27200,"station_id":"ce4bhgp2rcd13ifvqfd0","pricing_plan_id":"cebpf4jnsgd1na2vs0mg"},{"bike_id":"8764129a-9b8d-4490-a1c9-f9fa60b4a560","system_id":"levelo_inurba_marseille","lat":43.33609,"lon":5.41028,"is_reserved":false,"is_disabled":false,"rental_uris":{"android":"levelo://app?vid=8764129a-9b8d-4490-a1c9-f9fa60b4a560","ios":"levelo://app?vid=8764129a-9b8d-4490-a1c9-f9fa60b4a560"},"vehicle_type_id":"4","last_reported":1726215106,"current_range_meters":39200,"station_id":"ce4bhqh2rcd13ifvqhmg","pricing_plan_id":"cebpf4jnsgd1na2vs0mg"},{"bike_id":"cdb7f7b4-ad89-4f18-9858-49d0e878e14f","system_id":"levelo_inurba_marseille","lat":43.32553,"lon":5.41432,"is_reserved":false,"is_disabled":false,"rental_uris":{"android":"levelo://app?vid=cdb7f7b4-ad89-4f18-9858-49d0e878e14f","ios":"levelo://app?vid=cdb7f7b4-ad89-4f18-9858-49d0e878e14f"},"vehicle_type_id":"4","last_reported":1726215106,"current_range_meters":38400,"station_id":"ce4bhq12rcd13ifvqhhg","pricing_plan_id":"cebpf4jnsgd1na2vs0mg"},{"bike_id":"4c0a2394-5fff-46c4-a289-f13795c3409e","system_id":"levelo_inurba_marseille","lat":43.30468,"lon":5.37888,"is_reserved":false,"is_disabled":false,"rental_uris":{"android":"levelo://app?vid=4c0a2394-5fff-46c4-a289-f13795c3409e","ios":"levelo://app?vid=4c0a2394-5fff-46c4-a289-f13795c3409e"},"vehicle_type_id":"4","last_reported":1726215106,"current_range_meters":35200,"station_id":"ce4bgup2rcd13ifvqcn0","pricing_plan_id":"cebpf4jnsgd1na2vs0mg"},{"bike_id":"96cb29cb-8da1-4dd6-bd35-ee190827a973","system_id":"levelo_inurba_marseille","lat":43.26559,"lon":5.3728,"is_reserved":false,"is_disabled":false,"rental_uris":{"android":"levelo://app?vid=96cb29cb-8da1-4dd6-bd35-ee190827a973","ios":"levelo://app?vid=96cb29cb-8da1-4dd6-bd35-ee190827a973"},"vehicle_type_id":"4","last_reported":1726215106,"current_range_meters":7200,"station_id":"ce4bhg12rcd13ifvqf70","pricing_plan_id":"cebpf4jnsgd1na2vs0mg"},{"bike_id":"31a4cb06-efb4-429c-9eb7-ef62ae37d102","system_id":"levelo_inurba_marseille","lat":43.2873,"lon":5.37947,"is_reserved":false,"is_disabled":false,"rental_uris":{"android":"levelo://app?vid=31a4cb06-efb4-429c-9eb7-ef62ae37d102","ios":"levelo://app?vid=31a4cb06-efb4-429c-9eb7-ef62ae37d102"},"vehicle_type_id":"4","last_reported":1726215106,"current_range_meters":9200,"station_id":"ce4bh9p2rcd13ifvqec0","pricing_plan_id":"cebpf4jnsgd1na2vs0mg"},{"bike_id":"3d0be373-de2e-4082-893a-54f0b6f55849","system_id":"levelo_inurba_marseille","lat":43.25937,"lon":5.40906,"is_reserved":false,"is_disabled":false,"rental_uris":{"android":"levelo://app?vid=3d0be373-de2e-4082-893a-54f0b6f55849","ios":"levelo://app?vid=3d0be373-de2e-4082-893a-54f0b6f55849"},"vehicle_type_id":"4","last_reported":1726215106,"current_range_meters":33200,"station_id":"ce4bhm92rcd13ifvqglg","pricing_plan_id":"cebpf4jnsgd1na2vs0mg"},{"bike_id":"9b49fc06-69dc-4375-9bc8-2ab31283d424","system_id":"levelo_inurba_marseille","lat":43.29906,"lon":5.43657,"is_reserved":false,"is_disabled":false,"rental_uris":{"android":"levelo://app?vid=9b49fc06-69dc-4375-9bc8-2ab31283d424","ios":"levelo://app?vid=9b49fc06-69dc-4375-9bc8-2ab31283d424"},"vehicle_type_id":"4","last_reported":1726215106,"current_range_meters":38000,"station_id":"ce4bhpp2rcd13ifvqhfg","pricing_plan_id":"cebpf4jnsgd1na2vs0mg"},{"bike_id":"dc010700-6876-43de-bbbf-9f62a06c8100","system_id":"levelo_inurba_marseille","lat":43.28154,"lon":5.42642,"is_reserved":false,"is_disabled":false,"rental_uris":{"android":"levelo://app?vid=dc010700-6876-43de-bbbf-9f62a06c8100","ios":"levelo://app?vid=dc010700-6876-43de-bbbf-9f62a06c8100"},"vehicle_type_id":"4","last_reported":1726215106,"current_range_meters":25200,"station_id":"ce4bhnh2rcd13ifvqgug","pricing_plan_id":"cebpf4jnsgd1na2vs0mg"},{"bike_id":"2ad38932-5697-4174-9790-55a1437bb734","system_id":"levelo_inurba_marseille","lat":43.23156,"lon":5.43709,"is_reserved":false,"is_disabled":false,"rental_uris":{"android":"levelo://app?vid=2ad38932-5697-4174-9790-55a1437bb734","ios":"levelo://app?vid=2ad38932-5697-4174-9790-55a1437bb734"},"vehicle_type_id":"4","last_reported":1726215106,"current_range_meters":24800,"station_id":"ce4bhmp2rcd13ifvqgog","pricing_plan_id":"cebpf4jnsgd1na2vs0mg"},{"bike_id":"c1297063-d590-4c7e-8f21-712bf962a707","system_id":"levelo_inurba_marseille","lat":43.28464,"lon":5.35883,"is_reserved":false,"is_disabled":false,"rental_uris":{"android":"levelo://app?vid=c1297063-d590-4c7e-8f21-712bf962a707","ios":"levelo://app?vid=c1297063-d590-4c7e-8f21-712bf962a707"},"vehicle_type_id":"4","last_reported":1726215106,"current_range_meters":39200,"station_id":"ce4bhah2rcd13ifvqei0","pricing_plan_id":"cebpf4jnsgd1na2vs0mg"},{"bike_id":"c2c9325f-3b21-4370-9026-cb41a6b9b7bc","system_id":"levelo_inurba_marseille","lat":43.251129,"lon":5.403221,"is_reserved":false,"is_disabled":false,"rental_uris":{"android":"levelo://app?vid=c2c9325f-3b21-4370-9026-cb41a6b9b7bc","ios":"levelo://app?vid=c2c9325f-3b21-4370-9026-cb41a6b9b7bc"},"vehicle_type_id":"4","last_reported":1726215106,"current_range_meters":36400,"station_id":"ce4bhlh2rcd13ifvqgig","pricing_plan_id":"cebpf4jnsgd1na2vs0mg"},{"bike_id":"69a8bafd-9f00-4df8-bb17-fba606e96b3a","system_id":"levelo_inurba_marseille","lat":43.30541,"lon":5.36539,"is_reserved":false,"is_disabled":false,"rental_uris":{"android":"levelo://app?vid=69a8bafd-9f00-4df8-bb17-fba606e96b3a","ios":"levelo://app?vid=69a8bafd-9f00-4df8-bb17-fba606e96b3a"},"vehicle_type_id":"4","last_reported":1726215106,"current_range_meters":38800,"station_id":"ce4bgs12rcd13ifvqcag","pricing_plan_id":"cebpf4jnsgd1na2vs0mg"},{"bike_id":"7b906c95-3be8-431b-a658-74eb97f77263","system_id":"levelo_inurba_marseille","lat":43.28934,"lon":5.36627,"is_reserved":false,"is_disabled":false,"rental_uris":{"android":"levelo://app?vid=7b906c95-3be8-431b-a658-74eb97f77263","ios":"levelo://app?vid=7b906c95-3be8-431b-a658-74eb97f77263"},"vehicle_type_id":"4","last_reported":1726215106,"current_range_meters":15200,"station_id":"ce4bhap2rcd13ifvqek0","pricing_plan_id":"cebpf4jnsgd1na2vs0mg"},{"bike_id":"2fbe59be-967c-4f3f-b5eb-2a3f8b0b8fb5","system_id":"levelo_inurba_marseille","lat":43.27491,"lon":5.42458,"is_reserved":false,"is_disabled":false,"rental_uris":{"android":"levelo://app?vid=2fbe59be-967c-4f3f-b5eb-2a3f8b0b8fb5","ios":"levelo://app?vid=2fbe59be-967c-4f3f-b5eb-2a3f8b0b8fb5"},"vehicle_type_id":"4","last_reported":1726215106,"current_range_meters":36400,"station_id":"ce4bhn92rcd13ifvqgrg","pricing_plan_id":"cebpf4jnsgd1na2vs0mg"},{"bike_id":"64fb79f9-6111-4358-8c55-8553d51d9562","system_id":"levelo_inurba_marseille","lat":43.2896,"lon":5.38914,"is_reserved":false,"is_disabled":false,"rental_uris":{"android":"levelo://app?vid=64fb79f9-6111-4358-8c55-8553d51d9562","ios":"levelo://app?vid=64fb79f9-6111-4358-8c55-8553d51d9562"},"vehicle_type_id":"4","last_reported":1726215106,"current_range_meters":6400,"station_id":"","pricing_plan_id":"cebpf4jnsgd1na2vs0mg"},{"bike_id":"a2065f96-47d3-4a85-be06-4c0f1ffbde51","system_id":"levelo_inurba_marseille","lat":43.2606,"lon":5.39395,"is_reserved":false,"is_disabled":false,"rental_uris":{"android":"levelo://app?vid=a2065f96-47d3-4a85-be06-4c0f1ffbde51","ios":"levelo://app?vid=a2065f96-47d3-4a85-be06-4c0f1ffbde51"},"vehicle_type_id":"4","last_reported":1726215106,"current_range_meters":10000,"station_id":"ce4bhh92rcd13ifvqfj0","pricing_plan_id":"cebpf4jnsgd1na2vs0mg"},{"bike_id":"79b7950d-90c8-4e3c-a243-1a31b18cd68e","system_id":"levelo_inurba_marseille","lat":43.2398,"lon":5.36631,"is_reserved":false,"is_disabled":false,"rental_uris":{"android":"levelo://app?vid=79b7950d-90c8-4e3c-a243-1a31b18cd68e","ios":"levelo://app?vid=79b7950d-90c8-4e3c-a243-1a31b18cd68e"},"vehicle_type_id":"4","last_reported":1726215106,"current_range_meters":12000,"station_id":"ce4bhi12rcd13ifvqfp0","pricing_plan_id":"cebpf4jnsgd1na2vs0mg"},{"bike_id":"72b517d2-6987-46d8-857e-779bc7604f01","system_id":"levelo_inurba_marseille","lat":43.26026,"lon":5.37547,"is_reserved":false,"is_disabled":false,"rental_uris":{"android":"levelo://app?vid=72b517d2-6987-46d8-857e-779bc7604f01","ios":"levelo://app?vid=72b517d2-6987-46d8-857e-779bc7604f01"},"vehicle_type_id":"4","last_reported":1726215106,"current_range_meters":20800,"station_id":"ce4bhgh2rcd13ifvqfa0","pricing_plan_id":"cebpf4jnsgd1na2vs0mg"},{"bike_id":"70a40cbf-fc1e-4d60-b7c0-d4fbb71e1f76","system_id":"levelo_inurba_marseille","lat":43.2904,"lon":5.39969,"is_reserved":false,"is_disabled":false,"rental_uris":{"android":"levelo://app?vid=70a40cbf-fc1e-4d60-b7c0-d4fbb71e1f76","ios":"levelo://app?vid=70a40cbf-fc1e-4d60-b7c0-d4fbb71e1f76"},"vehicle_type_id":"4","last_reported":1726215106,"current_range_meters":9200,"station_id":"ce4bh392rcd13ifvqdm0","pricing_plan_id":"cebpf4jnsgd1na2vs0mg"},{"bike_id":"a2cd8b1a-5149-423f-b006-3a9bf1a7a464","system_id":"levelo_inurba_marseille","lat":43.27503,"lon":5.4245,"is_reserved":false,"is_disabled":false,"rental_uris":{"android":"levelo://app?vid=a2cd8b1a-5149-423f-b006-3a9bf1a7a464","ios":"levelo://app?vid=a2cd8b1a-5149-423f-b006-3a9bf1a7a464"},"vehicle_type_id":"4","last_reported":1726215106,"current_range_meters":16400,"station_id":"ce4bhn92rcd13ifvqgrg","pricing_plan_id":"cebpf4jnsgd1na2vs0mg"},{"bike_id":"2c4577b3-3689-495e-a3c3-a78eafd4dc43","system_id":"levelo_inurba_marseille","lat":43.26558,"lon":5.37282,"is_reserved":false,"is_disabled":false,"rental_uris":{"android":"levelo://app?vid=2c4577b3-3689-495e-a3c3-a78eafd4dc43","ios":"levelo://app?vid=2c4577b3-3689-495e-a3c3-a78eafd4dc43"},"vehicle_type_id":"4","last_reported":1726215106,"current_range_meters":28000,"station_id":"ce4bhg12rcd13ifvqf70","pricing_plan_id":"cebpf4jnsgd1na2vs0mg"},{"bike_id":"6c9ac6be-0029-4a2d-bb72-5c51035bba42","system_id":"levelo_inurba_marseille","lat":43.33614,"lon":5.41029,"is_reserved":false,"is_disabled":false,"rental_uris":{"android":"levelo://app?vid=6c9ac6be-0029-4a2d-bb72-5c51035bba42","ios":"levelo://app?vid=6c9ac6be-0029-4a2d-bb72-5c51035bba42"},"vehicle_type_id":"4","last_reported":1726215106,"current_range_meters":39200,"station_id":"ce4bhqh2rcd13ifvqhmg","pricing_plan_id":"cebpf4jnsgd1na2vs0mg"},{"bike_id":"97ae5e88-fc86-4031-975c-97e354fc86d6","system_id":"levelo_inurba_marseille","lat":43.28143,"lon":5.42639,"is_reserved":false,"is_disabled":false,"rental_uris":{"android":"levelo://app?vid=97ae5e88-fc86-4031-975c-97e354fc86d6","ios":"levelo://app?vid=97ae5e88-fc86-4031-975c-97e354fc86d6"},"vehicle_type_id":"4","last_reported":1726215106,"current_range_meters":21600,"station_id":"ce4bhnh2rcd13ifvqgug","pricing_plan_id":"cebpf4jnsgd1na2vs0mg"},{"bike_id":"3d5998b8-f552-42dd-894c-2d371a7435d7","system_id":"levelo_inurba_marseille","lat":43.24086,"lon":5.37739,"is_reserved":false,"is_disabled":false,"rental_uris":{"android":"levelo://app?vid=3d5998b8-f552-42dd-894c-2d371a7435d7","ios":"levelo://app?vid=3d5998b8-f552-42dd-894c-2d371a7435d7"},"vehicle_type_id":"4","last_reported":1726215106,"current_range_meters":28400,"station_id":"ce4bhnp2rcd13ifvqgvg","pricing_plan_id":"cebpf4jnsgd1na2vs0mg"},{"bike_id":"f890408a-09d3-44a4-b9ac-3affc05dc13b","system_id":"levelo_inurba_marseille","lat":43.28347,"lon":5.38104,"is_reserved":false,"is_disabled":false,"rental_uris":{"android":"levelo://app?vid=f890408a-09d3-44a4-b9ac-3affc05dc13b","ios":"levelo://app?vid=f890408a-09d3-44a4-b9ac-3affc05dc13b"},"vehicle_type_id":"4","last_reported":1726215106,"current_range_meters":36400,"station_id":"ce4bh412rcd13ifvqdr0","pricing_plan_id":"cebpf4jnsgd1na2vs0mg"},{"bike_id":"60d5bda9-f640-405a-935d-62d1314e50fa","system_id":"levelo_inurba_marseille","lat":43.23968,"lon":5.36625,"is_reserved":false,"is_disabled":false,"rental_uris":{"android":"levelo://app?vid=60d5bda9-f640-405a-935d-62d1314e50fa","ios":"levelo://app?vid=60d5bda9-f640-405a-935d-62d1314e50fa"},"vehicle_type_id":"4","last_reported":1726215106,"current_range_meters":28000,"station_id":"ce4bhi12rcd13ifvqfp0","pricing_plan_id":"cebpf4jnsgd1na2vs0mg"},{"bike_id":"715b08a5-9edc-4363-b38a-8ad004d88332","system_id":"levelo_inurba_marseille","lat":43.275,"lon":5.4245,"is_reserved":false,"is_disabled":false,"rental_uris":{"android":"levelo://app?vid=715b08a5-9edc-4363-b38a-8ad004d88332","ios":"levelo://app?vid=715b08a5-9edc-4363-b38a-8ad004d88332"},"vehicle_type_id":"4","last_reported":1726215106,"current_range_meters":32400,"station_id":"ce4bhn92rcd13ifvqgrg","pricing_plan_id":"cebpf4jnsgd1na2vs0mg"},{"bike_id":"bd2ce2e0-f8d9-4e30-a205-2f074a8614dd","system_id":"levelo_inurba_marseille","lat":43.26952,"lon":5.38635,"is_reserved":false,"is_disabled":false,"rental_uris":{"android":"levelo://app?vid=bd2ce2e0-f8d9-4e30-a205-2f074a8614dd","ios":"levelo://app?vid=bd2ce2e0-f8d9-4e30-a205-2f074a8614dd"},"vehicle_type_id":"4","last_reported":1726215106,"current_range_meters":24400,"station_id":"ce4bhh92rcd13ifvqfh0","pricing_plan_id":"cebpf4jnsgd1na2vs0mg"},{"bike_id":"423a4cab-8a31-4718-8b7a-239bcdca67af","system_id":"levelo_inurba_marseille","lat":43.24187,"lon":5.39728,"is_reserved":false,"is_disabled":false,"rental_uris":{"android":"levelo://app?vid=423a4cab-8a31-4718-8b7a-239bcdca67af","ios":"levelo://app?vid=423a4cab-8a31-4718-8b7a-239bcdca67af"},"vehicle_type_id":"4","last_reported":1726215106,"current_range_meters":37600,"station_id":"ce4bhn12rcd13ifvqgpg","pricing_plan_id":"cebpf4jnsgd1na2vs0mg"},{"bike_id":"a0b7b91d-5120-456a-a32f-3beb587d5443","system_id":"levelo_inurba_marseille","lat":43.27504,"lon":5.42453,"is_reserved":false,"is_disabled":false,"rental_uris":{"android":"levelo://app?vid=a0b7b91d-5120-456a-a32f-3beb587d5443","ios":"levelo://app?vid=a0b7b91d-5120-456a-a32f-3beb587d5443"},"vehicle_type_id":"4","last_reported":1726215106,"current_range_meters":30800,"station_id":"ce4bhn92rcd13ifvqgrg","pricing_plan_id":"cebpf4jnsgd1na2vs0mg"},{"bike_id":"cb5ffcd3-f3ba-495c-bb87-8a68fc1b1374","system_id":"levelo_inurba_marseille","lat":43.24996,"lon":5.38931,"is_reserved":false,"is_disabled":false,"rental_uris":{"android":"levelo://app?vid=cb5ffcd3-f3ba-495c-bb87-8a68fc1b1374","ios":"levelo://app?vid=cb5ffcd3-f3ba-495c-bb87-8a68fc1b1374"},"vehicle_type_id":"4","last_reported":1726215106,"current_range_meters":7200,"station_id":"ce4bhgp2rcd13ifvqfd0","pricing_plan_id":"cebpf4jnsgd1na2vs0mg"},{"bike_id":"0c90a57b-e9bd-4696-9929-53707ab70205","system_id":"levelo_inurba_marseille","lat":43.30153,"lon":5.38085,"is_reserved":false,"is_disabled":false,"rental_uris":{"android":"levelo://app?vid=0c90a57b-e9bd-4696-9929-53707ab70205","ios":"levelo://app?vid=0c90a57b-e9bd-4696-9929-53707ab70205"},"vehicle_type_id":"4","last_reported":1726215106,"current_range_meters":19200,"station_id":"ce4bgjp2rcd13ifvqbh0","pricing_plan_id":"cebpf4jnsgd1na2vs0mg"},{"bike_id":"5174d76d-7c6b-41e9-aceb-a48450e5301e","system_id":"levelo_inurba_marseille","lat":43.26953,"lon":5.40247,"is_reserved":false,"is_disabled":false,"rental_uris":{"android":"levelo://app?vid=5174d76d-7c6b-41e9-aceb-a48450e5301e","ios":"levelo://app?vid=5174d76d-7c6b-41e9-aceb-a48450e5301e"},"vehicle_type_id":"4","last_reported":1726215106,"current_range_meters":38400,"station_id":"cjm6bp8fraef2m0cb0m0","pricing_plan_id":"cebpf4jnsgd1na2vs0mg"},{"bike_id":"d2ba0f92-b4c4-4cf9-a84b-2b71ca37650b","system_id":"levelo_inurba_marseille","lat":43.30474,"lon":5.37912,"is_reserved":false,"is_disabled":false,"rental_uris":{"android":"levelo://app?vid=d2ba0f92-b4c4-4cf9-a84b-2b71ca37650b","ios":"levelo://app?vid=d2ba0f92-b4c4-4cf9-a84b-2b71ca37650b"},"vehicle_type_id":"4","last_reported":1726215106,"current_range_meters":31200,"station_id":"","pricing_plan_id":"cebpf4jnsgd1na2vs0mg"},{"bike_id":"aa4e8f1d-9407-485a-87ff-f80b98af6f87","system_id":"levelo_inurba_marseille","lat":43.32482,"lon":5.36573,"is_reserved":false,"is_disabled":false,"rental_uris":{"android":"levelo://app?vid=aa4e8f1d-9407-485a-87ff-f80b98af6f87","ios":"levelo://app?vid=aa4e8f1d-9407-485a-87ff-f80b98af6f87"},"vehicle_type_id":"4","last_reported":1726215106,"current_range_meters":12800,"station_id":"ce4bhs12rcd13ifvqhvg","pricing_plan_id":"cebpf4jnsgd1na2vs0mg"},{"bike_id":"288cef71-b93b-4cf0-921e-39ef252d67a1","system_id":"levelo_inurba_marseille","lat":43.33769,"lon":5.37442,"is_reserved":false,"is_disabled":false,"rental_uris":{"android":"levelo://app?vid=288cef71-b93b-4cf0-921e-39ef252d67a1","ios":"levelo://app?vid=288cef71-b93b-4cf0-921e-39ef252d67a1"},"vehicle_type_id":"4","last_reported":1726215106,"current_range_meters":30400,"station_id":"","pricing_plan_id":"cebpf4jnsgd1na2vs0mg"},{"bike_id":"2d9f6a36-1e8d-46ce-8819-b2bb04006d43","system_id":"levelo_inurba_marseille","lat":43.25586,"lon":5.38226,"is_reserved":false,"is_disabled":false,"rental_uris":{"android":"levelo://app?vid=2d9f6a36-1e8d-46ce-8819-b2bb04006d43","ios":"levelo://app?vid=2d9f6a36-1e8d-46ce-8819-b2bb04006d43"},"vehicle_type_id":"4","last_reported":1726215106,"current_range_meters":32000,"station_id":"ce4bhih2rcd13ifvqfs0","pricing_plan_id":"cebpf4jnsgd1na2vs0mg"},{"bike_id":"b926fb92-715c-4fd6-8d22-98c95619b7dd","system_id":"levelo_inurba_marseille","lat":43.29985,"lon":5.37172,"is_reserved":false,"is_disabled":false,"rental_uris":{"android":"levelo://app?vid=b926fb92-715c-4fd6-8d22-98c95619b7dd","ios":"levelo://app?vid=b926fb92-715c-4fd6-8d22-98c95619b7dd"},"vehicle_type_id":"4","last_reported":1726215106,"current_range_meters":22800,"station_id":"ce4bgr92rcd13ifvqc7g","pricing_plan_id":"cebpf4jnsgd1na2vs0mg"},{"bike_id":"28da9d45-7d00-499a-a1c0-ada700df2574","system_id":"levelo_inurba_marseille","lat":43.309321,"lon":5.390212,"is_reserved":false,"is_disabled":false,"rental_uris":{"android":"levelo://app?vid=28da9d45-7d00-499a-a1c0-ada700df2574","ios":"levelo://app?vid=28da9d45-7d00-499a-a1c0-ada700df2574"},"vehicle_type_id":"4","last_reported":1726215106,"current_range_meters":25600,"station_id":"ce4bgup2rcd13ifvqco0","pricing_plan_id":"cebpf4jnsgd1na2vs0mg"},{"bike_id":"8dca9963-cf39-4281-bf12-7f04d8ff2bb7","system_id":"levelo_inurba_marseille","lat":43.29167,"lon":5.37162,"is_reserved":false,"is_disabled":false,"rental_uris":{"android":"levelo://app?vid=8dca9963-cf39-4281-bf12-7f04d8ff2bb7","ios":"levelo://app?vid=8dca9963-cf39-4281-bf12-7f04d8ff2bb7"},"vehicle_type_id":"4","last_reported":1726215106,"current_range_meters":39200,"station_id":"ce4bha92rcd13ifvqeh0","pricing_plan_id":"cebpf4jnsgd1na2vs0mg"},{"bike_id":"e62c8c71-b14f-4c94-8aa4-e0afcaaf93b6","system_id":"levelo_inurba_marseille","lat":43.24816,"lon":5.37461,"is_reserved":false,"is_disabled":false,"rental_uris":{"android":"levelo://app?vid=e62c8c71-b14f-4c94-8aa4-e0afcaaf93b6","ios":"levelo://app?vid=e62c8c71-b14f-4c94-8aa4-e0afcaaf93b6"},"vehicle_type_id":"4","last_reported":1726215106,"current_range_meters":33200,"station_id":"ce4bhgh2rcd13ifvqfb0","pricing_plan_id":"cebpf4jnsgd1na2vs0mg"},{"bike_id":"7938bbfa-844c-4b7c-a1e0-8138755037ee","system_id":"levelo_inurba_marseille","lat":43.296244,"lon":5.377216,"is_reserved":false,"is_disabled":false,"rental_uris":{"android":"levelo://app?vid=7938bbfa-844c-4b7c-a1e0-8138755037ee","ios":"levelo://app?vid=7938bbfa-844c-4b7c-a1e0-8138755037ee"},"vehicle_type_id":"4","last_reported":1726215106,"current_range_meters":16400,"station_id":"ce4bgi92rcd13ifvqb90","pricing_plan_id":"cebpf4jnsgd1na2vs0mg"},{"bike_id":"9e955087-931f-42c6-a5de-4480d9f0a58c","system_id":"levelo_inurba_marseille","lat":43.32488,"lon":5.36559,"is_reserved":false,"is_disabled":false,"rental_uris":{"android":"levelo://app?vid=9e955087-931f-42c6-a5de-4480d9f0a58c","ios":"levelo://app?vid=9e955087-931f-42c6-a5de-4480d9f0a58c"},"vehicle_type_id":"4","last_reported":1726215106,"current_range_meters":28000,"station_id":"ce4bhs12rcd13ifvqhvg","pricing_plan_id":"cebpf4jnsgd1na2vs0mg"},{"bike_id":"45cff7cc-1207-4cd4-8678-6f79cec0950b","system_id":"levelo_inurba_marseille","lat":43.2849,"lon":5.38438,"is_reserved":false,"is_disabled":false,"rental_uris":{"android":"levelo://app?vid=45cff7cc-1207-4cd4-8678-6f79cec0950b","ios":"levelo://app?vid=45cff7cc-1207-4cd4-8678-6f79cec0950b"},"vehicle_type_id":"4","last_reported":1726215106,"current_range_meters":16800,"station_id":"ce4bh512rcd13ifvqe3g","pricing_plan_id":"cebpf4jnsgd1na2vs0mg"},{"bike_id":"69b26a0b-db83-4395-8ee1-1e784091ffad","system_id":"levelo_inurba_marseille","lat":43.23155,"lon":5.43709,"is_reserved":false,"is_disabled":false,"rental_uris":{"android":"levelo://app?vid=69b26a0b-db83-4395-8ee1-1e784091ffad","ios":"levelo://app?vid=69b26a0b-db83-4395-8ee1-1e784091ffad"},"vehicle_type_id":"4","last_reported":1726215106,"current_range_meters":8400,"station_id":"ce4bhmp2rcd13ifvqgog","pricing_plan_id":"cebpf4jnsgd1na2vs0mg"},{"bike_id":"0e2edd10-f19e-482e-b162-ec69a2bc6e3c","system_id":"levelo_inurba_marseille","lat":43.24073,"lon":5.37758,"is_reserved":false,"is_disabled":false,"rental_uris":{"android":"levelo://app?vid=0e2edd10-f19e-482e-b162-ec69a2bc6e3c","ios":"levelo://app?vid=0e2edd10-f19e-482e-b162-ec69a2bc6e3c"},"vehicle_type_id":"4","last_reported":1726215106,"current_range_meters":35200,"station_id":"ce4bhnp2rcd13ifvqgvg","pricing_plan_id":"cebpf4jnsgd1na2vs0mg"},{"bike_id":"655b4797-dc8d-49a1-8610-fcd415671ad9","system_id":"levelo_inurba_marseille","lat":43.33613,"lon":5.41028,"is_reserved":false,"is_disabled":false,"rental_uris":{"android":"levelo://app?vid=655b4797-dc8d-49a1-8610-fcd415671ad9","ios":"levelo://app?vid=655b4797-dc8d-49a1-8610-fcd415671ad9"},"vehicle_type_id":"4","last_reported":1726215106,"current_range_meters":36800,"station_id":"ce4bhqh2rcd13ifvqhmg","pricing_plan_id":"cebpf4jnsgd1na2vs0mg"},{"bike_id":"59a2b5a9-0f56-40d5-a59c-cb2592419b75","system_id":"levelo_inurba_marseille","lat":43.25574,"lon":5.38218,"is_reserved":false,"is_disabled":false,"rental_uris":{"android":"levelo://app?vid=59a2b5a9-0f56-40d5-a59c-cb2592419b75","ios":"levelo://app?vid=59a2b5a9-0f56-40d5-a59c-cb2592419b75"},"vehicle_type_id":"4","last_reported":1726215106,"current_range_meters":38800,"station_id":"ce4bhih2rcd13ifvqfs0","pricing_plan_id":"cebpf4jnsgd1na2vs0mg"},{"bike_id":"13b59975-d383-4254-90d7-d1dbbd742258","system_id":"levelo_inurba_marseille","lat":43.29079,"lon":5.37177,"is_reserved":false,"is_disabled":false,"rental_uris":{"android":"levelo://app?vid=13b59975-d383-4254-90d7-d1dbbd742258","ios":"levelo://app?vid=13b59975-d383-4254-90d7-d1dbbd742258"},"vehicle_type_id":"4","last_reported":1726215106,"current_range_meters":37600,"station_id":"ce4bh5p2rcd13ifvqe4g","pricing_plan_id":"cebpf4jnsgd1na2vs0mg"},{"bike_id":"91ce77ce-18ef-47d8-9533-f401393ecd0b","system_id":"levelo_inurba_marseille","lat":43.28622,"lon":5.35099,"is_reserved":false,"is_disabled":false,"rental_uris":{"android":"levelo://app?vid=91ce77ce-18ef-47d8-9533-f401393ecd0b","ios":"levelo://app?vid=91ce77ce-18ef-47d8-9533-f401393ecd0b"},"vehicle_type_id":"4","last_reported":1726215106,"current_range_meters":18000,"station_id":"ce4bhch2rcd13ifvqeug","pricing_plan_id":"cebpf4jnsgd1na2vs0mg"},{"bike_id":"f8f6d540-4d90-4b3f-bf37-4424c07b1e6a","system_id":"levelo_inurba_marseille","lat":43.26957,"lon":5.4026,"is_reserved":false,"is_disabled":false,"rental_uris":{"android":"levelo://app?vid=f8f6d540-4d90-4b3f-bf37-4424c07b1e6a","ios":"levelo://app?vid=f8f6d540-4d90-4b3f-bf37-4424c07b1e6a"},"vehicle_type_id":"4","last_reported":1726215106,"current_range_meters":14000,"station_id":"cjm6bp8fraef2m0cb0m0","pricing_plan_id":"cebpf4jnsgd1na2vs0mg"},{"bike_id":"b6a55e8b-3ff3-46c8-a72a-6c10f7cc2db1","system_id":"levelo_inurba_marseille","lat":43.29959,"lon":5.41317,"is_reserved":false,"is_disabled":false,"rental_uris":{"android":"levelo://app?vid=b6a55e8b-3ff3-46c8-a72a-6c10f7cc2db1","ios":"levelo://app?vid=b6a55e8b-3ff3-46c8-a72a-6c10f7cc2db1"},"vehicle_type_id":"4","last_reported":1726215106,"current_range_meters":39200,"station_id":"ce4bhp12rcd13ifvqh9g","pricing_plan_id":"cebpf4jnsgd1na2vs0mg"},{"bike_id":"09366a6a-7b33-4315-bd86-159f4a8e144d","system_id":"levelo_inurba_marseille","lat":43.28939,"lon":5.36392,"is_reserved":false,"is_disabled":false,"rental_uris":{"android":"levelo://app?vid=09366a6a-7b33-4315-bd86-159f4a8e144d","ios":"levelo://app?vid=09366a6a-7b33-4315-bd86-159f4a8e144d"},"vehicle_type_id":"4","last_reported":1726215106,"current_range_meters":39200,"station_id":"ce4bhc92rcd13ifvqetg","pricing_plan_id":"cebpf4jnsgd1na2vs0mg"},{"bike_id":"d608f0a9-6c51-4c68-be81-d6c79550be85","system_id":"levelo_inurba_marseille","lat":43.31714,"lon":5.43706,"is_reserved":false,"is_disabled":false,"rental_uris":{"android":"levelo://app?vid=d608f0a9-6c51-4c68-be81-d6c79550be85","ios":"levelo://app?vid=d608f0a9-6c51-4c68-be81-d6c79550be85"},"vehicle_type_id":"4","last_reported":1726215106,"current_range_meters":40000,"station_id":"ce4bhp92rcd13ifvqhcg","pricing_plan_id":"cebpf4jnsgd1na2vs0mg"},{"bike_id":"fb6b2065-7393-4939-a62d-876da1567439","system_id":"levelo_inurba_marseille","lat":43.29004,"lon":5.35618,"is_reserved":false,"is_disabled":false,"rental_uris":{"android":"levelo://app?vid=fb6b2065-7393-4939-a62d-876da1567439","ios":"levelo://app?vid=fb6b2065-7393-4939-a62d-876da1567439"},"vehicle_type_id":"4","last_reported":1726215106,"current_range_meters":39200,"station_id":"ce4bhb92rcd13ifvqen0","pricing_plan_id":"cebpf4jnsgd1na2vs0mg"},{"bike_id":"7685c71a-1935-4b9f-858d-7f9381b88abf","system_id":"levelo_inurba_marseille","lat":43.33616,"lon":5.41024,"is_reserved":false,"is_disabled":false,"rental_uris":{"android":"levelo://app?vid=7685c71a-1935-4b9f-858d-7f9381b88abf","ios":"levelo://app?vid=7685c71a-1935-4b9f-858d-7f9381b88abf"},"vehicle_type_id":"4","last_reported":1726215106,"current_range_meters":28400,"station_id":"ce4bhqh2rcd13ifvqhmg","pricing_plan_id":"cebpf4jnsgd1na2vs0mg"},{"bike_id":"c5ab4fa9-bf1e-4e5a-a95e-daef5684034d","system_id":"levelo_inurba_marseille","lat":43.31349,"lon":5.36696,"is_reserved":false,"is_disabled":false,"rental_uris":{"android":"levelo://app?vid=c5ab4fa9-bf1e-4e5a-a95e-daef5684034d","ios":"levelo://app?vid=c5ab4fa9-bf1e-4e5a-a95e-daef5684034d"},"vehicle_type_id":"4","last_reported":1726215106,"current_range_meters":32400,"station_id":"ce4bgr92rcd13ifvqc6g","pricing_plan_id":"cebpf4jnsgd1na2vs0mg"},{"bike_id":"deaeb920-23ab-4b51-a90a-3a4d369b9959","system_id":"levelo_inurba_marseille","lat":43.26556,"lon":5.37282,"is_reserved":false,"is_disabled":false,"rental_uris":{"android":"levelo://app?vid=deaeb920-23ab-4b51-a90a-3a4d369b9959","ios":"levelo://app?vid=deaeb920-23ab-4b51-a90a-3a4d369b9959"},"vehicle_type_id":"4","last_reported":1726215106,"current_range_meters":8400,"station_id":"ce4bhg12rcd13ifvqf70","pricing_plan_id":"cebpf4jnsgd1na2vs0mg"},{"bike_id":"f28a6985-bf44-448a-a0d8-f1c1730371de","system_id":"levelo_inurba_marseille","lat":43.29729,"lon":5.36626,"is_reserved":false,"is_disabled":false,"rental_uris":{"android":"levelo://app?vid=f28a6985-bf44-448a-a0d8-f1c1730371de","ios":"levelo://app?vid=f28a6985-bf44-448a-a0d8-f1c1730371de"},"vehicle_type_id":"4","last_reported":1726215106,"current_range_meters":17200,"station_id":"ce4bgn12rcd13ifvqbt0","pricing_plan_id":"cebpf4jnsgd1na2vs0mg"},{"bike_id":"e792546a-aa4f-43c2-b6ec-8e4980d054d7","system_id":"levelo_inurba_marseille","lat":43.2904,"lon":5.37568,"is_reserved":false,"is_disabled":false,"rental_uris":{"android":"levelo://app?vid=e792546a-aa4f-43c2-b6ec-8e4980d054d7","ios":"levelo://app?vid=e792546a-aa4f-43c2-b6ec-8e4980d054d7"},"vehicle_type_id":"4","last_reported":1726215106,"current_range_meters":28800,"station_id":"ce4bh692rcd13ifvqe90","pricing_plan_id":"cebpf4jnsgd1na2vs0mg"},{"bike_id":"a3c99c0e-efb7-4563-a1e3-25d67d6029f6","system_id":"levelo_inurba_marseille","lat":43.31093,"lon":5.42422,"is_reserved":false,"is_disabled":false,"rental_uris":{"android":"levelo://app?vid=a3c99c0e-efb7-4563-a1e3-25d67d6029f6","ios":"levelo://app?vid=a3c99c0e-efb7-4563-a1e3-25d67d6029f6"},"vehicle_type_id":"4","last_reported":1726215106,"current_range_meters":10000,"station_id":"ce4bhp92rcd13ifvqhag","pricing_plan_id":"cebpf4jnsgd1na2vs0mg"},{"bike_id":"0a5c7982-28f1-44b8-a901-7e32bdbe3e0d","system_id":"levelo_inurba_marseille","lat":43.25492,"lon":5.37647,"is_reserved":false,"is_disabled":false,"rental_uris":{"android":"levelo://app?vid=0a5c7982-28f1-44b8-a901-7e32bdbe3e0d","ios":"levelo://app?vid=0a5c7982-28f1-44b8-a901-7e32bdbe3e0d"},"vehicle_type_id":"4","last_reported":1726215106,"current_range_meters":34000,"station_id":"ce4bhh12rcd13ifvqff0","pricing_plan_id":"cebpf4jnsgd1na2vs0mg"},{"bike_id":"756cb443-fd0a-4fd3-a1b9-dd9d1228b3a4","system_id":"levelo_inurba_marseille","lat":43.29725,"lon":5.37702,"is_reserved":false,"is_disabled":false,"rental_uris":{"android":"levelo://app?vid=756cb443-fd0a-4fd3-a1b9-dd9d1228b3a4","ios":"levelo://app?vid=756cb443-fd0a-4fd3-a1b9-dd9d1228b3a4"},"vehicle_type_id":"4","last_reported":1726215106,"current_range_meters":34000,"station_id":"ce4bgkh2rcd13ifvqbl0","pricing_plan_id":"cebpf4jnsgd1na2vs0mg"},{"bike_id":"2706703d-819c-4205-a468-5b08a4b1f00c","system_id":"levelo_inurba_marseille","lat":43.26955,"lon":5.38639,"is_reserved":false,"is_disabled":false,"rental_uris":{"android":"levelo://app?vid=2706703d-819c-4205-a468-5b08a4b1f00c","ios":"levelo://app?vid=2706703d-819c-4205-a468-5b08a4b1f00c"},"vehicle_type_id":"4","last_reported":1726215106,"current_range_meters":34000,"station_id":"ce4bhh92rcd13ifvqfh0","pricing_plan_id":"cebpf4jnsgd1na2vs0mg"},{"bike_id":"d765a641-e055-4e3b-87e7-fd69ea5db099","system_id":"levelo_inurba_marseille","lat":43.33764,"lon":5.37434,"is_reserved":false,"is_disabled":false,"rental_uris":{"android":"levelo://app?vid=d765a641-e055-4e3b-87e7-fd69ea5db099","ios":"levelo://app?vid=d765a641-e055-4e3b-87e7-fd69ea5db099"},"vehicle_type_id":"4","last_reported":1726215106,"current_range_meters":35200,"station_id":"","pricing_plan_id":"cebpf4jnsgd1na2vs0mg"},{"bike_id":"712ed283-2e97-40bf-a20c-65756f19ed99","system_id":"levelo_inurba_marseille","lat":43.28358,"lon":5.38096,"is_reserved":false,"is_disabled":false,"rental_uris":{"android":"levelo://app?vid=712ed283-2e97-40bf-a20c-65756f19ed99","ios":"levelo://app?vid=712ed283-2e97-40bf-a20c-65756f19ed99"},"vehicle_type_id":"4","last_reported":1726215106,"current_range_meters":33200,"station_id":"ce4bh412rcd13ifvqdr0","pricing_plan_id":"cebpf4jnsgd1na2vs0mg"},{"bike_id":"3a82be99-0129-491b-a6a6-d963bb916583","system_id":"levelo_inurba_marseille","lat":43.30465,"lon":5.379,"is_reserved":false,"is_disabled":false,"rental_uris":{"android":"levelo://app?vid=3a82be99-0129-491b-a6a6-d963bb916583","ios":"levelo://app?vid=3a82be99-0129-491b-a6a6-d963bb916583"},"vehicle_type_id":"4","last_reported":1726215106,"current_range_meters":27200,"station_id":"ce4bgup2rcd13ifvqcn0","pricing_plan_id":"cebpf4jnsgd1na2vs0mg"},{"bike_id":"ecb19fdf-c363-4be5-9a1d-16b9150ca555","system_id":"levelo_inurba_marseille","lat":43.31364,"lon":5.36694,"is_reserved":false,"is_disabled":false,"rental_uris":{"android":"levelo://app?vid=ecb19fdf-c363-4be5-9a1d-16b9150ca555","ios":"levelo://app?vid=ecb19fdf-c363-4be5-9a1d-16b9150ca555"},"vehicle_type_id":"4","last_reported":1726215106,"current_range_meters":27200,"station_id":"ce4bgr92rcd13ifvqc6g","pricing_plan_id":"cebpf4jnsgd1na2vs0mg"},{"bike_id":"dbc4086c-48db-4284-a3cc-0bca6ec06a27","system_id":"levelo_inurba_marseille","lat":43.30472,"lon":5.37892,"is_reserved":false,"is_disabled":false,"rental_uris":{"android":"levelo://app?vid=dbc4086c-48db-4284-a3cc-0bca6ec06a27","ios":"levelo://app?vid=dbc4086c-48db-4284-a3cc-0bca6ec06a27"},"vehicle_type_id":"4","last_reported":1726215106,"current_range_meters":39200,"station_id":"ce4bgup2rcd13ifvqcn0","pricing_plan_id":"cebpf4jnsgd1na2vs0mg"},{"bike_id":"2e1b7783-3f10-4155-a11c-1bf9df31fd07","system_id":"levelo_inurba_marseille","lat":43.29172,"lon":5.37147,"is_reserved":false,"is_disabled":false,"rental_uris":{"android":"levelo://app?vid=2e1b7783-3f10-4155-a11c-1bf9df31fd07","ios":"levelo://app?vid=2e1b7783-3f10-4155-a11c-1bf9df31fd07"},"vehicle_type_id":"4","last_reported":1726215106,"current_range_meters":12400,"station_id":"ce4bha92rcd13ifvqeh0","pricing_plan_id":"cebpf4jnsgd1na2vs0mg"},{"bike_id":"7d63178b-69f7-4014-a28f-2f01f91ab383","system_id":"levelo_inurba_marseille","lat":43.24085,"lon":5.37748,"is_reserved":false,"is_disabled":false,"rental_uris":{"android":"levelo://app?vid=7d63178b-69f7-4014-a28f-2f01f91ab383","ios":"levelo://app?vid=7d63178b-69f7-4014-a28f-2f01f91ab383"},"vehicle_type_id":"4","last_reported":1726215106,"current_range_meters":34000,"station_id":"ce4bhnp2rcd13ifvqgvg","pricing_plan_id":"cebpf4jnsgd1na2vs0mg"},{"bike_id":"f22d7c7d-1a79-4418-8e07-612430d283a3","system_id":"levelo_inurba_marseille","lat":43.30457,"lon":5.37904,"is_reserved":false,"is_disabled":false,"rental_uris":{"android":"levelo://app?vid=f22d7c7d-1a79-4418-8e07-612430d283a3","ios":"levelo://app?vid=f22d7c7d-1a79-4418-8e07-612430d283a3"},"vehicle_type_id":"4","last_reported":1726215106,"current_range_meters":33600,"station_id":"ce4bgup2rcd13ifvqcn0","pricing_plan_id":"cebpf4jnsgd1na2vs0mg"},{"bike_id":"fb4a43cc-1094-4b91-b8fc-da2543614e4a","system_id":"levelo_inurba_marseille","lat":43.27323,"lon":5.39087,"is_reserved":false,"is_disabled":false,"rental_uris":{"android":"levelo://app?vid=fb4a43cc-1094-4b91-b8fc-da2543614e4a","ios":"levelo://app?vid=fb4a43cc-1094-4b91-b8fc-da2543614e4a"},"vehicle_type_id":"4","last_reported":1726215106,"current_range_meters":25200,"station_id":"ce4bhgp2rcd13ifvqfe0","pricing_plan_id":"cebpf4jnsgd1na2vs0mg"},{"bike_id":"5f6bfd00-5693-46f3-961a-0e7447109507","system_id":"levelo_inurba_marseille","lat":43.31719,"lon":5.43708,"is_reserved":false,"is_disabled":false,"rental_uris":{"android":"levelo://app?vid=5f6bfd00-5693-46f3-961a-0e7447109507","ios":"levelo://app?vid=5f6bfd00-5693-46f3-961a-0e7447109507"},"vehicle_type_id":"4","last_reported":1726215106,"current_range_meters":17200,"station_id":"ce4bhp92rcd13ifvqhcg","pricing_plan_id":"cebpf4jnsgd1na2vs0mg"},{"bike_id":"4afb8b00-be3a-4d15-9b8b-47916e625762","system_id":"levelo_inurba_marseille","lat":43.2853,"lon":5.44229,"is_reserved":false,"is_disabled":false,"rental_uris":{"android":"levelo://app?vid=4afb8b00-be3a-4d15-9b8b-47916e625762","ios":"levelo://app?vid=4afb8b00-be3a-4d15-9b8b-47916e625762"},"vehicle_type_id":"4","last_reported":1726215106,"current_range_meters":28400,"station_id":"","pricing_plan_id":"cebpf4jnsgd1na2vs0mg"},{"bike_id":"e2efc2c0-22a2-4054-afb4-b709d8e3cea1","system_id":"levelo_inurba_marseille","lat":43.24075,"lon":5.37751,"is_reserved":false,"is_disabled":false,"rental_uris":{"android":"levelo://app?vid=e2efc2c0-22a2-4054-afb4-b709d8e3cea1","ios":"levelo://app?vid=e2efc2c0-22a2-4054-afb4-b709d8e3cea1"},"vehicle_type_id":"4","last_reported":1726215106,"current_range_meters":8000,"station_id":"ce4bhnp2rcd13ifvqgvg","pricing_plan_id":"cebpf4jnsgd1na2vs0mg"},{"bike_id":"bb7acf50-b6bc-4b2d-adf4-833abc23b24c","system_id":"levelo_inurba_marseille","lat":43.23195,"lon":5.35536,"is_reserved":false,"is_disabled":false,"rental_uris":{"android":"levelo://app?vid=bb7acf50-b6bc-4b2d-adf4-833abc23b24c","ios":"levelo://app?vid=bb7acf50-b6bc-4b2d-adf4-833abc23b24c"},"vehicle_type_id":"4","last_reported":1726215106,"current_range_meters":39200,"station_id":"ce4bhu92rcd13ifvqi70","pricing_plan_id":"cebpf4jnsgd1na2vs0mg"},{"bike_id":"498820e6-7992-4d70-9ee6-553108ccfbc3","system_id":"levelo_inurba_marseille","lat":43.24075,"lon":5.37759,"is_reserved":false,"is_disabled":false,"rental_uris":{"android":"levelo://app?vid=498820e6-7992-4d70-9ee6-553108ccfbc3","ios":"levelo://app?vid=498820e6-7992-4d70-9ee6-553108ccfbc3"},"vehicle_type_id":"4","last_reported":1726215106,"current_range_meters":30800,"station_id":"ce4bhnp2rcd13ifvqgvg","pricing_plan_id":"cebpf4jnsgd1na2vs0mg"},{"bike_id":"b6c91472-c61d-43e1-b41a-46555bf8faea","system_id":"levelo_inurba_marseille","lat":43.30467,"lon":5.379,"is_reserved":false,"is_disabled":false,"rental_uris":{"android":"levelo://app?vid=b6c91472-c61d-43e1-b41a-46555bf8faea","ios":"levelo://app?vid=b6c91472-c61d-43e1-b41a-46555bf8faea"},"vehicle_type_id":"4","last_reported":1726215106,"current_range_meters":30800,"station_id":"ce4bgup2rcd13ifvqcn0","pricing_plan_id":"cebpf4jnsgd1na2vs0mg"},{"bike_id":"7b9710f1-3492-43af-95aa-b4939ff62cd7","system_id":"levelo_inurba_marseille","lat":43.28726,"lon":5.37939,"is_reserved":false,"is_disabled":false,"rental_uris":{"android":"levelo://app?vid=7b9710f1-3492-43af-95aa-b4939ff62cd7","ios":"levelo://app?vid=7b9710f1-3492-43af-95aa-b4939ff62cd7"},"vehicle_type_id":"4","last_reported":1726215106,"current_range_meters":16000,"station_id":"ce4bh9p2rcd13ifvqec0","pricing_plan_id":"cebpf4jnsgd1na2vs0mg"},{"bike_id":"b2696f84-5488-4d60-bb79-441c23829dab","system_id":"levelo_inurba_marseille","lat":43.29178,"lon":5.37167,"is_reserved":false,"is_disabled":false,"rental_uris":{"android":"levelo://app?vid=b2696f84-5488-4d60-bb79-441c23829dab","ios":"levelo://app?vid=b2696f84-5488-4d60-bb79-441c23829dab"},"vehicle_type_id":"4","last_reported":1726215106,"current_range_meters":39200,"station_id":"ce4bha92rcd13ifvqeh0","pricing_plan_id":"cebpf4jnsgd1na2vs0mg"},{"bike_id":"8584941c-07f3-4191-8766-14171773c435","system_id":"levelo_inurba_marseille","lat":43.27207,"lon":5.39179,"is_reserved":false,"is_disabled":false,"rental_uris":{"android":"levelo://app?vid=8584941c-07f3-4191-8766-14171773c435","ios":"levelo://app?vid=8584941c-07f3-4191-8766-14171773c435"},"vehicle_type_id":"4","last_reported":1726215106,"current_range_meters":8400,"station_id":"ce4bhhp2rcd13ifvqfm0","pricing_plan_id":"cebpf4jnsgd1na2vs0mg"},{"bike_id":"c04c04ac-fca9-4798-8d8b-5b0f8777c95d","system_id":"levelo_inurba_marseille","lat":43.24192,"lon":5.39744,"is_reserved":false,"is_disabled":false,"rental_uris":{"android":"levelo://app?vid=c04c04ac-fca9-4798-8d8b-5b0f8777c95d","ios":"levelo://app?vid=c04c04ac-fca9-4798-8d8b-5b0f8777c95d"},"vehicle_type_id":"4","last_reported":1726215106,"current_range_meters":39200,"station_id":"ce4bhn12rcd13ifvqgpg","pricing_plan_id":"cebpf4jnsgd1na2vs0mg"},{"bike_id":"96982347-0540-4144-a1b1-f18a451a266b","system_id":"levelo_inurba_marseille","lat":43.29302,"lon":5.3745,"is_reserved":false,"is_disabled":false,"rental_uris":{"android":"levelo://app?vid=96982347-0540-4144-a1b1-f18a451a266b","ios":"levelo://app?vid=96982347-0540-4144-a1b1-f18a451a266b"},"vehicle_type_id":"4","last_reported":1726215106,"current_range_meters":2000,"station_id":"ce4bgi12rcd13ifvqb70","pricing_plan_id":"cebpf4jnsgd1na2vs0mg"},{"bike_id":"fc5bc3fc-35d3-40e2-b34c-e87294cdac8e","system_id":"levelo_inurba_marseille","lat":43.325378,"lon":5.414229,"is_reserved":false,"is_disabled":false,"rental_uris":{"android":"levelo://app?vid=fc5bc3fc-35d3-40e2-b34c-e87294cdac8e","ios":"levelo://app?vid=fc5bc3fc-35d3-40e2-b34c-e87294cdac8e"},"vehicle_type_id":"4","last_reported":1726215106,"current_range_meters":8000,"station_id":"ce4bhq12rcd13ifvqhhg","pricing_plan_id":"cebpf4jnsgd1na2vs0mg"},{"bike_id":"9a98c20a-1bbb-4b09-a13d-2fc5d00cb29f","system_id":"levelo_inurba_marseille","lat":43.29562,"lon":5.42289,"is_reserved":false,"is_disabled":false,"rental_uris":{"android":"levelo://app?vid=9a98c20a-1bbb-4b09-a13d-2fc5d00cb29f","ios":"levelo://app?vid=9a98c20a-1bbb-4b09-a13d-2fc5d00cb29f"},"vehicle_type_id":"4","last_reported":1726215106,"current_range_meters":10000,"station_id":"ce4bhph2rcd13ifvqhdg","pricing_plan_id":"cebpf4jnsgd1na2vs0mg"},{"bike_id":"65c1412b-046f-4164-bac6-8d82df38fef4","system_id":"levelo_inurba_marseille","lat":43.30556,"lon":5.36528,"is_reserved":false,"is_disabled":false,"rental_uris":{"android":"levelo://app?vid=65c1412b-046f-4164-bac6-8d82df38fef4","ios":"levelo://app?vid=65c1412b-046f-4164-bac6-8d82df38fef4"},"vehicle_type_id":"4","last_reported":1726215106,"current_range_meters":12800,"station_id":"ce4bgs12rcd13ifvqcag","pricing_plan_id":"cebpf4jnsgd1na2vs0mg"},{"bike_id":"2e95f72b-c48e-49de-b6be-9dde9b7c9b57","system_id":"levelo_inurba_marseille","lat":43.30149,"lon":5.37414,"is_reserved":false,"is_disabled":false,"rental_uris":{"android":"levelo://app?vid=2e95f72b-c48e-49de-b6be-9dde9b7c9b57","ios":"levelo://app?vid=2e95f72b-c48e-49de-b6be-9dde9b7c9b57"},"vehicle_type_id":"4","last_reported":1726215106,"current_range_meters":14000,"station_id":"ce4bgs92rcd13ifvqcc0","pricing_plan_id":"cebpf4jnsgd1na2vs0mg"},{"bike_id":"3e6177af-741c-4e41-83c1-904a33b190a7","system_id":"levelo_inurba_marseille","lat":43.34145,"lon":5.40909,"is_reserved":false,"is_disabled":false,"rental_uris":{"android":"levelo://app?vid=3e6177af-741c-4e41-83c1-904a33b190a7","ios":"levelo://app?vid=3e6177af-741c-4e41-83c1-904a33b190a7"},"vehicle_type_id":"4","last_reported":1726215106,"current_range_meters":5600,"station_id":"ce4bhqh2rcd13ifvqhlg","pricing_plan_id":"cebpf4jnsgd1na2vs0mg"},{"bike_id":"27de0738-4756-42e5-9093-6ab278fdab9f","system_id":"levelo_inurba_marseille","lat":43.29313,"lon":5.37457,"is_reserved":false,"is_disabled":false,"rental_uris":{"android":"levelo://app?vid=27de0738-4756-42e5-9093-6ab278fdab9f","ios":"levelo://app?vid=27de0738-4756-42e5-9093-6ab278fdab9f"},"vehicle_type_id":"4","last_reported":1726215106,"current_range_meters":9200,"station_id":"ce4bgi12rcd13ifvqb70","pricing_plan_id":"cebpf4jnsgd1na2vs0mg"},{"bike_id":"c28ff0f1-1713-431a-bccf-4e7a21e8e39b","system_id":"levelo_inurba_marseille","lat":43.25508,"lon":5.37651,"is_reserved":false,"is_disabled":false,"rental_uris":{"android":"levelo://app?vid=c28ff0f1-1713-431a-bccf-4e7a21e8e39b","ios":"levelo://app?vid=c28ff0f1-1713-431a-bccf-4e7a21e8e39b"},"vehicle_type_id":"4","last_reported":1726215106,"current_range_meters":39200,"station_id":"ce4bhh12rcd13ifvqff0","pricing_plan_id":"cebpf4jnsgd1na2vs0mg"},{"bike_id":"99debd67-bb6d-43a9-8d90-d78301bb0e03","system_id":"levelo_inurba_marseille","lat":43.26061,"lon":5.39392,"is_reserved":false,"is_disabled":false,"rental_uris":{"android":"levelo://app?vid=99debd67-bb6d-43a9-8d90-d78301bb0e03","ios":"levelo://app?vid=99debd67-bb6d-43a9-8d90-d78301bb0e03"},"vehicle_type_id":"4","last_reported":1726215106,"current_range_meters":22800,"station_id":"ce4bhh92rcd13ifvqfj0","pricing_plan_id":"cebpf4jnsgd1na2vs0mg"},{"bike_id":"deaaae64-24a5-443f-ba91-de969d33fdb3","system_id":"levelo_inurba_marseille","lat":43.283386,"lon":5.381059,"is_reserved":false,"is_disabled":false,"rental_uris":{"android":"levelo://app?vid=deaaae64-24a5-443f-ba91-de969d33fdb3","ios":"levelo://app?vid=deaaae64-24a5-443f-ba91-de969d33fdb3"},"vehicle_type_id":"4","last_reported":1726215106,"current_range_meters":28800,"station_id":"ce4bh412rcd13ifvqdr0","pricing_plan_id":"cebpf4jnsgd1na2vs0mg"},{"bike_id":"d63b08fd-7716-422a-94e4-8f1dfff5bb11","system_id":"levelo_inurba_marseille","lat":43.28615,"lon":5.35097,"is_reserved":false,"is_disabled":false,"rental_uris":{"android":"levelo://app?vid=d63b08fd-7716-422a-94e4-8f1dfff5bb11","ios":"levelo://app?vid=d63b08fd-7716-422a-94e4-8f1dfff5bb11"},"vehicle_type_id":"4","last_reported":1726215106,"current_range_meters":15200,"station_id":"ce4bhch2rcd13ifvqeug","pricing_plan_id":"cebpf4jnsgd1na2vs0mg"},{"bike_id":"2d2a0049-051f-4b74-b370-9aacb4e4a381","system_id":"levelo_inurba_marseille","lat":43.27495,"lon":5.42455,"is_reserved":false,"is_disabled":false,"rental_uris":{"android":"levelo://app?vid=2d2a0049-051f-4b74-b370-9aacb4e4a381","ios":"levelo://app?vid=2d2a0049-051f-4b74-b370-9aacb4e4a381"},"vehicle_type_id":"4","last_reported":1726215106,"current_range_meters":38000,"station_id":"ce4bhn92rcd13ifvqgrg","pricing_plan_id":"cebpf4jnsgd1na2vs0mg"},{"bike_id":"1763571a-9954-433e-872e-ef6d6319dff6","system_id":"levelo_inurba_marseille","lat":43.31347,"lon":5.36728,"is_reserved":false,"is_disabled":false,"rental_uris":{"android":"levelo://app?vid=1763571a-9954-433e-872e-ef6d6319dff6","ios":"levelo://app?vid=1763571a-9954-433e-872e-ef6d6319dff6"},"vehicle_type_id":"4","last_reported":1726215106,"current_range_meters":27200,"station_id":"ce4bgr92rcd13ifvqc6g","pricing_plan_id":"cebpf4jnsgd1na2vs0mg"},{"bike_id":"d23ba85e-2d06-4115-8335-c2ac32e57dd7","system_id":"levelo_inurba_marseille","lat":43.23201,"lon":5.35548,"is_reserved":false,"is_disabled":false,"rental_uris":{"android":"levelo://app?vid=d23ba85e-2d06-4115-8335-c2ac32e57dd7","ios":"levelo://app?vid=d23ba85e-2d06-4115-8335-c2ac32e57dd7"},"vehicle_type_id":"4","last_reported":1726215106,"current_range_meters":4000,"station_id":"ce4bhu92rcd13ifvqi70","pricing_plan_id":"cebpf4jnsgd1na2vs0mg"},{"bike_id":"0581d489-9b20-4e31-b3d6-6ed5d6c2653e","system_id":"levelo_inurba_marseille","lat":43.29599,"lon":5.38102,"is_reserved":false,"is_disabled":false,"rental_uris":{"android":"levelo://app?vid=0581d489-9b20-4e31-b3d6-6ed5d6c2653e","ios":"levelo://app?vid=0581d489-9b20-4e31-b3d6-6ed5d6c2653e"},"vehicle_type_id":"4","last_reported":1726215106,"current_range_meters":33600,"station_id":"ce4bgl12rcd13ifvqbo0","pricing_plan_id":"cebpf4jnsgd1na2vs0mg"},{"bike_id":"8a88f642-8182-4433-942e-9c9b19984aea","system_id":"levelo_inurba_marseille","lat":43.31893,"lon":5.40729,"is_reserved":false,"is_disabled":false,"rental_uris":{"android":"levelo://app?vid=8a88f642-8182-4433-942e-9c9b19984aea","ios":"levelo://app?vid=8a88f642-8182-4433-942e-9c9b19984aea"},"vehicle_type_id":"4","last_reported":1726215106,"current_range_meters":10800,"station_id":"ce4bhq12rcd13ifvqhig","pricing_plan_id":"cebpf4jnsgd1na2vs0mg"},{"bike_id":"1e540333-4d9c-4f56-8ef4-2ba21bfee7a1","system_id":"levelo_inurba_marseille","lat":43.27323,"lon":5.39093,"is_reserved":false,"is_disabled":false,"rental_uris":{"android":"levelo://app?vid=1e540333-4d9c-4f56-8ef4-2ba21bfee7a1","ios":"levelo://app?vid=1e540333-4d9c-4f56-8ef4-2ba21bfee7a1"},"vehicle_type_id":"4","last_reported":1726215106,"current_range_meters":33600,"station_id":"ce4bhgp2rcd13ifvqfe0","pricing_plan_id":"cebpf4jnsgd1na2vs0mg"},{"bike_id":"86592e31-d195-4731-8e4b-a0f3d2ead51e","system_id":"levelo_inurba_marseille","lat":43.27499,"lon":5.42446,"is_reserved":false,"is_disabled":false,"rental_uris":{"android":"levelo://app?vid=86592e31-d195-4731-8e4b-a0f3d2ead51e","ios":"levelo://app?vid=86592e31-d195-4731-8e4b-a0f3d2ead51e"},"vehicle_type_id":"4","last_reported":1726215106,"current_range_meters":30000,"station_id":"ce4bhn92rcd13ifvqgrg","pricing_plan_id":"cebpf4jnsgd1na2vs0mg"},{"bike_id":"53ef2818-a055-47fd-abbf-0ca3cd85cef4","system_id":"levelo_inurba_marseille","lat":43.30911,"lon":5.36851,"is_reserved":false,"is_disabled":false,"rental_uris":{"android":"levelo://app?vid=53ef2818-a055-47fd-abbf-0ca3cd85cef4","ios":"levelo://app?vid=53ef2818-a055-47fd-abbf-0ca3cd85cef4"},"vehicle_type_id":"4","last_reported":1726215106,"current_range_meters":16800,"station_id":"ce4bgn92rcd13ifvqbvg","pricing_plan_id":"cebpf4jnsgd1na2vs0mg"},{"bike_id":"4a6156b1-fbee-47d9-b657-67ea13344c54","system_id":"levelo_inurba_marseille","lat":43.23961,"lon":5.3664,"is_reserved":false,"is_disabled":false,"rental_uris":{"android":"levelo://app?vid=4a6156b1-fbee-47d9-b657-67ea13344c54","ios":"levelo://app?vid=4a6156b1-fbee-47d9-b657-67ea13344c54"},"vehicle_type_id":"4","last_reported":1726215106,"current_range_meters":10000,"station_id":"ce4bhi12rcd13ifvqfp0","pricing_plan_id":"cebpf4jnsgd1na2vs0mg"},{"bike_id":"71e5bd5f-9941-45ed-83eb-1729c01b5303","system_id":"levelo_inurba_marseille","lat":43.22933,"lon":5.35373,"is_reserved":false,"is_disabled":false,"rental_uris":{"android":"levelo://app?vid=71e5bd5f-9941-45ed-83eb-1729c01b5303","ios":"levelo://app?vid=71e5bd5f-9941-45ed-83eb-1729c01b5303"},"vehicle_type_id":"4","last_reported":1726215106,"current_range_meters":36400,"station_id":"cpo3532slgdg3j2ikp40","pricing_plan_id":"cebpf4jnsgd1na2vs0mg"},{"bike_id":"5cf2a812-1953-458c-b19a-97c8778af513","system_id":"levelo_inurba_marseille","lat":43.2997,"lon":5.38473,"is_reserved":false,"is_disabled":false,"rental_uris":{"android":"levelo://app?vid=5cf2a812-1953-458c-b19a-97c8778af513","ios":"levelo://app?vid=5cf2a812-1953-458c-b19a-97c8778af513"},"vehicle_type_id":"4","last_reported":1726215106,"current_range_meters":4400,"station_id":"ce4bgj92rcd13ifvqbd0","pricing_plan_id":"cebpf4jnsgd1na2vs0mg"},{"bike_id":"b67e29c2-a2fc-48c9-b091-a0aa3e618481","system_id":"levelo_inurba_marseille","lat":43.30546,"lon":5.36526,"is_reserved":false,"is_disabled":false,"rental_uris":{"android":"levelo://app?vid=b67e29c2-a2fc-48c9-b091-a0aa3e618481","ios":"levelo://app?vid=b67e29c2-a2fc-48c9-b091-a0aa3e618481"},"vehicle_type_id":"4","last_reported":1726215106,"current_range_meters":11200,"station_id":"ce4bgs12rcd13ifvqcag","pricing_plan_id":"cebpf4jnsgd1na2vs0mg"},{"bike_id":"83009555-c31e-4968-8dfb-8455a00fc6c9","system_id":"levelo_inurba_marseille","lat":43.24668,"lon":5.38151,"is_reserved":false,"is_disabled":false,"rental_uris":{"android":"levelo://app?vid=83009555-c31e-4968-8dfb-8455a00fc6c9","ios":"levelo://app?vid=83009555-c31e-4968-8dfb-8455a00fc6c9"},"vehicle_type_id":"4","last_reported":1726215106,"current_range_meters":27200,"station_id":"ce4bhih2rcd13ifvqfr0","pricing_plan_id":"cebpf4jnsgd1na2vs0mg"},{"bike_id":"f8ff8867-583f-40ea-9a54-7fa5d88601e0","system_id":"levelo_inurba_marseille","lat":43.298489,"lon":5.362813,"is_reserved":false,"is_disabled":false,"rental_uris":{"android":"levelo://app?vid=f8ff8867-583f-40ea-9a54-7fa5d88601e0","ios":"levelo://app?vid=f8ff8867-583f-40ea-9a54-7fa5d88601e0"},"vehicle_type_id":"4","last_reported":1726215106,"current_range_meters":12400,"station_id":"ce4bgpp2rcd13ifvqc3g","pricing_plan_id":"cebpf4jnsgd1na2vs0mg"},{"bike_id":"15a0f7a7-2801-4b64-a1cf-7b142c6ce92e","system_id":"levelo_inurba_marseille","lat":43.27498,"lon":5.42444,"is_reserved":false,"is_disabled":false,"rental_uris":{"android":"levelo://app?vid=15a0f7a7-2801-4b64-a1cf-7b142c6ce92e","ios":"levelo://app?vid=15a0f7a7-2801-4b64-a1cf-7b142c6ce92e"},"vehicle_type_id":"4","last_reported":1726215106,"current_range_meters":30400,"station_id":"ce4bhn92rcd13ifvqgrg","pricing_plan_id":"cebpf4jnsgd1na2vs0mg"},{"bike_id":"ffd70a77-c284-4424-967a-f18b173c279c","system_id":"levelo_inurba_marseille","lat":43.23166,"lon":5.437,"is_reserved":false,"is_disabled":false,"rental_uris":{"android":"levelo://app?vid=ffd70a77-c284-4424-967a-f18b173c279c","ios":"levelo://app?vid=ffd70a77-c284-4424-967a-f18b173c279c"},"vehicle_type_id":"4","last_reported":1726215106,"current_range_meters":14800,"station_id":"ce4bhmp2rcd13ifvqgog","pricing_plan_id":"cebpf4jnsgd1na2vs0mg"},{"bike_id":"b4d74fee-6f89-4d61-89e1-dd9f2e020f3a","system_id":"levelo_inurba_marseille","lat":43.30469,"lon":5.37898,"is_reserved":false,"is_disabled":false,"rental_uris":{"android":"levelo://app?vid=b4d74fee-6f89-4d61-89e1-dd9f2e020f3a","ios":"levelo://app?vid=b4d74fee-6f89-4d61-89e1-dd9f2e020f3a"},"vehicle_type_id":"4","last_reported":1726215106,"current_range_meters":37600,"station_id":"ce4bgup2rcd13ifvqcn0","pricing_plan_id":"cebpf4jnsgd1na2vs0mg"},{"bike_id":"dc498d7f-44d6-41b6-8f3e-c6f8f7a50618","system_id":"levelo_inurba_marseille","lat":43.29716,"lon":5.37708,"is_reserved":false,"is_disabled":false,"rental_uris":{"android":"levelo://app?vid=dc498d7f-44d6-41b6-8f3e-c6f8f7a50618","ios":"levelo://app?vid=dc498d7f-44d6-41b6-8f3e-c6f8f7a50618"},"vehicle_type_id":"4","last_reported":1726215106,"current_range_meters":19200,"station_id":"ce4bgkh2rcd13ifvqbl0","pricing_plan_id":"cebpf4jnsgd1na2vs0mg"},{"bike_id":"91b36c15-8bb8-4d60-8c33-cdd8e0d267ed","system_id":"levelo_inurba_marseille","lat":43.23155,"lon":5.43718,"is_reserved":false,"is_disabled":false,"rental_uris":{"android":"levelo://app?vid=91b36c15-8bb8-4d60-8c33-cdd8e0d267ed","ios":"levelo://app?vid=91b36c15-8bb8-4d60-8c33-cdd8e0d267ed"},"vehicle_type_id":"4","last_reported":1726215106,"current_range_meters":12800,"station_id":"ce4bhmp2rcd13ifvqgog","pricing_plan_id":"cebpf4jnsgd1na2vs0mg"},{"bike_id":"8a887379-9865-482a-a5f3-9818897f4050","system_id":"levelo_inurba_marseille","lat":43.30481,"lon":5.37898,"is_reserved":false,"is_disabled":false,"rental_uris":{"android":"levelo://app?vid=8a887379-9865-482a-a5f3-9818897f4050","ios":"levelo://app?vid=8a887379-9865-482a-a5f3-9818897f4050"},"vehicle_type_id":"4","last_reported":1726215106,"current_range_meters":38000,"station_id":"ce4bgup2rcd13ifvqcn0","pricing_plan_id":"cebpf4jnsgd1na2vs0mg"},{"bike_id":"21f4bdb7-d976-4839-a7fe-41e1e86c92e2","system_id":"levelo_inurba_marseille","lat":43.24081,"lon":5.3775,"is_reserved":false,"is_disabled":false,"rental_uris":{"android":"levelo://app?vid=21f4bdb7-d976-4839-a7fe-41e1e86c92e2","ios":"levelo://app?vid=21f4bdb7-d976-4839-a7fe-41e1e86c92e2"},"vehicle_type_id":"4","last_reported":1726215106,"current_range_meters":17200,"station_id":"ce4bhnp2rcd13ifvqgvg","pricing_plan_id":"cebpf4jnsgd1na2vs0mg"},{"bike_id":"6beb15ed-2c8d-4076-af9f-d4d302e6aee1","system_id":"levelo_inurba_marseille","lat":43.24089,"lon":5.37745,"is_reserved":false,"is_disabled":false,"rental_uris":{"android":"levelo://app?vid=6beb15ed-2c8d-4076-af9f-d4d302e6aee1","ios":"levelo://app?vid=6beb15ed-2c8d-4076-af9f-d4d302e6aee1"},"vehicle_type_id":"4","last_reported":1726215106,"current_range_meters":35600,"station_id":"ce4bhnp2rcd13ifvqgvg","pricing_plan_id":"cebpf4jnsgd1na2vs0mg"},{"bike_id":"954d2b54-362e-442e-bcaa-d17939d90e2d","system_id":"levelo_inurba_marseille","lat":43.25497,"lon":5.37646,"is_reserved":false,"is_disabled":false,"rental_uris":{"android":"levelo://app?vid=954d2b54-362e-442e-bcaa-d17939d90e2d","ios":"levelo://app?vid=954d2b54-362e-442e-bcaa-d17939d90e2d"},"vehicle_type_id":"4","last_reported":1726215106,"current_range_meters":39200,"station_id":"ce4bhh12rcd13ifvqff0","pricing_plan_id":"cebpf4jnsgd1na2vs0mg"},{"bike_id":"82dec1e1-c024-4a59-b080-1ca526441f94","system_id":"levelo_inurba_marseille","lat":43.337612,"lon":5.374504,"is_reserved":false,"is_disabled":false,"rental_uris":{"android":"levelo://app?vid=82dec1e1-c024-4a59-b080-1ca526441f94","ios":"levelo://app?vid=82dec1e1-c024-4a59-b080-1ca526441f94"},"vehicle_type_id":"4","last_reported":1726215106,"current_range_meters":15200,"station_id":"","pricing_plan_id":"cebpf4jnsgd1na2vs0mg"},{"bike_id":"c388f329-6f3c-470d-96b0-fb1532620c7b","system_id":"levelo_inurba_marseille","lat":43.23152,"lon":5.43718,"is_reserved":false,"is_disabled":false,"rental_uris":{"android":"levelo://app?vid=c388f329-6f3c-470d-96b0-fb1532620c7b","ios":"levelo://app?vid=c388f329-6f3c-470d-96b0-fb1532620c7b"},"vehicle_type_id":"4","last_reported":1726215106,"current_range_meters":22800,"station_id":"ce4bhmp2rcd13ifvqgog","pricing_plan_id":"cebpf4jnsgd1na2vs0mg"},{"bike_id":"58e1327d-64e6-43cf-91db-214255cc4e98","system_id":"levelo_inurba_marseille","lat":43.30466,"lon":5.37904,"is_reserved":false,"is_disabled":false,"rental_uris":{"android":"levelo://app?vid=58e1327d-64e6-43cf-91db-214255cc4e98","ios":"levelo://app?vid=58e1327d-64e6-43cf-91db-214255cc4e98"},"vehicle_type_id":"4","last_reported":1726215106,"current_range_meters":39200,"station_id":"ce4bgup2rcd13ifvqcn0","pricing_plan_id":"cebpf4jnsgd1na2vs0mg"},{"bike_id":"e8cf9e78-f4a0-4e06-b224-5337c7001f4a","system_id":"levelo_inurba_marseille","lat":43.29789,"lon":5.37112,"is_reserved":false,"is_disabled":false,"rental_uris":{"android":"levelo://app?vid=e8cf9e78-f4a0-4e06-b224-5337c7001f4a","ios":"levelo://app?vid=e8cf9e78-f4a0-4e06-b224-5337c7001f4a"},"vehicle_type_id":"4","last_reported":1726215106,"current_range_meters":24400,"station_id":"ce4bgop2rcd13ifvqc1g","pricing_plan_id":"cebpf4jnsgd1na2vs0mg"},{"bike_id":"e3b90e0b-4923-474e-90ac-7372ad6957cb","system_id":"levelo_inurba_marseille","lat":43.28349,"lon":5.38111,"is_reserved":false,"is_disabled":false,"rental_uris":{"android":"levelo://app?vid=e3b90e0b-4923-474e-90ac-7372ad6957cb","ios":"levelo://app?vid=e3b90e0b-4923-474e-90ac-7372ad6957cb"},"vehicle_type_id":"4","last_reported":1726215106,"current_range_meters":32000,"station_id":"ce4bh412rcd13ifvqdr0","pricing_plan_id":"cebpf4jnsgd1na2vs0mg"},{"bike_id":"2deeed66-456e-4f3b-be82-f36b0e3c9d4c","system_id":"levelo_inurba_marseille","lat":43.23161,"lon":5.43707,"is_reserved":false,"is_disabled":false,"rental_uris":{"android":"levelo://app?vid=2deeed66-456e-4f3b-be82-f36b0e3c9d4c","ios":"levelo://app?vid=2deeed66-456e-4f3b-be82-f36b0e3c9d4c"},"vehicle_type_id":"4","last_reported":1726215106,"current_range_meters":19600,"station_id":"ce4bhmp2rcd13ifvqgog","pricing_plan_id":"cebpf4jnsgd1na2vs0mg"},{"bike_id":"09ba8945-a48c-4076-a723-c8b4a259d6ac","system_id":"levelo_inurba_marseille","lat":43.25578,"lon":5.38233,"is_reserved":false,"is_disabled":false,"rental_uris":{"android":"levelo://app?vid=09ba8945-a48c-4076-a723-c8b4a259d6ac","ios":"levelo://app?vid=09ba8945-a48c-4076-a723-c8b4a259d6ac"},"vehicle_type_id":"4","last_reported":1726215106,"current_range_meters":33200,"station_id":"ce4bhih2rcd13ifvqfs0","pricing_plan_id":"cebpf4jnsgd1na2vs0mg"},{"bike_id":"6b8972b7-e7de-4326-a45c-dcc210e21241","system_id":"levelo_inurba_marseille","lat":43.337668,"lon":5.374645,"is_reserved":false,"is_disabled":false,"rental_uris":{"android":"levelo://app?vid=6b8972b7-e7de-4326-a45c-dcc210e21241","ios":"levelo://app?vid=6b8972b7-e7de-4326-a45c-dcc210e21241"},"vehicle_type_id":"4","last_reported":1726215106,"current_range_meters":28800,"station_id":"","pricing_plan_id":"cebpf4jnsgd1na2vs0mg"},{"bike_id":"68ff4151-97ec-460a-970f-20908099f2f1","system_id":"levelo_inurba_marseille","lat":43.30571,"lon":5.36537,"is_reserved":false,"is_disabled":false,"rental_uris":{"android":"levelo://app?vid=68ff4151-97ec-460a-970f-20908099f2f1","ios":"levelo://app?vid=68ff4151-97ec-460a-970f-20908099f2f1"},"vehicle_type_id":"4","last_reported":1726215106,"current_range_meters":5600,"station_id":"ce4bgs12rcd13ifvqcag","pricing_plan_id":"cebpf4jnsgd1na2vs0mg"},{"bike_id":"e1b3ff98-e8ed-41c2-9ef4-0a7f701defd9","system_id":"levelo_inurba_marseille","lat":43.29267,"lon":5.40911,"is_reserved":false,"is_disabled":false,"rental_uris":{"android":"levelo://app?vid=e1b3ff98-e8ed-41c2-9ef4-0a7f701defd9","ios":"levelo://app?vid=e1b3ff98-e8ed-41c2-9ef4-0a7f701defd9"},"vehicle_type_id":"4","last_reported":1726215106,"current_range_meters":38400,"station_id":"ce4bh192rcd13ifvqdc0","pricing_plan_id":"cebpf4jnsgd1na2vs0mg"},{"bike_id":"4ab8585a-4765-4e63-9281-3773eed1298c","system_id":"levelo_inurba_marseille","lat":43.27059,"lon":5.40261,"is_reserved":false,"is_disabled":false,"rental_uris":{"android":"levelo://app?vid=4ab8585a-4765-4e63-9281-3773eed1298c","ios":"levelo://app?vid=4ab8585a-4765-4e63-9281-3773eed1298c"},"vehicle_type_id":"4","last_reported":1726215106,"current_range_meters":18800,"station_id":"ce4bhk92rcd13ifvqgc0","pricing_plan_id":"cebpf4jnsgd1na2vs0mg"},{"bike_id":"48d092ad-a333-47fc-807e-155c271c9095","system_id":"levelo_inurba_marseille","lat":43.24079,"lon":5.37753,"is_reserved":false,"is_disabled":false,"rental_uris":{"android":"levelo://app?vid=48d092ad-a333-47fc-807e-155c271c9095","ios":"levelo://app?vid=48d092ad-a333-47fc-807e-155c271c9095"},"vehicle_type_id":"4","last_reported":1726215106,"current_range_meters":29600,"station_id":"ce4bhnp2rcd13ifvqgvg","pricing_plan_id":"cebpf4jnsgd1na2vs0mg"},{"bike_id":"f5532006-91c6-4c55-8ed6-9fb9f0ed48ad","system_id":"levelo_inurba_marseille","lat":43.29512,"lon":5.3749,"is_reserved":false,"is_disabled":false,"rental_uris":{"android":"levelo://app?vid=f5532006-91c6-4c55-8ed6-9fb9f0ed48ad","ios":"levelo://app?vid=f5532006-91c6-4c55-8ed6-9fb9f0ed48ad"},"vehicle_type_id":"4","last_reported":1726215106,"current_range_meters":28400,"station_id":"ce4bgkp2rcd13ifvqbmg","pricing_plan_id":"cebpf4jnsgd1na2vs0mg"},{"bike_id":"5ddbd8ac-4c32-41a0-bd5d-0b5ab8b06354","system_id":"levelo_inurba_marseille","lat":43.29699,"lon":5.37294,"is_reserved":false,"is_disabled":false,"rental_uris":{"android":"levelo://app?vid=5ddbd8ac-4c32-41a0-bd5d-0b5ab8b06354","ios":"levelo://app?vid=5ddbd8ac-4c32-41a0-bd5d-0b5ab8b06354"},"vehicle_type_id":"4","last_reported":1726215106,"current_range_meters":32800,"station_id":"ce4bgk12rcd13ifvqbj0","pricing_plan_id":"cebpf4jnsgd1na2vs0mg"},{"bike_id":"beed390f-5590-4e36-a920-552bcc39f2d8","system_id":"levelo_inurba_marseille","lat":43.30536,"lon":5.36522,"is_reserved":false,"is_disabled":false,"rental_uris":{"android":"levelo://app?vid=beed390f-5590-4e36-a920-552bcc39f2d8","ios":"levelo://app?vid=beed390f-5590-4e36-a920-552bcc39f2d8"},"vehicle_type_id":"4","last_reported":1726215106,"current_range_meters":39200,"station_id":"ce4bgs12rcd13ifvqcag","pricing_plan_id":"cebpf4jnsgd1na2vs0mg"},{"bike_id":"61e00977-be43-400f-99ea-3c33330f7657","system_id":"levelo_inurba_marseille","lat":43.25013,"lon":5.38913,"is_reserved":false,"is_disabled":false,"rental_uris":{"android":"levelo://app?vid=61e00977-be43-400f-99ea-3c33330f7657","ios":"levelo://app?vid=61e00977-be43-400f-99ea-3c33330f7657"},"vehicle_type_id":"4","last_reported":1726215106,"current_range_meters":26000,"station_id":"ce4bhgp2rcd13ifvqfd0","pricing_plan_id":"cebpf4jnsgd1na2vs0mg"},{"bike_id":"3286105a-ff42-4cdb-8a01-f2dcec295ec3","system_id":"levelo_inurba_marseille","lat":43.24076,"lon":5.37752,"is_reserved":false,"is_disabled":false,"rental_uris":{"android":"levelo://app?vid=3286105a-ff42-4cdb-8a01-f2dcec295ec3","ios":"levelo://app?vid=3286105a-ff42-4cdb-8a01-f2dcec295ec3"},"vehicle_type_id":"4","last_reported":1726215106,"current_range_meters":20400,"station_id":"ce4bhnp2rcd13ifvqgvg","pricing_plan_id":"cebpf4jnsgd1na2vs0mg"},{"bike_id":"244aeeda-27fc-4b45-94a3-af58d5f6bb1e","system_id":"levelo_inurba_marseille","lat":43.27497,"lon":5.42453,"is_reserved":false,"is_disabled":false,"rental_uris":{"android":"levelo://app?vid=244aeeda-27fc-4b45-94a3-af58d5f6bb1e","ios":"levelo://app?vid=244aeeda-27fc-4b45-94a3-af58d5f6bb1e"},"vehicle_type_id":"4","last_reported":1726215106,"current_range_meters":30000,"station_id":"ce4bhn92rcd13ifvqgrg","pricing_plan_id":"cebpf4jnsgd1na2vs0mg"},{"bike_id":"6f460960-ce1e-4b86-8066-4975ee77fdb2","system_id":"levelo_inurba_marseille","lat":43.32481,"lon":5.36556,"is_reserved":false,"is_disabled":false,"rental_uris":{"android":"levelo://app?vid=6f460960-ce1e-4b86-8066-4975ee77fdb2","ios":"levelo://app?vid=6f460960-ce1e-4b86-8066-4975ee77fdb2"},"vehicle_type_id":"4","last_reported":1726215106,"current_range_meters":6800,"station_id":"ce4bhs12rcd13ifvqhvg","pricing_plan_id":"cebpf4jnsgd1na2vs0mg"},{"bike_id":"5a1782e6-4f93-47be-9595-b9a4c593ed40","system_id":"levelo_inurba_marseille","lat":43.24086,"lon":5.37752,"is_reserved":false,"is_disabled":false,"rental_uris":{"android":"levelo://app?vid=5a1782e6-4f93-47be-9595-b9a4c593ed40","ios":"levelo://app?vid=5a1782e6-4f93-47be-9595-b9a4c593ed40"},"vehicle_type_id":"4","last_reported":1726215106,"current_range_meters":6800,"station_id":"ce4bhnp2rcd13ifvqgvg","pricing_plan_id":"cebpf4jnsgd1na2vs0mg"},{"bike_id":"9bc995b5-f623-4a67-b45b-af1cdd1196aa","system_id":"levelo_inurba_marseille","lat":43.28281,"lon":5.35062,"is_reserved":false,"is_disabled":false,"rental_uris":{"android":"levelo://app?vid=9bc995b5-f623-4a67-b45b-af1cdd1196aa","ios":"levelo://app?vid=9bc995b5-f623-4a67-b45b-af1cdd1196aa"},"vehicle_type_id":"4","last_reported":1726215106,"current_range_meters":28000,"station_id":"ce4bhbp2rcd13ifvqerg","pricing_plan_id":"cebpf4jnsgd1na2vs0mg"},{"bike_id":"56cd384e-3513-46a2-a907-dcf2b75a6309","system_id":"levelo_inurba_marseille","lat":43.26504,"lon":5.39548,"is_reserved":false,"is_disabled":false,"rental_uris":{"android":"levelo://app?vid=56cd384e-3513-46a2-a907-dcf2b75a6309","ios":"levelo://app?vid=56cd384e-3513-46a2-a907-dcf2b75a6309"},"vehicle_type_id":"4","last_reported":1726215106,"current_range_meters":28000,"station_id":"ce4bhi12rcd13ifvqfq0","pricing_plan_id":"cebpf4jnsgd1na2vs0mg"},{"bike_id":"1cec09b7-5bf0-4175-b987-32a49ef13cec","system_id":"levelo_inurba_marseille","lat":43.29415,"lon":5.38627,"is_reserved":false,"is_disabled":false,"rental_uris":{"android":"levelo://app?vid=1cec09b7-5bf0-4175-b987-32a49ef13cec","ios":"levelo://app?vid=1cec09b7-5bf0-4175-b987-32a49ef13cec"},"vehicle_type_id":"4","last_reported":1726215106,"current_range_meters":20400,"station_id":"ce4bh2h2rcd13ifvqdh0","pricing_plan_id":"cebpf4jnsgd1na2vs0mg"},{"bike_id":"cb6c815e-63a5-491d-989d-b5719408c6ea","system_id":"levelo_inurba_marseille","lat":43.268,"lon":5.39413,"is_reserved":false,"is_disabled":false,"rental_uris":{"android":"levelo://app?vid=cb6c815e-63a5-491d-989d-b5719408c6ea","ios":"levelo://app?vid=cb6c815e-63a5-491d-989d-b5719408c6ea"},"vehicle_type_id":"4","last_reported":1726215106,"current_range_meters":20800,"station_id":"ce4bhh12rcd13ifvqfg0","pricing_plan_id":"cebpf4jnsgd1na2vs0mg"},{"bike_id":"1b7f12ab-d040-4727-8fe3-64351f98a9f6","system_id":"levelo_inurba_marseille","lat":43.31346,"lon":5.3673,"is_reserved":false,"is_disabled":false,"rental_uris":{"android":"levelo://app?vid=1b7f12ab-d040-4727-8fe3-64351f98a9f6","ios":"levelo://app?vid=1b7f12ab-d040-4727-8fe3-64351f98a9f6"},"vehicle_type_id":"4","last_reported":1726215106,"current_range_meters":12000,"station_id":"ce4bgr92rcd13ifvqc6g","pricing_plan_id":"cebpf4jnsgd1na2vs0mg"},{"bike_id":"c8615191-2b9e-4997-be07-d33a6aa3f35a","system_id":"levelo_inurba_marseille","lat":43.29381,"lon":5.37831,"is_reserved":false,"is_disabled":false,"rental_uris":{"android":"levelo://app?vid=c8615191-2b9e-4997-be07-d33a6aa3f35a","ios":"levelo://app?vid=c8615191-2b9e-4997-be07-d33a6aa3f35a"},"vehicle_type_id":"4","last_reported":1726215106,"current_range_meters":36400,"station_id":"ce4bgjh2rcd13ifvqbf0","pricing_plan_id":"cebpf4jnsgd1na2vs0mg"},{"bike_id":"d471c7bc-f503-4b63-a00d-a60342318aab","system_id":"levelo_inurba_marseille","lat":43.29052,"lon":5.39972,"is_reserved":false,"is_disabled":false,"rental_uris":{"android":"levelo://app?vid=d471c7bc-f503-4b63-a00d-a60342318aab","ios":"levelo://app?vid=d471c7bc-f503-4b63-a00d-a60342318aab"},"vehicle_type_id":"4","last_reported":1726215106,"current_range_meters":36800,"station_id":"ce4bh392rcd13ifvqdm0","pricing_plan_id":"cebpf4jnsgd1na2vs0mg"},{"bike_id":"6b8b2337-e163-4752-9774-c7edb8e9ecb8","system_id":"levelo_inurba_marseille","lat":43.28352,"lon":5.38107,"is_reserved":false,"is_disabled":false,"rental_uris":{"android":"levelo://app?vid=6b8b2337-e163-4752-9774-c7edb8e9ecb8","ios":"levelo://app?vid=6b8b2337-e163-4752-9774-c7edb8e9ecb8"},"vehicle_type_id":"4","last_reported":1726215106,"current_range_meters":22000,"station_id":"ce4bh412rcd13ifvqdr0","pricing_plan_id":"cebpf4jnsgd1na2vs0mg"},{"bike_id":"ee2b411d-ec98-4fdc-850e-f566ac76a326","system_id":"levelo_inurba_marseille","lat":43.25826,"lon":5.39424,"is_reserved":false,"is_disabled":false,"rental_uris":{"android":"levelo://app?vid=ee2b411d-ec98-4fdc-850e-f566ac76a326","ios":"levelo://app?vid=ee2b411d-ec98-4fdc-850e-f566ac76a326"},"vehicle_type_id":"4","last_reported":1726215106,"current_range_meters":39200,"station_id":"ce4bhip2rcd13ifvqft0","pricing_plan_id":"cebpf4jnsgd1na2vs0mg"},{"bike_id":"00c92877-12c8-4c5e-8087-2f1bb2b5fac2","system_id":"levelo_inurba_marseille","lat":43.30149,"lon":5.37415,"is_reserved":false,"is_disabled":false,"rental_uris":{"android":"levelo://app?vid=00c92877-12c8-4c5e-8087-2f1bb2b5fac2","ios":"levelo://app?vid=00c92877-12c8-4c5e-8087-2f1bb2b5fac2"},"vehicle_type_id":"4","last_reported":1726215106,"current_range_meters":26800,"station_id":"ce4bgs92rcd13ifvqcc0","pricing_plan_id":"cebpf4jnsgd1na2vs0mg"},