{"last_updated":1732644820,"ttl":60,"version":"2.2","data":{"bikes":[{"bike_id":"867de474-7d21-4a45-b160-f59fdff81394","system_id":"levelo_inurba_marseille","lat":43.31331,"lon":5.39695,"is_reserved":false,"is_disabled":false,"rental_uris":{"android":"levelo://app?vid=867de474-7d21-4a45-b160-f59fdff81394","ios":"levelo://app?vid=867de474-7d21-4a45-b160-f59fdff81394"},"vehicle_type_id":"4","last_reported":1732644820,"current_range_meters":6400,"station_id":"ce4bgvp2rcd13ifvqcu0","pricing_plan_id":"cebpf4jnsgd1na2vs0mg"},{"bike_id":"d9c28aa4-81a4-4d13-8fc9-100bb4e3d7e2","system_id":"levelo_inurba_marseille","lat":43.27408,"lon":5.38955,"is_reserved":false,"is_disabled":true,"rental_uris":{"android":"levelo://app?vid=d9c28aa4-81a4-4d13-8fc9-100bb4e3d7e2","ios":"levelo://app?vid=d9c28aa4-81a4-4d13-8fc9-100bb4e3d7e2"},"vehicle_type_id":"4","last_reported":1732644820,"current_range_meters":0,"station_id":"","pricing_plan_id":"cebpf4jnsgd1na2vs0mg"},{"bike_id":"a33a40f2-a99d-4474-9adc-0da0cd98f9a9","system_id":"levelo_inurba_marseille","lat":43.27377,"lon":5.36251,"is_reserved":false,"is_disabled":true,"rental_uris":{"android":"levelo://app?vid=a33a40f2-a99d-4474-9adc-0da0cd98f9a9","ios":"levelo://app?vid=a33a40f2-a99d-4474-9adc-0da0cd98f9a9"},"vehicle_type_id":"4","last_reported":1732644820,"current_range_meters":1200,"station_id":"ce4bhbh2rcd13ifvqeo0","pricing_plan_id":"cebpf4jnsgd1na2vs0mg"},{"bike_id":"b856c8b4-412d-4c25-bdd4-e6b29aed04cb","system_id":"levelo_inurba_marseille","lat":43.22941,"lon":5.35379,"is_reserved":false,"is_disabled":false,"rental_uris":{"android":"levelo://app?vid=b856c8b4-412d-4c25-bdd4-e6b29aed04cb","ios":"levelo://app?vid=b856c8b4-412d-4c25-bdd4-e6b29aed04cb"},"vehicle_type_id":"4","last_reported":1732644820,"current_range_meters":39200,"station_id":"cpo3532slgdg3j2ikp40","pricing_plan_id":"cebpf4jnsgd1na2vs0mg"},{"bike_id":"b51d31e3-b561-4c0d-b4c9-74c74d6a4aa9","system_id":"levelo_inurba_marseille","lat":43.33025,"lon":5.39044,"is_reserved":false,"is_disabled":false,"rental_uris":{"android":"levelo://app?vid=b51d31e3-b561-4c0d-b4c9-74c74d6a4aa9","ios":"levelo://app?vid=b51d31e3-b561-4c0d-b4c9-74c74d6a4aa9"},"vehicle_type_id":"4","last_reported":1732644820,"current_range_meters":38800,"station_id":"ce4bhr92rcd13ifvqhrg","pricing_plan_id":"cebpf4jnsgd1na2vs0mg"},{"bike_id":"b8e90378-da68-4550-977a-6e185588923c","system_id":"levelo_inurba_marseille","lat":43.3043,"lon":5.41273,"is_reserved":false,"is_disabled":false,"rental_uris":{"android":"levelo://app?vid=b8e90378-da68-4550-977a-6e185588923c","ios":"levelo://app?vid=b8e90378-da68-4550-977a-6e185588923c"},"vehicle_type_id":"4","last_reported":1732644820,"current_range_meters":32000,"station_id":"ce4bhop2rcd13ifvqh8g","pricing_plan_id":"cebpf4jnsgd1na2vs0mg"},{"bike_id":"f0347ef3-0bf2-4904-8134-c34ce91c6bae","system_id":"levelo_inurba_marseille","lat":43.30549,"lon":5.36704,"is_reserved":false,"is_disabled":true,"rental_uris":{"android":"levelo://app?vid=f0347ef3-0bf2-4904-8134-c34ce91c6bae","ios":"levelo://app?vid=f0347ef3-0bf2-4904-8134-c34ce91c6bae"},"vehicle_type_id":"4","last_reported":1732644820,"current_range_meters":12800,"station_id":"ce4bgrp2rcd13ifvqc9g","pricing_plan_id":"cebpf4jnsgd1na2vs0mg"},{"bike_id":"938efd6e-163f-4dea-98cc-4cf7852276fc","system_id":"levelo_inurba_marseille","lat":43.30567,"lon":5.40147,"is_reserved":false,"is_disabled":false,"rental_uris":{"android":"levelo://app?vid=938efd6e-163f-4dea-98cc-4cf7852276fc","ios":"levelo://app?vid=938efd6e-163f-4dea-98cc-4cf7852276fc"},"vehicle_type_id":"4","last_reported":1732644820,"current_range_meters":29600,"station_id":"","pricing_plan_id":"cebpf4jnsgd1na2vs0mg"},{"bike_id":"9a5276ca-e6f1-482f-9dca-00b9e6e6c198","system_id":"levelo_inurba_marseille","lat":43.28013,"lon":5.40008,"is_reserved":false,"is_disabled":false,"rental_uris":{"android":"levelo://app?vid=9a5276ca-e6f1-482f-9dca-00b9e6e6c198","ios":"levelo://app?vid=9a5276ca-e6f1-482f-9dca-00b9e6e6c198"},"vehicle_type_id":"4","last_reported":1732644820,"current_range_meters":39200,"station_id":"ce4bho92rcd13ifvqh4g","pricing_plan_id":"cebpf4jnsgd1na2vs0mg"},{"bike_id":"92cc6669-d3db-4e90-afe9-11a77628afaa","system_id":"levelo_inurba_marseille","lat":43.28618,"lon":5.35109,"is_reserved":false,"is_disabled":false,"rental_uris":{"android":"levelo://app?vid=92cc6669-d3db-4e90-afe9-11a77628afaa","ios":"levelo://app?vid=92cc6669-d3db-4e90-afe9-11a77628afaa"},"vehicle_type_id":"4","last_reported":1732644820,"current_range_meters":18000,"station_id":"ce4bhch2rcd13ifvqeug","pricing_plan_id":"cebpf4jnsgd1na2vs0mg"},{"bike_id":"02aab262-4411-4183-b19e-de3afdf61ffc","system_id":"levelo_inurba_marseille","lat":43.26508,"lon":5.39527,"is_reserved":false,"is_disabled":true,"rental_uris":{"android":"levelo://app?vid=02aab262-4411-4183-b19e-de3afdf61ffc","ios":"levelo://app?vid=02aab262-4411-4183-b19e-de3afdf61ffc"},"vehicle_type_id":"4","last_reported":1732644820,"current_range_meters":0,"station_id":"ce4bhi12rcd13ifvqfq0","pricing_plan_id":"cebpf4jnsgd1na2vs0mg"},{"bike_id":"37ee09df-8673-47a3-96b4-c2ef618884e5","system_id":"levelo_inurba_marseille","lat":43.337444,"lon":5.374475,"is_reserved":false,"is_disabled":false,"rental_uris":{"android":"levelo://app?vid=37ee09df-8673-47a3-96b4-c2ef618884e5","ios":"levelo://app?vid=37ee09df-8673-47a3-96b4-c2ef618884e5"},"vehicle_type_id":"4","last_reported":1732644820,"current_range_meters":34800,"station_id":"","pricing_plan_id":"cebpf4jnsgd1na2vs0mg"},{"bike_id":"3dacb398-5fb0-4684-a2bc-5f961fca4509","system_id":"levelo_inurba_marseille","lat":43.25583,"lon":5.38232,"is_reserved":false,"is_disabled":true,"rental_uris":{"android":"levelo://app?vid=3dacb398-5fb0-4684-a2bc-5f961fca4509","ios":"levelo://app?vid=3dacb398-5fb0-4684-a2bc-5f961fca4509"},"vehicle_type_id":"4","last_reported":1732644820,"current_range_meters":0,"station_id":"ce4bhih2rcd13ifvqfs0","pricing_plan_id":"cebpf4jnsgd1na2vs0mg"},{"bike_id":"c523214a-88b9-4353-bb8b-55d45b020426","system_id":"levelo_inurba_marseille","lat":43.27819,"lon":5.40723,"is_reserved":false,"is_disabled":true,"rental_uris":{"android":"levelo://app?vid=c523214a-88b9-4353-bb8b-55d45b020426","ios":"levelo://app?vid=c523214a-88b9-4353-bb8b-55d45b020426"},"vehicle_type_id":"4","last_reported":1732644820,"current_range_meters":28400,"station_id":"ce4bhnh2rcd13ifvqgtg","pricing_plan_id":"cebpf4jnsgd1na2vs0mg"},{"bike_id":"e93b9533-2b47-46ed-a1c0-9e4c863cb4ec","system_id":"levelo_inurba_marseille","lat":43.26945,"lon":5.40246,"is_reserved":false,"is_disabled":false,"rental_uris":{"android":"levelo://app?vid=e93b9533-2b47-46ed-a1c0-9e4c863cb4ec","ios":"levelo://app?vid=e93b9533-2b47-46ed-a1c0-9e4c863cb4ec"},"vehicle_type_id":"4","last_reported":1732644820,"current_range_meters":37600,"station_id":"cjm6bp8fraef2m0cb0m0","pricing_plan_id":"cebpf4jnsgd1na2vs0mg"},{"bike_id":"e7d61961-f2fb-44c4-9ee3-a227626b507f","system_id":"levelo_inurba_marseille","lat":43.23068,"lon":5.35493,"is_reserved":false,"is_disabled":true,"rental_uris":{"android":"levelo://app?vid=e7d61961-f2fb-44c4-9ee3-a227626b507f","ios":"levelo://app?vid=e7d61961-f2fb-44c4-9ee3-a227626b507f"},"vehicle_type_id":"4","last_reported":1732644820,"current_range_meters":0,"station_id":"cpo3342slgdg3j2ifvpg","pricing_plan_id":"cebpf4jnsgd1na2vs0mg"},{"bike_id":"f7165f07-e923-4579-b202-89b3912a60e2","system_id":"levelo_inurba_marseille","lat":43.25875,"lon":5.39899,"is_reserved":false,"is_disabled":true,"rental_uris":{"android":"levelo://app?vid=f7165f07-e923-4579-b202-89b3912a60e2","ios":"levelo://app?vid=f7165f07-e923-4579-b202-89b3912a60e2"},"vehicle_type_id":"4","last_reported":1732644820,"current_range_meters":800,"station_id":"ce4bhl92rcd13ifvqghg","pricing_plan_id":"cebpf4jnsgd1na2vs0mg"},{"bike_id":"d220ba89-befe-4d82-ab89-b5ccb5dfb750","system_id":"levelo_inurba_marseille","lat":43.23184,"lon":5.3999,"is_reserved":false,"is_disabled":false,"rental_uris":{"android":"levelo://app?vid=d220ba89-befe-4d82-ab89-b5ccb5dfb750","ios":"levelo://app?vid=d220ba89-befe-4d82-ab89-b5ccb5dfb750"},"vehicle_type_id":"4","last_reported":1732644820,"current_range_meters":10800,"station_id":"ce4bhn12rcd13ifvqgqg","pricing_plan_id":"cebpf4jnsgd1na2vs0mg"},{"bike_id":"1cc5fc17-f8a6-4692-b31a-3ba9eecc5ca9","system_id":"levelo_inurba_marseille","lat":43.28676,"lon":5.38656,"is_reserved":false,"is_disabled":false,"rental_uris":{"android":"levelo://app?vid=1cc5fc17-f8a6-4692-b31a-3ba9eecc5ca9","ios":"levelo://app?vid=1cc5fc17-f8a6-4692-b31a-3ba9eecc5ca9"},"vehicle_type_id":"4","last_reported":1732644820,"current_range_meters":23200,"station_id":"ce4bh492rcd13ifvqdug","pricing_plan_id":"cebpf4jnsgd1na2vs0mg"},{"bike_id":"0ef16ea7-6c5b-43c6-8f2b-72144078697f","system_id":"levelo_inurba_marseille","lat":43.28456,"lon":5.35877,"is_reserved":false,"is_disabled":false,"rental_uris":{"android":"levelo://app?vid=0ef16ea7-6c5b-43c6-8f2b-72144078697f","ios":"levelo://app?vid=0ef16ea7-6c5b-43c6-8f2b-72144078697f"},"vehicle_type_id":"4","last_reported":1732644820,"current_range_meters":33600,"station_id":"ce4bhah2rcd13ifvqei0","pricing_plan_id":"cebpf4jnsgd1na2vs0mg"},{"bike_id":"f98cf346-2f95-41c1-a190-288b7ed6e557","system_id":"levelo_inurba_marseille","lat":43.24082,"lon":5.37733,"is_reserved":false,"is_disabled":true,"rental_uris":{"android":"levelo://app?vid=f98cf346-2f95-41c1-a190-288b7ed6e557","ios":"levelo://app?vid=f98cf346-2f95-41c1-a190-288b7ed6e557"},"vehicle_type_id":"4","last_reported":1732644820,"current_range_meters":0,"station_id":"ce4bhnp2rcd13ifvqgvg","pricing_plan_id":"cebpf4jnsgd1na2vs0mg"},{"bike_id":"3e74510c-d86b-4186-a956-0b286b8b0c60","system_id":"levelo_inurba_marseille","lat":43.24673,"lon":5.3817,"is_reserved":false,"is_disabled":true,"rental_uris":{"android":"levelo://app?vid=3e74510c-d86b-4186-a956-0b286b8b0c60","ios":"levelo://app?vid=3e74510c-d86b-4186-a956-0b286b8b0c60"},"vehicle_type_id":"4","last_reported":1732644820,"current_range_meters":0,"station_id":"ce4bhih2rcd13ifvqfr0","pricing_plan_id":"cebpf4jnsgd1na2vs0mg"},{"bike_id":"43ad8ec8-5a93-4b8b-a78a-c9af10f976ee","system_id":"levelo_inurba_marseille","lat":43.29336,"lon":5.38615,"is_reserved":false,"is_disabled":false,"rental_uris":{"android":"levelo://app?vid=43ad8ec8-5a93-4b8b-a78a-c9af10f976ee","ios":"levelo://app?vid=43ad8ec8-5a93-4b8b-a78a-c9af10f976ee"},"vehicle_type_id":"4","last_reported":1732644820,"current_range_meters":16000,"station_id":"","pricing_plan_id":"cebpf4jnsgd1na2vs0mg"},{"bike_id":"e99b9ef1-8519-410c-b470-ca65424d37d3","system_id":"levelo_inurba_marseille","lat":43.25579,"lon":5.38239,"is_reserved":false,"is_disabled":false,"rental_uris":{"android":"levelo://app?vid=e99b9ef1-8519-410c-b470-ca65424d37d3","ios":"levelo://app?vid=e99b9ef1-8519-410c-b470-ca65424d37d3"},"vehicle_type_id":"4","last_reported":1732644820,"current_range_meters":35600,"station_id":"ce4bhih2rcd13ifvqfs0","pricing_plan_id":"cebpf4jnsgd1na2vs0mg"},{"bike_id":"b891d583-603a-49e6-afab-c922f2af192e","system_id":"levelo_inurba_marseille","lat":43.28073,"lon":5.39652,"is_reserved":false,"is_disabled":false,"rental_uris":{"android":"levelo://app?vid=b891d583-603a-49e6-afab-c922f2af192e","ios":"levelo://app?vid=b891d583-603a-49e6-afab-c922f2af192e"},"vehicle_type_id":"4","last_reported":1732644820,"current_range_meters":28000,"station_id":"ce4bho12rcd13ifvqh2g","pricing_plan_id":"cebpf4jnsgd1na2vs0mg"},{"bike_id":"8a21b35a-7b76-40c1-9882-dd8e0fbfbe85","system_id":"levelo_inurba_marseille","lat":43.28001,"lon":5.40018,"is_reserved":false,"is_disabled":false,"rental_uris":{"android":"levelo://app?vid=8a21b35a-7b76-40c1-9882-dd8e0fbfbe85","ios":"levelo://app?vid=8a21b35a-7b76-40c1-9882-dd8e0fbfbe85"},"vehicle_type_id":"4","last_reported":1732644820,"current_range_meters":26800,"station_id":"ce4bho92rcd13ifvqh4g","pricing_plan_id":"cebpf4jnsgd1na2vs0mg"},{"bike_id":"d284eb9b-41c4-4be4-b878-73c0a5973d4f","system_id":"levelo_inurba_marseille","lat":43.31078,"lon":5.38361,"is_reserved":false,"is_disabled":false,"rental_uris":{"android":"levelo://app?vid=d284eb9b-41c4-4be4-b878-73c0a5973d4f","ios":"levelo://app?vid=d284eb9b-41c4-4be4-b878-73c0a5973d4f"},"vehicle_type_id":"4","last_reported":1732644820,"current_range_meters":4000,"station_id":"ce4bgv92rcd13ifvqcr0","pricing_plan_id":"cebpf4jnsgd1na2vs0mg"},{"bike_id":"a8b23c44-43c6-4c3a-8b33-2a309a1a73ba","system_id":"levelo_inurba_marseille","lat":43.3118,"lon":5.38716,"is_reserved":false,"is_disabled":false,"rental_uris":{"android":"levelo://app?vid=a8b23c44-43c6-4c3a-8b33-2a309a1a73ba","ios":"levelo://app?vid=a8b23c44-43c6-4c3a-8b33-2a309a1a73ba"},"vehicle_type_id":"4","last_reported":1732644820,"current_range_meters":29600,"station_id":"ce4bgv12rcd13ifvqcp0","pricing_plan_id":"cebpf4jnsgd1na2vs0mg"},{"bike_id":"09b89554-b737-4b6e-a9e8-cc238dd55c23","system_id":"levelo_inurba_marseille","lat":43.29031,"lon":5.38132,"is_reserved":false,"is_disabled":true,"rental_uris":{"android":"levelo://app?vid=09b89554-b737-4b6e-a9e8-cc238dd55c23","ios":"levelo://app?vid=09b89554-b737-4b6e-a9e8-cc238dd55c23"},"vehicle_type_id":"4","last_reported":1732644820,"current_range_meters":38800,"station_id":"ce4bh4p2rcd13ifvqe1g","pricing_plan_id":"cebpf4jnsgd1na2vs0mg"},{"bike_id":"9604c40b-c088-4a47-9606-5669d249b2ee","system_id":"levelo_inurba_marseille","lat":43.2684,"lon":5.41118,"is_reserved":false,"is_disabled":false,"rental_uris":{"android":"levelo://app?vid=9604c40b-c088-4a47-9606-5669d249b2ee","ios":"levelo://app?vid=9604c40b-c088-4a47-9606-5669d249b2ee"},"vehicle_type_id":"4","last_reported":1732644820,"current_range_meters":31200,"station_id":"","pricing_plan_id":"cebpf4jnsgd1na2vs0mg"},{"bike_id":"158a3c50-ae6d-40a7-a91b-932ae14100a9","system_id":"levelo_inurba_marseille","lat":43.29203,"lon":5.35813,"is_reserved":false,"is_disabled":true,"rental_uris":{"android":"levelo://app?vid=158a3c50-ae6d-40a7-a91b-932ae14100a9","ios":"levelo://app?vid=158a3c50-ae6d-40a7-a91b-932ae14100a9"},"vehicle_type_id":"4","last_reported":1732644820,"current_range_meters":9200,"station_id":"ce4bhb12rcd13ifvqel0","pricing_plan_id":"cebpf4jnsgd1na2vs0mg"},{"bike_id":"d7b4e41b-5ea8-4d2c-9fe2-df65bc6478d3","system_id":"levelo_inurba_marseille","lat":43.24814,"lon":5.37454,"is_reserved":false,"is_disabled":false,"rental_uris":{"android":"levelo://app?vid=d7b4e41b-5ea8-4d2c-9fe2-df65bc6478d3","ios":"levelo://app?vid=d7b4e41b-5ea8-4d2c-9fe2-df65bc6478d3"},"vehicle_type_id":"4","last_reported":1732644820,"current_range_meters":19600,"station_id":"ce4bhgh2rcd13ifvqfb0","pricing_plan_id":"cebpf4jnsgd1na2vs0mg"},{"bike_id":"60b667a1-8f22-4994-a244-272ddb2b25c0","system_id":"levelo_inurba_marseille","lat":43.30147,"lon":5.37416,"is_reserved":false,"is_disabled":false,"rental_uris":{"android":"levelo://app?vid=60b667a1-8f22-4994-a244-272ddb2b25c0","ios":"levelo://app?vid=60b667a1-8f22-4994-a244-272ddb2b25c0"},"vehicle_type_id":"4","last_reported":1732644820,"current_range_meters":20800,"station_id":"ce4bgs92rcd13ifvqcc0","pricing_plan_id":"cebpf4jnsgd1na2vs0mg"},{"bike_id":"835a170b-9333-4a62-9af0-a89a87c1a309","system_id":"levelo_inurba_marseille","lat":43.24656,"lon":5.38158,"is_reserved":false,"is_disabled":false,"rental_uris":{"android":"levelo://app?vid=835a170b-9333-4a62-9af0-a89a87c1a309","ios":"levelo://app?vid=835a170b-9333-4a62-9af0-a89a87c1a309"},"vehicle_type_id":"4","last_reported":1732644820,"current_range_meters":10800,"station_id":"ce4bhih2rcd13ifvqfr0","pricing_plan_id":"cebpf4jnsgd1na2vs0mg"},{"bike_id":"64746fbf-6d54-4ad6-9a20-e9e440719cce","system_id":"levelo_inurba_marseille","lat":43.29264,"lon":5.40902,"is_reserved":false,"is_disabled":false,"rental_uris":{"android":"levelo://app?vid=64746fbf-6d54-4ad6-9a20-e9e440719cce","ios":"levelo://app?vid=64746fbf-6d54-4ad6-9a20-e9e440719cce"},"vehicle_type_id":"4","last_reported":1732644820,"current_range_meters":14400,"station_id":"ce4bh192rcd13ifvqdc0","pricing_plan_id":"cebpf4jnsgd1na2vs0mg"},{"bike_id":"caf4734a-4cec-4f34-a39a-93be4dc22192","system_id":"levelo_inurba_marseille","lat":43.29199,"lon":5.37898,"is_reserved":false,"is_disabled":false,"rental_uris":{"android":"levelo://app?vid=caf4734a-4cec-4f34-a39a-93be4dc22192","ios":"levelo://app?vid=caf4734a-4cec-4f34-a39a-93be4dc22192"},"vehicle_type_id":"4","last_reported":1732644820,"current_range_meters":6000,"station_id":"","pricing_plan_id":"cebpf4jnsgd1na2vs0mg"},{"bike_id":"ecdb3743-a3d9-4afc-bb51-ff07b746abac","system_id":"levelo_inurba_marseille","lat":43.29042,"lon":5.39975,"is_reserved":false,"is_disabled":true,"rental_uris":{"android":"levelo://app?vid=ecdb3743-a3d9-4afc-bb51-ff07b746abac","ios":"levelo://app?vid=ecdb3743-a3d9-4afc-bb51-ff07b746abac"},"vehicle_type_id":"4","last_reported":1732644820,"current_range_meters":37600,"station_id":"ce4bh392rcd13ifvqdm0","pricing_plan_id":"cebpf4jnsgd1na2vs0mg"},{"bike_id":"0a2d70bc-b761-4725-9e3d-6717bfcaa6cc","system_id":"levelo_inurba_marseille","lat":43.337444,"lon":5.374475,"is_reserved":false,"is_disabled":false,"rental_uris":{"android":"levelo://app?vid=0a2d70bc-b761-4725-9e3d-6717bfcaa6cc","ios":"levelo://app?vid=0a2d70bc-b761-4725-9e3d-6717bfcaa6cc"},"vehicle_type_id":"4","last_reported":1732644820,"current_range_meters":36800,"station_id":"","pricing_plan_id":"cebpf4jnsgd1na2vs0mg"},{"bike_id":"597d84d3-d328-4f80-82ba-5e94a60714f6","system_id":"levelo_inurba_marseille","lat":43.31755,"lon":5.3901,"is_reserved":false,"is_disabled":false,"rental_uris":{"android":"levelo://app?vid=597d84d3-d328-4f80-82ba-5e94a60714f6","ios":"levelo://app?vid=597d84d3-d328-4f80-82ba-5e94a60714f6"},"vehicle_type_id":"4","last_reported":1732644820,"current_range_meters":4000,"station_id":"ce4bhqp2rcd13ifvqhng","pricing_plan_id":"cebpf4jnsgd1na2vs0mg"},{"bike_id":"881459c4-44a1-4802-9240-3489c5cb39e3","system_id":"levelo_inurba_marseille","lat":43.28006,"lon":5.41663,"is_reserved":false,"is_disabled":true,"rental_uris":{"android":"levelo://app?vid=881459c4-44a1-4802-9240-3489c5cb39e3","ios":"levelo://app?vid=881459c4-44a1-4802-9240-3489c5cb39e3"},"vehicle_type_id":"4","last_reported":1732644820,"current_range_meters":0,"station_id":"ce4bho12rcd13ifvqh1g","pricing_plan_id":"cebpf4jnsgd1na2vs0mg"},{"bike_id":"820f12a0-cf28-488c-8a74-3f1b9d2e4db5","system_id":"levelo_inurba_marseille","lat":43.23056,"lon":5.35491,"is_reserved":false,"is_disabled":false,"rental_uris":{"android":"levelo://app?vid=820f12a0-cf28-488c-8a74-3f1b9d2e4db5","ios":"levelo://app?vid=820f12a0-cf28-488c-8a74-3f1b9d2e4db5"},"vehicle_type_id":"4","last_reported":1732644820,"current_range_meters":23200,"station_id":"cpo3342slgdg3j2ifvpg","pricing_plan_id":"cebpf4jnsgd1na2vs0mg"},{"bike_id":"d1679afb-2ec8-474b-b338-7d94c5ede5b7","system_id":"levelo_inurba_marseille","lat":43.25581,"lon":5.38235,"is_reserved":false,"is_disabled":false,"rental_uris":{"android":"levelo://app?vid=d1679afb-2ec8-474b-b338-7d94c5ede5b7","ios":"levelo://app?vid=d1679afb-2ec8-474b-b338-7d94c5ede5b7"},"vehicle_type_id":"4","last_reported":1732644820,"current_range_meters":18000,"station_id":"ce4bhih2rcd13ifvqfs0","pricing_plan_id":"cebpf4jnsgd1na2vs0mg"},{"bike_id":"e1d63dd7-af57-40db-b964-6575f0f33485","system_id":"levelo_inurba_marseille","lat":43.28568,"lon":5.3949,"is_reserved":false,"is_disabled":false,"rental_uris":{"android":"levelo://app?vid=e1d63dd7-af57-40db-b964-6575f0f33485","ios":"levelo://app?vid=e1d63dd7-af57-40db-b964-6575f0f33485"},"vehicle_type_id":"4","last_reported":1732644820,"current_range_meters":37600,"station_id":"ce4bh292rcd13ifvqdg0","pricing_plan_id":"cebpf4jnsgd1na2vs0mg"},{"bike_id":"2759535c-2f99-4548-8c56-c016b16ec571","system_id":"levelo_inurba_marseille","lat":43.2846,"lon":5.35884,"is_reserved":false,"is_disabled":false,"rental_uris":{"android":"levelo://app?vid=2759535c-2f99-4548-8c56-c016b16ec571","ios":"levelo://app?vid=2759535c-2f99-4548-8c56-c016b16ec571"},"vehicle_type_id":"4","last_reported":1732644820,"current_range_meters":12800,"station_id":"ce4bhah2rcd13ifvqei0","pricing_plan_id":"cebpf4jnsgd1na2vs0mg"},{"bike_id":"80f576a8-9193-4129-a9e6-0d45a1675d33","system_id":"levelo_inurba_marseille","lat":43.28158,"lon":5.42636,"is_reserved":false,"is_disabled":false,"rental_uris":{"android":"levelo://app?vid=80f576a8-9193-4129-a9e6-0d45a1675d33","ios":"levelo://app?vid=80f576a8-9193-4129-a9e6-0d45a1675d33"},"vehicle_type_id":"4","last_reported":1732644820,"current_range_meters":20400,"station_id":"ce4bhnh2rcd13ifvqgug","pricing_plan_id":"cebpf4jnsgd1na2vs0mg"},{"bike_id":"429b7fc5-3b9e-462c-9fd5-92f26a6f3b20","system_id":"levelo_inurba_marseille","lat":43.27921,"lon":5.39579,"is_reserved":false,"is_disabled":false,"rental_uris":{"android":"levelo://app?vid=429b7fc5-3b9e-462c-9fd5-92f26a6f3b20","ios":"levelo://app?vid=429b7fc5-3b9e-462c-9fd5-92f26a6f3b20"},"vehicle_type_id":"4","last_reported":1732644820,"current_range_meters":20800,"station_id":"ce4bhf92rcd13ifvqf40","pricing_plan_id":"cebpf4jnsgd1na2vs0mg"},{"bike_id":"c85223da-ab63-4159-98a0-9431057ec66d","system_id":"levelo_inurba_marseille","lat":43.30436,"lon":5.38895,"is_reserved":false,"is_disabled":false,"rental_uris":{"android":"levelo://app?vid=c85223da-ab63-4159-98a0-9431057ec66d","ios":"levelo://app?vid=c85223da-ab63-4159-98a0-9431057ec66d"},"vehicle_type_id":"4","last_reported":1732644820,"current_range_meters":3200,"station_id":"ce4bgk12rcd13ifvqbi0","pricing_plan_id":"cebpf4jnsgd1na2vs0mg"},{"bike_id":"2f9b9b42-f665-4c1c-86a1-5a0ce40d3de2","system_id":"levelo_inurba_marseille","lat":43.32487,"lon":5.36571,"is_reserved":false,"is_disabled":true,"rental_uris":{"android":"levelo://app?vid=2f9b9b42-f665-4c1c-86a1-5a0ce40d3de2","ios":"levelo://app?vid=2f9b9b42-f665-4c1c-86a1-5a0ce40d3de2"},"vehicle_type_id":"4","last_reported":1732644820,"current_range_meters":28800,"station_id":"ce4bhs12rcd13ifvqhvg","pricing_plan_id":"cebpf4jnsgd1na2vs0mg"},{"bike_id":"33b8045d-fd1a-444f-8a40-a4ebaad2413b","system_id":"levelo_inurba_marseille","lat":43.25132,"lon":5.40285,"is_reserved":false,"is_disabled":true,"rental_uris":{"android":"levelo://app?vid=33b8045d-fd1a-444f-8a40-a4ebaad2413b","ios":"levelo://app?vid=33b8045d-fd1a-444f-8a40-a4ebaad2413b"},"vehicle_type_id":"4","last_reported":1732644820,"current_range_meters":0,"station_id":"ce4bhlh2rcd13ifvqgig","pricing_plan_id":"cebpf4jnsgd1na2vs0mg"},{"bike_id":"d2c57af9-0d67-4e7d-bbb8-f501ab3b4785","system_id":"levelo_inurba_marseille","lat":43.26565,"lon":5.38999,"is_reserved":false,"is_disabled":true,"rental_uris":{"android":"levelo://app?vid=d2c57af9-0d67-4e7d-bbb8-f501ab3b4785","ios":"levelo://app?vid=d2c57af9-0d67-4e7d-bbb8-f501ab3b4785"},"vehicle_type_id":"4","last_reported":1732644820,"current_range_meters":0,"station_id":"ce4bhe12rcd13ifvqf30","pricing_plan_id":"cebpf4jnsgd1na2vs0mg"},{"bike_id":"66388ec7-6ce4-4fd9-8651-a32b2549413b","system_id":"levelo_inurba_marseille","lat":43.3189,"lon":5.40727,"is_reserved":false,"is_disabled":false,"rental_uris":{"android":"levelo://app?vid=66388ec7-6ce4-4fd9-8651-a32b2549413b","ios":"levelo://app?vid=66388ec7-6ce4-4fd9-8651-a32b2549413b"},"vehicle_type_id":"4","last_reported":1732644820,"current_range_meters":22800,"station_id":"ce4bhq12rcd13ifvqhig","pricing_plan_id":"cebpf4jnsgd1na2vs0mg"},{"bike_id":"53f1ee6c-5f9b-4107-b452-641653a9a8fc","system_id":"levelo_inurba_marseille","lat":43.30002,"lon":5.38834,"is_reserved":false,"is_disabled":false,"rental_uris":{"android":"levelo://app?vid=53f1ee6c-5f9b-4107-b452-641653a9a8fc","ios":"levelo://app?vid=53f1ee6c-5f9b-4107-b452-641653a9a8fc"},"vehicle_type_id":"4","last_reported":1732644820,"current_range_meters":3600,"station_id":"","pricing_plan_id":"cebpf4jnsgd1na2vs0mg"},{"bike_id":"6d03be4a-49c3-4c41-bfcb-3f4b3ee64141","system_id":"levelo_inurba_marseille","lat":43.27945,"lon":5.41049,"is_reserved":false,"is_disabled":true,"rental_uris":{"android":"levelo://app?vid=6d03be4a-49c3-4c41-bfcb-3f4b3ee64141","ios":"levelo://app?vid=6d03be4a-49c3-4c41-bfcb-3f4b3ee64141"},"vehicle_type_id":"4","last_reported":1732644820,"current_range_meters":0,"station_id":"ce4bhnp2rcd13ifvqh0g","pricing_plan_id":"cebpf4jnsgd1na2vs0mg"},{"bike_id":"287fa067-0159-4a80-8436-f002b330f07a","system_id":"levelo_inurba_marseille","lat":43.27073,"lon":5.42275,"is_reserved":false,"is_disabled":false,"rental_uris":{"android":"levelo://app?vid=287fa067-0159-4a80-8436-f002b330f07a","ios":"levelo://app?vid=287fa067-0159-4a80-8436-f002b330f07a"},"vehicle_type_id":"4","last_reported":1732644820,"current_range_meters":26800,"station_id":"ce4bhk92rcd13ifvqgb0","pricing_plan_id":"cebpf4jnsgd1na2vs0mg"},{"bike_id":"db602e1a-ccc3-482e-b6b3-4204eb043409","system_id":"levelo_inurba_marseille","lat":43.29524,"lon":5.39049,"is_reserved":false,"is_disabled":false,"rental_uris":{"android":"levelo://app?vid=db602e1a-ccc3-482e-b6b3-4204eb043409","ios":"levelo://app?vid=db602e1a-ccc3-482e-b6b3-4204eb043409"},"vehicle_type_id":"4","last_reported":1732644820,"current_range_meters":3600,"station_id":"ce4bh3p2rcd13ifvqdp0","pricing_plan_id":"cebpf4jnsgd1na2vs0mg"},{"bike_id":"f3ffd556-9cd2-4b11-88d2-d1e698fceed7","system_id":"levelo_inurba_marseille","lat":43.28083,"lon":5.3966,"is_reserved":false,"is_disabled":false,"rental_uris":{"android":"levelo://app?vid=f3ffd556-9cd2-4b11-88d2-d1e698fceed7","ios":"levelo://app?vid=f3ffd556-9cd2-4b11-88d2-d1e698fceed7"},"vehicle_type_id":"4","last_reported":1732644820,"current_range_meters":36000,"station_id":"ce4bho12rcd13ifvqh2g","pricing_plan_id":"cebpf4jnsgd1na2vs0mg"},{"bike_id":"c7c1689c-ca61-4f5a-a31c-9aa53b01515f","system_id":"levelo_inurba_marseille","lat":43.30356,"lon":5.41871,"is_reserved":false,"is_disabled":false,"rental_uris":{"android":"levelo://app?vid=c7c1689c-ca61-4f5a-a31c-9aa53b01515f","ios":"levelo://app?vid=c7c1689c-ca61-4f5a-a31c-9aa53b01515f"},"vehicle_type_id":"4","last_reported":1732644820,"current_range_meters":11200,"station_id":"ce4bhop2rcd13ifvqh7g","pricing_plan_id":"cebpf4jnsgd1na2vs0mg"},{"bike_id":"5001bb71-3eee-4da5-b32a-e07ff7493211","system_id":"levelo_inurba_marseille","lat":43.31329,"lon":5.39694,"is_reserved":false,"is_disabled":false,"rental_uris":{"android":"levelo://app?vid=5001bb71-3eee-4da5-b32a-e07ff7493211","ios":"levelo://app?vid=5001bb71-3eee-4da5-b32a-e07ff7493211"},"vehicle_type_id":"4","last_reported":1732644820,"current_range_meters":38800,"station_id":"ce4bgvp2rcd13ifvqcu0","pricing_plan_id":"cebpf4jnsgd1na2vs0mg"},{"bike_id":"e371fa16-1b42-4c87-b661-07fb0d23cf0b","system_id":"levelo_inurba_marseille","lat":43.29307,"lon":5.37163,"is_reserved":false,"is_disabled":false,"rental_uris":{"android":"levelo://app?vid=e371fa16-1b42-4c87-b661-07fb0d23cf0b","ios":"levelo://app?vid=e371fa16-1b42-4c87-b661-07fb0d23cf0b"},"vehicle_type_id":"4","last_reported":1732644820,"current_range_meters":40000,"station_id":"ce4bgh92rcd13ifvqb40","pricing_plan_id":"cebpf4jnsgd1na2vs0mg"},{"bike_id":"a0a29abb-a4f8-4456-855d-8157786c52f8","system_id":"levelo_inurba_marseille","lat":43.32365,"lon":5.38882,"is_reserved":false,"is_disabled":false,"rental_uris":{"android":"levelo://app?vid=a0a29abb-a4f8-4456-855d-8157786c52f8","ios":"levelo://app?vid=a0a29abb-a4f8-4456-855d-8157786c52f8"},"vehicle_type_id":"4","last_reported":1732644820,"current_range_meters":8800,"station_id":"ce4bhqp2rcd13ifvqhog","pricing_plan_id":"cebpf4jnsgd1na2vs0mg"},{"bike_id":"87bb7cbe-aefe-4e56-aa6b-d384b6df38eb","system_id":"levelo_inurba_marseille","lat":43.30415,"lon":5.41283,"is_reserved":false,"is_disabled":false,"rental_uris":{"android":"levelo://app?vid=87bb7cbe-aefe-4e56-aa6b-d384b6df38eb","ios":"levelo://app?vid=87bb7cbe-aefe-4e56-aa6b-d384b6df38eb"},"vehicle_type_id":"4","last_reported":1732644820,"current_range_meters":8400,"station_id":"ce4bhop2rcd13ifvqh8g","pricing_plan_id":"cebpf4jnsgd1na2vs0mg"},{"bike_id":"e023ff32-6c4f-4673-a7aa-5fcdbec26d0f","system_id":"levelo_inurba_marseille","lat":43.288385,"lon":5.358458,"is_reserved":false,"is_disabled":true,"rental_uris":{"android":"levelo://app?vid=e023ff32-6c4f-4673-a7aa-5fcdbec26d0f","ios":"levelo://app?vid=e023ff32-6c4f-4673-a7aa-5fcdbec26d0f"},"vehicle_type_id":"4","last_reported":1732644820,"current_range_meters":28400,"station_id":"ce4bhb12rcd13ifvqem0","pricing_plan_id":"cebpf4jnsgd1na2vs0mg"},{"bike_id":"f9ca3389-f0b0-42e9-b890-7ec20aa8d35e","system_id":"levelo_inurba_marseille","lat":43.29268,"lon":5.36843,"is_reserved":false,"is_disabled":true,"rental_uris":{"android":"levelo://app?vid=f9ca3389-f0b0-42e9-b890-7ec20aa8d35e","ios":"levelo://app?vid=f9ca3389-f0b0-42e9-b890-7ec20aa8d35e"},"vehicle_type_id":"4","last_reported":1732644820,"current_range_meters":16400,"station_id":"ce4bhbp2rcd13ifvqesg","pricing_plan_id":"cebpf4jnsgd1na2vs0mg"},{"bike_id":"4d809776-4d2b-4bf5-8aa6-666b5b1fd18f","system_id":"levelo_inurba_marseille","lat":43.33723,"lon":5.39182,"is_reserved":false,"is_disabled":false,"rental_uris":{"android":"levelo://app?vid=4d809776-4d2b-4bf5-8aa6-666b5b1fd18f","ios":"levelo://app?vid=4d809776-4d2b-4bf5-8aa6-666b5b1fd18f"},"vehicle_type_id":"4","last_reported":1732644820,"current_range_meters":38800,"station_id":"ce4bhr92rcd13ifvqhsg","pricing_plan_id":"cebpf4jnsgd1na2vs0mg"},{"bike_id":"d1127b71-c46b-4dbd-b4ed-20ed8464df75","system_id":"levelo_inurba_marseille","lat":43.29795,"lon":5.39337,"is_reserved":false,"is_disabled":false,"rental_uris":{"android":"levelo://app?vid=d1127b71-c46b-4dbd-b4ed-20ed8464df75","ios":"levelo://app?vid=d1127b71-c46b-4dbd-b4ed-20ed8464df75"},"vehicle_type_id":"4","last_reported":1732644820,"current_range_meters":4800,"station_id":"chh1huq6cuj3fo74tm60","pricing_plan_id":"cebpf4jnsgd1na2vs0mg"},{"bike_id":"5817161f-5d63-41b2-92c0-c94f8059d60c","system_id":"levelo_inurba_marseille","lat":43.337444,"lon":5.374475,"is_reserved":false,"is_disabled":false,"rental_uris":{"android":"levelo://app?vid=5817161f-5d63-41b2-92c0-c94f8059d60c","ios":"levelo://app?vid=5817161f-5d63-41b2-92c0-c94f8059d60c"},"vehicle_type_id":"4","last_reported":1732644820,"current_range_meters":36000,"station_id":"","pricing_plan_id":"cebpf4jnsgd1na2vs0mg"},{"bike_id":"88c80e96-32d0-4054-a0d8-e15b372ae003","system_id":"levelo_inurba_marseille","lat":43.23204,"lon":5.35544,"is_reserved":false,"is_disabled":false,"rental_uris":{"android":"levelo://app?vid=88c80e96-32d0-4054-a0d8-e15b372ae003","ios":"levelo://app?vid=88c80e96-32d0-4054-a0d8-e15b372ae003"},"vehicle_type_id":"4","last_reported":1732644820,"current_range_meters":12800,"station_id":"ce4bhu92rcd13ifvqi70","pricing_plan_id":"cebpf4jnsgd1na2vs0mg"},{"bike_id":"d22ef21c-17e1-4059-8355-1acb5f22bbd2","system_id":"levelo_inurba_marseille","lat":43.23964,"lon":5.36625,"is_reserved":false,"is_disabled":false,"rental_uris":{"android":"levelo://app?vid=d22ef21c-17e1-4059-8355-1acb5f22bbd2","ios":"levelo://app?vid=d22ef21c-17e1-4059-8355-1acb5f22bbd2"},"vehicle_type_id":"4","last_reported":1732644820,"current_range_meters":8000,"station_id":"ce4bhi12rcd13ifvqfp0","pricing_plan_id":"cebpf4jnsgd1na2vs0mg"},{"bike_id":"d1573506-526b-4520-89f7-be3e00644e2e","system_id":"levelo_inurba_marseille","lat":43.2792,"lon":5.39584,"is_reserved":false,"is_disabled":false,"rental_uris":{"android":"levelo://app?vid=d1573506-526b-4520-89f7-be3e00644e2e","ios":"levelo://app?vid=d1573506-526b-4520-89f7-be3e00644e2e"},"vehicle_type_id":"4","last_reported":1732644820,"current_range_meters":20000,"station_id":"ce4bhf92rcd13ifvqf40","pricing_plan_id":"cebpf4jnsgd1na2vs0mg"},{"bike_id":"e30cdf54-5095-4444-a33c-3a8312872039","system_id":"levelo_inurba_marseille","lat":43.30928,"lon":5.40148,"is_reserved":false,"is_disabled":false,"rental_uris":{"android":"levelo://app?vid=e30cdf54-5095-4444-a33c-3a8312872039","ios":"levelo://app?vid=e30cdf54-5095-4444-a33c-3a8312872039"},"vehicle_type_id":"4","last_reported":1732644820,"current_range_meters":18800,"station_id":"ce4bgvp2rcd13ifvqct0","pricing_plan_id":"cebpf4jnsgd1na2vs0mg"},{"bike_id":"7201e0cf-a992-4041-bacd-04ce15cb4f7c","system_id":"levelo_inurba_marseille","lat":43.26207,"lon":5.37458,"is_reserved":false,"is_disabled":true,"rental_uris":{"android":"levelo://app?vid=7201e0cf-a992-4041-bacd-04ce15cb4f7c","ios":"levelo://app?vid=7201e0cf-a992-4041-bacd-04ce15cb4f7c"},"vehicle_type_id":"4","last_reported":1732644820,"current_range_meters":800,"station_id":"ce4bhgp2rcd13ifvqfc0","pricing_plan_id":"cebpf4jnsgd1na2vs0mg"},{"bike_id":"c3623d53-2caf-4f65-b291-4111863dd971","system_id":"levelo_inurba_marseille","lat":43.296339,"lon":5.371713,"is_reserved":false,"is_disabled":false,"rental_uris":{"android":"levelo://app?vid=c3623d53-2caf-4f65-b291-4111863dd971","ios":"levelo://app?vid=c3623d53-2caf-4f65-b291-4111863dd971"},"vehicle_type_id":"4","last_reported":1732644820,"current_range_meters":38800,"station_id":"ce4bgnh2rcd13ifvqc0g","pricing_plan_id":"cebpf4jnsgd1na2vs0mg"},{"bike_id":"12baa416-e02e-4769-b379-0128c88a52d0","system_id":"levelo_inurba_marseille","lat":43.29013,"lon":5.35616,"is_reserved":false,"is_disabled":true,"rental_uris":{"android":"levelo://app?vid=12baa416-e02e-4769-b379-0128c88a52d0","ios":"levelo://app?vid=12baa416-e02e-4769-b379-0128c88a52d0"},"vehicle_type_id":"4","last_reported":1732644820,"current_range_meters":0,"station_id":"ce4bhb92rcd13ifvqen0","pricing_plan_id":"cebpf4jnsgd1na2vs0mg"},{"bike_id":"0cd7fb1f-f090-4e80-a2fb-03510d2b2219","system_id":"levelo_inurba_marseille","lat":43.29595,"lon":5.37504,"is_reserved":false,"is_disabled":true,"rental_uris":{"android":"levelo://app?vid=0cd7fb1f-f090-4e80-a2fb-03510d2b2219","ios":"levelo://app?vid=0cd7fb1f-f090-4e80-a2fb-03510d2b2219"},"vehicle_type_id":"4","last_reported":1732644820,"current_range_meters":32800,"station_id":"ce4bgh92rcd13ifvqb50","pricing_plan_id":"cebpf4jnsgd1na2vs0mg"},{"bike_id":"fb757245-b5ea-4971-94be-039d8aee4714","system_id":"levelo_inurba_marseille","lat":43.24166,"lon":5.36394,"is_reserved":false,"is_disabled":false,"rental_uris":{"android":"levelo://app?vid=fb757245-b5ea-4971-94be-039d8aee4714","ios":"levelo://app?vid=fb757245-b5ea-4971-94be-039d8aee4714"},"vehicle_type_id":"4","last_reported":1732644820,"current_range_meters":30000,"station_id":"cpo36qri1sfpv3e86is0","pricing_plan_id":"cebpf4jnsgd1na2vs0mg"},{"bike_id":"7298403c-880b-444e-b805-d088a86663ad","system_id":"levelo_inurba_marseille","lat":43.31334,"lon":5.39691,"is_reserved":false,"is_disabled":false,"rental_uris":{"android":"levelo://app?vid=7298403c-880b-444e-b805-d088a86663ad","ios":"levelo://app?vid=7298403c-880b-444e-b805-d088a86663ad"},"vehicle_type_id":"4","last_reported":1732644820,"current_range_meters":17200,"station_id":"ce4bgvp2rcd13ifvqcu0","pricing_plan_id":"cebpf4jnsgd1na2vs0mg"},{"bike_id":"b96b93ca-a597-434c-a94f-c8450f9327b3","system_id":"levelo_inurba_marseille","lat":43.2586,"lon":5.399,"is_reserved":false,"is_disabled":false,"rental_uris":{"android":"levelo://app?vid=b96b93ca-a597-434c-a94f-c8450f9327b3","ios":"levelo://app?vid=b96b93ca-a597-434c-a94f-c8450f9327b3"},"vehicle_type_id":"4","last_reported":1732644820,"current_range_meters":4800,"station_id":"ce4bhl92rcd13ifvqghg","pricing_plan_id":"cebpf4jnsgd1na2vs0mg"},{"bike_id":"6a243988-d267-4e1e-bafc-c091870de6a8","system_id":"levelo_inurba_marseille","lat":43.24182,"lon":5.36395,"is_reserved":false,"is_disabled":false,"rental_uris":{"android":"levelo://app?vid=6a243988-d267-4e1e-bafc-c091870de6a8","ios":"levelo://app?vid=6a243988-d267-4e1e-bafc-c091870de6a8"},"vehicle_type_id":"4","last_reported":1732644820,"current_range_meters":38000,"station_id":"cpo36qri1sfpv3e86is0","pricing_plan_id":"cebpf4jnsgd1na2vs0mg"},{"bike_id":"32cbe6aa-217f-475e-8d89-7b3ea1a39381","system_id":"levelo_inurba_marseille","lat":43.33024,"lon":5.39042,"is_reserved":false,"is_disabled":false,"rental_uris":{"android":"levelo://app?vid=32cbe6aa-217f-475e-8d89-7b3ea1a39381","ios":"levelo://app?vid=32cbe6aa-217f-475e-8d89-7b3ea1a39381"},"vehicle_type_id":"4","last_reported":1732644820,"current_range_meters":12800,"station_id":"ce4bhr92rcd13ifvqhrg","pricing_plan_id":"cebpf4jnsgd1na2vs0mg"},{"bike_id":"a84359ed-3e1f-4813-bf39-c91766ecd0c8","system_id":"levelo_inurba_marseille","lat":43.24653,"lon":5.38893,"is_reserved":false,"is_disabled":false,"rental_uris":{"android":"levelo://app?vid=a84359ed-3e1f-4813-bf39-c91766ecd0c8","ios":"levelo://app?vid=a84359ed-3e1f-4813-bf39-c91766ecd0c8"},"vehicle_type_id":"4","last_reported":1732644820,"current_range_meters":16800,"station_id":"ce4bhg12rcd13ifvqf60","pricing_plan_id":"cebpf4jnsgd1na2vs0mg"},{"bike_id":"39b04c21-6a6a-40a7-a489-741c2b67c9bd","system_id":"levelo_inurba_marseille","lat":43.33723,"lon":5.39193,"is_reserved":false,"is_disabled":false,"rental_uris":{"android":"levelo://app?vid=39b04c21-6a6a-40a7-a489-741c2b67c9bd","ios":"levelo://app?vid=39b04c21-6a6a-40a7-a489-741c2b67c9bd"},"vehicle_type_id":"4","last_reported":1732644820,"current_range_meters":15200,"station_id":"ce4bhr92rcd13ifvqhsg","pricing_plan_id":"cebpf4jnsgd1na2vs0mg"},{"bike_id":"6baa758b-ddf1-4abf-b937-e95943196e81","system_id":"levelo_inurba_marseille","lat":43.30945,"lon":5.39031,"is_reserved":false,"is_disabled":false,"rental_uris":{"android":"levelo://app?vid=6baa758b-ddf1-4abf-b937-e95943196e81","ios":"levelo://app?vid=6baa758b-ddf1-4abf-b937-e95943196e81"},"vehicle_type_id":"4","last_reported":1732644820,"current_range_meters":27600,"station_id":"ce4bgup2rcd13ifvqco0","pricing_plan_id":"cebpf4jnsgd1na2vs0mg"},{"bike_id":"dddb19ec-e3be-4180-9b1d-b2e07e49e08c","system_id":"levelo_inurba_marseille","lat":43.30802,"lon":5.4352,"is_reserved":false,"is_disabled":false,"rental_uris":{"android":"levelo://app?vid=dddb19ec-e3be-4180-9b1d-b2e07e49e08c","ios":"levelo://app?vid=dddb19ec-e3be-4180-9b1d-b2e07e49e08c"},"vehicle_type_id":"4","last_reported":1732644820,"current_range_meters":33600,"station_id":"ce4bhph2rcd13ifvqheg","pricing_plan_id":"cebpf4jnsgd1na2vs0mg"},{"bike_id":"1e613d18-c1b8-4f02-9b27-0b1d954d1c5b","system_id":"levelo_inurba_marseille","lat":43.30804,"lon":5.43519,"is_reserved":false,"is_disabled":false,"rental_uris":{"android":"levelo://app?vid=1e613d18-c1b8-4f02-9b27-0b1d954d1c5b","ios":"levelo://app?vid=1e613d18-c1b8-4f02-9b27-0b1d954d1c5b"},"vehicle_type_id":"4","last_reported":1732644820,"current_range_meters":34000,"station_id":"ce4bhph2rcd13ifvqheg","pricing_plan_id":"cebpf4jnsgd1na2vs0mg"},{"bike_id":"0d9219b8-5c3f-4ca9-9397-73a6e266e998","system_id":"levelo_inurba_marseille","lat":43.26092,"lon":5.38715,"is_reserved":false,"is_disabled":false,"rental_uris":{"android":"levelo://app?vid=0d9219b8-5c3f-4ca9-9397-73a6e266e998","ios":"levelo://app?vid=0d9219b8-5c3f-4ca9-9397-73a6e266e998"},"vehicle_type_id":"4","last_reported":1732644820,"current_range_meters":31200,"station_id":"","pricing_plan_id":"cebpf4jnsgd1na2vs0mg"},{"bike_id":"f322df79-0242-4db0-ac2e-452d61c9528e","system_id":"levelo_inurba_marseille","lat":43.25569,"lon":5.38239,"is_reserved":false,"is_disabled":false,"rental_uris":{"android":"levelo://app?vid=f322df79-0242-4db0-ac2e-452d61c9528e","ios":"levelo://app?vid=f322df79-0242-4db0-ac2e-452d61c9528e"},"vehicle_type_id":"4","last_reported":1732644820,"current_range_meters":38000,"station_id":"ce4bhih2rcd13ifvqfs0","pricing_plan_id":"cebpf4jnsgd1na2vs0mg"},{"bike_id":"d75ebc9f-2b19-4017-af4e-f844f57e7dbe","system_id":"levelo_inurba_marseille","lat":43.26202,"lon":5.37924,"is_reserved":false,"is_disabled":false,"rental_uris":{"android":"levelo://app?vid=d75ebc9f-2b19-4017-af4e-f844f57e7dbe","ios":"levelo://app?vid=d75ebc9f-2b19-4017-af4e-f844f57e7dbe"},"vehicle_type_id":"4","last_reported":1732644820,"current_range_meters":22800,"station_id":"ce4bhjp2rcd13ifvqg90","pricing_plan_id":"cebpf4jnsgd1na2vs0mg"},{"bike_id":"eaba4bd8-d0f0-4f5a-b523-ed1d0facbe9e","system_id":"levelo_inurba_marseille","lat":43.30302,"lon":5.39215,"is_reserved":false,"is_disabled":false,"rental_uris":{"android":"levelo://app?vid=eaba4bd8-d0f0-4f5a-b523-ed1d0facbe9e","ios":"levelo://app?vid=eaba4bd8-d0f0-4f5a-b523-ed1d0facbe9e"},"vehicle_type_id":"4","last_reported":1732644820,"current_range_meters":6400,"station_id":"ce4bgkh2rcd13ifvqbk0","pricing_plan_id":"cebpf4jnsgd1na2vs0mg"},{"bike_id":"5a2328bf-7a4d-427a-b4dd-de247a7eef4f","system_id":"levelo_inurba_marseille","lat":43.29522,"lon":5.39088,"is_reserved":false,"is_disabled":false,"rental_uris":{"android":"levelo://app?vid=5a2328bf-7a4d-427a-b4dd-de247a7eef4f","ios":"levelo://app?vid=5a2328bf-7a4d-427a-b4dd-de247a7eef4f"},"vehicle_type_id":"4","last_reported":1732644820,"current_range_meters":14800,"station_id":"ce4bh3p2rcd13ifvqdp0","pricing_plan_id":"cebpf4jnsgd1na2vs0mg"},{"bike_id":"72482bf5-a138-48b2-8662-bbb40cfc0d34","system_id":"levelo_inurba_marseille","lat":43.31714,"lon":5.43706,"is_reserved":false,"is_disabled":false,"rental_uris":{"android":"levelo://app?vid=72482bf5-a138-48b2-8662-bbb40cfc0d34","ios":"levelo://app?vid=72482bf5-a138-48b2-8662-bbb40cfc0d34"},"vehicle_type_id":"4","last_reported":1732644820,"current_range_meters":22000,"station_id":"ce4bhp92rcd13ifvqhcg","pricing_plan_id":"cebpf4jnsgd1na2vs0mg"},{"bike_id":"3b2ddd61-7276-4381-b067-2a88d42fe9ff","system_id":"levelo_inurba_marseille","lat":43.28284,"lon":5.35083,"is_reserved":false,"is_disabled":false,"rental_uris":{"android":"levelo://app?vid=3b2ddd61-7276-4381-b067-2a88d42fe9ff","ios":"levelo://app?vid=3b2ddd61-7276-4381-b067-2a88d42fe9ff"},"vehicle_type_id":"4","last_reported":1732644820,"current_range_meters":18800,"station_id":"ce4bhbp2rcd13ifvqerg","pricing_plan_id":"cebpf4jnsgd1na2vs0mg"},{"bike_id":"3faca838-929a-408e-bcba-41512aacc531","system_id":"levelo_inurba_marseille","lat":43.2809,"lon":5.39651,"is_reserved":false,"is_disabled":false,"rental_uris":{"android":"levelo://app?vid=3faca838-929a-408e-bcba-41512aacc531","ios":"levelo://app?vid=3faca838-929a-408e-bcba-41512aacc531"},"vehicle_type_id":"4","last_reported":1732644820,"current_range_meters":9200,"station_id":"ce4bho12rcd13ifvqh2g","pricing_plan_id":"cebpf4jnsgd1na2vs0mg"},{"bike_id":"36296f5c-0176-4be0-97c8-7930cda9c369","system_id":"levelo_inurba_marseille","lat":43.321045,"lon":5.367719,"is_reserved":false,"is_disabled":false,"rental_uris":{"android":"levelo://app?vid=36296f5c-0176-4be0-97c8-7930cda9c369","ios":"levelo://app?vid=36296f5c-0176-4be0-97c8-7930cda9c369"},"vehicle_type_id":"4","last_reported":1732644820,"current_range_meters":21600,"station_id":"ce4bhrh2rcd13ifvqhug","pricing_plan_id":"cebpf4jnsgd1na2vs0mg"},{"bike_id":"0f1d20ed-acd7-43be-a29b-0fb31844f78a","system_id":"levelo_inurba_marseille","lat":43.25713,"lon":5.41114,"is_reserved":false,"is_disabled":false,"rental_uris":{"android":"levelo://app?vid=0f1d20ed-acd7-43be-a29b-0fb31844f78a","ios":"levelo://app?vid=0f1d20ed-acd7-43be-a29b-0fb31844f78a"},"vehicle_type_id":"4","last_reported":1732644820,"current_range_meters":23200,"station_id":"ce4bhkp2rcd13ifvqgd0","pricing_plan_id":"cebpf4jnsgd1na2vs0mg"},{"bike_id":"26902908-dd60-47fa-85cc-c530631f0e43","system_id":"levelo_inurba_marseille","lat":43.29981,"lon":5.38498,"is_reserved":false,"is_disabled":true,"rental_uris":{"android":"levelo://app?vid=26902908-dd60-47fa-85cc-c530631f0e43","ios":"levelo://app?vid=26902908-dd60-47fa-85cc-c530631f0e43"},"vehicle_type_id":"4","last_reported":1732644820,"current_range_meters":1200,"station_id":"ce4bgj92rcd13ifvqbd0","pricing_plan_id":"cebpf4jnsgd1na2vs0mg"},{"bike_id":"5a64147f-da9a-40cb-a940-153001e1f291","system_id":"levelo_inurba_marseille","lat":43.29797,"lon":5.38189,"is_reserved":false,"is_disabled":true,"rental_uris":{"android":"levelo://app?vid=5a64147f-da9a-40cb-a940-153001e1f291","ios":"levelo://app?vid=5a64147f-da9a-40cb-a940-153001e1f291"},"vehicle_type_id":"4","last_reported":1732644820,"current_range_meters":30400,"station_id":"","pricing_plan_id":"cebpf4jnsgd1na2vs0mg"},{"bike_id":"1ebc2642-599e-41e5-89df-308a45bbfcfb","system_id":"levelo_inurba_marseille","lat":43.32101,"lon":5.36778,"is_reserved":false,"is_disabled":false,"rental_uris":{"android":"levelo://app?vid=1ebc2642-599e-41e5-89df-308a45bbfcfb","ios":"levelo://app?vid=1ebc2642-599e-41e5-89df-308a45bbfcfb"},"vehicle_type_id":"4","last_reported":1732644820,"current_range_meters":12400,"station_id":"ce4bhrh2rcd13ifvqhug","pricing_plan_id":"cebpf4jnsgd1na2vs0mg"},{"bike_id":"77f3d618-af40-4a26-a84e-6ab57214c728","system_id":"levelo_inurba_marseille","lat":43.30189,"lon":5.36632,"is_reserved":false,"is_disabled":false,"rental_uris":{"android":"levelo://app?vid=77f3d618-af40-4a26-a84e-6ab57214c728","ios":"levelo://app?vid=77f3d618-af40-4a26-a84e-6ab57214c728"},"vehicle_type_id":"4","last_reported":1732644820,"current_range_meters":6400,"station_id":"ce4bgrh2rcd13ifvqc8g","pricing_plan_id":"cebpf4jnsgd1na2vs0mg"},{"bike_id":"73e59ae6-2ee9-4cfa-a524-30488db1567f","system_id":"levelo_inurba_marseille","lat":43.30619,"lon":5.40089,"is_reserved":false,"is_disabled":false,"rental_uris":{"android":"levelo://app?vid=73e59ae6-2ee9-4cfa-a524-30488db1567f","ios":"levelo://app?vid=73e59ae6-2ee9-4cfa-a524-30488db1567f"},"vehicle_type_id":"4","last_reported":1732644820,"current_range_meters":17200,"station_id":"ce4bh112rcd13ifvqda0","pricing_plan_id":"cebpf4jnsgd1na2vs0mg"},{"bike_id":"8c0fbd77-f0c3-4ec6-b4b3-2577f69a9af5","system_id":"levelo_inurba_marseille","lat":43.30464,"lon":5.37916,"is_reserved":false,"is_disabled":false,"rental_uris":{"android":"levelo://app?vid=8c0fbd77-f0c3-4ec6-b4b3-2577f69a9af5","ios":"levelo://app?vid=8c0fbd77-f0c3-4ec6-b4b3-2577f69a9af5"},"vehicle_type_id":"4","last_reported":1732644820,"current_range_meters":3200,"station_id":"ce4bgup2rcd13ifvqcn0","pricing_plan_id":"cebpf4jnsgd1na2vs0mg"},{"bike_id":"54249016-8890-4531-adbb-63c0f6c9f88b","system_id":"levelo_inurba_marseille","lat":43.26559,"lon":5.39005,"is_reserved":false,"is_disabled":false,"rental_uris":{"android":"levelo://app?vid=54249016-8890-4531-adbb-63c0f6c9f88b","ios":"levelo://app?vid=54249016-8890-4531-adbb-63c0f6c9f88b"},"vehicle_type_id":"4","last_reported":1732644820,"current_range_meters":25200,"station_id":"ce4bhe12rcd13ifvqf30","pricing_plan_id":"cebpf4jnsgd1na2vs0mg"},{"bike_id":"51b398f2-b539-440c-917f-0128fd59b7e4","system_id":"levelo_inurba_marseille","lat":43.28462,"lon":5.35902,"is_reserved":false,"is_disabled":false,"rental_uris":{"android":"levelo://app?vid=51b398f2-b539-440c-917f-0128fd59b7e4","ios":"levelo://app?vid=51b398f2-b539-440c-917f-0128fd59b7e4"},"vehicle_type_id":"4","last_reported":1732644820,"current_range_meters":28000,"station_id":"ce4bhah2rcd13ifvqei0","pricing_plan_id":"cebpf4jnsgd1na2vs0mg"},{"bike_id":"1cd78e3c-eca2-430e-a00b-3450b52eb373","system_id":"levelo_inurba_marseille","lat":43.22938,"lon":5.35371,"is_reserved":false,"is_disabled":true,"rental_uris":{"android":"levelo://app?vid=1cd78e3c-eca2-430e-a00b-3450b52eb373","ios":"levelo://app?vid=1cd78e3c-eca2-430e-a00b-3450b52eb373"},"vehicle_type_id":"4","last_reported":1732644820,"current_range_meters":0,"station_id":"cpo3532slgdg3j2ikp40","pricing_plan_id":"cebpf4jnsgd1na2vs0mg"},{"bike_id":"b2ca8ec3-768a-4597-96d8-0e4f046f5eb4","system_id":"levelo_inurba_marseille","lat":43.3237,"lon":5.38885,"is_reserved":false,"is_disabled":false,"rental_uris":{"android":"levelo://app?vid=b2ca8ec3-768a-4597-96d8-0e4f046f5eb4","ios":"levelo://app?vid=b2ca8ec3-768a-4597-96d8-0e4f046f5eb4"},"vehicle_type_id":"4","last_reported":1732644820,"current_range_meters":38800,"station_id":"ce4bhqp2rcd13ifvqhog","pricing_plan_id":"cebpf4jnsgd1na2vs0mg"},{"bike_id":"391001e2-7361-4b92-b20f-4fb1d1376b6e","system_id":"levelo_inurba_marseille","lat":43.23194,"lon":5.39993,"is_reserved":false,"is_disabled":true,"rental_uris":{"android":"levelo://app?vid=391001e2-7361-4b92-b20f-4fb1d1376b6e","ios":"levelo://app?vid=391001e2-7361-4b92-b20f-4fb1d1376b6e"},"vehicle_type_id":"4","last_reported":1732644820,"current_range_meters":0,"station_id":"ce4bhn12rcd13ifvqgqg","pricing_plan_id":"cebpf4jnsgd1na2vs0mg"},{"bike_id":"a90aa9ab-c239-4cf2-b0ee-79d5f83e33fc","system_id":"levelo_inurba_marseille","lat":43.31704,"lon":5.40467,"is_reserved":false,"is_disabled":true,"rental_uris":{"android":"levelo://app?vid=a90aa9ab-c239-4cf2-b0ee-79d5f83e33fc","ios":"levelo://app?vid=a90aa9ab-c239-4cf2-b0ee-79d5f83e33fc"},"vehicle_type_id":"4","last_reported":1732644820,"current_range_meters":0,"station_id":"ce4bh012rcd13ifvqd00","pricing_plan_id":"cebpf4jnsgd1na2vs0mg"},{"bike_id":"dadde2aa-7b9d-44bb-aa71-3d1e28ae10ff","system_id":"levelo_inurba_marseille","lat":43.27947,"lon":5.41043,"is_reserved":false,"is_disabled":false,"rental_uris":{"android":"levelo://app?vid=dadde2aa-7b9d-44bb-aa71-3d1e28ae10ff","ios":"levelo://app?vid=dadde2aa-7b9d-44bb-aa71-3d1e28ae10ff"},"vehicle_type_id":"4","last_reported":1732644820,"current_range_meters":24800,"station_id":"ce4bhnp2rcd13ifvqh0g","pricing_plan_id":"cebpf4jnsgd1na2vs0mg"},{"bike_id":"c310a389-7aa5-4944-bfa4-733d6cafd939","system_id":"levelo_inurba_marseille","lat":43.27676,"lon":5.38873,"is_reserved":false,"is_disabled":false,"rental_uris":{"android":"levelo://app?vid=c310a389-7aa5-4944-bfa4-733d6cafd939","ios":"levelo://app?vid=c310a389-7aa5-4944-bfa4-733d6cafd939"},"vehicle_type_id":"4","last_reported":1732644820,"current_range_meters":30400,"station_id":"ce4bhi12rcd13ifvqfo0","pricing_plan_id":"cebpf4jnsgd1na2vs0mg"},{"bike_id":"e72a0b53-69db-44e7-90d0-914fbf8a36ae","system_id":"levelo_inurba_marseille","lat":43.29602,"lon":5.381,"is_reserved":false,"is_disabled":true,"rental_uris":{"android":"levelo://app?vid=e72a0b53-69db-44e7-90d0-914fbf8a36ae","ios":"levelo://app?vid=e72a0b53-69db-44e7-90d0-914fbf8a36ae"},"vehicle_type_id":"4","last_reported":1732644820,"current_range_meters":1200,"station_id":"ce4bgl12rcd13ifvqbo0","pricing_plan_id":"cebpf4jnsgd1na2vs0mg"},{"bike_id":"4ad30cf1-9623-4031-bcdc-749b644f9fd3","system_id":"levelo_inurba_marseille","lat":43.25025,"lon":5.38866,"is_reserved":false,"is_disabled":true,"rental_uris":{"android":"levelo://app?vid=4ad30cf1-9623-4031-bcdc-749b644f9fd3","ios":"levelo://app?vid=4ad30cf1-9623-4031-bcdc-749b644f9fd3"},"vehicle_type_id":"4","last_reported":1732644820,"current_range_meters":800,"station_id":"ce4bhgp2rcd13ifvqfd0","pricing_plan_id":"cebpf4jnsgd1na2vs0mg"},{"bike_id":"ad147b94-4180-4578-a0fa-c4d1998acb2d","system_id":"levelo_inurba_marseille","lat":43.29057,"lon":5.35936,"is_reserved":false,"is_disabled":true,"rental_uris":{"android":"levelo://app?vid=ad147b94-4180-4578-a0fa-c4d1998acb2d","ios":"levelo://app?vid=ad147b94-4180-4578-a0fa-c4d1998acb2d"},"vehicle_type_id":"4","last_reported":1732644820,"current_range_meters":38800,"station_id":"ce4bha92rcd13ifvqeg0","pricing_plan_id":"cebpf4jnsgd1na2vs0mg"},{"bike_id":"2b488a4a-8906-4db1-a5a3-db9eaaea2860","system_id":"levelo_inurba_marseille","lat":43.30786,"lon":5.37652,"is_reserved":false,"is_disabled":false,"rental_uris":{"android":"levelo://app?vid=2b488a4a-8906-4db1-a5a3-db9eaaea2860","ios":"levelo://app?vid=2b488a4a-8906-4db1-a5a3-db9eaaea2860"},"vehicle_type_id":"4","last_reported":1732644820,"current_range_meters":8000,"station_id":"ce4bgv92rcd13ifvqcq0","pricing_plan_id":"cebpf4jnsgd1na2vs0mg"},{"bike_id":"3f2a3618-6cbe-43c1-bc68-f6c430e38d63","system_id":"levelo_inurba_marseille","lat":43.29229,"lon":5.36066,"is_reserved":false,"is_disabled":false,"rental_uris":{"android":"levelo://app?vid=3f2a3618-6cbe-43c1-bc68-f6c430e38d63","ios":"levelo://app?vid=3f2a3618-6cbe-43c1-bc68-f6c430e38d63"},"vehicle_type_id":"4","last_reported":1732644820,"current_range_meters":3200,"station_id":"ce4bhbh2rcd13ifvqeqg","pricing_plan_id":"cebpf4jnsgd1na2vs0mg"},{"bike_id":"2e95a691-d7d8-426b-8dba-47b6b56c6a41","system_id":"levelo_inurba_marseille","lat":43.28165,"lon":5.42641,"is_reserved":false,"is_disabled":false,"rental_uris":{"android":"levelo://app?vid=2e95a691-d7d8-426b-8dba-47b6b56c6a41","ios":"levelo://app?vid=2e95a691-d7d8-426b-8dba-47b6b56c6a41"},"vehicle_type_id":"4","last_reported":1732644820,"current_range_meters":3600,"station_id":"ce4bhnh2rcd13ifvqgug","pricing_plan_id":"cebpf4jnsgd1na2vs0mg"},{"bike_id":"e1023cd0-0598-4752-bca2-87e3d8646e5a","system_id":"levelo_inurba_marseille","lat":43.27387,"lon":5.3624,"is_reserved":false,"is_disabled":true,"rental_uris":{"android":"levelo://app?vid=e1023cd0-0598-4752-bca2-87e3d8646e5a","ios":"levelo://app?vid=e1023cd0-0598-4752-bca2-87e3d8646e5a"},"vehicle_type_id":"4","last_reported":1732644820,"current_range_meters":0,"station_id":"ce4bhbh2rcd13ifvqeo0","pricing_plan_id":"cebpf4jnsgd1na2vs0mg"},{"bike_id":"f77409ac-4e9d-4a11-abae-cd66a4d9ff21","system_id":"levelo_inurba_marseille","lat":43.25498,"lon":5.37644,"is_reserved":false,"is_disabled":false,"rental_uris":{"android":"levelo://app?vid=f77409ac-4e9d-4a11-abae-cd66a4d9ff21","ios":"levelo://app?vid=f77409ac-4e9d-4a11-abae-cd66a4d9ff21"},"vehicle_type_id":"4","last_reported":1732644820,"current_range_meters":23200,"station_id":"ce4bhh12rcd13ifvqff0","pricing_plan_id":"cebpf4jnsgd1na2vs0mg"},{"bike_id":"2e68222f-30cf-465f-9189-69aabdbbd1e6","system_id":"levelo_inurba_marseille","lat":43.31847,"lon":5.38993,"is_reserved":false,"is_disabled":false,"rental_uris":{"android":"levelo://app?vid=2e68222f-30cf-465f-9189-69aabdbbd1e6","ios":"levelo://app?vid=2e68222f-30cf-465f-9189-69aabdbbd1e6"},"vehicle_type_id":"4","last_reported":1732644820,"current_range_meters":29600,"station_id":"","pricing_plan_id":"cebpf4jnsgd1na2vs0mg"},{"bike_id":"2397f68e-8aaf-4234-831f-79d7f5541d95","system_id":"levelo_inurba_marseille","lat":43.30521,"lon":5.36705,"is_reserved":false,"is_disabled":false,"rental_uris":{"android":"levelo://app?vid=2397f68e-8aaf-4234-831f-79d7f5541d95","ios":"levelo://app?vid=2397f68e-8aaf-4234-831f-79d7f5541d95"},"vehicle_type_id":"4","last_reported":1732644820,"current_range_meters":32000,"station_id":"ce4bgrp2rcd13ifvqc9g","pricing_plan_id":"cebpf4jnsgd1na2vs0mg"},{"bike_id":"296383cf-b9f1-4ece-98e9-977ef8cbd17a","system_id":"levelo_inurba_marseille","lat":43.23187,"lon":5.39988,"is_reserved":false,"is_disabled":false,"rental_uris":{"android":"levelo://app?vid=296383cf-b9f1-4ece-98e9-977ef8cbd17a","ios":"levelo://app?vid=296383cf-b9f1-4ece-98e9-977ef8cbd17a"},"vehicle_type_id":"4","last_reported":1732644820,"current_range_meters":23200,"station_id":"ce4bhn12rcd13ifvqgqg","pricing_plan_id":"cebpf4jnsgd1na2vs0mg"},{"bike_id":"15c447ff-7eb8-4cce-a529-18cc66887906","system_id":"levelo_inurba_marseille","lat":43.27808,"lon":5.40706,"is_reserved":false,"is_disabled":false,"rental_uris":{"android":"levelo://app?vid=15c447ff-7eb8-4cce-a529-18cc66887906","ios":"levelo://app?vid=15c447ff-7eb8-4cce-a529-18cc66887906"},"vehicle_type_id":"4","last_reported":1732644820,"current_range_meters":22000,"station_id":"ce4bhnh2rcd13ifvqgtg","pricing_plan_id":"cebpf4jnsgd1na2vs0mg"},{"bike_id":"a4e0cf75-0d46-4ef1-bbfb-ea3f7590644e","system_id":"levelo_inurba_marseille","lat":43.30186,"lon":5.36599,"is_reserved":false,"is_disabled":false,"rental_uris":{"android":"levelo://app?vid=a4e0cf75-0d46-4ef1-bbfb-ea3f7590644e","ios":"levelo://app?vid=a4e0cf75-0d46-4ef1-bbfb-ea3f7590644e"},"vehicle_type_id":"4","last_reported":1732644820,"current_range_meters":14400,"station_id":"ce4bgrh2rcd13ifvqc8g","pricing_plan_id":"cebpf4jnsgd1na2vs0mg"},{"bike_id":"858b65e1-94fc-4151-a71e-8b168cb19dcb","system_id":"levelo_inurba_marseille","lat":43.32249,"lon":5.39241,"is_reserved":false,"is_disabled":true,"rental_uris":{"android":"levelo://app?vid=858b65e1-94fc-4151-a71e-8b168cb19dcb","ios":"levelo://app?vid=858b65e1-94fc-4151-a71e-8b168cb19dcb"},"vehicle_type_id":"4","last_reported":1732644820,"current_range_meters":0,"station_id":"","pricing_plan_id":"cebpf4jnsgd1na2vs0mg"},{"bike_id":"ee7ddc69-9a6b-425a-b8e8-cebadd5982f2","system_id":"levelo_inurba_marseille","lat":43.28002,"lon":5.40007,"is_reserved":false,"is_disabled":true,"rental_uris":{"android":"levelo://app?vid=ee7ddc69-9a6b-425a-b8e8-cebadd5982f2","ios":"levelo://app?vid=ee7ddc69-9a6b-425a-b8e8-cebadd5982f2"},"vehicle_type_id":"4","last_reported":1732644820,"current_range_meters":0,"station_id":"ce4bho92rcd13ifvqh4g","pricing_plan_id":"cebpf4jnsgd1na2vs0mg"},{"bike_id":"e51b2acb-d883-446b-9ce9-347608453ece","system_id":"levelo_inurba_marseille","lat":43.22943,"lon":5.35373,"is_reserved":false,"is_disabled":false,"rental_uris":{"android":"levelo://app?vid=e51b2acb-d883-446b-9ce9-347608453ece","ios":"levelo://app?vid=e51b2acb-d883-446b-9ce9-347608453ece"},"vehicle_type_id":"4","last_reported":1732644820,"current_range_meters":38800,"station_id":"cpo3532slgdg3j2ikp40","pricing_plan_id":"cebpf4jnsgd1na2vs0mg"},{"bike_id":"ce269e7a-2698-49a4-86f6-481e2e37b18e","system_id":"levelo_inurba_marseille","lat":43.28941,"lon":5.39632,"is_reserved":false,"is_disabled":false,"rental_uris":{"android":"levelo://app?vid=ce269e7a-2698-49a4-86f6-481e2e37b18e","ios":"levelo://app?vid=ce269e7a-2698-49a4-86f6-481e2e37b18e"},"vehicle_type_id":"4","last_reported":1732644820,"current_range_meters":17200,"station_id":"ce4bh3h2rcd13ifvqdn0","pricing_plan_id":"cebpf4jnsgd1na2vs0mg"},{"bike_id":"322845a0-6a77-4d44-8af9-d6ebca7375b5","system_id":"levelo_inurba_marseille","lat":43.28665,"lon":5.3635,"is_reserved":false,"is_disabled":false,"rental_uris":{"android":"levelo://app?vid=322845a0-6a77-4d44-8af9-d6ebca7375b5","ios":"levelo://app?vid=322845a0-6a77-4d44-8af9-d6ebca7375b5"},"vehicle_type_id":"4","last_reported":1732644820,"current_range_meters":6800,"station_id":"ce4bhah2rcd13ifvqej0","pricing_plan_id":"cebpf4jnsgd1na2vs0mg"},{"bike_id":"8d8da56b-37a7-4f6d-a920-b06e2686d848","system_id":"levelo_inurba_marseille","lat":43.242057,"lon":5.384281,"is_reserved":false,"is_disabled":true,"rental_uris":{"android":"levelo://app?vid=8d8da56b-37a7-4f6d-a920-b06e2686d848","ios":"levelo://app?vid=8d8da56b-37a7-4f6d-a920-b06e2686d848"},"vehicle_type_id":"4","last_reported":1732644820,"current_range_meters":19200,"station_id":"ce4bhh92rcd13ifvqfi0","pricing_plan_id":"cebpf4jnsgd1na2vs0mg"},{"bike_id":"e56684af-a751-4c04-bbbf-8c304207b3ae","system_id":"levelo_inurba_marseille","lat":43.232,"lon":5.35558,"is_reserved":false,"is_disabled":false,"rental_uris":{"android":"levelo://app?vid=e56684af-a751-4c04-bbbf-8c304207b3ae","ios":"levelo://app?vid=e56684af-a751-4c04-bbbf-8c304207b3ae"},"vehicle_type_id":"4","last_reported":1732644820,"current_range_meters":38800,"station_id":"ce4bhu92rcd13ifvqi70","pricing_plan_id":"cebpf4jnsgd1na2vs0mg"},{"bike_id":"cf61bcc7-0fbb-4875-974c-00f5ec3deec9","system_id":"levelo_inurba_marseille","lat":43.31701,"lon":5.3777,"is_reserved":false,"is_disabled":false,"rental_uris":{"android":"levelo://app?vid=cf61bcc7-0fbb-4875-974c-00f5ec3deec9","ios":"levelo://app?vid=cf61bcc7-0fbb-4875-974c-00f5ec3deec9"},"vehicle_type_id":"4","last_reported":1732644820,"current_range_meters":6800,"station_id":"ce4bgth2rcd13ifvqch0","pricing_plan_id":"cebpf4jnsgd1na2vs0mg"},{"bike_id":"fedcd5aa-9e9d-4c19-8513-303477538a63","system_id":"levelo_inurba_marseille","lat":43.28724,"lon":5.36098,"is_reserved":false,"is_disabled":false,"rental_uris":{"android":"levelo://app?vid=fedcd5aa-9e9d-4c19-8513-303477538a63","ios":"levelo://app?vid=fedcd5aa-9e9d-4c19-8513-303477538a63"},"vehicle_type_id":"4","last_reported":1732644820,"current_range_meters":16800,"station_id":"cki0cbj6b192h4jlfktg","pricing_plan_id":"cebpf4jnsgd1na2vs0mg"},{"bike_id":"f7f3756c-1ec7-4782-9c87-6273f87b6774","system_id":"levelo_inurba_marseille","lat":43.337444,"lon":5.374475,"is_reserved":false,"is_disabled":true,"rental_uris":{"android":"levelo://app?vid=f7f3756c-1ec7-4782-9c87-6273f87b6774","ios":"levelo://app?vid=f7f3756c-1ec7-4782-9c87-6273f87b6774"},"vehicle_type_id":"4","last_reported":1732644820,"current_range_meters":18800,"station_id":"","pricing_plan_id":"cebpf4jnsgd1na2vs0mg"},{"bike_id":"5ac84619-8500-415b-9629-5dc640523aaa","system_id":"levelo_inurba_marseille","lat":43.29535,"lon":5.375,"is_reserved":false,"is_disabled":true,"rental_uris":{"android":"levelo://app?vid=5ac84619-8500-415b-9629-5dc640523aaa","ios":"levelo://app?vid=5ac84619-8500-415b-9629-5dc640523aaa"},"vehicle_type_id":"4","last_reported":1732644820,"current_range_meters":16400,"station_id":"ce4bgkp2rcd13ifvqbmg","pricing_plan_id":"cebpf4jnsgd1na2vs0mg"},{"bike_id":"ca3c5af7-6212-4473-8827-9c89992897f3","system_id":"levelo_inurba_marseille","lat":43.28449,"lon":5.39176,"is_reserved":false,"is_disabled":false,"rental_uris":{"android":"levelo://app?vid=ca3c5af7-6212-4473-8827-9c89992897f3","ios":"levelo://app?vid=ca3c5af7-6212-4473-8827-9c89992897f3"},"vehicle_type_id":"4","last_reported":1732644820,"current_range_meters":34800,"station_id":"ce4bhoh2rcd13ifvqh5g","pricing_plan_id":"cebpf4jnsgd1na2vs0mg"},{"bike_id":"b5a8002b-75aa-4fd7-ab72-c1987bb3b233","system_id":"levelo_inurba_marseille","lat":43.28573,"lon":5.3949,"is_reserved":false,"is_disabled":false,"rental_uris":{"android":"levelo://app?vid=b5a8002b-75aa-4fd7-ab72-c1987bb3b233","ios":"levelo://app?vid=b5a8002b-75aa-4fd7-ab72-c1987bb3b233"},"vehicle_type_id":"4","last_reported":1732644820,"current_range_meters":32800,"station_id":"ce4bh292rcd13ifvqdg0","pricing_plan_id":"cebpf4jnsgd1na2vs0mg"},{"bike_id":"e74072b3-a02b-4151-87ff-4a55be046050","system_id":"levelo_inurba_marseille","lat":43.25088,"lon":5.39524,"is_reserved":false,"is_disabled":true,"rental_uris":{"android":"levelo://app?vid=e74072b3-a02b-4151-87ff-4a55be046050","ios":"levelo://app?vid=e74072b3-a02b-4151-87ff-4a55be046050"},"vehicle_type_id":"4","last_reported":1732644820,"current_range_meters":1200,"station_id":"ce4bhm12rcd13ifvqgkg","pricing_plan_id":"cebpf4jnsgd1na2vs0mg"},{"bike_id":"1c89c5b4-083f-4e52-8440-fa52a965f9b3","system_id":"levelo_inurba_marseille","lat":43.30547,"lon":5.36537,"is_reserved":false,"is_disabled":true,"rental_uris":{"android":"levelo://app?vid=1c89c5b4-083f-4e52-8440-fa52a965f9b3","ios":"levelo://app?vid=1c89c5b4-083f-4e52-8440-fa52a965f9b3"},"vehicle_type_id":"4","last_reported":1732644820,"current_range_meters":36400,"station_id":"ce4bgs12rcd13ifvqcag","pricing_plan_id":"cebpf4jnsgd1na2vs0mg"},{"bike_id":"e53cd3d3-baf2-4903-bd17-9c68daea0133","system_id":"levelo_inurba_marseille","lat":43.29797,"lon":5.3813,"is_reserved":false,"is_disabled":false,"rental_uris":{"android":"levelo://app?vid=e53cd3d3-baf2-4903-bd17-9c68daea0133","ios":"levelo://app?vid=e53cd3d3-baf2-4903-bd17-9c68daea0133"},"vehicle_type_id":"4","last_reported":1732644820,"current_range_meters":22000,"station_id":"ce4bgip2rcd13ifvqbb0","pricing_plan_id":"cebpf4jnsgd1na2vs0mg"},{"bike_id":"a207f0ca-07e2-4b67-87b8-e268e82a2687","system_id":"levelo_inurba_marseille","lat":43.3117,"lon":5.387208,"is_reserved":false,"is_disabled":false,"rental_uris":{"android":"levelo://app?vid=a207f0ca-07e2-4b67-87b8-e268e82a2687","ios":"levelo://app?vid=a207f0ca-07e2-4b67-87b8-e268e82a2687"},"vehicle_type_id":"4","last_reported":1732644820,"current_range_meters":19200,"station_id":"ce4bgv12rcd13ifvqcp0","pricing_plan_id":"cebpf4jnsgd1na2vs0mg"},{"bike_id":"1bdf9afd-1539-40b5-b519-81e00474358c","system_id":"levelo_inurba_marseille","lat":43.28855,"lon":5.35847,"is_reserved":false,"is_disabled":false,"rental_uris":{"android":"levelo://app?vid=1bdf9afd-1539-40b5-b519-81e00474358c","ios":"levelo://app?vid=1bdf9afd-1539-40b5-b519-81e00474358c"},"vehicle_type_id":"4","last_reported":1732644820,"current_range_meters":29600,"station_id":"ce4bhb12rcd13ifvqem0","pricing_plan_id":"cebpf4jnsgd1na2vs0mg"},{"bike_id":"b94865bd-271b-4f4b-bfb5-073ca9cd54df","system_id":"levelo_inurba_marseille","lat":43.30302,"lon":5.39197,"is_reserved":false,"is_disabled":true,"rental_uris":{"android":"levelo://app?vid=b94865bd-271b-4f4b-bfb5-073ca9cd54df","ios":"levelo://app?vid=b94865bd-271b-4f4b-bfb5-073ca9cd54df"},"vehicle_type_id":"4","last_reported":1732644820,"current_range_meters":32800,"station_id":"ce4bgkh2rcd13ifvqbk0","pricing_plan_id":"cebpf4jnsgd1na2vs0mg"},{"bike_id":"33411be9-8583-420f-b647-b40e5a90aaa7","system_id":"levelo_inurba_marseille","lat":43.25587,"lon":5.3823,"is_reserved":false,"is_disabled":false,"rental_uris":{"android":"levelo://app?vid=33411be9-8583-420f-b647-b40e5a90aaa7","ios":"levelo://app?vid=33411be9-8583-420f-b647-b40e5a90aaa7"},"vehicle_type_id":"4","last_reported":1732644820,"current_range_meters":3200,"station_id":"ce4bhih2rcd13ifvqfs0","pricing_plan_id":"cebpf4jnsgd1na2vs0mg"},{"bike_id":"a1e4c6c6-2f64-4874-8633-ea7f2cf7d72d","system_id":"levelo_inurba_marseille","lat":43.31075,"lon":5.38348,"is_reserved":false,"is_disabled":false,"rental_uris":{"android":"levelo://app?vid=a1e4c6c6-2f64-4874-8633-ea7f2cf7d72d","ios":"levelo://app?vid=a1e4c6c6-2f64-4874-8633-ea7f2cf7d72d"},"vehicle_type_id":"4","last_reported":1732644820,"current_range_meters":6400,"station_id":"ce4bgv92rcd13ifvqcr0","pricing_plan_id":"cebpf4jnsgd1na2vs0mg"},{"bike_id":"a5909545-3e09-4859-9fda-9ffe4e6e4883","system_id":"levelo_inurba_marseille","lat":43.23065,"lon":5.35491,"is_reserved":false,"is_disabled":false,"rental_uris":{"android":"levelo://app?vid=a5909545-3e09-4859-9fda-9ffe4e6e4883","ios":"levelo://app?vid=a5909545-3e09-4859-9fda-9ffe4e6e4883"},"vehicle_type_id":"4","last_reported":1732644820,"current_range_meters":30400,"station_id":"cpo3342slgdg3j2ifvpg","pricing_plan_id":"cebpf4jnsgd1na2vs0mg"},{"bike_id":"1a4e0b8e-11b5-46db-a758-02665e721bae","system_id":"levelo_inurba_marseille","lat":43.27573,"lon":5.3843,"is_reserved":false,"is_disabled":false,"rental_uris":{"android":"levelo://app?vid=1a4e0b8e-11b5-46db-a758-02665e721bae","ios":"levelo://app?vid=1a4e0b8e-11b5-46db-a758-02665e721bae"},"vehicle_type_id":"4","last_reported":1732644820,"current_range_meters":16800,"station_id":"ce4bhh92rcd13ifvqfi0","pricing_plan_id":"cebpf4jnsgd1na2vs0mg"},{"bike_id":"01c8eccb-76e0-4600-81c9-daf376ab10a6","system_id":"levelo_inurba_marseille","lat":43.28156,"lon":5.42644,"is_reserved":false,"is_disabled":false,"rental_uris":{"android":"levelo://app?vid=01c8eccb-76e0-4600-81c9-daf376ab10a6","ios":"levelo://app?vid=01c8eccb-76e0-4600-81c9-daf376ab10a6"},"vehicle_type_id":"4","last_reported":1732644820,"current_range_meters":20400,"station_id":"ce4bhnh2rcd13ifvqgug","pricing_plan_id":"cebpf4jnsgd1na2vs0mg"},{"bike_id":"20c3c042-160a-4ea6-bef2-6f4a5cdfeecb","system_id":"levelo_inurba_marseille","lat":43.28768,"lon":5.36093,"is_reserved":false,"is_disabled":false,"rental_uris":{"android":"levelo://app?vid=20c3c042-160a-4ea6-bef2-6f4a5cdfeecb","ios":"levelo://app?vid=20c3c042-160a-4ea6-bef2-6f4a5cdfeecb"},"vehicle_type_id":"4","last_reported":1732644820,"current_range_meters":38000,"station_id":"cki0cbj6b192h4jlfktg","pricing_plan_id":"cebpf4jnsgd1na2vs0mg"},{"bike_id":"8f909575-15ed-40f5-ae18-0c95329b2480","system_id":"levelo_inurba_marseille","lat":43.28041,"lon":5.36939,"is_reserved":false,"is_disabled":false,"rental_uris":{"android":"levelo://app?vid=8f909575-15ed-40f5-ae18-0c95329b2480","ios":"levelo://app?vid=8f909575-15ed-40f5-ae18-0c95329b2480"},"vehicle_type_id":"4","last_reported":1732644820,"current_range_meters":29600,"station_id":"ce4bha12rcd13ifvqef0","pricing_plan_id":"cebpf4jnsgd1na2vs0mg"},{"bike_id":"7c7f0e45-440f-4445-8466-c4c8e19cafa7","system_id":"levelo_inurba_marseille","lat":43.29717,"lon":5.36607,"is_reserved":false,"is_disabled":false,"rental_uris":{"android":"levelo://app?vid=7c7f0e45-440f-4445-8466-c4c8e19cafa7","ios":"levelo://app?vid=7c7f0e45-440f-4445-8466-c4c8e19cafa7"},"vehicle_type_id":"4","last_reported":1732644820,"current_range_meters":38000,"station_id":"ce4bgn12rcd13ifvqbt0","pricing_plan_id":"cebpf4jnsgd1na2vs0mg"},{"bike_id":"e5951ee3-4a5a-4ebb-b469-096c5188dfa3","system_id":"levelo_inurba_marseille","lat":43.23211,"lon":5.35576,"is_reserved":false,"is_disabled":false,"rental_uris":{"android":"levelo://app?vid=e5951ee3-4a5a-4ebb-b469-096c5188dfa3","ios":"levelo://app?vid=e5951ee3-4a5a-4ebb-b469-096c5188dfa3"},"vehicle_type_id":"4","last_reported":1732644820,"current_range_meters":36000,"station_id":"ce4bhu92rcd13ifvqi70","pricing_plan_id":"cebpf4jnsgd1na2vs0mg"},{"bike_id":"47f06343-2ff4-4b3d-a0d5-3e01c985e9e1","system_id":"levelo_inurba_marseille","lat":43.284778,"lon":5.384164,"is_reserved":false,"is_disabled":false,"rental_uris":{"android":"levelo://app?vid=47f06343-2ff4-4b3d-a0d5-3e01c985e9e1","ios":"levelo://app?vid=47f06343-2ff4-4b3d-a0d5-3e01c985e9e1"},"vehicle_type_id":"4","last_reported":1732644820,"current_range_meters":14000,"station_id":"ce4bh512rcd13ifvqe3g","pricing_plan_id":"cebpf4jnsgd1na2vs0mg"},{"bike_id":"227d38fa-7a11-4e3e-9e75-d1d5827dc518","system_id":"levelo_inurba_marseille","lat":43.28695,"lon":5.37389,"is_reserved":false,"is_disabled":false,"rental_uris":{"android":"levelo://app?vid=227d38fa-7a11-4e3e-9e75-d1d5827dc518","ios":"levelo://app?vid=227d38fa-7a11-4e3e-9e75-d1d5827dc518"},"vehicle_type_id":"4","last_reported":1732644820,"current_range_meters":36800,"station_id":"ce4bh3p2rcd13ifvqdq0","pricing_plan_id":"cebpf4jnsgd1na2vs0mg"},{"bike_id":"8b90e280-1859-48e5-8cc1-f1521436ad0b","system_id":"levelo_inurba_marseille","lat":43.25585,"lon":5.38244,"is_reserved":false,"is_disabled":false,"rental_uris":{"android":"levelo://app?vid=8b90e280-1859-48e5-8cc1-f1521436ad0b","ios":"levelo://app?vid=8b90e280-1859-48e5-8cc1-f1521436ad0b"},"vehicle_type_id":"4","last_reported":1732644820,"current_range_meters":19600,"station_id":"ce4bhih2rcd13ifvqfs0","pricing_plan_id":"cebpf4jnsgd1na2vs0mg"},{"bike_id":"3379f44f-c07d-4ec3-b622-4c7ff9c0b74e","system_id":"levelo_inurba_marseille","lat":43.23198,"lon":5.3554,"is_reserved":false,"is_disabled":false,"rental_uris":{"android":"levelo://app?vid=3379f44f-c07d-4ec3-b622-4c7ff9c0b74e","ios":"levelo://app?vid=3379f44f-c07d-4ec3-b622-4c7ff9c0b74e"},"vehicle_type_id":"4","last_reported":1732644820,"current_range_meters":9200,"station_id":"ce4bhu92rcd13ifvqi70","pricing_plan_id":"cebpf4jnsgd1na2vs0mg"},{"bike_id":"6c948e9c-d5b3-4fe5-a918-1bd2f7c83b02","system_id":"levelo_inurba_marseille","lat":43.32117,"lon":5.36773,"is_reserved":false,"is_disabled":false,"rental_uris":{"android":"levelo://app?vid=6c948e9c-d5b3-4fe5-a918-1bd2f7c83b02","ios":"levelo://app?vid=6c948e9c-d5b3-4fe5-a918-1bd2f7c83b02"},"vehicle_type_id":"4","last_reported":1732644820,"current_range_meters":17200,"station_id":"ce4bhrh2rcd13ifvqhug","pricing_plan_id":"cebpf4jnsgd1na2vs0mg"},{"bike_id":"9e620abf-d324-4f99-84fc-d67e71109f2a","system_id":"levelo_inurba_marseille","lat":43.31077,"lon":5.42435,"is_reserved":false,"is_disabled":true,"rental_uris":{"android":"levelo://app?vid=9e620abf-d324-4f99-84fc-d67e71109f2a","ios":"levelo://app?vid=9e620abf-d324-4f99-84fc-d67e71109f2a"},"vehicle_type_id":"4","last_reported":1732644820,"current_range_meters":0,"station_id":"ce4bhp92rcd13ifvqhag","pricing_plan_id":"cebpf4jnsgd1na2vs0mg"},{"bike_id":"311c22a9-d002-4f76-a390-2ec196f39862","system_id":"levelo_inurba_marseille","lat":43.31025,"lon":5.38342,"is_reserved":false,"is_disabled":true,"rental_uris":{"android":"levelo://app?vid=311c22a9-d002-4f76-a390-2ec196f39862","ios":"levelo://app?vid=311c22a9-d002-4f76-a390-2ec196f39862"},"vehicle_type_id":"4","last_reported":1732644820,"current_range_meters":0,"station_id":"","pricing_plan_id":"cebpf4jnsgd1na2vs0mg"},{"bike_id":"047f1f9d-58af-4872-9794-3b5fe9f3ce18","system_id":"levelo_inurba_marseille","lat":43.31332,"lon":5.3969,"is_reserved":false,"is_disabled":false,"rental_uris":{"android":"levelo://app?vid=047f1f9d-58af-4872-9794-3b5fe9f3ce18","ios":"levelo://app?vid=047f1f9d-58af-4872-9794-3b5fe9f3ce18"},"vehicle_type_id":"4","last_reported":1732644820,"current_range_meters":37600,"station_id":"ce4bgvp2rcd13ifvqcu0","pricing_plan_id":"cebpf4jnsgd1na2vs0mg"},{"bike_id":"1bfa38cb-8052-438d-bdfa-1f4d34227bbb","system_id":"levelo_inurba_marseille","lat":43.29704,"lon":5.36604,"is_reserved":false,"is_disabled":false,"rental_uris":{"android":"levelo://app?vid=1bfa38cb-8052-438d-bdfa-1f4d34227bbb","ios":"levelo://app?vid=1bfa38cb-8052-438d-bdfa-1f4d34227bbb"},"vehicle_type_id":"4","last_reported":1732644820,"current_range_meters":33200,"station_id":"ce4bgn12rcd13ifvqbt0","pricing_plan_id":"cebpf4jnsgd1na2vs0mg"},{"bike_id":"fbd7abde-4928-4606-a19a-42819720b13a","system_id":"levelo_inurba_marseille","lat":43.2794,"lon":5.41045,"is_reserved":false,"is_disabled":false,"rental_uris":{"android":"levelo://app?vid=fbd7abde-4928-4606-a19a-42819720b13a","ios":"levelo://app?vid=fbd7abde-4928-4606-a19a-42819720b13a"},"vehicle_type_id":"4","last_reported":1732644820,"current_range_meters":4800,"station_id":"ce4bhnp2rcd13ifvqh0g","pricing_plan_id":"cebpf4jnsgd1na2vs0mg"},{"bike_id":"5c53cfbd-2547-413a-b79a-f8cc3b1ca992","system_id":"levelo_inurba_marseille","lat":43.321129,"lon":5.367727,"is_reserved":false,"is_disabled":false,"rental_uris":{"android":"levelo://app?vid=5c53cfbd-2547-413a-b79a-f8cc3b1ca992","ios":"levelo://app?vid=5c53cfbd-2547-413a-b79a-f8cc3b1ca992"},"vehicle_type_id":"4","last_reported":1732644820,"current_range_meters":30800,"station_id":"ce4bhrh2rcd13ifvqhug","pricing_plan_id":"cebpf4jnsgd1na2vs0mg"},{"bike_id":"a42119cb-2889-43e2-aa4f-9707a87e3e28","system_id":"levelo_inurba_marseille","lat":43.24662,"lon":5.38894,"is_reserved":false,"is_disabled":false,"rental_uris":{"android":"levelo://app?vid=a42119cb-2889-43e2-aa4f-9707a87e3e28","ios":"levelo://app?vid=a42119cb-2889-43e2-aa4f-9707a87e3e28"},"vehicle_type_id":"4","last_reported":1732644820,"current_range_meters":34000,"station_id":"ce4bhg12rcd13ifvqf60","pricing_plan_id":"cebpf4jnsgd1na2vs0mg"},{"bike_id":"ab41eea0-825b-4e8e-b96e-dcef945151f3","system_id":"levelo_inurba_marseille","lat":43.29227,"lon":5.40886,"is_reserved":false,"is_disabled":false,"rental_uris":{"android":"levelo://app?vid=ab41eea0-825b-4e8e-b96e-dcef945151f3","ios":"levelo://app?vid=ab41eea0-825b-4e8e-b96e-dcef945151f3"},"vehicle_type_id":"4","last_reported":1732644820,"current_range_meters":38400,"station_id":"ce4bh192rcd13ifvqdc0","pricing_plan_id":"cebpf4jnsgd1na2vs0mg"},{"bike_id":"e3910269-0960-41ab-9a5c-2f153c15e14c","system_id":"levelo_inurba_marseille","lat":43.2558,"lon":5.38236,"is_reserved":false,"is_disabled":true,"rental_uris":{"android":"levelo://app?vid=e3910269-0960-41ab-9a5c-2f153c15e14c","ios":"levelo://app?vid=e3910269-0960-41ab-9a5c-2f153c15e14c"},"vehicle_type_id":"4","last_reported":1732644820,"current_range_meters":0,"station_id":"ce4bhih2rcd13ifvqfs0","pricing_plan_id":"cebpf4jnsgd1na2vs0mg"},{"bike_id":"7767da52-0860-4c83-bff9-0d3ca460d38c","system_id":"levelo_inurba_marseille","lat":43.280843,"lon":5.396659,"is_reserved":false,"is_disabled":false,"rental_uris":{"android":"levelo://app?vid=7767da52-0860-4c83-bff9-0d3ca460d38c","ios":"levelo://app?vid=7767da52-0860-4c83-bff9-0d3ca460d38c"},"vehicle_type_id":"4","last_reported":1732644820,"current_range_meters":30000,"station_id":"ce4bho12rcd13ifvqh2g","pricing_plan_id":"cebpf4jnsgd1na2vs0mg"},{"bike_id":"2bd54033-a2c5-4458-b700-9cbd023ed706","system_id":"levelo_inurba_marseille","lat":43.24808,"lon":5.37455,"is_reserved":false,"is_disabled":false,"rental_uris":{"android":"levelo://app?vid=2bd54033-a2c5-4458-b700-9cbd023ed706","ios":"levelo://app?vid=2bd54033-a2c5-4458-b700-9cbd023ed706"},"vehicle_type_id":"4","last_reported":1732644820,"current_range_meters":11600,"station_id":"ce4bhgh2rcd13ifvqfb0","pricing_plan_id":"cebpf4jnsgd1na2vs0mg"},{"bike_id":"fa144a4c-96d3-4e7c-8326-1c70016beba9","system_id":"levelo_inurba_marseille","lat":43.2797,"lon":5.38742,"is_reserved":false,"is_disabled":true,"rental_uris":{"android":"levelo://app?vid=fa144a4c-96d3-4e7c-8326-1c70016beba9","ios":"levelo://app?vid=fa144a4c-96d3-4e7c-8326-1c70016beba9"},"vehicle_type_id":"4","last_reported":1732644820,"current_range_meters":400,"station_id":"ce4bhg12rcd13ifvqf80","pricing_plan_id":"cebpf4jnsgd1na2vs0mg"},{"bike_id":"276c8eac-f26f-4d52-8494-1e5f39f12889","system_id":"levelo_inurba_marseille","lat":43.25578,"lon":5.38234,"is_reserved":false,"is_disabled":true,"rental_uris":{"android":"levelo://app?vid=276c8eac-f26f-4d52-8494-1e5f39f12889","ios":"levelo://app?vid=276c8eac-f26f-4d52-8494-1e5f39f12889"},"vehicle_type_id":"4","last_reported":1732644820,"current_range_meters":0,"station_id":"ce4bhih2rcd13ifvqfs0","pricing_plan_id":"cebpf4jnsgd1na2vs0mg"},{"bike_id":"ef7028aa-55d4-45ec-be28-f7ed1ac8aa0c","system_id":"levelo_inurba_marseille","lat":43.28611,"lon":5.35105,"is_reserved":false,"is_disabled":false,"rental_uris":{"android":"levelo://app?vid=ef7028aa-55d4-45ec-be28-f7ed1ac8aa0c","ios":"levelo://app?vid=ef7028aa-55d4-45ec-be28-f7ed1ac8aa0c"},"vehicle_type_id":"4","last_reported":1732644820,"current_range_meters":18800,"station_id":"ce4bhch2rcd13ifvqeug","pricing_plan_id":"cebpf4jnsgd1na2vs0mg"},{"bike_id":"17700844-0f62-4cd3-bc5b-72a98e8e0a87","system_id":"levelo_inurba_marseille","lat":43.29742,"lon":5.3863,"is_reserved":false,"is_disabled":false,"rental_uris":{"android":"levelo://app?vid=17700844-0f62-4cd3-bc5b-72a98e8e0a87","ios":"levelo://app?vid=17700844-0f62-4cd3-bc5b-72a98e8e0a87"},"vehicle_type_id":"4","last_reported":1732644820,"current_range_meters":36800,"station_id":"","pricing_plan_id":"cebpf4jnsgd1na2vs0mg"},{"bike_id":"32b266d4-81b7-4130-81dd-23f44bf1f43d","system_id":"levelo_inurba_marseille","lat":43.26493,"lon":5.3954,"is_reserved":false,"is_disabled":false,"rental_uris":{"android":"levelo://app?vid=32b266d4-81b7-4130-81dd-23f44bf1f43d","ios":"levelo://app?vid=32b266d4-81b7-4130-81dd-23f44bf1f43d"},"vehicle_type_id":"4","last_reported":1732644820,"current_range_meters":28400,"station_id":"ce4bhi12rcd13ifvqfq0","pricing_plan_id":"cebpf4jnsgd1na2vs0mg"},{"bike_id":"43746d86-8a13-4845-9faf-ae69b548d714","system_id":"levelo_inurba_marseille","lat":43.29459,"lon":5.37917,"is_reserved":false,"is_disabled":true,"rental_uris":{"android":"levelo://app?vid=43746d86-8a13-4845-9faf-ae69b548d714","ios":"levelo://app?vid=43746d86-8a13-4845-9faf-ae69b548d714"},"vehicle_type_id":"4","last_reported":1732644820,"current_range_meters":0,"station_id":"","pricing_plan_id":"cebpf4jnsgd1na2vs0mg"},{"bike_id":"e6a98e09-efc5-4507-9fb0-a56012aa8712","system_id":"levelo_inurba_marseille","lat":43.28173,"lon":5.42636,"is_reserved":false,"is_disabled":true,"rental_uris":{"android":"levelo://app?vid=e6a98e09-efc5-4507-9fb0-a56012aa8712","ios":"levelo://app?vid=e6a98e09-efc5-4507-9fb0-a56012aa8712"},"vehicle_type_id":"4","last_reported":1732644820,"current_range_meters":0,"station_id":"ce4bhnh2rcd13ifvqgug","pricing_plan_id":"cebpf4jnsgd1na2vs0mg"},{"bike_id":"49ad9574-b0d7-498d-8456-68bdd40aec93","system_id":"levelo_inurba_marseille","lat":43.24665,"lon":5.38159,"is_reserved":false,"is_disabled":true,"rental_uris":{"android":"levelo://app?vid=49ad9574-b0d7-498d-8456-68bdd40aec93","ios":"levelo://app?vid=49ad9574-b0d7-498d-8456-68bdd40aec93"},"vehicle_type_id":"4","last_reported":1732644820,"current_range_meters":0,"station_id":"ce4bhih2rcd13ifvqfr0","pricing_plan_id":"cebpf4jnsgd1na2vs0mg"},{"bike_id":"df76b7bf-b879-4e94-9796-439ee296ef0a","system_id":"levelo_inurba_marseille","lat":43.22932,"lon":5.35379,"is_reserved":false,"is_disabled":false,"rental_uris":{"android":"levelo://app?vid=df76b7bf-b879-4e94-9796-439ee296ef0a","ios":"levelo://app?vid=df76b7bf-b879-4e94-9796-439ee296ef0a"},"vehicle_type_id":"4","last_reported":1732644820,"current_range_meters":3200,"station_id":"cpo3532slgdg3j2ikp40","pricing_plan_id":"cebpf4jnsgd1na2vs0mg"},{"bike_id":"f27c9572-3322-4dbe-9f18-e24f1001beb0","system_id":"levelo_inurba_marseille","lat":43.28437,"lon":5.39192,"is_reserved":false,"is_disabled":false,"rental_uris":{"android":"levelo://app?vid=f27c9572-3322-4dbe-9f18-e24f1001beb0","ios":"levelo://app?vid=f27c9572-3322-4dbe-9f18-e24f1001beb0"},"vehicle_type_id":"4","last_reported":1732644820,"current_range_meters":38800,"station_id":"ce4bhoh2rcd13ifvqh5g","pricing_plan_id":"cebpf4jnsgd1na2vs0mg"},{"bike_id":"f971abee-70f8-43dc-afe4-4050ccc8c3f7","system_id":"levelo_inurba_marseille","lat":43.25857,"lon":5.39897,"is_reserved":false,"is_disabled":true,"rental_uris":{"android":"levelo://app?vid=f971abee-70f8-43dc-afe4-4050ccc8c3f7","ios":"levelo://app?vid=f971abee-70f8-43dc-afe4-4050ccc8c3f7"},"vehicle_type_id":"4","last_reported":1732644820,"current_range_meters":35600,"station_id":"ce4bhl92rcd13ifvqghg","pricing_plan_id":"cebpf4jnsgd1na2vs0mg"},{"bike_id":"5fc40a1f-a84f-45c0-a359-268bbc7756c6","system_id":"levelo_inurba_marseille","lat":43.29961,"lon":5.41317,"is_reserved":false,"is_disabled":false,"rental_uris":{"android":"levelo://app?vid=5fc40a1f-a84f-45c0-a359-268bbc7756c6","ios":"levelo://app?vid=5fc40a1f-a84f-45c0-a359-268bbc7756c6"},"vehicle_type_id":"4","last_reported":1732644820,"current_range_meters":6800,"station_id":"ce4bhp12rcd13ifvqh9g","pricing_plan_id":"cebpf4jnsgd1na2vs0mg"},{"bike_id":"3faf8b2f-845f-4fd3-8bc7-04d1158d9692","system_id":"levelo_inurba_marseille","lat":43.33025,"lon":5.39048,"is_reserved":false,"is_disabled":false,"rental_uris":{"android":"levelo://app?vid=3faf8b2f-845f-4fd3-8bc7-04d1158d9692","ios":"levelo://app?vid=3faf8b2f-845f-4fd3-8bc7-04d1158d9692"},"vehicle_type_id":"4","last_reported":1732644820,"current_range_meters":27200,"station_id":"ce4bhr92rcd13ifvqhrg","pricing_plan_id":"cebpf4jnsgd1na2vs0mg"},{"bike_id":"a077a7bd-d44b-4ca0-96c1-49693516b3b4","system_id":"levelo_inurba_marseille","lat":43.33775,"lon":5.37419,"is_reserved":false,"is_disabled":false,"rental_uris":{"android":"levelo://app?vid=a077a7bd-d44b-4ca0-96c1-49693516b3b4","ios":"levelo://app?vid=a077a7bd-d44b-4ca0-96c1-49693516b3b4"},"vehicle_type_id":"4","last_reported":1732644820,"current_range_meters":38400,"station_id":"","pricing_plan_id":"cebpf4jnsgd1na2vs0mg"},{"bike_id":"925d9d68-1b01-45a4-af19-d1a58d7476b9","system_id":"levelo_inurba_marseille","lat":43.312042,"lon":5.367348,"is_reserved":false,"is_disabled":true,"rental_uris":{"android":"levelo://app?vid=925d9d68-1b01-45a4-af19-d1a58d7476b9","ios":"levelo://app?vid=925d9d68-1b01-45a4-af19-d1a58d7476b9"},"vehicle_type_id":"4","last_reported":1732644820,"current_range_meters":0,"station_id":"","pricing_plan_id":"cebpf4jnsgd1na2vs0mg"},{"bike_id":"e3a9ff25-e192-4aec-af57-758c56bd5f8b","system_id":"levelo_inurba_marseille","lat":43.26033,"lon":5.37548,"is_reserved":false,"is_disabled":false,"rental_uris":{"android":"levelo://app?vid=e3a9ff25-e192-4aec-af57-758c56bd5f8b","ios":"levelo://app?vid=e3a9ff25-e192-4aec-af57-758c56bd5f8b"},"vehicle_type_id":"4","last_reported":1732644820,"current_range_meters":24000,"station_id":"ce4bhgh2rcd13ifvqfa0","pricing_plan_id":"cebpf4jnsgd1na2vs0mg"},{"bike_id":"cf298d8c-a0c9-4883-b341-ff4459ca7832","system_id":"levelo_inurba_marseille","lat":43.22939,"lon":5.35376,"is_reserved":false,"is_disabled":false,"rental_uris":{"android":"levelo://app?vid=cf298d8c-a0c9-4883-b341-ff4459ca7832","ios":"levelo://app?vid=cf298d8c-a0c9-4883-b341-ff4459ca7832"},"vehicle_type_id":"4","last_reported":1732644820,"current_range_meters":38800,"station_id":"cpo3532slgdg3j2ikp40","pricing_plan_id":"cebpf4jnsgd1na2vs0mg"},{"bike_id":"216b389a-7609-49a8-8352-d67544cc0dc6","system_id":"levelo_inurba_marseille","lat":43.3107,"lon":5.38349,"is_reserved":false,"is_disabled":false,"rental_uris":{"android":"levelo://app?vid=216b389a-7609-49a8-8352-d67544cc0dc6","ios":"levelo://app?vid=216b389a-7609-49a8-8352-d67544cc0dc6"},"vehicle_type_id":"4","last_reported":1732644820,"current_range_meters":38800,"station_id":"ce4bgv92rcd13ifvqcr0","pricing_plan_id":"cebpf4jnsgd1na2vs0mg"},{"bike_id":"d9ef5ed5-65f4-4a4b-8dbb-274b0e908852","system_id":"levelo_inurba_marseille","lat":43.2417,"lon":5.36398,"is_reserved":false,"is_disabled":false,"rental_uris":{"android":"levelo://app?vid=d9ef5ed5-65f4-4a4b-8dbb-274b0e908852","ios":"levelo://app?vid=d9ef5ed5-65f4-4a4b-8dbb-274b0e908852"},"vehicle_type_id":"4","last_reported":1732644820,"current_range_meters":28400,"station_id":"cpo36qri1sfpv3e86is0","pricing_plan_id":"cebpf4jnsgd1na2vs0mg"},{"bike_id":"a418d79f-b00c-4c49-adb6-b991b8fccc84","system_id":"levelo_inurba_marseille","lat":43.29196,"lon":5.39324,"is_reserved":false,"is_disabled":false,"rental_uris":{"android":"levelo://app?vid=a418d79f-b00c-4c49-adb6-b991b8fccc84","ios":"levelo://app?vid=a418d79f-b00c-4c49-adb6-b991b8fccc84"},"vehicle_type_id":"4","last_reported":1732644820,"current_range_meters":32800,"station_id":"ce4bh192rcd13ifvqdd0","pricing_plan_id":"cebpf4jnsgd1na2vs0mg"},{"bike_id":"5637ffac-6061-4504-94a5-bbd993e9ac58","system_id":"levelo_inurba_marseille","lat":43.232,"lon":5.35551,"is_reserved":false,"is_disabled":false,"rental_uris":{"android":"levelo://app?vid=5637ffac-6061-4504-94a5-bbd993e9ac58","ios":"levelo://app?vid=5637ffac-6061-4504-94a5-bbd993e9ac58"},"vehicle_type_id":"4","last_reported":1732644820,"current_range_meters":22800,"station_id":"ce4bhu92rcd13ifvqi70","pricing_plan_id":"cebpf4jnsgd1na2vs0mg"},{"bike_id":"00f26827-bef1-4663-b839-a96bfbf9004b","system_id":"levelo_inurba_marseille","lat":43.29565,"lon":5.37512,"is_reserved":false,"is_disabled":false,"rental_uris":{"android":"levelo://app?vid=00f26827-bef1-4663-b839-a96bfbf9004b","ios":"levelo://app?vid=00f26827-bef1-4663-b839-a96bfbf9004b"},"vehicle_type_id":"4","last_reported":1732644820,"current_range_meters":27600,"station_id":"ce4bgh92rcd13ifvqb50","pricing_plan_id":"cebpf4jnsgd1na2vs0mg"},{"bike_id":"993e01ad-5160-4053-88c3-3ea3f6fa27dc","system_id":"levelo_inurba_marseille","lat":43.29909,"lon":5.39737,"is_reserved":false,"is_disabled":false,"rental_uris":{"android":"levelo://app?vid=993e01ad-5160-4053-88c3-3ea3f6fa27dc","ios":"levelo://app?vid=993e01ad-5160-4053-88c3-3ea3f6fa27dc"},"vehicle_type_id":"4","last_reported":1732644820,"current_range_meters":18800,"station_id":"ce4bh0h2rcd13ifvqd50","pricing_plan_id":"cebpf4jnsgd1na2vs0mg"},{"bike_id":"fd289ec5-b19e-44a5-a800-56b59c443005","system_id":"levelo_inurba_marseille","lat":43.29611,"lon":5.37733,"is_reserved":false,"is_disabled":true,"rental_uris":{"android":"levelo://app?vid=fd289ec5-b19e-44a5-a800-56b59c443005","ios":"levelo://app?vid=fd289ec5-b19e-44a5-a800-56b59c443005"},"vehicle_type_id":"4","last_reported":1732644820,"current_range_meters":0,"station_id":"ce4bgi92rcd13ifvqb90","pricing_plan_id":"cebpf4jnsgd1na2vs0mg"},{"bike_id":"bd65ef63-b11f-4434-94d0-b65a0721f25b","system_id":"levelo_inurba_marseille","lat":43.30419,"lon":5.41284,"is_reserved":false,"is_disabled":false,"rental_uris":{"android":"levelo://app?vid=bd65ef63-b11f-4434-94d0-b65a0721f25b","ios":"levelo://app?vid=bd65ef63-b11f-4434-94d0-b65a0721f25b"},"vehicle_type_id":"4","last_reported":1732644820,"current_range_meters":38800,"station_id":"ce4bhop2rcd13ifvqh8g","pricing_plan_id":"cebpf4jnsgd1na2vs0mg"},{"bike_id":"3a19d45d-a757-417c-b54e-92314bcfae61","system_id":"levelo_inurba_marseille","lat":43.26948,"lon":5.38628,"is_reserved":false,"is_disabled":true,"rental_uris":{"android":"levelo://app?vid=3a19d45d-a757-417c-b54e-92314bcfae61","ios":"levelo://app?vid=3a19d45d-a757-417c-b54e-92314bcfae61"},"vehicle_type_id":"4","last_reported":1732644820,"current_range_meters":0,"station_id":"ce4bhh92rcd13ifvqfh0","pricing_plan_id":"cebpf4jnsgd1na2vs0mg"},{"bike_id":"75307887-00fc-43a9-af8b-6a034b645f94","system_id":"levelo_inurba_marseille","lat":43.26838,"lon":5.39354,"is_reserved":false,"is_disabled":true,"rental_uris":{"android":"levelo://app?vid=75307887-00fc-43a9-af8b-6a034b645f94","ios":"levelo://app?vid=75307887-00fc-43a9-af8b-6a034b645f94"},"vehicle_type_id":"4","last_reported":1732644820,"current_range_meters":0,"station_id":"","pricing_plan_id":"cebpf4jnsgd1na2vs0mg"},{"bike_id":"a727025e-fb2d-443f-be68-40f32583c97c","system_id":"levelo_inurba_marseille","lat":43.30886,"lon":5.39656,"is_reserved":false,"is_disabled":false,"rental_uris":{"android":"levelo://app?vid=a727025e-fb2d-443f-be68-40f32583c97c","ios":"levelo://app?vid=a727025e-fb2d-443f-be68-40f32583c97c"},"vehicle_type_id":"4","last_reported":1732644820,"current_range_meters":9200,"station_id":"ce4bh012rcd13ifvqcv0","pricing_plan_id":"cebpf4jnsgd1na2vs0mg"},{"bike_id":"32090a29-bcaf-4cf4-8aa4-1c09c299ce8e","system_id":"levelo_inurba_marseille","lat":43.25497,"lon":5.37644,"is_reserved":false,"is_disabled":false,"rental_uris":{"android":"levelo://app?vid=32090a29-bcaf-4cf4-8aa4-1c09c299ce8e","ios":"levelo://app?vid=32090a29-bcaf-4cf4-8aa4-1c09c299ce8e"},"vehicle_type_id":"4","last_reported":1732644820,"current_range_meters":20400,"station_id":"ce4bhh12rcd13ifvqff0","pricing_plan_id":"cebpf4jnsgd1na2vs0mg"},{"bike_id":"dbcd1629-2994-41e2-a86f-23208f8f804a","system_id":"levelo_inurba_marseille","lat":43.29561,"lon":5.42308,"is_reserved":false,"is_disabled":false,"rental_uris":{"android":"levelo://app?vid=dbcd1629-2994-41e2-a86f-23208f8f804a","ios":"levelo://app?vid=dbcd1629-2994-41e2-a86f-23208f8f804a"},"vehicle_type_id":"4","last_reported":1732644820,"current_range_meters":38800,"station_id":"ce4bhph2rcd13ifvqhdg","pricing_plan_id":"cebpf4jnsgd1na2vs0mg"},{"bike_id":"4b80e946-7082-4018-b718-65d49958e568","system_id":"levelo_inurba_marseille","lat":43.26567,"lon":5.39008,"is_reserved":false,"is_disabled":false,"rental_uris":{"android":"levelo://app?vid=4b80e946-7082-4018-b718-65d49958e568","ios":"levelo://app?vid=4b80e946-7082-4018-b718-65d49958e568"},"vehicle_type_id":"4","last_reported":1732644820,"current_range_meters":27600,"station_id":"ce4bhe12rcd13ifvqf30","pricing_plan_id":"cebpf4jnsgd1na2vs0mg"},{"bike_id":"dd771d3c-1bff-451c-9d0a-985d99bb56af","system_id":"levelo_inurba_marseille","lat":43.29587,"lon":5.36996,"is_reserved":false,"is_disabled":false,"rental_uris":{"android":"levelo://app?vid=dd771d3c-1bff-451c-9d0a-985d99bb56af","ios":"levelo://app?vid=dd771d3c-1bff-451c-9d0a-985d99bb56af"},"vehicle_type_id":"4","last_reported":1732644820,"current_range_meters":10000,"station_id":"","pricing_plan_id":"cebpf4jnsgd1na2vs0mg"},{"bike_id":"c3119d11-ef1f-44cf-b2d7-09e415adb754","system_id":"levelo_inurba_marseille","lat":43.28572,"lon":5.39497,"is_reserved":false,"is_disabled":false,"rental_uris":{"android":"levelo://app?vid=c3119d11-ef1f-44cf-b2d7-09e415adb754","ios":"levelo://app?vid=c3119d11-ef1f-44cf-b2d7-09e415adb754"},"vehicle_type_id":"4","last_reported":1732644820,"current_range_meters":36800,"station_id":"ce4bh292rcd13ifvqdg0","pricing_plan_id":"cebpf4jnsgd1na2vs0mg"},{"bike_id":"d51e7c27-01a2-4b89-a037-e0b09ebe0ab5","system_id":"levelo_inurba_marseille","lat":43.30048,"lon":5.39996,"is_reserved":false,"is_disabled":true,"rental_uris":{"android":"levelo://app?vid=d51e7c27-01a2-4b89-a037-e0b09ebe0ab5","ios":"levelo://app?vid=d51e7c27-01a2-4b89-a037-e0b09ebe0ab5"},"vehicle_type_id":"4","last_reported":1732644820,"current_range_meters":8800,"station_id":"","pricing_plan_id":"cebpf4jnsgd1na2vs0mg"},{"bike_id":"5b739bbe-6641-42b7-8cd0-17d6fe1b99d1","system_id":"levelo_inurba_marseille","lat":43.2649,"lon":5.39553,"is_reserved":false,"is_disabled":true,"rental_uris":{"android":"levelo://app?vid=5b739bbe-6641-42b7-8cd0-17d6fe1b99d1","ios":"levelo://app?vid=5b739bbe-6641-42b7-8cd0-17d6fe1b99d1"},"vehicle_type_id":"4","last_reported":1732644820,"current_range_meters":0,"station_id":"ce4bhi12rcd13ifvqfq0","pricing_plan_id":"cebpf4jnsgd1na2vs0mg"},{"bike_id":"38146f1a-c319-4fc4-9d3a-9b7faa52a09f","system_id":"levelo_inurba_marseille","lat":43.24665,"lon":5.38169,"is_reserved":false,"is_disabled":false,"rental_uris":{"android":"levelo://app?vid=38146f1a-c319-4fc4-9d3a-9b7faa52a09f","ios":"levelo://app?vid=38146f1a-c319-4fc4-9d3a-9b7faa52a09f"},"vehicle_type_id":"4","last_reported":1732644820,"current_range_meters":38400,"station_id":"ce4bhih2rcd13ifvqfr0","pricing_plan_id":"cebpf4jnsgd1na2vs0mg"},{"bike_id":"7e04bb67-c24d-44da-93e9-2e0567bf10fa","system_id":"levelo_inurba_marseille","lat":43.23152,"lon":5.43713,"is_reserved":false,"is_disabled":true,"rental_uris":{"android":"levelo://app?vid=7e04bb67-c24d-44da-93e9-2e0567bf10fa","ios":"levelo://app?vid=7e04bb67-c24d-44da-93e9-2e0567bf10fa"},"vehicle_type_id":"4","last_reported":1732644820,"current_range_meters":0,"station_id":"ce4bhmp2rcd13ifvqgog","pricing_plan_id":"cebpf4jnsgd1na2vs0mg"},{"bike_id":"33ceb568-943a-49f6-b687-a2063caed5bf","system_id":"levelo_inurba_marseille","lat":43.26806,"lon":5.40263,"is_reserved":false,"is_disabled":true,"rental_uris":{"android":"levelo://app?vid=33ceb568-943a-49f6-b687-a2063caed5bf","ios":"levelo://app?vid=33ceb568-943a-49f6-b687-a2063caed5bf"},"vehicle_type_id":"4","last_reported":1732644820,"current_range_meters":400,"station_id":"ce501612rcd8frsf0b60","pricing_plan_id":"cebpf4jnsgd1na2vs0mg"},{"bike_id":"9c12725d-0708-4c65-9a3e-d5febdd2edb9","system_id":"levelo_inurba_marseille","lat":43.28463,"lon":5.35885,"is_reserved":false,"is_disabled":true,"rental_uris":{"android":"levelo://app?vid=9c12725d-0708-4c65-9a3e-d5febdd2edb9","ios":"levelo://app?vid=9c12725d-0708-4c65-9a3e-d5febdd2edb9"},"vehicle_type_id":"4","last_reported":1732644820,"current_range_meters":0,"station_id":"ce4bhah2rcd13ifvqei0","pricing_plan_id":"cebpf4jnsgd1na2vs0mg"},{"bike_id":"140968d2-92ab-40d6-8011-c4a2c2ae9637","system_id":"levelo_inurba_marseille","lat":43.2861,"lon":5.35096,"is_reserved":false,"is_disabled":false,"rental_uris":{"android":"levelo://app?vid=140968d2-92ab-40d6-8011-c4a2c2ae9637","ios":"levelo://app?vid=140968d2-92ab-40d6-8011-c4a2c2ae9637"},"vehicle_type_id":"4","last_reported":1732644820,"current_range_meters":14400,"station_id":"ce4bhch2rcd13ifvqeug","pricing_plan_id":"cebpf4jnsgd1na2vs0mg"},{"bike_id":"e4395f26-4c0b-4bec-b10e-ec01132237c1","system_id":"levelo_inurba_marseille","lat":43.27171,"lon":5.410007,"is_reserved":false,"is_disabled":true,"rental_uris":{"android":"levelo://app?vid=e4395f26-4c0b-4bec-b10e-ec01132237c1","ios":"levelo://app?vid=e4395f26-4c0b-4bec-b10e-ec01132237c1"},"vehicle_type_id":"4","last_reported":1732644820,"current_range_meters":0,"station_id":"ce4bhl12rcd13ifvqgf0","pricing_plan_id":"cebpf4jnsgd1na2vs0mg"},{"bike_id":"9957db75-618f-4fa8-9bb6-4dbc799dce9a","system_id":"levelo_inurba_marseille","lat":43.29551,"lon":5.37514,"is_reserved":false,"is_disabled":true,"rental_uris":{"android":"levelo://app?vid=9957db75-618f-4fa8-9bb6-4dbc799dce9a","ios":"levelo://app?vid=9957db75-618f-4fa8-9bb6-4dbc799dce9a"},"vehicle_type_id":"4","last_reported":1732644820,"current_range_meters":15200,"station_id":"ce4bgkp2rcd13ifvqbmg","pricing_plan_id":"cebpf4jnsgd1na2vs0mg"},{"bike_id":"68d82bfa-6702-4f36-8cd2-8c5affef1d45","system_id":"levelo_inurba_marseille","lat":43.308,"lon":5.4352,"is_reserved":false,"is_disabled":false,"rental_uris":{"android":"levelo://app?vid=68d82bfa-6702-4f36-8cd2-8c5affef1d45","ios":"levelo://app?vid=68d82bfa-6702-4f36-8cd2-8c5affef1d45"},"vehicle_type_id":"4","last_reported":1732644820,"current_range_meters":12400,"station_id":"ce4bhph2rcd13ifvqheg","pricing_plan_id":"cebpf4jnsgd1na2vs0mg"},{"bike_id":"63eaf67d-9cc2-4fea-9df3-e96126502a0e","system_id":"levelo_inurba_marseille","lat":43.28997,"lon":5.37863,"is_reserved":false,"is_disabled":true,"rental_uris":{"android":"levelo://app?vid=63eaf67d-9cc2-4fea-9df3-e96126502a0e","ios":"levelo://app?vid=63eaf67d-9cc2-4fea-9df3-e96126502a0e"},"vehicle_type_id":"4","last_reported":1732644820,"current_range_meters":9200,"station_id":"ce4bh9p2rcd13ifvqed0","pricing_plan_id":"cebpf4jnsgd1na2vs0mg"},{"bike_id":"4e3246e1-9378-49a9-a63c-3027d7dac861","system_id":"levelo_inurba_marseille","lat":43.30574,"lon":5.36724,"is_reserved":false,"is_disabled":false,"rental_uris":{"android":"levelo://app?vid=4e3246e1-9378-49a9-a63c-3027d7dac861","ios":"levelo://app?vid=4e3246e1-9378-49a9-a63c-3027d7dac861"},"vehicle_type_id":"4","last_reported":1732644820,"current_range_meters":38800,"station_id":"ce4bgrp2rcd13ifvqc9g","pricing_plan_id":"cebpf4jnsgd1na2vs0mg"},{"bike_id":"5c870dbc-d2b1-440b-9dfc-b854c863c5e1","system_id":"levelo_inurba_marseille","lat":43.31329,"lon":5.39688,"is_reserved":false,"is_disabled":false,"rental_uris":{"android":"levelo://app?vid=5c870dbc-d2b1-440b-9dfc-b854c863c5e1","ios":"levelo://app?vid=5c870dbc-d2b1-440b-9dfc-b854c863c5e1"},"vehicle_type_id":"4","last_reported":1732644820,"current_range_meters":16000,"station_id":"ce4bgvp2rcd13ifvqcu0","pricing_plan_id":"cebpf4jnsgd1na2vs0mg"},{"bike_id":"702395d4-0b8b-47e2-a5eb-d572b97e4035","system_id":"levelo_inurba_marseille","lat":43.26942,"lon":5.40243,"is_reserved":false,"is_disabled":false,"rental_uris":{"android":"levelo://app?vid=702395d4-0b8b-47e2-a5eb-d572b97e4035","ios":"levelo://app?vid=702395d4-0b8b-47e2-a5eb-d572b97e4035"},"vehicle_type_id":"4","last_reported":1732644820,"current_range_meters":16000,"station_id":"cjm6bp8fraef2m0cb0m0","pricing_plan_id":"cebpf4jnsgd1na2vs0mg"},{"bike_id":"3629a32f-a709-4a11-9106-5e7f0ff28e81","system_id":"levelo_inurba_marseille","lat":43.27035,"lon":5.4068,"is_reserved":false,"is_disabled":true,"rental_uris":{"android":"levelo://app?vid=3629a32f-a709-4a11-9106-5e7f0ff28e81","ios":"levelo://app?vid=3629a32f-a709-4a11-9106-5e7f0ff28e81"},"vehicle_type_id":"4","last_reported":1732644820,"current_range_meters":0,"station_id":"","pricing_plan_id":"cebpf4jnsgd1na2vs0mg"},{"bike_id":"c4c318a3-7419-4ddb-b0b8-913693be814b","system_id":"levelo_inurba_marseille","lat":43.26988,"lon":5.39969,"is_reserved":false,"is_disabled":false,"rental_uris":{"android":"levelo://app?vid=c4c318a3-7419-4ddb-b0b8-913693be814b","ios":"levelo://app?vid=c4c318a3-7419-4ddb-b0b8-913693be814b"},"vehicle_type_id":"4","last_reported":1732644820,"current_range_meters":6400,"station_id":"","pricing_plan_id":"cebpf4jnsgd1na2vs0mg"},{"bike_id":"c0883493-3201-4ffb-8798-2041e2052b82","system_id":"levelo_inurba_marseille","lat":43.26573,"lon":5.39009,"is_reserved":false,"is_disabled":false,"rental_uris":{"android":"levelo://app?vid=c0883493-3201-4ffb-8798-2041e2052b82","ios":"levelo://app?vid=c0883493-3201-4ffb-8798-2041e2052b82"},"vehicle_type_id":"4","last_reported":1732644820,"current_range_meters":10800,"station_id":"ce4bhe12rcd13ifvqf30","pricing_plan_id":"cebpf4jnsgd1na2vs0mg"},{"bike_id":"cdd4f8d9-bd5a-4896-97ae-a7584cd5a3d9","system_id":"levelo_inurba_marseille","lat":43.33027,"lon":5.39044,"is_reserved":false,"is_disabled":false,"rental_uris":{"android":"levelo://app?vid=cdd4f8d9-bd5a-4896-97ae-a7584cd5a3d9","ios":"levelo://app?vid=cdd4f8d9-bd5a-4896-97ae-a7584cd5a3d9"},"vehicle_type_id":"4","last_reported":1732644820,"current_range_meters":39200,"station_id":"ce4bhr92rcd13ifvqhrg","pricing_plan_id":"cebpf4jnsgd1na2vs0mg"},{"bike_id":"a22f24be-f907-44ae-b102-ce822e19d19d","system_id":"levelo_inurba_marseille","lat":43.25883,"lon":5.3989,"is_reserved":false,"is_disabled":false,"rental_uris":{"android":"levelo://app?vid=a22f24be-f907-44ae-b102-ce822e19d19d","ios":"levelo://app?vid=a22f24be-f907-44ae-b102-ce822e19d19d"},"vehicle_type_id":"4","last_reported":1732644820,"current_range_meters":28800,"station_id":"ce4bhl92rcd13ifvqghg","pricing_plan_id":"cebpf4jnsgd1na2vs0mg"},{"bike_id":"76a33952-48e1-4079-bb57-1aa496a3a8c4","system_id":"levelo_inurba_marseille","lat":43.29304,"lon":5.37177,"is_reserved":false,"is_disabled":true,"rental_uris":{"android":"levelo://app?vid=76a33952-48e1-4079-bb57-1aa496a3a8c4","ios":"levelo://app?vid=76a33952-48e1-4079-bb57-1aa496a3a8c4"},"vehicle_type_id":"4","last_reported":1732644820,"current_range_meters":1200,"station_id":"ce4bgh92rcd13ifvqb40","pricing_plan_id":"cebpf4jnsgd1na2vs0mg"},{"bike_id":"b892620d-f196-4287-a88f-710cb11caf6c","system_id":"levelo_inurba_marseille","lat":43.31711,"lon":5.43706,"is_reserved":false,"is_disabled":false,"rental_uris":{"android":"levelo://app?vid=b892620d-f196-4287-a88f-710cb11caf6c","ios":"levelo://app?vid=b892620d-f196-4287-a88f-710cb11caf6c"},"vehicle_type_id":"4","last_reported":1732644820,"current_range_meters":23200,"station_id":"ce4bhp92rcd13ifvqhcg","pricing_plan_id":"cebpf4jnsgd1na2vs0mg"},{"bike_id":"dc4c4e1a-2436-4bc7-81fd-70222ebce8a8","system_id":"levelo_inurba_marseille","lat":43.311785,"lon":5.387223,"is_reserved":false,"is_disabled":true,"rental_uris":{"android":"levelo://app?vid=dc4c4e1a-2436-4bc7-81fd-70222ebce8a8","ios":"levelo://app?vid=dc4c4e1a-2436-4bc7-81fd-70222ebce8a8"},"vehicle_type_id":"4","last_reported":1732644820,"current_range_meters":30400,"station_id":"ce4bgv12rcd13ifvqcp0","pricing_plan_id":"cebpf4jnsgd1na2vs0mg"},