{"last_updated":1733836882,"ttl":60,"version":"2.2","data":{"bikes":[{"bike_id":"cc832c36-3383-49a4-b52c-5913dffcd510","system_id":"levelo_inurba_marseille","lat":43.30559,"lon":5.36683,"is_reserved":false,"is_disabled":false,"rental_uris":{"android":"levelo://app?vid=cc832c36-3383-49a4-b52c-5913dffcd510","ios":"levelo://app?vid=cc832c36-3383-49a4-b52c-5913dffcd510"},"vehicle_type_id":"4","last_reported":1733836883,"current_range_meters":38800,"station_id":"ce4bgrp2rcd13ifvqc9g","pricing_plan_id":"cebpf4jnsgd1na2vs0mg"},{"bike_id":"3bae985c-4ec3-4449-8ab5-671c37ae0791","system_id":"levelo_inurba_marseille","lat":43.23154,"lon":5.43706,"is_reserved":false,"is_disabled":false,"rental_uris":{"android":"levelo://app?vid=3bae985c-4ec3-4449-8ab5-671c37ae0791","ios":"levelo://app?vid=3bae985c-4ec3-4449-8ab5-671c37ae0791"},"vehicle_type_id":"4","last_reported":1733836883,"current_range_meters":39200,"station_id":"ce4bhmp2rcd13ifvqgog","pricing_plan_id":"cebpf4jnsgd1na2vs0mg"},{"bike_id":"9e840671-2878-4845-b8fb-114afd1f4bc9","system_id":"levelo_inurba_marseille","lat":43.26686,"lon":5.38274,"is_reserved":false,"is_disabled":true,"rental_uris":{"android":"levelo://app?vid=9e840671-2878-4845-b8fb-114afd1f4bc9","ios":"levelo://app?vid=9e840671-2878-4845-b8fb-114afd1f4bc9"},"vehicle_type_id":"4","last_reported":1733836883,"current_range_meters":1600,"station_id":"ce4bhg92rcd13ifvqf90","pricing_plan_id":"cebpf4jnsgd1na2vs0mg"},{"bike_id":"394315b9-0931-485c-a5af-347e05251cbc","system_id":"levelo_inurba_marseille","lat":43.26954,"lon":5.38637,"is_reserved":false,"is_disabled":false,"rental_uris":{"android":"levelo://app?vid=394315b9-0931-485c-a5af-347e05251cbc","ios":"levelo://app?vid=394315b9-0931-485c-a5af-347e05251cbc"},"vehicle_type_id":"4","last_reported":1733836883,"current_range_meters":28000,"station_id":"ce4bhh92rcd13ifvqfh0","pricing_plan_id":"cebpf4jnsgd1na2vs0mg"},{"bike_id":"8e029eaf-e104-4c5d-858d-6cd39de73d09","system_id":"levelo_inurba_marseille","lat":43.241643,"lon":5.363917,"is_reserved":false,"is_disabled":false,"rental_uris":{"android":"levelo://app?vid=8e029eaf-e104-4c5d-858d-6cd39de73d09","ios":"levelo://app?vid=8e029eaf-e104-4c5d-858d-6cd39de73d09"},"vehicle_type_id":"4","last_reported":1733836883,"current_range_meters":16800,"station_id":"cpo36qri1sfpv3e86is0","pricing_plan_id":"cebpf4jnsgd1na2vs0mg"},{"bike_id":"9fd0ac7c-0144-46a0-b1b2-f558ffbf21a2","system_id":"levelo_inurba_marseille","lat":43.25,"lon":5.38931,"is_reserved":false,"is_disabled":false,"rental_uris":{"android":"levelo://app?vid=9fd0ac7c-0144-46a0-b1b2-f558ffbf21a2","ios":"levelo://app?vid=9fd0ac7c-0144-46a0-b1b2-f558ffbf21a2"},"vehicle_type_id":"4","last_reported":1733836883,"current_range_meters":33600,"station_id":"ce4bhgp2rcd13ifvqfd0","pricing_plan_id":"cebpf4jnsgd1na2vs0mg"},{"bike_id":"9c4df75c-1ede-4918-9948-a643626f5a02","system_id":"levelo_inurba_marseille","lat":43.29636,"lon":5.37157,"is_reserved":false,"is_disabled":false,"rental_uris":{"android":"levelo://app?vid=9c4df75c-1ede-4918-9948-a643626f5a02","ios":"levelo://app?vid=9c4df75c-1ede-4918-9948-a643626f5a02"},"vehicle_type_id":"4","last_reported":1733836883,"current_range_meters":37600,"station_id":"ce4bgnh2rcd13ifvqc0g","pricing_plan_id":"cebpf4jnsgd1na2vs0mg"},{"bike_id":"a96d3b61-d984-448a-b8b9-fc5bdd370117","system_id":"levelo_inurba_marseille","lat":43.26569,"lon":5.39009,"is_reserved":false,"is_disabled":false,"rental_uris":{"android":"levelo://app?vid=a96d3b61-d984-448a-b8b9-fc5bdd370117","ios":"levelo://app?vid=a96d3b61-d984-448a-b8b9-fc5bdd370117"},"vehicle_type_id":"4","last_reported":1733836883,"current_range_meters":8000,"station_id":"ce4bhe12rcd13ifvqf30","pricing_plan_id":"cebpf4jnsgd1na2vs0mg"},{"bike_id":"014914cf-eb98-4b5d-8cd3-12a67a219c23","system_id":"levelo_inurba_marseille","lat":43.33611,"lon":5.41026,"is_reserved":false,"is_disabled":true,"rental_uris":{"android":"levelo://app?vid=014914cf-eb98-4b5d-8cd3-12a67a219c23","ios":"levelo://app?vid=014914cf-eb98-4b5d-8cd3-12a67a219c23"},"vehicle_type_id":"4","last_reported":1733836883,"current_range_meters":38000,"station_id":"ce4bhqh2rcd13ifvqhmg","pricing_plan_id":"cebpf4jnsgd1na2vs0mg"},{"bike_id":"bbfe7042-3668-421a-b9b3-1a1c7c7a355e","system_id":"levelo_inurba_marseille","lat":43.28713,"lon":5.37934,"is_reserved":false,"is_disabled":false,"rental_uris":{"android":"levelo://app?vid=bbfe7042-3668-421a-b9b3-1a1c7c7a355e","ios":"levelo://app?vid=bbfe7042-3668-421a-b9b3-1a1c7c7a355e"},"vehicle_type_id":"4","last_reported":1733836883,"current_range_meters":8400,"station_id":"ce4bh9p2rcd13ifvqec0","pricing_plan_id":"cebpf4jnsgd1na2vs0mg"},{"bike_id":"7fff9771-3f81-43d3-8af7-e2131837efb8","system_id":"levelo_inurba_marseille","lat":43.29616,"lon":5.37729,"is_reserved":false,"is_disabled":true,"rental_uris":{"android":"levelo://app?vid=7fff9771-3f81-43d3-8af7-e2131837efb8","ios":"levelo://app?vid=7fff9771-3f81-43d3-8af7-e2131837efb8"},"vehicle_type_id":"4","last_reported":1733836883,"current_range_meters":0,"station_id":"ce4bgi92rcd13ifvqb90","pricing_plan_id":"cebpf4jnsgd1na2vs0mg"},{"bike_id":"8bd642b2-0279-44c7-9ee2-fc3b57332c83","system_id":"levelo_inurba_marseille","lat":43.27455,"lon":5.40073,"is_reserved":false,"is_disabled":true,"rental_uris":{"android":"levelo://app?vid=8bd642b2-0279-44c7-9ee2-fc3b57332c83","ios":"levelo://app?vid=8bd642b2-0279-44c7-9ee2-fc3b57332c83"},"vehicle_type_id":"4","last_reported":1733836883,"current_range_meters":0,"station_id":"","pricing_plan_id":"cebpf4jnsgd1na2vs0mg"},{"bike_id":"59b0b34c-6f92-4349-9ebf-bf641fd76061","system_id":"levelo_inurba_marseille","lat":43.27066,"lon":5.42281,"is_reserved":false,"is_disabled":true,"rental_uris":{"android":"levelo://app?vid=59b0b34c-6f92-4349-9ebf-bf641fd76061","ios":"levelo://app?vid=59b0b34c-6f92-4349-9ebf-bf641fd76061"},"vehicle_type_id":"4","last_reported":1733836883,"current_range_meters":31200,"station_id":"ce4bhk92rcd13ifvqgb0","pricing_plan_id":"cebpf4jnsgd1na2vs0mg"},{"bike_id":"1daaf570-94ab-4915-b18f-ae2ea09b7933","system_id":"levelo_inurba_marseille","lat":43.27495,"lon":5.4245,"is_reserved":false,"is_disabled":false,"rental_uris":{"android":"levelo://app?vid=1daaf570-94ab-4915-b18f-ae2ea09b7933","ios":"levelo://app?vid=1daaf570-94ab-4915-b18f-ae2ea09b7933"},"vehicle_type_id":"4","last_reported":1733836883,"current_range_meters":16400,"station_id":"ce4bhn92rcd13ifvqgrg","pricing_plan_id":"cebpf4jnsgd1na2vs0mg"},{"bike_id":"f09914a1-032a-4233-965f-c73f49a269ba","system_id":"levelo_inurba_marseille","lat":43.337444,"lon":5.374475,"is_reserved":false,"is_disabled":true,"rental_uris":{"android":"levelo://app?vid=f09914a1-032a-4233-965f-c73f49a269ba","ios":"levelo://app?vid=f09914a1-032a-4233-965f-c73f49a269ba"},"vehicle_type_id":"4","last_reported":1733836883,"current_range_meters":0,"station_id":"","pricing_plan_id":"cebpf4jnsgd1na2vs0mg"},{"bike_id":"76525433-6ea2-4692-9f86-be767bddfa70","system_id":"levelo_inurba_marseille","lat":43.29363,"lon":5.37849,"is_reserved":false,"is_disabled":false,"rental_uris":{"android":"levelo://app?vid=76525433-6ea2-4692-9f86-be767bddfa70","ios":"levelo://app?vid=76525433-6ea2-4692-9f86-be767bddfa70"},"vehicle_type_id":"4","last_reported":1733836883,"current_range_meters":38800,"station_id":"ce4bgjh2rcd13ifvqbf0","pricing_plan_id":"cebpf4jnsgd1na2vs0mg"},{"bike_id":"1c7f3745-3640-4246-8c6e-6909d31b63ca","system_id":"levelo_inurba_marseille","lat":43.29705,"lon":5.36617,"is_reserved":false,"is_disabled":false,"rental_uris":{"android":"levelo://app?vid=1c7f3745-3640-4246-8c6e-6909d31b63ca","ios":"levelo://app?vid=1c7f3745-3640-4246-8c6e-6909d31b63ca"},"vehicle_type_id":"4","last_reported":1733836883,"current_range_meters":30000,"station_id":"ce4bgn12rcd13ifvqbt0","pricing_plan_id":"cebpf4jnsgd1na2vs0mg"},{"bike_id":"f6ceca24-19af-4ed8-b20b-dad7699688ae","system_id":"levelo_inurba_marseille","lat":43.32479,"lon":5.36574,"is_reserved":false,"is_disabled":true,"rental_uris":{"android":"levelo://app?vid=f6ceca24-19af-4ed8-b20b-dad7699688ae","ios":"levelo://app?vid=f6ceca24-19af-4ed8-b20b-dad7699688ae"},"vehicle_type_id":"4","last_reported":1733836883,"current_range_meters":24000,"station_id":"ce4bhs12rcd13ifvqhvg","pricing_plan_id":"cebpf4jnsgd1na2vs0mg"},{"bike_id":"587ca0bf-d6ab-4a58-b723-ecebc1988841","system_id":"levelo_inurba_marseille","lat":43.24387,"lon":5.37064,"is_reserved":false,"is_disabled":true,"rental_uris":{"android":"levelo://app?vid=587ca0bf-d6ab-4a58-b723-ecebc1988841","ios":"levelo://app?vid=587ca0bf-d6ab-4a58-b723-ecebc1988841"},"vehicle_type_id":"4","last_reported":1733836883,"current_range_meters":6400,"station_id":"ce4bhhh2rcd13ifvqfk0","pricing_plan_id":"cebpf4jnsgd1na2vs0mg"},{"bike_id":"db94f93e-1a6d-4830-8de3-e394317acd3b","system_id":"levelo_inurba_marseille","lat":43.32472,"lon":5.365616,"is_reserved":false,"is_disabled":false,"rental_uris":{"android":"levelo://app?vid=db94f93e-1a6d-4830-8de3-e394317acd3b","ios":"levelo://app?vid=db94f93e-1a6d-4830-8de3-e394317acd3b"},"vehicle_type_id":"4","last_reported":1733836883,"current_range_meters":8400,"station_id":"ce4bhs12rcd13ifvqhvg","pricing_plan_id":"cebpf4jnsgd1na2vs0mg"},{"bike_id":"5373c92d-953c-423c-96cc-dc3b9e339c0a","system_id":"levelo_inurba_marseille","lat":43.28948,"lon":5.36391,"is_reserved":false,"is_disabled":true,"rental_uris":{"android":"levelo://app?vid=5373c92d-953c-423c-96cc-dc3b9e339c0a","ios":"levelo://app?vid=5373c92d-953c-423c-96cc-dc3b9e339c0a"},"vehicle_type_id":"4","last_reported":1733836883,"current_range_meters":800,"station_id":"ce4bhc92rcd13ifvqetg","pricing_plan_id":"cebpf4jnsgd1na2vs0mg"},{"bike_id":"246772a6-1674-44fa-a8c9-19045dcaf8f6","system_id":"levelo_inurba_marseille","lat":43.2835,"lon":5.38115,"is_reserved":false,"is_disabled":false,"rental_uris":{"android":"levelo://app?vid=246772a6-1674-44fa-a8c9-19045dcaf8f6","ios":"levelo://app?vid=246772a6-1674-44fa-a8c9-19045dcaf8f6"},"vehicle_type_id":"4","last_reported":1733836883,"current_range_meters":20000,"station_id":"ce4bh412rcd13ifvqdr0","pricing_plan_id":"cebpf4jnsgd1na2vs0mg"},{"bike_id":"4623dcd7-40d3-471f-b9ac-75c58fba4eab","system_id":"levelo_inurba_marseille","lat":43.28477,"lon":5.38543,"is_reserved":false,"is_disabled":false,"rental_uris":{"android":"levelo://app?vid=4623dcd7-40d3-471f-b9ac-75c58fba4eab","ios":"levelo://app?vid=4623dcd7-40d3-471f-b9ac-75c58fba4eab"},"vehicle_type_id":"4","last_reported":1733836883,"current_range_meters":20000,"station_id":"ce4bh8p2rcd13ifvqeb0","pricing_plan_id":"cebpf4jnsgd1na2vs0mg"},{"bike_id":"2fccdf54-e9c1-4f98-adf1-355d522cf6c8","system_id":"levelo_inurba_marseille","lat":43.29578,"lon":5.37516,"is_reserved":false,"is_disabled":false,"rental_uris":{"android":"levelo://app?vid=2fccdf54-e9c1-4f98-adf1-355d522cf6c8","ios":"levelo://app?vid=2fccdf54-e9c1-4f98-adf1-355d522cf6c8"},"vehicle_type_id":"4","last_reported":1733836883,"current_range_meters":20800,"station_id":"ce4bgh92rcd13ifvqb50","pricing_plan_id":"cebpf4jnsgd1na2vs0mg"},{"bike_id":"efade87d-4026-47f1-bb30-677c0acfd72a","system_id":"levelo_inurba_marseille","lat":43.29028,"lon":5.3863,"is_reserved":false,"is_disabled":false,"rental_uris":{"android":"levelo://app?vid=efade87d-4026-47f1-bb30-677c0acfd72a","ios":"levelo://app?vid=efade87d-4026-47f1-bb30-677c0acfd72a"},"vehicle_type_id":"4","last_reported":1733836883,"current_range_meters":39200,"station_id":"ce4bh4p2rcd13ifvqe0g","pricing_plan_id":"cebpf4jnsgd1na2vs0mg"},{"bike_id":"9798a14a-cd61-47ed-aaf1-b8c85e3fdb91","system_id":"levelo_inurba_marseille","lat":43.28943,"lon":5.36635,"is_reserved":false,"is_disabled":false,"rental_uris":{"android":"levelo://app?vid=9798a14a-cd61-47ed-aaf1-b8c85e3fdb91","ios":"levelo://app?vid=9798a14a-cd61-47ed-aaf1-b8c85e3fdb91"},"vehicle_type_id":"4","last_reported":1733836883,"current_range_meters":4400,"station_id":"ce4bhap2rcd13ifvqek0","pricing_plan_id":"cebpf4jnsgd1na2vs0mg"},{"bike_id":"75701b26-361c-41a5-86cc-cb78b6f05388","system_id":"levelo_inurba_marseille","lat":43.2593,"lon":5.40911,"is_reserved":false,"is_disabled":true,"rental_uris":{"android":"levelo://app?vid=75701b26-361c-41a5-86cc-cb78b6f05388","ios":"levelo://app?vid=75701b26-361c-41a5-86cc-cb78b6f05388"},"vehicle_type_id":"4","last_reported":1733836883,"current_range_meters":32400,"station_id":"ce4bhm92rcd13ifvqglg","pricing_plan_id":"cebpf4jnsgd1na2vs0mg"},{"bike_id":"724c48f1-2175-4730-9579-aceff44261ff","system_id":"levelo_inurba_marseille","lat":43.24179,"lon":5.39734,"is_reserved":false,"is_disabled":false,"rental_uris":{"android":"levelo://app?vid=724c48f1-2175-4730-9579-aceff44261ff","ios":"levelo://app?vid=724c48f1-2175-4730-9579-aceff44261ff"},"vehicle_type_id":"4","last_reported":1733836883,"current_range_meters":38800,"station_id":"ce4bhn12rcd13ifvqgpg","pricing_plan_id":"cebpf4jnsgd1na2vs0mg"},{"bike_id":"8edd3105-67d4-4dec-99fd-08fa5a9cb229","system_id":"levelo_inurba_marseille","lat":43.27495,"lon":5.42449,"is_reserved":false,"is_disabled":false,"rental_uris":{"android":"levelo://app?vid=8edd3105-67d4-4dec-99fd-08fa5a9cb229","ios":"levelo://app?vid=8edd3105-67d4-4dec-99fd-08fa5a9cb229"},"vehicle_type_id":"4","last_reported":1733836883,"current_range_meters":9200,"station_id":"ce4bhn92rcd13ifvqgrg","pricing_plan_id":"cebpf4jnsgd1na2vs0mg"},{"bike_id":"98307136-80a4-466f-817c-d269e3457acc","system_id":"levelo_inurba_marseille","lat":43.32234,"lon":5.3762,"is_reserved":false,"is_disabled":false,"rental_uris":{"android":"levelo://app?vid=98307136-80a4-466f-817c-d269e3457acc","ios":"levelo://app?vid=98307136-80a4-466f-817c-d269e3457acc"},"vehicle_type_id":"4","last_reported":1733836883,"current_range_meters":33600,"station_id":"","pricing_plan_id":"cebpf4jnsgd1na2vs0mg"},{"bike_id":"4988be4a-3d9e-4802-b79b-fc9ef468c795","system_id":"levelo_inurba_marseille","lat":43.27211,"lon":5.39176,"is_reserved":false,"is_disabled":false,"rental_uris":{"android":"levelo://app?vid=4988be4a-3d9e-4802-b79b-fc9ef468c795","ios":"levelo://app?vid=4988be4a-3d9e-4802-b79b-fc9ef468c795"},"vehicle_type_id":"4","last_reported":1733836883,"current_range_meters":38800,"station_id":"ce4bhhp2rcd13ifvqfm0","pricing_plan_id":"cebpf4jnsgd1na2vs0mg"},{"bike_id":"d1bdcee4-3d65-4af4-a341-e1d2febdfb0e","system_id":"levelo_inurba_marseille","lat":43.32364,"lon":5.38884,"is_reserved":false,"is_disabled":false,"rental_uris":{"android":"levelo://app?vid=d1bdcee4-3d65-4af4-a341-e1d2febdfb0e","ios":"levelo://app?vid=d1bdcee4-3d65-4af4-a341-e1d2febdfb0e"},"vehicle_type_id":"4","last_reported":1733836883,"current_range_meters":20400,"station_id":"ce4bhqp2rcd13ifvqhog","pricing_plan_id":"cebpf4jnsgd1na2vs0mg"},{"bike_id":"8cd9e04b-575f-443a-8831-296b8c1a1cb0","system_id":"levelo_inurba_marseille","lat":43.23182,"lon":5.3999,"is_reserved":false,"is_disabled":true,"rental_uris":{"android":"levelo://app?vid=8cd9e04b-575f-443a-8831-296b8c1a1cb0","ios":"levelo://app?vid=8cd9e04b-575f-443a-8831-296b8c1a1cb0"},"vehicle_type_id":"4","last_reported":1733836883,"current_range_meters":800,"station_id":"ce4bhn12rcd13ifvqgqg","pricing_plan_id":"cebpf4jnsgd1na2vs0mg"},{"bike_id":"48a59ca1-7bd9-4a2e-8452-da8893672a4e","system_id":"levelo_inurba_marseille","lat":43.29443,"lon":5.39746,"is_reserved":false,"is_disabled":false,"rental_uris":{"android":"levelo://app?vid=48a59ca1-7bd9-4a2e-8452-da8893672a4e","ios":"levelo://app?vid=48a59ca1-7bd9-4a2e-8452-da8893672a4e"},"vehicle_type_id":"4","last_reported":1733836883,"current_range_meters":38800,"station_id":"ce4bh3h2rcd13ifvqdo0","pricing_plan_id":"cebpf4jnsgd1na2vs0mg"},{"bike_id":"62307f1f-293b-489b-b062-bb705f21ae77","system_id":"levelo_inurba_marseille","lat":43.24187,"lon":5.39727,"is_reserved":false,"is_disabled":false,"rental_uris":{"android":"levelo://app?vid=62307f1f-293b-489b-b062-bb705f21ae77","ios":"levelo://app?vid=62307f1f-293b-489b-b062-bb705f21ae77"},"vehicle_type_id":"4","last_reported":1733836883,"current_range_meters":26800,"station_id":"ce4bhn12rcd13ifvqgpg","pricing_plan_id":"cebpf4jnsgd1na2vs0mg"},{"bike_id":"70f78fa9-dcd4-4689-8e2c-4f75c1c55c52","system_id":"levelo_inurba_marseille","lat":43.29579,"lon":5.37524,"is_reserved":false,"is_disabled":false,"rental_uris":{"android":"levelo://app?vid=70f78fa9-dcd4-4689-8e2c-4f75c1c55c52","ios":"levelo://app?vid=70f78fa9-dcd4-4689-8e2c-4f75c1c55c52"},"vehicle_type_id":"4","last_reported":1733836883,"current_range_meters":8400,"station_id":"ce4bgh92rcd13ifvqb50","pricing_plan_id":"cebpf4jnsgd1na2vs0mg"},{"bike_id":"2f3968e7-9336-4ee4-ba78-8e92c0a818cc","system_id":"levelo_inurba_marseille","lat":43.31322,"lon":5.36647,"is_reserved":false,"is_disabled":true,"rental_uris":{"android":"levelo://app?vid=2f3968e7-9336-4ee4-ba78-8e92c0a818cc","ios":"levelo://app?vid=2f3968e7-9336-4ee4-ba78-8e92c0a818cc"},"vehicle_type_id":"4","last_reported":1733836883,"current_range_meters":0,"station_id":"","pricing_plan_id":"cebpf4jnsgd1na2vs0mg"},{"bike_id":"3f489432-3255-4691-85ac-003ae441796e","system_id":"levelo_inurba_marseille","lat":43.28719,"lon":5.37931,"is_reserved":false,"is_disabled":false,"rental_uris":{"android":"levelo://app?vid=3f489432-3255-4691-85ac-003ae441796e","ios":"levelo://app?vid=3f489432-3255-4691-85ac-003ae441796e"},"vehicle_type_id":"4","last_reported":1733836883,"current_range_meters":16400,"station_id":"ce4bh9p2rcd13ifvqec0","pricing_plan_id":"cebpf4jnsgd1na2vs0mg"},{"bike_id":"e5aac24b-8acb-4dfb-985c-85170e7397ed","system_id":"levelo_inurba_marseille","lat":43.33604,"lon":5.41036,"is_reserved":false,"is_disabled":true,"rental_uris":{"android":"levelo://app?vid=e5aac24b-8acb-4dfb-985c-85170e7397ed","ios":"levelo://app?vid=e5aac24b-8acb-4dfb-985c-85170e7397ed"},"vehicle_type_id":"4","last_reported":1733836883,"current_range_meters":38800,"station_id":"ce4bhqh2rcd13ifvqhmg","pricing_plan_id":"cebpf4jnsgd1na2vs0mg"},{"bike_id":"d5e92ee2-2732-42ca-a5b7-d0dd62001fdf","system_id":"levelo_inurba_marseille","lat":43.29293,"lon":5.3745,"is_reserved":false,"is_disabled":true,"rental_uris":{"android":"levelo://app?vid=d5e92ee2-2732-42ca-a5b7-d0dd62001fdf","ios":"levelo://app?vid=d5e92ee2-2732-42ca-a5b7-d0dd62001fdf"},"vehicle_type_id":"4","last_reported":1733836883,"current_range_meters":0,"station_id":"ce4bgi12rcd13ifvqb70","pricing_plan_id":"cebpf4jnsgd1na2vs0mg"},{"bike_id":"969347c8-28da-4b28-93cd-bf476c7a22b5","system_id":"levelo_inurba_marseille","lat":43.29515,"lon":5.39031,"is_reserved":false,"is_disabled":true,"rental_uris":{"android":"levelo://app?vid=969347c8-28da-4b28-93cd-bf476c7a22b5","ios":"levelo://app?vid=969347c8-28da-4b28-93cd-bf476c7a22b5"},"vehicle_type_id":"4","last_reported":1733836883,"current_range_meters":13600,"station_id":"","pricing_plan_id":"cebpf4jnsgd1na2vs0mg"},{"bike_id":"7f0b121b-7748-43bd-b861-318cbdf6fb69","system_id":"levelo_inurba_marseille","lat":43.2845,"lon":5.3589,"is_reserved":false,"is_disabled":true,"rental_uris":{"android":"levelo://app?vid=7f0b121b-7748-43bd-b861-318cbdf6fb69","ios":"levelo://app?vid=7f0b121b-7748-43bd-b861-318cbdf6fb69"},"vehicle_type_id":"4","last_reported":1733836883,"current_range_meters":38800,"station_id":"ce4bhah2rcd13ifvqei0","pricing_plan_id":"cebpf4jnsgd1na2vs0mg"},{"bike_id":"6583aefc-6815-4bd5-8f5c-a9c5d794f47e","system_id":"levelo_inurba_marseille","lat":43.33659,"lon":5.35569,"is_reserved":false,"is_disabled":false,"rental_uris":{"android":"levelo://app?vid=6583aefc-6815-4bd5-8f5c-a9c5d794f47e","ios":"levelo://app?vid=6583aefc-6815-4bd5-8f5c-a9c5d794f47e"},"vehicle_type_id":"4","last_reported":1733836883,"current_range_meters":8400,"station_id":"","pricing_plan_id":"cebpf4jnsgd1na2vs0mg"},{"bike_id":"78711c2a-505e-42d7-917e-cbcebded6deb","system_id":"levelo_inurba_marseille","lat":43.24165,"lon":5.39707,"is_reserved":false,"is_disabled":false,"rental_uris":{"android":"levelo://app?vid=78711c2a-505e-42d7-917e-cbcebded6deb","ios":"levelo://app?vid=78711c2a-505e-42d7-917e-cbcebded6deb"},"vehicle_type_id":"4","last_reported":1733836883,"current_range_meters":26800,"station_id":"ce4bhn12rcd13ifvqgpg","pricing_plan_id":"cebpf4jnsgd1na2vs0mg"},{"bike_id":"a822604e-5a8f-4665-b875-586d39d61022","system_id":"levelo_inurba_marseille","lat":43.32475,"lon":5.36568,"is_reserved":false,"is_disabled":false,"rental_uris":{"android":"levelo://app?vid=a822604e-5a8f-4665-b875-586d39d61022","ios":"levelo://app?vid=a822604e-5a8f-4665-b875-586d39d61022"},"vehicle_type_id":"4","last_reported":1733836883,"current_range_meters":29600,"station_id":"ce4bhs12rcd13ifvqhvg","pricing_plan_id":"cebpf4jnsgd1na2vs0mg"},{"bike_id":"f8ceed41-8e84-4f15-9880-d6d9f6302759","system_id":"levelo_inurba_marseille","lat":43.33609,"lon":5.4103,"is_reserved":false,"is_disabled":false,"rental_uris":{"android":"levelo://app?vid=f8ceed41-8e84-4f15-9880-d6d9f6302759","ios":"levelo://app?vid=f8ceed41-8e84-4f15-9880-d6d9f6302759"},"vehicle_type_id":"4","last_reported":1733836883,"current_range_meters":38800,"station_id":"ce4bhqh2rcd13ifvqhmg","pricing_plan_id":"cebpf4jnsgd1na2vs0mg"},{"bike_id":"4b4d44dc-b9bf-4d20-8f04-e64035e9e255","system_id":"levelo_inurba_marseille","lat":43.27434,"lon":5.39416,"is_reserved":false,"is_disabled":false,"rental_uris":{"android":"levelo://app?vid=4b4d44dc-b9bf-4d20-8f04-e64035e9e255","ios":"levelo://app?vid=4b4d44dc-b9bf-4d20-8f04-e64035e9e255"},"vehicle_type_id":"4","last_reported":1733836883,"current_range_meters":19200,"station_id":"ce4bhdp2rcd13ifvqf20","pricing_plan_id":"cebpf4jnsgd1na2vs0mg"},{"bike_id":"7826c01b-dcb4-4dc7-bf11-28778c79b199","system_id":"levelo_inurba_marseille","lat":43.29791,"lon":5.381,"is_reserved":false,"is_disabled":false,"rental_uris":{"android":"levelo://app?vid=7826c01b-dcb4-4dc7-bf11-28778c79b199","ios":"levelo://app?vid=7826c01b-dcb4-4dc7-bf11-28778c79b199"},"vehicle_type_id":"4","last_reported":1733836883,"current_range_meters":14400,"station_id":"ce4bgip2rcd13ifvqbb0","pricing_plan_id":"cebpf4jnsgd1na2vs0mg"},{"bike_id":"12add500-ea1f-403d-bb3c-de83ce61c6f3","system_id":"levelo_inurba_marseille","lat":43.28938,"lon":5.36629,"is_reserved":false,"is_disabled":false,"rental_uris":{"android":"levelo://app?vid=12add500-ea1f-403d-bb3c-de83ce61c6f3","ios":"levelo://app?vid=12add500-ea1f-403d-bb3c-de83ce61c6f3"},"vehicle_type_id":"4","last_reported":1733836883,"current_range_meters":36000,"station_id":"ce4bhap2rcd13ifvqek0","pricing_plan_id":"cebpf4jnsgd1na2vs0mg"},{"bike_id":"ab1765a6-6c00-420c-b72e-88228cba39da","system_id":"levelo_inurba_marseille","lat":43.27217,"lon":5.40978,"is_reserved":false,"is_disabled":false,"rental_uris":{"android":"levelo://app?vid=ab1765a6-6c00-420c-b72e-88228cba39da","ios":"levelo://app?vid=ab1765a6-6c00-420c-b72e-88228cba39da"},"vehicle_type_id":"4","last_reported":1733836883,"current_range_meters":36800,"station_id":"","pricing_plan_id":"cebpf4jnsgd1na2vs0mg"},{"bike_id":"c901a794-496e-44e0-9d84-45e9988be1b0","system_id":"levelo_inurba_marseille","lat":43.27181,"lon":5.40993,"is_reserved":false,"is_disabled":false,"rental_uris":{"android":"levelo://app?vid=c901a794-496e-44e0-9d84-45e9988be1b0","ios":"levelo://app?vid=c901a794-496e-44e0-9d84-45e9988be1b0"},"vehicle_type_id":"4","last_reported":1733836883,"current_range_meters":38800,"station_id":"ce4bhl12rcd13ifvqgf0","pricing_plan_id":"cebpf4jnsgd1na2vs0mg"},{"bike_id":"e997469b-c09d-4265-8ac9-928ed5aaab97","system_id":"levelo_inurba_marseille","lat":43.26953,"lon":5.38622,"is_reserved":false,"is_disabled":true,"rental_uris":{"android":"levelo://app?vid=e997469b-c09d-4265-8ac9-928ed5aaab97","ios":"levelo://app?vid=e997469b-c09d-4265-8ac9-928ed5aaab97"},"vehicle_type_id":"4","last_reported":1733836883,"current_range_meters":0,"station_id":"ce4bhh92rcd13ifvqfh0","pricing_plan_id":"cebpf4jnsgd1na2vs0mg"},{"bike_id":"35a9e972-3d70-4c02-b4d2-95bd849e6ce8","system_id":"levelo_inurba_marseille","lat":43.27054,"lon":5.40258,"is_reserved":false,"is_disabled":false,"rental_uris":{"android":"levelo://app?vid=35a9e972-3d70-4c02-b4d2-95bd849e6ce8","ios":"levelo://app?vid=35a9e972-3d70-4c02-b4d2-95bd849e6ce8"},"vehicle_type_id":"4","last_reported":1733836883,"current_range_meters":24800,"station_id":"ce4bhk92rcd13ifvqgc0","pricing_plan_id":"cebpf4jnsgd1na2vs0mg"},{"bike_id":"ce93eba4-a260-4242-bfd1-eb4a1083d4a6","system_id":"levelo_inurba_marseille","lat":43.27371,"lon":5.36263,"is_reserved":false,"is_disabled":false,"rental_uris":{"android":"levelo://app?vid=ce93eba4-a260-4242-bfd1-eb4a1083d4a6","ios":"levelo://app?vid=ce93eba4-a260-4242-bfd1-eb4a1083d4a6"},"vehicle_type_id":"4","last_reported":1733836883,"current_range_meters":39200,"station_id":"ce4bhbh2rcd13ifvqeo0","pricing_plan_id":"cebpf4jnsgd1na2vs0mg"},{"bike_id":"dd93c396-3e53-4e62-b4e2-c81714e6c408","system_id":"levelo_inurba_marseille","lat":43.29368,"lon":5.37849,"is_reserved":false,"is_disabled":false,"rental_uris":{"android":"levelo://app?vid=dd93c396-3e53-4e62-b4e2-c81714e6c408","ios":"levelo://app?vid=dd93c396-3e53-4e62-b4e2-c81714e6c408"},"vehicle_type_id":"4","last_reported":1733836883,"current_range_meters":38800,"station_id":"ce4bgjh2rcd13ifvqbf0","pricing_plan_id":"cebpf4jnsgd1na2vs0mg"},{"bike_id":"c1af07c0-ed11-49c8-aa2e-1104638a28b7","system_id":"levelo_inurba_marseille","lat":43.23067,"lon":5.3549,"is_reserved":false,"is_disabled":false,"rental_uris":{"android":"levelo://app?vid=c1af07c0-ed11-49c8-aa2e-1104638a28b7","ios":"levelo://app?vid=c1af07c0-ed11-49c8-aa2e-1104638a28b7"},"vehicle_type_id":"4","last_reported":1733836883,"current_range_meters":19200,"station_id":"cpo3342slgdg3j2ifvpg","pricing_plan_id":"cebpf4jnsgd1na2vs0mg"},{"bike_id":"f2a32e5a-a0bf-44b1-a42d-de2e881e7239","system_id":"levelo_inurba_marseille","lat":43.27059,"lon":5.40262,"is_reserved":false,"is_disabled":false,"rental_uris":{"android":"levelo://app?vid=f2a32e5a-a0bf-44b1-a42d-de2e881e7239","ios":"levelo://app?vid=f2a32e5a-a0bf-44b1-a42d-de2e881e7239"},"vehicle_type_id":"4","last_reported":1733836883,"current_range_meters":20000,"station_id":"ce4bhk92rcd13ifvqgc0","pricing_plan_id":"cebpf4jnsgd1na2vs0mg"},{"bike_id":"b18c6004-4219-4e73-8448-d98e733191e1","system_id":"levelo_inurba_marseille","lat":43.26567,"lon":5.39001,"is_reserved":false,"is_disabled":false,"rental_uris":{"android":"levelo://app?vid=b18c6004-4219-4e73-8448-d98e733191e1","ios":"levelo://app?vid=b18c6004-4219-4e73-8448-d98e733191e1"},"vehicle_type_id":"4","last_reported":1733836883,"current_range_meters":6800,"station_id":"ce4bhe12rcd13ifvqf30","pricing_plan_id":"cebpf4jnsgd1na2vs0mg"},{"bike_id":"1770e0f3-9ae9-4bf9-a84d-08bd0866f736","system_id":"levelo_inurba_marseille","lat":43.31357,"lon":5.36711,"is_reserved":false,"is_disabled":false,"rental_uris":{"android":"levelo://app?vid=1770e0f3-9ae9-4bf9-a84d-08bd0866f736","ios":"levelo://app?vid=1770e0f3-9ae9-4bf9-a84d-08bd0866f736"},"vehicle_type_id":"4","last_reported":1733836883,"current_range_meters":34800,"station_id":"ce4bgr92rcd13ifvqc6g","pricing_plan_id":"cebpf4jnsgd1na2vs0mg"},{"bike_id":"711a86c3-f65a-43f0-b048-c5dec986f5d0","system_id":"levelo_inurba_marseille","lat":43.30436,"lon":5.39751,"is_reserved":false,"is_disabled":false,"rental_uris":{"android":"levelo://app?vid=711a86c3-f65a-43f0-b048-c5dec986f5d0","ios":"levelo://app?vid=711a86c3-f65a-43f0-b048-c5dec986f5d0"},"vehicle_type_id":"4","last_reported":1733836883,"current_range_meters":36800,"station_id":"ce4bh092rcd13ifvqd20","pricing_plan_id":"cebpf4jnsgd1na2vs0mg"},{"bike_id":"6f5aafc4-06b9-4dba-b612-5d926167490b","system_id":"levelo_inurba_marseille","lat":43.32477,"lon":5.36582,"is_reserved":false,"is_disabled":true,"rental_uris":{"android":"levelo://app?vid=6f5aafc4-06b9-4dba-b612-5d926167490b","ios":"levelo://app?vid=6f5aafc4-06b9-4dba-b612-5d926167490b"},"vehicle_type_id":"4","last_reported":1733836883,"current_range_meters":0,"station_id":"ce4bhs12rcd13ifvqhvg","pricing_plan_id":"cebpf4jnsgd1na2vs0mg"},{"bike_id":"cbc7068b-5c25-41e2-96c9-01451e348e9f","system_id":"levelo_inurba_marseille","lat":43.33023,"lon":5.39045,"is_reserved":false,"is_disabled":false,"rental_uris":{"android":"levelo://app?vid=cbc7068b-5c25-41e2-96c9-01451e348e9f","ios":"levelo://app?vid=cbc7068b-5c25-41e2-96c9-01451e348e9f"},"vehicle_type_id":"4","last_reported":1733836883,"current_range_meters":25600,"station_id":"ce4bhr92rcd13ifvqhrg","pricing_plan_id":"cebpf4jnsgd1na2vs0mg"},{"bike_id":"bb8ace08-a4e9-4b2e-a5d0-0567640d33a3","system_id":"levelo_inurba_marseille","lat":43.30424,"lon":5.41288,"is_reserved":false,"is_disabled":false,"rental_uris":{"android":"levelo://app?vid=bb8ace08-a4e9-4b2e-a5d0-0567640d33a3","ios":"levelo://app?vid=bb8ace08-a4e9-4b2e-a5d0-0567640d33a3"},"vehicle_type_id":"4","last_reported":1733836883,"current_range_meters":20800,"station_id":"ce4bhop2rcd13ifvqh8g","pricing_plan_id":"cebpf4jnsgd1na2vs0mg"},{"bike_id":"965ab1a8-ec82-46fa-9765-8e9a6ee7086b","system_id":"levelo_inurba_marseille","lat":43.28717,"lon":5.37932,"is_reserved":false,"is_disabled":false,"rental_uris":{"android":"levelo://app?vid=965ab1a8-ec82-46fa-9765-8e9a6ee7086b","ios":"levelo://app?vid=965ab1a8-ec82-46fa-9765-8e9a6ee7086b"},"vehicle_type_id":"4","last_reported":1733836883,"current_range_meters":35200,"station_id":"ce4bh9p2rcd13ifvqec0","pricing_plan_id":"cebpf4jnsgd1na2vs0mg"},{"bike_id":"74ddbdc3-b082-4f44-a075-38dfc2e6b2cd","system_id":"levelo_inurba_marseille","lat":43.24167,"lon":5.36387,"is_reserved":false,"is_disabled":false,"rental_uris":{"android":"levelo://app?vid=74ddbdc3-b082-4f44-a075-38dfc2e6b2cd","ios":"levelo://app?vid=74ddbdc3-b082-4f44-a075-38dfc2e6b2cd"},"vehicle_type_id":"4","last_reported":1733836883,"current_range_meters":22800,"station_id":"cpo36qri1sfpv3e86is0","pricing_plan_id":"cebpf4jnsgd1na2vs0mg"},{"bike_id":"8cdf3b94-daa7-41f1-a546-c8290899fb14","system_id":"levelo_inurba_marseille","lat":43.25584,"lon":5.38236,"is_reserved":false,"is_disabled":false,"rental_uris":{"android":"levelo://app?vid=8cdf3b94-daa7-41f1-a546-c8290899fb14","ios":"levelo://app?vid=8cdf3b94-daa7-41f1-a546-c8290899fb14"},"vehicle_type_id":"4","last_reported":1733836883,"current_range_meters":35600,"station_id":"ce4bhih2rcd13ifvqfs0","pricing_plan_id":"cebpf4jnsgd1na2vs0mg"},{"bike_id":"4864a75f-0ec2-4613-ad88-144020ebe916","system_id":"levelo_inurba_marseille","lat":43.30354,"lon":5.41878,"is_reserved":false,"is_disabled":true,"rental_uris":{"android":"levelo://app?vid=4864a75f-0ec2-4613-ad88-144020ebe916","ios":"levelo://app?vid=4864a75f-0ec2-4613-ad88-144020ebe916"},"vehicle_type_id":"4","last_reported":1733836883,"current_range_meters":38800,"station_id":"ce4bhop2rcd13ifvqh7g","pricing_plan_id":"cebpf4jnsgd1na2vs0mg"},{"bike_id":"9cd79aab-6f4c-4919-b570-803a9e8b35c5","system_id":"levelo_inurba_marseille","lat":43.30464,"lon":5.36709,"is_reserved":false,"is_disabled":true,"rental_uris":{"android":"levelo://app?vid=9cd79aab-6f4c-4919-b570-803a9e8b35c5","ios":"levelo://app?vid=9cd79aab-6f4c-4919-b570-803a9e8b35c5"},"vehicle_type_id":"4","last_reported":1733836883,"current_range_meters":24000,"station_id":"","pricing_plan_id":"cebpf4jnsgd1na2vs0mg"},{"bike_id":"4d63aa36-4d44-4851-9310-f52393147b17","system_id":"levelo_inurba_marseille","lat":43.30884,"lon":5.37188,"is_reserved":false,"is_disabled":false,"rental_uris":{"android":"levelo://app?vid=4d63aa36-4d44-4851-9310-f52393147b17","ios":"levelo://app?vid=4d63aa36-4d44-4851-9310-f52393147b17"},"vehicle_type_id":"4","last_reported":1733836883,"current_range_meters":36400,"station_id":"ce4bguh2rcd13ifvqckg","pricing_plan_id":"cebpf4jnsgd1na2vs0mg"},{"bike_id":"95381e5f-d6b7-4d89-ada8-652b4e8fa3ed","system_id":"levelo_inurba_marseille","lat":43.250865,"lon":5.395319,"is_reserved":false,"is_disabled":true,"rental_uris":{"android":"levelo://app?vid=95381e5f-d6b7-4d89-ada8-652b4e8fa3ed","ios":"levelo://app?vid=95381e5f-d6b7-4d89-ada8-652b4e8fa3ed"},"vehicle_type_id":"4","last_reported":1733836883,"current_range_meters":14400,"station_id":"ce4bhm12rcd13ifvqgkg","pricing_plan_id":"cebpf4jnsgd1na2vs0mg"},{"bike_id":"b2776574-dab9-4112-97f2-ebd7012c69c1","system_id":"levelo_inurba_marseille","lat":43.26681,"lon":5.38267,"is_reserved":false,"is_disabled":false,"rental_uris":{"android":"levelo://app?vid=b2776574-dab9-4112-97f2-ebd7012c69c1","ios":"levelo://app?vid=b2776574-dab9-4112-97f2-ebd7012c69c1"},"vehicle_type_id":"4","last_reported":1733836883,"current_range_meters":12400,"station_id":"ce4bhg92rcd13ifvqf90","pricing_plan_id":"cebpf4jnsgd1na2vs0mg"},{"bike_id":"6f535907-8dee-4e60-9c10-78532ad757a9","system_id":"levelo_inurba_marseille","lat":43.26062,"lon":5.39398,"is_reserved":false,"is_disabled":false,"rental_uris":{"android":"levelo://app?vid=6f535907-8dee-4e60-9c10-78532ad757a9","ios":"levelo://app?vid=6f535907-8dee-4e60-9c10-78532ad757a9"},"vehicle_type_id":"4","last_reported":1733836883,"current_range_meters":38800,"station_id":"ce4bhh92rcd13ifvqfj0","pricing_plan_id":"cebpf4jnsgd1na2vs0mg"},{"bike_id":"f97ddc52-5758-4192-8ca1-71254ad1a77e","system_id":"levelo_inurba_marseille","lat":43.26196,"lon":5.37452,"is_reserved":false,"is_disabled":false,"rental_uris":{"android":"levelo://app?vid=f97ddc52-5758-4192-8ca1-71254ad1a77e","ios":"levelo://app?vid=f97ddc52-5758-4192-8ca1-71254ad1a77e"},"vehicle_type_id":"4","last_reported":1733836883,"current_range_meters":38800,"station_id":"ce4bhgp2rcd13ifvqfc0","pricing_plan_id":"cebpf4jnsgd1na2vs0mg"},{"bike_id":"11e86528-eb6b-4391-86a5-9b1822d069a4","system_id":"levelo_inurba_marseille","lat":43.278805,"lon":5.388003,"is_reserved":false,"is_disabled":true,"rental_uris":{"android":"levelo://app?vid=11e86528-eb6b-4391-86a5-9b1822d069a4","ios":"levelo://app?vid=11e86528-eb6b-4391-86a5-9b1822d069a4"},"vehicle_type_id":"4","last_reported":1733836883,"current_range_meters":0,"station_id":"","pricing_plan_id":"cebpf4jnsgd1na2vs0mg"},{"bike_id":"6cc6805f-c0ca-4585-bdf1-b5a0339762b0","system_id":"levelo_inurba_marseille","lat":43.29027,"lon":5.42744,"is_reserved":false,"is_disabled":true,"rental_uris":{"android":"levelo://app?vid=6cc6805f-c0ca-4585-bdf1-b5a0339762b0","ios":"levelo://app?vid=6cc6805f-c0ca-4585-bdf1-b5a0339762b0"},"vehicle_type_id":"4","last_reported":1733836883,"current_range_meters":0,"station_id":"","pricing_plan_id":"cebpf4jnsgd1na2vs0mg"},{"bike_id":"047e3612-9eb3-4909-b405-04ae83b6f4b7","system_id":"levelo_inurba_marseille","lat":43.24067,"lon":5.37765,"is_reserved":false,"is_disabled":false,"rental_uris":{"android":"levelo://app?vid=047e3612-9eb3-4909-b405-04ae83b6f4b7","ios":"levelo://app?vid=047e3612-9eb3-4909-b405-04ae83b6f4b7"},"vehicle_type_id":"4","last_reported":1733836883,"current_range_meters":18800,"station_id":"ce4bhnp2rcd13ifvqgvg","pricing_plan_id":"cebpf4jnsgd1na2vs0mg"},{"bike_id":"a478bcff-2af8-4db5-8351-cdbe6b849a6d","system_id":"levelo_inurba_marseille","lat":43.33432,"lon":5.36226,"is_reserved":false,"is_disabled":true,"rental_uris":{"android":"levelo://app?vid=a478bcff-2af8-4db5-8351-cdbe6b849a6d","ios":"levelo://app?vid=a478bcff-2af8-4db5-8351-cdbe6b849a6d"},"vehicle_type_id":"4","last_reported":1733836883,"current_range_meters":0,"station_id":"","pricing_plan_id":"cebpf4jnsgd1na2vs0mg"},{"bike_id":"ba49e68c-6062-4c0f-9a57-98cf34dedcad","system_id":"levelo_inurba_marseille","lat":43.3055,"lon":5.36699,"is_reserved":false,"is_disabled":false,"rental_uris":{"android":"levelo://app?vid=ba49e68c-6062-4c0f-9a57-98cf34dedcad","ios":"levelo://app?vid=ba49e68c-6062-4c0f-9a57-98cf34dedcad"},"vehicle_type_id":"4","last_reported":1733836883,"current_range_meters":9600,"station_id":"ce4bgrp2rcd13ifvqc9g","pricing_plan_id":"cebpf4jnsgd1na2vs0mg"},{"bike_id":"e069ac01-6fd1-4791-b354-d75427625257","system_id":"levelo_inurba_marseille","lat":43.24993,"lon":5.38937,"is_reserved":false,"is_disabled":false,"rental_uris":{"android":"levelo://app?vid=e069ac01-6fd1-4791-b354-d75427625257","ios":"levelo://app?vid=e069ac01-6fd1-4791-b354-d75427625257"},"vehicle_type_id":"4","last_reported":1733836883,"current_range_meters":18000,"station_id":"ce4bhgp2rcd13ifvqfd0","pricing_plan_id":"cebpf4jnsgd1na2vs0mg"},{"bike_id":"9f03dca4-237a-49dc-8f4b-3b6a07909c99","system_id":"levelo_inurba_marseille","lat":43.23194,"lon":5.35555,"is_reserved":false,"is_disabled":false,"rental_uris":{"android":"levelo://app?vid=9f03dca4-237a-49dc-8f4b-3b6a07909c99","ios":"levelo://app?vid=9f03dca4-237a-49dc-8f4b-3b6a07909c99"},"vehicle_type_id":"4","last_reported":1733836883,"current_range_meters":37600,"station_id":"ce4bhu92rcd13ifvqi70","pricing_plan_id":"cebpf4jnsgd1na2vs0mg"},{"bike_id":"5419ad88-f623-44a9-ab30-b9e6667f8ffd","system_id":"levelo_inurba_marseille","lat":43.33722,"lon":5.39179,"is_reserved":false,"is_disabled":false,"rental_uris":{"android":"levelo://app?vid=5419ad88-f623-44a9-ab30-b9e6667f8ffd","ios":"levelo://app?vid=5419ad88-f623-44a9-ab30-b9e6667f8ffd"},"vehicle_type_id":"4","last_reported":1733836883,"current_range_meters":18000,"station_id":"ce4bhr92rcd13ifvqhsg","pricing_plan_id":"cebpf4jnsgd1na2vs0mg"},{"bike_id":"52e7b863-5c80-4d7e-94da-49b1d77a8ea5","system_id":"levelo_inurba_marseille","lat":43.29615,"lon":5.37705,"is_reserved":false,"is_disabled":false,"rental_uris":{"android":"levelo://app?vid=52e7b863-5c80-4d7e-94da-49b1d77a8ea5","ios":"levelo://app?vid=52e7b863-5c80-4d7e-94da-49b1d77a8ea5"},"vehicle_type_id":"4","last_reported":1733836883,"current_range_meters":24400,"station_id":"ce4bgi92rcd13ifvqb90","pricing_plan_id":"cebpf4jnsgd1na2vs0mg"},{"bike_id":"74aa8f2b-4443-4d2c-b8f3-6021b8f5637e","system_id":"levelo_inurba_marseille","lat":43.303117,"lon":5.36874,"is_reserved":false,"is_disabled":false,"rental_uris":{"android":"levelo://app?vid=74aa8f2b-4443-4d2c-b8f3-6021b8f5637e","ios":"levelo://app?vid=74aa8f2b-4443-4d2c-b8f3-6021b8f5637e"},"vehicle_type_id":"4","last_reported":1733836883,"current_range_meters":14000,"station_id":"ce4bgqh2rcd13ifvqc5g","pricing_plan_id":"cebpf4jnsgd1na2vs0mg"},{"bike_id":"e28898d1-55b6-4a3f-be71-fe4562455159","system_id":"levelo_inurba_marseille","lat":43.28718,"lon":5.37942,"is_reserved":false,"is_disabled":false,"rental_uris":{"android":"levelo://app?vid=e28898d1-55b6-4a3f-be71-fe4562455159","ios":"levelo://app?vid=e28898d1-55b6-4a3f-be71-fe4562455159"},"vehicle_type_id":"4","last_reported":1733836883,"current_range_meters":18800,"station_id":"ce4bh9p2rcd13ifvqec0","pricing_plan_id":"cebpf4jnsgd1na2vs0mg"},{"bike_id":"714bea3f-3955-4017-be44-d1cf69fd3f38","system_id":"levelo_inurba_marseille","lat":43.34145,"lon":5.40912,"is_reserved":false,"is_disabled":false,"rental_uris":{"android":"levelo://app?vid=714bea3f-3955-4017-be44-d1cf69fd3f38","ios":"levelo://app?vid=714bea3f-3955-4017-be44-d1cf69fd3f38"},"vehicle_type_id":"4","last_reported":1733836883,"current_range_meters":38800,"station_id":"ce4bhqh2rcd13ifvqhlg","pricing_plan_id":"cebpf4jnsgd1na2vs0mg"},{"bike_id":"1f79d3c5-4a16-4992-bfa2-d0413e34b4f6","system_id":"levelo_inurba_marseille","lat":43.26031,"lon":5.37552,"is_reserved":false,"is_disabled":false,"rental_uris":{"android":"levelo://app?vid=1f79d3c5-4a16-4992-bfa2-d0413e34b4f6","ios":"levelo://app?vid=1f79d3c5-4a16-4992-bfa2-d0413e34b4f6"},"vehicle_type_id":"4","last_reported":1733836883,"current_range_meters":39200,"station_id":"ce4bhgh2rcd13ifvqfa0","pricing_plan_id":"cebpf4jnsgd1na2vs0mg"},{"bike_id":"03f45502-8f5f-45ab-a581-00e60e1a3f9b","system_id":"levelo_inurba_marseille","lat":43.24075,"lon":5.37757,"is_reserved":false,"is_disabled":false,"rental_uris":{"android":"levelo://app?vid=03f45502-8f5f-45ab-a581-00e60e1a3f9b","ios":"levelo://app?vid=03f45502-8f5f-45ab-a581-00e60e1a3f9b"},"vehicle_type_id":"4","last_reported":1733836883,"current_range_meters":13600,"station_id":"ce4bhnp2rcd13ifvqgvg","pricing_plan_id":"cebpf4jnsgd1na2vs0mg"},{"bike_id":"a7ea9ae5-4db2-4fd6-a405-d887f48ee93a","system_id":"levelo_inurba_marseille","lat":43.31228,"lon":5.36855,"is_reserved":false,"is_disabled":false,"rental_uris":{"android":"levelo://app?vid=a7ea9ae5-4db2-4fd6-a405-d887f48ee93a","ios":"levelo://app?vid=a7ea9ae5-4db2-4fd6-a405-d887f48ee93a"},"vehicle_type_id":"4","last_reported":1733836883,"current_range_meters":20000,"station_id":"ce4bgl92rcd13ifvqbq0","pricing_plan_id":"cebpf4jnsgd1na2vs0mg"},{"bike_id":"8f2d4831-473e-4f03-b498-cec205ebc6fb","system_id":"levelo_inurba_marseille","lat":43.27998,"lon":5.4001,"is_reserved":false,"is_disabled":false,"rental_uris":{"android":"levelo://app?vid=8f2d4831-473e-4f03-b498-cec205ebc6fb","ios":"levelo://app?vid=8f2d4831-473e-4f03-b498-cec205ebc6fb"},"vehicle_type_id":"4","last_reported":1733836883,"current_range_meters":38800,"station_id":"ce4bho92rcd13ifvqh4g","pricing_plan_id":"cebpf4jnsgd1na2vs0mg"},{"bike_id":"35182e8d-da34-4d0c-83dd-2ad2344aa1c5","system_id":"levelo_inurba_marseille","lat":43.29309,"lon":5.37164,"is_reserved":false,"is_disabled":false,"rental_uris":{"android":"levelo://app?vid=35182e8d-da34-4d0c-83dd-2ad2344aa1c5","ios":"levelo://app?vid=35182e8d-da34-4d0c-83dd-2ad2344aa1c5"},"vehicle_type_id":"4","last_reported":1733836883,"current_range_meters":22800,"station_id":"ce4bgh92rcd13ifvqb40","pricing_plan_id":"cebpf4jnsgd1na2vs0mg"},{"bike_id":"b0a46ba0-c8bc-4621-808f-2274c3b3257e","system_id":"levelo_inurba_marseille","lat":43.32264,"lon":5.38299,"is_reserved":false,"is_disabled":false,"rental_uris":{"android":"levelo://app?vid=b0a46ba0-c8bc-4621-808f-2274c3b3257e","ios":"levelo://app?vid=b0a46ba0-c8bc-4621-808f-2274c3b3257e"},"vehicle_type_id":"4","last_reported":1733836883,"current_range_meters":38400,"station_id":"ce4bhr12rcd13ifvqhqg","pricing_plan_id":"cebpf4jnsgd1na2vs0mg"},{"bike_id":"72369e3c-7a31-4199-a732-76fa73093ac4","system_id":"levelo_inurba_marseille","lat":43.31347,"lon":5.36732,"is_reserved":false,"is_disabled":true,"rental_uris":{"android":"levelo://app?vid=72369e3c-7a31-4199-a732-76fa73093ac4","ios":"levelo://app?vid=72369e3c-7a31-4199-a732-76fa73093ac4"},"vehicle_type_id":"4","last_reported":1733836883,"current_range_meters":24000,"station_id":"ce4bgr92rcd13ifvqc6g","pricing_plan_id":"cebpf4jnsgd1na2vs0mg"},{"bike_id":"558af6f7-939d-4eed-b57a-f91d7f178f85","system_id":"levelo_inurba_marseille","lat":43.27995,"lon":5.40013,"is_reserved":false,"is_disabled":false,"rental_uris":{"android":"levelo://app?vid=558af6f7-939d-4eed-b57a-f91d7f178f85","ios":"levelo://app?vid=558af6f7-939d-4eed-b57a-f91d7f178f85"},"vehicle_type_id":"4","last_reported":1733836883,"current_range_meters":13600,"station_id":"ce4bho92rcd13ifvqh4g","pricing_plan_id":"cebpf4jnsgd1na2vs0mg"},{"bike_id":"067d4f8e-eded-4040-9b89-eb14aebc4852","system_id":"levelo_inurba_marseille","lat":43.29899,"lon":5.43669,"is_reserved":false,"is_disabled":false,"rental_uris":{"android":"levelo://app?vid=067d4f8e-eded-4040-9b89-eb14aebc4852","ios":"levelo://app?vid=067d4f8e-eded-4040-9b89-eb14aebc4852"},"vehicle_type_id":"4","last_reported":1733836883,"current_range_meters":33200,"station_id":"ce4bhpp2rcd13ifvqhfg","pricing_plan_id":"cebpf4jnsgd1na2vs0mg"},{"bike_id":"268050a1-b236-4537-ac1b-f51c34ff03e4","system_id":"levelo_inurba_marseille","lat":43.29169,"lon":5.37149,"is_reserved":false,"is_disabled":false,"rental_uris":{"android":"levelo://app?vid=268050a1-b236-4537-ac1b-f51c34ff03e4","ios":"levelo://app?vid=268050a1-b236-4537-ac1b-f51c34ff03e4"},"vehicle_type_id":"4","last_reported":1733836883,"current_range_meters":38800,"station_id":"ce4bha92rcd13ifvqeh0","pricing_plan_id":"cebpf4jnsgd1na2vs0mg"},{"bike_id":"da1aefdb-caf1-4155-81fa-858ff49c920b","system_id":"levelo_inurba_marseille","lat":43.26212,"lon":5.37441,"is_reserved":false,"is_disabled":false,"rental_uris":{"android":"levelo://app?vid=da1aefdb-caf1-4155-81fa-858ff49c920b","ios":"levelo://app?vid=da1aefdb-caf1-4155-81fa-858ff49c920b"},"vehicle_type_id":"4","last_reported":1733836883,"current_range_meters":39200,"station_id":"ce4bhgp2rcd13ifvqfc0","pricing_plan_id":"cebpf4jnsgd1na2vs0mg"},{"bike_id":"a28ce13e-52a6-491b-82bb-b9a6373aad68","system_id":"levelo_inurba_marseille","lat":43.26679,"lon":5.38266,"is_reserved":false,"is_disabled":false,"rental_uris":{"android":"levelo://app?vid=a28ce13e-52a6-491b-82bb-b9a6373aad68","ios":"levelo://app?vid=a28ce13e-52a6-491b-82bb-b9a6373aad68"},"vehicle_type_id":"4","last_reported":1733836883,"current_range_meters":38000,"station_id":"ce4bhg92rcd13ifvqf90","pricing_plan_id":"cebpf4jnsgd1na2vs0mg"},{"bike_id":"0c767091-cf4b-4054-924d-7d33de14cc68","system_id":"levelo_inurba_marseille","lat":43.26957,"lon":5.38633,"is_reserved":false,"is_disabled":false,"rental_uris":{"android":"levelo://app?vid=0c767091-cf4b-4054-924d-7d33de14cc68","ios":"levelo://app?vid=0c767091-cf4b-4054-924d-7d33de14cc68"},"vehicle_type_id":"4","last_reported":1733836883,"current_range_meters":6400,"station_id":"ce4bhh92rcd13ifvqfh0","pricing_plan_id":"cebpf4jnsgd1na2vs0mg"},{"bike_id":"896d4ccf-3d83-4122-b2f2-1a77a517b0e7","system_id":"levelo_inurba_marseille","lat":43.23959,"lon":5.36644,"is_reserved":false,"is_disabled":false,"rental_uris":{"android":"levelo://app?vid=896d4ccf-3d83-4122-b2f2-1a77a517b0e7","ios":"levelo://app?vid=896d4ccf-3d83-4122-b2f2-1a77a517b0e7"},"vehicle_type_id":"4","last_reported":1733836883,"current_range_meters":38800,"station_id":"ce4bhi12rcd13ifvqfp0","pricing_plan_id":"cebpf4jnsgd1na2vs0mg"},{"bike_id":"5ab05328-df2c-4301-8359-efac20f401a3","system_id":"levelo_inurba_marseille","lat":43.29375,"lon":5.3784,"is_reserved":false,"is_disabled":true,"rental_uris":{"android":"levelo://app?vid=5ab05328-df2c-4301-8359-efac20f401a3","ios":"levelo://app?vid=5ab05328-df2c-4301-8359-efac20f401a3"},"vehicle_type_id":"4","last_reported":1733836883,"current_range_meters":30400,"station_id":"ce4bgjh2rcd13ifvqbf0","pricing_plan_id":"cebpf4jnsgd1na2vs0mg"},{"bike_id":"2732ad1c-1402-439a-9e5f-326fb896ed3c","system_id":"levelo_inurba_marseille","lat":43.29894,"lon":5.43672,"is_reserved":false,"is_disabled":false,"rental_uris":{"android":"levelo://app?vid=2732ad1c-1402-439a-9e5f-326fb896ed3c","ios":"levelo://app?vid=2732ad1c-1402-439a-9e5f-326fb896ed3c"},"vehicle_type_id":"4","last_reported":1733836883,"current_range_meters":16000,"station_id":"ce4bhpp2rcd13ifvqhfg","pricing_plan_id":"cebpf4jnsgd1na2vs0mg"},{"bike_id":"2b500231-45b3-4d91-9745-5fe70896353b","system_id":"levelo_inurba_marseille","lat":43.30815,"lon":5.37627,"is_reserved":false,"is_disabled":false,"rental_uris":{"android":"levelo://app?vid=2b500231-45b3-4d91-9745-5fe70896353b","ios":"levelo://app?vid=2b500231-45b3-4d91-9745-5fe70896353b"},"vehicle_type_id":"4","last_reported":1733836883,"current_range_meters":14800,"station_id":"ce4bgv92rcd13ifvqcq0","pricing_plan_id":"cebpf4jnsgd1na2vs0mg"},{"bike_id":"69199c35-b7ff-4c6a-8943-7eaccef64ef4","system_id":"levelo_inurba_marseille","lat":43.27054,"lon":5.4026,"is_reserved":false,"is_disabled":false,"rental_uris":{"android":"levelo://app?vid=69199c35-b7ff-4c6a-8943-7eaccef64ef4","ios":"levelo://app?vid=69199c35-b7ff-4c6a-8943-7eaccef64ef4"},"vehicle_type_id":"4","last_reported":1733836883,"current_range_meters":32400,"station_id":"ce4bhk92rcd13ifvqgc0","pricing_plan_id":"cebpf4jnsgd1na2vs0mg"},{"bike_id":"78718b71-2c37-48dc-bf7f-d72fb54c49a9","system_id":"levelo_inurba_marseille","lat":43.24804,"lon":5.37455,"is_reserved":false,"is_disabled":false,"rental_uris":{"android":"levelo://app?vid=78718b71-2c37-48dc-bf7f-d72fb54c49a9","ios":"levelo://app?vid=78718b71-2c37-48dc-bf7f-d72fb54c49a9"},"vehicle_type_id":"4","last_reported":1733836883,"current_range_meters":38800,"station_id":"ce4bhgh2rcd13ifvqfb0","pricing_plan_id":"cebpf4jnsgd1na2vs0mg"},{"bike_id":"71ede6cb-3773-4924-948e-77ec53727c8f","system_id":"levelo_inurba_marseille","lat":43.31753,"lon":5.37545,"is_reserved":false,"is_disabled":false,"rental_uris":{"android":"levelo://app?vid=71ede6cb-3773-4924-948e-77ec53727c8f","ios":"levelo://app?vid=71ede6cb-3773-4924-948e-77ec53727c8f"},"vehicle_type_id":"4","last_reported":1733836883,"current_range_meters":38000,"station_id":"","pricing_plan_id":"cebpf4jnsgd1na2vs0mg"},{"bike_id":"93c21a58-e8f7-4923-8a56-23e6f2805032","system_id":"levelo_inurba_marseille","lat":43.26062,"lon":5.39399,"is_reserved":false,"is_disabled":false,"rental_uris":{"android":"levelo://app?vid=93c21a58-e8f7-4923-8a56-23e6f2805032","ios":"levelo://app?vid=93c21a58-e8f7-4923-8a56-23e6f2805032"},"vehicle_type_id":"4","last_reported":1733836883,"current_range_meters":38800,"station_id":"ce4bhh92rcd13ifvqfj0","pricing_plan_id":"cebpf4jnsgd1na2vs0mg"},{"bike_id":"b3fb7a2f-1987-496a-9aa4-6c5ae3bc5ecc","system_id":"levelo_inurba_marseille","lat":43.29526,"lon":5.39404,"is_reserved":false,"is_disabled":false,"rental_uris":{"android":"levelo://app?vid=b3fb7a2f-1987-496a-9aa4-6c5ae3bc5ecc","ios":"levelo://app?vid=b3fb7a2f-1987-496a-9aa4-6c5ae3bc5ecc"},"vehicle_type_id":"4","last_reported":1733836883,"current_range_meters":10800,"station_id":"ce4bh292rcd13ifvqdf0","pricing_plan_id":"cebpf4jnsgd1na2vs0mg"},{"bike_id":"e88bc053-0d34-4ffa-afb8-cfb1797cd447","system_id":"levelo_inurba_marseille","lat":43.2867,"lon":5.36345,"is_reserved":false,"is_disabled":false,"rental_uris":{"android":"levelo://app?vid=e88bc053-0d34-4ffa-afb8-cfb1797cd447","ios":"levelo://app?vid=e88bc053-0d34-4ffa-afb8-cfb1797cd447"},"vehicle_type_id":"4","last_reported":1733836883,"current_range_meters":28800,"station_id":"ce4bhah2rcd13ifvqej0","pricing_plan_id":"cebpf4jnsgd1na2vs0mg"},{"bike_id":"1a3c0bbd-7736-49b6-a0d0-cf32e3bf1fbe","system_id":"levelo_inurba_marseille","lat":43.27374,"lon":5.36259,"is_reserved":false,"is_disabled":false,"rental_uris":{"android":"levelo://app?vid=1a3c0bbd-7736-49b6-a0d0-cf32e3bf1fbe","ios":"levelo://app?vid=1a3c0bbd-7736-49b6-a0d0-cf32e3bf1fbe"},"vehicle_type_id":"4","last_reported":1733836883,"current_range_meters":38800,"station_id":"ce4bhbh2rcd13ifvqeo0","pricing_plan_id":"cebpf4jnsgd1na2vs0mg"},{"bike_id":"78eaf38f-9f21-4944-8605-55eac1ceeaf0","system_id":"levelo_inurba_marseille","lat":43.28715,"lon":5.37941,"is_reserved":false,"is_disabled":false,"rental_uris":{"android":"levelo://app?vid=78eaf38f-9f21-4944-8605-55eac1ceeaf0","ios":"levelo://app?vid=78eaf38f-9f21-4944-8605-55eac1ceeaf0"},"vehicle_type_id":"4","last_reported":1733836883,"current_range_meters":24800,"station_id":"ce4bh9p2rcd13ifvqec0","pricing_plan_id":"cebpf4jnsgd1na2vs0mg"},{"bike_id":"845a1e5f-8df3-4e13-a702-8b68ebdb22c7","system_id":"levelo_inurba_marseille","lat":43.31365,"lon":5.36702,"is_reserved":false,"is_disabled":false,"rental_uris":{"android":"levelo://app?vid=845a1e5f-8df3-4e13-a702-8b68ebdb22c7","ios":"levelo://app?vid=845a1e5f-8df3-4e13-a702-8b68ebdb22c7"},"vehicle_type_id":"4","last_reported":1733836883,"current_range_meters":33600,"station_id":"ce4bgr92rcd13ifvqc6g","pricing_plan_id":"cebpf4jnsgd1na2vs0mg"},{"bike_id":"1903a284-2b8a-4199-8757-bf6a6b072613","system_id":"levelo_inurba_marseille","lat":43.26192,"lon":5.37453,"is_reserved":false,"is_disabled":false,"rental_uris":{"android":"levelo://app?vid=1903a284-2b8a-4199-8757-bf6a6b072613","ios":"levelo://app?vid=1903a284-2b8a-4199-8757-bf6a6b072613"},"vehicle_type_id":"4","last_reported":1733836883,"current_range_meters":16400,"station_id":"ce4bhgp2rcd13ifvqfc0","pricing_plan_id":"cebpf4jnsgd1na2vs0mg"},{"bike_id":"9e533191-da82-438a-a837-b070786255db","system_id":"levelo_inurba_marseille","lat":43.23964,"lon":5.36636,"is_reserved":false,"is_disabled":false,"rental_uris":{"android":"levelo://app?vid=9e533191-da82-438a-a837-b070786255db","ios":"levelo://app?vid=9e533191-da82-438a-a837-b070786255db"},"vehicle_type_id":"4","last_reported":1733836883,"current_range_meters":34000,"station_id":"ce4bhi12rcd13ifvqfp0","pricing_plan_id":"cebpf4jnsgd1na2vs0mg"},{"bike_id":"c3e2f867-4b3f-4788-a660-95356594de14","system_id":"levelo_inurba_marseille","lat":43.2668,"lon":5.38265,"is_reserved":false,"is_disabled":false,"rental_uris":{"android":"levelo://app?vid=c3e2f867-4b3f-4788-a660-95356594de14","ios":"levelo://app?vid=c3e2f867-4b3f-4788-a660-95356594de14"},"vehicle_type_id":"4","last_reported":1733836883,"current_range_meters":38800,"station_id":"ce4bhg92rcd13ifvqf90","pricing_plan_id":"cebpf4jnsgd1na2vs0mg"},{"bike_id":"f1e1b83c-6b4c-4d52-9b3f-becfd8274a79","system_id":"levelo_inurba_marseille","lat":43.24998,"lon":5.38938,"is_reserved":false,"is_disabled":false,"rental_uris":{"android":"levelo://app?vid=f1e1b83c-6b4c-4d52-9b3f-becfd8274a79","ios":"levelo://app?vid=f1e1b83c-6b4c-4d52-9b3f-becfd8274a79"},"vehicle_type_id":"4","last_reported":1733836883,"current_range_meters":38800,"station_id":"ce4bhgp2rcd13ifvqfd0","pricing_plan_id":"cebpf4jnsgd1na2vs0mg"},{"bike_id":"be2932e9-b9ec-4de9-b906-f26df2926dfe","system_id":"levelo_inurba_marseille","lat":43.28998,"lon":5.35614,"is_reserved":false,"is_disabled":false,"rental_uris":{"android":"levelo://app?vid=be2932e9-b9ec-4de9-b906-f26df2926dfe","ios":"levelo://app?vid=be2932e9-b9ec-4de9-b906-f26df2926dfe"},"vehicle_type_id":"4","last_reported":1733836883,"current_range_meters":33600,"station_id":"ce4bhb92rcd13ifvqen0","pricing_plan_id":"cebpf4jnsgd1na2vs0mg"},{"bike_id":"1557c875-5266-4855-9c3c-573b1ec229ea","system_id":"levelo_inurba_marseille","lat":43.28854,"lon":5.39322,"is_reserved":false,"is_disabled":false,"rental_uris":{"android":"levelo://app?vid=1557c875-5266-4855-9c3c-573b1ec229ea","ios":"levelo://app?vid=1557c875-5266-4855-9c3c-573b1ec229ea"},"vehicle_type_id":"4","last_reported":1733836883,"current_range_meters":9600,"station_id":"ce4bh2p2rcd13ifvqdi0","pricing_plan_id":"cebpf4jnsgd1na2vs0mg"},{"bike_id":"097d539c-2fb0-4695-9c7a-c109fd16c513","system_id":"levelo_inurba_marseille","lat":43.2707,"lon":5.42281,"is_reserved":false,"is_disabled":false,"rental_uris":{"android":"levelo://app?vid=097d539c-2fb0-4695-9c7a-c109fd16c513","ios":"levelo://app?vid=097d539c-2fb0-4695-9c7a-c109fd16c513"},"vehicle_type_id":"4","last_reported":1733836883,"current_range_meters":38800,"station_id":"ce4bhk92rcd13ifvqgb0","pricing_plan_id":"cebpf4jnsgd1na2vs0mg"},{"bike_id":"b135bff0-8e87-4e47-af7a-2fa72d222280","system_id":"levelo_inurba_marseille","lat":43.25725,"lon":5.41112,"is_reserved":false,"is_disabled":true,"rental_uris":{"android":"levelo://app?vid=b135bff0-8e87-4e47-af7a-2fa72d222280","ios":"levelo://app?vid=b135bff0-8e87-4e47-af7a-2fa72d222280"},"vehicle_type_id":"4","last_reported":1733836883,"current_range_meters":33600,"station_id":"ce4bhkp2rcd13ifvqgd0","pricing_plan_id":"cebpf4jnsgd1na2vs0mg"},{"bike_id":"c42b2296-ca51-41a6-a821-1be4c7ee1688","system_id":"levelo_inurba_marseille","lat":43.29273,"lon":5.36851,"is_reserved":false,"is_disabled":true,"rental_uris":{"android":"levelo://app?vid=c42b2296-ca51-41a6-a821-1be4c7ee1688","ios":"levelo://app?vid=c42b2296-ca51-41a6-a821-1be4c7ee1688"},"vehicle_type_id":"4","last_reported":1733836883,"current_range_meters":0,"station_id":"ce4bhbp2rcd13ifvqesg","pricing_plan_id":"cebpf4jnsgd1na2vs0mg"},{"bike_id":"09e8f3a7-5e09-4c1d-acc9-e200de530ef1","system_id":"levelo_inurba_marseille","lat":43.23156,"lon":5.43703,"is_reserved":false,"is_disabled":false,"rental_uris":{"android":"levelo://app?vid=09e8f3a7-5e09-4c1d-acc9-e200de530ef1","ios":"levelo://app?vid=09e8f3a7-5e09-4c1d-acc9-e200de530ef1"},"vehicle_type_id":"4","last_reported":1733836883,"current_range_meters":39200,"station_id":"ce4bhmp2rcd13ifvqgog","pricing_plan_id":"cebpf4jnsgd1na2vs0mg"},{"bike_id":"584c80ce-c5a2-411c-9dfa-e29ad71a5677","system_id":"levelo_inurba_marseille","lat":43.2408,"lon":5.37752,"is_reserved":false,"is_disabled":false,"rental_uris":{"android":"levelo://app?vid=584c80ce-c5a2-411c-9dfa-e29ad71a5677","ios":"levelo://app?vid=584c80ce-c5a2-411c-9dfa-e29ad71a5677"},"vehicle_type_id":"4","last_reported":1733836883,"current_range_meters":38800,"station_id":"ce4bhnp2rcd13ifvqgvg","pricing_plan_id":"cebpf4jnsgd1na2vs0mg"},{"bike_id":"1b2d4db1-cec0-4376-9abf-f3b964e5dcb7","system_id":"levelo_inurba_marseille","lat":43.23195,"lon":5.35551,"is_reserved":false,"is_disabled":false,"rental_uris":{"android":"levelo://app?vid=1b2d4db1-cec0-4376-9abf-f3b964e5dcb7","ios":"levelo://app?vid=1b2d4db1-cec0-4376-9abf-f3b964e5dcb7"},"vehicle_type_id":"4","last_reported":1733836883,"current_range_meters":38800,"station_id":"ce4bhu92rcd13ifvqi70","pricing_plan_id":"cebpf4jnsgd1na2vs0mg"},{"bike_id":"60eb7519-98ed-4e26-b124-c825497d7e97","system_id":"levelo_inurba_marseille","lat":43.24662,"lon":5.38163,"is_reserved":false,"is_disabled":false,"rental_uris":{"android":"levelo://app?vid=60eb7519-98ed-4e26-b124-c825497d7e97","ios":"levelo://app?vid=60eb7519-98ed-4e26-b124-c825497d7e97"},"vehicle_type_id":"4","last_reported":1733836883,"current_range_meters":38800,"station_id":"ce4bhih2rcd13ifvqfr0","pricing_plan_id":"cebpf4jnsgd1na2vs0mg"},{"bike_id":"50b96d84-714a-4478-b262-7b0e6d9632bb","system_id":"levelo_inurba_marseille","lat":43.2841,"lon":5.34992,"is_reserved":false,"is_disabled":false,"rental_uris":{"android":"levelo://app?vid=50b96d84-714a-4478-b262-7b0e6d9632bb","ios":"levelo://app?vid=50b96d84-714a-4478-b262-7b0e6d9632bb"},"vehicle_type_id":"4","last_reported":1733836883,"current_range_meters":21600,"station_id":"ce4bhbh2rcd13ifvqepg","pricing_plan_id":"cebpf4jnsgd1na2vs0mg"},{"bike_id":"e867e4df-bdaf-4905-9f4f-695c75d7fdb0","system_id":"levelo_inurba_marseille","lat":43.26211,"lon":5.37443,"is_reserved":false,"is_disabled":false,"rental_uris":{"android":"levelo://app?vid=e867e4df-bdaf-4905-9f4f-695c75d7fdb0","ios":"levelo://app?vid=e867e4df-bdaf-4905-9f4f-695c75d7fdb0"},"vehicle_type_id":"4","last_reported":1733836883,"current_range_meters":37600,"station_id":"ce4bhgp2rcd13ifvqfc0","pricing_plan_id":"cebpf4jnsgd1na2vs0mg"},{"bike_id":"2ed64c3e-4c84-497c-b205-1ee4c3a57e9c","system_id":"levelo_inurba_marseille","lat":43.31482,"lon":5.37315,"is_reserved":false,"is_disabled":false,"rental_uris":{"android":"levelo://app?vid=2ed64c3e-4c84-497c-b205-1ee4c3a57e9c","ios":"levelo://app?vid=2ed64c3e-4c84-497c-b205-1ee4c3a57e9c"},"vehicle_type_id":"4","last_reported":1733836883,"current_range_meters":22800,"station_id":"ce4bgt12rcd13ifvqcd0","pricing_plan_id":"cebpf4jnsgd1na2vs0mg"},{"bike_id":"5bccc409-5e21-416d-a4e2-e6cf2d146d35","system_id":"levelo_inurba_marseille","lat":43.24178,"lon":5.39731,"is_reserved":false,"is_disabled":false,"rental_uris":{"android":"levelo://app?vid=5bccc409-5e21-416d-a4e2-e6cf2d146d35","ios":"levelo://app?vid=5bccc409-5e21-416d-a4e2-e6cf2d146d35"},"vehicle_type_id":"4","last_reported":1733836883,"current_range_meters":22400,"station_id":"ce4bhn12rcd13ifvqgpg","pricing_plan_id":"cebpf4jnsgd1na2vs0mg"},{"bike_id":"a93d597d-7bb5-4059-9f01-65e24fdedf8f","system_id":"levelo_inurba_marseille","lat":43.2731,"lon":5.3908,"is_reserved":false,"is_disabled":false,"rental_uris":{"android":"levelo://app?vid=a93d597d-7bb5-4059-9f01-65e24fdedf8f","ios":"levelo://app?vid=a93d597d-7bb5-4059-9f01-65e24fdedf8f"},"vehicle_type_id":"4","last_reported":1733836883,"current_range_meters":23200,"station_id":"ce4bhgp2rcd13ifvqfe0","pricing_plan_id":"cebpf4jnsgd1na2vs0mg"},{"bike_id":"5d9d33ed-3cf9-4f40-bcf4-4fd075009d99","system_id":"levelo_inurba_marseille","lat":43.26934,"lon":5.40264,"is_reserved":false,"is_disabled":false,"rental_uris":{"android":"levelo://app?vid=5d9d33ed-3cf9-4f40-bcf4-4fd075009d99","ios":"levelo://app?vid=5d9d33ed-3cf9-4f40-bcf4-4fd075009d99"},"vehicle_type_id":"4","last_reported":1733836883,"current_range_meters":38800,"station_id":"cjm6bp8fraef2m0cb0m0","pricing_plan_id":"cebpf4jnsgd1na2vs0mg"},{"bike_id":"e2e5fff8-dab3-4021-a87d-3c7c833d47d1","system_id":"levelo_inurba_marseille","lat":43.2621,"lon":5.37438,"is_reserved":false,"is_disabled":true,"rental_uris":{"android":"levelo://app?vid=e2e5fff8-dab3-4021-a87d-3c7c833d47d1","ios":"levelo://app?vid=e2e5fff8-dab3-4021-a87d-3c7c833d47d1"},"vehicle_type_id":"4","last_reported":1733836883,"current_range_meters":8800,"station_id":"ce4bhgp2rcd13ifvqfc0","pricing_plan_id":"cebpf4jnsgd1na2vs0mg"},{"bike_id":"38af7c52-a2d7-4a86-b713-356ac06a533a","system_id":"levelo_inurba_marseille","lat":43.27056,"lon":5.40265,"is_reserved":false,"is_disabled":false,"rental_uris":{"android":"levelo://app?vid=38af7c52-a2d7-4a86-b713-356ac06a533a","ios":"levelo://app?vid=38af7c52-a2d7-4a86-b713-356ac06a533a"},"vehicle_type_id":"4","last_reported":1733836883,"current_range_meters":20800,"station_id":"ce4bhk92rcd13ifvqgc0","pricing_plan_id":"cebpf4jnsgd1na2vs0mg"},{"bike_id":"2cee94d4-c6c4-4b4a-ab5f-0ba8c0b9ea97","system_id":"levelo_inurba_marseille","lat":43.28853,"lon":5.39304,"is_reserved":false,"is_disabled":false,"rental_uris":{"android":"levelo://app?vid=2cee94d4-c6c4-4b4a-ab5f-0ba8c0b9ea97","ios":"levelo://app?vid=2cee94d4-c6c4-4b4a-ab5f-0ba8c0b9ea97"},"vehicle_type_id":"4","last_reported":1733836883,"current_range_meters":17200,"station_id":"ce4bh2p2rcd13ifvqdi0","pricing_plan_id":"cebpf4jnsgd1na2vs0mg"},{"bike_id":"4dbc0102-fa7f-4abb-a08e-385424c87296","system_id":"levelo_inurba_marseille","lat":43.33728,"lon":5.39187,"is_reserved":false,"is_disabled":false,"rental_uris":{"android":"levelo://app?vid=4dbc0102-fa7f-4abb-a08e-385424c87296","ios":"levelo://app?vid=4dbc0102-fa7f-4abb-a08e-385424c87296"},"vehicle_type_id":"4","last_reported":1733836883,"current_range_meters":24800,"station_id":"ce4bhr92rcd13ifvqhsg","pricing_plan_id":"cebpf4jnsgd1na2vs0mg"},{"bike_id":"b55722c1-fe2d-436f-b254-16b91c1520a9","system_id":"levelo_inurba_marseille","lat":43.29102,"lon":5.38129,"is_reserved":false,"is_disabled":false,"rental_uris":{"android":"levelo://app?vid=b55722c1-fe2d-436f-b254-16b91c1520a9","ios":"levelo://app?vid=b55722c1-fe2d-436f-b254-16b91c1520a9"},"vehicle_type_id":"4","last_reported":1733836883,"current_range_meters":24000,"station_id":"ce4bh512rcd13ifvqe2g","pricing_plan_id":"cebpf4jnsgd1na2vs0mg"},{"bike_id":"6bf569cf-fc20-4942-896a-48b61e4f51ba","system_id":"levelo_inurba_marseille","lat":43.29783,"lon":5.39335,"is_reserved":false,"is_disabled":false,"rental_uris":{"android":"levelo://app?vid=6bf569cf-fc20-4942-896a-48b61e4f51ba","ios":"levelo://app?vid=6bf569cf-fc20-4942-896a-48b61e4f51ba"},"vehicle_type_id":"4","last_reported":1733836883,"current_range_meters":20400,"station_id":"chh1huq6cuj3fo74tm60","pricing_plan_id":"cebpf4jnsgd1na2vs0mg"},{"bike_id":"d43e5ea8-13b0-4ee3-b5ea-caee40935a00","system_id":"levelo_inurba_marseille","lat":43.27179,"lon":5.40995,"is_reserved":false,"is_disabled":true,"rental_uris":{"android":"levelo://app?vid=d43e5ea8-13b0-4ee3-b5ea-caee40935a00","ios":"levelo://app?vid=d43e5ea8-13b0-4ee3-b5ea-caee40935a00"},"vehicle_type_id":"4","last_reported":1733836883,"current_range_meters":1600,"station_id":"ce4bhl12rcd13ifvqgf0","pricing_plan_id":"cebpf4jnsgd1na2vs0mg"},{"bike_id":"4d3a38cf-c2b0-48a9-a503-1385d4f06dd1","system_id":"levelo_inurba_marseille","lat":43.29712,"lon":5.36595,"is_reserved":false,"is_disabled":false,"rental_uris":{"android":"levelo://app?vid=4d3a38cf-c2b0-48a9-a503-1385d4f06dd1","ios":"levelo://app?vid=4d3a38cf-c2b0-48a9-a503-1385d4f06dd1"},"vehicle_type_id":"4","last_reported":1733836883,"current_range_meters":24000,"station_id":"ce4bgn12rcd13ifvqbt0","pricing_plan_id":"cebpf4jnsgd1na2vs0mg"},{"bike_id":"7c2ff7ee-5129-4fdc-b2e5-c3795b72c031","system_id":"levelo_inurba_marseille","lat":43.29575,"lon":5.39984,"is_reserved":false,"is_disabled":false,"rental_uris":{"android":"levelo://app?vid=7c2ff7ee-5129-4fdc-b2e5-c3795b72c031","ios":"levelo://app?vid=7c2ff7ee-5129-4fdc-b2e5-c3795b72c031"},"vehicle_type_id":"4","last_reported":1733836883,"current_range_meters":28800,"station_id":"ce4bh312rcd13ifvqdj0","pricing_plan_id":"cebpf4jnsgd1na2vs0mg"},{"bike_id":"92776eba-131c-4b48-a10b-fbf8faca77cb","system_id":"levelo_inurba_marseille","lat":43.2606,"lon":5.39399,"is_reserved":false,"is_disabled":false,"rental_uris":{"android":"levelo://app?vid=92776eba-131c-4b48-a10b-fbf8faca77cb","ios":"levelo://app?vid=92776eba-131c-4b48-a10b-fbf8faca77cb"},"vehicle_type_id":"4","last_reported":1733836883,"current_range_meters":29600,"station_id":"ce4bhh92rcd13ifvqfj0","pricing_plan_id":"cebpf4jnsgd1na2vs0mg"},{"bike_id":"eb4e32cd-a02d-4e92-a013-1fdc0dd71ccb","system_id":"levelo_inurba_marseille","lat":43.324799,"lon":5.365716,"is_reserved":false,"is_disabled":true,"rental_uris":{"android":"levelo://app?vid=eb4e32cd-a02d-4e92-a013-1fdc0dd71ccb","ios":"levelo://app?vid=eb4e32cd-a02d-4e92-a013-1fdc0dd71ccb"},"vehicle_type_id":"4","last_reported":1733836883,"current_range_meters":0,"station_id":"","pricing_plan_id":"cebpf4jnsgd1na2vs0mg"},{"bike_id":"ad24f16e-2206-4a3c-9b57-73b59ffe17ba","system_id":"levelo_inurba_marseille","lat":43.24164,"lon":5.36383,"is_reserved":false,"is_disabled":false,"rental_uris":{"android":"levelo://app?vid=ad24f16e-2206-4a3c-9b57-73b59ffe17ba","ios":"levelo://app?vid=ad24f16e-2206-4a3c-9b57-73b59ffe17ba"},"vehicle_type_id":"4","last_reported":1733836883,"current_range_meters":35600,"station_id":"cpo36qri1sfpv3e86is0","pricing_plan_id":"cebpf4jnsgd1na2vs0mg"},{"bike_id":"43f5667f-4b8d-42c1-b0b0-60fdd74612ed","system_id":"levelo_inurba_marseille","lat":43.28938,"lon":5.36626,"is_reserved":false,"is_disabled":false,"rental_uris":{"android":"levelo://app?vid=43f5667f-4b8d-42c1-b0b0-60fdd74612ed","ios":"levelo://app?vid=43f5667f-4b8d-42c1-b0b0-60fdd74612ed"},"vehicle_type_id":"4","last_reported":1733836883,"current_range_meters":9600,"station_id":"ce4bhap2rcd13ifvqek0","pricing_plan_id":"cebpf4jnsgd1na2vs0mg"},{"bike_id":"fdccdfdc-9e02-42d3-bb31-3127ff0c6309","system_id":"levelo_inurba_marseille","lat":43.2594,"lon":5.40904,"is_reserved":false,"is_disabled":true,"rental_uris":{"android":"levelo://app?vid=fdccdfdc-9e02-42d3-bb31-3127ff0c6309","ios":"levelo://app?vid=fdccdfdc-9e02-42d3-bb31-3127ff0c6309"},"vehicle_type_id":"4","last_reported":1733836883,"current_range_meters":31200,"station_id":"ce4bhm92rcd13ifvqglg","pricing_plan_id":"cebpf4jnsgd1na2vs0mg"},{"bike_id":"7e4b75fb-d48f-494e-b5ff-034bdaff153c","system_id":"levelo_inurba_marseille","lat":43.28469,"lon":5.38578,"is_reserved":false,"is_disabled":false,"rental_uris":{"android":"levelo://app?vid=7e4b75fb-d48f-494e-b5ff-034bdaff153c","ios":"levelo://app?vid=7e4b75fb-d48f-494e-b5ff-034bdaff153c"},"vehicle_type_id":"4","last_reported":1733836883,"current_range_meters":22800,"station_id":"ce4bh8p2rcd13ifvqeb0","pricing_plan_id":"cebpf4jnsgd1na2vs0mg"},{"bike_id":"26924fb9-4179-4abe-8b03-e0d47c141d92","system_id":"levelo_inurba_marseille","lat":43.27172,"lon":5.40996,"is_reserved":false,"is_disabled":false,"rental_uris":{"android":"levelo://app?vid=26924fb9-4179-4abe-8b03-e0d47c141d92","ios":"levelo://app?vid=26924fb9-4179-4abe-8b03-e0d47c141d92"},"vehicle_type_id":"4","last_reported":1733836883,"current_range_meters":27200,"station_id":"ce4bhl12rcd13ifvqgf0","pricing_plan_id":"cebpf4jnsgd1na2vs0mg"},{"bike_id":"0b7f2c07-73bd-4229-9bb0-e1d393ad46f2","system_id":"levelo_inurba_marseille","lat":43.24082,"lon":5.37752,"is_reserved":false,"is_disabled":false,"rental_uris":{"android":"levelo://app?vid=0b7f2c07-73bd-4229-9bb0-e1d393ad46f2","ios":"levelo://app?vid=0b7f2c07-73bd-4229-9bb0-e1d393ad46f2"},"vehicle_type_id":"4","last_reported":1733836883,"current_range_meters":25200,"station_id":"ce4bhnp2rcd13ifvqgvg","pricing_plan_id":"cebpf4jnsgd1na2vs0mg"},{"bike_id":"f0eb5d07-ccd5-4342-8d92-3c17f0ee7a02","system_id":"levelo_inurba_marseille","lat":43.29793,"lon":5.38088,"is_reserved":false,"is_disabled":true,"rental_uris":{"android":"levelo://app?vid=f0eb5d07-ccd5-4342-8d92-3c17f0ee7a02","ios":"levelo://app?vid=f0eb5d07-ccd5-4342-8d92-3c17f0ee7a02"},"vehicle_type_id":"4","last_reported":1733836883,"current_range_meters":800,"station_id":"ce4bgip2rcd13ifvqbb0","pricing_plan_id":"cebpf4jnsgd1na2vs0mg"},{"bike_id":"7bdec345-eeec-47c0-a1aa-d0b0f44ab6d1","system_id":"levelo_inurba_marseille","lat":43.32662,"lon":5.40985,"is_reserved":false,"is_disabled":true,"rental_uris":{"android":"levelo://app?vid=7bdec345-eeec-47c0-a1aa-d0b0f44ab6d1","ios":"levelo://app?vid=7bdec345-eeec-47c0-a1aa-d0b0f44ab6d1"},"vehicle_type_id":"4","last_reported":1733836883,"current_range_meters":38400,"station_id":"ce4bhpp2rcd13ifvqhgg","pricing_plan_id":"cebpf4jnsgd1na2vs0mg"},{"bike_id":"a802ac54-c436-4285-9977-b3bd374ee43d","system_id":"levelo_inurba_marseille","lat":43.30535,"lon":5.36717,"is_reserved":false,"is_disabled":false,"rental_uris":{"android":"levelo://app?vid=a802ac54-c436-4285-9977-b3bd374ee43d","ios":"levelo://app?vid=a802ac54-c436-4285-9977-b3bd374ee43d"},"vehicle_type_id":"4","last_reported":1733836883,"current_range_meters":38000,"station_id":"ce4bgrp2rcd13ifvqc9g","pricing_plan_id":"cebpf4jnsgd1na2vs0mg"},{"bike_id":"92bd273e-2d63-4156-912a-ed52c8f8218a","system_id":"levelo_inurba_marseille","lat":43.28716,"lon":5.3793,"is_reserved":false,"is_disabled":false,"rental_uris":{"android":"levelo://app?vid=92bd273e-2d63-4156-912a-ed52c8f8218a","ios":"levelo://app?vid=92bd273e-2d63-4156-912a-ed52c8f8218a"},"vehicle_type_id":"4","last_reported":1733836883,"current_range_meters":11200,"station_id":"ce4bh9p2rcd13ifvqec0","pricing_plan_id":"cebpf4jnsgd1na2vs0mg"},{"bike_id":"18152db1-fc93-4c50-ad17-beac4292f6de","system_id":"levelo_inurba_marseille","lat":43.29367,"lon":5.37839,"is_reserved":false,"is_disabled":false,"rental_uris":{"android":"levelo://app?vid=18152db1-fc93-4c50-ad17-beac4292f6de","ios":"levelo://app?vid=18152db1-fc93-4c50-ad17-beac4292f6de"},"vehicle_type_id":"4","last_reported":1733836883,"current_range_meters":19600,"station_id":"ce4bgjh2rcd13ifvqbf0","pricing_plan_id":"cebpf4jnsgd1na2vs0mg"},{"bike_id":"e56a6e39-bd42-464a-881e-5ab9a67ff515","system_id":"levelo_inurba_marseille","lat":43.28463,"lon":5.35895,"is_reserved":false,"is_disabled":false,"rental_uris":{"android":"levelo://app?vid=e56a6e39-bd42-464a-881e-5ab9a67ff515","ios":"levelo://app?vid=e56a6e39-bd42-464a-881e-5ab9a67ff515"},"vehicle_type_id":"4","last_reported":1733836883,"current_range_meters":25200,"station_id":"ce4bhah2rcd13ifvqei0","pricing_plan_id":"cebpf4jnsgd1na2vs0mg"},{"bike_id":"c758d2e6-4cef-4394-80e2-cb12ac93859a","system_id":"levelo_inurba_marseille","lat":43.25,"lon":5.38929,"is_reserved":false,"is_disabled":false,"rental_uris":{"android":"levelo://app?vid=c758d2e6-4cef-4394-80e2-cb12ac93859a","ios":"levelo://app?vid=c758d2e6-4cef-4394-80e2-cb12ac93859a"},"vehicle_type_id":"4","last_reported":1733836883,"current_range_meters":36800,"station_id":"ce4bhgp2rcd13ifvqfd0","pricing_plan_id":"cebpf4jnsgd1na2vs0mg"},{"bike_id":"0ccd581d-9c76-4795-b702-2d923b116e9d","system_id":"levelo_inurba_marseille","lat":43.27176,"lon":5.40987,"is_reserved":false,"is_disabled":false,"rental_uris":{"android":"levelo://app?vid=0ccd581d-9c76-4795-b702-2d923b116e9d","ios":"levelo://app?vid=0ccd581d-9c76-4795-b702-2d923b116e9d"},"vehicle_type_id":"4","last_reported":1733836883,"current_range_meters":31200,"station_id":"ce4bhl12rcd13ifvqgf0","pricing_plan_id":"cebpf4jnsgd1na2vs0mg"},{"bike_id":"24b15eb3-3dfb-4518-92a0-5514b5616859","system_id":"levelo_inurba_marseille","lat":43.30184,"lon":5.36629,"is_reserved":false,"is_disabled":false,"rental_uris":{"android":"levelo://app?vid=24b15eb3-3dfb-4518-92a0-5514b5616859","ios":"levelo://app?vid=24b15eb3-3dfb-4518-92a0-5514b5616859"},"vehicle_type_id":"4","last_reported":1733836883,"current_range_meters":26000,"station_id":"ce4bgrh2rcd13ifvqc8g","pricing_plan_id":"cebpf4jnsgd1na2vs0mg"},{"bike_id":"95d8628d-10b1-47e7-9a42-9b126ec315c6","system_id":"levelo_inurba_marseille","lat":43.23178,"lon":5.35589,"is_reserved":false,"is_disabled":false,"rental_uris":{"android":"levelo://app?vid=95d8628d-10b1-47e7-9a42-9b126ec315c6","ios":"levelo://app?vid=95d8628d-10b1-47e7-9a42-9b126ec315c6"},"vehicle_type_id":"4","last_reported":1733836883,"current_range_meters":24400,"station_id":"ce4bhu92rcd13ifvqi70","pricing_plan_id":"cebpf4jnsgd1na2vs0mg"},{"bike_id":"7241496b-c0e0-4e83-925f-f515cbbcb333","system_id":"levelo_inurba_marseille","lat":43.27061,"lon":5.4026,"is_reserved":false,"is_disabled":true,"rental_uris":{"android":"levelo://app?vid=7241496b-c0e0-4e83-925f-f515cbbcb333","ios":"levelo://app?vid=7241496b-c0e0-4e83-925f-f515cbbcb333"},"vehicle_type_id":"4","last_reported":1733836883,"current_range_meters":8000,"station_id":"ce4bhk92rcd13ifvqgc0","pricing_plan_id":"cebpf4jnsgd1na2vs0mg"},{"bike_id":"ff157558-4762-4775-8ebe-d59ef36bd776","system_id":"levelo_inurba_marseille","lat":43.26556,"lon":5.37302,"is_reserved":false,"is_disabled":false,"rental_uris":{"android":"levelo://app?vid=ff157558-4762-4775-8ebe-d59ef36bd776","ios":"levelo://app?vid=ff157558-4762-4775-8ebe-d59ef36bd776"},"vehicle_type_id":"4","last_reported":1733836883,"current_range_meters":14000,"station_id":"ce4bhg12rcd13ifvqf70","pricing_plan_id":"cebpf4jnsgd1na2vs0mg"},{"bike_id":"44ff7a6b-a61b-4f9d-a9bf-55e59821d32e","system_id":"levelo_inurba_marseille","lat":43.28715,"lon":5.36557,"is_reserved":false,"is_disabled":false,"rental_uris":{"android":"levelo://app?vid=44ff7a6b-a61b-4f9d-a9bf-55e59821d32e","ios":"levelo://app?vid=44ff7a6b-a61b-4f9d-a9bf-55e59821d32e"},"vehicle_type_id":"4","last_reported":1733836883,"current_range_meters":28000,"station_id":"ce4bhah2rcd13ifvqej0","pricing_plan_id":"cebpf4jnsgd1na2vs0mg"},{"bike_id":"e9dbc5fc-1ea5-4df5-b0cb-779a29216ef1","system_id":"levelo_inurba_marseille","lat":43.28855,"lon":5.39307,"is_reserved":false,"is_disabled":false,"rental_uris":{"android":"levelo://app?vid=e9dbc5fc-1ea5-4df5-b0cb-779a29216ef1","ios":"levelo://app?vid=e9dbc5fc-1ea5-4df5-b0cb-779a29216ef1"},"vehicle_type_id":"4","last_reported":1733836883,"current_range_meters":38000,"station_id":"ce4bh2p2rcd13ifvqdi0","pricing_plan_id":"cebpf4jnsgd1na2vs0mg"},{"bike_id":"55fb5cce-a387-4942-8b44-0194802fccc0","system_id":"levelo_inurba_marseille","lat":43.32044,"lon":5.41552,"is_reserved":false,"is_disabled":false,"rental_uris":{"android":"levelo://app?vid=55fb5cce-a387-4942-8b44-0194802fccc0","ios":"levelo://app?vid=55fb5cce-a387-4942-8b44-0194802fccc0"},"vehicle_type_id":"4","last_reported":1733836883,"current_range_meters":9600,"station_id":"ce4bhq92rcd13ifvqhkg","pricing_plan_id":"cebpf4jnsgd1na2vs0mg"},{"bike_id":"570bad79-da0a-4f0e-bd71-fcfb4fde31b3","system_id":"levelo_inurba_marseille","lat":43.23968,"lon":5.36633,"is_reserved":false,"is_disabled":true,"rental_uris":{"android":"levelo://app?vid=570bad79-da0a-4f0e-bd71-fcfb4fde31b3","ios":"levelo://app?vid=570bad79-da0a-4f0e-bd71-fcfb4fde31b3"},"vehicle_type_id":"4","last_reported":1733836883,"current_range_meters":32800,"station_id":"ce4bhi12rcd13ifvqfp0","pricing_plan_id":"cebpf4jnsgd1na2vs0mg"},{"bike_id":"0f20b602-7b45-4989-92b6-4d1c64ab5468","system_id":"levelo_inurba_marseille","lat":43.26554,"lon":5.3729,"is_reserved":false,"is_disabled":false,"rental_uris":{"android":"levelo://app?vid=0f20b602-7b45-4989-92b6-4d1c64ab5468","ios":"levelo://app?vid=0f20b602-7b45-4989-92b6-4d1c64ab5468"},"vehicle_type_id":"4","last_reported":1733836883,"current_range_meters":33200,"station_id":"ce4bhg12rcd13ifvqf70","pricing_plan_id":"cebpf4jnsgd1na2vs0mg"},{"bike_id":"07315b1b-6a65-4714-97ad-f44e965e0217","system_id":"levelo_inurba_marseille","lat":43.24082,"lon":5.37754,"is_reserved":false,"is_disabled":false,"rental_uris":{"android":"levelo://app?vid=07315b1b-6a65-4714-97ad-f44e965e0217","ios":"levelo://app?vid=07315b1b-6a65-4714-97ad-f44e965e0217"},"vehicle_type_id":"4","last_reported":1733836883,"current_range_meters":9600,"station_id":"ce4bhnp2rcd13ifvqgvg","pricing_plan_id":"cebpf4jnsgd1na2vs0mg"},{"bike_id":"a137d7c7-faef-4058-8263-868184c3ace6","system_id":"levelo_inurba_marseille","lat":43.30549,"lon":5.36706,"is_reserved":false,"is_disabled":false,"rental_uris":{"android":"levelo://app?vid=a137d7c7-faef-4058-8263-868184c3ace6","ios":"levelo://app?vid=a137d7c7-faef-4058-8263-868184c3ace6"},"vehicle_type_id":"4","last_reported":1733836883,"current_range_meters":18000,"station_id":"ce4bgrp2rcd13ifvqc9g","pricing_plan_id":"cebpf4jnsgd1na2vs0mg"},{"bike_id":"8f223178-6a38-4832-a975-4b3ff773e01b","system_id":"levelo_inurba_marseille","lat":43.2737,"lon":5.3626,"is_reserved":false,"is_disabled":false,"rental_uris":{"android":"levelo://app?vid=8f223178-6a38-4832-a975-4b3ff773e01b","ios":"levelo://app?vid=8f223178-6a38-4832-a975-4b3ff773e01b"},"vehicle_type_id":"4","last_reported":1733836883,"current_range_meters":37600,"station_id":"ce4bhbh2rcd13ifvqeo0","pricing_plan_id":"cebpf4jnsgd1na2vs0mg"},{"bike_id":"e2077a36-a0f9-4016-a166-f444580cd4fc","system_id":"levelo_inurba_marseille","lat":43.28154,"lon":5.42647,"is_reserved":false,"is_disabled":false,"rental_uris":{"android":"levelo://app?vid=e2077a36-a0f9-4016-a166-f444580cd4fc","ios":"levelo://app?vid=e2077a36-a0f9-4016-a166-f444580cd4fc"},"vehicle_type_id":"4","last_reported":1733836883,"current_range_meters":29600,"station_id":"ce4bhnh2rcd13ifvqgug","pricing_plan_id":"cebpf4jnsgd1na2vs0mg"},{"bike_id":"e19bbcd4-547c-4c48-9d1e-941b58bfe99b","system_id":"levelo_inurba_marseille","lat":43.31348,"lon":5.36704,"is_reserved":false,"is_disabled":false,"rental_uris":{"android":"levelo://app?vid=e19bbcd4-547c-4c48-9d1e-941b58bfe99b","ios":"levelo://app?vid=e19bbcd4-547c-4c48-9d1e-941b58bfe99b"},"vehicle_type_id":"4","last_reported":1733836883,"current_range_meters":38000,"station_id":"ce4bgr92rcd13ifvqc6g","pricing_plan_id":"cebpf4jnsgd1na2vs0mg"},{"bike_id":"b8e7f883-5b9b-422d-81e9-d00c2442da3b","system_id":"levelo_inurba_marseille","lat":43.23064,"lon":5.35494,"is_reserved":false,"is_disabled":false,"rental_uris":{"android":"levelo://app?vid=b8e7f883-5b9b-422d-81e9-d00c2442da3b","ios":"levelo://app?vid=b8e7f883-5b9b-422d-81e9-d00c2442da3b"},"vehicle_type_id":"4","last_reported":1733836883,"current_range_meters":36400,"station_id":"cpo3342slgdg3j2ifvpg","pricing_plan_id":"cebpf4jnsgd1na2vs0mg"},{"bike_id":"6dff49f5-9a34-43d2-84bd-2e85915eccf9","system_id":"levelo_inurba_marseille","lat":43.32541,"lon":5.41439,"is_reserved":false,"is_disabled":false,"rental_uris":{"android":"levelo://app?vid=6dff49f5-9a34-43d2-84bd-2e85915eccf9","ios":"levelo://app?vid=6dff49f5-9a34-43d2-84bd-2e85915eccf9"},"vehicle_type_id":"4","last_reported":1733836883,"current_range_meters":36000,"station_id":"ce4bhq12rcd13ifvqhhg","pricing_plan_id":"cebpf4jnsgd1na2vs0mg"},{"bike_id":"c1598c12-4bef-4141-a99f-8dd71c41b81d","system_id":"levelo_inurba_marseille","lat":43.24183,"lon":5.39729,"is_reserved":false,"is_disabled":false,"rental_uris":{"android":"levelo://app?vid=c1598c12-4bef-4141-a99f-8dd71c41b81d","ios":"levelo://app?vid=c1598c12-4bef-4141-a99f-8dd71c41b81d"},"vehicle_type_id":"4","last_reported":1733836883,"current_range_meters":38800,"station_id":"ce4bhn12rcd13ifvqgpg","pricing_plan_id":"cebpf4jnsgd1na2vs0mg"},{"bike_id":"112d18f0-0c8d-401a-9a6a-02b78cfa9c65","system_id":"levelo_inurba_marseille","lat":43.28939,"lon":5.36393,"is_reserved":false,"is_disabled":false,"rental_uris":{"android":"levelo://app?vid=112d18f0-0c8d-401a-9a6a-02b78cfa9c65","ios":"levelo://app?vid=112d18f0-0c8d-401a-9a6a-02b78cfa9c65"},"vehicle_type_id":"4","last_reported":1733836883,"current_range_meters":29600,"station_id":"ce4bhc92rcd13ifvqetg","pricing_plan_id":"cebpf4jnsgd1na2vs0mg"},{"bike_id":"aac345db-d41e-475c-a96f-986bffa1163f","system_id":"levelo_inurba_marseille","lat":43.29618,"lon":5.37695,"is_reserved":false,"is_disabled":false,"rental_uris":{"android":"levelo://app?vid=aac345db-d41e-475c-a96f-986bffa1163f","ios":"levelo://app?vid=aac345db-d41e-475c-a96f-986bffa1163f"},"vehicle_type_id":"4","last_reported":1733836883,"current_range_meters":28000,"station_id":"ce4bgi92rcd13ifvqb90","pricing_plan_id":"cebpf4jnsgd1na2vs0mg"},{"bike_id":"56a21b46-febe-4794-80c1-58fd5e97ca18","system_id":"levelo_inurba_marseille","lat":43.27493,"lon":5.42453,"is_reserved":false,"is_disabled":false,"rental_uris":{"android":"levelo://app?vid=56a21b46-febe-4794-80c1-58fd5e97ca18","ios":"levelo://app?vid=56a21b46-febe-4794-80c1-58fd5e97ca18"},"vehicle_type_id":"4","last_reported":1733836883,"current_range_meters":26800,"station_id":"ce4bhn92rcd13ifvqgrg","pricing_plan_id":"cebpf4jnsgd1na2vs0mg"},{"bike_id":"a0b44e86-9121-4df3-b62a-0fc9a0d1110c","system_id":"levelo_inurba_marseille","lat":43.2306,"lon":5.35495,"is_reserved":false,"is_disabled":false,"rental_uris":{"android":"levelo://app?vid=a0b44e86-9121-4df3-b62a-0fc9a0d1110c","ios":"levelo://app?vid=a0b44e86-9121-4df3-b62a-0fc9a0d1110c"},"vehicle_type_id":"4","last_reported":1733836883,"current_range_meters":36400,"station_id":"cpo3342slgdg3j2ifvpg","pricing_plan_id":"cebpf4jnsgd1na2vs0mg"},{"bike_id":"2e01685f-56b8-43fb-8326-4885035c7450","system_id":"levelo_inurba_marseille","lat":43.29303,"lon":5.371771,"is_reserved":false,"is_disabled":true,"rental_uris":{"android":"levelo://app?vid=2e01685f-56b8-43fb-8326-4885035c7450","ios":"levelo://app?vid=2e01685f-56b8-43fb-8326-4885035c7450"},"vehicle_type_id":"4","last_reported":1733836883,"current_range_meters":0,"station_id":"ce4bgh92rcd13ifvqb40","pricing_plan_id":"cebpf4jnsgd1na2vs0mg"},{"bike_id":"fd640efb-b815-44e7-8368-69d02cf34287","system_id":"levelo_inurba_marseille","lat":43.29286,"lon":5.37441,"is_reserved":false,"is_disabled":false,"rental_uris":{"android":"levelo://app?vid=fd640efb-b815-44e7-8368-69d02cf34287","ios":"levelo://app?vid=fd640efb-b815-44e7-8368-69d02cf34287"},"vehicle_type_id":"4","last_reported":1733836883,"current_range_meters":26000,"station_id":"ce4bgi12rcd13ifvqb70","pricing_plan_id":"cebpf4jnsgd1na2vs0mg"},{"bike_id":"7bf913d9-a3c4-4599-8d55-d226644c68a3","system_id":"levelo_inurba_marseille","lat":43.26941,"lon":5.40254,"is_reserved":false,"is_disabled":false,"rental_uris":{"android":"levelo://app?vid=7bf913d9-a3c4-4599-8d55-d226644c68a3","ios":"levelo://app?vid=7bf913d9-a3c4-4599-8d55-d226644c68a3"},"vehicle_type_id":"4","last_reported":1733836883,"current_range_meters":17200,"station_id":"cjm6bp8fraef2m0cb0m0","pricing_plan_id":"cebpf4jnsgd1na2vs0mg"},{"bike_id":"127262d1-6a7c-4722-a817-f0ae38c2b2d7","system_id":"levelo_inurba_marseille","lat":43.25492,"lon":5.37648,"is_reserved":false,"is_disabled":false,"rental_uris":{"android":"levelo://app?vid=127262d1-6a7c-4722-a817-f0ae38c2b2d7","ios":"levelo://app?vid=127262d1-6a7c-4722-a817-f0ae38c2b2d7"},"vehicle_type_id":"4","last_reported":1733836883,"current_range_meters":38800,"station_id":"ce4bhh12rcd13ifvqff0","pricing_plan_id":"cebpf4jnsgd1na2vs0mg"},{"bike_id":"895451d5-ff92-4b0e-9e8d-7661df26407e","system_id":"levelo_inurba_marseille","lat":43.26062,"lon":5.39399,"is_reserved":false,"is_disabled":false,"rental_uris":{"android":"levelo://app?vid=895451d5-ff92-4b0e-9e8d-7661df26407e","ios":"levelo://app?vid=895451d5-ff92-4b0e-9e8d-7661df26407e"},"vehicle_type_id":"4","last_reported":1733836883,"current_range_meters":37600,"station_id":"ce4bhh92rcd13ifvqfj0","pricing_plan_id":"cebpf4jnsgd1na2vs0mg"},{"bike_id":"269ec608-9e03-403b-8eed-29cbbaa83f3f","system_id":"levelo_inurba_marseille","lat":43.26567,"lon":5.39009,"is_reserved":false,"is_disabled":false,"rental_uris":{"android":"levelo://app?vid=269ec608-9e03-403b-8eed-29cbbaa83f3f","ios":"levelo://app?vid=269ec608-9e03-403b-8eed-29cbbaa83f3f"},"vehicle_type_id":"4","last_reported":1733836883,"current_range_meters":14800,"station_id":"ce4bhe12rcd13ifvqf30","pricing_plan_id":"cebpf4jnsgd1na2vs0mg"},{"bike_id":"eab7c24e-3533-4637-b397-5e46bc48ccfd","system_id":"levelo_inurba_marseille","lat":43.23212,"lon":5.43667,"is_reserved":false,"is_disabled":true,"rental_uris":{"android":"levelo://app?vid=eab7c24e-3533-4637-b397-5e46bc48ccfd","ios":"levelo://app?vid=eab7c24e-3533-4637-b397-5e46bc48ccfd"},"vehicle_type_id":"4","last_reported":1733836883,"current_range_meters":5600,"station_id":"ce4bhmp2rcd13ifvqgog","pricing_plan_id":"cebpf4jnsgd1na2vs0mg"},{"bike_id":"59f42535-058f-475a-82f1-9d693002a3d4","system_id":"levelo_inurba_marseille","lat":43.29621,"lon":5.37151,"is_reserved":false,"is_disabled":false,"rental_uris":{"android":"levelo://app?vid=59f42535-058f-475a-82f1-9d693002a3d4","ios":"levelo://app?vid=59f42535-058f-475a-82f1-9d693002a3d4"},"vehicle_type_id":"4","last_reported":1733836883,"current_range_meters":31200,"station_id":"ce4bgnh2rcd13ifvqc0g","pricing_plan_id":"cebpf4jnsgd1na2vs0mg"},{"bike_id":"84cb717c-3ecc-4880-972c-6ca5c688368a","system_id":"levelo_inurba_marseille","lat":43.32482,"lon":5.36565,"is_reserved":false,"is_disabled":true,"rental_uris":{"android":"levelo://app?vid=84cb717c-3ecc-4880-972c-6ca5c688368a","ios":"levelo://app?vid=84cb717c-3ecc-4880-972c-6ca5c688368a"},"vehicle_type_id":"4","last_reported":1733836883,"current_range_meters":0,"station_id":"ce4bhs12rcd13ifvqhvg","pricing_plan_id":"cebpf4jnsgd1na2vs0mg"},{"bike_id":"38fd2845-183e-4350-b992-4b23c9a49c77","system_id":"levelo_inurba_marseille","lat":43.28978,"lon":5.3783,"is_reserved":false,"is_disabled":false,"rental_uris":{"android":"levelo://app?vid=38fd2845-183e-4350-b992-4b23c9a49c77","ios":"levelo://app?vid=38fd2845-183e-4350-b992-4b23c9a49c77"},"vehicle_type_id":"4","last_reported":1733836883,"current_range_meters":37600,"station_id":"ce4bh9p2rcd13ifvqed0","pricing_plan_id":"cebpf4jnsgd1na2vs0mg"},{"bike_id":"9de0c71d-b792-4243-8201-95a1a775fae2","system_id":"levelo_inurba_marseille","lat":43.30783,"lon":5.37656,"is_reserved":false,"is_disabled":false,"rental_uris":{"android":"levelo://app?vid=9de0c71d-b792-4243-8201-95a1a775fae2","ios":"levelo://app?vid=9de0c71d-b792-4243-8201-95a1a775fae2"},"vehicle_type_id":"4","last_reported":1733836883,"current_range_meters":20400,"station_id":"ce4bgv92rcd13ifvqcq0","pricing_plan_id":"cebpf4jnsgd1na2vs0mg"},{"bike_id":"7f739767-6908-4c49-adbc-724120315dbc","system_id":"levelo_inurba_marseille","lat":43.28468,"lon":5.3588,"is_reserved":false,"is_disabled":false,"rental_uris":{"android":"levelo://app?vid=7f739767-6908-4c49-adbc-724120315dbc","ios":"levelo://app?vid=7f739767-6908-4c49-adbc-724120315dbc"},"vehicle_type_id":"4","last_reported":1733836883,"current_range_meters":38800,"station_id":"ce4bhah2rcd13ifvqei0","pricing_plan_id":"cebpf4jnsgd1na2vs0mg"},{"bike_id":"8aae5af6-ba42-4409-86dd-ffa22585a2c5","system_id":"levelo_inurba_marseille","lat":43.28942,"lon":5.36387,"is_reserved":false,"is_disabled":false,"rental_uris":{"android":"levelo://app?vid=8aae5af6-ba42-4409-86dd-ffa22585a2c5","ios":"levelo://app?vid=8aae5af6-ba42-4409-86dd-ffa22585a2c5"},"vehicle_type_id":"4","last_reported":1733836883,"current_range_meters":7200,"station_id":"ce4bhc92rcd13ifvqetg","pricing_plan_id":"cebpf4jnsgd1na2vs0mg"},{"bike_id":"8a720b89-e785-465a-9efe-b4622713d051","system_id":"levelo_inurba_marseille","lat":43.27973,"lon":5.38749,"is_reserved":false,"is_disabled":false,"rental_uris":{"android":"levelo://app?vid=8a720b89-e785-465a-9efe-b4622713d051","ios":"levelo://app?vid=8a720b89-e785-465a-9efe-b4622713d051"},"vehicle_type_id":"4","last_reported":1733836883,"current_range_meters":23200,"station_id":"ce4bhg12rcd13ifvqf80","pricing_plan_id":"cebpf4jnsgd1na2vs0mg"},{"bike_id":"962a96b4-3298-40d0-92e0-1b449f02c0fe","system_id":"levelo_inurba_marseille","lat":43.25494,"lon":5.37647,"is_reserved":false,"is_disabled":true,"rental_uris":{"android":"levelo://app?vid=962a96b4-3298-40d0-92e0-1b449f02c0fe","ios":"levelo://app?vid=962a96b4-3298-40d0-92e0-1b449f02c0fe"},"vehicle_type_id":"4","last_reported":1733836883,"current_range_meters":36800,"station_id":"ce4bhh12rcd13ifvqff0","pricing_plan_id":"cebpf4jnsgd1na2vs0mg"},{"bike_id":"e9623358-1bc1-4de1-8e49-76e6e80de6d4","system_id":"levelo_inurba_marseille","lat":43.31482,"lon":5.37309,"is_reserved":false,"is_disabled":false,"rental_uris":{"android":"levelo://app?vid=e9623358-1bc1-4de1-8e49-76e6e80de6d4","ios":"levelo://app?vid=e9623358-1bc1-4de1-8e49-76e6e80de6d4"},"vehicle_type_id":"4","last_reported":1733836883,"current_range_meters":29600,"station_id":"ce4bgt12rcd13ifvqcd0","pricing_plan_id":"cebpf4jnsgd1na2vs0mg"},{"bike_id":"8fdc9d46-e387-4f1b-bf20-f751779fef35","system_id":"levelo_inurba_marseille","lat":43.31219,"lon":5.36859,"is_reserved":false,"is_disabled":false,"rental_uris":{"android":"levelo://app?vid=8fdc9d46-e387-4f1b-bf20-f751779fef35","ios":"levelo://app?vid=8fdc9d46-e387-4f1b-bf20-f751779fef35"},"vehicle_type_id":"4","last_reported":1733836883,"current_range_meters":38800,"station_id":"ce4bgl92rcd13ifvqbq0","pricing_plan_id":"cebpf4jnsgd1na2vs0mg"},{"bike_id":"ba5e4c54-9e0f-419d-acd3-894b4507a88b","system_id":"levelo_inurba_marseille","lat":43.23055,"lon":5.35487,"is_reserved":false,"is_disabled":false,"rental_uris":{"android":"levelo://app?vid=ba5e4c54-9e0f-419d-acd3-894b4507a88b","ios":"levelo://app?vid=ba5e4c54-9e0f-419d-acd3-894b4507a88b"},"vehicle_type_id":"4","last_reported":1733836883,"current_range_meters":26000,"station_id":"cpo3342slgdg3j2ifvpg","pricing_plan_id":"cebpf4jnsgd1na2vs0mg"},{"bike_id":"72c284ed-3e14-44ae-8881-97c5fcfda30d","system_id":"levelo_inurba_marseille","lat":43.3044,"lon":5.39751,"is_reserved":false,"is_disabled":false,"rental_uris":{"android":"levelo://app?vid=72c284ed-3e14-44ae-8881-97c5fcfda30d","ios":"levelo://app?vid=72c284ed-3e14-44ae-8881-97c5fcfda30d"},"vehicle_type_id":"4","last_reported":1733836883,"current_range_meters":30000,"station_id":"ce4bh092rcd13ifvqd20","pricing_plan_id":"cebpf4jnsgd1na2vs0mg"},{"bike_id":"e11e5398-2b26-4eb7-9ef7-831791928bde","system_id":"levelo_inurba_marseille","lat":43.31368,"lon":5.3669,"is_reserved":false,"is_disabled":false,"rental_uris":{"android":"levelo://app?vid=e11e5398-2b26-4eb7-9ef7-831791928bde","ios":"levelo://app?vid=e11e5398-2b26-4eb7-9ef7-831791928bde"},"vehicle_type_id":"4","last_reported":1733836883,"current_range_meters":38800,"station_id":"ce4bgr92rcd13ifvqc6g","pricing_plan_id":"cebpf4jnsgd1na2vs0mg"},{"bike_id":"48a992b2-b871-40eb-a504-df37145984ac","system_id":"levelo_inurba_marseille","lat":43.25874,"lon":5.39896,"is_reserved":false,"is_disabled":false,"rental_uris":{"android":"levelo://app?vid=48a992b2-b871-40eb-a504-df37145984ac","ios":"levelo://app?vid=48a992b2-b871-40eb-a504-df37145984ac"},"vehicle_type_id":"4","last_reported":1733836883,"current_range_meters":33600,"station_id":"ce4bhl92rcd13ifvqghg","pricing_plan_id":"cebpf4jnsgd1na2vs0mg"},{"bike_id":"fffa14be-58a4-4d6c-9582-c535b5f77ae9","system_id":"levelo_inurba_marseille","lat":43.27367,"lon":5.36257,"is_reserved":false,"is_disabled":false,"rental_uris":{"android":"levelo://app?vid=fffa14be-58a4-4d6c-9582-c535b5f77ae9","ios":"levelo://app?vid=fffa14be-58a4-4d6c-9582-c535b5f77ae9"},"vehicle_type_id":"4","last_reported":1733836883,"current_range_meters":38800,"station_id":"ce4bhbh2rcd13ifvqeo0","pricing_plan_id":"cebpf4jnsgd1na2vs0mg"},{"bike_id":"155e4552-adf3-45a5-aa6c-6e25fcaf05e5","system_id":"levelo_inurba_marseille","lat":43.27177,"lon":5.40992,"is_reserved":false,"is_disabled":false,"rental_uris":{"android":"levelo://app?vid=155e4552-adf3-45a5-aa6c-6e25fcaf05e5","ios":"levelo://app?vid=155e4552-adf3-45a5-aa6c-6e25fcaf05e5"},"vehicle_type_id":"4","last_reported":1733836883,"current_range_meters":38800,"station_id":"ce4bhl12rcd13ifvqgf0","pricing_plan_id":"cebpf4jnsgd1na2vs0mg"},{"bike_id":"3933b701-ca82-4b18-a882-72a61c67a1e4","system_id":"levelo_inurba_marseille","lat":43.24392,"lon":5.3706,"is_reserved":false,"is_disabled":true,"rental_uris":{"android":"levelo://app?vid=3933b701-ca82-4b18-a882-72a61c67a1e4","ios":"levelo://app?vid=3933b701-ca82-4b18-a882-72a61c67a1e4"},"vehicle_type_id":"4","last_reported":1733836883,"current_range_meters":37600,"station_id":"ce4bhhh2rcd13ifvqfk0","pricing_plan_id":"cebpf4jnsgd1na2vs0mg"},{"bike_id":"5607461a-1c3a-4753-81b6-4b18ff1a2491","system_id":"levelo_inurba_marseille","lat":43.31672,"lon":5.37776,"is_reserved":false,"is_disabled":false,"rental_uris":{"android":"levelo://app?vid=5607461a-1c3a-4753-81b6-4b18ff1a2491","ios":"levelo://app?vid=5607461a-1c3a-4753-81b6-4b18ff1a2491"},"vehicle_type_id":"4","last_reported":1733836883,"current_range_meters":38800,"station_id":"ce4bgth2rcd13ifvqch0","pricing_plan_id":"cebpf4jnsgd1na2vs0mg"},{"bike_id":"80de6221-e67c-47c2-8249-e13422581f94","system_id":"levelo_inurba_marseille","lat":43.31325,"lon":5.39686,"is_reserved":false,"is_disabled":false,"rental_uris":{"android":"levelo://app?vid=80de6221-e67c-47c2-8249-e13422581f94","ios":"levelo://app?vid=80de6221-e67c-47c2-8249-e13422581f94"},"vehicle_type_id":"4","last_reported":1733836883,"current_range_meters":19200,"station_id":"ce4bgvp2rcd13ifvqcu0","pricing_plan_id":"cebpf4jnsgd1na2vs0mg"},{"bike_id":"9582d053-95a3-4b6b-b966-9f8cbd6f715a","system_id":"levelo_inurba_marseille","lat":43.28036,"lon":5.36938,"is_reserved":false,"is_disabled":false,"rental_uris":{"android":"levelo://app?vid=9582d053-95a3-4b6b-b966-9f8cbd6f715a","ios":"levelo://app?vid=9582d053-95a3-4b6b-b966-9f8cbd6f715a"},"vehicle_type_id":"4","last_reported":1733836883,"current_range_meters":16000,"station_id":"ce4bha12rcd13ifvqef0","pricing_plan_id":"cebpf4jnsgd1na2vs0mg"},{"bike_id":"01a8a418-343c-4f1e-93fe-62ea64385fb0","system_id":"levelo_inurba_marseille","lat":43.29705,"lon":5.37697,"is_reserved":false,"is_disabled":false,"rental_uris":{"android":"levelo://app?vid=01a8a418-343c-4f1e-93fe-62ea64385fb0","ios":"levelo://app?vid=01a8a418-343c-4f1e-93fe-62ea64385fb0"},"vehicle_type_id":"4","last_reported":1733836883,"current_range_meters":35600,"station_id":"ce4bgkh2rcd13ifvqbl0","pricing_plan_id":"cebpf4jnsgd1na2vs0mg"},{"bike_id":"e952e30c-9e63-46c9-92a2-cbec5b90a09a","system_id":"levelo_inurba_marseille","lat":43.30893,"lon":5.37207,"is_reserved":false,"is_disabled":false,"rental_uris":{"android":"levelo://app?vid=e952e30c-9e63-46c9-92a2-cbec5b90a09a","ios":"levelo://app?vid=e952e30c-9e63-46c9-92a2-cbec5b90a09a"},"vehicle_type_id":"4","last_reported":1733836883,"current_range_meters":24400,"station_id":"ce4bguh2rcd13ifvqckg","pricing_plan_id":"cebpf4jnsgd1na2vs0mg"},{"bike_id":"e2f53572-0b48-4281-832d-10b6aad4a00e","system_id":"levelo_inurba_marseille","lat":43.309509,"lon":5.390281,"is_reserved":false,"is_disabled":false,"rental_uris":{"android":"levelo://app?vid=e2f53572-0b48-4281-832d-10b6aad4a00e","ios":"levelo://app?vid=e2f53572-0b48-4281-832d-10b6aad4a00e"},"vehicle_type_id":"4","last_reported":1733836883,"current_range_meters":4000,"station_id":"ce4bgup2rcd13ifvqco0","pricing_plan_id":"cebpf4jnsgd1na2vs0mg"},{"bike_id":"e1fda08d-d206-439e-bb5b-f0e13b88697c","system_id":"levelo_inurba_marseille","lat":43.30534,"lon":5.36543,"is_reserved":false,"is_disabled":false,"rental_uris":{"android":"levelo://app?vid=e1fda08d-d206-439e-bb5b-f0e13b88697c","ios":"levelo://app?vid=e1fda08d-d206-439e-bb5b-f0e13b88697c"},"vehicle_type_id":"4","last_reported":1733836883,"current_range_meters":27200,"station_id":"ce4bgs12rcd13ifvqcag","pricing_plan_id":"cebpf4jnsgd1na2vs0mg"},{"bike_id":"8ea2c49d-76f2-4d30-b97d-000c28822813","system_id":"levelo_inurba_marseille","lat":43.26193,"lon":5.37448,"is_reserved":false,"is_disabled":false,"rental_uris":{"android":"levelo://app?vid=8ea2c49d-76f2-4d30-b97d-000c28822813","ios":"levelo://app?vid=8ea2c49d-76f2-4d30-b97d-000c28822813"},"vehicle_type_id":"4","last_reported":1733836883,"current_range_meters":33600,"station_id":"ce4bhgp2rcd13ifvqfc0","pricing_plan_id":"cebpf4jnsgd1na2vs0mg"},{"bike_id":"4f58338b-a85b-4c1c-b7ea-249b0420c32f","system_id":"levelo_inurba_marseille","lat":43.29259,"lon":5.40158,"is_reserved":false,"is_disabled":true,"rental_uris":{"android":"levelo://app?vid=4f58338b-a85b-4c1c-b7ea-249b0420c32f","ios":"levelo://app?vid=4f58338b-a85b-4c1c-b7ea-249b0420c32f"},"vehicle_type_id":"4","last_reported":1733836883,"current_range_meters":38800,"station_id":"ce4bh312rcd13ifvqdk0","pricing_plan_id":"cebpf4jnsgd1na2vs0mg"},{"bike_id":"6149d10a-ee53-4413-9592-38357ced78cb","system_id":"levelo_inurba_marseille","lat":43.26195,"lon":5.37455,"is_reserved":false,"is_disabled":true,"rental_uris":{"android":"levelo://app?vid=6149d10a-ee53-4413-9592-38357ced78cb","ios":"levelo://app?vid=6149d10a-ee53-4413-9592-38357ced78cb"},"vehicle_type_id":"4","last_reported":1733836883,"current_range_meters":36000,"station_id":"ce4bhgp2rcd13ifvqfc0","pricing_plan_id":"cebpf4jnsgd1na2vs0mg"},{"bike_id":"6e5f19a4-228d-46f2-adfa-65d14fb76789","system_id":"levelo_inurba_marseille","lat":43.23154,"lon":5.43722,"is_reserved":false,"is_disabled":false,"rental_uris":{"android":"levelo://app?vid=6e5f19a4-228d-46f2-adfa-65d14fb76789","ios":"levelo://app?vid=6e5f19a4-228d-46f2-adfa-65d14fb76789"},"vehicle_type_id":"4","last_reported":1733836883,"current_range_meters":37600,"station_id":"ce4bhmp2rcd13ifvqgog","pricing_plan_id":"cebpf4jnsgd1na2vs0mg"},{"bike_id":"f03a0fd2-8b78-4caf-823d-2d72f29eb1fc","system_id":"levelo_inurba_marseille","lat":43.27176,"lon":5.40995,"is_reserved":false,"is_disabled":false,"rental_uris":{"android":"levelo://app?vid=f03a0fd2-8b78-4caf-823d-2d72f29eb1fc","ios":"levelo://app?vid=f03a0fd2-8b78-4caf-823d-2d72f29eb1fc"},"vehicle_type_id":"4","last_reported":1733836883,"current_range_meters":39200,"station_id":"ce4bhl12rcd13ifvqgf0","pricing_plan_id":"cebpf4jnsgd1na2vs0mg"},{"bike_id":"20e9db8d-d68b-4418-94af-d9d63f8c2b96","system_id":"levelo_inurba_marseille","lat":43.337444,"lon":5.374475,"is_reserved":false,"is_disabled":true,"rental_uris":{"android":"levelo://app?vid=20e9db8d-d68b-4418-94af-d9d63f8c2b96","ios":"levelo://app?vid=20e9db8d-d68b-4418-94af-d9d63f8c2b96"},"vehicle_type_id":"4","last_reported":1733836883,"current_range_meters":0,"station_id":"","pricing_plan_id":"cebpf4jnsgd1na2vs0mg"},{"bike_id":"d1759abf-a816-44e9-9410-5d5b34634ccb","system_id":"levelo_inurba_marseille","lat":43.28268,"lon":5.35079,"is_reserved":false,"is_disabled":false,"rental_uris":{"android":"levelo://app?vid=d1759abf-a816-44e9-9410-5d5b34634ccb","ios":"levelo://app?vid=d1759abf-a816-44e9-9410-5d5b34634ccb"},"vehicle_type_id":"4","last_reported":1733836883,"current_range_meters":24400,"station_id":"ce4bhbp2rcd13ifvqerg","pricing_plan_id":"cebpf4jnsgd1na2vs0mg"},{"bike_id":"b8eb245a-8bd6-49d9-b17c-34ae3e8ce2f1","system_id":"levelo_inurba_marseille","lat":43.29246,"lon":5.36761,"is_reserved":false,"is_disabled":false,"rental_uris":{"android":"levelo://app?vid=b8eb245a-8bd6-49d9-b17c-34ae3e8ce2f1","ios":"levelo://app?vid=b8eb245a-8bd6-49d9-b17c-34ae3e8ce2f1"},"vehicle_type_id":"4","last_reported":1733836883,"current_range_meters":6400,"station_id":"ce4bgn92rcd13ifvqbvg","pricing_plan_id":"cebpf4jnsgd1na2vs0mg"},{"bike_id":"445ceb1b-e0a6-42cd-bb44-eb8e9b1da8ee","system_id":"levelo_inurba_marseille","lat":43.32387,"lon":5.38977,"is_reserved":false,"is_disabled":false,"rental_uris":{"android":"levelo://app?vid=445ceb1b-e0a6-42cd-bb44-eb8e9b1da8ee","ios":"levelo://app?vid=445ceb1b-e0a6-42cd-bb44-eb8e9b1da8ee"},"vehicle_type_id":"4","last_reported":1733836883,"current_range_meters":15200,"station_id":"","pricing_plan_id":"cebpf4jnsgd1na2vs0mg"},{"bike_id":"b9936653-54a0-4625-b381-d323f5b4080b","system_id":"levelo_inurba_marseille","lat":43.316967,"lon":5.377387,"is_reserved":false,"is_disabled":false,"rental_uris":{"android":"levelo://app?vid=b9936653-54a0-4625-b381-d323f5b4080b","ios":"levelo://app?vid=b9936653-54a0-4625-b381-d323f5b4080b"},"vehicle_type_id":"4","last_reported":1733836883,"current_range_meters":38800,"station_id":"ce4bgth2rcd13ifvqch0","pricing_plan_id":"cebpf4jnsgd1na2vs0mg"},{"bike_id":"f6f6210d-5e07-46dd-93e4-3e102dd7cb0e","system_id":"levelo_inurba_marseille","lat":43.29395,"lon":5.38885,"is_reserved":false,"is_disabled":true,"rental_uris":{"android":"levelo://app?vid=f6f6210d-5e07-46dd-93e4-3e102dd7cb0e","ios":"levelo://app?vid=f6f6210d-5e07-46dd-93e4-3e102dd7cb0e"},"vehicle_type_id":"4","last_reported":1733836883,"current_range_meters":0,"station_id":"","pricing_plan_id":"cebpf4jnsgd1na2vs0mg"},{"bike_id":"3519c974-7da6-4232-adb0-520c619948ee","system_id":"levelo_inurba_marseille","lat":43.337444,"lon":5.374475,"is_reserved":false,"is_disabled":false,"rental_uris":{"android":"levelo://app?vid=3519c974-7da6-4232-adb0-520c619948ee","ios":"levelo://app?vid=3519c974-7da6-4232-adb0-520c619948ee"},"vehicle_type_id":"4","last_reported":1733836883,"current_range_meters":32000,"station_id":"","pricing_plan_id":"cebpf4jnsgd1na2vs0mg"},{"bike_id":"61aacb50-7933-41a5-9f5e-8fdb6fd8695b","system_id":"levelo_inurba_marseille","lat":43.27966,"lon":5.38727,"is_reserved":false,"is_disabled":false,"rental_uris":{"android":"levelo://app?vid=61aacb50-7933-41a5-9f5e-8fdb6fd8695b","ios":"levelo://app?vid=61aacb50-7933-41a5-9f5e-8fdb6fd8695b"},