{"last_updated":1753341345,"ttl":60,"version":"2.2","data":{"bikes":[{"bike_id":"be195ba6-1e0f-4159-bc72-9a3ba69b5a56","system_id":"levelo_inurba_marseille","lat":43.313643,"lon":5.391489,"is_reserved":false,"is_disabled":false,"rental_uris":{"android":"levelo://app?vid=be195ba6-1e0f-4159-bc72-9a3ba69b5a56","ios":"levelo://app?vid=be195ba6-1e0f-4159-bc72-9a3ba69b5a56"},"vehicle_type_id":"4","last_reported":1753341345,"current_range_meters":2800,"station_id":"","pricing_plan_id":"cebpf4jnsgd1na2vs0mg"},{"bike_id":"2c553c16-ab1e-4420-9b1d-1ad00f7a3b7d","system_id":"levelo_inurba_marseille","lat":43.29638,"lon":5.4059,"is_reserved":false,"is_disabled":false,"rental_uris":{"android":"levelo://app?vid=2c553c16-ab1e-4420-9b1d-1ad00f7a3b7d","ios":"levelo://app?vid=2c553c16-ab1e-4420-9b1d-1ad00f7a3b7d"},"vehicle_type_id":"4","last_reported":1753341345,"current_range_meters":2000,"station_id":"ce4bh0h2rcd13ifvqd60","pricing_plan_id":"cebpf4jnsgd1na2vs0mg"},{"bike_id":"cfe5918e-2c06-485f-97d3-cb6768f2a43f","system_id":"levelo_inurba_marseille","lat":43.23149,"lon":5.43706,"is_reserved":false,"is_disabled":false,"rental_uris":{"android":"levelo://app?vid=cfe5918e-2c06-485f-97d3-cb6768f2a43f","ios":"levelo://app?vid=cfe5918e-2c06-485f-97d3-cb6768f2a43f"},"vehicle_type_id":"4","last_reported":1753341345,"current_range_meters":2800,"station_id":"ce4bhmp2rcd13ifvqgog","pricing_plan_id":"cebpf4jnsgd1na2vs0mg"},{"bike_id":"3e672a12-a06c-421d-8d90-001874a4fd84","system_id":"levelo_inurba_marseille","lat":43.30213,"lon":5.39461,"is_reserved":false,"is_disabled":true,"rental_uris":{"android":"levelo://app?vid=3e672a12-a06c-421d-8d90-001874a4fd84","ios":"levelo://app?vid=3e672a12-a06c-421d-8d90-001874a4fd84"},"vehicle_type_id":"4","last_reported":1753341345,"current_range_meters":2800,"station_id":"ce4bh0p2rcd13ifvqd70","pricing_plan_id":"cebpf4jnsgd1na2vs0mg"},{"bike_id":"6c0c02ff-cde2-473f-8a5f-7e143f93e848","system_id":"levelo_inurba_marseille","lat":43.28986,"lon":5.37834,"is_reserved":false,"is_disabled":false,"rental_uris":{"android":"levelo://app?vid=6c0c02ff-cde2-473f-8a5f-7e143f93e848","ios":"levelo://app?vid=6c0c02ff-cde2-473f-8a5f-7e143f93e848"},"vehicle_type_id":"4","last_reported":1753341345,"current_range_meters":2800,"station_id":"ce4bh9p2rcd13ifvqed0","pricing_plan_id":"cebpf4jnsgd1na2vs0mg"},{"bike_id":"2d1d0003-9be0-4221-bd30-6a03a1339afa","system_id":"levelo_inurba_marseille","lat":43.25577,"lon":5.38227,"is_reserved":false,"is_disabled":false,"rental_uris":{"android":"levelo://app?vid=2d1d0003-9be0-4221-bd30-6a03a1339afa","ios":"levelo://app?vid=2d1d0003-9be0-4221-bd30-6a03a1339afa"},"vehicle_type_id":"4","last_reported":1753341345,"current_range_meters":3200,"station_id":"ce4bhih2rcd13ifvqfs0","pricing_plan_id":"cebpf4jnsgd1na2vs0mg"},{"bike_id":"83766871-d64f-4fc8-9d3b-2ceaf03b1036","system_id":"levelo_inurba_marseille","lat":43.211984,"lon":5.350701,"is_reserved":false,"is_disabled":false,"rental_uris":{"android":"levelo://app?vid=83766871-d64f-4fc8-9d3b-2ceaf03b1036","ios":"levelo://app?vid=83766871-d64f-4fc8-9d3b-2ceaf03b1036"},"vehicle_type_id":"4","last_reported":1753341345,"current_range_meters":3200,"station_id":"st_cvj6sg6p6f1abm77japg","pricing_plan_id":"cebpf4jnsgd1na2vs0mg"},{"bike_id":"1cb1a79a-be7e-4c7f-8fb8-282eb66c78c3","system_id":"levelo_inurba_marseille","lat":43.29704,"lon":5.37689,"is_reserved":false,"is_disabled":false,"rental_uris":{"android":"levelo://app?vid=1cb1a79a-be7e-4c7f-8fb8-282eb66c78c3","ios":"levelo://app?vid=1cb1a79a-be7e-4c7f-8fb8-282eb66c78c3"},"vehicle_type_id":"4","last_reported":1753341345,"current_range_meters":3200,"station_id":"ce4bgkh2rcd13ifvqbl0","pricing_plan_id":"cebpf4jnsgd1na2vs0mg"},{"bike_id":"3e7c300b-8e45-4c93-98df-a5c26ccde022","system_id":"levelo_inurba_marseille","lat":43.27953,"lon":5.38714,"is_reserved":false,"is_disabled":false,"rental_uris":{"android":"levelo://app?vid=3e7c300b-8e45-4c93-98df-a5c26ccde022","ios":"levelo://app?vid=3e7c300b-8e45-4c93-98df-a5c26ccde022"},"vehicle_type_id":"4","last_reported":1753341345,"current_range_meters":3600,"station_id":"ce4bhg12rcd13ifvqf80","pricing_plan_id":"cebpf4jnsgd1na2vs0mg"},{"bike_id":"b84a0cb7-2934-4e46-91ed-f5deb84fef74","system_id":"levelo_inurba_marseille","lat":43.30361,"lon":5.41861,"is_reserved":false,"is_disabled":false,"rental_uris":{"android":"levelo://app?vid=b84a0cb7-2934-4e46-91ed-f5deb84fef74","ios":"levelo://app?vid=b84a0cb7-2934-4e46-91ed-f5deb84fef74"},"vehicle_type_id":"4","last_reported":1753341345,"current_range_meters":4000,"station_id":"ce4bhop2rcd13ifvqh7g","pricing_plan_id":"cebpf4jnsgd1na2vs0mg"},{"bike_id":"821cb3e6-1fa9-4f8b-bf57-a1dd109520dd","system_id":"levelo_inurba_marseille","lat":43.30378,"lon":5.42487,"is_reserved":false,"is_disabled":false,"rental_uris":{"android":"levelo://app?vid=821cb3e6-1fa9-4f8b-bf57-a1dd109520dd","ios":"levelo://app?vid=821cb3e6-1fa9-4f8b-bf57-a1dd109520dd"},"vehicle_type_id":"4","last_reported":1753341345,"current_range_meters":4000,"station_id":"ce4bhoh2rcd13ifvqh6g","pricing_plan_id":"cebpf4jnsgd1na2vs0mg"},{"bike_id":"58100060-2648-4c12-bf8c-af267ff4f2f0","system_id":"levelo_inurba_marseille","lat":43.298206,"lon":5.362348,"is_reserved":false,"is_disabled":false,"rental_uris":{"android":"levelo://app?vid=58100060-2648-4c12-bf8c-af267ff4f2f0","ios":"levelo://app?vid=58100060-2648-4c12-bf8c-af267ff4f2f0"},"vehicle_type_id":"4","last_reported":1753341345,"current_range_meters":4000,"station_id":"ce4bgpp2rcd13ifvqc3g","pricing_plan_id":"cebpf4jnsgd1na2vs0mg"},{"bike_id":"2375cade-ab2f-4d70-815a-dda984992af7","system_id":"levelo_inurba_marseille","lat":43.314,"lon":5.36722,"is_reserved":false,"is_disabled":false,"rental_uris":{"android":"levelo://app?vid=2375cade-ab2f-4d70-815a-dda984992af7","ios":"levelo://app?vid=2375cade-ab2f-4d70-815a-dda984992af7"},"vehicle_type_id":"4","last_reported":1753341345,"current_range_meters":4000,"station_id":"ce4bgr92rcd13ifvqc6g","pricing_plan_id":"cebpf4jnsgd1na2vs0mg"},{"bike_id":"5130e846-eae9-45af-96fb-8d96bcdb72c2","system_id":"levelo_inurba_marseille","lat":43.259368,"lon":5.409036,"is_reserved":false,"is_disabled":false,"rental_uris":{"android":"levelo://app?vid=5130e846-eae9-45af-96fb-8d96bcdb72c2","ios":"levelo://app?vid=5130e846-eae9-45af-96fb-8d96bcdb72c2"},"vehicle_type_id":"4","last_reported":1753341345,"current_range_meters":4400,"station_id":"ce4bhm92rcd13ifvqglg","pricing_plan_id":"cebpf4jnsgd1na2vs0mg"},{"bike_id":"658c959d-cc69-4d00-a14c-47b819e8f226","system_id":"levelo_inurba_marseille","lat":43.28427,"lon":5.39192,"is_reserved":false,"is_disabled":false,"rental_uris":{"android":"levelo://app?vid=658c959d-cc69-4d00-a14c-47b819e8f226","ios":"levelo://app?vid=658c959d-cc69-4d00-a14c-47b819e8f226"},"vehicle_type_id":"4","last_reported":1753341345,"current_range_meters":4400,"station_id":"ce4bhoh2rcd13ifvqh5g","pricing_plan_id":"cebpf4jnsgd1na2vs0mg"},{"bike_id":"5e384150-aa2d-476d-94a0-51e329bdca89","system_id":"levelo_inurba_marseille","lat":43.26565,"lon":5.3901,"is_reserved":false,"is_disabled":false,"rental_uris":{"android":"levelo://app?vid=5e384150-aa2d-476d-94a0-51e329bdca89","ios":"levelo://app?vid=5e384150-aa2d-476d-94a0-51e329bdca89"},"vehicle_type_id":"4","last_reported":1753341345,"current_range_meters":4800,"station_id":"ce4bhe12rcd13ifvqf30","pricing_plan_id":"cebpf4jnsgd1na2vs0mg"},{"bike_id":"d07f0755-aca6-4050-807e-9c5aaf0dd619","system_id":"levelo_inurba_marseille","lat":43.296823,"lon":5.372723,"is_reserved":false,"is_disabled":false,"rental_uris":{"android":"levelo://app?vid=d07f0755-aca6-4050-807e-9c5aaf0dd619","ios":"levelo://app?vid=d07f0755-aca6-4050-807e-9c5aaf0dd619"},"vehicle_type_id":"4","last_reported":1753341345,"current_range_meters":5600,"station_id":"ce4bgk12rcd13ifvqbj0","pricing_plan_id":"cebpf4jnsgd1na2vs0mg"},{"bike_id":"9ae7d50c-a3ea-4136-8080-315c191e000a","system_id":"levelo_inurba_marseille","lat":43.28783,"lon":5.38416,"is_reserved":false,"is_disabled":false,"rental_uris":{"android":"levelo://app?vid=9ae7d50c-a3ea-4136-8080-315c191e000a","ios":"levelo://app?vid=9ae7d50c-a3ea-4136-8080-315c191e000a"},"vehicle_type_id":"4","last_reported":1753341345,"current_range_meters":5600,"station_id":"","pricing_plan_id":"cebpf4jnsgd1na2vs0mg"},{"bike_id":"939cedcb-0404-4e27-baa3-a2cff78eb1f3","system_id":"levelo_inurba_marseille","lat":43.261912,"lon":5.374493,"is_reserved":false,"is_disabled":true,"rental_uris":{"android":"levelo://app?vid=939cedcb-0404-4e27-baa3-a2cff78eb1f3","ios":"levelo://app?vid=939cedcb-0404-4e27-baa3-a2cff78eb1f3"},"vehicle_type_id":"4","last_reported":1753341345,"current_range_meters":5600,"station_id":"","pricing_plan_id":"cebpf4jnsgd1na2vs0mg"},{"bike_id":"3f4d8445-a2c5-45e4-800c-019d64fbb997","system_id":"levelo_inurba_marseille","lat":43.32478,"lon":5.36557,"is_reserved":false,"is_disabled":false,"rental_uris":{"android":"levelo://app?vid=3f4d8445-a2c5-45e4-800c-019d64fbb997","ios":"levelo://app?vid=3f4d8445-a2c5-45e4-800c-019d64fbb997"},"vehicle_type_id":"4","last_reported":1753341345,"current_range_meters":5600,"station_id":"ce4bhs12rcd13ifvqhvg","pricing_plan_id":"cebpf4jnsgd1na2vs0mg"},{"bike_id":"9011d2ed-af21-4f8a-a07e-fe613e17a6a3","system_id":"levelo_inurba_marseille","lat":43.3096,"lon":5.3904,"is_reserved":false,"is_disabled":false,"rental_uris":{"android":"levelo://app?vid=9011d2ed-af21-4f8a-a07e-fe613e17a6a3","ios":"levelo://app?vid=9011d2ed-af21-4f8a-a07e-fe613e17a6a3"},"vehicle_type_id":"4","last_reported":1753341345,"current_range_meters":6000,"station_id":"ce4bgup2rcd13ifvqco0","pricing_plan_id":"cebpf4jnsgd1na2vs0mg"},{"bike_id":"42f8355e-ebf7-4be4-81dc-5e42f11ba3e8","system_id":"levelo_inurba_marseille","lat":43.24808,"lon":5.3746,"is_reserved":false,"is_disabled":false,"rental_uris":{"android":"levelo://app?vid=42f8355e-ebf7-4be4-81dc-5e42f11ba3e8","ios":"levelo://app?vid=42f8355e-ebf7-4be4-81dc-5e42f11ba3e8"},"vehicle_type_id":"4","last_reported":1753341345,"current_range_meters":5600,"station_id":"ce4bhgh2rcd13ifvqfb0","pricing_plan_id":"cebpf4jnsgd1na2vs0mg"},{"bike_id":"cec54183-4175-4e4a-8f8a-f4fafb6e7dc0","system_id":"levelo_inurba_marseille","lat":43.2795,"lon":5.39001,"is_reserved":false,"is_disabled":false,"rental_uris":{"android":"levelo://app?vid=cec54183-4175-4e4a-8f8a-f4fafb6e7dc0","ios":"levelo://app?vid=cec54183-4175-4e4a-8f8a-f4fafb6e7dc0"},"vehicle_type_id":"4","last_reported":1753341345,"current_range_meters":6000,"station_id":"","pricing_plan_id":"cebpf4jnsgd1na2vs0mg"},{"bike_id":"c8cbe188-8c80-4aac-881d-65feb870e521","system_id":"levelo_inurba_marseille","lat":43.33019,"lon":5.38044,"is_reserved":false,"is_disabled":false,"rental_uris":{"android":"levelo://app?vid=c8cbe188-8c80-4aac-881d-65feb870e521","ios":"levelo://app?vid=c8cbe188-8c80-4aac-881d-65feb870e521"},"vehicle_type_id":"4","last_reported":1753341345,"current_range_meters":6000,"station_id":"","pricing_plan_id":"cebpf4jnsgd1na2vs0mg"},{"bike_id":"209da430-903e-4f50-bf2b-25e3f31e84ae","system_id":"levelo_inurba_marseille","lat":43.29264,"lon":5.38433,"is_reserved":false,"is_disabled":false,"rental_uris":{"android":"levelo://app?vid=209da430-903e-4f50-bf2b-25e3f31e84ae","ios":"levelo://app?vid=209da430-903e-4f50-bf2b-25e3f31e84ae"},"vehicle_type_id":"4","last_reported":1753341345,"current_range_meters":6400,"station_id":"ce4bh692rcd13ifvqea0","pricing_plan_id":"cebpf4jnsgd1na2vs0mg"},{"bike_id":"bd8aba08-a20b-4280-82e9-2f9d456f55b9","system_id":"levelo_inurba_marseille","lat":43.313343,"lon":5.36693,"is_reserved":false,"is_disabled":false,"rental_uris":{"android":"levelo://app?vid=bd8aba08-a20b-4280-82e9-2f9d456f55b9","ios":"levelo://app?vid=bd8aba08-a20b-4280-82e9-2f9d456f55b9"},"vehicle_type_id":"4","last_reported":1753341345,"current_range_meters":6000,"station_id":"ce4bgr92rcd13ifvqc6g","pricing_plan_id":"cebpf4jnsgd1na2vs0mg"},{"bike_id":"b418dfd5-f8fe-4110-9771-628e79533809","system_id":"levelo_inurba_marseille","lat":43.26555,"lon":5.37302,"is_reserved":false,"is_disabled":false,"rental_uris":{"android":"levelo://app?vid=b418dfd5-f8fe-4110-9771-628e79533809","ios":"levelo://app?vid=b418dfd5-f8fe-4110-9771-628e79533809"},"vehicle_type_id":"4","last_reported":1753341345,"current_range_meters":6800,"station_id":"ce4bhg12rcd13ifvqf70","pricing_plan_id":"cebpf4jnsgd1na2vs0mg"},{"bike_id":"c0ece2a8-b928-406e-a7bb-8f30d22c0b07","system_id":"levelo_inurba_marseille","lat":43.29177,"lon":5.37156,"is_reserved":false,"is_disabled":false,"rental_uris":{"android":"levelo://app?vid=c0ece2a8-b928-406e-a7bb-8f30d22c0b07","ios":"levelo://app?vid=c0ece2a8-b928-406e-a7bb-8f30d22c0b07"},"vehicle_type_id":"4","last_reported":1753341345,"current_range_meters":6400,"station_id":"ce4bha92rcd13ifvqeh0","pricing_plan_id":"cebpf4jnsgd1na2vs0mg"},{"bike_id":"5fc32afb-68b5-40af-8972-3cf06bd16d56","system_id":"levelo_inurba_marseille","lat":43.30157,"lon":5.38088,"is_reserved":false,"is_disabled":false,"rental_uris":{"android":"levelo://app?vid=5fc32afb-68b5-40af-8972-3cf06bd16d56","ios":"levelo://app?vid=5fc32afb-68b5-40af-8972-3cf06bd16d56"},"vehicle_type_id":"4","last_reported":1753341345,"current_range_meters":6800,"station_id":"ce4bgjp2rcd13ifvqbh0","pricing_plan_id":"cebpf4jnsgd1na2vs0mg"},{"bike_id":"c9dbd36b-479c-4a5c-b200-3aa7673340d9","system_id":"levelo_inurba_marseille","lat":43.241448,"lon":5.363743,"is_reserved":false,"is_disabled":false,"rental_uris":{"android":"levelo://app?vid=c9dbd36b-479c-4a5c-b200-3aa7673340d9","ios":"levelo://app?vid=c9dbd36b-479c-4a5c-b200-3aa7673340d9"},"vehicle_type_id":"4","last_reported":1753341345,"current_range_meters":7200,"station_id":"","pricing_plan_id":"cebpf4jnsgd1na2vs0mg"},{"bike_id":"6c5d7d01-3760-4109-99e3-b65c437056f1","system_id":"levelo_inurba_marseille","lat":43.25935,"lon":5.40914,"is_reserved":false,"is_disabled":false,"rental_uris":{"android":"levelo://app?vid=6c5d7d01-3760-4109-99e3-b65c437056f1","ios":"levelo://app?vid=6c5d7d01-3760-4109-99e3-b65c437056f1"},"vehicle_type_id":"4","last_reported":1753341345,"current_range_meters":7200,"station_id":"ce4bhm92rcd13ifvqglg","pricing_plan_id":"cebpf4jnsgd1na2vs0mg"},{"bike_id":"8e98eab0-66ab-41cb-865f-913b58891b39","system_id":"levelo_inurba_marseille","lat":43.22504,"lon":5.3477,"is_reserved":false,"is_disabled":false,"rental_uris":{"android":"levelo://app?vid=8e98eab0-66ab-41cb-865f-913b58891b39","ios":"levelo://app?vid=8e98eab0-66ab-41cb-865f-913b58891b39"},"vehicle_type_id":"4","last_reported":1753341345,"current_range_meters":7200,"station_id":"st_cvj5dfep6f1abm77gieg","pricing_plan_id":"cebpf4jnsgd1na2vs0mg"},{"bike_id":"aa5097b6-6968-4aec-b711-e7780938924b","system_id":"levelo_inurba_marseille","lat":43.32953,"lon":5.358923,"is_reserved":false,"is_disabled":false,"rental_uris":{"android":"levelo://app?vid=aa5097b6-6968-4aec-b711-e7780938924b","ios":"levelo://app?vid=aa5097b6-6968-4aec-b711-e7780938924b"},"vehicle_type_id":"4","last_reported":1753341345,"current_range_meters":7200,"station_id":"","pricing_plan_id":"cebpf4jnsgd1na2vs0mg"},{"bike_id":"49817bfa-2976-4626-b9b0-d6e3f4481d9b","system_id":"levelo_inurba_marseille","lat":43.30374,"lon":5.42487,"is_reserved":false,"is_disabled":false,"rental_uris":{"android":"levelo://app?vid=49817bfa-2976-4626-b9b0-d6e3f4481d9b","ios":"levelo://app?vid=49817bfa-2976-4626-b9b0-d6e3f4481d9b"},"vehicle_type_id":"4","last_reported":1753341345,"current_range_meters":8000,"station_id":"ce4bhoh2rcd13ifvqh6g","pricing_plan_id":"cebpf4jnsgd1na2vs0mg"},{"bike_id":"d31417ee-5ba5-4328-b485-09f1b21a56cb","system_id":"levelo_inurba_marseille","lat":43.29279,"lon":5.4013,"is_reserved":false,"is_disabled":false,"rental_uris":{"android":"levelo://app?vid=d31417ee-5ba5-4328-b485-09f1b21a56cb","ios":"levelo://app?vid=d31417ee-5ba5-4328-b485-09f1b21a56cb"},"vehicle_type_id":"4","last_reported":1753341345,"current_range_meters":8000,"station_id":"ce4bh312rcd13ifvqdk0","pricing_plan_id":"cebpf4jnsgd1na2vs0mg"},{"bike_id":"9495ddc7-0d42-474a-834b-2e8180ab49a4","system_id":"levelo_inurba_marseille","lat":43.24179,"lon":5.39724,"is_reserved":false,"is_disabled":false,"rental_uris":{"android":"levelo://app?vid=9495ddc7-0d42-474a-834b-2e8180ab49a4","ios":"levelo://app?vid=9495ddc7-0d42-474a-834b-2e8180ab49a4"},"vehicle_type_id":"4","last_reported":1753341345,"current_range_meters":8400,"station_id":"ce4bhn12rcd13ifvqgpg","pricing_plan_id":"cebpf4jnsgd1na2vs0mg"},{"bike_id":"ab87e1f7-abe2-4879-8847-579f441a056a","system_id":"levelo_inurba_marseille","lat":43.31085,"lon":5.42434,"is_reserved":false,"is_disabled":false,"rental_uris":{"android":"levelo://app?vid=ab87e1f7-abe2-4879-8847-579f441a056a","ios":"levelo://app?vid=ab87e1f7-abe2-4879-8847-579f441a056a"},"vehicle_type_id":"4","last_reported":1753341345,"current_range_meters":8400,"station_id":"ce4bhp92rcd13ifvqhag","pricing_plan_id":"cebpf4jnsgd1na2vs0mg"},{"bike_id":"da053e6a-15f2-492e-8bc1-42b1d66cc329","system_id":"levelo_inurba_marseille","lat":43.28358,"lon":5.432563,"is_reserved":false,"is_disabled":false,"rental_uris":{"android":"levelo://app?vid=da053e6a-15f2-492e-8bc1-42b1d66cc329","ios":"levelo://app?vid=da053e6a-15f2-492e-8bc1-42b1d66cc329"},"vehicle_type_id":"4","last_reported":1753341345,"current_range_meters":8800,"station_id":"","pricing_plan_id":"cebpf4jnsgd1na2vs0mg"},{"bike_id":"3b409891-184b-47ff-b2a3-26995ee48619","system_id":"levelo_inurba_marseille","lat":43.290059,"lon":5.356065,"is_reserved":false,"is_disabled":false,"rental_uris":{"android":"levelo://app?vid=3b409891-184b-47ff-b2a3-26995ee48619","ios":"levelo://app?vid=3b409891-184b-47ff-b2a3-26995ee48619"},"vehicle_type_id":"4","last_reported":1753341345,"current_range_meters":8800,"station_id":"ce4bhb92rcd13ifvqen0","pricing_plan_id":"cebpf4jnsgd1na2vs0mg"},{"bike_id":"7f963e76-4c2a-4b2d-a6e7-6e4e7f5b20c6","system_id":"levelo_inurba_marseille","lat":43.31496,"lon":5.37275,"is_reserved":false,"is_disabled":false,"rental_uris":{"android":"levelo://app?vid=7f963e76-4c2a-4b2d-a6e7-6e4e7f5b20c6","ios":"levelo://app?vid=7f963e76-4c2a-4b2d-a6e7-6e4e7f5b20c6"},"vehicle_type_id":"4","last_reported":1753341345,"current_range_meters":9200,"station_id":"ce4bgt12rcd13ifvqcd0","pricing_plan_id":"cebpf4jnsgd1na2vs0mg"},{"bike_id":"ca7bb881-2cdd-4cfb-bd1a-5fd072db155a","system_id":"levelo_inurba_marseille","lat":43.2586,"lon":5.39911,"is_reserved":false,"is_disabled":false,"rental_uris":{"android":"levelo://app?vid=ca7bb881-2cdd-4cfb-bd1a-5fd072db155a","ios":"levelo://app?vid=ca7bb881-2cdd-4cfb-bd1a-5fd072db155a"},"vehicle_type_id":"4","last_reported":1753341345,"current_range_meters":9200,"station_id":"ce4bhl92rcd13ifvqghg","pricing_plan_id":"cebpf4jnsgd1na2vs0mg"},{"bike_id":"77be17ea-a677-46d6-a392-fbc6761621fc","system_id":"levelo_inurba_marseille","lat":43.30535,"lon":5.36555,"is_reserved":false,"is_disabled":false,"rental_uris":{"android":"levelo://app?vid=77be17ea-a677-46d6-a392-fbc6761621fc","ios":"levelo://app?vid=77be17ea-a677-46d6-a392-fbc6761621fc"},"vehicle_type_id":"4","last_reported":1753341345,"current_range_meters":9200,"station_id":"ce4bgs12rcd13ifvqcag","pricing_plan_id":"cebpf4jnsgd1na2vs0mg"},{"bike_id":"f9062784-0417-4840-bb15-81c56a64826f","system_id":"levelo_inurba_marseille","lat":43.22504,"lon":5.3478,"is_reserved":false,"is_disabled":false,"rental_uris":{"android":"levelo://app?vid=f9062784-0417-4840-bb15-81c56a64826f","ios":"levelo://app?vid=f9062784-0417-4840-bb15-81c56a64826f"},"vehicle_type_id":"4","last_reported":1753341345,"current_range_meters":9200,"station_id":"","pricing_plan_id":"cebpf4jnsgd1na2vs0mg"},{"bike_id":"9f32c24c-dc71-467a-88d1-2a46642b1695","system_id":"levelo_inurba_marseille","lat":43.30536,"lon":5.3652,"is_reserved":false,"is_disabled":false,"rental_uris":{"android":"levelo://app?vid=9f32c24c-dc71-467a-88d1-2a46642b1695","ios":"levelo://app?vid=9f32c24c-dc71-467a-88d1-2a46642b1695"},"vehicle_type_id":"4","last_reported":1753341345,"current_range_meters":9200,"station_id":"ce4bgs12rcd13ifvqcag","pricing_plan_id":"cebpf4jnsgd1na2vs0mg"},{"bike_id":"c3b4c842-89f1-49ff-abb9-fc4b30df4519","system_id":"levelo_inurba_marseille","lat":43.25573,"lon":5.38216,"is_reserved":false,"is_disabled":false,"rental_uris":{"android":"levelo://app?vid=c3b4c842-89f1-49ff-abb9-fc4b30df4519","ios":"levelo://app?vid=c3b4c842-89f1-49ff-abb9-fc4b30df4519"},"vehicle_type_id":"4","last_reported":1753341345,"current_range_meters":9200,"station_id":"ce4bhih2rcd13ifvqfs0","pricing_plan_id":"cebpf4jnsgd1na2vs0mg"},{"bike_id":"c4ab8b6f-b9e7-4d47-91c0-82fcf9196b75","system_id":"levelo_inurba_marseille","lat":43.30225,"lon":5.40061,"is_reserved":false,"is_disabled":true,"rental_uris":{"android":"levelo://app?vid=c4ab8b6f-b9e7-4d47-91c0-82fcf9196b75","ios":"levelo://app?vid=c4ab8b6f-b9e7-4d47-91c0-82fcf9196b75"},"vehicle_type_id":"4","last_reported":1753341345,"current_range_meters":9200,"station_id":"ce4bgvh2rcd13ifvqcs0","pricing_plan_id":"cebpf4jnsgd1na2vs0mg"},{"bike_id":"098b0695-cda3-4c2f-a440-ef95faa16f32","system_id":"levelo_inurba_marseille","lat":43.22505,"lon":5.34782,"is_reserved":false,"is_disabled":true,"rental_uris":{"android":"levelo://app?vid=098b0695-cda3-4c2f-a440-ef95faa16f32","ios":"levelo://app?vid=098b0695-cda3-4c2f-a440-ef95faa16f32"},"vehicle_type_id":"4","last_reported":1753341345,"current_range_meters":9200,"station_id":"st_cvj5dfep6f1abm77gieg","pricing_plan_id":"cebpf4jnsgd1na2vs0mg"},{"bike_id":"ba3fba8b-8547-44d3-9a52-398bfbc6d268","system_id":"levelo_inurba_marseille","lat":43.231812,"lon":5.399903,"is_reserved":false,"is_disabled":false,"rental_uris":{"android":"levelo://app?vid=ba3fba8b-8547-44d3-9a52-398bfbc6d268","ios":"levelo://app?vid=ba3fba8b-8547-44d3-9a52-398bfbc6d268"},"vehicle_type_id":"4","last_reported":1753341345,"current_range_meters":9200,"station_id":"ce4bhn12rcd13ifvqgqg","pricing_plan_id":"cebpf4jnsgd1na2vs0mg"},{"bike_id":"7b7524ae-8ecd-499f-93b7-a6de3bab91d4","system_id":"levelo_inurba_marseille","lat":43.29888,"lon":5.43662,"is_reserved":false,"is_disabled":false,"rental_uris":{"android":"levelo://app?vid=7b7524ae-8ecd-499f-93b7-a6de3bab91d4","ios":"levelo://app?vid=7b7524ae-8ecd-499f-93b7-a6de3bab91d4"},"vehicle_type_id":"4","last_reported":1753341345,"current_range_meters":9600,"station_id":"ce4bhpp2rcd13ifvqhfg","pricing_plan_id":"cebpf4jnsgd1na2vs0mg"},{"bike_id":"c99b32ef-25d9-480e-99d0-ca980f77a836","system_id":"levelo_inurba_marseille","lat":43.323541,"lon":5.367451,"is_reserved":false,"is_disabled":false,"rental_uris":{"android":"levelo://app?vid=c99b32ef-25d9-480e-99d0-ca980f77a836","ios":"levelo://app?vid=c99b32ef-25d9-480e-99d0-ca980f77a836"},"vehicle_type_id":"4","last_reported":1753341345,"current_range_meters":9600,"station_id":"ce4bhsh2rcd13ifvqi2g","pricing_plan_id":"cebpf4jnsgd1na2vs0mg"},{"bike_id":"67e51d97-dba2-4ecb-b646-b3a2048d6de6","system_id":"levelo_inurba_marseille","lat":43.30907,"lon":5.36845,"is_reserved":false,"is_disabled":false,"rental_uris":{"android":"levelo://app?vid=67e51d97-dba2-4ecb-b646-b3a2048d6de6","ios":"levelo://app?vid=67e51d97-dba2-4ecb-b646-b3a2048d6de6"},"vehicle_type_id":"4","last_reported":1753341345,"current_range_meters":9600,"station_id":"ce4bgn92rcd13ifvqbvg","pricing_plan_id":"cebpf4jnsgd1na2vs0mg"},{"bike_id":"453dd59c-f8e6-4b89-bfc8-5004e7e5f9af","system_id":"levelo_inurba_marseille","lat":43.30886,"lon":5.36849,"is_reserved":false,"is_disabled":false,"rental_uris":{"android":"levelo://app?vid=453dd59c-f8e6-4b89-bfc8-5004e7e5f9af","ios":"levelo://app?vid=453dd59c-f8e6-4b89-bfc8-5004e7e5f9af"},"vehicle_type_id":"4","last_reported":1753341345,"current_range_meters":9600,"station_id":"ce4bgn92rcd13ifvqbvg","pricing_plan_id":"cebpf4jnsgd1na2vs0mg"},{"bike_id":"ff05e8f8-3b79-4ff5-b3e3-65a28295edd0","system_id":"levelo_inurba_marseille","lat":43.3055,"lon":5.3656,"is_reserved":false,"is_disabled":false,"rental_uris":{"android":"levelo://app?vid=ff05e8f8-3b79-4ff5-b3e3-65a28295edd0","ios":"levelo://app?vid=ff05e8f8-3b79-4ff5-b3e3-65a28295edd0"},"vehicle_type_id":"4","last_reported":1753341345,"current_range_meters":9200,"station_id":"ce4bgs12rcd13ifvqcag","pricing_plan_id":"cebpf4jnsgd1na2vs0mg"},{"bike_id":"9f3ed220-9e9e-4bc8-a5f6-aeb6066011ca","system_id":"levelo_inurba_marseille","lat":43.26207,"lon":5.37439,"is_reserved":false,"is_disabled":false,"rental_uris":{"android":"levelo://app?vid=9f3ed220-9e9e-4bc8-a5f6-aeb6066011ca","ios":"levelo://app?vid=9f3ed220-9e9e-4bc8-a5f6-aeb6066011ca"},"vehicle_type_id":"4","last_reported":1753341345,"current_range_meters":9600,"station_id":"ce4bhgp2rcd13ifvqfc0","pricing_plan_id":"cebpf4jnsgd1na2vs0mg"},{"bike_id":"cf37ea52-a2a7-4560-8a0b-84ce8f62bb56","system_id":"levelo_inurba_marseille","lat":43.27806,"lon":5.40718,"is_reserved":false,"is_disabled":false,"rental_uris":{"android":"levelo://app?vid=cf37ea52-a2a7-4560-8a0b-84ce8f62bb56","ios":"levelo://app?vid=cf37ea52-a2a7-4560-8a0b-84ce8f62bb56"},"vehicle_type_id":"4","last_reported":1753341345,"current_range_meters":9600,"station_id":"ce4bhnh2rcd13ifvqgtg","pricing_plan_id":"cebpf4jnsgd1na2vs0mg"},{"bike_id":"dec93502-9771-4f3a-879a-cbdfb860df89","system_id":"levelo_inurba_marseille","lat":43.276613,"lon":5.38385,"is_reserved":false,"is_disabled":false,"rental_uris":{"android":"levelo://app?vid=dec93502-9771-4f3a-879a-cbdfb860df89","ios":"levelo://app?vid=dec93502-9771-4f3a-879a-cbdfb860df89"},"vehicle_type_id":"4","last_reported":1753341345,"current_range_meters":10000,"station_id":"","pricing_plan_id":"cebpf4jnsgd1na2vs0mg"},{"bike_id":"c6b360f6-a7f7-4604-a2fe-799d6e2b81bf","system_id":"levelo_inurba_marseille","lat":43.29294,"lon":5.37641,"is_reserved":false,"is_disabled":false,"rental_uris":{"android":"levelo://app?vid=c6b360f6-a7f7-4604-a2fe-799d6e2b81bf","ios":"levelo://app?vid=c6b360f6-a7f7-4604-a2fe-799d6e2b81bf"},"vehicle_type_id":"4","last_reported":1753341345,"current_range_meters":10000,"station_id":"ce4bgi12rcd13ifvqb80","pricing_plan_id":"cebpf4jnsgd1na2vs0mg"},{"bike_id":"8006020a-6cfe-4131-82ca-a6c8f07671d2","system_id":"levelo_inurba_marseille","lat":43.31186,"lon":5.37709,"is_reserved":false,"is_disabled":false,"rental_uris":{"android":"levelo://app?vid=8006020a-6cfe-4131-82ca-a6c8f07671d2","ios":"levelo://app?vid=8006020a-6cfe-4131-82ca-a6c8f07671d2"},"vehicle_type_id":"4","last_reported":1753341345,"current_range_meters":10000,"station_id":"","pricing_plan_id":"cebpf4jnsgd1na2vs0mg"},{"bike_id":"b982e5a3-88f5-4403-a53a-38d90073ed80","system_id":"levelo_inurba_marseille","lat":43.294197,"lon":5.432249,"is_reserved":false,"is_disabled":false,"rental_uris":{"android":"levelo://app?vid=b982e5a3-88f5-4403-a53a-38d90073ed80","ios":"levelo://app?vid=b982e5a3-88f5-4403-a53a-38d90073ed80"},"vehicle_type_id":"4","last_reported":1753341345,"current_range_meters":10000,"station_id":"","pricing_plan_id":"cebpf4jnsgd1na2vs0mg"},{"bike_id":"989f83fb-ff71-4155-b76a-14f2120d604d","system_id":"levelo_inurba_marseille","lat":43.29977,"lon":5.37173,"is_reserved":false,"is_disabled":false,"rental_uris":{"android":"levelo://app?vid=989f83fb-ff71-4155-b76a-14f2120d604d","ios":"levelo://app?vid=989f83fb-ff71-4155-b76a-14f2120d604d"},"vehicle_type_id":"4","last_reported":1753341345,"current_range_meters":10000,"station_id":"ce4bgr92rcd13ifvqc7g","pricing_plan_id":"cebpf4jnsgd1na2vs0mg"},{"bike_id":"9414fea0-7c6e-4c39-95f1-457a63a631b4","system_id":"levelo_inurba_marseille","lat":43.2251,"lon":5.34782,"is_reserved":false,"is_disabled":true,"rental_uris":{"android":"levelo://app?vid=9414fea0-7c6e-4c39-95f1-457a63a631b4","ios":"levelo://app?vid=9414fea0-7c6e-4c39-95f1-457a63a631b4"},"vehicle_type_id":"4","last_reported":1753341345,"current_range_meters":10000,"station_id":"st_cvj5dfep6f1abm77gieg","pricing_plan_id":"cebpf4jnsgd1na2vs0mg"},{"bike_id":"072249e0-6b31-4d65-814c-3886177b7a41","system_id":"levelo_inurba_marseille","lat":43.31775,"lon":5.39022,"is_reserved":false,"is_disabled":false,"rental_uris":{"android":"levelo://app?vid=072249e0-6b31-4d65-814c-3886177b7a41","ios":"levelo://app?vid=072249e0-6b31-4d65-814c-3886177b7a41"},"vehicle_type_id":"4","last_reported":1753341345,"current_range_meters":10000,"station_id":"ce4bhqp2rcd13ifvqhng","pricing_plan_id":"cebpf4jnsgd1na2vs0mg"},{"bike_id":"ead6dea8-d1aa-4b35-acdf-16c087d9967a","system_id":"levelo_inurba_marseille","lat":43.3135,"lon":5.36701,"is_reserved":false,"is_disabled":false,"rental_uris":{"android":"levelo://app?vid=ead6dea8-d1aa-4b35-acdf-16c087d9967a","ios":"levelo://app?vid=ead6dea8-d1aa-4b35-acdf-16c087d9967a"},"vehicle_type_id":"4","last_reported":1753341345,"current_range_meters":10800,"station_id":"ce4bgr92rcd13ifvqc6g","pricing_plan_id":"cebpf4jnsgd1na2vs0mg"},{"bike_id":"bbc2b271-396f-4875-9f1d-0fcc163d87b6","system_id":"levelo_inurba_marseille","lat":43.29072,"lon":5.39891,"is_reserved":false,"is_disabled":false,"rental_uris":{"android":"levelo://app?vid=bbc2b271-396f-4875-9f1d-0fcc163d87b6","ios":"levelo://app?vid=bbc2b271-396f-4875-9f1d-0fcc163d87b6"},"vehicle_type_id":"4","last_reported":1753341345,"current_range_meters":10800,"station_id":"","pricing_plan_id":"cebpf4jnsgd1na2vs0mg"},{"bike_id":"649a6524-8390-4653-8bcf-9537fff11e28","system_id":"levelo_inurba_marseille","lat":43.28467,"lon":5.3588,"is_reserved":false,"is_disabled":false,"rental_uris":{"android":"levelo://app?vid=649a6524-8390-4653-8bcf-9537fff11e28","ios":"levelo://app?vid=649a6524-8390-4653-8bcf-9537fff11e28"},"vehicle_type_id":"4","last_reported":1753341345,"current_range_meters":10800,"station_id":"ce4bhah2rcd13ifvqei0","pricing_plan_id":"cebpf4jnsgd1na2vs0mg"},{"bike_id":"be73e0c3-1fcd-4852-b65a-d69995cb5cc9","system_id":"levelo_inurba_marseille","lat":43.32347,"lon":5.40609,"is_reserved":false,"is_disabled":false,"rental_uris":{"android":"levelo://app?vid=be73e0c3-1fcd-4852-b65a-d69995cb5cc9","ios":"levelo://app?vid=be73e0c3-1fcd-4852-b65a-d69995cb5cc9"},"vehicle_type_id":"4","last_reported":1753341345,"current_range_meters":10800,"station_id":"ce4bhq92rcd13ifvqhjg","pricing_plan_id":"cebpf4jnsgd1na2vs0mg"},{"bike_id":"7851951d-7efd-4983-bcf8-36b084ea5f31","system_id":"levelo_inurba_marseille","lat":43.31669,"lon":5.4049,"is_reserved":false,"is_disabled":false,"rental_uris":{"android":"levelo://app?vid=7851951d-7efd-4983-bcf8-36b084ea5f31","ios":"levelo://app?vid=7851951d-7efd-4983-bcf8-36b084ea5f31"},"vehicle_type_id":"4","last_reported":1753341345,"current_range_meters":10800,"station_id":"ce4bh012rcd13ifvqd00","pricing_plan_id":"cebpf4jnsgd1na2vs0mg"},{"bike_id":"bea6049a-d364-4623-a92b-2caf2dacdc06","system_id":"levelo_inurba_marseille","lat":43.26797,"lon":5.39405,"is_reserved":false,"is_disabled":false,"rental_uris":{"android":"levelo://app?vid=bea6049a-d364-4623-a92b-2caf2dacdc06","ios":"levelo://app?vid=bea6049a-d364-4623-a92b-2caf2dacdc06"},"vehicle_type_id":"4","last_reported":1753341345,"current_range_meters":10800,"station_id":"ce4bhh12rcd13ifvqfg0","pricing_plan_id":"cebpf4jnsgd1na2vs0mg"},{"bike_id":"f9c9ff83-8548-4acb-a33b-495af4adeef4","system_id":"levelo_inurba_marseille","lat":43.32363,"lon":5.36759,"is_reserved":false,"is_disabled":false,"rental_uris":{"android":"levelo://app?vid=f9c9ff83-8548-4acb-a33b-495af4adeef4","ios":"levelo://app?vid=f9c9ff83-8548-4acb-a33b-495af4adeef4"},"vehicle_type_id":"4","last_reported":1753341345,"current_range_meters":11200,"station_id":"ce4bhsh2rcd13ifvqi2g","pricing_plan_id":"cebpf4jnsgd1na2vs0mg"},{"bike_id":"f3217e35-0bb5-43ab-beb0-dd5e233a7114","system_id":"levelo_inurba_marseille","lat":43.25583,"lon":5.38222,"is_reserved":false,"is_disabled":false,"rental_uris":{"android":"levelo://app?vid=f3217e35-0bb5-43ab-beb0-dd5e233a7114","ios":"levelo://app?vid=f3217e35-0bb5-43ab-beb0-dd5e233a7114"},"vehicle_type_id":"4","last_reported":1753341345,"current_range_meters":11200,"station_id":"ce4bhih2rcd13ifvqfs0","pricing_plan_id":"cebpf4jnsgd1na2vs0mg"},{"bike_id":"fec3b07e-037a-4fea-a191-679ee2b99950","system_id":"levelo_inurba_marseille","lat":43.24161,"lon":5.36384,"is_reserved":false,"is_disabled":false,"rental_uris":{"android":"levelo://app?vid=fec3b07e-037a-4fea-a191-679ee2b99950","ios":"levelo://app?vid=fec3b07e-037a-4fea-a191-679ee2b99950"},"vehicle_type_id":"4","last_reported":1753341345,"current_range_meters":11200,"station_id":"cpo36qri1sfpv3e86is0","pricing_plan_id":"cebpf4jnsgd1na2vs0mg"},{"bike_id":"a23567dc-f3a0-4378-b496-90cd12ea77ac","system_id":"levelo_inurba_marseille","lat":43.27371,"lon":5.36255,"is_reserved":false,"is_disabled":false,"rental_uris":{"android":"levelo://app?vid=a23567dc-f3a0-4378-b496-90cd12ea77ac","ios":"levelo://app?vid=a23567dc-f3a0-4378-b496-90cd12ea77ac"},"vehicle_type_id":"4","last_reported":1753341345,"current_range_meters":11200,"station_id":"ce4bhbh2rcd13ifvqeo0","pricing_plan_id":"cebpf4jnsgd1na2vs0mg"},{"bike_id":"a0de01aa-cd68-4a4d-8bab-65fa167b8610","system_id":"levelo_inurba_marseille","lat":43.23186,"lon":5.35554,"is_reserved":false,"is_disabled":false,"rental_uris":{"android":"levelo://app?vid=a0de01aa-cd68-4a4d-8bab-65fa167b8610","ios":"levelo://app?vid=a0de01aa-cd68-4a4d-8bab-65fa167b8610"},"vehicle_type_id":"4","last_reported":1753341345,"current_range_meters":11200,"station_id":"ce4bhu92rcd13ifvqi70","pricing_plan_id":"cebpf4jnsgd1na2vs0mg"},{"bike_id":"da41e391-65c4-420c-bb86-5f12103ceae1","system_id":"levelo_inurba_marseille","lat":43.3016,"lon":5.38072,"is_reserved":false,"is_disabled":false,"rental_uris":{"android":"levelo://app?vid=da41e391-65c4-420c-bb86-5f12103ceae1","ios":"levelo://app?vid=da41e391-65c4-420c-bb86-5f12103ceae1"},"vehicle_type_id":"4","last_reported":1753341345,"current_range_meters":11200,"station_id":"ce4bgjp2rcd13ifvqbh0","pricing_plan_id":"cebpf4jnsgd1na2vs0mg"},{"bike_id":"7ca0bf5e-2993-45c9-866f-452888c9c143","system_id":"levelo_inurba_marseille","lat":43.28472,"lon":5.35852,"is_reserved":false,"is_disabled":false,"rental_uris":{"android":"levelo://app?vid=7ca0bf5e-2993-45c9-866f-452888c9c143","ios":"levelo://app?vid=7ca0bf5e-2993-45c9-866f-452888c9c143"},"vehicle_type_id":"4","last_reported":1753341345,"current_range_meters":11200,"station_id":"ce4bhah2rcd13ifvqei0","pricing_plan_id":"cebpf4jnsgd1na2vs0mg"},{"bike_id":"9ce312f1-cb07-4159-91d6-c11a68a5ee71","system_id":"levelo_inurba_marseille","lat":43.211926,"lon":5.350704,"is_reserved":false,"is_disabled":false,"rental_uris":{"android":"levelo://app?vid=9ce312f1-cb07-4159-91d6-c11a68a5ee71","ios":"levelo://app?vid=9ce312f1-cb07-4159-91d6-c11a68a5ee71"},"vehicle_type_id":"4","last_reported":1753341345,"current_range_meters":11200,"station_id":"st_cvj6sg6p6f1abm77japg","pricing_plan_id":"cebpf4jnsgd1na2vs0mg"},{"bike_id":"d8dc20bc-067a-4d02-b472-160a7f6f646b","system_id":"levelo_inurba_marseille","lat":43.24065,"lon":5.37746,"is_reserved":false,"is_disabled":false,"rental_uris":{"android":"levelo://app?vid=d8dc20bc-067a-4d02-b472-160a7f6f646b","ios":"levelo://app?vid=d8dc20bc-067a-4d02-b472-160a7f6f646b"},"vehicle_type_id":"4","last_reported":1753341345,"current_range_meters":11200,"station_id":"ce4bhnp2rcd13ifvqgvg","pricing_plan_id":"cebpf4jnsgd1na2vs0mg"},{"bike_id":"98cf60b6-35cd-447a-94f1-eb3b9e85bb39","system_id":"levelo_inurba_marseille","lat":43.29046,"lon":5.39948,"is_reserved":false,"is_disabled":false,"rental_uris":{"android":"levelo://app?vid=98cf60b6-35cd-447a-94f1-eb3b9e85bb39","ios":"levelo://app?vid=98cf60b6-35cd-447a-94f1-eb3b9e85bb39"},"vehicle_type_id":"4","last_reported":1753341345,"current_range_meters":11600,"station_id":"ce4bh392rcd13ifvqdm0","pricing_plan_id":"cebpf4jnsgd1na2vs0mg"},{"bike_id":"b5ce8d93-17c0-45a5-b2b1-eefce45c2d79","system_id":"levelo_inurba_marseille","lat":43.318003,"lon":5.435097,"is_reserved":false,"is_disabled":false,"rental_uris":{"android":"levelo://app?vid=b5ce8d93-17c0-45a5-b2b1-eefce45c2d79","ios":"levelo://app?vid=b5ce8d93-17c0-45a5-b2b1-eefce45c2d79"},"vehicle_type_id":"4","last_reported":1753341345,"current_range_meters":11600,"station_id":"","pricing_plan_id":"cebpf4jnsgd1na2vs0mg"},{"bike_id":"8fe1aefe-a7b5-4523-b8ab-ca996458375e","system_id":"levelo_inurba_marseille","lat":43.31086,"lon":5.42419,"is_reserved":false,"is_disabled":false,"rental_uris":{"android":"levelo://app?vid=8fe1aefe-a7b5-4523-b8ab-ca996458375e","ios":"levelo://app?vid=8fe1aefe-a7b5-4523-b8ab-ca996458375e"},"vehicle_type_id":"4","last_reported":1753341345,"current_range_meters":11600,"station_id":"ce4bhp92rcd13ifvqhag","pricing_plan_id":"cebpf4jnsgd1na2vs0mg"},{"bike_id":"f8232130-db52-4ff5-b354-f78033a04c00","system_id":"levelo_inurba_marseille","lat":43.27937,"lon":5.41048,"is_reserved":false,"is_disabled":false,"rental_uris":{"android":"levelo://app?vid=f8232130-db52-4ff5-b354-f78033a04c00","ios":"levelo://app?vid=f8232130-db52-4ff5-b354-f78033a04c00"},"vehicle_type_id":"4","last_reported":1753341345,"current_range_meters":11600,"station_id":"ce4bhnp2rcd13ifvqh0g","pricing_plan_id":"cebpf4jnsgd1na2vs0mg"},{"bike_id":"be1d3fb1-1acf-452d-b0a0-093ecfc71aec","system_id":"levelo_inurba_marseille","lat":43.24156,"lon":5.39715,"is_reserved":false,"is_disabled":false,"rental_uris":{"android":"levelo://app?vid=be1d3fb1-1acf-452d-b0a0-093ecfc71aec","ios":"levelo://app?vid=be1d3fb1-1acf-452d-b0a0-093ecfc71aec"},"vehicle_type_id":"4","last_reported":1753341345,"current_range_meters":12000,"station_id":"ce4bhn12rcd13ifvqgpg","pricing_plan_id":"cebpf4jnsgd1na2vs0mg"},{"bike_id":"1e7d27be-23af-4c7f-9a5e-514152b69086","system_id":"levelo_inurba_marseille","lat":43.29389,"lon":5.40961,"is_reserved":false,"is_disabled":false,"rental_uris":{"android":"levelo://app?vid=1e7d27be-23af-4c7f-9a5e-514152b69086","ios":"levelo://app?vid=1e7d27be-23af-4c7f-9a5e-514152b69086"},"vehicle_type_id":"4","last_reported":1753341345,"current_range_meters":12000,"station_id":"","pricing_plan_id":"cebpf4jnsgd1na2vs0mg"},{"bike_id":"fdb610f8-756d-4f3c-85c8-3111ef7472fa","system_id":"levelo_inurba_marseille","lat":43.29961,"lon":5.38867,"is_reserved":false,"is_disabled":false,"rental_uris":{"android":"levelo://app?vid=fdb610f8-756d-4f3c-85c8-3111ef7472fa","ios":"levelo://app?vid=fdb610f8-756d-4f3c-85c8-3111ef7472fa"},"vehicle_type_id":"4","last_reported":1753341345,"current_range_meters":12000,"station_id":"","pricing_plan_id":"cebpf4jnsgd1na2vs0mg"},{"bike_id":"ec0adf83-6184-4d63-a8bd-8a4c46331101","system_id":"levelo_inurba_marseille","lat":43.260327,"lon":5.394047,"is_reserved":false,"is_disabled":false,"rental_uris":{"android":"levelo://app?vid=ec0adf83-6184-4d63-a8bd-8a4c46331101","ios":"levelo://app?vid=ec0adf83-6184-4d63-a8bd-8a4c46331101"},"vehicle_type_id":"4","last_reported":1753341345,"current_range_meters":12000,"station_id":"ce4bhh92rcd13ifvqfj0","pricing_plan_id":"cebpf4jnsgd1na2vs0mg"},{"bike_id":"70737bad-8214-4681-8a7d-fa98042cf105","system_id":"levelo_inurba_marseille","lat":43.29054,"lon":5.39953,"is_reserved":false,"is_disabled":false,"rental_uris":{"android":"levelo://app?vid=70737bad-8214-4681-8a7d-fa98042cf105","ios":"levelo://app?vid=70737bad-8214-4681-8a7d-fa98042cf105"},"vehicle_type_id":"4","last_reported":1753341345,"current_range_meters":12400,"station_id":"ce4bh392rcd13ifvqdm0","pricing_plan_id":"cebpf4jnsgd1na2vs0mg"},{"bike_id":"e2f98fd7-fc9f-43bb-a66c-0e5537909d44","system_id":"levelo_inurba_marseille","lat":43.29037,"lon":5.39958,"is_reserved":false,"is_disabled":false,"rental_uris":{"android":"levelo://app?vid=e2f98fd7-fc9f-43bb-a66c-0e5537909d44","ios":"levelo://app?vid=e2f98fd7-fc9f-43bb-a66c-0e5537909d44"},"vehicle_type_id":"4","last_reported":1753341345,"current_range_meters":12400,"station_id":"ce4bh392rcd13ifvqdm0","pricing_plan_id":"cebpf4jnsgd1na2vs0mg"},{"bike_id":"ccb3864d-c432-462e-b6b3-9285260f97cb","system_id":"levelo_inurba_marseille","lat":43.272169,"lon":5.391294,"is_reserved":false,"is_disabled":false,"rental_uris":{"android":"levelo://app?vid=ccb3864d-c432-462e-b6b3-9285260f97cb","ios":"levelo://app?vid=ccb3864d-c432-462e-b6b3-9285260f97cb"},"vehicle_type_id":"4","last_reported":1753341345,"current_range_meters":12400,"station_id":"ce4bhhp2rcd13ifvqfm0","pricing_plan_id":"cebpf4jnsgd1na2vs0mg"},{"bike_id":"0f73fd28-b84a-44a6-81b3-09e6a990ceea","system_id":"levelo_inurba_marseille","lat":43.30184,"lon":5.36594,"is_reserved":false,"is_disabled":false,"rental_uris":{"android":"levelo://app?vid=0f73fd28-b84a-44a6-81b3-09e6a990ceea","ios":"levelo://app?vid=0f73fd28-b84a-44a6-81b3-09e6a990ceea"},"vehicle_type_id":"4","last_reported":1753341345,"current_range_meters":12400,"station_id":"ce4bgrh2rcd13ifvqc8g","pricing_plan_id":"cebpf4jnsgd1na2vs0mg"},{"bike_id":"f9322b84-4311-4472-9e01-0a942613dbdc","system_id":"levelo_inurba_marseille","lat":43.280003,"lon":5.416656,"is_reserved":false,"is_disabled":false,"rental_uris":{"android":"levelo://app?vid=f9322b84-4311-4472-9e01-0a942613dbdc","ios":"levelo://app?vid=f9322b84-4311-4472-9e01-0a942613dbdc"},"vehicle_type_id":"4","last_reported":1753341345,"current_range_meters":12800,"station_id":"ce4bho12rcd13ifvqh1g","pricing_plan_id":"cebpf4jnsgd1na2vs0mg"},{"bike_id":"74667481-5f03-4636-8b5a-495e4f40157d","system_id":"levelo_inurba_marseille","lat":43.30974,"lon":5.37363,"is_reserved":false,"is_disabled":false,"rental_uris":{"android":"levelo://app?vid=74667481-5f03-4636-8b5a-495e4f40157d","ios":"levelo://app?vid=74667481-5f03-4636-8b5a-495e4f40157d"},"vehicle_type_id":"4","last_reported":1753341345,"current_range_meters":12800,"station_id":"","pricing_plan_id":"cebpf4jnsgd1na2vs0mg"},{"bike_id":"496cac02-0e91-4f64-97b9-cb34cf0ab931","system_id":"levelo_inurba_marseille","lat":43.22422,"lon":5.34724,"is_reserved":false,"is_disabled":false,"rental_uris":{"android":"levelo://app?vid=496cac02-0e91-4f64-97b9-cb34cf0ab931","ios":"levelo://app?vid=496cac02-0e91-4f64-97b9-cb34cf0ab931"},"vehicle_type_id":"4","last_reported":1753341345,"current_range_meters":12800,"station_id":"","pricing_plan_id":"cebpf4jnsgd1na2vs0mg"},{"bike_id":"ae131367-d818-44a0-9e1d-4aa65dcdb16a","system_id":"levelo_inurba_marseille","lat":43.27521,"lon":5.39647,"is_reserved":false,"is_disabled":false,"rental_uris":{"android":"levelo://app?vid=ae131367-d818-44a0-9e1d-4aa65dcdb16a","ios":"levelo://app?vid=ae131367-d818-44a0-9e1d-4aa65dcdb16a"},"vehicle_type_id":"4","last_reported":1753341345,"current_range_meters":12800,"station_id":"","pricing_plan_id":"cebpf4jnsgd1na2vs0mg"},{"bike_id":"3cd09fc8-9554-4236-8496-0931a7be09d1","system_id":"levelo_inurba_marseille","lat":43.211925,"lon":5.3508,"is_reserved":false,"is_disabled":false,"rental_uris":{"android":"levelo://app?vid=3cd09fc8-9554-4236-8496-0931a7be09d1","ios":"levelo://app?vid=3cd09fc8-9554-4236-8496-0931a7be09d1"},"vehicle_type_id":"4","last_reported":1753341345,"current_range_meters":12800,"station_id":"st_cvj6sg6p6f1abm77japg","pricing_plan_id":"cebpf4jnsgd1na2vs0mg"},{"bike_id":"2ee732fb-16c6-4794-9a8e-0c60df4bd4d8","system_id":"levelo_inurba_marseille","lat":43.2175,"lon":5.34595,"is_reserved":false,"is_disabled":false,"rental_uris":{"android":"levelo://app?vid=2ee732fb-16c6-4794-9a8e-0c60df4bd4d8","ios":"levelo://app?vid=2ee732fb-16c6-4794-9a8e-0c60df4bd4d8"},"vehicle_type_id":"4","last_reported":1753341345,"current_range_meters":12800,"station_id":"","pricing_plan_id":"cebpf4jnsgd1na2vs0mg"},{"bike_id":"fcc8f2b2-a2b4-4935-a08a-789141e13884","system_id":"levelo_inurba_marseille","lat":43.27281,"lon":5.39069,"is_reserved":false,"is_disabled":false,"rental_uris":{"android":"levelo://app?vid=fcc8f2b2-a2b4-4935-a08a-789141e13884","ios":"levelo://app?vid=fcc8f2b2-a2b4-4935-a08a-789141e13884"},"vehicle_type_id":"4","last_reported":1753341345,"current_range_meters":12800,"station_id":"ce4bhgp2rcd13ifvqfe0","pricing_plan_id":"cebpf4jnsgd1na2vs0mg"},{"bike_id":"44499859-96d0-4beb-a2fe-c7bc0623cb12","system_id":"levelo_inurba_marseille","lat":43.3135,"lon":5.36725,"is_reserved":false,"is_disabled":false,"rental_uris":{"android":"levelo://app?vid=44499859-96d0-4beb-a2fe-c7bc0623cb12","ios":"levelo://app?vid=44499859-96d0-4beb-a2fe-c7bc0623cb12"},"vehicle_type_id":"4","last_reported":1753341345,"current_range_meters":12800,"station_id":"ce4bgr92rcd13ifvqc6g","pricing_plan_id":"cebpf4jnsgd1na2vs0mg"},{"bike_id":"75921511-23bf-408f-9470-1062209789d6","system_id":"levelo_inurba_marseille","lat":43.25585,"lon":5.38213,"is_reserved":false,"is_disabled":false,"rental_uris":{"android":"levelo://app?vid=75921511-23bf-408f-9470-1062209789d6","ios":"levelo://app?vid=75921511-23bf-408f-9470-1062209789d6"},"vehicle_type_id":"4","last_reported":1753341345,"current_range_meters":13600,"station_id":"ce4bhih2rcd13ifvqfs0","pricing_plan_id":"cebpf4jnsgd1na2vs0mg"},{"bike_id":"17b6befd-1cc6-4c58-ba0e-8a9cc2a0bccb","system_id":"levelo_inurba_marseille","lat":43.22492,"lon":5.34795,"is_reserved":false,"is_disabled":false,"rental_uris":{"android":"levelo://app?vid=17b6befd-1cc6-4c58-ba0e-8a9cc2a0bccb","ios":"levelo://app?vid=17b6befd-1cc6-4c58-ba0e-8a9cc2a0bccb"},"vehicle_type_id":"4","last_reported":1753341345,"current_range_meters":13600,"station_id":"st_cvj5dfep6f1abm77gieg","pricing_plan_id":"cebpf4jnsgd1na2vs0mg"},{"bike_id":"b89d6267-55af-48a1-8887-3f0adc5ff195","system_id":"levelo_inurba_marseille","lat":43.301319,"lon":5.39874,"is_reserved":false,"is_disabled":false,"rental_uris":{"android":"levelo://app?vid=b89d6267-55af-48a1-8887-3f0adc5ff195","ios":"levelo://app?vid=b89d6267-55af-48a1-8887-3f0adc5ff195"},"vehicle_type_id":"4","last_reported":1753341345,"current_range_meters":13600,"station_id":"","pricing_plan_id":"cebpf4jnsgd1na2vs0mg"},{"bike_id":"2006d6ab-c619-4a15-b9f3-97c1160843f0","system_id":"levelo_inurba_marseille","lat":43.28159,"lon":5.36091,"is_reserved":false,"is_disabled":false,"rental_uris":{"android":"levelo://app?vid=2006d6ab-c619-4a15-b9f3-97c1160843f0","ios":"levelo://app?vid=2006d6ab-c619-4a15-b9f3-97c1160843f0"},"vehicle_type_id":"4","last_reported":1753341345,"current_range_meters":13600,"station_id":"","pricing_plan_id":"cebpf4jnsgd1na2vs0mg"},{"bike_id":"6a79a396-2f47-4b1c-9dce-b0d5464f72e4","system_id":"levelo_inurba_marseille","lat":43.22934,"lon":5.35363,"is_reserved":false,"is_disabled":false,"rental_uris":{"android":"levelo://app?vid=6a79a396-2f47-4b1c-9dce-b0d5464f72e4","ios":"levelo://app?vid=6a79a396-2f47-4b1c-9dce-b0d5464f72e4"},"vehicle_type_id":"4","last_reported":1753341345,"current_range_meters":13600,"station_id":"cpo3532slgdg3j2ikp40","pricing_plan_id":"cebpf4jnsgd1na2vs0mg"},{"bike_id":"6991eb77-412c-4a60-ada3-09da737770d7","system_id":"levelo_inurba_marseille","lat":43.29984,"lon":5.37175,"is_reserved":false,"is_disabled":false,"rental_uris":{"android":"levelo://app?vid=6991eb77-412c-4a60-ada3-09da737770d7","ios":"levelo://app?vid=6991eb77-412c-4a60-ada3-09da737770d7"},"vehicle_type_id":"4","last_reported":1753341345,"current_range_meters":14000,"station_id":"ce4bgr92rcd13ifvqc7g","pricing_plan_id":"cebpf4jnsgd1na2vs0mg"},{"bike_id":"5ac85406-65d0-4336-aa89-4b04b2e6689e","system_id":"levelo_inurba_marseille","lat":43.33246,"lon":5.41965,"is_reserved":false,"is_disabled":false,"rental_uris":{"android":"levelo://app?vid=5ac85406-65d0-4336-aa89-4b04b2e6689e","ios":"levelo://app?vid=5ac85406-65d0-4336-aa89-4b04b2e6689e"},"vehicle_type_id":"4","last_reported":1753341345,"current_range_meters":14000,"station_id":"","pricing_plan_id":"cebpf4jnsgd1na2vs0mg"},{"bike_id":"c056311f-78c9-4e18-8685-91c659ddb125","system_id":"levelo_inurba_marseille","lat":43.31601,"lon":5.38976,"is_reserved":false,"is_disabled":false,"rental_uris":{"android":"levelo://app?vid=c056311f-78c9-4e18-8685-91c659ddb125","ios":"levelo://app?vid=c056311f-78c9-4e18-8685-91c659ddb125"},"vehicle_type_id":"4","last_reported":1753341345,"current_range_meters":14400,"station_id":"","pricing_plan_id":"cebpf4jnsgd1na2vs0mg"},{"bike_id":"6bb1f31c-9335-4f39-9585-31374a4775f9","system_id":"levelo_inurba_marseille","lat":43.325583,"lon":5.379059,"is_reserved":false,"is_disabled":false,"rental_uris":{"android":"levelo://app?vid=6bb1f31c-9335-4f39-9585-31374a4775f9","ios":"levelo://app?vid=6bb1f31c-9335-4f39-9585-31374a4775f9"},"vehicle_type_id":"4","last_reported":1753341345,"current_range_meters":14000,"station_id":"","pricing_plan_id":"cebpf4jnsgd1na2vs0mg"},{"bike_id":"ce59a62d-17ec-416f-b54d-751bd3f6f3dd","system_id":"levelo_inurba_marseille","lat":43.27062,"lon":5.42257,"is_reserved":false,"is_disabled":false,"rental_uris":{"android":"levelo://app?vid=ce59a62d-17ec-416f-b54d-751bd3f6f3dd","ios":"levelo://app?vid=ce59a62d-17ec-416f-b54d-751bd3f6f3dd"},"vehicle_type_id":"4","last_reported":1753341345,"current_range_meters":14000,"station_id":"ce4bhk92rcd13ifvqgb0","pricing_plan_id":"cebpf4jnsgd1na2vs0mg"},{"bike_id":"0372d762-aad9-470d-bcac-ca21b9bee4a9","system_id":"levelo_inurba_marseille","lat":43.310774,"lon":5.383511,"is_reserved":false,"is_disabled":true,"rental_uris":{"android":"levelo://app?vid=0372d762-aad9-470d-bcac-ca21b9bee4a9","ios":"levelo://app?vid=0372d762-aad9-470d-bcac-ca21b9bee4a9"},"vehicle_type_id":"4","last_reported":1753341345,"current_range_meters":14000,"station_id":"ce4bgv92rcd13ifvqcr0","pricing_plan_id":"cebpf4jnsgd1na2vs0mg"},{"bike_id":"c74bbda1-b854-480c-9edb-584a286a946d","system_id":"levelo_inurba_marseille","lat":43.24388,"lon":5.37059,"is_reserved":false,"is_disabled":false,"rental_uris":{"android":"levelo://app?vid=c74bbda1-b854-480c-9edb-584a286a946d","ios":"levelo://app?vid=c74bbda1-b854-480c-9edb-584a286a946d"},"vehicle_type_id":"4","last_reported":1753341345,"current_range_meters":14000,"station_id":"ce4bhhh2rcd13ifvqfk0","pricing_plan_id":"cebpf4jnsgd1na2vs0mg"},{"bike_id":"58ed5aff-6fe7-4cb3-8308-9bd5085bc5bd","system_id":"levelo_inurba_marseille","lat":43.259408,"lon":5.409022,"is_reserved":false,"is_disabled":false,"rental_uris":{"android":"levelo://app?vid=58ed5aff-6fe7-4cb3-8308-9bd5085bc5bd","ios":"levelo://app?vid=58ed5aff-6fe7-4cb3-8308-9bd5085bc5bd"},"vehicle_type_id":"4","last_reported":1753341345,"current_range_meters":13600,"station_id":"ce4bhm92rcd13ifvqglg","pricing_plan_id":"cebpf4jnsgd1na2vs0mg"},{"bike_id":"5254d746-bf2c-4042-b956-76a940639ba4","system_id":"levelo_inurba_marseille","lat":43.31347,"lon":5.36715,"is_reserved":false,"is_disabled":false,"rental_uris":{"android":"levelo://app?vid=5254d746-bf2c-4042-b956-76a940639ba4","ios":"levelo://app?vid=5254d746-bf2c-4042-b956-76a940639ba4"},"vehicle_type_id":"4","last_reported":1753341345,"current_range_meters":14000,"station_id":"ce4bgr92rcd13ifvqc6g","pricing_plan_id":"cebpf4jnsgd1na2vs0mg"},{"bike_id":"54943e91-61ee-496b-9667-a7c6c3a25bb5","system_id":"levelo_inurba_marseille","lat":43.26206,"lon":5.3745,"is_reserved":false,"is_disabled":false,"rental_uris":{"android":"levelo://app?vid=54943e91-61ee-496b-9667-a7c6c3a25bb5","ios":"levelo://app?vid=54943e91-61ee-496b-9667-a7c6c3a25bb5"},"vehicle_type_id":"4","last_reported":1753341345,"current_range_meters":14000,"station_id":"ce4bhgp2rcd13ifvqfc0","pricing_plan_id":"cebpf4jnsgd1na2vs0mg"},{"bike_id":"0720af3a-bc39-49ab-8d43-7f0423986f0d","system_id":"levelo_inurba_marseille","lat":43.29899,"lon":5.38126,"is_reserved":false,"is_disabled":false,"rental_uris":{"android":"levelo://app?vid=0720af3a-bc39-49ab-8d43-7f0423986f0d","ios":"levelo://app?vid=0720af3a-bc39-49ab-8d43-7f0423986f0d"},"vehicle_type_id":"4","last_reported":1753341345,"current_range_meters":14400,"station_id":"ce4bgj12rcd13ifvqbc0","pricing_plan_id":"cebpf4jnsgd1na2vs0mg"},{"bike_id":"efce9bd7-0f84-4c4c-8629-017c0e0428bd","system_id":"levelo_inurba_marseille","lat":43.25586,"lon":5.38216,"is_reserved":false,"is_disabled":false,"rental_uris":{"android":"levelo://app?vid=efce9bd7-0f84-4c4c-8629-017c0e0428bd","ios":"levelo://app?vid=efce9bd7-0f84-4c4c-8629-017c0e0428bd"},"vehicle_type_id":"4","last_reported":1753341345,"current_range_meters":14400,"station_id":"ce4bhih2rcd13ifvqfs0","pricing_plan_id":"cebpf4jnsgd1na2vs0mg"},{"bike_id":"c3b7093a-c6fc-4872-a465-95918521be48","system_id":"levelo_inurba_marseille","lat":43.31479,"lon":5.37254,"is_reserved":false,"is_disabled":false,"rental_uris":{"android":"levelo://app?vid=c3b7093a-c6fc-4872-a465-95918521be48","ios":"levelo://app?vid=c3b7093a-c6fc-4872-a465-95918521be48"},"vehicle_type_id":"4","last_reported":1753341345,"current_range_meters":14400,"station_id":"ce4bgt12rcd13ifvqcd0","pricing_plan_id":"cebpf4jnsgd1na2vs0mg"},{"bike_id":"31e43d7b-24a7-456a-ba0a-7b80cce2a65c","system_id":"levelo_inurba_marseille","lat":43.305443,"lon":5.365503,"is_reserved":false,"is_disabled":false,"rental_uris":{"android":"levelo://app?vid=31e43d7b-24a7-456a-ba0a-7b80cce2a65c","ios":"levelo://app?vid=31e43d7b-24a7-456a-ba0a-7b80cce2a65c"},"vehicle_type_id":"4","last_reported":1753341345,"current_range_meters":14400,"station_id":"ce4bgs12rcd13ifvqcag","pricing_plan_id":"cebpf4jnsgd1na2vs0mg"},{"bike_id":"5515ee61-835f-4458-a7b2-dc9ac5c0cc88","system_id":"levelo_inurba_marseille","lat":43.297434,"lon":5.37741,"is_reserved":false,"is_disabled":false,"rental_uris":{"android":"levelo://app?vid=5515ee61-835f-4458-a7b2-dc9ac5c0cc88","ios":"levelo://app?vid=5515ee61-835f-4458-a7b2-dc9ac5c0cc88"},"vehicle_type_id":"4","last_reported":1753341345,"current_range_meters":14400,"station_id":"ce4bgs92rcd13ifvqcc0","pricing_plan_id":"cebpf4jnsgd1na2vs0mg"},{"bike_id":"e8de3e83-118a-42b1-bdcd-cde155afa115","system_id":"levelo_inurba_marseille","lat":43.25718,"lon":5.41112,"is_reserved":false,"is_disabled":false,"rental_uris":{"android":"levelo://app?vid=e8de3e83-118a-42b1-bdcd-cde155afa115","ios":"levelo://app?vid=e8de3e83-118a-42b1-bdcd-cde155afa115"},"vehicle_type_id":"4","last_reported":1753341345,"current_range_meters":14400,"station_id":"ce4bhkp2rcd13ifvqgd0","pricing_plan_id":"cebpf4jnsgd1na2vs0mg"},{"bike_id":"8386a9aa-3239-44b3-8ea7-dc069d3fa134","system_id":"levelo_inurba_marseille","lat":43.29162,"lon":5.37163,"is_reserved":false,"is_disabled":false,"rental_uris":{"android":"levelo://app?vid=8386a9aa-3239-44b3-8ea7-dc069d3fa134","ios":"levelo://app?vid=8386a9aa-3239-44b3-8ea7-dc069d3fa134"},"vehicle_type_id":"4","last_reported":1753341345,"current_range_meters":14800,"station_id":"ce4bha92rcd13ifvqeh0","pricing_plan_id":"cebpf4jnsgd1na2vs0mg"},{"bike_id":"3407292c-0e0d-4af1-956c-56e99999c954","system_id":"levelo_inurba_marseille","lat":43.26191,"lon":5.40405,"is_reserved":false,"is_disabled":false,"rental_uris":{"android":"levelo://app?vid=3407292c-0e0d-4af1-956c-56e99999c954","ios":"levelo://app?vid=3407292c-0e0d-4af1-956c-56e99999c954"},"vehicle_type_id":"4","last_reported":1753341345,"current_range_meters":14800,"station_id":"ce4bhmh2rcd13ifvqgmg","pricing_plan_id":"cebpf4jnsgd1na2vs0mg"},{"bike_id":"80ef1d93-def8-4e98-9ff5-14ff8bc5fecc","system_id":"levelo_inurba_marseille","lat":43.29621,"lon":5.37155,"is_reserved":false,"is_disabled":false,"rental_uris":{"android":"levelo://app?vid=80ef1d93-def8-4e98-9ff5-14ff8bc5fecc","ios":"levelo://app?vid=80ef1d93-def8-4e98-9ff5-14ff8bc5fecc"},"vehicle_type_id":"4","last_reported":1753341345,"current_range_meters":14800,"station_id":"ce4bgnh2rcd13ifvqc0g","pricing_plan_id":"cebpf4jnsgd1na2vs0mg"},{"bike_id":"14020eea-16f1-46b7-a49c-87cf940f8c29","system_id":"levelo_inurba_marseille","lat":43.24174,"lon":5.39712,"is_reserved":false,"is_disabled":false,"rental_uris":{"android":"levelo://app?vid=14020eea-16f1-46b7-a49c-87cf940f8c29","ios":"levelo://app?vid=14020eea-16f1-46b7-a49c-87cf940f8c29"},"vehicle_type_id":"4","last_reported":1753341345,"current_range_meters":14800,"station_id":"ce4bhn12rcd13ifvqgpg","pricing_plan_id":"cebpf4jnsgd1na2vs0mg"},{"bike_id":"b284a130-b3d4-43ba-a043-4294c92bf3d1","system_id":"levelo_inurba_marseille","lat":43.30528,"lon":5.36711,"is_reserved":false,"is_disabled":false,"rental_uris":{"android":"levelo://app?vid=b284a130-b3d4-43ba-a043-4294c92bf3d1","ios":"levelo://app?vid=b284a130-b3d4-43ba-a043-4294c92bf3d1"},"vehicle_type_id":"4","last_reported":1753341345,"current_range_meters":14800,"station_id":"ce4bgrp2rcd13ifvqc9g","pricing_plan_id":"cebpf4jnsgd1na2vs0mg"},{"bike_id":"18b86593-4f21-41ed-81b3-f3a5b378dc91","system_id":"levelo_inurba_marseille","lat":43.31245,"lon":5.38127,"is_reserved":false,"is_disabled":false,"rental_uris":{"android":"levelo://app?vid=18b86593-4f21-41ed-81b3-f3a5b378dc91","ios":"levelo://app?vid=18b86593-4f21-41ed-81b3-f3a5b378dc91"},"vehicle_type_id":"4","last_reported":1753341345,"current_range_meters":14800,"station_id":"","pricing_plan_id":"cebpf4jnsgd1na2vs0mg"},{"bike_id":"8b9ed53d-b0c6-47ba-ade9-01f0a2c054e8","system_id":"levelo_inurba_marseille","lat":43.24208,"lon":5.39712,"is_reserved":false,"is_disabled":false,"rental_uris":{"android":"levelo://app?vid=8b9ed53d-b0c6-47ba-ade9-01f0a2c054e8","ios":"levelo://app?vid=8b9ed53d-b0c6-47ba-ade9-01f0a2c054e8"},"vehicle_type_id":"4","last_reported":1753341345,"current_range_meters":15200,"station_id":"ce4bhn12rcd13ifvqgpg","pricing_plan_id":"cebpf4jnsgd1na2vs0mg"},{"bike_id":"61cb5b9a-9cee-4d3f-8bba-365148ee2e42","system_id":"levelo_inurba_marseille","lat":43.25859,"lon":5.39886,"is_reserved":false,"is_disabled":false,"rental_uris":{"android":"levelo://app?vid=61cb5b9a-9cee-4d3f-8bba-365148ee2e42","ios":"levelo://app?vid=61cb5b9a-9cee-4d3f-8bba-365148ee2e42"},"vehicle_type_id":"4","last_reported":1753341345,"current_range_meters":15200,"station_id":"ce4bhl92rcd13ifvqghg","pricing_plan_id":"cebpf4jnsgd1na2vs0mg"},{"bike_id":"e45b87df-1bc4-4e08-86c2-eb647561202f","system_id":"levelo_inurba_marseille","lat":43.30944,"lon":5.39019,"is_reserved":false,"is_disabled":false,"rental_uris":{"android":"levelo://app?vid=e45b87df-1bc4-4e08-86c2-eb647561202f","ios":"levelo://app?vid=e45b87df-1bc4-4e08-86c2-eb647561202f"},"vehicle_type_id":"4","last_reported":1753341345,"current_range_meters":15200,"station_id":"ce4bgup2rcd13ifvqco0","pricing_plan_id":"cebpf4jnsgd1na2vs0mg"},{"bike_id":"65557123-861f-4bee-b8b9-fd6f09fd32db","system_id":"levelo_inurba_marseille","lat":43.27376,"lon":5.36255,"is_reserved":false,"is_disabled":false,"rental_uris":{"android":"levelo://app?vid=65557123-861f-4bee-b8b9-fd6f09fd32db","ios":"levelo://app?vid=65557123-861f-4bee-b8b9-fd6f09fd32db"},"vehicle_type_id":"4","last_reported":1753341345,"current_range_meters":15200,"station_id":"ce4bhbh2rcd13ifvqeo0","pricing_plan_id":"cebpf4jnsgd1na2vs0mg"},{"bike_id":"875540a5-76de-4844-93f6-e9d5f549dced","system_id":"levelo_inurba_marseille","lat":43.295987,"lon":5.381056,"is_reserved":false,"is_disabled":false,"rental_uris":{"android":"levelo://app?vid=875540a5-76de-4844-93f6-e9d5f549dced","ios":"levelo://app?vid=875540a5-76de-4844-93f6-e9d5f549dced"},"vehicle_type_id":"4","last_reported":1753341345,"current_range_meters":15200,"station_id":"","pricing_plan_id":"cebpf4jnsgd1na2vs0mg"},{"bike_id":"f0f73c71-7331-4628-b623-754b73a8546a","system_id":"levelo_inurba_marseille","lat":43.30184,"lon":5.39915,"is_reserved":false,"is_disabled":true,"rental_uris":{"android":"levelo://app?vid=f0f73c71-7331-4628-b623-754b73a8546a","ios":"levelo://app?vid=f0f73c71-7331-4628-b623-754b73a8546a"},"vehicle_type_id":"4","last_reported":1753341345,"current_range_meters":15200,"station_id":"","pricing_plan_id":"cebpf4jnsgd1na2vs0mg"},{"bike_id":"971f361f-7d35-467c-b730-ff0e872917fc","system_id":"levelo_inurba_marseille","lat":43.25009,"lon":5.38918,"is_reserved":false,"is_disabled":false,"rental_uris":{"android":"levelo://app?vid=971f361f-7d35-467c-b730-ff0e872917fc","ios":"levelo://app?vid=971f361f-7d35-467c-b730-ff0e872917fc"},"vehicle_type_id":"4","last_reported":1753341345,"current_range_meters":15200,"station_id":"ce4bhgp2rcd13ifvqfd0","pricing_plan_id":"cebpf4jnsgd1na2vs0mg"},{"bike_id":"1ad257b5-7f83-42c1-867f-92635ff1abbf","system_id":"levelo_inurba_marseille","lat":43.2293,"lon":5.35385,"is_reserved":false,"is_disabled":false,"rental_uris":{"android":"levelo://app?vid=1ad257b5-7f83-42c1-867f-92635ff1abbf","ios":"levelo://app?vid=1ad257b5-7f83-42c1-867f-92635ff1abbf"},"vehicle_type_id":"4","last_reported":1753341345,"current_range_meters":15200,"station_id":"cpo3532slgdg3j2ikp40","pricing_plan_id":"cebpf4jnsgd1na2vs0mg"},{"bike_id":"c15a8204-9d75-456c-bf96-f98ba4789679","system_id":"levelo_inurba_marseille","lat":43.30519,"lon":5.36537,"is_reserved":false,"is_disabled":false,"rental_uris":{"android":"levelo://app?vid=c15a8204-9d75-456c-bf96-f98ba4789679","ios":"levelo://app?vid=c15a8204-9d75-456c-bf96-f98ba4789679"},"vehicle_type_id":"4","last_reported":1753341345,"current_range_meters":16000,"station_id":"","pricing_plan_id":"cebpf4jnsgd1na2vs0mg"},{"bike_id":"5bf271e9-b85e-4ede-9d32-02d7c28374e7","system_id":"levelo_inurba_marseille","lat":43.324764,"lon":5.365675,"is_reserved":false,"is_disabled":false,"rental_uris":{"android":"levelo://app?vid=5bf271e9-b85e-4ede-9d32-02d7c28374e7","ios":"levelo://app?vid=5bf271e9-b85e-4ede-9d32-02d7c28374e7"},"vehicle_type_id":"4","last_reported":1753341345,"current_range_meters":16000,"station_id":"ce4bhs12rcd13ifvqhvg","pricing_plan_id":"cebpf4jnsgd1na2vs0mg"},{"bike_id":"f98dd319-af51-434c-b151-287d8b571ddc","system_id":"levelo_inurba_marseille","lat":43.30556,"lon":5.36544,"is_reserved":false,"is_disabled":false,"rental_uris":{"android":"levelo://app?vid=f98dd319-af51-434c-b151-287d8b571ddc","ios":"levelo://app?vid=f98dd319-af51-434c-b151-287d8b571ddc"},"vehicle_type_id":"4","last_reported":1753341345,"current_range_meters":16000,"station_id":"ce4bgs12rcd13ifvqcag","pricing_plan_id":"cebpf4jnsgd1na2vs0mg"},{"bike_id":"f34dfbaf-4592-4bbe-a8b9-96903af55738","system_id":"levelo_inurba_marseille","lat":43.25721,"lon":5.41111,"is_reserved":false,"is_disabled":false,"rental_uris":{"android":"levelo://app?vid=f34dfbaf-4592-4bbe-a8b9-96903af55738","ios":"levelo://app?vid=f34dfbaf-4592-4bbe-a8b9-96903af55738"},"vehicle_type_id":"4","last_reported":1753341345,"current_range_meters":16000,"station_id":"ce4bhkp2rcd13ifvqgd0","pricing_plan_id":"cebpf4jnsgd1na2vs0mg"},{"bike_id":"674df432-eba2-41a5-a16c-d34b13d50f5e","system_id":"levelo_inurba_marseille","lat":43.33925,"lon":5.40685,"is_reserved":false,"is_disabled":true,"rental_uris":{"android":"levelo://app?vid=674df432-eba2-41a5-a16c-d34b13d50f5e","ios":"levelo://app?vid=674df432-eba2-41a5-a16c-d34b13d50f5e"},"vehicle_type_id":"4","last_reported":1753341345,"current_range_meters":16000,"station_id":"","pricing_plan_id":"cebpf4jnsgd1na2vs0mg"},{"bike_id":"a321de34-52a5-436c-9c07-2eb283d3ce40","system_id":"levelo_inurba_marseille","lat":43.267462,"lon":5.392334,"is_reserved":false,"is_disabled":false,"rental_uris":{"android":"levelo://app?vid=a321de34-52a5-436c-9c07-2eb283d3ce40","ios":"levelo://app?vid=a321de34-52a5-436c-9c07-2eb283d3ce40"},"vehicle_type_id":"4","last_reported":1753341345,"current_range_meters":16000,"station_id":"ce4bhkp2rcd13ifvqgd0","pricing_plan_id":"cebpf4jnsgd1na2vs0mg"},{"bike_id":"76c65f84-3b49-4269-890c-8259fe6ade74","system_id":"levelo_inurba_marseille","lat":43.323632,"lon":5.36754,"is_reserved":false,"is_disabled":false,"rental_uris":{"android":"levelo://app?vid=76c65f84-3b49-4269-890c-8259fe6ade74","ios":"levelo://app?vid=76c65f84-3b49-4269-890c-8259fe6ade74"},"vehicle_type_id":"4","last_reported":1753341345,"current_range_meters":16000,"station_id":"ce4bhsh2rcd13ifvqi2g","pricing_plan_id":"cebpf4jnsgd1na2vs0mg"},{"bike_id":"c6aa9af9-9a2d-4c74-a251-ede8df9515d7","system_id":"levelo_inurba_marseille","lat":43.31218,"lon":5.36849,"is_reserved":false,"is_disabled":false,"rental_uris":{"android":"levelo://app?vid=c6aa9af9-9a2d-4c74-a251-ede8df9515d7","ios":"levelo://app?vid=c6aa9af9-9a2d-4c74-a251-ede8df9515d7"},"vehicle_type_id":"4","last_reported":1753341345,"current_range_meters":16000,"station_id":"ce4bgl92rcd13ifvqbq0","pricing_plan_id":"cebpf4jnsgd1na2vs0mg"},{"bike_id":"9437277c-d886-4a0b-9535-11724bd91051","system_id":"levelo_inurba_marseille","lat":43.27065,"lon":5.4226,"is_reserved":false,"is_disabled":false,"rental_uris":{"android":"levelo://app?vid=9437277c-d886-4a0b-9535-11724bd91051","ios":"levelo://app?vid=9437277c-d886-4a0b-9535-11724bd91051"},"vehicle_type_id":"4","last_reported":1753341345,"current_range_meters":16000,"station_id":"ce4bhk92rcd13ifvqgb0","pricing_plan_id":"cebpf4jnsgd1na2vs0mg"},{"bike_id":"85c8f939-49e5-43d7-b524-31747577fd94","system_id":"levelo_inurba_marseille","lat":43.313385,"lon":5.367152,"is_reserved":false,"is_disabled":false,"rental_uris":{"android":"levelo://app?vid=85c8f939-49e5-43d7-b524-31747577fd94","ios":"levelo://app?vid=85c8f939-49e5-43d7-b524-31747577fd94"},"vehicle_type_id":"4","last_reported":1753341345,"current_range_meters":16000,"station_id":"ce4bgr92rcd13ifvqc6g","pricing_plan_id":"cebpf4jnsgd1na2vs0mg"},{"bike_id":"63c5ca57-b2df-4b8b-ad7f-6f2df7343ee7","system_id":"levelo_inurba_marseille","lat":43.284775,"lon":5.384239,"is_reserved":false,"is_disabled":true,"rental_uris":{"android":"levelo://app?vid=63c5ca57-b2df-4b8b-ad7f-6f2df7343ee7","ios":"levelo://app?vid=63c5ca57-b2df-4b8b-ad7f-6f2df7343ee7"},"vehicle_type_id":"4","last_reported":1753341345,"current_range_meters":16400,"station_id":"ce4bh512rcd13ifvqe3g","pricing_plan_id":"cebpf4jnsgd1na2vs0mg"},{"bike_id":"5f824980-27aa-4ef2-856d-b766bebead8a","system_id":"levelo_inurba_marseille","lat":43.22499,"lon":5.34768,"is_reserved":false,"is_disabled":false,"rental_uris":{"android":"levelo://app?vid=5f824980-27aa-4ef2-856d-b766bebead8a","ios":"levelo://app?vid=5f824980-27aa-4ef2-856d-b766bebead8a"},"vehicle_type_id":"4","last_reported":1753341345,"current_range_meters":16400,"station_id":"st_cvj5dfep6f1abm77gieg","pricing_plan_id":"cebpf4jnsgd1na2vs0mg"},{"bike_id":"7555c6cb-ae7e-410a-91d6-f934db7b5ffd","system_id":"levelo_inurba_marseille","lat":43.290422,"lon":5.399612,"is_reserved":false,"is_disabled":false,"rental_uris":{"android":"levelo://app?vid=7555c6cb-ae7e-410a-91d6-f934db7b5ffd","ios":"levelo://app?vid=7555c6cb-ae7e-410a-91d6-f934db7b5ffd"},"vehicle_type_id":"4","last_reported":1753341345,"current_range_meters":16400,"station_id":"ce4bh392rcd13ifvqdm0","pricing_plan_id":"cebpf4jnsgd1na2vs0mg"},{"bike_id":"35a86048-76dd-4de0-afb2-7da8772fad44","system_id":"levelo_inurba_marseille","lat":43.21513,"lon":5.34717,"is_reserved":false,"is_disabled":false,"rental_uris":{"android":"levelo://app?vid=35a86048-76dd-4de0-afb2-7da8772fad44","ios":"levelo://app?vid=35a86048-76dd-4de0-afb2-7da8772fad44"},"vehicle_type_id":"4","last_reported":1753341345,"current_range_meters":16400,"station_id":"","pricing_plan_id":"cebpf4jnsgd1na2vs0mg"},{"bike_id":"df512490-132a-4d43-bbcf-ac081858e1ff","system_id":"levelo_inurba_marseille","lat":43.31062,"lon":5.38339,"is_reserved":false,"is_disabled":true,"rental_uris":{"android":"levelo://app?vid=df512490-132a-4d43-bbcf-ac081858e1ff","ios":"levelo://app?vid=df512490-132a-4d43-bbcf-ac081858e1ff"},"vehicle_type_id":"4","last_reported":1753341345,"current_range_meters":16400,"station_id":"ce4bgv92rcd13ifvqcr0","pricing_plan_id":"cebpf4jnsgd1na2vs0mg"},{"bike_id":"81df7d6f-832b-40f6-ad7c-3d213cee8b09","system_id":"levelo_inurba_marseille","lat":43.24074,"lon":5.37726,"is_reserved":false,"is_disabled":false,"rental_uris":{"android":"levelo://app?vid=81df7d6f-832b-40f6-ad7c-3d213cee8b09","ios":"levelo://app?vid=81df7d6f-832b-40f6-ad7c-3d213cee8b09"},"vehicle_type_id":"4","last_reported":1753341345,"current_range_meters":16800,"station_id":"ce4bhnp2rcd13ifvqgvg","pricing_plan_id":"cebpf4jnsgd1na2vs0mg"},{"bike_id":"085cc398-265e-4402-bcb0-4ca5061b4738","system_id":"levelo_inurba_marseille","lat":43.229371,"lon":5.353871,"is_reserved":false,"is_disabled":false,"rental_uris":{"android":"levelo://app?vid=085cc398-265e-4402-bcb0-4ca5061b4738","ios":"levelo://app?vid=085cc398-265e-4402-bcb0-4ca5061b4738"},"vehicle_type_id":"4","last_reported":1753341345,"current_range_meters":16800,"station_id":"cpo3532slgdg3j2ikp40","pricing_plan_id":"cebpf4jnsgd1na2vs0mg"},{"bike_id":"4b8efed3-9e53-47c8-bfa4-f1fb0beb03b1","system_id":"levelo_inurba_marseille","lat":43.29592,"lon":5.36737,"is_reserved":false,"is_disabled":true,"rental_uris":{"android":"levelo://app?vid=4b8efed3-9e53-47c8-bfa4-f1fb0beb03b1","ios":"levelo://app?vid=4b8efed3-9e53-47c8-bfa4-f1fb0beb03b1"},"vehicle_type_id":"4","last_reported":1753341345,"current_range_meters":16800,"station_id":"ce4bgph2rcd13ifvqc2g","pricing_plan_id":"cebpf4jnsgd1na2vs0mg"},{"bike_id":"451c8b55-6be2-42fe-a6f2-5298fefb419a","system_id":"levelo_inurba_marseille","lat":43.281576,"lon":5.426383,"is_reserved":false,"is_disabled":false,"rental_uris":{"android":"levelo://app?vid=451c8b55-6be2-42fe-a6f2-5298fefb419a","ios":"levelo://app?vid=451c8b55-6be2-42fe-a6f2-5298fefb419a"},"vehicle_type_id":"4","last_reported":1753341345,"current_range_meters":16800,"station_id":"ce4bhnh2rcd13ifvqgug","pricing_plan_id":"cebpf4jnsgd1na2vs0mg"},{"bike_id":"eaea15aa-98ae-4f78-b37a-80e2e4524837","system_id":"levelo_inurba_marseille","lat":43.297916,"lon":5.381026,"is_reserved":false,"is_disabled":false,"rental_uris":{"android":"levelo://app?vid=eaea15aa-98ae-4f78-b37a-80e2e4524837","ios":"levelo://app?vid=eaea15aa-98ae-4f78-b37a-80e2e4524837"},"vehicle_type_id":"4","last_reported":1753341345,"current_range_meters":16800,"station_id":"","pricing_plan_id":"cebpf4jnsgd1na2vs0mg"},{"bike_id":"b0bedcf0-b809-456d-bd19-cc2ee3906918","system_id":"levelo_inurba_marseille","lat":43.31702,"lon":5.3774,"is_reserved":false,"is_disabled":false,"rental_uris":{"android":"levelo://app?vid=b0bedcf0-b809-456d-bd19-cc2ee3906918","ios":"levelo://app?vid=b0bedcf0-b809-456d-bd19-cc2ee3906918"},"vehicle_type_id":"4","last_reported":1753341345,"current_range_meters":16400,"station_id":"ce4bgth2rcd13ifvqch0","pricing_plan_id":"cebpf4jnsgd1na2vs0mg"},{"bike_id":"819bb1b6-06bc-4eb2-b94e-4388d87b087b","system_id":"levelo_inurba_marseille","lat":43.29694,"lon":5.36598,"is_reserved":false,"is_disabled":false,"rental_uris":{"android":"levelo://app?vid=819bb1b6-06bc-4eb2-b94e-4388d87b087b","ios":"levelo://app?vid=819bb1b6-06bc-4eb2-b94e-4388d87b087b"},"vehicle_type_id":"4","last_reported":1753341345,"current_range_meters":16800,"station_id":"ce4bgn12rcd13ifvqbt0","pricing_plan_id":"cebpf4jnsgd1na2vs0mg"},{"bike_id":"253a269e-9944-4daf-a54c-679a93fe8e2e","system_id":"levelo_inurba_marseille","lat":43.29565,"lon":5.39949,"is_reserved":false,"is_disabled":true,"rental_uris":{"android":"levelo://app?vid=253a269e-9944-4daf-a54c-679a93fe8e2e","ios":"levelo://app?vid=253a269e-9944-4daf-a54c-679a93fe8e2e"},"vehicle_type_id":"4","last_reported":1753341345,"current_range_meters":16800,"station_id":"ce4bh312rcd13ifvqdj0","pricing_plan_id":"cebpf4jnsgd1na2vs0mg"},{"bike_id":"f7f07796-c7c9-4a74-80e9-fb85744448b8","system_id":"levelo_inurba_marseille","lat":43.22925,"lon":5.35367,"is_reserved":false,"is_disabled":false,"rental_uris":{"android":"levelo://app?vid=f7f07796-c7c9-4a74-80e9-fb85744448b8","ios":"levelo://app?vid=f7f07796-c7c9-4a74-80e9-fb85744448b8"},"vehicle_type_id":"4","last_reported":1753341345,"current_range_meters":16800,"station_id":"cpo3532slgdg3j2ikp40","pricing_plan_id":"cebpf4jnsgd1na2vs0mg"},{"bike_id":"fcfc31a1-9737-4b17-9240-6cc0257218ad","system_id":"levelo_inurba_marseille","lat":43.30183,"lon":5.36629,"is_reserved":false,"is_disabled":false,"rental_uris":{"android":"levelo://app?vid=fcfc31a1-9737-4b17-9240-6cc0257218ad","ios":"levelo://app?vid=fcfc31a1-9737-4b17-9240-6cc0257218ad"},"vehicle_type_id":"4","last_reported":1753341345,"current_range_meters":16800,"station_id":"ce4bgrh2rcd13ifvqc8g","pricing_plan_id":"cebpf4jnsgd1na2vs0mg"},{"bike_id":"e401289a-83cf-4377-aa07-419b9b37079e","system_id":"levelo_inurba_marseille","lat":43.23065,"lon":5.3549,"is_reserved":false,"is_disabled":false,"rental_uris":{"android":"levelo://app?vid=e401289a-83cf-4377-aa07-419b9b37079e","ios":"levelo://app?vid=e401289a-83cf-4377-aa07-419b9b37079e"},"vehicle_type_id":"4","last_reported":1753341345,"current_range_meters":16800,"station_id":"cpo3342slgdg3j2ifvpg","pricing_plan_id":"cebpf4jnsgd1na2vs0mg"},{"bike_id":"27b5acbc-b1fd-4385-9be5-bae49e9e4f6a","system_id":"levelo_inurba_marseille","lat":43.24812,"lon":5.3746,"is_reserved":false,"is_disabled":false,"rental_uris":{"android":"levelo://app?vid=27b5acbc-b1fd-4385-9be5-bae49e9e4f6a","ios":"levelo://app?vid=27b5acbc-b1fd-4385-9be5-bae49e9e4f6a"},"vehicle_type_id":"4","last_reported":1753341345,"current_range_meters":16800,"station_id":"ce4bhgh2rcd13ifvqfb0","pricing_plan_id":"cebpf4jnsgd1na2vs0mg"},{"bike_id":"fbda76a5-068e-4d90-b9ba-25721acd9298","system_id":"levelo_inurba_marseille","lat":43.29026,"lon":5.43973,"is_reserved":false,"is_disabled":false,"rental_uris":{"android":"levelo://app?vid=fbda76a5-068e-4d90-b9ba-25721acd9298","ios":"levelo://app?vid=fbda76a5-068e-4d90-b9ba-25721acd9298"},"vehicle_type_id":"4","last_reported":1753341345,"current_range_meters":17200,"station_id":"","pricing_plan_id":"cebpf4jnsgd1na2vs0mg"},{"bike_id":"c214acfa-8444-4d69-bdda-2fa29e34203a","system_id":"levelo_inurba_marseille","lat":43.3248,"lon":5.3656,"is_reserved":false,"is_disabled":false,"rental_uris":{"android":"levelo://app?vid=c214acfa-8444-4d69-bdda-2fa29e34203a","ios":"levelo://app?vid=c214acfa-8444-4d69-bdda-2fa29e34203a"},"vehicle_type_id":"4","last_reported":1753341345,"current_range_meters":17200,"station_id":"ce4bhs12rcd13ifvqhvg","pricing_plan_id":"cebpf4jnsgd1na2vs0mg"},{"bike_id":"77bad5ae-a5f5-4ecd-adf6-67572c60b2e1","system_id":"levelo_inurba_marseille","lat":43.289374,"lon":5.396282,"is_reserved":false,"is_disabled":false,"rental_uris":{"android":"levelo://app?vid=77bad5ae-a5f5-4ecd-adf6-67572c60b2e1","ios":"levelo://app?vid=77bad5ae-a5f5-4ecd-adf6-67572c60b2e1"},"vehicle_type_id":"4","last_reported":1753341345,"current_range_meters":17200,"station_id":"ce4bhf92rcd13ifvqf40","pricing_plan_id":"cebpf4jnsgd1na2vs0mg"},{"bike_id":"630f322e-ea39-413c-8ed4-096ccef376bc","system_id":"levelo_inurba_marseille","lat":43.29608,"lon":5.36917,"is_reserved":false,"is_disabled":false,"rental_uris":{"android":"levelo://app?vid=630f322e-ea39-413c-8ed4-096ccef376bc","ios":"levelo://app?vid=630f322e-ea39-413c-8ed4-096ccef376bc"},"vehicle_type_id":"4","last_reported":1753341345,"current_range_meters":17200,"station_id":"","pricing_plan_id":"cebpf4jnsgd1na2vs0mg"},{"bike_id":"008ae5df-50d2-4665-a93a-801d11e513bc","system_id":"levelo_inurba_marseille","lat":43.30954,"lon":5.39033,"is_reserved":false,"is_disabled":false,"rental_uris":{"android":"levelo://app?vid=008ae5df-50d2-4665-a93a-801d11e513bc","ios":"levelo://app?vid=008ae5df-50d2-4665-a93a-801d11e513bc"},"vehicle_type_id":"4","last_reported":1753341345,"current_range_meters":17200,"station_id":"ce4bgup2rcd13ifvqco0","pricing_plan_id":"cebpf4jnsgd1na2vs0mg"},{"bike_id":"55c34f11-7726-4f75-9264-c2784ef1e47e","system_id":"levelo_inurba_marseille","lat":43.25,"lon":5.38922,"is_reserved":false,"is_disabled":false,"rental_uris":{"android":"levelo://app?vid=55c34f11-7726-4f75-9264-c2784ef1e47e","ios":"levelo://app?vid=55c34f11-7726-4f75-9264-c2784ef1e47e"},"vehicle_type_id":"4","last_reported":1753341345,"current_range_meters":17200,"station_id":"ce4bhgp2rcd13ifvqfd0","pricing_plan_id":"cebpf4jnsgd1na2vs0mg"},{"bike_id":"1f39eb17-34c7-4235-9069-0f68f613789c","system_id":"levelo_inurba_marseille","lat":43.26886,"lon":5.36871,"is_reserved":false,"is_disabled":false,"rental_uris":{"android":"levelo://app?vid=1f39eb17-34c7-4235-9069-0f68f613789c","ios":"levelo://app?vid=1f39eb17-34c7-4235-9069-0f68f613789c"},"vehicle_type_id":"4","last_reported":1753341345,"current_range_meters":17600,"station_id":"","pricing_plan_id":"cebpf4jnsgd1na2vs0mg"},{"bike_id":"e11c38f2-2608-4396-ae8d-6f1ece949429","system_id":"levelo_inurba_marseille","lat":43.29036,"lon":5.39948,"is_reserved":false,"is_disabled":false,"rental_uris":{"android":"levelo://app?vid=e11c38f2-2608-4396-ae8d-6f1ece949429","ios":"levelo://app?vid=e11c38f2-2608-4396-ae8d-6f1ece949429"},"vehicle_type_id":"4","last_reported":1753341345,"current_range_meters":17600,"station_id":"ce4bh392rcd13ifvqdm0","pricing_plan_id":"cebpf4jnsgd1na2vs0mg"},{"bike_id":"33ce2ff8-7e21-4229-9288-7ac129269db8","system_id":"levelo_inurba_marseille","lat":43.3212,"lon":5.36781,"is_reserved":false,"is_disabled":false,"rental_uris":{"android":"levelo://app?vid=33ce2ff8-7e21-4229-9288-7ac129269db8","ios":"levelo://app?vid=33ce2ff8-7e21-4229-9288-7ac129269db8"},"vehicle_type_id":"4","last_reported":1753341345,"current_range_meters":17600,"station_id":"ce4bhrh2rcd13ifvqhug","pricing_plan_id":"cebpf4jnsgd1na2vs0mg"},{"bike_id":"a3a9efc6-6f9b-4e34-868b-ae43391c590e","system_id":"levelo_inurba_marseille","lat":43.33014,"lon":5.37484,"is_reserved":false,"is_disabled":false,"rental_uris":{"android":"levelo://app?vid=a3a9efc6-6f9b-4e34-868b-ae43391c590e","ios":"levelo://app?vid=a3a9efc6-6f9b-4e34-868b-ae43391c590e"},"vehicle_type_id":"4","last_reported":1753341345,"current_range_meters":18000,"station_id":"","pricing_plan_id":"cebpf4jnsgd1na2vs0mg"},{"bike_id":"0aa2d153-96d1-4d69-83b8-d39119aa9dd5","system_id":"levelo_inurba_marseille","lat":43.33523,"lon":5.36229,"is_reserved":false,"is_disabled":false,"rental_uris":{"android":"levelo://app?vid=0aa2d153-96d1-4d69-83b8-d39119aa9dd5","ios":"levelo://app?vid=0aa2d153-96d1-4d69-83b8-d39119aa9dd5"},"vehicle_type_id":"4","last_reported":1753341345,"current_range_meters":17600,"station_id":"","pricing_plan_id":"cebpf4jnsgd1na2vs0mg"},{"bike_id":"803ebf00-f6f3-4b2e-870b-858bd87e0d3e","system_id":"levelo_inurba_marseille","lat":43.27193,"lon":5.40967,"is_reserved":false,"is_disabled":false,"rental_uris":{"android":"levelo://app?vid=803ebf00-f6f3-4b2e-870b-858bd87e0d3e","ios":"levelo://app?vid=803ebf00-f6f3-4b2e-870b-858bd87e0d3e"},"vehicle_type_id":"4","last_reported":1753341345,"current_range_meters":17200,"station_id":"ce4bhl12rcd13ifvqgf0","pricing_plan_id":"cebpf4jnsgd1na2vs0mg"},{"bike_id":"d9a7f013-9106-4963-a366-c99683b93d4e","system_id":"levelo_inurba_marseille","lat":43.29759,"lon":5.37115,"is_reserved":false,"is_disabled":false,"rental_uris":{"android":"levelo://app?vid=d9a7f013-9106-4963-a366-c99683b93d4e","ios":"levelo://app?vid=d9a7f013-9106-4963-a366-c99683b93d4e"},"vehicle_type_id":"4","last_reported":1753341345,"current_range_meters":18000,"station_id":"ce4bgop2rcd13ifvqc1g","pricing_plan_id":"cebpf4jnsgd1na2vs0mg"},{"bike_id":"dd728dbe-9e5d-4937-8bd3-1d14da97aa51","system_id":"levelo_inurba_marseille","lat":43.25,"lon":5.3893,"is_reserved":false,"is_disabled":false,"rental_uris":{"android":"levelo://app?vid=dd728dbe-9e5d-4937-8bd3-1d14da97aa51","ios":"levelo://app?vid=dd728dbe-9e5d-4937-8bd3-1d14da97aa51"},"vehicle_type_id":"4","last_reported":1753341345,"current_range_meters":18000,"station_id":"ce4bhgp2rcd13ifvqfd0","pricing_plan_id":"cebpf4jnsgd1na2vs0mg"},{"bike_id":"cd8bcf5c-a248-4aa6-8a72-033f9d7b3a95","system_id":"levelo_inurba_marseille","lat":43.25716,"lon":5.4111,"is_reserved":false,"is_disabled":false,"rental_uris":{"android":"levelo://app?vid=cd8bcf5c-a248-4aa6-8a72-033f9d7b3a95","ios":"levelo://app?vid=cd8bcf5c-a248-4aa6-8a72-033f9d7b3a95"},"vehicle_type_id":"4","last_reported":1753341345,"current_range_meters":18000,"station_id":"ce4bhkp2rcd13ifvqgd0","pricing_plan_id":"cebpf4jnsgd1na2vs0mg"},{"bike_id":"784eeebd-2893-4f27-84ae-c797089b4166","system_id":"levelo_inurba_marseille","lat":43.22505,"lon":5.3478,"is_reserved":false,"is_disabled":false,"rental_uris":{"android":"levelo://app?vid=784eeebd-2893-4f27-84ae-c797089b4166","ios":"levelo://app?vid=784eeebd-2893-4f27-84ae-c797089b4166"},"vehicle_type_id":"4","last_reported":1753341345,"current_range_meters":18000,"station_id":"st_cvj5dfep6f1abm77gieg","pricing_plan_id":"cebpf4jnsgd1na2vs0mg"},{"bike_id":"d8ab8225-ebfc-48f1-9981-f15e3b9960ea","system_id":"levelo_inurba_marseille","lat":43.22919,"lon":5.35369,"is_reserved":false,"is_disabled":false,"rental_uris":{"android":"levelo://app?vid=d8ab8225-ebfc-48f1-9981-f15e3b9960ea","ios":"levelo://app?vid=d8ab8225-ebfc-48f1-9981-f15e3b9960ea"},"vehicle_type_id":"4","last_reported":1753341345,"current_range_meters":18000,"station_id":"cpo3532slgdg3j2ikp40","pricing_plan_id":"cebpf4jnsgd1na2vs0mg"},{"bike_id":"481351de-e3d5-4a6f-aa67-c1762e7ed223","system_id":"levelo_inurba_marseille","lat":43.270644,"lon":5.422778,"is_reserved":false,"is_disabled":false,"rental_uris":{"android":"levelo://app?vid=481351de-e3d5-4a6f-aa67-c1762e7ed223","ios":"levelo://app?vid=481351de-e3d5-4a6f-aa67-c1762e7ed223"},"vehicle_type_id":"4","last_reported":1753341345,"current_range_meters":18000,"station_id":"ce4bhk92rcd13ifvqgb0","pricing_plan_id":"cebpf4jnsgd1na2vs0mg"},{"bike_id":"0a7e2862-d8ec-4c77-89d9-cfcdd51f8d75","system_id":"levelo_inurba_marseille","lat":43.311834,"lon":5.378745,"is_reserved":false,"is_disabled":false,"rental_uris":{"android":"levelo://app?vid=0a7e2862-d8ec-4c77-89d9-cfcdd51f8d75","ios":"levelo://app?vid=0a7e2862-d8ec-4c77-89d9-cfcdd51f8d75"},"vehicle_type_id":"4","last_reported":1753341345,"current_range_meters":18000,"station_id":"","pricing_plan_id":"cebpf4jnsgd1na2vs0mg"},{"bike_id":"48711d07-be69-4c50-91d4-43e6f285038e","system_id":"levelo_inurba_marseille","lat":43.240694,"lon":5.377551,"is_reserved":false,"is_disabled":false,"rental_uris":{"android":"levelo://app?vid=48711d07-be69-4c50-91d4-43e6f285038e","ios":"levelo://app?vid=48711d07-be69-4c50-91d4-43e6f285038e"},"vehicle_type_id":"4","last_reported":1753341345,"current_range_meters":18000,"station_id":"ce4bhnp2rcd13ifvqgvg","pricing_plan_id":"cebpf4jnsgd1na2vs0mg"},{"bike_id":"9e71a50e-df43-4a48-bc37-13460235be7b","system_id":"levelo_inurba_marseille","lat":43.2417,"lon":5.36379,"is_reserved":false,"is_disabled":false,"rental_uris":{"android":"levelo://app?vid=9e71a50e-df43-4a48-bc37-13460235be7b","ios":"levelo://app?vid=9e71a50e-df43-4a48-bc37-13460235be7b"},"vehicle_type_id":"4","last_reported":1753341345,"current_range_meters":18000,"station_id":"cpo36qri1sfpv3e86is0","pricing_plan_id":"cebpf4jnsgd1na2vs0mg"},{"bike_id":"922e3d66-ae7e-4439-a5cf-23b2217d76cd","system_id":"levelo_inurba_marseille","lat":43.25947,"lon":5.40901,"is_reserved":false,"is_disabled":false,"rental_uris":{"android":"levelo://app?vid=922e3d66-ae7e-4439-a5cf-23b2217d76cd","ios":"levelo://app?vid=922e3d66-ae7e-4439-a5cf-23b2217d76cd"},"vehicle_type_id":"4","last_reported":1753341345,"current_range_meters":18000,"station_id":"ce4bhm92rcd13ifvqglg","pricing_plan_id":"cebpf4jnsgd1na2vs0mg"},{"bike_id":"727a2b29-93f2-4697-a65c-6e4b12e4f54d","system_id":"levelo_inurba_marseille","lat":43.27948,"lon":5.41033,"is_reserved":false,"is_disabled":false,"rental_uris":{"android":"levelo://app?vid=727a2b29-93f2-4697-a65c-6e4b12e4f54d","ios":"levelo://app?vid=727a2b29-93f2-4697-a65c-6e4b12e4f54d"},"vehicle_type_id":"4","last_reported":1753341345,"current_range_meters":18000,"station_id":"ce4bhnp2rcd13ifvqh0g","pricing_plan_id":"cebpf4jnsgd1na2vs0mg"},{"bike_id":"6d497126-1cc2-4b83-a8f9-ca4bf69960b1","system_id":"levelo_inurba_marseille","lat":43.29037,"lon":5.39984,"is_reserved":false,"is_disabled":false,"rental_uris":{"android":"levelo://app?vid=6d497126-1cc2-4b83-a8f9-ca4bf69960b1","ios":"levelo://app?vid=6d497126-1cc2-4b83-a8f9-ca4bf69960b1"},"vehicle_type_id":"4","last_reported":1753341345,"current_range_meters":18800,"station_id":"ce4bh392rcd13ifvqdm0","pricing_plan_id":"cebpf4jnsgd1na2vs0mg"},{"bike_id":"d4488d0f-4b7e-4f43-8f4b-28805f1689b2","system_id":"levelo_inurba_marseille","lat":43.29299,"lon":5.37453,"is_reserved":false,"is_disabled":false,"rental_uris":{"android":"levelo://app?vid=d4488d0f-4b7e-4f43-8f4b-28805f1689b2","ios":"levelo://app?vid=d4488d0f-4b7e-4f43-8f4b-28805f1689b2"},"vehicle_type_id":"4","last_reported":1753341345,"current_range_meters":18800,"station_id":"ce4bgi12rcd13ifvqb70","pricing_plan_id":"cebpf4jnsgd1na2vs0mg"},{"bike_id":"79a1830d-4216-4db2-a82e-4728770c40dd","system_id":"levelo_inurba_marseille","lat":43.31073,"lon":5.38347,"is_reserved":false,"is_disabled":true,"rental_uris":{"android":"levelo://app?vid=79a1830d-4216-4db2-a82e-4728770c40dd","ios":"levelo://app?vid=79a1830d-4216-4db2-a82e-4728770c40dd"},"vehicle_type_id":"4","last_reported":1753341345,"current_range_meters":18800,"station_id":"ce4bgv92rcd13ifvqcr0","pricing_plan_id":"cebpf4jnsgd1na2vs0mg"},{"bike_id":"ce193c8e-90e0-4599-95e2-d02b7d163b03","system_id":"levelo_inurba_marseille","lat":43.24072,"lon":5.37718,"is_reserved":false,"is_disabled":false,"rental_uris":{"android":"levelo://app?vid=ce193c8e-90e0-4599-95e2-d02b7d163b03","ios":"levelo://app?vid=ce193c8e-90e0-4599-95e2-d02b7d163b03"},"vehicle_type_id":"4","last_reported":1753341345,"current_range_meters":18800,"station_id":"ce4bhnp2rcd13ifvqgvg","pricing_plan_id":"cebpf4jnsgd1na2vs0mg"},{"bike_id":"6d162757-3924-4476-9818-84d10836cd88","system_id":"levelo_inurba_marseille","lat":43.3132,"lon":5.36814,"is_reserved":false,"is_disabled":false,"rental_uris":{"android":"levelo://app?vid=6d162757-3924-4476-9818-84d10836cd88","ios":"levelo://app?vid=6d162757-3924-4476-9818-84d10836cd88"},"vehicle_type_id":"4","last_reported":1753341345,"current_range_meters":18800,"station_id":"","pricing_plan_id":"cebpf4jnsgd1na2vs0mg"},{"bike_id":"f78b69a5-7f99-469b-9809-db12b867eb2e","system_id":"levelo_inurba_marseille","lat":43.24168,"lon":5.36391,"is_reserved":false,"is_disabled":false,"rental_uris":{"android":"levelo://app?vid=f78b69a5-7f99-469b-9809-db12b867eb2e","ios":"levelo://app?vid=f78b69a5-7f99-469b-9809-db12b867eb2e"},"vehicle_type_id":"4","last_reported":1753341345,"current_range_meters":18800,"station_id":"cpo36qri1sfpv3e86is0","pricing_plan_id":"cebpf4jnsgd1na2vs0mg"},{"bike_id":"c9fa87fb-bb42-4d95-a8cc-6cff58b20d5c","system_id":"levelo_inurba_marseille","lat":43.26183,"lon":5.37452,"is_reserved":false,"is_disabled":false,"rental_uris":{"android":"levelo://app?vid=c9fa87fb-bb42-4d95-a8cc-6cff58b20d5c","ios":"levelo://app?vid=c9fa87fb-bb42-4d95-a8cc-6cff58b20d5c"},"vehicle_type_id":"4","last_reported":1753341345,"current_range_meters":18800,"station_id":"ce4bhgp2rcd13ifvqfc0","pricing_plan_id":"cebpf4jnsgd1na2vs0mg"},{"bike_id":"261d4bb0-7bb9-4c80-93f3-cd6f68b7285e","system_id":"levelo_inurba_marseille","lat":43.31511,"lon":5.3691,"is_reserved":false,"is_disabled":false,"rental_uris":{"android":"levelo://app?vid=261d4bb0-7bb9-4c80-93f3-cd6f68b7285e","ios":"levelo://app?vid=261d4bb0-7bb9-4c80-93f3-cd6f68b7285e"},"vehicle_type_id":"4","last_reported":1753341345,"current_range_meters":18800,"station_id":"","pricing_plan_id":"cebpf4jnsgd1na2vs0mg"},{"bike_id":"eb3298ad-9f56-44f1-a6d6-fb8f06efe3a0","system_id":"levelo_inurba_marseille","lat":43.30947,"lon":5.39038,"is_reserved":false,"is_disabled":false,"rental_uris":{"android":"levelo://app?vid=eb3298ad-9f56-44f1-a6d6-fb8f06efe3a0","ios":"levelo://app?vid=eb3298ad-9f56-44f1-a6d6-fb8f06efe3a0"},"vehicle_type_id":"4","last_reported":1753341345,"current_range_meters":18800,"station_id":"ce4bgup2rcd13ifvqco0","pricing_plan_id":"cebpf4jnsgd1na2vs0mg"},{"bike_id":"1b33b40a-7185-4c63-83d5-e98650ed6ff0","system_id":"levelo_inurba_marseille","lat":43.30873,"lon":5.37197,"is_reserved":false,"is_disabled":false,"rental_uris":{"android":"levelo://app?vid=1b33b40a-7185-4c63-83d5-e98650ed6ff0","ios":"levelo://app?vid=1b33b40a-7185-4c63-83d5-e98650ed6ff0"},"vehicle_type_id":"4","last_reported":1753341345,"current_range_meters":18000,"station_id":"ce4bguh2rcd13ifvqckg","pricing_plan_id":"cebpf4jnsgd1na2vs0mg"},{"bike_id":"bfddca7c-3825-4dd2-81c9-335257a69f7c","system_id":"levelo_inurba_marseille","lat":43.295747,"lon":5.367453,"is_reserved":false,"is_disabled":false,"rental_uris":{"android":"levelo://app?vid=bfddca7c-3825-4dd2-81c9-335257a69f7c","ios":"levelo://app?vid=bfddca7c-3825-4dd2-81c9-335257a69f7c"},"vehicle_type_id":"4","last_reported":1753341345,"current_range_meters":19200,"station_id":"ce4bgph2rcd13ifvqc2g","pricing_plan_id":"cebpf4jnsgd1na2vs0mg"},{"bike_id":"298a03ce-3f00-4d2a-94db-e11c20f2d47b","system_id":"levelo_inurba_marseille","lat":43.26228,"lon":5.40448,"is_reserved":false,"is_disabled":false,"rental_uris":{"android":"levelo://app?vid=298a03ce-3f00-4d2a-94db-e11c20f2d47b","ios":"levelo://app?vid=298a03ce-3f00-4d2a-94db-e11c20f2d47b"},"vehicle_type_id":"4","last_reported":1753341345,"current_range_meters":19200,"station_id":"ce4bhmh2rcd13ifvqgmg","pricing_plan_id":"cebpf4jnsgd1na2vs0mg"},{"bike_id":"e989862c-69f9-4f39-b21f-c2aea878cf77","system_id":"levelo_inurba_marseille","lat":43.23962,"lon":5.36618,"is_reserved":false,"is_disabled":false,"rental_uris":{"android":"levelo://app?vid=e989862c-69f9-4f39-b21f-c2aea878cf77","ios":"levelo://app?vid=e989862c-69f9-4f39-b21f-c2aea878cf77"},"vehicle_type_id":"4","last_reported":1753341345,"current_range_meters":19200,"station_id":"ce4bhi12rcd13ifvqfp0","pricing_plan_id":"cebpf4jnsgd1na2vs0mg"},{"bike_id":"9421ac7b-d1bd-4c5f-9f28-e04a5719eb0f","system_id":"levelo_inurba_marseille","lat":43.24176,"lon":5.39717,"is_reserved":false,"is_disabled":false,"rental_uris":{"android":"levelo://app?vid=9421ac7b-d1bd-4c5f-9f28-e04a5719eb0f","ios":"levelo://app?vid=9421ac7b-d1bd-4c5f-9f28-e04a5719eb0f"},"vehicle_type_id":"4","last_reported":1753341345,"current_range_meters":19200,"station_id":"ce4bhn12rcd13ifvqgpg","pricing_plan_id":"cebpf4jnsgd1na2vs0mg"},{"bike_id":"22832dd9-6f40-41f0-84f7-20d5b045fc09","system_id":"levelo_inurba_marseille","lat":43.303751,"lon":5.424803,"is_reserved":false,"is_disabled":false,"rental_uris":{"android":"levelo://app?vid=22832dd9-6f40-41f0-84f7-20d5b045fc09","ios":"levelo://app?vid=22832dd9-6f40-41f0-84f7-20d5b045fc09"},"vehicle_type_id":"4","last_reported":1753341345,"current_range_meters":19200,"station_id":"ce4bhoh2rcd13ifvqh6g","pricing_plan_id":"cebpf4jnsgd1na2vs0mg"},{"bike_id":"8406251d-bed5-49c7-9c12-36b49a20ecea","system_id":"levelo_inurba_marseille","lat":43.273229,"lon":5.390644,"is_reserved":false,"is_disabled":false,"rental_uris":{"android":"levelo://app?vid=8406251d-bed5-49c7-9c12-36b49a20ecea","ios":"levelo://app?vid=8406251d-bed5-49c7-9c12-36b49a20ecea"},"vehicle_type_id":"4","last_reported":1753341345,"current_range_meters":19200,"station_id":"ce4bhgp2rcd13ifvqfe0","pricing_plan_id":"cebpf4jnsgd1na2vs0mg"},{"bike_id":"8bd36a73-8e2f-4f37-b1f8-05d7058e4d1c","system_id":"levelo_inurba_marseille","lat":43.25896,"lon":5.40904,"is_reserved":false,"is_disabled":false,"rental_uris":{"android":"levelo://app?vid=8bd36a73-8e2f-4f37-b1f8-05d7058e4d1c","ios":"levelo://app?vid=8bd36a73-8e2f-4f37-b1f8-05d7058e4d1c"},"vehicle_type_id":"4","last_reported":1753341345,"current_range_meters":19200,"station_id":"ce4bhm92rcd13ifvqglg","pricing_plan_id":"cebpf4jnsgd1na2vs0mg"},{"bike_id":"abb12ee7-f2f8-4dc7-a860-c5c3b14d48d3","system_id":"levelo_inurba_marseille","lat":43.25815,"lon":5.39436,"is_reserved":false,"is_disabled":false,"rental_uris":{"android":"levelo://app?vid=abb12ee7-f2f8-4dc7-a860-c5c3b14d48d3","ios":"levelo://app?vid=abb12ee7-f2f8-4dc7-a860-c5c3b14d48d3"},"vehicle_type_id":"4","last_reported":1753341345,"current_range_meters":19200,"station_id":"ce4bhip2rcd13ifvqft0","pricing_plan_id":"cebpf4jnsgd1na2vs0mg"},{"bike_id":"98bc4236-880d-40c0-a86d-0fac3f83ec0c","system_id":"levelo_inurba_marseille","lat":43.286505,"lon":5.363479,"is_reserved":false,"is_disabled":false,"rental_uris":{"android":"levelo://app?vid=98bc4236-880d-40c0-a86d-0fac3f83ec0c","ios":"levelo://app?vid=98bc4236-880d-40c0-a86d-0fac3f83ec0c"},"vehicle_type_id":"4","last_reported":1753341345,"current_range_meters":19600,"station_id":"ce4bhah2rcd13ifvqej0","pricing_plan_id":"cebpf4jnsgd1na2vs0mg"},{"bike_id":"8c1d0819-f991-43c1-a0ae-15c2c54fdbcd","system_id":"levelo_inurba_marseille","lat":43.27376,"lon":5.36249,"is_reserved":false,"is_disabled":false,"rental_uris":{"android":"levelo://app?vid=8c1d0819-f991-43c1-a0ae-15c2c54fdbcd","ios":"levelo://app?vid=8c1d0819-f991-43c1-a0ae-15c2c54fdbcd"},"vehicle_type_id":"4","last_reported":1753341345,"current_range_meters":19600,"station_id":"ce4bhbh2rcd13ifvqeo0","pricing_plan_id":"cebpf4jnsgd1na2vs0mg"},{"bike_id":"5e738672-21d5-471d-927a-3f8986eb8b0d","system_id":"levelo_inurba_marseille","lat":43.31248,"lon":5.36854,"is_reserved":false,"is_disabled":false,"rental_uris":{"android":"levelo://app?vid=5e738672-21d5-471d-927a-3f8986eb8b0d","ios":"levelo://app?vid=5e738672-21d5-471d-927a-3f8986eb8b0d"},"vehicle_type_id":"4","last_reported":1753341345,"current_range_meters":19600,"station_id":"ce4bgl92rcd13ifvqbq0","pricing_plan_id":"cebpf4jnsgd1na2vs0mg"},{"bike_id":"287a560b-3bdc-4793-8958-9f6fe213ebda","system_id":"levelo_inurba_marseille","lat":43.24999,"lon":5.3893,"is_reserved":false,"is_disabled":false,"rental_uris":{"android":"levelo://app?vid=287a560b-3bdc-4793-8958-9f6fe213ebda","ios":"levelo://app?vid=287a560b-3bdc-4793-8958-9f6fe213ebda"},"vehicle_type_id":"4","last_reported":1753341345,"current_range_meters":19600,"station_id":"ce4bhgp2rcd13ifvqfd0","pricing_plan_id":"cebpf4jnsgd1na2vs0mg"},{"bike_id":"a9e6c0c2-b58c-46f1-8ae4-0b966b1872f1","system_id":"levelo_inurba_marseille","lat":43.2594,"lon":5.40897,"is_reserved":false,"is_disabled":false,"rental_uris":{"android":"levelo://app?vid=a9e6c0c2-b58c-46f1-8ae4-0b966b1872f1","ios":"levelo://app?vid=a9e6c0c2-b58c-46f1-8ae4-0b966b1872f1"},"vehicle_type_id":"4","last_reported":1753341345,"current_range_meters":19600,"station_id":"ce4bhm92rcd13ifvqglg","pricing_plan_id":"cebpf4jnsgd1na2vs0mg"},{"bike_id":"efbb5fa2-a968-471a-8acc-66604eea134a","system_id":"levelo_inurba_marseille","lat":43.29568,"lon":5.37514,"is_reserved":false,"is_disabled":false,"rental_uris":{"android":"levelo://app?vid=efbb5fa2-a968-471a-8acc-66604eea134a","ios":"levelo://app?vid=efbb5fa2-a968-471a-8acc-66604eea134a"},"vehicle_type_id":"4","last_reported":1753341345,"current_range_meters":19600,"station_id":"ce4bgh92rcd13ifvqb50","pricing_plan_id":"cebpf4jnsgd1na2vs0mg"},{"bike_id":"1190a6a6-e0cc-4ff3-b3e2-3e7074b6085c","system_id":"levelo_inurba_marseille","lat":43.30907,"lon":5.36837,"is_reserved":false,"is_disabled":false,"rental_uris":{"android":"levelo://app?vid=1190a6a6-e0cc-4ff3-b3e2-3e7074b6085c","ios":"levelo://app?vid=1190a6a6-e0cc-4ff3-b3e2-3e7074b6085c"},"vehicle_type_id":"4","last_reported":1753341345,"current_range_meters":19600,"station_id":"ce4bgn92rcd13ifvqbvg","pricing_plan_id":"cebpf4jnsgd1na2vs0mg"},{"bike_id":"1b055a3a-54ef-4924-b51e-e574f365c79d","system_id":"levelo_inurba_marseille","lat":43.29048,"lon":5.39933,"is_reserved":false,"is_disabled":false,"rental_uris":{"android":"levelo://app?vid=1b055a3a-54ef-4924-b51e-e574f365c79d","ios":"levelo://app?vid=1b055a3a-54ef-4924-b51e-e574f365c79d"},"vehicle_type_id":"4","last_reported":1753341345,"current_range_meters":19600,"station_id":"ce4bh392rcd13ifvqdm0","pricing_plan_id":"cebpf4jnsgd1na2vs0mg"},{"bike_id":"959ac106-db1b-45ea-a26d-d8abf1033299","system_id":"levelo_inurba_marseille","lat":43.25934,"lon":5.40905,"is_reserved":false,"is_disabled":false,"rental_uris":{"android":"levelo://app?vid=959ac106-db1b-45ea-a26d-d8abf1033299","ios":"levelo://app?vid=959ac106-db1b-45ea-a26d-d8abf1033299"},"vehicle_type_id":"4","last_reported":1753341345,"current_range_meters":19600,"station_id":"ce4bhm92rcd13ifvqglg","pricing_plan_id":"cebpf4jnsgd1na2vs0mg"},{"bike_id":"3a285df5-d972-491a-abd3-160af1fb6382","system_id":"levelo_inurba_marseille","lat":43.27572,"lon":5.38419,"is_reserved":false,"is_disabled":false,"rental_uris":{"android":"levelo://app?vid=3a285df5-d972-491a-abd3-160af1fb6382","ios":"levelo://app?vid=3a285df5-d972-491a-abd3-160af1fb6382"},"vehicle_type_id":"4","last_reported":1753341345,"current_range_meters":19600,"station_id":"ce4bhh92rcd13ifvqfi0","pricing_plan_id":"cebpf4jnsgd1na2vs0mg"},{"bike_id":"00013c1b-92ac-4a1f-81d4-aa00f88ea8f7","system_id":"levelo_inurba_marseille","lat":43.30972,"lon":5.39038,"is_reserved":false,"is_disabled":false,"rental_uris":{"android":"levelo://app?vid=00013c1b-92ac-4a1f-81d4-aa00f88ea8f7","ios":"levelo://app?vid=00013c1b-92ac-4a1f-81d4-aa00f88ea8f7"},"vehicle_type_id":"4","last_reported":1753341345,"current_range_meters":20000,"station_id":"ce4bgup2rcd13ifvqco0","pricing_plan_id":"cebpf4jnsgd1na2vs0mg"},{"bike_id":"f2ca3887-7e82-498b-8c49-e80cd18a3051","system_id":"levelo_inurba_marseille","lat":43.23951,"lon":5.36642,"is_reserved":false,"is_disabled":false,"rental_uris":{"android":"levelo://app?vid=f2ca3887-7e82-498b-8c49-e80cd18a3051","ios":"levelo://app?vid=f2ca3887-7e82-498b-8c49-e80cd18a3051"},"vehicle_type_id":"4","last_reported":1753341345,"current_range_meters":20000,"station_id":"ce4bhi12rcd13ifvqfp0","pricing_plan_id":"cebpf4jnsgd1na2vs0mg"},{"bike_id":"975621b1-02b2-43ba-95e3-5e639ac7a8db","system_id":"levelo_inurba_marseille","lat":43.281528,"lon":5.426451,"is_reserved":false,"is_disabled":false,"rental_uris":{"android":"levelo://app?vid=975621b1-02b2-43ba-95e3-5e639ac7a8db","ios":"levelo://app?vid=975621b1-02b2-43ba-95e3-5e639ac7a8db"},"vehicle_type_id":"4","last_reported":1753341345,"current_range_meters":20000,"station_id":"ce4bhnh2rcd13ifvqgug","pricing_plan_id":"cebpf4jnsgd1na2vs0mg"},{"bike_id":"d0a3ae16-9ba0-42b4-a925-61b6cf9c3947","system_id":"levelo_inurba_marseille","lat":43.31348,"lon":5.36711,"is_reserved":false,"is_disabled":false,"rental_uris":{"android":"levelo://app?vid=d0a3ae16-9ba0-42b4-a925-61b6cf9c3947","ios":"levelo://app?vid=d0a3ae16-9ba0-42b4-a925-61b6cf9c3947"},"vehicle_type_id":"4","last_reported":1753341345,"current_range_meters":20000,"station_id":"ce4bgr92rcd13ifvqc6g","pricing_plan_id":"cebpf4jnsgd1na2vs0mg"},{"bike_id":"fd0d1a74-0d03-4d4b-894e-e133018222a5","system_id":"levelo_inurba_marseille","lat":43.27944,"lon":5.41049,"is_reserved":false,"is_disabled":false,"rental_uris":{"android":"levelo://app?vid=fd0d1a74-0d03-4d4b-894e-e133018222a5","ios":"levelo://app?vid=fd0d1a74-0d03-4d4b-894e-e133018222a5"},"vehicle_type_id":"4","last_reported":1753341345,"current_range_meters":20000,"station_id":"ce4bhnp2rcd13ifvqh0g","pricing_plan_id":"cebpf4jnsgd1na2vs0mg"},{"bike_id":"21bb3fef-81ef-46bb-a48d-d85402757c94","system_id":"levelo_inurba_marseille","lat":43.254491,"lon":5.379836,"is_reserved":false,"is_disabled":false,"rental_uris":{"android":"levelo://app?vid=21bb3fef-81ef-46bb-a48d-d85402757c94","ios":"levelo://app?vid=21bb3fef-81ef-46bb-a48d-d85402757c94"},"vehicle_type_id":"4","last_reported":1753341345,"current_range_meters":20000,"station_id":"","pricing_plan_id":"cebpf4jnsgd1na2vs0mg"},{"bike_id":"b7b7dd5c-88eb-459e-9ac6-022eb3d1dd82","system_id":"levelo_inurba_marseille","lat":43.25083,"lon":5.39524,"is_reserved":false,"is_disabled":false,"rental_uris":{"android":"levelo://app?vid=b7b7dd5c-88eb-459e-9ac6-022eb3d1dd82","ios":"levelo://app?vid=b7b7dd5c-88eb-459e-9ac6-022eb3d1dd82"},"vehicle_type_id":"4","last_reported":1753341345,"current_range_meters":20000,"station_id":"ce4bhm12rcd13ifvqgkg","pricing_plan_id":"cebpf4jnsgd1na2vs0mg"},{"bike_id":"3105b080-eaef-462f-9090-9fad060b9946","system_id":"levelo_inurba_marseille","lat":43.255772,"lon":5.382336,"is_reserved":false,"is_disabled":false,"rental_uris":{"android":"levelo://app?vid=3105b080-eaef-462f-9090-9fad060b9946","ios":"levelo://app?vid=3105b080-eaef-462f-9090-9fad060b9946"},"vehicle_type_id":"4","last_reported":1753341345,"current_range_meters":20000,"station_id":"ce4bhih2rcd13ifvqfs0","pricing_plan_id":"cebpf4jnsgd1na2vs0mg"},{"bike_id":"bbd23855-76e2-4350-aa66-56410b1353db","system_id":"levelo_inurba_marseille","lat":43.272,"lon":5.39173,"is_reserved":false,"is_disabled":false,"rental_uris":{"android":"levelo://app?vid=bbd23855-76e2-4350-aa66-56410b1353db","ios":"levelo://app?vid=bbd23855-76e2-4350-aa66-56410b1353db"},"vehicle_type_id":"4","last_reported":1753341345,"current_range_meters":20000,"station_id":"ce4bhhp2rcd13ifvqfm0","pricing_plan_id":"cebpf4jnsgd1na2vs0mg"},{"bike_id":"e16dde5d-0cc1-45bc-adc4-fe9d96184d24","system_id":"levelo_inurba_marseille","lat":43.28155,"lon":5.42626,"is_reserved":false,"is_disabled":false,"rental_uris":{"android":"levelo://app?vid=e16dde5d-0cc1-45bc-adc4-fe9d96184d24","ios":"levelo://app?vid=e16dde5d-0cc1-45bc-adc4-fe9d96184d24"},"vehicle_type_id":"4","last_reported":1753341345,"current_range_meters":20000,"station_id":"ce4bhnh2rcd13ifvqgug","pricing_plan_id":"cebpf4jnsgd1na2vs0mg"},