{"last_updated":1682453243,"ttl":30,"version":"2.2","data":{"bikes":[{"bike_id":"98ff27cb-7bd2-4d30-87bd-d1b85a9e5947","system_id":"levelo_inurba_marseille","lat":43.312239,"lon":5.368562,"is_reserved":false,"is_disabled":false,"rental_uris":{"android":"levelo://app?vid=98ff27cb-7bd2-4d30-87bd-d1b85a9e5947","ios":"levelo://app?vid=98ff27cb-7bd2-4d30-87bd-d1b85a9e5947"},"vehicle_type_id":"4","last_reported":1682453243,"current_range_meters":20000,"station_id":"ce4bgl92rcd13ifvqbq0","pricing_plan_id":"free"},{"bike_id":"7b3055b7-f267-477e-b957-dde2637a118b","system_id":"levelo_inurba_marseille","lat":43.312239,"lon":5.368562,"is_reserved":false,"is_disabled":false,"rental_uris":{"android":"levelo://app?vid=7b3055b7-f267-477e-b957-dde2637a118b","ios":"levelo://app?vid=7b3055b7-f267-477e-b957-dde2637a118b"},"vehicle_type_id":"4","last_reported":1682453243,"current_range_meters":9200,"station_id":"ce4bgl92rcd13ifvqbq0","pricing_plan_id":"free"},{"bike_id":"bd3bcb30-82d7-4186-bf1e-40256bb97742","system_id":"levelo_inurba_marseille","lat":43.314811,"lon":5.373103,"is_reserved":false,"is_disabled":false,"rental_uris":{"android":"levelo://app?vid=bd3bcb30-82d7-4186-bf1e-40256bb97742","ios":"levelo://app?vid=bd3bcb30-82d7-4186-bf1e-40256bb97742"},"vehicle_type_id":"4","last_reported":1682453243,"current_range_meters":12000,"station_id":"ce4bgt12rcd13ifvqcd0","pricing_plan_id":"free"},{"bike_id":"7d662872-4beb-49d3-92a3-d5dc859ca1b0","system_id":"levelo_inurba_marseille","lat":43.314811,"lon":5.373103,"is_reserved":false,"is_disabled":false,"rental_uris":{"android":"levelo://app?vid=7d662872-4beb-49d3-92a3-d5dc859ca1b0","ios":"levelo://app?vid=7d662872-4beb-49d3-92a3-d5dc859ca1b0"},"vehicle_type_id":"4","last_reported":1682453243,"current_range_meters":18400,"station_id":"ce4bgt12rcd13ifvqcd0","pricing_plan_id":"free"},{"bike_id":"f89aac39-6785-47e2-9afa-cc4fc1978d8e","system_id":"levelo_inurba_marseille","lat":43.31487,"lon":5.37305,"is_reserved":false,"is_disabled":false,"rental_uris":{"android":"levelo://app?vid=f89aac39-6785-47e2-9afa-cc4fc1978d8e","ios":"levelo://app?vid=f89aac39-6785-47e2-9afa-cc4fc1978d8e"},"vehicle_type_id":"4","last_reported":1682453243,"current_range_meters":16400,"station_id":"ce4bgt12rcd13ifvqcd0","pricing_plan_id":"free"},{"bike_id":"e3511924-d220-4652-b0d5-8f498e75d52b","system_id":"levelo_inurba_marseille","lat":43.314811,"lon":5.373103,"is_reserved":false,"is_disabled":false,"rental_uris":{"android":"levelo://app?vid=e3511924-d220-4652-b0d5-8f498e75d52b","ios":"levelo://app?vid=e3511924-d220-4652-b0d5-8f498e75d52b"},"vehicle_type_id":"4","last_reported":1682453243,"current_range_meters":400,"station_id":"ce4bgt12rcd13ifvqcd0","pricing_plan_id":"free"},{"bike_id":"26e814de-ede9-4047-8f6f-7a6b0b1c4d2b","system_id":"levelo_inurba_marseille","lat":43.314811,"lon":5.373103,"is_reserved":false,"is_disabled":false,"rental_uris":{"android":"levelo://app?vid=26e814de-ede9-4047-8f6f-7a6b0b1c4d2b","ios":"levelo://app?vid=26e814de-ede9-4047-8f6f-7a6b0b1c4d2b"},"vehicle_type_id":"4","last_reported":1682453243,"current_range_meters":32000,"station_id":"ce4bgt12rcd13ifvqcd0","pricing_plan_id":"free"},{"bike_id":"9d80d25a-9987-4930-ac0f-53a2c6f0cf9b","system_id":"levelo_inurba_marseille","lat":43.314811,"lon":5.373103,"is_reserved":false,"is_disabled":false,"rental_uris":{"android":"levelo://app?vid=9d80d25a-9987-4930-ac0f-53a2c6f0cf9b","ios":"levelo://app?vid=9d80d25a-9987-4930-ac0f-53a2c6f0cf9b"},"vehicle_type_id":"4","last_reported":1682453243,"current_range_meters":14400,"station_id":"ce4bgt12rcd13ifvqcd0","pricing_plan_id":"free"},{"bike_id":"338e9bb9-c6b1-4401-b8bf-6114941bc33d","system_id":"levelo_inurba_marseille","lat":43.305989,"lon":5.37225,"is_reserved":false,"is_disabled":false,"rental_uris":{"android":"levelo://app?vid=338e9bb9-c6b1-4401-b8bf-6114941bc33d","ios":"levelo://app?vid=338e9bb9-c6b1-4401-b8bf-6114941bc33d"},"vehicle_type_id":"4","last_reported":1682453243,"current_range_meters":2400,"station_id":"ce4bgqh2rcd13ifvqc4g","pricing_plan_id":"free"},{"bike_id":"00450a81-c069-48c8-b486-a517418f198e","system_id":"levelo_inurba_marseille","lat":43.311131,"lon":5.377651,"is_reserved":false,"is_disabled":false,"rental_uris":{"android":"levelo://app?vid=00450a81-c069-48c8-b486-a517418f198e","ios":"levelo://app?vid=00450a81-c069-48c8-b486-a517418f198e"},"vehicle_type_id":"4","last_reported":1682453243,"current_range_meters":12400,"station_id":"ce4bgt92rcd13ifvqcg0","pricing_plan_id":"free"},{"bike_id":"bcdb4897-d656-452d-a6b1-bfc47d0e2fe6","system_id":"levelo_inurba_marseille","lat":43.311131,"lon":5.377651,"is_reserved":false,"is_disabled":false,"rental_uris":{"android":"levelo://app?vid=bcdb4897-d656-452d-a6b1-bfc47d0e2fe6","ios":"levelo://app?vid=bcdb4897-d656-452d-a6b1-bfc47d0e2fe6"},"vehicle_type_id":"4","last_reported":1682453243,"current_range_meters":2800,"station_id":"ce4bgt92rcd13ifvqcg0","pricing_plan_id":"free"},{"bike_id":"f1fc5070-e262-4001-8af3-02f5be77eb3f","system_id":"levelo_inurba_marseille","lat":43.31716,"lon":5.37754,"is_reserved":false,"is_disabled":false,"rental_uris":{"android":"levelo://app?vid=f1fc5070-e262-4001-8af3-02f5be77eb3f","ios":"levelo://app?vid=f1fc5070-e262-4001-8af3-02f5be77eb3f"},"vehicle_type_id":"4","last_reported":1682453243,"current_range_meters":27200,"station_id":"ce4bgth2rcd13ifvqch0","pricing_plan_id":"free"},{"bike_id":"86849db0-2d11-41bc-8e3f-213a7e4b74c0","system_id":"levelo_inurba_marseille","lat":43.31708,"lon":5.37769,"is_reserved":false,"is_disabled":false,"rental_uris":{"android":"levelo://app?vid=86849db0-2d11-41bc-8e3f-213a7e4b74c0","ios":"levelo://app?vid=86849db0-2d11-41bc-8e3f-213a7e4b74c0"},"vehicle_type_id":"4","last_reported":1682453243,"current_range_meters":26400,"station_id":"ce4bgth2rcd13ifvqch0","pricing_plan_id":"free"},{"bike_id":"3c4e6c8c-df65-4deb-8995-f8befa733260","system_id":"levelo_inurba_marseille","lat":43.31534,"lon":5.37884,"is_reserved":false,"is_disabled":false,"rental_uris":{"android":"levelo://app?vid=3c4e6c8c-df65-4deb-8995-f8befa733260","ios":"levelo://app?vid=3c4e6c8c-df65-4deb-8995-f8befa733260"},"vehicle_type_id":"4","last_reported":1682453243,"current_range_meters":0,"station_id":"","pricing_plan_id":"free"},{"bike_id":"c1b18b26-3825-4580-b65b-d74073c0ee5c","system_id":"levelo_inurba_marseille","lat":43.303046,"lon":5.368981,"is_reserved":false,"is_disabled":false,"rental_uris":{"android":"levelo://app?vid=c1b18b26-3825-4580-b65b-d74073c0ee5c","ios":"levelo://app?vid=c1b18b26-3825-4580-b65b-d74073c0ee5c"},"vehicle_type_id":"4","last_reported":1682453243,"current_range_meters":6400,"station_id":"ce4bgqh2rcd13ifvqc5g","pricing_plan_id":"free"},{"bike_id":"0ae53af0-7900-419c-91b9-c462e8d61d0a","system_id":"levelo_inurba_marseille","lat":43.315289,"lon":5.380349,"is_reserved":false,"is_disabled":false,"rental_uris":{"android":"levelo://app?vid=0ae53af0-7900-419c-91b9-c462e8d61d0a","ios":"levelo://app?vid=0ae53af0-7900-419c-91b9-c462e8d61d0a"},"vehicle_type_id":"4","last_reported":1682453243,"current_range_meters":22000,"station_id":"ce4bhsp2rcd13ifvqi50","pricing_plan_id":"free"},{"bike_id":"814ca9e3-5b24-4d65-b80e-f10fe4cbbeeb","system_id":"levelo_inurba_marseille","lat":43.315289,"lon":5.380349,"is_reserved":false,"is_disabled":false,"rental_uris":{"android":"levelo://app?vid=814ca9e3-5b24-4d65-b80e-f10fe4cbbeeb","ios":"levelo://app?vid=814ca9e3-5b24-4d65-b80e-f10fe4cbbeeb"},"vehicle_type_id":"4","last_reported":1682453243,"current_range_meters":11600,"station_id":"ce4bhsp2rcd13ifvqi50","pricing_plan_id":"free"},{"bike_id":"45cc80f7-9187-48e2-b5ce-0232127d891b","system_id":"levelo_inurba_marseille","lat":43.315289,"lon":5.380349,"is_reserved":false,"is_disabled":false,"rental_uris":{"android":"levelo://app?vid=45cc80f7-9187-48e2-b5ce-0232127d891b","ios":"levelo://app?vid=45cc80f7-9187-48e2-b5ce-0232127d891b"},"vehicle_type_id":"4","last_reported":1682453243,"current_range_meters":30800,"station_id":"ce4bhsp2rcd13ifvqi50","pricing_plan_id":"free"},{"bike_id":"7e9e8839-45fe-4fad-9be6-eeb07fd1eb61","system_id":"levelo_inurba_marseille","lat":43.315289,"lon":5.380349,"is_reserved":false,"is_disabled":false,"rental_uris":{"android":"levelo://app?vid=7e9e8839-45fe-4fad-9be6-eeb07fd1eb61","ios":"levelo://app?vid=7e9e8839-45fe-4fad-9be6-eeb07fd1eb61"},"vehicle_type_id":"4","last_reported":1682453243,"current_range_meters":28800,"station_id":"ce4bhsp2rcd13ifvqi50","pricing_plan_id":"free"},{"bike_id":"44b30e44-f780-471a-93ef-201229856ed8","system_id":"levelo_inurba_marseille","lat":43.315293,"lon":5.380349,"is_reserved":false,"is_disabled":false,"rental_uris":{"android":"levelo://app?vid=44b30e44-f780-471a-93ef-201229856ed8","ios":"levelo://app?vid=44b30e44-f780-471a-93ef-201229856ed8"},"vehicle_type_id":"4","last_reported":1682453243,"current_range_meters":31600,"station_id":"ce4bhsp2rcd13ifvqi50","pricing_plan_id":"free"},{"bike_id":"f2455cbc-d934-4894-8135-ccbc190aa80d","system_id":"levelo_inurba_marseille","lat":43.315293,"lon":5.380349,"is_reserved":false,"is_disabled":false,"rental_uris":{"android":"levelo://app?vid=f2455cbc-d934-4894-8135-ccbc190aa80d","ios":"levelo://app?vid=f2455cbc-d934-4894-8135-ccbc190aa80d"},"vehicle_type_id":"4","last_reported":1682453243,"current_range_meters":20400,"station_id":"ce4bhsp2rcd13ifvqi50","pricing_plan_id":"free"},{"bike_id":"5b3bc5fb-f3fb-44c0-a500-2c4f3d6bba45","system_id":"levelo_inurba_marseille","lat":43.304606,"lon":5.379026,"is_reserved":false,"is_disabled":false,"rental_uris":{"android":"levelo://app?vid=5b3bc5fb-f3fb-44c0-a500-2c4f3d6bba45","ios":"levelo://app?vid=5b3bc5fb-f3fb-44c0-a500-2c4f3d6bba45"},"vehicle_type_id":"4","last_reported":1682453243,"current_range_meters":15600,"station_id":"ce4bgup2rcd13ifvqcn0","pricing_plan_id":"free"},{"bike_id":"aa39da38-2a70-4a88-8383-3f182f196806","system_id":"levelo_inurba_marseille","lat":43.304606,"lon":5.379026,"is_reserved":false,"is_disabled":false,"rental_uris":{"android":"levelo://app?vid=aa39da38-2a70-4a88-8383-3f182f196806","ios":"levelo://app?vid=aa39da38-2a70-4a88-8383-3f182f196806"},"vehicle_type_id":"4","last_reported":1682453243,"current_range_meters":20400,"station_id":"ce4bgup2rcd13ifvqcn0","pricing_plan_id":"free"},{"bike_id":"d88436af-769e-4571-b2ff-2b4eb57530ee","system_id":"levelo_inurba_marseille","lat":43.304643,"lon":5.379186,"is_reserved":false,"is_disabled":false,"rental_uris":{"android":"levelo://app?vid=d88436af-769e-4571-b2ff-2b4eb57530ee","ios":"levelo://app?vid=d88436af-769e-4571-b2ff-2b4eb57530ee"},"vehicle_type_id":"4","last_reported":1682453243,"current_range_meters":4000,"station_id":"","pricing_plan_id":"free"},{"bike_id":"12574d57-7cb2-48ed-ac49-7d2f7b8139e3","system_id":"levelo_inurba_marseille","lat":43.304606,"lon":5.379026,"is_reserved":false,"is_disabled":false,"rental_uris":{"android":"levelo://app?vid=12574d57-7cb2-48ed-ac49-7d2f7b8139e3","ios":"levelo://app?vid=12574d57-7cb2-48ed-ac49-7d2f7b8139e3"},"vehicle_type_id":"4","last_reported":1682453243,"current_range_meters":3600,"station_id":"ce4bgup2rcd13ifvqcn0","pricing_plan_id":"free"},{"bike_id":"1064b93f-216d-4229-82b0-2cc494b6d112","system_id":"levelo_inurba_marseille","lat":43.30143,"lon":5.37413,"is_reserved":false,"is_disabled":false,"rental_uris":{"android":"levelo://app?vid=1064b93f-216d-4229-82b0-2cc494b6d112","ios":"levelo://app?vid=1064b93f-216d-4229-82b0-2cc494b6d112"},"vehicle_type_id":"4","last_reported":1682453243,"current_range_meters":25200,"station_id":"ce4bgs92rcd13ifvqcc0","pricing_plan_id":"free"},{"bike_id":"aaa9e142-b034-403e-bab7-5399c74857c4","system_id":"levelo_inurba_marseille","lat":43.313571,"lon":5.384829,"is_reserved":false,"is_disabled":false,"rental_uris":{"android":"levelo://app?vid=aaa9e142-b034-403e-bab7-5399c74857c4","ios":"levelo://app?vid=aaa9e142-b034-403e-bab7-5399c74857c4"},"vehicle_type_id":"4","last_reported":1682453243,"current_range_meters":16400,"station_id":"ce4bgt92rcd13ifvqcf0","pricing_plan_id":"free"},{"bike_id":"e4a94909-ab23-479e-92ec-7c4e7461d153","system_id":"levelo_inurba_marseille","lat":43.313571,"lon":5.384829,"is_reserved":false,"is_disabled":false,"rental_uris":{"android":"levelo://app?vid=e4a94909-ab23-479e-92ec-7c4e7461d153","ios":"levelo://app?vid=e4a94909-ab23-479e-92ec-7c4e7461d153"},"vehicle_type_id":"4","last_reported":1682453243,"current_range_meters":3600,"station_id":"ce4bgt92rcd13ifvqcf0","pricing_plan_id":"free"},{"bike_id":"1aa9a31b-37b9-4b89-b30f-13857c66f4cd","system_id":"levelo_inurba_marseille","lat":43.299222,"lon":5.365554,"is_reserved":false,"is_disabled":false,"rental_uris":{"android":"levelo://app?vid=1aa9a31b-37b9-4b89-b30f-13857c66f4cd","ios":"levelo://app?vid=1aa9a31b-37b9-4b89-b30f-13857c66f4cd"},"vehicle_type_id":"4","last_reported":1682453243,"current_range_meters":24400,"station_id":"ce4bgm92rcd13ifvqbr0","pricing_plan_id":"free"},{"bike_id":"75cc00d2-6e72-456d-8ce8-9d0985786d6b","system_id":"levelo_inurba_marseille","lat":43.31888,"lon":5.38392,"is_reserved":false,"is_disabled":false,"rental_uris":{"android":"levelo://app?vid=75cc00d2-6e72-456d-8ce8-9d0985786d6b","ios":"levelo://app?vid=75cc00d2-6e72-456d-8ce8-9d0985786d6b"},"vehicle_type_id":"4","last_reported":1682453243,"current_range_meters":26400,"station_id":"","pricing_plan_id":"free"},{"bike_id":"f471b5d7-c7a4-473d-914a-d98cdd8010e7","system_id":"levelo_inurba_marseille","lat":43.298433,"lon":5.362774,"is_reserved":false,"is_disabled":false,"rental_uris":{"android":"levelo://app?vid=f471b5d7-c7a4-473d-914a-d98cdd8010e7","ios":"levelo://app?vid=f471b5d7-c7a4-473d-914a-d98cdd8010e7"},"vehicle_type_id":"4","last_reported":1682453243,"current_range_meters":13200,"station_id":"ce4bgpp2rcd13ifvqc3g","pricing_plan_id":"free"},{"bike_id":"4caebbec-6262-45ee-a72e-7db4bd254dc8","system_id":"levelo_inurba_marseille","lat":43.30545,"lon":5.38429,"is_reserved":false,"is_disabled":false,"rental_uris":{"android":"levelo://app?vid=4caebbec-6262-45ee-a72e-7db4bd254dc8","ios":"levelo://app?vid=4caebbec-6262-45ee-a72e-7db4bd254dc8"},"vehicle_type_id":"4","last_reported":1682453243,"current_range_meters":22000,"station_id":"ce4bgg92rcd13ifvqb30","pricing_plan_id":"free"},{"bike_id":"71c3529b-fe6f-4a37-a30c-20a7313aa9c4","system_id":"levelo_inurba_marseille","lat":43.311722,"lon":5.387247,"is_reserved":false,"is_disabled":false,"rental_uris":{"android":"levelo://app?vid=71c3529b-fe6f-4a37-a30c-20a7313aa9c4","ios":"levelo://app?vid=71c3529b-fe6f-4a37-a30c-20a7313aa9c4"},"vehicle_type_id":"4","last_reported":1682453243,"current_range_meters":400,"station_id":"ce4bgv12rcd13ifvqcp0","pricing_plan_id":"free"},{"bike_id":"56498e1c-fb6c-4415-ae5c-6bb0f0b3312c","system_id":"levelo_inurba_marseille","lat":43.299243,"lon":5.374807,"is_reserved":false,"is_disabled":false,"rental_uris":{"android":"levelo://app?vid=56498e1c-fb6c-4415-ae5c-6bb0f0b3312c","ios":"levelo://app?vid=56498e1c-fb6c-4415-ae5c-6bb0f0b3312c"},"vehicle_type_id":"4","last_reported":1682453243,"current_range_meters":31600,"station_id":"ce4bgjh2rcd13ifvqbg0","pricing_plan_id":"free"},{"bike_id":"9767b019-32e3-46f6-be6c-ba62781f89ad","system_id":"levelo_inurba_marseille","lat":43.299243,"lon":5.374807,"is_reserved":false,"is_disabled":false,"rental_uris":{"android":"levelo://app?vid=9767b019-32e3-46f6-be6c-ba62781f89ad","ios":"levelo://app?vid=9767b019-32e3-46f6-be6c-ba62781f89ad"},"vehicle_type_id":"4","last_reported":1682453243,"current_range_meters":16800,"station_id":"ce4bgjh2rcd13ifvqbg0","pricing_plan_id":"free"},{"bike_id":"0326fdf7-14ea-4327-a9e4-7149cd1d10f8","system_id":"levelo_inurba_marseille","lat":43.299243,"lon":5.374807,"is_reserved":false,"is_disabled":false,"rental_uris":{"android":"levelo://app?vid=0326fdf7-14ea-4327-a9e4-7149cd1d10f8","ios":"levelo://app?vid=0326fdf7-14ea-4327-a9e4-7149cd1d10f8"},"vehicle_type_id":"4","last_reported":1682453243,"current_range_meters":0,"station_id":"ce4bgjh2rcd13ifvqbg0","pricing_plan_id":"free"},{"bike_id":"7d11823c-cc48-4216-9b78-92edb5bd466f","system_id":"levelo_inurba_marseille","lat":43.299243,"lon":5.374807,"is_reserved":false,"is_disabled":false,"rental_uris":{"android":"levelo://app?vid=7d11823c-cc48-4216-9b78-92edb5bd466f","ios":"levelo://app?vid=7d11823c-cc48-4216-9b78-92edb5bd466f"},"vehicle_type_id":"4","last_reported":1682453243,"current_range_meters":12400,"station_id":"ce4bgjh2rcd13ifvqbg0","pricing_plan_id":"free"},{"bike_id":"9b7970a6-3461-4568-b35f-900ecf88ff08","system_id":"levelo_inurba_marseille","lat":43.311722,"lon":5.387247,"is_reserved":false,"is_disabled":false,"rental_uris":{"android":"levelo://app?vid=9b7970a6-3461-4568-b35f-900ecf88ff08","ios":"levelo://app?vid=9b7970a6-3461-4568-b35f-900ecf88ff08"},"vehicle_type_id":"4","last_reported":1682453243,"current_range_meters":16800,"station_id":"ce4bgv12rcd13ifvqcp0","pricing_plan_id":"free"},{"bike_id":"bfde3522-4f82-4911-8658-087902cf94f6","system_id":"levelo_inurba_marseille","lat":43.299243,"lon":5.37481,"is_reserved":false,"is_disabled":false,"rental_uris":{"android":"levelo://app?vid=bfde3522-4f82-4911-8658-087902cf94f6","ios":"levelo://app?vid=bfde3522-4f82-4911-8658-087902cf94f6"},"vehicle_type_id":"4","last_reported":1682453243,"current_range_meters":4400,"station_id":"ce4bgjh2rcd13ifvqbg0","pricing_plan_id":"free"},{"bike_id":"3bc85822-5690-4e2c-967b-3e5403ec24e1","system_id":"levelo_inurba_marseille","lat":43.299243,"lon":5.37481,"is_reserved":false,"is_disabled":false,"rental_uris":{"android":"levelo://app?vid=3bc85822-5690-4e2c-967b-3e5403ec24e1","ios":"levelo://app?vid=3bc85822-5690-4e2c-967b-3e5403ec24e1"},"vehicle_type_id":"4","last_reported":1682453243,"current_range_meters":29200,"station_id":"ce4bgjh2rcd13ifvqbg0","pricing_plan_id":"free"},{"bike_id":"93475d15-82fa-4bd8-8bce-5f9569552a73","system_id":"levelo_inurba_marseille","lat":43.299243,"lon":5.374807,"is_reserved":false,"is_disabled":false,"rental_uris":{"android":"levelo://app?vid=93475d15-82fa-4bd8-8bce-5f9569552a73","ios":"levelo://app?vid=93475d15-82fa-4bd8-8bce-5f9569552a73"},"vehicle_type_id":"4","last_reported":1682453243,"current_range_meters":15600,"station_id":"ce4bgjh2rcd13ifvqbg0","pricing_plan_id":"free"},{"bike_id":"09091e78-9fa4-4452-84ac-f1eaa2804106","system_id":"levelo_inurba_marseille","lat":43.311722,"lon":5.387247,"is_reserved":false,"is_disabled":false,"rental_uris":{"android":"levelo://app?vid=09091e78-9fa4-4452-84ac-f1eaa2804106","ios":"levelo://app?vid=09091e78-9fa4-4452-84ac-f1eaa2804106"},"vehicle_type_id":"4","last_reported":1682453243,"current_range_meters":23600,"station_id":"ce4bgv12rcd13ifvqcp0","pricing_plan_id":"free"},{"bike_id":"909fcc92-a34a-4e66-945f-f1409d813779","system_id":"levelo_inurba_marseille","lat":43.31174,"lon":5.38724,"is_reserved":false,"is_disabled":false,"rental_uris":{"android":"levelo://app?vid=909fcc92-a34a-4e66-945f-f1409d813779","ios":"levelo://app?vid=909fcc92-a34a-4e66-945f-f1409d813779"},"vehicle_type_id":"4","last_reported":1682453243,"current_range_meters":14000,"station_id":"ce4bgv12rcd13ifvqcp0","pricing_plan_id":"free"},{"bike_id":"f3c295e8-bae1-409d-bf6e-d964eb8927c3","system_id":"levelo_inurba_marseille","lat":43.32774,"lon":5.36702,"is_reserved":false,"is_disabled":false,"rental_uris":{"android":"levelo://app?vid=f3c295e8-bae1-409d-bf6e-d964eb8927c3","ios":"levelo://app?vid=f3c295e8-bae1-409d-bf6e-d964eb8927c3"},"vehicle_type_id":"4","last_reported":1682453243,"current_range_meters":21200,"station_id":"","pricing_plan_id":"free"},{"bike_id":"302721f2-452d-48db-a0a8-63a1139b561d","system_id":"levelo_inurba_marseille","lat":43.297794,"lon":5.370888,"is_reserved":false,"is_disabled":false,"rental_uris":{"android":"levelo://app?vid=302721f2-452d-48db-a0a8-63a1139b561d","ios":"levelo://app?vid=302721f2-452d-48db-a0a8-63a1139b561d"},"vehicle_type_id":"4","last_reported":1682453243,"current_range_meters":6000,"station_id":"ce4bgop2rcd13ifvqc1g","pricing_plan_id":"free"},{"bike_id":"7bf74d9c-b718-4ce6-802d-f140c0976fa4","system_id":"levelo_inurba_marseille","lat":43.297794,"lon":5.370888,"is_reserved":false,"is_disabled":false,"rental_uris":{"android":"levelo://app?vid=7bf74d9c-b718-4ce6-802d-f140c0976fa4","ios":"levelo://app?vid=7bf74d9c-b718-4ce6-802d-f140c0976fa4"},"vehicle_type_id":"4","last_reported":1682453243,"current_range_meters":10400,"station_id":"ce4bgop2rcd13ifvqc1g","pricing_plan_id":"free"},{"bike_id":"77a15084-c151-4d9e-8db8-4eb1a02ee92f","system_id":"levelo_inurba_marseille","lat":43.32807,"lon":5.36692,"is_reserved":false,"is_disabled":false,"rental_uris":{"android":"levelo://app?vid=77a15084-c151-4d9e-8db8-4eb1a02ee92f","ios":"levelo://app?vid=77a15084-c151-4d9e-8db8-4eb1a02ee92f"},"vehicle_type_id":"4","last_reported":1682453243,"current_range_meters":14800,"station_id":"","pricing_plan_id":"free"},{"bike_id":"4c52b8ae-ac32-46e1-8ea6-b30c4fd5ce91","system_id":"levelo_inurba_marseille","lat":43.32827,"lon":5.36676,"is_reserved":false,"is_disabled":false,"rental_uris":{"android":"levelo://app?vid=4c52b8ae-ac32-46e1-8ea6-b30c4fd5ce91","ios":"levelo://app?vid=4c52b8ae-ac32-46e1-8ea6-b30c4fd5ce91"},"vehicle_type_id":"4","last_reported":1682453243,"current_range_meters":16800,"station_id":"ce4bhs92rcd13ifvqi0g","pricing_plan_id":"free"},{"bike_id":"04ea76ac-c581-4b8b-9be6-f04ea62fd801","system_id":"levelo_inurba_marseille","lat":43.328371,"lon":5.366912,"is_reserved":false,"is_disabled":false,"rental_uris":{"android":"levelo://app?vid=04ea76ac-c581-4b8b-9be6-f04ea62fd801","ios":"levelo://app?vid=04ea76ac-c581-4b8b-9be6-f04ea62fd801"},"vehicle_type_id":"4","last_reported":1682453243,"current_range_meters":6000,"station_id":"ce4bhs92rcd13ifvqi0g","pricing_plan_id":"free"},{"bike_id":"bb095569-7c3f-435a-af11-3d18055547f4","system_id":"levelo_inurba_marseille","lat":43.328371,"lon":5.366912,"is_reserved":false,"is_disabled":false,"rental_uris":{"android":"levelo://app?vid=bb095569-7c3f-435a-af11-3d18055547f4","ios":"levelo://app?vid=bb095569-7c3f-435a-af11-3d18055547f4"},"vehicle_type_id":"4","last_reported":1682453243,"current_range_meters":17600,"station_id":"ce4bhs92rcd13ifvqi0g","pricing_plan_id":"free"},{"bike_id":"a07b6f04-6ed4-41f2-b90a-863cc4ca5121","system_id":"levelo_inurba_marseille","lat":43.328371,"lon":5.366912,"is_reserved":false,"is_disabled":false,"rental_uris":{"android":"levelo://app?vid=a07b6f04-6ed4-41f2-b90a-863cc4ca5121","ios":"levelo://app?vid=a07b6f04-6ed4-41f2-b90a-863cc4ca5121"},"vehicle_type_id":"4","last_reported":1682453243,"current_range_meters":20000,"station_id":"ce4bhs92rcd13ifvqi0g","pricing_plan_id":"free"},{"bike_id":"f5330e98-3000-4a99-b839-c61fb48a0b7d","system_id":"levelo_inurba_marseille","lat":43.328371,"lon":5.366912,"is_reserved":false,"is_disabled":false,"rental_uris":{"android":"levelo://app?vid=f5330e98-3000-4a99-b839-c61fb48a0b7d","ios":"levelo://app?vid=f5330e98-3000-4a99-b839-c61fb48a0b7d"},"vehicle_type_id":"4","last_reported":1682453243,"current_range_meters":6000,"station_id":"ce4bhs92rcd13ifvqi0g","pricing_plan_id":"free"},{"bike_id":"f47e9305-1388-4838-94e3-4dd46bb086c2","system_id":"levelo_inurba_marseille","lat":43.328371,"lon":5.366912,"is_reserved":false,"is_disabled":false,"rental_uris":{"android":"levelo://app?vid=f47e9305-1388-4838-94e3-4dd46bb086c2","ios":"levelo://app?vid=f47e9305-1388-4838-94e3-4dd46bb086c2"},"vehicle_type_id":"4","last_reported":1682453243,"current_range_meters":19200,"station_id":"ce4bhs92rcd13ifvqi0g","pricing_plan_id":"free"},{"bike_id":"3465bd78-9cf1-4302-9b2d-da15145258cd","system_id":"levelo_inurba_marseille","lat":43.328371,"lon":5.366912,"is_reserved":false,"is_disabled":false,"rental_uris":{"android":"levelo://app?vid=3465bd78-9cf1-4302-9b2d-da15145258cd","ios":"levelo://app?vid=3465bd78-9cf1-4302-9b2d-da15145258cd"},"vehicle_type_id":"4","last_reported":1682453243,"current_range_meters":13200,"station_id":"ce4bhs92rcd13ifvqi0g","pricing_plan_id":"free"},{"bike_id":"e289d269-eb76-46ee-b23e-face7e43f765","system_id":"levelo_inurba_marseille","lat":43.2968,"lon":5.37291,"is_reserved":false,"is_disabled":false,"rental_uris":{"android":"levelo://app?vid=e289d269-eb76-46ee-b23e-face7e43f765","ios":"levelo://app?vid=e289d269-eb76-46ee-b23e-face7e43f765"},"vehicle_type_id":"4","last_reported":1682453243,"current_range_meters":1600,"station_id":"ce4bgk12rcd13ifvqbj0","pricing_plan_id":"free"},{"bike_id":"ea75c6aa-dacf-4201-9f4a-82f93db76186","system_id":"levelo_inurba_marseille","lat":43.2968,"lon":5.37291,"is_reserved":false,"is_disabled":false,"rental_uris":{"android":"levelo://app?vid=ea75c6aa-dacf-4201-9f4a-82f93db76186","ios":"levelo://app?vid=ea75c6aa-dacf-4201-9f4a-82f93db76186"},"vehicle_type_id":"4","last_reported":1682453243,"current_range_meters":7200,"station_id":"ce4bgk12rcd13ifvqbj0","pricing_plan_id":"free"},{"bike_id":"ec83e560-2d72-4719-8572-22f4093a5fbb","system_id":"levelo_inurba_marseille","lat":43.29685,"lon":5.37296,"is_reserved":false,"is_disabled":false,"rental_uris":{"android":"levelo://app?vid=ec83e560-2d72-4719-8572-22f4093a5fbb","ios":"levelo://app?vid=ec83e560-2d72-4719-8572-22f4093a5fbb"},"vehicle_type_id":"4","last_reported":1682453243,"current_range_meters":27600,"station_id":"ce4bgk12rcd13ifvqbj0","pricing_plan_id":"free"},{"bike_id":"53d61156-c19c-4f08-9b0a-f23149d59e6c","system_id":"levelo_inurba_marseille","lat":43.2968,"lon":5.37291,"is_reserved":false,"is_disabled":false,"rental_uris":{"android":"levelo://app?vid=53d61156-c19c-4f08-9b0a-f23149d59e6c","ios":"levelo://app?vid=53d61156-c19c-4f08-9b0a-f23149d59e6c"},"vehicle_type_id":"4","last_reported":1682453243,"current_range_meters":26800,"station_id":"ce4bgk12rcd13ifvqbj0","pricing_plan_id":"free"},{"bike_id":"30d95ef1-bfd9-46b5-81e9-795d7292a49c","system_id":"levelo_inurba_marseille","lat":43.2968,"lon":5.37291,"is_reserved":false,"is_disabled":false,"rental_uris":{"android":"levelo://app?vid=30d95ef1-bfd9-46b5-81e9-795d7292a49c","ios":"levelo://app?vid=30d95ef1-bfd9-46b5-81e9-795d7292a49c"},"vehicle_type_id":"4","last_reported":1682453243,"current_range_meters":22000,"station_id":"ce4bgk12rcd13ifvqbj0","pricing_plan_id":"free"},{"bike_id":"22afcc9c-6083-40dc-9f19-ffe70fc70b6c","system_id":"levelo_inurba_marseille","lat":43.296131,"lon":5.370791,"is_reserved":false,"is_disabled":false,"rental_uris":{"android":"levelo://app?vid=22afcc9c-6083-40dc-9f19-ffe70fc70b6c","ios":"levelo://app?vid=22afcc9c-6083-40dc-9f19-ffe70fc70b6c"},"vehicle_type_id":"4","last_reported":1682453243,"current_range_meters":6800,"station_id":"ce4bgnh2rcd13ifvqc0g","pricing_plan_id":"free"},{"bike_id":"0d0ebf86-52a6-42a7-b8ed-a4b830211a25","system_id":"levelo_inurba_marseille","lat":43.29573,"lon":5.367355,"is_reserved":false,"is_disabled":false,"rental_uris":{"android":"levelo://app?vid=0d0ebf86-52a6-42a7-b8ed-a4b830211a25","ios":"levelo://app?vid=0d0ebf86-52a6-42a7-b8ed-a4b830211a25"},"vehicle_type_id":"4","last_reported":1682453243,"current_range_meters":31200,"station_id":"ce4bgph2rcd13ifvqc2g","pricing_plan_id":"free"},{"bike_id":"22398558-cd44-455c-80bd-8e4d5701a770","system_id":"levelo_inurba_marseille","lat":43.29573,"lon":5.367355,"is_reserved":false,"is_disabled":false,"rental_uris":{"android":"levelo://app?vid=22398558-cd44-455c-80bd-8e4d5701a770","ios":"levelo://app?vid=22398558-cd44-455c-80bd-8e4d5701a770"},"vehicle_type_id":"4","last_reported":1682453243,"current_range_meters":20400,"station_id":"ce4bgph2rcd13ifvqc2g","pricing_plan_id":"free"},{"bike_id":"757cbf09-22b5-4580-8cf0-bf7497f4b9d2","system_id":"levelo_inurba_marseille","lat":43.29573,"lon":5.367355,"is_reserved":false,"is_disabled":false,"rental_uris":{"android":"levelo://app?vid=757cbf09-22b5-4580-8cf0-bf7497f4b9d2","ios":"levelo://app?vid=757cbf09-22b5-4580-8cf0-bf7497f4b9d2"},"vehicle_type_id":"4","last_reported":1682453243,"current_range_meters":31200,"station_id":"ce4bgph2rcd13ifvqc2g","pricing_plan_id":"free"},{"bike_id":"c97a26ac-fe6f-43c5-bd73-33aff63f054d","system_id":"levelo_inurba_marseille","lat":43.29573,"lon":5.367355,"is_reserved":false,"is_disabled":false,"rental_uris":{"android":"levelo://app?vid=c97a26ac-fe6f-43c5-bd73-33aff63f054d","ios":"levelo://app?vid=c97a26ac-fe6f-43c5-bd73-33aff63f054d"},"vehicle_type_id":"4","last_reported":1682453243,"current_range_meters":8400,"station_id":"ce4bgph2rcd13ifvqc2g","pricing_plan_id":"free"},{"bike_id":"3aa42ace-8633-4a9a-bed2-193317812518","system_id":"levelo_inurba_marseille","lat":43.299028,"lon":5.381509,"is_reserved":false,"is_disabled":false,"rental_uris":{"android":"levelo://app?vid=3aa42ace-8633-4a9a-bed2-193317812518","ios":"levelo://app?vid=3aa42ace-8633-4a9a-bed2-193317812518"},"vehicle_type_id":"4","last_reported":1682453243,"current_range_meters":28800,"station_id":"ce4bgj12rcd13ifvqbc0","pricing_plan_id":"free"},{"bike_id":"6da2afbc-d054-4096-b8df-f3cd7d268287","system_id":"levelo_inurba_marseille","lat":43.317557,"lon":5.390173,"is_reserved":false,"is_disabled":false,"rental_uris":{"android":"levelo://app?vid=6da2afbc-d054-4096-b8df-f3cd7d268287","ios":"levelo://app?vid=6da2afbc-d054-4096-b8df-f3cd7d268287"},"vehicle_type_id":"4","last_reported":1682453243,"current_range_meters":31200,"station_id":"ce4bhqp2rcd13ifvqhng","pricing_plan_id":"free"},{"bike_id":"fdf84ca3-8be5-4ebb-9de3-b552de5e511c","system_id":"levelo_inurba_marseille","lat":43.317557,"lon":5.390173,"is_reserved":false,"is_disabled":false,"rental_uris":{"android":"levelo://app?vid=fdf84ca3-8be5-4ebb-9de3-b552de5e511c","ios":"levelo://app?vid=fdf84ca3-8be5-4ebb-9de3-b552de5e511c"},"vehicle_type_id":"4","last_reported":1682453243,"current_range_meters":30400,"station_id":"ce4bhqp2rcd13ifvqhng","pricing_plan_id":"free"},{"bike_id":"431c54fc-dd87-4aac-aad6-cfe20b8f194f","system_id":"levelo_inurba_marseille","lat":43.317557,"lon":5.390173,"is_reserved":false,"is_disabled":false,"rental_uris":{"android":"levelo://app?vid=431c54fc-dd87-4aac-aad6-cfe20b8f194f","ios":"levelo://app?vid=431c54fc-dd87-4aac-aad6-cfe20b8f194f"},"vehicle_type_id":"4","last_reported":1682453243,"current_range_meters":22400,"station_id":"ce4bhqp2rcd13ifvqhng","pricing_plan_id":"free"},{"bike_id":"31e991cc-b092-4fc2-a449-02ccab74b89b","system_id":"levelo_inurba_marseille","lat":43.317557,"lon":5.390173,"is_reserved":false,"is_disabled":false,"rental_uris":{"android":"levelo://app?vid=31e991cc-b092-4fc2-a449-02ccab74b89b","ios":"levelo://app?vid=31e991cc-b092-4fc2-a449-02ccab74b89b"},"vehicle_type_id":"4","last_reported":1682453243,"current_range_meters":31200,"station_id":"ce4bhqp2rcd13ifvqhng","pricing_plan_id":"free"},{"bike_id":"ad3750ca-0a59-484a-8e0f-d62e669a9e1c","system_id":"levelo_inurba_marseille","lat":43.317557,"lon":5.390173,"is_reserved":false,"is_disabled":false,"rental_uris":{"android":"levelo://app?vid=ad3750ca-0a59-484a-8e0f-d62e669a9e1c","ios":"levelo://app?vid=ad3750ca-0a59-484a-8e0f-d62e669a9e1c"},"vehicle_type_id":"4","last_reported":1682453243,"current_range_meters":31200,"station_id":"ce4bhqp2rcd13ifvqhng","pricing_plan_id":"free"},{"bike_id":"193f1f40-e89f-4c13-a2ad-27fc23f537a9","system_id":"levelo_inurba_marseille","lat":43.298037,"lon":5.381066,"is_reserved":false,"is_disabled":false,"rental_uris":{"android":"levelo://app?vid=193f1f40-e89f-4c13-a2ad-27fc23f537a9","ios":"levelo://app?vid=193f1f40-e89f-4c13-a2ad-27fc23f537a9"},"vehicle_type_id":"4","last_reported":1682453243,"current_range_meters":0,"station_id":"ce4bgip2rcd13ifvqbb0","pricing_plan_id":"free"},{"bike_id":"313147dd-4321-4592-8c12-f4456c11ab46","system_id":"levelo_inurba_marseille","lat":43.298037,"lon":5.381066,"is_reserved":false,"is_disabled":false,"rental_uris":{"android":"levelo://app?vid=313147dd-4321-4592-8c12-f4456c11ab46","ios":"levelo://app?vid=313147dd-4321-4592-8c12-f4456c11ab46"},"vehicle_type_id":"4","last_reported":1682453243,"current_range_meters":1200,"station_id":"ce4bgip2rcd13ifvqbb0","pricing_plan_id":"free"},{"bike_id":"f728f813-e6f5-4286-b8fd-24b0d7d2efcd","system_id":"levelo_inurba_marseille","lat":43.295279,"lon":5.375048,"is_reserved":false,"is_disabled":false,"rental_uris":{"android":"levelo://app?vid=f728f813-e6f5-4286-b8fd-24b0d7d2efcd","ios":"levelo://app?vid=f728f813-e6f5-4286-b8fd-24b0d7d2efcd"},"vehicle_type_id":"4","last_reported":1682453243,"current_range_meters":28400,"station_id":"ce4bgkp2rcd13ifvqbmg","pricing_plan_id":"free"},{"bike_id":"be3ee8db-9554-4ea9-b2f5-b96347cb17fb","system_id":"levelo_inurba_marseille","lat":43.299707,"lon":5.384859,"is_reserved":false,"is_disabled":false,"rental_uris":{"android":"levelo://app?vid=be3ee8db-9554-4ea9-b2f5-b96347cb17fb","ios":"levelo://app?vid=be3ee8db-9554-4ea9-b2f5-b96347cb17fb"},"vehicle_type_id":"4","last_reported":1682453243,"current_range_meters":31200,"station_id":"ce4bgj92rcd13ifvqbd0","pricing_plan_id":"free"},{"bike_id":"c1c37774-0fdc-4980-bd50-36c147fd61f0","system_id":"levelo_inurba_marseille","lat":43.299707,"lon":5.384859,"is_reserved":false,"is_disabled":false,"rental_uris":{"android":"levelo://app?vid=c1c37774-0fdc-4980-bd50-36c147fd61f0","ios":"levelo://app?vid=c1c37774-0fdc-4980-bd50-36c147fd61f0"},"vehicle_type_id":"4","last_reported":1682453243,"current_range_meters":18400,"station_id":"ce4bgj92rcd13ifvqbd0","pricing_plan_id":"free"},{"bike_id":"8d3c2085-a267-4535-ae55-d281442b365d","system_id":"levelo_inurba_marseille","lat":43.32364,"lon":5.38888,"is_reserved":false,"is_disabled":false,"rental_uris":{"android":"levelo://app?vid=8d3c2085-a267-4535-ae55-d281442b365d","ios":"levelo://app?vid=8d3c2085-a267-4535-ae55-d281442b365d"},"vehicle_type_id":"4","last_reported":1682453243,"current_range_meters":30400,"station_id":"","pricing_plan_id":"free"},{"bike_id":"70d494b8-16d2-4c6c-b20c-9df06b21b412","system_id":"levelo_inurba_marseille","lat":43.3237,"lon":5.38885,"is_reserved":false,"is_disabled":false,"rental_uris":{"android":"levelo://app?vid=70d494b8-16d2-4c6c-b20c-9df06b21b412","ios":"levelo://app?vid=70d494b8-16d2-4c6c-b20c-9df06b21b412"},"vehicle_type_id":"4","last_reported":1682453243,"current_range_meters":24400,"station_id":"ce4bhqp2rcd13ifvqhog","pricing_plan_id":"free"},{"bike_id":"54cdb0f5-dafa-4719-a57f-c074cd2a9606","system_id":"levelo_inurba_marseille","lat":43.32362,"lon":5.38894,"is_reserved":false,"is_disabled":false,"rental_uris":{"android":"levelo://app?vid=54cdb0f5-dafa-4719-a57f-c074cd2a9606","ios":"levelo://app?vid=54cdb0f5-dafa-4719-a57f-c074cd2a9606"},"vehicle_type_id":"4","last_reported":1682453243,"current_range_meters":28400,"station_id":"ce4bhqp2rcd13ifvqhog","pricing_plan_id":"free"},{"bike_id":"d5661d89-b610-46ab-a5e3-d65ee6e277ad","system_id":"levelo_inurba_marseille","lat":43.31425,"lon":5.39365,"is_reserved":false,"is_disabled":false,"rental_uris":{"android":"levelo://app?vid=d5661d89-b610-46ab-a5e3-d65ee6e277ad","ios":"levelo://app?vid=d5661d89-b610-46ab-a5e3-d65ee6e277ad"},"vehicle_type_id":"4","last_reported":1682453243,"current_range_meters":7200,"station_id":"","pricing_plan_id":"free"},{"bike_id":"945e0023-3712-402a-9022-773c847f79a8","system_id":"levelo_inurba_marseille","lat":43.29601,"lon":5.381084,"is_reserved":false,"is_disabled":false,"rental_uris":{"android":"levelo://app?vid=945e0023-3712-402a-9022-773c847f79a8","ios":"levelo://app?vid=945e0023-3712-402a-9022-773c847f79a8"},"vehicle_type_id":"4","last_reported":1682453243,"current_range_meters":3600,"station_id":"ce4bgl12rcd13ifvqbo0","pricing_plan_id":"free"},{"bike_id":"1a1b4cc7-7c27-4185-b0a0-e3511f2953d3","system_id":"levelo_inurba_marseille","lat":43.29601,"lon":5.381084,"is_reserved":false,"is_disabled":false,"rental_uris":{"android":"levelo://app?vid=1a1b4cc7-7c27-4185-b0a0-e3511f2953d3","ios":"levelo://app?vid=1a1b4cc7-7c27-4185-b0a0-e3511f2953d3"},"vehicle_type_id":"4","last_reported":1682453243,"current_range_meters":12800,"station_id":"ce4bgl12rcd13ifvqbo0","pricing_plan_id":"free"},{"bike_id":"76cb2400-47c2-4d87-aa1c-c980a507a6f5","system_id":"levelo_inurba_marseille","lat":43.305994,"lon":5.393687,"is_reserved":false,"is_disabled":false,"rental_uris":{"android":"levelo://app?vid=76cb2400-47c2-4d87-aa1c-c980a507a6f5","ios":"levelo://app?vid=76cb2400-47c2-4d87-aa1c-c980a507a6f5"},"vehicle_type_id":"4","last_reported":1682453243,"current_range_meters":9200,"station_id":"ce4bh0p2rcd13ifvqd80","pricing_plan_id":"free"},{"bike_id":"5668730f-ef2b-4e27-9f55-4eeb66d6cd7f","system_id":"levelo_inurba_marseille","lat":43.305994,"lon":5.393687,"is_reserved":false,"is_disabled":false,"rental_uris":{"android":"levelo://app?vid=5668730f-ef2b-4e27-9f55-4eeb66d6cd7f","ios":"levelo://app?vid=5668730f-ef2b-4e27-9f55-4eeb66d6cd7f"},"vehicle_type_id":"4","last_reported":1682453243,"current_range_meters":6800,"station_id":"ce4bh0p2rcd13ifvqd80","pricing_plan_id":"free"},{"bike_id":"38e26db0-18ad-41bc-9d50-67ac0adc949b","system_id":"levelo_inurba_marseille","lat":43.305994,"lon":5.393687,"is_reserved":false,"is_disabled":false,"rental_uris":{"android":"levelo://app?vid=38e26db0-18ad-41bc-9d50-67ac0adc949b","ios":"levelo://app?vid=38e26db0-18ad-41bc-9d50-67ac0adc949b"},"vehicle_type_id":"4","last_reported":1682453243,"current_range_meters":13200,"station_id":"ce4bh0p2rcd13ifvqd80","pricing_plan_id":"free"},{"bike_id":"757eee25-14a6-471b-aa76-a540a5d2ffea","system_id":"levelo_inurba_marseille","lat":43.324981,"lon":5.38965,"is_reserved":false,"is_disabled":false,"rental_uris":{"android":"levelo://app?vid=757eee25-14a6-471b-aa76-a540a5d2ffea","ios":"levelo://app?vid=757eee25-14a6-471b-aa76-a540a5d2ffea"},"vehicle_type_id":"4","last_reported":1682453243,"current_range_meters":0,"station_id":"","pricing_plan_id":"free"},{"bike_id":"cf55e818-e874-49e5-b5bf-f54a512005b1","system_id":"levelo_inurba_marseille","lat":43.302992,"lon":5.392136,"is_reserved":false,"is_disabled":false,"rental_uris":{"android":"levelo://app?vid=cf55e818-e874-49e5-b5bf-f54a512005b1","ios":"levelo://app?vid=cf55e818-e874-49e5-b5bf-f54a512005b1"},"vehicle_type_id":"4","last_reported":1682453243,"current_range_meters":13200,"station_id":"ce4bgkh2rcd13ifvqbk0","pricing_plan_id":"free"},{"bike_id":"491a274a-2000-4087-b323-0406368bf8ed","system_id":"levelo_inurba_marseille","lat":43.302992,"lon":5.392136,"is_reserved":false,"is_disabled":false,"rental_uris":{"android":"levelo://app?vid=491a274a-2000-4087-b323-0406368bf8ed","ios":"levelo://app?vid=491a274a-2000-4087-b323-0406368bf8ed"},"vehicle_type_id":"4","last_reported":1682453243,"current_range_meters":18400,"station_id":"ce4bgkh2rcd13ifvqbk0","pricing_plan_id":"free"},{"bike_id":"3b74bf49-8523-4bd8-b813-c2658508e940","system_id":"levelo_inurba_marseille","lat":43.30293,"lon":5.39201,"is_reserved":false,"is_disabled":false,"rental_uris":{"android":"levelo://app?vid=3b74bf49-8523-4bd8-b813-c2658508e940","ios":"levelo://app?vid=3b74bf49-8523-4bd8-b813-c2658508e940"},"vehicle_type_id":"4","last_reported":1682453243,"current_range_meters":0,"station_id":"","pricing_plan_id":"free"},{"bike_id":"62367158-8c43-49d2-a639-f04688f4bf68","system_id":"levelo_inurba_marseille","lat":43.302992,"lon":5.392136,"is_reserved":false,"is_disabled":false,"rental_uris":{"android":"levelo://app?vid=62367158-8c43-49d2-a639-f04688f4bf68","ios":"levelo://app?vid=62367158-8c43-49d2-a639-f04688f4bf68"},"vehicle_type_id":"4","last_reported":1682453243,"current_range_meters":4800,"station_id":"ce4bgkh2rcd13ifvqbk0","pricing_plan_id":"free"},{"bike_id":"1e21ec2d-89c2-496c-9ff1-dbe162e7bdc9","system_id":"levelo_inurba_marseille","lat":43.302992,"lon":5.392136,"is_reserved":false,"is_disabled":false,"rental_uris":{"android":"levelo://app?vid=1e21ec2d-89c2-496c-9ff1-dbe162e7bdc9","ios":"levelo://app?vid=1e21ec2d-89c2-496c-9ff1-dbe162e7bdc9"},"vehicle_type_id":"4","last_reported":1682453243,"current_range_meters":0,"station_id":"ce4bgkh2rcd13ifvqbk0","pricing_plan_id":"free"},{"bike_id":"c89549bd-800a-40fb-b54c-c42c3cffafdb","system_id":"levelo_inurba_marseille","lat":43.2936,"lon":5.37835,"is_reserved":false,"is_disabled":false,"rental_uris":{"android":"levelo://app?vid=c89549bd-800a-40fb-b54c-c42c3cffafdb","ios":"levelo://app?vid=c89549bd-800a-40fb-b54c-c42c3cffafdb"},"vehicle_type_id":"4","last_reported":1682453243,"current_range_meters":28000,"station_id":"ce4bgjh2rcd13ifvqbf0","pricing_plan_id":"free"},{"bike_id":"efbfcf1c-c566-4684-9fad-c6002908d488","system_id":"levelo_inurba_marseille","lat":43.29265,"lon":5.35959,"is_reserved":false,"is_disabled":false,"rental_uris":{"android":"levelo://app?vid=efbfcf1c-c566-4684-9fad-c6002908d488","ios":"levelo://app?vid=efbfcf1c-c566-4684-9fad-c6002908d488"},"vehicle_type_id":"4","last_reported":1682453243,"current_range_meters":14800,"station_id":"","pricing_plan_id":"free"},{"bike_id":"ba53d5cf-7322-42ab-a23f-48693fe3ee49","system_id":"levelo_inurba_marseille","lat":43.2936,"lon":5.37835,"is_reserved":false,"is_disabled":false,"rental_uris":{"android":"levelo://app?vid=ba53d5cf-7322-42ab-a23f-48693fe3ee49","ios":"levelo://app?vid=ba53d5cf-7322-42ab-a23f-48693fe3ee49"},"vehicle_type_id":"4","last_reported":1682453243,"current_range_meters":27200,"station_id":"ce4bgjh2rcd13ifvqbf0","pricing_plan_id":"free"},{"bike_id":"fe35a2a6-21e0-404f-9b3b-b47341f5d2ac","system_id":"levelo_inurba_marseille","lat":43.29224,"lon":5.36063,"is_reserved":false,"is_disabled":false,"rental_uris":{"android":"levelo://app?vid=fe35a2a6-21e0-404f-9b3b-b47341f5d2ac","ios":"levelo://app?vid=fe35a2a6-21e0-404f-9b3b-b47341f5d2ac"},"vehicle_type_id":"4","last_reported":1682453243,"current_range_meters":29600,"station_id":"ce4bhbh2rcd13ifvqeqg","pricing_plan_id":"free"},{"bike_id":"f14c602e-d196-4f10-bc64-6c39a0273653","system_id":"levelo_inurba_marseille","lat":43.29224,"lon":5.36052,"is_reserved":false,"is_disabled":false,"rental_uris":{"android":"levelo://app?vid=f14c602e-d196-4f10-bc64-6c39a0273653","ios":"levelo://app?vid=f14c602e-d196-4f10-bc64-6c39a0273653"},"vehicle_type_id":"4","last_reported":1682453243,"current_range_meters":16800,"station_id":"ce4bhbh2rcd13ifvqeqg","pricing_plan_id":"free"},{"bike_id":"cac32c59-02ae-407e-9b46-0570c532524c","system_id":"levelo_inurba_marseille","lat":43.30085,"lon":5.390856,"is_reserved":false,"is_disabled":false,"rental_uris":{"android":"levelo://app?vid=cac32c59-02ae-407e-9b46-0570c532524c","ios":"levelo://app?vid=cac32c59-02ae-407e-9b46-0570c532524c"},"vehicle_type_id":"4","last_reported":1682453243,"current_range_meters":16400,"station_id":"ce4bh192rcd13ifvqdb0","pricing_plan_id":"free"},{"bike_id":"646900e7-90c9-4140-b901-6a849af9480b","system_id":"levelo_inurba_marseille","lat":43.29223,"lon":5.36051,"is_reserved":false,"is_disabled":false,"rental_uris":{"android":"levelo://app?vid=646900e7-90c9-4140-b901-6a849af9480b","ios":"levelo://app?vid=646900e7-90c9-4140-b901-6a849af9480b"},"vehicle_type_id":"4","last_reported":1682453243,"current_range_meters":30000,"station_id":"ce4bhbh2rcd13ifvqeqg","pricing_plan_id":"free"},{"bike_id":"3af20558-e702-412c-a8a2-d506373cf1fc","system_id":"levelo_inurba_marseille","lat":43.298764,"lon":5.388973,"is_reserved":false,"is_disabled":false,"rental_uris":{"android":"levelo://app?vid=3af20558-e702-412c-a8a2-d506373cf1fc","ios":"levelo://app?vid=3af20558-e702-412c-a8a2-d506373cf1fc"},"vehicle_type_id":"4","last_reported":1682453243,"current_range_meters":27200,"station_id":"ce4bh392rcd13ifvqdl0","pricing_plan_id":"free"},{"bike_id":"dac211e8-f7f3-4f26-af8f-de7d0765d5f3","system_id":"levelo_inurba_marseille","lat":43.298764,"lon":5.388973,"is_reserved":false,"is_disabled":false,"rental_uris":{"android":"levelo://app?vid=dac211e8-f7f3-4f26-af8f-de7d0765d5f3","ios":"levelo://app?vid=dac211e8-f7f3-4f26-af8f-de7d0765d5f3"},"vehicle_type_id":"4","last_reported":1682453243,"current_range_meters":0,"station_id":"ce4bh392rcd13ifvqdl0","pricing_plan_id":"free"},{"bike_id":"f954c625-3361-4b86-874f-9264c1ead719","system_id":"levelo_inurba_marseille","lat":43.298764,"lon":5.388973,"is_reserved":false,"is_disabled":false,"rental_uris":{"android":"levelo://app?vid=f954c625-3361-4b86-874f-9264c1ead719","ios":"levelo://app?vid=f954c625-3361-4b86-874f-9264c1ead719"},"vehicle_type_id":"4","last_reported":1682453243,"current_range_meters":22400,"station_id":"ce4bh392rcd13ifvqdl0","pricing_plan_id":"free"},{"bike_id":"1ea51160-0290-4d66-87b0-5fd019908cfb","system_id":"levelo_inurba_marseille","lat":43.291671,"lon":5.371575,"is_reserved":false,"is_disabled":false,"rental_uris":{"android":"levelo://app?vid=1ea51160-0290-4d66-87b0-5fd019908cfb","ios":"levelo://app?vid=1ea51160-0290-4d66-87b0-5fd019908cfb"},"vehicle_type_id":"4","last_reported":1682453243,"current_range_meters":400,"station_id":"ce4bha92rcd13ifvqeh0","pricing_plan_id":"free"},{"bike_id":"7959592a-d160-4b4d-a9ae-653a95a85a54","system_id":"levelo_inurba_marseille","lat":43.298764,"lon":5.388973,"is_reserved":false,"is_disabled":false,"rental_uris":{"android":"levelo://app?vid=7959592a-d160-4b4d-a9ae-653a95a85a54","ios":"levelo://app?vid=7959592a-d160-4b4d-a9ae-653a95a85a54"},"vehicle_type_id":"4","last_reported":1682453243,"current_range_meters":14400,"station_id":"ce4bh392rcd13ifvqdl0","pricing_plan_id":"free"},{"bike_id":"8b8bd7fc-a901-49a2-9d1d-7d0b80ee9fb0","system_id":"levelo_inurba_marseille","lat":43.298764,"lon":5.388973,"is_reserved":false,"is_disabled":false,"rental_uris":{"android":"levelo://app?vid=8b8bd7fc-a901-49a2-9d1d-7d0b80ee9fb0","ios":"levelo://app?vid=8b8bd7fc-a901-49a2-9d1d-7d0b80ee9fb0"},"vehicle_type_id":"4","last_reported":1682453243,"current_range_meters":6000,"station_id":"ce4bh392rcd13ifvqdl0","pricing_plan_id":"free"},{"bike_id":"c704ad80-55f2-403e-a62b-4c03f69178c9","system_id":"levelo_inurba_marseille","lat":43.309038,"lon":5.396546,"is_reserved":false,"is_disabled":false,"rental_uris":{"android":"levelo://app?vid=c704ad80-55f2-403e-a62b-4c03f69178c9","ios":"levelo://app?vid=c704ad80-55f2-403e-a62b-4c03f69178c9"},"vehicle_type_id":"4","last_reported":1682453243,"current_range_meters":20000,"station_id":"ce4bh012rcd13ifvqcv0","pricing_plan_id":"free"},{"bike_id":"e5560486-0bb7-4c48-8e9e-4ad8a21903fb","system_id":"levelo_inurba_marseille","lat":43.309038,"lon":5.396546,"is_reserved":false,"is_disabled":false,"rental_uris":{"android":"levelo://app?vid=e5560486-0bb7-4c48-8e9e-4ad8a21903fb","ios":"levelo://app?vid=e5560486-0bb7-4c48-8e9e-4ad8a21903fb"},"vehicle_type_id":"4","last_reported":1682453243,"current_range_meters":0,"station_id":"ce4bh012rcd13ifvqcv0","pricing_plan_id":"free"},{"bike_id":"6f04bb9f-734d-4504-ad02-90cbb3aa9ee2","system_id":"levelo_inurba_marseille","lat":43.313291,"lon":5.396838,"is_reserved":false,"is_disabled":false,"rental_uris":{"android":"levelo://app?vid=6f04bb9f-734d-4504-ad02-90cbb3aa9ee2","ios":"levelo://app?vid=6f04bb9f-734d-4504-ad02-90cbb3aa9ee2"},"vehicle_type_id":"4","last_reported":1682453243,"current_range_meters":18400,"station_id":"ce4bgvp2rcd13ifvqcu0","pricing_plan_id":"free"},{"bike_id":"0b7eb7db-4181-43e7-9077-f2764231ad5b","system_id":"levelo_inurba_marseille","lat":43.309038,"lon":5.396546,"is_reserved":false,"is_disabled":false,"rental_uris":{"android":"levelo://app?vid=0b7eb7db-4181-43e7-9077-f2764231ad5b","ios":"levelo://app?vid=0b7eb7db-4181-43e7-9077-f2764231ad5b"},"vehicle_type_id":"4","last_reported":1682453243,"current_range_meters":25600,"station_id":"ce4bh012rcd13ifvqcv0","pricing_plan_id":"free"},{"bike_id":"7c221b34-96eb-45a6-98cb-88af710a26f0","system_id":"levelo_inurba_marseille","lat":43.313291,"lon":5.396838,"is_reserved":false,"is_disabled":false,"rental_uris":{"android":"levelo://app?vid=7c221b34-96eb-45a6-98cb-88af710a26f0","ios":"levelo://app?vid=7c221b34-96eb-45a6-98cb-88af710a26f0"},"vehicle_type_id":"4","last_reported":1682453243,"current_range_meters":22800,"station_id":"ce4bgvp2rcd13ifvqcu0","pricing_plan_id":"free"},{"bike_id":"e32e3c8a-e51e-42dc-ba41-da38c0cc9e1e","system_id":"levelo_inurba_marseille","lat":43.309038,"lon":5.396546,"is_reserved":false,"is_disabled":false,"rental_uris":{"android":"levelo://app?vid=e32e3c8a-e51e-42dc-ba41-da38c0cc9e1e","ios":"levelo://app?vid=e32e3c8a-e51e-42dc-ba41-da38c0cc9e1e"},"vehicle_type_id":"4","last_reported":1682453243,"current_range_meters":19600,"station_id":"ce4bh012rcd13ifvqcv0","pricing_plan_id":"free"},{"bike_id":"9a9b474c-6c5d-4c6d-a200-8ec4dc13174b","system_id":"levelo_inurba_marseille","lat":43.313291,"lon":5.396838,"is_reserved":false,"is_disabled":false,"rental_uris":{"android":"levelo://app?vid=9a9b474c-6c5d-4c6d-a200-8ec4dc13174b","ios":"levelo://app?vid=9a9b474c-6c5d-4c6d-a200-8ec4dc13174b"},"vehicle_type_id":"4","last_reported":1682453243,"current_range_meters":12000,"station_id":"ce4bgvp2rcd13ifvqcu0","pricing_plan_id":"free"},{"bike_id":"277de2ff-b3b6-48dc-80f4-4dcdeeaf4b05","system_id":"levelo_inurba_marseille","lat":43.309038,"lon":5.396546,"is_reserved":false,"is_disabled":false,"rental_uris":{"android":"levelo://app?vid=277de2ff-b3b6-48dc-80f4-4dcdeeaf4b05","ios":"levelo://app?vid=277de2ff-b3b6-48dc-80f4-4dcdeeaf4b05"},"vehicle_type_id":"4","last_reported":1682453243,"current_range_meters":18800,"station_id":"ce4bh012rcd13ifvqcv0","pricing_plan_id":"free"},{"bike_id":"ee243272-5f44-43d2-bad9-8776ab947ef7","system_id":"levelo_inurba_marseille","lat":43.29529,"lon":5.385581,"is_reserved":false,"is_disabled":false,"rental_uris":{"android":"levelo://app?vid=ee243272-5f44-43d2-bad9-8776ab947ef7","ios":"levelo://app?vid=ee243272-5f44-43d2-bad9-8776ab947ef7"},"vehicle_type_id":"4","last_reported":1682453243,"current_range_meters":29200,"station_id":"ce4bgih2rcd13ifvqba0","pricing_plan_id":"free"},{"bike_id":"841fcf63-a1ab-47c2-9e53-842de9bf1ce1","system_id":"levelo_inurba_marseille","lat":43.29529,"lon":5.385581,"is_reserved":false,"is_disabled":false,"rental_uris":{"android":"levelo://app?vid=841fcf63-a1ab-47c2-9e53-842de9bf1ce1","ios":"levelo://app?vid=841fcf63-a1ab-47c2-9e53-842de9bf1ce1"},"vehicle_type_id":"4","last_reported":1682453243,"current_range_meters":25200,"station_id":"ce4bgih2rcd13ifvqba0","pricing_plan_id":"free"},{"bike_id":"d40b5def-5808-4d7a-8b53-82f768346f75","system_id":"levelo_inurba_marseille","lat":43.29529,"lon":5.385581,"is_reserved":false,"is_disabled":false,"rental_uris":{"android":"levelo://app?vid=d40b5def-5808-4d7a-8b53-82f768346f75","ios":"levelo://app?vid=d40b5def-5808-4d7a-8b53-82f768346f75"},"vehicle_type_id":"4","last_reported":1682453243,"current_range_meters":1600,"station_id":"ce4bgih2rcd13ifvqba0","pricing_plan_id":"free"},{"bike_id":"36c92529-0395-4ca6-b256-b357a80224a1","system_id":"levelo_inurba_marseille","lat":43.29536,"lon":5.38532,"is_reserved":false,"is_disabled":false,"rental_uris":{"android":"levelo://app?vid=36c92529-0395-4ca6-b256-b357a80224a1","ios":"levelo://app?vid=36c92529-0395-4ca6-b256-b357a80224a1"},"vehicle_type_id":"4","last_reported":1682453243,"current_range_meters":1600,"station_id":"ce4bgih2rcd13ifvqba0","pricing_plan_id":"free"},{"bike_id":"e257cc78-c274-4b69-a0d8-f792856604b1","system_id":"levelo_inurba_marseille","lat":43.309038,"lon":5.396546,"is_reserved":false,"is_disabled":false,"rental_uris":{"android":"levelo://app?vid=e257cc78-c274-4b69-a0d8-f792856604b1","ios":"levelo://app?vid=e257cc78-c274-4b69-a0d8-f792856604b1"},"vehicle_type_id":"4","last_reported":1682453243,"current_range_meters":8400,"station_id":"ce4bh012rcd13ifvqcv0","pricing_plan_id":"free"},{"bike_id":"51b51ac5-6cea-4778-9048-6fb0fa7e3aff","system_id":"levelo_inurba_marseille","lat":43.29529,"lon":5.385581,"is_reserved":false,"is_disabled":false,"rental_uris":{"android":"levelo://app?vid=51b51ac5-6cea-4778-9048-6fb0fa7e3aff","ios":"levelo://app?vid=51b51ac5-6cea-4778-9048-6fb0fa7e3aff"},"vehicle_type_id":"4","last_reported":1682453243,"current_range_meters":23600,"station_id":"ce4bgih2rcd13ifvqba0","pricing_plan_id":"free"},{"bike_id":"f0b66838-b233-4764-9524-7b9aeff3d3c6","system_id":"levelo_inurba_marseille","lat":43.29529,"lon":5.385581,"is_reserved":false,"is_disabled":false,"rental_uris":{"android":"levelo://app?vid=f0b66838-b233-4764-9524-7b9aeff3d3c6","ios":"levelo://app?vid=f0b66838-b233-4764-9524-7b9aeff3d3c6"},"vehicle_type_id":"4","last_reported":1682453243,"current_range_meters":6800,"station_id":"ce4bgih2rcd13ifvqba0","pricing_plan_id":"free"},{"bike_id":"78254b0a-193f-4836-b117-47c50937bc29","system_id":"levelo_inurba_marseille","lat":43.29529,"lon":5.385581,"is_reserved":false,"is_disabled":false,"rental_uris":{"android":"levelo://app?vid=78254b0a-193f-4836-b117-47c50937bc29","ios":"levelo://app?vid=78254b0a-193f-4836-b117-47c50937bc29"},"vehicle_type_id":"4","last_reported":1682453243,"current_range_meters":23600,"station_id":"ce4bgih2rcd13ifvqba0","pricing_plan_id":"free"},{"bike_id":"d83d6285-6144-4d0c-8e32-2928ac09f405","system_id":"levelo_inurba_marseille","lat":43.29529,"lon":5.385581,"is_reserved":false,"is_disabled":false,"rental_uris":{"android":"levelo://app?vid=d83d6285-6144-4d0c-8e32-2928ac09f405","ios":"levelo://app?vid=d83d6285-6144-4d0c-8e32-2928ac09f405"},"vehicle_type_id":"4","last_reported":1682453243,"current_range_meters":29600,"station_id":"ce4bgih2rcd13ifvqba0","pricing_plan_id":"free"},{"bike_id":"ae3d9cc6-4cf4-46a1-b9bf-dcffd8e1f595","system_id":"levelo_inurba_marseille","lat":43.29529,"lon":5.385581,"is_reserved":false,"is_disabled":false,"rental_uris":{"android":"levelo://app?vid=ae3d9cc6-4cf4-46a1-b9bf-dcffd8e1f595","ios":"levelo://app?vid=ae3d9cc6-4cf4-46a1-b9bf-dcffd8e1f595"},"vehicle_type_id":"4","last_reported":1682453243,"current_range_meters":2800,"station_id":"ce4bgih2rcd13ifvqba0","pricing_plan_id":"free"},{"bike_id":"50e39241-a3e9-4331-a870-4535063d5001","system_id":"levelo_inurba_marseille","lat":43.29529,"lon":5.385581,"is_reserved":false,"is_disabled":false,"rental_uris":{"android":"levelo://app?vid=50e39241-a3e9-4331-a870-4535063d5001","ios":"levelo://app?vid=50e39241-a3e9-4331-a870-4535063d5001"},"vehicle_type_id":"4","last_reported":1682453243,"current_range_meters":16400,"station_id":"ce4bgih2rcd13ifvqba0","pricing_plan_id":"free"},{"bike_id":"7a39a90d-6706-42fd-b46e-d96f4014d96d","system_id":"levelo_inurba_marseille","lat":43.29529,"lon":5.385581,"is_reserved":false,"is_disabled":false,"rental_uris":{"android":"levelo://app?vid=7a39a90d-6706-42fd-b46e-d96f4014d96d","ios":"levelo://app?vid=7a39a90d-6706-42fd-b46e-d96f4014d96d"},"vehicle_type_id":"4","last_reported":1682453243,"current_range_meters":5200,"station_id":"ce4bgih2rcd13ifvqba0","pricing_plan_id":"free"},{"bike_id":"9e34ce79-60ce-49de-8111-f505e2a519cf","system_id":"levelo_inurba_marseille","lat":43.29529,"lon":5.385581,"is_reserved":false,"is_disabled":false,"rental_uris":{"android":"levelo://app?vid=9e34ce79-60ce-49de-8111-f505e2a519cf","ios":"levelo://app?vid=9e34ce79-60ce-49de-8111-f505e2a519cf"},"vehicle_type_id":"4","last_reported":1682453243,"current_range_meters":7200,"station_id":"ce4bgih2rcd13ifvqba0","pricing_plan_id":"free"},{"bike_id":"600324d4-67b1-4d70-92bd-d15b2011f834","system_id":"levelo_inurba_marseille","lat":43.29529,"lon":5.385581,"is_reserved":false,"is_disabled":false,"rental_uris":{"android":"levelo://app?vid=600324d4-67b1-4d70-92bd-d15b2011f834","ios":"levelo://app?vid=600324d4-67b1-4d70-92bd-d15b2011f834"},"vehicle_type_id":"4","last_reported":1682453243,"current_range_meters":22000,"station_id":"ce4bgih2rcd13ifvqba0","pricing_plan_id":"free"},{"bike_id":"a6084a11-e676-492c-9fe4-7f4397b76854","system_id":"levelo_inurba_marseille","lat":43.31565,"lon":5.39721,"is_reserved":false,"is_disabled":false,"rental_uris":{"android":"levelo://app?vid=a6084a11-e676-492c-9fe4-7f4397b76854","ios":"levelo://app?vid=a6084a11-e676-492c-9fe4-7f4397b76854"},"vehicle_type_id":"4","last_reported":1682453243,"current_range_meters":19600,"station_id":"","pricing_plan_id":"free"},{"bike_id":"ca2b0e8f-c480-462e-8267-34f3841c0c8d","system_id":"levelo_inurba_marseille","lat":43.290779,"lon":5.371482,"is_reserved":false,"is_disabled":false,"rental_uris":{"android":"levelo://app?vid=ca2b0e8f-c480-462e-8267-34f3841c0c8d","ios":"levelo://app?vid=ca2b0e8f-c480-462e-8267-34f3841c0c8d"},"vehicle_type_id":"4","last_reported":1682453243,"current_range_meters":16800,"station_id":"ce4bh5p2rcd13ifvqe4g","pricing_plan_id":"free"},{"bike_id":"4583ce14-86db-472b-99ac-472b3c290a17","system_id":"levelo_inurba_marseille","lat":43.302008,"lon":5.394694,"is_reserved":false,"is_disabled":false,"rental_uris":{"android":"levelo://app?vid=4583ce14-86db-472b-99ac-472b3c290a17","ios":"levelo://app?vid=4583ce14-86db-472b-99ac-472b3c290a17"},"vehicle_type_id":"4","last_reported":1682453243,"current_range_meters":14000,"station_id":"ce4bh0p2rcd13ifvqd70","pricing_plan_id":"free"},{"bike_id":"ec6ca81f-843c-41a4-95c7-e35ea0697d84","system_id":"levelo_inurba_marseille","lat":43.302008,"lon":5.394694,"is_reserved":false,"is_disabled":false,"rental_uris":{"android":"levelo://app?vid=ec6ca81f-843c-41a4-95c7-e35ea0697d84","ios":"levelo://app?vid=ec6ca81f-843c-41a4-95c7-e35ea0697d84"},"vehicle_type_id":"4","last_reported":1682453243,"current_range_meters":21600,"station_id":"ce4bh0p2rcd13ifvqd70","pricing_plan_id":"free"},{"bike_id":"d7c39620-b26b-443e-b834-1d4e0b86777f","system_id":"levelo_inurba_marseille","lat":43.3021,"lon":5.39463,"is_reserved":false,"is_disabled":false,"rental_uris":{"android":"levelo://app?vid=d7c39620-b26b-443e-b834-1d4e0b86777f","ios":"levelo://app?vid=d7c39620-b26b-443e-b834-1d4e0b86777f"},"vehicle_type_id":"4","last_reported":1682453243,"current_range_meters":400,"station_id":"ce4bh0p2rcd13ifvqd70","pricing_plan_id":"free"},{"bike_id":"df3038ed-cd32-4e63-aeb5-a0f1fb8fe86c","system_id":"levelo_inurba_marseille","lat":43.290624,"lon":5.359245,"is_reserved":false,"is_disabled":false,"rental_uris":{"android":"levelo://app?vid=df3038ed-cd32-4e63-aeb5-a0f1fb8fe86c","ios":"levelo://app?vid=df3038ed-cd32-4e63-aeb5-a0f1fb8fe86c"},"vehicle_type_id":"4","last_reported":1682453243,"current_range_meters":24800,"station_id":"ce4bha92rcd13ifvqeg0","pricing_plan_id":"free"},{"bike_id":"48940562-09ad-41d9-8e0b-3da7c8a2cd91","system_id":"levelo_inurba_marseille","lat":43.290624,"lon":5.359245,"is_reserved":false,"is_disabled":false,"rental_uris":{"android":"levelo://app?vid=48940562-09ad-41d9-8e0b-3da7c8a2cd91","ios":"levelo://app?vid=48940562-09ad-41d9-8e0b-3da7c8a2cd91"},"vehicle_type_id":"4","last_reported":1682453243,"current_range_meters":26800,"station_id":"ce4bha92rcd13ifvqeg0","pricing_plan_id":"free"},{"bike_id":"9cb93c83-3386-46db-930f-767c171ca241","system_id":"levelo_inurba_marseille","lat":43.290624,"lon":5.359245,"is_reserved":false,"is_disabled":false,"rental_uris":{"android":"levelo://app?vid=9cb93c83-3386-46db-930f-767c171ca241","ios":"levelo://app?vid=9cb93c83-3386-46db-930f-767c171ca241"},"vehicle_type_id":"4","last_reported":1682453243,"current_range_meters":11200,"station_id":"ce4bha92rcd13ifvqeg0","pricing_plan_id":"free"},{"bike_id":"cea47af3-be1b-41e3-8b90-81b846156a7e","system_id":"levelo_inurba_marseille","lat":43.29034,"lon":5.35918,"is_reserved":false,"is_disabled":false,"rental_uris":{"android":"levelo://app?vid=cea47af3-be1b-41e3-8b90-81b846156a7e","ios":"levelo://app?vid=cea47af3-be1b-41e3-8b90-81b846156a7e"},"vehicle_type_id":"4","last_reported":1682453243,"current_range_meters":20400,"station_id":"","pricing_plan_id":"free"},{"bike_id":"898d6ec0-ab25-46da-97c1-a386388c5d56","system_id":"levelo_inurba_marseille","lat":43.289184,"lon":5.366408,"is_reserved":false,"is_disabled":false,"rental_uris":{"android":"levelo://app?vid=898d6ec0-ab25-46da-97c1-a386388c5d56","ios":"levelo://app?vid=898d6ec0-ab25-46da-97c1-a386388c5d56"},"vehicle_type_id":"4","last_reported":1682453243,"current_range_meters":19200,"station_id":"ce4bhap2rcd13ifvqek0","pricing_plan_id":"free"},{"bike_id":"c15b41bc-e331-4add-952d-bb64e086b95c","system_id":"levelo_inurba_marseille","lat":43.290327,"lon":5.375711,"is_reserved":false,"is_disabled":false,"rental_uris":{"android":"levelo://app?vid=c15b41bc-e331-4add-952d-bb64e086b95c","ios":"levelo://app?vid=c15b41bc-e331-4add-952d-bb64e086b95c"},"vehicle_type_id":"4","last_reported":1682453243,"current_range_meters":23200,"station_id":"ce4bh692rcd13ifvqe90","pricing_plan_id":"free"},{"bike_id":"5c4d1ca1-a87b-4118-bf17-09242976e694","system_id":"levelo_inurba_marseille","lat":43.2942,"lon":5.38618,"is_reserved":false,"is_disabled":false,"rental_uris":{"android":"levelo://app?vid=5c4d1ca1-a87b-4118-bf17-09242976e694","ios":"levelo://app?vid=5c4d1ca1-a87b-4118-bf17-09242976e694"},"vehicle_type_id":"4","last_reported":1682453243,"current_range_meters":21200,"station_id":"ce4bh2h2rcd13ifvqdh0","pricing_plan_id":"free"},{"bike_id":"61e57b24-8d12-43e9-b571-93ea1852b7b1","system_id":"levelo_inurba_marseille","lat":43.294153,"lon":5.386305,"is_reserved":false,"is_disabled":false,"rental_uris":{"android":"levelo://app?vid=61e57b24-8d12-43e9-b571-93ea1852b7b1","ios":"levelo://app?vid=61e57b24-8d12-43e9-b571-93ea1852b7b1"},"vehicle_type_id":"4","last_reported":1682453243,"current_range_meters":28800,"station_id":"ce4bh2h2rcd13ifvqdh0","pricing_plan_id":"free"},{"bike_id":"aa27a214-c949-4ae3-9620-4767abe1b3d7","system_id":"levelo_inurba_marseille","lat":43.29419,"lon":5.38618,"is_reserved":false,"is_disabled":false,"rental_uris":{"android":"levelo://app?vid=aa27a214-c949-4ae3-9620-4767abe1b3d7","ios":"levelo://app?vid=aa27a214-c949-4ae3-9620-4767abe1b3d7"},"vehicle_type_id":"4","last_reported":1682453243,"current_range_meters":22800,"station_id":"ce4bh2h2rcd13ifvqdh0","pricing_plan_id":"free"},{"bike_id":"e10e1f14-ac2d-49fd-8f8b-d4e28ac497c3","system_id":"levelo_inurba_marseille","lat":43.2942,"lon":5.38621,"is_reserved":false,"is_disabled":false,"rental_uris":{"android":"levelo://app?vid=e10e1f14-ac2d-49fd-8f8b-d4e28ac497c3","ios":"levelo://app?vid=e10e1f14-ac2d-49fd-8f8b-d4e28ac497c3"},"vehicle_type_id":"4","last_reported":1682453243,"current_range_meters":27200,"station_id":"ce4bh2h2rcd13ifvqdh0","pricing_plan_id":"free"},{"bike_id":"9f631f30-8119-427d-b6e4-32c259e39e44","system_id":"levelo_inurba_marseille","lat":43.29418,"lon":5.38618,"is_reserved":false,"is_disabled":false,"rental_uris":{"android":"levelo://app?vid=9f631f30-8119-427d-b6e4-32c259e39e44","ios":"levelo://app?vid=9f631f30-8119-427d-b6e4-32c259e39e44"},"vehicle_type_id":"4","last_reported":1682453243,"current_range_meters":13600,"station_id":"ce4bh2h2rcd13ifvqdh0","pricing_plan_id":"free"},{"bike_id":"296b1d68-eaa6-4d80-a308-54e911c6c17c","system_id":"levelo_inurba_marseille","lat":43.29418,"lon":5.38621,"is_reserved":false,"is_disabled":false,"rental_uris":{"android":"levelo://app?vid=296b1d68-eaa6-4d80-a308-54e911c6c17c","ios":"levelo://app?vid=296b1d68-eaa6-4d80-a308-54e911c6c17c"},"vehicle_type_id":"4","last_reported":1682453243,"current_range_meters":29600,"station_id":"ce4bh2h2rcd13ifvqdh0","pricing_plan_id":"free"},{"bike_id":"3b813227-bbbf-4a0e-8f6c-377308d5694f","system_id":"levelo_inurba_marseille","lat":43.29415,"lon":5.38618,"is_reserved":false,"is_disabled":false,"rental_uris":{"android":"levelo://app?vid=3b813227-bbbf-4a0e-8f6c-377308d5694f","ios":"levelo://app?vid=3b813227-bbbf-4a0e-8f6c-377308d5694f"},"vehicle_type_id":"4","last_reported":1682453243,"current_range_meters":25600,"station_id":"ce4bh2h2rcd13ifvqdh0","pricing_plan_id":"free"},{"bike_id":"1b0d50fb-6a5b-4f11-8573-d90d9e1abf8c","system_id":"levelo_inurba_marseille","lat":43.294161,"lon":5.3862,"is_reserved":false,"is_disabled":false,"rental_uris":{"android":"levelo://app?vid=1b0d50fb-6a5b-4f11-8573-d90d9e1abf8c","ios":"levelo://app?vid=1b0d50fb-6a5b-4f11-8573-d90d9e1abf8c"},"vehicle_type_id":"4","last_reported":1682453243,"current_range_meters":13200,"station_id":"ce4bh2h2rcd13ifvqdh0","pricing_plan_id":"free"},{"bike_id":"1ef07c69-4e64-4330-9420-285bf746d2cb","system_id":"levelo_inurba_marseille","lat":43.29416,"lon":5.38621,"is_reserved":false,"is_disabled":false,"rental_uris":{"android":"levelo://app?vid=1ef07c69-4e64-4330-9420-285bf746d2cb","ios":"levelo://app?vid=1ef07c69-4e64-4330-9420-285bf746d2cb"},"vehicle_type_id":"4","last_reported":1682453243,"current_range_meters":16000,"station_id":"ce4bh2h2rcd13ifvqdh0","pricing_plan_id":"free"},{"bike_id":"ee5e16ef-22eb-4460-9f06-ae0ab9b07488","system_id":"levelo_inurba_marseille","lat":43.294153,"lon":5.386305,"is_reserved":false,"is_disabled":false,"rental_uris":{"android":"levelo://app?vid=ee5e16ef-22eb-4460-9f06-ae0ab9b07488","ios":"levelo://app?vid=ee5e16ef-22eb-4460-9f06-ae0ab9b07488"},"vehicle_type_id":"4","last_reported":1682453243,"current_range_meters":28400,"station_id":"ce4bh2h2rcd13ifvqdh0","pricing_plan_id":"free"},{"bike_id":"6a984957-6d86-4403-b1d6-5d0aa0ccd093","system_id":"levelo_inurba_marseille","lat":43.289184,"lon":5.366408,"is_reserved":false,"is_disabled":false,"rental_uris":{"android":"levelo://app?vid=6a984957-6d86-4403-b1d6-5d0aa0ccd093","ios":"levelo://app?vid=6a984957-6d86-4403-b1d6-5d0aa0ccd093"},"vehicle_type_id":"4","last_reported":1682453243,"current_range_meters":24400,"station_id":"ce4bhap2rcd13ifvqek0","pricing_plan_id":"free"},{"bike_id":"0a64d8e9-f2bc-4990-8175-600b53671877","system_id":"levelo_inurba_marseille","lat":43.289184,"lon":5.366408,"is_reserved":false,"is_disabled":false,"rental_uris":{"android":"levelo://app?vid=0a64d8e9-f2bc-4990-8175-600b53671877","ios":"levelo://app?vid=0a64d8e9-f2bc-4990-8175-600b53671877"},"vehicle_type_id":"4","last_reported":1682453243,"current_range_meters":11200,"station_id":"ce4bhap2rcd13ifvqek0","pricing_plan_id":"free"},{"bike_id":"bb7d3a0e-49e0-46b1-aef0-fba821638e2f","system_id":"levelo_inurba_marseille","lat":43.29419,"lon":5.38629,"is_reserved":false,"is_disabled":false,"rental_uris":{"android":"levelo://app?vid=bb7d3a0e-49e0-46b1-aef0-fba821638e2f","ios":"levelo://app?vid=bb7d3a0e-49e0-46b1-aef0-fba821638e2f"},"vehicle_type_id":"4","last_reported":1682453243,"current_range_meters":14000,"station_id":"ce4bh2h2rcd13ifvqdh0","pricing_plan_id":"free"},{"bike_id":"349aedff-0fac-4124-a8a8-24a9bd1bce88","system_id":"levelo_inurba_marseille","lat":43.29419,"lon":5.38629,"is_reserved":false,"is_disabled":false,"rental_uris":{"android":"levelo://app?vid=349aedff-0fac-4124-a8a8-24a9bd1bce88","ios":"levelo://app?vid=349aedff-0fac-4124-a8a8-24a9bd1bce88"},"vehicle_type_id":"4","last_reported":1682453243,"current_range_meters":31200,"station_id":"ce4bh2h2rcd13ifvqdh0","pricing_plan_id":"free"},{"bike_id":"e4de9e20-85f4-4071-95c5-03260d2d9401","system_id":"levelo_inurba_marseille","lat":43.294162,"lon":5.386292,"is_reserved":false,"is_disabled":false,"rental_uris":{"android":"levelo://app?vid=e4de9e20-85f4-4071-95c5-03260d2d9401","ios":"levelo://app?vid=e4de9e20-85f4-4071-95c5-03260d2d9401"},"vehicle_type_id":"4","last_reported":1682453243,"current_range_meters":29600,"station_id":"ce4bh2h2rcd13ifvqdh0","pricing_plan_id":"free"},{"bike_id":"09e8cc11-c560-445a-b617-f687185ffa35","system_id":"levelo_inurba_marseille","lat":43.289184,"lon":5.366408,"is_reserved":false,"is_disabled":false,"rental_uris":{"android":"levelo://app?vid=09e8cc11-c560-445a-b617-f687185ffa35","ios":"levelo://app?vid=09e8cc11-c560-445a-b617-f687185ffa35"},"vehicle_type_id":"4","last_reported":1682453243,"current_range_meters":28800,"station_id":"ce4bhap2rcd13ifvqek0","pricing_plan_id":"free"},{"bike_id":"be7dfd9a-5fe2-46a7-8be7-35e11fb620ae","system_id":"levelo_inurba_marseille","lat":43.289184,"lon":5.366408,"is_reserved":false,"is_disabled":false,"rental_uris":{"android":"levelo://app?vid=be7dfd9a-5fe2-46a7-8be7-35e11fb620ae","ios":"levelo://app?vid=be7dfd9a-5fe2-46a7-8be7-35e11fb620ae"},"vehicle_type_id":"4","last_reported":1682453243,"current_range_meters":27200,"station_id":"ce4bhap2rcd13ifvqek0","pricing_plan_id":"free"},{"bike_id":"a18929f9-2f58-4e76-8097-fc2b7629f148","system_id":"levelo_inurba_marseille","lat":43.289184,"lon":5.366408,"is_reserved":false,"is_disabled":false,"rental_uris":{"android":"levelo://app?vid=a18929f9-2f58-4e76-8097-fc2b7629f148","ios":"levelo://app?vid=a18929f9-2f58-4e76-8097-fc2b7629f148"},"vehicle_type_id":"4","last_reported":1682453243,"current_range_meters":4800,"station_id":"ce4bhap2rcd13ifvqek0","pricing_plan_id":"free"},{"bike_id":"9a65cf43-4ae9-4170-8f69-8aaef30e7c31","system_id":"levelo_inurba_marseille","lat":43.29414,"lon":5.38622,"is_reserved":false,"is_disabled":false,"rental_uris":{"android":"levelo://app?vid=9a65cf43-4ae9-4170-8f69-8aaef30e7c31","ios":"levelo://app?vid=9a65cf43-4ae9-4170-8f69-8aaef30e7c31"},"vehicle_type_id":"4","last_reported":1682453243,"current_range_meters":17200,"station_id":"ce4bh2h2rcd13ifvqdh0","pricing_plan_id":"free"},{"bike_id":"ccbf2c92-7eb5-4c2a-bec0-3cf2e73e7048","system_id":"levelo_inurba_marseille","lat":43.294162,"lon":5.386292,"is_reserved":false,"is_disabled":false,"rental_uris":{"android":"levelo://app?vid=ccbf2c92-7eb5-4c2a-bec0-3cf2e73e7048","ios":"levelo://app?vid=ccbf2c92-7eb5-4c2a-bec0-3cf2e73e7048"},"vehicle_type_id":"4","last_reported":1682453243,"current_range_meters":6000,"station_id":"ce4bh2h2rcd13ifvqdh0","pricing_plan_id":"free"},{"bike_id":"4b073b0b-d917-4c00-8ad7-4d99599a4702","system_id":"levelo_inurba_marseille","lat":43.29417,"lon":5.3863,"is_reserved":false,"is_disabled":false,"rental_uris":{"android":"levelo://app?vid=4b073b0b-d917-4c00-8ad7-4d99599a4702","ios":"levelo://app?vid=4b073b0b-d917-4c00-8ad7-4d99599a4702"},"vehicle_type_id":"4","last_reported":1682453243,"current_range_meters":31200,"station_id":"ce4bh2h2rcd13ifvqdh0","pricing_plan_id":"free"},{"bike_id":"635374f6-79bd-4311-82dd-4c83559de914","system_id":"levelo_inurba_marseille","lat":43.29414,"lon":5.38626,"is_reserved":false,"is_disabled":false,"rental_uris":{"android":"levelo://app?vid=635374f6-79bd-4311-82dd-4c83559de914","ios":"levelo://app?vid=635374f6-79bd-4311-82dd-4c83559de914"},"vehicle_type_id":"4","last_reported":1682453243,"current_range_meters":4000,"station_id":"ce4bh2h2rcd13ifvqdh0","pricing_plan_id":"free"},{"bike_id":"289cc3ef-11bc-43c4-87ea-f9bdb3345620","system_id":"levelo_inurba_marseille","lat":43.290319,"lon":5.375732,"is_reserved":false,"is_disabled":false,"rental_uris":{"android":"levelo://app?vid=289cc3ef-11bc-43c4-87ea-f9bdb3345620","ios":"levelo://app?vid=289cc3ef-11bc-43c4-87ea-f9bdb3345620"},"vehicle_type_id":"4","last_reported":1682453243,"current_range_meters":2400,"station_id":"ce4bh692rcd13ifvqe90","pricing_plan_id":"free"},{"bike_id":"2b46042d-e25b-40c0-b5b4-79b786f79941","system_id":"levelo_inurba_marseille","lat":43.289184,"lon":5.366408,"is_reserved":false,"is_disabled":false,"rental_uris":{"android":"levelo://app?vid=2b46042d-e25b-40c0-b5b4-79b786f79941","ios":"levelo://app?vid=2b46042d-e25b-40c0-b5b4-79b786f79941"},"vehicle_type_id":"4","last_reported":1682453243,"current_range_meters":29200,"station_id":"ce4bhap2rcd13ifvqek0","pricing_plan_id":"free"},{"bike_id":"594d8d66-8ba9-4119-b62e-12fefa4e51bd","system_id":"levelo_inurba_marseille","lat":43.289468,"lon":5.363719,"is_reserved":false,"is_disabled":false,"rental_uris":{"android":"levelo://app?vid=594d8d66-8ba9-4119-b62e-12fefa4e51bd","ios":"levelo://app?vid=594d8d66-8ba9-4119-b62e-12fefa4e51bd"},"vehicle_type_id":"4","last_reported":1682453243,"current_range_meters":7200,"station_id":"ce4bhc92rcd13ifvqetg","pricing_plan_id":"free"},{"bike_id":"0bf51401-408f-49a0-a780-ed3d1e9ce62f","system_id":"levelo_inurba_marseille","lat":43.289184,"lon":5.366408,"is_reserved":false,"is_disabled":false,"rental_uris":{"android":"levelo://app?vid=0bf51401-408f-49a0-a780-ed3d1e9ce62f","ios":"levelo://app?vid=0bf51401-408f-49a0-a780-ed3d1e9ce62f"},"vehicle_type_id":"4","last_reported":1682453243,"current_range_meters":1600,"station_id":"ce4bhap2rcd13ifvqek0","pricing_plan_id":"free"},{"bike_id":"c16e6cda-d183-4d13-94e4-de62d604df95","system_id":"levelo_inurba_marseille","lat":43.289184,"lon":5.366408,"is_reserved":false,"is_disabled":false,"rental_uris":{"android":"levelo://app?vid=c16e6cda-d183-4d13-94e4-de62d604df95","ios":"levelo://app?vid=c16e6cda-d183-4d13-94e4-de62d604df95"},"vehicle_type_id":"4","last_reported":1682453243,"current_range_meters":28400,"station_id":"ce4bhap2rcd13ifvqek0","pricing_plan_id":"free"},{"bike_id":"72fe7efc-2309-4d5b-bc98-3b7404f2aede","system_id":"levelo_inurba_marseille","lat":43.2894,"lon":5.36628,"is_reserved":false,"is_disabled":false,"rental_uris":{"android":"levelo://app?vid=72fe7efc-2309-4d5b-bc98-3b7404f2aede","ios":"levelo://app?vid=72fe7efc-2309-4d5b-bc98-3b7404f2aede"},"vehicle_type_id":"4","last_reported":1682453243,"current_range_meters":2000,"station_id":"ce4bhap2rcd13ifvqek0","pricing_plan_id":"free"},{"bike_id":"822ffafb-dff4-4d47-a978-ece401f3e7f8","system_id":"levelo_inurba_marseille","lat":43.2941,"lon":5.38624,"is_reserved":false,"is_disabled":false,"rental_uris":{"android":"levelo://app?vid=822ffafb-dff4-4d47-a978-ece401f3e7f8","ios":"levelo://app?vid=822ffafb-dff4-4d47-a978-ece401f3e7f8"},"vehicle_type_id":"4","last_reported":1682453243,"current_range_meters":29200,"station_id":"ce4bh2h2rcd13ifvqdh0","pricing_plan_id":"free"},{"bike_id":"e8802ab0-11e0-4f45-9fa1-f35250396f8e","system_id":"levelo_inurba_marseille","lat":43.29413,"lon":5.3863,"is_reserved":false,"is_disabled":false,"rental_uris":{"android":"levelo://app?vid=e8802ab0-11e0-4f45-9fa1-f35250396f8e","ios":"levelo://app?vid=e8802ab0-11e0-4f45-9fa1-f35250396f8e"},"vehicle_type_id":"4","last_reported":1682453243,"current_range_meters":22000,"station_id":"ce4bh2h2rcd13ifvqdh0","pricing_plan_id":"free"},{"bike_id":"53872df7-488e-4456-86ea-d5ca084ce47c","system_id":"levelo_inurba_marseille","lat":43.289468,"lon":5.363719,"is_reserved":false,"is_disabled":false,"rental_uris":{"android":"levelo://app?vid=53872df7-488e-4456-86ea-d5ca084ce47c","ios":"levelo://app?vid=53872df7-488e-4456-86ea-d5ca084ce47c"},"vehicle_type_id":"4","last_reported":1682453243,"current_range_meters":14800,"station_id":"ce4bhc92rcd13ifvqetg","pricing_plan_id":"free"},{"bike_id":"af65616f-74f4-4b74-9e73-861d9d09b8f3","system_id":"levelo_inurba_marseille","lat":43.289184,"lon":5.366408,"is_reserved":false,"is_disabled":false,"rental_uris":{"android":"levelo://app?vid=af65616f-74f4-4b74-9e73-861d9d09b8f3","ios":"levelo://app?vid=af65616f-74f4-4b74-9e73-861d9d09b8f3"},"vehicle_type_id":"4","last_reported":1682453243,"current_range_meters":11200,"station_id":"ce4bhap2rcd13ifvqek0","pricing_plan_id":"free"},{"bike_id":"0aa18e00-a56e-4bbb-89ff-1ba46ec94d3e","system_id":"levelo_inurba_marseille","lat":43.289184,"lon":5.366408,"is_reserved":false,"is_disabled":false,"rental_uris":{"android":"levelo://app?vid=0aa18e00-a56e-4bbb-89ff-1ba46ec94d3e","ios":"levelo://app?vid=0aa18e00-a56e-4bbb-89ff-1ba46ec94d3e"},"vehicle_type_id":"4","last_reported":1682453243,"current_range_meters":15600,"station_id":"ce4bhap2rcd13ifvqek0","pricing_plan_id":"free"},{"bike_id":"cf02947e-72e6-4d9b-94b3-7a2e9ffaafd9","system_id":"levelo_inurba_marseille","lat":43.289184,"lon":5.366408,"is_reserved":false,"is_disabled":false,"rental_uris":{"android":"levelo://app?vid=cf02947e-72e6-4d9b-94b3-7a2e9ffaafd9","ios":"levelo://app?vid=cf02947e-72e6-4d9b-94b3-7a2e9ffaafd9"},"vehicle_type_id":"4","last_reported":1682453243,"current_range_meters":22800,"station_id":"ce4bhap2rcd13ifvqek0","pricing_plan_id":"free"},{"bike_id":"bebcf26f-47eb-4668-a58b-22884ce50838","system_id":"levelo_inurba_marseille","lat":43.289184,"lon":5.366408,"is_reserved":false,"is_disabled":false,"rental_uris":{"android":"levelo://app?vid=bebcf26f-47eb-4668-a58b-22884ce50838","ios":"levelo://app?vid=bebcf26f-47eb-4668-a58b-22884ce50838"},"vehicle_type_id":"4","last_reported":1682453243,"current_range_meters":31600,"station_id":"ce4bhap2rcd13ifvqek0","pricing_plan_id":"free"},{"bike_id":"dd69ac79-b45c-4472-9e99-ef29c27f4106","system_id":"levelo_inurba_marseille","lat":43.28945,"lon":5.36387,"is_reserved":false,"is_disabled":false,"rental_uris":{"android":"levelo://app?vid=dd69ac79-b45c-4472-9e99-ef29c27f4106","ios":"levelo://app?vid=dd69ac79-b45c-4472-9e99-ef29c27f4106"},"vehicle_type_id":"4","last_reported":1682453243,"current_range_meters":31200,"station_id":"ce4bhc92rcd13ifvqetg","pricing_plan_id":"free"},{"bike_id":"cca3b428-fa06-4cd9-a83b-fa1296cf9be2","system_id":"levelo_inurba_marseille","lat":43.289468,"lon":5.363719,"is_reserved":false,"is_disabled":false,"rental_uris":{"android":"levelo://app?vid=cca3b428-fa06-4cd9-a83b-fa1296cf9be2","ios":"levelo://app?vid=cca3b428-fa06-4cd9-a83b-fa1296cf9be2"},"vehicle_type_id":"4","last_reported":1682453243,"current_range_meters":30000,"station_id":"ce4bhc92rcd13ifvqetg","pricing_plan_id":"free"},{"bike_id":"61be44fe-c7ae-4d24-9e3a-ea4cb7af7126","system_id":"levelo_inurba_marseille","lat":43.28941,"lon":5.36371,"is_reserved":false,"is_disabled":false,"rental_uris":{"android":"levelo://app?vid=61be44fe-c7ae-4d24-9e3a-ea4cb7af7126","ios":"levelo://app?vid=61be44fe-c7ae-4d24-9e3a-ea4cb7af7126"},"vehicle_type_id":"4","last_reported":1682453243,"current_range_meters":30800,"station_id":"ce4bhc92rcd13ifvqetg","pricing_plan_id":"free"},{"bike_id":"a4cb4741-50cf-46b1-8473-d73062689588","system_id":"levelo_inurba_marseille","lat":43.289468,"lon":5.363719,"is_reserved":false,"is_disabled":false,"rental_uris":{"android":"levelo://app?vid=a4cb4741-50cf-46b1-8473-d73062689588","ios":"levelo://app?vid=a4cb4741-50cf-46b1-8473-d73062689588"},"vehicle_type_id":"4","last_reported":1682453243,"current_range_meters":14000,"station_id":"ce4bhc92rcd13ifvqetg","pricing_plan_id":"free"},{"bike_id":"2b601d14-551b-44c2-b092-825b59f00000","system_id":"levelo_inurba_marseille","lat":43.28939,"lon":5.36377,"is_reserved":false,"is_disabled":false,"rental_uris":{"android":"levelo://app?vid=2b601d14-551b-44c2-b092-825b59f00000","ios":"levelo://app?vid=2b601d14-551b-44c2-b092-825b59f00000"},"vehicle_type_id":"4","last_reported":1682453243,"current_range_meters":12400,"station_id":"ce4bhc92rcd13ifvqetg","pricing_plan_id":"free"},{"bike_id":"4d2c66e7-6909-4692-87bf-b6a9d5a2643c","system_id":"levelo_inurba_marseille","lat":43.28931,"lon":5.36371,"is_reserved":false,"is_disabled":false,"rental_uris":{"android":"levelo://app?vid=4d2c66e7-6909-4692-87bf-b6a9d5a2643c","ios":"levelo://app?vid=4d2c66e7-6909-4692-87bf-b6a9d5a2643c"},"vehicle_type_id":"4","last_reported":1682453243,"current_range_meters":14000,"station_id":"ce4bhc92rcd13ifvqetg","pricing_plan_id":"free"},{"bike_id":"5d668bc4-35cd-4b9d-a610-32abcd20ff88","system_id":"levelo_inurba_marseille","lat":43.292644,"lon":5.384257,"is_reserved":false,"is_disabled":false,"rental_uris":{"android":"levelo://app?vid=5d668bc4-35cd-4b9d-a610-32abcd20ff88","ios":"levelo://app?vid=5d668bc4-35cd-4b9d-a610-32abcd20ff88"},"vehicle_type_id":"4","last_reported":1682453243,"current_range_meters":4800,"station_id":"ce4bh692rcd13ifvqea0","pricing_plan_id":"free"},{"bike_id":"eac0f1be-696d-4cda-8ff7-cc878ff9bd47","system_id":"levelo_inurba_marseille","lat":43.292644,"lon":5.384257,"is_reserved":false,"is_disabled":false,"rental_uris":{"android":"levelo://app?vid=eac0f1be-696d-4cda-8ff7-cc878ff9bd47","ios":"levelo://app?vid=eac0f1be-696d-4cda-8ff7-cc878ff9bd47"},"vehicle_type_id":"4","last_reported":1682453243,"current_range_meters":0,"station_id":"ce4bh692rcd13ifvqea0","pricing_plan_id":"free"},{"bike_id":"3581be6d-094f-45ba-924e-59fef9e29950","system_id":"levelo_inurba_marseille","lat":43.292644,"lon":5.384257,"is_reserved":false,"is_disabled":false,"rental_uris":{"android":"levelo://app?vid=3581be6d-094f-45ba-924e-59fef9e29950","ios":"levelo://app?vid=3581be6d-094f-45ba-924e-59fef9e29950"},"vehicle_type_id":"4","last_reported":1682453243,"current_range_meters":31600,"station_id":"ce4bh692rcd13ifvqea0","pricing_plan_id":"free"},{"bike_id":"aaec4ce6-173c-4182-a3b0-ade212632f21","system_id":"levelo_inurba_marseille","lat":43.29282,"lon":5.38461,"is_reserved":false,"is_disabled":false,"rental_uris":{"android":"levelo://app?vid=aaec4ce6-173c-4182-a3b0-ade212632f21","ios":"levelo://app?vid=aaec4ce6-173c-4182-a3b0-ade212632f21"},"vehicle_type_id":"4","last_reported":1682453243,"current_range_meters":29600,"station_id":"ce4bh692rcd13ifvqea0","pricing_plan_id":"free"},{"bike_id":"4371567c-11b4-4631-ad7c-9f9b6691ddca","system_id":"levelo_inurba_marseille","lat":43.292644,"lon":5.384257,"is_reserved":false,"is_disabled":false,"rental_uris":{"android":"levelo://app?vid=4371567c-11b4-4631-ad7c-9f9b6691ddca","ios":"levelo://app?vid=4371567c-11b4-4631-ad7c-9f9b6691ddca"},"vehicle_type_id":"4","last_reported":1682453243,"current_range_meters":17600,"station_id":"ce4bh692rcd13ifvqea0","pricing_plan_id":"free"},{"bike_id":"e095a1ea-968d-4b79-8a6b-9e052580149f","system_id":"levelo_inurba_marseille","lat":43.292644,"lon":5.384257,"is_reserved":false,"is_disabled":false,"rental_uris":{"android":"levelo://app?vid=e095a1ea-968d-4b79-8a6b-9e052580149f","ios":"levelo://app?vid=e095a1ea-968d-4b79-8a6b-9e052580149f"},"vehicle_type_id":"4","last_reported":1682453243,"current_range_meters":28000,"station_id":"ce4bh692rcd13ifvqea0","pricing_plan_id":"free"},{"bike_id":"fbb64709-1479-4561-a6bf-8b4286328203","system_id":"levelo_inurba_marseille","lat":43.29274,"lon":5.38447,"is_reserved":false,"is_disabled":false,"rental_uris":{"android":"levelo://app?vid=fbb64709-1479-4561-a6bf-8b4286328203","ios":"levelo://app?vid=fbb64709-1479-4561-a6bf-8b4286328203"},"vehicle_type_id":"4","last_reported":1682453243,"current_range_meters":29600,"station_id":"ce4bh692rcd13ifvqea0","pricing_plan_id":"free"},{"bike_id":"4792be19-209d-4e48-bba6-de996c21348c","system_id":"levelo_inurba_marseille","lat":43.29273,"lon":5.38447,"is_reserved":false,"is_disabled":false,"rental_uris":{"android":"levelo://app?vid=4792be19-209d-4e48-bba6-de996c21348c","ios":"levelo://app?vid=4792be19-209d-4e48-bba6-de996c21348c"},"vehicle_type_id":"4","last_reported":1682453243,"current_range_meters":15200,"station_id":"ce4bh692rcd13ifvqea0","pricing_plan_id":"free"},{"bike_id":"d107e6e0-4334-4098-85c3-e876c6acef67","system_id":"levelo_inurba_marseille","lat":43.292644,"lon":5.384257,"is_reserved":false,"is_disabled":false,"rental_uris":{"android":"levelo://app?vid=d107e6e0-4334-4098-85c3-e876c6acef67","ios":"levelo://app?vid=d107e6e0-4334-4098-85c3-e876c6acef67"},"vehicle_type_id":"4","last_reported":1682453243,"current_range_meters":12000,"station_id":"ce4bh692rcd13ifvqea0","pricing_plan_id":"free"},{"bike_id":"d847f46f-4333-4416-a5c0-50762ba787a1","system_id":"levelo_inurba_marseille","lat":43.292644,"lon":5.384257,"is_reserved":false,"is_disabled":false,"rental_uris":{"android":"levelo://app?vid=d847f46f-4333-4416-a5c0-50762ba787a1","ios":"levelo://app?vid=d847f46f-4333-4416-a5c0-50762ba787a1"},"vehicle_type_id":"4","last_reported":1682453243,"current_range_meters":31200,"station_id":"ce4bh692rcd13ifvqea0","pricing_plan_id":"free"},{"bike_id":"38f60c26-d454-4148-af9c-38aedf7826ae","system_id":"levelo_inurba_marseille","lat":43.29268,"lon":5.3844,"is_reserved":false,"is_disabled":false,"rental_uris":{"android":"levelo://app?vid=38f60c26-d454-4148-af9c-38aedf7826ae","ios":"levelo://app?vid=38f60c26-d454-4148-af9c-38aedf7826ae"},"vehicle_type_id":"4","last_reported":1682453243,"current_range_meters":23200,"station_id":"ce4bh692rcd13ifvqea0","pricing_plan_id":"free"},{"bike_id":"97c04ac7-eb46-45c6-b94b-6d11bf56a31e","system_id":"levelo_inurba_marseille","lat":43.292644,"lon":5.384257,"is_reserved":false,"is_disabled":false,"rental_uris":{"android":"levelo://app?vid=97c04ac7-eb46-45c6-b94b-6d11bf56a31e","ios":"levelo://app?vid=97c04ac7-eb46-45c6-b94b-6d11bf56a31e"},"vehicle_type_id":"4","last_reported":1682453243,"current_range_meters":16400,"station_id":"ce4bh692rcd13ifvqea0","pricing_plan_id":"free"},{"bike_id":"5014b783-c98f-4c12-a5f4-204dbe092285","system_id":"levelo_inurba_marseille","lat":43.292644,"lon":5.384257,"is_reserved":false,"is_disabled":false,"rental_uris":{"android":"levelo://app?vid=5014b783-c98f-4c12-a5f4-204dbe092285","ios":"levelo://app?vid=5014b783-c98f-4c12-a5f4-204dbe092285"},"vehicle_type_id":"4","last_reported":1682453243,"current_range_meters":30000,"station_id":"ce4bh692rcd13ifvqea0","pricing_plan_id":"free"},{"bike_id":"7a36582d-4a6f-416d-8d57-f9c1f1050635","system_id":"levelo_inurba_marseille","lat":43.304296,"lon":5.397513,"is_reserved":false,"is_disabled":false,"rental_uris":{"android":"levelo://app?vid=7a36582d-4a6f-416d-8d57-f9c1f1050635","ios":"levelo://app?vid=7a36582d-4a6f-416d-8d57-f9c1f1050635"},"vehicle_type_id":"4","last_reported":1682453243,"current_range_meters":26800,"station_id":"ce4bh092rcd13ifvqd20","pricing_plan_id":"free"},{"bike_id":"63e0c23b-a3e3-447d-845d-9548f5cb228c","system_id":"levelo_inurba_marseille","lat":43.292644,"lon":5.384257,"is_reserved":false,"is_disabled":false,"rental_uris":{"android":"levelo://app?vid=63e0c23b-a3e3-447d-845d-9548f5cb228c","ios":"levelo://app?vid=63e0c23b-a3e3-447d-845d-9548f5cb228c"},"vehicle_type_id":"4","last_reported":1682453243,"current_range_meters":5200,"station_id":"ce4bh692rcd13ifvqea0","pricing_plan_id":"free"},{"bike_id":"31f19cb8-70fa-475d-a849-715b5c24538c","system_id":"levelo_inurba_marseille","lat":43.29266,"lon":5.38446,"is_reserved":false,"is_disabled":false,"rental_uris":{"android":"levelo://app?vid=31f19cb8-70fa-475d-a849-715b5c24538c","ios":"levelo://app?vid=31f19cb8-70fa-475d-a849-715b5c24538c"},"vehicle_type_id":"4","last_reported":1682453243,"current_range_meters":7200,"station_id":"ce4bh692rcd13ifvqea0","pricing_plan_id":"free"},{"bike_id":"53f240a5-1aae-492a-84eb-f6b105539d78","system_id":"levelo_inurba_marseille","lat":43.292612,"lon":5.384389,"is_reserved":false,"is_disabled":false,"rental_uris":{"android":"levelo://app?vid=53f240a5-1aae-492a-84eb-f6b105539d78","ios":"levelo://app?vid=53f240a5-1aae-492a-84eb-f6b105539d78"},"vehicle_type_id":"4","last_reported":1682453243,"current_range_meters":31200,"station_id":"ce4bh692rcd13ifvqea0","pricing_plan_id":"free"},{"bike_id":"67beb3a9-41a8-4831-8651-90af7de51994","system_id":"levelo_inurba_marseille","lat":43.292644,"lon":5.384257,"is_reserved":false,"is_disabled":false,"rental_uris":{"android":"levelo://app?vid=67beb3a9-41a8-4831-8651-90af7de51994","ios":"levelo://app?vid=67beb3a9-41a8-4831-8651-90af7de51994"},"vehicle_type_id":"4","last_reported":1682453243,"current_range_meters":21200,"station_id":"ce4bh692rcd13ifvqea0","pricing_plan_id":"free"},{"bike_id":"b41e89c8-8cf1-4929-a764-399cdb9caa34","system_id":"levelo_inurba_marseille","lat":43.29259,"lon":5.38441,"is_reserved":false,"is_disabled":false,"rental_uris":{"android":"levelo://app?vid=b41e89c8-8cf1-4929-a764-399cdb9caa34","ios":"levelo://app?vid=b41e89c8-8cf1-4929-a764-399cdb9caa34"},"vehicle_type_id":"4","last_reported":1682453243,"current_range_meters":5600,"station_id":"ce4bh692rcd13ifvqea0","pricing_plan_id":"free"},{"bike_id":"7f99dbd7-b757-498c-890e-e465f5a7d58f","system_id":"levelo_inurba_marseille","lat":43.292644,"lon":5.384257,"is_reserved":false,"is_disabled":false,"rental_uris":{"android":"levelo://app?vid=7f99dbd7-b757-498c-890e-e465f5a7d58f","ios":"levelo://app?vid=7f99dbd7-b757-498c-890e-e465f5a7d58f"},"vehicle_type_id":"4","last_reported":1682453243,"current_range_meters":23600,"station_id":"ce4bh692rcd13ifvqea0","pricing_plan_id":"free"},{"bike_id":"4c07c240-1f8a-431e-a4b0-647565bd1c44","system_id":"levelo_inurba_marseille","lat":43.304274,"lon":5.397513,"is_reserved":false,"is_disabled":false,"rental_uris":{"android":"levelo://app?vid=4c07c240-1f8a-431e-a4b0-647565bd1c44","ios":"levelo://app?vid=4c07c240-1f8a-431e-a4b0-647565bd1c44"},"vehicle_type_id":"4","last_reported":1682453243,"current_range_meters":12000,"station_id":"ce4bh092rcd13ifvqd20","pricing_plan_id":"free"},{"bike_id":"a2bb9519-00f4-48f5-8396-8a705188b104","system_id":"levelo_inurba_marseille","lat":43.29253,"lon":5.38435,"is_reserved":false,"is_disabled":false,"rental_uris":{"android":"levelo://app?vid=a2bb9519-00f4-48f5-8396-8a705188b104","ios":"levelo://app?vid=a2bb9519-00f4-48f5-8396-8a705188b104"},"vehicle_type_id":"4","last_reported":1682453243,"current_range_meters":31200,"station_id":"ce4bh692rcd13ifvqea0","pricing_plan_id":"free"},{"bike_id":"2d4b1970-88aa-49ab-88fd-a11024cf239a","system_id":"levelo_inurba_marseille","lat":43.29249,"lon":5.38429,"is_reserved":false,"is_disabled":false,"rental_uris":{"android":"levelo://app?vid=2d4b1970-88aa-49ab-88fd-a11024cf239a","ios":"levelo://app?vid=2d4b1970-88aa-49ab-88fd-a11024cf239a"},"vehicle_type_id":"4","last_reported":1682453243,"current_range_meters":28800,"station_id":"ce4bh692rcd13ifvqea0","pricing_plan_id":"free"},{"bike_id":"bc6de142-8c07-4bbc-a37d-72437afc0a47","system_id":"levelo_inurba_marseille","lat":43.33043,"lon":5.38913,"is_reserved":false,"is_disabled":false,"rental_uris":{"android":"levelo://app?vid=bc6de142-8c07-4bbc-a37d-72437afc0a47","ios":"levelo://app?vid=bc6de142-8c07-4bbc-a37d-72437afc0a47"},"vehicle_type_id":"4","last_reported":1682453243,"current_range_meters":19600,"station_id":"ce4bhr92rcd13ifvqhrg","pricing_plan_id":"free"},{"bike_id":"d58390d7-6792-452f-90e8-27f42c258ae0","system_id":"levelo_inurba_marseille","lat":43.33045,"lon":5.38913,"is_reserved":false,"is_disabled":false,"rental_uris":{"android":"levelo://app?vid=d58390d7-6792-452f-90e8-27f42c258ae0","ios":"levelo://app?vid=d58390d7-6792-452f-90e8-27f42c258ae0"},"vehicle_type_id":"4","last_reported":1682453243,"current_range_meters":31200,"station_id":"ce4bhr92rcd13ifvqhrg","pricing_plan_id":"free"},{"bike_id":"4d2fb4ad-736b-40ff-a5d0-e8973f1b7624","system_id":"levelo_inurba_marseille","lat":43.33042,"lon":5.38918,"is_reserved":false,"is_disabled":false,"rental_uris":{"android":"levelo://app?vid=4d2fb4ad-736b-40ff-a5d0-e8973f1b7624","ios":"levelo://app?vid=4d2fb4ad-736b-40ff-a5d0-e8973f1b7624"},"vehicle_type_id":"4","last_reported":1682453243,"current_range_meters":30000,"station_id":"ce4bhr92rcd13ifvqhrg","pricing_plan_id":"free"},{"bike_id":"401babb9-d704-4401-9cb3-46c96cbb7da4","system_id":"levelo_inurba_marseille","lat":43.33042,"lon":5.38919,"is_reserved":false,"is_disabled":false,"rental_uris":{"android":"levelo://app?vid=401babb9-d704-4401-9cb3-46c96cbb7da4","ios":"levelo://app?vid=401babb9-d704-4401-9cb3-46c96cbb7da4"},"vehicle_type_id":"4","last_reported":1682453243,"current_range_meters":28800,"station_id":"ce4bhr92rcd13ifvqhrg","pricing_plan_id":"free"},{"bike_id":"4bbc2b50-c3e0-4087-a354-589abb050b5b","system_id":"levelo_inurba_marseille","lat":43.33046,"lon":5.38913,"is_reserved":false,"is_disabled":false,"rental_uris":{"android":"levelo://app?vid=4bbc2b50-c3e0-4087-a354-589abb050b5b","ios":"levelo://app?vid=4bbc2b50-c3e0-4087-a354-589abb050b5b"},"vehicle_type_id":"4","last_reported":1682453243,"current_range_meters":18400,"station_id":"ce4bhr92rcd13ifvqhrg","pricing_plan_id":"free"},{"bike_id":"4099b1e7-9964-41b0-8476-034c422a98fe","system_id":"levelo_inurba_marseille","lat":43.33045,"lon":5.38915,"is_reserved":false,"is_disabled":false,"rental_uris":{"android":"levelo://app?vid=4099b1e7-9964-41b0-8476-034c422a98fe","ios":"levelo://app?vid=4099b1e7-9964-41b0-8476-034c422a98fe"},"vehicle_type_id":"4","last_reported":1682453243,"current_range_meters":18400,"station_id":"ce4bhr92rcd13ifvqhrg","pricing_plan_id":"free"},{"bike_id":"21e4a3ca-8f0d-4ba4-97f1-2aeb6db4698c","system_id":"levelo_inurba_marseille","lat":43.33048,"lon":5.38911,"is_reserved":false,"is_disabled":false,"rental_uris":{"android":"levelo://app?vid=21e4a3ca-8f0d-4ba4-97f1-2aeb6db4698c","ios":"levelo://app?vid=21e4a3ca-8f0d-4ba4-97f1-2aeb6db4698c"},"vehicle_type_id":"4","last_reported":1682453243,"current_range_meters":28000,"station_id":"ce4bhr92rcd13ifvqhrg","pricing_plan_id":"free"},{"bike_id":"d89affb5-5fb3-45dc-b3e2-97043f3b527d","system_id":"levelo_inurba_marseille","lat":43.3305,"lon":5.38908,"is_reserved":false,"is_disabled":false,"rental_uris":{"android":"levelo://app?vid=d89affb5-5fb3-45dc-b3e2-97043f3b527d","ios":"levelo://app?vid=d89affb5-5fb3-45dc-b3e2-97043f3b527d"},"vehicle_type_id":"4","last_reported":1682453243,"current_range_meters":31200,"station_id":"ce4bhr92rcd13ifvqhrg","pricing_plan_id":"free"},{"bike_id":"13337b9a-286d-40ab-ad5c-6640cb331620","system_id":"levelo_inurba_marseille","lat":43.33045,"lon":5.38917,"is_reserved":false,"is_disabled":false,"rental_uris":{"android":"levelo://app?vid=13337b9a-286d-40ab-ad5c-6640cb331620","ios":"levelo://app?vid=13337b9a-286d-40ab-ad5c-6640cb331620"},"vehicle_type_id":"4","last_reported":1682453243,"current_range_meters":26800,"station_id":"ce4bhr92rcd13ifvqhrg","pricing_plan_id":"free"},{"bike_id":"60da44f6-b524-4cd4-a776-e4dbb38248f8","system_id":"levelo_inurba_marseille","lat":43.33045,"lon":5.38917,"is_reserved":false,"is_disabled":false,"rental_uris":{"android":"levelo://app?vid=60da44f6-b524-4cd4-a776-e4dbb38248f8","ios":"levelo://app?vid=60da44f6-b524-4cd4-a776-e4dbb38248f8"},"vehicle_type_id":"4","last_reported":1682453243,"current_range_meters":29200,"station_id":"ce4bhr92rcd13ifvqhrg","pricing_plan_id":"free"},{"bike_id":"a1a218a3-67a1-4c51-9cc9-3e2af3096307","system_id":"levelo_inurba_marseille","lat":43.33047,"lon":5.38914,"is_reserved":false,"is_disabled":false,"rental_uris":{"android":"levelo://app?vid=a1a218a3-67a1-4c51-9cc9-3e2af3096307","ios":"levelo://app?vid=a1a218a3-67a1-4c51-9cc9-3e2af3096307"},"vehicle_type_id":"4","last_reported":1682453243,"current_range_meters":19200,"station_id":"ce4bhr92rcd13ifvqhrg","pricing_plan_id":"free"},{"bike_id":"a3181926-b219-42cc-9d8d-675c59eeb13a","system_id":"levelo_inurba_marseille","lat":43.33044,"lon":5.38922,"is_reserved":false,"is_disabled":false,"rental_uris":{"android":"levelo://app?vid=a3181926-b219-42cc-9d8d-675c59eeb13a","ios":"levelo://app?vid=a3181926-b219-42cc-9d8d-675c59eeb13a"},"vehicle_type_id":"4","last_reported":1682453243,"current_range_meters":23600,"station_id":"ce4bhr92rcd13ifvqhrg","pricing_plan_id":"free"},{"bike_id":"a4518fd3-9960-4951-9dcd-0e3bdf918385","system_id":"levelo_inurba_marseille","lat":43.290103,"lon":5.356114,"is_reserved":false,"is_disabled":false,"rental_uris":{"android":"levelo://app?vid=a4518fd3-9960-4951-9dcd-0e3bdf918385","ios":"levelo://app?vid=a4518fd3-9960-4951-9dcd-0e3bdf918385"},"vehicle_type_id":"4","last_reported":1682453243,"current_range_meters":31200,"station_id":"ce4bhb92rcd13ifvqen0","pricing_plan_id":"free"},{"bike_id":"c35d03aa-4835-48b5-a59a-c71ed7d95800","system_id":"levelo_inurba_marseille","lat":43.290995,"lon":5.381361,"is_reserved":false,"is_disabled":false,"rental_uris":{"android":"levelo://app?vid=c35d03aa-4835-48b5-a59a-c71ed7d95800","ios":"levelo://app?vid=c35d03aa-4835-48b5-a59a-c71ed7d95800"},"vehicle_type_id":"4","last_reported":1682453243,"current_range_meters":9200,"station_id":"ce4bh512rcd13ifvqe2g","pricing_plan_id":"free"},{"bike_id":"d924175a-012e-4ad3-b496-36d6fe62f478","system_id":"levelo_inurba_marseille","lat":43.284538,"lon":5.358657,"is_reserved":false,"is_disabled":false,"rental_uris":{"android":"levelo://app?vid=d924175a-012e-4ad3-b496-36d6fe62f478","ios":"levelo://app?vid=d924175a-012e-4ad3-b496-36d6fe62f478"},"vehicle_type_id":"4","last_reported":1682453243,"current_range_meters":20400,"station_id":"ce4bhah2rcd13ifvqei0","pricing_plan_id":"free"},{"bike_id":"678dff60-81ed-452b-9ca7-f9af550d725b","system_id":"levelo_inurba_marseille","lat":43.29094,"lon":5.38143,"is_reserved":false,"is_disabled":false,"rental_uris":{"android":"levelo://app?vid=678dff60-81ed-452b-9ca7-f9af550d725b","ios":"levelo://app?vid=678dff60-81ed-452b-9ca7-f9af550d725b"},"vehicle_type_id":"4","last_reported":1682453243,"current_range_meters":0,"station_id":"ce4bh512rcd13ifvqe2g","pricing_plan_id":"free"},{"bike_id":"319062b1-ed16-44b2-836e-d1454bac5800","system_id":"levelo_inurba_marseille","lat":43.290995,"lon":5.381361,"is_reserved":false,"is_disabled":false,"rental_uris":{"android":"levelo://app?vid=319062b1-ed16-44b2-836e-d1454bac5800","ios":"levelo://app?vid=319062b1-ed16-44b2-836e-d1454bac5800"},"vehicle_type_id":"4","last_reported":1682453243,"current_range_meters":0,"station_id":"ce4bh512rcd13ifvqe2g","pricing_plan_id":"free"},{"bike_id":"b4b48590-b745-4a86-ae62-605b50d31a4d","system_id":"levelo_inurba_marseille","lat":43.290995,"lon":5.381361,"is_reserved":false,"is_disabled":false,"rental_uris":{"android":"levelo://app?vid=b4b48590-b745-4a86-ae62-605b50d31a4d","ios":"levelo://app?vid=b4b48590-b745-4a86-ae62-605b50d31a4d"},"vehicle_type_id":"4","last_reported":1682453243,"current_range_meters":11200,"station_id":"ce4bh512rcd13ifvqe2g","pricing_plan_id":"free"},{"bike_id":"9677448e-022c-4aca-90e0-82d35e0a0044","system_id":"levelo_inurba_marseille","lat":43.295169,"lon":5.390426,"is_reserved":false,"is_disabled":false,"rental_uris":{"android":"levelo://app?vid=9677448e-022c-4aca-90e0-82d35e0a0044","ios":"levelo://app?vid=9677448e-022c-4aca-90e0-82d35e0a0044"},"vehicle_type_id":"4","last_reported":1682453243,"current_range_meters":30400,"station_id":"ce4bh3p2rcd13ifvqdp0","pricing_plan_id":"free"},{"bike_id":"fbf373f5-8679-43d9-a8cd-8b193cef9a06","system_id":"levelo_inurba_marseille","lat":43.29527,"lon":5.39031,"is_reserved":false,"is_disabled":false,"rental_uris":{"android":"levelo://app?vid=fbf373f5-8679-43d9-a8cd-8b193cef9a06","ios":"levelo://app?vid=fbf373f5-8679-43d9-a8cd-8b193cef9a06"},"vehicle_type_id":"4","last_reported":1682453243,"current_range_meters":25200,"station_id":"ce4bh3p2rcd13ifvqdp0","pricing_plan_id":"free"},{"bike_id":"fc5011a5-32fe-4047-be9b-d6be7e69cd8d","system_id":"levelo_inurba_marseille","lat":43.295169,"lon":5.390426,"is_reserved":false,"is_disabled":false,"rental_uris":{"android":"levelo://app?vid=fc5011a5-32fe-4047-be9b-d6be7e69cd8d","ios":"levelo://app?vid=fc5011a5-32fe-4047-be9b-d6be7e69cd8d"},"vehicle_type_id":"4","last_reported":1682453243,"current_range_meters":30000,"station_id":"ce4bh3p2rcd13ifvqdp0","pricing_plan_id":"free"},{"bike_id":"a57350c2-92a6-45d1-a136-9dd288a397b9","system_id":"levelo_inurba_marseille","lat":43.289741,"lon":5.378306,"is_reserved":false,"is_disabled":false,"rental_uris":{"android":"levelo://app?vid=a57350c2-92a6-45d1-a136-9dd288a397b9","ios":"levelo://app?vid=a57350c2-92a6-45d1-a136-9dd288a397b9"},"vehicle_type_id":"4","last_reported":1682453243,"current_range_meters":26000,"station_id":"ce4bh9p2rcd13ifvqed0","pricing_plan_id":"free"},{"bike_id":"9bb40cbd-3915-433c-a672-abc57139d0e5","system_id":"levelo_inurba_marseille","lat":43.28856,"lon":5.358371,"is_reserved":false,"is_disabled":false,"rental_uris":{"android":"levelo://app?vid=9bb40cbd-3915-433c-a672-abc57139d0e5","ios":"levelo://app?vid=9bb40cbd-3915-433c-a672-abc57139d0e5"},"vehicle_type_id":"4","last_reported":1682453243,"current_range_meters":25200,"station_id":"ce4bhb12rcd13ifvqem0","pricing_plan_id":"free"},{"bike_id":"0d4608a2-a9b6-422a-a735-8f6d32c555a6","system_id":"levelo_inurba_marseille","lat":43.28856,"lon":5.358371,"is_reserved":false,"is_disabled":false,"rental_uris":{"android":"levelo://app?vid=0d4608a2-a9b6-422a-a735-8f6d32c555a6","ios":"levelo://app?vid=0d4608a2-a9b6-422a-a735-8f6d32c555a6"},"vehicle_type_id":"4","last_reported":1682453243,"current_range_meters":6800,"station_id":"ce4bhb12rcd13ifvqem0","pricing_plan_id":"free"},{"bike_id":"452013ff-f390-417c-bec6-7e3eb107b98e","system_id":"levelo_inurba_marseille","lat":43.28856,"lon":5.358371,"is_reserved":false,"is_disabled":false,"rental_uris":{"android":"levelo://app?vid=452013ff-f390-417c-bec6-7e3eb107b98e","ios":"levelo://app?vid=452013ff-f390-417c-bec6-7e3eb107b98e"},"vehicle_type_id":"4","last_reported":1682453243,"current_range_meters":29200,"station_id":"ce4bhb12rcd13ifvqem0","pricing_plan_id":"free"},{"bike_id":"9c8f2dd5-1aba-4136-9e4a-6081c7705db7","system_id":"levelo_inurba_marseille","lat":43.2901,"lon":5.381269,"is_reserved":false,"is_disabled":false,"rental_uris":{"android":"levelo://app?vid=9c8f2dd5-1aba-4136-9e4a-6081c7705db7","ios":"levelo://app?vid=9c8f2dd5-1aba-4136-9e4a-6081c7705db7"},"vehicle_type_id":"4","last_reported":1682453243,"current_range_meters":5600,"station_id":"ce4bh4p2rcd13ifvqe1g","pricing_plan_id":"free"},{"bike_id":"eac8c5cf-f76f-470c-9567-b0e604f89e1f","system_id":"levelo_inurba_marseille","lat":43.285856,"lon":5.350771,"is_reserved":false,"is_disabled":false,"rental_uris":{"android":"levelo://app?vid=eac8c5cf-f76f-470c-9567-b0e604f89e1f","ios":"levelo://app?vid=eac8c5cf-f76f-470c-9567-b0e604f89e1f"},