{"last_updated":1706299656,"ttl":30,"version":"2.2","data":{"bikes":[{"bike_id":"ebc629f8-5aa6-40c4-ab91-6f4a5c3e7a69","system_id":"levelo_inurba_marseille","lat":43.313391,"lon":5.36706,"is_reserved":false,"is_disabled":false,"rental_uris":{"android":"levelo://app?vid=ebc629f8-5aa6-40c4-ab91-6f4a5c3e7a69","ios":"levelo://app?vid=ebc629f8-5aa6-40c4-ab91-6f4a5c3e7a69"},"vehicle_type_id":"4","last_reported":1706299656,"current_range_meters":14000,"station_id":"ce4bgr92rcd13ifvqc6g","pricing_plan_id":"free"},{"bike_id":"13cede98-507f-4fcd-815c-9d27c1bdbddf","system_id":"levelo_inurba_marseille","lat":43.312239,"lon":5.368562,"is_reserved":false,"is_disabled":false,"rental_uris":{"android":"levelo://app?vid=13cede98-507f-4fcd-815c-9d27c1bdbddf","ios":"levelo://app?vid=13cede98-507f-4fcd-815c-9d27c1bdbddf"},"vehicle_type_id":"4","last_reported":1706299656,"current_range_meters":29600,"station_id":"ce4bgl92rcd13ifvqbq0","pricing_plan_id":"free"},{"bike_id":"e72d0881-a2f6-4a86-8b7e-382be4a3190b","system_id":"levelo_inurba_marseille","lat":43.312239,"lon":5.368562,"is_reserved":false,"is_disabled":false,"rental_uris":{"android":"levelo://app?vid=e72d0881-a2f6-4a86-8b7e-382be4a3190b","ios":"levelo://app?vid=e72d0881-a2f6-4a86-8b7e-382be4a3190b"},"vehicle_type_id":"4","last_reported":1706299656,"current_range_meters":31200,"station_id":"ce4bgl92rcd13ifvqbq0","pricing_plan_id":"free"},{"bike_id":"29d03d94-a7ed-4e54-8acf-e64af952b1b0","system_id":"levelo_inurba_marseille","lat":43.312239,"lon":5.368562,"is_reserved":false,"is_disabled":false,"rental_uris":{"android":"levelo://app?vid=29d03d94-a7ed-4e54-8acf-e64af952b1b0","ios":"levelo://app?vid=29d03d94-a7ed-4e54-8acf-e64af952b1b0"},"vehicle_type_id":"4","last_reported":1706299656,"current_range_meters":3200,"station_id":"ce4bgl92rcd13ifvqbq0","pricing_plan_id":"free"},{"bike_id":"43857cb6-fa50-4513-90f5-f4ba949b80a2","system_id":"levelo_inurba_marseille","lat":43.312239,"lon":5.368562,"is_reserved":false,"is_disabled":false,"rental_uris":{"android":"levelo://app?vid=43857cb6-fa50-4513-90f5-f4ba949b80a2","ios":"levelo://app?vid=43857cb6-fa50-4513-90f5-f4ba949b80a2"},"vehicle_type_id":"4","last_reported":1706299656,"current_range_meters":27200,"station_id":"ce4bgl92rcd13ifvqbq0","pricing_plan_id":"free"},{"bike_id":"538eedd4-5d19-487a-85b2-85b475016bfb","system_id":"levelo_inurba_marseille","lat":43.312239,"lon":5.368562,"is_reserved":false,"is_disabled":false,"rental_uris":{"android":"levelo://app?vid=538eedd4-5d19-487a-85b2-85b475016bfb","ios":"levelo://app?vid=538eedd4-5d19-487a-85b2-85b475016bfb"},"vehicle_type_id":"4","last_reported":1706299656,"current_range_meters":2400,"station_id":"ce4bgl92rcd13ifvqbq0","pricing_plan_id":"free"},{"bike_id":"2e05d949-83fe-48ec-ab7a-7f0227422a57","system_id":"levelo_inurba_marseille","lat":43.314811,"lon":5.373103,"is_reserved":false,"is_disabled":false,"rental_uris":{"android":"levelo://app?vid=2e05d949-83fe-48ec-ab7a-7f0227422a57","ios":"levelo://app?vid=2e05d949-83fe-48ec-ab7a-7f0227422a57"},"vehicle_type_id":"4","last_reported":1706299656,"current_range_meters":19600,"station_id":"ce4bgt12rcd13ifvqcd0","pricing_plan_id":"free"},{"bike_id":"554bbfd3-67d5-46ff-81d7-9bf05ed54da3","system_id":"levelo_inurba_marseille","lat":43.309039,"lon":5.371797,"is_reserved":false,"is_disabled":false,"rental_uris":{"android":"levelo://app?vid=554bbfd3-67d5-46ff-81d7-9bf05ed54da3","ios":"levelo://app?vid=554bbfd3-67d5-46ff-81d7-9bf05ed54da3"},"vehicle_type_id":"4","last_reported":1706299656,"current_range_meters":13200,"station_id":"ce4bguh2rcd13ifvqckg","pricing_plan_id":"free"},{"bike_id":"256557e4-3827-494e-a73f-bcbd3c52de65","system_id":"levelo_inurba_marseille","lat":43.309039,"lon":5.371797,"is_reserved":false,"is_disabled":false,"rental_uris":{"android":"levelo://app?vid=256557e4-3827-494e-a73f-bcbd3c52de65","ios":"levelo://app?vid=256557e4-3827-494e-a73f-bcbd3c52de65"},"vehicle_type_id":"4","last_reported":1706299656,"current_range_meters":14400,"station_id":"ce4bguh2rcd13ifvqckg","pricing_plan_id":"free"},{"bike_id":"476f9f82-d4d1-4cb2-91b1-b4b0b5265fcf","system_id":"levelo_inurba_marseille","lat":43.309039,"lon":5.371797,"is_reserved":false,"is_disabled":false,"rental_uris":{"android":"levelo://app?vid=476f9f82-d4d1-4cb2-91b1-b4b0b5265fcf","ios":"levelo://app?vid=476f9f82-d4d1-4cb2-91b1-b4b0b5265fcf"},"vehicle_type_id":"4","last_reported":1706299656,"current_range_meters":10000,"station_id":"ce4bguh2rcd13ifvqckg","pricing_plan_id":"free"},{"bike_id":"43f2e9a3-4e4c-4d41-8a34-9514a3e6c5d3","system_id":"levelo_inurba_marseille","lat":43.316037,"lon":5.373127,"is_reserved":false,"is_disabled":false,"rental_uris":{"android":"levelo://app?vid=43f2e9a3-4e4c-4d41-8a34-9514a3e6c5d3","ios":"levelo://app?vid=43f2e9a3-4e4c-4d41-8a34-9514a3e6c5d3"},"vehicle_type_id":"4","last_reported":1706299656,"current_range_meters":8400,"station_id":"","pricing_plan_id":"free"},{"bike_id":"9443e511-2e2d-41e7-a2cd-4c95bf03992f","system_id":"levelo_inurba_marseille","lat":43.31356,"lon":5.37622,"is_reserved":false,"is_disabled":false,"rental_uris":{"android":"levelo://app?vid=9443e511-2e2d-41e7-a2cd-4c95bf03992f","ios":"levelo://app?vid=9443e511-2e2d-41e7-a2cd-4c95bf03992f"},"vehicle_type_id":"4","last_reported":1706299656,"current_range_meters":10000,"station_id":"","pricing_plan_id":"free"},{"bike_id":"c7ce385f-76b2-41f6-ae05-cae5605b7d76","system_id":"levelo_inurba_marseille","lat":43.305497,"lon":5.36539,"is_reserved":false,"is_disabled":false,"rental_uris":{"android":"levelo://app?vid=c7ce385f-76b2-41f6-ae05-cae5605b7d76","ios":"levelo://app?vid=c7ce385f-76b2-41f6-ae05-cae5605b7d76"},"vehicle_type_id":"4","last_reported":1706299656,"current_range_meters":0,"station_id":"ce4bgs12rcd13ifvqcag","pricing_plan_id":"free"},{"bike_id":"0389bd4c-0df2-400e-a409-85eec14158cb","system_id":"levelo_inurba_marseille","lat":43.305989,"lon":5.37225,"is_reserved":false,"is_disabled":false,"rental_uris":{"android":"levelo://app?vid=0389bd4c-0df2-400e-a409-85eec14158cb","ios":"levelo://app?vid=0389bd4c-0df2-400e-a409-85eec14158cb"},"vehicle_type_id":"4","last_reported":1706299656,"current_range_meters":17200,"station_id":"ce4bgqh2rcd13ifvqc4g","pricing_plan_id":"free"},{"bike_id":"79fabada-136e-4926-9b9e-ddd3b214f6b0","system_id":"levelo_inurba_marseille","lat":43.305989,"lon":5.37225,"is_reserved":false,"is_disabled":false,"rental_uris":{"android":"levelo://app?vid=79fabada-136e-4926-9b9e-ddd3b214f6b0","ios":"levelo://app?vid=79fabada-136e-4926-9b9e-ddd3b214f6b0"},"vehicle_type_id":"4","last_reported":1706299656,"current_range_meters":30400,"station_id":"ce4bgqh2rcd13ifvqc4g","pricing_plan_id":"free"},{"bike_id":"1d80dbbe-6322-4930-9f4a-b032bd6593fa","system_id":"levelo_inurba_marseille","lat":43.305989,"lon":5.37225,"is_reserved":false,"is_disabled":false,"rental_uris":{"android":"levelo://app?vid=1d80dbbe-6322-4930-9f4a-b032bd6593fa","ios":"levelo://app?vid=1d80dbbe-6322-4930-9f4a-b032bd6593fa"},"vehicle_type_id":"4","last_reported":1706299656,"current_range_meters":25600,"station_id":"ce4bgqh2rcd13ifvqc4g","pricing_plan_id":"free"},{"bike_id":"1c0d4dc0-325c-4866-8541-798517ba7f78","system_id":"levelo_inurba_marseille","lat":43.311131,"lon":5.377651,"is_reserved":false,"is_disabled":false,"rental_uris":{"android":"levelo://app?vid=1c0d4dc0-325c-4866-8541-798517ba7f78","ios":"levelo://app?vid=1c0d4dc0-325c-4866-8541-798517ba7f78"},"vehicle_type_id":"4","last_reported":1706299656,"current_range_meters":8800,"station_id":"ce4bgt92rcd13ifvqcg0","pricing_plan_id":"free"},{"bike_id":"7912ef14-46e0-4fa3-8b27-205683eaa5c7","system_id":"levelo_inurba_marseille","lat":43.311131,"lon":5.377651,"is_reserved":false,"is_disabled":false,"rental_uris":{"android":"levelo://app?vid=7912ef14-46e0-4fa3-8b27-205683eaa5c7","ios":"levelo://app?vid=7912ef14-46e0-4fa3-8b27-205683eaa5c7"},"vehicle_type_id":"4","last_reported":1706299656,"current_range_meters":0,"station_id":"ce4bgt92rcd13ifvqcg0","pricing_plan_id":"free"},{"bike_id":"7c81727c-5265-4d7c-9735-708db1b3fe50","system_id":"levelo_inurba_marseille","lat":43.311194,"lon":5.377743,"is_reserved":false,"is_disabled":false,"rental_uris":{"android":"levelo://app?vid=7c81727c-5265-4d7c-9735-708db1b3fe50","ios":"levelo://app?vid=7c81727c-5265-4d7c-9735-708db1b3fe50"},"vehicle_type_id":"4","last_reported":1706299656,"current_range_meters":0,"station_id":"ce4bgt92rcd13ifvqcg0","pricing_plan_id":"free"},{"bike_id":"96733b9e-229e-430c-9a9a-d3ab48a3723f","system_id":"levelo_inurba_marseille","lat":43.311125,"lon":5.377624,"is_reserved":false,"is_disabled":false,"rental_uris":{"android":"levelo://app?vid=96733b9e-229e-430c-9a9a-d3ab48a3723f","ios":"levelo://app?vid=96733b9e-229e-430c-9a9a-d3ab48a3723f"},"vehicle_type_id":"4","last_reported":1706299656,"current_range_meters":12000,"station_id":"ce4bgt92rcd13ifvqcg0","pricing_plan_id":"free"},{"bike_id":"0e11932e-17b7-4146-8e63-2f6f24b1e8ce","system_id":"levelo_inurba_marseille","lat":43.30784,"lon":5.37651,"is_reserved":false,"is_disabled":false,"rental_uris":{"android":"levelo://app?vid=0e11932e-17b7-4146-8e63-2f6f24b1e8ce","ios":"levelo://app?vid=0e11932e-17b7-4146-8e63-2f6f24b1e8ce"},"vehicle_type_id":"4","last_reported":1706299656,"current_range_meters":0,"station_id":"ce4bgv92rcd13ifvqcq0","pricing_plan_id":"free"},{"bike_id":"2a3a464a-0f7b-4a1b-8284-80ebd0505674","system_id":"levelo_inurba_marseille","lat":43.317075,"lon":5.377367,"is_reserved":false,"is_disabled":false,"rental_uris":{"android":"levelo://app?vid=2a3a464a-0f7b-4a1b-8284-80ebd0505674","ios":"levelo://app?vid=2a3a464a-0f7b-4a1b-8284-80ebd0505674"},"vehicle_type_id":"4","last_reported":1706299656,"current_range_meters":9600,"station_id":"ce4bgth2rcd13ifvqch0","pricing_plan_id":"free"},{"bike_id":"52a9a8b6-e56d-4bcd-a558-12044da36464","system_id":"levelo_inurba_marseille","lat":43.317057,"lon":5.377402,"is_reserved":false,"is_disabled":false,"rental_uris":{"android":"levelo://app?vid=52a9a8b6-e56d-4bcd-a558-12044da36464","ios":"levelo://app?vid=52a9a8b6-e56d-4bcd-a558-12044da36464"},"vehicle_type_id":"4","last_reported":1706299656,"current_range_meters":6800,"station_id":"ce4bgth2rcd13ifvqch0","pricing_plan_id":"free"},{"bike_id":"b7b60819-8423-4acd-a48e-3e86ce2635a7","system_id":"levelo_inurba_marseille","lat":43.317075,"lon":5.377367,"is_reserved":false,"is_disabled":false,"rental_uris":{"android":"levelo://app?vid=b7b60819-8423-4acd-a48e-3e86ce2635a7","ios":"levelo://app?vid=b7b60819-8423-4acd-a48e-3e86ce2635a7"},"vehicle_type_id":"4","last_reported":1706299656,"current_range_meters":30400,"station_id":"ce4bgth2rcd13ifvqch0","pricing_plan_id":"free"},{"bike_id":"5b0a56ae-3d70-40f6-ad3f-78c604f89c73","system_id":"levelo_inurba_marseille","lat":43.31237,"lon":5.37984,"is_reserved":false,"is_disabled":false,"rental_uris":{"android":"levelo://app?vid=5b0a56ae-3d70-40f6-ad3f-78c604f89c73","ios":"levelo://app?vid=5b0a56ae-3d70-40f6-ad3f-78c604f89c73"},"vehicle_type_id":"4","last_reported":1706299656,"current_range_meters":15600,"station_id":"","pricing_plan_id":"free"},{"bike_id":"37eb7773-5e15-4e11-915f-54174705d0aa","system_id":"levelo_inurba_marseille","lat":43.303046,"lon":5.368981,"is_reserved":false,"is_disabled":false,"rental_uris":{"android":"levelo://app?vid=37eb7773-5e15-4e11-915f-54174705d0aa","ios":"levelo://app?vid=37eb7773-5e15-4e11-915f-54174705d0aa"},"vehicle_type_id":"4","last_reported":1706299656,"current_range_meters":1200,"station_id":"ce4bgqh2rcd13ifvqc5g","pricing_plan_id":"free"},{"bike_id":"b0d15b72-cbff-4a5e-8384-17c8507bb689","system_id":"levelo_inurba_marseille","lat":43.301939,"lon":5.366286,"is_reserved":false,"is_disabled":false,"rental_uris":{"android":"levelo://app?vid=b0d15b72-cbff-4a5e-8384-17c8507bb689","ios":"levelo://app?vid=b0d15b72-cbff-4a5e-8384-17c8507bb689"},"vehicle_type_id":"4","last_reported":1706299656,"current_range_meters":2000,"station_id":"ce4bgrh2rcd13ifvqc8g","pricing_plan_id":"free"},{"bike_id":"bb27076b-a58d-48c4-8410-9fe4f5874f2e","system_id":"levelo_inurba_marseille","lat":43.301939,"lon":5.366286,"is_reserved":false,"is_disabled":false,"rental_uris":{"android":"levelo://app?vid=bb27076b-a58d-48c4-8410-9fe4f5874f2e","ios":"levelo://app?vid=bb27076b-a58d-48c4-8410-9fe4f5874f2e"},"vehicle_type_id":"4","last_reported":1706299656,"current_range_meters":26800,"station_id":"ce4bgrh2rcd13ifvqc8g","pricing_plan_id":"free"},{"bike_id":"c2c9495b-3220-4c6d-ad7b-fa51622d3da4","system_id":"levelo_inurba_marseille","lat":43.301939,"lon":5.366286,"is_reserved":false,"is_disabled":false,"rental_uris":{"android":"levelo://app?vid=c2c9495b-3220-4c6d-ad7b-fa51622d3da4","ios":"levelo://app?vid=c2c9495b-3220-4c6d-ad7b-fa51622d3da4"},"vehicle_type_id":"4","last_reported":1706299656,"current_range_meters":19200,"station_id":"ce4bgrh2rcd13ifvqc8g","pricing_plan_id":"free"},{"bike_id":"bff588fa-ab34-4ab2-ba1c-2349b27bcb64","system_id":"levelo_inurba_marseille","lat":43.301939,"lon":5.366286,"is_reserved":false,"is_disabled":false,"rental_uris":{"android":"levelo://app?vid=bff588fa-ab34-4ab2-ba1c-2349b27bcb64","ios":"levelo://app?vid=bff588fa-ab34-4ab2-ba1c-2349b27bcb64"},"vehicle_type_id":"4","last_reported":1706299656,"current_range_meters":12800,"station_id":"ce4bgrh2rcd13ifvqc8g","pricing_plan_id":"free"},{"bike_id":"231a409d-721c-400b-bdbd-6eb1c55df4ef","system_id":"levelo_inurba_marseille","lat":43.308012,"lon":5.381511,"is_reserved":false,"is_disabled":false,"rental_uris":{"android":"levelo://app?vid=231a409d-721c-400b-bdbd-6eb1c55df4ef","ios":"levelo://app?vid=231a409d-721c-400b-bdbd-6eb1c55df4ef"},"vehicle_type_id":"4","last_reported":1706299656,"current_range_meters":0,"station_id":"ce4bgt12rcd13ifvqce0","pricing_plan_id":"free"},{"bike_id":"b10b8257-da82-4103-a35a-149a4b51fd60","system_id":"levelo_inurba_marseille","lat":43.308012,"lon":5.381511,"is_reserved":false,"is_disabled":false,"rental_uris":{"android":"levelo://app?vid=b10b8257-da82-4103-a35a-149a4b51fd60","ios":"levelo://app?vid=b10b8257-da82-4103-a35a-149a4b51fd60"},"vehicle_type_id":"4","last_reported":1706299656,"current_range_meters":0,"station_id":"ce4bgt12rcd13ifvqce0","pricing_plan_id":"free"},{"bike_id":"54f58f4f-9f1a-461d-bf0f-583c132184d8","system_id":"levelo_inurba_marseille","lat":43.30793,"lon":5.38169,"is_reserved":false,"is_disabled":false,"rental_uris":{"android":"levelo://app?vid=54f58f4f-9f1a-461d-bf0f-583c132184d8","ios":"levelo://app?vid=54f58f4f-9f1a-461d-bf0f-583c132184d8"},"vehicle_type_id":"4","last_reported":1706299656,"current_range_meters":0,"station_id":"ce4bgt12rcd13ifvqce0","pricing_plan_id":"free"},{"bike_id":"d20eb7e9-cf29-463d-9e73-0bc301e970b5","system_id":"levelo_inurba_marseille","lat":43.324771,"lon":5.36557,"is_reserved":false,"is_disabled":false,"rental_uris":{"android":"levelo://app?vid=d20eb7e9-cf29-463d-9e73-0bc301e970b5","ios":"levelo://app?vid=d20eb7e9-cf29-463d-9e73-0bc301e970b5"},"vehicle_type_id":"4","last_reported":1706299656,"current_range_meters":24400,"station_id":"ce4bhs12rcd13ifvqhvg","pricing_plan_id":"free"},{"bike_id":"bad431fd-0d71-417d-8027-dea0abde6beb","system_id":"levelo_inurba_marseille","lat":43.324771,"lon":5.36557,"is_reserved":false,"is_disabled":false,"rental_uris":{"android":"levelo://app?vid=bad431fd-0d71-417d-8027-dea0abde6beb","ios":"levelo://app?vid=bad431fd-0d71-417d-8027-dea0abde6beb"},"vehicle_type_id":"4","last_reported":1706299656,"current_range_meters":8800,"station_id":"ce4bhs12rcd13ifvqhvg","pricing_plan_id":"free"},{"bike_id":"3571f4a0-60e6-408b-8bf2-bfbcac1e0195","system_id":"levelo_inurba_marseille","lat":43.324771,"lon":5.36557,"is_reserved":false,"is_disabled":false,"rental_uris":{"android":"levelo://app?vid=3571f4a0-60e6-408b-8bf2-bfbcac1e0195","ios":"levelo://app?vid=3571f4a0-60e6-408b-8bf2-bfbcac1e0195"},"vehicle_type_id":"4","last_reported":1706299656,"current_range_meters":5200,"station_id":"ce4bhs12rcd13ifvqhvg","pricing_plan_id":"free"},{"bike_id":"e3cfa974-2663-4965-a96a-f55f3013619c","system_id":"levelo_inurba_marseille","lat":43.324771,"lon":5.36557,"is_reserved":false,"is_disabled":false,"rental_uris":{"android":"levelo://app?vid=e3cfa974-2663-4965-a96a-f55f3013619c","ios":"levelo://app?vid=e3cfa974-2663-4965-a96a-f55f3013619c"},"vehicle_type_id":"4","last_reported":1706299656,"current_range_meters":7200,"station_id":"ce4bhs12rcd13ifvqhvg","pricing_plan_id":"free"},{"bike_id":"ec40115e-0430-4944-8ece-51306c67ea7e","system_id":"levelo_inurba_marseille","lat":43.324771,"lon":5.36557,"is_reserved":false,"is_disabled":false,"rental_uris":{"android":"levelo://app?vid=ec40115e-0430-4944-8ece-51306c67ea7e","ios":"levelo://app?vid=ec40115e-0430-4944-8ece-51306c67ea7e"},"vehicle_type_id":"4","last_reported":1706299656,"current_range_meters":18400,"station_id":"ce4bhs12rcd13ifvqhvg","pricing_plan_id":"free"},{"bike_id":"fc51b747-b33f-40c9-9c2c-bd6f886bc3e2","system_id":"levelo_inurba_marseille","lat":43.319888,"lon":5.381428,"is_reserved":false,"is_disabled":false,"rental_uris":{"android":"levelo://app?vid=fc51b747-b33f-40c9-9c2c-bd6f886bc3e2","ios":"levelo://app?vid=fc51b747-b33f-40c9-9c2c-bd6f886bc3e2"},"vehicle_type_id":"4","last_reported":1706299656,"current_range_meters":13200,"station_id":"ce4bhr12rcd13ifvqhpg","pricing_plan_id":"free"},{"bike_id":"01533f59-2c23-4279-b5fa-c0608335cf09","system_id":"levelo_inurba_marseille","lat":43.319949,"lon":5.381412,"is_reserved":false,"is_disabled":false,"rental_uris":{"android":"levelo://app?vid=01533f59-2c23-4279-b5fa-c0608335cf09","ios":"levelo://app?vid=01533f59-2c23-4279-b5fa-c0608335cf09"},"vehicle_type_id":"4","last_reported":1706299656,"current_range_meters":800,"station_id":"ce4bhr12rcd13ifvqhpg","pricing_plan_id":"free"},{"bike_id":"fd388e30-6c90-4fbf-abdf-dd15ef425659","system_id":"levelo_inurba_marseille","lat":43.319967,"lon":5.381565,"is_reserved":false,"is_disabled":false,"rental_uris":{"android":"levelo://app?vid=fd388e30-6c90-4fbf-abdf-dd15ef425659","ios":"levelo://app?vid=fd388e30-6c90-4fbf-abdf-dd15ef425659"},"vehicle_type_id":"4","last_reported":1706299656,"current_range_meters":9200,"station_id":"ce4bhr12rcd13ifvqhpg","pricing_plan_id":"free"},{"bike_id":"fbd1c7c8-59f4-40f3-bd13-92a41198f404","system_id":"levelo_inurba_marseille","lat":43.319935,"lon":5.381699,"is_reserved":false,"is_disabled":false,"rental_uris":{"android":"levelo://app?vid=fbd1c7c8-59f4-40f3-bd13-92a41198f404","ios":"levelo://app?vid=fbd1c7c8-59f4-40f3-bd13-92a41198f404"},"vehicle_type_id":"4","last_reported":1706299656,"current_range_meters":19600,"station_id":"ce4bhr12rcd13ifvqhpg","pricing_plan_id":"free"},{"bike_id":"ae7ab608-8fac-4c0d-9f43-8ffacb07a49d","system_id":"levelo_inurba_marseille","lat":43.319935,"lon":5.381699,"is_reserved":false,"is_disabled":false,"rental_uris":{"android":"levelo://app?vid=ae7ab608-8fac-4c0d-9f43-8ffacb07a49d","ios":"levelo://app?vid=ae7ab608-8fac-4c0d-9f43-8ffacb07a49d"},"vehicle_type_id":"4","last_reported":1706299656,"current_range_meters":10400,"station_id":"ce4bhr12rcd13ifvqhpg","pricing_plan_id":"free"},{"bike_id":"5f7ec9ca-defa-4048-96f4-b62ebd1a927a","system_id":"levelo_inurba_marseille","lat":43.319935,"lon":5.381699,"is_reserved":false,"is_disabled":false,"rental_uris":{"android":"levelo://app?vid=5f7ec9ca-defa-4048-96f4-b62ebd1a927a","ios":"levelo://app?vid=5f7ec9ca-defa-4048-96f4-b62ebd1a927a"},"vehicle_type_id":"4","last_reported":1706299656,"current_range_meters":22000,"station_id":"ce4bhr12rcd13ifvqhpg","pricing_plan_id":"free"},{"bike_id":"bcbff3ac-8335-4312-8664-681c182e4008","system_id":"levelo_inurba_marseille","lat":43.313571,"lon":5.384829,"is_reserved":false,"is_disabled":false,"rental_uris":{"android":"levelo://app?vid=bcbff3ac-8335-4312-8664-681c182e4008","ios":"levelo://app?vid=bcbff3ac-8335-4312-8664-681c182e4008"},"vehicle_type_id":"4","last_reported":1706299656,"current_range_meters":23600,"station_id":"ce4bgt92rcd13ifvqcf0","pricing_plan_id":"free"},{"bike_id":"8b046161-6dc9-460f-b134-2023dde79010","system_id":"levelo_inurba_marseille","lat":43.30008,"lon":5.37143,"is_reserved":false,"is_disabled":false,"rental_uris":{"android":"levelo://app?vid=8b046161-6dc9-460f-b134-2023dde79010","ios":"levelo://app?vid=8b046161-6dc9-460f-b134-2023dde79010"},"vehicle_type_id":"4","last_reported":1706299656,"current_range_meters":16000,"station_id":"","pricing_plan_id":"free"},{"bike_id":"b2c50230-cc4d-4dad-92cb-6de6eaacfbb6","system_id":"levelo_inurba_marseille","lat":43.299222,"lon":5.365554,"is_reserved":false,"is_disabled":false,"rental_uris":{"android":"levelo://app?vid=b2c50230-cc4d-4dad-92cb-6de6eaacfbb6","ios":"levelo://app?vid=b2c50230-cc4d-4dad-92cb-6de6eaacfbb6"},"vehicle_type_id":"4","last_reported":1706299656,"current_range_meters":12400,"station_id":"ce4bgm92rcd13ifvqbr0","pricing_plan_id":"free"},{"bike_id":"ce01c9ac-c495-498e-b746-48901a2604e8","system_id":"levelo_inurba_marseille","lat":43.299222,"lon":5.365554,"is_reserved":false,"is_disabled":false,"rental_uris":{"android":"levelo://app?vid=ce01c9ac-c495-498e-b746-48901a2604e8","ios":"levelo://app?vid=ce01c9ac-c495-498e-b746-48901a2604e8"},"vehicle_type_id":"4","last_reported":1706299656,"current_range_meters":4400,"station_id":"ce4bgm92rcd13ifvqbr0","pricing_plan_id":"free"},{"bike_id":"d07cfd61-026d-4418-9f91-7fae3cfae27f","system_id":"levelo_inurba_marseille","lat":43.299724,"lon":5.371829,"is_reserved":false,"is_disabled":false,"rental_uris":{"android":"levelo://app?vid=d07cfd61-026d-4418-9f91-7fae3cfae27f","ios":"levelo://app?vid=d07cfd61-026d-4418-9f91-7fae3cfae27f"},"vehicle_type_id":"4","last_reported":1706299656,"current_range_meters":1200,"station_id":"ce4bgr92rcd13ifvqc7g","pricing_plan_id":"free"},{"bike_id":"3b15e0fd-de30-4e7e-9723-35de450d34c6","system_id":"levelo_inurba_marseille","lat":43.299724,"lon":5.371829,"is_reserved":false,"is_disabled":false,"rental_uris":{"android":"levelo://app?vid=3b15e0fd-de30-4e7e-9723-35de450d34c6","ios":"levelo://app?vid=3b15e0fd-de30-4e7e-9723-35de450d34c6"},"vehicle_type_id":"4","last_reported":1706299656,"current_range_meters":800,"station_id":"ce4bgr92rcd13ifvqc7g","pricing_plan_id":"free"},{"bike_id":"86ca605a-48b3-433c-9666-07c3c5ac4379","system_id":"levelo_inurba_marseille","lat":43.318431,"lon":5.384275,"is_reserved":false,"is_disabled":false,"rental_uris":{"android":"levelo://app?vid=86ca605a-48b3-433c-9666-07c3c5ac4379","ios":"levelo://app?vid=86ca605a-48b3-433c-9666-07c3c5ac4379"},"vehicle_type_id":"4","last_reported":1706299656,"current_range_meters":1200,"station_id":"","pricing_plan_id":"free"},{"bike_id":"94d0ccd4-7d90-4e96-b1d6-b2d54d7db676","system_id":"levelo_inurba_marseille","lat":43.303837,"lon":5.418724,"is_reserved":false,"is_disabled":false,"rental_uris":{"android":"levelo://app?vid=94d0ccd4-7d90-4e96-b1d6-b2d54d7db676","ios":"levelo://app?vid=94d0ccd4-7d90-4e96-b1d6-b2d54d7db676"},"vehicle_type_id":"4","last_reported":1706299656,"current_range_meters":15200,"station_id":"ce4bhop2rcd13ifvqh7g","pricing_plan_id":"free"},{"bike_id":"76700d02-2858-42b6-ad30-848fb5840b3b","system_id":"levelo_inurba_marseille","lat":43.297794,"lon":5.370888,"is_reserved":false,"is_disabled":false,"rental_uris":{"android":"levelo://app?vid=76700d02-2858-42b6-ad30-848fb5840b3b","ios":"levelo://app?vid=76700d02-2858-42b6-ad30-848fb5840b3b"},"vehicle_type_id":"4","last_reported":1706299656,"current_range_meters":29200,"station_id":"ce4bgop2rcd13ifvqc1g","pricing_plan_id":"free"},{"bike_id":"f214340b-fc6d-45b4-9d29-cd6d0825c5a2","system_id":"levelo_inurba_marseille","lat":43.322872,"lon":5.382756,"is_reserved":false,"is_disabled":false,"rental_uris":{"android":"levelo://app?vid=f214340b-fc6d-45b4-9d29-cd6d0825c5a2","ios":"levelo://app?vid=f214340b-fc6d-45b4-9d29-cd6d0825c5a2"},"vehicle_type_id":"4","last_reported":1706299656,"current_range_meters":22000,"station_id":"ce4bhr12rcd13ifvqhqg","pricing_plan_id":"free"},{"bike_id":"8889a62b-f08d-43d6-bbc3-74d3cb3d445f","system_id":"levelo_inurba_marseille","lat":43.322872,"lon":5.382756,"is_reserved":false,"is_disabled":false,"rental_uris":{"android":"levelo://app?vid=8889a62b-f08d-43d6-bbc3-74d3cb3d445f","ios":"levelo://app?vid=8889a62b-f08d-43d6-bbc3-74d3cb3d445f"},"vehicle_type_id":"4","last_reported":1706299656,"current_range_meters":31600,"station_id":"ce4bhr12rcd13ifvqhqg","pricing_plan_id":"free"},{"bike_id":"bb5cc78f-0a25-43e2-927a-9d5a0eeb06b6","system_id":"levelo_inurba_marseille","lat":43.32292,"lon":5.38268,"is_reserved":false,"is_disabled":false,"rental_uris":{"android":"levelo://app?vid=bb5cc78f-0a25-43e2-927a-9d5a0eeb06b6","ios":"levelo://app?vid=bb5cc78f-0a25-43e2-927a-9d5a0eeb06b6"},"vehicle_type_id":"4","last_reported":1706299656,"current_range_meters":19600,"station_id":"ce4bhr12rcd13ifvqhqg","pricing_plan_id":"free"},{"bike_id":"954978ec-5c69-45bc-8603-a76c94a9ea2f","system_id":"levelo_inurba_marseille","lat":43.322872,"lon":5.382756,"is_reserved":false,"is_disabled":false,"rental_uris":{"android":"levelo://app?vid=954978ec-5c69-45bc-8603-a76c94a9ea2f","ios":"levelo://app?vid=954978ec-5c69-45bc-8603-a76c94a9ea2f"},"vehicle_type_id":"4","last_reported":1706299656,"current_range_meters":24800,"station_id":"ce4bhr12rcd13ifvqhqg","pricing_plan_id":"free"},{"bike_id":"ef5c6378-e000-405f-ab30-38f17e98c38f","system_id":"levelo_inurba_marseille","lat":43.322872,"lon":5.382756,"is_reserved":false,"is_disabled":false,"rental_uris":{"android":"levelo://app?vid=ef5c6378-e000-405f-ab30-38f17e98c38f","ios":"levelo://app?vid=ef5c6378-e000-405f-ab30-38f17e98c38f"},"vehicle_type_id":"4","last_reported":1706299656,"current_range_meters":14000,"station_id":"ce4bhr12rcd13ifvqhqg","pricing_plan_id":"free"},{"bike_id":"531fcb4a-669a-4e43-9f9f-b21295ec1570","system_id":"levelo_inurba_marseille","lat":43.29706,"lon":5.36611,"is_reserved":false,"is_disabled":false,"rental_uris":{"android":"levelo://app?vid=531fcb4a-669a-4e43-9f9f-b21295ec1570","ios":"levelo://app?vid=531fcb4a-669a-4e43-9f9f-b21295ec1570"},"vehicle_type_id":"4","last_reported":1706299656,"current_range_meters":5600,"station_id":"ce4bgn12rcd13ifvqbt0","pricing_plan_id":"free"},{"bike_id":"335ba0f2-703e-4760-8c97-19ddb643fdcb","system_id":"levelo_inurba_marseille","lat":43.2968,"lon":5.37291,"is_reserved":false,"is_disabled":false,"rental_uris":{"android":"levelo://app?vid=335ba0f2-703e-4760-8c97-19ddb643fdcb","ios":"levelo://app?vid=335ba0f2-703e-4760-8c97-19ddb643fdcb"},"vehicle_type_id":"4","last_reported":1706299656,"current_range_meters":12400,"station_id":"ce4bgk12rcd13ifvqbj0","pricing_plan_id":"free"},{"bike_id":"6fe3a748-b306-4a70-bd02-36b597307af6","system_id":"levelo_inurba_marseille","lat":43.295948,"lon":5.367463,"is_reserved":false,"is_disabled":false,"rental_uris":{"android":"levelo://app?vid=6fe3a748-b306-4a70-bd02-36b597307af6","ios":"levelo://app?vid=6fe3a748-b306-4a70-bd02-36b597307af6"},"vehicle_type_id":"4","last_reported":1706299656,"current_range_meters":19200,"station_id":"","pricing_plan_id":"free"},{"bike_id":"2bfc41ab-6933-4a2b-aa6e-eb0f1765500f","system_id":"levelo_inurba_marseille","lat":43.29748,"lon":5.37668,"is_reserved":false,"is_disabled":false,"rental_uris":{"android":"levelo://app?vid=2bfc41ab-6933-4a2b-aa6e-eb0f1765500f","ios":"levelo://app?vid=2bfc41ab-6933-4a2b-aa6e-eb0f1765500f"},"vehicle_type_id":"4","last_reported":1706299656,"current_range_meters":27600,"station_id":"ce4bhlh2rcd13ifvqgig","pricing_plan_id":"free"},{"bike_id":"1e54a53e-2b82-477b-a63d-69c2e6f6c333","system_id":"levelo_inurba_marseille","lat":43.296131,"lon":5.370791,"is_reserved":false,"is_disabled":false,"rental_uris":{"android":"levelo://app?vid=1e54a53e-2b82-477b-a63d-69c2e6f6c333","ios":"levelo://app?vid=1e54a53e-2b82-477b-a63d-69c2e6f6c333"},"vehicle_type_id":"4","last_reported":1706299656,"current_range_meters":3200,"station_id":"ce4bgnh2rcd13ifvqc0g","pricing_plan_id":"free"},{"bike_id":"6cb34488-bbb4-478f-9ae2-366ef13ddea8","system_id":"levelo_inurba_marseille","lat":43.29573,"lon":5.367355,"is_reserved":false,"is_disabled":false,"rental_uris":{"android":"levelo://app?vid=6cb34488-bbb4-478f-9ae2-366ef13ddea8","ios":"levelo://app?vid=6cb34488-bbb4-478f-9ae2-366ef13ddea8"},"vehicle_type_id":"4","last_reported":1706299656,"current_range_meters":25200,"station_id":"ce4bgph2rcd13ifvqc2g","pricing_plan_id":"free"},{"bike_id":"7a35c7c4-f2b0-4eb0-9738-13a7d3aeea0c","system_id":"levelo_inurba_marseille","lat":43.296921,"lon":5.376579,"is_reserved":false,"is_disabled":false,"rental_uris":{"android":"levelo://app?vid=7a35c7c4-f2b0-4eb0-9738-13a7d3aeea0c","ios":"levelo://app?vid=7a35c7c4-f2b0-4eb0-9738-13a7d3aeea0c"},"vehicle_type_id":"4","last_reported":1706299656,"current_range_meters":4800,"station_id":"ce4bgkh2rcd13ifvqbl0","pricing_plan_id":"free"},{"bike_id":"4b7428c3-88c7-4ef6-a7c8-66a895ddda0e","system_id":"levelo_inurba_marseille","lat":43.29906,"lon":5.38129,"is_reserved":false,"is_disabled":false,"rental_uris":{"android":"levelo://app?vid=4b7428c3-88c7-4ef6-a7c8-66a895ddda0e","ios":"levelo://app?vid=4b7428c3-88c7-4ef6-a7c8-66a895ddda0e"},"vehicle_type_id":"4","last_reported":1706299656,"current_range_meters":0,"station_id":"ce4bgj12rcd13ifvqbc0","pricing_plan_id":"free"},{"bike_id":"0dbc071e-09be-43c3-a007-8cbbcc4ea3e1","system_id":"levelo_inurba_marseille","lat":43.296935,"lon":5.376544,"is_reserved":false,"is_disabled":false,"rental_uris":{"android":"levelo://app?vid=0dbc071e-09be-43c3-a007-8cbbcc4ea3e1","ios":"levelo://app?vid=0dbc071e-09be-43c3-a007-8cbbcc4ea3e1"},"vehicle_type_id":"4","last_reported":1706299656,"current_range_meters":2000,"station_id":"ce4bgkh2rcd13ifvqbl0","pricing_plan_id":"free"},{"bike_id":"3464839f-cce0-4ad9-b7cc-def95e159fce","system_id":"levelo_inurba_marseille","lat":43.299028,"lon":5.381509,"is_reserved":false,"is_disabled":false,"rental_uris":{"android":"levelo://app?vid=3464839f-cce0-4ad9-b7cc-def95e159fce","ios":"levelo://app?vid=3464839f-cce0-4ad9-b7cc-def95e159fce"},"vehicle_type_id":"4","last_reported":1706299656,"current_range_meters":17200,"station_id":"ce4bgj12rcd13ifvqbc0","pricing_plan_id":"free"},{"bike_id":"d1933566-0777-4d37-bbd1-b844df82be9e","system_id":"levelo_inurba_marseille","lat":43.299028,"lon":5.381509,"is_reserved":false,"is_disabled":false,"rental_uris":{"android":"levelo://app?vid=d1933566-0777-4d37-bbd1-b844df82be9e","ios":"levelo://app?vid=d1933566-0777-4d37-bbd1-b844df82be9e"},"vehicle_type_id":"4","last_reported":1706299656,"current_range_meters":10000,"station_id":"ce4bgj12rcd13ifvqbc0","pricing_plan_id":"free"},{"bike_id":"7e6f2d9a-84ac-4027-ba76-dcd007dc3252","system_id":"levelo_inurba_marseille","lat":43.29874,"lon":5.380954,"is_reserved":false,"is_disabled":false,"rental_uris":{"android":"levelo://app?vid=7e6f2d9a-84ac-4027-ba76-dcd007dc3252","ios":"levelo://app?vid=7e6f2d9a-84ac-4027-ba76-dcd007dc3252"},"vehicle_type_id":"4","last_reported":1706299656,"current_range_meters":0,"station_id":"","pricing_plan_id":"free"},{"bike_id":"9eee8bba-9f6c-4442-90f7-b9b7f8a147bb","system_id":"levelo_inurba_marseille","lat":43.317557,"lon":5.390173,"is_reserved":false,"is_disabled":false,"rental_uris":{"android":"levelo://app?vid=9eee8bba-9f6c-4442-90f7-b9b7f8a147bb","ios":"levelo://app?vid=9eee8bba-9f6c-4442-90f7-b9b7f8a147bb"},"vehicle_type_id":"4","last_reported":1706299656,"current_range_meters":22400,"station_id":"ce4bhqp2rcd13ifvqhng","pricing_plan_id":"free"},{"bike_id":"af9f98fc-1b38-483c-9bb8-cf5dbd0ec1e8","system_id":"levelo_inurba_marseille","lat":43.317557,"lon":5.390173,"is_reserved":false,"is_disabled":false,"rental_uris":{"android":"levelo://app?vid=af9f98fc-1b38-483c-9bb8-cf5dbd0ec1e8","ios":"levelo://app?vid=af9f98fc-1b38-483c-9bb8-cf5dbd0ec1e8"},"vehicle_type_id":"4","last_reported":1706299656,"current_range_meters":26400,"station_id":"ce4bhqp2rcd13ifvqhng","pricing_plan_id":"free"},{"bike_id":"110504c4-9181-4917-abad-9a87ed972aeb","system_id":"levelo_inurba_marseille","lat":43.317557,"lon":5.390173,"is_reserved":false,"is_disabled":false,"rental_uris":{"android":"levelo://app?vid=110504c4-9181-4917-abad-9a87ed972aeb","ios":"levelo://app?vid=110504c4-9181-4917-abad-9a87ed972aeb"},"vehicle_type_id":"4","last_reported":1706299656,"current_range_meters":6000,"station_id":"ce4bhqp2rcd13ifvqhng","pricing_plan_id":"free"},{"bike_id":"38f4fd9b-b63f-4bd1-9189-95f6d1ddadd3","system_id":"levelo_inurba_marseille","lat":43.317557,"lon":5.390173,"is_reserved":false,"is_disabled":false,"rental_uris":{"android":"levelo://app?vid=38f4fd9b-b63f-4bd1-9189-95f6d1ddadd3","ios":"levelo://app?vid=38f4fd9b-b63f-4bd1-9189-95f6d1ddadd3"},"vehicle_type_id":"4","last_reported":1706299656,"current_range_meters":21600,"station_id":"ce4bhqp2rcd13ifvqhng","pricing_plan_id":"free"},{"bike_id":"0f595ef8-b51a-4472-959d-bab2e4ed27f5","system_id":"levelo_inurba_marseille","lat":43.317557,"lon":5.390173,"is_reserved":false,"is_disabled":false,"rental_uris":{"android":"levelo://app?vid=0f595ef8-b51a-4472-959d-bab2e4ed27f5","ios":"levelo://app?vid=0f595ef8-b51a-4472-959d-bab2e4ed27f5"},"vehicle_type_id":"4","last_reported":1706299656,"current_range_meters":6800,"station_id":"ce4bhqp2rcd13ifvqhng","pricing_plan_id":"free"},{"bike_id":"39475547-4374-426a-84c3-16554e0c49d2","system_id":"levelo_inurba_marseille","lat":43.317557,"lon":5.390173,"is_reserved":false,"is_disabled":false,"rental_uris":{"android":"levelo://app?vid=39475547-4374-426a-84c3-16554e0c49d2","ios":"levelo://app?vid=39475547-4374-426a-84c3-16554e0c49d2"},"vehicle_type_id":"4","last_reported":1706299656,"current_range_meters":3600,"station_id":"ce4bhqp2rcd13ifvqhng","pricing_plan_id":"free"},{"bike_id":"48bd6dd4-c622-4b05-829b-84f4cd7f8ef7","system_id":"levelo_inurba_marseille","lat":43.298006,"lon":5.380893,"is_reserved":false,"is_disabled":false,"rental_uris":{"android":"levelo://app?vid=48bd6dd4-c622-4b05-829b-84f4cd7f8ef7","ios":"levelo://app?vid=48bd6dd4-c622-4b05-829b-84f4cd7f8ef7"},"vehicle_type_id":"4","last_reported":1706299656,"current_range_meters":0,"station_id":"ce4bgip2rcd13ifvqbb0","pricing_plan_id":"free"},{"bike_id":"aed810f3-dc8c-4e57-bddb-00392f635724","system_id":"levelo_inurba_marseille","lat":43.298037,"lon":5.381066,"is_reserved":false,"is_disabled":false,"rental_uris":{"android":"levelo://app?vid=aed810f3-dc8c-4e57-bddb-00392f635724","ios":"levelo://app?vid=aed810f3-dc8c-4e57-bddb-00392f635724"},"vehicle_type_id":"4","last_reported":1706299656,"current_range_meters":10000,"station_id":"ce4bgip2rcd13ifvqbb0","pricing_plan_id":"free"},{"bike_id":"aab738d4-d1d6-4749-93c8-708b2b2a0c01","system_id":"levelo_inurba_marseille","lat":43.30432,"lon":5.38885,"is_reserved":false,"is_disabled":false,"rental_uris":{"android":"levelo://app?vid=aab738d4-d1d6-4749-93c8-708b2b2a0c01","ios":"levelo://app?vid=aab738d4-d1d6-4749-93c8-708b2b2a0c01"},"vehicle_type_id":"4","last_reported":1706299656,"current_range_meters":1200,"station_id":"ce4bgk12rcd13ifvqbi0","pricing_plan_id":"free"},{"bike_id":"e6d95caa-6679-41f8-872b-37f88d3aed4e","system_id":"levelo_inurba_marseille","lat":43.30428,"lon":5.38886,"is_reserved":false,"is_disabled":false,"rental_uris":{"android":"levelo://app?vid=e6d95caa-6679-41f8-872b-37f88d3aed4e","ios":"levelo://app?vid=e6d95caa-6679-41f8-872b-37f88d3aed4e"},"vehicle_type_id":"4","last_reported":1706299656,"current_range_meters":12400,"station_id":"ce4bgk12rcd13ifvqbi0","pricing_plan_id":"free"},{"bike_id":"5aaf6aff-1bfd-4043-bc5a-c5a1b6083666","system_id":"levelo_inurba_marseille","lat":43.30433,"lon":5.3889,"is_reserved":false,"is_disabled":false,"rental_uris":{"android":"levelo://app?vid=5aaf6aff-1bfd-4043-bc5a-c5a1b6083666","ios":"levelo://app?vid=5aaf6aff-1bfd-4043-bc5a-c5a1b6083666"},"vehicle_type_id":"4","last_reported":1706299656,"current_range_meters":0,"station_id":"ce4bgk12rcd13ifvqbi0","pricing_plan_id":"free"},{"bike_id":"7e582ba8-4001-445a-9e3a-7708340d357e","system_id":"levelo_inurba_marseille","lat":43.304274,"lon":5.388873,"is_reserved":false,"is_disabled":false,"rental_uris":{"android":"levelo://app?vid=7e582ba8-4001-445a-9e3a-7708340d357e","ios":"levelo://app?vid=7e582ba8-4001-445a-9e3a-7708340d357e"},"vehicle_type_id":"4","last_reported":1706299656,"current_range_meters":4400,"station_id":"ce4bgk12rcd13ifvqbi0","pricing_plan_id":"free"},{"bike_id":"2f7d147d-4a65-49e5-a99a-25161030f302","system_id":"levelo_inurba_marseille","lat":43.29788,"lon":5.38111,"is_reserved":false,"is_disabled":false,"rental_uris":{"android":"levelo://app?vid=2f7d147d-4a65-49e5-a99a-25161030f302","ios":"levelo://app?vid=2f7d147d-4a65-49e5-a99a-25161030f302"},"vehicle_type_id":"4","last_reported":1706299656,"current_range_meters":400,"station_id":"ce4bgip2rcd13ifvqbb0","pricing_plan_id":"free"},{"bike_id":"b77c5149-c103-4013-b724-b70bb036a386","system_id":"levelo_inurba_marseille","lat":43.304278,"lon":5.388868,"is_reserved":false,"is_disabled":false,"rental_uris":{"android":"levelo://app?vid=b77c5149-c103-4013-b724-b70bb036a386","ios":"levelo://app?vid=b77c5149-c103-4013-b724-b70bb036a386"},"vehicle_type_id":"4","last_reported":1706299656,"current_range_meters":12400,"station_id":"ce4bgk12rcd13ifvqbi0","pricing_plan_id":"free"},{"bike_id":"4fc1c49a-285e-454b-bc05-fc91fe3e40d4","system_id":"levelo_inurba_marseille","lat":43.295279,"lon":5.375048,"is_reserved":false,"is_disabled":false,"rental_uris":{"android":"levelo://app?vid=4fc1c49a-285e-454b-bc05-fc91fe3e40d4","ios":"levelo://app?vid=4fc1c49a-285e-454b-bc05-fc91fe3e40d4"},"vehicle_type_id":"4","last_reported":1706299656,"current_range_meters":9600,"station_id":"ce4bgkp2rcd13ifvqbmg","pricing_plan_id":"free"},{"bike_id":"46970964-dd39-4812-88af-6b6f5e23404a","system_id":"levelo_inurba_marseille","lat":43.295279,"lon":5.375048,"is_reserved":false,"is_disabled":false,"rental_uris":{"android":"levelo://app?vid=46970964-dd39-4812-88af-6b6f5e23404a","ios":"levelo://app?vid=46970964-dd39-4812-88af-6b6f5e23404a"},"vehicle_type_id":"4","last_reported":1706299656,"current_range_meters":12400,"station_id":"ce4bgkp2rcd13ifvqbmg","pricing_plan_id":"free"},{"bike_id":"bfc0b8e6-10eb-4eff-ba0b-e49b953bc098","system_id":"levelo_inurba_marseille","lat":43.299717,"lon":5.384845,"is_reserved":false,"is_disabled":false,"rental_uris":{"android":"levelo://app?vid=bfc0b8e6-10eb-4eff-ba0b-e49b953bc098","ios":"levelo://app?vid=bfc0b8e6-10eb-4eff-ba0b-e49b953bc098"},"vehicle_type_id":"4","last_reported":1706299656,"current_range_meters":4800,"station_id":"ce4bgj92rcd13ifvqbd0","pricing_plan_id":"free"},{"bike_id":"189c52b6-1101-4eba-aab0-23419d026b4d","system_id":"levelo_inurba_marseille","lat":43.29971,"lon":5.38504,"is_reserved":false,"is_disabled":false,"rental_uris":{"android":"levelo://app?vid=189c52b6-1101-4eba-aab0-23419d026b4d","ios":"levelo://app?vid=189c52b6-1101-4eba-aab0-23419d026b4d"},"vehicle_type_id":"4","last_reported":1706299656,"current_range_meters":0,"station_id":"ce4bgj92rcd13ifvqbd0","pricing_plan_id":"free"},{"bike_id":"be733fc9-cdd8-46c0-9eed-bd117f02fb98","system_id":"levelo_inurba_marseille","lat":43.299724,"lon":5.384848,"is_reserved":false,"is_disabled":false,"rental_uris":{"android":"levelo://app?vid=be733fc9-cdd8-46c0-9eed-bd117f02fb98","ios":"levelo://app?vid=be733fc9-cdd8-46c0-9eed-bd117f02fb98"},"vehicle_type_id":"4","last_reported":1706299656,"current_range_meters":400,"station_id":"ce4bgj92rcd13ifvqbd0","pricing_plan_id":"free"},{"bike_id":"bd48da63-8906-4fc2-aab7-3c71898cfd07","system_id":"levelo_inurba_marseille","lat":43.295279,"lon":5.375048,"is_reserved":false,"is_disabled":false,"rental_uris":{"android":"levelo://app?vid=bd48da63-8906-4fc2-aab7-3c71898cfd07","ios":"levelo://app?vid=bd48da63-8906-4fc2-aab7-3c71898cfd07"},"vehicle_type_id":"4","last_reported":1706299656,"current_range_meters":18400,"station_id":"ce4bgkp2rcd13ifvqbmg","pricing_plan_id":"free"},{"bike_id":"db0d1648-33c4-4387-b350-e9354e0d85eb","system_id":"levelo_inurba_marseille","lat":43.299724,"lon":5.384848,"is_reserved":false,"is_disabled":false,"rental_uris":{"android":"levelo://app?vid=db0d1648-33c4-4387-b350-e9354e0d85eb","ios":"levelo://app?vid=db0d1648-33c4-4387-b350-e9354e0d85eb"},"vehicle_type_id":"4","last_reported":1706299656,"current_range_meters":3600,"station_id":"ce4bgj92rcd13ifvqbd0","pricing_plan_id":"free"},{"bike_id":"40996b4a-fac6-4cc2-a8e8-9a9ba72f10c9","system_id":"levelo_inurba_marseille","lat":43.298614,"lon":5.383962,"is_reserved":false,"is_disabled":false,"rental_uris":{"android":"levelo://app?vid=40996b4a-fac6-4cc2-a8e8-9a9ba72f10c9","ios":"levelo://app?vid=40996b4a-fac6-4cc2-a8e8-9a9ba72f10c9"},"vehicle_type_id":"4","last_reported":1706299656,"current_range_meters":11600,"station_id":"","pricing_plan_id":"free"},{"bike_id":"0ea3fd81-3f73-43eb-a24e-cc7fa2617f9d","system_id":"levelo_inurba_marseille","lat":43.32367,"lon":5.388836,"is_reserved":false,"is_disabled":false,"rental_uris":{"android":"levelo://app?vid=0ea3fd81-3f73-43eb-a24e-cc7fa2617f9d","ios":"levelo://app?vid=0ea3fd81-3f73-43eb-a24e-cc7fa2617f9d"},"vehicle_type_id":"4","last_reported":1706299656,"current_range_meters":7600,"station_id":"ce4bhqp2rcd13ifvqhog","pricing_plan_id":"free"},{"bike_id":"d7803bed-fb47-4ba6-b32d-728fc496b369","system_id":"levelo_inurba_marseille","lat":43.32367,"lon":5.388836,"is_reserved":false,"is_disabled":false,"rental_uris":{"android":"levelo://app?vid=d7803bed-fb47-4ba6-b32d-728fc496b369","ios":"levelo://app?vid=d7803bed-fb47-4ba6-b32d-728fc496b369"},"vehicle_type_id":"4","last_reported":1706299656,"current_range_meters":16800,"station_id":"ce4bhqp2rcd13ifvqhog","pricing_plan_id":"free"},{"bike_id":"cec4ad59-07b9-4fac-98fd-7e0e4d5c0fc2","system_id":"levelo_inurba_marseille","lat":43.32367,"lon":5.388836,"is_reserved":false,"is_disabled":false,"rental_uris":{"android":"levelo://app?vid=cec4ad59-07b9-4fac-98fd-7e0e4d5c0fc2","ios":"levelo://app?vid=cec4ad59-07b9-4fac-98fd-7e0e4d5c0fc2"},"vehicle_type_id":"4","last_reported":1706299656,"current_range_meters":13200,"station_id":"ce4bhqp2rcd13ifvqhog","pricing_plan_id":"free"},{"bike_id":"def703ed-e78e-4412-a809-c10b7fb945a5","system_id":"levelo_inurba_marseille","lat":43.323707,"lon":5.388826,"is_reserved":false,"is_disabled":false,"rental_uris":{"android":"levelo://app?vid=def703ed-e78e-4412-a809-c10b7fb945a5","ios":"levelo://app?vid=def703ed-e78e-4412-a809-c10b7fb945a5"},"vehicle_type_id":"4","last_reported":1706299656,"current_range_meters":27600,"station_id":"ce4bhqp2rcd13ifvqhog","pricing_plan_id":"free"},{"bike_id":"439458f2-c468-43ac-8531-4372a5b8883a","system_id":"levelo_inurba_marseille","lat":43.32367,"lon":5.388836,"is_reserved":false,"is_disabled":false,"rental_uris":{"android":"levelo://app?vid=439458f2-c468-43ac-8531-4372a5b8883a","ios":"levelo://app?vid=439458f2-c468-43ac-8531-4372a5b8883a"},"vehicle_type_id":"4","last_reported":1706299656,"current_range_meters":21200,"station_id":"ce4bhqp2rcd13ifvqhog","pricing_plan_id":"free"},{"bike_id":"6d4e98a9-3b8c-4251-9bc4-f50fadfe25a7","system_id":"levelo_inurba_marseille","lat":43.32364,"lon":5.38891,"is_reserved":false,"is_disabled":false,"rental_uris":{"android":"levelo://app?vid=6d4e98a9-3b8c-4251-9bc4-f50fadfe25a7","ios":"levelo://app?vid=6d4e98a9-3b8c-4251-9bc4-f50fadfe25a7"},"vehicle_type_id":"4","last_reported":1706299656,"current_range_meters":23600,"station_id":"ce4bhqp2rcd13ifvqhog","pricing_plan_id":"free"},{"bike_id":"88314718-833e-475a-a240-5fe2254089d1","system_id":"levelo_inurba_marseille","lat":43.29601,"lon":5.381084,"is_reserved":false,"is_disabled":false,"rental_uris":{"android":"levelo://app?vid=88314718-833e-475a-a240-5fe2254089d1","ios":"levelo://app?vid=88314718-833e-475a-a240-5fe2254089d1"},"vehicle_type_id":"4","last_reported":1706299656,"current_range_meters":1200,"station_id":"ce4bgl12rcd13ifvqbo0","pricing_plan_id":"free"},{"bike_id":"a3835b29-1424-4434-8e97-dcf056394740","system_id":"levelo_inurba_marseille","lat":43.29601,"lon":5.381084,"is_reserved":false,"is_disabled":false,"rental_uris":{"android":"levelo://app?vid=a3835b29-1424-4434-8e97-dcf056394740","ios":"levelo://app?vid=a3835b29-1424-4434-8e97-dcf056394740"},"vehicle_type_id":"4","last_reported":1706299656,"current_range_meters":9200,"station_id":"ce4bgl12rcd13ifvqbo0","pricing_plan_id":"free"},{"bike_id":"47daba10-0807-49e7-a2b0-61625eb0581e","system_id":"levelo_inurba_marseille","lat":43.29602,"lon":5.381084,"is_reserved":false,"is_disabled":false,"rental_uris":{"android":"levelo://app?vid=47daba10-0807-49e7-a2b0-61625eb0581e","ios":"levelo://app?vid=47daba10-0807-49e7-a2b0-61625eb0581e"},"vehicle_type_id":"4","last_reported":1706299656,"current_range_meters":25200,"station_id":"ce4bgl12rcd13ifvqbo0","pricing_plan_id":"free"},{"bike_id":"b55b4daa-30ca-4b54-9209-12a99697a5c4","system_id":"levelo_inurba_marseille","lat":43.29602,"lon":5.381084,"is_reserved":false,"is_disabled":false,"rental_uris":{"android":"levelo://app?vid=b55b4daa-30ca-4b54-9209-12a99697a5c4","ios":"levelo://app?vid=b55b4daa-30ca-4b54-9209-12a99697a5c4"},"vehicle_type_id":"4","last_reported":1706299656,"current_range_meters":17600,"station_id":"ce4bgl12rcd13ifvqbo0","pricing_plan_id":"free"},{"bike_id":"890f54b3-9819-4b96-93c2-3e519609f59f","system_id":"levelo_inurba_marseille","lat":43.29598,"lon":5.38108,"is_reserved":false,"is_disabled":false,"rental_uris":{"android":"levelo://app?vid=890f54b3-9819-4b96-93c2-3e519609f59f","ios":"levelo://app?vid=890f54b3-9819-4b96-93c2-3e519609f59f"},"vehicle_type_id":"4","last_reported":1706299656,"current_range_meters":2800,"station_id":"ce4bgl12rcd13ifvqbo0","pricing_plan_id":"free"},{"bike_id":"1fd2498e-5a67-4d28-b7a7-9f1e9b787e69","system_id":"levelo_inurba_marseille","lat":43.29306,"lon":5.37169,"is_reserved":false,"is_disabled":false,"rental_uris":{"android":"levelo://app?vid=1fd2498e-5a67-4d28-b7a7-9f1e9b787e69","ios":"levelo://app?vid=1fd2498e-5a67-4d28-b7a7-9f1e9b787e69"},"vehicle_type_id":"4","last_reported":1706299656,"current_range_meters":14000,"station_id":"ce4bgh92rcd13ifvqb40","pricing_plan_id":"free"},{"bike_id":"ac29c72d-7d3a-475c-a89f-544a686ceac3","system_id":"levelo_inurba_marseille","lat":43.29306,"lon":5.37175,"is_reserved":false,"is_disabled":false,"rental_uris":{"android":"levelo://app?vid=ac29c72d-7d3a-475c-a89f-544a686ceac3","ios":"levelo://app?vid=ac29c72d-7d3a-475c-a89f-544a686ceac3"},"vehicle_type_id":"4","last_reported":1706299656,"current_range_meters":1200,"station_id":"ce4bgh92rcd13ifvqb40","pricing_plan_id":"free"},{"bike_id":"28eea537-9e3b-4bd1-ba84-24ead2f61096","system_id":"levelo_inurba_marseille","lat":43.29307,"lon":5.37187,"is_reserved":false,"is_disabled":false,"rental_uris":{"android":"levelo://app?vid=28eea537-9e3b-4bd1-ba84-24ead2f61096","ios":"levelo://app?vid=28eea537-9e3b-4bd1-ba84-24ead2f61096"},"vehicle_type_id":"4","last_reported":1706299656,"current_range_meters":18400,"station_id":"ce4bgh92rcd13ifvqb40","pricing_plan_id":"free"},{"bike_id":"b4be59da-49d2-4507-80f6-5795cae50be1","system_id":"levelo_inurba_marseille","lat":43.292749,"lon":5.368402,"is_reserved":false,"is_disabled":false,"rental_uris":{"android":"levelo://app?vid=b4be59da-49d2-4507-80f6-5795cae50be1","ios":"levelo://app?vid=b4be59da-49d2-4507-80f6-5795cae50be1"},"vehicle_type_id":"4","last_reported":1706299656,"current_range_meters":8800,"station_id":"ce4bhbp2rcd13ifvqesg","pricing_plan_id":"free"},{"bike_id":"219f9714-3dc3-4436-b526-18a57c8f747d","system_id":"levelo_inurba_marseille","lat":43.292749,"lon":5.368398,"is_reserved":false,"is_disabled":false,"rental_uris":{"android":"levelo://app?vid=219f9714-3dc3-4436-b526-18a57c8f747d","ios":"levelo://app?vid=219f9714-3dc3-4436-b526-18a57c8f747d"},"vehicle_type_id":"4","last_reported":1706299656,"current_range_meters":24000,"station_id":"ce4bhbp2rcd13ifvqesg","pricing_plan_id":"free"},{"bike_id":"b211ecbb-21ab-4507-b1ac-de02d710fe8e","system_id":"levelo_inurba_marseille","lat":43.292749,"lon":5.368398,"is_reserved":false,"is_disabled":false,"rental_uris":{"android":"levelo://app?vid=b211ecbb-21ab-4507-b1ac-de02d710fe8e","ios":"levelo://app?vid=b211ecbb-21ab-4507-b1ac-de02d710fe8e"},"vehicle_type_id":"4","last_reported":1706299656,"current_range_meters":8000,"station_id":"ce4bhbp2rcd13ifvqesg","pricing_plan_id":"free"},{"bike_id":"9ad7e9a9-9036-476e-85db-36b4d8aba7e5","system_id":"levelo_inurba_marseille","lat":43.29271,"lon":5.36844,"is_reserved":false,"is_disabled":false,"rental_uris":{"android":"levelo://app?vid=9ad7e9a9-9036-476e-85db-36b4d8aba7e5","ios":"levelo://app?vid=9ad7e9a9-9036-476e-85db-36b4d8aba7e5"},"vehicle_type_id":"4","last_reported":1706299656,"current_range_meters":0,"station_id":"ce4bhbp2rcd13ifvqesg","pricing_plan_id":"free"},{"bike_id":"1a646f1d-cbf7-4940-b996-9a5b858bd5f6","system_id":"levelo_inurba_marseille","lat":43.29296,"lon":5.37163,"is_reserved":false,"is_disabled":false,"rental_uris":{"android":"levelo://app?vid=1a646f1d-cbf7-4940-b996-9a5b858bd5f6","ios":"levelo://app?vid=1a646f1d-cbf7-4940-b996-9a5b858bd5f6"},"vehicle_type_id":"4","last_reported":1706299656,"current_range_meters":27600,"station_id":"ce4bgh92rcd13ifvqb40","pricing_plan_id":"free"},{"bike_id":"793362eb-d5a1-4d25-a99b-81f5fbe715c1","system_id":"levelo_inurba_marseille","lat":43.29298,"lon":5.37181,"is_reserved":false,"is_disabled":false,"rental_uris":{"android":"levelo://app?vid=793362eb-d5a1-4d25-a99b-81f5fbe715c1","ios":"levelo://app?vid=793362eb-d5a1-4d25-a99b-81f5fbe715c1"},"vehicle_type_id":"4","last_reported":1706299656,"current_range_meters":20000,"station_id":"ce4bgh92rcd13ifvqb40","pricing_plan_id":"free"},{"bike_id":"98515c28-1437-494c-b5ce-b5155777ce45","system_id":"levelo_inurba_marseille","lat":43.292749,"lon":5.368402,"is_reserved":false,"is_disabled":false,"rental_uris":{"android":"levelo://app?vid=98515c28-1437-494c-b5ce-b5155777ce45","ios":"levelo://app?vid=98515c28-1437-494c-b5ce-b5155777ce45"},"vehicle_type_id":"4","last_reported":1706299656,"current_range_meters":24000,"station_id":"ce4bhbp2rcd13ifvqesg","pricing_plan_id":"free"},{"bike_id":"0316f98f-f5f6-436f-9435-886832a2879d","system_id":"levelo_inurba_marseille","lat":43.293047,"lon":5.374719,"is_reserved":false,"is_disabled":false,"rental_uris":{"android":"levelo://app?vid=0316f98f-f5f6-436f-9435-886832a2879d","ios":"levelo://app?vid=0316f98f-f5f6-436f-9435-886832a2879d"},"vehicle_type_id":"4","last_reported":1706299656,"current_range_meters":0,"station_id":"ce4bgi12rcd13ifvqb70","pricing_plan_id":"free"},{"bike_id":"33f225c8-a35c-42ad-bbca-26e55389d8df","system_id":"levelo_inurba_marseille","lat":43.293009,"lon":5.374584,"is_reserved":false,"is_disabled":false,"rental_uris":{"android":"levelo://app?vid=33f225c8-a35c-42ad-bbca-26e55389d8df","ios":"levelo://app?vid=33f225c8-a35c-42ad-bbca-26e55389d8df"},"vehicle_type_id":"4","last_reported":1706299656,"current_range_meters":25200,"station_id":"ce4bgi12rcd13ifvqb70","pricing_plan_id":"free"},{"bike_id":"643aaaed-8611-4c66-a2a5-233bfe0c35d4","system_id":"levelo_inurba_marseille","lat":43.2936,"lon":5.37835,"is_reserved":false,"is_disabled":false,"rental_uris":{"android":"levelo://app?vid=643aaaed-8611-4c66-a2a5-233bfe0c35d4","ios":"levelo://app?vid=643aaaed-8611-4c66-a2a5-233bfe0c35d4"},"vehicle_type_id":"4","last_reported":1706299656,"current_range_meters":6800,"station_id":"ce4bgjh2rcd13ifvqbf0","pricing_plan_id":"free"},{"bike_id":"21ad017d-fab2-46ef-8788-a128caad2db0","system_id":"levelo_inurba_marseille","lat":43.30304,"lon":5.39214,"is_reserved":false,"is_disabled":false,"rental_uris":{"android":"levelo://app?vid=21ad017d-fab2-46ef-8788-a128caad2db0","ios":"levelo://app?vid=21ad017d-fab2-46ef-8788-a128caad2db0"},"vehicle_type_id":"4","last_reported":1706299656,"current_range_meters":0,"station_id":"ce4bgkh2rcd13ifvqbk0","pricing_plan_id":"free"},{"bike_id":"06b0b3e7-e39f-4bc9-a8a9-098ae58d44f5","system_id":"levelo_inurba_marseille","lat":43.2936,"lon":5.37835,"is_reserved":false,"is_disabled":false,"rental_uris":{"android":"levelo://app?vid=06b0b3e7-e39f-4bc9-a8a9-098ae58d44f5","ios":"levelo://app?vid=06b0b3e7-e39f-4bc9-a8a9-098ae58d44f5"},"vehicle_type_id":"4","last_reported":1706299656,"current_range_meters":6400,"station_id":"ce4bgjh2rcd13ifvqbf0","pricing_plan_id":"free"},{"bike_id":"33eb5899-2263-4601-8070-0871b2140d8c","system_id":"levelo_inurba_marseille","lat":43.292311,"lon":5.360731,"is_reserved":false,"is_disabled":false,"rental_uris":{"android":"levelo://app?vid=33eb5899-2263-4601-8070-0871b2140d8c","ios":"levelo://app?vid=33eb5899-2263-4601-8070-0871b2140d8c"},"vehicle_type_id":"4","last_reported":1706299656,"current_range_meters":0,"station_id":"ce4bhbh2rcd13ifvqeqg","pricing_plan_id":"free"},{"bike_id":"2369311b-b59b-4143-9d3a-a733a5f59acf","system_id":"levelo_inurba_marseille","lat":43.30085,"lon":5.390856,"is_reserved":false,"is_disabled":false,"rental_uris":{"android":"levelo://app?vid=2369311b-b59b-4143-9d3a-a733a5f59acf","ios":"levelo://app?vid=2369311b-b59b-4143-9d3a-a733a5f59acf"},"vehicle_type_id":"4","last_reported":1706299656,"current_range_meters":31200,"station_id":"ce4bh192rcd13ifvqdb0","pricing_plan_id":"free"},{"bike_id":"24fed3b8-8057-4c6e-8131-bbfde72d6af7","system_id":"levelo_inurba_marseille","lat":43.300852,"lon":5.390859,"is_reserved":false,"is_disabled":false,"rental_uris":{"android":"levelo://app?vid=24fed3b8-8057-4c6e-8131-bbfde72d6af7","ios":"levelo://app?vid=24fed3b8-8057-4c6e-8131-bbfde72d6af7"},"vehicle_type_id":"4","last_reported":1706299656,"current_range_meters":2400,"station_id":"ce4bh192rcd13ifvqdb0","pricing_plan_id":"free"},{"bike_id":"3b8653fc-67e7-4776-bc7b-660c132a996c","system_id":"levelo_inurba_marseille","lat":43.300852,"lon":5.390859,"is_reserved":false,"is_disabled":false,"rental_uris":{"android":"levelo://app?vid=3b8653fc-67e7-4776-bc7b-660c132a996c","ios":"levelo://app?vid=3b8653fc-67e7-4776-bc7b-660c132a996c"},"vehicle_type_id":"4","last_reported":1706299656,"current_range_meters":8000,"station_id":"ce4bh192rcd13ifvqdb0","pricing_plan_id":"free"},{"bike_id":"f43bc4b9-69b4-4c2e-a7f1-390317b11d36","system_id":"levelo_inurba_marseille","lat":43.29261,"lon":5.37627,"is_reserved":false,"is_disabled":false,"rental_uris":{"android":"levelo://app?vid=f43bc4b9-69b4-4c2e-a7f1-390317b11d36","ios":"levelo://app?vid=f43bc4b9-69b4-4c2e-a7f1-390317b11d36"},"vehicle_type_id":"4","last_reported":1706299656,"current_range_meters":20000,"station_id":"ce4bgi12rcd13ifvqb70","pricing_plan_id":"free"},{"bike_id":"13cf27f8-28f9-4b4a-b5e8-82b20cc64a86","system_id":"levelo_inurba_marseille","lat":43.291748,"lon":5.371475,"is_reserved":false,"is_disabled":false,"rental_uris":{"android":"levelo://app?vid=13cf27f8-28f9-4b4a-b5e8-82b20cc64a86","ios":"levelo://app?vid=13cf27f8-28f9-4b4a-b5e8-82b20cc64a86"},"vehicle_type_id":"4","last_reported":1706299656,"current_range_meters":0,"station_id":"ce4bha92rcd13ifvqeh0","pricing_plan_id":"free"},{"bike_id":"3be0c18f-b3f5-46e6-abd2-d39de10e8972","system_id":"levelo_inurba_marseille","lat":43.298764,"lon":5.388973,"is_reserved":false,"is_disabled":false,"rental_uris":{"android":"levelo://app?vid=3be0c18f-b3f5-46e6-abd2-d39de10e8972","ios":"levelo://app?vid=3be0c18f-b3f5-46e6-abd2-d39de10e8972"},"vehicle_type_id":"4","last_reported":1706299656,"current_range_meters":5600,"station_id":"ce4bh392rcd13ifvqdl0","pricing_plan_id":"free"},{"bike_id":"2cdd5039-e8ec-441b-9bd5-4c34b690b828","system_id":"levelo_inurba_marseille","lat":43.304939,"lon":5.394221,"is_reserved":false,"is_disabled":false,"rental_uris":{"android":"levelo://app?vid=2cdd5039-e8ec-441b-9bd5-4c34b690b828","ios":"levelo://app?vid=2cdd5039-e8ec-441b-9bd5-4c34b690b828"},"vehicle_type_id":"4","last_reported":1706299656,"current_range_meters":23200,"station_id":"","pricing_plan_id":"free"},{"bike_id":"2ff442e1-ccae-43ea-a89f-204bbe126ba9","system_id":"levelo_inurba_marseille","lat":43.291671,"lon":5.371575,"is_reserved":false,"is_disabled":false,"rental_uris":{"android":"levelo://app?vid=2ff442e1-ccae-43ea-a89f-204bbe126ba9","ios":"levelo://app?vid=2ff442e1-ccae-43ea-a89f-204bbe126ba9"},"vehicle_type_id":"4","last_reported":1706299656,"current_range_meters":1600,"station_id":"ce4bha92rcd13ifvqeh0","pricing_plan_id":"free"},{"bike_id":"d07d5d9a-c544-45d5-884a-cf3813237415","system_id":"levelo_inurba_marseille","lat":43.298764,"lon":5.388973,"is_reserved":false,"is_disabled":false,"rental_uris":{"android":"levelo://app?vid=d07d5d9a-c544-45d5-884a-cf3813237415","ios":"levelo://app?vid=d07d5d9a-c544-45d5-884a-cf3813237415"},"vehicle_type_id":"4","last_reported":1706299656,"current_range_meters":0,"station_id":"ce4bh392rcd13ifvqdl0","pricing_plan_id":"free"},{"bike_id":"09034d29-bd11-43d9-a640-3dee314c0041","system_id":"levelo_inurba_marseille","lat":43.313291,"lon":5.396838,"is_reserved":false,"is_disabled":false,"rental_uris":{"android":"levelo://app?vid=09034d29-bd11-43d9-a640-3dee314c0041","ios":"levelo://app?vid=09034d29-bd11-43d9-a640-3dee314c0041"},"vehicle_type_id":"4","last_reported":1706299656,"current_range_meters":0,"station_id":"ce4bgvp2rcd13ifvqcu0","pricing_plan_id":"free"},{"bike_id":"369e753e-7c68-4bfe-9c1f-cd895e783f9d","system_id":"levelo_inurba_marseille","lat":43.309038,"lon":5.396546,"is_reserved":false,"is_disabled":false,"rental_uris":{"android":"levelo://app?vid=369e753e-7c68-4bfe-9c1f-cd895e783f9d","ios":"levelo://app?vid=369e753e-7c68-4bfe-9c1f-cd895e783f9d"},"vehicle_type_id":"4","last_reported":1706299656,"current_range_meters":18000,"station_id":"ce4bh012rcd13ifvqcv0","pricing_plan_id":"free"},{"bike_id":"5b90f9da-f150-444c-94a9-f6da3087b223","system_id":"levelo_inurba_marseille","lat":43.313291,"lon":5.396838,"is_reserved":false,"is_disabled":false,"rental_uris":{"android":"levelo://app?vid=5b90f9da-f150-444c-94a9-f6da3087b223","ios":"levelo://app?vid=5b90f9da-f150-444c-94a9-f6da3087b223"},"vehicle_type_id":"4","last_reported":1706299656,"current_range_meters":2800,"station_id":"ce4bgvp2rcd13ifvqcu0","pricing_plan_id":"free"},{"bike_id":"ffc28483-dae3-4b0a-b84a-e03c20a11034","system_id":"levelo_inurba_marseille","lat":43.29535,"lon":5.38546,"is_reserved":false,"is_disabled":false,"rental_uris":{"android":"levelo://app?vid=ffc28483-dae3-4b0a-b84a-e03c20a11034","ios":"levelo://app?vid=ffc28483-dae3-4b0a-b84a-e03c20a11034"},"vehicle_type_id":"4","last_reported":1706299656,"current_range_meters":0,"station_id":"ce4bgih2rcd13ifvqba0","pricing_plan_id":"free"},{"bike_id":"b9380087-074b-4318-8fb6-5ea4ac3531be","system_id":"levelo_inurba_marseille","lat":43.29529,"lon":5.385581,"is_reserved":false,"is_disabled":false,"rental_uris":{"android":"levelo://app?vid=b9380087-074b-4318-8fb6-5ea4ac3531be","ios":"levelo://app?vid=b9380087-074b-4318-8fb6-5ea4ac3531be"},"vehicle_type_id":"4","last_reported":1706299656,"current_range_meters":27600,"station_id":"ce4bgih2rcd13ifvqba0","pricing_plan_id":"free"},{"bike_id":"f5b0e48a-58e2-4b2a-8fb3-141fbd4f486b","system_id":"levelo_inurba_marseille","lat":43.29529,"lon":5.385581,"is_reserved":false,"is_disabled":false,"rental_uris":{"android":"levelo://app?vid=f5b0e48a-58e2-4b2a-8fb3-141fbd4f486b","ios":"levelo://app?vid=f5b0e48a-58e2-4b2a-8fb3-141fbd4f486b"},"vehicle_type_id":"4","last_reported":1706299656,"current_range_meters":6000,"station_id":"ce4bgih2rcd13ifvqba0","pricing_plan_id":"free"},{"bike_id":"b5198fe1-f488-4b3b-a950-63b4c95d848f","system_id":"levelo_inurba_marseille","lat":43.29528,"lon":5.38539,"is_reserved":false,"is_disabled":false,"rental_uris":{"android":"levelo://app?vid=b5198fe1-f488-4b3b-a950-63b4c95d848f","ios":"levelo://app?vid=b5198fe1-f488-4b3b-a950-63b4c95d848f"},"vehicle_type_id":"4","last_reported":1706299656,"current_range_meters":0,"station_id":"ce4bgih2rcd13ifvqba0","pricing_plan_id":"free"},{"bike_id":"84c3ba4f-26ae-422a-bc58-537e280b36b0","system_id":"levelo_inurba_marseille","lat":43.29529,"lon":5.385581,"is_reserved":false,"is_disabled":false,"rental_uris":{"android":"levelo://app?vid=84c3ba4f-26ae-422a-bc58-537e280b36b0","ios":"levelo://app?vid=84c3ba4f-26ae-422a-bc58-537e280b36b0"},"vehicle_type_id":"4","last_reported":1706299656,"current_range_meters":6400,"station_id":"ce4bgih2rcd13ifvqba0","pricing_plan_id":"free"},{"bike_id":"c5c5bebb-a7bc-4aa0-ad55-4faba2d78269","system_id":"levelo_inurba_marseille","lat":43.29529,"lon":5.385581,"is_reserved":false,"is_disabled":false,"rental_uris":{"android":"levelo://app?vid=c5c5bebb-a7bc-4aa0-ad55-4faba2d78269","ios":"levelo://app?vid=c5c5bebb-a7bc-4aa0-ad55-4faba2d78269"},"vehicle_type_id":"4","last_reported":1706299656,"current_range_meters":8400,"station_id":"ce4bgih2rcd13ifvqba0","pricing_plan_id":"free"},{"bike_id":"f814cdf9-4747-4457-8b44-08c9fb779343","system_id":"levelo_inurba_marseille","lat":43.29529,"lon":5.385581,"is_reserved":false,"is_disabled":false,"rental_uris":{"android":"levelo://app?vid=f814cdf9-4747-4457-8b44-08c9fb779343","ios":"levelo://app?vid=f814cdf9-4747-4457-8b44-08c9fb779343"},"vehicle_type_id":"4","last_reported":1706299656,"current_range_meters":0,"station_id":"ce4bgih2rcd13ifvqba0","pricing_plan_id":"free"},{"bike_id":"f37027ff-ea05-4c37-a67c-8045df8067da","system_id":"levelo_inurba_marseille","lat":43.290779,"lon":5.371482,"is_reserved":false,"is_disabled":false,"rental_uris":{"android":"levelo://app?vid=f37027ff-ea05-4c37-a67c-8045df8067da","ios":"levelo://app?vid=f37027ff-ea05-4c37-a67c-8045df8067da"},"vehicle_type_id":"4","last_reported":1706299656,"current_range_meters":25200,"station_id":"ce4bh5p2rcd13ifvqe4g","pricing_plan_id":"free"},{"bike_id":"f042d743-a800-4957-ac6a-2c3bb35065d5","system_id":"levelo_inurba_marseille","lat":43.290779,"lon":5.371482,"is_reserved":false,"is_disabled":false,"rental_uris":{"android":"levelo://app?vid=f042d743-a800-4957-ac6a-2c3bb35065d5","ios":"levelo://app?vid=f042d743-a800-4957-ac6a-2c3bb35065d5"},"vehicle_type_id":"4","last_reported":1706299656,"current_range_meters":22000,"station_id":"ce4bh5p2rcd13ifvqe4g","pricing_plan_id":"free"},{"bike_id":"a944e142-1e7d-4c0a-b56d-b585b3a0e090","system_id":"levelo_inurba_marseille","lat":43.30211,"lon":5.39465,"is_reserved":false,"is_disabled":false,"rental_uris":{"android":"levelo://app?vid=a944e142-1e7d-4c0a-b56d-b585b3a0e090","ios":"levelo://app?vid=a944e142-1e7d-4c0a-b56d-b585b3a0e090"},"vehicle_type_id":"4","last_reported":1706299656,"current_range_meters":0,"station_id":"ce4bh0p2rcd13ifvqd70","pricing_plan_id":"free"},{"bike_id":"0e75580e-2eab-48f4-8307-a428bf5f2f4e","system_id":"levelo_inurba_marseille","lat":43.29509,"lon":5.38753,"is_reserved":false,"is_disabled":false,"rental_uris":{"android":"levelo://app?vid=0e75580e-2eab-48f4-8307-a428bf5f2f4e","ios":"levelo://app?vid=0e75580e-2eab-48f4-8307-a428bf5f2f4e"},"vehicle_type_id":"4","last_reported":1706299656,"current_range_meters":10800,"station_id":"","pricing_plan_id":"free"},{"bike_id":"6e835958-dcab-4edd-82e4-d1e20ab895e9","system_id":"levelo_inurba_marseille","lat":43.294153,"lon":5.386305,"is_reserved":false,"is_disabled":false,"rental_uris":{"android":"levelo://app?vid=6e835958-dcab-4edd-82e4-d1e20ab895e9","ios":"levelo://app?vid=6e835958-dcab-4edd-82e4-d1e20ab895e9"},"vehicle_type_id":"4","last_reported":1706299656,"current_range_meters":18400,"station_id":"ce4bh2h2rcd13ifvqdh0","pricing_plan_id":"free"},{"bike_id":"f4bb320c-a18d-464d-b29e-075c90563409","system_id":"levelo_inurba_marseille","lat":43.29422,"lon":5.38617,"is_reserved":false,"is_disabled":false,"rental_uris":{"android":"levelo://app?vid=f4bb320c-a18d-464d-b29e-075c90563409","ios":"levelo://app?vid=f4bb320c-a18d-464d-b29e-075c90563409"},"vehicle_type_id":"4","last_reported":1706299656,"current_range_meters":0,"station_id":"ce4bh2h2rcd13ifvqdh0","pricing_plan_id":"free"},{"bike_id":"3a124622-840a-4393-b4d2-9d5194237b05","system_id":"levelo_inurba_marseille","lat":43.294227,"lon":5.386237,"is_reserved":false,"is_disabled":false,"rental_uris":{"android":"levelo://app?vid=3a124622-840a-4393-b4d2-9d5194237b05","ios":"levelo://app?vid=3a124622-840a-4393-b4d2-9d5194237b05"},"vehicle_type_id":"4","last_reported":1706299656,"current_range_meters":0,"station_id":"ce4bh2h2rcd13ifvqdh0","pricing_plan_id":"free"},{"bike_id":"f117817b-16ae-4209-8d13-a496762a1cff","system_id":"levelo_inurba_marseille","lat":43.2942,"lon":5.38622,"is_reserved":false,"is_disabled":false,"rental_uris":{"android":"levelo://app?vid=f117817b-16ae-4209-8d13-a496762a1cff","ios":"levelo://app?vid=f117817b-16ae-4209-8d13-a496762a1cff"},"vehicle_type_id":"4","last_reported":1706299656,"current_range_meters":16400,"station_id":"ce4bh2h2rcd13ifvqdh0","pricing_plan_id":"free"},{"bike_id":"6284ed12-8138-4921-a60c-80627cdec6df","system_id":"levelo_inurba_marseille","lat":43.294153,"lon":5.386305,"is_reserved":false,"is_disabled":false,"rental_uris":{"android":"levelo://app?vid=6284ed12-8138-4921-a60c-80627cdec6df","ios":"levelo://app?vid=6284ed12-8138-4921-a60c-80627cdec6df"},"vehicle_type_id":"4","last_reported":1706299656,"current_range_meters":2400,"station_id":"ce4bh2h2rcd13ifvqdh0","pricing_plan_id":"free"},{"bike_id":"4d208789-705a-4a3a-9bef-b45e33f1bc43","system_id":"levelo_inurba_marseille","lat":43.29421,"lon":5.38626,"is_reserved":false,"is_disabled":false,"rental_uris":{"android":"levelo://app?vid=4d208789-705a-4a3a-9bef-b45e33f1bc43","ios":"levelo://app?vid=4d208789-705a-4a3a-9bef-b45e33f1bc43"},"vehicle_type_id":"4","last_reported":1706299656,"current_range_meters":0,"station_id":"ce4bh2h2rcd13ifvqdh0","pricing_plan_id":"free"},{"bike_id":"311a1cd0-6c15-4ecb-afc8-7aafd7900ac4","system_id":"levelo_inurba_marseille","lat":43.29418,"lon":5.38621,"is_reserved":false,"is_disabled":false,"rental_uris":{"android":"levelo://app?vid=311a1cd0-6c15-4ecb-afc8-7aafd7900ac4","ios":"levelo://app?vid=311a1cd0-6c15-4ecb-afc8-7aafd7900ac4"},"vehicle_type_id":"4","last_reported":1706299656,"current_range_meters":9200,"station_id":"ce4bh2h2rcd13ifvqdh0","pricing_plan_id":"free"},{"bike_id":"33737597-a4e6-4827-b3e5-3c9b524ec7ce","system_id":"levelo_inurba_marseille","lat":43.29418,"lon":5.38623,"is_reserved":false,"is_disabled":false,"rental_uris":{"android":"levelo://app?vid=33737597-a4e6-4827-b3e5-3c9b524ec7ce","ios":"levelo://app?vid=33737597-a4e6-4827-b3e5-3c9b524ec7ce"},"vehicle_type_id":"4","last_reported":1706299656,"current_range_meters":19200,"station_id":"ce4bh2h2rcd13ifvqdh0","pricing_plan_id":"free"},{"bike_id":"f91e86e7-7b25-468e-ac06-fe09a33a4b25","system_id":"levelo_inurba_marseille","lat":43.29418,"lon":5.38623,"is_reserved":false,"is_disabled":false,"rental_uris":{"android":"levelo://app?vid=f91e86e7-7b25-468e-ac06-fe09a33a4b25","ios":"levelo://app?vid=f91e86e7-7b25-468e-ac06-fe09a33a4b25"},"vehicle_type_id":"4","last_reported":1706299656,"current_range_meters":24800,"station_id":"ce4bh2h2rcd13ifvqdh0","pricing_plan_id":"free"},{"bike_id":"629b4f6f-b7f0-4e03-b71d-40641a00f26d","system_id":"levelo_inurba_marseille","lat":43.29421,"lon":5.38629,"is_reserved":false,"is_disabled":false,"rental_uris":{"android":"levelo://app?vid=629b4f6f-b7f0-4e03-b71d-40641a00f26d","ios":"levelo://app?vid=629b4f6f-b7f0-4e03-b71d-40641a00f26d"},"vehicle_type_id":"4","last_reported":1706299656,"current_range_meters":30400,"station_id":"ce4bh2h2rcd13ifvqdh0","pricing_plan_id":"free"},{"bike_id":"e83e7ab8-64aa-45e4-89ce-f01b4f31202f","system_id":"levelo_inurba_marseille","lat":43.2942,"lon":5.38628,"is_reserved":false,"is_disabled":false,"rental_uris":{"android":"levelo://app?vid=e83e7ab8-64aa-45e4-89ce-f01b4f31202f","ios":"levelo://app?vid=e83e7ab8-64aa-45e4-89ce-f01b4f31202f"},"vehicle_type_id":"4","last_reported":1706299656,"current_range_meters":0,"station_id":"ce4bh2h2rcd13ifvqdh0","pricing_plan_id":"free"},{"bike_id":"7d89177a-dce6-4e6e-9268-dc148abb7786","system_id":"levelo_inurba_marseille","lat":43.29416,"lon":5.38622,"is_reserved":false,"is_disabled":false,"rental_uris":{"android":"levelo://app?vid=7d89177a-dce6-4e6e-9268-dc148abb7786","ios":"levelo://app?vid=7d89177a-dce6-4e6e-9268-dc148abb7786"},"vehicle_type_id":"4","last_reported":1706299656,"current_range_meters":22400,"station_id":"ce4bh2h2rcd13ifvqdh0","pricing_plan_id":"free"},{"bike_id":"724857a1-1cfe-424f-87a5-c341a543568e","system_id":"levelo_inurba_marseille","lat":43.29419,"lon":5.3863,"is_reserved":false,"is_disabled":false,"rental_uris":{"android":"levelo://app?vid=724857a1-1cfe-424f-87a5-c341a543568e","ios":"levelo://app?vid=724857a1-1cfe-424f-87a5-c341a543568e"},"vehicle_type_id":"4","last_reported":1706299656,"current_range_meters":1200,"station_id":"ce4bh2h2rcd13ifvqdh0","pricing_plan_id":"free"},{"bike_id":"73dac288-3620-47b4-a4e3-c7cee2bf1d84","system_id":"levelo_inurba_marseille","lat":43.289468,"lon":5.363719,"is_reserved":false,"is_disabled":false,"rental_uris":{"android":"levelo://app?vid=73dac288-3620-47b4-a4e3-c7cee2bf1d84","ios":"levelo://app?vid=73dac288-3620-47b4-a4e3-c7cee2bf1d84"},"vehicle_type_id":"4","last_reported":1706299656,"current_range_meters":20000,"station_id":"ce4bhc92rcd13ifvqetg","pricing_plan_id":"free"},{"bike_id":"ba5f427e-bebd-4f13-83f5-388f48f3f1f8","system_id":"levelo_inurba_marseille","lat":43.29417,"lon":5.38627,"is_reserved":false,"is_disabled":false,"rental_uris":{"android":"levelo://app?vid=ba5f427e-bebd-4f13-83f5-388f48f3f1f8","ios":"levelo://app?vid=ba5f427e-bebd-4f13-83f5-388f48f3f1f8"},"vehicle_type_id":"4","last_reported":1706299656,"current_range_meters":0,"station_id":"ce4bh2h2rcd13ifvqdh0","pricing_plan_id":"free"},{"bike_id":"33a30f4c-d79d-43af-8be4-c009bf80cb11","system_id":"levelo_inurba_marseille","lat":43.29416,"lon":5.38627,"is_reserved":false,"is_disabled":false,"rental_uris":{"android":"levelo://app?vid=33a30f4c-d79d-43af-8be4-c009bf80cb11","ios":"levelo://app?vid=33a30f4c-d79d-43af-8be4-c009bf80cb11"},"vehicle_type_id":"4","last_reported":1706299656,"current_range_meters":2400,"station_id":"ce4bh2h2rcd13ifvqdh0","pricing_plan_id":"free"},{"bike_id":"0a9639ee-e360-4ac1-9a31-9f8e098c9fe3","system_id":"levelo_inurba_marseille","lat":43.290319,"lon":5.375732,"is_reserved":false,"is_disabled":false,"rental_uris":{"android":"levelo://app?vid=0a9639ee-e360-4ac1-9a31-9f8e098c9fe3","ios":"levelo://app?vid=0a9639ee-e360-4ac1-9a31-9f8e098c9fe3"},"vehicle_type_id":"4","last_reported":1706299656,"current_range_meters":9200,"station_id":"ce4bh692rcd13ifvqe90","pricing_plan_id":"free"},{"bike_id":"f63ef7ba-35e1-414c-b98c-cbbed88e567d","system_id":"levelo_inurba_marseille","lat":43.29418,"lon":5.38631,"is_reserved":false,"is_disabled":false,"rental_uris":{"android":"levelo://app?vid=f63ef7ba-35e1-414c-b98c-cbbed88e567d","ios":"levelo://app?vid=f63ef7ba-35e1-414c-b98c-cbbed88e567d"},"vehicle_type_id":"4","last_reported":1706299656,"current_range_meters":21200,"station_id":"ce4bh2h2rcd13ifvqdh0","pricing_plan_id":"free"},{"bike_id":"b23a4df1-b972-4c97-acce-d5f9cc52f90b","system_id":"levelo_inurba_marseille","lat":43.29415,"lon":5.38626,"is_reserved":false,"is_disabled":false,"rental_uris":{"android":"levelo://app?vid=b23a4df1-b972-4c97-acce-d5f9cc52f90b","ios":"levelo://app?vid=b23a4df1-b972-4c97-acce-d5f9cc52f90b"},"vehicle_type_id":"4","last_reported":1706299656,"current_range_meters":0,"station_id":"ce4bh2h2rcd13ifvqdh0","pricing_plan_id":"free"},{"bike_id":"a1f4e44d-3ea7-4020-a27c-dae63b520536","system_id":"levelo_inurba_marseille","lat":43.290319,"lon":5.375732,"is_reserved":false,"is_disabled":false,"rental_uris":{"android":"levelo://app?vid=a1f4e44d-3ea7-4020-a27c-dae63b520536","ios":"levelo://app?vid=a1f4e44d-3ea7-4020-a27c-dae63b520536"},"vehicle_type_id":"4","last_reported":1706299656,"current_range_meters":27200,"station_id":"ce4bh692rcd13ifvqe90","pricing_plan_id":"free"},{"bike_id":"606fc5d1-5f6e-4acc-8b60-d999c57c3849","system_id":"levelo_inurba_marseille","lat":43.29412,"lon":5.38628,"is_reserved":false,"is_disabled":false,"rental_uris":{"android":"levelo://app?vid=606fc5d1-5f6e-4acc-8b60-d999c57c3849","ios":"levelo://app?vid=606fc5d1-5f6e-4acc-8b60-d999c57c3849"},"vehicle_type_id":"4","last_reported":1706299656,"current_range_meters":2400,"station_id":"ce4bh2h2rcd13ifvqdh0","pricing_plan_id":"free"},{"bike_id":"f3b4545d-6cdf-4dc2-a0bc-e07c689172d7","system_id":"levelo_inurba_marseille","lat":43.289184,"lon":5.366408,"is_reserved":false,"is_disabled":false,"rental_uris":{"android":"levelo://app?vid=f3b4545d-6cdf-4dc2-a0bc-e07c689172d7","ios":"levelo://app?vid=f3b4545d-6cdf-4dc2-a0bc-e07c689172d7"},"vehicle_type_id":"4","last_reported":1706299656,"current_range_meters":9600,"station_id":"ce4bhap2rcd13ifvqek0","pricing_plan_id":"free"},{"bike_id":"8c4f4968-9b0e-43a6-b18d-d015c4758223","system_id":"levelo_inurba_marseille","lat":43.289468,"lon":5.363719,"is_reserved":false,"is_disabled":false,"rental_uris":{"android":"levelo://app?vid=8c4f4968-9b0e-43a6-b18d-d015c4758223","ios":"levelo://app?vid=8c4f4968-9b0e-43a6-b18d-d015c4758223"},"vehicle_type_id":"4","last_reported":1706299656,"current_range_meters":16000,"station_id":"ce4bhc92rcd13ifvqetg","pricing_plan_id":"free"},{"bike_id":"7243af2c-678d-420d-952c-ae5800aa4ed8","system_id":"levelo_inurba_marseille","lat":43.29412,"lon":5.38638,"is_reserved":false,"is_disabled":false,"rental_uris":{"android":"levelo://app?vid=7243af2c-678d-420d-952c-ae5800aa4ed8","ios":"levelo://app?vid=7243af2c-678d-420d-952c-ae5800aa4ed8"},"vehicle_type_id":"4","last_reported":1706299656,"current_range_meters":2000,"station_id":"ce4bh2h2rcd13ifvqdh0","pricing_plan_id":"free"},{"bike_id":"5076e941-fdd8-4527-b204-35addc2e32b5","system_id":"levelo_inurba_marseille","lat":43.290327,"lon":5.375711,"is_reserved":false,"is_disabled":false,"rental_uris":{"android":"levelo://app?vid=5076e941-fdd8-4527-b204-35addc2e32b5","ios":"levelo://app?vid=5076e941-fdd8-4527-b204-35addc2e32b5"},"vehicle_type_id":"4","last_reported":1706299656,"current_range_meters":7600,"station_id":"ce4bh692rcd13ifvqe90","pricing_plan_id":"free"},{"bike_id":"f270460c-98bd-48c8-b4d3-e45f525329e8","system_id":"levelo_inurba_marseille","lat":43.289468,"lon":5.363719,"is_reserved":false,"is_disabled":false,"rental_uris":{"android":"levelo://app?vid=f270460c-98bd-48c8-b4d3-e45f525329e8","ios":"levelo://app?vid=f270460c-98bd-48c8-b4d3-e45f525329e8"},"vehicle_type_id":"4","last_reported":1706299656,"current_range_meters":25200,"station_id":"ce4bhc92rcd13ifvqetg","pricing_plan_id":"free"},{"bike_id":"23b00724-ba42-4e62-b506-06b55be6937f","system_id":"levelo_inurba_marseille","lat":43.29282,"lon":5.3844,"is_reserved":false,"is_disabled":false,"rental_uris":{"android":"levelo://app?vid=23b00724-ba42-4e62-b506-06b55be6937f","ios":"levelo://app?vid=23b00724-ba42-4e62-b506-06b55be6937f"},"vehicle_type_id":"4","last_reported":1706299656,"current_range_meters":24800,"station_id":"ce4bh692rcd13ifvqea0","pricing_plan_id":"free"},{"bike_id":"2d780356-5d3d-4521-9565-eee0bb5f28c8","system_id":"levelo_inurba_marseille","lat":43.29269,"lon":5.38436,"is_reserved":false,"is_disabled":false,"rental_uris":{"android":"levelo://app?vid=2d780356-5d3d-4521-9565-eee0bb5f28c8","ios":"levelo://app?vid=2d780356-5d3d-4521-9565-eee0bb5f28c8"},"vehicle_type_id":"4","last_reported":1706299656,"current_range_meters":0,"station_id":"ce4bh692rcd13ifvqea0","pricing_plan_id":"free"},{"bike_id":"9edefeaf-bfce-4973-8313-b88281ef190f","system_id":"levelo_inurba_marseille","lat":43.29267,"lon":5.38437,"is_reserved":false,"is_disabled":false,"rental_uris":{"android":"levelo://app?vid=9edefeaf-bfce-4973-8313-b88281ef190f","ios":"levelo://app?vid=9edefeaf-bfce-4973-8313-b88281ef190f"},"vehicle_type_id":"4","last_reported":1706299656,"current_range_meters":4000,"station_id":"ce4bh692rcd13ifvqea0","pricing_plan_id":"free"},{"bike_id":"e5124d7a-8776-41d2-aeb8-a83def1aaec8","system_id":"levelo_inurba_marseille","lat":43.292663,"lon":5.384357,"is_reserved":false,"is_disabled":false,"rental_uris":{"android":"levelo://app?vid=e5124d7a-8776-41d2-aeb8-a83def1aaec8","ios":"levelo://app?vid=e5124d7a-8776-41d2-aeb8-a83def1aaec8"},"vehicle_type_id":"4","last_reported":1706299656,"current_range_meters":25600,"station_id":"ce4bh692rcd13ifvqea0","pricing_plan_id":"free"},{"bike_id":"904fab0f-ad16-4a8a-965e-f45a650c7417","system_id":"levelo_inurba_marseille","lat":43.29268,"lon":5.3844,"is_reserved":false,"is_disabled":false,"rental_uris":{"android":"levelo://app?vid=904fab0f-ad16-4a8a-965e-f45a650c7417","ios":"levelo://app?vid=904fab0f-ad16-4a8a-965e-f45a650c7417"},"vehicle_type_id":"4","last_reported":1706299656,"current_range_meters":6000,"station_id":"ce4bh692rcd13ifvqea0","pricing_plan_id":"free"},{"bike_id":"8b887070-784a-4f8a-9fda-0e5c8a7a4863","system_id":"levelo_inurba_marseille","lat":43.292679,"lon":5.3844,"is_reserved":false,"is_disabled":false,"rental_uris":{"android":"levelo://app?vid=8b887070-784a-4f8a-9fda-0e5c8a7a4863","ios":"levelo://app?vid=8b887070-784a-4f8a-9fda-0e5c8a7a4863"},"vehicle_type_id":"4","last_reported":1706299656,"current_range_meters":6800,"station_id":"","pricing_plan_id":"free"},{"bike_id":"1ed5c1f0-c3db-4ef5-a6cc-1accc4a9f7f9","system_id":"levelo_inurba_marseille","lat":43.29265,"lon":5.38442,"is_reserved":false,"is_disabled":false,"rental_uris":{"android":"levelo://app?vid=1ed5c1f0-c3db-4ef5-a6cc-1accc4a9f7f9","ios":"levelo://app?vid=1ed5c1f0-c3db-4ef5-a6cc-1accc4a9f7f9"},"vehicle_type_id":"4","last_reported":1706299656,"current_range_meters":9200,"station_id":"ce4bh692rcd13ifvqea0","pricing_plan_id":"free"},{"bike_id":"ec48cea1-0ff8-4ab6-9e51-34e824b1e03d","system_id":"levelo_inurba_marseille","lat":43.29273,"lon":5.3846,"is_reserved":false,"is_disabled":false,"rental_uris":{"android":"levelo://app?vid=ec48cea1-0ff8-4ab6-9e51-34e824b1e03d","ios":"levelo://app?vid=ec48cea1-0ff8-4ab6-9e51-34e824b1e03d"},"vehicle_type_id":"4","last_reported":1706299656,"current_range_meters":11200,"station_id":"ce4bh692rcd13ifvqea0","pricing_plan_id":"free"},{"bike_id":"ecb05053-8a92-4f28-be8d-e2d3b5c07354","system_id":"levelo_inurba_marseille","lat":43.29264,"lon":5.38441,"is_reserved":false,"is_disabled":false,"rental_uris":{"android":"levelo://app?vid=ecb05053-8a92-4f28-be8d-e2d3b5c07354","ios":"levelo://app?vid=ecb05053-8a92-4f28-be8d-e2d3b5c07354"},"vehicle_type_id":"4","last_reported":1706299656,"current_range_meters":4800,"station_id":"ce4bh692rcd13ifvqea0","pricing_plan_id":"free"},{"bike_id":"cae040c5-9506-4d75-ab08-828f9de8f6ce","system_id":"levelo_inurba_marseille","lat":43.2927,"lon":5.38455,"is_reserved":false,"is_disabled":false,"rental_uris":{"android":"levelo://app?vid=cae040c5-9506-4d75-ab08-828f9de8f6ce","ios":"levelo://app?vid=cae040c5-9506-4d75-ab08-828f9de8f6ce"},"vehicle_type_id":"4","last_reported":1706299656,"current_range_meters":400,"station_id":"ce4bh692rcd13ifvqea0","pricing_plan_id":"free"},{"bike_id":"8610584d-da24-4a07-8891-8545bb3524df","system_id":"levelo_inurba_marseille","lat":43.29265,"lon":5.38446,"is_reserved":false,"is_disabled":false,"rental_uris":{"android":"levelo://app?vid=8610584d-da24-4a07-8891-8545bb3524df","ios":"levelo://app?vid=8610584d-da24-4a07-8891-8545bb3524df"},"vehicle_type_id":"4","last_reported":1706299656,"current_range_meters":400,"station_id":"ce4bh692rcd13ifvqea0","pricing_plan_id":"free"},{"bike_id":"5d0631dc-d1f9-4876-9df7-b2b20351a1cc","system_id":"levelo_inurba_marseille","lat":43.292644,"lon":5.384257,"is_reserved":false,"is_disabled":false,"rental_uris":{"android":"levelo://app?vid=5d0631dc-d1f9-4876-9df7-b2b20351a1cc","ios":"levelo://app?vid=5d0631dc-d1f9-4876-9df7-b2b20351a1cc"},"vehicle_type_id":"4","last_reported":1706299656,"current_range_meters":19200,"station_id":"ce4bh692rcd13ifvqea0","pricing_plan_id":"free"},{"bike_id":"05fdb446-dc55-4b53-b7ef-5b9950545f86","system_id":"levelo_inurba_marseille","lat":43.29262,"lon":5.384427,"is_reserved":false,"is_disabled":false,"rental_uris":{"android":"levelo://app?vid=05fdb446-dc55-4b53-b7ef-5b9950545f86","ios":"levelo://app?vid=05fdb446-dc55-4b53-b7ef-5b9950545f86"},"vehicle_type_id":"4","last_reported":1706299656,"current_range_meters":7200,"station_id":"ce4bh692rcd13ifvqea0","pricing_plan_id":"free"},{"bike_id":"c307ddfd-3837-4730-bff0-a5f187ae1424","system_id":"levelo_inurba_marseille","lat":43.29263,"lon":5.38445,"is_reserved":false,"is_disabled":false,"rental_uris":{"android":"levelo://app?vid=c307ddfd-3837-4730-bff0-a5f187ae1424","ios":"levelo://app?vid=c307ddfd-3837-4730-bff0-a5f187ae1424"},"vehicle_type_id":"4","last_reported":1706299656,"current_range_meters":24800,"station_id":"ce4bh692rcd13ifvqea0","pricing_plan_id":"free"},{"bike_id":"96f22199-e468-42e2-966b-13d791b2efce","system_id":"levelo_inurba_marseille","lat":43.292644,"lon":5.384257,"is_reserved":false,"is_disabled":false,"rental_uris":{"android":"levelo://app?vid=96f22199-e468-42e2-966b-13d791b2efce","ios":"levelo://app?vid=96f22199-e468-42e2-966b-13d791b2efce"},"vehicle_type_id":"4","last_reported":1706299656,"current_range_meters":30800,"station_id":"ce4bh692rcd13ifvqea0","pricing_plan_id":"free"},{"bike_id":"740ca010-defd-48ae-a7f1-71154afba5b7","system_id":"levelo_inurba_marseille","lat":43.2926,"lon":5.38442,"is_reserved":false,"is_disabled":false,"rental_uris":{"android":"levelo://app?vid=740ca010-defd-48ae-a7f1-71154afba5b7","ios":"levelo://app?vid=740ca010-defd-48ae-a7f1-71154afba5b7"},"vehicle_type_id":"4","last_reported":1706299656,"current_range_meters":0,"station_id":"ce4bh692rcd13ifvqea0","pricing_plan_id":"free"},{"bike_id":"694e8996-12da-4c60-8a03-d1f1c90a5dce","system_id":"levelo_inurba_marseille","lat":43.2926,"lon":5.38443,"is_reserved":false,"is_disabled":false,"rental_uris":{"android":"levelo://app?vid=694e8996-12da-4c60-8a03-d1f1c90a5dce","ios":"levelo://app?vid=694e8996-12da-4c60-8a03-d1f1c90a5dce"},"vehicle_type_id":"4","last_reported":1706299656,"current_range_meters":18000,"station_id":"ce4bh692rcd13ifvqea0","pricing_plan_id":"free"},{"bike_id":"30428ad1-7e04-4f13-a62c-c8ea21428728","system_id":"levelo_inurba_marseille","lat":43.29257,"lon":5.38437,"is_reserved":false,"is_disabled":false,"rental_uris":{"android":"levelo://app?vid=30428ad1-7e04-4f13-a62c-c8ea21428728","ios":"levelo://app?vid=30428ad1-7e04-4f13-a62c-c8ea21428728"},"vehicle_type_id":"4","last_reported":1706299656,"current_range_meters":0,"station_id":"ce4bh692rcd13ifvqea0","pricing_plan_id":"free"},{"bike_id":"cef179d8-a1e7-4c96-96e2-99611f2a5f0a","system_id":"levelo_inurba_marseille","lat":43.29259,"lon":5.38444,"is_reserved":false,"is_disabled":false,"rental_uris":{"android":"levelo://app?vid=cef179d8-a1e7-4c96-96e2-99611f2a5f0a","ios":"levelo://app?vid=cef179d8-a1e7-4c96-96e2-99611f2a5f0a"},"vehicle_type_id":"4","last_reported":1706299656,"current_range_meters":3200,"station_id":"ce4bh692rcd13ifvqea0","pricing_plan_id":"free"},{"bike_id":"e7fd9064-3948-431c-a51a-0aa9bb8aa8b5","system_id":"levelo_inurba_marseille","lat":43.29261,"lon":5.38451,"is_reserved":false,"is_disabled":false,"rental_uris":{"android":"levelo://app?vid=e7fd9064-3948-431c-a51a-0aa9bb8aa8b5","ios":"levelo://app?vid=e7fd9064-3948-431c-a51a-0aa9bb8aa8b5"},"vehicle_type_id":"4","last_reported":1706299656,"current_range_meters":17600,"station_id":"ce4bh692rcd13ifvqea0","pricing_plan_id":"free"},{"bike_id":"5c7b8e52-ebeb-459c-a023-17ef86633b78","system_id":"levelo_inurba_marseille","lat":43.290103,"lon":5.356114,"is_reserved":false,"is_disabled":false,"rental_uris":{"android":"levelo://app?vid=5c7b8e52-ebeb-459c-a023-17ef86633b78","ios":"levelo://app?vid=5c7b8e52-ebeb-459c-a023-17ef86633b78"},"vehicle_type_id":"4","last_reported":1706299656,"current_range_meters":4400,"station_id":"ce4bhb92rcd13ifvqen0","pricing_plan_id":"free"},{"bike_id":"6470b96e-be55-4d59-81c3-89e63cdc0a3f","system_id":"levelo_inurba_marseille","lat":43.29004,"lon":5.35613,"is_reserved":false,"is_disabled":false,"rental_uris":{"android":"levelo://app?vid=6470b96e-be55-4d59-81c3-89e63cdc0a3f","ios":"levelo://app?vid=6470b96e-be55-4d59-81c3-89e63cdc0a3f"},"vehicle_type_id":"4","last_reported":1706299656,"current_range_meters":0,"station_id":"ce4bhb92rcd13ifvqen0","pricing_plan_id":"free"},{"bike_id":"72e5b77d-5fbc-4137-bfb1-303d738c92f2","system_id":"levelo_inurba_marseille","lat":43.290995,"lon":5.381361,"is_reserved":false,"is_disabled":false,"rental_uris":{"android":"levelo://app?vid=72e5b77d-5fbc-4137-bfb1-303d738c92f2","ios":"levelo://app?vid=72e5b77d-5fbc-4137-bfb1-303d738c92f2"},"vehicle_type_id":"4","last_reported":1706299656,"current_range_meters":9200,"station_id":"ce4bh512rcd13ifvqe2g","pricing_plan_id":"free"},{"bike_id":"6fb1ca6d-ed88-4382-9734-be9e31d8f73c","system_id":"levelo_inurba_marseille","lat":43.295169,"lon":5.390426,"is_reserved":false,"is_disabled":false,"rental_uris":{"android":"levelo://app?vid=6fb1ca6d-ed88-4382-9734-be9e31d8f73c","ios":"levelo://app?vid=6fb1ca6d-ed88-4382-9734-be9e31d8f73c"},"vehicle_type_id":"4","last_reported":1706299656,"current_range_meters":2800,"station_id":"ce4bh3p2rcd13ifvqdp0","pricing_plan_id":"free"},{"bike_id":"2796a303-b081-475c-b138-39949232d16d","system_id":"levelo_inurba_marseille","lat":43.29782,"lon":5.39332,"is_reserved":false,"is_disabled":false,"rental_uris":{"android":"levelo://app?vid=2796a303-b081-475c-b138-39949232d16d","ios":"levelo://app?vid=2796a303-b081-475c-b138-39949232d16d"},"vehicle_type_id":"4","last_reported":1706299656,"current_range_meters":10400,"station_id":"chh1huq6cuj3fo74tm60","pricing_plan_id":"free"},{"bike_id":"685f868f-815d-43a7-b9a1-a1c00e32b9ed","system_id":"levelo_inurba_marseille","lat":43.295169,"lon":5.390426,"is_reserved":false,"is_disabled":false,"rental_uris":{"android":"levelo://app?vid=685f868f-815d-43a7-b9a1-a1c00e32b9ed","ios":"levelo://app?vid=685f868f-815d-43a7-b9a1-a1c00e32b9ed"},"vehicle_type_id":"4","last_reported":1706299656,"current_range_meters":14000,"station_id":"ce4bh3p2rcd13ifvqdp0","pricing_plan_id":"free"},{"bike_id":"00f0ce73-62e0-4481-9116-1dfe0ba11879","system_id":"levelo_inurba_marseille","lat":43.297854,"lon":5.393478,"is_reserved":false,"is_disabled":false,"rental_uris":{"android":"levelo://app?vid=00f0ce73-62e0-4481-9116-1dfe0ba11879","ios":"levelo://app?vid=00f0ce73-62e0-4481-9116-1dfe0ba11879"},"vehicle_type_id":"4","last_reported":1706299656,"current_range_meters":0,"station_id":"chh1huq6cuj3fo74tm60","pricing_plan_id":"free"},{"bike_id":"68e2e130-f1d1-4958-8f98-9bac71ce3382","system_id":"levelo_inurba_marseille","lat":43.289741,"lon":5.378306,"is_reserved":false,"is_disabled":false,"rental_uris":{"android":"levelo://app?vid=68e2e130-f1d1-4958-8f98-9bac71ce3382","ios":"levelo://app?vid=68e2e130-f1d1-4958-8f98-9bac71ce3382"},"vehicle_type_id":"4","last_reported":1706299656,"current_range_meters":24000,"station_id":"ce4bh9p2rcd13ifvqed0","pricing_plan_id":"free"},{"bike_id":"8a169457-a243-4277-aa45-94ae3a485749","system_id":"levelo_inurba_marseille","lat":43.289741,"lon":5.378306,"is_reserved":false,"is_disabled":false,"rental_uris":{"android":"levelo://app?vid=8a169457-a243-4277-aa45-94ae3a485749","ios":"levelo://app?vid=8a169457-a243-4277-aa45-94ae3a485749"},"vehicle_type_id":"4","last_reported":1706299656,"current_range_meters":6400,"station_id":"ce4bh9p2rcd13ifvqed0","pricing_plan_id":"free"},{"bike_id":"862a626c-43a9-490c-8376-89096d4c0771","system_id":"levelo_inurba_marseille","lat":43.28856,"lon":5.358371,"is_reserved":false,"is_disabled":false,"rental_uris":{"android":"levelo://app?vid=862a626c-43a9-490c-8376-89096d4c0771","ios":"levelo://app?vid=862a626c-43a9-490c-8376-89096d4c0771"},"vehicle_type_id":"4","last_reported":1706299656,"current_range_meters":16400,"station_id":"ce4bhb12rcd13ifvqem0","pricing_plan_id":"free"},{"bike_id":"3f03f5fa-03bf-4b30-9042-2390357179a1","system_id":"levelo_inurba_marseille","lat":43.330442,"lon":5.389148,"is_reserved":false,"is_disabled":false,"rental_uris":{"android":"levelo://app?vid=3f03f5fa-03bf-4b30-9042-2390357179a1","ios":"levelo://app?vid=3f03f5fa-03bf-4b30-9042-2390357179a1"},"vehicle_type_id":"4","last_reported":1706299656,"current_range_meters":14000,"station_id":"ce4bhr92rcd13ifvqhrg","pricing_plan_id":"free"},{"bike_id":"03ae5233-d364-40c5-b9c4-8937dfb30aa2","system_id":"levelo_inurba_marseille","lat":43.330442,"lon":5.389148,"is_reserved":false,"is_disabled":false,"rental_uris":{"android":"levelo://app?vid=03ae5233-d364-40c5-b9c4-8937dfb30aa2","ios":"levelo://app?vid=03ae5233-d364-40c5-b9c4-8937dfb30aa2"},"vehicle_type_id":"4","last_reported":1706299656,"current_range_meters":3600,"station_id":"ce4bhr92rcd13ifvqhrg","pricing_plan_id":"free"},{"bike_id":"df841c5b-49b4-4f77-9484-be315608ede4","system_id":"levelo_inurba_marseille","lat":43.295169,"lon":5.390426,"is_reserved":false,"is_disabled":false,"rental_uris":{"android":"levelo://app?vid=df841c5b-49b4-4f77-9484-be315608ede4","ios":"levelo://app?vid=df841c5b-49b4-4f77-9484-be315608ede4"},"vehicle_type_id":"4","last_reported":1706299656,"current_range_meters":31200,"station_id":"ce4bh3p2rcd13ifvqdp0","pricing_plan_id":"free"},{"bike_id":"5cac4158-935d-4fb7-9950-b41309d3eaf8","system_id":"levelo_inurba_marseille","lat":43.33029,"lon":5.39043,"is_reserved":false,"is_disabled":false,"rental_uris":{"android":"levelo://app?vid=5cac4158-935d-4fb7-9950-b41309d3eaf8","ios":"levelo://app?vid=5cac4158-935d-4fb7-9950-b41309d3eaf8"},"vehicle_type_id":"4","last_reported":1706299656,"current_range_meters":11600,"station_id":"ce4bhr92rcd13ifvqhrg","pricing_plan_id":"free"},{"bike_id":"cb024f31-d738-42d6-832b-8e0b233984f8","system_id":"levelo_inurba_marseille","lat":43.330442,"lon":5.389148,"is_reserved":false,"is_disabled":false,"rental_uris":{"android":"levelo://app?vid=cb024f31-d738-42d6-832b-8e0b233984f8","ios":"levelo://app?vid=cb024f31-d738-42d6-832b-8e0b233984f8"},"vehicle_type_id":"4","last_reported":1706299656,"current_range_meters":10400,"station_id":"ce4bhr92rcd13ifvqhrg","pricing_plan_id":"free"},{"bike_id":"f4d67dcb-0e26-415b-bcc5-150e02b6854b","system_id":"levelo_inurba_marseille","lat":43.292595,"lon":5.38704,"is_reserved":false,"is_disabled":false,"rental_uris":{"android":"levelo://app?vid=f4d67dcb-0e26-415b-bcc5-150e02b6854b","ios":"levelo://app?vid=f4d67dcb-0e26-415b-bcc5-150e02b6854b"},"vehicle_type_id":"4","last_reported":1706299656,"current_range_meters":1200,"station_id":"ce4bh2h2rcd13ifvqdh0","pricing_plan_id":"free"},{"bike_id":"12355a69-fca3-4399-8a0a-a6d71d680f46","system_id":"levelo_inurba_marseille","lat":43.28856,"lon":5.358371,"is_reserved":false,"is_disabled":false,"rental_uris":{"android":"levelo://app?vid=12355a69-fca3-4399-8a0a-a6d71d680f46","ios":"levelo://app?vid=12355a69-fca3-4399-8a0a-a6d71d680f46"},"vehicle_type_id":"4","last_reported":1706299656,"current_range_meters":6400,"station_id":"ce4bhb12rcd13ifvqem0","pricing_plan_id":"free"},{"bike_id":"3405e203-a74f-4e2f-afe7-05da97f61a62","system_id":"levelo_inurba_marseille","lat":43.28938,"lon":5.35492,"is_reserved":false,"is_disabled":false,"rental_uris":{"android":"levelo://app?vid=3405e203-a74f-4e2f-afe7-05da97f61a62","ios":"levelo://app?vid=3405e203-a74f-4e2f-afe7-05da97f61a62"},"vehicle_type_id":"4","last_reported":1706299656,"current_range_meters":0,"station_id":"","pricing_plan_id":"free"},{"bike_id":"ae6a8bee-4306-42fa-8023-1c484103ba45","system_id":"levelo_inurba_marseille","lat":43.28856,"lon":5.358371,"is_reserved":false,"is_disabled":false,"rental_uris":{"android":"levelo://app?vid=ae6a8bee-4306-42fa-8023-1c484103ba45","ios":"levelo://app?vid=ae6a8bee-4306-42fa-8023-1c484103ba45"},"vehicle_type_id":"4","last_reported":1706299656,"current_range_meters":10000,"station_id":"ce4bhb12rcd13ifvqem0","pricing_plan_id":"free"},{"bike_id":"a797ffc5-c458-40ba-9bc9-6560dd2a2969","system_id":"levelo_inurba_marseille","lat":43.312609,"lon":5.401662,"is_reserved":false,"is_disabled":false,"rental_uris":{"android":"levelo://app?vid=a797ffc5-c458-40ba-9bc9-6560dd2a2969","ios":"levelo://app?vid=a797ffc5-c458-40ba-9bc9-6560dd2a2969"},"vehicle_type_id":"4","last_reported":1706299656,"current_range_meters":0,"station_id":"ce4bh092rcd13ifvqd30","pricing_plan_id":"free"},{"bike_id":"5f4f2e5e-bf27-44ee-9683-c4a626c43b84","system_id":"levelo_inurba_marseille","lat":43.309371,"lon":5.401449,"is_reserved":false,"is_disabled":false,"rental_uris":{"android":"levelo://app?vid=5f4f2e5e-bf27-44ee-9683-c4a626c43b84","ios":"levelo://app?vid=5f4f2e5e-bf27-44ee-9683-c4a626c43b84"},"vehicle_type_id":"4","last_reported":1706299656,"current_range_meters":30400,"station_id":"ce4bgvp2rcd13ifvqct0","pricing_plan_id":"free"},{"bike_id":"376482a6-9e1a-4f61-9554-a7e9ef35cc83","system_id":"levelo_inurba_marseille","lat":43.301117,"lon":5.398795,"is_reserved":false,"is_disabled":false,"rental_uris":{"android":"levelo://app?vid=376482a6-9e1a-4f61-9554-a7e9ef35cc83","ios":"levelo://app?vid=376482a6-9e1a-4f61-9554-a7e9ef35cc83"},"vehicle_type_id":"4","last_reported":1706299656,"current_range_meters":14400,"station_id":"ce4bh0h2rcd13ifvqd40","pricing_plan_id":"free"},{"bike_id":"48c1fa8b-ed72-4d16-a653-ad54f91e9dca","system_id":"levelo_inurba_marseille","lat":43.309371,"lon":5.401449,"is_reserved":false,"is_disabled":false,"rental_uris":{"android":"levelo://app?vid=48c1fa8b-ed72-4d16-a653-ad54f91e9dca","ios":"levelo://app?vid=48c1fa8b-ed72-4d16-a653-ad54f91e9dca"},"vehicle_type_id":"4","last_reported":1706299656,"current_range_meters":26400,"station_id":"ce4bgvp2rcd13ifvqct0","pricing_plan_id":"free"},{"bike_id":"95d7ebfc-5d0e-4ac5-81ac-e8760b0c6bb1","system_id":"levelo_inurba_marseille","lat":43.309371,"lon":5.401449,"is_reserved":false,"is_disabled":false,"rental_uris":{"android":"levelo://app?vid=95d7ebfc-5d0e-4ac5-81ac-e8760b0c6bb1","ios":"levelo://app?vid=95d7ebfc-5d0e-4ac5-81ac-e8760b0c6bb1"},"vehicle_type_id":"4","last_reported":1706299656,"current_range_meters":14000,"station_id":"ce4bgvp2rcd13ifvqct0","pricing_plan_id":"free"},{"bike_id":"17c9eb59-ee26-4010-b083-ece6e1356293","system_id":"levelo_inurba_marseille","lat":43.309371,"lon":5.401449,"is_reserved":false,"is_disabled":false,"rental_uris":{"android":"levelo://app?vid=17c9eb59-ee26-4010-b083-ece6e1356293","ios":"levelo://app?vid=17c9eb59-ee26-4010-b083-ece6e1356293"},"vehicle_type_id":"4","last_reported":1706299656,"current_range_meters":31200,"station_id":"ce4bgvp2rcd13ifvqct0","pricing_plan_id":"free"},{"bike_id":"82b91c24-3f12-417d-801b-daed9a8c4405","system_id":"levelo_inurba_marseille","lat":43.337544,"lon":5.374532,"is_reserved":false,"is_disabled":false,"rental_uris":{"android":"levelo://app?vid=82b91c24-3f12-417d-801b-daed9a8c4405","ios":"levelo://app?vid=82b91c24-3f12-417d-801b-daed9a8c4405"},"vehicle_type_id":"4","last_reported":1706299656,"current_range_meters":3200,"station_id":"","pricing_plan_id":"free"},{"bike_id":"b7f12eab-e0a6-499e-87ec-2b4381c4602a","system_id":"levelo_inurba_marseille","lat":43.337544,"lon":5.374776,"is_reserved":false,"is_disabled":false,"rental_uris":{"android":"levelo://app?vid=b7f12eab-e0a6-499e-87ec-2b4381c4602a","ios":"levelo://app?vid=b7f12eab-e0a6-499e-87ec-2b4381c4602a"},"vehicle_type_id":"4","last_reported":1706299656,"current_range_meters":27200,"station_id":"","pricing_plan_id":"free"},{"bike_id":"5b216a91-6d46-41fe-82f2-f1be5fab3351","system_id":"levelo_inurba_marseille","lat":43.28727,"lon":5.36078,"is_reserved":false,"is_disabled":false,"rental_uris":{"android":"levelo://app?vid=5b216a91-6d46-41fe-82f2-f1be5fab3351","ios":"levelo://app?vid=5b216a91-6d46-41fe-82f2-f1be5fab3351"},"vehicle_type_id":"4","last_reported":1706299656,"current_range_meters":22400,"station_id":"cki0cbj6b192h4jlfktg","pricing_plan_id":"free"},{"bike_id":"6de42935-66cd-48de-9cfd-ff5bdd4cfd92","system_id":"levelo_inurba_marseille","lat":43.28727,"lon":5.36078,"is_reserved":false,"is_disabled":false,"rental_uris":{"android":"levelo://app?vid=6de42935-66cd-48de-9cfd-ff5bdd4cfd92","ios":"levelo://app?vid=6de42935-66cd-48de-9cfd-ff5bdd4cfd92"},"vehicle_type_id":"4","last_reported":1706299656,"current_range_meters":6400,"station_id":"cki0cbj6b192h4jlfktg","pricing_plan_id":"free"},{"bike_id":"f3860d6e-fe6a-472a-8887-4053c1162f54","system_id":"levelo_inurba_marseille","lat":43.286545,"lon":5.36359,"is_reserved":false,"is_disabled":false,"rental_uris":{"android":"levelo://app?vid=f3860d6e-fe6a-472a-8887-4053c1162f54","ios":"levelo://app?vid=f3860d6e-fe6a-472a-8887-4053c1162f54"},"vehicle_type_id":"4","last_reported":1706299656,"current_range_meters":0,"station_id":"ce4bhah2rcd13ifvqej0","pricing_plan_id":"free"},{"bike_id":"66f55912-0bd1-443f-9bec-0ae706d7d22c","system_id":"levelo_inurba_marseille","lat":43.295194,"lon":5.39397,"is_reserved":false,"is_disabled":false,"rental_uris":{"android":"levelo://app?vid=66f55912-0bd1-443f-9bec-0ae706d7d22c","ios":"levelo://app?vid=66f55912-0bd1-443f-9bec-0ae706d7d22c"},"vehicle_type_id":"4","last_reported":1706299656,"current_range_meters":3200,"station_id":"ce4bh292rcd13ifvqdf0","pricing_plan_id":"free"},{"bike_id":"cdac70c1-0ff2-41e0-ab4d-d222c1997007","system_id":"levelo_inurba_marseille","lat":43.295196,"lon":5.39397,"is_reserved":false,"is_disabled":false,"rental_uris":{"android":"levelo://app?vid=cdac70c1-0ff2-41e0-ab4d-d222c1997007","ios":"levelo://app?vid=cdac70c1-0ff2-41e0-ab4d-d222c1997007"},"vehicle_type_id":"4","last_reported":1706299656,"current_range_meters":2000,"station_id":"ce4bh292rcd13ifvqdf0","pricing_plan_id":"free"},{"bike_id":"ade0d17b-87de-43a2-90eb-cd2009c28e1e","system_id":"levelo_inurba_marseille","lat":43.289307,"lon":5.38406,"is_reserved":false,"is_disabled":false,"rental_uris":{"android":"levelo://app?vid=ade0d17b-87de-43a2-90eb-cd2009c28e1e","ios":"levelo://app?vid=ade0d17b-87de-43a2-90eb-cd2009c28e1e"},"vehicle_type_id":"4","last_reported":1706299656,"current_range_meters":4400,"station_id":"ce4bh612rcd13ifvqe6g","pricing_plan_id":"free"},{"bike_id":"c6de95bb-9716-442e-a8d0-a7776611188e","system_id":"levelo_inurba_marseille","lat":43.302759,"lon":5.400793,"is_reserved":false,"is_disabled":false,"rental_uris":{"android":"levelo://app?vid=c6de95bb-9716-442e-a8d0-a7776611188e","ios":"levelo://app?vid=c6de95bb-9716-442e-a8d0-a7776611188e"},"vehicle_type_id":"4","last_reported":1706299656,"current_range_meters":22400,"station_id":"ce4bgvh2rcd13ifvqcs0","pricing_plan_id":"free"},{"bike_id":"01558ba2-8104-4de7-80a1-8a0fedbc2942","system_id":"levelo_inurba_marseille","lat":43.290345,"lon":5.38646,"is_reserved":false,"is_disabled":false,"rental_uris":{"android":"levelo://app?vid=01558ba2-8104-4de7-80a1-8a0fedbc2942","ios":"levelo://app?vid=01558ba2-8104-4de7-80a1-8a0fedbc2942"},"vehicle_type_id":"4","last_reported":1706299656,"current_range_meters":10400,"station_id":"ce4bh4p2rcd13ifvqe0g","pricing_plan_id":"free"},{"bike_id":"265d5129-6dfd-456f-9552-90c6f0b373df","system_id":"levelo_inurba_marseille","lat":43.290345,"lon":5.38646,"is_reserved":false,"is_disabled":false,"rental_uris":{"android":"levelo://app?vid=265d5129-6dfd-456f-9552-90c6f0b373df","ios":"levelo://app?vid=265d5129-6dfd-456f-9552-90c6f0b373df"},"vehicle_type_id":"4","last_reported":1706299656,"current_range_meters":20800,"station_id":"ce4bh4p2rcd13ifvqe0g","pricing_plan_id":"free"},{"bike_id":"f6201ce6-921f-4fe5-8cba-8cf513a6be21","system_id":"levelo_inurba_marseille","lat":43.290345,"lon":5.38646,"is_reserved":false,"is_disabled":false,"rental_uris":{"android":"levelo://app?vid=f6201ce6-921f-4fe5-8cba-8cf513a6be21","ios":"levelo://app?vid=f6201ce6-921f-4fe5-8cba-8cf513a6be21"},"vehicle_type_id":"4","last_reported":1706299656,"current_range_meters":11200,"station_id":"ce4bh4p2rcd13ifvqe0g","pricing_plan_id":"free"},{"bike_id":"6ca98324-dca6-4df4-b3a4-54270a11b66c","system_id":"levelo_inurba_marseille","lat":43.289307,"lon":5.38406,"is_reserved":false,"is_disabled":false,"rental_uris":{"android":"levelo://app?vid=6ca98324-dca6-4df4-b3a4-54270a11b66c","ios":"levelo://app?vid=6ca98324-dca6-4df4-b3a4-54270a11b66c"},"vehicle_type_id":"4","last_reported":1706299656,"current_range_meters":10400,"station_id":"ce4bh612rcd13ifvqe6g","pricing_plan_id":"free"},{"bike_id":"183bb1c1-398f-466c-b05d-327ac4efc436","system_id":"levelo_inurba_marseille","lat":43.302511,"lon":5.400653,"is_reserved":false,"is_disabled":false,"rental_uris":{"android":"levelo://app?vid=183bb1c1-398f-466c-b05d-327ac4efc436","ios":"levelo://app?vid=183bb1c1-398f-466c-b05d-327ac4efc436"},"vehicle_type_id":"4","last_reported":1706299656,"current_range_meters":17600,"station_id":"ce4bgth2rcd13ifvqch0","pricing_plan_id":"free"},