{"last_updated":1738076941,"ttl":60,"version":"2.2","data":{"bikes":[{"bike_id":"9cf33ab8-c82b-46a9-be4f-34cdf6ce4a10","system_id":"levelo_inurba_marseille","lat":43.3054,"lon":5.367,"is_reserved":false,"is_disabled":false,"rental_uris":{"android":"levelo://app?vid=9cf33ab8-c82b-46a9-be4f-34cdf6ce4a10","ios":"levelo://app?vid=9cf33ab8-c82b-46a9-be4f-34cdf6ce4a10"},"vehicle_type_id":"4","last_reported":1738076942,"current_range_meters":22400,"station_id":"ce4bgrp2rcd13ifvqc9g","pricing_plan_id":"cebpf4jnsgd1na2vs0mg"},{"bike_id":"c98c10ad-2c59-465b-9626-e2f31164a824","system_id":"levelo_inurba_marseille","lat":43.231927,"lon":5.355554,"is_reserved":false,"is_disabled":false,"rental_uris":{"android":"levelo://app?vid=c98c10ad-2c59-465b-9626-e2f31164a824","ios":"levelo://app?vid=c98c10ad-2c59-465b-9626-e2f31164a824"},"vehicle_type_id":"4","last_reported":1738076942,"current_range_meters":28800,"station_id":"ce4bhu92rcd13ifvqi70","pricing_plan_id":"cebpf4jnsgd1na2vs0mg"},{"bike_id":"9cb28e57-4033-4c1e-908e-1df96b0aeab2","system_id":"levelo_inurba_marseille","lat":43.308913,"lon":5.396478,"is_reserved":false,"is_disabled":false,"rental_uris":{"android":"levelo://app?vid=9cb28e57-4033-4c1e-908e-1df96b0aeab2","ios":"levelo://app?vid=9cb28e57-4033-4c1e-908e-1df96b0aeab2"},"vehicle_type_id":"4","last_reported":1738076942,"current_range_meters":35600,"station_id":"ce4bh012rcd13ifvqcv0","pricing_plan_id":"cebpf4jnsgd1na2vs0mg"},{"bike_id":"02e98ac7-9859-40c9-9d6c-4ecb73e263ea","system_id":"levelo_inurba_marseille","lat":43.23159,"lon":5.43707,"is_reserved":false,"is_disabled":false,"rental_uris":{"android":"levelo://app?vid=02e98ac7-9859-40c9-9d6c-4ecb73e263ea","ios":"levelo://app?vid=02e98ac7-9859-40c9-9d6c-4ecb73e263ea"},"vehicle_type_id":"4","last_reported":1738076942,"current_range_meters":16800,"station_id":"ce4bhmp2rcd13ifvqgog","pricing_plan_id":"cebpf4jnsgd1na2vs0mg"},{"bike_id":"bde5b8d5-a83f-42e3-add6-97796caaf945","system_id":"levelo_inurba_marseille","lat":43.29717,"lon":5.37674,"is_reserved":false,"is_disabled":false,"rental_uris":{"android":"levelo://app?vid=bde5b8d5-a83f-42e3-add6-97796caaf945","ios":"levelo://app?vid=bde5b8d5-a83f-42e3-add6-97796caaf945"},"vehicle_type_id":"4","last_reported":1738076942,"current_range_meters":28000,"station_id":"ce4bgkh2rcd13ifvqbl0","pricing_plan_id":"cebpf4jnsgd1na2vs0mg"},{"bike_id":"b3e91f78-708e-4596-990f-41048d4ca708","system_id":"levelo_inurba_marseille","lat":43.2836,"lon":5.38101,"is_reserved":false,"is_disabled":false,"rental_uris":{"android":"levelo://app?vid=b3e91f78-708e-4596-990f-41048d4ca708","ios":"levelo://app?vid=b3e91f78-708e-4596-990f-41048d4ca708"},"vehicle_type_id":"4","last_reported":1738076942,"current_range_meters":35200,"station_id":"ce4bh412rcd13ifvqdr0","pricing_plan_id":"cebpf4jnsgd1na2vs0mg"},{"bike_id":"fda4a567-b02f-42a2-a6c7-f821d528ae71","system_id":"levelo_inurba_marseille","lat":43.3065,"lon":5.40105,"is_reserved":false,"is_disabled":false,"rental_uris":{"android":"levelo://app?vid=fda4a567-b02f-42a2-a6c7-f821d528ae71","ios":"levelo://app?vid=fda4a567-b02f-42a2-a6c7-f821d528ae71"},"vehicle_type_id":"4","last_reported":1738076942,"current_range_meters":37600,"station_id":"ce4bh112rcd13ifvqda0","pricing_plan_id":"cebpf4jnsgd1na2vs0mg"},{"bike_id":"f7f8117f-03ef-415e-85c6-2eeaf165e4f2","system_id":"levelo_inurba_marseille","lat":43.26248,"lon":5.40432,"is_reserved":false,"is_disabled":true,"rental_uris":{"android":"levelo://app?vid=f7f8117f-03ef-415e-85c6-2eeaf165e4f2","ios":"levelo://app?vid=f7f8117f-03ef-415e-85c6-2eeaf165e4f2"},"vehicle_type_id":"4","last_reported":1738076942,"current_range_meters":32800,"station_id":"ce4bhmh2rcd13ifvqgmg","pricing_plan_id":"cebpf4jnsgd1na2vs0mg"},{"bike_id":"f7f059d2-5135-4464-ac25-3225c8cd4b36","system_id":"levelo_inurba_marseille","lat":43.28362,"lon":5.38635,"is_reserved":false,"is_disabled":false,"rental_uris":{"android":"levelo://app?vid=f7f059d2-5135-4464-ac25-3225c8cd4b36","ios":"levelo://app?vid=f7f059d2-5135-4464-ac25-3225c8cd4b36"},"vehicle_type_id":"4","last_reported":1738076942,"current_range_meters":39200,"station_id":"ce4bh492rcd13ifvqdvg","pricing_plan_id":"cebpf4jnsgd1na2vs0mg"},{"bike_id":"990ae45e-9692-41d6-9f8a-fa5d779220e1","system_id":"levelo_inurba_marseille","lat":43.23961,"lon":5.36634,"is_reserved":false,"is_disabled":false,"rental_uris":{"android":"levelo://app?vid=990ae45e-9692-41d6-9f8a-fa5d779220e1","ios":"levelo://app?vid=990ae45e-9692-41d6-9f8a-fa5d779220e1"},"vehicle_type_id":"4","last_reported":1738076942,"current_range_meters":8000,"station_id":"ce4bhi12rcd13ifvqfp0","pricing_plan_id":"cebpf4jnsgd1na2vs0mg"},{"bike_id":"3dfd3c65-9319-4df0-b7e5-a40cf909f36a","system_id":"levelo_inurba_marseille","lat":43.27057,"lon":5.40264,"is_reserved":false,"is_disabled":false,"rental_uris":{"android":"levelo://app?vid=3dfd3c65-9319-4df0-b7e5-a40cf909f36a","ios":"levelo://app?vid=3dfd3c65-9319-4df0-b7e5-a40cf909f36a"},"vehicle_type_id":"4","last_reported":1738076942,"current_range_meters":22400,"station_id":"ce4bhk92rcd13ifvqgc0","pricing_plan_id":"cebpf4jnsgd1na2vs0mg"},{"bike_id":"d77faba5-2b0c-430f-ad22-bcf40b90e74c","system_id":"levelo_inurba_marseille","lat":43.27836,"lon":5.40705,"is_reserved":false,"is_disabled":true,"rental_uris":{"android":"levelo://app?vid=d77faba5-2b0c-430f-ad22-bcf40b90e74c","ios":"levelo://app?vid=d77faba5-2b0c-430f-ad22-bcf40b90e74c"},"vehicle_type_id":"4","last_reported":1738076942,"current_range_meters":38400,"station_id":"ce4bhnh2rcd13ifvqgtg","pricing_plan_id":"cebpf4jnsgd1na2vs0mg"},{"bike_id":"e1062aeb-c2fe-4436-9378-f34f81565a82","system_id":"levelo_inurba_marseille","lat":43.29546,"lon":5.42292,"is_reserved":false,"is_disabled":false,"rental_uris":{"android":"levelo://app?vid=e1062aeb-c2fe-4436-9378-f34f81565a82","ios":"levelo://app?vid=e1062aeb-c2fe-4436-9378-f34f81565a82"},"vehicle_type_id":"4","last_reported":1738076942,"current_range_meters":38800,"station_id":"ce4bhph2rcd13ifvqhdg","pricing_plan_id":"cebpf4jnsgd1na2vs0mg"},{"bike_id":"cf5135e8-87a8-4262-b2c4-9a8841e41d1a","system_id":"levelo_inurba_marseille","lat":43.3265,"lon":5.40987,"is_reserved":false,"is_disabled":false,"rental_uris":{"android":"levelo://app?vid=cf5135e8-87a8-4262-b2c4-9a8841e41d1a","ios":"levelo://app?vid=cf5135e8-87a8-4262-b2c4-9a8841e41d1a"},"vehicle_type_id":"4","last_reported":1738076942,"current_range_meters":38800,"station_id":"ce4bhpp2rcd13ifvqhgg","pricing_plan_id":"cebpf4jnsgd1na2vs0mg"},{"bike_id":"71b08460-4b9d-46eb-90f1-d29961c4c138","system_id":"levelo_inurba_marseille","lat":43.29185,"lon":5.3581,"is_reserved":false,"is_disabled":false,"rental_uris":{"android":"levelo://app?vid=71b08460-4b9d-46eb-90f1-d29961c4c138","ios":"levelo://app?vid=71b08460-4b9d-46eb-90f1-d29961c4c138"},"vehicle_type_id":"4","last_reported":1738076942,"current_range_meters":17600,"station_id":"ce4bhb12rcd13ifvqel0","pricing_plan_id":"cebpf4jnsgd1na2vs0mg"},{"bike_id":"8df2db50-4daa-47a5-9ab9-8a9fa8fdc263","system_id":"levelo_inurba_marseille","lat":43.26493,"lon":5.39534,"is_reserved":false,"is_disabled":false,"rental_uris":{"android":"levelo://app?vid=8df2db50-4daa-47a5-9ab9-8a9fa8fdc263","ios":"levelo://app?vid=8df2db50-4daa-47a5-9ab9-8a9fa8fdc263"},"vehicle_type_id":"4","last_reported":1738076942,"current_range_meters":32400,"station_id":"ce4bhi12rcd13ifvqfq0","pricing_plan_id":"cebpf4jnsgd1na2vs0mg"},{"bike_id":"4fdc1a81-816d-4f08-8e37-679c153a6d39","system_id":"levelo_inurba_marseille","lat":43.26554,"lon":5.37285,"is_reserved":false,"is_disabled":false,"rental_uris":{"android":"levelo://app?vid=4fdc1a81-816d-4f08-8e37-679c153a6d39","ios":"levelo://app?vid=4fdc1a81-816d-4f08-8e37-679c153a6d39"},"vehicle_type_id":"4","last_reported":1738076942,"current_range_meters":7200,"station_id":"ce4bhg12rcd13ifvqf70","pricing_plan_id":"cebpf4jnsgd1na2vs0mg"},{"bike_id":"49a28dbb-9ec5-46f9-976d-461f8d6f358f","system_id":"levelo_inurba_marseille","lat":43.30313,"lon":5.36901,"is_reserved":false,"is_disabled":false,"rental_uris":{"android":"levelo://app?vid=49a28dbb-9ec5-46f9-976d-461f8d6f358f","ios":"levelo://app?vid=49a28dbb-9ec5-46f9-976d-461f8d6f358f"},"vehicle_type_id":"4","last_reported":1738076942,"current_range_meters":11200,"station_id":"ce4bgqh2rcd13ifvqc5g","pricing_plan_id":"cebpf4jnsgd1na2vs0mg"},{"bike_id":"96c6d005-88bb-4fd6-98f4-0a014c553eb8","system_id":"levelo_inurba_marseille","lat":43.33016,"lon":5.39045,"is_reserved":false,"is_disabled":false,"rental_uris":{"android":"levelo://app?vid=96c6d005-88bb-4fd6-98f4-0a014c553eb8","ios":"levelo://app?vid=96c6d005-88bb-4fd6-98f4-0a014c553eb8"},"vehicle_type_id":"4","last_reported":1738076942,"current_range_meters":38000,"station_id":"ce4bhr92rcd13ifvqhrg","pricing_plan_id":"cebpf4jnsgd1na2vs0mg"},{"bike_id":"5c388708-e3f2-4bbd-88d9-c199a31e81f9","system_id":"levelo_inurba_marseille","lat":43.28721,"lon":5.39994,"is_reserved":false,"is_disabled":true,"rental_uris":{"android":"levelo://app?vid=5c388708-e3f2-4bbd-88d9-c199a31e81f9","ios":"levelo://app?vid=5c388708-e3f2-4bbd-88d9-c199a31e81f9"},"vehicle_type_id":"4","last_reported":1738076942,"current_range_meters":35600,"station_id":"ce4bho92rcd13ifvqh3g","pricing_plan_id":"cebpf4jnsgd1na2vs0mg"},{"bike_id":"99f052ce-e5d4-4959-9f96-077a48f3f1c5","system_id":"levelo_inurba_marseille","lat":43.27189,"lon":5.40998,"is_reserved":false,"is_disabled":false,"rental_uris":{"android":"levelo://app?vid=99f052ce-e5d4-4959-9f96-077a48f3f1c5","ios":"levelo://app?vid=99f052ce-e5d4-4959-9f96-077a48f3f1c5"},"vehicle_type_id":"4","last_reported":1738076942,"current_range_meters":30800,"station_id":"ce4bhl12rcd13ifvqgf0","pricing_plan_id":"cebpf4jnsgd1na2vs0mg"},{"bike_id":"b7e930f6-0782-4f78-9213-d7489ba524c7","system_id":"levelo_inurba_marseille","lat":43.28929,"lon":5.38387,"is_reserved":false,"is_disabled":false,"rental_uris":{"android":"levelo://app?vid=b7e930f6-0782-4f78-9213-d7489ba524c7","ios":"levelo://app?vid=b7e930f6-0782-4f78-9213-d7489ba524c7"},"vehicle_type_id":"4","last_reported":1738076942,"current_range_meters":20400,"station_id":"ce4bh612rcd13ifvqe6g","pricing_plan_id":"cebpf4jnsgd1na2vs0mg"},{"bike_id":"d6e771bb-f496-4392-8f11-9a8517e12dd2","system_id":"levelo_inurba_marseille","lat":43.29076,"lon":5.38142,"is_reserved":false,"is_disabled":false,"rental_uris":{"android":"levelo://app?vid=d6e771bb-f496-4392-8f11-9a8517e12dd2","ios":"levelo://app?vid=d6e771bb-f496-4392-8f11-9a8517e12dd2"},"vehicle_type_id":"4","last_reported":1738076942,"current_range_meters":38800,"station_id":"ce4bh512rcd13ifvqe2g","pricing_plan_id":"cebpf4jnsgd1na2vs0mg"},{"bike_id":"d302b16d-f581-4992-9151-b0c15c078cdc","system_id":"levelo_inurba_marseille","lat":43.26811,"lon":5.40255,"is_reserved":false,"is_disabled":false,"rental_uris":{"android":"levelo://app?vid=d302b16d-f581-4992-9151-b0c15c078cdc","ios":"levelo://app?vid=d302b16d-f581-4992-9151-b0c15c078cdc"},"vehicle_type_id":"4","last_reported":1738076942,"current_range_meters":38800,"station_id":"ce501612rcd8frsf0b60","pricing_plan_id":"cebpf4jnsgd1na2vs0mg"},{"bike_id":"986780bc-fe9d-4694-95f4-a51b2f8a6be1","system_id":"levelo_inurba_marseille","lat":43.27561,"lon":5.38424,"is_reserved":false,"is_disabled":false,"rental_uris":{"android":"levelo://app?vid=986780bc-fe9d-4694-95f4-a51b2f8a6be1","ios":"levelo://app?vid=986780bc-fe9d-4694-95f4-a51b2f8a6be1"},"vehicle_type_id":"4","last_reported":1738076942,"current_range_meters":39200,"station_id":"ce4bhh92rcd13ifvqfi0","pricing_plan_id":"cebpf4jnsgd1na2vs0mg"},{"bike_id":"26b11614-6415-40a3-bed2-5926abfaad8a","system_id":"levelo_inurba_marseille","lat":43.26682,"lon":5.38261,"is_reserved":false,"is_disabled":false,"rental_uris":{"android":"levelo://app?vid=26b11614-6415-40a3-bed2-5926abfaad8a","ios":"levelo://app?vid=26b11614-6415-40a3-bed2-5926abfaad8a"},"vehicle_type_id":"4","last_reported":1738076942,"current_range_meters":31200,"station_id":"ce4bhg92rcd13ifvqf90","pricing_plan_id":"cebpf4jnsgd1na2vs0mg"},{"bike_id":"05842d9c-388f-43e0-bc27-d826bd7ff1ce","system_id":"levelo_inurba_marseille","lat":43.30564,"lon":5.36706,"is_reserved":false,"is_disabled":false,"rental_uris":{"android":"levelo://app?vid=05842d9c-388f-43e0-bc27-d826bd7ff1ce","ios":"levelo://app?vid=05842d9c-388f-43e0-bc27-d826bd7ff1ce"},"vehicle_type_id":"4","last_reported":1738076942,"current_range_meters":24800,"station_id":"ce4bgrp2rcd13ifvqc9g","pricing_plan_id":"cebpf4jnsgd1na2vs0mg"},{"bike_id":"a8d5c007-3fb3-466f-9983-df258542e202","system_id":"levelo_inurba_marseille","lat":43.29935,"lon":5.36546,"is_reserved":false,"is_disabled":false,"rental_uris":{"android":"levelo://app?vid=a8d5c007-3fb3-466f-9983-df258542e202","ios":"levelo://app?vid=a8d5c007-3fb3-466f-9983-df258542e202"},"vehicle_type_id":"4","last_reported":1738076942,"current_range_meters":9600,"station_id":"ce4bgm92rcd13ifvqbr0","pricing_plan_id":"cebpf4jnsgd1na2vs0mg"},{"bike_id":"267b81e9-ec74-4397-84c3-841085eb5363","system_id":"levelo_inurba_marseille","lat":43.29607,"lon":5.38101,"is_reserved":false,"is_disabled":true,"rental_uris":{"android":"levelo://app?vid=267b81e9-ec74-4397-84c3-841085eb5363","ios":"levelo://app?vid=267b81e9-ec74-4397-84c3-841085eb5363"},"vehicle_type_id":"4","last_reported":1738076942,"current_range_meters":0,"station_id":"ce4bgl12rcd13ifvqbo0","pricing_plan_id":"cebpf4jnsgd1na2vs0mg"},{"bike_id":"c18ce031-3f27-4308-b2b2-c2e2636bc67b","system_id":"levelo_inurba_marseille","lat":43.2722,"lon":5.39185,"is_reserved":false,"is_disabled":false,"rental_uris":{"android":"levelo://app?vid=c18ce031-3f27-4308-b2b2-c2e2636bc67b","ios":"levelo://app?vid=c18ce031-3f27-4308-b2b2-c2e2636bc67b"},"vehicle_type_id":"4","last_reported":1738076942,"current_range_meters":10800,"station_id":"ce4bhhp2rcd13ifvqfm0","pricing_plan_id":"cebpf4jnsgd1na2vs0mg"},{"bike_id":"5d4915e0-4a9f-4c36-821a-8bde58abc3cd","system_id":"levelo_inurba_marseille","lat":43.25099,"lon":5.40327,"is_reserved":false,"is_disabled":true,"rental_uris":{"android":"levelo://app?vid=5d4915e0-4a9f-4c36-821a-8bde58abc3cd","ios":"levelo://app?vid=5d4915e0-4a9f-4c36-821a-8bde58abc3cd"},"vehicle_type_id":"4","last_reported":1738076942,"current_range_meters":14800,"station_id":"ce4bhlh2rcd13ifvqgig","pricing_plan_id":"cebpf4jnsgd1na2vs0mg"},{"bike_id":"72badfa2-a202-449f-979d-68487d445994","system_id":"levelo_inurba_marseille","lat":43.24071,"lon":5.37754,"is_reserved":false,"is_disabled":false,"rental_uris":{"android":"levelo://app?vid=72badfa2-a202-449f-979d-68487d445994","ios":"levelo://app?vid=72badfa2-a202-449f-979d-68487d445994"},"vehicle_type_id":"4","last_reported":1738076942,"current_range_meters":37600,"station_id":"ce4bhnp2rcd13ifvqgvg","pricing_plan_id":"cebpf4jnsgd1na2vs0mg"},{"bike_id":"75f78423-7bb1-46bc-9291-8f61438106b2","system_id":"levelo_inurba_marseille","lat":43.330158,"lon":5.390538,"is_reserved":false,"is_disabled":false,"rental_uris":{"android":"levelo://app?vid=75f78423-7bb1-46bc-9291-8f61438106b2","ios":"levelo://app?vid=75f78423-7bb1-46bc-9291-8f61438106b2"},"vehicle_type_id":"4","last_reported":1738076942,"current_range_meters":29600,"station_id":"ce4bhr92rcd13ifvqhrg","pricing_plan_id":"cebpf4jnsgd1na2vs0mg"},{"bike_id":"5b093e90-300a-4b0a-a15d-ae22ef06f7a6","system_id":"levelo_inurba_marseille","lat":43.30516,"lon":5.36538,"is_reserved":false,"is_disabled":false,"rental_uris":{"android":"levelo://app?vid=5b093e90-300a-4b0a-a15d-ae22ef06f7a6","ios":"levelo://app?vid=5b093e90-300a-4b0a-a15d-ae22ef06f7a6"},"vehicle_type_id":"4","last_reported":1738076942,"current_range_meters":31200,"station_id":"ce4bgs12rcd13ifvqcag","pricing_plan_id":"cebpf4jnsgd1na2vs0mg"},{"bike_id":"8906b01c-c546-42d8-8a71-d3e4c23c32f6","system_id":"levelo_inurba_marseille","lat":43.24413,"lon":5.37058,"is_reserved":false,"is_disabled":false,"rental_uris":{"android":"levelo://app?vid=8906b01c-c546-42d8-8a71-d3e4c23c32f6","ios":"levelo://app?vid=8906b01c-c546-42d8-8a71-d3e4c23c32f6"},"vehicle_type_id":"4","last_reported":1738076942,"current_range_meters":38800,"station_id":"ce4bhhh2rcd13ifvqfk0","pricing_plan_id":"cebpf4jnsgd1na2vs0mg"},{"bike_id":"6dc46f7b-097e-4bed-b74a-5bab6b23ccc2","system_id":"levelo_inurba_marseille","lat":43.31332,"lon":5.39688,"is_reserved":false,"is_disabled":false,"rental_uris":{"android":"levelo://app?vid=6dc46f7b-097e-4bed-b74a-5bab6b23ccc2","ios":"levelo://app?vid=6dc46f7b-097e-4bed-b74a-5bab6b23ccc2"},"vehicle_type_id":"4","last_reported":1738076942,"current_range_meters":28400,"station_id":"ce4bgvp2rcd13ifvqcu0","pricing_plan_id":"cebpf4jnsgd1na2vs0mg"},{"bike_id":"5a345101-40d7-408a-87d7-d5d4a6572658","system_id":"levelo_inurba_marseille","lat":43.30901,"lon":5.3685,"is_reserved":false,"is_disabled":true,"rental_uris":{"android":"levelo://app?vid=5a345101-40d7-408a-87d7-d5d4a6572658","ios":"levelo://app?vid=5a345101-40d7-408a-87d7-d5d4a6572658"},"vehicle_type_id":"4","last_reported":1738076942,"current_range_meters":800,"station_id":"ce4bgn92rcd13ifvqbvg","pricing_plan_id":"cebpf4jnsgd1na2vs0mg"},{"bike_id":"3ce6fa52-6500-4a69-b8ec-4e42555d24d1","system_id":"levelo_inurba_marseille","lat":43.2972,"lon":5.3766,"is_reserved":false,"is_disabled":false,"rental_uris":{"android":"levelo://app?vid=3ce6fa52-6500-4a69-b8ec-4e42555d24d1","ios":"levelo://app?vid=3ce6fa52-6500-4a69-b8ec-4e42555d24d1"},"vehicle_type_id":"4","last_reported":1738076942,"current_range_meters":30000,"station_id":"ce4bgkh2rcd13ifvqbl0","pricing_plan_id":"cebpf4jnsgd1na2vs0mg"},{"bike_id":"c8d71b77-8734-42f9-ac51-84a7c5f5c869","system_id":"levelo_inurba_marseille","lat":43.29616,"lon":5.37166,"is_reserved":false,"is_disabled":false,"rental_uris":{"android":"levelo://app?vid=c8d71b77-8734-42f9-ac51-84a7c5f5c869","ios":"levelo://app?vid=c8d71b77-8734-42f9-ac51-84a7c5f5c869"},"vehicle_type_id":"4","last_reported":1738076942,"current_range_meters":30000,"station_id":"ce4bgnh2rcd13ifvqc0g","pricing_plan_id":"cebpf4jnsgd1na2vs0mg"},{"bike_id":"bc17dce0-ee31-4fff-8ecb-c16dfad010bb","system_id":"levelo_inurba_marseille","lat":43.30954,"lon":5.3904,"is_reserved":false,"is_disabled":false,"rental_uris":{"android":"levelo://app?vid=bc17dce0-ee31-4fff-8ecb-c16dfad010bb","ios":"levelo://app?vid=bc17dce0-ee31-4fff-8ecb-c16dfad010bb"},"vehicle_type_id":"4","last_reported":1738076942,"current_range_meters":9200,"station_id":"ce4bgup2rcd13ifvqco0","pricing_plan_id":"cebpf4jnsgd1na2vs0mg"},{"bike_id":"a4c21496-7986-4e53-a204-fb1679266c3e","system_id":"levelo_inurba_marseille","lat":43.29366,"lon":5.37847,"is_reserved":false,"is_disabled":false,"rental_uris":{"android":"levelo://app?vid=a4c21496-7986-4e53-a204-fb1679266c3e","ios":"levelo://app?vid=a4c21496-7986-4e53-a204-fb1679266c3e"},"vehicle_type_id":"4","last_reported":1738076942,"current_range_meters":24800,"station_id":"ce4bgjh2rcd13ifvqbf0","pricing_plan_id":"cebpf4jnsgd1na2vs0mg"},{"bike_id":"ffcb2860-a50c-412f-8782-bc0efd93fbf4","system_id":"levelo_inurba_marseille","lat":43.23182,"lon":5.39992,"is_reserved":false,"is_disabled":false,"rental_uris":{"android":"levelo://app?vid=ffcb2860-a50c-412f-8782-bc0efd93fbf4","ios":"levelo://app?vid=ffcb2860-a50c-412f-8782-bc0efd93fbf4"},"vehicle_type_id":"4","last_reported":1738076942,"current_range_meters":29600,"station_id":"ce4bhn12rcd13ifvqgqg","pricing_plan_id":"cebpf4jnsgd1na2vs0mg"},{"bike_id":"74f5b4fb-c983-4859-8997-cbdd1d625684","system_id":"levelo_inurba_marseille","lat":43.25915,"lon":5.40877,"is_reserved":false,"is_disabled":false,"rental_uris":{"android":"levelo://app?vid=74f5b4fb-c983-4859-8997-cbdd1d625684","ios":"levelo://app?vid=74f5b4fb-c983-4859-8997-cbdd1d625684"},"vehicle_type_id":"4","last_reported":1738076942,"current_range_meters":32800,"station_id":"ce4bhm92rcd13ifvqglg","pricing_plan_id":"cebpf4jnsgd1na2vs0mg"},{"bike_id":"6926221e-8b00-4c4c-ab4f-202267e358dc","system_id":"levelo_inurba_marseille","lat":43.31224,"lon":5.36857,"is_reserved":false,"is_disabled":false,"rental_uris":{"android":"levelo://app?vid=6926221e-8b00-4c4c-ab4f-202267e358dc","ios":"levelo://app?vid=6926221e-8b00-4c4c-ab4f-202267e358dc"},"vehicle_type_id":"4","last_reported":1738076942,"current_range_meters":33600,"station_id":"ce4bgl92rcd13ifvqbq0","pricing_plan_id":"cebpf4jnsgd1na2vs0mg"},{"bike_id":"528dd257-e231-44f4-876b-6552ff415f71","system_id":"levelo_inurba_marseille","lat":43.22927,"lon":5.35351,"is_reserved":false,"is_disabled":false,"rental_uris":{"android":"levelo://app?vid=528dd257-e231-44f4-876b-6552ff415f71","ios":"levelo://app?vid=528dd257-e231-44f4-876b-6552ff415f71"},"vehicle_type_id":"4","last_reported":1738076942,"current_range_meters":37600,"station_id":"cpo3532slgdg3j2ikp40","pricing_plan_id":"cebpf4jnsgd1na2vs0mg"},{"bike_id":"3c6f13f7-b35d-42d4-bd48-dbb1dbad34b0","system_id":"levelo_inurba_marseille","lat":43.31177,"lon":5.38711,"is_reserved":false,"is_disabled":false,"rental_uris":{"android":"levelo://app?vid=3c6f13f7-b35d-42d4-bd48-dbb1dbad34b0","ios":"levelo://app?vid=3c6f13f7-b35d-42d4-bd48-dbb1dbad34b0"},"vehicle_type_id":"4","last_reported":1738076942,"current_range_meters":33200,"station_id":"ce4bgv12rcd13ifvqcp0","pricing_plan_id":"cebpf4jnsgd1na2vs0mg"},{"bike_id":"c8a3a0ed-dff2-4f3c-87dc-2e6b47b1ad28","system_id":"levelo_inurba_marseille","lat":43.337444,"lon":5.374475,"is_reserved":false,"is_disabled":true,"rental_uris":{"android":"levelo://app?vid=c8a3a0ed-dff2-4f3c-87dc-2e6b47b1ad28","ios":"levelo://app?vid=c8a3a0ed-dff2-4f3c-87dc-2e6b47b1ad28"},"vehicle_type_id":"4","last_reported":1738076942,"current_range_meters":4800,"station_id":"","pricing_plan_id":"cebpf4jnsgd1na2vs0mg"},{"bike_id":"061a807c-1db8-46c7-beec-da6308b151ea","system_id":"levelo_inurba_marseille","lat":43.29594,"lon":5.38099,"is_reserved":false,"is_disabled":true,"rental_uris":{"android":"levelo://app?vid=061a807c-1db8-46c7-beec-da6308b151ea","ios":"levelo://app?vid=061a807c-1db8-46c7-beec-da6308b151ea"},"vehicle_type_id":"4","last_reported":1738076942,"current_range_meters":32000,"station_id":"ce4bgl12rcd13ifvqbo0","pricing_plan_id":"cebpf4jnsgd1na2vs0mg"},{"bike_id":"bbac4089-71dc-4393-89ae-ad1e6d7b6fc4","system_id":"levelo_inurba_marseille","lat":43.29263,"lon":5.36849,"is_reserved":false,"is_disabled":false,"rental_uris":{"android":"levelo://app?vid=bbac4089-71dc-4393-89ae-ad1e6d7b6fc4","ios":"levelo://app?vid=bbac4089-71dc-4393-89ae-ad1e6d7b6fc4"},"vehicle_type_id":"4","last_reported":1738076942,"current_range_meters":38800,"station_id":"ce4bhbp2rcd13ifvqesg","pricing_plan_id":"cebpf4jnsgd1na2vs0mg"},{"bike_id":"0c9c0a96-c5dc-46e5-9f1a-5abd10aa00ca","system_id":"levelo_inurba_marseille","lat":43.27047,"lon":5.40263,"is_reserved":false,"is_disabled":false,"rental_uris":{"android":"levelo://app?vid=0c9c0a96-c5dc-46e5-9f1a-5abd10aa00ca","ios":"levelo://app?vid=0c9c0a96-c5dc-46e5-9f1a-5abd10aa00ca"},"vehicle_type_id":"4","last_reported":1738076942,"current_range_meters":20400,"station_id":"ce4bhk92rcd13ifvqgc0","pricing_plan_id":"cebpf4jnsgd1na2vs0mg"},{"bike_id":"f7118ebb-243d-4b84-a2c7-2c0d6c72fdf2","system_id":"levelo_inurba_marseille","lat":43.3176,"lon":5.39016,"is_reserved":false,"is_disabled":false,"rental_uris":{"android":"levelo://app?vid=f7118ebb-243d-4b84-a2c7-2c0d6c72fdf2","ios":"levelo://app?vid=f7118ebb-243d-4b84-a2c7-2c0d6c72fdf2"},"vehicle_type_id":"4","last_reported":1738076942,"current_range_meters":38800,"station_id":"ce4bhqp2rcd13ifvqhng","pricing_plan_id":"cebpf4jnsgd1na2vs0mg"},{"bike_id":"c56189c5-04b6-46c3-862e-b1fd4715143e","system_id":"levelo_inurba_marseille","lat":43.23149,"lon":5.43713,"is_reserved":false,"is_disabled":false,"rental_uris":{"android":"levelo://app?vid=c56189c5-04b6-46c3-862e-b1fd4715143e","ios":"levelo://app?vid=c56189c5-04b6-46c3-862e-b1fd4715143e"},"vehicle_type_id":"4","last_reported":1738076942,"current_range_meters":24000,"station_id":"ce4bhmp2rcd13ifvqgog","pricing_plan_id":"cebpf4jnsgd1na2vs0mg"},{"bike_id":"7125fabb-d4fe-450e-b9a8-9b858c3dc86d","system_id":"levelo_inurba_marseille","lat":43.324723,"lon":5.365691,"is_reserved":false,"is_disabled":false,"rental_uris":{"android":"levelo://app?vid=7125fabb-d4fe-450e-b9a8-9b858c3dc86d","ios":"levelo://app?vid=7125fabb-d4fe-450e-b9a8-9b858c3dc86d"},"vehicle_type_id":"4","last_reported":1738076942,"current_range_meters":28400,"station_id":"ce4bhs12rcd13ifvqhvg","pricing_plan_id":"cebpf4jnsgd1na2vs0mg"},{"bike_id":"878dfc93-a59a-462b-b8a9-67361a235037","system_id":"levelo_inurba_marseille","lat":43.28563,"lon":5.39494,"is_reserved":false,"is_disabled":false,"rental_uris":{"android":"levelo://app?vid=878dfc93-a59a-462b-b8a9-67361a235037","ios":"levelo://app?vid=878dfc93-a59a-462b-b8a9-67361a235037"},"vehicle_type_id":"4","last_reported":1738076942,"current_range_meters":38800,"station_id":"ce4bh292rcd13ifvqdg0","pricing_plan_id":"cebpf4jnsgd1na2vs0mg"},{"bike_id":"08fe1b9f-a0f5-4b59-88e5-31d1ec21a3bc","system_id":"levelo_inurba_marseille","lat":43.28779,"lon":5.411187,"is_reserved":false,"is_disabled":false,"rental_uris":{"android":"levelo://app?vid=08fe1b9f-a0f5-4b59-88e5-31d1ec21a3bc","ios":"levelo://app?vid=08fe1b9f-a0f5-4b59-88e5-31d1ec21a3bc"},"vehicle_type_id":"4","last_reported":1738076942,"current_range_meters":35200,"station_id":"ce4bho12rcd13ifvqh1g","pricing_plan_id":"cebpf4jnsgd1na2vs0mg"},{"bike_id":"304671ee-d3db-4725-b698-15e5f144fe70","system_id":"levelo_inurba_marseille","lat":43.27848,"lon":5.40719,"is_reserved":false,"is_disabled":false,"rental_uris":{"android":"levelo://app?vid=304671ee-d3db-4725-b698-15e5f144fe70","ios":"levelo://app?vid=304671ee-d3db-4725-b698-15e5f144fe70"},"vehicle_type_id":"4","last_reported":1738076942,"current_range_meters":36800,"station_id":"ce4bhnh2rcd13ifvqgtg","pricing_plan_id":"cebpf4jnsgd1na2vs0mg"},{"bike_id":"a3e9850f-c312-4b08-a95d-1fbb59c3ae75","system_id":"levelo_inurba_marseille","lat":43.33609,"lon":5.4103,"is_reserved":false,"is_disabled":false,"rental_uris":{"android":"levelo://app?vid=a3e9850f-c312-4b08-a95d-1fbb59c3ae75","ios":"levelo://app?vid=a3e9850f-c312-4b08-a95d-1fbb59c3ae75"},"vehicle_type_id":"4","last_reported":1738076942,"current_range_meters":38000,"station_id":"ce4bhqh2rcd13ifvqhmg","pricing_plan_id":"cebpf4jnsgd1na2vs0mg"},{"bike_id":"cd82f50f-1e86-40da-9758-123ed9f78048","system_id":"levelo_inurba_marseille","lat":43.27396,"lon":5.39361,"is_reserved":false,"is_disabled":false,"rental_uris":{"android":"levelo://app?vid=cd82f50f-1e86-40da-9758-123ed9f78048","ios":"levelo://app?vid=cd82f50f-1e86-40da-9758-123ed9f78048"},"vehicle_type_id":"4","last_reported":1738076942,"current_range_meters":33600,"station_id":"ce4bhdp2rcd13ifvqf20","pricing_plan_id":"cebpf4jnsgd1na2vs0mg"},{"bike_id":"ac87515a-8bb4-48b1-b85c-2c3a2a77a9ff","system_id":"levelo_inurba_marseille","lat":43.29726,"lon":5.376823,"is_reserved":false,"is_disabled":false,"rental_uris":{"android":"levelo://app?vid=ac87515a-8bb4-48b1-b85c-2c3a2a77a9ff","ios":"levelo://app?vid=ac87515a-8bb4-48b1-b85c-2c3a2a77a9ff"},"vehicle_type_id":"4","last_reported":1738076942,"current_range_meters":35600,"station_id":"ce4bgkh2rcd13ifvqbl0","pricing_plan_id":"cebpf4jnsgd1na2vs0mg"},{"bike_id":"ece1c51d-d854-4523-ab4d-ec36ed60fd30","system_id":"levelo_inurba_marseille","lat":43.28429,"lon":5.34988,"is_reserved":false,"is_disabled":true,"rental_uris":{"android":"levelo://app?vid=ece1c51d-d854-4523-ab4d-ec36ed60fd30","ios":"levelo://app?vid=ece1c51d-d854-4523-ab4d-ec36ed60fd30"},"vehicle_type_id":"4","last_reported":1738076942,"current_range_meters":1600,"station_id":"ce4bhbh2rcd13ifvqepg","pricing_plan_id":"cebpf4jnsgd1na2vs0mg"},{"bike_id":"9838cc78-2b53-49d3-ae13-82df62c4fd64","system_id":"levelo_inurba_marseille","lat":43.28412,"lon":5.40934,"is_reserved":false,"is_disabled":true,"rental_uris":{"android":"levelo://app?vid=9838cc78-2b53-49d3-ae13-82df62c4fd64","ios":"levelo://app?vid=9838cc78-2b53-49d3-ae13-82df62c4fd64"},"vehicle_type_id":"4","last_reported":1738076942,"current_range_meters":0,"station_id":"","pricing_plan_id":"cebpf4jnsgd1na2vs0mg"},{"bike_id":"f7fe43dd-4981-4cd5-87f2-77f4f1f7fb0f","system_id":"levelo_inurba_marseille","lat":43.28719,"lon":5.37944,"is_reserved":false,"is_disabled":true,"rental_uris":{"android":"levelo://app?vid=f7fe43dd-4981-4cd5-87f2-77f4f1f7fb0f","ios":"levelo://app?vid=f7fe43dd-4981-4cd5-87f2-77f4f1f7fb0f"},"vehicle_type_id":"4","last_reported":1738076942,"current_range_meters":39200,"station_id":"ce4bh9p2rcd13ifvqec0","pricing_plan_id":"cebpf4jnsgd1na2vs0mg"},{"bike_id":"bdd61518-054b-48bc-8991-1505c49a316d","system_id":"levelo_inurba_marseille","lat":43.30932,"lon":5.40139,"is_reserved":false,"is_disabled":false,"rental_uris":{"android":"levelo://app?vid=bdd61518-054b-48bc-8991-1505c49a316d","ios":"levelo://app?vid=bdd61518-054b-48bc-8991-1505c49a316d"},"vehicle_type_id":"4","last_reported":1738076942,"current_range_meters":24800,"station_id":"ce4bgvp2rcd13ifvqct0","pricing_plan_id":"cebpf4jnsgd1na2vs0mg"},{"bike_id":"cb4b9878-96ef-4892-8d93-336dc7a1cc89","system_id":"levelo_inurba_marseille","lat":43.34029,"lon":5.35372,"is_reserved":false,"is_disabled":false,"rental_uris":{"android":"levelo://app?vid=cb4b9878-96ef-4892-8d93-336dc7a1cc89","ios":"levelo://app?vid=cb4b9878-96ef-4892-8d93-336dc7a1cc89"},"vehicle_type_id":"4","last_reported":1738076942,"current_range_meters":36000,"station_id":"","pricing_plan_id":"cebpf4jnsgd1na2vs0mg"},{"bike_id":"715f9247-6fc1-4610-9def-be086feafb3d","system_id":"levelo_inurba_marseille","lat":43.30246,"lon":5.40057,"is_reserved":false,"is_disabled":true,"rental_uris":{"android":"levelo://app?vid=715f9247-6fc1-4610-9def-be086feafb3d","ios":"levelo://app?vid=715f9247-6fc1-4610-9def-be086feafb3d"},"vehicle_type_id":"4","last_reported":1738076942,"current_range_meters":1600,"station_id":"ce4bgvh2rcd13ifvqcs0","pricing_plan_id":"cebpf4jnsgd1na2vs0mg"},{"bike_id":"2487ca79-b2b5-4356-902e-b51cc6971aba","system_id":"levelo_inurba_marseille","lat":43.30535,"lon":5.36549,"is_reserved":false,"is_disabled":false,"rental_uris":{"android":"levelo://app?vid=2487ca79-b2b5-4356-902e-b51cc6971aba","ios":"levelo://app?vid=2487ca79-b2b5-4356-902e-b51cc6971aba"},"vehicle_type_id":"4","last_reported":1738076942,"current_range_meters":14000,"station_id":"ce4bgs12rcd13ifvqcag","pricing_plan_id":"cebpf4jnsgd1na2vs0mg"},{"bike_id":"870af933-ea72-43c9-8a79-d59fa425b0e4","system_id":"levelo_inurba_marseille","lat":43.29219,"lon":5.36061,"is_reserved":false,"is_disabled":false,"rental_uris":{"android":"levelo://app?vid=870af933-ea72-43c9-8a79-d59fa425b0e4","ios":"levelo://app?vid=870af933-ea72-43c9-8a79-d59fa425b0e4"},"vehicle_type_id":"4","last_reported":1738076942,"current_range_meters":38000,"station_id":"ce4bhbh2rcd13ifvqeqg","pricing_plan_id":"cebpf4jnsgd1na2vs0mg"},{"bike_id":"8d198b1c-d183-4e75-867d-bee140abe05c","system_id":"levelo_inurba_marseille","lat":43.30804,"lon":5.43517,"is_reserved":false,"is_disabled":false,"rental_uris":{"android":"levelo://app?vid=8d198b1c-d183-4e75-867d-bee140abe05c","ios":"levelo://app?vid=8d198b1c-d183-4e75-867d-bee140abe05c"},"vehicle_type_id":"4","last_reported":1738076942,"current_range_meters":17200,"station_id":"ce4bhph2rcd13ifvqheg","pricing_plan_id":"cebpf4jnsgd1na2vs0mg"},{"bike_id":"286eff3f-e745-40e0-b2dc-0b8ea06d3399","system_id":"levelo_inurba_marseille","lat":43.30147,"lon":5.38075,"is_reserved":false,"is_disabled":false,"rental_uris":{"android":"levelo://app?vid=286eff3f-e745-40e0-b2dc-0b8ea06d3399","ios":"levelo://app?vid=286eff3f-e745-40e0-b2dc-0b8ea06d3399"},"vehicle_type_id":"4","last_reported":1738076942,"current_range_meters":39200,"station_id":"ce4bgjp2rcd13ifvqbh0","pricing_plan_id":"cebpf4jnsgd1na2vs0mg"},{"bike_id":"b83effac-5ead-4880-819e-28161d9808f2","system_id":"levelo_inurba_marseille","lat":43.31272,"lon":5.40172,"is_reserved":false,"is_disabled":false,"rental_uris":{"android":"levelo://app?vid=b83effac-5ead-4880-819e-28161d9808f2","ios":"levelo://app?vid=b83effac-5ead-4880-819e-28161d9808f2"},"vehicle_type_id":"4","last_reported":1738076942,"current_range_meters":28800,"station_id":"ce4bh092rcd13ifvqd30","pricing_plan_id":"cebpf4jnsgd1na2vs0mg"},{"bike_id":"2e0a8b86-b457-48a0-8577-213b01080398","system_id":"levelo_inurba_marseille","lat":43.23209,"lon":5.35543,"is_reserved":false,"is_disabled":false,"rental_uris":{"android":"levelo://app?vid=2e0a8b86-b457-48a0-8577-213b01080398","ios":"levelo://app?vid=2e0a8b86-b457-48a0-8577-213b01080398"},"vehicle_type_id":"4","last_reported":1738076942,"current_range_meters":38800,"station_id":"ce4bhu92rcd13ifvqi70","pricing_plan_id":"cebpf4jnsgd1na2vs0mg"},{"bike_id":"ad1b1fcc-4b97-4384-8c00-42b188f65aeb","system_id":"levelo_inurba_marseille","lat":43.30304,"lon":5.36898,"is_reserved":false,"is_disabled":false,"rental_uris":{"android":"levelo://app?vid=ad1b1fcc-4b97-4384-8c00-42b188f65aeb","ios":"levelo://app?vid=ad1b1fcc-4b97-4384-8c00-42b188f65aeb"},"vehicle_type_id":"4","last_reported":1738076942,"current_range_meters":17200,"station_id":"ce4bgqh2rcd13ifvqc5g","pricing_plan_id":"cebpf4jnsgd1na2vs0mg"},{"bike_id":"28c8f6de-75cd-4f29-85a3-614ff4fb5330","system_id":"levelo_inurba_marseille","lat":43.24812,"lon":5.37462,"is_reserved":false,"is_disabled":false,"rental_uris":{"android":"levelo://app?vid=28c8f6de-75cd-4f29-85a3-614ff4fb5330","ios":"levelo://app?vid=28c8f6de-75cd-4f29-85a3-614ff4fb5330"},"vehicle_type_id":"4","last_reported":1738076942,"current_range_meters":5600,"station_id":"ce4bhgh2rcd13ifvqfb0","pricing_plan_id":"cebpf4jnsgd1na2vs0mg"},{"bike_id":"d979d8d2-ec65-47af-9229-e4270aab279a","system_id":"levelo_inurba_marseille","lat":43.23072,"lon":5.355,"is_reserved":false,"is_disabled":false,"rental_uris":{"android":"levelo://app?vid=d979d8d2-ec65-47af-9229-e4270aab279a","ios":"levelo://app?vid=d979d8d2-ec65-47af-9229-e4270aab279a"},"vehicle_type_id":"4","last_reported":1738076942,"current_range_meters":24000,"station_id":"cpo3342slgdg3j2ifvpg","pricing_plan_id":"cebpf4jnsgd1na2vs0mg"},{"bike_id":"beec82ff-6bac-4064-befa-4bdf4421761b","system_id":"levelo_inurba_marseille","lat":43.3172,"lon":5.42398,"is_reserved":false,"is_disabled":false,"rental_uris":{"android":"levelo://app?vid=beec82ff-6bac-4064-befa-4bdf4421761b","ios":"levelo://app?vid=beec82ff-6bac-4064-befa-4bdf4421761b"},"vehicle_type_id":"4","last_reported":1738076942,"current_range_meters":8000,"station_id":"ce4bhp92rcd13ifvqhbg","pricing_plan_id":"cebpf4jnsgd1na2vs0mg"},{"bike_id":"af190cbd-d008-43f0-ada0-6e9d26903b20","system_id":"levelo_inurba_marseille","lat":43.32484,"lon":5.36559,"is_reserved":false,"is_disabled":false,"rental_uris":{"android":"levelo://app?vid=af190cbd-d008-43f0-ada0-6e9d26903b20","ios":"levelo://app?vid=af190cbd-d008-43f0-ada0-6e9d26903b20"},"vehicle_type_id":"4","last_reported":1738076942,"current_range_meters":28800,"station_id":"ce4bhs12rcd13ifvqhvg","pricing_plan_id":"cebpf4jnsgd1na2vs0mg"},{"bike_id":"ae75ff73-3c54-45ed-8995-7871e96fe33a","system_id":"levelo_inurba_marseille","lat":43.26494,"lon":5.39536,"is_reserved":false,"is_disabled":false,"rental_uris":{"android":"levelo://app?vid=ae75ff73-3c54-45ed-8995-7871e96fe33a","ios":"levelo://app?vid=ae75ff73-3c54-45ed-8995-7871e96fe33a"},"vehicle_type_id":"4","last_reported":1738076942,"current_range_meters":37600,"station_id":"ce4bhi12rcd13ifvqfq0","pricing_plan_id":"cebpf4jnsgd1na2vs0mg"},{"bike_id":"9ae1c842-ff63-4a71-a085-4379a4cfc193","system_id":"levelo_inurba_marseille","lat":43.28462,"lon":5.35888,"is_reserved":false,"is_disabled":false,"rental_uris":{"android":"levelo://app?vid=9ae1c842-ff63-4a71-a085-4379a4cfc193","ios":"levelo://app?vid=9ae1c842-ff63-4a71-a085-4379a4cfc193"},"vehicle_type_id":"4","last_reported":1738076942,"current_range_meters":30400,"station_id":"ce4bhah2rcd13ifvqei0","pricing_plan_id":"cebpf4jnsgd1na2vs0mg"},{"bike_id":"87c996ad-f620-4bba-a2ec-d40070613ac5","system_id":"levelo_inurba_marseille","lat":43.297339,"lon":5.381155,"is_reserved":false,"is_disabled":false,"rental_uris":{"android":"levelo://app?vid=87c996ad-f620-4bba-a2ec-d40070613ac5","ios":"levelo://app?vid=87c996ad-f620-4bba-a2ec-d40070613ac5"},"vehicle_type_id":"4","last_reported":1738076942,"current_range_meters":22000,"station_id":"ce4bgip2rcd13ifvqbb0","pricing_plan_id":"cebpf4jnsgd1na2vs0mg"},{"bike_id":"c92f3ed1-1832-45b1-95ae-e066a3c304bb","system_id":"levelo_inurba_marseille","lat":43.33029,"lon":5.39032,"is_reserved":false,"is_disabled":false,"rental_uris":{"android":"levelo://app?vid=c92f3ed1-1832-45b1-95ae-e066a3c304bb","ios":"levelo://app?vid=c92f3ed1-1832-45b1-95ae-e066a3c304bb"},"vehicle_type_id":"4","last_reported":1738076942,"current_range_meters":38000,"station_id":"ce4bhr92rcd13ifvqhrg","pricing_plan_id":"cebpf4jnsgd1na2vs0mg"},{"bike_id":"4d8dba79-ba29-44ee-b424-8008f46fbd61","system_id":"levelo_inurba_marseille","lat":43.29274,"lon":5.36859,"is_reserved":false,"is_disabled":false,"rental_uris":{"android":"levelo://app?vid=4d8dba79-ba29-44ee-b424-8008f46fbd61","ios":"levelo://app?vid=4d8dba79-ba29-44ee-b424-8008f46fbd61"},"vehicle_type_id":"4","last_reported":1738076942,"current_range_meters":15200,"station_id":"ce4bhbp2rcd13ifvqesg","pricing_plan_id":"cebpf4jnsgd1na2vs0mg"},{"bike_id":"65e5d743-4939-4264-b58d-d07fa3ba4595","system_id":"levelo_inurba_marseille","lat":43.24815,"lon":5.37467,"is_reserved":false,"is_disabled":false,"rental_uris":{"android":"levelo://app?vid=65e5d743-4939-4264-b58d-d07fa3ba4595","ios":"levelo://app?vid=65e5d743-4939-4264-b58d-d07fa3ba4595"},"vehicle_type_id":"4","last_reported":1738076942,"current_range_meters":38800,"station_id":"ce4bhgh2rcd13ifvqfb0","pricing_plan_id":"cebpf4jnsgd1na2vs0mg"},{"bike_id":"1585412f-fcf7-460b-ba58-27d06eb497cd","system_id":"levelo_inurba_marseille","lat":43.3171,"lon":5.37727,"is_reserved":false,"is_disabled":false,"rental_uris":{"android":"levelo://app?vid=1585412f-fcf7-460b-ba58-27d06eb497cd","ios":"levelo://app?vid=1585412f-fcf7-460b-ba58-27d06eb497cd"},"vehicle_type_id":"4","last_reported":1738076942,"current_range_meters":19200,"station_id":"ce4bgth2rcd13ifvqch0","pricing_plan_id":"cebpf4jnsgd1na2vs0mg"},{"bike_id":"75214a19-3086-4aab-8ba6-a177978da634","system_id":"levelo_inurba_marseille","lat":43.298993,"lon":5.436699,"is_reserved":false,"is_disabled":false,"rental_uris":{"android":"levelo://app?vid=75214a19-3086-4aab-8ba6-a177978da634","ios":"levelo://app?vid=75214a19-3086-4aab-8ba6-a177978da634"},"vehicle_type_id":"4","last_reported":1738076942,"current_range_meters":36000,"station_id":"ce4bhpp2rcd13ifvqhfg","pricing_plan_id":"cebpf4jnsgd1na2vs0mg"},{"bike_id":"30bbb00e-1612-4a25-b2e9-c8ad656fb58a","system_id":"levelo_inurba_marseille","lat":43.33727,"lon":5.39178,"is_reserved":false,"is_disabled":false,"rental_uris":{"android":"levelo://app?vid=30bbb00e-1612-4a25-b2e9-c8ad656fb58a","ios":"levelo://app?vid=30bbb00e-1612-4a25-b2e9-c8ad656fb58a"},"vehicle_type_id":"4","last_reported":1738076942,"current_range_meters":38800,"station_id":"ce4bhr92rcd13ifvqhsg","pricing_plan_id":"cebpf4jnsgd1na2vs0mg"},{"bike_id":"9812259c-622e-4d6f-b085-419f4389290e","system_id":"levelo_inurba_marseille","lat":43.28442,"lon":5.39203,"is_reserved":false,"is_disabled":false,"rental_uris":{"android":"levelo://app?vid=9812259c-622e-4d6f-b085-419f4389290e","ios":"levelo://app?vid=9812259c-622e-4d6f-b085-419f4389290e"},"vehicle_type_id":"4","last_reported":1738076942,"current_range_meters":30400,"station_id":"ce4bhoh2rcd13ifvqh5g","pricing_plan_id":"cebpf4jnsgd1na2vs0mg"},{"bike_id":"8fed005f-bc9d-4fb7-9cc8-fb7df6baeda7","system_id":"levelo_inurba_marseille","lat":43.2742,"lon":5.39416,"is_reserved":false,"is_disabled":false,"rental_uris":{"android":"levelo://app?vid=8fed005f-bc9d-4fb7-9cc8-fb7df6baeda7","ios":"levelo://app?vid=8fed005f-bc9d-4fb7-9cc8-fb7df6baeda7"},"vehicle_type_id":"4","last_reported":1738076942,"current_range_meters":32000,"station_id":"ce4bhdp2rcd13ifvqf20","pricing_plan_id":"cebpf4jnsgd1na2vs0mg"},{"bike_id":"ddeeb021-3aa5-4692-ac65-d696b9db8d28","system_id":"levelo_inurba_marseille","lat":43.33023,"lon":5.39046,"is_reserved":false,"is_disabled":false,"rental_uris":{"android":"levelo://app?vid=ddeeb021-3aa5-4692-ac65-d696b9db8d28","ios":"levelo://app?vid=ddeeb021-3aa5-4692-ac65-d696b9db8d28"},"vehicle_type_id":"4","last_reported":1738076942,"current_range_meters":38800,"station_id":"ce4bhr92rcd13ifvqhrg","pricing_plan_id":"cebpf4jnsgd1na2vs0mg"},{"bike_id":"af721f4e-7a43-4ca7-b439-ce7407c250b4","system_id":"levelo_inurba_marseille","lat":43.30796,"lon":5.37631,"is_reserved":false,"is_disabled":false,"rental_uris":{"android":"levelo://app?vid=af721f4e-7a43-4ca7-b439-ce7407c250b4","ios":"levelo://app?vid=af721f4e-7a43-4ca7-b439-ce7407c250b4"},"vehicle_type_id":"4","last_reported":1738076942,"current_range_meters":32800,"station_id":"ce4bgv92rcd13ifvqcq0","pricing_plan_id":"cebpf4jnsgd1na2vs0mg"},{"bike_id":"e210bea1-b0a7-4102-8355-7e5e5ade8006","system_id":"levelo_inurba_marseille","lat":43.29514,"lon":5.39404,"is_reserved":false,"is_disabled":false,"rental_uris":{"android":"levelo://app?vid=e210bea1-b0a7-4102-8355-7e5e5ade8006","ios":"levelo://app?vid=e210bea1-b0a7-4102-8355-7e5e5ade8006"},"vehicle_type_id":"4","last_reported":1738076942,"current_range_meters":24400,"station_id":"ce4bh292rcd13ifvqdf0","pricing_plan_id":"cebpf4jnsgd1na2vs0mg"},{"bike_id":"b98ebd21-0ed2-45bf-adf2-3a5fd07f9bba","system_id":"levelo_inurba_marseille","lat":43.30549,"lon":5.36689,"is_reserved":false,"is_disabled":false,"rental_uris":{"android":"levelo://app?vid=b98ebd21-0ed2-45bf-adf2-3a5fd07f9bba","ios":"levelo://app?vid=b98ebd21-0ed2-45bf-adf2-3a5fd07f9bba"},"vehicle_type_id":"4","last_reported":1738076942,"current_range_meters":38000,"station_id":"ce4bgrp2rcd13ifvqc9g","pricing_plan_id":"cebpf4jnsgd1na2vs0mg"},{"bike_id":"47512e40-3d3b-4342-9ec9-33e496969f98","system_id":"levelo_inurba_marseille","lat":43.29417,"lon":5.38625,"is_reserved":false,"is_disabled":false,"rental_uris":{"android":"levelo://app?vid=47512e40-3d3b-4342-9ec9-33e496969f98","ios":"levelo://app?vid=47512e40-3d3b-4342-9ec9-33e496969f98"},"vehicle_type_id":"4","last_reported":1738076942,"current_range_meters":8000,"station_id":"ce4bh2h2rcd13ifvqdh0","pricing_plan_id":"cebpf4jnsgd1na2vs0mg"},{"bike_id":"3c9c9088-9c27-4609-bc62-8218c0dc2be8","system_id":"levelo_inurba_marseille","lat":43.23194,"lon":5.35553,"is_reserved":false,"is_disabled":false,"rental_uris":{"android":"levelo://app?vid=3c9c9088-9c27-4609-bc62-8218c0dc2be8","ios":"levelo://app?vid=3c9c9088-9c27-4609-bc62-8218c0dc2be8"},"vehicle_type_id":"4","last_reported":1738076942,"current_range_meters":32800,"station_id":"ce4bhu92rcd13ifvqi70","pricing_plan_id":"cebpf4jnsgd1na2vs0mg"},{"bike_id":"e124e41b-e2ee-4d78-99af-d72514da3953","system_id":"levelo_inurba_marseille","lat":43.26564,"lon":5.37283,"is_reserved":false,"is_disabled":false,"rental_uris":{"android":"levelo://app?vid=e124e41b-e2ee-4d78-99af-d72514da3953","ios":"levelo://app?vid=e124e41b-e2ee-4d78-99af-d72514da3953"},"vehicle_type_id":"4","last_reported":1738076942,"current_range_meters":11200,"station_id":"ce4bhg12rcd13ifvqf70","pricing_plan_id":"cebpf4jnsgd1na2vs0mg"},{"bike_id":"c052066b-6c3a-4b35-85d4-9e75d8cd0504","system_id":"levelo_inurba_marseille","lat":43.30877,"lon":5.36887,"is_reserved":false,"is_disabled":false,"rental_uris":{"android":"levelo://app?vid=c052066b-6c3a-4b35-85d4-9e75d8cd0504","ios":"levelo://app?vid=c052066b-6c3a-4b35-85d4-9e75d8cd0504"},"vehicle_type_id":"4","last_reported":1738076942,"current_range_meters":19200,"station_id":"ce4bgn92rcd13ifvqbvg","pricing_plan_id":"cebpf4jnsgd1na2vs0mg"},{"bike_id":"4c6e6037-c2de-4c78-8ebc-763221a61613","system_id":"levelo_inurba_marseille","lat":43.22929,"lon":5.35391,"is_reserved":false,"is_disabled":false,"rental_uris":{"android":"levelo://app?vid=4c6e6037-c2de-4c78-8ebc-763221a61613","ios":"levelo://app?vid=4c6e6037-c2de-4c78-8ebc-763221a61613"},"vehicle_type_id":"4","last_reported":1738076942,"current_range_meters":38000,"station_id":"cpo3532slgdg3j2ikp40","pricing_plan_id":"cebpf4jnsgd1na2vs0mg"},{"bike_id":"15af56a0-50cc-4287-938a-57061c15f0c6","system_id":"levelo_inurba_marseille","lat":43.33026,"lon":5.39062,"is_reserved":false,"is_disabled":false,"rental_uris":{"android":"levelo://app?vid=15af56a0-50cc-4287-938a-57061c15f0c6","ios":"levelo://app?vid=15af56a0-50cc-4287-938a-57061c15f0c6"},"vehicle_type_id":"4","last_reported":1738076942,"current_range_meters":36000,"station_id":"ce4bhr92rcd13ifvqhrg","pricing_plan_id":"cebpf4jnsgd1na2vs0mg"},{"bike_id":"9e0e0359-d88d-47b2-b022-328dee299c0c","system_id":"levelo_inurba_marseille","lat":43.32043,"lon":5.4156,"is_reserved":false,"is_disabled":false,"rental_uris":{"android":"levelo://app?vid=9e0e0359-d88d-47b2-b022-328dee299c0c","ios":"levelo://app?vid=9e0e0359-d88d-47b2-b022-328dee299c0c"},"vehicle_type_id":"4","last_reported":1738076942,"current_range_meters":30800,"station_id":"ce4bhq92rcd13ifvqhkg","pricing_plan_id":"cebpf4jnsgd1na2vs0mg"},{"bike_id":"7742eb01-57a2-4158-84d2-ebddbaf256fd","system_id":"levelo_inurba_marseille","lat":43.24074,"lon":5.37762,"is_reserved":false,"is_disabled":false,"rental_uris":{"android":"levelo://app?vid=7742eb01-57a2-4158-84d2-ebddbaf256fd","ios":"levelo://app?vid=7742eb01-57a2-4158-84d2-ebddbaf256fd"},"vehicle_type_id":"4","last_reported":1738076942,"current_range_meters":24800,"station_id":"ce4bhnp2rcd13ifvqgvg","pricing_plan_id":"cebpf4jnsgd1na2vs0mg"},{"bike_id":"b58e9c2c-f4fa-4e4d-a3e6-d964f639b0fc","system_id":"levelo_inurba_marseille","lat":43.3137,"lon":5.367,"is_reserved":false,"is_disabled":false,"rental_uris":{"android":"levelo://app?vid=b58e9c2c-f4fa-4e4d-a3e6-d964f639b0fc","ios":"levelo://app?vid=b58e9c2c-f4fa-4e4d-a3e6-d964f639b0fc"},"vehicle_type_id":"4","last_reported":1738076942,"current_range_meters":38800,"station_id":"ce4bgr92rcd13ifvqc6g","pricing_plan_id":"cebpf4jnsgd1na2vs0mg"},{"bike_id":"790880cd-a6fe-4ef2-b7a6-3724caee6be0","system_id":"levelo_inurba_marseille","lat":43.30291,"lon":5.39225,"is_reserved":false,"is_disabled":false,"rental_uris":{"android":"levelo://app?vid=790880cd-a6fe-4ef2-b7a6-3724caee6be0","ios":"levelo://app?vid=790880cd-a6fe-4ef2-b7a6-3724caee6be0"},"vehicle_type_id":"4","last_reported":1738076942,"current_range_meters":22800,"station_id":"ce4bgkh2rcd13ifvqbk0","pricing_plan_id":"cebpf4jnsgd1na2vs0mg"},{"bike_id":"0928d7c6-291b-465e-a26d-59a12315b1a9","system_id":"levelo_inurba_marseille","lat":43.3131,"lon":5.39697,"is_reserved":false,"is_disabled":false,"rental_uris":{"android":"levelo://app?vid=0928d7c6-291b-465e-a26d-59a12315b1a9","ios":"levelo://app?vid=0928d7c6-291b-465e-a26d-59a12315b1a9"},"vehicle_type_id":"4","last_reported":1738076942,"current_range_meters":30000,"station_id":"ce4bgvp2rcd13ifvqcu0","pricing_plan_id":"cebpf4jnsgd1na2vs0mg"},{"bike_id":"d886aba8-35d1-46b1-ac01-e2551ba91737","system_id":"levelo_inurba_marseille","lat":43.28731,"lon":5.37938,"is_reserved":false,"is_disabled":false,"rental_uris":{"android":"levelo://app?vid=d886aba8-35d1-46b1-ac01-e2551ba91737","ios":"levelo://app?vid=d886aba8-35d1-46b1-ac01-e2551ba91737"},"vehicle_type_id":"4","last_reported":1738076942,"current_range_meters":38400,"station_id":"ce4bh9p2rcd13ifvqec0","pricing_plan_id":"cebpf4jnsgd1na2vs0mg"},{"bike_id":"2016717f-c112-46e9-beba-4b92989d5feb","system_id":"levelo_inurba_marseille","lat":43.29088,"lon":5.38138,"is_reserved":false,"is_disabled":false,"rental_uris":{"android":"levelo://app?vid=2016717f-c112-46e9-beba-4b92989d5feb","ios":"levelo://app?vid=2016717f-c112-46e9-beba-4b92989d5feb"},"vehicle_type_id":"4","last_reported":1738076942,"current_range_meters":13600,"station_id":"ce4bh512rcd13ifvqe2g","pricing_plan_id":"cebpf4jnsgd1na2vs0mg"},{"bike_id":"b3f0c39b-7f92-4681-9665-648473977d15","system_id":"levelo_inurba_marseille","lat":43.2919,"lon":5.35817,"is_reserved":false,"is_disabled":false,"rental_uris":{"android":"levelo://app?vid=b3f0c39b-7f92-4681-9665-648473977d15","ios":"levelo://app?vid=b3f0c39b-7f92-4681-9665-648473977d15"},"vehicle_type_id":"4","last_reported":1738076942,"current_range_meters":38000,"station_id":"ce4bhb12rcd13ifvqel0","pricing_plan_id":"cebpf4jnsgd1na2vs0mg"},{"bike_id":"2256710f-428a-4b6c-afaf-f485da875c48","system_id":"levelo_inurba_marseille","lat":43.28623,"lon":5.35099,"is_reserved":false,"is_disabled":false,"rental_uris":{"android":"levelo://app?vid=2256710f-428a-4b6c-afaf-f485da875c48","ios":"levelo://app?vid=2256710f-428a-4b6c-afaf-f485da875c48"},"vehicle_type_id":"4","last_reported":1738076942,"current_range_meters":15200,"station_id":"ce4bhch2rcd13ifvqeug","pricing_plan_id":"cebpf4jnsgd1na2vs0mg"},{"bike_id":"ab2c796a-c23b-4a3a-9534-777b873d6a05","system_id":"levelo_inurba_marseille","lat":43.24209,"lon":5.36404,"is_reserved":false,"is_disabled":false,"rental_uris":{"android":"levelo://app?vid=ab2c796a-c23b-4a3a-9534-777b873d6a05","ios":"levelo://app?vid=ab2c796a-c23b-4a3a-9534-777b873d6a05"},"vehicle_type_id":"4","last_reported":1738076942,"current_range_meters":20400,"station_id":"cpo36qri1sfpv3e86is0","pricing_plan_id":"cebpf4jnsgd1na2vs0mg"},{"bike_id":"dfde3e7b-fd54-4f7a-9113-cac156068337","system_id":"levelo_inurba_marseille","lat":43.2762,"lon":5.3611,"is_reserved":false,"is_disabled":false,"rental_uris":{"android":"levelo://app?vid=dfde3e7b-fd54-4f7a-9113-cac156068337","ios":"levelo://app?vid=dfde3e7b-fd54-4f7a-9113-cac156068337"},"vehicle_type_id":"4","last_reported":1738076942,"current_range_meters":3600,"station_id":"ce4bgj92rcd13ifvqbe0","pricing_plan_id":"cebpf4jnsgd1na2vs0mg"},{"bike_id":"68e34f77-241b-4365-bae3-3f86c64c156a","system_id":"levelo_inurba_marseille","lat":43.25818,"lon":5.39434,"is_reserved":false,"is_disabled":false,"rental_uris":{"android":"levelo://app?vid=68e34f77-241b-4365-bae3-3f86c64c156a","ios":"levelo://app?vid=68e34f77-241b-4365-bae3-3f86c64c156a"},"vehicle_type_id":"4","last_reported":1738076942,"current_range_meters":9600,"station_id":"ce4bhip2rcd13ifvqft0","pricing_plan_id":"cebpf4jnsgd1na2vs0mg"},{"bike_id":"06784ea2-97c2-405b-a6df-1c796179b33a","system_id":"levelo_inurba_marseille","lat":43.3054,"lon":5.36521,"is_reserved":false,"is_disabled":true,"rental_uris":{"android":"levelo://app?vid=06784ea2-97c2-405b-a6df-1c796179b33a","ios":"levelo://app?vid=06784ea2-97c2-405b-a6df-1c796179b33a"},"vehicle_type_id":"4","last_reported":1738076942,"current_range_meters":0,"station_id":"ce4bgs12rcd13ifvqcag","pricing_plan_id":"cebpf4jnsgd1na2vs0mg"},{"bike_id":"529f1ab7-390e-41c3-9180-30692697770e","system_id":"levelo_inurba_marseille","lat":43.28599,"lon":5.35107,"is_reserved":false,"is_disabled":false,"rental_uris":{"android":"levelo://app?vid=529f1ab7-390e-41c3-9180-30692697770e","ios":"levelo://app?vid=529f1ab7-390e-41c3-9180-30692697770e"},"vehicle_type_id":"4","last_reported":1738076942,"current_range_meters":13600,"station_id":"ce4bhch2rcd13ifvqeug","pricing_plan_id":"cebpf4jnsgd1na2vs0mg"},{"bike_id":"c5bac99c-068f-43bc-b6fc-2952d095aeb2","system_id":"levelo_inurba_marseille","lat":43.29784,"lon":5.37106,"is_reserved":false,"is_disabled":false,"rental_uris":{"android":"levelo://app?vid=c5bac99c-068f-43bc-b6fc-2952d095aeb2","ios":"levelo://app?vid=c5bac99c-068f-43bc-b6fc-2952d095aeb2"},"vehicle_type_id":"4","last_reported":1738076942,"current_range_meters":25600,"station_id":"ce4bgop2rcd13ifvqc1g","pricing_plan_id":"cebpf4jnsgd1na2vs0mg"},{"bike_id":"b8c29651-d1bf-41b0-9feb-4b9e7b4cf810","system_id":"levelo_inurba_marseille","lat":43.24072,"lon":5.37765,"is_reserved":false,"is_disabled":false,"rental_uris":{"android":"levelo://app?vid=b8c29651-d1bf-41b0-9feb-4b9e7b4cf810","ios":"levelo://app?vid=b8c29651-d1bf-41b0-9feb-4b9e7b4cf810"},"vehicle_type_id":"4","last_reported":1738076942,"current_range_meters":39200,"station_id":"ce4bhnp2rcd13ifvqgvg","pricing_plan_id":"cebpf4jnsgd1na2vs0mg"},{"bike_id":"dbc5834c-be4a-473b-a8a0-e7132717a93e","system_id":"levelo_inurba_marseille","lat":43.28723,"lon":5.37942,"is_reserved":false,"is_disabled":false,"rental_uris":{"android":"levelo://app?vid=dbc5834c-be4a-473b-a8a0-e7132717a93e","ios":"levelo://app?vid=dbc5834c-be4a-473b-a8a0-e7132717a93e"},"vehicle_type_id":"4","last_reported":1738076942,"current_range_meters":14400,"station_id":"ce4bh9p2rcd13ifvqec0","pricing_plan_id":"cebpf4jnsgd1na2vs0mg"},{"bike_id":"fb6df43e-d78e-4a01-b59c-7c693622cc89","system_id":"levelo_inurba_marseille","lat":43.26496,"lon":5.39546,"is_reserved":false,"is_disabled":false,"rental_uris":{"android":"levelo://app?vid=fb6df43e-d78e-4a01-b59c-7c693622cc89","ios":"levelo://app?vid=fb6df43e-d78e-4a01-b59c-7c693622cc89"},"vehicle_type_id":"4","last_reported":1738076942,"current_range_meters":16000,"station_id":"ce4bhi12rcd13ifvqfq0","pricing_plan_id":"cebpf4jnsgd1na2vs0mg"},{"bike_id":"2ccd67c1-eb38-4982-bdb6-d3a15ced6af6","system_id":"levelo_inurba_marseille","lat":43.295633,"lon":5.399478,"is_reserved":false,"is_disabled":false,"rental_uris":{"android":"levelo://app?vid=2ccd67c1-eb38-4982-bdb6-d3a15ced6af6","ios":"levelo://app?vid=2ccd67c1-eb38-4982-bdb6-d3a15ced6af6"},"vehicle_type_id":"4","last_reported":1738076942,"current_range_meters":26000,"station_id":"ce4bh312rcd13ifvqdj0","pricing_plan_id":"cebpf4jnsgd1na2vs0mg"},{"bike_id":"6b544164-ad64-4907-9140-df7ab85fac74","system_id":"levelo_inurba_marseille","lat":43.32363,"lon":5.36757,"is_reserved":false,"is_disabled":false,"rental_uris":{"android":"levelo://app?vid=6b544164-ad64-4907-9140-df7ab85fac74","ios":"levelo://app?vid=6b544164-ad64-4907-9140-df7ab85fac74"},"vehicle_type_id":"4","last_reported":1738076942,"current_range_meters":24800,"station_id":"ce4bhsh2rcd13ifvqi2g","pricing_plan_id":"cebpf4jnsgd1na2vs0mg"},{"bike_id":"c78bb4e1-226d-4b1b-a4fc-8575257387b8","system_id":"levelo_inurba_marseille","lat":43.29532,"lon":5.39038,"is_reserved":false,"is_disabled":false,"rental_uris":{"android":"levelo://app?vid=c78bb4e1-226d-4b1b-a4fc-8575257387b8","ios":"levelo://app?vid=c78bb4e1-226d-4b1b-a4fc-8575257387b8"},"vehicle_type_id":"4","last_reported":1738076942,"current_range_meters":36800,"station_id":"ce4bh3p2rcd13ifvqdp0","pricing_plan_id":"cebpf4jnsgd1na2vs0mg"},{"bike_id":"3afe2907-14fe-40b0-8ce8-247215ed16c8","system_id":"levelo_inurba_marseille","lat":43.26947,"lon":5.38927,"is_reserved":false,"is_disabled":true,"rental_uris":{"android":"levelo://app?vid=3afe2907-14fe-40b0-8ce8-247215ed16c8","ios":"levelo://app?vid=3afe2907-14fe-40b0-8ce8-247215ed16c8"},"vehicle_type_id":"4","last_reported":1738076942,"current_range_meters":8400,"station_id":"ce4bhhh2rcd13ifvqfl0","pricing_plan_id":"cebpf4jnsgd1na2vs0mg"},{"bike_id":"361bb6bc-bebc-41d6-a0ed-4c716266556b","system_id":"levelo_inurba_marseille","lat":43.24072,"lon":5.37755,"is_reserved":false,"is_disabled":false,"rental_uris":{"android":"levelo://app?vid=361bb6bc-bebc-41d6-a0ed-4c716266556b","ios":"levelo://app?vid=361bb6bc-bebc-41d6-a0ed-4c716266556b"},"vehicle_type_id":"4","last_reported":1738076942,"current_range_meters":24400,"station_id":"ce4bhnp2rcd13ifvqgvg","pricing_plan_id":"cebpf4jnsgd1na2vs0mg"},{"bike_id":"a01196f7-bf19-45ed-8b12-401185d8ab0c","system_id":"levelo_inurba_marseille","lat":43.29276,"lon":5.36846,"is_reserved":false,"is_disabled":false,"rental_uris":{"android":"levelo://app?vid=a01196f7-bf19-45ed-8b12-401185d8ab0c","ios":"levelo://app?vid=a01196f7-bf19-45ed-8b12-401185d8ab0c"},"vehicle_type_id":"4","last_reported":1738076942,"current_range_meters":36800,"station_id":"ce4bhbp2rcd13ifvqesg","pricing_plan_id":"cebpf4jnsgd1na2vs0mg"},{"bike_id":"e16bcf47-fcd7-4bd9-a4d9-3d929e20bb54","system_id":"levelo_inurba_marseille","lat":43.316904,"lon":5.377613,"is_reserved":false,"is_disabled":false,"rental_uris":{"android":"levelo://app?vid=e16bcf47-fcd7-4bd9-a4d9-3d929e20bb54","ios":"levelo://app?vid=e16bcf47-fcd7-4bd9-a4d9-3d929e20bb54"},"vehicle_type_id":"4","last_reported":1738076942,"current_range_meters":36800,"station_id":"ce4bgth2rcd13ifvqch0","pricing_plan_id":"cebpf4jnsgd1na2vs0mg"},{"bike_id":"cc26c524-9981-41d6-9e25-17cb40d9e550","system_id":"levelo_inurba_marseille","lat":43.2481,"lon":5.37454,"is_reserved":false,"is_disabled":false,"rental_uris":{"android":"levelo://app?vid=cc26c524-9981-41d6-9e25-17cb40d9e550","ios":"levelo://app?vid=cc26c524-9981-41d6-9e25-17cb40d9e550"},"vehicle_type_id":"4","last_reported":1738076942,"current_range_meters":26800,"station_id":"ce4bhgh2rcd13ifvqfb0","pricing_plan_id":"cebpf4jnsgd1na2vs0mg"},{"bike_id":"6c2d0325-3711-4b18-b373-05e8f65cd6a2","system_id":"levelo_inurba_marseille","lat":43.27499,"lon":5.42448,"is_reserved":false,"is_disabled":false,"rental_uris":{"android":"levelo://app?vid=6c2d0325-3711-4b18-b373-05e8f65cd6a2","ios":"levelo://app?vid=6c2d0325-3711-4b18-b373-05e8f65cd6a2"},"vehicle_type_id":"4","last_reported":1738076942,"current_range_meters":38400,"station_id":"ce4bhn92rcd13ifvqgrg","pricing_plan_id":"cebpf4jnsgd1na2vs0mg"},{"bike_id":"6932560b-b10f-4825-a8e9-03a1e3476c63","system_id":"levelo_inurba_marseille","lat":43.2733,"lon":5.39111,"is_reserved":false,"is_disabled":false,"rental_uris":{"android":"levelo://app?vid=6932560b-b10f-4825-a8e9-03a1e3476c63","ios":"levelo://app?vid=6932560b-b10f-4825-a8e9-03a1e3476c63"},"vehicle_type_id":"4","last_reported":1738076942,"current_range_meters":24000,"station_id":"ce4bhgp2rcd13ifvqfe0","pricing_plan_id":"cebpf4jnsgd1na2vs0mg"},{"bike_id":"979afcab-47cc-4ca6-85fa-98c2a022da48","system_id":"levelo_inurba_marseille","lat":43.3107,"lon":5.38359,"is_reserved":false,"is_disabled":false,"rental_uris":{"android":"levelo://app?vid=979afcab-47cc-4ca6-85fa-98c2a022da48","ios":"levelo://app?vid=979afcab-47cc-4ca6-85fa-98c2a022da48"},"vehicle_type_id":"4","last_reported":1738076942,"current_range_meters":20400,"station_id":"ce4bgv92rcd13ifvqcr0","pricing_plan_id":"cebpf4jnsgd1na2vs0mg"},{"bike_id":"dd195832-ff3f-4763-a260-74003ef7ff4c","system_id":"levelo_inurba_marseille","lat":43.29214,"lon":5.36064,"is_reserved":false,"is_disabled":true,"rental_uris":{"android":"levelo://app?vid=dd195832-ff3f-4763-a260-74003ef7ff4c","ios":"levelo://app?vid=dd195832-ff3f-4763-a260-74003ef7ff4c"},"vehicle_type_id":"4","last_reported":1738076942,"current_range_meters":37600,"station_id":"ce4bhbh2rcd13ifvqeqg","pricing_plan_id":"cebpf4jnsgd1na2vs0mg"},{"bike_id":"09e4f03a-f14b-4684-b9e9-a0f65d700fea","system_id":"levelo_inurba_marseille","lat":43.28348,"lon":5.38104,"is_reserved":false,"is_disabled":false,"rental_uris":{"android":"levelo://app?vid=09e4f03a-f14b-4684-b9e9-a0f65d700fea","ios":"levelo://app?vid=09e4f03a-f14b-4684-b9e9-a0f65d700fea"},"vehicle_type_id":"4","last_reported":1738076942,"current_range_meters":33600,"station_id":"ce4bh412rcd13ifvqdr0","pricing_plan_id":"cebpf4jnsgd1na2vs0mg"},{"bike_id":"c37d8ec3-d658-4ecc-aad6-0b680e8ce8e6","system_id":"levelo_inurba_marseille","lat":43.28944,"lon":5.36631,"is_reserved":false,"is_disabled":false,"rental_uris":{"android":"levelo://app?vid=c37d8ec3-d658-4ecc-aad6-0b680e8ce8e6","ios":"levelo://app?vid=c37d8ec3-d658-4ecc-aad6-0b680e8ce8e6"},"vehicle_type_id":"4","last_reported":1738076942,"current_range_meters":34800,"station_id":"ce4bhap2rcd13ifvqek0","pricing_plan_id":"cebpf4jnsgd1na2vs0mg"},{"bike_id":"1aadf412-34ba-4d80-bd51-1b9b40f1724a","system_id":"levelo_inurba_marseille","lat":43.240707,"lon":5.37762,"is_reserved":false,"is_disabled":false,"rental_uris":{"android":"levelo://app?vid=1aadf412-34ba-4d80-bd51-1b9b40f1724a","ios":"levelo://app?vid=1aadf412-34ba-4d80-bd51-1b9b40f1724a"},"vehicle_type_id":"4","last_reported":1738076942,"current_range_meters":12800,"station_id":"ce4bhnp2rcd13ifvqgvg","pricing_plan_id":"cebpf4jnsgd1na2vs0mg"},{"bike_id":"7a78defb-d7e6-4c03-8386-9fcff61d0922","system_id":"levelo_inurba_marseille","lat":43.24801,"lon":5.37454,"is_reserved":false,"is_disabled":false,"rental_uris":{"android":"levelo://app?vid=7a78defb-d7e6-4c03-8386-9fcff61d0922","ios":"levelo://app?vid=7a78defb-d7e6-4c03-8386-9fcff61d0922"},"vehicle_type_id":"4","last_reported":1738076942,"current_range_meters":30800,"station_id":"ce4bhgh2rcd13ifvqfb0","pricing_plan_id":"cebpf4jnsgd1na2vs0mg"},{"bike_id":"968ac266-47cd-4869-8643-1d25cc2082ac","system_id":"levelo_inurba_marseille","lat":43.31711,"lon":5.37755,"is_reserved":false,"is_disabled":false,"rental_uris":{"android":"levelo://app?vid=968ac266-47cd-4869-8643-1d25cc2082ac","ios":"levelo://app?vid=968ac266-47cd-4869-8643-1d25cc2082ac"},"vehicle_type_id":"4","last_reported":1738076942,"current_range_meters":39200,"station_id":"ce4bgth2rcd13ifvqch0","pricing_plan_id":"cebpf4jnsgd1na2vs0mg"},{"bike_id":"cd48da39-a655-4dcb-97c2-bcb8d3d8c55b","system_id":"levelo_inurba_marseille","lat":43.23149,"lon":5.43711,"is_reserved":false,"is_disabled":true,"rental_uris":{"android":"levelo://app?vid=cd48da39-a655-4dcb-97c2-bcb8d3d8c55b","ios":"levelo://app?vid=cd48da39-a655-4dcb-97c2-bcb8d3d8c55b"},"vehicle_type_id":"4","last_reported":1738076942,"current_range_meters":0,"station_id":"ce4bhmp2rcd13ifvqgog","pricing_plan_id":"cebpf4jnsgd1na2vs0mg"},{"bike_id":"380db4f1-f717-47f9-90c2-eaffe33861d5","system_id":"levelo_inurba_marseille","lat":43.31219,"lon":5.36864,"is_reserved":false,"is_disabled":false,"rental_uris":{"android":"levelo://app?vid=380db4f1-f717-47f9-90c2-eaffe33861d5","ios":"levelo://app?vid=380db4f1-f717-47f9-90c2-eaffe33861d5"},"vehicle_type_id":"4","last_reported":1738076942,"current_range_meters":39200,"station_id":"ce4bgl92rcd13ifvqbq0","pricing_plan_id":"cebpf4jnsgd1na2vs0mg"},{"bike_id":"72592ed3-28fa-491e-a952-a791b2c60480","system_id":"levelo_inurba_marseille","lat":43.28464,"lon":5.35873,"is_reserved":false,"is_disabled":false,"rental_uris":{"android":"levelo://app?vid=72592ed3-28fa-491e-a952-a791b2c60480","ios":"levelo://app?vid=72592ed3-28fa-491e-a952-a791b2c60480"},"vehicle_type_id":"4","last_reported":1738076942,"current_range_meters":9200,"station_id":"ce4bhah2rcd13ifvqei0","pricing_plan_id":"cebpf4jnsgd1na2vs0mg"},{"bike_id":"4072bd51-b7ef-41a7-bac9-e3931fcdaaaa","system_id":"levelo_inurba_marseille","lat":43.30246,"lon":5.40056,"is_reserved":false,"is_disabled":false,"rental_uris":{"android":"levelo://app?vid=4072bd51-b7ef-41a7-bac9-e3931fcdaaaa","ios":"levelo://app?vid=4072bd51-b7ef-41a7-bac9-e3931fcdaaaa"},"vehicle_type_id":"4","last_reported":1738076942,"current_range_meters":20400,"station_id":"ce4bgvh2rcd13ifvqcs0","pricing_plan_id":"cebpf4jnsgd1na2vs0mg"},{"bike_id":"dc4ca670-3e85-4586-a652-9da30eaf3b99","system_id":"levelo_inurba_marseille","lat":43.28717,"lon":5.37932,"is_reserved":false,"is_disabled":false,"rental_uris":{"android":"levelo://app?vid=dc4ca670-3e85-4586-a652-9da30eaf3b99","ios":"levelo://app?vid=dc4ca670-3e85-4586-a652-9da30eaf3b99"},"vehicle_type_id":"4","last_reported":1738076942,"current_range_meters":33600,"station_id":"ce4bh9p2rcd13ifvqec0","pricing_plan_id":"cebpf4jnsgd1na2vs0mg"},{"bike_id":"01c346e4-7211-4b0a-9252-8b8a59a9b82f","system_id":"levelo_inurba_marseille","lat":43.28844,"lon":5.35846,"is_reserved":false,"is_disabled":true,"rental_uris":{"android":"levelo://app?vid=01c346e4-7211-4b0a-9252-8b8a59a9b82f","ios":"levelo://app?vid=01c346e4-7211-4b0a-9252-8b8a59a9b82f"},"vehicle_type_id":"4","last_reported":1738076942,"current_range_meters":38400,"station_id":"ce4bhb12rcd13ifvqem0","pricing_plan_id":"cebpf4jnsgd1na2vs0mg"},{"bike_id":"822d0c81-aadf-42c0-a949-a73417b2af62","system_id":"levelo_inurba_marseille","lat":43.32477,"lon":5.36596,"is_reserved":false,"is_disabled":false,"rental_uris":{"android":"levelo://app?vid=822d0c81-aadf-42c0-a949-a73417b2af62","ios":"levelo://app?vid=822d0c81-aadf-42c0-a949-a73417b2af62"},"vehicle_type_id":"4","last_reported":1738076942,"current_range_meters":8800,"station_id":"ce4bhs12rcd13ifvqhvg","pricing_plan_id":"cebpf4jnsgd1na2vs0mg"},{"bike_id":"1deb9f83-7def-49a4-a7ec-4fa7f01e7960","system_id":"levelo_inurba_marseille","lat":43.31326,"lon":5.39712,"is_reserved":false,"is_disabled":false,"rental_uris":{"android":"levelo://app?vid=1deb9f83-7def-49a4-a7ec-4fa7f01e7960","ios":"levelo://app?vid=1deb9f83-7def-49a4-a7ec-4fa7f01e7960"},"vehicle_type_id":"4","last_reported":1738076942,"current_range_meters":28000,"station_id":"ce4bgvp2rcd13ifvqcu0","pricing_plan_id":"cebpf4jnsgd1na2vs0mg"},{"bike_id":"3fb74e29-7f1d-4c67-8af5-0bb8332df870","system_id":"levelo_inurba_marseille","lat":43.24382,"lon":5.37044,"is_reserved":false,"is_disabled":false,"rental_uris":{"android":"levelo://app?vid=3fb74e29-7f1d-4c67-8af5-0bb8332df870","ios":"levelo://app?vid=3fb74e29-7f1d-4c67-8af5-0bb8332df870"},"vehicle_type_id":"4","last_reported":1738076942,"current_range_meters":25600,"station_id":"ce4bhhh2rcd13ifvqfk0","pricing_plan_id":"cebpf4jnsgd1na2vs0mg"},{"bike_id":"1d1c1ee9-77c7-47ff-840e-8becc2ab976b","system_id":"levelo_inurba_marseille","lat":43.27615,"lon":5.36101,"is_reserved":false,"is_disabled":false,"rental_uris":{"android":"levelo://app?vid=1d1c1ee9-77c7-47ff-840e-8becc2ab976b","ios":"levelo://app?vid=1d1c1ee9-77c7-47ff-840e-8becc2ab976b"},"vehicle_type_id":"4","last_reported":1738076942,"current_range_meters":20400,"station_id":"ce4bgj92rcd13ifvqbe0","pricing_plan_id":"cebpf4jnsgd1na2vs0mg"},{"bike_id":"611fad2e-6d45-44eb-a5e7-b3ab022b1b90","system_id":"levelo_inurba_marseille","lat":43.30563,"lon":5.36546,"is_reserved":false,"is_disabled":false,"rental_uris":{"android":"levelo://app?vid=611fad2e-6d45-44eb-a5e7-b3ab022b1b90","ios":"levelo://app?vid=611fad2e-6d45-44eb-a5e7-b3ab022b1b90"},"vehicle_type_id":"4","last_reported":1738076942,"current_range_meters":38800,"station_id":"ce4bgs12rcd13ifvqcag","pricing_plan_id":"cebpf4jnsgd1na2vs0mg"},{"bike_id":"a1f25abd-5197-4524-ac53-ad8743bef105","system_id":"levelo_inurba_marseille","lat":43.29889,"lon":5.43659,"is_reserved":false,"is_disabled":true,"rental_uris":{"android":"levelo://app?vid=a1f25abd-5197-4524-ac53-ad8743bef105","ios":"levelo://app?vid=a1f25abd-5197-4524-ac53-ad8743bef105"},"vehicle_type_id":"4","last_reported":1738076942,"current_range_meters":37600,"station_id":"ce4bhpp2rcd13ifvqhfg","pricing_plan_id":"cebpf4jnsgd1na2vs0mg"},{"bike_id":"ead6018c-8ce6-4d70-9199-ef227631b1bb","system_id":"levelo_inurba_marseille","lat":43.30324,"lon":5.40438,"is_reserved":false,"is_disabled":false,"rental_uris":{"android":"levelo://app?vid=ead6018c-8ce6-4d70-9199-ef227631b1bb","ios":"levelo://app?vid=ead6018c-8ce6-4d70-9199-ef227631b1bb"},"vehicle_type_id":"4","last_reported":1738076942,"current_range_meters":18000,"station_id":"ce4bh012rcd13ifvqd10","pricing_plan_id":"cebpf4jnsgd1na2vs0mg"},{"bike_id":"d4c4823e-dc30-4194-9ee5-9575cfd62441","system_id":"levelo_inurba_marseille","lat":43.27818,"lon":5.40706,"is_reserved":false,"is_disabled":false,"rental_uris":{"android":"levelo://app?vid=d4c4823e-dc30-4194-9ee5-9575cfd62441","ios":"levelo://app?vid=d4c4823e-dc30-4194-9ee5-9575cfd62441"},"vehicle_type_id":"4","last_reported":1738076942,"current_range_meters":21600,"station_id":"ce4bhnh2rcd13ifvqgtg","pricing_plan_id":"cebpf4jnsgd1na2vs0mg"},{"bike_id":"8a42d715-0ce9-4c6b-96f4-06031b5e80a7","system_id":"levelo_inurba_marseille","lat":43.25869,"lon":5.39898,"is_reserved":false,"is_disabled":false,"rental_uris":{"android":"levelo://app?vid=8a42d715-0ce9-4c6b-96f4-06031b5e80a7","ios":"levelo://app?vid=8a42d715-0ce9-4c6b-96f4-06031b5e80a7"},"vehicle_type_id":"4","last_reported":1738076942,"current_range_meters":27600,"station_id":"ce4bhl92rcd13ifvqghg","pricing_plan_id":"cebpf4jnsgd1na2vs0mg"},{"bike_id":"ff68af14-5554-4f8d-a3de-4549d987f602","system_id":"levelo_inurba_marseille","lat":43.29892,"lon":5.43655,"is_reserved":false,"is_disabled":false,"rental_uris":{"android":"levelo://app?vid=ff68af14-5554-4f8d-a3de-4549d987f602","ios":"levelo://app?vid=ff68af14-5554-4f8d-a3de-4549d987f602"},"vehicle_type_id":"4","last_reported":1738076942,"current_range_meters":36000,"station_id":"ce4bhpp2rcd13ifvqhfg","pricing_plan_id":"cebpf4jnsgd1na2vs0mg"},{"bike_id":"296acca2-a355-4830-bc97-a6939a85f573","system_id":"levelo_inurba_marseille","lat":43.25559,"lon":5.38225,"is_reserved":false,"is_disabled":false,"rental_uris":{"android":"levelo://app?vid=296acca2-a355-4830-bc97-a6939a85f573","ios":"levelo://app?vid=296acca2-a355-4830-bc97-a6939a85f573"},"vehicle_type_id":"4","last_reported":1738076942,"current_range_meters":27600,"station_id":"ce4bhih2rcd13ifvqfs0","pricing_plan_id":"cebpf4jnsgd1na2vs0mg"},{"bike_id":"72f05e4a-2004-4a84-9f20-e50658fc8f54","system_id":"levelo_inurba_marseille","lat":43.29246,"lon":5.40907,"is_reserved":false,"is_disabled":false,"rental_uris":{"android":"levelo://app?vid=72f05e4a-2004-4a84-9f20-e50658fc8f54","ios":"levelo://app?vid=72f05e4a-2004-4a84-9f20-e50658fc8f54"},"vehicle_type_id":"4","last_reported":1738076942,"current_range_meters":38800,"station_id":"ce4bh192rcd13ifvqdc0","pricing_plan_id":"cebpf4jnsgd1na2vs0mg"},{"bike_id":"5bace8e2-12cc-42c2-b1d8-aa8ca99421bf","system_id":"levelo_inurba_marseille","lat":43.29525,"lon":5.38556,"is_reserved":false,"is_disabled":false,"rental_uris":{"android":"levelo://app?vid=5bace8e2-12cc-42c2-b1d8-aa8ca99421bf","ios":"levelo://app?vid=5bace8e2-12cc-42c2-b1d8-aa8ca99421bf"},"vehicle_type_id":"4","last_reported":1738076942,"current_range_meters":17200,"station_id":"ce4bgih2rcd13ifvqba0","pricing_plan_id":"cebpf4jnsgd1na2vs0mg"},{"bike_id":"17a26eb6-f3bb-490a-884c-51546c39762c","system_id":"levelo_inurba_marseille","lat":43.27993,"lon":5.41662,"is_reserved":false,"is_disabled":false,"rental_uris":{"android":"levelo://app?vid=17a26eb6-f3bb-490a-884c-51546c39762c","ios":"levelo://app?vid=17a26eb6-f3bb-490a-884c-51546c39762c"},"vehicle_type_id":"4","last_reported":1738076942,"current_range_meters":39200,"station_id":"ce4bho12rcd13ifvqh1g","pricing_plan_id":"cebpf4jnsgd1na2vs0mg"},{"bike_id":"86a3ec93-1371-4c90-bafa-17ec0850724c","system_id":"levelo_inurba_marseille","lat":43.24809,"lon":5.3745,"is_reserved":false,"is_disabled":false,"rental_uris":{"android":"levelo://app?vid=86a3ec93-1371-4c90-bafa-17ec0850724c","ios":"levelo://app?vid=86a3ec93-1371-4c90-bafa-17ec0850724c"},"vehicle_type_id":"4","last_reported":1738076942,"current_range_meters":32000,"station_id":"ce4bhgh2rcd13ifvqfb0","pricing_plan_id":"cebpf4jnsgd1na2vs0mg"},{"bike_id":"3c5cbf2e-5914-44e5-adf1-7229185be9cb","system_id":"levelo_inurba_marseille","lat":43.32475,"lon":5.36572,"is_reserved":false,"is_disabled":false,"rental_uris":{"android":"levelo://app?vid=3c5cbf2e-5914-44e5-adf1-7229185be9cb","ios":"levelo://app?vid=3c5cbf2e-5914-44e5-adf1-7229185be9cb"},"vehicle_type_id":"4","last_reported":1738076942,"current_range_meters":12000,"station_id":"ce4bhs12rcd13ifvqhvg","pricing_plan_id":"cebpf4jnsgd1na2vs0mg"},{"bike_id":"b1d260c0-acdb-4241-b1fa-29a58e464bb9","system_id":"levelo_inurba_marseille","lat":43.24391,"lon":5.37045,"is_reserved":false,"is_disabled":false,"rental_uris":{"android":"levelo://app?vid=b1d260c0-acdb-4241-b1fa-29a58e464bb9","ios":"levelo://app?vid=b1d260c0-acdb-4241-b1fa-29a58e464bb9"},"vehicle_type_id":"4","last_reported":1738076942,"current_range_meters":38000,"station_id":"ce4bhhh2rcd13ifvqfk0","pricing_plan_id":"cebpf4jnsgd1na2vs0mg"},{"bike_id":"b02537d3-b5df-4f3e-a29c-3943d1a0a885","system_id":"levelo_inurba_marseille","lat":43.27814,"lon":5.40709,"is_reserved":false,"is_disabled":false,"rental_uris":{"android":"levelo://app?vid=b02537d3-b5df-4f3e-a29c-3943d1a0a885","ios":"levelo://app?vid=b02537d3-b5df-4f3e-a29c-3943d1a0a885"},"vehicle_type_id":"4","last_reported":1738076942,"current_range_meters":32400,"station_id":"ce4bhnh2rcd13ifvqgtg","pricing_plan_id":"cebpf4jnsgd1na2vs0mg"},{"bike_id":"64256d50-8f22-460a-8162-1cd7540aa78a","system_id":"levelo_inurba_marseille","lat":43.25865,"lon":5.39906,"is_reserved":false,"is_disabled":false,"rental_uris":{"android":"levelo://app?vid=64256d50-8f22-460a-8162-1cd7540aa78a","ios":"levelo://app?vid=64256d50-8f22-460a-8162-1cd7540aa78a"},"vehicle_type_id":"4","last_reported":1738076942,"current_range_meters":37600,"station_id":"ce4bhl92rcd13ifvqghg","pricing_plan_id":"cebpf4jnsgd1na2vs0mg"},{"bike_id":"9078c090-5717-4af4-a439-602eeb77cee0","system_id":"levelo_inurba_marseille","lat":43.29975,"lon":5.37171,"is_reserved":false,"is_disabled":false,"rental_uris":{"android":"levelo://app?vid=9078c090-5717-4af4-a439-602eeb77cee0","ios":"levelo://app?vid=9078c090-5717-4af4-a439-602eeb77cee0"},"vehicle_type_id":"4","last_reported":1738076942,"current_range_meters":30800,"station_id":"ce4bgr92rcd13ifvqc7g","pricing_plan_id":"cebpf4jnsgd1na2vs0mg"},{"bike_id":"a06f6d36-0ad8-4d9d-aa1c-2264b02038dd","system_id":"levelo_inurba_marseille","lat":43.27075,"lon":5.40252,"is_reserved":false,"is_disabled":false,"rental_uris":{"android":"levelo://app?vid=a06f6d36-0ad8-4d9d-aa1c-2264b02038dd","ios":"levelo://app?vid=a06f6d36-0ad8-4d9d-aa1c-2264b02038dd"},"vehicle_type_id":"4","last_reported":1738076942,"current_range_meters":9200,"station_id":"ce4bhk92rcd13ifvqgc0","pricing_plan_id":"cebpf4jnsgd1na2vs0mg"},{"bike_id":"e3c5a10e-948d-477c-91ce-8c835a7fe362","system_id":"levelo_inurba_marseille","lat":43.280935,"lon":5.396625,"is_reserved":false,"is_disabled":true,"rental_uris":{"android":"levelo://app?vid=e3c5a10e-948d-477c-91ce-8c835a7fe362","ios":"levelo://app?vid=e3c5a10e-948d-477c-91ce-8c835a7fe362"},"vehicle_type_id":"4","last_reported":1738076942,"current_range_meters":0,"station_id":"ce4bho12rcd13ifvqh2g","pricing_plan_id":"cebpf4jnsgd1na2vs0mg"},{"bike_id":"e9f68c21-03de-4d20-ac44-ebd559ea5acc","system_id":"levelo_inurba_marseille","lat":43.28932,"lon":5.36642,"is_reserved":false,"is_disabled":false,"rental_uris":{"android":"levelo://app?vid=e9f68c21-03de-4d20-ac44-ebd559ea5acc","ios":"levelo://app?vid=e9f68c21-03de-4d20-ac44-ebd559ea5acc"},"vehicle_type_id":"4","last_reported":1738076942,"current_range_meters":14400,"station_id":"ce4bhap2rcd13ifvqek0","pricing_plan_id":"cebpf4jnsgd1na2vs0mg"},{"bike_id":"074b03f3-53f3-4453-b1d1-87e01062d6be","system_id":"levelo_inurba_marseille","lat":43.29079,"lon":5.3815,"is_reserved":false,"is_disabled":false,"rental_uris":{"android":"levelo://app?vid=074b03f3-53f3-4453-b1d1-87e01062d6be","ios":"levelo://app?vid=074b03f3-53f3-4453-b1d1-87e01062d6be"},"vehicle_type_id":"4","last_reported":1738076942,"current_range_meters":28800,"station_id":"ce4bh512rcd13ifvqe2g","pricing_plan_id":"cebpf4jnsgd1na2vs0mg"},{"bike_id":"9f018113-1138-458d-9938-2357ae09399b","system_id":"levelo_inurba_marseille","lat":43.28606,"lon":5.35088,"is_reserved":false,"is_disabled":true,"rental_uris":{"android":"levelo://app?vid=9f018113-1138-458d-9938-2357ae09399b","ios":"levelo://app?vid=9f018113-1138-458d-9938-2357ae09399b"},"vehicle_type_id":"4","last_reported":1738076942,"current_range_meters":0,"station_id":"ce4bhch2rcd13ifvqeug","pricing_plan_id":"cebpf4jnsgd1na2vs0mg"},{"bike_id":"8e692473-9336-4231-84bf-60c90ad1e7ac","system_id":"levelo_inurba_marseille","lat":43.29007,"lon":5.38139,"is_reserved":false,"is_disabled":false,"rental_uris":{"android":"levelo://app?vid=8e692473-9336-4231-84bf-60c90ad1e7ac","ios":"levelo://app?vid=8e692473-9336-4231-84bf-60c90ad1e7ac"},"vehicle_type_id":"4","last_reported":1738076942,"current_range_meters":34800,"station_id":"ce4bh4p2rcd13ifvqe1g","pricing_plan_id":"cebpf4jnsgd1na2vs0mg"},{"bike_id":"f846d495-effa-4e8f-ae39-f2d7b1fc0ba3","system_id":"levelo_inurba_marseille","lat":43.2681,"lon":5.40261,"is_reserved":false,"is_disabled":false,"rental_uris":{"android":"levelo://app?vid=f846d495-effa-4e8f-ae39-f2d7b1fc0ba3","ios":"levelo://app?vid=f846d495-effa-4e8f-ae39-f2d7b1fc0ba3"},"vehicle_type_id":"4","last_reported":1738076942,"current_range_meters":38800,"station_id":"ce501612rcd8frsf0b60","pricing_plan_id":"cebpf4jnsgd1na2vs0mg"},{"bike_id":"b7073f96-d16f-405f-8de7-80aaf9a2139a","system_id":"levelo_inurba_marseille","lat":43.28256,"lon":5.35065,"is_reserved":false,"is_disabled":false,"rental_uris":{"android":"levelo://app?vid=b7073f96-d16f-405f-8de7-80aaf9a2139a","ios":"levelo://app?vid=b7073f96-d16f-405f-8de7-80aaf9a2139a"},"vehicle_type_id":"4","last_reported":1738076942,"current_range_meters":9200,"station_id":"ce4bhbp2rcd13ifvqerg","pricing_plan_id":"cebpf4jnsgd1na2vs0mg"},{"bike_id":"a4be99d0-9f57-4d65-9197-81844e4eb908","system_id":"levelo_inurba_marseille","lat":43.32485,"lon":5.36564,"is_reserved":false,"is_disabled":false,"rental_uris":{"android":"levelo://app?vid=a4be99d0-9f57-4d65-9197-81844e4eb908","ios":"levelo://app?vid=a4be99d0-9f57-4d65-9197-81844e4eb908"},"vehicle_type_id":"4","last_reported":1738076942,"current_range_meters":28400,"station_id":"ce4bhs12rcd13ifvqhvg","pricing_plan_id":"cebpf4jnsgd1na2vs0mg"},{"bike_id":"a7d99e70-fdd2-4305-995d-3e0edff91b9a","system_id":"levelo_inurba_marseille","lat":43.30433,"lon":5.38892,"is_reserved":false,"is_disabled":true,"rental_uris":{"android":"levelo://app?vid=a7d99e70-fdd2-4305-995d-3e0edff91b9a","ios":"levelo://app?vid=a7d99e70-fdd2-4305-995d-3e0edff91b9a"},"vehicle_type_id":"4","last_reported":1738076942,"current_range_meters":0,"station_id":"ce4bgk12rcd13ifvqbi0","pricing_plan_id":"cebpf4jnsgd1na2vs0mg"},{"bike_id":"599f7c6f-97e9-4903-9bdd-508f24c2e000","system_id":"levelo_inurba_marseille","lat":43.29011,"lon":5.38146,"is_reserved":false,"is_disabled":false,"rental_uris":{"android":"levelo://app?vid=599f7c6f-97e9-4903-9bdd-508f24c2e000","ios":"levelo://app?vid=599f7c6f-97e9-4903-9bdd-508f24c2e000"},"vehicle_type_id":"4","last_reported":1738076942,"current_range_meters":39200,"station_id":"ce4bh4p2rcd13ifvqe1g","pricing_plan_id":"cebpf4jnsgd1na2vs0mg"},{"bike_id":"f9173de2-2fa5-436f-a76b-3c96bd571284","system_id":"levelo_inurba_marseille","lat":43.29806,"lon":5.40415,"is_reserved":false,"is_disabled":true,"rental_uris":{"android":"levelo://app?vid=f9173de2-2fa5-436f-a76b-3c96bd571284","ios":"levelo://app?vid=f9173de2-2fa5-436f-a76b-3c96bd571284"},"vehicle_type_id":"4","last_reported":1738076942,"current_range_meters":36800,"station_id":"ce4bh112rcd13ifvqd90","pricing_plan_id":"cebpf4jnsgd1na2vs0mg"},{"bike_id":"54a3b066-8322-48b3-9a4e-9afae5461793","system_id":"levelo_inurba_marseille","lat":43.30354,"lon":5.41859,"is_reserved":false,"is_disabled":false,"rental_uris":{"android":"levelo://app?vid=54a3b066-8322-48b3-9a4e-9afae5461793","ios":"levelo://app?vid=54a3b066-8322-48b3-9a4e-9afae5461793"},"vehicle_type_id":"4","last_reported":1738076942,"current_range_meters":38800,"station_id":"ce4bhop2rcd13ifvqh7g","pricing_plan_id":"cebpf4jnsgd1na2vs0mg"},{"bike_id":"1468c04d-894f-43cf-85ff-4e0cb0c41a90","system_id":"levelo_inurba_marseille","lat":43.29006,"lon":5.35621,"is_reserved":false,"is_disabled":false,"rental_uris":{"android":"levelo://app?vid=1468c04d-894f-43cf-85ff-4e0cb0c41a90","ios":"levelo://app?vid=1468c04d-894f-43cf-85ff-4e0cb0c41a90"},"vehicle_type_id":"4","last_reported":1738076942,"current_range_meters":38800,"station_id":"ce4bhb92rcd13ifvqen0","pricing_plan_id":"cebpf4jnsgd1na2vs0mg"},{"bike_id":"1932502a-a386-4bd4-8041-b68d3b661876","system_id":"levelo_inurba_marseille","lat":43.232,"lon":5.35547,"is_reserved":false,"is_disabled":false,"rental_uris":{"android":"levelo://app?vid=1932502a-a386-4bd4-8041-b68d3b661876","ios":"levelo://app?vid=1932502a-a386-4bd4-8041-b68d3b661876"},"vehicle_type_id":"4","last_reported":1738076942,"current_range_meters":24800,"station_id":"ce4bhu92rcd13ifvqi70","pricing_plan_id":"cebpf4jnsgd1na2vs0mg"},{"bike_id":"18018373-d1cd-48a9-b8b4-4eb37521854d","system_id":"levelo_inurba_marseille","lat":43.29894,"lon":5.43654,"is_reserved":false,"is_disabled":false,"rental_uris":{"android":"levelo://app?vid=18018373-d1cd-48a9-b8b4-4eb37521854d","ios":"levelo://app?vid=18018373-d1cd-48a9-b8b4-4eb37521854d"},"vehicle_type_id":"4","last_reported":1738076942,"current_range_meters":22000,"station_id":"ce4bhpp2rcd13ifvqhfg","pricing_plan_id":"cebpf4jnsgd1na2vs0mg"},{"bike_id":"cb976efa-21ec-42df-9881-49f20281a7e6","system_id":"levelo_inurba_marseille","lat":43.30309,"lon":5.39219,"is_reserved":false,"is_disabled":false,"rental_uris":{"android":"levelo://app?vid=cb976efa-21ec-42df-9881-49f20281a7e6","ios":"levelo://app?vid=cb976efa-21ec-42df-9881-49f20281a7e6"},"vehicle_type_id":"4","last_reported":1738076942,"current_range_meters":6000,"station_id":"ce4bgkh2rcd13ifvqbk0","pricing_plan_id":"cebpf4jnsgd1na2vs0mg"},{"bike_id":"37642843-cef3-4306-b6cb-4c2fc7e57160","system_id":"levelo_inurba_marseille","lat":43.27409,"lon":5.39383,"is_reserved":false,"is_disabled":false,"rental_uris":{"android":"levelo://app?vid=37642843-cef3-4306-b6cb-4c2fc7e57160","ios":"levelo://app?vid=37642843-cef3-4306-b6cb-4c2fc7e57160"},"vehicle_type_id":"4","last_reported":1738076942,"current_range_meters":10000,"station_id":"ce4bhdp2rcd13ifvqf20","pricing_plan_id":"cebpf4jnsgd1na2vs0mg"},{"bike_id":"48fdff01-9c11-4e42-87fc-cff3a2a7ed95","system_id":"levelo_inurba_marseille","lat":43.24082,"lon":5.37741,"is_reserved":false,"is_disabled":false,"rental_uris":{"android":"levelo://app?vid=48fdff01-9c11-4e42-87fc-cff3a2a7ed95","ios":"levelo://app?vid=48fdff01-9c11-4e42-87fc-cff3a2a7ed95"},"vehicle_type_id":"4","last_reported":1738076942,"current_range_meters":18800,"station_id":"ce4bhnp2rcd13ifvqgvg","pricing_plan_id":"cebpf4jnsgd1na2vs0mg"},{"bike_id":"b3b632bc-bda5-4301-899f-02b8c7c647ed","system_id":"levelo_inurba_marseille","lat":43.32057,"lon":5.41524,"is_reserved":false,"is_disabled":false,"rental_uris":{"android":"levelo://app?vid=b3b632bc-bda5-4301-899f-02b8c7c647ed","ios":"levelo://app?vid=b3b632bc-bda5-4301-899f-02b8c7c647ed"},"vehicle_type_id":"4","last_reported":1738076942,"current_range_meters":39200,"station_id":"ce4bhq92rcd13ifvqhkg","pricing_plan_id":"cebpf4jnsgd1na2vs0mg"},{"bike_id":"1d77bc85-22c3-4156-b3dc-b84e3aa53d9c","system_id":"levelo_inurba_marseille","lat":43.27327,"lon":5.39078,"is_reserved":false,"is_disabled":false,"rental_uris":{"android":"levelo://app?vid=1d77bc85-22c3-4156-b3dc-b84e3aa53d9c","ios":"levelo://app?vid=1d77bc85-22c3-4156-b3dc-b84e3aa53d9c"},"vehicle_type_id":"4","last_reported":1738076942,"current_range_meters":32800,"station_id":"ce4bhgp2rcd13ifvqfe0","pricing_plan_id":"cebpf4jnsgd1na2vs0mg"},{"bike_id":"788f1fe8-00b1-44ac-9a2a-499d573a1f74","system_id":"levelo_inurba_marseille","lat":43.28943,"lon":5.36618,"is_reserved":false,"is_disabled":false,"rental_uris":{"android":"levelo://app?vid=788f1fe8-00b1-44ac-9a2a-499d573a1f74","ios":"levelo://app?vid=788f1fe8-00b1-44ac-9a2a-499d573a1f74"},"vehicle_type_id":"4","last_reported":1738076942,"current_range_meters":38000,"station_id":"ce4bhap2rcd13ifvqek0","pricing_plan_id":"cebpf4jnsgd1na2vs0mg"},{"bike_id":"0fba2225-a776-4a20-9e7c-b34b1fadd899","system_id":"levelo_inurba_marseille","lat":43.28948,"lon":5.3639,"is_reserved":false,"is_disabled":false,"rental_uris":{"android":"levelo://app?vid=0fba2225-a776-4a20-9e7c-b34b1fadd899","ios":"levelo://app?vid=0fba2225-a776-4a20-9e7c-b34b1fadd899"},"vehicle_type_id":"4","last_reported":1738076942,"current_range_meters":22800,"station_id":"ce4bhc92rcd13ifvqetg","pricing_plan_id":"cebpf4jnsgd1na2vs0mg"},{"bike_id":"aeb52962-1fe5-4ed8-99b7-f0690979f4d3","system_id":"levelo_inurba_marseille","lat":43.28527,"lon":5.38626,"is_reserved":false,"is_disabled":false,"rental_uris":{"android":"levelo://app?vid=aeb52962-1fe5-4ed8-99b7-f0690979f4d3","ios":"levelo://app?vid=aeb52962-1fe5-4ed8-99b7-f0690979f4d3"},"vehicle_type_id":"4","last_reported":1738076942,"current_range_meters":27600,"station_id":"","pricing_plan_id":"cebpf4jnsgd1na2vs0mg"},{"bike_id":"283c25d8-9fc5-495b-9825-5a72a68442bd","system_id":"levelo_inurba_marseille","lat":43.2925,"lon":5.40911,"is_reserved":false,"is_disabled":true,"rental_uris":{"android":"levelo://app?vid=283c25d8-9fc5-495b-9825-5a72a68442bd","ios":"levelo://app?vid=283c25d8-9fc5-495b-9825-5a72a68442bd"},"vehicle_type_id":"4","last_reported":1738076942,"current_range_meters":0,"station_id":"ce4bh192rcd13ifvqdc0","pricing_plan_id":"cebpf4jnsgd1na2vs0mg"},{"bike_id":"126aa499-38ad-4888-978f-824642c8a36a","system_id":"levelo_inurba_marseille","lat":43.3302,"lon":5.39042,"is_reserved":false,"is_disabled":false,"rental_uris":{"android":"levelo://app?vid=126aa499-38ad-4888-978f-824642c8a36a","ios":"levelo://app?vid=126aa499-38ad-4888-978f-824642c8a36a"},"vehicle_type_id":"4","last_reported":1738076942,"current_range_meters":39200,"station_id":"ce4bhr92rcd13ifvqhrg","pricing_plan_id":"cebpf4jnsgd1na2vs0mg"},{"bike_id":"e3e26aee-15e1-425c-a48f-db58aa520742","system_id":"levelo_inurba_marseille","lat":43.230737,"lon":5.35494,"is_reserved":false,"is_disabled":false,"rental_uris":{"android":"levelo://app?vid=e3e26aee-15e1-425c-a48f-db58aa520742","ios":"levelo://app?vid=e3e26aee-15e1-425c-a48f-db58aa520742"},"vehicle_type_id":"4","last_reported":1738076942,"current_range_meters":37600,"station_id":"cpo3342slgdg3j2ifvpg","pricing_plan_id":"cebpf4jnsgd1na2vs0mg"},{"bike_id":"65b739d6-f772-4911-ad9c-7e74c72ceed3","system_id":"levelo_inurba_marseille","lat":43.27618,"lon":5.36104,"is_reserved":false,"is_disabled":false,"rental_uris":{"android":"levelo://app?vid=65b739d6-f772-4911-ad9c-7e74c72ceed3","ios":"levelo://app?vid=65b739d6-f772-4911-ad9c-7e74c72ceed3"},"vehicle_type_id":"4","last_reported":1738076942,"current_range_meters":39200,"station_id":"ce4bgj92rcd13ifvqbe0","pricing_plan_id":"cebpf4jnsgd1na2vs0mg"},{"bike_id":"5b158760-6924-4a3c-b525-b3308397ea31","system_id":"levelo_inurba_marseille","lat":43.30155,"lon":5.37377,"is_reserved":false,"is_disabled":false,"rental_uris":{"android":"levelo://app?vid=5b158760-6924-4a3c-b525-b3308397ea31","ios":"levelo://app?vid=5b158760-6924-4a3c-b525-b3308397ea31"},"vehicle_type_id":"4","last_reported":1738076942,"current_range_meters":36400,"station_id":"ce4bgs92rcd13ifvqcc0","pricing_plan_id":"cebpf4jnsgd1na2vs0mg"},{"bike_id":"22ece8d6-ae08-4007-9d95-4ab4df0dfa49","system_id":"levelo_inurba_marseille","lat":43.32347,"lon":5.38878,"is_reserved":false,"is_disabled":false,"rental_uris":{"android":"levelo://app?vid=22ece8d6-ae08-4007-9d95-4ab4df0dfa49","ios":"levelo://app?vid=22ece8d6-ae08-4007-9d95-4ab4df0dfa49"},"vehicle_type_id":"4","last_reported":1738076942,"current_range_meters":38800,"station_id":"ce4bhqp2rcd13ifvqhog","pricing_plan_id":"cebpf4jnsgd1na2vs0mg"},{"bike_id":"df2653fe-4fdf-43fd-a7c1-0f1c8d8556c5","system_id":"levelo_inurba_marseille","lat":43.32996,"lon":5.39015,"is_reserved":false,"is_disabled":false,"rental_uris":{"android":"levelo://app?vid=df2653fe-4fdf-43fd-a7c1-0f1c8d8556c5","ios":"levelo://app?vid=df2653fe-4fdf-43fd-a7c1-0f1c8d8556c5"},"vehicle_type_id":"4","last_reported":1738076942,"current_range_meters":38800,"station_id":"ce4bhr92rcd13ifvqhrg","pricing_plan_id":"cebpf4jnsgd1na2vs0mg"},{"bike_id":"7c78a755-c7f5-4f07-a96b-621451d47948","system_id":"levelo_inurba_marseille","lat":43.29891,"lon":5.43656,"is_reserved":false,"is_disabled":false,"rental_uris":{"android":"levelo://app?vid=7c78a755-c7f5-4f07-a96b-621451d47948","ios":"levelo://app?vid=7c78a755-c7f5-4f07-a96b-621451d47948"},"vehicle_type_id":"4","last_reported":1738076942,"current_range_meters":23200,"station_id":"ce4bhpp2rcd13ifvqhfg","pricing_plan_id":"cebpf4jnsgd1na2vs0mg"},{"bike_id":"4ebc8090-1105-4905-bf9f-56879aa1cf25","system_id":"levelo_inurba_marseille","lat":43.31366,"lon":5.38492,"is_reserved":false,"is_disabled":false,"rental_uris":{"android":"levelo://app?vid=4ebc8090-1105-4905-bf9f-56879aa1cf25","ios":"levelo://app?vid=4ebc8090-1105-4905-bf9f-56879aa1cf25"},"vehicle_type_id":"4","last_reported":1738076942,"current_range_meters":19200,"station_id":"ce4bgt92rcd13ifvqcf0","pricing_plan_id":"cebpf4jnsgd1na2vs0mg"},{"bike_id":"a583c381-e6f3-456c-a5f7-2a87f581e77f","system_id":"levelo_inurba_marseille","lat":43.30294,"lon":5.39222,"is_reserved":false,"is_disabled":false,"rental_uris":{"android":"levelo://app?vid=a583c381-e6f3-456c-a5f7-2a87f581e77f","ios":"levelo://app?vid=a583c381-e6f3-456c-a5f7-2a87f581e77f"},"vehicle_type_id":"4","last_reported":1738076942,"current_range_meters":34800,"station_id":"ce4bgkh2rcd13ifvqbk0","pricing_plan_id":"cebpf4jnsgd1na2vs0mg"},{"bike_id":"154c99d5-14b8-4aeb-86f3-bc49ad103a96","system_id":"levelo_inurba_marseille","lat":43.29255,"lon":5.40907,"is_reserved":false,"is_disabled":false,"rental_uris":{"android":"levelo://app?vid=154c99d5-14b8-4aeb-86f3-bc49ad103a96","ios":"levelo://app?vid=154c99d5-14b8-4aeb-86f3-bc49ad103a96"},"vehicle_type_id":"4","last_reported":1738076942,"current_range_meters":24800,"station_id":"ce4bh192rcd13ifvqdc0","pricing_plan_id":"cebpf4jnsgd1na2vs0mg"},{"bike_id":"18187053-dc05-4309-8dd6-4fe4a0a11629","system_id":"levelo_inurba_marseille","lat":43.27907,"lon":5.39574,"is_reserved":false,"is_disabled":false,"rental_uris":{"android":"levelo://app?vid=18187053-dc05-4309-8dd6-4fe4a0a11629","ios":"levelo://app?vid=18187053-dc05-4309-8dd6-4fe4a0a11629"},"vehicle_type_id":"4","last_reported":1738076942,"current_range_meters":12000,"station_id":"ce4bhf92rcd13ifvqf40","pricing_plan_id":"cebpf4jnsgd1na2vs0mg"},{"bike_id":"803e03d8-7d2e-4feb-ac46-774902d16dee","system_id":"levelo_inurba_marseille","lat":43.33756,"lon":5.3744,"is_reserved":false,"is_disabled":true,"rental_uris":{"android":"levelo://app?vid=803e03d8-7d2e-4feb-ac46-774902d16dee","ios":"levelo://app?vid=803e03d8-7d2e-4feb-ac46-774902d16dee"},"vehicle_type_id":"4","last_reported":1738076942,"current_range_meters":37600,"station_id":"","pricing_plan_id":"cebpf4jnsgd1na2vs0mg"},{"bike_id":"30d38fca-e00b-4fb2-a568-f91dab54d5c5","system_id":"levelo_inurba_marseille","lat":43.31215,"lon":5.36881,"is_reserved":false,"is_disabled":false,"rental_uris":{"android":"levelo://app?vid=30d38fca-e00b-4fb2-a568-f91dab54d5c5","ios":"levelo://app?vid=30d38fca-e00b-4fb2-a568-f91dab54d5c5"},"vehicle_type_id":"4","last_reported":1738076942,"current_range_meters":39200,"station_id":"ce4bgl92rcd13ifvqbq0","pricing_plan_id":"cebpf4jnsgd1na2vs0mg"},{"bike_id":"919a653c-798e-4498-bae3-9cc4d56442e5","system_id":"levelo_inurba_marseille","lat":43.33724,"lon":5.39188,"is_reserved":false,"is_disabled":false,"rental_uris":{"android":"levelo://app?vid=919a653c-798e-4498-bae3-9cc4d56442e5","ios":"levelo://app?vid=919a653c-798e-4498-bae3-9cc4d56442e5"},"vehicle_type_id":"4","last_reported":1738076942,"current_range_meters":38800,"station_id":"ce4bhr92rcd13ifvqhsg","pricing_plan_id":"cebpf4jnsgd1na2vs0mg"},{"bike_id":"7f762cad-14d3-4378-9c59-c304651b7679","system_id":"levelo_inurba_marseille","lat":43.29563,"lon":5.39964,"is_reserved":false,"is_disabled":true,"rental_uris":{"android":"levelo://app?vid=7f762cad-14d3-4378-9c59-c304651b7679","ios":"levelo://app?vid=7f762cad-14d3-4378-9c59-c304651b7679"},"vehicle_type_id":"4","last_reported":1738076942,"current_range_meters":29600,"station_id":"ce4bh312rcd13ifvqdj0","pricing_plan_id":"cebpf4jnsgd1na2vs0mg"},{"bike_id":"301a5215-0116-4467-8ae6-a1652f8f4e18","system_id":"levelo_inurba_marseille","lat":43.27839,"lon":5.39205,"is_reserved":false,"is_disabled":false,"rental_uris":{"android":"levelo://app?vid=301a5215-0116-4467-8ae6-a1652f8f4e18","ios":"levelo://app?vid=301a5215-0116-4467-8ae6-a1652f8f4e18"},"vehicle_type_id":"4","last_reported":1738076942,"current_range_meters":34800,"station_id":"ce4bhjp2rcd13ifvqga0","pricing_plan_id":"cebpf4jnsgd1na2vs0mg"},{"bike_id":"5604a4bd-1c16-41f9-8088-db5a1f6a4775","system_id":"levelo_inurba_marseille","lat":43.29049,"lon":5.35884,"is_reserved":false,"is_disabled":false,"rental_uris":{"android":"levelo://app?vid=5604a4bd-1c16-41f9-8088-db5a1f6a4775","ios":"levelo://app?vid=5604a4bd-1c16-41f9-8088-db5a1f6a4775"},"vehicle_type_id":"4","last_reported":1738076942,"current_range_meters":39200,"station_id":"ce4bha92rcd13ifvqeg0","pricing_plan_id":"cebpf4jnsgd1na2vs0mg"},{"bike_id":"167bd08b-30a9-4c5a-b3c3-16e69eba6231","system_id":"levelo_inurba_marseille","lat":43.30547,"lon":5.36693,"is_reserved":false,"is_disabled":false,"rental_uris":{"android":"levelo://app?vid=167bd08b-30a9-4c5a-b3c3-16e69eba6231","ios":"levelo://app?vid=167bd08b-30a9-4c5a-b3c3-16e69eba6231"},"vehicle_type_id":"4","last_reported":1738076942,"current_range_meters":17600,"station_id":"ce4bgrp2rcd13ifvqc9g","pricing_plan_id":"cebpf4jnsgd1na2vs0mg"},{"bike_id":"f0bd9414-60c2-4335-996f-30dbea9a1625","system_id":"levelo_inurba_marseille","lat":43.29785,"lon":5.38087,"is_reserved":false,"is_disabled":false,"rental_uris":{"android":"levelo://app?vid=f0bd9414-60c2-4335-996f-30dbea9a1625","ios":"levelo://app?vid=f0bd9414-60c2-4335-996f-30dbea9a1625"},"vehicle_type_id":"4","last_reported":1738076942,"current_range_meters":38800,"station_id":"ce4bgip2rcd13ifvqbb0","pricing_plan_id":"cebpf4jnsgd1na2vs0mg"},{"bike_id":"9daff7be-41bd-4b2a-9f7b-565f6c80a22b","system_id":"levelo_inurba_marseille","lat":43.27834,"lon":5.40707,"is_reserved":false,"is_disabled":false,"rental_uris":{"android":"levelo://app?vid=9daff7be-41bd-4b2a-9f7b-565f6c80a22b","ios":"levelo://app?vid=9daff7be-41bd-4b2a-9f7b-565f6c80a22b"},"vehicle_type_id":"4","last_reported":1738076942,"current_range_meters":31200,"station_id":"ce4bhnh2rcd13ifvqgtg","pricing_plan_id":"cebpf4jnsgd1na2vs0mg"},{"bike_id":"cb153ec5-64a6-46ba-bce5-bb15c977d5e8","system_id":"levelo_inurba_marseille","lat":43.28079,"lon":5.39658,"is_reserved":false,"is_disabled":false,"rental_uris":{"android":"levelo://app?vid=cb153ec5-64a6-46ba-bce5-bb15c977d5e8","ios":"levelo://app?vid=cb153ec5-64a6-46ba-bce5-bb15c977d5e8"},"vehicle_type_id":"4","last_reported":1738076942,"current_range_meters":28000,"station_id":"ce4bho12rcd13ifvqh2g","pricing_plan_id":"cebpf4jnsgd1na2vs0mg"},{"bike_id":"49a84a23-a22a-46a0-a252-54eeab3a63ac","system_id":"levelo_inurba_marseille","lat":43.29364,"lon":5.37832,"is_reserved":false,"is_disabled":false,"rental_uris":{"android":"levelo://app?vid=49a84a23-a22a-46a0-a252-54eeab3a63ac","ios":"levelo://app?vid=49a84a23-a22a-46a0-a252-54eeab3a63ac"},"vehicle_type_id":"4","last_reported":1738076942,"current_range_meters":38400,"station_id":"ce4bgjh2rcd13ifvqbf0","pricing_plan_id":"cebpf4jnsgd1na2vs0mg"},{"bike_id":"6a3d1c30-828f-4670-a94d-b8ba0dd1a370","system_id":"levelo_inurba_marseille","lat":43.29622,"lon":5.3717,"is_reserved":false,"is_disabled":false,"rental_uris":{"android":"levelo://app?vid=6a3d1c30-828f-4670-a94d-b8ba0dd1a370","ios":"levelo://app?vid=6a3d1c30-828f-4670-a94d-b8ba0dd1a370"},"vehicle_type_id":"4","last_reported":1738076942,"current_range_meters":28400,"station_id":"ce4bgnh2rcd13ifvqc0g","pricing_plan_id":"cebpf4jnsgd1na2vs0mg"},{"bike_id":"86255055-5d6c-4828-8dde-818efa7f469e","system_id":"levelo_inurba_marseille","lat":43.30871,"lon":5.37794,"is_reserved":false,"is_disabled":false,"rental_uris":{"android":"levelo://app?vid=86255055-5d6c-4828-8dde-818efa7f469e","ios":"levelo://app?vid=86255055-5d6c-4828-8dde-818efa7f469e"},"vehicle_type_id":"4","last_reported":1738076942,"current_range_meters":5600,"station_id":"","pricing_plan_id":"cebpf4jnsgd1na2vs0mg"},{"bike_id":"c438c788-2c8f-4eda-8233-a8485c23c4af","system_id":"levelo_inurba_marseille","lat":43.30419,"lon":5.41275,"is_reserved":false,"is_disabled":true,"rental_uris":{"android":"levelo://app?vid=c438c788-2c8f-4eda-8233-a8485c23c4af","ios":"levelo://app?vid=c438c788-2c8f-4eda-8233-a8485c23c4af"},"vehicle_type_id":"4","last_reported":1738076942,"current_range_meters":0,"station_id":"ce4bhop2rcd13ifvqh8g","pricing_plan_id":"cebpf4jnsgd1na2vs0mg"},{"bike_id":"e5a82cfb-32c4-4006-aa9f-46c1a8aa3c0e","system_id":"levelo_inurba_marseille","lat":43.29274,"lon":5.36839,"is_reserved":false,"is_disabled":false,"rental_uris":{"android":"levelo://app?vid=e5a82cfb-32c4-4006-aa9f-46c1a8aa3c0e","ios":"levelo://app?vid=e5a82cfb-32c4-4006-aa9f-46c1a8aa3c0e"},"vehicle_type_id":"4","last_reported":1738076942,"current_range_meters":37600,"station_id":"ce4bhbp2rcd13ifvqesg","pricing_plan_id":"cebpf4jnsgd1na2vs0mg"},{"bike_id":"85af6c92-372c-4cd2-84da-c4ec61fa470d","system_id":"levelo_inurba_marseille","lat":43.25727,"lon":5.41112,"is_reserved":false,"is_disabled":true,"rental_uris":{"android":"levelo://app?vid=85af6c92-372c-4cd2-84da-c4ec61fa470d","ios":"levelo://app?vid=85af6c92-372c-4cd2-84da-c4ec61fa470d"},"vehicle_type_id":"4","last_reported":1738076942,"current_range_meters":38800,"station_id":"ce4bhkp2rcd13ifvqgd0","pricing_plan_id":"cebpf4jnsgd1na2vs0mg"},{"bike_id":"841e1725-b023-4423-80b3-fe8cd56c3222","system_id":"levelo_inurba_marseille","lat":43.28926,"lon":5.36392,"is_reserved":false,"is_disabled":false,"rental_uris":{"android":"levelo://app?vid=841e1725-b023-4423-80b3-fe8cd56c3222","ios":"levelo://app?vid=841e1725-b023-4423-80b3-fe8cd56c3222"},"vehicle_type_id":"4","last_reported":1738076942,"current_range_meters":38800,"station_id":"ce4bhc92rcd13ifvqetg","pricing_plan_id":"cebpf4jnsgd1na2vs0mg"},{"bike_id":"55d084c0-3384-40b0-bc4a-764bbac0a0ea","system_id":"levelo_inurba_marseille","lat":43.28708,"lon":5.37394,"is_reserved":false,"is_disabled":false,"rental_uris":{"android":"levelo://app?vid=55d084c0-3384-40b0-bc4a-764bbac0a0ea","ios":"levelo://app?vid=55d084c0-3384-40b0-bc4a-764bbac0a0ea"},"vehicle_type_id":"4","last_reported":1738076942,"current_range_meters":39200,"station_id":"ce4bh3p2rcd13ifvqdq0","pricing_plan_id":"cebpf4jnsgd1na2vs0mg"},{"bike_id":"2e02df94-9b0d-4dde-ace7-107552e26bd2","system_id":"levelo_inurba_marseille","lat":43.26811,"lon":5.40268,"is_reserved":false,"is_disabled":false,"rental_uris":{"android":"levelo://app?vid=2e02df94-9b0d-4dde-ace7-107552e26bd2","ios":"levelo://app?vid=2e02df94-9b0d-4dde-ace7-107552e26bd2"},"vehicle_type_id":"4","last_reported":1738076942,"current_range_meters":38800,"station_id":"ce501612rcd8frsf0b60","pricing_plan_id":"cebpf4jnsgd1na2vs0mg"},{"bike_id":"dd0cc133-0d17-46c8-8f5c-8de4d6eeb9e2","system_id":"levelo_inurba_marseille","lat":43.30552,"lon":5.36536,"is_reserved":false,"is_disabled":false,"rental_uris":{"android":"levelo://app?vid=dd0cc133-0d17-46c8-8f5c-8de4d6eeb9e2","ios":"levelo://app?vid=dd0cc133-0d17-46c8-8f5c-8de4d6eeb9e2"},"vehicle_type_id":"4","last_reported":1738076942,"current_range_meters":13600,"station_id":"ce4bgs12rcd13ifvqcag","pricing_plan_id":"cebpf4jnsgd1na2vs0mg"},{"bike_id":"95cc0b42-1c77-4b90-8372-2ad7b76d1056","system_id":"levelo_inurba_marseille","lat":43.28685,"lon":5.38652,"is_reserved":false,"is_disabled":false,"rental_uris":{"android":"levelo://app?vid=95cc0b42-1c77-4b90-8372-2ad7b76d1056","ios":"levelo://app?vid=95cc0b42-1c77-4b90-8372-2ad7b76d1056"},"vehicle_type_id":"4","last_reported":1738076942,"current_range_meters":38800,"station_id":"ce4bh492rcd13ifvqdug","pricing_plan_id":"cebpf4jnsgd1na2vs0mg"},{"bike_id":"0a0ae71f-4f56-4994-bc72-73253d32ead8","system_id":"levelo_inurba_marseille","lat":43.274279,"lon":5.394102,"is_reserved":false,"is_disabled":false,"rental_uris":{"android":"levelo://app?vid=0a0ae71f-4f56-4994-bc72-73253d32ead8","ios":"levelo://app?vid=0a0ae71f-4f56-4994-bc72-73253d32ead8"},"vehicle_type_id":"4","last_reported":1738076942,"current_range_meters":38800,"station_id":"ce4bhdp2rcd13ifvqf20","pricing_plan_id":"cebpf4jnsgd1na2vs0mg"},{"bike_id":"079c1be2-2466-41bb-87eb-0b14ef034329","system_id":"levelo_inurba_marseille","lat":43.30535,"lon":5.36724,"is_reserved":false,"is_disabled":false,"rental_uris":{"android":"levelo://app?vid=079c1be2-2466-41bb-87eb-0b14ef034329","ios":"levelo://app?vid=079c1be2-2466-41bb-87eb-0b14ef034329"},"vehicle_type_id":"4","last_reported":1738076942,"current_range_meters":18800,"station_id":"ce4bgrp2rcd13ifvqc9g","pricing_plan_id":"cebpf4jnsgd1na2vs0mg"},{"bike_id":"3d98c6ce-e80d-46e8-b577-648cd8c28632","system_id":"levelo_inurba_marseille","lat":43.34699,"lon":5.34741,"is_reserved":false,"is_disabled":true,"rental_uris":{"android":"levelo://app?vid=3d98c6ce-e80d-46e8-b577-648cd8c28632","ios":"levelo://app?vid=3d98c6ce-e80d-46e8-b577-648cd8c28632"},"vehicle_type_id":"4","last_reported":1738076942,"current_range_meters":0,"station_id":"","pricing_plan_id":"cebpf4jnsgd1na2vs0mg"},{"bike_id":"3d12fa77-1e74-4755-b415-4ddf8e0c07a7","system_id":"levelo_inurba_marseille","lat":43.29196,"lon":5.35809,"is_reserved":false,"is_disabled":true,"rental_uris":{"android":"levelo://app?vid=3d12fa77-1e74-4755-b415-4ddf8e0c07a7","ios":"levelo://app?vid=3d12fa77-1e74-4755-b415-4ddf8e0c07a7"},"vehicle_type_id":"4","last_reported":1738076942,"current_range_meters":1200,"station_id":"ce4bhb12rcd13ifvqel0","pricing_plan_id":"cebpf4jnsgd1na2vs0mg"},