{"last_updated":1707159946,"ttl":30,"version":"2.2","data":{"bikes":[{"bike_id":"b4b7cab1-9c85-4976-b9f8-2b8ebf06b530","system_id":"levelo_inurba_marseille","lat":43.312239,"lon":5.368562,"is_reserved":false,"is_disabled":false,"rental_uris":{"android":"levelo://app?vid=b4b7cab1-9c85-4976-b9f8-2b8ebf06b530","ios":"levelo://app?vid=b4b7cab1-9c85-4976-b9f8-2b8ebf06b530"},"vehicle_type_id":"4","last_reported":1707159946,"current_range_meters":12800,"station_id":"ce4bgl92rcd13ifvqbq0","pricing_plan_id":"free"},{"bike_id":"978016ac-7d22-42ef-a7d2-7d574b4bd66c","system_id":"levelo_inurba_marseille","lat":43.312239,"lon":5.368562,"is_reserved":false,"is_disabled":false,"rental_uris":{"android":"levelo://app?vid=978016ac-7d22-42ef-a7d2-7d574b4bd66c","ios":"levelo://app?vid=978016ac-7d22-42ef-a7d2-7d574b4bd66c"},"vehicle_type_id":"4","last_reported":1707159946,"current_range_meters":0,"station_id":"ce4bgl92rcd13ifvqbq0","pricing_plan_id":"free"},{"bike_id":"6b30ad49-604f-4398-8f2c-d27601ed40c1","system_id":"levelo_inurba_marseille","lat":43.309076,"lon":5.368465,"is_reserved":false,"is_disabled":false,"rental_uris":{"android":"levelo://app?vid=6b30ad49-604f-4398-8f2c-d27601ed40c1","ios":"levelo://app?vid=6b30ad49-604f-4398-8f2c-d27601ed40c1"},"vehicle_type_id":"4","last_reported":1707159946,"current_range_meters":11200,"station_id":"ce4bgn92rcd13ifvqbvg","pricing_plan_id":"free"},{"bike_id":"b40bde62-4018-4e4c-811a-9b5f1e25dfc5","system_id":"levelo_inurba_marseille","lat":43.314811,"lon":5.373103,"is_reserved":false,"is_disabled":false,"rental_uris":{"android":"levelo://app?vid=b40bde62-4018-4e4c-811a-9b5f1e25dfc5","ios":"levelo://app?vid=b40bde62-4018-4e4c-811a-9b5f1e25dfc5"},"vehicle_type_id":"4","last_reported":1707159946,"current_range_meters":18000,"station_id":"ce4bgt12rcd13ifvqcd0","pricing_plan_id":"free"},{"bike_id":"74c20e2a-c31c-43ca-8674-51c3e67952c0","system_id":"levelo_inurba_marseille","lat":43.314811,"lon":5.373103,"is_reserved":false,"is_disabled":false,"rental_uris":{"android":"levelo://app?vid=74c20e2a-c31c-43ca-8674-51c3e67952c0","ios":"levelo://app?vid=74c20e2a-c31c-43ca-8674-51c3e67952c0"},"vehicle_type_id":"4","last_reported":1707159946,"current_range_meters":400,"station_id":"ce4bgt12rcd13ifvqcd0","pricing_plan_id":"free"},{"bike_id":"d3896c23-8dcc-4d40-81fd-b221fcffe3bb","system_id":"levelo_inurba_marseille","lat":43.314811,"lon":5.373104,"is_reserved":false,"is_disabled":false,"rental_uris":{"android":"levelo://app?vid=d3896c23-8dcc-4d40-81fd-b221fcffe3bb","ios":"levelo://app?vid=d3896c23-8dcc-4d40-81fd-b221fcffe3bb"},"vehicle_type_id":"4","last_reported":1707159946,"current_range_meters":3600,"station_id":"ce4bgt12rcd13ifvqcd0","pricing_plan_id":"free"},{"bike_id":"d7a8e760-8fdd-45d2-abb9-3b5a37aaf62a","system_id":"levelo_inurba_marseille","lat":43.30884,"lon":5.37204,"is_reserved":false,"is_disabled":false,"rental_uris":{"android":"levelo://app?vid=d7a8e760-8fdd-45d2-abb9-3b5a37aaf62a","ios":"levelo://app?vid=d7a8e760-8fdd-45d2-abb9-3b5a37aaf62a"},"vehicle_type_id":"4","last_reported":1707159946,"current_range_meters":29600,"station_id":"ce4bguh2rcd13ifvqckg","pricing_plan_id":"free"},{"bike_id":"65e7e5e4-e984-4573-a311-4b70b2ce6ac5","system_id":"levelo_inurba_marseille","lat":43.31033,"lon":5.37644,"is_reserved":false,"is_disabled":false,"rental_uris":{"android":"levelo://app?vid=65e7e5e4-e984-4573-a311-4b70b2ce6ac5","ios":"levelo://app?vid=65e7e5e4-e984-4573-a311-4b70b2ce6ac5"},"vehicle_type_id":"4","last_reported":1707159946,"current_range_meters":24000,"station_id":"","pricing_plan_id":"free"},{"bike_id":"8fe84584-0a28-48d3-89df-88458d55ba8f","system_id":"levelo_inurba_marseille","lat":43.305368,"lon":5.367343,"is_reserved":false,"is_disabled":false,"rental_uris":{"android":"levelo://app?vid=8fe84584-0a28-48d3-89df-88458d55ba8f","ios":"levelo://app?vid=8fe84584-0a28-48d3-89df-88458d55ba8f"},"vehicle_type_id":"4","last_reported":1707159946,"current_range_meters":0,"station_id":"ce4bgrp2rcd13ifvqc9g","pricing_plan_id":"free"},{"bike_id":"0940f8e9-0e29-491e-b69b-00a1f0a14f4f","system_id":"levelo_inurba_marseille","lat":43.305,"lon":5.36684,"is_reserved":false,"is_disabled":false,"rental_uris":{"android":"levelo://app?vid=0940f8e9-0e29-491e-b69b-00a1f0a14f4f","ios":"levelo://app?vid=0940f8e9-0e29-491e-b69b-00a1f0a14f4f"},"vehicle_type_id":"4","last_reported":1707159946,"current_range_meters":0,"station_id":"","pricing_plan_id":"free"},{"bike_id":"8d357ccd-e308-4b6a-aff5-d8a1945bb2ac","system_id":"levelo_inurba_marseille","lat":43.305989,"lon":5.37225,"is_reserved":false,"is_disabled":false,"rental_uris":{"android":"levelo://app?vid=8d357ccd-e308-4b6a-aff5-d8a1945bb2ac","ios":"levelo://app?vid=8d357ccd-e308-4b6a-aff5-d8a1945bb2ac"},"vehicle_type_id":"4","last_reported":1707159946,"current_range_meters":9200,"station_id":"ce4bgqh2rcd13ifvqc4g","pricing_plan_id":"free"},{"bike_id":"810b39c9-d068-460e-aff8-a829aad007f4","system_id":"levelo_inurba_marseille","lat":43.305989,"lon":5.37225,"is_reserved":false,"is_disabled":false,"rental_uris":{"android":"levelo://app?vid=810b39c9-d068-460e-aff8-a829aad007f4","ios":"levelo://app?vid=810b39c9-d068-460e-aff8-a829aad007f4"},"vehicle_type_id":"4","last_reported":1707159946,"current_range_meters":20400,"station_id":"ce4bgqh2rcd13ifvqc4g","pricing_plan_id":"free"},{"bike_id":"0c0f3852-7491-4e36-9d00-6370e30c1f53","system_id":"levelo_inurba_marseille","lat":43.305989,"lon":5.37225,"is_reserved":false,"is_disabled":false,"rental_uris":{"android":"levelo://app?vid=0c0f3852-7491-4e36-9d00-6370e30c1f53","ios":"levelo://app?vid=0c0f3852-7491-4e36-9d00-6370e30c1f53"},"vehicle_type_id":"4","last_reported":1707159946,"current_range_meters":2000,"station_id":"ce4bgqh2rcd13ifvqc4g","pricing_plan_id":"free"},{"bike_id":"9f627477-7ccf-4709-b6be-75724d7504d3","system_id":"levelo_inurba_marseille","lat":43.311234,"lon":5.377701,"is_reserved":false,"is_disabled":false,"rental_uris":{"android":"levelo://app?vid=9f627477-7ccf-4709-b6be-75724d7504d3","ios":"levelo://app?vid=9f627477-7ccf-4709-b6be-75724d7504d3"},"vehicle_type_id":"4","last_reported":1707159946,"current_range_meters":30400,"station_id":"ce4bgt92rcd13ifvqcg0","pricing_plan_id":"free"},{"bike_id":"502eb146-ad73-4c2c-8c7c-5cacb12094eb","system_id":"levelo_inurba_marseille","lat":43.311131,"lon":5.377651,"is_reserved":false,"is_disabled":false,"rental_uris":{"android":"levelo://app?vid=502eb146-ad73-4c2c-8c7c-5cacb12094eb","ios":"levelo://app?vid=502eb146-ad73-4c2c-8c7c-5cacb12094eb"},"vehicle_type_id":"4","last_reported":1707159946,"current_range_meters":4800,"station_id":"ce4bgt92rcd13ifvqcg0","pricing_plan_id":"free"},{"bike_id":"98de5ce1-a00e-4ddf-9acf-f925c33042e5","system_id":"levelo_inurba_marseille","lat":43.3112,"lon":5.3777,"is_reserved":false,"is_disabled":false,"rental_uris":{"android":"levelo://app?vid=98de5ce1-a00e-4ddf-9acf-f925c33042e5","ios":"levelo://app?vid=98de5ce1-a00e-4ddf-9acf-f925c33042e5"},"vehicle_type_id":"4","last_reported":1707159946,"current_range_meters":0,"station_id":"ce4bgt92rcd13ifvqcg0","pricing_plan_id":"free"},{"bike_id":"22561201-bd63-44c4-9607-ac8a8cf27fd9","system_id":"levelo_inurba_marseille","lat":43.311131,"lon":5.377651,"is_reserved":false,"is_disabled":false,"rental_uris":{"android":"levelo://app?vid=22561201-bd63-44c4-9607-ac8a8cf27fd9","ios":"levelo://app?vid=22561201-bd63-44c4-9607-ac8a8cf27fd9"},"vehicle_type_id":"4","last_reported":1707159946,"current_range_meters":21200,"station_id":"ce4bgt92rcd13ifvqcg0","pricing_plan_id":"free"},{"bike_id":"e9616e7f-a427-440d-87dd-5e57800f787e","system_id":"levelo_inurba_marseille","lat":43.311125,"lon":5.377624,"is_reserved":false,"is_disabled":false,"rental_uris":{"android":"levelo://app?vid=e9616e7f-a427-440d-87dd-5e57800f787e","ios":"levelo://app?vid=e9616e7f-a427-440d-87dd-5e57800f787e"},"vehicle_type_id":"4","last_reported":1707159946,"current_range_meters":20400,"station_id":"ce4bgt92rcd13ifvqcg0","pricing_plan_id":"free"},{"bike_id":"929beef4-557d-4b94-b906-93bdb251d0fc","system_id":"levelo_inurba_marseille","lat":43.30783,"lon":5.37654,"is_reserved":false,"is_disabled":false,"rental_uris":{"android":"levelo://app?vid=929beef4-557d-4b94-b906-93bdb251d0fc","ios":"levelo://app?vid=929beef4-557d-4b94-b906-93bdb251d0fc"},"vehicle_type_id":"4","last_reported":1707159946,"current_range_meters":4400,"station_id":"ce4bgv92rcd13ifvqcq0","pricing_plan_id":"free"},{"bike_id":"720e0343-79e1-4a7f-b67b-a5e9e8907370","system_id":"levelo_inurba_marseille","lat":43.31712,"lon":5.37766,"is_reserved":false,"is_disabled":false,"rental_uris":{"android":"levelo://app?vid=720e0343-79e1-4a7f-b67b-a5e9e8907370","ios":"levelo://app?vid=720e0343-79e1-4a7f-b67b-a5e9e8907370"},"vehicle_type_id":"4","last_reported":1707159946,"current_range_meters":0,"station_id":"ce4bgth2rcd13ifvqch0","pricing_plan_id":"free"},{"bike_id":"4f66851b-1d26-4b75-b53b-029801109de0","system_id":"levelo_inurba_marseille","lat":43.315293,"lon":5.380349,"is_reserved":false,"is_disabled":false,"rental_uris":{"android":"levelo://app?vid=4f66851b-1d26-4b75-b53b-029801109de0","ios":"levelo://app?vid=4f66851b-1d26-4b75-b53b-029801109de0"},"vehicle_type_id":"4","last_reported":1707159946,"current_range_meters":16000,"station_id":"ce4bhsp2rcd13ifvqi50","pricing_plan_id":"free"},{"bike_id":"124eee7d-dbc9-4171-a77d-06d77282256a","system_id":"levelo_inurba_marseille","lat":43.308012,"lon":5.381511,"is_reserved":false,"is_disabled":false,"rental_uris":{"android":"levelo://app?vid=124eee7d-dbc9-4171-a77d-06d77282256a","ios":"levelo://app?vid=124eee7d-dbc9-4171-a77d-06d77282256a"},"vehicle_type_id":"4","last_reported":1707159946,"current_range_meters":31200,"station_id":"ce4bgt12rcd13ifvqce0","pricing_plan_id":"free"},{"bike_id":"029050c2-6172-4e20-a96e-dfca5547c97b","system_id":"levelo_inurba_marseille","lat":43.308012,"lon":5.381511,"is_reserved":false,"is_disabled":false,"rental_uris":{"android":"levelo://app?vid=029050c2-6172-4e20-a96e-dfca5547c97b","ios":"levelo://app?vid=029050c2-6172-4e20-a96e-dfca5547c97b"},"vehicle_type_id":"4","last_reported":1707159946,"current_range_meters":24400,"station_id":"ce4bgt12rcd13ifvqce0","pricing_plan_id":"free"},{"bike_id":"d377ae8b-2c08-4a5a-9d08-2d443846a402","system_id":"levelo_inurba_marseille","lat":43.308012,"lon":5.381511,"is_reserved":false,"is_disabled":false,"rental_uris":{"android":"levelo://app?vid=d377ae8b-2c08-4a5a-9d08-2d443846a402","ios":"levelo://app?vid=d377ae8b-2c08-4a5a-9d08-2d443846a402"},"vehicle_type_id":"4","last_reported":1707159946,"current_range_meters":30800,"station_id":"ce4bgt12rcd13ifvqce0","pricing_plan_id":"free"},{"bike_id":"d0b4ff06-82aa-4d6c-a7bb-410d5f248bde","system_id":"levelo_inurba_marseille","lat":43.308012,"lon":5.381511,"is_reserved":false,"is_disabled":false,"rental_uris":{"android":"levelo://app?vid=d0b4ff06-82aa-4d6c-a7bb-410d5f248bde","ios":"levelo://app?vid=d0b4ff06-82aa-4d6c-a7bb-410d5f248bde"},"vehicle_type_id":"4","last_reported":1707159946,"current_range_meters":14800,"station_id":"ce4bgt12rcd13ifvqce0","pricing_plan_id":"free"},{"bike_id":"88c08848-7b21-4e20-852c-6b45b128fecc","system_id":"levelo_inurba_marseille","lat":43.308012,"lon":5.381511,"is_reserved":false,"is_disabled":false,"rental_uris":{"android":"levelo://app?vid=88c08848-7b21-4e20-852c-6b45b128fecc","ios":"levelo://app?vid=88c08848-7b21-4e20-852c-6b45b128fecc"},"vehicle_type_id":"4","last_reported":1707159946,"current_range_meters":21600,"station_id":"ce4bgt12rcd13ifvqce0","pricing_plan_id":"free"},{"bike_id":"8071697f-5d31-4de8-af45-33898163d977","system_id":"levelo_inurba_marseille","lat":43.304606,"lon":5.379026,"is_reserved":false,"is_disabled":false,"rental_uris":{"android":"levelo://app?vid=8071697f-5d31-4de8-af45-33898163d977","ios":"levelo://app?vid=8071697f-5d31-4de8-af45-33898163d977"},"vehicle_type_id":"4","last_reported":1707159946,"current_range_meters":0,"station_id":"ce4bgup2rcd13ifvqcn0","pricing_plan_id":"free"},{"bike_id":"af194b2f-e009-4732-aa23-9b2c04ad31e7","system_id":"levelo_inurba_marseille","lat":43.324771,"lon":5.36557,"is_reserved":false,"is_disabled":false,"rental_uris":{"android":"levelo://app?vid=af194b2f-e009-4732-aa23-9b2c04ad31e7","ios":"levelo://app?vid=af194b2f-e009-4732-aa23-9b2c04ad31e7"},"vehicle_type_id":"4","last_reported":1707159946,"current_range_meters":9200,"station_id":"ce4bhs12rcd13ifvqhvg","pricing_plan_id":"free"},{"bike_id":"1cdc8df9-000e-4e0e-a6f3-f37b19fd07b2","system_id":"levelo_inurba_marseille","lat":43.31991,"lon":5.38156,"is_reserved":false,"is_disabled":false,"rental_uris":{"android":"levelo://app?vid=1cdc8df9-000e-4e0e-a6f3-f37b19fd07b2","ios":"levelo://app?vid=1cdc8df9-000e-4e0e-a6f3-f37b19fd07b2"},"vehicle_type_id":"4","last_reported":1707159946,"current_range_meters":1200,"station_id":"ce4bhr12rcd13ifvqhpg","pricing_plan_id":"free"},{"bike_id":"12ce1b51-e513-48d4-8826-d38689553faa","system_id":"levelo_inurba_marseille","lat":43.31998,"lon":5.38152,"is_reserved":false,"is_disabled":false,"rental_uris":{"android":"levelo://app?vid=12ce1b51-e513-48d4-8826-d38689553faa","ios":"levelo://app?vid=12ce1b51-e513-48d4-8826-d38689553faa"},"vehicle_type_id":"4","last_reported":1707159946,"current_range_meters":2000,"station_id":"ce4bhr12rcd13ifvqhpg","pricing_plan_id":"free"},{"bike_id":"d91ddaaf-996a-434e-b562-f2ffb54f2299","system_id":"levelo_inurba_marseille","lat":43.31997,"lon":5.38167,"is_reserved":false,"is_disabled":false,"rental_uris":{"android":"levelo://app?vid=d91ddaaf-996a-434e-b562-f2ffb54f2299","ios":"levelo://app?vid=d91ddaaf-996a-434e-b562-f2ffb54f2299"},"vehicle_type_id":"4","last_reported":1707159946,"current_range_meters":4400,"station_id":"ce4bhr12rcd13ifvqhpg","pricing_plan_id":"free"},{"bike_id":"3a073ec4-9b86-425b-83fd-9731bccea806","system_id":"levelo_inurba_marseille","lat":43.3136,"lon":5.3848,"is_reserved":false,"is_disabled":false,"rental_uris":{"android":"levelo://app?vid=3a073ec4-9b86-425b-83fd-9731bccea806","ios":"levelo://app?vid=3a073ec4-9b86-425b-83fd-9731bccea806"},"vehicle_type_id":"4","last_reported":1707159946,"current_range_meters":1200,"station_id":"ce4bgt92rcd13ifvqcf0","pricing_plan_id":"free"},{"bike_id":"84b9597b-e695-49e9-95d5-f016306120fd","system_id":"levelo_inurba_marseille","lat":43.313571,"lon":5.384829,"is_reserved":false,"is_disabled":false,"rental_uris":{"android":"levelo://app?vid=84b9597b-e695-49e9-95d5-f016306120fd","ios":"levelo://app?vid=84b9597b-e695-49e9-95d5-f016306120fd"},"vehicle_type_id":"4","last_reported":1707159946,"current_range_meters":6000,"station_id":"ce4bgt92rcd13ifvqcf0","pricing_plan_id":"free"},{"bike_id":"736ca302-38a9-4242-9da2-bc3d7a459068","system_id":"levelo_inurba_marseille","lat":43.31368,"lon":5.38488,"is_reserved":false,"is_disabled":false,"rental_uris":{"android":"levelo://app?vid=736ca302-38a9-4242-9da2-bc3d7a459068","ios":"levelo://app?vid=736ca302-38a9-4242-9da2-bc3d7a459068"},"vehicle_type_id":"4","last_reported":1707159946,"current_range_meters":18400,"station_id":"ce4bgt92rcd13ifvqcf0","pricing_plan_id":"free"},{"bike_id":"8980bf07-b683-4899-bfb0-990c93fa821d","system_id":"levelo_inurba_marseille","lat":43.313571,"lon":5.384829,"is_reserved":false,"is_disabled":false,"rental_uris":{"android":"levelo://app?vid=8980bf07-b683-4899-bfb0-990c93fa821d","ios":"levelo://app?vid=8980bf07-b683-4899-bfb0-990c93fa821d"},"vehicle_type_id":"4","last_reported":1707159946,"current_range_meters":4400,"station_id":"ce4bgt92rcd13ifvqcf0","pricing_plan_id":"free"},{"bike_id":"51b5a27e-af7c-4f89-9706-57f6a902a4df","system_id":"levelo_inurba_marseille","lat":43.313571,"lon":5.384829,"is_reserved":false,"is_disabled":false,"rental_uris":{"android":"levelo://app?vid=51b5a27e-af7c-4f89-9706-57f6a902a4df","ios":"levelo://app?vid=51b5a27e-af7c-4f89-9706-57f6a902a4df"},"vehicle_type_id":"4","last_reported":1707159946,"current_range_meters":22800,"station_id":"ce4bgt92rcd13ifvqcf0","pricing_plan_id":"free"},{"bike_id":"7b779ed6-1094-4ab1-8ef1-2baedc390517","system_id":"levelo_inurba_marseille","lat":43.313571,"lon":5.384829,"is_reserved":false,"is_disabled":false,"rental_uris":{"android":"levelo://app?vid=7b779ed6-1094-4ab1-8ef1-2baedc390517","ios":"levelo://app?vid=7b779ed6-1094-4ab1-8ef1-2baedc390517"},"vehicle_type_id":"4","last_reported":1707159946,"current_range_meters":12000,"station_id":"ce4bgt92rcd13ifvqcf0","pricing_plan_id":"free"},{"bike_id":"6b2f427f-3eff-4590-a352-d880757155ec","system_id":"levelo_inurba_marseille","lat":43.29975,"lon":5.37175,"is_reserved":false,"is_disabled":false,"rental_uris":{"android":"levelo://app?vid=6b2f427f-3eff-4590-a352-d880757155ec","ios":"levelo://app?vid=6b2f427f-3eff-4590-a352-d880757155ec"},"vehicle_type_id":"4","last_reported":1707159946,"current_range_meters":2400,"station_id":"ce4bgr92rcd13ifvqc7g","pricing_plan_id":"free"},{"bike_id":"95b06937-ef05-4617-9594-526c76ffe073","system_id":"levelo_inurba_marseille","lat":43.299222,"lon":5.365554,"is_reserved":false,"is_disabled":false,"rental_uris":{"android":"levelo://app?vid=95b06937-ef05-4617-9594-526c76ffe073","ios":"levelo://app?vid=95b06937-ef05-4617-9594-526c76ffe073"},"vehicle_type_id":"4","last_reported":1707159946,"current_range_meters":5600,"station_id":"ce4bgm92rcd13ifvqbr0","pricing_plan_id":"free"},{"bike_id":"3110ba72-a1a8-48d1-a682-0916b12a9861","system_id":"levelo_inurba_marseille","lat":43.299724,"lon":5.371829,"is_reserved":false,"is_disabled":false,"rental_uris":{"android":"levelo://app?vid=3110ba72-a1a8-48d1-a682-0916b12a9861","ios":"levelo://app?vid=3110ba72-a1a8-48d1-a682-0916b12a9861"},"vehicle_type_id":"4","last_reported":1707159946,"current_range_meters":13600,"station_id":"ce4bgr92rcd13ifvqc7g","pricing_plan_id":"free"},{"bike_id":"88bd97ed-b7ac-458b-84eb-e5eb661be62f","system_id":"levelo_inurba_marseille","lat":43.299724,"lon":5.371829,"is_reserved":false,"is_disabled":false,"rental_uris":{"android":"levelo://app?vid=88bd97ed-b7ac-458b-84eb-e5eb661be62f","ios":"levelo://app?vid=88bd97ed-b7ac-458b-84eb-e5eb661be62f"},"vehicle_type_id":"4","last_reported":1707159946,"current_range_meters":8800,"station_id":"ce4bgr92rcd13ifvqc7g","pricing_plan_id":"free"},{"bike_id":"d73908e2-2bfd-489b-804e-d4e95fac72d2","system_id":"levelo_inurba_marseille","lat":43.326525,"lon":5.36078,"is_reserved":false,"is_disabled":false,"rental_uris":{"android":"levelo://app?vid=d73908e2-2bfd-489b-804e-d4e95fac72d2","ios":"levelo://app?vid=d73908e2-2bfd-489b-804e-d4e95fac72d2"},"vehicle_type_id":"4","last_reported":1707159946,"current_range_meters":17200,"station_id":"","pricing_plan_id":"free"},{"bike_id":"ef42f103-314a-4c4b-9847-941a808091c2","system_id":"levelo_inurba_marseille","lat":43.305364,"lon":5.384119,"is_reserved":false,"is_disabled":false,"rental_uris":{"android":"levelo://app?vid=ef42f103-314a-4c4b-9847-941a808091c2","ios":"levelo://app?vid=ef42f103-314a-4c4b-9847-941a808091c2"},"vehicle_type_id":"4","last_reported":1707159946,"current_range_meters":2000,"station_id":"ce4bgg92rcd13ifvqb30","pricing_plan_id":"free"},{"bike_id":"50ef4410-4669-4490-9944-823e5450d96b","system_id":"levelo_inurba_marseille","lat":43.305364,"lon":5.384119,"is_reserved":false,"is_disabled":false,"rental_uris":{"android":"levelo://app?vid=50ef4410-4669-4490-9944-823e5450d96b","ios":"levelo://app?vid=50ef4410-4669-4490-9944-823e5450d96b"},"vehicle_type_id":"4","last_reported":1707159946,"current_range_meters":8000,"station_id":"ce4bgg92rcd13ifvqb30","pricing_plan_id":"free"},{"bike_id":"e167b417-2465-44a4-a3ba-022ef6198d7f","system_id":"levelo_inurba_marseille","lat":43.298433,"lon":5.362774,"is_reserved":false,"is_disabled":false,"rental_uris":{"android":"levelo://app?vid=e167b417-2465-44a4-a3ba-022ef6198d7f","ios":"levelo://app?vid=e167b417-2465-44a4-a3ba-022ef6198d7f"},"vehicle_type_id":"4","last_reported":1707159946,"current_range_meters":27200,"station_id":"ce4bgpp2rcd13ifvqc3g","pricing_plan_id":"free"},{"bike_id":"f26c9018-a6ec-4bf0-93ef-abc2b01da1f1","system_id":"levelo_inurba_marseille","lat":43.305364,"lon":5.384119,"is_reserved":false,"is_disabled":false,"rental_uris":{"android":"levelo://app?vid=f26c9018-a6ec-4bf0-93ef-abc2b01da1f1","ios":"levelo://app?vid=f26c9018-a6ec-4bf0-93ef-abc2b01da1f1"},"vehicle_type_id":"4","last_reported":1707159946,"current_range_meters":13200,"station_id":"ce4bgg92rcd13ifvqb30","pricing_plan_id":"free"},{"bike_id":"500861d1-0c48-42ca-9983-abb1c55ba815","system_id":"levelo_inurba_marseille","lat":43.298433,"lon":5.362774,"is_reserved":false,"is_disabled":false,"rental_uris":{"android":"levelo://app?vid=500861d1-0c48-42ca-9983-abb1c55ba815","ios":"levelo://app?vid=500861d1-0c48-42ca-9983-abb1c55ba815"},"vehicle_type_id":"4","last_reported":1707159946,"current_range_meters":4800,"station_id":"ce4bgpp2rcd13ifvqc3g","pricing_plan_id":"free"},{"bike_id":"527882ae-c70b-4b8c-af5c-db40c29597cb","system_id":"levelo_inurba_marseille","lat":43.305364,"lon":5.384119,"is_reserved":false,"is_disabled":false,"rental_uris":{"android":"levelo://app?vid=527882ae-c70b-4b8c-af5c-db40c29597cb","ios":"levelo://app?vid=527882ae-c70b-4b8c-af5c-db40c29597cb"},"vehicle_type_id":"4","last_reported":1707159946,"current_range_meters":6800,"station_id":"ce4bgg92rcd13ifvqb30","pricing_plan_id":"free"},{"bike_id":"f83e7f89-722b-4ff1-9f9c-7c178f1bec27","system_id":"levelo_inurba_marseille","lat":43.305364,"lon":5.384119,"is_reserved":false,"is_disabled":false,"rental_uris":{"android":"levelo://app?vid=f83e7f89-722b-4ff1-9f9c-7c178f1bec27","ios":"levelo://app?vid=f83e7f89-722b-4ff1-9f9c-7c178f1bec27"},"vehicle_type_id":"4","last_reported":1707159946,"current_range_meters":15200,"station_id":"ce4bgg92rcd13ifvqb30","pricing_plan_id":"free"},{"bike_id":"9be1e410-1bba-45ae-b845-b3e329659403","system_id":"levelo_inurba_marseille","lat":43.311722,"lon":5.387247,"is_reserved":false,"is_disabled":false,"rental_uris":{"android":"levelo://app?vid=9be1e410-1bba-45ae-b845-b3e329659403","ios":"levelo://app?vid=9be1e410-1bba-45ae-b845-b3e329659403"},"vehicle_type_id":"4","last_reported":1707159946,"current_range_meters":3600,"station_id":"ce4bgv12rcd13ifvqcp0","pricing_plan_id":"free"},{"bike_id":"82899e80-4703-4b2c-9cb5-c0461c45220c","system_id":"levelo_inurba_marseille","lat":43.311722,"lon":5.387247,"is_reserved":false,"is_disabled":false,"rental_uris":{"android":"levelo://app?vid=82899e80-4703-4b2c-9cb5-c0461c45220c","ios":"levelo://app?vid=82899e80-4703-4b2c-9cb5-c0461c45220c"},"vehicle_type_id":"4","last_reported":1707159946,"current_range_meters":6000,"station_id":"ce4bgv12rcd13ifvqcp0","pricing_plan_id":"free"},{"bike_id":"956f43c6-789d-4861-b081-bb40d4b613a9","system_id":"levelo_inurba_marseille","lat":43.311722,"lon":5.387247,"is_reserved":false,"is_disabled":false,"rental_uris":{"android":"levelo://app?vid=956f43c6-789d-4861-b081-bb40d4b613a9","ios":"levelo://app?vid=956f43c6-789d-4861-b081-bb40d4b613a9"},"vehicle_type_id":"4","last_reported":1707159946,"current_range_meters":22800,"station_id":"ce4bgv12rcd13ifvqcp0","pricing_plan_id":"free"},{"bike_id":"0210949c-3f39-45fb-9d4d-ff3a27e7b63b","system_id":"levelo_inurba_marseille","lat":43.29782,"lon":5.37099,"is_reserved":false,"is_disabled":false,"rental_uris":{"android":"levelo://app?vid=0210949c-3f39-45fb-9d4d-ff3a27e7b63b","ios":"levelo://app?vid=0210949c-3f39-45fb-9d4d-ff3a27e7b63b"},"vehicle_type_id":"4","last_reported":1707159946,"current_range_meters":0,"station_id":"ce4bgop2rcd13ifvqc1g","pricing_plan_id":"free"},{"bike_id":"642b6707-55dc-499a-96df-e1892771c3ea","system_id":"levelo_inurba_marseille","lat":43.322872,"lon":5.382756,"is_reserved":false,"is_disabled":false,"rental_uris":{"android":"levelo://app?vid=642b6707-55dc-499a-96df-e1892771c3ea","ios":"levelo://app?vid=642b6707-55dc-499a-96df-e1892771c3ea"},"vehicle_type_id":"4","last_reported":1707159946,"current_range_meters":28000,"station_id":"ce4bhr12rcd13ifvqhqg","pricing_plan_id":"free"},{"bike_id":"067f66e1-9b81-4458-bb45-5c10a4329356","system_id":"levelo_inurba_marseille","lat":43.322872,"lon":5.382756,"is_reserved":false,"is_disabled":false,"rental_uris":{"android":"levelo://app?vid=067f66e1-9b81-4458-bb45-5c10a4329356","ios":"levelo://app?vid=067f66e1-9b81-4458-bb45-5c10a4329356"},"vehicle_type_id":"4","last_reported":1707159946,"current_range_meters":31600,"station_id":"ce4bhr12rcd13ifvqhqg","pricing_plan_id":"free"},{"bike_id":"2d35649e-5275-4c8a-a083-907f59a3cbfa","system_id":"levelo_inurba_marseille","lat":43.322872,"lon":5.382756,"is_reserved":false,"is_disabled":false,"rental_uris":{"android":"levelo://app?vid=2d35649e-5275-4c8a-a083-907f59a3cbfa","ios":"levelo://app?vid=2d35649e-5275-4c8a-a083-907f59a3cbfa"},"vehicle_type_id":"4","last_reported":1707159946,"current_range_meters":6000,"station_id":"ce4bhr12rcd13ifvqhqg","pricing_plan_id":"free"},{"bike_id":"acb0b184-9bf5-46e1-94e9-e996216dd8a0","system_id":"levelo_inurba_marseille","lat":43.322872,"lon":5.382756,"is_reserved":false,"is_disabled":false,"rental_uris":{"android":"levelo://app?vid=acb0b184-9bf5-46e1-94e9-e996216dd8a0","ios":"levelo://app?vid=acb0b184-9bf5-46e1-94e9-e996216dd8a0"},"vehicle_type_id":"4","last_reported":1707159946,"current_range_meters":30000,"station_id":"ce4bhr12rcd13ifvqhqg","pricing_plan_id":"free"},{"bike_id":"2d229d31-c338-4fd7-9441-17f78e65f722","system_id":"levelo_inurba_marseille","lat":43.297163,"lon":5.365866,"is_reserved":false,"is_disabled":false,"rental_uris":{"android":"levelo://app?vid=2d229d31-c338-4fd7-9441-17f78e65f722","ios":"levelo://app?vid=2d229d31-c338-4fd7-9441-17f78e65f722"},"vehicle_type_id":"4","last_reported":1707159946,"current_range_meters":800,"station_id":"ce4bgn12rcd13ifvqbt0","pricing_plan_id":"free"},{"bike_id":"1900e2ea-9239-49b1-933e-57903fa99707","system_id":"levelo_inurba_marseille","lat":43.32826,"lon":5.36695,"is_reserved":false,"is_disabled":false,"rental_uris":{"android":"levelo://app?vid=1900e2ea-9239-49b1-933e-57903fa99707","ios":"levelo://app?vid=1900e2ea-9239-49b1-933e-57903fa99707"},"vehicle_type_id":"4","last_reported":1707159946,"current_range_meters":6000,"station_id":"ce4bhs92rcd13ifvqi0g","pricing_plan_id":"free"},{"bike_id":"068825c3-0e30-4039-9991-0f25d2c61d15","system_id":"levelo_inurba_marseille","lat":43.32827,"lon":5.36691,"is_reserved":false,"is_disabled":false,"rental_uris":{"android":"levelo://app?vid=068825c3-0e30-4039-9991-0f25d2c61d15","ios":"levelo://app?vid=068825c3-0e30-4039-9991-0f25d2c61d15"},"vehicle_type_id":"4","last_reported":1707159946,"current_range_meters":18000,"station_id":"ce4bhs92rcd13ifvqi0g","pricing_plan_id":"free"},{"bike_id":"dc2c4b60-6a40-4be4-a20a-86dccc5b5789","system_id":"levelo_inurba_marseille","lat":43.32827,"lon":5.36689,"is_reserved":false,"is_disabled":false,"rental_uris":{"android":"levelo://app?vid=dc2c4b60-6a40-4be4-a20a-86dccc5b5789","ios":"levelo://app?vid=dc2c4b60-6a40-4be4-a20a-86dccc5b5789"},"vehicle_type_id":"4","last_reported":1707159946,"current_range_meters":12000,"station_id":"ce4bhs92rcd13ifvqi0g","pricing_plan_id":"free"},{"bike_id":"36243836-0b62-45d5-b00e-078a5c9e3add","system_id":"levelo_inurba_marseille","lat":43.32829,"lon":5.36677,"is_reserved":false,"is_disabled":false,"rental_uris":{"android":"levelo://app?vid=36243836-0b62-45d5-b00e-078a5c9e3add","ios":"levelo://app?vid=36243836-0b62-45d5-b00e-078a5c9e3add"},"vehicle_type_id":"4","last_reported":1707159946,"current_range_meters":9600,"station_id":"ce4bhs92rcd13ifvqi0g","pricing_plan_id":"free"},{"bike_id":"62aabb2b-c9f9-48ea-a3a4-e4eb79305b81","system_id":"levelo_inurba_marseille","lat":43.328371,"lon":5.366909,"is_reserved":false,"is_disabled":false,"rental_uris":{"android":"levelo://app?vid=62aabb2b-c9f9-48ea-a3a4-e4eb79305b81","ios":"levelo://app?vid=62aabb2b-c9f9-48ea-a3a4-e4eb79305b81"},"vehicle_type_id":"4","last_reported":1707159946,"current_range_meters":8000,"station_id":"ce4bhs92rcd13ifvqi0g","pricing_plan_id":"free"},{"bike_id":"468dc14e-407c-4e05-9ad1-a97da56a9771","system_id":"levelo_inurba_marseille","lat":43.297163,"lon":5.365866,"is_reserved":false,"is_disabled":false,"rental_uris":{"android":"levelo://app?vid=468dc14e-407c-4e05-9ad1-a97da56a9771","ios":"levelo://app?vid=468dc14e-407c-4e05-9ad1-a97da56a9771"},"vehicle_type_id":"4","last_reported":1707159946,"current_range_meters":16000,"station_id":"ce4bgn12rcd13ifvqbt0","pricing_plan_id":"free"},{"bike_id":"98fb478c-2c90-4367-b2fe-e3ba20dfacae","system_id":"levelo_inurba_marseille","lat":43.314898,"lon":5.38891,"is_reserved":false,"is_disabled":false,"rental_uris":{"android":"levelo://app?vid=98fb478c-2c90-4367-b2fe-e3ba20dfacae","ios":"levelo://app?vid=98fb478c-2c90-4367-b2fe-e3ba20dfacae"},"vehicle_type_id":"4","last_reported":1707159946,"current_range_meters":25600,"station_id":"","pricing_plan_id":"free"},{"bike_id":"50b08a96-15dc-4a5d-9d6a-a831c874af68","system_id":"levelo_inurba_marseille","lat":43.297781,"lon":5.375384,"is_reserved":false,"is_disabled":false,"rental_uris":{"android":"levelo://app?vid=50b08a96-15dc-4a5d-9d6a-a831c874af68","ios":"levelo://app?vid=50b08a96-15dc-4a5d-9d6a-a831c874af68"},"vehicle_type_id":"4","last_reported":1707159946,"current_range_meters":15600,"station_id":"","pricing_plan_id":"free"},{"bike_id":"31a6de17-ef25-426b-a853-f6a8c801941a","system_id":"levelo_inurba_marseille","lat":43.2968,"lon":5.37291,"is_reserved":false,"is_disabled":false,"rental_uris":{"android":"levelo://app?vid=31a6de17-ef25-426b-a853-f6a8c801941a","ios":"levelo://app?vid=31a6de17-ef25-426b-a853-f6a8c801941a"},"vehicle_type_id":"4","last_reported":1707159946,"current_range_meters":19600,"station_id":"ce4bgk12rcd13ifvqbj0","pricing_plan_id":"free"},{"bike_id":"9899fd8e-4097-47d0-8131-2f28bbf0b689","system_id":"levelo_inurba_marseille","lat":43.29715,"lon":5.37698,"is_reserved":false,"is_disabled":false,"rental_uris":{"android":"levelo://app?vid=9899fd8e-4097-47d0-8131-2f28bbf0b689","ios":"levelo://app?vid=9899fd8e-4097-47d0-8131-2f28bbf0b689"},"vehicle_type_id":"4","last_reported":1707159946,"current_range_meters":0,"station_id":"ce4bgkh2rcd13ifvqbl0","pricing_plan_id":"free"},{"bike_id":"90e02760-0c46-48ac-8940-38c33e37b113","system_id":"levelo_inurba_marseille","lat":43.309589,"lon":5.390258,"is_reserved":false,"is_disabled":false,"rental_uris":{"android":"levelo://app?vid=90e02760-0c46-48ac-8940-38c33e37b113","ios":"levelo://app?vid=90e02760-0c46-48ac-8940-38c33e37b113"},"vehicle_type_id":"4","last_reported":1707159946,"current_range_meters":6800,"station_id":"ce4bgup2rcd13ifvqco0","pricing_plan_id":"free"},{"bike_id":"fa3edbd3-ffbc-4447-9335-a817e916f6da","system_id":"levelo_inurba_marseille","lat":43.309589,"lon":5.390258,"is_reserved":false,"is_disabled":false,"rental_uris":{"android":"levelo://app?vid=fa3edbd3-ffbc-4447-9335-a817e916f6da","ios":"levelo://app?vid=fa3edbd3-ffbc-4447-9335-a817e916f6da"},"vehicle_type_id":"4","last_reported":1707159946,"current_range_meters":24400,"station_id":"ce4bgup2rcd13ifvqco0","pricing_plan_id":"free"},{"bike_id":"753cae36-89b1-4c43-a560-b84a52a8dd62","system_id":"levelo_inurba_marseille","lat":43.317557,"lon":5.390173,"is_reserved":false,"is_disabled":false,"rental_uris":{"android":"levelo://app?vid=753cae36-89b1-4c43-a560-b84a52a8dd62","ios":"levelo://app?vid=753cae36-89b1-4c43-a560-b84a52a8dd62"},"vehicle_type_id":"4","last_reported":1707159946,"current_range_meters":18800,"station_id":"ce4bhqp2rcd13ifvqhng","pricing_plan_id":"free"},{"bike_id":"740091fe-3965-4b26-b856-3d2655315d57","system_id":"levelo_inurba_marseille","lat":43.317557,"lon":5.390173,"is_reserved":false,"is_disabled":false,"rental_uris":{"android":"levelo://app?vid=740091fe-3965-4b26-b856-3d2655315d57","ios":"levelo://app?vid=740091fe-3965-4b26-b856-3d2655315d57"},"vehicle_type_id":"4","last_reported":1707159946,"current_range_meters":31200,"station_id":"ce4bhqp2rcd13ifvqhng","pricing_plan_id":"free"},{"bike_id":"bf5596bb-afb2-46d3-93c4-a5572d7667f8","system_id":"levelo_inurba_marseille","lat":43.317592,"lon":5.390184,"is_reserved":false,"is_disabled":false,"rental_uris":{"android":"levelo://app?vid=bf5596bb-afb2-46d3-93c4-a5572d7667f8","ios":"levelo://app?vid=bf5596bb-afb2-46d3-93c4-a5572d7667f8"},"vehicle_type_id":"4","last_reported":1707159946,"current_range_meters":31200,"station_id":"ce4bhqp2rcd13ifvqhng","pricing_plan_id":"free"},{"bike_id":"5f4bbffd-645d-4394-9713-b7d56fa1e800","system_id":"levelo_inurba_marseille","lat":43.31758,"lon":5.3902,"is_reserved":false,"is_disabled":false,"rental_uris":{"android":"levelo://app?vid=5f4bbffd-645d-4394-9713-b7d56fa1e800","ios":"levelo://app?vid=5f4bbffd-645d-4394-9713-b7d56fa1e800"},"vehicle_type_id":"4","last_reported":1707159946,"current_range_meters":10400,"station_id":"ce4bhqp2rcd13ifvqhng","pricing_plan_id":"free"},{"bike_id":"b023b8de-681e-4a4f-921a-3ae0e7b207d6","system_id":"levelo_inurba_marseille","lat":43.317557,"lon":5.390173,"is_reserved":false,"is_disabled":false,"rental_uris":{"android":"levelo://app?vid=b023b8de-681e-4a4f-921a-3ae0e7b207d6","ios":"levelo://app?vid=b023b8de-681e-4a4f-921a-3ae0e7b207d6"},"vehicle_type_id":"4","last_reported":1707159946,"current_range_meters":400,"station_id":"ce4bhqp2rcd13ifvqhng","pricing_plan_id":"free"},{"bike_id":"79d14bfc-06e9-4997-bbc0-831f3a1a5fef","system_id":"levelo_inurba_marseille","lat":43.317548,"lon":5.390233,"is_reserved":false,"is_disabled":false,"rental_uris":{"android":"levelo://app?vid=79d14bfc-06e9-4997-bbc0-831f3a1a5fef","ios":"levelo://app?vid=79d14bfc-06e9-4997-bbc0-831f3a1a5fef"},"vehicle_type_id":"4","last_reported":1707159946,"current_range_meters":0,"station_id":"ce4bhqp2rcd13ifvqhng","pricing_plan_id":"free"},{"bike_id":"40a85205-af79-43c2-bdc9-257280312aae","system_id":"levelo_inurba_marseille","lat":43.3176,"lon":5.39024,"is_reserved":false,"is_disabled":false,"rental_uris":{"android":"levelo://app?vid=40a85205-af79-43c2-bdc9-257280312aae","ios":"levelo://app?vid=40a85205-af79-43c2-bdc9-257280312aae"},"vehicle_type_id":"4","last_reported":1707159946,"current_range_meters":23600,"station_id":"ce4bhqp2rcd13ifvqhng","pricing_plan_id":"free"},{"bike_id":"1033b78d-f901-4cfa-8cae-54cb1e173be4","system_id":"levelo_inurba_marseille","lat":43.317571,"lon":5.390261,"is_reserved":false,"is_disabled":false,"rental_uris":{"android":"levelo://app?vid=1033b78d-f901-4cfa-8cae-54cb1e173be4","ios":"levelo://app?vid=1033b78d-f901-4cfa-8cae-54cb1e173be4"},"vehicle_type_id":"4","last_reported":1707159946,"current_range_meters":25600,"station_id":"ce4bhqp2rcd13ifvqhng","pricing_plan_id":"free"},{"bike_id":"80cf1180-a004-492b-ad94-5418719c9481","system_id":"levelo_inurba_marseille","lat":43.309589,"lon":5.390258,"is_reserved":false,"is_disabled":false,"rental_uris":{"android":"levelo://app?vid=80cf1180-a004-492b-ad94-5418719c9481","ios":"levelo://app?vid=80cf1180-a004-492b-ad94-5418719c9481"},"vehicle_type_id":"4","last_reported":1707159946,"current_range_meters":9600,"station_id":"ce4bgup2rcd13ifvqco0","pricing_plan_id":"free"},{"bike_id":"7914d592-ff45-46c4-8e07-b1e9ee68d0dc","system_id":"levelo_inurba_marseille","lat":43.295748,"lon":5.37522,"is_reserved":false,"is_disabled":false,"rental_uris":{"android":"levelo://app?vid=7914d592-ff45-46c4-8e07-b1e9ee68d0dc","ios":"levelo://app?vid=7914d592-ff45-46c4-8e07-b1e9ee68d0dc"},"vehicle_type_id":"4","last_reported":1707159946,"current_range_meters":27200,"station_id":"ce4bgh92rcd13ifvqb50","pricing_plan_id":"free"},{"bike_id":"164be2e9-db41-4982-aa7b-76e13295b810","system_id":"levelo_inurba_marseille","lat":43.30446,"lon":5.38889,"is_reserved":false,"is_disabled":false,"rental_uris":{"android":"levelo://app?vid=164be2e9-db41-4982-aa7b-76e13295b810","ios":"levelo://app?vid=164be2e9-db41-4982-aa7b-76e13295b810"},"vehicle_type_id":"4","last_reported":1707159946,"current_range_meters":10400,"station_id":"ce4bgk12rcd13ifvqbi0","pricing_plan_id":"free"},{"bike_id":"87b01911-738c-4fcb-8512-f1f2bf2f1941","system_id":"levelo_inurba_marseille","lat":43.295748,"lon":5.37522,"is_reserved":false,"is_disabled":false,"rental_uris":{"android":"levelo://app?vid=87b01911-738c-4fcb-8512-f1f2bf2f1941","ios":"levelo://app?vid=87b01911-738c-4fcb-8512-f1f2bf2f1941"},"vehicle_type_id":"4","last_reported":1707159946,"current_range_meters":13200,"station_id":"ce4bgh92rcd13ifvqb50","pricing_plan_id":"free"},{"bike_id":"e754c686-7262-49ee-8ee9-6d544240b91b","system_id":"levelo_inurba_marseille","lat":43.304278,"lon":5.388868,"is_reserved":false,"is_disabled":false,"rental_uris":{"android":"levelo://app?vid=e754c686-7262-49ee-8ee9-6d544240b91b","ios":"levelo://app?vid=e754c686-7262-49ee-8ee9-6d544240b91b"},"vehicle_type_id":"4","last_reported":1707159946,"current_range_meters":3600,"station_id":"ce4bgk12rcd13ifvqbi0","pricing_plan_id":"free"},{"bike_id":"1805feba-fa9d-48b3-8273-91b849c82b90","system_id":"levelo_inurba_marseille","lat":43.304274,"lon":5.388873,"is_reserved":false,"is_disabled":false,"rental_uris":{"android":"levelo://app?vid=1805feba-fa9d-48b3-8273-91b849c82b90","ios":"levelo://app?vid=1805feba-fa9d-48b3-8273-91b849c82b90"},"vehicle_type_id":"4","last_reported":1707159946,"current_range_meters":11600,"station_id":"ce4bgk12rcd13ifvqbi0","pricing_plan_id":"free"},{"bike_id":"ca9405b0-8d4c-44f6-9f17-0f0690549726","system_id":"levelo_inurba_marseille","lat":43.296277,"lon":5.377108,"is_reserved":false,"is_disabled":false,"rental_uris":{"android":"levelo://app?vid=ca9405b0-8d4c-44f6-9f17-0f0690549726","ios":"levelo://app?vid=ca9405b0-8d4c-44f6-9f17-0f0690549726"},"vehicle_type_id":"4","last_reported":1707159946,"current_range_meters":0,"station_id":"ce4bgi92rcd13ifvqb90","pricing_plan_id":"free"},{"bike_id":"57dc72a5-d1f5-4f2b-838b-233043039d8e","system_id":"levelo_inurba_marseille","lat":43.29601,"lon":5.381,"is_reserved":false,"is_disabled":false,"rental_uris":{"android":"levelo://app?vid=57dc72a5-d1f5-4f2b-838b-233043039d8e","ios":"levelo://app?vid=57dc72a5-d1f5-4f2b-838b-233043039d8e"},"vehicle_type_id":"4","last_reported":1707159946,"current_range_meters":11600,"station_id":"ce4bgl12rcd13ifvqbo0","pricing_plan_id":"free"},{"bike_id":"643f8187-71d6-48ae-b135-744aefa572f1","system_id":"levelo_inurba_marseille","lat":43.293259,"lon":5.371586,"is_reserved":false,"is_disabled":false,"rental_uris":{"android":"levelo://app?vid=643f8187-71d6-48ae-b135-744aefa572f1","ios":"levelo://app?vid=643f8187-71d6-48ae-b135-744aefa572f1"},"vehicle_type_id":"4","last_reported":1707159946,"current_range_meters":3600,"station_id":"ce4bgh92rcd13ifvqb40","pricing_plan_id":"free"},{"bike_id":"5a87dad2-13ad-429f-93b9-270e21d9d2e5","system_id":"levelo_inurba_marseille","lat":43.292749,"lon":5.368402,"is_reserved":false,"is_disabled":false,"rental_uris":{"android":"levelo://app?vid=5a87dad2-13ad-429f-93b9-270e21d9d2e5","ios":"levelo://app?vid=5a87dad2-13ad-429f-93b9-270e21d9d2e5"},"vehicle_type_id":"4","last_reported":1707159946,"current_range_meters":24800,"station_id":"ce4bhbp2rcd13ifvqesg","pricing_plan_id":"free"},{"bike_id":"f1f46d04-5159-4443-b527-5f82d6c3f8ff","system_id":"levelo_inurba_marseille","lat":43.292749,"lon":5.368402,"is_reserved":false,"is_disabled":false,"rental_uris":{"android":"levelo://app?vid=f1f46d04-5159-4443-b527-5f82d6c3f8ff","ios":"levelo://app?vid=f1f46d04-5159-4443-b527-5f82d6c3f8ff"},"vehicle_type_id":"4","last_reported":1707159946,"current_range_meters":2400,"station_id":"ce4bhbp2rcd13ifvqesg","pricing_plan_id":"free"},{"bike_id":"b9b9fc71-8e57-4c37-ba1e-9066f00ed817","system_id":"levelo_inurba_marseille","lat":43.293259,"lon":5.371586,"is_reserved":false,"is_disabled":false,"rental_uris":{"android":"levelo://app?vid=b9b9fc71-8e57-4c37-ba1e-9066f00ed817","ios":"levelo://app?vid=b9b9fc71-8e57-4c37-ba1e-9066f00ed817"},"vehicle_type_id":"4","last_reported":1707159946,"current_range_meters":22400,"station_id":"ce4bgh92rcd13ifvqb40","pricing_plan_id":"free"},{"bike_id":"f12bd98f-b3ac-4d18-9c63-9d3c6bc422d3","system_id":"levelo_inurba_marseille","lat":43.294153,"lon":5.386305,"is_reserved":false,"is_disabled":false,"rental_uris":{"android":"levelo://app?vid=f12bd98f-b3ac-4d18-9c63-9d3c6bc422d3","ios":"levelo://app?vid=f12bd98f-b3ac-4d18-9c63-9d3c6bc422d3"},"vehicle_type_id":"4","last_reported":1707159946,"current_range_meters":0,"station_id":"ce4bh2h2rcd13ifvqdh0","pricing_plan_id":"free"},{"bike_id":"31b52b12-88f6-4c9a-bcb1-5719c7815876","system_id":"levelo_inurba_marseille","lat":43.305994,"lon":5.393687,"is_reserved":false,"is_disabled":false,"rental_uris":{"android":"levelo://app?vid=31b52b12-88f6-4c9a-bcb1-5719c7815876","ios":"levelo://app?vid=31b52b12-88f6-4c9a-bcb1-5719c7815876"},"vehicle_type_id":"4","last_reported":1707159946,"current_range_meters":13600,"station_id":"ce4bh0p2rcd13ifvqd80","pricing_plan_id":"free"},{"bike_id":"37eced56-fca2-4135-a6fc-e19757e2bf17","system_id":"levelo_inurba_marseille","lat":43.305994,"lon":5.393687,"is_reserved":false,"is_disabled":false,"rental_uris":{"android":"levelo://app?vid=37eced56-fca2-4135-a6fc-e19757e2bf17","ios":"levelo://app?vid=37eced56-fca2-4135-a6fc-e19757e2bf17"},"vehicle_type_id":"4","last_reported":1707159946,"current_range_meters":18000,"station_id":"ce4bh0p2rcd13ifvqd80","pricing_plan_id":"free"},{"bike_id":"db336c3d-0e1b-4689-ba02-c7af5b06a1c5","system_id":"levelo_inurba_marseille","lat":43.293009,"lon":5.374584,"is_reserved":false,"is_disabled":false,"rental_uris":{"android":"levelo://app?vid=db336c3d-0e1b-4689-ba02-c7af5b06a1c5","ios":"levelo://app?vid=db336c3d-0e1b-4689-ba02-c7af5b06a1c5"},"vehicle_type_id":"4","last_reported":1707159946,"current_range_meters":12400,"station_id":"ce4bgi12rcd13ifvqb70","pricing_plan_id":"free"},{"bike_id":"d9ce57b7-bef3-4c97-b91e-cd8dca5003a2","system_id":"levelo_inurba_marseille","lat":43.305994,"lon":5.393687,"is_reserved":false,"is_disabled":false,"rental_uris":{"android":"levelo://app?vid=d9ce57b7-bef3-4c97-b91e-cd8dca5003a2","ios":"levelo://app?vid=d9ce57b7-bef3-4c97-b91e-cd8dca5003a2"},"vehicle_type_id":"4","last_reported":1707159946,"current_range_meters":15200,"station_id":"ce4bh0p2rcd13ifvqd80","pricing_plan_id":"free"},{"bike_id":"4267095d-bbc1-4b28-b865-f26de00fa9e0","system_id":"levelo_inurba_marseille","lat":43.292311,"lon":5.360731,"is_reserved":false,"is_disabled":false,"rental_uris":{"android":"levelo://app?vid=4267095d-bbc1-4b28-b865-f26de00fa9e0","ios":"levelo://app?vid=4267095d-bbc1-4b28-b865-f26de00fa9e0"},"vehicle_type_id":"4","last_reported":1707159946,"current_range_meters":7600,"station_id":"ce4bhbh2rcd13ifvqeqg","pricing_plan_id":"free"},{"bike_id":"96177b39-75a9-4844-97b6-487517af7628","system_id":"levelo_inurba_marseille","lat":43.300852,"lon":5.390859,"is_reserved":false,"is_disabled":false,"rental_uris":{"android":"levelo://app?vid=96177b39-75a9-4844-97b6-487517af7628","ios":"levelo://app?vid=96177b39-75a9-4844-97b6-487517af7628"},"vehicle_type_id":"4","last_reported":1707159946,"current_range_meters":4800,"station_id":"ce4bh192rcd13ifvqdb0","pricing_plan_id":"free"},{"bike_id":"f519cbde-71af-4ef3-85cb-c7cff669ad13","system_id":"levelo_inurba_marseille","lat":43.292311,"lon":5.360731,"is_reserved":false,"is_disabled":false,"rental_uris":{"android":"levelo://app?vid=f519cbde-71af-4ef3-85cb-c7cff669ad13","ios":"levelo://app?vid=f519cbde-71af-4ef3-85cb-c7cff669ad13"},"vehicle_type_id":"4","last_reported":1707159946,"current_range_meters":0,"station_id":"ce4bhbh2rcd13ifvqeqg","pricing_plan_id":"free"},{"bike_id":"8e29f060-7cf9-4572-8f6a-6476e5bcf3cf","system_id":"levelo_inurba_marseille","lat":43.30085,"lon":5.390856,"is_reserved":false,"is_disabled":false,"rental_uris":{"android":"levelo://app?vid=8e29f060-7cf9-4572-8f6a-6476e5bcf3cf","ios":"levelo://app?vid=8e29f060-7cf9-4572-8f6a-6476e5bcf3cf"},"vehicle_type_id":"4","last_reported":1707159946,"current_range_meters":2800,"station_id":"ce4bh192rcd13ifvqdb0","pricing_plan_id":"free"},{"bike_id":"6d36f46c-6a4f-48d4-b65c-90be6cd1f65d","system_id":"levelo_inurba_marseille","lat":43.291675,"lon":5.371583,"is_reserved":false,"is_disabled":false,"rental_uris":{"android":"levelo://app?vid=6d36f46c-6a4f-48d4-b65c-90be6cd1f65d","ios":"levelo://app?vid=6d36f46c-6a4f-48d4-b65c-90be6cd1f65d"},"vehicle_type_id":"4","last_reported":1707159946,"current_range_meters":1600,"station_id":"ce4bha92rcd13ifvqeh0","pricing_plan_id":"free"},{"bike_id":"023fe290-d268-4545-ac04-d24288a57da1","system_id":"levelo_inurba_marseille","lat":43.312411,"lon":5.396297,"is_reserved":false,"is_disabled":false,"rental_uris":{"android":"levelo://app?vid=023fe290-d268-4545-ac04-d24288a57da1","ios":"levelo://app?vid=023fe290-d268-4545-ac04-d24288a57da1"},"vehicle_type_id":"4","last_reported":1707159946,"current_range_meters":11200,"station_id":"","pricing_plan_id":"free"},{"bike_id":"b7a557b6-207c-4498-87d4-bb4315e98c44","system_id":"levelo_inurba_marseille","lat":43.290624,"lon":5.359245,"is_reserved":false,"is_disabled":false,"rental_uris":{"android":"levelo://app?vid=b7a557b6-207c-4498-87d4-bb4315e98c44","ios":"levelo://app?vid=b7a557b6-207c-4498-87d4-bb4315e98c44"},"vehicle_type_id":"4","last_reported":1707159946,"current_range_meters":3600,"station_id":"ce4bha92rcd13ifvqeg0","pricing_plan_id":"free"},{"bike_id":"0cbbd74f-5659-45ff-ae70-c537acc11923","system_id":"levelo_inurba_marseille","lat":43.30886,"lon":5.39629,"is_reserved":false,"is_disabled":false,"rental_uris":{"android":"levelo://app?vid=0cbbd74f-5659-45ff-ae70-c537acc11923","ios":"levelo://app?vid=0cbbd74f-5659-45ff-ae70-c537acc11923"},"vehicle_type_id":"4","last_reported":1707159946,"current_range_meters":5200,"station_id":"ce4bh012rcd13ifvqcv0","pricing_plan_id":"free"},{"bike_id":"a4e2a607-4e82-473d-8f73-ac246d59fce7","system_id":"levelo_inurba_marseille","lat":43.30891,"lon":5.39636,"is_reserved":false,"is_disabled":false,"rental_uris":{"android":"levelo://app?vid=a4e2a607-4e82-473d-8f73-ac246d59fce7","ios":"levelo://app?vid=a4e2a607-4e82-473d-8f73-ac246d59fce7"},"vehicle_type_id":"4","last_reported":1707159946,"current_range_meters":0,"station_id":"ce4bh012rcd13ifvqcv0","pricing_plan_id":"free"},{"bike_id":"f4d15483-84ae-4056-87a1-e709636e15eb","system_id":"levelo_inurba_marseille","lat":43.291972,"lon":5.357977,"is_reserved":false,"is_disabled":false,"rental_uris":{"android":"levelo://app?vid=f4d15483-84ae-4056-87a1-e709636e15eb","ios":"levelo://app?vid=f4d15483-84ae-4056-87a1-e709636e15eb"},"vehicle_type_id":"4","last_reported":1707159946,"current_range_meters":0,"station_id":"ce4bhb12rcd13ifvqel0","pricing_plan_id":"free"},{"bike_id":"2b54da50-da42-469c-9fa6-27782163ca0e","system_id":"levelo_inurba_marseille","lat":43.29198,"lon":5.35791,"is_reserved":false,"is_disabled":false,"rental_uris":{"android":"levelo://app?vid=2b54da50-da42-469c-9fa6-27782163ca0e","ios":"levelo://app?vid=2b54da50-da42-469c-9fa6-27782163ca0e"},"vehicle_type_id":"4","last_reported":1707159946,"current_range_meters":9200,"station_id":"ce4bhb12rcd13ifvqel0","pricing_plan_id":"free"},{"bike_id":"a308fa7e-cfac-4908-a9b8-68902fdf16fb","system_id":"levelo_inurba_marseille","lat":43.313291,"lon":5.396838,"is_reserved":false,"is_disabled":false,"rental_uris":{"android":"levelo://app?vid=a308fa7e-cfac-4908-a9b8-68902fdf16fb","ios":"levelo://app?vid=a308fa7e-cfac-4908-a9b8-68902fdf16fb"},"vehicle_type_id":"4","last_reported":1707159946,"current_range_meters":3600,"station_id":"ce4bgvp2rcd13ifvqcu0","pricing_plan_id":"free"},{"bike_id":"00b2ceb5-080f-4b6b-8f11-43ff114ce4a8","system_id":"levelo_inurba_marseille","lat":43.313291,"lon":5.396838,"is_reserved":false,"is_disabled":false,"rental_uris":{"android":"levelo://app?vid=00b2ceb5-080f-4b6b-8f11-43ff114ce4a8","ios":"levelo://app?vid=00b2ceb5-080f-4b6b-8f11-43ff114ce4a8"},"vehicle_type_id":"4","last_reported":1707159946,"current_range_meters":18400,"station_id":"ce4bgvp2rcd13ifvqcu0","pricing_plan_id":"free"},{"bike_id":"263290b7-3f5f-4422-9b7a-33f2739d74f4","system_id":"levelo_inurba_marseille","lat":43.29191,"lon":5.358,"is_reserved":false,"is_disabled":false,"rental_uris":{"android":"levelo://app?vid=263290b7-3f5f-4422-9b7a-33f2739d74f4","ios":"levelo://app?vid=263290b7-3f5f-4422-9b7a-33f2739d74f4"},"vehicle_type_id":"4","last_reported":1707159946,"current_range_meters":0,"station_id":"ce4bhb12rcd13ifvqel0","pricing_plan_id":"free"},{"bike_id":"24acd523-dffc-4e9d-bdb3-17e5be54ba12","system_id":"levelo_inurba_marseille","lat":43.31329,"lon":5.39691,"is_reserved":false,"is_disabled":false,"rental_uris":{"android":"levelo://app?vid=24acd523-dffc-4e9d-bdb3-17e5be54ba12","ios":"levelo://app?vid=24acd523-dffc-4e9d-bdb3-17e5be54ba12"},"vehicle_type_id":"4","last_reported":1707159946,"current_range_meters":5200,"station_id":"ce4bgvp2rcd13ifvqcu0","pricing_plan_id":"free"},{"bike_id":"0631623c-4a9e-4247-bdad-cc5d5cc2457f","system_id":"levelo_inurba_marseille","lat":43.31328,"lon":5.39692,"is_reserved":false,"is_disabled":false,"rental_uris":{"android":"levelo://app?vid=0631623c-4a9e-4247-bdad-cc5d5cc2457f","ios":"levelo://app?vid=0631623c-4a9e-4247-bdad-cc5d5cc2457f"},"vehicle_type_id":"4","last_reported":1707159946,"current_range_meters":3600,"station_id":"ce4bgvp2rcd13ifvqcu0","pricing_plan_id":"free"},{"bike_id":"6a09dc80-7eb1-4ddd-8d94-06f0801c356c","system_id":"levelo_inurba_marseille","lat":43.313291,"lon":5.396838,"is_reserved":false,"is_disabled":false,"rental_uris":{"android":"levelo://app?vid=6a09dc80-7eb1-4ddd-8d94-06f0801c356c","ios":"levelo://app?vid=6a09dc80-7eb1-4ddd-8d94-06f0801c356c"},"vehicle_type_id":"4","last_reported":1707159946,"current_range_meters":0,"station_id":"ce4bgvp2rcd13ifvqcu0","pricing_plan_id":"free"},{"bike_id":"7189e1db-2648-4106-8cc0-ca80993b8e39","system_id":"levelo_inurba_marseille","lat":43.313291,"lon":5.396838,"is_reserved":false,"is_disabled":false,"rental_uris":{"android":"levelo://app?vid=7189e1db-2648-4106-8cc0-ca80993b8e39","ios":"levelo://app?vid=7189e1db-2648-4106-8cc0-ca80993b8e39"},"vehicle_type_id":"4","last_reported":1707159946,"current_range_meters":12800,"station_id":"ce4bgvp2rcd13ifvqcu0","pricing_plan_id":"free"},{"bike_id":"bd0334eb-789b-4ae2-b843-6a42e0c0f9a4","system_id":"levelo_inurba_marseille","lat":43.313291,"lon":5.396838,"is_reserved":false,"is_disabled":false,"rental_uris":{"android":"levelo://app?vid=bd0334eb-789b-4ae2-b843-6a42e0c0f9a4","ios":"levelo://app?vid=bd0334eb-789b-4ae2-b843-6a42e0c0f9a4"},"vehicle_type_id":"4","last_reported":1707159946,"current_range_meters":26000,"station_id":"ce4bgvp2rcd13ifvqcu0","pricing_plan_id":"free"},{"bike_id":"872b40f9-b54c-4cdf-804b-d6cb08da806d","system_id":"levelo_inurba_marseille","lat":43.3088,"lon":5.39647,"is_reserved":false,"is_disabled":false,"rental_uris":{"android":"levelo://app?vid=872b40f9-b54c-4cdf-804b-d6cb08da806d","ios":"levelo://app?vid=872b40f9-b54c-4cdf-804b-d6cb08da806d"},"vehicle_type_id":"4","last_reported":1707159946,"current_range_meters":12400,"station_id":"ce4bh012rcd13ifvqcv0","pricing_plan_id":"free"},{"bike_id":"3d78babf-b6b5-494b-8319-25c9c350bed9","system_id":"levelo_inurba_marseille","lat":43.313291,"lon":5.396838,"is_reserved":false,"is_disabled":false,"rental_uris":{"android":"levelo://app?vid=3d78babf-b6b5-494b-8319-25c9c350bed9","ios":"levelo://app?vid=3d78babf-b6b5-494b-8319-25c9c350bed9"},"vehicle_type_id":"4","last_reported":1707159946,"current_range_meters":30000,"station_id":"ce4bgvp2rcd13ifvqcu0","pricing_plan_id":"free"},{"bike_id":"7447e538-93ea-496b-9139-de1f49c84e8d","system_id":"levelo_inurba_marseille","lat":43.313321,"lon":5.396961,"is_reserved":false,"is_disabled":false,"rental_uris":{"android":"levelo://app?vid=7447e538-93ea-496b-9139-de1f49c84e8d","ios":"levelo://app?vid=7447e538-93ea-496b-9139-de1f49c84e8d"},"vehicle_type_id":"4","last_reported":1707159946,"current_range_meters":30400,"station_id":"ce4bgvp2rcd13ifvqcu0","pricing_plan_id":"free"},{"bike_id":"aff7b945-31be-4f2c-bc30-c744e348bb62","system_id":"levelo_inurba_marseille","lat":43.313291,"lon":5.396838,"is_reserved":false,"is_disabled":false,"rental_uris":{"android":"levelo://app?vid=aff7b945-31be-4f2c-bc30-c744e348bb62","ios":"levelo://app?vid=aff7b945-31be-4f2c-bc30-c744e348bb62"},"vehicle_type_id":"4","last_reported":1707159946,"current_range_meters":15600,"station_id":"ce4bgvp2rcd13ifvqcu0","pricing_plan_id":"free"},{"bike_id":"e3ce010b-9cae-4639-95a5-e8ba0c545a2e","system_id":"levelo_inurba_marseille","lat":43.31323,"lon":5.39697,"is_reserved":false,"is_disabled":false,"rental_uris":{"android":"levelo://app?vid=e3ce010b-9cae-4639-95a5-e8ba0c545a2e","ios":"levelo://app?vid=e3ce010b-9cae-4639-95a5-e8ba0c545a2e"},"vehicle_type_id":"4","last_reported":1707159946,"current_range_meters":24400,"station_id":"ce4bgvp2rcd13ifvqcu0","pricing_plan_id":"free"},{"bike_id":"028b69b2-5e8e-4463-8efe-bc9cb2f47340","system_id":"levelo_inurba_marseille","lat":43.31332,"lon":5.39697,"is_reserved":false,"is_disabled":false,"rental_uris":{"android":"levelo://app?vid=028b69b2-5e8e-4463-8efe-bc9cb2f47340","ios":"levelo://app?vid=028b69b2-5e8e-4463-8efe-bc9cb2f47340"},"vehicle_type_id":"4","last_reported":1707159946,"current_range_meters":22800,"station_id":"ce4bgvp2rcd13ifvqcu0","pricing_plan_id":"free"},{"bike_id":"3f1adaa1-f082-4b01-b176-05fce19e59a0","system_id":"levelo_inurba_marseille","lat":43.31326,"lon":5.39698,"is_reserved":false,"is_disabled":false,"rental_uris":{"android":"levelo://app?vid=3f1adaa1-f082-4b01-b176-05fce19e59a0","ios":"levelo://app?vid=3f1adaa1-f082-4b01-b176-05fce19e59a0"},"vehicle_type_id":"4","last_reported":1707159946,"current_range_meters":22800,"station_id":"ce4bgvp2rcd13ifvqcu0","pricing_plan_id":"free"},{"bike_id":"b328f825-0c7a-448f-a782-68e8afff1199","system_id":"levelo_inurba_marseille","lat":43.309038,"lon":5.396546,"is_reserved":false,"is_disabled":false,"rental_uris":{"android":"levelo://app?vid=b328f825-0c7a-448f-a782-68e8afff1199","ios":"levelo://app?vid=b328f825-0c7a-448f-a782-68e8afff1199"},"vehicle_type_id":"4","last_reported":1707159946,"current_range_meters":2400,"station_id":"ce4bh012rcd13ifvqcv0","pricing_plan_id":"free"},{"bike_id":"ff0b2937-db5e-461e-b998-b08c472342eb","system_id":"levelo_inurba_marseille","lat":43.31324,"lon":5.397,"is_reserved":false,"is_disabled":false,"rental_uris":{"android":"levelo://app?vid=ff0b2937-db5e-461e-b998-b08c472342eb","ios":"levelo://app?vid=ff0b2937-db5e-461e-b998-b08c472342eb"},"vehicle_type_id":"4","last_reported":1707159946,"current_range_meters":2000,"station_id":"ce4bgvp2rcd13ifvqcu0","pricing_plan_id":"free"},{"bike_id":"fe9a8a76-eac5-40c7-a1d5-daf22af3c9d2","system_id":"levelo_inurba_marseille","lat":43.313291,"lon":5.396838,"is_reserved":false,"is_disabled":false,"rental_uris":{"android":"levelo://app?vid=fe9a8a76-eac5-40c7-a1d5-daf22af3c9d2","ios":"levelo://app?vid=fe9a8a76-eac5-40c7-a1d5-daf22af3c9d2"},"vehicle_type_id":"4","last_reported":1707159946,"current_range_meters":400,"station_id":"ce4bgvp2rcd13ifvqcu0","pricing_plan_id":"free"},{"bike_id":"deb61c83-2d1f-4444-8a36-ed7719eecaac","system_id":"levelo_inurba_marseille","lat":43.309038,"lon":5.396546,"is_reserved":false,"is_disabled":false,"rental_uris":{"android":"levelo://app?vid=deb61c83-2d1f-4444-8a36-ed7719eecaac","ios":"levelo://app?vid=deb61c83-2d1f-4444-8a36-ed7719eecaac"},"vehicle_type_id":"4","last_reported":1707159946,"current_range_meters":14000,"station_id":"ce4bh012rcd13ifvqcv0","pricing_plan_id":"free"},{"bike_id":"e7d5cabd-3b47-4ab6-bc0d-7323c49e63ad","system_id":"levelo_inurba_marseille","lat":43.30887,"lon":5.39661,"is_reserved":false,"is_disabled":false,"rental_uris":{"android":"levelo://app?vid=e7d5cabd-3b47-4ab6-bc0d-7323c49e63ad","ios":"levelo://app?vid=e7d5cabd-3b47-4ab6-bc0d-7323c49e63ad"},"vehicle_type_id":"4","last_reported":1707159946,"current_range_meters":0,"station_id":"ce4bh012rcd13ifvqcv0","pricing_plan_id":"free"},{"bike_id":"67441f39-3d8d-4d26-9365-bf6c939ca16e","system_id":"levelo_inurba_marseille","lat":43.309038,"lon":5.396546,"is_reserved":false,"is_disabled":false,"rental_uris":{"android":"levelo://app?vid=67441f39-3d8d-4d26-9365-bf6c939ca16e","ios":"levelo://app?vid=67441f39-3d8d-4d26-9365-bf6c939ca16e"},"vehicle_type_id":"4","last_reported":1707159946,"current_range_meters":3600,"station_id":"ce4bh012rcd13ifvqcv0","pricing_plan_id":"free"},{"bike_id":"cb48cac4-f5cb-4f97-b74d-e6992b401f82","system_id":"levelo_inurba_marseille","lat":43.29529,"lon":5.385581,"is_reserved":false,"is_disabled":false,"rental_uris":{"android":"levelo://app?vid=cb48cac4-f5cb-4f97-b74d-e6992b401f82","ios":"levelo://app?vid=cb48cac4-f5cb-4f97-b74d-e6992b401f82"},"vehicle_type_id":"4","last_reported":1707159946,"current_range_meters":8400,"station_id":"ce4bgih2rcd13ifvqba0","pricing_plan_id":"free"},{"bike_id":"cf3cd4b3-c8c1-4998-9157-59a96d0b7a6f","system_id":"levelo_inurba_marseille","lat":43.295363,"lon":5.385455,"is_reserved":false,"is_disabled":false,"rental_uris":{"android":"levelo://app?vid=cf3cd4b3-c8c1-4998-9157-59a96d0b7a6f","ios":"levelo://app?vid=cf3cd4b3-c8c1-4998-9157-59a96d0b7a6f"},"vehicle_type_id":"4","last_reported":1707159946,"current_range_meters":14800,"station_id":"ce4bgih2rcd13ifvqba0","pricing_plan_id":"free"},{"bike_id":"4419a724-5255-4916-9ab6-08c2c5ae2fc3","system_id":"levelo_inurba_marseille","lat":43.316372,"lon":5.396774,"is_reserved":false,"is_disabled":false,"rental_uris":{"android":"levelo://app?vid=4419a724-5255-4916-9ab6-08c2c5ae2fc3","ios":"levelo://app?vid=4419a724-5255-4916-9ab6-08c2c5ae2fc3"},"vehicle_type_id":"4","last_reported":1707159946,"current_range_meters":23200,"station_id":"","pricing_plan_id":"free"},{"bike_id":"61acfb27-ee0b-4ff6-a363-e1d7a7274d0d","system_id":"levelo_inurba_marseille","lat":43.29531,"lon":5.38543,"is_reserved":false,"is_disabled":false,"rental_uris":{"android":"levelo://app?vid=61acfb27-ee0b-4ff6-a363-e1d7a7274d0d","ios":"levelo://app?vid=61acfb27-ee0b-4ff6-a363-e1d7a7274d0d"},"vehicle_type_id":"4","last_reported":1707159946,"current_range_meters":4000,"station_id":"ce4bgih2rcd13ifvqba0","pricing_plan_id":"free"},{"bike_id":"a940b6b7-7049-4df5-a804-f66604315b90","system_id":"levelo_inurba_marseille","lat":43.29529,"lon":5.385581,"is_reserved":false,"is_disabled":false,"rental_uris":{"android":"levelo://app?vid=a940b6b7-7049-4df5-a804-f66604315b90","ios":"levelo://app?vid=a940b6b7-7049-4df5-a804-f66604315b90"},"vehicle_type_id":"4","last_reported":1707159946,"current_range_meters":6400,"station_id":"ce4bgih2rcd13ifvqba0","pricing_plan_id":"free"},{"bike_id":"91bc1a81-6e87-4f36-84c1-d3bcebdd1171","system_id":"levelo_inurba_marseille","lat":43.2953,"lon":5.38546,"is_reserved":false,"is_disabled":false,"rental_uris":{"android":"levelo://app?vid=91bc1a81-6e87-4f36-84c1-d3bcebdd1171","ios":"levelo://app?vid=91bc1a81-6e87-4f36-84c1-d3bcebdd1171"},"vehicle_type_id":"4","last_reported":1707159946,"current_range_meters":21600,"station_id":"ce4bgih2rcd13ifvqba0","pricing_plan_id":"free"},{"bike_id":"c843e4c6-ac40-491a-adf4-0be8a764b8f5","system_id":"levelo_inurba_marseille","lat":43.29529,"lon":5.385581,"is_reserved":false,"is_disabled":false,"rental_uris":{"android":"levelo://app?vid=c843e4c6-ac40-491a-adf4-0be8a764b8f5","ios":"levelo://app?vid=c843e4c6-ac40-491a-adf4-0be8a764b8f5"},"vehicle_type_id":"4","last_reported":1707159946,"current_range_meters":8800,"station_id":"ce4bgih2rcd13ifvqba0","pricing_plan_id":"free"},{"bike_id":"13aec2ce-5826-42c6-97ff-787fd26d376b","system_id":"levelo_inurba_marseille","lat":43.29526,"lon":5.38547,"is_reserved":false,"is_disabled":false,"rental_uris":{"android":"levelo://app?vid=13aec2ce-5826-42c6-97ff-787fd26d376b","ios":"levelo://app?vid=13aec2ce-5826-42c6-97ff-787fd26d376b"},"vehicle_type_id":"4","last_reported":1707159946,"current_range_meters":15200,"station_id":"ce4bgih2rcd13ifvqba0","pricing_plan_id":"free"},{"bike_id":"b41dca81-6f50-4422-91ac-e33b4050d186","system_id":"levelo_inurba_marseille","lat":43.290779,"lon":5.371482,"is_reserved":false,"is_disabled":false,"rental_uris":{"android":"levelo://app?vid=b41dca81-6f50-4422-91ac-e33b4050d186","ios":"levelo://app?vid=b41dca81-6f50-4422-91ac-e33b4050d186"},"vehicle_type_id":"4","last_reported":1707159946,"current_range_meters":4400,"station_id":"ce4bh5p2rcd13ifvqe4g","pricing_plan_id":"free"},{"bike_id":"1cd1464d-4c56-4073-95b6-7f334c717cc5","system_id":"levelo_inurba_marseille","lat":43.290779,"lon":5.371482,"is_reserved":false,"is_disabled":false,"rental_uris":{"android":"levelo://app?vid=1cd1464d-4c56-4073-95b6-7f334c717cc5","ios":"levelo://app?vid=1cd1464d-4c56-4073-95b6-7f334c717cc5"},"vehicle_type_id":"4","last_reported":1707159946,"current_range_meters":1200,"station_id":"ce4bh5p2rcd13ifvqe4g","pricing_plan_id":"free"},{"bike_id":"b82387a1-876e-440c-9766-2924197cf1db","system_id":"levelo_inurba_marseille","lat":43.290779,"lon":5.371482,"is_reserved":false,"is_disabled":false,"rental_uris":{"android":"levelo://app?vid=b82387a1-876e-440c-9766-2924197cf1db","ios":"levelo://app?vid=b82387a1-876e-440c-9766-2924197cf1db"},"vehicle_type_id":"4","last_reported":1707159946,"current_range_meters":20800,"station_id":"ce4bh5p2rcd13ifvqe4g","pricing_plan_id":"free"},{"bike_id":"8f395e23-de65-48e0-a630-04b09fe336c6","system_id":"levelo_inurba_marseille","lat":43.29062,"lon":5.37163,"is_reserved":false,"is_disabled":false,"rental_uris":{"android":"levelo://app?vid=8f395e23-de65-48e0-a630-04b09fe336c6","ios":"levelo://app?vid=8f395e23-de65-48e0-a630-04b09fe336c6"},"vehicle_type_id":"4","last_reported":1707159946,"current_range_meters":0,"station_id":"ce4bh5p2rcd13ifvqe4g","pricing_plan_id":"free"},{"bike_id":"d26c4a1d-d44e-44de-8b2b-3981484aa0e0","system_id":"levelo_inurba_marseille","lat":43.289802,"lon":5.366363,"is_reserved":false,"is_disabled":false,"rental_uris":{"android":"levelo://app?vid=d26c4a1d-d44e-44de-8b2b-3981484aa0e0","ios":"levelo://app?vid=d26c4a1d-d44e-44de-8b2b-3981484aa0e0"},"vehicle_type_id":"4","last_reported":1707159946,"current_range_meters":11200,"station_id":"","pricing_plan_id":"free"},{"bike_id":"c43c66c8-47ae-4a02-96c5-4d507d6a780d","system_id":"levelo_inurba_marseille","lat":43.290631,"lon":5.359244,"is_reserved":false,"is_disabled":false,"rental_uris":{"android":"levelo://app?vid=c43c66c8-47ae-4a02-96c5-4d507d6a780d","ios":"levelo://app?vid=c43c66c8-47ae-4a02-96c5-4d507d6a780d"},"vehicle_type_id":"4","last_reported":1707159946,"current_range_meters":16400,"station_id":"ce4bha92rcd13ifvqeg0","pricing_plan_id":"free"},{"bike_id":"fe0ab55b-c3fb-4777-aca1-816563b6c07c","system_id":"levelo_inurba_marseille","lat":43.294153,"lon":5.386305,"is_reserved":false,"is_disabled":false,"rental_uris":{"android":"levelo://app?vid=fe0ab55b-c3fb-4777-aca1-816563b6c07c","ios":"levelo://app?vid=fe0ab55b-c3fb-4777-aca1-816563b6c07c"},"vehicle_type_id":"4","last_reported":1707159946,"current_range_meters":4000,"station_id":"ce4bh2h2rcd13ifvqdh0","pricing_plan_id":"free"},{"bike_id":"a2b14f9f-8957-47c4-8212-38dc5a57e3cb","system_id":"levelo_inurba_marseille","lat":43.294153,"lon":5.386305,"is_reserved":false,"is_disabled":false,"rental_uris":{"android":"levelo://app?vid=a2b14f9f-8957-47c4-8212-38dc5a57e3cb","ios":"levelo://app?vid=a2b14f9f-8957-47c4-8212-38dc5a57e3cb"},"vehicle_type_id":"4","last_reported":1707159946,"current_range_meters":0,"station_id":"ce4bh2h2rcd13ifvqdh0","pricing_plan_id":"free"},{"bike_id":"d1e6dff6-6867-4073-bf5b-43edde62bb19","system_id":"levelo_inurba_marseille","lat":43.290327,"lon":5.375711,"is_reserved":false,"is_disabled":false,"rental_uris":{"android":"levelo://app?vid=d1e6dff6-6867-4073-bf5b-43edde62bb19","ios":"levelo://app?vid=d1e6dff6-6867-4073-bf5b-43edde62bb19"},"vehicle_type_id":"4","last_reported":1707159946,"current_range_meters":4400,"station_id":"ce4bh692rcd13ifvqe90","pricing_plan_id":"free"},{"bike_id":"01f890f7-dfef-4aa9-9703-07e77d28e7f2","system_id":"levelo_inurba_marseille","lat":43.28941,"lon":5.36638,"is_reserved":false,"is_disabled":false,"rental_uris":{"android":"levelo://app?vid=01f890f7-dfef-4aa9-9703-07e77d28e7f2","ios":"levelo://app?vid=01f890f7-dfef-4aa9-9703-07e77d28e7f2"},"vehicle_type_id":"4","last_reported":1707159946,"current_range_meters":7600,"station_id":"ce4bhap2rcd13ifvqek0","pricing_plan_id":"free"},{"bike_id":"bda46709-d167-413b-b592-a6c1898a91a9","system_id":"levelo_inurba_marseille","lat":43.289468,"lon":5.363719,"is_reserved":false,"is_disabled":false,"rental_uris":{"android":"levelo://app?vid=bda46709-d167-413b-b592-a6c1898a91a9","ios":"levelo://app?vid=bda46709-d167-413b-b592-a6c1898a91a9"},"vehicle_type_id":"4","last_reported":1707159946,"current_range_meters":15600,"station_id":"ce4bhc92rcd13ifvqetg","pricing_plan_id":"free"},{"bike_id":"098e672d-bd96-48ff-9fb9-68bcaab14ce8","system_id":"levelo_inurba_marseille","lat":43.2894,"lon":5.36635,"is_reserved":false,"is_disabled":false,"rental_uris":{"android":"levelo://app?vid=098e672d-bd96-48ff-9fb9-68bcaab14ce8","ios":"levelo://app?vid=098e672d-bd96-48ff-9fb9-68bcaab14ce8"},"vehicle_type_id":"4","last_reported":1707159946,"current_range_meters":23600,"station_id":"ce4bhap2rcd13ifvqek0","pricing_plan_id":"free"},{"bike_id":"f6c578ed-223e-4129-865b-8ec51ba3e147","system_id":"levelo_inurba_marseille","lat":43.289184,"lon":5.366408,"is_reserved":false,"is_disabled":false,"rental_uris":{"android":"levelo://app?vid=f6c578ed-223e-4129-865b-8ec51ba3e147","ios":"levelo://app?vid=f6c578ed-223e-4129-865b-8ec51ba3e147"},"vehicle_type_id":"4","last_reported":1707159946,"current_range_meters":25600,"station_id":"ce4bhap2rcd13ifvqek0","pricing_plan_id":"free"},{"bike_id":"214c6f0a-8b71-4327-89b8-5e0d94d9557e","system_id":"levelo_inurba_marseille","lat":43.289468,"lon":5.363719,"is_reserved":false,"is_disabled":false,"rental_uris":{"android":"levelo://app?vid=214c6f0a-8b71-4327-89b8-5e0d94d9557e","ios":"levelo://app?vid=214c6f0a-8b71-4327-89b8-5e0d94d9557e"},"vehicle_type_id":"4","last_reported":1707159946,"current_range_meters":5200,"station_id":"ce4bhc92rcd13ifvqetg","pricing_plan_id":"free"},{"bike_id":"ce65aef7-93d0-4da8-b418-27362a311721","system_id":"levelo_inurba_marseille","lat":43.289184,"lon":5.366408,"is_reserved":false,"is_disabled":false,"rental_uris":{"android":"levelo://app?vid=ce65aef7-93d0-4da8-b418-27362a311721","ios":"levelo://app?vid=ce65aef7-93d0-4da8-b418-27362a311721"},"vehicle_type_id":"4","last_reported":1707159946,"current_range_meters":18000,"station_id":"ce4bhap2rcd13ifvqek0","pricing_plan_id":"free"},{"bike_id":"3b993a6d-7806-431d-9b08-e3255c84d524","system_id":"levelo_inurba_marseille","lat":43.28935,"lon":5.36636,"is_reserved":false,"is_disabled":false,"rental_uris":{"android":"levelo://app?vid=3b993a6d-7806-431d-9b08-e3255c84d524","ios":"levelo://app?vid=3b993a6d-7806-431d-9b08-e3255c84d524"},"vehicle_type_id":"4","last_reported":1707159946,"current_range_meters":7200,"station_id":"ce4bhap2rcd13ifvqek0","pricing_plan_id":"free"},{"bike_id":"e7526146-f6f8-453f-9b70-a19ba75ece95","system_id":"levelo_inurba_marseille","lat":43.289332,"lon":5.366356,"is_reserved":false,"is_disabled":false,"rental_uris":{"android":"levelo://app?vid=e7526146-f6f8-453f-9b70-a19ba75ece95","ios":"levelo://app?vid=e7526146-f6f8-453f-9b70-a19ba75ece95"},"vehicle_type_id":"4","last_reported":1707159946,"current_range_meters":18400,"station_id":"ce4bhap2rcd13ifvqek0","pricing_plan_id":"free"},{"bike_id":"8249ce6c-6c4d-4143-a530-e120180786e5","system_id":"levelo_inurba_marseille","lat":43.28933,"lon":5.36641,"is_reserved":false,"is_disabled":false,"rental_uris":{"android":"levelo://app?vid=8249ce6c-6c4d-4143-a530-e120180786e5","ios":"levelo://app?vid=8249ce6c-6c4d-4143-a530-e120180786e5"},"vehicle_type_id":"4","last_reported":1707159946,"current_range_meters":0,"station_id":"ce4bhap2rcd13ifvqek0","pricing_plan_id":"free"},{"bike_id":"30e63aee-ebd5-4086-b7ae-6180eb491738","system_id":"levelo_inurba_marseille","lat":43.28925,"lon":5.36655,"is_reserved":false,"is_disabled":false,"rental_uris":{"android":"levelo://app?vid=30e63aee-ebd5-4086-b7ae-6180eb491738","ios":"levelo://app?vid=30e63aee-ebd5-4086-b7ae-6180eb491738"},"vehicle_type_id":"4","last_reported":1707159946,"current_range_meters":13200,"station_id":"ce4bhap2rcd13ifvqek0","pricing_plan_id":"free"},{"bike_id":"c343f3fe-ab42-49e3-8f91-565e26a752f5","system_id":"levelo_inurba_marseille","lat":43.289468,"lon":5.363719,"is_reserved":false,"is_disabled":false,"rental_uris":{"android":"levelo://app?vid=c343f3fe-ab42-49e3-8f91-565e26a752f5","ios":"levelo://app?vid=c343f3fe-ab42-49e3-8f91-565e26a752f5"},"vehicle_type_id":"4","last_reported":1707159946,"current_range_meters":6000,"station_id":"ce4bhc92rcd13ifvqetg","pricing_plan_id":"free"},{"bike_id":"f4a70ade-789b-4422-8de5-b8540d89a4ee","system_id":"levelo_inurba_marseille","lat":43.29274,"lon":5.38448,"is_reserved":false,"is_disabled":false,"rental_uris":{"android":"levelo://app?vid=f4a70ade-789b-4422-8de5-b8540d89a4ee","ios":"levelo://app?vid=f4a70ade-789b-4422-8de5-b8540d89a4ee"},"vehicle_type_id":"4","last_reported":1707159946,"current_range_meters":0,"station_id":"ce4bh692rcd13ifvqea0","pricing_plan_id":"free"},{"bike_id":"1ab4c7dd-fe68-4704-a4be-a304fd0fb638","system_id":"levelo_inurba_marseille","lat":43.305994,"lon":5.393687,"is_reserved":false,"is_disabled":false,"rental_uris":{"android":"levelo://app?vid=1ab4c7dd-fe68-4704-a4be-a304fd0fb638","ios":"levelo://app?vid=1ab4c7dd-fe68-4704-a4be-a304fd0fb638"},"vehicle_type_id":"4","last_reported":1707159946,"current_range_meters":7200,"station_id":"ce4bh0p2rcd13ifvqd80","pricing_plan_id":"free"},{"bike_id":"9a1396d3-f15e-4d9c-8777-3d547852731f","system_id":"levelo_inurba_marseille","lat":43.304274,"lon":5.397513,"is_reserved":false,"is_disabled":false,"rental_uris":{"android":"levelo://app?vid=9a1396d3-f15e-4d9c-8777-3d547852731f","ios":"levelo://app?vid=9a1396d3-f15e-4d9c-8777-3d547852731f"},"vehicle_type_id":"4","last_reported":1707159946,"current_range_meters":8800,"station_id":"ce4bh092rcd13ifvqd20","pricing_plan_id":"free"},{"bike_id":"a4318c52-55bc-4fcb-b095-f8d25558589d","system_id":"levelo_inurba_marseille","lat":43.292644,"lon":5.384257,"is_reserved":false,"is_disabled":false,"rental_uris":{"android":"levelo://app?vid=a4318c52-55bc-4fcb-b095-f8d25558589d","ios":"levelo://app?vid=a4318c52-55bc-4fcb-b095-f8d25558589d"},"vehicle_type_id":"4","last_reported":1707159946,"current_range_meters":20400,"station_id":"ce4bh692rcd13ifvqea0","pricing_plan_id":"free"},{"bike_id":"b1d74d4d-8eb8-45b5-ba2a-4a2106005ede","system_id":"levelo_inurba_marseille","lat":43.292642,"lon":5.384254,"is_reserved":false,"is_disabled":false,"rental_uris":{"android":"levelo://app?vid=b1d74d4d-8eb8-45b5-ba2a-4a2106005ede","ios":"levelo://app?vid=b1d74d4d-8eb8-45b5-ba2a-4a2106005ede"},"vehicle_type_id":"4","last_reported":1707159946,"current_range_meters":19600,"station_id":"ce4bh692rcd13ifvqea0","pricing_plan_id":"free"},{"bike_id":"9e91044d-c406-4dcf-b6a0-26a8255c30d6","system_id":"levelo_inurba_marseille","lat":43.29272,"lon":5.38456,"is_reserved":false,"is_disabled":false,"rental_uris":{"android":"levelo://app?vid=9e91044d-c406-4dcf-b6a0-26a8255c30d6","ios":"levelo://app?vid=9e91044d-c406-4dcf-b6a0-26a8255c30d6"},"vehicle_type_id":"4","last_reported":1707159946,"current_range_meters":0,"station_id":"ce4bh692rcd13ifvqea0","pricing_plan_id":"free"},{"bike_id":"21806b52-ebd6-4a03-89b5-19b92f22e0e7","system_id":"levelo_inurba_marseille","lat":43.304296,"lon":5.397513,"is_reserved":false,"is_disabled":false,"rental_uris":{"android":"levelo://app?vid=21806b52-ebd6-4a03-89b5-19b92f22e0e7","ios":"levelo://app?vid=21806b52-ebd6-4a03-89b5-19b92f22e0e7"},"vehicle_type_id":"4","last_reported":1707159946,"current_range_meters":5600,"station_id":"ce4bh092rcd13ifvqd20","pricing_plan_id":"free"},{"bike_id":"c71b4d2a-3789-4a64-b141-9ccd4fc69540","system_id":"levelo_inurba_marseille","lat":43.292642,"lon":5.384254,"is_reserved":false,"is_disabled":false,"rental_uris":{"android":"levelo://app?vid=c71b4d2a-3789-4a64-b141-9ccd4fc69540","ios":"levelo://app?vid=c71b4d2a-3789-4a64-b141-9ccd4fc69540"},"vehicle_type_id":"4","last_reported":1707159946,"current_range_meters":0,"station_id":"ce4bh692rcd13ifvqea0","pricing_plan_id":"free"},{"bike_id":"a811f7a7-fc15-448a-b504-d6fb01769d9f","system_id":"levelo_inurba_marseille","lat":43.292642,"lon":5.384254,"is_reserved":false,"is_disabled":false,"rental_uris":{"android":"levelo://app?vid=a811f7a7-fc15-448a-b504-d6fb01769d9f","ios":"levelo://app?vid=a811f7a7-fc15-448a-b504-d6fb01769d9f"},"vehicle_type_id":"4","last_reported":1707159946,"current_range_meters":0,"station_id":"ce4bh692rcd13ifvqea0","pricing_plan_id":"free"},{"bike_id":"9e624efc-bc52-4977-a908-9967832a9b92","system_id":"levelo_inurba_marseille","lat":43.304296,"lon":5.397513,"is_reserved":false,"is_disabled":false,"rental_uris":{"android":"levelo://app?vid=9e624efc-bc52-4977-a908-9967832a9b92","ios":"levelo://app?vid=9e624efc-bc52-4977-a908-9967832a9b92"},"vehicle_type_id":"4","last_reported":1707159946,"current_range_meters":3600,"station_id":"ce4bh092rcd13ifvqd20","pricing_plan_id":"free"},{"bike_id":"7c71a72e-6360-44b4-ae76-c8873a0b5f60","system_id":"levelo_inurba_marseille","lat":43.304296,"lon":5.397513,"is_reserved":false,"is_disabled":false,"rental_uris":{"android":"levelo://app?vid=7c71a72e-6360-44b4-ae76-c8873a0b5f60","ios":"levelo://app?vid=7c71a72e-6360-44b4-ae76-c8873a0b5f60"},"vehicle_type_id":"4","last_reported":1707159946,"current_range_meters":12400,"station_id":"ce4bh092rcd13ifvqd20","pricing_plan_id":"free"},{"bike_id":"4184b14e-8b3e-406d-a783-b476af9c7d3b","system_id":"levelo_inurba_marseille","lat":43.29013,"lon":5.35614,"is_reserved":false,"is_disabled":false,"rental_uris":{"android":"levelo://app?vid=4184b14e-8b3e-406d-a783-b476af9c7d3b","ios":"levelo://app?vid=4184b14e-8b3e-406d-a783-b476af9c7d3b"},"vehicle_type_id":"4","last_reported":1707159946,"current_range_meters":0,"station_id":"ce4bhb92rcd13ifvqen0","pricing_plan_id":"free"},{"bike_id":"50fd6cc6-14e9-4a65-828a-efbf999b0fb1","system_id":"levelo_inurba_marseille","lat":43.290103,"lon":5.356114,"is_reserved":false,"is_disabled":false,"rental_uris":{"android":"levelo://app?vid=50fd6cc6-14e9-4a65-828a-efbf999b0fb1","ios":"levelo://app?vid=50fd6cc6-14e9-4a65-828a-efbf999b0fb1"},"vehicle_type_id":"4","last_reported":1707159946,"current_range_meters":0,"station_id":"ce4bhb92rcd13ifvqen0","pricing_plan_id":"free"},{"bike_id":"00cdf3b1-dfaf-4d0e-bcde-a398091f5f28","system_id":"levelo_inurba_marseille","lat":43.290995,"lon":5.381361,"is_reserved":false,"is_disabled":false,"rental_uris":{"android":"levelo://app?vid=00cdf3b1-dfaf-4d0e-bcde-a398091f5f28","ios":"levelo://app?vid=00cdf3b1-dfaf-4d0e-bcde-a398091f5f28"},"vehicle_type_id":"4","last_reported":1707159946,"current_range_meters":12800,"station_id":"ce4bh512rcd13ifvqe2g","pricing_plan_id":"free"},{"bike_id":"0b6308e7-7961-4830-8f84-09475130c71f","system_id":"levelo_inurba_marseille","lat":43.302457,"lon":5.397095,"is_reserved":false,"is_disabled":false,"rental_uris":{"android":"levelo://app?vid=0b6308e7-7961-4830-8f84-09475130c71f","ios":"levelo://app?vid=0b6308e7-7961-4830-8f84-09475130c71f"},"vehicle_type_id":"4","last_reported":1707159946,"current_range_meters":0,"station_id":"","pricing_plan_id":"free"},{"bike_id":"3fe6d1f0-cf87-410d-bcbb-b9715ccec449","system_id":"levelo_inurba_marseille","lat":43.297815,"lon":5.393548,"is_reserved":false,"is_disabled":false,"rental_uris":{"android":"levelo://app?vid=3fe6d1f0-cf87-410d-bcbb-b9715ccec449","ios":"levelo://app?vid=3fe6d1f0-cf87-410d-bcbb-b9715ccec449"},"vehicle_type_id":"4","last_reported":1707159946,"current_range_meters":23200,"station_id":"chh1huq6cuj3fo74tm60","pricing_plan_id":"free"},{"bike_id":"d87a43d2-eb7a-423c-9add-572b788dd305","system_id":"levelo_inurba_marseille","lat":43.297948,"lon":5.393428,"is_reserved":false,"is_disabled":false,"rental_uris":{"android":"levelo://app?vid=d87a43d2-eb7a-423c-9add-572b788dd305","ios":"levelo://app?vid=d87a43d2-eb7a-423c-9add-572b788dd305"},"vehicle_type_id":"4","last_reported":1707159946,"current_range_meters":8400,"station_id":"chh1huq6cuj3fo74tm60","pricing_plan_id":"free"},{"bike_id":"2301108f-7063-42ed-ad6a-4a93641ba6c9","system_id":"levelo_inurba_marseille","lat":43.297847,"lon":5.393357,"is_reserved":false,"is_disabled":false,"rental_uris":{"android":"levelo://app?vid=2301108f-7063-42ed-ad6a-4a93641ba6c9","ios":"levelo://app?vid=2301108f-7063-42ed-ad6a-4a93641ba6c9"},"vehicle_type_id":"4","last_reported":1707159946,"current_range_meters":2800,"station_id":"chh1huq6cuj3fo74tm60","pricing_plan_id":"free"},{"bike_id":"94bb7d01-01a2-4190-8e02-6cf5c5556a05","system_id":"levelo_inurba_marseille","lat":43.297815,"lon":5.393548,"is_reserved":false,"is_disabled":false,"rental_uris":{"android":"levelo://app?vid=94bb7d01-01a2-4190-8e02-6cf5c5556a05","ios":"levelo://app?vid=94bb7d01-01a2-4190-8e02-6cf5c5556a05"},"vehicle_type_id":"4","last_reported":1707159946,"current_range_meters":0,"station_id":"chh1huq6cuj3fo74tm60","pricing_plan_id":"free"},{"bike_id":"b7a7d7af-765d-4977-bfad-5a7575380362","system_id":"levelo_inurba_marseille","lat":43.297815,"lon":5.393548,"is_reserved":false,"is_disabled":false,"rental_uris":{"android":"levelo://app?vid=b7a7d7af-765d-4977-bfad-5a7575380362","ios":"levelo://app?vid=b7a7d7af-765d-4977-bfad-5a7575380362"},"vehicle_type_id":"4","last_reported":1707159946,"current_range_meters":6400,"station_id":"chh1huq6cuj3fo74tm60","pricing_plan_id":"free"},{"bike_id":"bd15f08c-0230-4205-91c5-ac6317d7fdf3","system_id":"levelo_inurba_marseille","lat":43.297734,"lon":5.393302,"is_reserved":false,"is_disabled":false,"rental_uris":{"android":"levelo://app?vid=bd15f08c-0230-4205-91c5-ac6317d7fdf3","ios":"levelo://app?vid=bd15f08c-0230-4205-91c5-ac6317d7fdf3"},"vehicle_type_id":"4","last_reported":1707159946,"current_range_meters":6000,"station_id":"chh1huq6cuj3fo74tm60","pricing_plan_id":"free"},{"bike_id":"383fecf4-c283-4ff2-a945-f97c814fb9e5","system_id":"levelo_inurba_marseille","lat":43.297815,"lon":5.393548,"is_reserved":false,"is_disabled":false,"rental_uris":{"android":"levelo://app?vid=383fecf4-c283-4ff2-a945-f97c814fb9e5","ios":"levelo://app?vid=383fecf4-c283-4ff2-a945-f97c814fb9e5"},"vehicle_type_id":"4","last_reported":1707159946,"current_range_meters":8800,"station_id":"chh1huq6cuj3fo74tm60","pricing_plan_id":"free"},{"bike_id":"2e8fe0c5-2f94-45f2-ac43-bd402ea435ef","system_id":"levelo_inurba_marseille","lat":43.289743,"lon":5.378304,"is_reserved":false,"is_disabled":false,"rental_uris":{"android":"levelo://app?vid=2e8fe0c5-2f94-45f2-ac43-bd402ea435ef","ios":"levelo://app?vid=2e8fe0c5-2f94-45f2-ac43-bd402ea435ef"},"vehicle_type_id":"4","last_reported":1707159946,"current_range_meters":20000,"station_id":"ce4bh9p2rcd13ifvqed0","pricing_plan_id":"free"},{"bike_id":"b5772277-1e5a-490d-974c-370957e07eed","system_id":"levelo_inurba_marseille","lat":43.33021,"lon":5.39037,"is_reserved":false,"is_disabled":false,"rental_uris":{"android":"levelo://app?vid=b5772277-1e5a-490d-974c-370957e07eed","ios":"levelo://app?vid=b5772277-1e5a-490d-974c-370957e07eed"},"vehicle_type_id":"4","last_reported":1707159946,"current_range_meters":6000,"station_id":"ce4bhr92rcd13ifvqhrg","pricing_plan_id":"free"},{"bike_id":"e3ee51ff-e8ff-4de4-ae2b-9f272e05c117","system_id":"levelo_inurba_marseille","lat":43.29771,"lon":5.39337,"is_reserved":false,"is_disabled":false,"rental_uris":{"android":"levelo://app?vid=e3ee51ff-e8ff-4de4-ae2b-9f272e05c117","ios":"levelo://app?vid=e3ee51ff-e8ff-4de4-ae2b-9f272e05c117"},"vehicle_type_id":"4","last_reported":1707159946,"current_range_meters":9600,"station_id":"chh1huq6cuj3fo74tm60","pricing_plan_id":"free"},{"bike_id":"da94541e-4294-4aae-9595-5b95e48e0f0a","system_id":"levelo_inurba_marseille","lat":43.289743,"lon":5.378304,"is_reserved":false,"is_disabled":false,"rental_uris":{"android":"levelo://app?vid=da94541e-4294-4aae-9595-5b95e48e0f0a","ios":"levelo://app?vid=da94541e-4294-4aae-9595-5b95e48e0f0a"},"vehicle_type_id":"4","last_reported":1707159946,"current_range_meters":11200,"station_id":"ce4bh9p2rcd13ifvqed0","pricing_plan_id":"free"},{"bike_id":"d17bffba-c37f-40fa-ab16-34696ce5dced","system_id":"levelo_inurba_marseille","lat":43.295169,"lon":5.390426,"is_reserved":false,"is_disabled":false,"rental_uris":{"android":"levelo://app?vid=d17bffba-c37f-40fa-ab16-34696ce5dced","ios":"levelo://app?vid=d17bffba-c37f-40fa-ab16-34696ce5dced"},"vehicle_type_id":"4","last_reported":1707159946,"current_range_meters":1600,"station_id":"ce4bh3p2rcd13ifvqdp0","pricing_plan_id":"free"},{"bike_id":"baa26e4d-1d69-4d44-9c43-7fa7bc9a94af","system_id":"levelo_inurba_marseille","lat":43.330442,"lon":5.389148,"is_reserved":false,"is_disabled":false,"rental_uris":{"android":"levelo://app?vid=baa26e4d-1d69-4d44-9c43-7fa7bc9a94af","ios":"levelo://app?vid=baa26e4d-1d69-4d44-9c43-7fa7bc9a94af"},"vehicle_type_id":"4","last_reported":1707159946,"current_range_meters":26000,"station_id":"ce4bhr92rcd13ifvqhrg","pricing_plan_id":"free"},{"bike_id":"6c4495e1-3656-43b2-988c-28cca67f27c8","system_id":"levelo_inurba_marseille","lat":43.330442,"lon":5.389148,"is_reserved":false,"is_disabled":false,"rental_uris":{"android":"levelo://app?vid=6c4495e1-3656-43b2-988c-28cca67f27c8","ios":"levelo://app?vid=6c4495e1-3656-43b2-988c-28cca67f27c8"},"vehicle_type_id":"4","last_reported":1707159946,"current_range_meters":3200,"station_id":"ce4bhr92rcd13ifvqhrg","pricing_plan_id":"free"},{"bike_id":"196d5664-91bf-41b2-8028-b91f9d336f7e","system_id":"levelo_inurba_marseille","lat":43.295169,"lon":5.390426,"is_reserved":false,"is_disabled":false,"rental_uris":{"android":"levelo://app?vid=196d5664-91bf-41b2-8028-b91f9d336f7e","ios":"levelo://app?vid=196d5664-91bf-41b2-8028-b91f9d336f7e"},"vehicle_type_id":"4","last_reported":1707159946,"current_range_meters":24800,"station_id":"ce4bh3p2rcd13ifvqdp0","pricing_plan_id":"free"},{"bike_id":"32c118b0-c898-48d6-ae3e-91767397bede","system_id":"levelo_inurba_marseille","lat":43.33027,"lon":5.39047,"is_reserved":false,"is_disabled":false,"rental_uris":{"android":"levelo://app?vid=32c118b0-c898-48d6-ae3e-91767397bede","ios":"levelo://app?vid=32c118b0-c898-48d6-ae3e-91767397bede"},"vehicle_type_id":"4","last_reported":1707159946,"current_range_meters":4000,"station_id":"ce4bhr92rcd13ifvqhrg","pricing_plan_id":"free"},{"bike_id":"929ba7f7-7165-47b4-bc6e-b3eb64d0adba","system_id":"levelo_inurba_marseille","lat":43.289743,"lon":5.378304,"is_reserved":false,"is_disabled":false,"rental_uris":{"android":"levelo://app?vid=929ba7f7-7165-47b4-bc6e-b3eb64d0adba","ios":"levelo://app?vid=929ba7f7-7165-47b4-bc6e-b3eb64d0adba"},"vehicle_type_id":"4","last_reported":1707159946,"current_range_meters":8000,"station_id":"ce4bh9p2rcd13ifvqed0","pricing_plan_id":"free"},{"bike_id":"1adac52c-01a8-4831-aa31-d3274e557f73","system_id":"levelo_inurba_marseille","lat":43.290094,"lon":5.381264,"is_reserved":false,"is_disabled":false,"rental_uris":{"android":"levelo://app?vid=1adac52c-01a8-4831-aa31-d3274e557f73","ios":"levelo://app?vid=1adac52c-01a8-4831-aa31-d3274e557f73"},"vehicle_type_id":"4","last_reported":1707159946,"current_range_meters":5200,"station_id":"ce4bh4p2rcd13ifvqe1g","pricing_plan_id":"free"},{"bike_id":"2ce473c3-9d30-49bd-a4db-d97f4cee8463","system_id":"levelo_inurba_marseille","lat":43.28856,"lon":5.358371,"is_reserved":false,"is_disabled":false,"rental_uris":{"android":"levelo://app?vid=2ce473c3-9d30-49bd-a4db-d97f4cee8463","ios":"levelo://app?vid=2ce473c3-9d30-49bd-a4db-d97f4cee8463"},"vehicle_type_id":"4","last_reported":1707159946,"current_range_meters":6800,"station_id":"ce4bhb12rcd13ifvqem0","pricing_plan_id":"free"},{"bike_id":"7da6d149-9bd0-41f1-8ec9-65434c4f4a62","system_id":"levelo_inurba_marseille","lat":43.28856,"lon":5.358371,"is_reserved":false,"is_disabled":false,"rental_uris":{"android":"levelo://app?vid=7da6d149-9bd0-41f1-8ec9-65434c4f4a62","ios":"levelo://app?vid=7da6d149-9bd0-41f1-8ec9-65434c4f4a62"},"vehicle_type_id":"4","last_reported":1707159946,"current_range_meters":14000,"station_id":"ce4bhb12rcd13ifvqem0","pricing_plan_id":"free"},{"bike_id":"a0030783-d023-46f3-a2d5-8050a5b4ca9d","system_id":"levelo_inurba_marseille","lat":43.288492,"lon":5.358378,"is_reserved":false,"is_disabled":false,"rental_uris":{"android":"levelo://app?vid=a0030783-d023-46f3-a2d5-8050a5b4ca9d","ios":"levelo://app?vid=a0030783-d023-46f3-a2d5-8050a5b4ca9d"},"vehicle_type_id":"4","last_reported":1707159946,"current_range_meters":0,"station_id":"ce4bhb12rcd13ifvqem0","pricing_plan_id":"free"},{"bike_id":"c623ed3b-c03c-4636-8716-7e9b14d1c7e9","system_id":"levelo_inurba_marseille","lat":43.337405,"lon":5.374496,"is_reserved":false,"is_disabled":false,"rental_uris":{"android":"levelo://app?vid=c623ed3b-c03c-4636-8716-7e9b14d1c7e9","ios":"levelo://app?vid=c623ed3b-c03c-4636-8716-7e9b14d1c7e9"},"vehicle_type_id":"4","last_reported":1707159946,"current_range_meters":30800,"station_id":"","pricing_plan_id":"free"},{"bike_id":"0676fb06-fd4c-483b-83c0-0b6d30d1280b","system_id":"levelo_inurba_marseille","lat":43.312609,"lon":5.401662,"is_reserved":false,"is_disabled":false,"rental_uris":{"android":"levelo://app?vid=0676fb06-fd4c-483b-83c0-0b6d30d1280b","ios":"levelo://app?vid=0676fb06-fd4c-483b-83c0-0b6d30d1280b"},"vehicle_type_id":"4","last_reported":1707159946,"current_range_meters":4800,"station_id":"ce4bh092rcd13ifvqd30","pricing_plan_id":"free"},{"bike_id":"0cbb4923-9753-46b2-802c-fc001737c530","system_id":"levelo_inurba_marseille","lat":43.337456,"lon":5.374561,"is_reserved":false,"is_disabled":false,"rental_uris":{"android":"levelo://app?vid=0cbb4923-9753-46b2-802c-fc001737c530","ios":"levelo://app?vid=0cbb4923-9753-46b2-802c-fc001737c530"},"vehicle_type_id":"4","last_reported":1707159946,"current_range_meters":30000,"station_id":"","pricing_plan_id":"free"},{"bike_id":"c88b544a-7d5f-44cd-9e90-26ffcf31651a","system_id":"levelo_inurba_marseille","lat":43.32686,"lon":5.39586,"is_reserved":false,"is_disabled":false,"rental_uris":{"android":"levelo://app?vid=c88b544a-7d5f-44cd-9e90-26ffcf31651a","ios":"levelo://app?vid=c88b544a-7d5f-44cd-9e90-26ffcf31651a"},"vehicle_type_id":"4","last_reported":1707159946,"current_range_meters":8800,"station_id":"","pricing_plan_id":"free"},{"bike_id":"a330071c-2da9-4b64-9bc3-5446b815df8b","system_id":"levelo_inurba_marseille","lat":43.3093,"lon":5.40146,"is_reserved":false,"is_disabled":false,"rental_uris":{"android":"levelo://app?vid=a330071c-2da9-4b64-9bc3-5446b815df8b","ios":"levelo://app?vid=a330071c-2da9-4b64-9bc3-5446b815df8b"},"vehicle_type_id":"4","last_reported":1707159946,"current_range_meters":0,"station_id":"ce4bgvp2rcd13ifvqct0","pricing_plan_id":"free"},{"bike_id":"8ae7335a-745c-47ce-bae3-f7137c433657","system_id":"levelo_inurba_marseille","lat":43.30924,"lon":5.40147,"is_reserved":false,"is_disabled":false,"rental_uris":{"android":"levelo://app?vid=8ae7335a-745c-47ce-bae3-f7137c433657","ios":"levelo://app?vid=8ae7335a-745c-47ce-bae3-f7137c433657"},"vehicle_type_id":"4","last_reported":1707159946,"current_range_meters":4400,"station_id":"ce4bgvp2rcd13ifvqct0","pricing_plan_id":"free"},{"bike_id":"e5cd9ba0-809c-457b-b079-012319951636","system_id":"levelo_inurba_marseille","lat":43.33748,"lon":5.37491,"is_reserved":false,"is_disabled":false,"rental_uris":{"android":"levelo://app?vid=e5cd9ba0-809c-457b-b079-012319951636","ios":"levelo://app?vid=e5cd9ba0-809c-457b-b079-012319951636"},"vehicle_type_id":"4","last_reported":1707159946,"current_range_meters":25200,"station_id":"","pricing_plan_id":"free"},{"bike_id":"eaae03a2-ed37-4ff3-b6c1-696f5dfb9726","system_id":"levelo_inurba_marseille","lat":43.33753,"lon":5.37464,"is_reserved":false,"is_disabled":false,"rental_uris":{"android":"levelo://app?vid=eaae03a2-ed37-4ff3-b6c1-696f5dfb9726","ios":"levelo://app?vid=eaae03a2-ed37-4ff3-b6c1-696f5dfb9726"},"vehicle_type_id":"4","last_reported":1707159946,"current_range_meters":26800,"station_id":"","pricing_plan_id":"free"},{"bike_id":"10074680-019e-4025-a9b6-96cd525dd3bb","system_id":"levelo_inurba_marseille","lat":43.337573,"lon":5.374733,"is_reserved":false,"is_disabled":false,"rental_uris":{"android":"levelo://app?vid=10074680-019e-4025-a9b6-96cd525dd3bb","ios":"levelo://app?vid=10074680-019e-4025-a9b6-96cd525dd3bb"},"vehicle_type_id":"4","last_reported":1707159946,"current_range_meters":7600,"station_id":"","pricing_plan_id":"free"},{"bike_id":"7f4a4146-42fa-45f9-a32f-e12bb5067f57","system_id":"levelo_inurba_marseille","lat":43.301117,"lon":5.398795,"is_reserved":false,"is_disabled":false,"rental_uris":{"android":"levelo://app?vid=7f4a4146-42fa-45f9-a32f-e12bb5067f57","ios":"levelo://app?vid=7f4a4146-42fa-45f9-a32f-e12bb5067f57"},"vehicle_type_id":"4","last_reported":1707159946,"current_range_meters":1200,"station_id":"ce4bh0h2rcd13ifvqd40","pricing_plan_id":"free"},{"bike_id":"213f17dd-374e-4dff-9321-d5dea79456ff","system_id":"levelo_inurba_marseille","lat":43.30642,"lon":5.401031,"is_reserved":false,"is_disabled":false,"rental_uris":{"android":"levelo://app?vid=213f17dd-374e-4dff-9321-d5dea79456ff","ios":"levelo://app?vid=213f17dd-374e-4dff-9321-d5dea79456ff"},"vehicle_type_id":"4","last_reported":1707159946,"current_range_meters":19200,"station_id":"ce4bh112rcd13ifvqda0","pricing_plan_id":"free"},{"bike_id":"b5c8cd35-34dd-45ee-b3e7-3050ef3cbe6a","system_id":"levelo_inurba_marseille","lat":43.337673,"lon":5.374918,"is_reserved":false,"is_disabled":false,"rental_uris":{"android":"levelo://app?vid=b5c8cd35-34dd-45ee-b3e7-3050ef3cbe6a","ios":"levelo://app?vid=b5c8cd35-34dd-45ee-b3e7-3050ef3cbe6a"},"vehicle_type_id":"4","last_reported":1707159946,"current_range_meters":7600,"station_id":"","pricing_plan_id":"free"},{"bike_id":"51d2b538-b175-4d78-a9aa-5457907f7427","system_id":"levelo_inurba_marseille","lat":43.33782,"lon":5.37438,"is_reserved":false,"is_disabled":false,"rental_uris":{"android":"levelo://app?vid=51d2b538-b175-4d78-a9aa-5457907f7427","ios":"levelo://app?vid=51d2b538-b175-4d78-a9aa-5457907f7427"},"vehicle_type_id":"4","last_reported":1707159946,"current_range_meters":12400,"station_id":"","pricing_plan_id":"free"},{"bike_id":"85aaca44-248e-4acb-843e-00764efa56a5","system_id":"levelo_inurba_marseille","lat":43.301117,"lon":5.398795,"is_reserved":false,"is_disabled":false,"rental_uris":{"android":"levelo://app?vid=85aaca44-248e-4acb-843e-00764efa56a5","ios":"levelo://app?vid=85aaca44-248e-4acb-843e-00764efa56a5"},"vehicle_type_id":"4","last_reported":1707159946,"current_range_meters":16400,"station_id":"ce4bh0h2rcd13ifvqd40","pricing_plan_id":"free"},{"bike_id":"2705b7be-4cfd-4bee-bdfe-b1c571324668","system_id":"levelo_inurba_marseille","lat":43.301117,"lon":5.398795,"is_reserved":false,"is_disabled":false,"rental_uris":{"android":"levelo://app?vid=2705b7be-4cfd-4bee-bdfe-b1c571324668","ios":"levelo://app?vid=2705b7be-4cfd-4bee-bdfe-b1c571324668"},"vehicle_type_id":"4","last_reported":1707159946,"current_range_meters":7200,"station_id":"ce4bh0h2rcd13ifvqd40","pricing_plan_id":"free"},{"bike_id":"b2b0fc82-637a-4be0-bf42-9fd27664a1e0","system_id":"levelo_inurba_marseille","lat":43.28727,"lon":5.36078,"is_reserved":false,"is_disabled":false,"rental_uris":{"android":"levelo://app?vid=b2b0fc82-637a-4be0-bf42-9fd27664a1e0","ios":"levelo://app?vid=b2b0fc82-637a-4be0-bf42-9fd27664a1e0"},"vehicle_type_id":"4","last_reported":1707159946,"current_range_meters":12800,"station_id":"cki0cbj6b192h4jlfktg","pricing_plan_id":"free"},{"bike_id":"4a43167f-194f-4e8a-9cfe-9ed02719dfe0","system_id":"levelo_inurba_marseille","lat":43.28727,"lon":5.36078,"is_reserved":false,"is_disabled":false,"rental_uris":{"android":"levelo://app?vid=4a43167f-194f-4e8a-9cfe-9ed02719dfe0","ios":"levelo://app?vid=4a43167f-194f-4e8a-9cfe-9ed02719dfe0"},"vehicle_type_id":"4","last_reported":1707159946,"current_range_meters":2000,"station_id":"cki0cbj6b192h4jlfktg","pricing_plan_id":"free"},{"bike_id":"553b2083-2c26-480f-a8de-9b5ebea81d6f","system_id":"levelo_inurba_marseille","lat":43.286961,"lon":5.373785,"is_reserved":false,"is_disabled":false,"rental_uris":{"android":"levelo://app?vid=553b2083-2c26-480f-a8de-9b5ebea81d6f","ios":"levelo://app?vid=553b2083-2c26-480f-a8de-9b5ebea81d6f"},"vehicle_type_id":"4","last_reported":1707159946,"current_range_meters":20000,"station_id":"ce4bh3p2rcd13ifvqdq0","pricing_plan_id":"free"},{"bike_id":"4cedcf62-5b2b-482e-9d49-1ab31025ea06","system_id":"levelo_inurba_marseille","lat":43.286593,"lon":5.363346,"is_reserved":false,"is_disabled":false,"rental_uris":{"android":"levelo://app?vid=4cedcf62-5b2b-482e-9d49-1ab31025ea06","ios":"levelo://app?vid=4cedcf62-5b2b-482e-9d49-1ab31025ea06"},"vehicle_type_id":"4","last_reported":1707159946,"current_range_meters":21200,"station_id":"ce4bhah2rcd13ifvqej0","pricing_plan_id":"free"},{"bike_id":"744693f8-1177-4c0a-bf61-6cc687353819","system_id":"levelo_inurba_marseille","lat":43.286961,"lon":5.373785,"is_reserved":false,"is_disabled":false,"rental_uris":{"android":"levelo://app?vid=744693f8-1177-4c0a-bf61-6cc687353819","ios":"levelo://app?vid=744693f8-1177-4c0a-bf61-6cc687353819"},"vehicle_type_id":"4","last_reported":1707159946,"current_range_meters":14400,"station_id":"ce4bh3p2rcd13ifvqdq0","pricing_plan_id":"free"},{"bike_id":"5244238b-66bf-467a-bfe5-0b1210cca314","system_id":"levelo_inurba_marseille","lat":43.2987,"lon":5.39728,"is_reserved":false,"is_disabled":false,"rental_uris":{"android":"levelo://app?vid=5244238b-66bf-467a-bfe5-0b1210cca314","ios":"levelo://app?vid=5244238b-66bf-467a-bfe5-0b1210cca314"},"vehicle_type_id":"4","last_reported":1707159946,"current_range_meters":1600,"station_id":"ce4bh0h2rcd13ifvqd50","pricing_plan_id":"free"},{"bike_id":"5c72941a-faac-4bc4-b63a-f3f407cb256a","system_id":"levelo_inurba_marseille","lat":43.286591,"lon":5.363346,"is_reserved":false,"is_disabled":false,"rental_uris":{"android":"levelo://app?vid=5c72941a-faac-4bc4-b63a-f3f407cb256a","ios":"levelo://app?vid=5c72941a-faac-4bc4-b63a-f3f407cb256a"},"vehicle_type_id":"4","last_reported":1707159946,"current_range_meters":23200,"station_id":"ce4bhah2rcd13ifvqej0","pricing_plan_id":"free"},{"bike_id":"15bb5fd2-a440-40e9-be8b-e7512549769f","system_id":"levelo_inurba_marseille","lat":43.286591,"lon":5.363346,"is_reserved":false,"is_disabled":false,"rental_uris":{"android":"levelo://app?vid=15bb5fd2-a440-40e9-be8b-e7512549769f","ios":"levelo://app?vid=15bb5fd2-a440-40e9-be8b-e7512549769f"},"vehicle_type_id":"4","last_reported":1707159946,"current_range_meters":28000,"station_id":"ce4bhah2rcd13ifvqej0","pricing_plan_id":"free"},{"bike_id":"4dd084d1-1129-47f3-8a0f-12618daba61d","system_id":"levelo_inurba_marseille","lat":43.286961,"lon":5.373785,"is_reserved":false,"is_disabled":false,"rental_uris":{"android":"levelo://app?vid=4dd084d1-1129-47f3-8a0f-12618daba61d","ios":"levelo://app?vid=4dd084d1-1129-47f3-8a0f-12618daba61d"},"vehicle_type_id":"4","last_reported":1707159946,"current_range_meters":28400,"station_id":"ce4bh3p2rcd13ifvqdq0","pricing_plan_id":"free"},{"bike_id":"1b8c90d6-dd86-4f61-ae24-1ca4bc7fb459","system_id":"levelo_inurba_marseille","lat":43.29874,"lon":5.39738,"is_reserved":false,"is_disabled":false,"rental_uris":{"android":"levelo://app?vid=1b8c90d6-dd86-4f61-ae24-1ca4bc7fb459","ios":"levelo://app?vid=1b8c90d6-dd86-4f61-ae24-1ca4bc7fb459"},"vehicle_type_id":"4","last_reported":1707159946,"current_range_meters":6000,"station_id":"ce4bh0h2rcd13ifvqd50","pricing_plan_id":"free"},{"bike_id":"0433629c-a2d7-47a8-9b7b-04b78e6974a7","system_id":"levelo_inurba_marseille","lat":43.286961,"lon":5.373785,"is_reserved":false,"is_disabled":false,"rental_uris":{"android":"levelo://app?vid=0433629c-a2d7-47a8-9b7b-04b78e6974a7","ios":"levelo://app?vid=0433629c-a2d7-47a8-9b7b-04b78e6974a7"},"vehicle_type_id":"4","last_reported":1707159946,"current_range_meters":11600,"station_id":"ce4bh3p2rcd13ifvqdq0","pricing_plan_id":"free"},{"bike_id":"3e1247a1-37cc-4a00-8a6d-16f4a5adb3c5","system_id":"levelo_inurba_marseille","lat":43.286593,"lon":5.363346,"is_reserved":false,"is_disabled":false,"rental_uris":{"android":"levelo://app?vid=3e1247a1-37cc-4a00-8a6d-16f4a5adb3c5","ios":"levelo://app?vid=3e1247a1-37cc-4a00-8a6d-16f4a5adb3c5"},"vehicle_type_id":"4","last_reported":1707159946,"current_range_meters":4800,"station_id":"ce4bhah2rcd13ifvqej0","pricing_plan_id":"free"},{"bike_id":"744d42f1-23ea-4751-8e2f-610d8fa654fe","system_id":"levelo_inurba_marseille","lat":43.286593,"lon":5.363346,"is_reserved":false,"is_disabled":false,"rental_uris":{"android":"levelo://app?vid=744d42f1-23ea-4751-8e2f-610d8fa654fe","ios":"levelo://app?vid=744d42f1-23ea-4751-8e2f-610d8fa654fe"},"vehicle_type_id":"4","last_reported":1707159946,"current_range_meters":6000,"station_id":"ce4bhah2rcd13ifvqej0","pricing_plan_id":"free"},{"bike_id":"1578b6bd-5c33-458d-ac7e-e12324daa65d","system_id":"levelo_inurba_marseille","lat":43.286961,"lon":5.373785,"is_reserved":false,"is_disabled":false,"rental_uris":{"android":"levelo://app?vid=1578b6bd-5c33-458d-ac7e-e12324daa65d","ios":"levelo://app?vid=1578b6bd-5c33-458d-ac7e-e12324daa65d"},"vehicle_type_id":"4","last_reported":1707159946,"current_range_meters":5200,"station_id":"ce4bh3p2rcd13ifvqdq0","pricing_plan_id":"free"},{"bike_id":"95ea24a0-62bd-41f7-9ce6-fa51dfd97365","system_id":"levelo_inurba_marseille","lat":43.286961,"lon":5.373785,"is_reserved":false,"is_disabled":false,"rental_uris":{"android":"levelo://app?vid=95ea24a0-62bd-41f7-9ce6-fa51dfd97365","ios":"levelo://app?vid=95ea24a0-62bd-41f7-9ce6-fa51dfd97365"},"vehicle_type_id":"4","last_reported":1707159946,"current_range_meters":0,"station_id":"ce4bh3p2rcd13ifvqdq0","pricing_plan_id":"free"},{"bike_id":"7ac9b060-817c-4499-b295-984cc26e40a3","system_id":"levelo_inurba_marseille","lat":43.286961,"lon":5.373785,"is_reserved":false,"is_disabled":false,"rental_uris":{"android":"levelo://app?vid=7ac9b060-817c-4499-b295-984cc26e40a3","ios":"levelo://app?vid=7ac9b060-817c-4499-b295-984cc26e40a3"},"vehicle_type_id":"4","last_reported":1707159946,"current_range_meters":6000,"station_id":"ce4bh3p2rcd13ifvqdq0","pricing_plan_id":"free"},{"bike_id":"681dafb4-3435-49ac-9509-be12362f5c95","system_id":"levelo_inurba_marseille","lat":43.2952,"lon":5.39402,"is_reserved":false,"is_disabled":false,"rental_uris":{"android":"levelo://app?vid=681dafb4-3435-49ac-9509-be12362f5c95","ios":"levelo://app?vid=681dafb4-3435-49ac-9509-be12362f5c95"},"vehicle_type_id":"4","last_reported":1707159946,"current_range_meters":18800,"station_id":"ce4bh292rcd13ifvqdf0","pricing_plan_id":"free"},{"bike_id":"3de355f6-8486-418c-8a25-fe510197c6b3","system_id":"levelo_inurba_marseille","lat":43.295196,"lon":5.39397,"is_reserved":false,"is_disabled":false,"rental_uris":{"android":"levelo://app?vid=3de355f6-8486-418c-8a25-fe510197c6b3","ios":"levelo://app?vid=3de355f6-8486-418c-8a25-fe510197c6b3"},"vehicle_type_id":"4","last_reported":1707159946,"current_range_meters":5600,"station_id":"ce4bh292rcd13ifvqdf0","pricing_plan_id":"free"},{"bike_id":"1b5b42ad-b0d0-438f-ab37-f041275f586d","system_id":"levelo_inurba_marseille","lat":43.29523,"lon":5.39411,"is_reserved":false,"is_disabled":false,"rental_uris":{"android":"levelo://app?vid=1b5b42ad-b0d0-438f-ab37-f041275f586d","ios":"levelo://app?vid=1b5b42ad-b0d0-438f-ab37-f041275f586d"},"vehicle_type_id":"4","last_reported":1707159946,"current_range_meters":0,"station_id":"ce4bh292rcd13ifvqdf0","pricing_plan_id":"free"},{"bike_id":"75ddcc81-456b-43b8-a71b-30799be98867","system_id":"levelo_inurba_marseille","lat":43.290345,"lon":5.38646,"is_reserved":false,"is_disabled":false,"rental_uris":{"android":"levelo://app?vid=75ddcc81-456b-43b8-a71b-30799be98867","ios":"levelo://app?vid=75ddcc81-456b-43b8-a71b-30799be98867"},"vehicle_type_id":"4","last_reported":1707159946,"current_range_meters":5600,"station_id":"ce4bh4p2rcd13ifvqe0g","pricing_plan_id":"free"},{"bike_id":"dcd9bcff-79ac-47ad-b43c-394bb3473549","system_id":"levelo_inurba_marseille","lat":43.290345,"lon":5.38646,"is_reserved":false,"is_disabled":false,"rental_uris":{"android":"levelo://app?vid=dcd9bcff-79ac-47ad-b43c-394bb3473549","ios":"levelo://app?vid=dcd9bcff-79ac-47ad-b43c-394bb3473549"},"vehicle_type_id":"4","last_reported":1707159946,"current_range_meters":13200,"station_id":"ce4bh4p2rcd13ifvqe0g","pricing_plan_id":"free"},