{"last_updated":1779208966,"ttl":60,"version":"2.2","data":{"bikes":[{"bike_id":"7d641315-6110-49cb-a9dd-d637ff032de1","system_id":"levelo_inurba_marseille","lat":43.337444,"lon":5.374475,"is_reserved":false,"is_disabled":false,"rental_uris":{"android":"levelo://app?vid=7d641315-6110-49cb-a9dd-d637ff032de1","ios":"levelo://app?vid=7d641315-6110-49cb-a9dd-d637ff032de1"},"vehicle_type_id":"4","last_reported":1779208967,"current_range_meters":0,"station_id":"","pricing_plan_id":"cebpf4jnsgd1na2vs0mg"},{"bike_id":"9d163734-bbdd-4f60-92ed-a950c2df8325","system_id":"levelo_inurba_marseille","lat":43.29031,"lon":5.38142,"is_reserved":false,"is_disabled":false,"rental_uris":{"android":"levelo://app?vid=9d163734-bbdd-4f60-92ed-a950c2df8325","ios":"levelo://app?vid=9d163734-bbdd-4f60-92ed-a950c2df8325"},"vehicle_type_id":"4","last_reported":1779208967,"current_range_meters":800,"station_id":"ce4bh4p2rcd13ifvqe1g","pricing_plan_id":"cebpf4jnsgd1na2vs0mg"},{"bike_id":"d3ef7364-0836-4b24-9843-1fcf1783e802","system_id":"levelo_inurba_marseille","lat":43.29908,"lon":5.43663,"is_reserved":false,"is_disabled":false,"rental_uris":{"android":"levelo://app?vid=d3ef7364-0836-4b24-9843-1fcf1783e802","ios":"levelo://app?vid=d3ef7364-0836-4b24-9843-1fcf1783e802"},"vehicle_type_id":"4","last_reported":1779208967,"current_range_meters":800,"station_id":"ce4bhpp2rcd13ifvqhfg","pricing_plan_id":"cebpf4jnsgd1na2vs0mg"},{"bike_id":"6cac9bcc-fc8c-4209-97bc-95a2f73fbf5c","system_id":"levelo_inurba_marseille","lat":43.30951,"lon":5.39033,"is_reserved":false,"is_disabled":false,"rental_uris":{"android":"levelo://app?vid=6cac9bcc-fc8c-4209-97bc-95a2f73fbf5c","ios":"levelo://app?vid=6cac9bcc-fc8c-4209-97bc-95a2f73fbf5c"},"vehicle_type_id":"4","last_reported":1779208967,"current_range_meters":2800,"station_id":"ce4bgup2rcd13ifvqco0","pricing_plan_id":"cebpf4jnsgd1na2vs0mg"},{"bike_id":"71710ab6-e8ef-4abd-8433-2bc0d5facb23","system_id":"levelo_inurba_marseille","lat":43.28344,"lon":5.38111,"is_reserved":false,"is_disabled":false,"rental_uris":{"android":"levelo://app?vid=71710ab6-e8ef-4abd-8433-2bc0d5facb23","ios":"levelo://app?vid=71710ab6-e8ef-4abd-8433-2bc0d5facb23"},"vehicle_type_id":"4","last_reported":1779208967,"current_range_meters":2800,"station_id":"ce4bh412rcd13ifvqdr0","pricing_plan_id":"cebpf4jnsgd1na2vs0mg"},{"bike_id":"5321f702-e2b0-42bf-9d68-0a4a7c9f661f","system_id":"levelo_inurba_marseille","lat":43.25563,"lon":5.38242,"is_reserved":false,"is_disabled":false,"rental_uris":{"android":"levelo://app?vid=5321f702-e2b0-42bf-9d68-0a4a7c9f661f","ios":"levelo://app?vid=5321f702-e2b0-42bf-9d68-0a4a7c9f661f"},"vehicle_type_id":"4","last_reported":1779208967,"current_range_meters":2800,"station_id":"ce4bhih2rcd13ifvqfs0","pricing_plan_id":"cebpf4jnsgd1na2vs0mg"},{"bike_id":"6d583f37-cb0c-4d81-8264-ea3829d8f174","system_id":"levelo_inurba_marseille","lat":43.25869,"lon":5.399,"is_reserved":false,"is_disabled":false,"rental_uris":{"android":"levelo://app?vid=6d583f37-cb0c-4d81-8264-ea3829d8f174","ios":"levelo://app?vid=6d583f37-cb0c-4d81-8264-ea3829d8f174"},"vehicle_type_id":"4","last_reported":1779208967,"current_range_meters":2800,"station_id":"ce4bhl92rcd13ifvqghg","pricing_plan_id":"cebpf4jnsgd1na2vs0mg"},{"bike_id":"37f6822f-fb18-465b-9266-4e4f55e34f04","system_id":"levelo_inurba_marseille","lat":43.31433,"lon":5.37412,"is_reserved":false,"is_disabled":true,"rental_uris":{"android":"levelo://app?vid=37f6822f-fb18-465b-9266-4e4f55e34f04","ios":"levelo://app?vid=37f6822f-fb18-465b-9266-4e4f55e34f04"},"vehicle_type_id":"4","last_reported":1779208967,"current_range_meters":2800,"station_id":"ce4bgt12rcd13ifvqcd0","pricing_plan_id":"cebpf4jnsgd1na2vs0mg"},{"bike_id":"b9ca77f1-80fa-475b-9a37-ec72feacc5df","system_id":"levelo_inurba_marseille","lat":43.29799,"lon":5.44054,"is_reserved":false,"is_disabled":false,"rental_uris":{"android":"levelo://app?vid=b9ca77f1-80fa-475b-9a37-ec72feacc5df","ios":"levelo://app?vid=b9ca77f1-80fa-475b-9a37-ec72feacc5df"},"vehicle_type_id":"4","last_reported":1779208967,"current_range_meters":2800,"station_id":"st_d3jp68qikq2c7381ktn0","pricing_plan_id":"cebpf4jnsgd1na2vs0mg"},{"bike_id":"cf5544a4-8e85-4838-918f-f563a2f5fb78","system_id":"levelo_inurba_marseille","lat":43.28154,"lon":5.42612,"is_reserved":false,"is_disabled":true,"rental_uris":{"android":"levelo://app?vid=cf5544a4-8e85-4838-918f-f563a2f5fb78","ios":"levelo://app?vid=cf5544a4-8e85-4838-918f-f563a2f5fb78"},"vehicle_type_id":"4","last_reported":1779208967,"current_range_meters":2800,"station_id":"ce4bhnh2rcd13ifvqgug","pricing_plan_id":"cebpf4jnsgd1na2vs0mg"},{"bike_id":"f730d25a-84e3-42c5-a939-51609cebefcd","system_id":"levelo_inurba_marseille","lat":43.28693,"lon":5.46693,"is_reserved":false,"is_disabled":false,"rental_uris":{"android":"levelo://app?vid=f730d25a-84e3-42c5-a939-51609cebefcd","ios":"levelo://app?vid=f730d25a-84e3-42c5-a939-51609cebefcd"},"vehicle_type_id":"4","last_reported":1779208967,"current_range_meters":2800,"station_id":"st_d6tc3vkotcvc738tfjhg","pricing_plan_id":"cebpf4jnsgd1na2vs0mg"},{"bike_id":"ad188fcd-3f1e-402f-ab41-b0f5b75d452e","system_id":"levelo_inurba_marseille","lat":43.29059,"lon":5.3716,"is_reserved":false,"is_disabled":false,"rental_uris":{"android":"levelo://app?vid=ad188fcd-3f1e-402f-ab41-b0f5b75d452e","ios":"levelo://app?vid=ad188fcd-3f1e-402f-ab41-b0f5b75d452e"},"vehicle_type_id":"4","last_reported":1779208967,"current_range_meters":2800,"station_id":"ce4bh5p2rcd13ifvqe4g","pricing_plan_id":"cebpf4jnsgd1na2vs0mg"},{"bike_id":"5405f16b-f7b6-483b-a0e6-ac5e9c955829","system_id":"levelo_inurba_marseille","lat":43.29609,"lon":5.37715,"is_reserved":false,"is_disabled":false,"rental_uris":{"android":"levelo://app?vid=5405f16b-f7b6-483b-a0e6-ac5e9c955829","ios":"levelo://app?vid=5405f16b-f7b6-483b-a0e6-ac5e9c955829"},"vehicle_type_id":"4","last_reported":1779208967,"current_range_meters":2800,"station_id":"ce4bgi92rcd13ifvqb90","pricing_plan_id":"cebpf4jnsgd1na2vs0mg"},{"bike_id":"428a210f-87f7-428f-9ac4-76d179596d35","system_id":"levelo_inurba_marseille","lat":43.28577,"lon":5.39496,"is_reserved":false,"is_disabled":true,"rental_uris":{"android":"levelo://app?vid=428a210f-87f7-428f-9ac4-76d179596d35","ios":"levelo://app?vid=428a210f-87f7-428f-9ac4-76d179596d35"},"vehicle_type_id":"4","last_reported":1779208967,"current_range_meters":2800,"station_id":"ce4bh292rcd13ifvqdg0","pricing_plan_id":"cebpf4jnsgd1na2vs0mg"},{"bike_id":"9c5b743b-0242-46b9-b87d-aecd67c6514c","system_id":"levelo_inurba_marseille","lat":43.296226,"lon":5.371644,"is_reserved":false,"is_disabled":false,"rental_uris":{"android":"levelo://app?vid=9c5b743b-0242-46b9-b87d-aecd67c6514c","ios":"levelo://app?vid=9c5b743b-0242-46b9-b87d-aecd67c6514c"},"vehicle_type_id":"4","last_reported":1779208967,"current_range_meters":2800,"station_id":"ce4bgnh2rcd13ifvqc0g","pricing_plan_id":"cebpf4jnsgd1na2vs0mg"},{"bike_id":"c10a48a1-ea4e-4bdd-9b79-98800c41e1e0","system_id":"levelo_inurba_marseille","lat":43.28408,"lon":5.35013,"is_reserved":false,"is_disabled":false,"rental_uris":{"android":"levelo://app?vid=c10a48a1-ea4e-4bdd-9b79-98800c41e1e0","ios":"levelo://app?vid=c10a48a1-ea4e-4bdd-9b79-98800c41e1e0"},"vehicle_type_id":"4","last_reported":1779208967,"current_range_meters":2800,"station_id":"ce4bhbh2rcd13ifvqepg","pricing_plan_id":"cebpf4jnsgd1na2vs0mg"},{"bike_id":"62b49a17-5a63-48c5-ba5b-cb536b349d51","system_id":"levelo_inurba_marseille","lat":43.30788,"lon":5.37637,"is_reserved":false,"is_disabled":false,"rental_uris":{"android":"levelo://app?vid=62b49a17-5a63-48c5-ba5b-cb536b349d51","ios":"levelo://app?vid=62b49a17-5a63-48c5-ba5b-cb536b349d51"},"vehicle_type_id":"4","last_reported":1779208967,"current_range_meters":2800,"station_id":"ce4bgv92rcd13ifvqcq0","pricing_plan_id":"cebpf4jnsgd1na2vs0mg"},{"bike_id":"b67422a9-5175-486e-a1db-9de756184605","system_id":"levelo_inurba_marseille","lat":43.2319,"lon":5.3557,"is_reserved":false,"is_disabled":false,"rental_uris":{"android":"levelo://app?vid=b67422a9-5175-486e-a1db-9de756184605","ios":"levelo://app?vid=b67422a9-5175-486e-a1db-9de756184605"},"vehicle_type_id":"4","last_reported":1779208967,"current_range_meters":2800,"station_id":"ce4bhu92rcd13ifvqi70","pricing_plan_id":"cebpf4jnsgd1na2vs0mg"},{"bike_id":"5adf99a0-a11e-4371-b2a0-2c0b079279c0","system_id":"levelo_inurba_marseille","lat":43.28056,"lon":5.3511,"is_reserved":false,"is_disabled":false,"rental_uris":{"android":"levelo://app?vid=5adf99a0-a11e-4371-b2a0-2c0b079279c0","ios":"levelo://app?vid=5adf99a0-a11e-4371-b2a0-2c0b079279c0"},"vehicle_type_id":"4","last_reported":1779208967,"current_range_meters":2800,"station_id":"","pricing_plan_id":"cebpf4jnsgd1na2vs0mg"},{"bike_id":"25565638-c7aa-4b76-8211-6a39b4ab1cac","system_id":"levelo_inurba_marseille","lat":43.31739,"lon":5.40442,"is_reserved":false,"is_disabled":false,"rental_uris":{"android":"levelo://app?vid=25565638-c7aa-4b76-8211-6a39b4ab1cac","ios":"levelo://app?vid=25565638-c7aa-4b76-8211-6a39b4ab1cac"},"vehicle_type_id":"4","last_reported":1779208967,"current_range_meters":2800,"station_id":"ce4bh012rcd13ifvqd00","pricing_plan_id":"cebpf4jnsgd1na2vs0mg"},{"bike_id":"92d1f52a-2b5f-46f0-a31e-967db06a4663","system_id":"levelo_inurba_marseille","lat":43.23386,"lon":5.41221,"is_reserved":false,"is_disabled":true,"rental_uris":{"android":"levelo://app?vid=92d1f52a-2b5f-46f0-a31e-967db06a4663","ios":"levelo://app?vid=92d1f52a-2b5f-46f0-a31e-967db06a4663"},"vehicle_type_id":"4","last_reported":1779208967,"current_range_meters":2800,"station_id":"st_d75pvndhf9lc73cqq3eg","pricing_plan_id":"cebpf4jnsgd1na2vs0mg"},{"bike_id":"566e81bf-71aa-483f-9412-7c85497d11bf","system_id":"levelo_inurba_marseille","lat":43.26956,"lon":5.38637,"is_reserved":false,"is_disabled":false,"rental_uris":{"android":"levelo://app?vid=566e81bf-71aa-483f-9412-7c85497d11bf","ios":"levelo://app?vid=566e81bf-71aa-483f-9412-7c85497d11bf"},"vehicle_type_id":"4","last_reported":1779208967,"current_range_meters":2800,"station_id":"ce4bhh92rcd13ifvqfh0","pricing_plan_id":"cebpf4jnsgd1na2vs0mg"},{"bike_id":"118f25d8-0255-44ef-8a35-47bb481bb8b6","system_id":"levelo_inurba_marseille","lat":43.24395,"lon":5.37064,"is_reserved":false,"is_disabled":true,"rental_uris":{"android":"levelo://app?vid=118f25d8-0255-44ef-8a35-47bb481bb8b6","ios":"levelo://app?vid=118f25d8-0255-44ef-8a35-47bb481bb8b6"},"vehicle_type_id":"4","last_reported":1779208967,"current_range_meters":3200,"station_id":"ce4bhhh2rcd13ifvqfk0","pricing_plan_id":"cebpf4jnsgd1na2vs0mg"},{"bike_id":"08e88718-7ad2-41f1-b020-d7bdccf3eb0f","system_id":"levelo_inurba_marseille","lat":43.23969,"lon":5.36622,"is_reserved":false,"is_disabled":false,"rental_uris":{"android":"levelo://app?vid=08e88718-7ad2-41f1-b020-d7bdccf3eb0f","ios":"levelo://app?vid=08e88718-7ad2-41f1-b020-d7bdccf3eb0f"},"vehicle_type_id":"4","last_reported":1779208967,"current_range_meters":3200,"station_id":"ce4bhi12rcd13ifvqfp0","pricing_plan_id":"cebpf4jnsgd1na2vs0mg"},{"bike_id":"834c2b13-a416-4e0d-8aed-4d7f0d70462e","system_id":"levelo_inurba_marseille","lat":43.3088,"lon":5.39642,"is_reserved":false,"is_disabled":false,"rental_uris":{"android":"levelo://app?vid=834c2b13-a416-4e0d-8aed-4d7f0d70462e","ios":"levelo://app?vid=834c2b13-a416-4e0d-8aed-4d7f0d70462e"},"vehicle_type_id":"4","last_reported":1779208967,"current_range_meters":3200,"station_id":"ce4bh012rcd13ifvqcv0","pricing_plan_id":"cebpf4jnsgd1na2vs0mg"},{"bike_id":"5c1b823e-302f-44c3-8e50-4b6491651abb","system_id":"levelo_inurba_marseille","lat":43.30873,"lon":5.39641,"is_reserved":false,"is_disabled":false,"rental_uris":{"android":"levelo://app?vid=5c1b823e-302f-44c3-8e50-4b6491651abb","ios":"levelo://app?vid=5c1b823e-302f-44c3-8e50-4b6491651abb"},"vehicle_type_id":"4","last_reported":1779208967,"current_range_meters":3200,"station_id":"ce4bh012rcd13ifvqcv0","pricing_plan_id":"cebpf4jnsgd1na2vs0mg"},{"bike_id":"140132fc-62b1-493d-bca2-1a9e70d422d8","system_id":"levelo_inurba_marseille","lat":43.28568,"lon":5.39496,"is_reserved":false,"is_disabled":false,"rental_uris":{"android":"levelo://app?vid=140132fc-62b1-493d-bca2-1a9e70d422d8","ios":"levelo://app?vid=140132fc-62b1-493d-bca2-1a9e70d422d8"},"vehicle_type_id":"4","last_reported":1779208967,"current_range_meters":3200,"station_id":"ce4bh292rcd13ifvqdg0","pricing_plan_id":"cebpf4jnsgd1na2vs0mg"},{"bike_id":"df528db7-f721-4227-bb3b-7de9e89f45af","system_id":"levelo_inurba_marseille","lat":43.24087,"lon":5.37755,"is_reserved":false,"is_disabled":false,"rental_uris":{"android":"levelo://app?vid=df528db7-f721-4227-bb3b-7de9e89f45af","ios":"levelo://app?vid=df528db7-f721-4227-bb3b-7de9e89f45af"},"vehicle_type_id":"4","last_reported":1779208967,"current_range_meters":3200,"station_id":"ce4bhnp2rcd13ifvqgvg","pricing_plan_id":"cebpf4jnsgd1na2vs0mg"},{"bike_id":"9b9605df-a3c8-42d6-ac00-c5f48bd6b477","system_id":"levelo_inurba_marseille","lat":43.28449,"lon":5.35898,"is_reserved":false,"is_disabled":false,"rental_uris":{"android":"levelo://app?vid=9b9605df-a3c8-42d6-ac00-c5f48bd6b477","ios":"levelo://app?vid=9b9605df-a3c8-42d6-ac00-c5f48bd6b477"},"vehicle_type_id":"4","last_reported":1779208967,"current_range_meters":3200,"station_id":"ce4bhah2rcd13ifvqei0","pricing_plan_id":"cebpf4jnsgd1na2vs0mg"},{"bike_id":"13d446b4-7a79-46ab-9b1f-4b369d05f744","system_id":"levelo_inurba_marseille","lat":43.28408,"lon":5.34984,"is_reserved":false,"is_disabled":false,"rental_uris":{"android":"levelo://app?vid=13d446b4-7a79-46ab-9b1f-4b369d05f744","ios":"levelo://app?vid=13d446b4-7a79-46ab-9b1f-4b369d05f744"},"vehicle_type_id":"4","last_reported":1779208967,"current_range_meters":3200,"station_id":"ce4bhbh2rcd13ifvqepg","pricing_plan_id":"cebpf4jnsgd1na2vs0mg"},{"bike_id":"b903f5c2-082f-49ad-bd38-83b5183785e5","system_id":"levelo_inurba_marseille","lat":43.29251,"lon":5.38444,"is_reserved":false,"is_disabled":false,"rental_uris":{"android":"levelo://app?vid=b903f5c2-082f-49ad-bd38-83b5183785e5","ios":"levelo://app?vid=b903f5c2-082f-49ad-bd38-83b5183785e5"},"vehicle_type_id":"4","last_reported":1779208967,"current_range_meters":3200,"station_id":"ce4bh692rcd13ifvqea0","pricing_plan_id":"cebpf4jnsgd1na2vs0mg"},{"bike_id":"533a2ff0-b2bf-4d37-ab82-46ceb3ab4319","system_id":"levelo_inurba_marseille","lat":43.23896,"lon":5.37456,"is_reserved":false,"is_disabled":false,"rental_uris":{"android":"levelo://app?vid=533a2ff0-b2bf-4d37-ab82-46ceb3ab4319","ios":"levelo://app?vid=533a2ff0-b2bf-4d37-ab82-46ceb3ab4319"},"vehicle_type_id":"4","last_reported":1779208967,"current_range_meters":3200,"station_id":"st_d6sm7csbq4hs73f8fpjg","pricing_plan_id":"cebpf4jnsgd1na2vs0mg"},{"bike_id":"6487aec1-0c4c-46fe-b3b6-7f36ef22f357","system_id":"levelo_inurba_marseille","lat":43.29881,"lon":5.38902,"is_reserved":false,"is_disabled":false,"rental_uris":{"android":"levelo://app?vid=6487aec1-0c4c-46fe-b3b6-7f36ef22f357","ios":"levelo://app?vid=6487aec1-0c4c-46fe-b3b6-7f36ef22f357"},"vehicle_type_id":"4","last_reported":1779208967,"current_range_meters":3200,"station_id":"ce4bh392rcd13ifvqdl0","pricing_plan_id":"cebpf4jnsgd1na2vs0mg"},{"bike_id":"8fe6fb70-ead9-4f52-8639-56c33b6f9fd5","system_id":"levelo_inurba_marseille","lat":43.28932,"lon":5.38399,"is_reserved":false,"is_disabled":false,"rental_uris":{"android":"levelo://app?vid=8fe6fb70-ead9-4f52-8639-56c33b6f9fd5","ios":"levelo://app?vid=8fe6fb70-ead9-4f52-8639-56c33b6f9fd5"},"vehicle_type_id":"4","last_reported":1779208967,"current_range_meters":3200,"station_id":"ce4bh612rcd13ifvqe6g","pricing_plan_id":"cebpf4jnsgd1na2vs0mg"},{"bike_id":"cf25939c-eb98-4b7f-9447-42d69a733da7","system_id":"levelo_inurba_marseille","lat":43.29857,"lon":5.36268,"is_reserved":false,"is_disabled":false,"rental_uris":{"android":"levelo://app?vid=cf25939c-eb98-4b7f-9447-42d69a733da7","ios":"levelo://app?vid=cf25939c-eb98-4b7f-9447-42d69a733da7"},"vehicle_type_id":"4","last_reported":1779208967,"current_range_meters":3200,"station_id":"ce4bgpp2rcd13ifvqc3g","pricing_plan_id":"cebpf4jnsgd1na2vs0mg"},{"bike_id":"0abf896e-fcbf-4794-b419-4fcb40ae0211","system_id":"levelo_inurba_marseille","lat":43.29055,"lon":5.37159,"is_reserved":false,"is_disabled":false,"rental_uris":{"android":"levelo://app?vid=0abf896e-fcbf-4794-b419-4fcb40ae0211","ios":"levelo://app?vid=0abf896e-fcbf-4794-b419-4fcb40ae0211"},"vehicle_type_id":"4","last_reported":1779208967,"current_range_meters":3200,"station_id":"ce4bh5p2rcd13ifvqe4g","pricing_plan_id":"cebpf4jnsgd1na2vs0mg"},{"bike_id":"1c1414c1-3413-415f-adc1-dde38dab9b68","system_id":"levelo_inurba_marseille","lat":43.2995,"lon":5.39925,"is_reserved":false,"is_disabled":false,"rental_uris":{"android":"levelo://app?vid=1c1414c1-3413-415f-adc1-dde38dab9b68","ios":"levelo://app?vid=1c1414c1-3413-415f-adc1-dde38dab9b68"},"vehicle_type_id":"4","last_reported":1779208967,"current_range_meters":3200,"station_id":"","pricing_plan_id":"cebpf4jnsgd1na2vs0mg"},{"bike_id":"5a1c8a28-d79f-4b07-a4d8-bce75ba2c426","system_id":"levelo_inurba_marseille","lat":43.25855,"lon":5.39913,"is_reserved":false,"is_disabled":true,"rental_uris":{"android":"levelo://app?vid=5a1c8a28-d79f-4b07-a4d8-bce75ba2c426","ios":"levelo://app?vid=5a1c8a28-d79f-4b07-a4d8-bce75ba2c426"},"vehicle_type_id":"4","last_reported":1779208967,"current_range_meters":3600,"station_id":"ce4bhl92rcd13ifvqghg","pricing_plan_id":"cebpf4jnsgd1na2vs0mg"},{"bike_id":"f953e7df-9a8f-4f8e-8e56-6a5db7d34d82","system_id":"levelo_inurba_marseille","lat":43.269189,"lon":5.380411,"is_reserved":false,"is_disabled":false,"rental_uris":{"android":"levelo://app?vid=f953e7df-9a8f-4f8e-8e56-6a5db7d34d82","ios":"levelo://app?vid=f953e7df-9a8f-4f8e-8e56-6a5db7d34d82"},"vehicle_type_id":"4","last_reported":1779208967,"current_range_meters":3600,"station_id":"","pricing_plan_id":"cebpf4jnsgd1na2vs0mg"},{"bike_id":"ff0b4455-6aa3-4686-8d3c-5a84d4f9c3e3","system_id":"levelo_inurba_marseille","lat":43.28614,"lon":5.35109,"is_reserved":false,"is_disabled":false,"rental_uris":{"android":"levelo://app?vid=ff0b4455-6aa3-4686-8d3c-5a84d4f9c3e3","ios":"levelo://app?vid=ff0b4455-6aa3-4686-8d3c-5a84d4f9c3e3"},"vehicle_type_id":"4","last_reported":1779208967,"current_range_meters":3600,"station_id":"ce4bhch2rcd13ifvqeug","pricing_plan_id":"cebpf4jnsgd1na2vs0mg"},{"bike_id":"d330ebaf-89a2-4938-8fb2-a03c97594a54","system_id":"levelo_inurba_marseille","lat":43.28977,"lon":5.37613,"is_reserved":false,"is_disabled":false,"rental_uris":{"android":"levelo://app?vid=d330ebaf-89a2-4938-8fb2-a03c97594a54","ios":"levelo://app?vid=d330ebaf-89a2-4938-8fb2-a03c97594a54"},"vehicle_type_id":"4","last_reported":1779208967,"current_range_meters":3600,"station_id":"","pricing_plan_id":"cebpf4jnsgd1na2vs0mg"},{"bike_id":"a6777b27-5702-4a2f-bd66-34fa9bb817ee","system_id":"levelo_inurba_marseille","lat":43.21766,"lon":5.34588,"is_reserved":false,"is_disabled":false,"rental_uris":{"android":"levelo://app?vid=a6777b27-5702-4a2f-bd66-34fa9bb817ee","ios":"levelo://app?vid=a6777b27-5702-4a2f-bd66-34fa9bb817ee"},"vehicle_type_id":"4","last_reported":1779208967,"current_range_meters":3600,"station_id":"st_cvj6r9ubvosntc0bgbag","pricing_plan_id":"cebpf4jnsgd1na2vs0mg"},{"bike_id":"d68dabd5-6162-4458-9231-b3f6c5f9c9cf","system_id":"levelo_inurba_marseille","lat":43.279775,"lon":5.387475,"is_reserved":false,"is_disabled":false,"rental_uris":{"android":"levelo://app?vid=d68dabd5-6162-4458-9231-b3f6c5f9c9cf","ios":"levelo://app?vid=d68dabd5-6162-4458-9231-b3f6c5f9c9cf"},"vehicle_type_id":"4","last_reported":1779208967,"current_range_meters":3600,"station_id":"ce4bhg12rcd13ifvqf80","pricing_plan_id":"cebpf4jnsgd1na2vs0mg"},{"bike_id":"f1f6135b-56b4-4625-9a74-872f8e6816a6","system_id":"levelo_inurba_marseille","lat":43.27194,"lon":5.40962,"is_reserved":false,"is_disabled":false,"rental_uris":{"android":"levelo://app?vid=f1f6135b-56b4-4625-9a74-872f8e6816a6","ios":"levelo://app?vid=f1f6135b-56b4-4625-9a74-872f8e6816a6"},"vehicle_type_id":"4","last_reported":1779208967,"current_range_meters":3600,"station_id":"ce4bhl12rcd13ifvqgf0","pricing_plan_id":"cebpf4jnsgd1na2vs0mg"},{"bike_id":"2ec5847e-0977-4eb8-9143-62a16a33fbfa","system_id":"levelo_inurba_marseille","lat":43.28608,"lon":5.35111,"is_reserved":false,"is_disabled":false,"rental_uris":{"android":"levelo://app?vid=2ec5847e-0977-4eb8-9143-62a16a33fbfa","ios":"levelo://app?vid=2ec5847e-0977-4eb8-9143-62a16a33fbfa"},"vehicle_type_id":"4","last_reported":1779208967,"current_range_meters":3600,"station_id":"ce4bhch2rcd13ifvqeug","pricing_plan_id":"cebpf4jnsgd1na2vs0mg"},{"bike_id":"bc056539-59c7-4914-bd3b-db6ebb9ad38e","system_id":"levelo_inurba_marseille","lat":43.24653,"lon":5.38897,"is_reserved":false,"is_disabled":false,"rental_uris":{"android":"levelo://app?vid=bc056539-59c7-4914-bd3b-db6ebb9ad38e","ios":"levelo://app?vid=bc056539-59c7-4914-bd3b-db6ebb9ad38e"},"vehicle_type_id":"4","last_reported":1779208967,"current_range_meters":3600,"station_id":"ce4bhg12rcd13ifvqf60","pricing_plan_id":"cebpf4jnsgd1na2vs0mg"},{"bike_id":"09ea10e2-43a5-428f-afcc-00b3ec7ae464","system_id":"levelo_inurba_marseille","lat":43.309143,"lon":5.372809,"is_reserved":false,"is_disabled":true,"rental_uris":{"android":"levelo://app?vid=09ea10e2-43a5-428f-afcc-00b3ec7ae464","ios":"levelo://app?vid=09ea10e2-43a5-428f-afcc-00b3ec7ae464"},"vehicle_type_id":"4","last_reported":1779208967,"current_range_meters":3600,"station_id":"ce4bguh2rcd13ifvqckg","pricing_plan_id":"cebpf4jnsgd1na2vs0mg"},{"bike_id":"7090f0c9-726b-41a6-9d90-241238012b83","system_id":"levelo_inurba_marseille","lat":43.282992,"lon":5.388993,"is_reserved":false,"is_disabled":false,"rental_uris":{"android":"levelo://app?vid=7090f0c9-726b-41a6-9d90-241238012b83","ios":"levelo://app?vid=7090f0c9-726b-41a6-9d90-241238012b83"},"vehicle_type_id":"4","last_reported":1779208967,"current_range_meters":3600,"station_id":"ce4bhn92rcd13ifvqgsg","pricing_plan_id":"cebpf4jnsgd1na2vs0mg"},{"bike_id":"4dbd280c-3953-4144-9625-9f881dbe4387","system_id":"levelo_inurba_marseille","lat":43.27368,"lon":5.36264,"is_reserved":false,"is_disabled":false,"rental_uris":{"android":"levelo://app?vid=4dbd280c-3953-4144-9625-9f881dbe4387","ios":"levelo://app?vid=4dbd280c-3953-4144-9625-9f881dbe4387"},"vehicle_type_id":"4","last_reported":1779208967,"current_range_meters":3600,"station_id":"ce4bhbh2rcd13ifvqeo0","pricing_plan_id":"cebpf4jnsgd1na2vs0mg"},{"bike_id":"219b37a1-1ab9-4b48-a9b4-109129b64ebc","system_id":"levelo_inurba_marseille","lat":43.29523,"lon":5.39035,"is_reserved":false,"is_disabled":false,"rental_uris":{"android":"levelo://app?vid=219b37a1-1ab9-4b48-a9b4-109129b64ebc","ios":"levelo://app?vid=219b37a1-1ab9-4b48-a9b4-109129b64ebc"},"vehicle_type_id":"4","last_reported":1779208967,"current_range_meters":3600,"station_id":"ce4bh3p2rcd13ifvqdp0","pricing_plan_id":"cebpf4jnsgd1na2vs0mg"},{"bike_id":"793a3e5c-6409-4f9c-a9b7-62dd782f2c43","system_id":"levelo_inurba_marseille","lat":43.28721,"lon":5.36079,"is_reserved":false,"is_disabled":false,"rental_uris":{"android":"levelo://app?vid=793a3e5c-6409-4f9c-a9b7-62dd782f2c43","ios":"levelo://app?vid=793a3e5c-6409-4f9c-a9b7-62dd782f2c43"},"vehicle_type_id":"4","last_reported":1779208967,"current_range_meters":3600,"station_id":"cki0cbj6b192h4jlfktg","pricing_plan_id":"cebpf4jnsgd1na2vs0mg"},{"bike_id":"b3e47a10-789b-4113-b169-face25d448d0","system_id":"levelo_inurba_marseille","lat":43.28712,"lon":5.46682,"is_reserved":false,"is_disabled":false,"rental_uris":{"android":"levelo://app?vid=b3e47a10-789b-4113-b169-face25d448d0","ios":"levelo://app?vid=b3e47a10-789b-4113-b169-face25d448d0"},"vehicle_type_id":"4","last_reported":1779208967,"current_range_meters":3600,"station_id":"st_d6tc3vkotcvc738tfjhg","pricing_plan_id":"cebpf4jnsgd1na2vs0mg"},{"bike_id":"6dc89847-da70-4465-95c5-93b3b8bf7eb1","system_id":"levelo_inurba_marseille","lat":43.251192,"lon":5.40314,"is_reserved":false,"is_disabled":false,"rental_uris":{"android":"levelo://app?vid=6dc89847-da70-4465-95c5-93b3b8bf7eb1","ios":"levelo://app?vid=6dc89847-da70-4465-95c5-93b3b8bf7eb1"},"vehicle_type_id":"4","last_reported":1779208967,"current_range_meters":3600,"station_id":"ce4bhlh2rcd13ifvqgig","pricing_plan_id":"cebpf4jnsgd1na2vs0mg"},{"bike_id":"67298b0d-96b3-4d14-87eb-fc9a2dd8b027","system_id":"levelo_inurba_marseille","lat":43.25123,"lon":5.40309,"is_reserved":false,"is_disabled":true,"rental_uris":{"android":"levelo://app?vid=67298b0d-96b3-4d14-87eb-fc9a2dd8b027","ios":"levelo://app?vid=67298b0d-96b3-4d14-87eb-fc9a2dd8b027"},"vehicle_type_id":"4","last_reported":1779208967,"current_range_meters":3600,"station_id":"ce4bhkp2rcd13ifvqgd0","pricing_plan_id":"cebpf4jnsgd1na2vs0mg"},{"bike_id":"e573ccad-7e51-42db-be9c-d11800e07cad","system_id":"levelo_inurba_marseille","lat":43.23185,"lon":5.43701,"is_reserved":false,"is_disabled":true,"rental_uris":{"android":"levelo://app?vid=e573ccad-7e51-42db-be9c-d11800e07cad","ios":"levelo://app?vid=e573ccad-7e51-42db-be9c-d11800e07cad"},"vehicle_type_id":"4","last_reported":1779208967,"current_range_meters":3600,"station_id":"ce4bhmp2rcd13ifvqgog","pricing_plan_id":"cebpf4jnsgd1na2vs0mg"},{"bike_id":"b6ddb926-c35e-451f-ae57-2d262b732323","system_id":"levelo_inurba_marseille","lat":43.29719,"lon":5.41347,"is_reserved":false,"is_disabled":false,"rental_uris":{"android":"levelo://app?vid=b6ddb926-c35e-451f-ae57-2d262b732323","ios":"levelo://app?vid=b6ddb926-c35e-451f-ae57-2d262b732323"},"vehicle_type_id":"4","last_reported":1779208967,"current_range_meters":4000,"station_id":"","pricing_plan_id":"cebpf4jnsgd1na2vs0mg"},{"bike_id":"1f8259a9-7e55-4812-b53f-6d999496a759","system_id":"levelo_inurba_marseille","lat":43.28668,"lon":5.46615,"is_reserved":false,"is_disabled":false,"rental_uris":{"android":"levelo://app?vid=1f8259a9-7e55-4812-b53f-6d999496a759","ios":"levelo://app?vid=1f8259a9-7e55-4812-b53f-6d999496a759"},"vehicle_type_id":"4","last_reported":1779208967,"current_range_meters":4000,"station_id":"","pricing_plan_id":"cebpf4jnsgd1na2vs0mg"},{"bike_id":"5eb11d83-2461-40c2-9484-0a35868d2011","system_id":"levelo_inurba_marseille","lat":43.29776,"lon":5.4277,"is_reserved":false,"is_disabled":true,"rental_uris":{"android":"levelo://app?vid=5eb11d83-2461-40c2-9484-0a35868d2011","ios":"levelo://app?vid=5eb11d83-2461-40c2-9484-0a35868d2011"},"vehicle_type_id":"4","last_reported":1779208967,"current_range_meters":4000,"station_id":"st_d3md5207bmas73dh9klg","pricing_plan_id":"cebpf4jnsgd1na2vs0mg"},{"bike_id":"1f2fa210-dffb-49d7-b474-7151b19b6fd3","system_id":"levelo_inurba_marseille","lat":43.28031,"lon":5.36947,"is_reserved":false,"is_disabled":false,"rental_uris":{"android":"levelo://app?vid=1f2fa210-dffb-49d7-b474-7151b19b6fd3","ios":"levelo://app?vid=1f2fa210-dffb-49d7-b474-7151b19b6fd3"},"vehicle_type_id":"4","last_reported":1779208967,"current_range_meters":4000,"station_id":"ce4bha12rcd13ifvqef0","pricing_plan_id":"cebpf4jnsgd1na2vs0mg"},{"bike_id":"3d91a0c6-2313-4d07-9e3d-0d954422674f","system_id":"levelo_inurba_marseille","lat":43.24699,"lon":5.38109,"is_reserved":false,"is_disabled":true,"rental_uris":{"android":"levelo://app?vid=3d91a0c6-2313-4d07-9e3d-0d954422674f","ios":"levelo://app?vid=3d91a0c6-2313-4d07-9e3d-0d954422674f"},"vehicle_type_id":"4","last_reported":1779208967,"current_range_meters":4000,"station_id":"","pricing_plan_id":"cebpf4jnsgd1na2vs0mg"},{"bike_id":"3a7c4c8d-627e-4460-8c13-ed75faec5e06","system_id":"levelo_inurba_marseille","lat":43.29308,"lon":5.37176,"is_reserved":false,"is_disabled":false,"rental_uris":{"android":"levelo://app?vid=3a7c4c8d-627e-4460-8c13-ed75faec5e06","ios":"levelo://app?vid=3a7c4c8d-627e-4460-8c13-ed75faec5e06"},"vehicle_type_id":"4","last_reported":1779208967,"current_range_meters":4000,"station_id":"ce4bgh92rcd13ifvqb40","pricing_plan_id":"cebpf4jnsgd1na2vs0mg"},{"bike_id":"ceb855b2-135a-470a-ac34-c9169291d5f7","system_id":"levelo_inurba_marseille","lat":43.24652,"lon":5.38899,"is_reserved":false,"is_disabled":false,"rental_uris":{"android":"levelo://app?vid=ceb855b2-135a-470a-ac34-c9169291d5f7","ios":"levelo://app?vid=ceb855b2-135a-470a-ac34-c9169291d5f7"},"vehicle_type_id":"4","last_reported":1779208967,"current_range_meters":4000,"station_id":"ce4bhg12rcd13ifvqf60","pricing_plan_id":"cebpf4jnsgd1na2vs0mg"},{"bike_id":"0465621c-04f4-4567-bee4-1748901d64f2","system_id":"levelo_inurba_marseille","lat":43.28348,"lon":5.38103,"is_reserved":false,"is_disabled":false,"rental_uris":{"android":"levelo://app?vid=0465621c-04f4-4567-bee4-1748901d64f2","ios":"levelo://app?vid=0465621c-04f4-4567-bee4-1748901d64f2"},"vehicle_type_id":"4","last_reported":1779208967,"current_range_meters":4000,"station_id":"ce4bh412rcd13ifvqdr0","pricing_plan_id":"cebpf4jnsgd1na2vs0mg"},{"bike_id":"d302e040-a189-4a22-be81-1740dd0497ce","system_id":"levelo_inurba_marseille","lat":43.2695,"lon":5.38639,"is_reserved":false,"is_disabled":false,"rental_uris":{"android":"levelo://app?vid=d302e040-a189-4a22-be81-1740dd0497ce","ios":"levelo://app?vid=d302e040-a189-4a22-be81-1740dd0497ce"},"vehicle_type_id":"4","last_reported":1779208967,"current_range_meters":4000,"station_id":"ce4bhh92rcd13ifvqfh0","pricing_plan_id":"cebpf4jnsgd1na2vs0mg"},{"bike_id":"76822842-6de5-44db-bee3-28d0eed2902b","system_id":"levelo_inurba_marseille","lat":43.22916,"lon":5.35382,"is_reserved":false,"is_disabled":false,"rental_uris":{"android":"levelo://app?vid=76822842-6de5-44db-bee3-28d0eed2902b","ios":"levelo://app?vid=76822842-6de5-44db-bee3-28d0eed2902b"},"vehicle_type_id":"4","last_reported":1779208967,"current_range_meters":4000,"station_id":"cpo3532slgdg3j2ikp40","pricing_plan_id":"cebpf4jnsgd1na2vs0mg"},{"bike_id":"bad5e753-7c0f-4058-a494-6c383030f759","system_id":"levelo_inurba_marseille","lat":43.31111,"lon":5.37771,"is_reserved":false,"is_disabled":false,"rental_uris":{"android":"levelo://app?vid=bad5e753-7c0f-4058-a494-6c383030f759","ios":"levelo://app?vid=bad5e753-7c0f-4058-a494-6c383030f759"},"vehicle_type_id":"4","last_reported":1779208967,"current_range_meters":4000,"station_id":"ce4bgt92rcd13ifvqcg0","pricing_plan_id":"cebpf4jnsgd1na2vs0mg"},{"bike_id":"6f2bd330-2761-4a50-8501-6b068a12f733","system_id":"levelo_inurba_marseille","lat":43.33552,"lon":5.37459,"is_reserved":false,"is_disabled":false,"rental_uris":{"android":"levelo://app?vid=6f2bd330-2761-4a50-8501-6b068a12f733","ios":"levelo://app?vid=6f2bd330-2761-4a50-8501-6b068a12f733"},"vehicle_type_id":"4","last_reported":1779208967,"current_range_meters":4400,"station_id":"st_d46tts09ee8s73dlu43g","pricing_plan_id":"cebpf4jnsgd1na2vs0mg"},{"bike_id":"b531a93b-8a66-40dc-acdb-78073ad2ddbc","system_id":"levelo_inurba_marseille","lat":43.29278,"lon":5.36846,"is_reserved":false,"is_disabled":false,"rental_uris":{"android":"levelo://app?vid=b531a93b-8a66-40dc-acdb-78073ad2ddbc","ios":"levelo://app?vid=b531a93b-8a66-40dc-acdb-78073ad2ddbc"},"vehicle_type_id":"4","last_reported":1779208967,"current_range_meters":4400,"station_id":"ce4bhbp2rcd13ifvqesg","pricing_plan_id":"cebpf4jnsgd1na2vs0mg"},{"bike_id":"a645aa91-ece4-4e17-9680-aba85aac8077","system_id":"levelo_inurba_marseille","lat":43.28872,"lon":5.42556,"is_reserved":false,"is_disabled":false,"rental_uris":{"android":"levelo://app?vid=a645aa91-ece4-4e17-9680-aba85aac8077","ios":"levelo://app?vid=a645aa91-ece4-4e17-9680-aba85aac8077"},"vehicle_type_id":"4","last_reported":1779208967,"current_range_meters":4400,"station_id":"st_d3b462108ojc7389ooeg","pricing_plan_id":"cebpf4jnsgd1na2vs0mg"},{"bike_id":"2294a8c2-0743-4a76-9d0a-874a22bb5c87","system_id":"levelo_inurba_marseille","lat":43.31037,"lon":5.37173,"is_reserved":false,"is_disabled":false,"rental_uris":{"android":"levelo://app?vid=2294a8c2-0743-4a76-9d0a-874a22bb5c87","ios":"levelo://app?vid=2294a8c2-0743-4a76-9d0a-874a22bb5c87"},"vehicle_type_id":"4","last_reported":1779208967,"current_range_meters":4400,"station_id":"st_d4kl2rp97mjs73e7tdfg","pricing_plan_id":"cebpf4jnsgd1na2vs0mg"},{"bike_id":"d2f22647-4a9b-4698-969c-204da29088cd","system_id":"levelo_inurba_marseille","lat":43.28616,"lon":5.35109,"is_reserved":false,"is_disabled":false,"rental_uris":{"android":"levelo://app?vid=d2f22647-4a9b-4698-969c-204da29088cd","ios":"levelo://app?vid=d2f22647-4a9b-4698-969c-204da29088cd"},"vehicle_type_id":"4","last_reported":1779208967,"current_range_meters":4400,"station_id":"ce4bhch2rcd13ifvqeug","pricing_plan_id":"cebpf4jnsgd1na2vs0mg"},{"bike_id":"6dd82c2e-07cf-4910-b2e0-41efb1c2bfa5","system_id":"levelo_inurba_marseille","lat":43.28453,"lon":5.35895,"is_reserved":false,"is_disabled":false,"rental_uris":{"android":"levelo://app?vid=6dd82c2e-07cf-4910-b2e0-41efb1c2bfa5","ios":"levelo://app?vid=6dd82c2e-07cf-4910-b2e0-41efb1c2bfa5"},"vehicle_type_id":"4","last_reported":1779208967,"current_range_meters":4400,"station_id":"ce4bhah2rcd13ifvqei0","pricing_plan_id":"cebpf4jnsgd1na2vs0mg"},{"bike_id":"6f6bd284-0510-46fc-aaf2-8847d7e49523","system_id":"levelo_inurba_marseille","lat":43.27415,"lon":5.39426,"is_reserved":false,"is_disabled":false,"rental_uris":{"android":"levelo://app?vid=6f6bd284-0510-46fc-aaf2-8847d7e49523","ios":"levelo://app?vid=6f6bd284-0510-46fc-aaf2-8847d7e49523"},"vehicle_type_id":"4","last_reported":1779208967,"current_range_meters":4400,"station_id":"ce4bhdp2rcd13ifvqf20","pricing_plan_id":"cebpf4jnsgd1na2vs0mg"},{"bike_id":"413b7af5-5604-45ef-9a6c-abe3683419e5","system_id":"levelo_inurba_marseille","lat":43.28666,"lon":5.36349,"is_reserved":false,"is_disabled":false,"rental_uris":{"android":"levelo://app?vid=413b7af5-5604-45ef-9a6c-abe3683419e5","ios":"levelo://app?vid=413b7af5-5604-45ef-9a6c-abe3683419e5"},"vehicle_type_id":"4","last_reported":1779208967,"current_range_meters":4400,"station_id":"ce4bhah2rcd13ifvqej0","pricing_plan_id":"cebpf4jnsgd1na2vs0mg"},{"bike_id":"46e5ee1b-6e75-4db8-88e1-e8ff6d5292d7","system_id":"levelo_inurba_marseille","lat":43.23091,"lon":5.39479,"is_reserved":false,"is_disabled":false,"rental_uris":{"android":"levelo://app?vid=46e5ee1b-6e75-4db8-88e1-e8ff6d5292d7","ios":"levelo://app?vid=46e5ee1b-6e75-4db8-88e1-e8ff6d5292d7"},"vehicle_type_id":"4","last_reported":1779208967,"current_range_meters":4400,"station_id":"","pricing_plan_id":"cebpf4jnsgd1na2vs0mg"},{"bike_id":"be745378-0ca9-4666-8ac7-a912abfcbcf8","system_id":"levelo_inurba_marseille","lat":43.29012,"lon":5.38152,"is_reserved":false,"is_disabled":false,"rental_uris":{"android":"levelo://app?vid=be745378-0ca9-4666-8ac7-a912abfcbcf8","ios":"levelo://app?vid=be745378-0ca9-4666-8ac7-a912abfcbcf8"},"vehicle_type_id":"4","last_reported":1779208967,"current_range_meters":4400,"station_id":"ce4bh4p2rcd13ifvqe1g","pricing_plan_id":"cebpf4jnsgd1na2vs0mg"},{"bike_id":"315f2a31-abe3-4d9d-ba63-43d1458e74c5","system_id":"levelo_inurba_marseille","lat":43.31429,"lon":5.4028,"is_reserved":false,"is_disabled":false,"rental_uris":{"android":"levelo://app?vid=315f2a31-abe3-4d9d-ba63-43d1458e74c5","ios":"levelo://app?vid=315f2a31-abe3-4d9d-ba63-43d1458e74c5"},"vehicle_type_id":"4","last_reported":1779208967,"current_range_meters":4400,"station_id":"","pricing_plan_id":"cebpf4jnsgd1na2vs0mg"},{"bike_id":"2e460c45-b42c-44b8-a365-21b599df21f7","system_id":"levelo_inurba_marseille","lat":43.31501,"lon":5.37295,"is_reserved":false,"is_disabled":false,"rental_uris":{"android":"levelo://app?vid=2e460c45-b42c-44b8-a365-21b599df21f7","ios":"levelo://app?vid=2e460c45-b42c-44b8-a365-21b599df21f7"},"vehicle_type_id":"4","last_reported":1779208967,"current_range_meters":4400,"station_id":"ce4bgt12rcd13ifvqcd0","pricing_plan_id":"cebpf4jnsgd1na2vs0mg"},{"bike_id":"c5d154fb-9d11-45e8-88d1-0e0bf3e882e4","system_id":"levelo_inurba_marseille","lat":43.2407,"lon":5.37762,"is_reserved":false,"is_disabled":false,"rental_uris":{"android":"levelo://app?vid=c5d154fb-9d11-45e8-88d1-0e0bf3e882e4","ios":"levelo://app?vid=c5d154fb-9d11-45e8-88d1-0e0bf3e882e4"},"vehicle_type_id":"4","last_reported":1779208967,"current_range_meters":4800,"station_id":"ce4bhnp2rcd13ifvqgvg","pricing_plan_id":"cebpf4jnsgd1na2vs0mg"},{"bike_id":"77b90cbb-5469-422f-a13e-e22bfc56040a","system_id":"levelo_inurba_marseille","lat":43.32493,"lon":5.38302,"is_reserved":false,"is_disabled":false,"rental_uris":{"android":"levelo://app?vid=77b90cbb-5469-422f-a13e-e22bfc56040a","ios":"levelo://app?vid=77b90cbb-5469-422f-a13e-e22bfc56040a"},"vehicle_type_id":"4","last_reported":1779208967,"current_range_meters":4800,"station_id":"st_d4asgbiv49dc73anf9m0","pricing_plan_id":"cebpf4jnsgd1na2vs0mg"},{"bike_id":"c8912cd9-763a-47b2-8d78-1874c415b5d2","system_id":"levelo_inurba_marseille","lat":43.26555,"lon":5.37285,"is_reserved":false,"is_disabled":false,"rental_uris":{"android":"levelo://app?vid=c8912cd9-763a-47b2-8d78-1874c415b5d2","ios":"levelo://app?vid=c8912cd9-763a-47b2-8d78-1874c415b5d2"},"vehicle_type_id":"4","last_reported":1779208967,"current_range_meters":4800,"station_id":"ce4bhg12rcd13ifvqf70","pricing_plan_id":"cebpf4jnsgd1na2vs0mg"},{"bike_id":"0e0d5418-4a56-4251-8866-025e6b539885","system_id":"levelo_inurba_marseille","lat":43.28867,"lon":5.42511,"is_reserved":false,"is_disabled":false,"rental_uris":{"android":"levelo://app?vid=0e0d5418-4a56-4251-8866-025e6b539885","ios":"levelo://app?vid=0e0d5418-4a56-4251-8866-025e6b539885"},"vehicle_type_id":"4","last_reported":1779208967,"current_range_meters":4800,"station_id":"st_d3b462108ojc7389ooeg","pricing_plan_id":"cebpf4jnsgd1na2vs0mg"},{"bike_id":"b83932cf-e441-46b8-8083-33635fb4d75f","system_id":"levelo_inurba_marseille","lat":43.2736,"lon":5.36259,"is_reserved":false,"is_disabled":false,"rental_uris":{"android":"levelo://app?vid=b83932cf-e441-46b8-8083-33635fb4d75f","ios":"levelo://app?vid=b83932cf-e441-46b8-8083-33635fb4d75f"},"vehicle_type_id":"4","last_reported":1779208967,"current_range_meters":4800,"station_id":"ce4bhbh2rcd13ifvqeo0","pricing_plan_id":"cebpf4jnsgd1na2vs0mg"},{"bike_id":"a641c355-44f5-459f-87c4-840b0873623d","system_id":"levelo_inurba_marseille","lat":43.28659,"lon":5.36356,"is_reserved":false,"is_disabled":false,"rental_uris":{"android":"levelo://app?vid=a641c355-44f5-459f-87c4-840b0873623d","ios":"levelo://app?vid=a641c355-44f5-459f-87c4-840b0873623d"},"vehicle_type_id":"4","last_reported":1779208967,"current_range_meters":4800,"station_id":"ce4bhah2rcd13ifvqej0","pricing_plan_id":"cebpf4jnsgd1na2vs0mg"},{"bike_id":"6b014aff-26c9-4b95-a99f-391e19e55f21","system_id":"levelo_inurba_marseille","lat":43.26024,"lon":5.37553,"is_reserved":false,"is_disabled":false,"rental_uris":{"android":"levelo://app?vid=6b014aff-26c9-4b95-a99f-391e19e55f21","ios":"levelo://app?vid=6b014aff-26c9-4b95-a99f-391e19e55f21"},"vehicle_type_id":"4","last_reported":1779208967,"current_range_meters":4800,"station_id":"ce4bhgh2rcd13ifvqfa0","pricing_plan_id":"cebpf4jnsgd1na2vs0mg"},{"bike_id":"caf49fe7-6e4e-4ba6-afe0-dda21b9616da","system_id":"levelo_inurba_marseille","lat":43.31328,"lon":5.39685,"is_reserved":false,"is_disabled":false,"rental_uris":{"android":"levelo://app?vid=caf49fe7-6e4e-4ba6-afe0-dda21b9616da","ios":"levelo://app?vid=caf49fe7-6e4e-4ba6-afe0-dda21b9616da"},"vehicle_type_id":"4","last_reported":1779208967,"current_range_meters":4800,"station_id":"ce4bgvp2rcd13ifvqcu0","pricing_plan_id":"cebpf4jnsgd1na2vs0mg"},{"bike_id":"bd5ba8af-d24b-4039-b0e8-a4c61a37e027","system_id":"levelo_inurba_marseille","lat":43.24657,"lon":5.38878,"is_reserved":false,"is_disabled":false,"rental_uris":{"android":"levelo://app?vid=bd5ba8af-d24b-4039-b0e8-a4c61a37e027","ios":"levelo://app?vid=bd5ba8af-d24b-4039-b0e8-a4c61a37e027"},"vehicle_type_id":"4","last_reported":1779208967,"current_range_meters":4800,"station_id":"ce4bhg12rcd13ifvqf60","pricing_plan_id":"cebpf4jnsgd1na2vs0mg"},{"bike_id":"9dd54c05-ffd2-43c6-88bf-5a9df0930cd9","system_id":"levelo_inurba_marseille","lat":43.31332,"lon":5.39683,"is_reserved":false,"is_disabled":false,"rental_uris":{"android":"levelo://app?vid=9dd54c05-ffd2-43c6-88bf-5a9df0930cd9","ios":"levelo://app?vid=9dd54c05-ffd2-43c6-88bf-5a9df0930cd9"},"vehicle_type_id":"4","last_reported":1779208967,"current_range_meters":4800,"station_id":"ce4bgvp2rcd13ifvqcu0","pricing_plan_id":"cebpf4jnsgd1na2vs0mg"},{"bike_id":"3dad8f5f-c541-4d95-9437-8527646bb19f","system_id":"levelo_inurba_marseille","lat":43.28846,"lon":5.39323,"is_reserved":false,"is_disabled":false,"rental_uris":{"android":"levelo://app?vid=3dad8f5f-c541-4d95-9437-8527646bb19f","ios":"levelo://app?vid=3dad8f5f-c541-4d95-9437-8527646bb19f"},"vehicle_type_id":"4","last_reported":1779208967,"current_range_meters":4800,"station_id":"ce4bh2p2rcd13ifvqdi0","pricing_plan_id":"cebpf4jnsgd1na2vs0mg"},{"bike_id":"896cc048-96e9-4966-acec-26a71f53cc5b","system_id":"levelo_inurba_marseille","lat":43.30294,"lon":5.36921,"is_reserved":false,"is_disabled":false,"rental_uris":{"android":"levelo://app?vid=896cc048-96e9-4966-acec-26a71f53cc5b","ios":"levelo://app?vid=896cc048-96e9-4966-acec-26a71f53cc5b"},"vehicle_type_id":"4","last_reported":1779208967,"current_range_meters":5600,"station_id":"ce4bgqh2rcd13ifvqc5g","pricing_plan_id":"cebpf4jnsgd1na2vs0mg"},{"bike_id":"de183b40-5c7f-45d9-b70e-b5b63cf94b66","system_id":"levelo_inurba_marseille","lat":43.29526,"lon":5.38525,"is_reserved":false,"is_disabled":false,"rental_uris":{"android":"levelo://app?vid=de183b40-5c7f-45d9-b70e-b5b63cf94b66","ios":"levelo://app?vid=de183b40-5c7f-45d9-b70e-b5b63cf94b66"},"vehicle_type_id":"4","last_reported":1779208967,"current_range_meters":5600,"station_id":"ce4bgih2rcd13ifvqba0","pricing_plan_id":"cebpf4jnsgd1na2vs0mg"},{"bike_id":"05ac9d51-1004-4bc4-a813-4a637f7f2f22","system_id":"levelo_inurba_marseille","lat":43.24631,"lon":5.38901,"is_reserved":false,"is_disabled":false,"rental_uris":{"android":"levelo://app?vid=05ac9d51-1004-4bc4-a813-4a637f7f2f22","ios":"levelo://app?vid=05ac9d51-1004-4bc4-a813-4a637f7f2f22"},"vehicle_type_id":"4","last_reported":1779208967,"current_range_meters":5600,"station_id":"ce4bhg12rcd13ifvqf60","pricing_plan_id":"cebpf4jnsgd1na2vs0mg"},{"bike_id":"859ff56d-18cc-492b-8658-56eb50f4e061","system_id":"levelo_inurba_marseille","lat":43.23895,"lon":5.37453,"is_reserved":false,"is_disabled":false,"rental_uris":{"android":"levelo://app?vid=859ff56d-18cc-492b-8658-56eb50f4e061","ios":"levelo://app?vid=859ff56d-18cc-492b-8658-56eb50f4e061"},"vehicle_type_id":"4","last_reported":1779208967,"current_range_meters":5600,"station_id":"st_d6sm7csbq4hs73f8fpjg","pricing_plan_id":"cebpf4jnsgd1na2vs0mg"},{"bike_id":"ce36ba79-8db7-4f60-a6c8-3495d191c17f","system_id":"levelo_inurba_marseille","lat":43.27596,"lon":5.36111,"is_reserved":false,"is_disabled":true,"rental_uris":{"android":"levelo://app?vid=ce36ba79-8db7-4f60-a6c8-3495d191c17f","ios":"levelo://app?vid=ce36ba79-8db7-4f60-a6c8-3495d191c17f"},"vehicle_type_id":"4","last_reported":1779208967,"current_range_meters":5600,"station_id":"ce4bgj92rcd13ifvqbe0","pricing_plan_id":"cebpf4jnsgd1na2vs0mg"},{"bike_id":"ca4f6bf2-59b9-4fb8-9cc3-7ba12b36fa60","system_id":"levelo_inurba_marseille","lat":43.29603,"lon":5.40595,"is_reserved":false,"is_disabled":false,"rental_uris":{"android":"levelo://app?vid=ca4f6bf2-59b9-4fb8-9cc3-7ba12b36fa60","ios":"levelo://app?vid=ca4f6bf2-59b9-4fb8-9cc3-7ba12b36fa60"},"vehicle_type_id":"4","last_reported":1779208967,"current_range_meters":5600,"station_id":"ce4bh0h2rcd13ifvqd60","pricing_plan_id":"cebpf4jnsgd1na2vs0mg"},{"bike_id":"8d9285c2-2b4c-4446-93e9-9aa598ed5463","system_id":"levelo_inurba_marseille","lat":43.24175,"lon":5.36385,"is_reserved":false,"is_disabled":false,"rental_uris":{"android":"levelo://app?vid=8d9285c2-2b4c-4446-93e9-9aa598ed5463","ios":"levelo://app?vid=8d9285c2-2b4c-4446-93e9-9aa598ed5463"},"vehicle_type_id":"4","last_reported":1779208967,"current_range_meters":5600,"station_id":"cpo36qri1sfpv3e86is0","pricing_plan_id":"cebpf4jnsgd1na2vs0mg"},{"bike_id":"47de3624-928c-4191-aa79-556e566daa56","system_id":"levelo_inurba_marseille","lat":43.29514,"lon":5.39041,"is_reserved":false,"is_disabled":false,"rental_uris":{"android":"levelo://app?vid=47de3624-928c-4191-aa79-556e566daa56","ios":"levelo://app?vid=47de3624-928c-4191-aa79-556e566daa56"},"vehicle_type_id":"4","last_reported":1779208967,"current_range_meters":5600,"station_id":"ce4bh3p2rcd13ifvqdp0","pricing_plan_id":"cebpf4jnsgd1na2vs0mg"},{"bike_id":"109d4594-f611-4a3d-ae89-7d099da2d394","system_id":"levelo_inurba_marseille","lat":43.30419,"lon":5.41301,"is_reserved":false,"is_disabled":false,"rental_uris":{"android":"levelo://app?vid=109d4594-f611-4a3d-ae89-7d099da2d394","ios":"levelo://app?vid=109d4594-f611-4a3d-ae89-7d099da2d394"},"vehicle_type_id":"4","last_reported":1779208967,"current_range_meters":5600,"station_id":"ce4bhop2rcd13ifvqh8g","pricing_plan_id":"cebpf4jnsgd1na2vs0mg"},{"bike_id":"36412580-44b8-4eb7-8104-0b261ba5c87f","system_id":"levelo_inurba_marseille","lat":43.28467,"lon":5.35878,"is_reserved":false,"is_disabled":false,"rental_uris":{"android":"levelo://app?vid=36412580-44b8-4eb7-8104-0b261ba5c87f","ios":"levelo://app?vid=36412580-44b8-4eb7-8104-0b261ba5c87f"},"vehicle_type_id":"4","last_reported":1779208967,"current_range_meters":5600,"station_id":"ce4bhah2rcd13ifvqei0","pricing_plan_id":"cebpf4jnsgd1na2vs0mg"},{"bike_id":"2e8c7c73-0306-4ea0-b7a8-811dd0bf4b36","system_id":"levelo_inurba_marseille","lat":43.24174,"lon":5.39734,"is_reserved":false,"is_disabled":false,"rental_uris":{"android":"levelo://app?vid=2e8c7c73-0306-4ea0-b7a8-811dd0bf4b36","ios":"levelo://app?vid=2e8c7c73-0306-4ea0-b7a8-811dd0bf4b36"},"vehicle_type_id":"4","last_reported":1779208967,"current_range_meters":5600,"station_id":"ce4bhn12rcd13ifvqgpg","pricing_plan_id":"cebpf4jnsgd1na2vs0mg"},{"bike_id":"e0c4c6c7-cc1c-4b82-90d2-9d1210312ef1","system_id":"levelo_inurba_marseille","lat":43.28199,"lon":5.39061,"is_reserved":false,"is_disabled":false,"rental_uris":{"android":"levelo://app?vid=e0c4c6c7-cc1c-4b82-90d2-9d1210312ef1","ios":"levelo://app?vid=e0c4c6c7-cc1c-4b82-90d2-9d1210312ef1"},"vehicle_type_id":"4","last_reported":1779208967,"current_range_meters":5600,"station_id":"ce4bhn92rcd13ifvqgsg","pricing_plan_id":"cebpf4jnsgd1na2vs0mg"},{"bike_id":"7fa655ab-ade4-45a2-810a-f9a16ce8131e","system_id":"levelo_inurba_marseille","lat":43.25496,"lon":5.41666,"is_reserved":false,"is_disabled":false,"rental_uris":{"android":"levelo://app?vid=7fa655ab-ade4-45a2-810a-f9a16ce8131e","ios":"levelo://app?vid=7fa655ab-ade4-45a2-810a-f9a16ce8131e"},"vehicle_type_id":"4","last_reported":1779208967,"current_range_meters":5600,"station_id":"","pricing_plan_id":"cebpf4jnsgd1na2vs0mg"},{"bike_id":"11aed450-7f4a-4572-b077-e3b0277d39cd","system_id":"levelo_inurba_marseille","lat":43.28398,"lon":5.34996,"is_reserved":false,"is_disabled":false,"rental_uris":{"android":"levelo://app?vid=11aed450-7f4a-4572-b077-e3b0277d39cd","ios":"levelo://app?vid=11aed450-7f4a-4572-b077-e3b0277d39cd"},"vehicle_type_id":"4","last_reported":1779208967,"current_range_meters":5600,"station_id":"ce4bhbh2rcd13ifvqepg","pricing_plan_id":"cebpf4jnsgd1na2vs0mg"},{"bike_id":"086dd37e-5df9-4a21-a2e3-4fff2f41f6ce","system_id":"levelo_inurba_marseille","lat":43.29179,"lon":5.35801,"is_reserved":false,"is_disabled":false,"rental_uris":{"android":"levelo://app?vid=086dd37e-5df9-4a21-a2e3-4fff2f41f6ce","ios":"levelo://app?vid=086dd37e-5df9-4a21-a2e3-4fff2f41f6ce"},"vehicle_type_id":"4","last_reported":1779208967,"current_range_meters":5600,"station_id":"ce4bhb12rcd13ifvqel0","pricing_plan_id":"cebpf4jnsgd1na2vs0mg"},{"bike_id":"f985f959-436a-4a59-9a20-f3d3a4194450","system_id":"levelo_inurba_marseille","lat":43.26804,"lon":5.39405,"is_reserved":false,"is_disabled":false,"rental_uris":{"android":"levelo://app?vid=f985f959-436a-4a59-9a20-f3d3a4194450","ios":"levelo://app?vid=f985f959-436a-4a59-9a20-f3d3a4194450"},"vehicle_type_id":"4","last_reported":1779208967,"current_range_meters":6000,"station_id":"ce4bhh12rcd13ifvqfg0","pricing_plan_id":"cebpf4jnsgd1na2vs0mg"},{"bike_id":"4861cd64-0e34-47c2-837d-15859e97916d","system_id":"levelo_inurba_marseille","lat":43.29775,"lon":5.39349,"is_reserved":false,"is_disabled":false,"rental_uris":{"android":"levelo://app?vid=4861cd64-0e34-47c2-837d-15859e97916d","ios":"levelo://app?vid=4861cd64-0e34-47c2-837d-15859e97916d"},"vehicle_type_id":"4","last_reported":1779208967,"current_range_meters":6000,"station_id":"chh1huq6cuj3fo74tm60","pricing_plan_id":"cebpf4jnsgd1na2vs0mg"},{"bike_id":"d32e766b-eab3-426a-809e-ff0d889e278b","system_id":"levelo_inurba_marseille","lat":43.29531,"lon":5.38553,"is_reserved":false,"is_disabled":false,"rental_uris":{"android":"levelo://app?vid=d32e766b-eab3-426a-809e-ff0d889e278b","ios":"levelo://app?vid=d32e766b-eab3-426a-809e-ff0d889e278b"},"vehicle_type_id":"4","last_reported":1779208967,"current_range_meters":6000,"station_id":"ce4bgih2rcd13ifvqba0","pricing_plan_id":"cebpf4jnsgd1na2vs0mg"},{"bike_id":"f8b7b5b8-9e90-4cfa-be1f-215e2b3e85bb","system_id":"levelo_inurba_marseille","lat":43.27967,"lon":5.3876,"is_reserved":false,"is_disabled":false,"rental_uris":{"android":"levelo://app?vid=f8b7b5b8-9e90-4cfa-be1f-215e2b3e85bb","ios":"levelo://app?vid=f8b7b5b8-9e90-4cfa-be1f-215e2b3e85bb"},"vehicle_type_id":"4","last_reported":1779208967,"current_range_meters":6000,"station_id":"ce4bhg12rcd13ifvqf80","pricing_plan_id":"cebpf4jnsgd1na2vs0mg"},{"bike_id":"ad1c0b94-3157-4540-ab90-47e9daee3a88","system_id":"levelo_inurba_marseille","lat":43.30655,"lon":5.40097,"is_reserved":false,"is_disabled":false,"rental_uris":{"android":"levelo://app?vid=ad1c0b94-3157-4540-ab90-47e9daee3a88","ios":"levelo://app?vid=ad1c0b94-3157-4540-ab90-47e9daee3a88"},"vehicle_type_id":"4","last_reported":1779208967,"current_range_meters":6000,"station_id":"ce4bh112rcd13ifvqda0","pricing_plan_id":"cebpf4jnsgd1na2vs0mg"},{"bike_id":"c9513b4e-0f0e-49bc-bbff-f4414a2b16f9","system_id":"levelo_inurba_marseille","lat":43.27528,"lon":5.4159,"is_reserved":false,"is_disabled":false,"rental_uris":{"android":"levelo://app?vid=c9513b4e-0f0e-49bc-bbff-f4414a2b16f9","ios":"levelo://app?vid=c9513b4e-0f0e-49bc-bbff-f4414a2b16f9"},"vehicle_type_id":"4","last_reported":1779208967,"current_range_meters":6000,"station_id":"st_d6im8g6chgec73a5pndg","pricing_plan_id":"cebpf4jnsgd1na2vs0mg"},{"bike_id":"66aa3998-c506-45a5-83d5-cd9a42760e10","system_id":"levelo_inurba_marseille","lat":43.31115,"lon":5.37763,"is_reserved":false,"is_disabled":false,"rental_uris":{"android":"levelo://app?vid=66aa3998-c506-45a5-83d5-cd9a42760e10","ios":"levelo://app?vid=66aa3998-c506-45a5-83d5-cd9a42760e10"},"vehicle_type_id":"4","last_reported":1779208967,"current_range_meters":6000,"station_id":"ce4bgt92rcd13ifvqcg0","pricing_plan_id":"cebpf4jnsgd1na2vs0mg"},{"bike_id":"0a8de42a-9439-4112-9179-4b82fa61f3af","system_id":"levelo_inurba_marseille","lat":43.29616,"lon":5.37169,"is_reserved":false,"is_disabled":false,"rental_uris":{"android":"levelo://app?vid=0a8de42a-9439-4112-9179-4b82fa61f3af","ios":"levelo://app?vid=0a8de42a-9439-4112-9179-4b82fa61f3af"},"vehicle_type_id":"4","last_reported":1779208967,"current_range_meters":6000,"station_id":"ce4bgnh2rcd13ifvqc0g","pricing_plan_id":"cebpf4jnsgd1na2vs0mg"},{"bike_id":"3fa4241d-9cd4-4d2a-ae09-71eea79a1fa0","system_id":"levelo_inurba_marseille","lat":43.28469,"lon":5.35872,"is_reserved":false,"is_disabled":false,"rental_uris":{"android":"levelo://app?vid=3fa4241d-9cd4-4d2a-ae09-71eea79a1fa0","ios":"levelo://app?vid=3fa4241d-9cd4-4d2a-ae09-71eea79a1fa0"},"vehicle_type_id":"4","last_reported":1779208967,"current_range_meters":6000,"station_id":"ce4bhah2rcd13ifvqei0","pricing_plan_id":"cebpf4jnsgd1na2vs0mg"},{"bike_id":"5dd9bcd9-b1c6-4f94-9468-12a94eca651f","system_id":"levelo_inurba_marseille","lat":43.30407,"lon":5.41297,"is_reserved":false,"is_disabled":false,"rental_uris":{"android":"levelo://app?vid=5dd9bcd9-b1c6-4f94-9468-12a94eca651f","ios":"levelo://app?vid=5dd9bcd9-b1c6-4f94-9468-12a94eca651f"},"vehicle_type_id":"4","last_reported":1779208967,"current_range_meters":6000,"station_id":"ce4bhop2rcd13ifvqh8g","pricing_plan_id":"cebpf4jnsgd1na2vs0mg"},{"bike_id":"68199a88-ee69-4739-9679-2a84024175c4","system_id":"levelo_inurba_marseille","lat":43.251085,"lon":5.403191,"is_reserved":false,"is_disabled":false,"rental_uris":{"android":"levelo://app?vid=68199a88-ee69-4739-9679-2a84024175c4","ios":"levelo://app?vid=68199a88-ee69-4739-9679-2a84024175c4"},"vehicle_type_id":"4","last_reported":1779208967,"current_range_meters":6000,"station_id":"ce4bhlh2rcd13ifvqgig","pricing_plan_id":"cebpf4jnsgd1na2vs0mg"},{"bike_id":"a449697d-e5a5-4a92-bdbb-3ae502c26234","system_id":"levelo_inurba_marseille","lat":43.26216,"lon":5.40439,"is_reserved":false,"is_disabled":false,"rental_uris":{"android":"levelo://app?vid=a449697d-e5a5-4a92-bdbb-3ae502c26234","ios":"levelo://app?vid=a449697d-e5a5-4a92-bdbb-3ae502c26234"},"vehicle_type_id":"4","last_reported":1779208967,"current_range_meters":6000,"station_id":"ce4bhmh2rcd13ifvqgmg","pricing_plan_id":"cebpf4jnsgd1na2vs0mg"},{"bike_id":"5393b6e6-023e-4a6c-a052-f50913681cde","system_id":"levelo_inurba_marseille","lat":43.28668,"lon":5.3866,"is_reserved":false,"is_disabled":false,"rental_uris":{"android":"levelo://app?vid=5393b6e6-023e-4a6c-a052-f50913681cde","ios":"levelo://app?vid=5393b6e6-023e-4a6c-a052-f50913681cde"},"vehicle_type_id":"4","last_reported":1779208967,"current_range_meters":6000,"station_id":"ce4bh492rcd13ifvqdug","pricing_plan_id":"cebpf4jnsgd1na2vs0mg"},{"bike_id":"c5dc8721-bed0-444d-848b-f06a05272342","system_id":"levelo_inurba_marseille","lat":43.30269,"lon":5.37726,"is_reserved":false,"is_disabled":false,"rental_uris":{"android":"levelo://app?vid=c5dc8721-bed0-444d-848b-f06a05272342","ios":"levelo://app?vid=c5dc8721-bed0-444d-848b-f06a05272342"},"vehicle_type_id":"4","last_reported":1779208967,"current_range_meters":6000,"station_id":"ce4bguh2rcd13ifvqcj0","pricing_plan_id":"cebpf4jnsgd1na2vs0mg"},{"bike_id":"c1667bd0-5c05-4cd7-b7ff-fcbc15caff1e","system_id":"levelo_inurba_marseille","lat":43.25989,"lon":5.37489,"is_reserved":false,"is_disabled":false,"rental_uris":{"android":"levelo://app?vid=c1667bd0-5c05-4cd7-b7ff-fcbc15caff1e","ios":"levelo://app?vid=c1667bd0-5c05-4cd7-b7ff-fcbc15caff1e"},"vehicle_type_id":"4","last_reported":1779208967,"current_range_meters":6000,"station_id":"","pricing_plan_id":"cebpf4jnsgd1na2vs0mg"},{"bike_id":"1945c429-a6b3-4afe-8b4e-c989148ef8b4","system_id":"levelo_inurba_marseille","lat":43.28624,"lon":5.37794,"is_reserved":false,"is_disabled":false,"rental_uris":{"android":"levelo://app?vid=1945c429-a6b3-4afe-8b4e-c989148ef8b4","ios":"levelo://app?vid=1945c429-a6b3-4afe-8b4e-c989148ef8b4"},"vehicle_type_id":"4","last_reported":1779208967,"current_range_meters":6000,"station_id":"","pricing_plan_id":"cebpf4jnsgd1na2vs0mg"},{"bike_id":"7569705a-1ae8-4455-adf9-858923acad07","system_id":"levelo_inurba_marseille","lat":43.234339,"lon":5.412532,"is_reserved":false,"is_disabled":false,"rental_uris":{"android":"levelo://app?vid=7569705a-1ae8-4455-adf9-858923acad07","ios":"levelo://app?vid=7569705a-1ae8-4455-adf9-858923acad07"},"vehicle_type_id":"4","last_reported":1779208967,"current_range_meters":6400,"station_id":"st_d75pvndhf9lc73cqq3eg","pricing_plan_id":"cebpf4jnsgd1na2vs0mg"},{"bike_id":"9d45a253-1d3a-41f8-95ed-2518452886d5","system_id":"levelo_inurba_marseille","lat":43.25518,"lon":5.37646,"is_reserved":false,"is_disabled":true,"rental_uris":{"android":"levelo://app?vid=9d45a253-1d3a-41f8-95ed-2518452886d5","ios":"levelo://app?vid=9d45a253-1d3a-41f8-95ed-2518452886d5"},"vehicle_type_id":"4","last_reported":1779208967,"current_range_meters":6400,"station_id":"ce4bhh12rcd13ifvqff0","pricing_plan_id":"cebpf4jnsgd1na2vs0mg"},{"bike_id":"5dec923f-0675-414a-808c-7ce29de5a70e","system_id":"levelo_inurba_marseille","lat":43.27616,"lon":5.36113,"is_reserved":false,"is_disabled":false,"rental_uris":{"android":"levelo://app?vid=5dec923f-0675-414a-808c-7ce29de5a70e","ios":"levelo://app?vid=5dec923f-0675-414a-808c-7ce29de5a70e"},"vehicle_type_id":"4","last_reported":1779208967,"current_range_meters":6400,"station_id":"ce4bgj92rcd13ifvqbe0","pricing_plan_id":"cebpf4jnsgd1na2vs0mg"},{"bike_id":"a589afee-c55a-43a1-8dc9-b4e20ff4b3a0","system_id":"levelo_inurba_marseille","lat":43.25595,"lon":5.38197,"is_reserved":false,"is_disabled":false,"rental_uris":{"android":"levelo://app?vid=a589afee-c55a-43a1-8dc9-b4e20ff4b3a0","ios":"levelo://app?vid=a589afee-c55a-43a1-8dc9-b4e20ff4b3a0"},"vehicle_type_id":"4","last_reported":1779208967,"current_range_meters":6400,"station_id":"ce4bhih2rcd13ifvqfs0","pricing_plan_id":"cebpf4jnsgd1na2vs0mg"},{"bike_id":"b2831627-3b1e-437d-9966-063b64acbf7d","system_id":"levelo_inurba_marseille","lat":43.23952,"lon":5.3663,"is_reserved":false,"is_disabled":false,"rental_uris":{"android":"levelo://app?vid=b2831627-3b1e-437d-9966-063b64acbf7d","ios":"levelo://app?vid=b2831627-3b1e-437d-9966-063b64acbf7d"},"vehicle_type_id":"4","last_reported":1779208967,"current_range_meters":6400,"station_id":"ce4bhi12rcd13ifvqfp0","pricing_plan_id":"cebpf4jnsgd1na2vs0mg"},{"bike_id":"b004721b-15a5-455a-9be8-13495ac39a54","system_id":"levelo_inurba_marseille","lat":43.25334,"lon":5.4217,"is_reserved":false,"is_disabled":false,"rental_uris":{"android":"levelo://app?vid=b004721b-15a5-455a-9be8-13495ac39a54","ios":"levelo://app?vid=b004721b-15a5-455a-9be8-13495ac39a54"},"vehicle_type_id":"4","last_reported":1779208967,"current_range_meters":6400,"station_id":"st_d2m65c5bi1j21697t3ng","pricing_plan_id":"cebpf4jnsgd1na2vs0mg"},{"bike_id":"33794a08-c5df-45d6-afd4-eac42eacad4b","system_id":"levelo_inurba_marseille","lat":43.29696,"lon":5.36629,"is_reserved":false,"is_disabled":false,"rental_uris":{"android":"levelo://app?vid=33794a08-c5df-45d6-afd4-eac42eacad4b","ios":"levelo://app?vid=33794a08-c5df-45d6-afd4-eac42eacad4b"},"vehicle_type_id":"4","last_reported":1779208967,"current_range_meters":6400,"station_id":"ce4bgn12rcd13ifvqbt0","pricing_plan_id":"cebpf4jnsgd1na2vs0mg"},{"bike_id":"89dcf81e-d685-4eb4-82aa-fe68a85d332a","system_id":"levelo_inurba_marseille","lat":43.32111,"lon":5.36789,"is_reserved":false,"is_disabled":false,"rental_uris":{"android":"levelo://app?vid=89dcf81e-d685-4eb4-82aa-fe68a85d332a","ios":"levelo://app?vid=89dcf81e-d685-4eb4-82aa-fe68a85d332a"},"vehicle_type_id":"4","last_reported":1779208967,"current_range_meters":6400,"station_id":"ce4bhrh2rcd13ifvqhug","pricing_plan_id":"cebpf4jnsgd1na2vs0mg"},{"bike_id":"bfe85ab1-ad03-4a15-ac04-018dbeaf9679","system_id":"levelo_inurba_marseille","lat":43.24792,"lon":5.37449,"is_reserved":false,"is_disabled":false,"rental_uris":{"android":"levelo://app?vid=bfe85ab1-ad03-4a15-ac04-018dbeaf9679","ios":"levelo://app?vid=bfe85ab1-ad03-4a15-ac04-018dbeaf9679"},"vehicle_type_id":"4","last_reported":1779208967,"current_range_meters":6400,"station_id":"ce4bhgh2rcd13ifvqfb0","pricing_plan_id":"cebpf4jnsgd1na2vs0mg"},{"bike_id":"61a4e2cb-984a-48f9-8e24-587ad6664f45","system_id":"levelo_inurba_marseille","lat":43.23183,"lon":5.39986,"is_reserved":false,"is_disabled":false,"rental_uris":{"android":"levelo://app?vid=61a4e2cb-984a-48f9-8e24-587ad6664f45","ios":"levelo://app?vid=61a4e2cb-984a-48f9-8e24-587ad6664f45"},"vehicle_type_id":"4","last_reported":1779208967,"current_range_meters":6400,"station_id":"ce4bhn12rcd13ifvqgqg","pricing_plan_id":"cebpf4jnsgd1na2vs0mg"},{"bike_id":"05469494-de1e-42aa-b3f5-1dea67966538","system_id":"levelo_inurba_marseille","lat":43.26935,"lon":5.40258,"is_reserved":false,"is_disabled":false,"rental_uris":{"android":"levelo://app?vid=05469494-de1e-42aa-b3f5-1dea67966538","ios":"levelo://app?vid=05469494-de1e-42aa-b3f5-1dea67966538"},"vehicle_type_id":"4","last_reported":1779208967,"current_range_meters":6400,"station_id":"cjm6bp8fraef2m0cb0m0","pricing_plan_id":"cebpf4jnsgd1na2vs0mg"},{"bike_id":"27a150cc-c3a3-4b24-bb60-1edbe7a23ad8","system_id":"levelo_inurba_marseille","lat":43.24168,"lon":5.3973,"is_reserved":false,"is_disabled":false,"rental_uris":{"android":"levelo://app?vid=27a150cc-c3a3-4b24-bb60-1edbe7a23ad8","ios":"levelo://app?vid=27a150cc-c3a3-4b24-bb60-1edbe7a23ad8"},"vehicle_type_id":"4","last_reported":1779208967,"current_range_meters":6400,"station_id":"ce4bhn12rcd13ifvqgpg","pricing_plan_id":"cebpf4jnsgd1na2vs0mg"},{"bike_id":"b9307abd-ee50-474e-bd4e-68b33e2f5be0","system_id":"levelo_inurba_marseille","lat":43.297968,"lon":5.404013,"is_reserved":false,"is_disabled":false,"rental_uris":{"android":"levelo://app?vid=b9307abd-ee50-474e-bd4e-68b33e2f5be0","ios":"levelo://app?vid=b9307abd-ee50-474e-bd4e-68b33e2f5be0"},"vehicle_type_id":"4","last_reported":1779208967,"current_range_meters":6400,"station_id":"ce4bh112rcd13ifvqd90","pricing_plan_id":"cebpf4jnsgd1na2vs0mg"},{"bike_id":"ee5fe437-24bf-482c-8cfc-fb6ec77b2c51","system_id":"levelo_inurba_marseille","lat":43.289296,"lon":5.36401,"is_reserved":false,"is_disabled":true,"rental_uris":{"android":"levelo://app?vid=ee5fe437-24bf-482c-8cfc-fb6ec77b2c51","ios":"levelo://app?vid=ee5fe437-24bf-482c-8cfc-fb6ec77b2c51"},"vehicle_type_id":"4","last_reported":1779208967,"current_range_meters":6400,"station_id":"ce4bhap2rcd13ifvqek0","pricing_plan_id":"cebpf4jnsgd1na2vs0mg"},{"bike_id":"be93d86b-1d32-4dab-aebd-70c3baa22be2","system_id":"levelo_inurba_marseille","lat":43.29514,"lon":5.38565,"is_reserved":false,"is_disabled":false,"rental_uris":{"android":"levelo://app?vid=be93d86b-1d32-4dab-aebd-70c3baa22be2","ios":"levelo://app?vid=be93d86b-1d32-4dab-aebd-70c3baa22be2"},"vehicle_type_id":"4","last_reported":1779208967,"current_range_meters":6400,"station_id":"ce4bgih2rcd13ifvqba0","pricing_plan_id":"cebpf4jnsgd1na2vs0mg"},{"bike_id":"92a48778-5aae-45c8-9818-f9e9df801c2b","system_id":"levelo_inurba_marseille","lat":43.3316,"lon":5.37684,"is_reserved":false,"is_disabled":false,"rental_uris":{"android":"levelo://app?vid=92a48778-5aae-45c8-9818-f9e9df801c2b","ios":"levelo://app?vid=92a48778-5aae-45c8-9818-f9e9df801c2b"},"vehicle_type_id":"4","last_reported":1779208967,"current_range_meters":6400,"station_id":"st_d46cu089ee8s73dldbu0","pricing_plan_id":"cebpf4jnsgd1na2vs0mg"},{"bike_id":"01a535c2-2aa8-486c-b4e8-7a7aace55e7e","system_id":"levelo_inurba_marseille","lat":43.21753,"lon":5.34595,"is_reserved":false,"is_disabled":false,"rental_uris":{"android":"levelo://app?vid=01a535c2-2aa8-486c-b4e8-7a7aace55e7e","ios":"levelo://app?vid=01a535c2-2aa8-486c-b4e8-7a7aace55e7e"},"vehicle_type_id":"4","last_reported":1779208967,"current_range_meters":6400,"station_id":"st_cvj6r9ubvosntc0bgbag","pricing_plan_id":"cebpf4jnsgd1na2vs0mg"},{"bike_id":"cfbfdf60-d81e-4d76-86b0-d916d82fdeb8","system_id":"levelo_inurba_marseille","lat":43.21779,"lon":5.34579,"is_reserved":false,"is_disabled":false,"rental_uris":{"android":"levelo://app?vid=cfbfdf60-d81e-4d76-86b0-d916d82fdeb8","ios":"levelo://app?vid=cfbfdf60-d81e-4d76-86b0-d916d82fdeb8"},"vehicle_type_id":"4","last_reported":1779208967,"current_range_meters":6400,"station_id":"st_cvj6r9ubvosntc0bgbag","pricing_plan_id":"cebpf4jnsgd1na2vs0mg"},{"bike_id":"a6362180-4b38-4633-a627-6d410d961659","system_id":"levelo_inurba_marseille","lat":43.281,"lon":5.37834,"is_reserved":false,"is_disabled":false,"rental_uris":{"android":"levelo://app?vid=a6362180-4b38-4633-a627-6d410d961659","ios":"levelo://app?vid=a6362180-4b38-4633-a627-6d410d961659"},"vehicle_type_id":"4","last_reported":1779208967,"current_range_meters":6400,"station_id":"ce4bha12rcd13ifvqee0","pricing_plan_id":"cebpf4jnsgd1na2vs0mg"},{"bike_id":"55aa5927-f1cd-443c-a8c3-2e81f69939e0","system_id":"levelo_inurba_marseille","lat":43.263615,"lon":5.410848,"is_reserved":false,"is_disabled":false,"rental_uris":{"android":"levelo://app?vid=55aa5927-f1cd-443c-a8c3-2e81f69939e0","ios":"levelo://app?vid=55aa5927-f1cd-443c-a8c3-2e81f69939e0"},"vehicle_type_id":"4","last_reported":1779208967,"current_range_meters":6400,"station_id":"st_d4e5ca6na9uc73bfl5fg","pricing_plan_id":"cebpf4jnsgd1na2vs0mg"},{"bike_id":"ea2b7db2-4ec0-4ed4-95e7-78571752cefd","system_id":"levelo_inurba_marseille","lat":43.2485,"lon":5.37439,"is_reserved":false,"is_disabled":false,"rental_uris":{"android":"levelo://app?vid=ea2b7db2-4ec0-4ed4-95e7-78571752cefd","ios":"levelo://app?vid=ea2b7db2-4ec0-4ed4-95e7-78571752cefd"},"vehicle_type_id":"4","last_reported":1779208967,"current_range_meters":6400,"station_id":"","pricing_plan_id":"cebpf4jnsgd1na2vs0mg"},{"bike_id":"771be989-48da-4e6d-8725-8db17e852ddd","system_id":"levelo_inurba_marseille","lat":43.28863,"lon":5.42522,"is_reserved":false,"is_disabled":false,"rental_uris":{"android":"levelo://app?vid=771be989-48da-4e6d-8725-8db17e852ddd","ios":"levelo://app?vid=771be989-48da-4e6d-8725-8db17e852ddd"},"vehicle_type_id":"4","last_reported":1779208967,"current_range_meters":6400,"station_id":"st_d3b462108ojc7389ooeg","pricing_plan_id":"cebpf4jnsgd1na2vs0mg"},{"bike_id":"360cca73-3889-4c8c-9eaa-1a166d423093","system_id":"levelo_inurba_marseille","lat":43.290566,"lon":5.359238,"is_reserved":false,"is_disabled":false,"rental_uris":{"android":"levelo://app?vid=360cca73-3889-4c8c-9eaa-1a166d423093","ios":"levelo://app?vid=360cca73-3889-4c8c-9eaa-1a166d423093"},"vehicle_type_id":"4","last_reported":1779208967,"current_range_meters":6400,"station_id":"ce4bha92rcd13ifvqeg0","pricing_plan_id":"cebpf4jnsgd1na2vs0mg"},{"bike_id":"38034984-a9a6-4442-a1e1-41a2c3609882","system_id":"levelo_inurba_marseille","lat":43.237864,"lon":5.4145,"is_reserved":false,"is_disabled":false,"rental_uris":{"android":"levelo://app?vid=38034984-a9a6-4442-a1e1-41a2c3609882","ios":"levelo://app?vid=38034984-a9a6-4442-a1e1-41a2c3609882"},"vehicle_type_id":"4","last_reported":1779208967,"current_range_meters":6400,"station_id":"","pricing_plan_id":"cebpf4jnsgd1na2vs0mg"},{"bike_id":"8b5fe887-0d07-4a23-9fbd-a7025800ec01","system_id":"levelo_inurba_marseille","lat":43.273725,"lon":5.36265,"is_reserved":false,"is_disabled":false,"rental_uris":{"android":"levelo://app?vid=8b5fe887-0d07-4a23-9fbd-a7025800ec01","ios":"levelo://app?vid=8b5fe887-0d07-4a23-9fbd-a7025800ec01"},"vehicle_type_id":"4","last_reported":1779208967,"current_range_meters":6400,"station_id":"ce4bhbh2rcd13ifvqeo0","pricing_plan_id":"cebpf4jnsgd1na2vs0mg"},{"bike_id":"93e19dda-50d5-474e-9ca7-8fb06b77c835","system_id":"levelo_inurba_marseille","lat":43.23153,"lon":5.43711,"is_reserved":false,"is_disabled":false,"rental_uris":{"android":"levelo://app?vid=93e19dda-50d5-474e-9ca7-8fb06b77c835","ios":"levelo://app?vid=93e19dda-50d5-474e-9ca7-8fb06b77c835"},"vehicle_type_id":"4","last_reported":1779208967,"current_range_meters":6400,"station_id":"ce4bhmp2rcd13ifvqgog","pricing_plan_id":"cebpf4jnsgd1na2vs0mg"},{"bike_id":"a58a3c3f-8b74-4a7e-9e6d-ee411a7127b9","system_id":"levelo_inurba_marseille","lat":43.281,"lon":5.37838,"is_reserved":false,"is_disabled":false,"rental_uris":{"android":"levelo://app?vid=a58a3c3f-8b74-4a7e-9e6d-ee411a7127b9","ios":"levelo://app?vid=a58a3c3f-8b74-4a7e-9e6d-ee411a7127b9"},"vehicle_type_id":"4","last_reported":1779208967,"current_range_meters":6400,"station_id":"ce4bha12rcd13ifvqee0","pricing_plan_id":"cebpf4jnsgd1na2vs0mg"},{"bike_id":"11e1dce5-4d1f-4c00-b7fc-608412660018","system_id":"levelo_inurba_marseille","lat":43.28927,"lon":5.38407,"is_reserved":false,"is_disabled":false,"rental_uris":{"android":"levelo://app?vid=11e1dce5-4d1f-4c00-b7fc-608412660018","ios":"levelo://app?vid=11e1dce5-4d1f-4c00-b7fc-608412660018"},"vehicle_type_id":"4","last_reported":1779208967,"current_range_meters":6800,"station_id":"ce4bh612rcd13ifvqe6g","pricing_plan_id":"cebpf4jnsgd1na2vs0mg"},{"bike_id":"604c8d35-0292-4781-b66d-7833a0f007ea","system_id":"levelo_inurba_marseille","lat":43.33538,"lon":5.37461,"is_reserved":false,"is_disabled":false,"rental_uris":{"android":"levelo://app?vid=604c8d35-0292-4781-b66d-7833a0f007ea","ios":"levelo://app?vid=604c8d35-0292-4781-b66d-7833a0f007ea"},"vehicle_type_id":"4","last_reported":1779208967,"current_range_meters":6800,"station_id":"st_d46tts09ee8s73dlu43g","pricing_plan_id":"cebpf4jnsgd1na2vs0mg"},{"bike_id":"b8ba93ad-5766-45fa-b4fd-2d70f2a2f24c","system_id":"levelo_inurba_marseille","lat":43.24172,"lon":5.39723,"is_reserved":false,"is_disabled":false,"rental_uris":{"android":"levelo://app?vid=b8ba93ad-5766-45fa-b4fd-2d70f2a2f24c","ios":"levelo://app?vid=b8ba93ad-5766-45fa-b4fd-2d70f2a2f24c"},"vehicle_type_id":"4","last_reported":1779208967,"current_range_meters":6800,"station_id":"ce4bhn12rcd13ifvqgpg","pricing_plan_id":"cebpf4jnsgd1na2vs0mg"},{"bike_id":"4a8fff30-cbc5-491d-8d3e-d22b568d1485","system_id":"levelo_inurba_marseille","lat":43.2646,"lon":5.37412,"is_reserved":false,"is_disabled":false,"rental_uris":{"android":"levelo://app?vid=4a8fff30-cbc5-491d-8d3e-d22b568d1485","ios":"levelo://app?vid=4a8fff30-cbc5-491d-8d3e-d22b568d1485"},"vehicle_type_id":"4","last_reported":1779208967,"current_range_meters":6800,"station_id":"","pricing_plan_id":"cebpf4jnsgd1na2vs0mg"},{"bike_id":"7c260c7d-d9ed-4ca3-9e2d-27bf132a1d6d","system_id":"levelo_inurba_marseille","lat":43.301559,"lon":5.38132,"is_reserved":false,"is_disabled":false,"rental_uris":{"android":"levelo://app?vid=7c260c7d-d9ed-4ca3-9e2d-27bf132a1d6d","ios":"levelo://app?vid=7c260c7d-d9ed-4ca3-9e2d-27bf132a1d6d"},"vehicle_type_id":"4","last_reported":1779208967,"current_range_meters":6800,"station_id":"ce4bgjp2rcd13ifvqbh0","pricing_plan_id":"cebpf4jnsgd1na2vs0mg"},{"bike_id":"e6a11dce-b475-400c-bb1b-c3b97e330203","system_id":"levelo_inurba_marseille","lat":43.28419,"lon":5.35001,"is_reserved":false,"is_disabled":false,"rental_uris":{"android":"levelo://app?vid=e6a11dce-b475-400c-bb1b-c3b97e330203","ios":"levelo://app?vid=e6a11dce-b475-400c-bb1b-c3b97e330203"},"vehicle_type_id":"4","last_reported":1779208967,"current_range_meters":6800,"station_id":"ce4bhbh2rcd13ifvqepg","pricing_plan_id":"cebpf4jnsgd1na2vs0mg"},{"bike_id":"69fb0f2e-8291-4305-b561-741ac11e259e","system_id":"levelo_inurba_marseille","lat":43.276186,"lon":5.361004,"is_reserved":false,"is_disabled":true,"rental_uris":{"android":"levelo://app?vid=69fb0f2e-8291-4305-b561-741ac11e259e","ios":"levelo://app?vid=69fb0f2e-8291-4305-b561-741ac11e259e"},"vehicle_type_id":"4","last_reported":1779208967,"current_range_meters":6800,"station_id":"ce4bgj92rcd13ifvqbe0","pricing_plan_id":"cebpf4jnsgd1na2vs0mg"},{"bike_id":"a57b6d8c-426e-41f2-88fd-ed699a7b5fab","system_id":"levelo_inurba_marseille","lat":43.3211,"lon":5.36773,"is_reserved":false,"is_disabled":false,"rental_uris":{"android":"levelo://app?vid=a57b6d8c-426e-41f2-88fd-ed699a7b5fab","ios":"levelo://app?vid=a57b6d8c-426e-41f2-88fd-ed699a7b5fab"},"vehicle_type_id":"4","last_reported":1779208967,"current_range_meters":6800,"station_id":"ce4bhrh2rcd13ifvqhug","pricing_plan_id":"cebpf4jnsgd1na2vs0mg"},{"bike_id":"0ab54c51-2cd5-429e-99a7-d9b354415bcb","system_id":"levelo_inurba_marseille","lat":43.31172,"lon":5.37897,"is_reserved":false,"is_disabled":false,"rental_uris":{"android":"levelo://app?vid=0ab54c51-2cd5-429e-99a7-d9b354415bcb","ios":"levelo://app?vid=0ab54c51-2cd5-429e-99a7-d9b354415bcb"},"vehicle_type_id":"4","last_reported":1779208967,"current_range_meters":6800,"station_id":"","pricing_plan_id":"cebpf4jnsgd1na2vs0mg"},{"bike_id":"d5507518-cb58-4fc3-a22b-de5ad3c6e51d","system_id":"levelo_inurba_marseille","lat":43.29809,"lon":5.44045,"is_reserved":false,"is_disabled":false,"rental_uris":{"android":"levelo://app?vid=d5507518-cb58-4fc3-a22b-de5ad3c6e51d","ios":"levelo://app?vid=d5507518-cb58-4fc3-a22b-de5ad3c6e51d"},"vehicle_type_id":"4","last_reported":1779208967,"current_range_meters":6800,"station_id":"st_d3jp68qikq2c7381ktn0","pricing_plan_id":"cebpf4jnsgd1na2vs0mg"},{"bike_id":"50befd14-96c3-48c5-b295-83a7bae5786e","system_id":"levelo_inurba_marseille","lat":43.26774,"lon":5.39417,"is_reserved":false,"is_disabled":false,"rental_uris":{"android":"levelo://app?vid=50befd14-96c3-48c5-b295-83a7bae5786e","ios":"levelo://app?vid=50befd14-96c3-48c5-b295-83a7bae5786e"},"vehicle_type_id":"4","last_reported":1779208967,"current_range_meters":6800,"station_id":"ce4bhh12rcd13ifvqfg0","pricing_plan_id":"cebpf4jnsgd1na2vs0mg"},{"bike_id":"5caed720-01a7-4e51-adb2-474bbb49745d","system_id":"levelo_inurba_marseille","lat":43.281521,"lon":5.426605,"is_reserved":false,"is_disabled":false,"rental_uris":{"android":"levelo://app?vid=5caed720-01a7-4e51-adb2-474bbb49745d","ios":"levelo://app?vid=5caed720-01a7-4e51-adb2-474bbb49745d"},"vehicle_type_id":"4","last_reported":1779208967,"current_range_meters":6800,"station_id":"ce4bhnh2rcd13ifvqgug","pricing_plan_id":"cebpf4jnsgd1na2vs0mg"},{"bike_id":"5b9c7a4f-0589-46e7-bcb8-d92a7849ff92","system_id":"levelo_inurba_marseille","lat":43.29577,"lon":5.37502,"is_reserved":false,"is_disabled":false,"rental_uris":{"android":"levelo://app?vid=5b9c7a4f-0589-46e7-bcb8-d92a7849ff92","ios":"levelo://app?vid=5b9c7a4f-0589-46e7-bcb8-d92a7849ff92"},"vehicle_type_id":"4","last_reported":1779208967,"current_range_meters":6800,"station_id":"ce4bgh92rcd13ifvqb50","pricing_plan_id":"cebpf4jnsgd1na2vs0mg"},{"bike_id":"de4007d0-a42e-4247-8084-032964ee52d0","system_id":"levelo_inurba_marseille","lat":43.26038,"lon":5.37548,"is_reserved":false,"is_disabled":false,"rental_uris":{"android":"levelo://app?vid=de4007d0-a42e-4247-8084-032964ee52d0","ios":"levelo://app?vid=de4007d0-a42e-4247-8084-032964ee52d0"},"vehicle_type_id":"4","last_reported":1779208967,"current_range_meters":6800,"station_id":"ce4bhgh2rcd13ifvqfa0","pricing_plan_id":"cebpf4jnsgd1na2vs0mg"},{"bike_id":"135c7add-6606-4442-b287-76ca2dc1a53f","system_id":"levelo_inurba_marseille","lat":43.31099,"lon":5.37785,"is_reserved":false,"is_disabled":false,"rental_uris":{"android":"levelo://app?vid=135c7add-6606-4442-b287-76ca2dc1a53f","ios":"levelo://app?vid=135c7add-6606-4442-b287-76ca2dc1a53f"},"vehicle_type_id":"4","last_reported":1779208967,"current_range_meters":6800,"station_id":"ce4bgt92rcd13ifvqcg0","pricing_plan_id":"cebpf4jnsgd1na2vs0mg"},{"bike_id":"8f4befa1-b1bd-48b9-88e1-78cf74c9d7fa","system_id":"levelo_inurba_marseille","lat":43.27475,"lon":5.38259,"is_reserved":false,"is_disabled":false,"rental_uris":{"android":"levelo://app?vid=8f4befa1-b1bd-48b9-88e1-78cf74c9d7fa","ios":"levelo://app?vid=8f4befa1-b1bd-48b9-88e1-78cf74c9d7fa"},"vehicle_type_id":"4","last_reported":1779208967,"current_range_meters":6800,"station_id":"","pricing_plan_id":"cebpf4jnsgd1na2vs0mg"},{"bike_id":"836a39fe-84c6-4c08-8b7b-c701c4452eab","system_id":"levelo_inurba_marseille","lat":43.22537,"lon":5.34825,"is_reserved":false,"is_disabled":false,"rental_uris":{"android":"levelo://app?vid=836a39fe-84c6-4c08-8b7b-c701c4452eab","ios":"levelo://app?vid=836a39fe-84c6-4c08-8b7b-c701c4452eab"},"vehicle_type_id":"4","last_reported":1779208967,"current_range_meters":6800,"station_id":"st_cvj5dfep6f1abm77gieg","pricing_plan_id":"cebpf4jnsgd1na2vs0mg"},{"bike_id":"f21d4cda-9be9-41cf-bc7a-defd7502dbb3","system_id":"levelo_inurba_marseille","lat":43.29049,"lon":5.37155,"is_reserved":false,"is_disabled":false,"rental_uris":{"android":"levelo://app?vid=f21d4cda-9be9-41cf-bc7a-defd7502dbb3","ios":"levelo://app?vid=f21d4cda-9be9-41cf-bc7a-defd7502dbb3"},"vehicle_type_id":"4","last_reported":1779208967,"current_range_meters":6800,"station_id":"ce4bh5p2rcd13ifvqe4g","pricing_plan_id":"cebpf4jnsgd1na2vs0mg"},{"bike_id":"17a58ec1-95d0-4a5e-947f-5381df52ba95","system_id":"levelo_inurba_marseille","lat":43.31585,"lon":5.40662,"is_reserved":false,"is_disabled":false,"rental_uris":{"android":"levelo://app?vid=17a58ec1-95d0-4a5e-947f-5381df52ba95","ios":"levelo://app?vid=17a58ec1-95d0-4a5e-947f-5381df52ba95"},"vehicle_type_id":"4","last_reported":1779208967,"current_range_meters":7200,"station_id":"","pricing_plan_id":"cebpf4jnsgd1na2vs0mg"},{"bike_id":"e8703d1e-38d7-4a37-8b34-74e110535cc7","system_id":"levelo_inurba_marseille","lat":43.25101,"lon":5.3949,"is_reserved":false,"is_disabled":false,"rental_uris":{"android":"levelo://app?vid=e8703d1e-38d7-4a37-8b34-74e110535cc7","ios":"levelo://app?vid=e8703d1e-38d7-4a37-8b34-74e110535cc7"},"vehicle_type_id":"4","last_reported":1779208967,"current_range_meters":7200,"station_id":"ce4bhm12rcd13ifvqgkg","pricing_plan_id":"cebpf4jnsgd1na2vs0mg"},{"bike_id":"342cc1b3-f89e-4947-a5fe-91fbe283d8b0","system_id":"levelo_inurba_marseille","lat":43.30588,"lon":5.39341,"is_reserved":false,"is_disabled":false,"rental_uris":{"android":"levelo://app?vid=342cc1b3-f89e-4947-a5fe-91fbe283d8b0","ios":"levelo://app?vid=342cc1b3-f89e-4947-a5fe-91fbe283d8b0"},"vehicle_type_id":"4","last_reported":1779208967,"current_range_meters":7200,"station_id":"ce4bh0p2rcd13ifvqd80","pricing_plan_id":"cebpf4jnsgd1na2vs0mg"},{"bike_id":"5e88aa5f-bb07-4f5b-9b5f-d200ac3123af","system_id":"levelo_inurba_marseille","lat":43.27379,"lon":5.36256,"is_reserved":false,"is_disabled":false,"rental_uris":{"android":"levelo://app?vid=5e88aa5f-bb07-4f5b-9b5f-d200ac3123af","ios":"levelo://app?vid=5e88aa5f-bb07-4f5b-9b5f-d200ac3123af"},"vehicle_type_id":"4","last_reported":1779208967,"current_range_meters":7200,"station_id":"ce4bhbh2rcd13ifvqeo0","pricing_plan_id":"cebpf4jnsgd1na2vs0mg"},{"bike_id":"631f5a0b-87cc-47ad-8b61-46a1163ec77e","system_id":"levelo_inurba_marseille","lat":43.25451,"lon":5.37669,"is_reserved":false,"is_disabled":false,"rental_uris":{"android":"levelo://app?vid=631f5a0b-87cc-47ad-8b61-46a1163ec77e","ios":"levelo://app?vid=631f5a0b-87cc-47ad-8b61-46a1163ec77e"},"vehicle_type_id":"4","last_reported":1779208967,"current_range_meters":7200,"station_id":"","pricing_plan_id":"cebpf4jnsgd1na2vs0mg"},{"bike_id":"8aa4042b-067b-4783-a174-79e2496089f3","system_id":"levelo_inurba_marseille","lat":43.28615,"lon":5.35098,"is_reserved":false,"is_disabled":false,"rental_uris":{"android":"levelo://app?vid=8aa4042b-067b-4783-a174-79e2496089f3","ios":"levelo://app?vid=8aa4042b-067b-4783-a174-79e2496089f3"},"vehicle_type_id":"4","last_reported":1779208967,"current_range_meters":7200,"station_id":"ce4bhch2rcd13ifvqeug","pricing_plan_id":"cebpf4jnsgd1na2vs0mg"},{"bike_id":"88e061d4-200e-450e-b7c2-b8c848567f43","system_id":"levelo_inurba_marseille","lat":43.24804,"lon":5.37444,"is_reserved":false,"is_disabled":false,"rental_uris":{"android":"levelo://app?vid=88e061d4-200e-450e-b7c2-b8c848567f43","ios":"levelo://app?vid=88e061d4-200e-450e-b7c2-b8c848567f43"},"vehicle_type_id":"4","last_reported":1779208967,"current_range_meters":7200,"station_id":"ce4bhgh2rcd13ifvqfb0","pricing_plan_id":"cebpf4jnsgd1na2vs0mg"},{"bike_id":"a8c1c2d5-b2c0-4d38-925b-e17fb3c6114c","system_id":"levelo_inurba_marseille","lat":43.29535,"lon":5.38539,"is_reserved":false,"is_disabled":false,"rental_uris":{"android":"levelo://app?vid=a8c1c2d5-b2c0-4d38-925b-e17fb3c6114c","ios":"levelo://app?vid=a8c1c2d5-b2c0-4d38-925b-e17fb3c6114c"},"vehicle_type_id":"4","last_reported":1779208967,"current_range_meters":7200,"station_id":"ce4bgih2rcd13ifvqba0","pricing_plan_id":"cebpf4jnsgd1na2vs0mg"},{"bike_id":"c833d4e9-9a79-4a78-92a9-1243c31bbc69","system_id":"levelo_inurba_marseille","lat":43.26231,"lon":5.3876,"is_reserved":false,"is_disabled":false,"rental_uris":{"android":"levelo://app?vid=c833d4e9-9a79-4a78-92a9-1243c31bbc69","ios":"levelo://app?vid=c833d4e9-9a79-4a78-92a9-1243c31bbc69"},"vehicle_type_id":"4","last_reported":1779208967,"current_range_meters":7200,"station_id":"","pricing_plan_id":"cebpf4jnsgd1na2vs0mg"},{"bike_id":"33f1022a-86ed-42b2-a2fa-b6b00d8323f5","system_id":"levelo_inurba_marseille","lat":43.3112,"lon":5.37764,"is_reserved":false,"is_disabled":false,"rental_uris":{"android":"levelo://app?vid=33f1022a-86ed-42b2-a2fa-b6b00d8323f5","ios":"levelo://app?vid=33f1022a-86ed-42b2-a2fa-b6b00d8323f5"},"vehicle_type_id":"4","last_reported":1779208967,"current_range_meters":7200,"station_id":"ce4bgt92rcd13ifvqcg0","pricing_plan_id":"cebpf4jnsgd1na2vs0mg"},{"bike_id":"0cef2f62-2f37-4719-9b47-eb52265df439","system_id":"levelo_inurba_marseille","lat":43.26564,"lon":5.40318,"is_reserved":false,"is_disabled":false,"rental_uris":{"android":"levelo://app?vid=0cef2f62-2f37-4719-9b47-eb52265df439","ios":"levelo://app?vid=0cef2f62-2f37-4719-9b47-eb52265df439"},"vehicle_type_id":"4","last_reported":1779208967,"current_range_meters":7200,"station_id":"ce4bhmp2rcd13ifvqgng","pricing_plan_id":"cebpf4jnsgd1na2vs0mg"},{"bike_id":"5316befc-b6bb-4df2-8c26-1fe76da62fde","system_id":"levelo_inurba_marseille","lat":43.25103,"lon":5.37942,"is_reserved":false,"is_disabled":false,"rental_uris":{"android":"levelo://app?vid=5316befc-b6bb-4df2-8c26-1fe76da62fde","ios":"levelo://app?vid=5316befc-b6bb-4df2-8c26-1fe76da62fde"},"vehicle_type_id":"4","last_reported":1779208967,"current_range_meters":7200,"station_id":"","pricing_plan_id":"cebpf4jnsgd1na2vs0mg"},{"bike_id":"e1edea3c-a9ec-4e1d-ae51-331278ede585","system_id":"levelo_inurba_marseille","lat":43.31029,"lon":5.39243,"is_reserved":false,"is_disabled":false,"rental_uris":{"android":"levelo://app?vid=e1edea3c-a9ec-4e1d-ae51-331278ede585","ios":"levelo://app?vid=e1edea3c-a9ec-4e1d-ae51-331278ede585"},"vehicle_type_id":"4","last_reported":1779208967,"current_range_meters":7200,"station_id":"","pricing_plan_id":"cebpf4jnsgd1na2vs0mg"},{"bike_id":"c982f197-5ae1-441d-9666-187b23fc3a07","system_id":"levelo_inurba_marseille","lat":43.28107,"lon":5.34993,"is_reserved":false,"is_disabled":false,"rental_uris":{"android":"levelo://app?vid=c982f197-5ae1-441d-9666-187b23fc3a07","ios":"levelo://app?vid=c982f197-5ae1-441d-9666-187b23fc3a07"},"vehicle_type_id":"4","last_reported":1779208967,"current_range_meters":7200,"station_id":"","pricing_plan_id":"cebpf4jnsgd1na2vs0mg"},{"bike_id":"9bb6addd-8537-4c5f-b967-e6691f668237","system_id":"levelo_inurba_marseille","lat":43.29316,"lon":5.37178,"is_reserved":false,"is_disabled":false,"rental_uris":{"android":"levelo://app?vid=9bb6addd-8537-4c5f-b967-e6691f668237","ios":"levelo://app?vid=9bb6addd-8537-4c5f-b967-e6691f668237"},"vehicle_type_id":"4","last_reported":1779208967,"current_range_meters":7200,"station_id":"ce4bgh92rcd13ifvqb40","pricing_plan_id":"cebpf4jnsgd1na2vs0mg"},{"bike_id":"40cdbae6-714d-4f35-95a9-676040c67aef","system_id":"levelo_inurba_marseille","lat":43.24003,"lon":5.41316,"is_reserved":false,"is_disabled":false,"rental_uris":{"android":"levelo://app?vid=40cdbae6-714d-4f35-95a9-676040c67aef","ios":"levelo://app?vid=40cdbae6-714d-4f35-95a9-676040c67aef"},"vehicle_type_id":"4","last_reported":1779208967,"current_range_meters":7200,"station_id":"","pricing_plan_id":"cebpf4jnsgd1na2vs0mg"},{"bike_id":"c823a123-0364-429d-8b7b-78c665e66c36","system_id":"levelo_inurba_marseille","lat":43.26223,"lon":5.40445,"is_reserved":false,"is_disabled":false,"rental_uris":{"android":"levelo://app?vid=c823a123-0364-429d-8b7b-78c665e66c36","ios":"levelo://app?vid=c823a123-0364-429d-8b7b-78c665e66c36"},"vehicle_type_id":"4","last_reported":1779208967,"current_range_meters":7200,"station_id":"ce4bhmh2rcd13ifvqgmg","pricing_plan_id":"cebpf4jnsgd1na2vs0mg"},{"bike_id":"b30becd5-ce58-4b4a-b883-b9ad38e89b5e","system_id":"levelo_inurba_marseille","lat":43.29563,"lon":5.39971,"is_reserved":false,"is_disabled":false,"rental_uris":{"android":"levelo://app?vid=b30becd5-ce58-4b4a-b883-b9ad38e89b5e","ios":"levelo://app?vid=b30becd5-ce58-4b4a-b883-b9ad38e89b5e"},"vehicle_type_id":"4","last_reported":1779208967,"current_range_meters":7200,"station_id":"ce4bh312rcd13ifvqdj0","pricing_plan_id":"cebpf4jnsgd1na2vs0mg"},{"bike_id":"7fc5f44b-ca10-4bcb-9007-c5eac6279cd8","system_id":"levelo_inurba_marseille","lat":43.29185,"lon":5.35803,"is_reserved":false,"is_disabled":false,"rental_uris":{"android":"levelo://app?vid=7fc5f44b-ca10-4bcb-9007-c5eac6279cd8","ios":"levelo://app?vid=7fc5f44b-ca10-4bcb-9007-c5eac6279cd8"},"vehicle_type_id":"4","last_reported":1779208967,"current_range_meters":7200,"station_id":"ce4bhb12rcd13ifvqel0","pricing_plan_id":"cebpf4jnsgd1na2vs0mg"},{"bike_id":"408701cc-3f2d-4c32-b20d-587f50ccde82","system_id":"levelo_inurba_marseille","lat":43.305578,"lon":5.367156,"is_reserved":false,"is_disabled":false,"rental_uris":{"android":"levelo://app?vid=408701cc-3f2d-4c32-b20d-587f50ccde82","ios":"levelo://app?vid=408701cc-3f2d-4c32-b20d-587f50ccde82"},"vehicle_type_id":"4","last_reported":1779208967,"current_range_meters":7200,"station_id":"","pricing_plan_id":"cebpf4jnsgd1na2vs0mg"},{"bike_id":"36cdc993-b8ba-47a2-a619-a1f39172f477","system_id":"levelo_inurba_marseille","lat":43.30322,"lon":5.40447,"is_reserved":false,"is_disabled":true,"rental_uris":{"android":"levelo://app?vid=36cdc993-b8ba-47a2-a619-a1f39172f477","ios":"levelo://app?vid=36cdc993-b8ba-47a2-a619-a1f39172f477"},"vehicle_type_id":"4","last_reported":1779208967,"current_range_meters":7200,"station_id":"ce4bh012rcd13ifvqd10","pricing_plan_id":"cebpf4jnsgd1na2vs0mg"},{"bike_id":"43cdbea8-df76-40e1-9a76-0694e77cf450","system_id":"levelo_inurba_marseille","lat":43.262,"lon":5.37935,"is_reserved":false,"is_disabled":false,"rental_uris":{"android":"levelo://app?vid=43cdbea8-df76-40e1-9a76-0694e77cf450","ios":"levelo://app?vid=43cdbea8-df76-40e1-9a76-0694e77cf450"},"vehicle_type_id":"4","last_reported":1779208967,"current_range_meters":8000,"station_id":"ce4bhjp2rcd13ifvqg90","pricing_plan_id":"cebpf4jnsgd1na2vs0mg"},{"bike_id":"877aff4a-39d3-4bc9-9fb1-f03230c32990","system_id":"levelo_inurba_marseille","lat":43.32101,"lon":5.36756,"is_reserved":false,"is_disabled":false,"rental_uris":{"android":"levelo://app?vid=877aff4a-39d3-4bc9-9fb1-f03230c32990","ios":"levelo://app?vid=877aff4a-39d3-4bc9-9fb1-f03230c32990"},"vehicle_type_id":"4","last_reported":1779208967,"current_range_meters":8000,"station_id":"ce4bhrh2rcd13ifvqhug","pricing_plan_id":"cebpf4jnsgd1na2vs0mg"},{"bike_id":"c46a8f8e-5bde-4459-b72a-15f7581d746a","system_id":"levelo_inurba_marseille","lat":43.27375,"lon":5.36243,"is_reserved":false,"is_disabled":false,"rental_uris":{"android":"levelo://app?vid=c46a8f8e-5bde-4459-b72a-15f7581d746a","ios":"levelo://app?vid=c46a8f8e-5bde-4459-b72a-15f7581d746a"},"vehicle_type_id":"4","last_reported":1779208967,"current_range_meters":8000,"station_id":"ce4bhbh2rcd13ifvqeo0","pricing_plan_id":"cebpf4jnsgd1na2vs0mg"},{"bike_id":"c4c56dca-3c1e-48c7-b5bd-d8adea2c4f5c","system_id":"levelo_inurba_marseille","lat":43.27073,"lon":5.42267,"is_reserved":false,"is_disabled":false,"rental_uris":{"android":"levelo://app?vid=c4c56dca-3c1e-48c7-b5bd-d8adea2c4f5c","ios":"levelo://app?vid=c4c56dca-3c1e-48c7-b5bd-d8adea2c4f5c"},"vehicle_type_id":"4","last_reported":1779208967,"current_range_meters":8000,"station_id":"ce4bhk92rcd13ifvqgb0","pricing_plan_id":"cebpf4jnsgd1na2vs0mg"},{"bike_id":"40e11415-186d-4a53-ac50-ac693db6945a","system_id":"levelo_inurba_marseille","lat":43.33492,"lon":5.3747,"is_reserved":false,"is_disabled":false,"rental_uris":{"android":"levelo://app?vid=40e11415-186d-4a53-ac50-ac693db6945a","ios":"levelo://app?vid=40e11415-186d-4a53-ac50-ac693db6945a"},"vehicle_type_id":"4","last_reported":1779208967,"current_range_meters":8000,"station_id":"","pricing_plan_id":"cebpf4jnsgd1na2vs0mg"},{"bike_id":"854da997-21ff-48c4-ae70-cc3a0937e1c9","system_id":"levelo_inurba_marseille","lat":43.33537,"lon":5.37453,"is_reserved":false,"is_disabled":false,"rental_uris":{"android":"levelo://app?vid=854da997-21ff-48c4-ae70-cc3a0937e1c9","ios":"levelo://app?vid=854da997-21ff-48c4-ae70-cc3a0937e1c9"},"vehicle_type_id":"4","last_reported":1779208967,"current_range_meters":8000,"station_id":"st_d46tts09ee8s73dlu43g","pricing_plan_id":"cebpf4jnsgd1na2vs0mg"},{"bike_id":"261f2914-f86b-4668-a408-95acc694e9f6","system_id":"levelo_inurba_marseille","lat":43.27064,"lon":5.42288,"is_reserved":false,"is_disabled":false,"rental_uris":{"android":"levelo://app?vid=261f2914-f86b-4668-a408-95acc694e9f6","ios":"levelo://app?vid=261f2914-f86b-4668-a408-95acc694e9f6"},"vehicle_type_id":"4","last_reported":1779208967,"current_range_meters":8000,"station_id":"ce4bhk92rcd13ifvqgb0","pricing_plan_id":"cebpf4jnsgd1na2vs0mg"},{"bike_id":"be279e26-ef16-4a74-801c-d498edd1e5ca","system_id":"levelo_inurba_marseille","lat":43.28664,"lon":5.38675,"is_reserved":false,"is_disabled":false,"rental_uris":{"android":"levelo://app?vid=be279e26-ef16-4a74-801c-d498edd1e5ca","ios":"levelo://app?vid=be279e26-ef16-4a74-801c-d498edd1e5ca"},"vehicle_type_id":"4","last_reported":1779208967,"current_range_meters":8000,"station_id":"ce4bh492rcd13ifvqdug","pricing_plan_id":"cebpf4jnsgd1na2vs0mg"},{"bike_id":"2fc526df-ac04-49fe-a5fb-4073acd90760","system_id":"levelo_inurba_marseille","lat":43.30298,"lon":5.39196,"is_reserved":false,"is_disabled":false,"rental_uris":{"android":"levelo://app?vid=2fc526df-ac04-49fe-a5fb-4073acd90760","ios":"levelo://app?vid=2fc526df-ac04-49fe-a5fb-4073acd90760"},"vehicle_type_id":"4","last_reported":1779208967,"current_range_meters":8000,"station_id":"ce4bgkh2rcd13ifvqbk0","pricing_plan_id":"cebpf4jnsgd1na2vs0mg"},{"bike_id":"c76ea632-de6c-4695-b0d0-00e073e315ff","system_id":"levelo_inurba_marseille","lat":43.25993,"lon":5.38772,"is_reserved":false,"is_disabled":false,"rental_uris":{"android":"levelo://app?vid=c76ea632-de6c-4695-b0d0-00e073e315ff","ios":"levelo://app?vid=c76ea632-de6c-4695-b0d0-00e073e315ff"},"vehicle_type_id":"4","last_reported":1779208967,"current_range_meters":8000,"station_id":"","pricing_plan_id":"cebpf4jnsgd1na2vs0mg"},{"bike_id":"a00c4f9f-9be0-427d-b71c-6e0cd3e178ff","system_id":"levelo_inurba_marseille","lat":43.3091,"lon":5.3685,"is_reserved":false,"is_disabled":false,"rental_uris":{"android":"levelo://app?vid=a00c4f9f-9be0-427d-b71c-6e0cd3e178ff","ios":"levelo://app?vid=a00c4f9f-9be0-427d-b71c-6e0cd3e178ff"},"vehicle_type_id":"4","last_reported":1779208967,"current_range_meters":8000,"station_id":"ce4bgn92rcd13ifvqbvg","pricing_plan_id":"cebpf4jnsgd1na2vs0mg"},{"bike_id":"f4ac26ba-6af2-4a73-af45-c735269cfee8","system_id":"levelo_inurba_marseille","lat":43.23203,"lon":5.39976,"is_reserved":false,"is_disabled":false,"rental_uris":{"android":"levelo://app?vid=f4ac26ba-6af2-4a73-af45-c735269cfee8","ios":"levelo://app?vid=f4ac26ba-6af2-4a73-af45-c735269cfee8"},"vehicle_type_id":"4","last_reported":1779208967,"current_range_meters":8000,"station_id":"ce4bhn12rcd13ifvqgqg","pricing_plan_id":"cebpf4jnsgd1na2vs0mg"},{"bike_id":"d9525da6-6c78-4497-89fa-1e23f5dd5d3d","system_id":"levelo_inurba_marseille","lat":43.29621,"lon":5.37172,"is_reserved":false,"is_disabled":false,"rental_uris":{"android":"levelo://app?vid=d9525da6-6c78-4497-89fa-1e23f5dd5d3d","ios":"levelo://app?vid=d9525da6-6c78-4497-89fa-1e23f5dd5d3d"},"vehicle_type_id":"4","last_reported":1779208967,"current_range_meters":8000,"station_id":"ce4bgnh2rcd13ifvqc0g","pricing_plan_id":"cebpf4jnsgd1na2vs0mg"},{"bike_id":"3b636412-1871-4a01-a46b-19502fa84501","system_id":"levelo_inurba_marseille","lat":43.31239,"lon":5.36766,"is_reserved":false,"is_disabled":false,"rental_uris":{"android":"levelo://app?vid=3b636412-1871-4a01-a46b-19502fa84501","ios":"levelo://app?vid=3b636412-1871-4a01-a46b-19502fa84501"},"vehicle_type_id":"4","last_reported":1779208967,"current_range_meters":8400,"station_id":"","pricing_plan_id":"cebpf4jnsgd1na2vs0mg"},{"bike_id":"7c7fb249-fc8e-4d79-a1ce-dd5b0f183060","system_id":"levelo_inurba_marseille","lat":43.29829,"lon":5.44059,"is_reserved":false,"is_disabled":false,"rental_uris":{"android":"levelo://app?vid=7c7fb249-fc8e-4d79-a1ce-dd5b0f183060","ios":"levelo://app?vid=7c7fb249-fc8e-4d79-a1ce-dd5b0f183060"},"vehicle_type_id":"4","last_reported":1779208967,"current_range_meters":8400,"station_id":"st_d3jp68qikq2c7381ktn0","pricing_plan_id":"cebpf4jnsgd1na2vs0mg"},{"bike_id":"3a9ece99-f920-4ff2-9649-9d9aa5039bd1","system_id":"levelo_inurba_marseille","lat":43.31046,"lon":5.37154,"is_reserved":false,"is_disabled":false,"rental_uris":{"android":"levelo://app?vid=3a9ece99-f920-4ff2-9649-9d9aa5039bd1","ios":"levelo://app?vid=3a9ece99-f920-4ff2-9649-9d9aa5039bd1"},"vehicle_type_id":"4","last_reported":1779208967,"current_range_meters":8400,"station_id":"st_d4kl2rp97mjs73e7tdfg","pricing_plan_id":"cebpf4jnsgd1na2vs0mg"},{"bike_id":"1d8a0de7-dee9-4c46-b0dc-9cb1beff9b47","system_id":"levelo_inurba_marseille","lat":43.28371,"lon":5.35011,"is_reserved":false,"is_disabled":false,"rental_uris":{"android":"levelo://app?vid=1d8a0de7-dee9-4c46-b0dc-9cb1beff9b47","ios":"levelo://app?vid=1d8a0de7-dee9-4c46-b0dc-9cb1beff9b47"},"vehicle_type_id":"4","last_reported":1779208967,"current_range_meters":8400,"station_id":"ce4bhbh2rcd13ifvqepg","pricing_plan_id":"cebpf4jnsgd1na2vs0mg"},{"bike_id":"3540b150-a89e-4830-82ca-85c0f2ea1f7e","system_id":"levelo_inurba_marseille","lat":43.26552,"lon":5.37291,"is_reserved":false,"is_disabled":false,"rental_uris":{"android":"levelo://app?vid=3540b150-a89e-4830-82ca-85c0f2ea1f7e","ios":"levelo://app?vid=3540b150-a89e-4830-82ca-85c0f2ea1f7e"},"vehicle_type_id":"4","last_reported":1779208967,"current_range_meters":8400,"station_id":"ce4bhg12rcd13ifvqf70","pricing_plan_id":"cebpf4jnsgd1na2vs0mg"},{"bike_id":"7bcabde5-50b3-49a1-bde7-ef4e983b7b93","system_id":"levelo_inurba_marseille","lat":43.23183,"lon":5.39994,"is_reserved":false,"is_disabled":false,"rental_uris":{"android":"levelo://app?vid=7bcabde5-50b3-49a1-bde7-ef4e983b7b93","ios":"levelo://app?vid=7bcabde5-50b3-49a1-bde7-ef4e983b7b93"},"vehicle_type_id":"4","last_reported":1779208967,"current_range_meters":8400,"station_id":"ce4bhn12rcd13ifvqgqg","pricing_plan_id":"cebpf4jnsgd1na2vs0mg"},{"bike_id":"6ac280d8-8e58-4d09-bca3-7a821afef3c3","system_id":"levelo_inurba_marseille","lat":43.30798,"lon":5.40013,"is_reserved":false,"is_disabled":false,"rental_uris":{"android":"levelo://app?vid=6ac280d8-8e58-4d09-bca3-7a821afef3c3","ios":"levelo://app?vid=6ac280d8-8e58-4d09-bca3-7a821afef3c3"},"vehicle_type_id":"4","last_reported":1779208967,"current_range_meters":8400,"station_id":"","pricing_plan_id":"cebpf4jnsgd1na2vs0mg"},{"bike_id":"3f42a6d9-721c-4045-81f8-56e377ee5c6e","system_id":"levelo_inurba_marseille","lat":43.26485,"lon":5.39542,"is_reserved":false,"is_disabled":true,"rental_uris":{"android":"levelo://app?vid=3f42a6d9-721c-4045-81f8-56e377ee5c6e","ios":"levelo://app?vid=3f42a6d9-721c-4045-81f8-56e377ee5c6e"},"vehicle_type_id":"4","last_reported":1779208967,"current_range_meters":8400,"station_id":"ce4bhi12rcd13ifvqfq0","pricing_plan_id":"cebpf4jnsgd1na2vs0mg"},{"bike_id":"7e7ec259-3fd2-4fbe-b458-bd088583a040","system_id":"levelo_inurba_marseille","lat":43.293011,"lon":5.374511,"is_reserved":false,"is_disabled":false,"rental_uris":{"android":"levelo://app?vid=7e7ec259-3fd2-4fbe-b458-bd088583a040","ios":"levelo://app?vid=7e7ec259-3fd2-4fbe-b458-bd088583a040"},"vehicle_type_id":"4","last_reported":1779208967,"current_range_meters":8400,"station_id":"ce4bgi12rcd13ifvqb70","pricing_plan_id":"cebpf4jnsgd1na2vs0mg"},{"bike_id":"75f75e9c-d7a2-4994-9350-8f55536b0afd","system_id":"levelo_inurba_marseille","lat":43.30971,"lon":5.43003,"is_reserved":false,"is_disabled":false,"rental_uris":{"android":"levelo://app?vid=75f75e9c-d7a2-4994-9350-8f55536b0afd","ios":"levelo://app?vid=75f75e9c-d7a2-4994-9350-8f55536b0afd"},"vehicle_type_id":"4","last_reported":1779208967,"current_range_meters":8400,"station_id":"","pricing_plan_id":"cebpf4jnsgd1na2vs0mg"},{"bike_id":"05711226-841e-40c9-8a37-adda3d642e2c","system_id":"levelo_inurba_marseille","lat":43.24997,"lon":5.38932,"is_reserved":false,"is_disabled":false,"rental_uris":{"android":"levelo://app?vid=05711226-841e-40c9-8a37-adda3d642e2c","ios":"levelo://app?vid=05711226-841e-40c9-8a37-adda3d642e2c"},"vehicle_type_id":"4","last_reported":1779208967,"current_range_meters":8400,"station_id":"ce4bhgp2rcd13ifvqfd0","pricing_plan_id":"cebpf4jnsgd1na2vs0mg"},{"bike_id":"3b1ecf0a-884a-4ff9-a498-ca42de57ac40","system_id":"levelo_inurba_marseille","lat":43.31364,"lon":5.38497,"is_reserved":false,"is_disabled":false,"rental_uris":{"android":"levelo://app?vid=3b1ecf0a-884a-4ff9-a498-ca42de57ac40","ios":"levelo://app?vid=3b1ecf0a-884a-4ff9-a498-ca42de57ac40"},"vehicle_type_id":"4","last_reported":1779208967,"current_range_meters":8400,"station_id":"ce4bgt92rcd13ifvqcf0","pricing_plan_id":"cebpf4jnsgd1na2vs0mg"},{"bike_id":"e1144498-243b-4f61-954e-ad892bc7e29b","system_id":"levelo_inurba_marseille","lat":43.29968,"lon":5.38495,"is_reserved":false,"is_disabled":false,"rental_uris":{"android":"levelo://app?vid=e1144498-243b-4f61-954e-ad892bc7e29b","ios":"levelo://app?vid=e1144498-243b-4f61-954e-ad892bc7e29b"},"vehicle_type_id":"4","last_reported":1779208967,"current_range_meters":8400,"station_id":"ce4bgj92rcd13ifvqbd0","pricing_plan_id":"cebpf4jnsgd1na2vs0mg"},{"bike_id":"86757656-84d4-4031-9462-a8279905f4b4","system_id":"levelo_inurba_marseille","lat":43.30767,"lon":5.37664,"is_reserved":false,"is_disabled":false,"rental_uris":{"android":"levelo://app?vid=86757656-84d4-4031-9462-a8279905f4b4","ios":"levelo://app?vid=86757656-84d4-4031-9462-a8279905f4b4"},"vehicle_type_id":"4","last_reported":1779208967,"current_range_meters":8400,"station_id":"ce4bgv92rcd13ifvqcq0","pricing_plan_id":"cebpf4jnsgd1na2vs0mg"},{"bike_id":"e3a6cb60-18c3-4fb6-b1e5-254d4433c095","system_id":"levelo_inurba_marseille","lat":43.29291,"lon":5.36857,"is_reserved":false,"is_disabled":false,"rental_uris":{"android":"levelo://app?vid=e3a6cb60-18c3-4fb6-b1e5-254d4433c095","ios":"levelo://app?vid=e3a6cb60-18c3-4fb6-b1e5-254d4433c095"},"vehicle_type_id":"4","last_reported":1779208967,"current_range_meters":8400,"station_id":"ce4bhbp2rcd13ifvqesg","pricing_plan_id":"cebpf4jnsgd1na2vs0mg"},{"bike_id":"d0414475-f7f7-4bba-b121-909709505179","system_id":"levelo_inurba_marseille","lat":43.2737,"lon":5.36265,"is_reserved":false,"is_disabled":false,"rental_uris":{"android":"levelo://app?vid=d0414475-f7f7-4bba-b121-909709505179","ios":"levelo://app?vid=d0414475-f7f7-4bba-b121-909709505179"},"vehicle_type_id":"4","last_reported":1779208967,"current_range_meters":8400,"station_id":"ce4bhbh2rcd13ifvqeo0","pricing_plan_id":"cebpf4jnsgd1na2vs0mg"},{"bike_id":"8b5af5ef-5501-457f-bf84-1c315a6fdf95","system_id":"levelo_inurba_marseille","lat":43.26904,"lon":5.40226,"is_reserved":false,"is_disabled":false,"rental_uris":{"android":"levelo://app?vid=8b5af5ef-5501-457f-bf84-1c315a6fdf95","ios":"levelo://app?vid=8b5af5ef-5501-457f-bf84-1c315a6fdf95"},"vehicle_type_id":"4","last_reported":1779208967,"current_range_meters":8400,"station_id":"","pricing_plan_id":"cebpf4jnsgd1na2vs0mg"},{"bike_id":"291bce7d-95a9-4f5c-a2d8-de5b55889c52","system_id":"levelo_inurba_marseille","lat":43.29223,"lon":5.37266,"is_reserved":false,"is_disabled":false,"rental_uris":{"android":"levelo://app?vid=291bce7d-95a9-4f5c-a2d8-de5b55889c52","ios":"levelo://app?vid=291bce7d-95a9-4f5c-a2d8-de5b55889c52"},"vehicle_type_id":"4","last_reported":1779208967,"current_range_meters":8400,"station_id":"","pricing_plan_id":"cebpf4jnsgd1na2vs0mg"},{"bike_id":"dafd9557-0a62-4b69-81e3-86ed2c2bdba0","system_id":"levelo_inurba_marseille","lat":43.29971,"lon":5.38487,"is_reserved":false,"is_disabled":false,"rental_uris":{"android":"levelo://app?vid=dafd9557-0a62-4b69-81e3-86ed2c2bdba0","ios":"levelo://app?vid=dafd9557-0a62-4b69-81e3-86ed2c2bdba0"},"vehicle_type_id":"4","last_reported":1779208967,"current_range_meters":8400,"station_id":"ce4bgj92rcd13ifvqbd0","pricing_plan_id":"cebpf4jnsgd1na2vs0mg"},{"bike_id":"b5225d9b-2e1e-4060-9ca2-c709e98a1ccf","system_id":"levelo_inurba_marseille","lat":43.31329,"lon":5.42393,"is_reserved":false,"is_disabled":false,"rental_uris":{"android":"levelo://app?vid=b5225d9b-2e1e-4060-9ca2-c709e98a1ccf","ios":"levelo://app?vid=b5225d9b-2e1e-4060-9ca2-c709e98a1ccf"},"vehicle_type_id":"4","last_reported":1779208967,"current_range_meters":8400,"station_id":"","pricing_plan_id":"cebpf4jnsgd1na2vs0mg"},{"bike_id":"e35ca50a-e252-4fec-af7a-48a17bebc951","system_id":"levelo_inurba_marseille","lat":43.295856,"lon":5.375158,"is_reserved":false,"is_disabled":false,"rental_uris":{"android":"levelo://app?vid=e35ca50a-e252-4fec-af7a-48a17bebc951","ios":"levelo://app?vid=e35ca50a-e252-4fec-af7a-48a17bebc951"},"vehicle_type_id":"4","last_reported":1779208967,"current_range_meters":8400,"station_id":"ce4bgh92rcd13ifvqb50","pricing_plan_id":"cebpf4jnsgd1na2vs0mg"},