{"last_updated":1770452308,"ttl":60,"version":"2.2","data":{"bikes":[{"bike_id":"e989d266-7267-4971-ae0e-e45be30fd297","system_id":"levelo_inurba_marseille","lat":43.28984,"lon":5.35609,"is_reserved":false,"is_disabled":false,"rental_uris":{"android":"levelo://app?vid=e989d266-7267-4971-ae0e-e45be30fd297","ios":"levelo://app?vid=e989d266-7267-4971-ae0e-e45be30fd297"},"vehicle_type_id":"4","last_reported":1770452309,"current_range_meters":2800,"station_id":"ce4bhb92rcd13ifvqen0","pricing_plan_id":"cebpf4jnsgd1na2vs0mg"},{"bike_id":"379685d2-9e90-4f9b-bb24-a80a4545550e","system_id":"levelo_inurba_marseille","lat":43.2982,"lon":5.44069,"is_reserved":false,"is_disabled":false,"rental_uris":{"android":"levelo://app?vid=379685d2-9e90-4f9b-bb24-a80a4545550e","ios":"levelo://app?vid=379685d2-9e90-4f9b-bb24-a80a4545550e"},"vehicle_type_id":"4","last_reported":1770452309,"current_range_meters":2800,"station_id":"st_d3jp68qikq2c7381ktn0","pricing_plan_id":"cebpf4jnsgd1na2vs0mg"},{"bike_id":"ea394ce4-561e-40c3-b5d8-13958e8a40d6","system_id":"levelo_inurba_marseille","lat":43.23189,"lon":5.35553,"is_reserved":false,"is_disabled":false,"rental_uris":{"android":"levelo://app?vid=ea394ce4-561e-40c3-b5d8-13958e8a40d6","ios":"levelo://app?vid=ea394ce4-561e-40c3-b5d8-13958e8a40d6"},"vehicle_type_id":"4","last_reported":1770452309,"current_range_meters":2800,"station_id":"ce4bhu92rcd13ifvqi70","pricing_plan_id":"cebpf4jnsgd1na2vs0mg"},{"bike_id":"0b676a0a-6e0c-44a8-81c9-ca3513a2b69c","system_id":"levelo_inurba_marseille","lat":43.24058,"lon":5.3781,"is_reserved":false,"is_disabled":false,"rental_uris":{"android":"levelo://app?vid=0b676a0a-6e0c-44a8-81c9-ca3513a2b69c","ios":"levelo://app?vid=0b676a0a-6e0c-44a8-81c9-ca3513a2b69c"},"vehicle_type_id":"4","last_reported":1770452309,"current_range_meters":2800,"station_id":"ce4bhnp2rcd13ifvqgvg","pricing_plan_id":"cebpf4jnsgd1na2vs0mg"},{"bike_id":"8a8b8e72-9951-490e-8aaa-3c1625d2978c","system_id":"levelo_inurba_marseille","lat":43.28414,"lon":5.35,"is_reserved":false,"is_disabled":false,"rental_uris":{"android":"levelo://app?vid=8a8b8e72-9951-490e-8aaa-3c1625d2978c","ios":"levelo://app?vid=8a8b8e72-9951-490e-8aaa-3c1625d2978c"},"vehicle_type_id":"4","last_reported":1770452309,"current_range_meters":2800,"station_id":"ce4bhbh2rcd13ifvqepg","pricing_plan_id":"cebpf4jnsgd1na2vs0mg"},{"bike_id":"1b65d151-6685-4209-808d-510780c822b2","system_id":"levelo_inurba_marseille","lat":43.286166,"lon":5.351063,"is_reserved":false,"is_disabled":false,"rental_uris":{"android":"levelo://app?vid=1b65d151-6685-4209-808d-510780c822b2","ios":"levelo://app?vid=1b65d151-6685-4209-808d-510780c822b2"},"vehicle_type_id":"4","last_reported":1770452309,"current_range_meters":2800,"station_id":"ce4bhch2rcd13ifvqeug","pricing_plan_id":"cebpf4jnsgd1na2vs0mg"},{"bike_id":"90cd76a0-f0c8-4656-96c3-d2c3284c85e6","system_id":"levelo_inurba_marseille","lat":43.28282,"lon":5.35052,"is_reserved":false,"is_disabled":false,"rental_uris":{"android":"levelo://app?vid=90cd76a0-f0c8-4656-96c3-d2c3284c85e6","ios":"levelo://app?vid=90cd76a0-f0c8-4656-96c3-d2c3284c85e6"},"vehicle_type_id":"4","last_reported":1770452309,"current_range_meters":2800,"station_id":"ce4bhbp2rcd13ifvqerg","pricing_plan_id":"cebpf4jnsgd1na2vs0mg"},{"bike_id":"36af6b9c-3b6f-432b-8541-51b5e2f4a92f","system_id":"levelo_inurba_marseille","lat":43.25006,"lon":5.38916,"is_reserved":false,"is_disabled":false,"rental_uris":{"android":"levelo://app?vid=36af6b9c-3b6f-432b-8541-51b5e2f4a92f","ios":"levelo://app?vid=36af6b9c-3b6f-432b-8541-51b5e2f4a92f"},"vehicle_type_id":"4","last_reported":1770452309,"current_range_meters":2800,"station_id":"ce4bhgp2rcd13ifvqfd0","pricing_plan_id":"cebpf4jnsgd1na2vs0mg"},{"bike_id":"13b86bfc-4362-4627-b7d5-2a9b75dd4714","system_id":"levelo_inurba_marseille","lat":43.25825,"lon":5.41053,"is_reserved":false,"is_disabled":false,"rental_uris":{"android":"levelo://app?vid=13b86bfc-4362-4627-b7d5-2a9b75dd4714","ios":"levelo://app?vid=13b86bfc-4362-4627-b7d5-2a9b75dd4714"},"vehicle_type_id":"4","last_reported":1770452309,"current_range_meters":2800,"station_id":"","pricing_plan_id":"cebpf4jnsgd1na2vs0mg"},{"bike_id":"2b358923-c030-4481-a0eb-830aa62ff249","system_id":"levelo_inurba_marseille","lat":43.27382,"lon":5.36249,"is_reserved":false,"is_disabled":false,"rental_uris":{"android":"levelo://app?vid=2b358923-c030-4481-a0eb-830aa62ff249","ios":"levelo://app?vid=2b358923-c030-4481-a0eb-830aa62ff249"},"vehicle_type_id":"4","last_reported":1770452309,"current_range_meters":2800,"station_id":"ce4bhbh2rcd13ifvqeo0","pricing_plan_id":"cebpf4jnsgd1na2vs0mg"},{"bike_id":"4799fb41-f2c4-44a4-b89c-e3683acbd724","system_id":"levelo_inurba_marseille","lat":43.25567,"lon":5.38266,"is_reserved":false,"is_disabled":true,"rental_uris":{"android":"levelo://app?vid=4799fb41-f2c4-44a4-b89c-e3683acbd724","ios":"levelo://app?vid=4799fb41-f2c4-44a4-b89c-e3683acbd724"},"vehicle_type_id":"4","last_reported":1770452309,"current_range_meters":2800,"station_id":"","pricing_plan_id":"cebpf4jnsgd1na2vs0mg"},{"bike_id":"6ea399dc-5917-4833-9a9c-0c6527aa49fe","system_id":"levelo_inurba_marseille","lat":43.28287,"lon":5.3507,"is_reserved":false,"is_disabled":false,"rental_uris":{"android":"levelo://app?vid=6ea399dc-5917-4833-9a9c-0c6527aa49fe","ios":"levelo://app?vid=6ea399dc-5917-4833-9a9c-0c6527aa49fe"},"vehicle_type_id":"4","last_reported":1770452309,"current_range_meters":2800,"station_id":"ce4bhbp2rcd13ifvqerg","pricing_plan_id":"cebpf4jnsgd1na2vs0mg"},{"bike_id":"375e9bcb-b945-4768-82d3-b05471dcf5fd","system_id":"levelo_inurba_marseille","lat":43.28917,"lon":5.46008,"is_reserved":false,"is_disabled":false,"rental_uris":{"android":"levelo://app?vid=375e9bcb-b945-4768-82d3-b05471dcf5fd","ios":"levelo://app?vid=375e9bcb-b945-4768-82d3-b05471dcf5fd"},"vehicle_type_id":"4","last_reported":1770452309,"current_range_meters":3200,"station_id":"","pricing_plan_id":"cebpf4jnsgd1na2vs0mg"},{"bike_id":"8b3683af-7da9-4ef2-b4f6-c3e28584ec58","system_id":"levelo_inurba_marseille","lat":43.2492,"lon":5.40508,"is_reserved":false,"is_disabled":false,"rental_uris":{"android":"levelo://app?vid=8b3683af-7da9-4ef2-b4f6-c3e28584ec58","ios":"levelo://app?vid=8b3683af-7da9-4ef2-b4f6-c3e28584ec58"},"vehicle_type_id":"4","last_reported":1770452309,"current_range_meters":3200,"station_id":"st_d2ngiaodas8pm72gd1h0","pricing_plan_id":"cebpf4jnsgd1na2vs0mg"},{"bike_id":"34c67446-cdbe-429a-9b46-6d8358f6a90f","system_id":"levelo_inurba_marseille","lat":43.30622,"lon":5.37216,"is_reserved":false,"is_disabled":true,"rental_uris":{"android":"levelo://app?vid=34c67446-cdbe-429a-9b46-6d8358f6a90f","ios":"levelo://app?vid=34c67446-cdbe-429a-9b46-6d8358f6a90f"},"vehicle_type_id":"4","last_reported":1770452309,"current_range_meters":3200,"station_id":"ce4bgqh2rcd13ifvqc4g","pricing_plan_id":"cebpf4jnsgd1na2vs0mg"},{"bike_id":"7f2cf31b-bee8-4ec3-bf91-98a412e4dab9","system_id":"levelo_inurba_marseille","lat":43.21744,"lon":5.34613,"is_reserved":false,"is_disabled":false,"rental_uris":{"android":"levelo://app?vid=7f2cf31b-bee8-4ec3-bf91-98a412e4dab9","ios":"levelo://app?vid=7f2cf31b-bee8-4ec3-bf91-98a412e4dab9"},"vehicle_type_id":"4","last_reported":1770452309,"current_range_meters":3200,"station_id":"st_cvj6r9ubvosntc0bgbag","pricing_plan_id":"cebpf4jnsgd1na2vs0mg"},{"bike_id":"90e59ac1-cd46-446b-b3a8-2b22481380d2","system_id":"levelo_inurba_marseille","lat":43.30887,"lon":5.37193,"is_reserved":false,"is_disabled":false,"rental_uris":{"android":"levelo://app?vid=90e59ac1-cd46-446b-b3a8-2b22481380d2","ios":"levelo://app?vid=90e59ac1-cd46-446b-b3a8-2b22481380d2"},"vehicle_type_id":"4","last_reported":1770452309,"current_range_meters":3200,"station_id":"ce4bguh2rcd13ifvqckg","pricing_plan_id":"cebpf4jnsgd1na2vs0mg"},{"bike_id":"09c36349-b12b-484c-ae19-34794876a083","system_id":"levelo_inurba_marseille","lat":43.31058,"lon":5.38375,"is_reserved":false,"is_disabled":false,"rental_uris":{"android":"levelo://app?vid=09c36349-b12b-484c-ae19-34794876a083","ios":"levelo://app?vid=09c36349-b12b-484c-ae19-34794876a083"},"vehicle_type_id":"4","last_reported":1770452309,"current_range_meters":3200,"station_id":"ce4bgv92rcd13ifvqcr0","pricing_plan_id":"cebpf4jnsgd1na2vs0mg"},{"bike_id":"ac551100-dc22-4913-9a52-4829a5f95f35","system_id":"levelo_inurba_marseille","lat":43.28626,"lon":5.39841,"is_reserved":false,"is_disabled":true,"rental_uris":{"android":"levelo://app?vid=ac551100-dc22-4913-9a52-4829a5f95f35","ios":"levelo://app?vid=ac551100-dc22-4913-9a52-4829a5f95f35"},"vehicle_type_id":"4","last_reported":1770452309,"current_range_meters":3200,"station_id":"st_d4a7ka997mjs738ck50g","pricing_plan_id":"cebpf4jnsgd1na2vs0mg"},{"bike_id":"ecccaf22-86bf-4338-ac15-062f5b87c3de","system_id":"levelo_inurba_marseille","lat":43.25932,"lon":5.40932,"is_reserved":false,"is_disabled":false,"rental_uris":{"android":"levelo://app?vid=ecccaf22-86bf-4338-ac15-062f5b87c3de","ios":"levelo://app?vid=ecccaf22-86bf-4338-ac15-062f5b87c3de"},"vehicle_type_id":"4","last_reported":1770452309,"current_range_meters":3200,"station_id":"ce4bhm92rcd13ifvqglg","pricing_plan_id":"cebpf4jnsgd1na2vs0mg"},{"bike_id":"15250344-db40-4db8-b0c9-19733389e808","system_id":"levelo_inurba_marseille","lat":43.273729,"lon":5.362521,"is_reserved":false,"is_disabled":false,"rental_uris":{"android":"levelo://app?vid=15250344-db40-4db8-b0c9-19733389e808","ios":"levelo://app?vid=15250344-db40-4db8-b0c9-19733389e808"},"vehicle_type_id":"4","last_reported":1770452309,"current_range_meters":3200,"station_id":"ce4bhbh2rcd13ifvqeo0","pricing_plan_id":"cebpf4jnsgd1na2vs0mg"},{"bike_id":"1ee57a45-680f-4564-95bc-be580402404e","system_id":"levelo_inurba_marseille","lat":43.28462,"lon":5.48409,"is_reserved":false,"is_disabled":false,"rental_uris":{"android":"levelo://app?vid=1ee57a45-680f-4564-95bc-be580402404e","ios":"levelo://app?vid=1ee57a45-680f-4564-95bc-be580402404e"},"vehicle_type_id":"4","last_reported":1770452309,"current_range_meters":3200,"station_id":"","pricing_plan_id":"cebpf4jnsgd1na2vs0mg"},{"bike_id":"b7237f14-9122-434b-bb34-3263c90505ee","system_id":"levelo_inurba_marseille","lat":43.30892,"lon":5.39631,"is_reserved":false,"is_disabled":false,"rental_uris":{"android":"levelo://app?vid=b7237f14-9122-434b-bb34-3263c90505ee","ios":"levelo://app?vid=b7237f14-9122-434b-bb34-3263c90505ee"},"vehicle_type_id":"4","last_reported":1770452309,"current_range_meters":3600,"station_id":"ce4bh012rcd13ifvqcv0","pricing_plan_id":"cebpf4jnsgd1na2vs0mg"},{"bike_id":"cdc8a053-60e0-4520-a31f-50daccbd26d6","system_id":"levelo_inurba_marseille","lat":43.269278,"lon":5.389236,"is_reserved":false,"is_disabled":false,"rental_uris":{"android":"levelo://app?vid=cdc8a053-60e0-4520-a31f-50daccbd26d6","ios":"levelo://app?vid=cdc8a053-60e0-4520-a31f-50daccbd26d6"},"vehicle_type_id":"4","last_reported":1770452309,"current_range_meters":3600,"station_id":"","pricing_plan_id":"cebpf4jnsgd1na2vs0mg"},{"bike_id":"f61af24e-f254-4230-bc98-792d8e93796c","system_id":"levelo_inurba_marseille","lat":43.30146,"lon":5.38083,"is_reserved":false,"is_disabled":false,"rental_uris":{"android":"levelo://app?vid=f61af24e-f254-4230-bc98-792d8e93796c","ios":"levelo://app?vid=f61af24e-f254-4230-bc98-792d8e93796c"},"vehicle_type_id":"4","last_reported":1770452309,"current_range_meters":3600,"station_id":"ce4bgjp2rcd13ifvqbh0","pricing_plan_id":"cebpf4jnsgd1na2vs0mg"},{"bike_id":"cc9c9ddc-f79b-44f4-bf31-1a981a4ee697","system_id":"levelo_inurba_marseille","lat":43.29604,"lon":5.38083,"is_reserved":false,"is_disabled":false,"rental_uris":{"android":"levelo://app?vid=cc9c9ddc-f79b-44f4-bf31-1a981a4ee697","ios":"levelo://app?vid=cc9c9ddc-f79b-44f4-bf31-1a981a4ee697"},"vehicle_type_id":"4","last_reported":1770452309,"current_range_meters":3600,"station_id":"ce4bgl12rcd13ifvqbo0","pricing_plan_id":"cebpf4jnsgd1na2vs0mg"},{"bike_id":"3b986d99-7b42-471f-993a-11fde28f3c51","system_id":"levelo_inurba_marseille","lat":43.225665,"lon":5.416255,"is_reserved":false,"is_disabled":false,"rental_uris":{"android":"levelo://app?vid=3b986d99-7b42-471f-993a-11fde28f3c51","ios":"levelo://app?vid=3b986d99-7b42-471f-993a-11fde28f3c51"},"vehicle_type_id":"4","last_reported":1770452309,"current_range_meters":3600,"station_id":"st_d2o4gvlbi1j2169b742g","pricing_plan_id":"cebpf4jnsgd1na2vs0mg"},{"bike_id":"915f9c25-c61f-4b88-865d-8a3a0dddf283","system_id":"levelo_inurba_marseille","lat":43.22925,"lon":5.35403,"is_reserved":false,"is_disabled":false,"rental_uris":{"android":"levelo://app?vid=915f9c25-c61f-4b88-865d-8a3a0dddf283","ios":"levelo://app?vid=915f9c25-c61f-4b88-865d-8a3a0dddf283"},"vehicle_type_id":"4","last_reported":1770452309,"current_range_meters":3600,"station_id":"cpo3532slgdg3j2ikp40","pricing_plan_id":"cebpf4jnsgd1na2vs0mg"},{"bike_id":"735c03e4-d6e6-49f6-81ba-72ebbef9fba5","system_id":"levelo_inurba_marseille","lat":43.25082,"lon":5.39521,"is_reserved":false,"is_disabled":false,"rental_uris":{"android":"levelo://app?vid=735c03e4-d6e6-49f6-81ba-72ebbef9fba5","ios":"levelo://app?vid=735c03e4-d6e6-49f6-81ba-72ebbef9fba5"},"vehicle_type_id":"4","last_reported":1770452309,"current_range_meters":3600,"station_id":"ce4bhm12rcd13ifvqgkg","pricing_plan_id":"cebpf4jnsgd1na2vs0mg"},{"bike_id":"b43882ef-b0b0-4033-9340-8811acfcc7f8","system_id":"levelo_inurba_marseille","lat":43.25106,"lon":5.40334,"is_reserved":false,"is_disabled":false,"rental_uris":{"android":"levelo://app?vid=b43882ef-b0b0-4033-9340-8811acfcc7f8","ios":"levelo://app?vid=b43882ef-b0b0-4033-9340-8811acfcc7f8"},"vehicle_type_id":"4","last_reported":1770452309,"current_range_meters":3600,"station_id":"ce4bhlh2rcd13ifvqgig","pricing_plan_id":"cebpf4jnsgd1na2vs0mg"},{"bike_id":"7ad5b625-433d-40d1-85a2-020d0fac3afe","system_id":"levelo_inurba_marseille","lat":43.29861,"lon":5.376009,"is_reserved":false,"is_disabled":false,"rental_uris":{"android":"levelo://app?vid=7ad5b625-433d-40d1-85a2-020d0fac3afe","ios":"levelo://app?vid=7ad5b625-433d-40d1-85a2-020d0fac3afe"},"vehicle_type_id":"4","last_reported":1770452309,"current_range_meters":4000,"station_id":"","pricing_plan_id":"cebpf4jnsgd1na2vs0mg"},{"bike_id":"b8d5c126-a49f-42bb-a06b-73e5424e7351","system_id":"levelo_inurba_marseille","lat":43.331575,"lon":5.376926,"is_reserved":false,"is_disabled":false,"rental_uris":{"android":"levelo://app?vid=b8d5c126-a49f-42bb-a06b-73e5424e7351","ios":"levelo://app?vid=b8d5c126-a49f-42bb-a06b-73e5424e7351"},"vehicle_type_id":"4","last_reported":1770452309,"current_range_meters":4000,"station_id":"st_d46cu089ee8s73dldbu0","pricing_plan_id":"cebpf4jnsgd1na2vs0mg"},{"bike_id":"1cb47e17-7cfa-41c6-bf34-3921961833ac","system_id":"levelo_inurba_marseille","lat":43.3059,"lon":5.37257,"is_reserved":false,"is_disabled":false,"rental_uris":{"android":"levelo://app?vid=1cb47e17-7cfa-41c6-bf34-3921961833ac","ios":"levelo://app?vid=1cb47e17-7cfa-41c6-bf34-3921961833ac"},"vehicle_type_id":"4","last_reported":1770452309,"current_range_meters":4000,"station_id":"ce4bgqh2rcd13ifvqc4g","pricing_plan_id":"cebpf4jnsgd1na2vs0mg"},{"bike_id":"4022598c-6605-421d-929f-d80b4ad79dcf","system_id":"levelo_inurba_marseille","lat":43.24689,"lon":5.38151,"is_reserved":false,"is_disabled":false,"rental_uris":{"android":"levelo://app?vid=4022598c-6605-421d-929f-d80b4ad79dcf","ios":"levelo://app?vid=4022598c-6605-421d-929f-d80b4ad79dcf"},"vehicle_type_id":"4","last_reported":1770452309,"current_range_meters":4000,"station_id":"ce4bhih2rcd13ifvqfr0","pricing_plan_id":"cebpf4jnsgd1na2vs0mg"},{"bike_id":"17e35f94-3fec-45dd-96a9-f18976bedc1b","system_id":"levelo_inurba_marseille","lat":43.27937,"lon":5.41046,"is_reserved":false,"is_disabled":false,"rental_uris":{"android":"levelo://app?vid=17e35f94-3fec-45dd-96a9-f18976bedc1b","ios":"levelo://app?vid=17e35f94-3fec-45dd-96a9-f18976bedc1b"},"vehicle_type_id":"4","last_reported":1770452309,"current_range_meters":4000,"station_id":"ce4bhnp2rcd13ifvqh0g","pricing_plan_id":"cebpf4jnsgd1na2vs0mg"},{"bike_id":"b7fc64ee-0a1a-4639-af60-46d03219d45f","system_id":"levelo_inurba_marseille","lat":43.23188,"lon":5.35585,"is_reserved":false,"is_disabled":false,"rental_uris":{"android":"levelo://app?vid=b7fc64ee-0a1a-4639-af60-46d03219d45f","ios":"levelo://app?vid=b7fc64ee-0a1a-4639-af60-46d03219d45f"},"vehicle_type_id":"4","last_reported":1770452309,"current_range_meters":4000,"station_id":"ce4bhu92rcd13ifvqi70","pricing_plan_id":"cebpf4jnsgd1na2vs0mg"},{"bike_id":"ee636c7d-2986-4fef-9f5d-04d810fd5aaa","system_id":"levelo_inurba_marseille","lat":43.30175,"lon":5.38893,"is_reserved":false,"is_disabled":false,"rental_uris":{"android":"levelo://app?vid=ee636c7d-2986-4fef-9f5d-04d810fd5aaa","ios":"levelo://app?vid=ee636c7d-2986-4fef-9f5d-04d810fd5aaa"},"vehicle_type_id":"4","last_reported":1770452309,"current_range_meters":4000,"station_id":"","pricing_plan_id":"cebpf4jnsgd1na2vs0mg"},{"bike_id":"b907033b-4874-4496-895b-a947297204e1","system_id":"levelo_inurba_marseille","lat":43.265656,"lon":5.40326,"is_reserved":false,"is_disabled":false,"rental_uris":{"android":"levelo://app?vid=b907033b-4874-4496-895b-a947297204e1","ios":"levelo://app?vid=b907033b-4874-4496-895b-a947297204e1"},"vehicle_type_id":"4","last_reported":1770452309,"current_range_meters":4400,"station_id":"ce4bhmp2rcd13ifvqgng","pricing_plan_id":"cebpf4jnsgd1na2vs0mg"},{"bike_id":"61436e93-43da-4835-bc64-04df73a8dae5","system_id":"levelo_inurba_marseille","lat":43.29036,"lon":5.37554,"is_reserved":false,"is_disabled":false,"rental_uris":{"android":"levelo://app?vid=61436e93-43da-4835-bc64-04df73a8dae5","ios":"levelo://app?vid=61436e93-43da-4835-bc64-04df73a8dae5"},"vehicle_type_id":"4","last_reported":1770452309,"current_range_meters":4400,"station_id":"ce4bh692rcd13ifvqe90","pricing_plan_id":"cebpf4jnsgd1na2vs0mg"},{"bike_id":"b2ac804b-cac7-4194-8954-f1558425fba6","system_id":"levelo_inurba_marseille","lat":43.2534,"lon":5.42173,"is_reserved":false,"is_disabled":false,"rental_uris":{"android":"levelo://app?vid=b2ac804b-cac7-4194-8954-f1558425fba6","ios":"levelo://app?vid=b2ac804b-cac7-4194-8954-f1558425fba6"},"vehicle_type_id":"4","last_reported":1770452309,"current_range_meters":4400,"station_id":"st_d2m65c5bi1j21697t3ng","pricing_plan_id":"cebpf4jnsgd1na2vs0mg"},{"bike_id":"da401355-f869-4435-b62d-3fc70f82f85a","system_id":"levelo_inurba_marseille","lat":43.309335,"lon":5.401398,"is_reserved":false,"is_disabled":false,"rental_uris":{"android":"levelo://app?vid=da401355-f869-4435-b62d-3fc70f82f85a","ios":"levelo://app?vid=da401355-f869-4435-b62d-3fc70f82f85a"},"vehicle_type_id":"4","last_reported":1770452309,"current_range_meters":4400,"station_id":"ce4bgvp2rcd13ifvqct0","pricing_plan_id":"cebpf4jnsgd1na2vs0mg"},{"bike_id":"8721eab4-250e-4dd7-aefb-23768f811635","system_id":"levelo_inurba_marseille","lat":43.27602,"lon":5.36128,"is_reserved":false,"is_disabled":false,"rental_uris":{"android":"levelo://app?vid=8721eab4-250e-4dd7-aefb-23768f811635","ios":"levelo://app?vid=8721eab4-250e-4dd7-aefb-23768f811635"},"vehicle_type_id":"4","last_reported":1770452309,"current_range_meters":4400,"station_id":"ce4bgj92rcd13ifvqbe0","pricing_plan_id":"cebpf4jnsgd1na2vs0mg"},{"bike_id":"b379c6b4-64e2-40e1-b6ab-05eaccf3a70a","system_id":"levelo_inurba_marseille","lat":43.30447,"lon":5.37913,"is_reserved":false,"is_disabled":true,"rental_uris":{"android":"levelo://app?vid=b379c6b4-64e2-40e1-b6ab-05eaccf3a70a","ios":"levelo://app?vid=b379c6b4-64e2-40e1-b6ab-05eaccf3a70a"},"vehicle_type_id":"4","last_reported":1770452309,"current_range_meters":4400,"station_id":"ce4bgup2rcd13ifvqcn0","pricing_plan_id":"cebpf4jnsgd1na2vs0mg"},{"bike_id":"731447a5-bd31-4208-aa2f-c0645944403a","system_id":"levelo_inurba_marseille","lat":43.24624,"lon":5.43157,"is_reserved":false,"is_disabled":false,"rental_uris":{"android":"levelo://app?vid=731447a5-bd31-4208-aa2f-c0645944403a","ios":"levelo://app?vid=731447a5-bd31-4208-aa2f-c0645944403a"},"vehicle_type_id":"4","last_reported":1770452309,"current_range_meters":4400,"station_id":"st_d2m6c4gdas8pm72e190g","pricing_plan_id":"cebpf4jnsgd1na2vs0mg"},{"bike_id":"2ccc7676-a70a-482f-9f2a-0f5fffee7c09","system_id":"levelo_inurba_marseille","lat":43.30931,"lon":5.40173,"is_reserved":false,"is_disabled":false,"rental_uris":{"android":"levelo://app?vid=2ccc7676-a70a-482f-9f2a-0f5fffee7c09","ios":"levelo://app?vid=2ccc7676-a70a-482f-9f2a-0f5fffee7c09"},"vehicle_type_id":"4","last_reported":1770452309,"current_range_meters":4400,"station_id":"ce4bgvp2rcd13ifvqct0","pricing_plan_id":"cebpf4jnsgd1na2vs0mg"},{"bike_id":"12cb73e1-605c-4eb4-a4e3-9cbb444b439d","system_id":"levelo_inurba_marseille","lat":43.28628,"lon":5.35089,"is_reserved":false,"is_disabled":false,"rental_uris":{"android":"levelo://app?vid=12cb73e1-605c-4eb4-a4e3-9cbb444b439d","ios":"levelo://app?vid=12cb73e1-605c-4eb4-a4e3-9cbb444b439d"},"vehicle_type_id":"4","last_reported":1770452309,"current_range_meters":4400,"station_id":"ce4bhch2rcd13ifvqeug","pricing_plan_id":"cebpf4jnsgd1na2vs0mg"},{"bike_id":"578e58a8-1e56-47a1-a322-e983c6778cb9","system_id":"levelo_inurba_marseille","lat":43.23807,"lon":5.36594,"is_reserved":false,"is_disabled":false,"rental_uris":{"android":"levelo://app?vid=578e58a8-1e56-47a1-a322-e983c6778cb9","ios":"levelo://app?vid=578e58a8-1e56-47a1-a322-e983c6778cb9"},"vehicle_type_id":"4","last_reported":1770452309,"current_range_meters":4800,"station_id":"st_d3nk18o9ro0c73en2l3g","pricing_plan_id":"cebpf4jnsgd1na2vs0mg"},{"bike_id":"73eb3885-3834-4037-8a82-fd0f44b21825","system_id":"levelo_inurba_marseille","lat":43.267891,"lon":5.394124,"is_reserved":false,"is_disabled":false,"rental_uris":{"android":"levelo://app?vid=73eb3885-3834-4037-8a82-fd0f44b21825","ios":"levelo://app?vid=73eb3885-3834-4037-8a82-fd0f44b21825"},"vehicle_type_id":"4","last_reported":1770452309,"current_range_meters":4800,"station_id":"","pricing_plan_id":"cebpf4jnsgd1na2vs0mg"},{"bike_id":"434d478f-a146-4dee-85b4-c5e9c2158366","system_id":"levelo_inurba_marseille","lat":43.28901,"lon":5.35817,"is_reserved":false,"is_disabled":false,"rental_uris":{"android":"levelo://app?vid=434d478f-a146-4dee-85b4-c5e9c2158366","ios":"levelo://app?vid=434d478f-a146-4dee-85b4-c5e9c2158366"},"vehicle_type_id":"4","last_reported":1770452309,"current_range_meters":4800,"station_id":"","pricing_plan_id":"cebpf4jnsgd1na2vs0mg"},{"bike_id":"f9c87a58-1217-4011-8c89-339eded14bd1","system_id":"levelo_inurba_marseille","lat":43.24642,"lon":5.38907,"is_reserved":false,"is_disabled":false,"rental_uris":{"android":"levelo://app?vid=f9c87a58-1217-4011-8c89-339eded14bd1","ios":"levelo://app?vid=f9c87a58-1217-4011-8c89-339eded14bd1"},"vehicle_type_id":"4","last_reported":1770452309,"current_range_meters":4800,"station_id":"ce4bhg12rcd13ifvqf60","pricing_plan_id":"cebpf4jnsgd1na2vs0mg"},{"bike_id":"eb6e9e71-2dac-4175-9343-75a9d9869bd5","system_id":"levelo_inurba_marseille","lat":43.24646,"lon":5.38909,"is_reserved":false,"is_disabled":false,"rental_uris":{"android":"levelo://app?vid=eb6e9e71-2dac-4175-9343-75a9d9869bd5","ios":"levelo://app?vid=eb6e9e71-2dac-4175-9343-75a9d9869bd5"},"vehicle_type_id":"4","last_reported":1770452309,"current_range_meters":4800,"station_id":"ce4bhg12rcd13ifvqf60","pricing_plan_id":"cebpf4jnsgd1na2vs0mg"},{"bike_id":"34b0e592-5a12-495a-a81b-b7a9e8350c09","system_id":"levelo_inurba_marseille","lat":43.28447,"lon":5.34976,"is_reserved":false,"is_disabled":false,"rental_uris":{"android":"levelo://app?vid=34b0e592-5a12-495a-a81b-b7a9e8350c09","ios":"levelo://app?vid=34b0e592-5a12-495a-a81b-b7a9e8350c09"},"vehicle_type_id":"4","last_reported":1770452309,"current_range_meters":4800,"station_id":"ce4bhbh2rcd13ifvqepg","pricing_plan_id":"cebpf4jnsgd1na2vs0mg"},{"bike_id":"05f87d83-24ff-447d-a611-6a5a7ced0ca3","system_id":"levelo_inurba_marseille","lat":43.28615,"lon":5.35122,"is_reserved":false,"is_disabled":false,"rental_uris":{"android":"levelo://app?vid=05f87d83-24ff-447d-a611-6a5a7ced0ca3","ios":"levelo://app?vid=05f87d83-24ff-447d-a611-6a5a7ced0ca3"},"vehicle_type_id":"4","last_reported":1770452309,"current_range_meters":4800,"station_id":"ce4bhch2rcd13ifvqeug","pricing_plan_id":"cebpf4jnsgd1na2vs0mg"},{"bike_id":"939c1ab1-f8dc-4b95-8650-370a3bbdfe83","system_id":"levelo_inurba_marseille","lat":43.23147,"lon":5.43715,"is_reserved":false,"is_disabled":false,"rental_uris":{"android":"levelo://app?vid=939c1ab1-f8dc-4b95-8650-370a3bbdfe83","ios":"levelo://app?vid=939c1ab1-f8dc-4b95-8650-370a3bbdfe83"},"vehicle_type_id":"4","last_reported":1770452309,"current_range_meters":4800,"station_id":"ce4bhmp2rcd13ifvqgog","pricing_plan_id":"cebpf4jnsgd1na2vs0mg"},{"bike_id":"142a21c2-9a29-466a-92f6-5ab3ecc5b60d","system_id":"levelo_inurba_marseille","lat":43.23776,"lon":5.36646,"is_reserved":false,"is_disabled":false,"rental_uris":{"android":"levelo://app?vid=142a21c2-9a29-466a-92f6-5ab3ecc5b60d","ios":"levelo://app?vid=142a21c2-9a29-466a-92f6-5ab3ecc5b60d"},"vehicle_type_id":"4","last_reported":1770452309,"current_range_meters":4800,"station_id":"st_d3nk18o9ro0c73en2l3g","pricing_plan_id":"cebpf4jnsgd1na2vs0mg"},{"bike_id":"c6782d87-e485-4a2c-b62b-9a52105fb0ef","system_id":"levelo_inurba_marseille","lat":43.24989,"lon":5.38931,"is_reserved":false,"is_disabled":false,"rental_uris":{"android":"levelo://app?vid=c6782d87-e485-4a2c-b62b-9a52105fb0ef","ios":"levelo://app?vid=c6782d87-e485-4a2c-b62b-9a52105fb0ef"},"vehicle_type_id":"4","last_reported":1770452309,"current_range_meters":4800,"station_id":"ce4bhgp2rcd13ifvqfd0","pricing_plan_id":"cebpf4jnsgd1na2vs0mg"},{"bike_id":"8ed86ab5-e135-4587-97b0-19e47bc6d1fa","system_id":"levelo_inurba_marseille","lat":43.28685,"lon":5.37427,"is_reserved":false,"is_disabled":false,"rental_uris":{"android":"levelo://app?vid=8ed86ab5-e135-4587-97b0-19e47bc6d1fa","ios":"levelo://app?vid=8ed86ab5-e135-4587-97b0-19e47bc6d1fa"},"vehicle_type_id":"4","last_reported":1770452309,"current_range_meters":4800,"station_id":"ce4bh3p2rcd13ifvqdq0","pricing_plan_id":"cebpf4jnsgd1na2vs0mg"},{"bike_id":"28038112-793b-4a40-88c6-af51aa30dc6d","system_id":"levelo_inurba_marseille","lat":43.23207,"lon":5.35538,"is_reserved":false,"is_disabled":false,"rental_uris":{"android":"levelo://app?vid=28038112-793b-4a40-88c6-af51aa30dc6d","ios":"levelo://app?vid=28038112-793b-4a40-88c6-af51aa30dc6d"},"vehicle_type_id":"4","last_reported":1770452309,"current_range_meters":4800,"station_id":"ce4bhu92rcd13ifvqi70","pricing_plan_id":"cebpf4jnsgd1na2vs0mg"},{"bike_id":"d017136c-80c2-4c84-a89f-f86584452e87","system_id":"levelo_inurba_marseille","lat":43.27322,"lon":5.39064,"is_reserved":false,"is_disabled":false,"rental_uris":{"android":"levelo://app?vid=d017136c-80c2-4c84-a89f-f86584452e87","ios":"levelo://app?vid=d017136c-80c2-4c84-a89f-f86584452e87"},"vehicle_type_id":"4","last_reported":1770452309,"current_range_meters":4800,"station_id":"ce4bhgp2rcd13ifvqfe0","pricing_plan_id":"cebpf4jnsgd1na2vs0mg"},{"bike_id":"37e9c795-f53b-47bd-8c9b-e2c251d59572","system_id":"levelo_inurba_marseille","lat":43.26166,"lon":5.37497,"is_reserved":false,"is_disabled":false,"rental_uris":{"android":"levelo://app?vid=37e9c795-f53b-47bd-8c9b-e2c251d59572","ios":"levelo://app?vid=37e9c795-f53b-47bd-8c9b-e2c251d59572"},"vehicle_type_id":"4","last_reported":1770452309,"current_range_meters":4800,"station_id":"ce4bhgp2rcd13ifvqfc0","pricing_plan_id":"cebpf4jnsgd1na2vs0mg"},{"bike_id":"36bac8f2-737f-4d23-9ff4-7678e5142d66","system_id":"levelo_inurba_marseille","lat":43.25515,"lon":5.37626,"is_reserved":false,"is_disabled":false,"rental_uris":{"android":"levelo://app?vid=36bac8f2-737f-4d23-9ff4-7678e5142d66","ios":"levelo://app?vid=36bac8f2-737f-4d23-9ff4-7678e5142d66"},"vehicle_type_id":"4","last_reported":1770452309,"current_range_meters":4800,"station_id":"ce4bhh12rcd13ifvqff0","pricing_plan_id":"cebpf4jnsgd1na2vs0mg"},{"bike_id":"9bbf73bf-c2e6-40db-a121-95df1035d4fa","system_id":"levelo_inurba_marseille","lat":43.28939,"lon":5.39627,"is_reserved":false,"is_disabled":false,"rental_uris":{"android":"levelo://app?vid=9bbf73bf-c2e6-40db-a121-95df1035d4fa","ios":"levelo://app?vid=9bbf73bf-c2e6-40db-a121-95df1035d4fa"},"vehicle_type_id":"4","last_reported":1770452309,"current_range_meters":4800,"station_id":"ce4bh3h2rcd13ifvqdn0","pricing_plan_id":"cebpf4jnsgd1na2vs0mg"},{"bike_id":"3ae8c978-dfc7-4163-bacd-644d9f461cc3","system_id":"levelo_inurba_marseille","lat":43.24819,"lon":5.3746,"is_reserved":false,"is_disabled":false,"rental_uris":{"android":"levelo://app?vid=3ae8c978-dfc7-4163-bacd-644d9f461cc3","ios":"levelo://app?vid=3ae8c978-dfc7-4163-bacd-644d9f461cc3"},"vehicle_type_id":"4","last_reported":1770452309,"current_range_meters":4800,"station_id":"ce4bhgh2rcd13ifvqfb0","pricing_plan_id":"cebpf4jnsgd1na2vs0mg"},{"bike_id":"58b75f9a-9109-4ad4-bff3-1796073efe92","system_id":"levelo_inurba_marseille","lat":43.24381,"lon":5.37075,"is_reserved":false,"is_disabled":false,"rental_uris":{"android":"levelo://app?vid=58b75f9a-9109-4ad4-bff3-1796073efe92","ios":"levelo://app?vid=58b75f9a-9109-4ad4-bff3-1796073efe92"},"vehicle_type_id":"4","last_reported":1770452309,"current_range_meters":5600,"station_id":"ce4bhhh2rcd13ifvqfk0","pricing_plan_id":"cebpf4jnsgd1na2vs0mg"},{"bike_id":"5e9d7b89-ee8f-42bc-87df-a5a05a1d1db8","system_id":"levelo_inurba_marseille","lat":43.242579,"lon":5.396764,"is_reserved":false,"is_disabled":false,"rental_uris":{"android":"levelo://app?vid=5e9d7b89-ee8f-42bc-87df-a5a05a1d1db8","ios":"levelo://app?vid=5e9d7b89-ee8f-42bc-87df-a5a05a1d1db8"},"vehicle_type_id":"4","last_reported":1770452309,"current_range_meters":5600,"station_id":"","pricing_plan_id":"cebpf4jnsgd1na2vs0mg"},{"bike_id":"c4b19063-7b56-4a61-bf60-fb51f8257945","system_id":"levelo_inurba_marseille","lat":43.25793,"lon":5.39465,"is_reserved":false,"is_disabled":false,"rental_uris":{"android":"levelo://app?vid=c4b19063-7b56-4a61-bf60-fb51f8257945","ios":"levelo://app?vid=c4b19063-7b56-4a61-bf60-fb51f8257945"},"vehicle_type_id":"4","last_reported":1770452309,"current_range_meters":5600,"station_id":"ce4bhip2rcd13ifvqft0","pricing_plan_id":"cebpf4jnsgd1na2vs0mg"},{"bike_id":"3b7d0519-a2b7-40bb-adfd-1d6adfc5748e","system_id":"levelo_inurba_marseille","lat":43.32552,"lon":5.41431,"is_reserved":false,"is_disabled":false,"rental_uris":{"android":"levelo://app?vid=3b7d0519-a2b7-40bb-adfd-1d6adfc5748e","ios":"levelo://app?vid=3b7d0519-a2b7-40bb-adfd-1d6adfc5748e"},"vehicle_type_id":"4","last_reported":1770452309,"current_range_meters":5600,"station_id":"ce4bhq12rcd13ifvqhhg","pricing_plan_id":"cebpf4jnsgd1na2vs0mg"},{"bike_id":"675ec433-caf3-4517-83f9-75769cd57605","system_id":"levelo_inurba_marseille","lat":43.3208,"lon":5.36831,"is_reserved":false,"is_disabled":false,"rental_uris":{"android":"levelo://app?vid=675ec433-caf3-4517-83f9-75769cd57605","ios":"levelo://app?vid=675ec433-caf3-4517-83f9-75769cd57605"},"vehicle_type_id":"4","last_reported":1770452309,"current_range_meters":5600,"station_id":"ce4bhrh2rcd13ifvqhug","pricing_plan_id":"cebpf4jnsgd1na2vs0mg"},{"bike_id":"7ed869a9-c02a-409e-b360-f50c11bb8b2f","system_id":"levelo_inurba_marseille","lat":43.28261,"lon":5.3509,"is_reserved":false,"is_disabled":false,"rental_uris":{"android":"levelo://app?vid=7ed869a9-c02a-409e-b360-f50c11bb8b2f","ios":"levelo://app?vid=7ed869a9-c02a-409e-b360-f50c11bb8b2f"},"vehicle_type_id":"4","last_reported":1770452309,"current_range_meters":5600,"station_id":"ce4bhbp2rcd13ifvqerg","pricing_plan_id":"cebpf4jnsgd1na2vs0mg"},{"bike_id":"98b89a63-b3c9-4748-8f93-0ccb5ab9560d","system_id":"levelo_inurba_marseille","lat":43.26556,"lon":5.37266,"is_reserved":false,"is_disabled":false,"rental_uris":{"android":"levelo://app?vid=98b89a63-b3c9-4748-8f93-0ccb5ab9560d","ios":"levelo://app?vid=98b89a63-b3c9-4748-8f93-0ccb5ab9560d"},"vehicle_type_id":"4","last_reported":1770452309,"current_range_meters":5600,"station_id":"ce4bhg12rcd13ifvqf70","pricing_plan_id":"cebpf4jnsgd1na2vs0mg"},{"bike_id":"f086e6a6-7f96-42e4-96de-367ff3edfb33","system_id":"levelo_inurba_marseille","lat":43.25563,"lon":5.38265,"is_reserved":false,"is_disabled":false,"rental_uris":{"android":"levelo://app?vid=f086e6a6-7f96-42e4-96de-367ff3edfb33","ios":"levelo://app?vid=f086e6a6-7f96-42e4-96de-367ff3edfb33"},"vehicle_type_id":"4","last_reported":1770452309,"current_range_meters":5600,"station_id":"ce4bhih2rcd13ifvqfs0","pricing_plan_id":"cebpf4jnsgd1na2vs0mg"},{"bike_id":"f0d45e46-9d23-4329-92a4-e4ddc618e990","system_id":"levelo_inurba_marseille","lat":43.22925,"lon":5.35378,"is_reserved":false,"is_disabled":false,"rental_uris":{"android":"levelo://app?vid=f0d45e46-9d23-4329-92a4-e4ddc618e990","ios":"levelo://app?vid=f0d45e46-9d23-4329-92a4-e4ddc618e990"},"vehicle_type_id":"4","last_reported":1770452309,"current_range_meters":5600,"station_id":"cpo3532slgdg3j2ikp40","pricing_plan_id":"cebpf4jnsgd1na2vs0mg"},{"bike_id":"bd830301-856a-4947-bbd9-0c9aae46f8c5","system_id":"levelo_inurba_marseille","lat":43.28844,"lon":5.42546,"is_reserved":false,"is_disabled":false,"rental_uris":{"android":"levelo://app?vid=bd830301-856a-4947-bbd9-0c9aae46f8c5","ios":"levelo://app?vid=bd830301-856a-4947-bbd9-0c9aae46f8c5"},"vehicle_type_id":"4","last_reported":1770452309,"current_range_meters":5600,"station_id":"st_d3b462108ojc7389ooeg","pricing_plan_id":"cebpf4jnsgd1na2vs0mg"},{"bike_id":"38d90236-aaad-4193-a1f2-00a5459624e4","system_id":"levelo_inurba_marseille","lat":43.31162,"lon":5.38719,"is_reserved":false,"is_disabled":false,"rental_uris":{"android":"levelo://app?vid=38d90236-aaad-4193-a1f2-00a5459624e4","ios":"levelo://app?vid=38d90236-aaad-4193-a1f2-00a5459624e4"},"vehicle_type_id":"4","last_reported":1770452309,"current_range_meters":5600,"station_id":"ce4bgv12rcd13ifvqcp0","pricing_plan_id":"cebpf4jnsgd1na2vs0mg"},{"bike_id":"f6535782-7058-41c0-acc7-a82d8080296b","system_id":"levelo_inurba_marseille","lat":43.28534,"lon":5.44097,"is_reserved":false,"is_disabled":false,"rental_uris":{"android":"levelo://app?vid=f6535782-7058-41c0-acc7-a82d8080296b","ios":"levelo://app?vid=f6535782-7058-41c0-acc7-a82d8080296b"},"vehicle_type_id":"4","last_reported":1770452309,"current_range_meters":5600,"station_id":"st_d3j3df2ikq2c7380ej80","pricing_plan_id":"cebpf4jnsgd1na2vs0mg"},{"bike_id":"3b0243a7-d2ce-4bc6-9d86-9216cc3b3554","system_id":"levelo_inurba_marseille","lat":43.24804,"lon":5.37453,"is_reserved":false,"is_disabled":false,"rental_uris":{"android":"levelo://app?vid=3b0243a7-d2ce-4bc6-9d86-9216cc3b3554","ios":"levelo://app?vid=3b0243a7-d2ce-4bc6-9d86-9216cc3b3554"},"vehicle_type_id":"4","last_reported":1770452309,"current_range_meters":5600,"station_id":"ce4bhgh2rcd13ifvqfb0","pricing_plan_id":"cebpf4jnsgd1na2vs0mg"},{"bike_id":"1daee1c6-4e06-4893-a5fb-9fa93e1e78f3","system_id":"levelo_inurba_marseille","lat":43.30468,"lon":5.37914,"is_reserved":false,"is_disabled":false,"rental_uris":{"android":"levelo://app?vid=1daee1c6-4e06-4893-a5fb-9fa93e1e78f3","ios":"levelo://app?vid=1daee1c6-4e06-4893-a5fb-9fa93e1e78f3"},"vehicle_type_id":"4","last_reported":1770452309,"current_range_meters":5600,"station_id":"ce4bgup2rcd13ifvqcn0","pricing_plan_id":"cebpf4jnsgd1na2vs0mg"},{"bike_id":"29554745-e0e5-4276-b587-71d331cae345","system_id":"levelo_inurba_marseille","lat":43.29531,"lon":5.3905,"is_reserved":false,"is_disabled":true,"rental_uris":{"android":"levelo://app?vid=29554745-e0e5-4276-b587-71d331cae345","ios":"levelo://app?vid=29554745-e0e5-4276-b587-71d331cae345"},"vehicle_type_id":"4","last_reported":1770452309,"current_range_meters":5600,"station_id":"ce4bh3p2rcd13ifvqdp0","pricing_plan_id":"cebpf4jnsgd1na2vs0mg"},{"bike_id":"071937d3-6d39-428f-88a6-e135b0e61119","system_id":"levelo_inurba_marseille","lat":43.31031,"lon":5.37192,"is_reserved":false,"is_disabled":false,"rental_uris":{"android":"levelo://app?vid=071937d3-6d39-428f-88a6-e135b0e61119","ios":"levelo://app?vid=071937d3-6d39-428f-88a6-e135b0e61119"},"vehicle_type_id":"4","last_reported":1770452309,"current_range_meters":6000,"station_id":"st_d4kl2rp97mjs73e7tdfg","pricing_plan_id":"cebpf4jnsgd1na2vs0mg"},{"bike_id":"d13cc862-d1fc-41d4-be4b-efb44f920c08","system_id":"levelo_inurba_marseille","lat":43.30991,"lon":5.390655,"is_reserved":false,"is_disabled":true,"rental_uris":{"android":"levelo://app?vid=d13cc862-d1fc-41d4-be4b-efb44f920c08","ios":"levelo://app?vid=d13cc862-d1fc-41d4-be4b-efb44f920c08"},"vehicle_type_id":"4","last_reported":1770452309,"current_range_meters":6000,"station_id":"","pricing_plan_id":"cebpf4jnsgd1na2vs0mg"},{"bike_id":"c6e25874-c646-4223-9fb1-4a2c71cb2059","system_id":"levelo_inurba_marseille","lat":43.31227,"lon":5.36848,"is_reserved":false,"is_disabled":false,"rental_uris":{"android":"levelo://app?vid=c6e25874-c646-4223-9fb1-4a2c71cb2059","ios":"levelo://app?vid=c6e25874-c646-4223-9fb1-4a2c71cb2059"},"vehicle_type_id":"4","last_reported":1770452309,"current_range_meters":6000,"station_id":"ce4bgl92rcd13ifvqbq0","pricing_plan_id":"cebpf4jnsgd1na2vs0mg"},{"bike_id":"5a35dbc2-e52e-4f75-b31d-527577f2107a","system_id":"levelo_inurba_marseille","lat":43.28271,"lon":5.35075,"is_reserved":false,"is_disabled":false,"rental_uris":{"android":"levelo://app?vid=5a35dbc2-e52e-4f75-b31d-527577f2107a","ios":"levelo://app?vid=5a35dbc2-e52e-4f75-b31d-527577f2107a"},"vehicle_type_id":"4","last_reported":1770452309,"current_range_meters":6000,"station_id":"ce4bhbp2rcd13ifvqerg","pricing_plan_id":"cebpf4jnsgd1na2vs0mg"},{"bike_id":"9f158661-abc5-41a6-ab15-00f3c0cc6530","system_id":"levelo_inurba_marseille","lat":43.28418,"lon":5.360853,"is_reserved":false,"is_disabled":false,"rental_uris":{"android":"levelo://app?vid=9f158661-abc5-41a6-ab15-00f3c0cc6530","ios":"levelo://app?vid=9f158661-abc5-41a6-ab15-00f3c0cc6530"},"vehicle_type_id":"4","last_reported":1770452309,"current_range_meters":6000,"station_id":"","pricing_plan_id":"cebpf4jnsgd1na2vs0mg"},{"bike_id":"fd465ef1-b6f1-4874-a61f-73b6e3e3e378","system_id":"levelo_inurba_marseille","lat":43.29038,"lon":5.39967,"is_reserved":false,"is_disabled":false,"rental_uris":{"android":"levelo://app?vid=fd465ef1-b6f1-4874-a61f-73b6e3e3e378","ios":"levelo://app?vid=fd465ef1-b6f1-4874-a61f-73b6e3e3e378"},"vehicle_type_id":"4","last_reported":1770452309,"current_range_meters":6000,"station_id":"ce4bh392rcd13ifvqdm0","pricing_plan_id":"cebpf4jnsgd1na2vs0mg"},{"bike_id":"a5faf7a6-7f2f-419a-b628-e8f939b70083","system_id":"levelo_inurba_marseille","lat":43.28528,"lon":5.44113,"is_reserved":false,"is_disabled":false,"rental_uris":{"android":"levelo://app?vid=a5faf7a6-7f2f-419a-b628-e8f939b70083","ios":"levelo://app?vid=a5faf7a6-7f2f-419a-b628-e8f939b70083"},"vehicle_type_id":"4","last_reported":1770452309,"current_range_meters":6000,"station_id":"st_d3j3df2ikq2c7380ej80","pricing_plan_id":"cebpf4jnsgd1na2vs0mg"},{"bike_id":"8557b93f-99ee-4ff8-8cf9-3d65eb84928d","system_id":"levelo_inurba_marseille","lat":43.28716,"lon":5.37383,"is_reserved":false,"is_disabled":false,"rental_uris":{"android":"levelo://app?vid=8557b93f-99ee-4ff8-8cf9-3d65eb84928d","ios":"levelo://app?vid=8557b93f-99ee-4ff8-8cf9-3d65eb84928d"},"vehicle_type_id":"4","last_reported":1770452309,"current_range_meters":6000,"station_id":"ce4bh3p2rcd13ifvqdq0","pricing_plan_id":"cebpf4jnsgd1na2vs0mg"},{"bike_id":"4f7d41e3-f9d8-470b-99d3-80dafc768b1e","system_id":"levelo_inurba_marseille","lat":43.29001,"lon":5.35611,"is_reserved":false,"is_disabled":false,"rental_uris":{"android":"levelo://app?vid=4f7d41e3-f9d8-470b-99d3-80dafc768b1e","ios":"levelo://app?vid=4f7d41e3-f9d8-470b-99d3-80dafc768b1e"},"vehicle_type_id":"4","last_reported":1770452309,"current_range_meters":6000,"station_id":"ce4bhb92rcd13ifvqen0","pricing_plan_id":"cebpf4jnsgd1na2vs0mg"},{"bike_id":"4573242e-b265-4331-b57e-964b4ba015f2","system_id":"levelo_inurba_marseille","lat":43.26189,"lon":5.37461,"is_reserved":false,"is_disabled":false,"rental_uris":{"android":"levelo://app?vid=4573242e-b265-4331-b57e-964b4ba015f2","ios":"levelo://app?vid=4573242e-b265-4331-b57e-964b4ba015f2"},"vehicle_type_id":"4","last_reported":1770452309,"current_range_meters":6000,"station_id":"ce4bhgp2rcd13ifvqfc0","pricing_plan_id":"cebpf4jnsgd1na2vs0mg"},{"bike_id":"b53a7d14-2e51-421a-988d-b8ea59b98909","system_id":"levelo_inurba_marseille","lat":43.27369,"lon":5.36251,"is_reserved":false,"is_disabled":false,"rental_uris":{"android":"levelo://app?vid=b53a7d14-2e51-421a-988d-b8ea59b98909","ios":"levelo://app?vid=b53a7d14-2e51-421a-988d-b8ea59b98909"},"vehicle_type_id":"4","last_reported":1770452309,"current_range_meters":6000,"station_id":"ce4bhbh2rcd13ifvqeo0","pricing_plan_id":"cebpf4jnsgd1na2vs0mg"},{"bike_id":"367cc565-cb90-448a-8fbf-9058571d720a","system_id":"levelo_inurba_marseille","lat":43.26179,"lon":5.37496,"is_reserved":false,"is_disabled":false,"rental_uris":{"android":"levelo://app?vid=367cc565-cb90-448a-8fbf-9058571d720a","ios":"levelo://app?vid=367cc565-cb90-448a-8fbf-9058571d720a"},"vehicle_type_id":"4","last_reported":1770452309,"current_range_meters":6000,"station_id":"ce4bhgp2rcd13ifvqfc0","pricing_plan_id":"cebpf4jnsgd1na2vs0mg"},{"bike_id":"0efafd94-bd96-4da0-8157-d59696cf78b0","system_id":"levelo_inurba_marseille","lat":43.3026,"lon":5.40069,"is_reserved":false,"is_disabled":false,"rental_uris":{"android":"levelo://app?vid=0efafd94-bd96-4da0-8157-d59696cf78b0","ios":"levelo://app?vid=0efafd94-bd96-4da0-8157-d59696cf78b0"},"vehicle_type_id":"4","last_reported":1770452309,"current_range_meters":6000,"station_id":"ce4bgvh2rcd13ifvqcs0","pricing_plan_id":"cebpf4jnsgd1na2vs0mg"},{"bike_id":"be543e78-58ce-404a-a6cc-33aa07295cd3","system_id":"levelo_inurba_marseille","lat":43.24382,"lon":5.37069,"is_reserved":false,"is_disabled":false,"rental_uris":{"android":"levelo://app?vid=be543e78-58ce-404a-a6cc-33aa07295cd3","ios":"levelo://app?vid=be543e78-58ce-404a-a6cc-33aa07295cd3"},"vehicle_type_id":"4","last_reported":1770452309,"current_range_meters":6000,"station_id":"ce4bhhh2rcd13ifvqfk0","pricing_plan_id":"cebpf4jnsgd1na2vs0mg"},{"bike_id":"66ac484a-7a0c-4d64-bcea-4a863811aeba","system_id":"levelo_inurba_marseille","lat":43.29896,"lon":5.43672,"is_reserved":false,"is_disabled":true,"rental_uris":{"android":"levelo://app?vid=66ac484a-7a0c-4d64-bcea-4a863811aeba","ios":"levelo://app?vid=66ac484a-7a0c-4d64-bcea-4a863811aeba"},"vehicle_type_id":"4","last_reported":1770452309,"current_range_meters":6000,"station_id":"ce4bhpp2rcd13ifvqhfg","pricing_plan_id":"cebpf4jnsgd1na2vs0mg"},{"bike_id":"73661e48-2e8a-4794-955e-979ddadb996a","system_id":"levelo_inurba_marseille","lat":43.30457,"lon":5.37905,"is_reserved":false,"is_disabled":false,"rental_uris":{"android":"levelo://app?vid=73661e48-2e8a-4794-955e-979ddadb996a","ios":"levelo://app?vid=73661e48-2e8a-4794-955e-979ddadb996a"},"vehicle_type_id":"4","last_reported":1770452309,"current_range_meters":6000,"station_id":"ce4bgup2rcd13ifvqcn0","pricing_plan_id":"cebpf4jnsgd1na2vs0mg"},{"bike_id":"3926a99e-82ca-4ee7-a161-a486379736ee","system_id":"levelo_inurba_marseille","lat":43.29872,"lon":5.36877,"is_reserved":false,"is_disabled":false,"rental_uris":{"android":"levelo://app?vid=3926a99e-82ca-4ee7-a161-a486379736ee","ios":"levelo://app?vid=3926a99e-82ca-4ee7-a161-a486379736ee"},"vehicle_type_id":"4","last_reported":1770452309,"current_range_meters":6400,"station_id":"","pricing_plan_id":"cebpf4jnsgd1na2vs0mg"},{"bike_id":"a974f125-46b6-492b-a0bb-f810fede54b4","system_id":"levelo_inurba_marseille","lat":43.28916,"lon":5.36391,"is_reserved":false,"is_disabled":false,"rental_uris":{"android":"levelo://app?vid=a974f125-46b6-492b-a0bb-f810fede54b4","ios":"levelo://app?vid=a974f125-46b6-492b-a0bb-f810fede54b4"},"vehicle_type_id":"4","last_reported":1770452309,"current_range_meters":6400,"station_id":"ce4bhc92rcd13ifvqetg","pricing_plan_id":"cebpf4jnsgd1na2vs0mg"},{"bike_id":"445447f4-f940-4f85-9727-f1026b8dfb6b","system_id":"levelo_inurba_marseille","lat":43.26395,"lon":5.41064,"is_reserved":false,"is_disabled":false,"rental_uris":{"android":"levelo://app?vid=445447f4-f940-4f85-9727-f1026b8dfb6b","ios":"levelo://app?vid=445447f4-f940-4f85-9727-f1026b8dfb6b"},"vehicle_type_id":"4","last_reported":1770452309,"current_range_meters":6400,"station_id":"st_d4e5ca6na9uc73bfl5fg","pricing_plan_id":"cebpf4jnsgd1na2vs0mg"},{"bike_id":"1fa03227-4c72-471b-b927-1f1ddcdf7053","system_id":"levelo_inurba_marseille","lat":43.31739,"lon":5.40431,"is_reserved":false,"is_disabled":false,"rental_uris":{"android":"levelo://app?vid=1fa03227-4c72-471b-b927-1f1ddcdf7053","ios":"levelo://app?vid=1fa03227-4c72-471b-b927-1f1ddcdf7053"},"vehicle_type_id":"4","last_reported":1770452309,"current_range_meters":6400,"station_id":"ce4bh012rcd13ifvqd00","pricing_plan_id":"cebpf4jnsgd1na2vs0mg"},{"bike_id":"d80d92c0-e8c3-4bd2-9272-a00aefbf4d79","system_id":"levelo_inurba_marseille","lat":43.23777,"lon":5.36636,"is_reserved":false,"is_disabled":false,"rental_uris":{"android":"levelo://app?vid=d80d92c0-e8c3-4bd2-9272-a00aefbf4d79","ios":"levelo://app?vid=d80d92c0-e8c3-4bd2-9272-a00aefbf4d79"},"vehicle_type_id":"4","last_reported":1770452309,"current_range_meters":6400,"station_id":"st_d3nk18o9ro0c73en2l3g","pricing_plan_id":"cebpf4jnsgd1na2vs0mg"},{"bike_id":"9d9ada7e-8bfb-4948-82e1-5314689a8b39","system_id":"levelo_inurba_marseille","lat":43.3354,"lon":5.37477,"is_reserved":false,"is_disabled":false,"rental_uris":{"android":"levelo://app?vid=9d9ada7e-8bfb-4948-82e1-5314689a8b39","ios":"levelo://app?vid=9d9ada7e-8bfb-4948-82e1-5314689a8b39"},"vehicle_type_id":"4","last_reported":1770452309,"current_range_meters":6400,"station_id":"st_d46tts09ee8s73dlu43g","pricing_plan_id":"cebpf4jnsgd1na2vs0mg"},{"bike_id":"7762d7e1-6e63-47b8-b38f-dee5fb5d6c60","system_id":"levelo_inurba_marseille","lat":43.24647,"lon":5.38912,"is_reserved":false,"is_disabled":false,"rental_uris":{"android":"levelo://app?vid=7762d7e1-6e63-47b8-b38f-dee5fb5d6c60","ios":"levelo://app?vid=7762d7e1-6e63-47b8-b38f-dee5fb5d6c60"},"vehicle_type_id":"4","last_reported":1770452309,"current_range_meters":6400,"station_id":"ce4bhg12rcd13ifvqf60","pricing_plan_id":"cebpf4jnsgd1na2vs0mg"},{"bike_id":"eef7d0ae-7f39-41bf-867c-8a8e8d2a2015","system_id":"levelo_inurba_marseille","lat":43.30402,"lon":5.39757,"is_reserved":false,"is_disabled":true,"rental_uris":{"android":"levelo://app?vid=eef7d0ae-7f39-41bf-867c-8a8e8d2a2015","ios":"levelo://app?vid=eef7d0ae-7f39-41bf-867c-8a8e8d2a2015"},"vehicle_type_id":"4","last_reported":1770452309,"current_range_meters":6400,"station_id":"ce4bh092rcd13ifvqd20","pricing_plan_id":"cebpf4jnsgd1na2vs0mg"},{"bike_id":"2913c79c-b7eb-4321-8997-bab0de7ccb14","system_id":"levelo_inurba_marseille","lat":43.31679,"lon":5.40427,"is_reserved":false,"is_disabled":false,"rental_uris":{"android":"levelo://app?vid=2913c79c-b7eb-4321-8997-bab0de7ccb14","ios":"levelo://app?vid=2913c79c-b7eb-4321-8997-bab0de7ccb14"},"vehicle_type_id":"4","last_reported":1770452309,"current_range_meters":6400,"station_id":"ce4bh012rcd13ifvqd00","pricing_plan_id":"cebpf4jnsgd1na2vs0mg"},{"bike_id":"1ccb62d2-bd12-4322-88f1-b7bc9eacffa1","system_id":"levelo_inurba_marseille","lat":43.26563,"lon":5.39032,"is_reserved":false,"is_disabled":false,"rental_uris":{"android":"levelo://app?vid=1ccb62d2-bd12-4322-88f1-b7bc9eacffa1","ios":"levelo://app?vid=1ccb62d2-bd12-4322-88f1-b7bc9eacffa1"},"vehicle_type_id":"4","last_reported":1770452309,"current_range_meters":6400,"station_id":"ce4bhe12rcd13ifvqf30","pricing_plan_id":"cebpf4jnsgd1na2vs0mg"},{"bike_id":"a5345e22-893b-4afb-8cce-dd849e9f50bc","system_id":"levelo_inurba_marseille","lat":43.30638,"lon":5.40064,"is_reserved":false,"is_disabled":false,"rental_uris":{"android":"levelo://app?vid=a5345e22-893b-4afb-8cce-dd849e9f50bc","ios":"levelo://app?vid=a5345e22-893b-4afb-8cce-dd849e9f50bc"},"vehicle_type_id":"4","last_reported":1770452309,"current_range_meters":6400,"station_id":"ce4bh112rcd13ifvqda0","pricing_plan_id":"cebpf4jnsgd1na2vs0mg"},{"bike_id":"02b84d9a-eaf6-4642-b4ea-c4aa75920743","system_id":"levelo_inurba_marseille","lat":43.27058,"lon":5.38318,"is_reserved":false,"is_disabled":false,"rental_uris":{"android":"levelo://app?vid=02b84d9a-eaf6-4642-b4ea-c4aa75920743","ios":"levelo://app?vid=02b84d9a-eaf6-4642-b4ea-c4aa75920743"},"vehicle_type_id":"4","last_reported":1770452309,"current_range_meters":6400,"station_id":"st_d3n2fo6cfp8s73cte1j0","pricing_plan_id":"cebpf4jnsgd1na2vs0mg"},{"bike_id":"b2cce6b6-8b99-4125-858f-636252991e81","system_id":"levelo_inurba_marseille","lat":43.257884,"lon":5.394277,"is_reserved":false,"is_disabled":false,"rental_uris":{"android":"levelo://app?vid=b2cce6b6-8b99-4125-858f-636252991e81","ios":"levelo://app?vid=b2cce6b6-8b99-4125-858f-636252991e81"},"vehicle_type_id":"4","last_reported":1770452309,"current_range_meters":6400,"station_id":"ce4bhgp2rcd13ifvqfd0","pricing_plan_id":"cebpf4jnsgd1na2vs0mg"},{"bike_id":"0c612691-dc2e-4b8c-a828-2dec429e0473","system_id":"levelo_inurba_marseille","lat":43.22913,"lon":5.3539,"is_reserved":false,"is_disabled":false,"rental_uris":{"android":"levelo://app?vid=0c612691-dc2e-4b8c-a828-2dec429e0473","ios":"levelo://app?vid=0c612691-dc2e-4b8c-a828-2dec429e0473"},"vehicle_type_id":"4","last_reported":1770452309,"current_range_meters":6400,"station_id":"cpo3532slgdg3j2ikp40","pricing_plan_id":"cebpf4jnsgd1na2vs0mg"},{"bike_id":"287ec1ad-7529-4a47-9046-fa34841bee4b","system_id":"levelo_inurba_marseille","lat":43.281603,"lon":5.383872,"is_reserved":false,"is_disabled":false,"rental_uris":{"android":"levelo://app?vid=287ec1ad-7529-4a47-9046-fa34841bee4b","ios":"levelo://app?vid=287ec1ad-7529-4a47-9046-fa34841bee4b"},"vehicle_type_id":"4","last_reported":1770452309,"current_range_meters":6400,"station_id":"","pricing_plan_id":"cebpf4jnsgd1na2vs0mg"},{"bike_id":"20c65875-dfb0-4193-95b0-6ea71c2024db","system_id":"levelo_inurba_marseille","lat":43.31433,"lon":5.37401,"is_reserved":false,"is_disabled":false,"rental_uris":{"android":"levelo://app?vid=20c65875-dfb0-4193-95b0-6ea71c2024db","ios":"levelo://app?vid=20c65875-dfb0-4193-95b0-6ea71c2024db"},"vehicle_type_id":"4","last_reported":1770452309,"current_range_meters":6400,"station_id":"","pricing_plan_id":"cebpf4jnsgd1na2vs0mg"},{"bike_id":"2645d702-9780-4155-954e-9ff091dcb668","system_id":"levelo_inurba_marseille","lat":43.24395,"lon":5.37049,"is_reserved":false,"is_disabled":false,"rental_uris":{"android":"levelo://app?vid=2645d702-9780-4155-954e-9ff091dcb668","ios":"levelo://app?vid=2645d702-9780-4155-954e-9ff091dcb668"},"vehicle_type_id":"4","last_reported":1770452309,"current_range_meters":6400,"station_id":"ce4bhhh2rcd13ifvqfk0","pricing_plan_id":"cebpf4jnsgd1na2vs0mg"},{"bike_id":"d0202908-466b-4873-a9e7-fa7d53de89d6","system_id":"levelo_inurba_marseille","lat":43.308947,"lon":5.396538,"is_reserved":false,"is_disabled":false,"rental_uris":{"android":"levelo://app?vid=d0202908-466b-4873-a9e7-fa7d53de89d6","ios":"levelo://app?vid=d0202908-466b-4873-a9e7-fa7d53de89d6"},"vehicle_type_id":"4","last_reported":1770452309,"current_range_meters":6400,"station_id":"ce4bh012rcd13ifvqcv0","pricing_plan_id":"cebpf4jnsgd1na2vs0mg"},{"bike_id":"339ca1a8-e8c7-42d2-91bb-70f21912efdd","system_id":"levelo_inurba_marseille","lat":43.217554,"lon":5.346011,"is_reserved":false,"is_disabled":false,"rental_uris":{"android":"levelo://app?vid=339ca1a8-e8c7-42d2-91bb-70f21912efdd","ios":"levelo://app?vid=339ca1a8-e8c7-42d2-91bb-70f21912efdd"},"vehicle_type_id":"4","last_reported":1770452309,"current_range_meters":6400,"station_id":"st_cvj6r9ubvosntc0bgbag","pricing_plan_id":"cebpf4jnsgd1na2vs0mg"},{"bike_id":"47857211-bbd4-47ea-8f85-bd37543b44d7","system_id":"levelo_inurba_marseille","lat":43.21738,"lon":5.3462,"is_reserved":false,"is_disabled":false,"rental_uris":{"android":"levelo://app?vid=47857211-bbd4-47ea-8f85-bd37543b44d7","ios":"levelo://app?vid=47857211-bbd4-47ea-8f85-bd37543b44d7"},"vehicle_type_id":"4","last_reported":1770452309,"current_range_meters":6400,"station_id":"st_cvj6r9ubvosntc0bgbag","pricing_plan_id":"cebpf4jnsgd1na2vs0mg"},{"bike_id":"dada8a6f-c5fa-4017-b9d8-32b4f5a7a285","system_id":"levelo_inurba_marseille","lat":43.24683,"lon":5.38861,"is_reserved":false,"is_disabled":false,"rental_uris":{"android":"levelo://app?vid=dada8a6f-c5fa-4017-b9d8-32b4f5a7a285","ios":"levelo://app?vid=dada8a6f-c5fa-4017-b9d8-32b4f5a7a285"},"vehicle_type_id":"4","last_reported":1770452309,"current_range_meters":6400,"station_id":"","pricing_plan_id":"cebpf4jnsgd1na2vs0mg"},{"bike_id":"07569cbf-2a7a-4124-bac7-d7124dc408c4","system_id":"levelo_inurba_marseille","lat":43.28032,"lon":5.36935,"is_reserved":false,"is_disabled":false,"rental_uris":{"android":"levelo://app?vid=07569cbf-2a7a-4124-bac7-d7124dc408c4","ios":"levelo://app?vid=07569cbf-2a7a-4124-bac7-d7124dc408c4"},"vehicle_type_id":"4","last_reported":1770452309,"current_range_meters":6800,"station_id":"ce4bha12rcd13ifvqef0","pricing_plan_id":"cebpf4jnsgd1na2vs0mg"},{"bike_id":"db42cf65-60d7-4ba0-896a-925a91953562","system_id":"levelo_inurba_marseille","lat":43.27943,"lon":5.41051,"is_reserved":false,"is_disabled":false,"rental_uris":{"android":"levelo://app?vid=db42cf65-60d7-4ba0-896a-925a91953562","ios":"levelo://app?vid=db42cf65-60d7-4ba0-896a-925a91953562"},"vehicle_type_id":"4","last_reported":1770452309,"current_range_meters":6800,"station_id":"ce4bhnp2rcd13ifvqh0g","pricing_plan_id":"cebpf4jnsgd1na2vs0mg"},{"bike_id":"e621c925-1663-4d10-9542-b211a92e1d71","system_id":"levelo_inurba_marseille","lat":43.29244,"lon":5.4092,"is_reserved":false,"is_disabled":false,"rental_uris":{"android":"levelo://app?vid=e621c925-1663-4d10-9542-b211a92e1d71","ios":"levelo://app?vid=e621c925-1663-4d10-9542-b211a92e1d71"},"vehicle_type_id":"4","last_reported":1770452309,"current_range_meters":6800,"station_id":"ce4bh192rcd13ifvqdc0","pricing_plan_id":"cebpf4jnsgd1na2vs0mg"},{"bike_id":"3e8f969f-f505-4cac-b453-01240a0ec1b8","system_id":"levelo_inurba_marseille","lat":43.33025,"lon":5.3904,"is_reserved":false,"is_disabled":false,"rental_uris":{"android":"levelo://app?vid=3e8f969f-f505-4cac-b453-01240a0ec1b8","ios":"levelo://app?vid=3e8f969f-f505-4cac-b453-01240a0ec1b8"},"vehicle_type_id":"4","last_reported":1770452309,"current_range_meters":6800,"station_id":"ce4bhr92rcd13ifvqhrg","pricing_plan_id":"cebpf4jnsgd1na2vs0mg"},{"bike_id":"1d0ef12e-4bb8-4d8d-9509-0260b1aa5347","system_id":"levelo_inurba_marseille","lat":43.24401,"lon":5.37058,"is_reserved":false,"is_disabled":false,"rental_uris":{"android":"levelo://app?vid=1d0ef12e-4bb8-4d8d-9509-0260b1aa5347","ios":"levelo://app?vid=1d0ef12e-4bb8-4d8d-9509-0260b1aa5347"},"vehicle_type_id":"4","last_reported":1770452309,"current_range_meters":6800,"station_id":"ce4bhhh2rcd13ifvqfk0","pricing_plan_id":"cebpf4jnsgd1na2vs0mg"},{"bike_id":"5514686a-b854-4db2-9779-3506b95972b1","system_id":"levelo_inurba_marseille","lat":43.23143,"lon":5.4373,"is_reserved":false,"is_disabled":false,"rental_uris":{"android":"levelo://app?vid=5514686a-b854-4db2-9779-3506b95972b1","ios":"levelo://app?vid=5514686a-b854-4db2-9779-3506b95972b1"},"vehicle_type_id":"4","last_reported":1770452309,"current_range_meters":6800,"station_id":"ce4bhmp2rcd13ifvqgog","pricing_plan_id":"cebpf4jnsgd1na2vs0mg"},{"bike_id":"58d16e10-99ba-424c-8d7d-f247b1c47cde","system_id":"levelo_inurba_marseille","lat":43.28975,"lon":5.38386,"is_reserved":false,"is_disabled":false,"rental_uris":{"android":"levelo://app?vid=58d16e10-99ba-424c-8d7d-f247b1c47cde","ios":"levelo://app?vid=58d16e10-99ba-424c-8d7d-f247b1c47cde"},"vehicle_type_id":"4","last_reported":1770452309,"current_range_meters":6800,"station_id":"","pricing_plan_id":"cebpf4jnsgd1na2vs0mg"},{"bike_id":"9ac16f6a-c93c-4c54-be11-0bb2a51c5a80","system_id":"levelo_inurba_marseille","lat":43.287363,"lon":5.360611,"is_reserved":false,"is_disabled":false,"rental_uris":{"android":"levelo://app?vid=9ac16f6a-c93c-4c54-be11-0bb2a51c5a80","ios":"levelo://app?vid=9ac16f6a-c93c-4c54-be11-0bb2a51c5a80"},"vehicle_type_id":"4","last_reported":1770452309,"current_range_meters":6800,"station_id":"cki0cbj6b192h4jlfktg","pricing_plan_id":"cebpf4jnsgd1na2vs0mg"},{"bike_id":"c6f3c761-de0f-456d-aad1-843601547135","system_id":"levelo_inurba_marseille","lat":43.28392,"lon":5.35022,"is_reserved":false,"is_disabled":false,"rental_uris":{"android":"levelo://app?vid=c6f3c761-de0f-456d-aad1-843601547135","ios":"levelo://app?vid=c6f3c761-de0f-456d-aad1-843601547135"},"vehicle_type_id":"4","last_reported":1770452309,"current_range_meters":6800,"station_id":"","pricing_plan_id":"cebpf4jnsgd1na2vs0mg"},{"bike_id":"b0c3d441-fa9a-4312-858a-e0f5eaf46fd5","system_id":"levelo_inurba_marseille","lat":43.32093,"lon":5.368,"is_reserved":false,"is_disabled":false,"rental_uris":{"android":"levelo://app?vid=b0c3d441-fa9a-4312-858a-e0f5eaf46fd5","ios":"levelo://app?vid=b0c3d441-fa9a-4312-858a-e0f5eaf46fd5"},"vehicle_type_id":"4","last_reported":1770452309,"current_range_meters":6800,"station_id":"ce4bhrh2rcd13ifvqhug","pricing_plan_id":"cebpf4jnsgd1na2vs0mg"},{"bike_id":"020c784a-f5ed-4edf-a17f-1c50e03e4de1","system_id":"levelo_inurba_marseille","lat":43.24953,"lon":5.40491,"is_reserved":false,"is_disabled":false,"rental_uris":{"android":"levelo://app?vid=020c784a-f5ed-4edf-a17f-1c50e03e4de1","ios":"levelo://app?vid=020c784a-f5ed-4edf-a17f-1c50e03e4de1"},"vehicle_type_id":"4","last_reported":1770452309,"current_range_meters":6800,"station_id":"st_d2ngiaodas8pm72gd1h0","pricing_plan_id":"cebpf4jnsgd1na2vs0mg"},{"bike_id":"f5da9401-db7e-426f-9a0f-2330a30b8658","system_id":"levelo_inurba_marseille","lat":43.24389,"lon":5.37087,"is_reserved":false,"is_disabled":true,"rental_uris":{"android":"levelo://app?vid=f5da9401-db7e-426f-9a0f-2330a30b8658","ios":"levelo://app?vid=f5da9401-db7e-426f-9a0f-2330a30b8658"},"vehicle_type_id":"4","last_reported":1770452309,"current_range_meters":6800,"station_id":"ce4bhhh2rcd13ifvqfk0","pricing_plan_id":"cebpf4jnsgd1na2vs0mg"},{"bike_id":"4c2b4b6a-a466-45ed-8a84-7e0dbc6887b9","system_id":"levelo_inurba_marseille","lat":43.31059,"lon":5.37184,"is_reserved":false,"is_disabled":false,"rental_uris":{"android":"levelo://app?vid=4c2b4b6a-a466-45ed-8a84-7e0dbc6887b9","ios":"levelo://app?vid=4c2b4b6a-a466-45ed-8a84-7e0dbc6887b9"},"vehicle_type_id":"4","last_reported":1770452309,"current_range_meters":6800,"station_id":"st_d4kl2rp97mjs73e7tdfg","pricing_plan_id":"cebpf4jnsgd1na2vs0mg"},{"bike_id":"695a138c-9117-4798-9030-e462ffee3fe5","system_id":"levelo_inurba_marseille","lat":43.24797,"lon":5.37466,"is_reserved":false,"is_disabled":false,"rental_uris":{"android":"levelo://app?vid=695a138c-9117-4798-9030-e462ffee3fe5","ios":"levelo://app?vid=695a138c-9117-4798-9030-e462ffee3fe5"},"vehicle_type_id":"4","last_reported":1770452309,"current_range_meters":6800,"station_id":"ce4bhgh2rcd13ifvqfb0","pricing_plan_id":"cebpf4jnsgd1na2vs0mg"},{"bike_id":"84952538-f67c-43f5-9184-3f9cc5db6511","system_id":"levelo_inurba_marseille","lat":43.299622,"lon":5.385,"is_reserved":false,"is_disabled":false,"rental_uris":{"android":"levelo://app?vid=84952538-f67c-43f5-9184-3f9cc5db6511","ios":"levelo://app?vid=84952538-f67c-43f5-9184-3f9cc5db6511"},"vehicle_type_id":"4","last_reported":1770452309,"current_range_meters":6800,"station_id":"ce4bgj92rcd13ifvqbd0","pricing_plan_id":"cebpf4jnsgd1na2vs0mg"},{"bike_id":"596e8b7d-7cb7-4bce-bed5-c069c5df7df0","system_id":"levelo_inurba_marseille","lat":43.24164,"lon":5.36406,"is_reserved":false,"is_disabled":false,"rental_uris":{"android":"levelo://app?vid=596e8b7d-7cb7-4bce-bed5-c069c5df7df0","ios":"levelo://app?vid=596e8b7d-7cb7-4bce-bed5-c069c5df7df0"},"vehicle_type_id":"4","last_reported":1770452309,"current_range_meters":6800,"station_id":"ce4bhi12rcd13ifvqfo0","pricing_plan_id":"cebpf4jnsgd1na2vs0mg"},{"bike_id":"cc21637e-36ac-4ec7-8629-0a5b399cddca","system_id":"levelo_inurba_marseille","lat":43.303685,"lon":5.42485,"is_reserved":false,"is_disabled":false,"rental_uris":{"android":"levelo://app?vid=cc21637e-36ac-4ec7-8629-0a5b399cddca","ios":"levelo://app?vid=cc21637e-36ac-4ec7-8629-0a5b399cddca"},"vehicle_type_id":"4","last_reported":1770452309,"current_range_meters":6800,"station_id":"ce4bhoh2rcd13ifvqh6g","pricing_plan_id":"cebpf4jnsgd1na2vs0mg"},{"bike_id":"f03e6b25-e7f3-4f2b-a805-6821fd5164b7","system_id":"levelo_inurba_marseille","lat":43.28471,"lon":5.38422,"is_reserved":false,"is_disabled":false,"rental_uris":{"android":"levelo://app?vid=f03e6b25-e7f3-4f2b-a805-6821fd5164b7","ios":"levelo://app?vid=f03e6b25-e7f3-4f2b-a805-6821fd5164b7"},"vehicle_type_id":"4","last_reported":1770452309,"current_range_meters":6800,"station_id":"ce4bh512rcd13ifvqe3g","pricing_plan_id":"cebpf4jnsgd1na2vs0mg"},{"bike_id":"762d17af-af27-45ae-8011-3c290ff80fd9","system_id":"levelo_inurba_marseille","lat":43.24178,"lon":5.36396,"is_reserved":false,"is_disabled":false,"rental_uris":{"android":"levelo://app?vid=762d17af-af27-45ae-8011-3c290ff80fd9","ios":"levelo://app?vid=762d17af-af27-45ae-8011-3c290ff80fd9"},"vehicle_type_id":"4","last_reported":1770452309,"current_range_meters":6800,"station_id":"cpo36qri1sfpv3e86is0","pricing_plan_id":"cebpf4jnsgd1na2vs0mg"},{"bike_id":"2e215bae-e2d4-4a81-a07c-a7a4a0c0fd71","system_id":"levelo_inurba_marseille","lat":43.30884,"lon":5.37214,"is_reserved":false,"is_disabled":false,"rental_uris":{"android":"levelo://app?vid=2e215bae-e2d4-4a81-a07c-a7a4a0c0fd71","ios":"levelo://app?vid=2e215bae-e2d4-4a81-a07c-a7a4a0c0fd71"},"vehicle_type_id":"4","last_reported":1770452309,"current_range_meters":6800,"station_id":"ce4bguh2rcd13ifvqckg","pricing_plan_id":"cebpf4jnsgd1na2vs0mg"},{"bike_id":"31187af9-c44b-44b9-86e6-81ceb0eb435c","system_id":"levelo_inurba_marseille","lat":43.27076,"lon":5.42291,"is_reserved":false,"is_disabled":false,"rental_uris":{"android":"levelo://app?vid=31187af9-c44b-44b9-86e6-81ceb0eb435c","ios":"levelo://app?vid=31187af9-c44b-44b9-86e6-81ceb0eb435c"},"vehicle_type_id":"4","last_reported":1770452309,"current_range_meters":6800,"station_id":"ce4bhk92rcd13ifvqgb0","pricing_plan_id":"cebpf4jnsgd1na2vs0mg"},{"bike_id":"346787f4-b208-43b3-a13c-6d535139ef57","system_id":"levelo_inurba_marseille","lat":43.29899,"lon":5.43678,"is_reserved":false,"is_disabled":false,"rental_uris":{"android":"levelo://app?vid=346787f4-b208-43b3-a13c-6d535139ef57","ios":"levelo://app?vid=346787f4-b208-43b3-a13c-6d535139ef57"},"vehicle_type_id":"4","last_reported":1770452309,"current_range_meters":7200,"station_id":"ce4bhpp2rcd13ifvqhfg","pricing_plan_id":"cebpf4jnsgd1na2vs0mg"},{"bike_id":"750d2ab8-95ad-4c23-b76c-1208fc3f469c","system_id":"levelo_inurba_marseille","lat":43.30893,"lon":5.39607,"is_reserved":false,"is_disabled":true,"rental_uris":{"android":"levelo://app?vid=750d2ab8-95ad-4c23-b76c-1208fc3f469c","ios":"levelo://app?vid=750d2ab8-95ad-4c23-b76c-1208fc3f469c"},"vehicle_type_id":"4","last_reported":1770452309,"current_range_meters":7200,"station_id":"ce4bh012rcd13ifvqcv0","pricing_plan_id":"cebpf4jnsgd1na2vs0mg"},{"bike_id":"2e03d4d7-88ca-4991-bee2-f08d03270792","system_id":"levelo_inurba_marseille","lat":43.246281,"lon":5.431436,"is_reserved":false,"is_disabled":false,"rental_uris":{"android":"levelo://app?vid=2e03d4d7-88ca-4991-bee2-f08d03270792","ios":"levelo://app?vid=2e03d4d7-88ca-4991-bee2-f08d03270792"},"vehicle_type_id":"4","last_reported":1770452309,"current_range_meters":7200,"station_id":"st_d2m6c4gdas8pm72e190g","pricing_plan_id":"cebpf4jnsgd1na2vs0mg"},{"bike_id":"601aacb1-c8ac-4767-b622-94c94a7d55b0","system_id":"levelo_inurba_marseille","lat":43.31099,"lon":5.37793,"is_reserved":false,"is_disabled":false,"rental_uris":{"android":"levelo://app?vid=601aacb1-c8ac-4767-b622-94c94a7d55b0","ios":"levelo://app?vid=601aacb1-c8ac-4767-b622-94c94a7d55b0"},"vehicle_type_id":"4","last_reported":1770452309,"current_range_meters":7200,"station_id":"ce4bgt92rcd13ifvqcg0","pricing_plan_id":"cebpf4jnsgd1na2vs0mg"},{"bike_id":"c83db4e2-15a7-4fa6-a03a-6d3ac9b5fffa","system_id":"levelo_inurba_marseille","lat":43.29244,"lon":5.36774,"is_reserved":false,"is_disabled":false,"rental_uris":{"android":"levelo://app?vid=c83db4e2-15a7-4fa6-a03a-6d3ac9b5fffa","ios":"levelo://app?vid=c83db4e2-15a7-4fa6-a03a-6d3ac9b5fffa"},"vehicle_type_id":"4","last_reported":1770452309,"current_range_meters":7200,"station_id":"","pricing_plan_id":"cebpf4jnsgd1na2vs0mg"},{"bike_id":"d8d60020-76d7-43e7-bfed-223b2ee6a2c9","system_id":"levelo_inurba_marseille","lat":43.26553,"lon":5.39038,"is_reserved":false,"is_disabled":false,"rental_uris":{"android":"levelo://app?vid=d8d60020-76d7-43e7-bfed-223b2ee6a2c9","ios":"levelo://app?vid=d8d60020-76d7-43e7-bfed-223b2ee6a2c9"},"vehicle_type_id":"4","last_reported":1770452309,"current_range_meters":7200,"station_id":"ce4bhe12rcd13ifvqf30","pricing_plan_id":"cebpf4jnsgd1na2vs0mg"},{"bike_id":"b5410d6d-35cd-446f-b7bb-b3c9e22838f8","system_id":"levelo_inurba_marseille","lat":43.26205,"lon":5.37913,"is_reserved":false,"is_disabled":false,"rental_uris":{"android":"levelo://app?vid=b5410d6d-35cd-446f-b7bb-b3c9e22838f8","ios":"levelo://app?vid=b5410d6d-35cd-446f-b7bb-b3c9e22838f8"},"vehicle_type_id":"4","last_reported":1770452309,"current_range_meters":7200,"station_id":"ce4bhjp2rcd13ifvqg90","pricing_plan_id":"cebpf4jnsgd1na2vs0mg"},{"bike_id":"4553b9ae-95be-4d03-9d86-2a4c79a4ffcc","system_id":"levelo_inurba_marseille","lat":43.28911,"lon":5.39844,"is_reserved":false,"is_disabled":false,"rental_uris":{"android":"levelo://app?vid=4553b9ae-95be-4d03-9d86-2a4c79a4ffcc","ios":"levelo://app?vid=4553b9ae-95be-4d03-9d86-2a4c79a4ffcc"},"vehicle_type_id":"4","last_reported":1770452309,"current_range_meters":7200,"station_id":"","pricing_plan_id":"cebpf4jnsgd1na2vs0mg"},{"bike_id":"2ce20688-0534-4877-aa02-a0d627f2384b","system_id":"levelo_inurba_marseille","lat":43.25852,"lon":5.3993,"is_reserved":false,"is_disabled":false,"rental_uris":{"android":"levelo://app?vid=2ce20688-0534-4877-aa02-a0d627f2384b","ios":"levelo://app?vid=2ce20688-0534-4877-aa02-a0d627f2384b"},"vehicle_type_id":"4","last_reported":1770452309,"current_range_meters":7200,"station_id":"ce4bhl92rcd13ifvqghg","pricing_plan_id":"cebpf4jnsgd1na2vs0mg"},{"bike_id":"580cd26c-8626-4806-8d31-d75263351a49","system_id":"levelo_inurba_marseille","lat":43.30891,"lon":5.36879,"is_reserved":false,"is_disabled":false,"rental_uris":{"android":"levelo://app?vid=580cd26c-8626-4806-8d31-d75263351a49","ios":"levelo://app?vid=580cd26c-8626-4806-8d31-d75263351a49"},"vehicle_type_id":"4","last_reported":1770452309,"current_range_meters":7200,"station_id":"ce4bgn92rcd13ifvqbvg","pricing_plan_id":"cebpf4jnsgd1na2vs0mg"},{"bike_id":"51b860da-7077-4707-8d6b-93beaaf7be25","system_id":"levelo_inurba_marseille","lat":43.28238,"lon":5.3509,"is_reserved":false,"is_disabled":false,"rental_uris":{"android":"levelo://app?vid=51b860da-7077-4707-8d6b-93beaaf7be25","ios":"levelo://app?vid=51b860da-7077-4707-8d6b-93beaaf7be25"},"vehicle_type_id":"4","last_reported":1770452309,"current_range_meters":7200,"station_id":"","pricing_plan_id":"cebpf4jnsgd1na2vs0mg"},{"bike_id":"687c6814-1649-4b53-8ea1-809218682d1c","system_id":"levelo_inurba_marseille","lat":43.24948,"lon":5.40491,"is_reserved":false,"is_disabled":false,"rental_uris":{"android":"levelo://app?vid=687c6814-1649-4b53-8ea1-809218682d1c","ios":"levelo://app?vid=687c6814-1649-4b53-8ea1-809218682d1c"},"vehicle_type_id":"4","last_reported":1770452309,"current_range_meters":7200,"station_id":"st_d2ngiaodas8pm72gd1h0","pricing_plan_id":"cebpf4jnsgd1na2vs0mg"},{"bike_id":"e23ca2c4-052c-4fbb-b451-6d946b140f42","system_id":"levelo_inurba_marseille","lat":43.27925,"lon":5.41079,"is_reserved":false,"is_disabled":false,"rental_uris":{"android":"levelo://app?vid=e23ca2c4-052c-4fbb-b451-6d946b140f42","ios":"levelo://app?vid=e23ca2c4-052c-4fbb-b451-6d946b140f42"},"vehicle_type_id":"4","last_reported":1770452309,"current_range_meters":7200,"station_id":"ce4bhnp2rcd13ifvqh0g","pricing_plan_id":"cebpf4jnsgd1na2vs0mg"},{"bike_id":"41431b9e-0c2a-4681-aecc-908d1c373b45","system_id":"levelo_inurba_marseille","lat":43.28534,"lon":5.39052,"is_reserved":false,"is_disabled":false,"rental_uris":{"android":"levelo://app?vid=41431b9e-0c2a-4681-aecc-908d1c373b45","ios":"levelo://app?vid=41431b9e-0c2a-4681-aecc-908d1c373b45"},"vehicle_type_id":"4","last_reported":1770452309,"current_range_meters":7200,"station_id":"","pricing_plan_id":"cebpf4jnsgd1na2vs0mg"},{"bike_id":"989aca6a-6e34-41fa-9094-dcaae1de2f71","system_id":"levelo_inurba_marseille","lat":43.31315,"lon":5.3973,"is_reserved":false,"is_disabled":false,"rental_uris":{"android":"levelo://app?vid=989aca6a-6e34-41fa-9094-dcaae1de2f71","ios":"levelo://app?vid=989aca6a-6e34-41fa-9094-dcaae1de2f71"},"vehicle_type_id":"4","last_reported":1770452309,"current_range_meters":7200,"station_id":"ce4bgvp2rcd13ifvqcu0","pricing_plan_id":"cebpf4jnsgd1na2vs0mg"},{"bike_id":"ca56e68f-7e24-4681-a422-a463b8716c7e","system_id":"levelo_inurba_marseille","lat":43.28603,"lon":5.37086,"is_reserved":false,"is_disabled":false,"rental_uris":{"android":"levelo://app?vid=ca56e68f-7e24-4681-a422-a463b8716c7e","ios":"levelo://app?vid=ca56e68f-7e24-4681-a422-a463b8716c7e"},"vehicle_type_id":"4","last_reported":1770452309,"current_range_meters":7200,"station_id":"ce4bht12rcd13ifvqi60","pricing_plan_id":"cebpf4jnsgd1na2vs0mg"},{"bike_id":"22a18f5a-e84b-4706-acdf-fdede8aeea20","system_id":"levelo_inurba_marseille","lat":43.25847,"lon":5.39904,"is_reserved":false,"is_disabled":false,"rental_uris":{"android":"levelo://app?vid=22a18f5a-e84b-4706-acdf-fdede8aeea20","ios":"levelo://app?vid=22a18f5a-e84b-4706-acdf-fdede8aeea20"},"vehicle_type_id":"4","last_reported":1770452309,"current_range_meters":7200,"station_id":"ce4bhl92rcd13ifvqghg","pricing_plan_id":"cebpf4jnsgd1na2vs0mg"},{"bike_id":"5df7dd7e-481d-4ecb-8480-12e84f635d93","system_id":"levelo_inurba_marseille","lat":43.23789,"lon":5.36611,"is_reserved":false,"is_disabled":false,"rental_uris":{"android":"levelo://app?vid=5df7dd7e-481d-4ecb-8480-12e84f635d93","ios":"levelo://app?vid=5df7dd7e-481d-4ecb-8480-12e84f635d93"},"vehicle_type_id":"4","last_reported":1770452309,"current_range_meters":7200,"station_id":"st_d3nk18o9ro0c73en2l3g","pricing_plan_id":"cebpf4jnsgd1na2vs0mg"},{"bike_id":"e00e5e6e-c33e-4196-85b4-9b95c84cf6e8","system_id":"levelo_inurba_marseille","lat":43.29225,"lon":5.36046,"is_reserved":false,"is_disabled":false,"rental_uris":{"android":"levelo://app?vid=e00e5e6e-c33e-4196-85b4-9b95c84cf6e8","ios":"levelo://app?vid=e00e5e6e-c33e-4196-85b4-9b95c84cf6e8"},"vehicle_type_id":"4","last_reported":1770452309,"current_range_meters":7200,"station_id":"ce4bhbh2rcd13ifvqeqg","pricing_plan_id":"cebpf4jnsgd1na2vs0mg"},{"bike_id":"dbd1c194-03e4-49d3-b3d8-186d17378327","system_id":"levelo_inurba_marseille","lat":43.30149,"lon":5.38087,"is_reserved":false,"is_disabled":false,"rental_uris":{"android":"levelo://app?vid=dbd1c194-03e4-49d3-b3d8-186d17378327","ios":"levelo://app?vid=dbd1c194-03e4-49d3-b3d8-186d17378327"},"vehicle_type_id":"4","last_reported":1770452309,"current_range_meters":8000,"station_id":"ce4bgjp2rcd13ifvqbh0","pricing_plan_id":"cebpf4jnsgd1na2vs0mg"},{"bike_id":"139ad556-06d2-4282-854a-ef0fdeba2321","system_id":"levelo_inurba_marseille","lat":43.30745,"lon":5.42428,"is_reserved":false,"is_disabled":true,"rental_uris":{"android":"levelo://app?vid=139ad556-06d2-4282-854a-ef0fdeba2321","ios":"levelo://app?vid=139ad556-06d2-4282-854a-ef0fdeba2321"},"vehicle_type_id":"4","last_reported":1770452309,"current_range_meters":8000,"station_id":"st_cvj6ca6bvosntc0bfgr0","pricing_plan_id":"cebpf4jnsgd1na2vs0mg"},{"bike_id":"93add877-ee9d-4ae2-87c0-e59246a2e4b1","system_id":"levelo_inurba_marseille","lat":43.22943,"lon":5.35357,"is_reserved":false,"is_disabled":false,"rental_uris":{"android":"levelo://app?vid=93add877-ee9d-4ae2-87c0-e59246a2e4b1","ios":"levelo://app?vid=93add877-ee9d-4ae2-87c0-e59246a2e4b1"},"vehicle_type_id":"4","last_reported":1770452309,"current_range_meters":8000,"station_id":"cpo3532slgdg3j2ikp40","pricing_plan_id":"cebpf4jnsgd1na2vs0mg"},{"bike_id":"55701a05-0afd-44f2-b5ec-65dd45bfe15c","system_id":"levelo_inurba_marseille","lat":43.23932,"lon":5.36651,"is_reserved":false,"is_disabled":false,"rental_uris":{"android":"levelo://app?vid=55701a05-0afd-44f2-b5ec-65dd45bfe15c","ios":"levelo://app?vid=55701a05-0afd-44f2-b5ec-65dd45bfe15c"},"vehicle_type_id":"4","last_reported":1770452309,"current_range_meters":8000,"station_id":"ce4bhi12rcd13ifvqfp0","pricing_plan_id":"cebpf4jnsgd1na2vs0mg"},{"bike_id":"07fe9fa6-8ba5-4426-9dc7-81b5cb2cb051","system_id":"levelo_inurba_marseille","lat":43.26583,"lon":5.40319,"is_reserved":false,"is_disabled":false,"rental_uris":{"android":"levelo://app?vid=07fe9fa6-8ba5-4426-9dc7-81b5cb2cb051","ios":"levelo://app?vid=07fe9fa6-8ba5-4426-9dc7-81b5cb2cb051"},"vehicle_type_id":"4","last_reported":1770452309,"current_range_meters":8000,"station_id":"ce4bhmp2rcd13ifvqgng","pricing_plan_id":"cebpf4jnsgd1na2vs0mg"},{"bike_id":"28225147-0b90-4247-ae08-4bad3fc2ac6e","system_id":"levelo_inurba_marseille","lat":43.33599,"lon":5.41051,"is_reserved":false,"is_disabled":false,"rental_uris":{"android":"levelo://app?vid=28225147-0b90-4247-ae08-4bad3fc2ac6e","ios":"levelo://app?vid=28225147-0b90-4247-ae08-4bad3fc2ac6e"},"vehicle_type_id":"4","last_reported":1770452309,"current_range_meters":8000,"station_id":"ce4bhqh2rcd13ifvqhmg","pricing_plan_id":"cebpf4jnsgd1na2vs0mg"},{"bike_id":"d968508d-9bc5-42cd-a9d7-e62539d61d24","system_id":"levelo_inurba_marseille","lat":43.29887,"lon":5.39751,"is_reserved":false,"is_disabled":false,"rental_uris":{"android":"levelo://app?vid=d968508d-9bc5-42cd-a9d7-e62539d61d24","ios":"levelo://app?vid=d968508d-9bc5-42cd-a9d7-e62539d61d24"},"vehicle_type_id":"4","last_reported":1770452309,"current_range_meters":8000,"station_id":"ce4bh0h2rcd13ifvqd50","pricing_plan_id":"cebpf4jnsgd1na2vs0mg"},{"bike_id":"88b63b60-0a77-4859-b4d2-ee54cca1b9f3","system_id":"levelo_inurba_marseille","lat":43.30507,"lon":5.36542,"is_reserved":false,"is_disabled":false,"rental_uris":{"android":"levelo://app?vid=88b63b60-0a77-4859-b4d2-ee54cca1b9f3","ios":"levelo://app?vid=88b63b60-0a77-4859-b4d2-ee54cca1b9f3"},"vehicle_type_id":"4","last_reported":1770452309,"current_range_meters":8000,"station_id":"","pricing_plan_id":"cebpf4jnsgd1na2vs0mg"},{"bike_id":"082c6167-f943-4767-9df3-19b6044ff5f3","system_id":"levelo_inurba_marseille","lat":43.30581,"lon":5.37251,"is_reserved":false,"is_disabled":false,"rental_uris":{"android":"levelo://app?vid=082c6167-f943-4767-9df3-19b6044ff5f3","ios":"levelo://app?vid=082c6167-f943-4767-9df3-19b6044ff5f3"},"vehicle_type_id":"4","last_reported":1770452309,"current_range_meters":8000,"station_id":"ce4bgqh2rcd13ifvqc4g","pricing_plan_id":"cebpf4jnsgd1na2vs0mg"},{"bike_id":"9c6a8984-8ee8-4ae5-a2ee-ca73b9867831","system_id":"levelo_inurba_marseille","lat":43.29926,"lon":5.36526,"is_reserved":false,"is_disabled":false,"rental_uris":{"android":"levelo://app?vid=9c6a8984-8ee8-4ae5-a2ee-ca73b9867831","ios":"levelo://app?vid=9c6a8984-8ee8-4ae5-a2ee-ca73b9867831"},"vehicle_type_id":"4","last_reported":1770452309,"current_range_meters":8000,"station_id":"ce4bgm92rcd13ifvqbr0","pricing_plan_id":"cebpf4jnsgd1na2vs0mg"},{"bike_id":"5a1fe393-c6b9-458b-a1d9-714a147c65df","system_id":"levelo_inurba_marseille","lat":43.24945,"lon":5.40513,"is_reserved":false,"is_disabled":false,"rental_uris":{"android":"levelo://app?vid=5a1fe393-c6b9-458b-a1d9-714a147c65df","ios":"levelo://app?vid=5a1fe393-c6b9-458b-a1d9-714a147c65df"},"vehicle_type_id":"4","last_reported":1770452309,"current_range_meters":8000,"station_id":"st_d2ngiaodas8pm72gd1h0","pricing_plan_id":"cebpf4jnsgd1na2vs0mg"},{"bike_id":"6622ecdf-5979-47a5-b9a2-8e881f3db9ee","system_id":"levelo_inurba_marseille","lat":43.279894,"lon":5.400098,"is_reserved":false,"is_disabled":false,"rental_uris":{"android":"levelo://app?vid=6622ecdf-5979-47a5-b9a2-8e881f3db9ee","ios":"levelo://app?vid=6622ecdf-5979-47a5-b9a2-8e881f3db9ee"},"vehicle_type_id":"4","last_reported":1770452309,"current_range_meters":8000,"station_id":"ce4bho92rcd13ifvqh4g","pricing_plan_id":"cebpf4jnsgd1na2vs0mg"},{"bike_id":"ab55cc20-b94d-45e5-879c-71ae04584b70","system_id":"levelo_inurba_marseille","lat":43.29553,"lon":5.42297,"is_reserved":false,"is_disabled":false,"rental_uris":{"android":"levelo://app?vid=ab55cc20-b94d-45e5-879c-71ae04584b70","ios":"levelo://app?vid=ab55cc20-b94d-45e5-879c-71ae04584b70"},"vehicle_type_id":"4","last_reported":1770452309,"current_range_meters":8000,"station_id":"ce4bhph2rcd13ifvqhdg","pricing_plan_id":"cebpf4jnsgd1na2vs0mg"},{"bike_id":"34a55f58-a955-4283-bcd6-91c6f2bdcd18","system_id":"levelo_inurba_marseille","lat":43.266,"lon":5.39374,"is_reserved":false,"is_disabled":false,"rental_uris":{"android":"levelo://app?vid=34a55f58-a955-4283-bcd6-91c6f2bdcd18","ios":"levelo://app?vid=34a55f58-a955-4283-bcd6-91c6f2bdcd18"},"vehicle_type_id":"4","last_reported":1770452309,"current_range_meters":8000,"station_id":"","pricing_plan_id":"cebpf4jnsgd1na2vs0mg"},{"bike_id":"4fd33ec2-191e-42f6-b2f1-474419accee2","system_id":"levelo_inurba_marseille","lat":43.26053,"lon":5.39399,"is_reserved":false,"is_disabled":false,"rental_uris":{"android":"levelo://app?vid=4fd33ec2-191e-42f6-b2f1-474419accee2","ios":"levelo://app?vid=4fd33ec2-191e-42f6-b2f1-474419accee2"},"vehicle_type_id":"4","last_reported":1770452309,"current_range_meters":8000,"station_id":"ce4bhh92rcd13ifvqfj0","pricing_plan_id":"cebpf4jnsgd1na2vs0mg"},{"bike_id":"b805cbda-0bcb-43b5-8f11-56fc15ee2f84","system_id":"levelo_inurba_marseille","lat":43.261934,"lon":5.37453,"is_reserved":false,"is_disabled":false,"rental_uris":{"android":"levelo://app?vid=b805cbda-0bcb-43b5-8f11-56fc15ee2f84","ios":"levelo://app?vid=b805cbda-0bcb-43b5-8f11-56fc15ee2f84"},"vehicle_type_id":"4","last_reported":1770452309,"current_range_meters":8000,"station_id":"ce4bhgp2rcd13ifvqfc0","pricing_plan_id":"cebpf4jnsgd1na2vs0mg"},{"bike_id":"096337dc-466e-4e30-9dca-531ebea51a14","system_id":"levelo_inurba_marseille","lat":43.237901,"lon":5.366327,"is_reserved":false,"is_disabled":false,"rental_uris":{"android":"levelo://app?vid=096337dc-466e-4e30-9dca-531ebea51a14","ios":"levelo://app?vid=096337dc-466e-4e30-9dca-531ebea51a14"},"vehicle_type_id":"4","last_reported":1770452309,"current_range_meters":8000,"station_id":"st_d3nk18o9ro0c73en2l3g","pricing_plan_id":"cebpf4jnsgd1na2vs0mg"},{"bike_id":"5005df1e-a5e0-4247-80e1-f8aff4acedfa","system_id":"levelo_inurba_marseille","lat":43.257295,"lon":5.411043,"is_reserved":false,"is_disabled":false,"rental_uris":{"android":"levelo://app?vid=5005df1e-a5e0-4247-80e1-f8aff4acedfa","ios":"levelo://app?vid=5005df1e-a5e0-4247-80e1-f8aff4acedfa"},"vehicle_type_id":"4","last_reported":1770452309,"current_range_meters":8000,"station_id":"ce4bhkp2rcd13ifvqgd0","pricing_plan_id":"cebpf4jnsgd1na2vs0mg"},{"bike_id":"07b9f227-07e7-47f7-89a4-d379d6de40ff","system_id":"levelo_inurba_marseille","lat":43.3148,"lon":5.37242,"is_reserved":false,"is_disabled":false,"rental_uris":{"android":"levelo://app?vid=07b9f227-07e7-47f7-89a4-d379d6de40ff","ios":"levelo://app?vid=07b9f227-07e7-47f7-89a4-d379d6de40ff"},"vehicle_type_id":"4","last_reported":1770452309,"current_range_meters":8000,"station_id":"ce4bgt12rcd13ifvqcd0","pricing_plan_id":"cebpf4jnsgd1na2vs0mg"},{"bike_id":"fbca3884-dc96-440f-8d36-fea821134d2b","system_id":"levelo_inurba_marseille","lat":43.297972,"lon":5.404003,"is_reserved":false,"is_disabled":false,"rental_uris":{"android":"levelo://app?vid=fbca3884-dc96-440f-8d36-fea821134d2b","ios":"levelo://app?vid=fbca3884-dc96-440f-8d36-fea821134d2b"},"vehicle_type_id":"4","last_reported":1770452309,"current_range_meters":8000,"station_id":"","pricing_plan_id":"cebpf4jnsgd1na2vs0mg"},{"bike_id":"6e37521d-2d0b-4013-a98b-38acae3a7aa1","system_id":"levelo_inurba_marseille","lat":43.30168,"lon":5.38076,"is_reserved":false,"is_disabled":false,"rental_uris":{"android":"levelo://app?vid=6e37521d-2d0b-4013-a98b-38acae3a7aa1","ios":"levelo://app?vid=6e37521d-2d0b-4013-a98b-38acae3a7aa1"},"vehicle_type_id":"4","last_reported":1770452309,"current_range_meters":8000,"station_id":"ce4bgjp2rcd13ifvqbh0","pricing_plan_id":"cebpf4jnsgd1na2vs0mg"},{"bike_id":"37810020-311e-4142-81ed-743738c6fb89","system_id":"levelo_inurba_marseille","lat":43.30736,"lon":5.42459,"is_reserved":false,"is_disabled":false,"rental_uris":{"android":"levelo://app?vid=37810020-311e-4142-81ed-743738c6fb89","ios":"levelo://app?vid=37810020-311e-4142-81ed-743738c6fb89"},"vehicle_type_id":"4","last_reported":1770452309,"current_range_meters":8000,"station_id":"st_cvj6ca6bvosntc0bfgr0","pricing_plan_id":"cebpf4jnsgd1na2vs0mg"},{"bike_id":"b837567d-4fa3-4142-957d-bd46f977e765","system_id":"levelo_inurba_marseille","lat":43.23889,"lon":5.39717,"is_reserved":false,"is_disabled":false,"rental_uris":{"android":"levelo://app?vid=b837567d-4fa3-4142-957d-bd46f977e765","ios":"levelo://app?vid=b837567d-4fa3-4142-957d-bd46f977e765"},"vehicle_type_id":"4","last_reported":1770452309,"current_range_meters":8000,"station_id":"","pricing_plan_id":"cebpf4jnsgd1na2vs0mg"},{"bike_id":"22e78fd8-ccf7-4d47-8186-769572b5e2c6","system_id":"levelo_inurba_marseille","lat":43.262,"lon":5.3793,"is_reserved":false,"is_disabled":false,"rental_uris":{"android":"levelo://app?vid=22e78fd8-ccf7-4d47-8186-769572b5e2c6","ios":"levelo://app?vid=22e78fd8-ccf7-4d47-8186-769572b5e2c6"},"vehicle_type_id":"4","last_reported":1770452309,"current_range_meters":8000,"station_id":"ce4bhjp2rcd13ifvqg90","pricing_plan_id":"cebpf4jnsgd1na2vs0mg"},{"bike_id":"3aca6982-9dd7-4fa5-a95a-7e0ae2f0f1b6","system_id":"levelo_inurba_marseille","lat":43.27986,"lon":5.41661,"is_reserved":false,"is_disabled":false,"rental_uris":{"android":"levelo://app?vid=3aca6982-9dd7-4fa5-a95a-7e0ae2f0f1b6","ios":"levelo://app?vid=3aca6982-9dd7-4fa5-a95a-7e0ae2f0f1b6"},"vehicle_type_id":"4","last_reported":1770452309,"current_range_meters":8000,"station_id":"ce4bho12rcd13ifvqh1g","pricing_plan_id":"cebpf4jnsgd1na2vs0mg"},{"bike_id":"23ecbe17-a647-400d-925e-a08892f8e595","system_id":"levelo_inurba_marseille","lat":43.23122,"lon":5.43725,"is_reserved":false,"is_disabled":false,"rental_uris":{"android":"levelo://app?vid=23ecbe17-a647-400d-925e-a08892f8e595","ios":"levelo://app?vid=23ecbe17-a647-400d-925e-a08892f8e595"},"vehicle_type_id":"4","last_reported":1770452309,"current_range_meters":8400,"station_id":"ce4bhmp2rcd13ifvqgog","pricing_plan_id":"cebpf4jnsgd1na2vs0mg"},{"bike_id":"7bddda00-b4a3-467e-857f-177f6c856946","system_id":"levelo_inurba_marseille","lat":43.27969,"lon":5.40034,"is_reserved":false,"is_disabled":false,"rental_uris":{"android":"levelo://app?vid=7bddda00-b4a3-467e-857f-177f6c856946","ios":"levelo://app?vid=7bddda00-b4a3-467e-857f-177f6c856946"},"vehicle_type_id":"4","last_reported":1770452309,"current_range_meters":8400,"station_id":"ce4bho92rcd13ifvqh4g","pricing_plan_id":"cebpf4jnsgd1na2vs0mg"},{"bike_id":"b8b2022f-ad53-43bd-a0da-20d6c0c24249","system_id":"levelo_inurba_marseille","lat":43.26216,"lon":5.3748,"is_reserved":false,"is_disabled":false,"rental_uris":{"android":"levelo://app?vid=b8b2022f-ad53-43bd-a0da-20d6c0c24249","ios":"levelo://app?vid=b8b2022f-ad53-43bd-a0da-20d6c0c24249"},"vehicle_type_id":"4","last_reported":1770452309,"current_range_meters":8400,"station_id":"ce4bhgp2rcd13ifvqfc0","pricing_plan_id":"cebpf4jnsgd1na2vs0mg"},{"bike_id":"95ddcd5a-bf89-4af0-8832-e9e870a74381","system_id":"levelo_inurba_marseille","lat":43.26203,"lon":5.38869,"is_reserved":false,"is_disabled":false,"rental_uris":{"android":"levelo://app?vid=95ddcd5a-bf89-4af0-8832-e9e870a74381","ios":"levelo://app?vid=95ddcd5a-bf89-4af0-8832-e9e870a74381"},"vehicle_type_id":"4","last_reported":1770452309,"current_range_meters":8400,"station_id":"","pricing_plan_id":"cebpf4jnsgd1na2vs0mg"},{"bike_id":"a3a6bf7a-5b31-437d-8839-ad8c1649c118","system_id":"levelo_inurba_marseille","lat":43.28683,"lon":5.37442,"is_reserved":false,"is_disabled":false,"rental_uris":{"android":"levelo://app?vid=a3a6bf7a-5b31-437d-8839-ad8c1649c118","ios":"levelo://app?vid=a3a6bf7a-5b31-437d-8839-ad8c1649c118"},"vehicle_type_id":"4","last_reported":1770452309,"current_range_meters":8400,"station_id":"","pricing_plan_id":"cebpf4jnsgd1na2vs0mg"},{"bike_id":"4940192c-cd9e-43b0-a8dd-fd4c04e7805e","system_id":"levelo_inurba_marseille","lat":43.2255,"lon":5.41651,"is_reserved":false,"is_disabled":false,"rental_uris":{"android":"levelo://app?vid=4940192c-cd9e-43b0-a8dd-fd4c04e7805e","ios":"levelo://app?vid=4940192c-cd9e-43b0-a8dd-fd4c04e7805e"},"vehicle_type_id":"4","last_reported":1770452309,"current_range_meters":8400,"station_id":"st_d2o4gvlbi1j2169b742g","pricing_plan_id":"cebpf4jnsgd1na2vs0mg"},{"bike_id":"d83e3c9a-0a11-4e4e-afee-71ac1e11a1e2","system_id":"levelo_inurba_marseille","lat":43.27939,"lon":5.41047,"is_reserved":false,"is_disabled":false,"rental_uris":{"android":"levelo://app?vid=d83e3c9a-0a11-4e4e-afee-71ac1e11a1e2","ios":"levelo://app?vid=d83e3c9a-0a11-4e4e-afee-71ac1e11a1e2"},"vehicle_type_id":"4","last_reported":1770452309,"current_range_meters":8400,"station_id":"ce4bhnp2rcd13ifvqh0g","pricing_plan_id":"cebpf4jnsgd1na2vs0mg"},{"bike_id":"f5b3c0bc-b0db-4532-8e2f-eae93141d573","system_id":"levelo_inurba_marseille","lat":43.33532,"lon":5.37468,"is_reserved":false,"is_disabled":false,"rental_uris":{"android":"levelo://app?vid=f5b3c0bc-b0db-4532-8e2f-eae93141d573","ios":"levelo://app?vid=f5b3c0bc-b0db-4532-8e2f-eae93141d573"},"vehicle_type_id":"4","last_reported":1770452309,"current_range_meters":8400,"station_id":"st_d46tts09ee8s73dlu43g","pricing_plan_id":"cebpf4jnsgd1na2vs0mg"},{"bike_id":"13a66910-aa65-4559-ba7a-e63b61e82f6f","system_id":"levelo_inurba_marseille","lat":43.295545,"lon":5.422852,"is_reserved":false,"is_disabled":false,"rental_uris":{"android":"levelo://app?vid=13a66910-aa65-4559-ba7a-e63b61e82f6f","ios":"levelo://app?vid=13a66910-aa65-4559-ba7a-e63b61e82f6f"},"vehicle_type_id":"4","last_reported":1770452309,"current_range_meters":8400,"station_id":"ce4bhph2rcd13ifvqhdg","pricing_plan_id":"cebpf4jnsgd1na2vs0mg"},{"bike_id":"ea3cf1cf-21a4-42c3-8208-647b69047377","system_id":"levelo_inurba_marseille","lat":43.25853,"lon":5.39896,"is_reserved":false,"is_disabled":false,"rental_uris":{"android":"levelo://app?vid=ea3cf1cf-21a4-42c3-8208-647b69047377","ios":"levelo://app?vid=ea3cf1cf-21a4-42c3-8208-647b69047377"},"vehicle_type_id":"4","last_reported":1770452309,"current_range_meters":8400,"station_id":"ce4bhl92rcd13ifvqghg","pricing_plan_id":"cebpf4jnsgd1na2vs0mg"},{"bike_id":"1780f274-efef-4868-ad51-2e25c5373fc0","system_id":"levelo_inurba_marseille","lat":43.270665,"lon":5.422799,"is_reserved":false,"is_disabled":false,"rental_uris":{"android":"levelo://app?vid=1780f274-efef-4868-ad51-2e25c5373fc0","ios":"levelo://app?vid=1780f274-efef-4868-ad51-2e25c5373fc0"},"vehicle_type_id":"4","last_reported":1770452309,"current_range_meters":8400,"station_id":"ce4bhk92rcd13ifvqgb0","pricing_plan_id":"cebpf4jnsgd1na2vs0mg"},{"bike_id":"b647999a-4d4e-4999-93f7-7f7a0cf7097f","system_id":"levelo_inurba_marseille","lat":43.30583,"lon":5.43016,"is_reserved":false,"is_disabled":false,"rental_uris":{"android":"levelo://app?vid=b647999a-4d4e-4999-93f7-7f7a0cf7097f","ios":"levelo://app?vid=b647999a-4d4e-4999-93f7-7f7a0cf7097f"},"vehicle_type_id":"4","last_reported":1770452309,"current_range_meters":8400,"station_id":"","pricing_plan_id":"cebpf4jnsgd1na2vs0mg"},{"bike_id":"15a7f0c0-62fd-4fc7-8f5a-0c41375957c7","system_id":"levelo_inurba_marseille","lat":43.28428,"lon":5.39204,"is_reserved":false,"is_disabled":false,"rental_uris":{"android":"levelo://app?vid=15a7f0c0-62fd-4fc7-8f5a-0c41375957c7","ios":"levelo://app?vid=15a7f0c0-62fd-4fc7-8f5a-0c41375957c7"},"vehicle_type_id":"4","last_reported":1770452309,"current_range_meters":8400,"station_id":"ce4bhoh2rcd13ifvqh5g","pricing_plan_id":"cebpf4jnsgd1na2vs0mg"},{"bike_id":"e7c90a4b-1100-4223-ad7b-74e890be7fc3","system_id":"levelo_inurba_marseille","lat":43.303009,"lon":5.369003,"is_reserved":false,"is_disabled":false,"rental_uris":{"android":"levelo://app?vid=e7c90a4b-1100-4223-ad7b-74e890be7fc3","ios":"levelo://app?vid=e7c90a4b-1100-4223-ad7b-74e890be7fc3"},"vehicle_type_id":"4","last_reported":1770452309,"current_range_meters":8400,"station_id":"ce4bgqh2rcd13ifvqc5g","pricing_plan_id":"cebpf4jnsgd1na2vs0mg"},{"bike_id":"57fc64b8-c6b3-4cfa-afba-31af9f6b1aa1","system_id":"levelo_inurba_marseille","lat":43.29372,"lon":5.40102,"is_reserved":false,"is_disabled":false,"rental_uris":{"android":"levelo://app?vid=57fc64b8-c6b3-4cfa-afba-31af9f6b1aa1","ios":"levelo://app?vid=57fc64b8-c6b3-4cfa-afba-31af9f6b1aa1"},"vehicle_type_id":"4","last_reported":1770452309,"current_range_meters":8400,"station_id":"ce4bh312rcd13ifvqdk0","pricing_plan_id":"cebpf4jnsgd1na2vs0mg"},{"bike_id":"4308129b-6751-4273-bbe8-20208f30cb65","system_id":"levelo_inurba_marseille","lat":43.22918,"lon":5.35418,"is_reserved":false,"is_disabled":false,"rental_uris":{"android":"levelo://app?vid=4308129b-6751-4273-bbe8-20208f30cb65","ios":"levelo://app?vid=4308129b-6751-4273-bbe8-20208f30cb65"},"vehicle_type_id":"4","last_reported":1770452309,"current_range_meters":8400,"station_id":"cpo3532slgdg3j2ikp40","pricing_plan_id":"cebpf4jnsgd1na2vs0mg"},{"bike_id":"19eeef39-b1d7-4bf5-9520-46417a7a15da","system_id":"levelo_inurba_marseille","lat":43.314832,"lon":5.373073,"is_reserved":false,"is_disabled":false,"rental_uris":{"android":"levelo://app?vid=19eeef39-b1d7-4bf5-9520-46417a7a15da","ios":"levelo://app?vid=19eeef39-b1d7-4bf5-9520-46417a7a15da"},"vehicle_type_id":"4","last_reported":1770452309,"current_range_meters":8400,"station_id":"ce4bgt12rcd13ifvqcd0","pricing_plan_id":"cebpf4jnsgd1na2vs0mg"},{"bike_id":"3aed5847-38a3-483f-a302-c0e755a4674d","system_id":"levelo_inurba_marseille","lat":43.263733,"lon":5.410815,"is_reserved":false,"is_disabled":false,"rental_uris":{"android":"levelo://app?vid=3aed5847-38a3-483f-a302-c0e755a4674d","ios":"levelo://app?vid=3aed5847-38a3-483f-a302-c0e755a4674d"},"vehicle_type_id":"4","last_reported":1770452309,"current_range_meters":8400,"station_id":"st_d4e5ca6na9uc73bfl5fg","pricing_plan_id":"cebpf4jnsgd1na2vs0mg"},{"bike_id":"e267f4ef-af04-4d9f-8320-dee267d45bc6","system_id":"levelo_inurba_marseille","lat":43.30631,"lon":5.37138,"is_reserved":false,"is_disabled":false,"rental_uris":{"android":"levelo://app?vid=e267f4ef-af04-4d9f-8320-dee267d45bc6","ios":"levelo://app?vid=e267f4ef-af04-4d9f-8320-dee267d45bc6"},"vehicle_type_id":"4","last_reported":1770452309,"current_range_meters":8400,"station_id":"","pricing_plan_id":"cebpf4jnsgd1na2vs0mg"},{"bike_id":"d3ced00f-0b39-4a8b-a513-b465a17aff9b","system_id":"levelo_inurba_marseille","lat":43.27921,"lon":5.38735,"is_reserved":false,"is_disabled":false,"rental_uris":{"android":"levelo://app?vid=d3ced00f-0b39-4a8b-a513-b465a17aff9b","ios":"levelo://app?vid=d3ced00f-0b39-4a8b-a513-b465a17aff9b"},"vehicle_type_id":"4","last_reported":1770452309,"current_range_meters":8800,"station_id":"ce4bhg12rcd13ifvqf80","pricing_plan_id":"cebpf4jnsgd1na2vs0mg"},{"bike_id":"3424fe65-7365-4a3d-b40c-9b25ec3af19d","system_id":"levelo_inurba_marseille","lat":43.31322,"lon":5.38722,"is_reserved":false,"is_disabled":false,"rental_uris":{"android":"levelo://app?vid=3424fe65-7365-4a3d-b40c-9b25ec3af19d","ios":"levelo://app?vid=3424fe65-7365-4a3d-b40c-9b25ec3af19d"},"vehicle_type_id":"4","last_reported":1770452309,"current_range_meters":8800,"station_id":"","pricing_plan_id":"cebpf4jnsgd1na2vs0mg"},{"bike_id":"82f38651-b135-48cf-bb30-2efbdc34233b","system_id":"levelo_inurba_marseille","lat":43.29814,"lon":5.44083,"is_reserved":false,"is_disabled":false,"rental_uris":{"android":"levelo://app?vid=82f38651-b135-48cf-bb30-2efbdc34233b","ios":"levelo://app?vid=82f38651-b135-48cf-bb30-2efbdc34233b"},"vehicle_type_id":"4","last_reported":1770452309,"current_range_meters":8800,"station_id":"st_d3jp68qikq2c7381ktn0","pricing_plan_id":"cebpf4jnsgd1na2vs0mg"},{"bike_id":"e93f4bee-6f02-4738-b474-a577d4c9d78c","system_id":"levelo_inurba_marseille","lat":43.22949,"lon":5.35407,"is_reserved":false,"is_disabled":false,"rental_uris":{"android":"levelo://app?vid=e93f4bee-6f02-4738-b474-a577d4c9d78c","ios":"levelo://app?vid=e93f4bee-6f02-4738-b474-a577d4c9d78c"},"vehicle_type_id":"4","last_reported":1770452309,"current_range_meters":8800,"station_id":"cpo3532slgdg3j2ikp40","pricing_plan_id":"cebpf4jnsgd1na2vs0mg"},{"bike_id":"a8166b5b-d24f-4bfd-bc3a-e719ac9d4b2e","system_id":"levelo_inurba_marseille","lat":43.28085,"lon":5.40902,"is_reserved":false,"is_disabled":false,"rental_uris":{"android":"levelo://app?vid=a8166b5b-d24f-4bfd-bc3a-e719ac9d4b2e","ios":"levelo://app?vid=a8166b5b-d24f-4bfd-bc3a-e719ac9d4b2e"},"vehicle_type_id":"4","last_reported":1770452309,"current_range_meters":8800,"station_id":"","pricing_plan_id":"cebpf4jnsgd1na2vs0mg"},{"bike_id":"b92cefea-b054-4668-8b8f-6f3d47fab6c0","system_id":"levelo_inurba_marseille","lat":43.32108,"lon":5.3677,"is_reserved":false,"is_disabled":false,"rental_uris":{"android":"levelo://app?vid=b92cefea-b054-4668-8b8f-6f3d47fab6c0","ios":"levelo://app?vid=b92cefea-b054-4668-8b8f-6f3d47fab6c0"},"vehicle_type_id":"4","last_reported":1770452309,"current_range_meters":8800,"station_id":"ce4bhrh2rcd13ifvqhug","pricing_plan_id":"cebpf4jnsgd1na2vs0mg"},{"bike_id":"811ecfab-1e6f-4cd1-8960-403c2a502307","system_id":"levelo_inurba_marseille","lat":43.22926,"lon":5.354,"is_reserved":false,"is_disabled":false,"rental_uris":{"android":"levelo://app?vid=811ecfab-1e6f-4cd1-8960-403c2a502307","ios":"levelo://app?vid=811ecfab-1e6f-4cd1-8960-403c2a502307"},"vehicle_type_id":"4","last_reported":1770452309,"current_range_meters":8800,"station_id":"cpo3532slgdg3j2ikp40","pricing_plan_id":"cebpf4jnsgd1na2vs0mg"},{"bike_id":"ce11fe4c-a8ec-455e-a874-2180aa656992","system_id":"levelo_inurba_marseille","lat":43.27227,"lon":5.39138,"is_reserved":false,"is_disabled":false,"rental_uris":{"android":"levelo://app?vid=ce11fe4c-a8ec-455e-a874-2180aa656992","ios":"levelo://app?vid=ce11fe4c-a8ec-455e-a874-2180aa656992"},"vehicle_type_id":"4","last_reported":1770452309,"current_range_meters":8800,"station_id":"ce4bhhp2rcd13ifvqfm0","pricing_plan_id":"cebpf4jnsgd1na2vs0mg"},{"bike_id":"7ac610de-0f90-4c04-b733-6fdf87a62483","system_id":"levelo_inurba_marseille","lat":43.29931,"lon":5.36531,"is_reserved":false,"is_disabled":false,"rental_uris":{"android":"levelo://app?vid=7ac610de-0f90-4c04-b733-6fdf87a62483","ios":"levelo://app?vid=7ac610de-0f90-4c04-b733-6fdf87a62483"},"vehicle_type_id":"4","last_reported":1770452309,"current_range_meters":8800,"station_id":"ce4bgm92rcd13ifvqbr0","pricing_plan_id":"cebpf4jnsgd1na2vs0mg"},{"bike_id":"243ac871-efdd-4fce-929c-65f1e505985b","system_id":"levelo_inurba_marseille","lat":43.23799,"lon":5.36627,"is_reserved":false,"is_disabled":false,"rental_uris":{"android":"levelo://app?vid=243ac871-efdd-4fce-929c-65f1e505985b","ios":"levelo://app?vid=243ac871-efdd-4fce-929c-65f1e505985b"},"vehicle_type_id":"4","last_reported":1770452309,"current_range_meters":8800,"station_id":"st_d3nk18o9ro0c73en2l3g","pricing_plan_id":"cebpf4jnsgd1na2vs0mg"},{"bike_id":"006f45de-433c-4fe3-81a6-3dac1db63eac","system_id":"levelo_inurba_marseille","lat":43.24443,"lon":5.4262,"is_reserved":false,"is_disabled":false,"rental_uris":{"android":"levelo://app?vid=006f45de-433c-4fe3-81a6-3dac1db63eac","ios":"levelo://app?vid=006f45de-433c-4fe3-81a6-3dac1db63eac"},"vehicle_type_id":"4","last_reported":1770452309,"current_range_meters":8800,"station_id":"","pricing_plan_id":"cebpf4jnsgd1na2vs0mg"},{"bike_id":"1b8a50cd-31e9-436a-ac23-09e61fa778b9","system_id":"levelo_inurba_marseille","lat":43.2842,"lon":5.39208,"is_reserved":false,"is_disabled":false,"rental_uris":{"android":"levelo://app?vid=1b8a50cd-31e9-436a-ac23-09e61fa778b9","ios":"levelo://app?vid=1b8a50cd-31e9-436a-ac23-09e61fa778b9"},"vehicle_type_id":"4","last_reported":1770452309,"current_range_meters":8800,"station_id":"ce4bhoh2rcd13ifvqh5g","pricing_plan_id":"cebpf4jnsgd1na2vs0mg"},{"bike_id":"99850a36-9afb-45da-956a-515b07324791","system_id":"levelo_inurba_marseille","lat":43.279319,"lon":5.410589,"is_reserved":false,"is_disabled":false,"rental_uris":{"android":"levelo://app?vid=99850a36-9afb-45da-956a-515b07324791","ios":"levelo://app?vid=99850a36-9afb-45da-956a-515b07324791"},"vehicle_type_id":"4","last_reported":1770452309,"current_range_meters":8800,"station_id":"ce4bhnp2rcd13ifvqh0g","pricing_plan_id":"cebpf4jnsgd1na2vs0mg"},{"bike_id":"3b71a1ad-0888-4e5c-82a0-0dec693b29d4","system_id":"levelo_inurba_marseille","lat":43.31108,"lon":5.38093,"is_reserved":false,"is_disabled":false,"rental_uris":{"android":"levelo://app?vid=3b71a1ad-0888-4e5c-82a0-0dec693b29d4","ios":"levelo://app?vid=3b71a1ad-0888-4e5c-82a0-0dec693b29d4"},"vehicle_type_id":"4","last_reported":1770452309,"current_range_meters":8800,"station_id":"","pricing_plan_id":"cebpf4jnsgd1na2vs0mg"},{"bike_id":"185af67f-d147-436a-9545-42bcc91c5e13","system_id":"levelo_inurba_marseille","lat":43.3167,"lon":5.37459,"is_reserved":false,"is_disabled":false,"rental_uris":{"android":"levelo://app?vid=185af67f-d147-436a-9545-42bcc91c5e13","ios":"levelo://app?vid=185af67f-d147-436a-9545-42bcc91c5e13"},"vehicle_type_id":"4","last_reported":1770452309,"current_range_meters":8800,"station_id":"","pricing_plan_id":"cebpf4jnsgd1na2vs0mg"},{"bike_id":"ed45abda-ecf5-4137-85bd-6b0bc3b77ddf","system_id":"levelo_inurba_marseille","lat":43.26404,"lon":5.41123,"is_reserved":false,"is_disabled":false,"rental_uris":{"android":"levelo://app?vid=ed45abda-ecf5-4137-85bd-6b0bc3b77ddf","ios":"levelo://app?vid=ed45abda-ecf5-4137-85bd-6b0bc3b77ddf"},"vehicle_type_id":"4","last_reported":1770452309,"current_range_meters":8800,"station_id":"","pricing_plan_id":"cebpf4jnsgd1na2vs0mg"},{"bike_id":"a85d500c-1b7e-4b3f-bba8-c0b38aec10c6","system_id":"levelo_inurba_marseille","lat":43.25919,"lon":5.40843,"is_reserved":false,"is_disabled":false,"rental_uris":{"android":"levelo://app?vid=a85d500c-1b7e-4b3f-bba8-c0b38aec10c6","ios":"levelo://app?vid=a85d500c-1b7e-4b3f-bba8-c0b38aec10c6"},"vehicle_type_id":"4","last_reported":1770452309,"current_range_meters":8800,"station_id":"ce4bhm92rcd13ifvqglg","pricing_plan_id":"cebpf4jnsgd1na2vs0mg"},{"bike_id":"28eb4aeb-05a1-4556-bf16-544ea7468da9","system_id":"levelo_inurba_marseille","lat":43.30162,"lon":5.38075,"is_reserved":false,"is_disabled":false,"rental_uris":{"android":"levelo://app?vid=28eb4aeb-05a1-4556-bf16-544ea7468da9","ios":"levelo://app?vid=28eb4aeb-05a1-4556-bf16-544ea7468da9"},"vehicle_type_id":"4","last_reported":1770452309,"current_range_meters":8800,"station_id":"ce4bgjp2rcd13ifvqbh0","pricing_plan_id":"cebpf4jnsgd1na2vs0mg"},{"bike_id":"d9d493c8-2229-4bda-a958-4c19d5464801","system_id":"levelo_inurba_marseille","lat":43.25859,"lon":5.39919,"is_reserved":false,"is_disabled":false,"rental_uris":{"android":"levelo://app?vid=d9d493c8-2229-4bda-a958-4c19d5464801","ios":"levelo://app?vid=d9d493c8-2229-4bda-a958-4c19d5464801"},"vehicle_type_id":"4","last_reported":1770452309,"current_range_meters":8800,"station_id":"ce4bhl92rcd13ifvqghg","pricing_plan_id":"cebpf4jnsgd1na2vs0mg"},{"bike_id":"274ea636-1144-4def-891a-a6ff828bda3b","system_id":"levelo_inurba_marseille","lat":43.31468,"lon":5.37307,"is_reserved":false,"is_disabled":false,"rental_uris":{"android":"levelo://app?vid=274ea636-1144-4def-891a-a6ff828bda3b","ios":"levelo://app?vid=274ea636-1144-4def-891a-a6ff828bda3b"},"vehicle_type_id":"4","last_reported":1770452309,"current_range_meters":8800,"station_id":"ce4bgt12rcd13ifvqcd0","pricing_plan_id":"cebpf4jnsgd1na2vs0mg"},{"bike_id":"8901c3e2-b443-42ae-8cdc-97f6f0ae692c","system_id":"levelo_inurba_marseille","lat":43.28031,"lon":5.36953,"is_reserved":false,"is_disabled":false,"rental_uris":{"android":"levelo://app?vid=8901c3e2-b443-42ae-8cdc-97f6f0ae692c","ios":"levelo://app?vid=8901c3e2-b443-42ae-8cdc-97f6f0ae692c"},"vehicle_type_id":"4","last_reported":1770452309,"current_range_meters":8800,"station_id":"ce4bha12rcd13ifvqef0","pricing_plan_id":"cebpf4jnsgd1na2vs0mg"},