{"last_updated":1778851727,"ttl":60,"version":"2.2","data":{"bikes":[{"bike_id":"bbbd063e-7397-4ead-8898-c5effbd32fea","system_id":"levelo_inurba_marseille","lat":43.31217,"lon":5.37814,"is_reserved":false,"is_disabled":false,"rental_uris":{"android":"levelo://app?vid=bbbd063e-7397-4ead-8898-c5effbd32fea","ios":"levelo://app?vid=bbbd063e-7397-4ead-8898-c5effbd32fea"},"vehicle_type_id":"4","last_reported":1778851728,"current_range_meters":2800,"station_id":"","pricing_plan_id":"cebpf4jnsgd1na2vs0mg"},{"bike_id":"72dff1a3-0a7f-407e-b34b-dbb1c9361631","system_id":"levelo_inurba_marseille","lat":43.21736,"lon":5.34606,"is_reserved":false,"is_disabled":false,"rental_uris":{"android":"levelo://app?vid=72dff1a3-0a7f-407e-b34b-dbb1c9361631","ios":"levelo://app?vid=72dff1a3-0a7f-407e-b34b-dbb1c9361631"},"vehicle_type_id":"4","last_reported":1778851728,"current_range_meters":2800,"station_id":"st_cvj6r9ubvosntc0bgbag","pricing_plan_id":"cebpf4jnsgd1na2vs0mg"},{"bike_id":"b2bafe0a-874d-4c9f-9005-1e7a113b2e65","system_id":"levelo_inurba_marseille","lat":43.230584,"lon":5.354858,"is_reserved":false,"is_disabled":false,"rental_uris":{"android":"levelo://app?vid=b2bafe0a-874d-4c9f-9005-1e7a113b2e65","ios":"levelo://app?vid=b2bafe0a-874d-4c9f-9005-1e7a113b2e65"},"vehicle_type_id":"4","last_reported":1778851728,"current_range_meters":2800,"station_id":"cpo3342slgdg3j2ifvpg","pricing_plan_id":"cebpf4jnsgd1na2vs0mg"},{"bike_id":"fd7fa61b-43ba-4d54-8d97-3978bc8f368b","system_id":"levelo_inurba_marseille","lat":43.30871,"lon":5.39654,"is_reserved":false,"is_disabled":false,"rental_uris":{"android":"levelo://app?vid=fd7fa61b-43ba-4d54-8d97-3978bc8f368b","ios":"levelo://app?vid=fd7fa61b-43ba-4d54-8d97-3978bc8f368b"},"vehicle_type_id":"4","last_reported":1778851728,"current_range_meters":2800,"station_id":"ce4bh012rcd13ifvqcv0","pricing_plan_id":"cebpf4jnsgd1na2vs0mg"},{"bike_id":"9e4df7dc-55f6-4e93-9ed4-6c8427c05dc5","system_id":"levelo_inurba_marseille","lat":43.306496,"lon":5.400963,"is_reserved":false,"is_disabled":false,"rental_uris":{"android":"levelo://app?vid=9e4df7dc-55f6-4e93-9ed4-6c8427c05dc5","ios":"levelo://app?vid=9e4df7dc-55f6-4e93-9ed4-6c8427c05dc5"},"vehicle_type_id":"4","last_reported":1778851728,"current_range_meters":2800,"station_id":"ce4bh112rcd13ifvqda0","pricing_plan_id":"cebpf4jnsgd1na2vs0mg"},{"bike_id":"49a4ca90-9647-4e0e-b784-3ebf013e5d53","system_id":"levelo_inurba_marseille","lat":43.292252,"lon":5.360465,"is_reserved":false,"is_disabled":false,"rental_uris":{"android":"levelo://app?vid=49a4ca90-9647-4e0e-b784-3ebf013e5d53","ios":"levelo://app?vid=49a4ca90-9647-4e0e-b784-3ebf013e5d53"},"vehicle_type_id":"4","last_reported":1778851728,"current_range_meters":2800,"station_id":"","pricing_plan_id":"cebpf4jnsgd1na2vs0mg"},{"bike_id":"f52a2657-9a13-4021-872a-4a84b6a5cdcb","system_id":"levelo_inurba_marseille","lat":43.26237,"lon":5.38764,"is_reserved":false,"is_disabled":false,"rental_uris":{"android":"levelo://app?vid=f52a2657-9a13-4021-872a-4a84b6a5cdcb","ios":"levelo://app?vid=f52a2657-9a13-4021-872a-4a84b6a5cdcb"},"vehicle_type_id":"4","last_reported":1778851728,"current_range_meters":2800,"station_id":"","pricing_plan_id":"cebpf4jnsgd1na2vs0mg"},{"bike_id":"8217edcc-059e-43db-998b-7e0b9076710e","system_id":"levelo_inurba_marseille","lat":43.28578,"lon":5.38604,"is_reserved":false,"is_disabled":false,"rental_uris":{"android":"levelo://app?vid=8217edcc-059e-43db-998b-7e0b9076710e","ios":"levelo://app?vid=8217edcc-059e-43db-998b-7e0b9076710e"},"vehicle_type_id":"4","last_reported":1778851728,"current_range_meters":2800,"station_id":"","pricing_plan_id":"cebpf4jnsgd1na2vs0mg"},{"bike_id":"7ef6ee1f-bf60-4d6b-8734-33eed9bbec33","system_id":"levelo_inurba_marseille","lat":43.217302,"lon":5.346087,"is_reserved":false,"is_disabled":false,"rental_uris":{"android":"levelo://app?vid=7ef6ee1f-bf60-4d6b-8734-33eed9bbec33","ios":"levelo://app?vid=7ef6ee1f-bf60-4d6b-8734-33eed9bbec33"},"vehicle_type_id":"4","last_reported":1778851728,"current_range_meters":2800,"station_id":"st_cvj6r9ubvosntc0bgbag","pricing_plan_id":"cebpf4jnsgd1na2vs0mg"},{"bike_id":"79d09227-9f0d-47fd-b3c2-75aebb967811","system_id":"levelo_inurba_marseille","lat":43.31897,"lon":5.36801,"is_reserved":false,"is_disabled":false,"rental_uris":{"android":"levelo://app?vid=79d09227-9f0d-47fd-b3c2-75aebb967811","ios":"levelo://app?vid=79d09227-9f0d-47fd-b3c2-75aebb967811"},"vehicle_type_id":"4","last_reported":1778851728,"current_range_meters":2800,"station_id":"st_d6o2h0d0559c73evc1b0","pricing_plan_id":"cebpf4jnsgd1na2vs0mg"},{"bike_id":"f6748320-7b6b-45b1-94b8-353e62f0b87d","system_id":"levelo_inurba_marseille","lat":43.23195,"lon":5.3555,"is_reserved":false,"is_disabled":false,"rental_uris":{"android":"levelo://app?vid=f6748320-7b6b-45b1-94b8-353e62f0b87d","ios":"levelo://app?vid=f6748320-7b6b-45b1-94b8-353e62f0b87d"},"vehicle_type_id":"4","last_reported":1778851728,"current_range_meters":3200,"station_id":"ce4bhu92rcd13ifvqi70","pricing_plan_id":"cebpf4jnsgd1na2vs0mg"},{"bike_id":"cdf6ce74-7578-4204-9107-dc3f2c824407","system_id":"levelo_inurba_marseille","lat":43.26565,"lon":5.37291,"is_reserved":false,"is_disabled":false,"rental_uris":{"android":"levelo://app?vid=cdf6ce74-7578-4204-9107-dc3f2c824407","ios":"levelo://app?vid=cdf6ce74-7578-4204-9107-dc3f2c824407"},"vehicle_type_id":"4","last_reported":1778851728,"current_range_meters":3200,"station_id":"ce4bhg12rcd13ifvqf70","pricing_plan_id":"cebpf4jnsgd1na2vs0mg"},{"bike_id":"7428471a-4055-4bf9-b852-3fabfa1edda8","system_id":"levelo_inurba_marseille","lat":43.30885,"lon":5.37193,"is_reserved":false,"is_disabled":false,"rental_uris":{"android":"levelo://app?vid=7428471a-4055-4bf9-b852-3fabfa1edda8","ios":"levelo://app?vid=7428471a-4055-4bf9-b852-3fabfa1edda8"},"vehicle_type_id":"4","last_reported":1778851728,"current_range_meters":3200,"station_id":"ce4bguh2rcd13ifvqckg","pricing_plan_id":"cebpf4jnsgd1na2vs0mg"},{"bike_id":"5d9c9d69-7285-4adb-b849-acb985872377","system_id":"levelo_inurba_marseille","lat":43.30948,"lon":5.39036,"is_reserved":false,"is_disabled":false,"rental_uris":{"android":"levelo://app?vid=5d9c9d69-7285-4adb-b849-acb985872377","ios":"levelo://app?vid=5d9c9d69-7285-4adb-b849-acb985872377"},"vehicle_type_id":"4","last_reported":1778851728,"current_range_meters":3200,"station_id":"ce4bgup2rcd13ifvqco0","pricing_plan_id":"cebpf4jnsgd1na2vs0mg"},{"bike_id":"67416e37-e49a-4483-b1ba-da2fa5c5c0c1","system_id":"levelo_inurba_marseille","lat":43.25182,"lon":5.37444,"is_reserved":false,"is_disabled":false,"rental_uris":{"android":"levelo://app?vid=67416e37-e49a-4483-b1ba-da2fa5c5c0c1","ios":"levelo://app?vid=67416e37-e49a-4483-b1ba-da2fa5c5c0c1"},"vehicle_type_id":"4","last_reported":1778851728,"current_range_meters":3200,"station_id":"","pricing_plan_id":"cebpf4jnsgd1na2vs0mg"},{"bike_id":"a765e392-ad3f-4c17-b8a1-230fb831cee3","system_id":"levelo_inurba_marseille","lat":43.24202,"lon":5.39762,"is_reserved":false,"is_disabled":false,"rental_uris":{"android":"levelo://app?vid=a765e392-ad3f-4c17-b8a1-230fb831cee3","ios":"levelo://app?vid=a765e392-ad3f-4c17-b8a1-230fb831cee3"},"vehicle_type_id":"4","last_reported":1778851728,"current_range_meters":3600,"station_id":"ce4bhn12rcd13ifvqgpg","pricing_plan_id":"cebpf4jnsgd1na2vs0mg"},{"bike_id":"f41c6539-965a-49c3-b83a-97f6bef7cc4b","system_id":"levelo_inurba_marseille","lat":43.29707,"lon":5.36614,"is_reserved":false,"is_disabled":false,"rental_uris":{"android":"levelo://app?vid=f41c6539-965a-49c3-b83a-97f6bef7cc4b","ios":"levelo://app?vid=f41c6539-965a-49c3-b83a-97f6bef7cc4b"},"vehicle_type_id":"4","last_reported":1778851728,"current_range_meters":3600,"station_id":"ce4bgn12rcd13ifvqbt0","pricing_plan_id":"cebpf4jnsgd1na2vs0mg"},{"bike_id":"0c344e4d-9084-4f54-905c-b599c21430c2","system_id":"levelo_inurba_marseille","lat":43.28978,"lon":5.37829,"is_reserved":false,"is_disabled":false,"rental_uris":{"android":"levelo://app?vid=0c344e4d-9084-4f54-905c-b599c21430c2","ios":"levelo://app?vid=0c344e4d-9084-4f54-905c-b599c21430c2"},"vehicle_type_id":"4","last_reported":1778851728,"current_range_meters":3600,"station_id":"ce4bh9p2rcd13ifvqed0","pricing_plan_id":"cebpf4jnsgd1na2vs0mg"},{"bike_id":"8877f4cc-2712-44a8-85e8-1a9b6814ec5e","system_id":"levelo_inurba_marseille","lat":43.28227,"lon":5.39022,"is_reserved":false,"is_disabled":true,"rental_uris":{"android":"levelo://app?vid=8877f4cc-2712-44a8-85e8-1a9b6814ec5e","ios":"levelo://app?vid=8877f4cc-2712-44a8-85e8-1a9b6814ec5e"},"vehicle_type_id":"4","last_reported":1778851728,"current_range_meters":3600,"station_id":"ce4bhn92rcd13ifvqgsg","pricing_plan_id":"cebpf4jnsgd1na2vs0mg"},{"bike_id":"11cddc59-5472-4063-a6e6-74337bb5af4e","system_id":"levelo_inurba_marseille","lat":43.2811,"lon":5.37831,"is_reserved":false,"is_disabled":false,"rental_uris":{"android":"levelo://app?vid=11cddc59-5472-4063-a6e6-74337bb5af4e","ios":"levelo://app?vid=11cddc59-5472-4063-a6e6-74337bb5af4e"},"vehicle_type_id":"4","last_reported":1778851728,"current_range_meters":3600,"station_id":"ce4bha12rcd13ifvqee0","pricing_plan_id":"cebpf4jnsgd1na2vs0mg"},{"bike_id":"cbd319b4-1a76-42c8-a8cd-b21cc8eba74e","system_id":"levelo_inurba_marseille","lat":43.33218,"lon":5.43052,"is_reserved":false,"is_disabled":false,"rental_uris":{"android":"levelo://app?vid=cbd319b4-1a76-42c8-a8cd-b21cc8eba74e","ios":"levelo://app?vid=cbd319b4-1a76-42c8-a8cd-b21cc8eba74e"},"vehicle_type_id":"4","last_reported":1778851728,"current_range_meters":3600,"station_id":"","pricing_plan_id":"cebpf4jnsgd1na2vs0mg"},{"bike_id":"e9657b53-797c-49a3-9f4c-7f82b7b0caa0","system_id":"levelo_inurba_marseille","lat":43.262142,"lon":5.374365,"is_reserved":false,"is_disabled":false,"rental_uris":{"android":"levelo://app?vid=e9657b53-797c-49a3-9f4c-7f82b7b0caa0","ios":"levelo://app?vid=e9657b53-797c-49a3-9f4c-7f82b7b0caa0"},"vehicle_type_id":"4","last_reported":1778851728,"current_range_meters":3600,"station_id":"ce4bhgp2rcd13ifvqfc0","pricing_plan_id":"cebpf4jnsgd1na2vs0mg"},{"bike_id":"41bff841-c61e-4654-92a5-45cbc8150c25","system_id":"levelo_inurba_marseille","lat":43.29562,"lon":5.3752,"is_reserved":false,"is_disabled":false,"rental_uris":{"android":"levelo://app?vid=41bff841-c61e-4654-92a5-45cbc8150c25","ios":"levelo://app?vid=41bff841-c61e-4654-92a5-45cbc8150c25"},"vehicle_type_id":"4","last_reported":1778851728,"current_range_meters":3600,"station_id":"ce4bgh92rcd13ifvqb50","pricing_plan_id":"cebpf4jnsgd1na2vs0mg"},{"bike_id":"bc3e2317-489a-4743-a795-621787894da6","system_id":"levelo_inurba_marseille","lat":43.23889,"lon":5.37471,"is_reserved":false,"is_disabled":false,"rental_uris":{"android":"levelo://app?vid=bc3e2317-489a-4743-a795-621787894da6","ios":"levelo://app?vid=bc3e2317-489a-4743-a795-621787894da6"},"vehicle_type_id":"4","last_reported":1778851728,"current_range_meters":3600,"station_id":"st_d6sm7csbq4hs73f8fpjg","pricing_plan_id":"cebpf4jnsgd1na2vs0mg"},{"bike_id":"46af62e2-01eb-47a1-9899-3f461f8b2e73","system_id":"levelo_inurba_marseille","lat":43.3415,"lon":5.40896,"is_reserved":false,"is_disabled":false,"rental_uris":{"android":"levelo://app?vid=46af62e2-01eb-47a1-9899-3f461f8b2e73","ios":"levelo://app?vid=46af62e2-01eb-47a1-9899-3f461f8b2e73"},"vehicle_type_id":"4","last_reported":1778851728,"current_range_meters":3600,"station_id":"ce4bhqh2rcd13ifvqhlg","pricing_plan_id":"cebpf4jnsgd1na2vs0mg"},{"bike_id":"0caa6e24-40af-444f-bb60-106d12241bd4","system_id":"levelo_inurba_marseille","lat":43.32087,"lon":5.36797,"is_reserved":false,"is_disabled":false,"rental_uris":{"android":"levelo://app?vid=0caa6e24-40af-444f-bb60-106d12241bd4","ios":"levelo://app?vid=0caa6e24-40af-444f-bb60-106d12241bd4"},"vehicle_type_id":"4","last_reported":1778851728,"current_range_meters":3600,"station_id":"ce4bhrh2rcd13ifvqhug","pricing_plan_id":"cebpf4jnsgd1na2vs0mg"},{"bike_id":"639b36eb-1504-4ea3-b2eb-e4e6e588d060","system_id":"levelo_inurba_marseille","lat":43.28444,"lon":5.39205,"is_reserved":false,"is_disabled":false,"rental_uris":{"android":"levelo://app?vid=639b36eb-1504-4ea3-b2eb-e4e6e588d060","ios":"levelo://app?vid=639b36eb-1504-4ea3-b2eb-e4e6e588d060"},"vehicle_type_id":"4","last_reported":1778851728,"current_range_meters":3600,"station_id":"ce4bhoh2rcd13ifvqh5g","pricing_plan_id":"cebpf4jnsgd1na2vs0mg"},{"bike_id":"d2d34ecd-2327-4e3b-801c-4f86c48483f9","system_id":"levelo_inurba_marseille","lat":43.29915,"lon":5.4366,"is_reserved":false,"is_disabled":false,"rental_uris":{"android":"levelo://app?vid=d2d34ecd-2327-4e3b-801c-4f86c48483f9","ios":"levelo://app?vid=d2d34ecd-2327-4e3b-801c-4f86c48483f9"},"vehicle_type_id":"4","last_reported":1778851728,"current_range_meters":3600,"station_id":"ce4bhpp2rcd13ifvqhfg","pricing_plan_id":"cebpf4jnsgd1na2vs0mg"},{"bike_id":"f605b646-2f64-4878-92c7-abdedf11d35a","system_id":"levelo_inurba_marseille","lat":43.29851,"lon":5.362861,"is_reserved":false,"is_disabled":false,"rental_uris":{"android":"levelo://app?vid=f605b646-2f64-4878-92c7-abdedf11d35a","ios":"levelo://app?vid=f605b646-2f64-4878-92c7-abdedf11d35a"},"vehicle_type_id":"4","last_reported":1778851728,"current_range_meters":3600,"station_id":"ce4bgpp2rcd13ifvqc3g","pricing_plan_id":"cebpf4jnsgd1na2vs0mg"},{"bike_id":"feb9b5cb-fbd8-4ff6-90c7-d58a8199e3b5","system_id":"levelo_inurba_marseille","lat":43.22564,"lon":5.41621,"is_reserved":false,"is_disabled":false,"rental_uris":{"android":"levelo://app?vid=feb9b5cb-fbd8-4ff6-90c7-d58a8199e3b5","ios":"levelo://app?vid=feb9b5cb-fbd8-4ff6-90c7-d58a8199e3b5"},"vehicle_type_id":"4","last_reported":1778851728,"current_range_meters":3600,"station_id":"st_d2o4gvlbi1j2169b742g","pricing_plan_id":"cebpf4jnsgd1na2vs0mg"},{"bike_id":"e4795ebb-fa01-470e-b7a8-9dee1cfc0a71","system_id":"levelo_inurba_marseille","lat":43.24482,"lon":5.42517,"is_reserved":false,"is_disabled":false,"rental_uris":{"android":"levelo://app?vid=e4795ebb-fa01-470e-b7a8-9dee1cfc0a71","ios":"levelo://app?vid=e4795ebb-fa01-470e-b7a8-9dee1cfc0a71"},"vehicle_type_id":"4","last_reported":1778851728,"current_range_meters":4000,"station_id":"st_d4a3vfp97mjs738cd8kg","pricing_plan_id":"cebpf4jnsgd1na2vs0mg"},{"bike_id":"eb3d4ad3-e107-406a-b64d-35e58ed665f9","system_id":"levelo_inurba_marseille","lat":43.30377,"lon":5.42503,"is_reserved":false,"is_disabled":false,"rental_uris":{"android":"levelo://app?vid=eb3d4ad3-e107-406a-b64d-35e58ed665f9","ios":"levelo://app?vid=eb3d4ad3-e107-406a-b64d-35e58ed665f9"},"vehicle_type_id":"4","last_reported":1778851728,"current_range_meters":4000,"station_id":"ce4bhoh2rcd13ifvqh6g","pricing_plan_id":"cebpf4jnsgd1na2vs0mg"},{"bike_id":"3a1c6421-b1f1-4815-98d6-6656e3a2cdb0","system_id":"levelo_inurba_marseille","lat":43.30591,"lon":5.39359,"is_reserved":false,"is_disabled":false,"rental_uris":{"android":"levelo://app?vid=3a1c6421-b1f1-4815-98d6-6656e3a2cdb0","ios":"levelo://app?vid=3a1c6421-b1f1-4815-98d6-6656e3a2cdb0"},"vehicle_type_id":"4","last_reported":1778851728,"current_range_meters":4000,"station_id":"ce4bh0p2rcd13ifvqd80","pricing_plan_id":"cebpf4jnsgd1na2vs0mg"},{"bike_id":"74c567f7-b93d-4d5d-9193-98b4977fe01a","system_id":"levelo_inurba_marseille","lat":43.27587,"lon":5.39526,"is_reserved":false,"is_disabled":false,"rental_uris":{"android":"levelo://app?vid=74c567f7-b93d-4d5d-9193-98b4977fe01a","ios":"levelo://app?vid=74c567f7-b93d-4d5d-9193-98b4977fe01a"},"vehicle_type_id":"4","last_reported":1778851728,"current_range_meters":4000,"station_id":"","pricing_plan_id":"cebpf4jnsgd1na2vs0mg"},{"bike_id":"d5b6711a-3138-4235-99c6-6b655f0f08bf","system_id":"levelo_inurba_marseille","lat":43.298,"lon":5.38099,"is_reserved":false,"is_disabled":false,"rental_uris":{"android":"levelo://app?vid=d5b6711a-3138-4235-99c6-6b655f0f08bf","ios":"levelo://app?vid=d5b6711a-3138-4235-99c6-6b655f0f08bf"},"vehicle_type_id":"4","last_reported":1778851728,"current_range_meters":4000,"station_id":"ce4bgip2rcd13ifvqbb0","pricing_plan_id":"cebpf4jnsgd1na2vs0mg"},{"bike_id":"34cc4d3a-e7bf-4318-861e-844fc97a8b48","system_id":"levelo_inurba_marseille","lat":43.33174,"lon":5.40668,"is_reserved":false,"is_disabled":false,"rental_uris":{"android":"levelo://app?vid=34cc4d3a-e7bf-4318-861e-844fc97a8b48","ios":"levelo://app?vid=34cc4d3a-e7bf-4318-861e-844fc97a8b48"},"vehicle_type_id":"4","last_reported":1778851728,"current_range_meters":4000,"station_id":"","pricing_plan_id":"cebpf4jnsgd1na2vs0mg"},{"bike_id":"b09163e0-3ab7-4bd6-a7d3-9392baff8657","system_id":"levelo_inurba_marseille","lat":43.28266,"lon":5.35057,"is_reserved":false,"is_disabled":false,"rental_uris":{"android":"levelo://app?vid=b09163e0-3ab7-4bd6-a7d3-9392baff8657","ios":"levelo://app?vid=b09163e0-3ab7-4bd6-a7d3-9392baff8657"},"vehicle_type_id":"4","last_reported":1778851728,"current_range_meters":4000,"station_id":"ce4bhbp2rcd13ifvqerg","pricing_plan_id":"cebpf4jnsgd1na2vs0mg"},{"bike_id":"f61bd6b5-2fc0-4815-842c-74552042b784","system_id":"levelo_inurba_marseille","lat":43.28704,"lon":5.46674,"is_reserved":false,"is_disabled":false,"rental_uris":{"android":"levelo://app?vid=f61bd6b5-2fc0-4815-842c-74552042b784","ios":"levelo://app?vid=f61bd6b5-2fc0-4815-842c-74552042b784"},"vehicle_type_id":"4","last_reported":1778851728,"current_range_meters":4400,"station_id":"st_d6tc3vkotcvc738tfjhg","pricing_plan_id":"cebpf4jnsgd1na2vs0mg"},{"bike_id":"56ba737e-5af2-48ca-9a2a-a2ca64f0f3f9","system_id":"levelo_inurba_marseille","lat":43.23194,"lon":5.35555,"is_reserved":false,"is_disabled":false,"rental_uris":{"android":"levelo://app?vid=56ba737e-5af2-48ca-9a2a-a2ca64f0f3f9","ios":"levelo://app?vid=56ba737e-5af2-48ca-9a2a-a2ca64f0f3f9"},"vehicle_type_id":"4","last_reported":1778851728,"current_range_meters":4400,"station_id":"ce4bhu92rcd13ifvqi70","pricing_plan_id":"cebpf4jnsgd1na2vs0mg"},{"bike_id":"5ce02f4a-3210-4acf-992d-4e4316cbea4f","system_id":"levelo_inurba_marseille","lat":43.28532,"lon":5.44095,"is_reserved":false,"is_disabled":false,"rental_uris":{"android":"levelo://app?vid=5ce02f4a-3210-4acf-992d-4e4316cbea4f","ios":"levelo://app?vid=5ce02f4a-3210-4acf-992d-4e4316cbea4f"},"vehicle_type_id":"4","last_reported":1778851728,"current_range_meters":4400,"station_id":"st_d3j3df2ikq2c7380ej80","pricing_plan_id":"cebpf4jnsgd1na2vs0mg"},{"bike_id":"2a1a1c04-fe23-4cb0-bc6c-5bd66926ee53","system_id":"levelo_inurba_marseille","lat":43.299747,"lon":5.384928,"is_reserved":false,"is_disabled":false,"rental_uris":{"android":"levelo://app?vid=2a1a1c04-fe23-4cb0-bc6c-5bd66926ee53","ios":"levelo://app?vid=2a1a1c04-fe23-4cb0-bc6c-5bd66926ee53"},"vehicle_type_id":"4","last_reported":1778851728,"current_range_meters":4400,"station_id":"ce4bgj92rcd13ifvqbd0","pricing_plan_id":"cebpf4jnsgd1na2vs0mg"},{"bike_id":"eb084cbe-cac3-4759-8e5a-98ac9d667863","system_id":"levelo_inurba_marseille","lat":43.27426,"lon":5.3948,"is_reserved":false,"is_disabled":false,"rental_uris":{"android":"levelo://app?vid=eb084cbe-cac3-4759-8e5a-98ac9d667863","ios":"levelo://app?vid=eb084cbe-cac3-4759-8e5a-98ac9d667863"},"vehicle_type_id":"4","last_reported":1778851728,"current_range_meters":4400,"station_id":"","pricing_plan_id":"cebpf4jnsgd1na2vs0mg"},{"bike_id":"bdcc862d-4b02-49dd-a8c3-8adb99ca4e48","system_id":"levelo_inurba_marseille","lat":43.23931,"lon":5.37504,"is_reserved":false,"is_disabled":false,"rental_uris":{"android":"levelo://app?vid=bdcc862d-4b02-49dd-a8c3-8adb99ca4e48","ios":"levelo://app?vid=bdcc862d-4b02-49dd-a8c3-8adb99ca4e48"},"vehicle_type_id":"4","last_reported":1778851728,"current_range_meters":4400,"station_id":"st_d6sm7csbq4hs73f8fpjg","pricing_plan_id":"cebpf4jnsgd1na2vs0mg"},{"bike_id":"ed55d283-4a65-4427-9567-c83f5f2c0a67","system_id":"levelo_inurba_marseille","lat":43.23965,"lon":5.36624,"is_reserved":false,"is_disabled":false,"rental_uris":{"android":"levelo://app?vid=ed55d283-4a65-4427-9567-c83f5f2c0a67","ios":"levelo://app?vid=ed55d283-4a65-4427-9567-c83f5f2c0a67"},"vehicle_type_id":"4","last_reported":1778851728,"current_range_meters":4400,"station_id":"ce4bhi12rcd13ifvqfp0","pricing_plan_id":"cebpf4jnsgd1na2vs0mg"},{"bike_id":"5041e263-a003-4237-ae3b-a9f02805cfda","system_id":"levelo_inurba_marseille","lat":43.28689,"lon":5.42719,"is_reserved":false,"is_disabled":false,"rental_uris":{"android":"levelo://app?vid=5041e263-a003-4237-ae3b-a9f02805cfda","ios":"levelo://app?vid=5041e263-a003-4237-ae3b-a9f02805cfda"},"vehicle_type_id":"4","last_reported":1778851728,"current_range_meters":4400,"station_id":"","pricing_plan_id":"cebpf4jnsgd1na2vs0mg"},{"bike_id":"a3107669-75fe-4279-bf66-e7fd55c77925","system_id":"levelo_inurba_marseille","lat":43.27504,"lon":5.41601,"is_reserved":false,"is_disabled":false,"rental_uris":{"android":"levelo://app?vid=a3107669-75fe-4279-bf66-e7fd55c77925","ios":"levelo://app?vid=a3107669-75fe-4279-bf66-e7fd55c77925"},"vehicle_type_id":"4","last_reported":1778851728,"current_range_meters":4800,"station_id":"st_d6im8g6chgec73a5pndg","pricing_plan_id":"cebpf4jnsgd1na2vs0mg"},{"bike_id":"5d09f941-0b02-41c7-82a2-efc726f6823a","system_id":"levelo_inurba_marseille","lat":43.28375,"lon":5.38638,"is_reserved":false,"is_disabled":false,"rental_uris":{"android":"levelo://app?vid=5d09f941-0b02-41c7-82a2-efc726f6823a","ios":"levelo://app?vid=5d09f941-0b02-41c7-82a2-efc726f6823a"},"vehicle_type_id":"4","last_reported":1778851728,"current_range_meters":4800,"station_id":"ce4bh492rcd13ifvqdvg","pricing_plan_id":"cebpf4jnsgd1na2vs0mg"},{"bike_id":"61f5e5e4-52f0-4164-bd25-e0cc7a4a6739","system_id":"levelo_inurba_marseille","lat":43.29449,"lon":5.39764,"is_reserved":false,"is_disabled":false,"rental_uris":{"android":"levelo://app?vid=61f5e5e4-52f0-4164-bd25-e0cc7a4a6739","ios":"levelo://app?vid=61f5e5e4-52f0-4164-bd25-e0cc7a4a6739"},"vehicle_type_id":"4","last_reported":1778851728,"current_range_meters":4800,"station_id":"ce4bh3h2rcd13ifvqdo0","pricing_plan_id":"cebpf4jnsgd1na2vs0mg"},{"bike_id":"ad0759a6-21c9-42eb-a8b1-08cb8bcb6904","system_id":"levelo_inurba_marseille","lat":43.29853,"lon":5.36293,"is_reserved":false,"is_disabled":false,"rental_uris":{"android":"levelo://app?vid=ad0759a6-21c9-42eb-a8b1-08cb8bcb6904","ios":"levelo://app?vid=ad0759a6-21c9-42eb-a8b1-08cb8bcb6904"},"vehicle_type_id":"4","last_reported":1778851728,"current_range_meters":4800,"station_id":"ce4bgpp2rcd13ifvqc3g","pricing_plan_id":"cebpf4jnsgd1na2vs0mg"},{"bike_id":"9acf0c5b-300d-445f-b554-88f812edf268","system_id":"levelo_inurba_marseille","lat":43.283752,"lon":5.386363,"is_reserved":false,"is_disabled":false,"rental_uris":{"android":"levelo://app?vid=9acf0c5b-300d-445f-b554-88f812edf268","ios":"levelo://app?vid=9acf0c5b-300d-445f-b554-88f812edf268"},"vehicle_type_id":"4","last_reported":1778851728,"current_range_meters":4800,"station_id":"ce4bh492rcd13ifvqdvg","pricing_plan_id":"cebpf4jnsgd1na2vs0mg"},{"bike_id":"d6da7ba1-5781-4c90-acf5-25ddb12a07f5","system_id":"levelo_inurba_marseille","lat":43.305397,"lon":5.365548,"is_reserved":false,"is_disabled":false,"rental_uris":{"android":"levelo://app?vid=d6da7ba1-5781-4c90-acf5-25ddb12a07f5","ios":"levelo://app?vid=d6da7ba1-5781-4c90-acf5-25ddb12a07f5"},"vehicle_type_id":"4","last_reported":1778851728,"current_range_meters":4800,"station_id":"ce4bgs12rcd13ifvqcag","pricing_plan_id":"cebpf4jnsgd1na2vs0mg"},{"bike_id":"4ce039de-5c78-4dfd-b546-6d8111dcacd5","system_id":"levelo_inurba_marseille","lat":43.27207,"lon":5.39185,"is_reserved":false,"is_disabled":false,"rental_uris":{"android":"levelo://app?vid=4ce039de-5c78-4dfd-b546-6d8111dcacd5","ios":"levelo://app?vid=4ce039de-5c78-4dfd-b546-6d8111dcacd5"},"vehicle_type_id":"4","last_reported":1778851728,"current_range_meters":4800,"station_id":"ce4bhhp2rcd13ifvqfm0","pricing_plan_id":"cebpf4jnsgd1na2vs0mg"},{"bike_id":"a473a236-9174-44d9-b585-fbedda8251ef","system_id":"levelo_inurba_marseille","lat":43.27382,"lon":5.3625,"is_reserved":false,"is_disabled":false,"rental_uris":{"android":"levelo://app?vid=a473a236-9174-44d9-b585-fbedda8251ef","ios":"levelo://app?vid=a473a236-9174-44d9-b585-fbedda8251ef"},"vehicle_type_id":"4","last_reported":1778851728,"current_range_meters":4800,"station_id":"ce4bhbh2rcd13ifvqeo0","pricing_plan_id":"cebpf4jnsgd1na2vs0mg"},{"bike_id":"ffa23175-a81f-4940-89a1-bdc10ca8a98f","system_id":"levelo_inurba_marseille","lat":43.21733,"lon":5.34607,"is_reserved":false,"is_disabled":false,"rental_uris":{"android":"levelo://app?vid=ffa23175-a81f-4940-89a1-bdc10ca8a98f","ios":"levelo://app?vid=ffa23175-a81f-4940-89a1-bdc10ca8a98f"},"vehicle_type_id":"4","last_reported":1778851728,"current_range_meters":4800,"station_id":"st_cvj6r9ubvosntc0bgbag","pricing_plan_id":"cebpf4jnsgd1na2vs0mg"},{"bike_id":"093e71d1-0528-4007-a573-9e089a23ef0c","system_id":"levelo_inurba_marseille","lat":43.3096,"lon":5.38989,"is_reserved":false,"is_disabled":false,"rental_uris":{"android":"levelo://app?vid=093e71d1-0528-4007-a573-9e089a23ef0c","ios":"levelo://app?vid=093e71d1-0528-4007-a573-9e089a23ef0c"},"vehicle_type_id":"4","last_reported":1778851728,"current_range_meters":4800,"station_id":"ce4bgup2rcd13ifvqco0","pricing_plan_id":"cebpf4jnsgd1na2vs0mg"},{"bike_id":"e274e17c-c989-45d5-b305-b109876905c5","system_id":"levelo_inurba_marseille","lat":43.28533,"lon":5.44103,"is_reserved":false,"is_disabled":false,"rental_uris":{"android":"levelo://app?vid=e274e17c-c989-45d5-b305-b109876905c5","ios":"levelo://app?vid=e274e17c-c989-45d5-b305-b109876905c5"},"vehicle_type_id":"4","last_reported":1778851728,"current_range_meters":4800,"station_id":"st_d3j3df2ikq2c7380ej80","pricing_plan_id":"cebpf4jnsgd1na2vs0mg"},{"bike_id":"d3a22c91-9ae9-4590-9a5a-c01e597a7797","system_id":"levelo_inurba_marseille","lat":43.23178,"lon":5.39998,"is_reserved":false,"is_disabled":false,"rental_uris":{"android":"levelo://app?vid=d3a22c91-9ae9-4590-9a5a-c01e597a7797","ios":"levelo://app?vid=d3a22c91-9ae9-4590-9a5a-c01e597a7797"},"vehicle_type_id":"4","last_reported":1778851728,"current_range_meters":4800,"station_id":"ce4bhn12rcd13ifvqgqg","pricing_plan_id":"cebpf4jnsgd1na2vs0mg"},{"bike_id":"fb2be0ef-013d-46bf-8f29-2b202f23f6b8","system_id":"levelo_inurba_marseille","lat":43.2904,"lon":5.39957,"is_reserved":false,"is_disabled":true,"rental_uris":{"android":"levelo://app?vid=fb2be0ef-013d-46bf-8f29-2b202f23f6b8","ios":"levelo://app?vid=fb2be0ef-013d-46bf-8f29-2b202f23f6b8"},"vehicle_type_id":"4","last_reported":1778851728,"current_range_meters":4800,"station_id":"ce4bh392rcd13ifvqdm0","pricing_plan_id":"cebpf4jnsgd1na2vs0mg"},{"bike_id":"a462f177-11ba-40e3-9362-78c5b3c72547","system_id":"levelo_inurba_marseille","lat":43.28418,"lon":5.34976,"is_reserved":false,"is_disabled":false,"rental_uris":{"android":"levelo://app?vid=a462f177-11ba-40e3-9362-78c5b3c72547","ios":"levelo://app?vid=a462f177-11ba-40e3-9362-78c5b3c72547"},"vehicle_type_id":"4","last_reported":1778851728,"current_range_meters":5600,"station_id":"ce4bhbh2rcd13ifvqepg","pricing_plan_id":"cebpf4jnsgd1na2vs0mg"},{"bike_id":"bf661298-d86e-4143-a032-c6a2f8c7a2ba","system_id":"levelo_inurba_marseille","lat":43.29059,"lon":5.37159,"is_reserved":false,"is_disabled":false,"rental_uris":{"android":"levelo://app?vid=bf661298-d86e-4143-a032-c6a2f8c7a2ba","ios":"levelo://app?vid=bf661298-d86e-4143-a032-c6a2f8c7a2ba"},"vehicle_type_id":"4","last_reported":1778851728,"current_range_meters":5600,"station_id":"ce4bh5p2rcd13ifvqe4g","pricing_plan_id":"cebpf4jnsgd1na2vs0mg"},{"bike_id":"daef9730-3fd8-441e-8b3a-5d0338f4b94d","system_id":"levelo_inurba_marseille","lat":43.29783,"lon":5.37054,"is_reserved":false,"is_disabled":false,"rental_uris":{"android":"levelo://app?vid=daef9730-3fd8-441e-8b3a-5d0338f4b94d","ios":"levelo://app?vid=daef9730-3fd8-441e-8b3a-5d0338f4b94d"},"vehicle_type_id":"4","last_reported":1778851728,"current_range_meters":5600,"station_id":"ce4bgop2rcd13ifvqc1g","pricing_plan_id":"cebpf4jnsgd1na2vs0mg"},{"bike_id":"90fb7892-3c73-4308-8a58-560e0a9b2200","system_id":"levelo_inurba_marseille","lat":43.27328,"lon":5.39089,"is_reserved":false,"is_disabled":false,"rental_uris":{"android":"levelo://app?vid=90fb7892-3c73-4308-8a58-560e0a9b2200","ios":"levelo://app?vid=90fb7892-3c73-4308-8a58-560e0a9b2200"},"vehicle_type_id":"4","last_reported":1778851728,"current_range_meters":5600,"station_id":"ce4bhgp2rcd13ifvqfe0","pricing_plan_id":"cebpf4jnsgd1na2vs0mg"},{"bike_id":"6090fa7c-d32b-4fc7-91b0-2b07b09b65d4","system_id":"levelo_inurba_marseille","lat":43.27807,"lon":5.4071,"is_reserved":false,"is_disabled":false,"rental_uris":{"android":"levelo://app?vid=6090fa7c-d32b-4fc7-91b0-2b07b09b65d4","ios":"levelo://app?vid=6090fa7c-d32b-4fc7-91b0-2b07b09b65d4"},"vehicle_type_id":"4","last_reported":1778851728,"current_range_meters":5600,"station_id":"ce4bhnh2rcd13ifvqgtg","pricing_plan_id":"cebpf4jnsgd1na2vs0mg"},{"bike_id":"a6d30950-9426-4056-a129-ffab5dbdb61e","system_id":"levelo_inurba_marseille","lat":43.33534,"lon":5.37448,"is_reserved":false,"is_disabled":false,"rental_uris":{"android":"levelo://app?vid=a6d30950-9426-4056-a129-ffab5dbdb61e","ios":"levelo://app?vid=a6d30950-9426-4056-a129-ffab5dbdb61e"},"vehicle_type_id":"4","last_reported":1778851728,"current_range_meters":5600,"station_id":"st_d46tts09ee8s73dlu43g","pricing_plan_id":"cebpf4jnsgd1na2vs0mg"},{"bike_id":"5d7d7c96-7d0a-4a28-b8ba-21c524c80a29","system_id":"levelo_inurba_marseille","lat":43.27324,"lon":5.39075,"is_reserved":false,"is_disabled":false,"rental_uris":{"android":"levelo://app?vid=5d7d7c96-7d0a-4a28-b8ba-21c524c80a29","ios":"levelo://app?vid=5d7d7c96-7d0a-4a28-b8ba-21c524c80a29"},"vehicle_type_id":"4","last_reported":1778851728,"current_range_meters":5600,"station_id":"ce4bhgp2rcd13ifvqfe0","pricing_plan_id":"cebpf4jnsgd1na2vs0mg"},{"bike_id":"fda0aa62-51fc-46ce-ba3e-5d50eb3dfab4","system_id":"levelo_inurba_marseille","lat":43.30098,"lon":5.39088,"is_reserved":false,"is_disabled":false,"rental_uris":{"android":"levelo://app?vid=fda0aa62-51fc-46ce-ba3e-5d50eb3dfab4","ios":"levelo://app?vid=fda0aa62-51fc-46ce-ba3e-5d50eb3dfab4"},"vehicle_type_id":"4","last_reported":1778851728,"current_range_meters":5600,"station_id":"ce4bh192rcd13ifvqdb0","pricing_plan_id":"cebpf4jnsgd1na2vs0mg"},{"bike_id":"ce773aa4-2bc0-4c4d-9bc9-96b9ac4f5c17","system_id":"levelo_inurba_marseille","lat":43.26174,"lon":5.37436,"is_reserved":false,"is_disabled":false,"rental_uris":{"android":"levelo://app?vid=ce773aa4-2bc0-4c4d-9bc9-96b9ac4f5c17","ios":"levelo://app?vid=ce773aa4-2bc0-4c4d-9bc9-96b9ac4f5c17"},"vehicle_type_id":"4","last_reported":1778851728,"current_range_meters":6000,"station_id":"ce4bhgp2rcd13ifvqfc0","pricing_plan_id":"cebpf4jnsgd1na2vs0mg"},{"bike_id":"e0d54501-af5c-474c-b1ec-460b3915ba82","system_id":"levelo_inurba_marseille","lat":43.23145,"lon":5.43709,"is_reserved":false,"is_disabled":false,"rental_uris":{"android":"levelo://app?vid=e0d54501-af5c-474c-b1ec-460b3915ba82","ios":"levelo://app?vid=e0d54501-af5c-474c-b1ec-460b3915ba82"},"vehicle_type_id":"4","last_reported":1778851728,"current_range_meters":6000,"station_id":"ce4bhmp2rcd13ifvqgog","pricing_plan_id":"cebpf4jnsgd1na2vs0mg"},{"bike_id":"74a61b2c-bd35-4165-b319-44a23f83b750","system_id":"levelo_inurba_marseille","lat":43.28615,"lon":5.35105,"is_reserved":false,"is_disabled":false,"rental_uris":{"android":"levelo://app?vid=74a61b2c-bd35-4165-b319-44a23f83b750","ios":"levelo://app?vid=74a61b2c-bd35-4165-b319-44a23f83b750"},"vehicle_type_id":"4","last_reported":1778851728,"current_range_meters":6000,"station_id":"ce4bhch2rcd13ifvqeug","pricing_plan_id":"cebpf4jnsgd1na2vs0mg"},{"bike_id":"8787245e-192a-4a58-8f6d-171a097bad29","system_id":"levelo_inurba_marseille","lat":43.24811,"lon":5.37441,"is_reserved":false,"is_disabled":false,"rental_uris":{"android":"levelo://app?vid=8787245e-192a-4a58-8f6d-171a097bad29","ios":"levelo://app?vid=8787245e-192a-4a58-8f6d-171a097bad29"},"vehicle_type_id":"4","last_reported":1778851728,"current_range_meters":6000,"station_id":"ce4bhgh2rcd13ifvqfb0","pricing_plan_id":"cebpf4jnsgd1na2vs0mg"},{"bike_id":"9824cae9-b0e9-476c-9253-330e69e1e476","system_id":"levelo_inurba_marseille","lat":43.27919,"lon":5.39223,"is_reserved":false,"is_disabled":false,"rental_uris":{"android":"levelo://app?vid=9824cae9-b0e9-476c-9253-330e69e1e476","ios":"levelo://app?vid=9824cae9-b0e9-476c-9253-330e69e1e476"},"vehicle_type_id":"4","last_reported":1778851728,"current_range_meters":6000,"station_id":"","pricing_plan_id":"cebpf4jnsgd1na2vs0mg"},{"bike_id":"caa1e77b-e366-4856-92bf-877daee812e3","system_id":"levelo_inurba_marseille","lat":43.27613,"lon":5.3612,"is_reserved":false,"is_disabled":false,"rental_uris":{"android":"levelo://app?vid=caa1e77b-e366-4856-92bf-877daee812e3","ios":"levelo://app?vid=caa1e77b-e366-4856-92bf-877daee812e3"},"vehicle_type_id":"4","last_reported":1778851728,"current_range_meters":6000,"station_id":"ce4bgj92rcd13ifvqbe0","pricing_plan_id":"cebpf4jnsgd1na2vs0mg"},{"bike_id":"95cc4cc8-3880-4bc2-b650-123840016246","system_id":"levelo_inurba_marseille","lat":43.33548,"lon":5.37474,"is_reserved":false,"is_disabled":false,"rental_uris":{"android":"levelo://app?vid=95cc4cc8-3880-4bc2-b650-123840016246","ios":"levelo://app?vid=95cc4cc8-3880-4bc2-b650-123840016246"},"vehicle_type_id":"4","last_reported":1778851728,"current_range_meters":6000,"station_id":"st_d46tts09ee8s73dlu43g","pricing_plan_id":"cebpf4jnsgd1na2vs0mg"},{"bike_id":"4ed7626c-4035-4109-b2a7-eb408a50f1c8","system_id":"levelo_inurba_marseille","lat":43.28137,"lon":5.42645,"is_reserved":false,"is_disabled":false,"rental_uris":{"android":"levelo://app?vid=4ed7626c-4035-4109-b2a7-eb408a50f1c8","ios":"levelo://app?vid=4ed7626c-4035-4109-b2a7-eb408a50f1c8"},"vehicle_type_id":"4","last_reported":1778851728,"current_range_meters":6000,"station_id":"ce4bhnh2rcd13ifvqgug","pricing_plan_id":"cebpf4jnsgd1na2vs0mg"},{"bike_id":"f3eea6d4-1b6b-45ad-bddd-3b24c1d0acd4","system_id":"levelo_inurba_marseille","lat":43.28538,"lon":5.44112,"is_reserved":false,"is_disabled":false,"rental_uris":{"android":"levelo://app?vid=f3eea6d4-1b6b-45ad-bddd-3b24c1d0acd4","ios":"levelo://app?vid=f3eea6d4-1b6b-45ad-bddd-3b24c1d0acd4"},"vehicle_type_id":"4","last_reported":1778851728,"current_range_meters":6000,"station_id":"st_d3j3df2ikq2c7380ej80","pricing_plan_id":"cebpf4jnsgd1na2vs0mg"},{"bike_id":"9a4bbf10-6cb9-4de7-b906-463c8381df6f","system_id":"levelo_inurba_marseille","lat":43.29719,"lon":5.37654,"is_reserved":false,"is_disabled":false,"rental_uris":{"android":"levelo://app?vid=9a4bbf10-6cb9-4de7-b906-463c8381df6f","ios":"levelo://app?vid=9a4bbf10-6cb9-4de7-b906-463c8381df6f"},"vehicle_type_id":"4","last_reported":1778851728,"current_range_meters":6000,"station_id":"ce4bgkh2rcd13ifvqbl0","pricing_plan_id":"cebpf4jnsgd1na2vs0mg"},{"bike_id":"84030b31-de2d-40d3-ac3b-36f8cca2402d","system_id":"levelo_inurba_marseille","lat":43.28478,"lon":5.48397,"is_reserved":false,"is_disabled":false,"rental_uris":{"android":"levelo://app?vid=84030b31-de2d-40d3-ac3b-36f8cca2402d","ios":"levelo://app?vid=84030b31-de2d-40d3-ac3b-36f8cca2402d"},"vehicle_type_id":"4","last_reported":1778851728,"current_range_meters":6000,"station_id":"","pricing_plan_id":"cebpf4jnsgd1na2vs0mg"},{"bike_id":"37dbd673-47f3-43ae-9cdc-ff90230182e1","system_id":"levelo_inurba_marseille","lat":43.262197,"lon":5.371596,"is_reserved":false,"is_disabled":true,"rental_uris":{"android":"levelo://app?vid=37dbd673-47f3-43ae-9cdc-ff90230182e1","ios":"levelo://app?vid=37dbd673-47f3-43ae-9cdc-ff90230182e1"},"vehicle_type_id":"4","last_reported":1778851728,"current_range_meters":6000,"station_id":"ce4bhgp2rcd13ifvqfc0","pricing_plan_id":"cebpf4jnsgd1na2vs0mg"},{"bike_id":"b6891aac-0884-4126-8ee5-c964eca3a759","system_id":"levelo_inurba_marseille","lat":43.29633,"lon":5.38015,"is_reserved":false,"is_disabled":false,"rental_uris":{"android":"levelo://app?vid=b6891aac-0884-4126-8ee5-c964eca3a759","ios":"levelo://app?vid=b6891aac-0884-4126-8ee5-c964eca3a759"},"vehicle_type_id":"4","last_reported":1778851728,"current_range_meters":6000,"station_id":"","pricing_plan_id":"cebpf4jnsgd1na2vs0mg"},{"bike_id":"1a614242-8796-41ed-8da1-f8230f7df4e0","system_id":"levelo_inurba_marseille","lat":43.31328,"lon":5.39701,"is_reserved":false,"is_disabled":true,"rental_uris":{"android":"levelo://app?vid=1a614242-8796-41ed-8da1-f8230f7df4e0","ios":"levelo://app?vid=1a614242-8796-41ed-8da1-f8230f7df4e0"},"vehicle_type_id":"4","last_reported":1778851728,"current_range_meters":6000,"station_id":"ce4bgvp2rcd13ifvqcu0","pricing_plan_id":"cebpf4jnsgd1na2vs0mg"},{"bike_id":"80fc9781-3a82-4256-933f-7d3ac28318f2","system_id":"levelo_inurba_marseille","lat":43.21747,"lon":5.34616,"is_reserved":false,"is_disabled":false,"rental_uris":{"android":"levelo://app?vid=80fc9781-3a82-4256-933f-7d3ac28318f2","ios":"levelo://app?vid=80fc9781-3a82-4256-933f-7d3ac28318f2"},"vehicle_type_id":"4","last_reported":1778851728,"current_range_meters":6000,"station_id":"st_cvj6r9ubvosntc0bgbag","pricing_plan_id":"cebpf4jnsgd1na2vs0mg"},{"bike_id":"cc7cfa3f-b175-4374-9f69-80fb45043698","system_id":"levelo_inurba_marseille","lat":43.31333,"lon":5.36702,"is_reserved":false,"is_disabled":false,"rental_uris":{"android":"levelo://app?vid=cc7cfa3f-b175-4374-9f69-80fb45043698","ios":"levelo://app?vid=cc7cfa3f-b175-4374-9f69-80fb45043698"},"vehicle_type_id":"4","last_reported":1778851728,"current_range_meters":6400,"station_id":"ce4bgr92rcd13ifvqc6g","pricing_plan_id":"cebpf4jnsgd1na2vs0mg"},{"bike_id":"242e35f2-0e01-41a9-9c72-895f91ae6ca0","system_id":"levelo_inurba_marseille","lat":43.25643,"lon":5.38524,"is_reserved":false,"is_disabled":false,"rental_uris":{"android":"levelo://app?vid=242e35f2-0e01-41a9-9c72-895f91ae6ca0","ios":"levelo://app?vid=242e35f2-0e01-41a9-9c72-895f91ae6ca0"},"vehicle_type_id":"4","last_reported":1778851728,"current_range_meters":6400,"station_id":"","pricing_plan_id":"cebpf4jnsgd1na2vs0mg"},{"bike_id":"38b7b14a-beb3-4b24-9112-567c53be6e0b","system_id":"levelo_inurba_marseille","lat":43.31761,"lon":5.39018,"is_reserved":false,"is_disabled":false,"rental_uris":{"android":"levelo://app?vid=38b7b14a-beb3-4b24-9112-567c53be6e0b","ios":"levelo://app?vid=38b7b14a-beb3-4b24-9112-567c53be6e0b"},"vehicle_type_id":"4","last_reported":1778851728,"current_range_meters":6400,"station_id":"ce4bhqp2rcd13ifvqhng","pricing_plan_id":"cebpf4jnsgd1na2vs0mg"},{"bike_id":"f5788782-dd1d-4383-a1a2-610f52af3124","system_id":"levelo_inurba_marseille","lat":43.28718,"lon":5.37931,"is_reserved":false,"is_disabled":false,"rental_uris":{"android":"levelo://app?vid=f5788782-dd1d-4383-a1a2-610f52af3124","ios":"levelo://app?vid=f5788782-dd1d-4383-a1a2-610f52af3124"},"vehicle_type_id":"4","last_reported":1778851728,"current_range_meters":6400,"station_id":"ce4bh9p2rcd13ifvqec0","pricing_plan_id":"cebpf4jnsgd1na2vs0mg"},{"bike_id":"63c3d3dc-5d53-44c5-a692-5025e7399676","system_id":"levelo_inurba_marseille","lat":43.29291,"lon":5.37454,"is_reserved":false,"is_disabled":false,"rental_uris":{"android":"levelo://app?vid=63c3d3dc-5d53-44c5-a692-5025e7399676","ios":"levelo://app?vid=63c3d3dc-5d53-44c5-a692-5025e7399676"},"vehicle_type_id":"4","last_reported":1778851728,"current_range_meters":6400,"station_id":"ce4bgi12rcd13ifvqb70","pricing_plan_id":"cebpf4jnsgd1na2vs0mg"},{"bike_id":"c3cbd7d3-d30f-4ddf-bc57-1f6204a78169","system_id":"levelo_inurba_marseille","lat":43.23963,"lon":5.36629,"is_reserved":false,"is_disabled":false,"rental_uris":{"android":"levelo://app?vid=c3cbd7d3-d30f-4ddf-bc57-1f6204a78169","ios":"levelo://app?vid=c3cbd7d3-d30f-4ddf-bc57-1f6204a78169"},"vehicle_type_id":"4","last_reported":1778851728,"current_range_meters":6400,"station_id":"ce4bhi12rcd13ifvqfp0","pricing_plan_id":"cebpf4jnsgd1na2vs0mg"},{"bike_id":"e5c0491e-68d5-4cb2-87cf-0ff1befcedbe","system_id":"levelo_inurba_marseille","lat":43.3046,"lon":5.37915,"is_reserved":false,"is_disabled":false,"rental_uris":{"android":"levelo://app?vid=e5c0491e-68d5-4cb2-87cf-0ff1befcedbe","ios":"levelo://app?vid=e5c0491e-68d5-4cb2-87cf-0ff1befcedbe"},"vehicle_type_id":"4","last_reported":1778851728,"current_range_meters":6400,"station_id":"ce4bgup2rcd13ifvqcn0","pricing_plan_id":"cebpf4jnsgd1na2vs0mg"},{"bike_id":"9a70dcba-58e1-47a9-b9c1-3cb0aac1fbb6","system_id":"levelo_inurba_marseille","lat":43.30796,"lon":5.37655,"is_reserved":false,"is_disabled":false,"rental_uris":{"android":"levelo://app?vid=9a70dcba-58e1-47a9-b9c1-3cb0aac1fbb6","ios":"levelo://app?vid=9a70dcba-58e1-47a9-b9c1-3cb0aac1fbb6"},"vehicle_type_id":"4","last_reported":1778851728,"current_range_meters":6400,"station_id":"ce4bgv92rcd13ifvqcq0","pricing_plan_id":"cebpf4jnsgd1na2vs0mg"},{"bike_id":"792e4403-5ab3-41be-b9b8-8f77c2e4e839","system_id":"levelo_inurba_marseille","lat":43.273103,"lon":5.390595,"is_reserved":false,"is_disabled":false,"rental_uris":{"android":"levelo://app?vid=792e4403-5ab3-41be-b9b8-8f77c2e4e839","ios":"levelo://app?vid=792e4403-5ab3-41be-b9b8-8f77c2e4e839"},"vehicle_type_id":"4","last_reported":1778851728,"current_range_meters":6400,"station_id":"ce4bhgp2rcd13ifvqfe0","pricing_plan_id":"cebpf4jnsgd1na2vs0mg"},{"bike_id":"5d01d42f-9881-4ad3-b1a4-99f93e0375a8","system_id":"levelo_inurba_marseille","lat":43.29715,"lon":5.377058,"is_reserved":false,"is_disabled":false,"rental_uris":{"android":"levelo://app?vid=5d01d42f-9881-4ad3-b1a4-99f93e0375a8","ios":"levelo://app?vid=5d01d42f-9881-4ad3-b1a4-99f93e0375a8"},"vehicle_type_id":"4","last_reported":1778851728,"current_range_meters":6400,"station_id":"ce4bgkh2rcd13ifvqbl0","pricing_plan_id":"cebpf4jnsgd1na2vs0mg"},{"bike_id":"cdd48958-1dc8-4703-bfe2-c84eabb4ffd5","system_id":"levelo_inurba_marseille","lat":43.29849,"lon":5.36285,"is_reserved":false,"is_disabled":false,"rental_uris":{"android":"levelo://app?vid=cdd48958-1dc8-4703-bfe2-c84eabb4ffd5","ios":"levelo://app?vid=cdd48958-1dc8-4703-bfe2-c84eabb4ffd5"},"vehicle_type_id":"4","last_reported":1778851728,"current_range_meters":6400,"station_id":"ce4bgpp2rcd13ifvqc3g","pricing_plan_id":"cebpf4jnsgd1na2vs0mg"},{"bike_id":"6dcd8d99-502a-4f0e-a5c8-f2c7cfec4cb0","system_id":"levelo_inurba_marseille","lat":43.26384,"lon":5.40304,"is_reserved":false,"is_disabled":false,"rental_uris":{"android":"levelo://app?vid=6dcd8d99-502a-4f0e-a5c8-f2c7cfec4cb0","ios":"levelo://app?vid=6dcd8d99-502a-4f0e-a5c8-f2c7cfec4cb0"},"vehicle_type_id":"4","last_reported":1778851728,"current_range_meters":6400,"station_id":"","pricing_plan_id":"cebpf4jnsgd1na2vs0mg"},{"bike_id":"7d87cf6b-80a7-44f2-beec-b5eebeae6a2a","system_id":"levelo_inurba_marseille","lat":43.25903,"lon":5.39433,"is_reserved":false,"is_disabled":false,"rental_uris":{"android":"levelo://app?vid=7d87cf6b-80a7-44f2-beec-b5eebeae6a2a","ios":"levelo://app?vid=7d87cf6b-80a7-44f2-beec-b5eebeae6a2a"},"vehicle_type_id":"4","last_reported":1778851728,"current_range_meters":6400,"station_id":"","pricing_plan_id":"cebpf4jnsgd1na2vs0mg"},{"bike_id":"42e71ca5-2054-4a5b-8a07-dcf4e71610df","system_id":"levelo_inurba_marseille","lat":43.244641,"lon":5.42534,"is_reserved":false,"is_disabled":false,"rental_uris":{"android":"levelo://app?vid=42e71ca5-2054-4a5b-8a07-dcf4e71610df","ios":"levelo://app?vid=42e71ca5-2054-4a5b-8a07-dcf4e71610df"},"vehicle_type_id":"4","last_reported":1778851728,"current_range_meters":6400,"station_id":"st_d4a3vfp97mjs738cd8kg","pricing_plan_id":"cebpf4jnsgd1na2vs0mg"},{"bike_id":"398c274f-cb2c-452c-a097-6f22b3d5458f","system_id":"levelo_inurba_marseille","lat":43.24086,"lon":5.37726,"is_reserved":false,"is_disabled":false,"rental_uris":{"android":"levelo://app?vid=398c274f-cb2c-452c-a097-6f22b3d5458f","ios":"levelo://app?vid=398c274f-cb2c-452c-a097-6f22b3d5458f"},"vehicle_type_id":"4","last_reported":1778851728,"current_range_meters":6800,"station_id":"ce4bhnp2rcd13ifvqgvg","pricing_plan_id":"cebpf4jnsgd1na2vs0mg"},{"bike_id":"411793f2-9dd9-4f7f-968a-1d632803f29a","system_id":"levelo_inurba_marseille","lat":43.25119,"lon":5.40325,"is_reserved":false,"is_disabled":false,"rental_uris":{"android":"levelo://app?vid=411793f2-9dd9-4f7f-968a-1d632803f29a","ios":"levelo://app?vid=411793f2-9dd9-4f7f-968a-1d632803f29a"},"vehicle_type_id":"4","last_reported":1778851728,"current_range_meters":6800,"station_id":"ce4bhlh2rcd13ifvqgig","pricing_plan_id":"cebpf4jnsgd1na2vs0mg"},{"bike_id":"bc2749e2-e151-4b56-ae5c-fe36f425e50b","system_id":"levelo_inurba_marseille","lat":43.27621,"lon":5.36107,"is_reserved":false,"is_disabled":false,"rental_uris":{"android":"levelo://app?vid=bc2749e2-e151-4b56-ae5c-fe36f425e50b","ios":"levelo://app?vid=bc2749e2-e151-4b56-ae5c-fe36f425e50b"},"vehicle_type_id":"4","last_reported":1778851728,"current_range_meters":6800,"station_id":"ce4bgj92rcd13ifvqbe0","pricing_plan_id":"cebpf4jnsgd1na2vs0mg"},{"bike_id":"cba2ed58-a5f4-40cf-9d09-e60f92fe10a6","system_id":"levelo_inurba_marseille","lat":43.290069,"lon":5.356126,"is_reserved":false,"is_disabled":false,"rental_uris":{"android":"levelo://app?vid=cba2ed58-a5f4-40cf-9d09-e60f92fe10a6","ios":"levelo://app?vid=cba2ed58-a5f4-40cf-9d09-e60f92fe10a6"},"vehicle_type_id":"4","last_reported":1778851728,"current_range_meters":6800,"station_id":"ce4bhb92rcd13ifvqen0","pricing_plan_id":"cebpf4jnsgd1na2vs0mg"},{"bike_id":"6cb7ec57-7a1b-4690-b242-f12ae8ee8544","system_id":"levelo_inurba_marseille","lat":43.30365,"lon":5.41883,"is_reserved":false,"is_disabled":false,"rental_uris":{"android":"levelo://app?vid=6cb7ec57-7a1b-4690-b242-f12ae8ee8544","ios":"levelo://app?vid=6cb7ec57-7a1b-4690-b242-f12ae8ee8544"},"vehicle_type_id":"4","last_reported":1778851728,"current_range_meters":6800,"station_id":"ce4bhop2rcd13ifvqh7g","pricing_plan_id":"cebpf4jnsgd1na2vs0mg"},{"bike_id":"e6cb1df4-9ad4-44a6-9271-cfe63cc286b7","system_id":"levelo_inurba_marseille","lat":43.28914,"lon":5.36224,"is_reserved":false,"is_disabled":false,"rental_uris":{"android":"levelo://app?vid=e6cb1df4-9ad4-44a6-9271-cfe63cc286b7","ios":"levelo://app?vid=e6cb1df4-9ad4-44a6-9271-cfe63cc286b7"},"vehicle_type_id":"4","last_reported":1778851728,"current_range_meters":6800,"station_id":"","pricing_plan_id":"cebpf4jnsgd1na2vs0mg"},{"bike_id":"5fb4c1a0-828e-4210-8039-2c3b382e5163","system_id":"levelo_inurba_marseille","lat":43.30513,"lon":5.36515,"is_reserved":false,"is_disabled":false,"rental_uris":{"android":"levelo://app?vid=5fb4c1a0-828e-4210-8039-2c3b382e5163","ios":"levelo://app?vid=5fb4c1a0-828e-4210-8039-2c3b382e5163"},"vehicle_type_id":"4","last_reported":1778851728,"current_range_meters":6800,"station_id":"","pricing_plan_id":"cebpf4jnsgd1na2vs0mg"},{"bike_id":"ae26d1a7-3c75-4529-94ff-afc1a0629f52","system_id":"levelo_inurba_marseille","lat":43.26216,"lon":5.38762,"is_reserved":false,"is_disabled":false,"rental_uris":{"android":"levelo://app?vid=ae26d1a7-3c75-4529-94ff-afc1a0629f52","ios":"levelo://app?vid=ae26d1a7-3c75-4529-94ff-afc1a0629f52"},"vehicle_type_id":"4","last_reported":1778851728,"current_range_meters":6800,"station_id":"","pricing_plan_id":"cebpf4jnsgd1na2vs0mg"},{"bike_id":"d759e6d5-68e6-41b5-9afb-8af20fe9d3fe","system_id":"levelo_inurba_marseille","lat":43.24828,"lon":5.37475,"is_reserved":false,"is_disabled":false,"rental_uris":{"android":"levelo://app?vid=d759e6d5-68e6-41b5-9afb-8af20fe9d3fe","ios":"levelo://app?vid=d759e6d5-68e6-41b5-9afb-8af20fe9d3fe"},"vehicle_type_id":"4","last_reported":1778851728,"current_range_meters":6800,"station_id":"ce4bhgh2rcd13ifvqfb0","pricing_plan_id":"cebpf4jnsgd1na2vs0mg"},{"bike_id":"4b3d7435-f511-432b-9b30-fb8fcac3fe1b","system_id":"levelo_inurba_marseille","lat":43.25,"lon":5.38945,"is_reserved":false,"is_disabled":false,"rental_uris":{"android":"levelo://app?vid=4b3d7435-f511-432b-9b30-fb8fcac3fe1b","ios":"levelo://app?vid=4b3d7435-f511-432b-9b30-fb8fcac3fe1b"},"vehicle_type_id":"4","last_reported":1778851728,"current_range_meters":6800,"station_id":"","pricing_plan_id":"cebpf4jnsgd1na2vs0mg"},{"bike_id":"ab178e10-1a36-4e8f-8ddc-14beec4c9974","system_id":"levelo_inurba_marseille","lat":43.21733,"lon":5.34607,"is_reserved":false,"is_disabled":false,"rental_uris":{"android":"levelo://app?vid=ab178e10-1a36-4e8f-8ddc-14beec4c9974","ios":"levelo://app?vid=ab178e10-1a36-4e8f-8ddc-14beec4c9974"},"vehicle_type_id":"4","last_reported":1778851728,"current_range_meters":6800,"station_id":"st_cvj6r9ubvosntc0bgbag","pricing_plan_id":"cebpf4jnsgd1na2vs0mg"},{"bike_id":"a54ac1cc-adda-42c7-8310-238feeb4a900","system_id":"levelo_inurba_marseille","lat":43.23968,"lon":5.36611,"is_reserved":false,"is_disabled":false,"rental_uris":{"android":"levelo://app?vid=a54ac1cc-adda-42c7-8310-238feeb4a900","ios":"levelo://app?vid=a54ac1cc-adda-42c7-8310-238feeb4a900"},"vehicle_type_id":"4","last_reported":1778851728,"current_range_meters":6800,"station_id":"ce4bhi12rcd13ifvqfp0","pricing_plan_id":"cebpf4jnsgd1na2vs0mg"},{"bike_id":"53c8a2cb-e916-43f6-941e-8990c0e09d28","system_id":"levelo_inurba_marseille","lat":43.22546,"lon":5.34897,"is_reserved":false,"is_disabled":false,"rental_uris":{"android":"levelo://app?vid=53c8a2cb-e916-43f6-941e-8990c0e09d28","ios":"levelo://app?vid=53c8a2cb-e916-43f6-941e-8990c0e09d28"},"vehicle_type_id":"4","last_reported":1778851728,"current_range_meters":6800,"station_id":"st_cvj5dfep6f1abm77gieg","pricing_plan_id":"cebpf4jnsgd1na2vs0mg"},{"bike_id":"e97cd923-226c-4499-a459-9fb29cfa2b7f","system_id":"levelo_inurba_marseille","lat":43.26025,"lon":5.37562,"is_reserved":false,"is_disabled":false,"rental_uris":{"android":"levelo://app?vid=e97cd923-226c-4499-a459-9fb29cfa2b7f","ios":"levelo://app?vid=e97cd923-226c-4499-a459-9fb29cfa2b7f"},"vehicle_type_id":"4","last_reported":1778851728,"current_range_meters":6800,"station_id":"ce4bhgh2rcd13ifvqfa0","pricing_plan_id":"cebpf4jnsgd1na2vs0mg"},{"bike_id":"890ee019-9463-4e61-bd8e-f4e3b80dc743","system_id":"levelo_inurba_marseille","lat":43.21739,"lon":5.3461,"is_reserved":false,"is_disabled":false,"rental_uris":{"android":"levelo://app?vid=890ee019-9463-4e61-bd8e-f4e3b80dc743","ios":"levelo://app?vid=890ee019-9463-4e61-bd8e-f4e3b80dc743"},"vehicle_type_id":"4","last_reported":1778851728,"current_range_meters":6800,"station_id":"st_cvj6r9ubvosntc0bgbag","pricing_plan_id":"cebpf4jnsgd1na2vs0mg"},{"bike_id":"345fd2b2-8506-4f31-8163-3a594bcabf0d","system_id":"levelo_inurba_marseille","lat":43.29959,"lon":5.38688,"is_reserved":false,"is_disabled":false,"rental_uris":{"android":"levelo://app?vid=345fd2b2-8506-4f31-8163-3a594bcabf0d","ios":"levelo://app?vid=345fd2b2-8506-4f31-8163-3a594bcabf0d"},"vehicle_type_id":"4","last_reported":1778851728,"current_range_meters":6800,"station_id":"","pricing_plan_id":"cebpf4jnsgd1na2vs0mg"},{"bike_id":"f2956f3b-433b-41af-853c-fb5499be3fce","system_id":"levelo_inurba_marseille","lat":43.24074,"lon":5.37747,"is_reserved":false,"is_disabled":false,"rental_uris":{"android":"levelo://app?vid=f2956f3b-433b-41af-853c-fb5499be3fce","ios":"levelo://app?vid=f2956f3b-433b-41af-853c-fb5499be3fce"},"vehicle_type_id":"4","last_reported":1778851728,"current_range_meters":6800,"station_id":"ce4bhnp2rcd13ifvqgvg","pricing_plan_id":"cebpf4jnsgd1na2vs0mg"},{"bike_id":"5563a6b9-7238-4df4-908d-01ec70bd30b0","system_id":"levelo_inurba_marseille","lat":43.28704,"lon":5.46684,"is_reserved":false,"is_disabled":false,"rental_uris":{"android":"levelo://app?vid=5563a6b9-7238-4df4-908d-01ec70bd30b0","ios":"levelo://app?vid=5563a6b9-7238-4df4-908d-01ec70bd30b0"},"vehicle_type_id":"4","last_reported":1778851728,"current_range_meters":6800,"station_id":"st_d6tc3vkotcvc738tfjhg","pricing_plan_id":"cebpf4jnsgd1na2vs0mg"},{"bike_id":"d3090a98-9f9d-4b2c-8e56-15d12f24405a","system_id":"levelo_inurba_marseille","lat":43.30462,"lon":5.379,"is_reserved":false,"is_disabled":false,"rental_uris":{"android":"levelo://app?vid=d3090a98-9f9d-4b2c-8e56-15d12f24405a","ios":"levelo://app?vid=d3090a98-9f9d-4b2c-8e56-15d12f24405a"},"vehicle_type_id":"4","last_reported":1778851728,"current_range_meters":7200,"station_id":"ce4bgup2rcd13ifvqcn0","pricing_plan_id":"cebpf4jnsgd1na2vs0mg"},{"bike_id":"badddb26-98a1-4b3f-8837-c80c7ed20a71","system_id":"levelo_inurba_marseille","lat":43.24806,"lon":5.37449,"is_reserved":false,"is_disabled":false,"rental_uris":{"android":"levelo://app?vid=badddb26-98a1-4b3f-8837-c80c7ed20a71","ios":"levelo://app?vid=badddb26-98a1-4b3f-8837-c80c7ed20a71"},"vehicle_type_id":"4","last_reported":1778851728,"current_range_meters":7200,"station_id":"ce4bhgh2rcd13ifvqfb0","pricing_plan_id":"cebpf4jnsgd1na2vs0mg"},{"bike_id":"438446b2-9c2b-41f6-bf40-0d7f72b445b8","system_id":"levelo_inurba_marseille","lat":43.30374,"lon":5.42481,"is_reserved":false,"is_disabled":false,"rental_uris":{"android":"levelo://app?vid=438446b2-9c2b-41f6-bf40-0d7f72b445b8","ios":"levelo://app?vid=438446b2-9c2b-41f6-bf40-0d7f72b445b8"},"vehicle_type_id":"4","last_reported":1778851728,"current_range_meters":7200,"station_id":"ce4bhoh2rcd13ifvqh6g","pricing_plan_id":"cebpf4jnsgd1na2vs0mg"},{"bike_id":"4422d873-64c5-42e7-b4e7-d7ec147361c9","system_id":"levelo_inurba_marseille","lat":43.23801,"lon":5.36651,"is_reserved":false,"is_disabled":false,"rental_uris":{"android":"levelo://app?vid=4422d873-64c5-42e7-b4e7-d7ec147361c9","ios":"levelo://app?vid=4422d873-64c5-42e7-b4e7-d7ec147361c9"},"vehicle_type_id":"4","last_reported":1778851728,"current_range_meters":7200,"station_id":"st_d3nk18o9ro0c73en2l3g","pricing_plan_id":"cebpf4jnsgd1na2vs0mg"},{"bike_id":"eeddb46a-660c-4c2a-88f3-ace119d3b7da","system_id":"levelo_inurba_marseille","lat":43.337444,"lon":5.374475,"is_reserved":false,"is_disabled":true,"rental_uris":{"android":"levelo://app?vid=eeddb46a-660c-4c2a-88f3-ace119d3b7da","ios":"levelo://app?vid=eeddb46a-660c-4c2a-88f3-ace119d3b7da"},"vehicle_type_id":"4","last_reported":1778851728,"current_range_meters":7200,"station_id":"","pricing_plan_id":"cebpf4jnsgd1na2vs0mg"},{"bike_id":"9ecb6aa8-ffd7-4953-959c-fcee15750565","system_id":"levelo_inurba_marseille","lat":43.29511,"lon":5.37504,"is_reserved":false,"is_disabled":false,"rental_uris":{"android":"levelo://app?vid=9ecb6aa8-ffd7-4953-959c-fcee15750565","ios":"levelo://app?vid=9ecb6aa8-ffd7-4953-959c-fcee15750565"},"vehicle_type_id":"4","last_reported":1778851728,"current_range_meters":7200,"station_id":"ce4bgkp2rcd13ifvqbmg","pricing_plan_id":"cebpf4jnsgd1na2vs0mg"},{"bike_id":"08f4c141-e72f-4502-92c9-f7b5f8c0beed","system_id":"levelo_inurba_marseille","lat":43.29034,"lon":5.386452,"is_reserved":false,"is_disabled":false,"rental_uris":{"android":"levelo://app?vid=08f4c141-e72f-4502-92c9-f7b5f8c0beed","ios":"levelo://app?vid=08f4c141-e72f-4502-92c9-f7b5f8c0beed"},"vehicle_type_id":"4","last_reported":1778851728,"current_range_meters":7200,"station_id":"ce4bh4p2rcd13ifvqe0g","pricing_plan_id":"cebpf4jnsgd1na2vs0mg"},{"bike_id":"89fc5d05-7ba2-46a8-9d7c-44c2fd1701e1","system_id":"levelo_inurba_marseille","lat":43.30455,"lon":5.37927,"is_reserved":false,"is_disabled":false,"rental_uris":{"android":"levelo://app?vid=89fc5d05-7ba2-46a8-9d7c-44c2fd1701e1","ios":"levelo://app?vid=89fc5d05-7ba2-46a8-9d7c-44c2fd1701e1"},"vehicle_type_id":"4","last_reported":1778851728,"current_range_meters":7200,"station_id":"ce4bgup2rcd13ifvqcn0","pricing_plan_id":"cebpf4jnsgd1na2vs0mg"},{"bike_id":"ab09592c-d3fd-41a1-b63e-bb30a60efd26","system_id":"levelo_inurba_marseille","lat":43.3108,"lon":5.4243,"is_reserved":false,"is_disabled":false,"rental_uris":{"android":"levelo://app?vid=ab09592c-d3fd-41a1-b63e-bb30a60efd26","ios":"levelo://app?vid=ab09592c-d3fd-41a1-b63e-bb30a60efd26"},"vehicle_type_id":"4","last_reported":1778851728,"current_range_meters":7200,"station_id":"ce4bhp92rcd13ifvqhag","pricing_plan_id":"cebpf4jnsgd1na2vs0mg"},{"bike_id":"f7858d5d-52fd-4158-8cd5-61106d18d287","system_id":"levelo_inurba_marseille","lat":43.23143,"lon":5.43695,"is_reserved":false,"is_disabled":false,"rental_uris":{"android":"levelo://app?vid=f7858d5d-52fd-4158-8cd5-61106d18d287","ios":"levelo://app?vid=f7858d5d-52fd-4158-8cd5-61106d18d287"},"vehicle_type_id":"4","last_reported":1778851728,"current_range_meters":7200,"station_id":"ce4bhmp2rcd13ifvqgog","pricing_plan_id":"cebpf4jnsgd1na2vs0mg"},{"bike_id":"b13f7fe0-2053-4a18-a5e6-dd60bfd1d9fb","system_id":"levelo_inurba_marseille","lat":43.31345,"lon":5.36718,"is_reserved":false,"is_disabled":false,"rental_uris":{"android":"levelo://app?vid=b13f7fe0-2053-4a18-a5e6-dd60bfd1d9fb","ios":"levelo://app?vid=b13f7fe0-2053-4a18-a5e6-dd60bfd1d9fb"},"vehicle_type_id":"4","last_reported":1778851728,"current_range_meters":7200,"station_id":"ce4bgr92rcd13ifvqc6g","pricing_plan_id":"cebpf4jnsgd1na2vs0mg"},{"bike_id":"8b4cf675-9e91-4af5-a7a7-dc94f30379c6","system_id":"levelo_inurba_marseille","lat":43.23185,"lon":5.39986,"is_reserved":false,"is_disabled":false,"rental_uris":{"android":"levelo://app?vid=8b4cf675-9e91-4af5-a7a7-dc94f30379c6","ios":"levelo://app?vid=8b4cf675-9e91-4af5-a7a7-dc94f30379c6"},"vehicle_type_id":"4","last_reported":1778851728,"current_range_meters":7200,"station_id":"ce4bhn12rcd13ifvqgqg","pricing_plan_id":"cebpf4jnsgd1na2vs0mg"},{"bike_id":"e2e29b66-e722-40b7-b955-da8add6258a7","system_id":"levelo_inurba_marseille","lat":43.22558,"lon":5.41628,"is_reserved":false,"is_disabled":false,"rental_uris":{"android":"levelo://app?vid=e2e29b66-e722-40b7-b955-da8add6258a7","ios":"levelo://app?vid=e2e29b66-e722-40b7-b955-da8add6258a7"},"vehicle_type_id":"4","last_reported":1778851728,"current_range_meters":7200,"station_id":"st_d2o4gvlbi1j2169b742g","pricing_plan_id":"cebpf4jnsgd1na2vs0mg"},{"bike_id":"813c9181-6514-49f1-a9d7-0cd9f99e630f","system_id":"levelo_inurba_marseille","lat":43.24169,"lon":5.36397,"is_reserved":false,"is_disabled":false,"rental_uris":{"android":"levelo://app?vid=813c9181-6514-49f1-a9d7-0cd9f99e630f","ios":"levelo://app?vid=813c9181-6514-49f1-a9d7-0cd9f99e630f"},"vehicle_type_id":"4","last_reported":1778851728,"current_range_meters":7200,"station_id":"cpo36qri1sfpv3e86is0","pricing_plan_id":"cebpf4jnsgd1na2vs0mg"},{"bike_id":"f003a24a-02fc-40aa-a69f-3105557c40c4","system_id":"levelo_inurba_marseille","lat":43.303007,"lon":5.392177,"is_reserved":false,"is_disabled":false,"rental_uris":{"android":"levelo://app?vid=f003a24a-02fc-40aa-a69f-3105557c40c4","ios":"levelo://app?vid=f003a24a-02fc-40aa-a69f-3105557c40c4"},"vehicle_type_id":"4","last_reported":1778851728,"current_range_meters":7200,"station_id":"ce4bgkh2rcd13ifvqbk0","pricing_plan_id":"cebpf4jnsgd1na2vs0mg"},{"bike_id":"c8a51622-f14a-4b20-9f0e-877bdb62250f","system_id":"levelo_inurba_marseille","lat":43.2736,"lon":5.36265,"is_reserved":false,"is_disabled":false,"rental_uris":{"android":"levelo://app?vid=c8a51622-f14a-4b20-9f0e-877bdb62250f","ios":"levelo://app?vid=c8a51622-f14a-4b20-9f0e-877bdb62250f"},"vehicle_type_id":"4","last_reported":1778851728,"current_range_meters":7200,"station_id":"ce4bhbh2rcd13ifvqeo0","pricing_plan_id":"cebpf4jnsgd1na2vs0mg"},{"bike_id":"06b2e0fb-359e-4952-bb40-ae45eb0dcc12","system_id":"levelo_inurba_marseille","lat":43.30945,"lon":5.39037,"is_reserved":false,"is_disabled":false,"rental_uris":{"android":"levelo://app?vid=06b2e0fb-359e-4952-bb40-ae45eb0dcc12","ios":"levelo://app?vid=06b2e0fb-359e-4952-bb40-ae45eb0dcc12"},"vehicle_type_id":"4","last_reported":1778851728,"current_range_meters":7200,"station_id":"ce4bgup2rcd13ifvqco0","pricing_plan_id":"cebpf4jnsgd1na2vs0mg"},{"bike_id":"ab449ae9-0cd1-4a14-9584-2680c4e6da16","system_id":"levelo_inurba_marseille","lat":43.31763,"lon":5.39031,"is_reserved":false,"is_disabled":false,"rental_uris":{"android":"levelo://app?vid=ab449ae9-0cd1-4a14-9584-2680c4e6da16","ios":"levelo://app?vid=ab449ae9-0cd1-4a14-9584-2680c4e6da16"},"vehicle_type_id":"4","last_reported":1778851728,"current_range_meters":7200,"station_id":"ce4bhqp2rcd13ifvqhng","pricing_plan_id":"cebpf4jnsgd1na2vs0mg"},{"bike_id":"9fa675e0-ae16-4600-b8f8-c0602634d18d","system_id":"levelo_inurba_marseille","lat":43.28935,"lon":5.39634,"is_reserved":false,"is_disabled":false,"rental_uris":{"android":"levelo://app?vid=9fa675e0-ae16-4600-b8f8-c0602634d18d","ios":"levelo://app?vid=9fa675e0-ae16-4600-b8f8-c0602634d18d"},"vehicle_type_id":"4","last_reported":1778851728,"current_range_meters":7200,"station_id":"ce4bh3h2rcd13ifvqdn0","pricing_plan_id":"cebpf4jnsgd1na2vs0mg"},{"bike_id":"a0c19f56-3c4d-4a74-a3eb-6d1c6eb516b0","system_id":"levelo_inurba_marseille","lat":43.287,"lon":5.46675,"is_reserved":false,"is_disabled":false,"rental_uris":{"android":"levelo://app?vid=a0c19f56-3c4d-4a74-a3eb-6d1c6eb516b0","ios":"levelo://app?vid=a0c19f56-3c4d-4a74-a3eb-6d1c6eb516b0"},"vehicle_type_id":"4","last_reported":1778851728,"current_range_meters":7200,"station_id":"st_d6tc3vkotcvc738tfjhg","pricing_plan_id":"cebpf4jnsgd1na2vs0mg"},{"bike_id":"ce890eaa-d7e8-4b8a-9985-0884e0f8bf4c","system_id":"levelo_inurba_marseille","lat":43.26373,"lon":5.41085,"is_reserved":false,"is_disabled":false,"rental_uris":{"android":"levelo://app?vid=ce890eaa-d7e8-4b8a-9985-0884e0f8bf4c","ios":"levelo://app?vid=ce890eaa-d7e8-4b8a-9985-0884e0f8bf4c"},"vehicle_type_id":"4","last_reported":1778851728,"current_range_meters":7200,"station_id":"st_d4e5ca6na9uc73bfl5fg","pricing_plan_id":"cebpf4jnsgd1na2vs0mg"},{"bike_id":"a637f75b-01be-4714-bb60-666338f88b4d","system_id":"levelo_inurba_marseille","lat":43.29172,"lon":5.37135,"is_reserved":false,"is_disabled":false,"rental_uris":{"android":"levelo://app?vid=a637f75b-01be-4714-bb60-666338f88b4d","ios":"levelo://app?vid=a637f75b-01be-4714-bb60-666338f88b4d"},"vehicle_type_id":"4","last_reported":1778851728,"current_range_meters":8000,"station_id":"ce4bha92rcd13ifvqeh0","pricing_plan_id":"cebpf4jnsgd1na2vs0mg"},{"bike_id":"b2adc4ff-8ece-4d2f-a004-41df0e64da8b","system_id":"levelo_inurba_marseille","lat":43.29787,"lon":5.38136,"is_reserved":false,"is_disabled":false,"rental_uris":{"android":"levelo://app?vid=b2adc4ff-8ece-4d2f-a004-41df0e64da8b","ios":"levelo://app?vid=b2adc4ff-8ece-4d2f-a004-41df0e64da8b"},"vehicle_type_id":"4","last_reported":1778851728,"current_range_meters":8000,"station_id":"ce4bgip2rcd13ifvqbb0","pricing_plan_id":"cebpf4jnsgd1na2vs0mg"},{"bike_id":"b91e9388-76f4-4629-bbe9-5722b0f37773","system_id":"levelo_inurba_marseille","lat":43.2982,"lon":5.38657,"is_reserved":false,"is_disabled":false,"rental_uris":{"android":"levelo://app?vid=b91e9388-76f4-4629-bbe9-5722b0f37773","ios":"levelo://app?vid=b91e9388-76f4-4629-bbe9-5722b0f37773"},"vehicle_type_id":"4","last_reported":1778851728,"current_range_meters":8000,"station_id":"","pricing_plan_id":"cebpf4jnsgd1na2vs0mg"},{"bike_id":"984f46dd-c348-4e82-be9f-e1ee573bad70","system_id":"levelo_inurba_marseille","lat":43.28602,"lon":5.37068,"is_reserved":false,"is_disabled":true,"rental_uris":{"android":"levelo://app?vid=984f46dd-c348-4e82-be9f-e1ee573bad70","ios":"levelo://app?vid=984f46dd-c348-4e82-be9f-e1ee573bad70"},"vehicle_type_id":"4","last_reported":1778851728,"current_range_meters":8000,"station_id":"ce4bht12rcd13ifvqi60","pricing_plan_id":"cebpf4jnsgd1na2vs0mg"},{"bike_id":"ce56d14b-ad59-450a-be58-58ca7149fb4b","system_id":"levelo_inurba_marseille","lat":43.2667,"lon":5.37248,"is_reserved":false,"is_disabled":false,"rental_uris":{"android":"levelo://app?vid=ce56d14b-ad59-450a-be58-58ca7149fb4b","ios":"levelo://app?vid=ce56d14b-ad59-450a-be58-58ca7149fb4b"},"vehicle_type_id":"4","last_reported":1778851728,"current_range_meters":8000,"station_id":"","pricing_plan_id":"cebpf4jnsgd1na2vs0mg"},{"bike_id":"e2eee655-6946-45b4-a875-38201f0d71ee","system_id":"levelo_inurba_marseille","lat":43.29597,"lon":5.38091,"is_reserved":false,"is_disabled":true,"rental_uris":{"android":"levelo://app?vid=e2eee655-6946-45b4-a875-38201f0d71ee","ios":"levelo://app?vid=e2eee655-6946-45b4-a875-38201f0d71ee"},"vehicle_type_id":"4","last_reported":1778851728,"current_range_meters":8000,"station_id":"ce4bgl12rcd13ifvqbo0","pricing_plan_id":"cebpf4jnsgd1na2vs0mg"},{"bike_id":"468d411a-be62-4df0-b102-b00dd4bae91a","system_id":"levelo_inurba_marseille","lat":43.3105,"lon":5.37199,"is_reserved":false,"is_disabled":false,"rental_uris":{"android":"levelo://app?vid=468d411a-be62-4df0-b102-b00dd4bae91a","ios":"levelo://app?vid=468d411a-be62-4df0-b102-b00dd4bae91a"},"vehicle_type_id":"4","last_reported":1778851728,"current_range_meters":8000,"station_id":"st_d4kl2rp97mjs73e7tdfg","pricing_plan_id":"cebpf4jnsgd1na2vs0mg"},{"bike_id":"7f25759a-ee01-4c99-966b-586eb0f886f2","system_id":"levelo_inurba_marseille","lat":43.31494,"lon":5.37323,"is_reserved":false,"is_disabled":false,"rental_uris":{"android":"levelo://app?vid=7f25759a-ee01-4c99-966b-586eb0f886f2","ios":"levelo://app?vid=7f25759a-ee01-4c99-966b-586eb0f886f2"},"vehicle_type_id":"4","last_reported":1778851728,"current_range_meters":8000,"station_id":"ce4bgt12rcd13ifvqcd0","pricing_plan_id":"cebpf4jnsgd1na2vs0mg"},{"bike_id":"01221dca-b1d4-47d9-81c9-d1ab378819f5","system_id":"levelo_inurba_marseille","lat":43.28851,"lon":5.35851,"is_reserved":false,"is_disabled":false,"rental_uris":{"android":"levelo://app?vid=01221dca-b1d4-47d9-81c9-d1ab378819f5","ios":"levelo://app?vid=01221dca-b1d4-47d9-81c9-d1ab378819f5"},"vehicle_type_id":"4","last_reported":1778851728,"current_range_meters":8000,"station_id":"ce4bhb12rcd13ifvqem0","pricing_plan_id":"cebpf4jnsgd1na2vs0mg"},{"bike_id":"c38265ac-9e99-478d-8325-7bdb5b734b4d","system_id":"levelo_inurba_marseille","lat":43.274,"lon":5.43606,"is_reserved":false,"is_disabled":false,"rental_uris":{"android":"levelo://app?vid=c38265ac-9e99-478d-8325-7bdb5b734b4d","ios":"levelo://app?vid=c38265ac-9e99-478d-8325-7bdb5b734b4d"},"vehicle_type_id":"4","last_reported":1778851728,"current_range_meters":8000,"station_id":"","pricing_plan_id":"cebpf4jnsgd1na2vs0mg"},{"bike_id":"064a2833-a569-4c91-bc95-87dd62c1286c","system_id":"levelo_inurba_marseille","lat":43.21733,"lon":5.3461,"is_reserved":false,"is_disabled":false,"rental_uris":{"android":"levelo://app?vid=064a2833-a569-4c91-bc95-87dd62c1286c","ios":"levelo://app?vid=064a2833-a569-4c91-bc95-87dd62c1286c"},"vehicle_type_id":"4","last_reported":1778851728,"current_range_meters":8000,"station_id":"st_cvj6r9ubvosntc0bgbag","pricing_plan_id":"cebpf4jnsgd1na2vs0mg"},{"bike_id":"49a262cf-9142-4787-9084-94a4462d1063","system_id":"levelo_inurba_marseille","lat":43.22563,"lon":5.41633,"is_reserved":false,"is_disabled":false,"rental_uris":{"android":"levelo://app?vid=49a262cf-9142-4787-9084-94a4462d1063","ios":"levelo://app?vid=49a262cf-9142-4787-9084-94a4462d1063"},"vehicle_type_id":"4","last_reported":1778851728,"current_range_meters":8000,"station_id":"st_d2o4gvlbi1j2169b742g","pricing_plan_id":"cebpf4jnsgd1na2vs0mg"},{"bike_id":"460835d2-c2d1-4285-9a56-6ee5b6a9e681","system_id":"levelo_inurba_marseille","lat":43.24731,"lon":5.39287,"is_reserved":false,"is_disabled":false,"rental_uris":{"android":"levelo://app?vid=460835d2-c2d1-4285-9a56-6ee5b6a9e681","ios":"levelo://app?vid=460835d2-c2d1-4285-9a56-6ee5b6a9e681"},"vehicle_type_id":"4","last_reported":1778851728,"current_range_meters":8000,"station_id":"","pricing_plan_id":"cebpf4jnsgd1na2vs0mg"},{"bike_id":"1fb8f9cb-f8b4-43ec-8227-adf2eea3007d","system_id":"levelo_inurba_marseille","lat":43.2995,"lon":5.36538,"is_reserved":false,"is_disabled":false,"rental_uris":{"android":"levelo://app?vid=1fb8f9cb-f8b4-43ec-8227-adf2eea3007d","ios":"levelo://app?vid=1fb8f9cb-f8b4-43ec-8227-adf2eea3007d"},"vehicle_type_id":"4","last_reported":1778851728,"current_range_meters":8000,"station_id":"ce4bgm92rcd13ifvqbr0","pricing_plan_id":"cebpf4jnsgd1na2vs0mg"},{"bike_id":"9d59ae99-46a0-41fd-a98f-5098608b2362","system_id":"levelo_inurba_marseille","lat":43.24334,"lon":5.3845,"is_reserved":false,"is_disabled":false,"rental_uris":{"android":"levelo://app?vid=9d59ae99-46a0-41fd-a98f-5098608b2362","ios":"levelo://app?vid=9d59ae99-46a0-41fd-a98f-5098608b2362"},"vehicle_type_id":"4","last_reported":1778851728,"current_range_meters":8000,"station_id":"","pricing_plan_id":"cebpf4jnsgd1na2vs0mg"},{"bike_id":"c6923c86-7ad3-4fa1-9d81-7b8f2a2c3c99","system_id":"levelo_inurba_marseille","lat":43.23155,"lon":5.43694,"is_reserved":false,"is_disabled":false,"rental_uris":{"android":"levelo://app?vid=c6923c86-7ad3-4fa1-9d81-7b8f2a2c3c99","ios":"levelo://app?vid=c6923c86-7ad3-4fa1-9d81-7b8f2a2c3c99"},"vehicle_type_id":"4","last_reported":1778851728,"current_range_meters":8400,"station_id":"ce4bhmp2rcd13ifvqgog","pricing_plan_id":"cebpf4jnsgd1na2vs0mg"},{"bike_id":"be532eb8-4644-4091-af3c-ba3a4d05e1f2","system_id":"levelo_inurba_marseille","lat":43.2174,"lon":5.34613,"is_reserved":false,"is_disabled":false,"rental_uris":{"android":"levelo://app?vid=be532eb8-4644-4091-af3c-ba3a4d05e1f2","ios":"levelo://app?vid=be532eb8-4644-4091-af3c-ba3a4d05e1f2"},"vehicle_type_id":"4","last_reported":1778851728,"current_range_meters":8400,"station_id":"st_cvj6r9ubvosntc0bgbag","pricing_plan_id":"cebpf4jnsgd1na2vs0mg"},{"bike_id":"c091f5e2-eed2-4a58-b350-9e0ccf236ddd","system_id":"levelo_inurba_marseille","lat":43.24946,"lon":5.40509,"is_reserved":false,"is_disabled":false,"rental_uris":{"android":"levelo://app?vid=c091f5e2-eed2-4a58-b350-9e0ccf236ddd","ios":"levelo://app?vid=c091f5e2-eed2-4a58-b350-9e0ccf236ddd"},"vehicle_type_id":"4","last_reported":1778851728,"current_range_meters":8400,"station_id":"st_d2ngiaodas8pm72gd1h0","pricing_plan_id":"cebpf4jnsgd1na2vs0mg"},{"bike_id":"a2bcc3f9-b98c-4c26-a1ea-d7c74ac7df72","system_id":"levelo_inurba_marseille","lat":43.21745,"lon":5.34606,"is_reserved":false,"is_disabled":false,"rental_uris":{"android":"levelo://app?vid=a2bcc3f9-b98c-4c26-a1ea-d7c74ac7df72","ios":"levelo://app?vid=a2bcc3f9-b98c-4c26-a1ea-d7c74ac7df72"},"vehicle_type_id":"4","last_reported":1778851728,"current_range_meters":8400,"station_id":"st_cvj6r9ubvosntc0bgbag","pricing_plan_id":"cebpf4jnsgd1na2vs0mg"},{"bike_id":"f33e0745-2293-47fa-8d0c-c66eaa34f217","system_id":"levelo_inurba_marseille","lat":43.26966,"lon":5.38941,"is_reserved":false,"is_disabled":false,"rental_uris":{"android":"levelo://app?vid=f33e0745-2293-47fa-8d0c-c66eaa34f217","ios":"levelo://app?vid=f33e0745-2293-47fa-8d0c-c66eaa34f217"},"vehicle_type_id":"4","last_reported":1778851728,"current_range_meters":8400,"station_id":"ce4bhhh2rcd13ifvqfl0","pricing_plan_id":"cebpf4jnsgd1na2vs0mg"},{"bike_id":"983c57ab-0be0-4536-b4e6-7ff14284bfec","system_id":"levelo_inurba_marseille","lat":43.25498,"lon":5.37646,"is_reserved":false,"is_disabled":false,"rental_uris":{"android":"levelo://app?vid=983c57ab-0be0-4536-b4e6-7ff14284bfec","ios":"levelo://app?vid=983c57ab-0be0-4536-b4e6-7ff14284bfec"},"vehicle_type_id":"4","last_reported":1778851728,"current_range_meters":8400,"station_id":"ce4bhh12rcd13ifvqff0","pricing_plan_id":"cebpf4jnsgd1na2vs0mg"},{"bike_id":"63b0726f-2512-4a36-9702-6961ff4730f4","system_id":"levelo_inurba_marseille","lat":43.28608,"lon":5.35095,"is_reserved":false,"is_disabled":false,"rental_uris":{"android":"levelo://app?vid=63b0726f-2512-4a36-9702-6961ff4730f4","ios":"levelo://app?vid=63b0726f-2512-4a36-9702-6961ff4730f4"},"vehicle_type_id":"4","last_reported":1778851728,"current_range_meters":8400,"station_id":"ce4bhch2rcd13ifvqeug","pricing_plan_id":"cebpf4jnsgd1na2vs0mg"},{"bike_id":"1c1f63f7-3ceb-4593-bd95-dfb9283e1c04","system_id":"levelo_inurba_marseille","lat":43.21733,"lon":5.34604,"is_reserved":false,"is_disabled":false,"rental_uris":{"android":"levelo://app?vid=1c1f63f7-3ceb-4593-bd95-dfb9283e1c04","ios":"levelo://app?vid=1c1f63f7-3ceb-4593-bd95-dfb9283e1c04"},"vehicle_type_id":"4","last_reported":1778851728,"current_range_meters":8400,"station_id":"st_cvj6r9ubvosntc0bgbag","pricing_plan_id":"cebpf4jnsgd1na2vs0mg"},{"bike_id":"d797ad95-4f9d-4ac2-8b82-a6094fc95349","system_id":"levelo_inurba_marseille","lat":43.24984,"lon":5.38955,"is_reserved":false,"is_disabled":false,"rental_uris":{"android":"levelo://app?vid=d797ad95-4f9d-4ac2-8b82-a6094fc95349","ios":"levelo://app?vid=d797ad95-4f9d-4ac2-8b82-a6094fc95349"},"vehicle_type_id":"4","last_reported":1778851728,"current_range_meters":8400,"station_id":"","pricing_plan_id":"cebpf4jnsgd1na2vs0mg"},{"bike_id":"17689864-9fe3-496f-a09b-8854d1832ba5","system_id":"levelo_inurba_marseille","lat":43.29977,"lon":5.43006,"is_reserved":false,"is_disabled":false,"rental_uris":{"android":"levelo://app?vid=17689864-9fe3-496f-a09b-8854d1832ba5","ios":"levelo://app?vid=17689864-9fe3-496f-a09b-8854d1832ba5"},"vehicle_type_id":"4","last_reported":1778851728,"current_range_meters":8400,"station_id":"","pricing_plan_id":"cebpf4jnsgd1na2vs0mg"},{"bike_id":"2147f4c6-1b7f-480c-9d85-ab175dc6bd1e","system_id":"levelo_inurba_marseille","lat":43.28631,"lon":5.35101,"is_reserved":false,"is_disabled":false,"rental_uris":{"android":"levelo://app?vid=2147f4c6-1b7f-480c-9d85-ab175dc6bd1e","ios":"levelo://app?vid=2147f4c6-1b7f-480c-9d85-ab175dc6bd1e"},"vehicle_type_id":"4","last_reported":1778851728,"current_range_meters":8400,"station_id":"ce4bhch2rcd13ifvqeug","pricing_plan_id":"cebpf4jnsgd1na2vs0mg"},{"bike_id":"4e956bcf-0947-443f-80e8-d4a03c91a534","system_id":"levelo_inurba_marseille","lat":43.23146,"lon":5.43721,"is_reserved":false,"is_disabled":false,"rental_uris":{"android":"levelo://app?vid=4e956bcf-0947-443f-80e8-d4a03c91a534","ios":"levelo://app?vid=4e956bcf-0947-443f-80e8-d4a03c91a534"},"vehicle_type_id":"4","last_reported":1778851728,"current_range_meters":8400,"station_id":"ce4bhmp2rcd13ifvqgog","pricing_plan_id":"cebpf4jnsgd1na2vs0mg"},{"bike_id":"22aca761-3417-4ffd-a1e2-d7003bd7755b","system_id":"levelo_inurba_marseille","lat":43.24793,"lon":5.37464,"is_reserved":false,"is_disabled":false,"rental_uris":{"android":"levelo://app?vid=22aca761-3417-4ffd-a1e2-d7003bd7755b","ios":"levelo://app?vid=22aca761-3417-4ffd-a1e2-d7003bd7755b"},"vehicle_type_id":"4","last_reported":1778851728,"current_range_meters":8400,"station_id":"ce4bhgh2rcd13ifvqfb0","pricing_plan_id":"cebpf4jnsgd1na2vs0mg"},{"bike_id":"1b7ce57e-c646-4b49-8c96-2d96ec343725","system_id":"levelo_inurba_marseille","lat":43.28419,"lon":5.35022,"is_reserved":false,"is_disabled":false,"rental_uris":{"android":"levelo://app?vid=1b7ce57e-c646-4b49-8c96-2d96ec343725","ios":"levelo://app?vid=1b7ce57e-c646-4b49-8c96-2d96ec343725"},"vehicle_type_id":"4","last_reported":1778851728,"current_range_meters":8400,"station_id":"","pricing_plan_id":"cebpf4jnsgd1na2vs0mg"},{"bike_id":"58ec223d-2d95-4d22-b10b-a1606047c162","system_id":"levelo_inurba_marseille","lat":43.284775,"lon":5.384169,"is_reserved":false,"is_disabled":false,"rental_uris":{"android":"levelo://app?vid=58ec223d-2d95-4d22-b10b-a1606047c162","ios":"levelo://app?vid=58ec223d-2d95-4d22-b10b-a1606047c162"},"vehicle_type_id":"4","last_reported":1778851728,"current_range_meters":8400,"station_id":"ce4bh512rcd13ifvqe3g","pricing_plan_id":"cebpf4jnsgd1na2vs0mg"},{"bike_id":"5e9efd86-8619-4e37-ab61-fd44217d04ce","system_id":"levelo_inurba_marseille","lat":43.23061,"lon":5.355,"is_reserved":false,"is_disabled":false,"rental_uris":{"android":"levelo://app?vid=5e9efd86-8619-4e37-ab61-fd44217d04ce","ios":"levelo://app?vid=5e9efd86-8619-4e37-ab61-fd44217d04ce"},"vehicle_type_id":"4","last_reported":1778851728,"current_range_meters":8400,"station_id":"cpo3342slgdg3j2ifvpg","pricing_plan_id":"cebpf4jnsgd1na2vs0mg"},{"bike_id":"c196d6ca-31b7-47fd-8551-46a4c4500978","system_id":"levelo_inurba_marseille","lat":43.26376,"lon":5.38738,"is_reserved":false,"is_disabled":false,"rental_uris":{"android":"levelo://app?vid=c196d6ca-31b7-47fd-8551-46a4c4500978","ios":"levelo://app?vid=c196d6ca-31b7-47fd-8551-46a4c4500978"},"vehicle_type_id":"4","last_reported":1778851728,"current_range_meters":8400,"station_id":"","pricing_plan_id":"cebpf4jnsgd1na2vs0mg"},{"bike_id":"89f6c98b-c587-421b-8c79-4b13aee22ef2","system_id":"levelo_inurba_marseille","lat":43.26947,"lon":5.40285,"is_reserved":false,"is_disabled":false,"rental_uris":{"android":"levelo://app?vid=89f6c98b-c587-421b-8c79-4b13aee22ef2","ios":"levelo://app?vid=89f6c98b-c587-421b-8c79-4b13aee22ef2"},"vehicle_type_id":"4","last_reported":1778851728,"current_range_meters":8400,"station_id":"cjm6bp8fraef2m0cb0m0","pricing_plan_id":"cebpf4jnsgd1na2vs0mg"},{"bike_id":"bbf234f8-13fa-4948-b2a1-65709e170acb","system_id":"levelo_inurba_marseille","lat":43.29911,"lon":5.38145,"is_reserved":false,"is_disabled":false,"rental_uris":{"android":"levelo://app?vid=bbf234f8-13fa-4948-b2a1-65709e170acb","ios":"levelo://app?vid=bbf234f8-13fa-4948-b2a1-65709e170acb"},"vehicle_type_id":"4","last_reported":1778851728,"current_range_meters":8400,"station_id":"ce4bgj12rcd13ifvqbc0","pricing_plan_id":"cebpf4jnsgd1na2vs0mg"},{"bike_id":"93e00374-b197-4e2c-a878-e515937d670c","system_id":"levelo_inurba_marseille","lat":43.21743,"lon":5.34618,"is_reserved":false,"is_disabled":false,"rental_uris":{"android":"levelo://app?vid=93e00374-b197-4e2c-a878-e515937d670c","ios":"levelo://app?vid=93e00374-b197-4e2c-a878-e515937d670c"},"vehicle_type_id":"4","last_reported":1778851728,"current_range_meters":8400,"station_id":"st_cvj6r9ubvosntc0bgbag","pricing_plan_id":"cebpf4jnsgd1na2vs0mg"},{"bike_id":"e9e21ada-1f92-407c-8c3e-cc2dcfa81a46","system_id":"levelo_inurba_marseille","lat":43.24445,"lon":5.42516,"is_reserved":false,"is_disabled":false,"rental_uris":{"android":"levelo://app?vid=e9e21ada-1f92-407c-8c3e-cc2dcfa81a46","ios":"levelo://app?vid=e9e21ada-1f92-407c-8c3e-cc2dcfa81a46"},"vehicle_type_id":"4","last_reported":1778851728,"current_range_meters":8400,"station_id":"st_d4a3vfp97mjs738cd8kg","pricing_plan_id":"cebpf4jnsgd1na2vs0mg"},{"bike_id":"ae0451bb-c97c-4229-824d-6ea56a67c559","system_id":"levelo_inurba_marseille","lat":43.29986,"lon":5.38485,"is_reserved":false,"is_disabled":false,"rental_uris":{"android":"levelo://app?vid=ae0451bb-c97c-4229-824d-6ea56a67c559","ios":"levelo://app?vid=ae0451bb-c97c-4229-824d-6ea56a67c559"},"vehicle_type_id":"4","last_reported":1778851728,"current_range_meters":8400,"station_id":"ce4bgj92rcd13ifvqbd0","pricing_plan_id":"cebpf4jnsgd1na2vs0mg"},{"bike_id":"ac6c0519-0b97-4126-aa61-8eba91a9a14c","system_id":"levelo_inurba_marseille","lat":43.29965,"lon":5.38498,"is_reserved":false,"is_disabled":false,"rental_uris":{"android":"levelo://app?vid=ac6c0519-0b97-4126-aa61-8eba91a9a14c","ios":"levelo://app?vid=ac6c0519-0b97-4126-aa61-8eba91a9a14c"},"vehicle_type_id":"4","last_reported":1778851728,"current_range_meters":8400,"station_id":"ce4bgj92rcd13ifvqbd0","pricing_plan_id":"cebpf4jnsgd1na2vs0mg"},{"bike_id":"e2c052d8-18c2-4d1c-a78b-4f7042cd7728","system_id":"levelo_inurba_marseille","lat":43.29485,"lon":5.43293,"is_reserved":false,"is_disabled":false,"rental_uris":{"android":"levelo://app?vid=e2c052d8-18c2-4d1c-a78b-4f7042cd7728","ios":"levelo://app?vid=e2c052d8-18c2-4d1c-a78b-4f7042cd7728"},"vehicle_type_id":"4","last_reported":1778851728,"current_range_meters":8400,"station_id":"st_d3j5ugp08ojc73fj9d10","pricing_plan_id":"cebpf4jnsgd1na2vs0mg"},{"bike_id":"d678372c-d2b6-49b3-ae43-28bbe8f75d48","system_id":"levelo_inurba_marseille","lat":43.24803,"lon":5.37462,"is_reserved":false,"is_disabled":false,"rental_uris":{"android":"levelo://app?vid=d678372c-d2b6-49b3-ae43-28bbe8f75d48","ios":"levelo://app?vid=d678372c-d2b6-49b3-ae43-28bbe8f75d48"},"vehicle_type_id":"4","last_reported":1778851728,"current_range_meters":8800,"station_id":"ce4bhgh2rcd13ifvqfb0","pricing_plan_id":"cebpf4jnsgd1na2vs0mg"},{"bike_id":"cc02ea16-8ee7-483c-94e4-255435e3a079","system_id":"levelo_inurba_marseille","lat":43.3094,"lon":5.39063,"is_reserved":false,"is_disabled":false,"rental_uris":{"android":"levelo://app?vid=cc02ea16-8ee7-483c-94e4-255435e3a079","ios":"levelo://app?vid=cc02ea16-8ee7-483c-94e4-255435e3a079"},"vehicle_type_id":"4","last_reported":1778851728,"current_range_meters":8800,"station_id":"ce4bgup2rcd13ifvqco0","pricing_plan_id":"cebpf4jnsgd1na2vs0mg"},{"bike_id":"f3d0d395-1e47-4a7f-8bb1-d9f3619f6039","system_id":"levelo_inurba_marseille","lat":43.28262,"lon":5.35065,"is_reserved":false,"is_disabled":false,"rental_uris":{"android":"levelo://app?vid=f3d0d395-1e47-4a7f-8bb1-d9f3619f6039","ios":"levelo://app?vid=f3d0d395-1e47-4a7f-8bb1-d9f3619f6039"},"vehicle_type_id":"4","last_reported":1778851728,"current_range_meters":8800,"station_id":"ce4bhbp2rcd13ifvqerg","pricing_plan_id":"cebpf4jnsgd1na2vs0mg"},{"bike_id":"15dc0340-50e6-459d-bac0-d5cfcc1c418c","system_id":"levelo_inurba_marseille","lat":43.32068,"lon":5.36672,"is_reserved":false,"is_disabled":false,"rental_uris":{"android":"levelo://app?vid=15dc0340-50e6-459d-bac0-d5cfcc1c418c","ios":"levelo://app?vid=15dc0340-50e6-459d-bac0-d5cfcc1c418c"},"vehicle_type_id":"4","last_reported":1778851728,"current_range_meters":8800,"station_id":"","pricing_plan_id":"cebpf4jnsgd1na2vs0mg"},{"bike_id":"d5b5a846-4ebe-4bfb-aa12-a94a7e5be6c3","system_id":"levelo_inurba_marseille","lat":43.28254,"lon":5.3508,"is_reserved":false,"is_disabled":false,"rental_uris":{"android":"levelo://app?vid=d5b5a846-4ebe-4bfb-aa12-a94a7e5be6c3","ios":"levelo://app?vid=d5b5a846-4ebe-4bfb-aa12-a94a7e5be6c3"},"vehicle_type_id":"4","last_reported":1778851728,"current_range_meters":8800,"station_id":"ce4bhbp2rcd13ifvqerg","pricing_plan_id":"cebpf4jnsgd1na2vs0mg"},{"bike_id":"f7bb164a-cfa4-4896-bbca-5d37eb6ca95e","system_id":"levelo_inurba_marseille","lat":43.28152,"lon":5.42677,"is_reserved":false,"is_disabled":false,"rental_uris":{"android":"levelo://app?vid=f7bb164a-cfa4-4896-bbca-5d37eb6ca95e","ios":"levelo://app?vid=f7bb164a-cfa4-4896-bbca-5d37eb6ca95e"},"vehicle_type_id":"4","last_reported":1778851728,"current_range_meters":8800,"station_id":"ce4bhnh2rcd13ifvqgug","pricing_plan_id":"cebpf4jnsgd1na2vs0mg"},{"bike_id":"106a3768-237f-4d1c-b75f-cc4319249a44","system_id":"levelo_inurba_marseille","lat":43.25497,"lon":5.37647,"is_reserved":false,"is_disabled":false,"rental_uris":{"android":"levelo://app?vid=106a3768-237f-4d1c-b75f-cc4319249a44","ios":"levelo://app?vid=106a3768-237f-4d1c-b75f-cc4319249a44"},"vehicle_type_id":"4","last_reported":1778851728,"current_range_meters":8800,"station_id":"ce4bhh12rcd13ifvqff0","pricing_plan_id":"cebpf4jnsgd1na2vs0mg"},{"bike_id":"bbb2e9b3-403e-420c-876a-67b5af972756","system_id":"levelo_inurba_marseille","lat":43.33539,"lon":5.37485,"is_reserved":false,"is_disabled":false,"rental_uris":{"android":"levelo://app?vid=bbb2e9b3-403e-420c-876a-67b5af972756","ios":"levelo://app?vid=bbb2e9b3-403e-420c-876a-67b5af972756"},"vehicle_type_id":"4","last_reported":1778851728,"current_range_meters":8800,"station_id":"st_d46tts09ee8s73dlu43g","pricing_plan_id":"cebpf4jnsgd1na2vs0mg"},{"bike_id":"1e0b433e-b7c1-47b6-8751-89a3bf4513a8","system_id":"levelo_inurba_marseille","lat":43.337679,"lon":5.374413,"is_reserved":false,"is_disabled":false,"rental_uris":{"android":"levelo://app?vid=1e0b433e-b7c1-47b6-8751-89a3bf4513a8","ios":"levelo://app?vid=1e0b433e-b7c1-47b6-8751-89a3bf4513a8"},"vehicle_type_id":"4","last_reported":1778851728,"current_range_meters":8800,"station_id":"","pricing_plan_id":"cebpf4jnsgd1na2vs0mg"},{"bike_id":"6a3c3342-d6ac-49c0-9c4a-a1be386c328a","system_id":"levelo_inurba_marseille","lat":43.25511,"lon":5.37655,"is_reserved":false,"is_disabled":false,"rental_uris":{"android":"levelo://app?vid=6a3c3342-d6ac-49c0-9c4a-a1be386c328a","ios":"levelo://app?vid=6a3c3342-d6ac-49c0-9c4a-a1be386c328a"},"vehicle_type_id":"4","last_reported":1778851728,"current_range_meters":8800,"station_id":"ce4bhh12rcd13ifvqff0","pricing_plan_id":"cebpf4jnsgd1na2vs0mg"},{"bike_id":"0ab22add-5fcb-4e53-b797-29d85e88e1c1","system_id":"levelo_inurba_marseille","lat":43.30408,"lon":5.41292,"is_reserved":false,"is_disabled":false,"rental_uris":{"android":"levelo://app?vid=0ab22add-5fcb-4e53-b797-29d85e88e1c1","ios":"levelo://app?vid=0ab22add-5fcb-4e53-b797-29d85e88e1c1"},"vehicle_type_id":"4","last_reported":1778851728,"current_range_meters":8800,"station_id":"ce4bhop2rcd13ifvqh8g","pricing_plan_id":"cebpf4jnsgd1na2vs0mg"},{"bike_id":"57e51084-7c52-4c70-b795-6dc6062189fa","system_id":"levelo_inurba_marseille","lat":43.25574,"lon":5.38229,"is_reserved":false,"is_disabled":false,"rental_uris":{"android":"levelo://app?vid=57e51084-7c52-4c70-b795-6dc6062189fa","ios":"levelo://app?vid=57e51084-7c52-4c70-b795-6dc6062189fa"},"vehicle_type_id":"4","last_reported":1778851728,"current_range_meters":8800,"station_id":"ce4bhih2rcd13ifvqfs0","pricing_plan_id":"cebpf4jnsgd1na2vs0mg"},{"bike_id":"03fa94a4-9719-4e1f-a6e5-a06c2085b6fd","system_id":"levelo_inurba_marseille","lat":43.2592,"lon":5.39897,"is_reserved":false,"is_disabled":false,"rental_uris":{"android":"levelo://app?vid=03fa94a4-9719-4e1f-a6e5-a06c2085b6fd","ios":"levelo://app?vid=03fa94a4-9719-4e1f-a6e5-a06c2085b6fd"},"vehicle_type_id":"4","last_reported":1778851728,"current_range_meters":8800,"station_id":"","pricing_plan_id":"cebpf4jnsgd1na2vs0mg"},{"bike_id":"0dcbc7a0-f79d-4625-a75d-2b72aab19f9f","system_id":"levelo_inurba_marseille","lat":43.31757,"lon":5.39023,"is_reserved":false,"is_disabled":false,"rental_uris":{"android":"levelo://app?vid=0dcbc7a0-f79d-4625-a75d-2b72aab19f9f","ios":"levelo://app?vid=0dcbc7a0-f79d-4625-a75d-2b72aab19f9f"},"vehicle_type_id":"4","last_reported":1778851728,"current_range_meters":8800,"station_id":"ce4bhqp2rcd13ifvqhng","pricing_plan_id":"cebpf4jnsgd1na2vs0mg"},{"bike_id":"975afb08-ed3b-4ff7-8fa8-537348ff5f6f","system_id":"levelo_inurba_marseille","lat":43.27988,"lon":5.41663,"is_reserved":false,"is_disabled":false,"rental_uris":{"android":"levelo://app?vid=975afb08-ed3b-4ff7-8fa8-537348ff5f6f","ios":"levelo://app?vid=975afb08-ed3b-4ff7-8fa8-537348ff5f6f"},"vehicle_type_id":"4","last_reported":1778851728,"current_range_meters":8800,"station_id":"ce4bho12rcd13ifvqh1g","pricing_plan_id":"cebpf4jnsgd1na2vs0mg"},{"bike_id":"7676424e-ae93-4dc8-b5c9-a47d2813f476","system_id":"levelo_inurba_marseille","lat":43.26057,"lon":5.39392,"is_reserved":false,"is_disabled":false,"rental_uris":{"android":"levelo://app?vid=7676424e-ae93-4dc8-b5c9-a47d2813f476","ios":"levelo://app?vid=7676424e-ae93-4dc8-b5c9-a47d2813f476"},"vehicle_type_id":"4","last_reported":1778851728,"current_range_meters":8800,"station_id":"ce4bhh92rcd13ifvqfj0","pricing_plan_id":"cebpf4jnsgd1na2vs0mg"},{"bike_id":"088324df-a99f-445b-94ae-a0ac9fc8204a","system_id":"levelo_inurba_marseille","lat":43.24578,"lon":5.40242,"is_reserved":false,"is_disabled":false,"rental_uris":{"android":"levelo://app?vid=088324df-a99f-445b-94ae-a0ac9fc8204a","ios":"levelo://app?vid=088324df-a99f-445b-94ae-a0ac9fc8204a"},"vehicle_type_id":"4","last_reported":1778851728,"current_range_meters":8800,"station_id":"","pricing_plan_id":"cebpf4jnsgd1na2vs0mg"},{"bike_id":"d2a3d4d1-83c1-4f46-b174-3f4a948d80f8","system_id":"levelo_inurba_marseille","lat":43.24468,"lon":5.42534,"is_reserved":false,"is_disabled":false,"rental_uris":{"android":"levelo://app?vid=d2a3d4d1-83c1-4f46-b174-3f4a948d80f8","ios":"levelo://app?vid=d2a3d4d1-83c1-4f46-b174-3f4a948d80f8"},"vehicle_type_id":"4","last_reported":1778851728,"current_range_meters":8800,"station_id":"st_d4a3vfp97mjs738cd8kg","pricing_plan_id":"cebpf4jnsgd1na2vs0mg"},{"bike_id":"68a66dcc-1620-4149-8629-e52894f809e6","system_id":"levelo_inurba_marseille","lat":43.29986,"lon":5.3672,"is_reserved":false,"is_disabled":false,"rental_uris":{"android":"levelo://app?vid=68a66dcc-1620-4149-8629-e52894f809e6","ios":"levelo://app?vid=68a66dcc-1620-4149-8629-e52894f809e6"},"vehicle_type_id":"4","last_reported":1778851728,"current_range_meters":8800,"station_id":"","pricing_plan_id":"cebpf4jnsgd1na2vs0mg"},{"bike_id":"2a357983-68c8-4c5f-99b8-47ecc13de384","system_id":"levelo_inurba_marseille","lat":43.28536,"lon":5.44097,"is_reserved":false,"is_disabled":false,"rental_uris":{"android":"levelo://app?vid=2a357983-68c8-4c5f-99b8-47ecc13de384","ios":"levelo://app?vid=2a357983-68c8-4c5f-99b8-47ecc13de384"},"vehicle_type_id":"4","last_reported":1778851728,"current_range_meters":8800,"station_id":"st_d3j3df2ikq2c7380ej80","pricing_plan_id":"cebpf4jnsgd1na2vs0mg"},{"bike_id":"e1637388-0ddd-4f21-9e40-f4953f21c053","system_id":"levelo_inurba_marseille","lat":43.30784,"lon":5.37623,"is_reserved":false,"is_disabled":false,"rental_uris":{"android":"levelo://app?vid=e1637388-0ddd-4f21-9e40-f4953f21c053","ios":"levelo://app?vid=e1637388-0ddd-4f21-9e40-f4953f21c053"},"vehicle_type_id":"4","last_reported":1778851728,"current_range_meters":8800,"station_id":"ce4bgv92rcd13ifvqcq0","pricing_plan_id":"cebpf4jnsgd1na2vs0mg"},{"bike_id":"8ea51234-2e23-4837-8315-c2126ead9834","system_id":"levelo_inurba_marseille","lat":43.29066,"lon":5.38743,"is_reserved":false,"is_disabled":false,"rental_uris":{"android":"levelo://app?vid=8ea51234-2e23-4837-8315-c2126ead9834","ios":"levelo://app?vid=8ea51234-2e23-4837-8315-c2126ead9834"},"vehicle_type_id":"4","last_reported":1778851728,"current_range_meters":8800,"station_id":"ce4bh4p2rcd13ifvqe0g","pricing_plan_id":"cebpf4jnsgd1na2vs0mg"},{"bike_id":"9596f53e-ccea-4ac8-ba1a-493541d5c4fb","system_id":"levelo_inurba_marseille","lat":43.25145,"lon":5.42654,"is_reserved":false,"is_disabled":false,"rental_uris":{"android":"levelo://app?vid=9596f53e-ccea-4ac8-ba1a-493541d5c4fb","ios":"levelo://app?vid=9596f53e-ccea-4ac8-ba1a-493541d5c4fb"},"vehicle_type_id":"4","last_reported":1778851728,"current_range_meters":8800,"station_id":"","pricing_plan_id":"cebpf4jnsgd1na2vs0mg"},{"bike_id":"8de32dc5-b38b-4f47-bdb0-39e63f14a75b","system_id":"levelo_inurba_marseille","lat":43.217512,"lon":5.346008,"is_reserved":false,"is_disabled":false,"rental_uris":{"android":"levelo://app?vid=8de32dc5-b38b-4f47-bdb0-39e63f14a75b","ios":"levelo://app?vid=8de32dc5-b38b-4f47-bdb0-39e63f14a75b"},"vehicle_type_id":"4","last_reported":1778851728,"current_range_meters":8800,"station_id":"st_cvj6r9ubvosntc0bgbag","pricing_plan_id":"cebpf4jnsgd1na2vs0mg"},{"bike_id":"18688747-6476-411a-be61-5ac89d18aa5d","system_id":"levelo_inurba_marseille","lat":43.21757,"lon":5.34593,"is_reserved":false,"is_disabled":false,"rental_uris":{"android":"levelo://app?vid=18688747-6476-411a-be61-5ac89d18aa5d","ios":"levelo://app?vid=18688747-6476-411a-be61-5ac89d18aa5d"},"vehicle_type_id":"4","last_reported":1778851728,"current_range_meters":8800,"station_id":"st_cvj6r9ubvosntc0bgbag","pricing_plan_id":"cebpf4jnsgd1na2vs0mg"},{"bike_id":"c9e652dd-98c1-44c3-81d9-97f871701e7e","system_id":"levelo_inurba_marseille","lat":43.30221,"lon":5.39947,"is_reserved":false,"is_disabled":false,"rental_uris":{"android":"levelo://app?vid=c9e652dd-98c1-44c3-81d9-97f871701e7e","ios":"levelo://app?vid=c9e652dd-98c1-44c3-81d9-97f871701e7e"},"vehicle_type_id":"4","last_reported":1778851728,"current_range_meters":9200,"station_id":"","pricing_plan_id":"cebpf4jnsgd1na2vs0mg"},{"bike_id":"80a46f6b-3141-48c6-9675-1d51775591ed","system_id":"levelo_inurba_marseille","lat":43.27963,"lon":5.38739,"is_reserved":false,"is_disabled":false,"rental_uris":{"android":"levelo://app?vid=80a46f6b-3141-48c6-9675-1d51775591ed","ios":"levelo://app?vid=80a46f6b-3141-48c6-9675-1d51775591ed"},"vehicle_type_id":"4","last_reported":1778851728,"current_range_meters":9200,"station_id":"ce4bhg12rcd13ifvqf80","pricing_plan_id":"cebpf4jnsgd1na2vs0mg"},{"bike_id":"c4813c86-b905-42d5-843c-68fe5843ff0a","system_id":"levelo_inurba_marseille","lat":43.29708,"lon":5.36583,"is_reserved":false,"is_disabled":false,"rental_uris":{"android":"levelo://app?vid=c4813c86-b905-42d5-843c-68fe5843ff0a","ios":"levelo://app?vid=c4813c86-b905-42d5-843c-68fe5843ff0a"},"vehicle_type_id":"4","last_reported":1778851728,"current_range_meters":9200,"station_id":"ce4bgn12rcd13ifvqbt0","pricing_plan_id":"cebpf4jnsgd1na2vs0mg"},{"bike_id":"51a3b553-43b9-4536-8361-a327d68a1c5f","system_id":"levelo_inurba_marseille","lat":43.22565,"lon":5.41626,"is_reserved":false,"is_disabled":false,"rental_uris":{"android":"levelo://app?vid=51a3b553-43b9-4536-8361-a327d68a1c5f","ios":"levelo://app?vid=51a3b553-43b9-4536-8361-a327d68a1c5f"},"vehicle_type_id":"4","last_reported":1778851728,"current_range_meters":9200,"station_id":"st_d2o4gvlbi1j2169b742g","pricing_plan_id":"cebpf4jnsgd1na2vs0mg"},{"bike_id":"0f5b00f6-6614-40eb-871a-6b35b9c424ac","system_id":"levelo_inurba_marseille","lat":43.33754,"lon":5.37506,"is_reserved":false,"is_disabled":false,"rental_uris":{"android":"levelo://app?vid=0f5b00f6-6614-40eb-871a-6b35b9c424ac","ios":"levelo://app?vid=0f5b00f6-6614-40eb-871a-6b35b9c424ac"},"vehicle_type_id":"4","last_reported":1778851728,"current_range_meters":9200,"station_id":"","pricing_plan_id":"cebpf4jnsgd1na2vs0mg"},{"bike_id":"806f3b37-90b9-4700-b663-d9e911462f43","system_id":"levelo_inurba_marseille","lat":43.24176,"lon":5.36391,"is_reserved":false,"is_disabled":false,"rental_uris":{"android":"levelo://app?vid=806f3b37-90b9-4700-b663-d9e911462f43","ios":"levelo://app?vid=806f3b37-90b9-4700-b663-d9e911462f43"},"vehicle_type_id":"4","last_reported":1778851728,"current_range_meters":9200,"station_id":"cpo36qri1sfpv3e86is0","pricing_plan_id":"cebpf4jnsgd1na2vs0mg"},{"bike_id":"b9bc74fa-c34c-4652-b384-35fef20ce965","system_id":"levelo_inurba_marseille","lat":43.26579,"lon":5.39003,"is_reserved":false,"is_disabled":false,"rental_uris":{"android":"levelo://app?vid=b9bc74fa-c34c-4652-b384-35fef20ce965","ios":"levelo://app?vid=b9bc74fa-c34c-4652-b384-35fef20ce965"},"vehicle_type_id":"4","last_reported":1778851728,"current_range_meters":9200,"station_id":"ce4bhe12rcd13ifvqf30","pricing_plan_id":"cebpf4jnsgd1na2vs0mg"},{"bike_id":"92eba9bb-91af-4aac-8009-d2b9494d52c2","system_id":"levelo_inurba_marseille","lat":43.26556,"lon":5.37283,"is_reserved":false,"is_disabled":false,"rental_uris":{"android":"levelo://app?vid=92eba9bb-91af-4aac-8009-d2b9494d52c2","ios":"levelo://app?vid=92eba9bb-91af-4aac-8009-d2b9494d52c2"},"vehicle_type_id":"4","last_reported":1778851728,"current_range_meters":9200,"station_id":"ce4bhg12rcd13ifvqf70","pricing_plan_id":"cebpf4jnsgd1na2vs0mg"},{"bike_id":"142b1ff4-0402-4b41-bf70-98a64dab4377","system_id":"levelo_inurba_marseille","lat":43.23896,"lon":5.37468,"is_reserved":false,"is_disabled":true,"rental_uris":{"android":"levelo://app?vid=142b1ff4-0402-4b41-bf70-98a64dab4377","ios":"levelo://app?vid=142b1ff4-0402-4b41-bf70-98a64dab4377"},"vehicle_type_id":"4","last_reported":1778851728,"current_range_meters":9200,"station_id":"st_d6sm7csbq4hs73f8fpjg","pricing_plan_id":"cebpf4jnsgd1na2vs0mg"},{"bike_id":"51107631-6f33-48a0-af84-805d55da4f44","system_id":"levelo_inurba_marseille","lat":43.33542,"lon":5.37465,"is_reserved":false,"is_disabled":false,"rental_uris":{"android":"levelo://app?vid=51107631-6f33-48a0-af84-805d55da4f44","ios":"levelo://app?vid=51107631-6f33-48a0-af84-805d55da4f44"},"vehicle_type_id":"4","last_reported":1778851728,"current_range_meters":9200,"station_id":"st_d46tts09ee8s73dlu43g","pricing_plan_id":"cebpf4jnsgd1na2vs0mg"},{"bike_id":"3d05c2c7-d449-4d17-a6fb-bfe84884c6a8","system_id":"levelo_inurba_marseille","lat":43.31764,"lon":5.39017,"is_reserved":false,"is_disabled":false,"rental_uris":{"android":"levelo://app?vid=3d05c2c7-d449-4d17-a6fb-bfe84884c6a8","ios":"levelo://app?vid=3d05c2c7-d449-4d17-a6fb-bfe84884c6a8"},"vehicle_type_id":"4","last_reported":1778851728,"current_range_meters":9200,"station_id":"ce4bhqp2rcd13ifvqhng","pricing_plan_id":"cebpf4jnsgd1na2vs0mg"},{"bike_id":"ec552eac-1b60-408d-85e6-86153b5f4464","system_id":"levelo_inurba_marseille","lat":43.24388,"lon":5.37038,"is_reserved":false,"is_disabled":false,"rental_uris":{"android":"levelo://app?vid=ec552eac-1b60-408d-85e6-86153b5f4464","ios":"levelo://app?vid=ec552eac-1b60-408d-85e6-86153b5f4464"},"vehicle_type_id":"4","last_reported":1778851728,"current_range_meters":9200,"station_id":"ce4bhhh2rcd13ifvqfk0","pricing_plan_id":"cebpf4jnsgd1na2vs0mg"},{"bike_id":"6789bb5a-b28b-413a-bed8-bcb62491788d","system_id":"levelo_inurba_marseille","lat":43.24469,"lon":5.42538,"is_reserved":false,"is_disabled":false,"rental_uris":{"android":"levelo://app?vid=6789bb5a-b28b-413a-bed8-bcb62491788d","ios":"levelo://app?vid=6789bb5a-b28b-413a-bed8-bcb62491788d"},"vehicle_type_id":"4","last_reported":1778851728,"current_range_meters":9200,"station_id":"st_d4a3vfp97mjs738cd8kg","pricing_plan_id":"cebpf4jnsgd1na2vs0mg"},{"bike_id":"37173252-d835-458e-92e1-eb5c899a54af","system_id":"levelo_inurba_marseille","lat":43.22559,"lon":5.41627,"is_reserved":false,"is_disabled":false,"rental_uris":{"android":"levelo://app?vid=37173252-d835-458e-92e1-eb5c899a54af","ios":"levelo://app?vid=37173252-d835-458e-92e1-eb5c899a54af"},"vehicle_type_id":"4","last_reported":1778851728,"current_range_meters":9200,"station_id":"st_d2o4gvlbi1j2169b742g","pricing_plan_id":"cebpf4jnsgd1na2vs0mg"},{"bike_id":"fa8b1193-c94e-4826-8c54-ef6b8014aa83","system_id":"levelo_inurba_marseille","lat":43.270637,"lon":5.402714,"is_reserved":false,"is_disabled":false,"rental_uris":{"android":"levelo://app?vid=fa8b1193-c94e-4826-8c54-ef6b8014aa83","ios":"levelo://app?vid=fa8b1193-c94e-4826-8c54-ef6b8014aa83"},"vehicle_type_id":"4","last_reported":1778851728,"current_range_meters":9200,"station_id":"ce4bhk92rcd13ifvqgc0","pricing_plan_id":"cebpf4jnsgd1na2vs0mg"},{"bike_id":"6cbff85b-828f-4cbe-935a-5281bd690105","system_id":"levelo_inurba_marseille","lat":43.28514,"lon":5.3913,"is_reserved":false,"is_disabled":false,"rental_uris":{"android":"levelo://app?vid=6cbff85b-828f-4cbe-935a-5281bd690105","ios":"levelo://app?vid=6cbff85b-828f-4cbe-935a-5281bd690105"},"vehicle_type_id":"4","last_reported":1778851728,"current_range_meters":9200,"station_id":"","pricing_plan_id":"cebpf4jnsgd1na2vs0mg"},{"bike_id":"79bd1088-8fce-4d4a-b5e0-150b3f142ae6","system_id":"levelo_inurba_marseille","lat":43.21749,"lon":5.34614,"is_reserved":false,"is_disabled":false,"rental_uris":{"android":"levelo://app?vid=79bd1088-8fce-4d4a-b5e0-150b3f142ae6","ios":"levelo://app?vid=79bd1088-8fce-4d4a-b5e0-150b3f142ae6"},"vehicle_type_id":"4","last_reported":1778851728,"current_range_meters":9200,"station_id":"st_cvj6r9ubvosntc0bgbag","pricing_plan_id":"cebpf4jnsgd1na2vs0mg"},{"bike_id":"5cfd5589-cf97-4e29-a3b5-07f31a3e49ce","system_id":"levelo_inurba_marseille","lat":43.31896,"lon":5.36838,"is_reserved":false,"is_disabled":false,"rental_uris":{"android":"levelo://app?vid=5cfd5589-cf97-4e29-a3b5-07f31a3e49ce","ios":"levelo://app?vid=5cfd5589-cf97-4e29-a3b5-07f31a3e49ce"},"vehicle_type_id":"4","last_reported":1778851728,"current_range_meters":9200,"station_id":"st_d6o2h0d0559c73evc1b0","pricing_plan_id":"cebpf4jnsgd1na2vs0mg"},{"bike_id":"18f911d2-8991-452a-ad31-71a94db5ed8c","system_id":"levelo_inurba_marseille","lat":43.30551,"lon":5.36542,"is_reserved":false,"is_disabled":true,"rental_uris":{"android":"levelo://app?vid=18f911d2-8991-452a-ad31-71a94db5ed8c","ios":"levelo://app?vid=18f911d2-8991-452a-ad31-71a94db5ed8c"},"vehicle_type_id":"4","last_reported":1778851728,"current_range_meters":9200,"station_id":"ce4bgs12rcd13ifvqcag","pricing_plan_id":"cebpf4jnsgd1na2vs0mg"},{"bike_id":"3f34679f-5533-4667-ac59-02e29b7c4c59","system_id":"levelo_inurba_marseille","lat":43.3354,"lon":5.37499,"is_reserved":false,"is_disabled":false,"rental_uris":{"android":"levelo://app?vid=3f34679f-5533-4667-ac59-02e29b7c4c59","ios":"levelo://app?vid=3f34679f-5533-4667-ac59-02e29b7c4c59"},"vehicle_type_id":"4","last_reported":1778851728,"current_range_meters":9200,"station_id":"st_d46tts09ee8s73dlu43g","pricing_plan_id":"cebpf4jnsgd1na2vs0mg"},{"bike_id":"e3e7a7c2-4293-4932-9e2d-4ee888042848","system_id":"levelo_inurba_marseille","lat":43.29873,"lon":5.42083,"is_reserved":false,"is_disabled":false,"rental_uris":{"android":"levelo://app?vid=e3e7a7c2-4293-4932-9e2d-4ee888042848","ios":"levelo://app?vid=e3e7a7c2-4293-4932-9e2d-4ee888042848"},"vehicle_type_id":"4","last_reported":1778851728,"current_range_meters":9600,"station_id":"st_d6tc004otcvc738tfe70","pricing_plan_id":"cebpf4jnsgd1na2vs0mg"},{"bike_id":"ce97565d-2ecd-4258-81f0-298b916bf3ac","system_id":"levelo_inurba_marseille","lat":43.30787,"lon":5.38504,"is_reserved":false,"is_disabled":false,"rental_uris":{"android":"levelo://app?vid=ce97565d-2ecd-4258-81f0-298b916bf3ac","ios":"levelo://app?vid=ce97565d-2ecd-4258-81f0-298b916bf3ac"},"vehicle_type_id":"4","last_reported":1778851728,"current_range_meters":9600,"station_id":"","pricing_plan_id":"cebpf4jnsgd1na2vs0mg"},